{"keyword":"推進","data":[{"name":"＊?女性センター「ブーケ２１」","province":"東京都","city":"中央区","address":"中央区湊1-1-1","lat":35.673627,"lon":139.779352},{"name":"＊?男女平等参画センター（リーブラ）","province":"東京都","city":"港区","address":"港区芝浦3-1-47","lat":35.645579,"lon":139.749012},{"name":"＊?男女共同参画推進センター?「ウィズ新宿｣","province":"東京都","city":"新宿区","address":"新宿区荒木町16","lat":35.691521,"lon":139.724823},{"name":"＊?文京区男女平等センター","province":"東京都","city":"文京区","address":"文京区本郷4-8-3","lat":35.708552,"lon":139.757477},{"name":"＊?台東区立男女平等推進プラザ","province":"東京都","city":"台東区","address":"台東区西浅草3-25-16","lat":35.717292,"lon":139.789902},{"name":"＊?すみだ女性センター","province":"東京都","city":"墨田区","address":"墨田区押上2-12-7-111","lat":35.712682,"lon":139.81214},{"name":"＊?男女共同参画推進センター（パルシティ江東）","province":"東京都","city":"江東区","address":"江東区扇橋3-22-2","lat":35.684092,"lon":139.820184},{"name":"＊?品川区男女共同参画センター","province":"東京都","city":"品川区","address":"品川区東大井5-18-1","lat":35.606223,"lon":139.735889},{"name":"＊?目黒区男女平等・共同参画センター","province":"東京都","city":"目黒区","address":"目黒区中目黒2-10-13","lat":35.640398,"lon":139.703099},{"name":"＊?男女平等推進センター（エセナおおた）","province":"東京都","city":"大田区","address":"大田区大森北4-16-4","lat":35.583376,"lon":139.726888},{"name":"＊?男女共同参画センター?らぷらす","province":"東京都","city":"世田谷区","address":"世田谷区北沢2-8-18北沢タウンホール9~11階","lat":35.662185,"lon":139.669719},{"name":"＊?渋谷男女平等・ダイバーシティセンター＜アイリス＞","province":"東京都","city":"渋谷区","address":"渋谷区桜丘町23-21","lat":35.655458,"lon":139.699965},{"name":"＊?杉並区男女平等推進センター","province":"東京都","city":"杉並区","address":"杉並区荻窪1-56-3","lat":35.694542,"lon":139.62751},{"name":"＊?男女平等推進センター（エポック10）","province":"東京都","city":"豊島区","address":"豊島区西池袋2-37-4(としま産業振興プラザ3階)","lat":35.72773,"lon":139.706734},{"name":"＊?男女平等推進センター（アクト21）","province":"東京都","city":"荒川区","address":"荒川区東尾久5-9-3","lat":35.748265,"lon":139.768918},{"name":"＊?男女平等推進センター??スクエアー・I（あい）","province":"東京都","city":"板橋区","address":"板橋区栄町36-1グリーンホール内","lat":35.750841,"lon":139.705124},{"name":"＊?男女平等推進センター??スクエアー・I（あい）相談室","province":"東京都","city":"板橋区","address":"板橋区大山東町32-15板橋区保健所内","lat":35.750539,"lon":139.708064},{"name":"＊?男女共同参画センター","province":"東京都","city":"練馬区","address":"練馬区石神井町8-1-10","lat":35.745368,"lon":139.601726},{"name":"＊?足立区男女参画プラザ","province":"東京都","city":"足立区","address":"足立区梅田7-33-1","lat":35.770654,"lon":139.798286},{"name":"＊?男女平等推進センター","province":"東京都","city":"葛飾区","address":"葛飾区立石5-27-1","lat":35.745783,"lon":139.846325},{"name":"＊?人権・男女共同参画センター","province":"東京都","city":"江戸川区","address":"江戸川区瑞江2-9-15","lat":35.694897,"lon":139.895833},{"name":"＊?立川市女性総合センター・アイム","province":"東京都","city":"立川市","address":"立川市曙町2-36-2","lat":35.702202,"lon":139.414096},{"name":"＊?三鷹市女性交流室","province":"東京都","city":"三鷹市","address":"三鷹市下連雀3-30-12三鷹市中央通りタウンプラザ4階","lat":35.698112,"lon":139.56133},{"name":"＊?府中市女性センター","province":"東京都","city":"府中市","address":"府中市住吉町1-84","lat":35.660139,"lon":139.45846},{"name":"＊?町田市男女平等推進センター","province":"東京都","city":"町田市","address":"町田市原町田4-9-8","lat":35.541652,"lon":139.449926},{"name":"＊?男女平等推進センター","province":"東京都","city":"日野市","address":"日野市多摩平2-9多摩平の森ふれあい館2階","lat":35.663339,"lon":139.381627},{"name":"＊?男女平等推進センター(ひかりプラザ内)","province":"東京都","city":"国分寺市","address":"東京都国分寺市光町1-46-8","lat":35.70258,"lon":139.444651},{"name":"＊?清瀬市男女共同参画センター（アイレック）","province":"東京都","city":"清瀬市","address":"清瀬市元町1-2-11アミュー4階","lat":35.772206,"lon":139.521171}]}