{"keyword":"救出","data":[{"name":"中央清掃工場","province":"東京都","city":"中央区","address":"中央区晴海5-2-1","lat":35.65247,"lon":139.7759},{"name":"港清掃工場","province":"東京都","city":"港区","address":"港区港南5-7-1","lat":35.63148,"lon":139.7558},{"name":"白鬚東地区（旧都立忍岡高校跡地）","province":"東京都","city":"墨田区","address":"墨田区堤通2-15-14","lat":35.73423,"lon":139.815},{"name":"墨田清掃工場","province":"東京都","city":"墨田区","address":"墨田区東墨田1-10-23","lat":35.71749,"lon":139.8317},{"name":"都立木場公園","province":"東京都","city":"江東区","address":"江東区木場4","lat":35.6738,"lon":139.8081},{"name":"若洲海浜公園","province":"東京都","city":"江東区","address":"江東区若洲3丁目","lat":35.61865,"lon":139.8338},{"name":"東京ビッグサイト屋外展示場","province":"東京都","city":"江東区","address":"江東区有明3丁目地内","lat":35.6328,"lon":139.7931},{"name":"有明清掃工場","province":"東京都","city":"江東区","address":"江東区有明2-3-10","lat":35.63267,"lon":139.7849},{"name":"新江東清掃工場","province":"東京都","city":"江東区","address":"江東区夢の島3番地","lat":35.65202,"lon":139.8315},{"name":"都立大井ふ頭中央海浜公園陸上競技場","province":"東京都","city":"品川区","address":"品川区八潮4丁目地内","lat":35.59263,"lon":139.7523},{"name":"品川清掃工場","province":"東京都","city":"品川区","address":"品川区八潮1-4-1","lat":35.60794,"lon":139.7532},{"name":"目黒清掃工場","province":"東京都","city":"目黒区","address":"目黒区三田2-19-43","lat":35.63788,"lon":139.7075},{"name":"ガス橋緑地少年野球場","province":"東京都","city":"大田区","address":"大田区下丸子2丁目地先","lat":35.5664,"lon":139.6868},{"name":"大田清掃工場","province":"東京都","city":"大田区","address":"大田区京浜島3-6-1","lat":35.57381,"lon":139.7678},{"name":"多摩川清掃工場","province":"東京都","city":"大田区","address":"大田区下丸子2-33-1","lat":35.56146,"lon":139.6871},{"name":"都立駒沢オリンピック公園","province":"東京都","city":"世田谷区","address":"世田谷区駒沢公園1","lat":35.62647,"lon":139.6602},{"name":"都立砧公園野球場","province":"東京都","city":"世田谷区","address":"世田谷区砧公園地内","lat":35.63182,"lon":139.6219},{"name":"世田谷清掃工場","province":"東京都","city":"世田谷区","address":"世田谷区大蔵1-1-1","lat":35.63322,"lon":139.6228},{"name":"千歳清掃工場","province":"東京都","city":"世田谷区","address":"世田谷区八幡山2-7-1","lat":35.65981,"lon":139.6163},{"name":"都立代々木公園陸上競技場・サッカー場","province":"東京都","city":"渋谷区","address":"渋谷区代々木神園町地内","lat":35.6747,"lon":139.6934},{"name":"渋谷清掃工場","province":"東京都","city":"渋谷区","address":"渋谷区東1-35-1","lat":35.65326,"lon":139.7065},{"name":"都立和田堀公園","province":"東京都","city":"杉並区","address":"杉並区大宮1-6","lat":35.68397,"lon":139.6433},{"name":"杉並清掃工場","province":"東京都","city":"杉並区","address":"杉並区高井戸東3-7-6","lat":35.68361,"lon":139.6179},{"name":"豊島清掃工場","province":"東京都","city":"豊島区","address":"豊島区上池袋2-5-1","lat":35.73481,"lon":139.7145},{"name":"北清掃工場","province":"東京都","city":"北区","address":"北区志茂1-2-36","lat":35.77584,"lon":139.732},{"name":"都立城北中央公園","province":"東京都","city":"板橋区","address":"板橋区桜川1-4","lat":35.75682,"lon":139.6744},{"name":"板橋清掃工場","province":"東京都","city":"板橋区","address":"板橋区高島平9-48-1","lat":35.79182,"lon":139.6667},{"name":"都立光が丘公園陸上競技場","province":"東京都","city":"練馬区","address":"練馬区光が丘地内","lat":35.75909,"lon":139.6305},{"name":"練馬清掃工場","province":"東京都","city":"練馬区","address":"練馬区谷原6-10-11","lat":35.7564,"lon":139.6087},{"name":"光が丘清掃工場","province":"東京都","city":"練馬区","address":"練馬区光が丘5-3-1","lat":35.76149,"lon":139.6282},{"name":"都立舍人公園","province":"東京都","city":"足立区","address":"足立区舎人公園","lat":35.79745,"lon":139.7722},{"name":"足立清掃工場","province":"東京都","city":"足立区","address":"足立区西保木間4-7-1","lat":35.80342,"lon":139.7954},{"name":"都立水元公園","province":"東京都","city":"葛飾区","address":"葛飾区水元公園","lat":35.78643,"lon":139.8693},{"name":"葛飾清掃工場","province":"東京都","city":"葛飾区","address":"葛飾区水元1-20-1","lat":35.78086,"lon":139.8565},{"name":"都立篠崎公園","province":"東京都","city":"江戸川区","address":"江戸川区篠崎1-26","lat":35.70838,"lon":139.9056},{"name":"都立葛西臨海公園","province":"東京都","city":"江戸川区","address":"江戸川区臨海町6-2","lat":35.64164,"lon":139.8652},{"name":"江戸川清掃工場","province":"東京都","city":"江戸川区","address":"江戸川区江戸川2-10番地","lat":35.68561,"lon":139.9043},{"name":"千代田区立外濠公園総合グラウンド","province":"東京都","city":"千代田区","address":"千代田区5番町先","lat":35.70472,"lon":139.773},{"name":"北の丸公園第三駐車場","province":"東京都","city":"千代田区","address":"千代田区北の丸公園1-1","lat":35.69224,"lon":139.7495},{"name":"中央区立月島運動場","province":"東京都","city":"中央区","address":"中央区晴海1-3-29","lat":35.65917,"lon":139.7863},{"name":"都立芝公園野球場","province":"東京都","city":"港区","address":"港区芝公園4-10-17","lat":35.65325,"lon":139.7494},{"name":"港区立麻布運動場軟式野球場","province":"東京都","city":"港区","address":"港区南麻布5-6-33","lat":35.65242,"lon":139.7277},{"name":"聖心女子学院グランド","province":"東京都","city":"港区","address":"港区白金4-11-1","lat":35.64242,"lon":139.7264},{"name":"都庁第一本庁舎","province":"東京都","city":"新宿区","address":"新宿区西新宿2-8-1","lat":35.689185,"lon":139.691648},{"name":"新宿区立西戸山公園野球場","province":"東京都","city":"新宿区","address":"新宿区百人町4-1","lat":35.70749,"lon":139.7009},{"name":"明治神宮外苑軟式野球場","province":"東京都","city":"新宿区","address":"新宿区霞ヶ丘町1-1","lat":35.6788,"lon":139.7177},{"name":"国立国際医療研究センターヘリポート","province":"東京都","city":"新宿区","address":"新宿区戸山1-21-1","lat":35.701751,"lon":139.715248},{"name":"東京大学御殿下グラウンド","province":"東京都","city":"文京区","address":"文京区本郷7-3-1","lat":35.712062,"lon":139.762697},{"name":"東京大学医学部付属病院ヘリポート","province":"東京都","city":"文京区","address":"文京区本郷7-3-1","lat":35.712062,"lon":139.762697},{"name":"順天堂大学医学部附属順天堂医院ヘリポート","province":"東京都","city":"文京区","address":"文京区本郷3-1-3","lat":35.702238,"lon":139.762486},{"name":"東京医科歯科大学医学部附属病院ヘリポート","province":"東京都","city":"文京区","address":"文京区湯島1-5-45","lat":35.700977,"lon":139.764941},{"name":"永寿総合病院ヘリポート","province":"東京都","city":"台東区","address":"台東区東上野2-23-16","lat":35.709749,"lon":139.779629},{"name":"都立上野恩賜公園野球場","province":"東京都","city":"台東区","address":"台東区上野公園","lat":35.71812,"lon":139.7779},{"name":"墨田区立東墨田運動場","province":"東京都","city":"墨田区","address":"墨田区東墨田1-10","lat":35.71648,"lon":139.832},{"name":"都立墨東病院専用臨時ヘリポート","province":"東京都","city":"墨田区","address":"墨田区江東橋4-23-15","lat":35.695301,"lon":139.818796},{"name":"都立木場公園多目的広場","province":"東京都","city":"江東区","address":"江東区平野4-6-1","lat":35.67677,"lon":139.8076},{"name":"都立亀戸中央公園多目的球技広場","province":"東京都","city":"江東区","address":"江東区亀戸9-37-28","lat":35.70018,"lon":139.8379},{"name":"東京ビッグサイト西棟屋外駐車場","province":"東京都","city":"江東区","address":"江東区有明3-11-1","lat":35.63005,"lon":139.7938},{"name":"あそか病院ヘリポート","province":"東京都","city":"江東区","address":"江東区住吉1-18-1","lat":35.68986,"lon":139.81186},{"name":"有明の丘防災拠点","province":"東京都","city":"江東区","address":"江東区有明","lat":35.63311,"lon":139.7924},{"name":"都立猿江恩賜公園","province":"東京都","city":"江東区","address":"江東区毛利2-13-7","lat":35.69051,"lon":139.8192},{"name":"がん研究会有明病院ヘリポート","province":"東京都","city":"江東区","address":"江東区有明3-8-31","lat":35.63431,"lon":139.795},{"name":"品川区立西大井広場公園","province":"東京都","city":"品川区","address":"品川区西大井1-4-10","lat":35.60183,"lon":139.723},{"name":"東京都保健医療公社荏原病院ヘリポート","province":"東京都","city":"大田区","address":"大田区東雪谷4-5-10","lat":35.594608,"lon":139.693676},{"name":"大田区立平和島公園運動場","province":"東京都","city":"大田区","address":"大田区平和島4-2-2","lat":35.58176,"lon":139.7424},{"name":"東京ガスグラウンド","province":"東京都","city":"大田区","address":"大田区大森東3-28-1","lat":35.57249,"lon":139.7399},{"name":"都立駒沢オリンピック公園陸上競技場","province":"東京都","city":"世田谷区","address":"世田谷区駒沢公園1-1","lat":35.62647,"lon":139.6602},{"name":"都立祖師谷公園","province":"東京都","city":"世田谷区","address":"世田谷区上祖師谷3-22-19","lat":35.65691,"lon":139.5994},{"name":"東京農業大学野球場","province":"東京都","city":"世田谷区","address":"世田谷区桜丘1-1","lat":35.6401,"lon":139.632},{"name":"都立広尾病院専用臨時ヘリポート","province":"東京都","city":"渋谷区","address":"渋谷区恵比寿2-34-10","lat":35.646638,"lon":139.721236},{"name":"日本赤十字社医療センターヘリポート","province":"東京都","city":"渋谷区","address":"渋谷区広尾4-1-22","lat":35.65444,"lon":139.717944},{"name":"東京大学教育学部附属中等教育学校校庭","province":"東京都","city":"中野区","address":"中野区南台1-15","lat":35.68531,"lon":139.6738},{"name":"中野区立上高田野球場","province":"東京都","city":"中野区","address":"中野区上高田5-7-1","lat":35.7167,"lon":139.6784},{"name":"東京警察病院ヘリポート","province":"東京都","city":"中野区","address":"中野区中野4-22-1","lat":35.70923,"lon":139.6593},{"name":"杉並区立桃井原っぱ公園","province":"東京都","city":"杉並区","address":"杉並区桃井3-8-1","lat":35.71278,"lon":139.6073},{"name":"豊島区区立総合体育場一帯","province":"東京都","city":"豊島区","address":"豊島区東池袋4","lat":35.72647,"lon":139.7206},{"name":"荒川区立東尾久運動場多目的広場","province":"東京都","city":"荒川区","address":"荒川区東尾久7-1-1","lat":35.75207,"lon":139.7752},{"name":"荒川区立東尾久運動場多目的広場第二サッカーグラウンド","province":"東京都","city":"荒川区","address":"荒川区東尾久7-1-1","lat":35.75207,"lon":139.7752},{"name":"板橋区立東板橋少年野球場","province":"東京都","city":"板橋区","address":"板橋区板橋3-50-1","lat":35.75423,"lon":139.7128},{"name":"都立城北中央公園陸上競技場","province":"東京都","city":"板橋区","address":"板橋区桜川1-4","lat":35.75682,"lon":139.6744},{"name":"板橋区立小豆沢公園","province":"東京都","city":"板橋区","address":"板橋区小豆沢3-1-1","lat":35.77904,"lon":139.6969},{"name":"帝京大学医学部附属ヘリポート","province":"東京都","city":"板橋区","address":"板橋区加賀2-11-1","lat":35.759053,"lon":139.71516},{"name":"豊島病院ヘリポート","province":"東京都","city":"板橋区","address":"板橋区栄町33-1","lat":35.752706,"lon":139.700914},{"name":"都立光が丘公園競技場","province":"東京都","city":"練馬区","address":"練馬区光が丘4丁目","lat":35.76374,"lon":139.6298},{"name":"都立城北中央公園陸上競技場","province":"東京都","city":"練馬区","address":"練馬区氷川台1-3-1","lat":35.75662,"lon":139.6729},{"name":"高野台運動場","province":"東京都","city":"練馬区","address":"練馬区高野台3-8-8","lat":35.7439,"lon":139.612},{"name":"都立舍人公園陸上競技場","province":"東京都","city":"足立区","address":"足立区舍人公園","lat":35.79745,"lon":139.7722},{"name":"都立東綾瀬公園東側野球場","province":"東京都","city":"足立区","address":"足立区東綾瀬3-4","lat":35.77023,"lon":139.8326},{"name":"足立区立保木間公園","province":"東京都","city":"足立区","address":"足立区竹の塚","lat":35.7922,"lon":139.791},{"name":"葛飾区立総合スポーツセンター陸上競技場","province":"東京都","city":"葛飾区","address":"葛飾区奥戸7-17-1","lat":35.73766,"lon":139.8621},{"name":"葛西臨海公園第２駐車場","province":"東京都","city":"江戸川区","address":"江戸川区臨海町6-2","lat":35.64164,"lon":139.8652},{"name":"葛西臨海公園多目的広場","province":"東京都","city":"江戸川区","address":"江戸川区臨海町6-2","lat":35.64164,"lon":139.8652},{"name":"江戸川区臨海球技場第一","province":"東京都","city":"江戸川区","address":"江戸川区臨海町1-1-2","lat":35.64901,"lon":139.8507},{"name":"都立篠崎公園野球場（第２面）","province":"東京都","city":"江戸川区","address":"江戸川区上篠崎1-25先","lat":35.71633,"lon":139.9011},{"name":"新三崎橋","province":"東京都","city":"千代田区","address":"千代田区飯田橋3丁目","lat":35.70082,"lon":139.7485},{"name":"和泉橋","province":"東京都","city":"千代田区","address":"千代田区神田佐久間町","lat":35.69756,"lon":139.7761},{"name":"新川","province":"東京都","city":"中央区","address":"中央区新川2丁目地先","lat":35.67488,"lon":139.7825},{"name":"明石町","province":"東京都","city":"中央区","address":"中央区明石町地先","lat":35.66779,"lon":139.7771},{"name":"箱崎町","province":"東京都","city":"中央区","address":"中央区日本橋箱崎町地先","lat":35.68021,"lon":139.7854},{"name":"市兵衛河岸","province":"東京都","city":"文京区","address":"文京区後楽1丁目","lat":35.7053,"lon":139.7519},{"name":"桜橋","province":"東京都","city":"台東区","address":"台東区今戸1丁目地先","lat":35.71942,"lon":139.8043},{"name":"浅草","province":"東京都","city":"台東区","address":"台東区花川戸1丁目地先","lat":35.71373,"lon":139.7991},{"name":"吾妻橋","province":"東京都","city":"墨田区","address":"墨田区吾妻橋1丁目先","lat":35.70801,"lon":139.7998},{"name":"越中島","province":"東京都","city":"江東区","address":"江東区越中島1丁目地先","lat":35.67024,"lon":139.792},{"name":"扇橋閘門","province":"東京都","city":"江東区","address":"江東区猿江1丁目地先","lat":35.686,"lon":139.8116},{"name":"高橋乗船場","province":"東京都","city":"江東区","address":"江東区高橋","lat":35.68542,"lon":139.7995},{"name":"亀戸乗船場","province":"東京都","city":"江東区","address":"江東区亀戸2丁目1番地先","lat":35.69756,"lon":139.8202},{"name":"天神橋乗船場","province":"東京都","city":"江東区","address":"江東区亀戸3丁目8番地先","lat":35.70217,"lon":139.8195},{"name":"番所橋乗船場","province":"東京都","city":"江東区","address":"江東区東砂2丁目14番地先","lat":35.68573,"lon":139.8457},{"name":"小名木川クローバー橋乗船場","province":"東京都","city":"江東区","address":"江東区北砂1丁目2番地先","lat":35.68442,"lon":139.8218},{"name":"夫婦橋","province":"東京都","city":"大田区","address":"大田区南蒲田1","lat":35.55902,"lon":139.7263},{"name":"神谷","province":"東京都","city":"北区","address":"北区神谷1町目3番地先","lat":35.76857,"lon":139.7366},{"name":"荒川遊園","province":"東京都","city":"荒川区","address":"荒川区西尾久6丁目地先","lat":35.75161,"lon":139.7586},{"name":"東尾久","province":"東京都","city":"荒川区","address":"荒川区東尾久7丁目3番地","lat":35.75274,"lon":139.7725},{"name":"※立川地域防災センター","province":"東京都","city":"立川市","address":"立川市緑町3233","lat":35.70627,"lon":139.4077},{"name":"八王子市立上柚木公園（陸上競技場）","province":"東京都","city":"八王子市","address":"八王子市上柚木2丁目地内","lat":35.61612,"lon":139.3664},{"name":"八王子市立滝ヶ原運動場（サッカー場）","province":"東京都","city":"八王子市","address":"八王子市高月町2401番地地先","lat":35.70421,"lon":139.3294},{"name":"八王子市立富士森公園（陸上競技場）","province":"東京都","city":"八王子市","address":"八王子市台町2丁目地内","lat":35.64977,"lon":139.3205},{"name":"北野清掃工場","province":"東京都","city":"八王子市","address":"八王子市北野町596-3","lat":35.655314,"lon":139.353425},{"name":"都立武蔵野中央公園（原っぱ広場）","province":"東京都","city":"武蔵野市","address":"武蔵野市八幡町2丁目地内","lat":35.71818,"lon":139.5565},{"name":"青梅市市民球技場（野球場）","province":"東京都","city":"青梅市","address":"青梅市河辺町1丁目地先","lat":35.77862,"lon":139.2878},{"name":"都立武蔵野の森公園","province":"東京都","city":"府中市","address":"府中市朝日町3","lat":35.66647,"lon":139.5213},{"name":"都立府中の森公園（サッカー場、野球場）","province":"東京都","city":"府中市","address":"府中市浅間町1丁目地内","lat":35.67353,"lon":139.4953},{"name":"昭島市清掃センター","province":"東京都","city":"昭島市","address":"昭島市田中町4-3-14","lat":35.69368,"lon":139.3479},{"name":"都立神代植物公園","province":"東京都","city":"調布市","address":"調布市深大寺元町5","lat":35.66838,"lon":139.5457},{"name":"町田市立野津田公園（陸上競技場）","province":"東京都","city":"町田市","address":"町田市野津田町2035番地地内","lat":35.59191,"lon":139.4386},{"name":"町田リサイクル文化センター","province":"東京都","city":"町田市","address":"町田市下小山田町3160番","lat":35.586962,"lon":139.411761},{"name":"都立小金井公園","province":"東京都","city":"小金井市","address":"小金井市関野町1-2","lat":35.71295,"lon":139.5233},{"name":"日野市多摩川グラウンド（野球場）","province":"東京都","city":"日野市","address":"日野市万願寺1丁目地先","lat":35.67562,"lon":139.421},{"name":"都立東村山中央公園（広場）","province":"東京都","city":"東村山市","address":"東村山市富士見町5丁目地内","lat":35.74522,"lon":139.4609},{"name":"都立東大和南公園（陸上競技場、野球場）","province":"東京都","city":"東大和市","address":"東大和市桜が丘2丁目地内","lat":35.73676,"lon":139.42},{"name":"柳泉園クリーンポート","province":"東京都","city":"東久留米市","address":"東久留米市下里4-3-10","lat":35.75476,"lon":139.4945},{"name":"都立秋留台公園（陸上競技場）","province":"東京都","city":"あきる野市","address":"あきる野市二宮地内","lat":35.72746,"lon":139.3108},{"name":"多摩市立陸上競技場（陸上競技場）","province":"東京都","city":"多摩市","address":"多摩市諏訪4丁目地内","lat":35.62597,"lon":139.4561},{"name":"多摩清掃工場","province":"東京都","city":"多摩市","address":"多摩市唐木田2-1-1","lat":35.61217,"lon":139.41},{"name":"八王子市立大塚公園野球場","province":"東京都","city":"八王子市","address":"八王子市松が谷66","lat":35.63167,"lon":139.4134},{"name":"東京医科大学八王子医療センターヘリポート","province":"東京都","city":"八王子市","address":"八王子市館町1163","lat":35.631938,"lon":139.289026},{"name":"東海大学医学部付属八王子病院へリポート","province":"東京都","city":"八王子市","address":"八王子市石川町1838","lat":35.673776,"lon":139.357079},{"name":"元横山２号河川敷広場","province":"東京都","city":"八王子市","address":"八王子市田町4番地","lat":35.66126,"lon":139.3457},{"name":"国立病院機構災害医療センターヘリポート","province":"東京都","city":"立川市","address":"立川市緑町3256","lat":35.70745,"lon":139.4092},{"name":"武蔵野赤十字病院ヘリポート","province":"東京都","city":"武蔵野市","address":"武蔵野市境南町1-26-1","lat":35.696886,"lon":139.548571},{"name":"三鷹市立第一中学校校庭","province":"東京都","city":"三鷹市","address":"三鷹市下連雀9-10-1","lat":35.68539,"lon":139.5597},{"name":"杏林大学医学部付属病院ヘリポート","province":"東京都","city":"三鷹市","address":"三鷹市新川6-20-2","lat":35.67748,"lon":139.566503},{"name":"青梅市民球技場","province":"東京都","city":"青梅市","address":"青梅市河辺町1-872-1","lat":35.77784,"lon":139.2872},{"name":"青梅市立総合病院ヘリポート","province":"東京都","city":"青梅市","address":"青梅市東青梅4-16-5","lat":35.782547,"lon":139.281268},{"name":"都立多摩・小児総合医療センターヘリポート","province":"東京都","city":"府中市","address":"府中市武蔵台2-8-29","lat":35.691884,"lon":139.460981},{"name":"調布市立調布市民野球場","province":"東京都","city":"調布市","address":"調布市染地2-43-1","lat":35.64027,"lon":139.5468},{"name":"町田市立町田市民球場","province":"東京都","city":"町田市","address":"町田市旭町3-20-60","lat":35.55636,"lon":139.4466},{"name":"都立小金井公園","province":"東京都","city":"小金井市","address":"小金井市関野町1","lat":35.71348,"lon":139.5196},{"name":"丸井研修センター総合グラウンド","province":"東京都","city":"小平市","address":"小平市花小金井8-25-1","lat":35.73122,"lon":139.5042},{"name":"日野市立多摩平第一公園","province":"東京都","city":"日野市","address":"日野市多摩平4-2","lat":35.66661,"lon":139.3794},{"name":"東村山市立運動公園","province":"東京都","city":"東村山市","address":"東村山市恩多町1-51-1","lat":35.75429,"lon":139.4898},{"name":"一橋大学グラウンド","province":"東京都","city":"国立市","address":"国立市中2-1","lat":35.69427,"lon":139.4426},{"name":"市民向台運動場","province":"東京都","city":"西東京市","address":"西東京市向台町5-4","lat":35.72121,"lon":139.53},{"name":"加美平野球場","province":"東京都","city":"福生市","address":"福生市加美平1-21","lat":35.75075,"lon":139.3272},{"name":"都立東大和南公園","province":"東京都","city":"東大和市","address":"東大和市桜が丘2-106-2","lat":35.73351,"lon":139.4246},{"name":"東京都共済組合清瀬運動場","province":"東京都","city":"清瀬市","address":"清瀬市竹丘3-10-5","lat":35.7646,"lon":139.5013},{"name":"多摩市立多摩東公園陸上競技場","province":"東京都","city":"多摩市","address":"多摩市諏訪4-9","lat":35.62459,"lon":139.461},{"name":"稲城市立中央公園総合グラウンド","province":"東京都","city":"稲城市","address":"稲城市長峰1-1","lat":35.63077,"lon":139.4861},{"name":"富士通株式会社あきる野テクノロジーセンター駐車場","province":"東京都","city":"あきる野市","address":"あきる野市渕上50番地","lat":35.73074,"lon":139.2732},{"name":"亜細亜大学日の出グランド","province":"東京都","city":"西多摩郡日の出町","address":"日の出町平井1466","lat":35.73674,"lon":139.2695},{"name":"東部公園緑地事務所","province":"東京都","city":"台東区","address":"台東区上野公園7-47","lat":35.71501,"lon":139.7763},{"name":"西部公園緑地事務所","province":"東京都","city":"武蔵野市","address":"武蔵野市御殿山1-17-59","lat":35.70114,"lon":139.573}]}