{"keyword":"総務","data":[{"name":"皇居前広場","province":"東京都","city":"千代田区","address":"東京都千代田区皇居外苑1","lat":35.67806805,"lon":139.7588226},{"name":"都立日比谷公園（第二花壇）","province":"東京都","city":"千代田区","address":"東京都千代田区日比谷公園1","lat":35.67461838,"lon":139.75677845},{"name":"上智大学運動場","province":"東京都","city":"千代田区","address":"東京都千代田区紀尾井町5","lat":35.6830057,"lon":139.73098034},{"name":"北の丸公園第２駐車場","province":"東京都","city":"千代田区","address":"東京都千代田区北の丸公園2","lat":35.6932523,"lon":139.75056715},{"name":"北の丸公園第３駐車場","province":"東京都","city":"千代田区","address":"東京都千代田区北の丸公園1-1","lat":35.69242736,"lon":139.74948116},{"name":"中央区立月島運動場","province":"東京都","city":"中央区","address":"東京都中央区晴海1丁目3-29","lat":35.65907089,"lon":139.78637652},{"name":"中央区立豊海運動公園","province":"東京都","city":"中央区","address":"東京都中央区豊海町3-19","lat":35.65321559,"lon":139.77225293},{"name":"都立芝公園グラウンド","province":"東京都","city":"港区","address":"東京都港区芝公園1丁目","lat":35.65760623,"lon":139.75195171},{"name":"港区立麻布運動場・野球場","province":"東京都","city":"港区","address":"東京都港区南麻布5丁目6-33","lat":35.65242008,"lon":139.72772071},{"name":"聖心女子学院グラウンド","province":"東京都","city":"港区","address":"東京都港区白金4丁目11-1","lat":35.64241563,"lon":139.72635453},{"name":"国立大学法人東京海洋大学グラウンド","province":"東京都","city":"港区","address":"東京都港区港南4丁目5-7","lat":35.6269708,"lon":139.74764492},{"name":"迎賓館ヘリポート","province":"東京都","city":"港区","address":"東京都港区元赤坂2丁目","lat":35.67849212,"lon":139.72208963},{"name":"明治神宮外苑軟式野球場","province":"東京都","city":"新宿区","address":"東京都新宿区霞ヶ丘町1-1","lat":35.67880032,"lon":139.71766225},{"name":"都立落合中央公園野球場","province":"東京都","city":"新宿区","address":"東京都新宿区上落合1丁目2","lat":35.71287916,"lon":139.69289364},{"name":"新宿区立西戸山公園野球場","province":"東京都","city":"新宿区","address":"東京都新宿区百人町4丁目1","lat":35.70748833,"lon":139.70088483},{"name":"東京都庁第一本庁舎","province":"東京都","city":"新宿区","address":"東京都新宿区西新宿2丁目8-1","lat":35.68918461,"lon":139.69164748},{"name":"国立国際医療研究センターヘリポート","province":"東京都","city":"新宿区","address":"東京都新宿区戸山1丁目21-1","lat":35.70174214,"lon":139.71530878},{"name":"東京大学御殿下グラウンド","province":"東京都","city":"文京区","address":"東京都文京区本郷7丁目3-1","lat":35.71203394,"lon":139.76277932},{"name":"東京大学医学部附属病院ヘリポート","province":"東京都","city":"文京区","address":"東京都文京区本郷7丁目3-1","lat":35.71203394,"lon":139.76277932},{"name":"東京大学農学部グラウンド","province":"東京都","city":"文京区","address":"東京都文京区弥生1丁目1","lat":35.71893042,"lon":139.76032934},{"name":"順天堂大学医学部附属順天堂医院ヘリポート","province":"東京都","city":"文京区","address":"東京都文京区本郷3丁目1-3","lat":35.70250161,"lon":139.76261313},{"name":"東京医科歯科大学医学部附属病院ヘリポート","province":"東京都","city":"文京区","address":"東京都文京区湯島1丁目5-45","lat":35.70099629,"lon":139.76491864},{"name":"目白台運動公園","province":"東京都","city":"文京区","address":"東京都文京区目白台1丁目20-2","lat":35.71545467,"lon":139.72151883},{"name":"文京シビックセンター","province":"東京都","city":"文京区","address":"東京都文京区春日1丁目16-21","lat":35.70794517,"lon":139.75242748},{"name":"台東区立リバーサイドスポーツセンター少年野球場","province":"東京都","city":"台東区","address":"東京都台東区浅草7丁目1-22","lat":35.71665987,"lon":139.8037681},{"name":"永寿総合病院ヘリポート","province":"東京都","city":"台東区","address":"東京都台東区東上野2丁目23-16","lat":35.7097486,"lon":139.77962864},{"name":"都立上野恩賜公園正岡子規記念球場","province":"東京都","city":"台東区","address":"東京都台東区上野公園","lat":35.7181228,"lon":139.77786167},{"name":"都立墨東病院ヘリポート","province":"東京都","city":"墨田区","address":"東京都墨田区江東橋4丁目23-15","lat":35.69530033,"lon":139.81879578},{"name":"墨田区立東墨田運動場","province":"東京都","city":"墨田区","address":"東京都墨田区東墨田1丁目10","lat":35.71647687,"lon":139.83195391},{"name":"墨田区立新平井橋公園","province":"東京都","city":"墨田区","address":"東京都墨田区東墨田1丁目6-2","lat":35.71565486,"lon":139.83040693},{"name":"白鬚東地区（東白鬚公園）","province":"東京都","city":"墨田区","address":"東京都墨田区堤通2丁目","lat":35.73410354,"lon":139.81657811},{"name":"都立木場公園多目的広場","province":"東京都","city":"江東区","address":"東京都江東区平野4丁目6-1","lat":35.67676666,"lon":139.80756394},{"name":"江東区立若洲公園多目的広場","province":"東京都","city":"江東区","address":"東京都江東区若洲3丁目2-1","lat":35.61872983,"lon":139.83362144},{"name":"新砂運動場","province":"東京都","city":"江東区","address":"東京都江東区新砂3丁目9-1","lat":35.65732785,"lon":139.83512778},{"name":"都立亀戸中央公園多目的球技広場","province":"東京都","city":"江東区","address":"東京都江東区亀戸9丁目37","lat":35.70004774,"lon":139.83837624},{"name":"あそか病院ヘリポート","province":"東京都","city":"江東区","address":"東京都江東区住吉1丁目18-1","lat":35.68985944,"lon":139.81186088},{"name":"都立夢の島陸上競技場","province":"東京都","city":"江東区","address":"東京都江東区夢の島3丁目","lat":35.65190061,"lon":139.83152826},{"name":"東京海洋大学越中島キャンパス第２グラウンド","province":"東京都","city":"江東区","address":"東京都江東区越中島2丁目1-6","lat":35.66726738,"lon":139.79215102},{"name":"有明の丘防災拠点","province":"東京都","city":"江東区","address":"東京都江東区有明","lat":35.63803447,"lon":139.78857145},{"name":"都立猿江恩賜公園","province":"東京都","city":"江東区","address":"東京都江東区住吉2丁目","lat":35.6890929,"lon":139.81465768},{"name":"がん研究会有明病院ヘリポート","province":"東京都","city":"江東区","address":"東京都江東区有明3丁目8-31","lat":35.63434076,"lon":139.7949906},{"name":"江東区立潮見運動公園","province":"東京都","city":"江東区","address":"東京都江東区潮見1丁目","lat":35.65755231,"lon":139.81360185},{"name":"都立有明テニスの森公園","province":"東京都","city":"江東区","address":"東京都江東区有明2丁目","lat":35.64007061,"lon":139.79611521},{"name":"都立シンボルプロムナード公園","province":"東京都","city":"江東区","address":"東京都江東区青海1丁目","lat":35.62481633,"lon":139.77819791},{"name":"都立大島小松川公園少年運動場","province":"東京都","city":"江東区","address":"東京都江東区大島9丁目9","lat":35.68959623,"lon":139.84689815},{"name":"都立大井埠頭中央海浜公園陸上競技場","province":"東京都","city":"品川区","address":"東京都品川区八潮4丁目1-19","lat":35.59255032,"lon":139.75229052},{"name":"品川区立天王州公園","province":"東京都","city":"品川区","address":"東京都品川区東品川2丁目5-42","lat":35.62054383,"lon":139.74927004},{"name":"品川区立鮫洲運動公園","province":"東京都","city":"品川区","address":"東京都品川区東大井1丁目4-11","lat":35.60589551,"lon":139.74500986},{"name":"品川区立八潮公園多目的広場","province":"東京都","city":"品川区","address":"東京都品川区八潮5丁目11-16","lat":35.60033269,"lon":139.75372891},{"name":"林試の森公園","province":"東京都","city":"品川区","address":"東京都品川区小山台2丁目","lat":35.62477825,"lon":139.69861029},{"name":"都立桜修館中等教育学校","province":"東京都","city":"目黒区","address":"東京都目黒区八雲1丁目1-2","lat":35.62118352,"lon":139.67099324},{"name":"目黒区立碑文谷公園（旧第一勧業銀行グラウンド）","province":"東京都","city":"目黒区","address":"東京都目黒区碑文谷6丁目12-43","lat":35.62721368,"lon":139.68206437},{"name":"東京大学陸上競技場","province":"東京都","city":"目黒区","address":"東京都目黒区駒場3丁目8-1","lat":35.65931564,"lon":139.68524362},{"name":"駒沢オリンピック公園陸上競技場","province":"東京都","city":"目黒区","address":"東京都目黒区東が丘2丁目","lat":35.6300629,"lon":139.66396858},{"name":"大田区立平和島公園運動場","province":"東京都","city":"大田区","address":"東京都大田区平和島4丁目2-2","lat":35.58184851,"lon":139.74213343},{"name":"都立大井埠頭中央海浜公園第２球技場","province":"東京都","city":"大田区","address":"東京都大田区東海1丁目4","lat":35.58593444,"lon":139.74992159},{"name":"京浜島防災広場運動場","province":"東京都","city":"大田区","address":"東京都大田区京浜島2丁目10","lat":35.57091777,"lon":139.7634161},{"name":"丸子橋野球場","province":"東京都","city":"大田区","address":"東京都大田区田園調布本町31","lat":35.58310843,"lon":139.67183161},{"name":"多摩川緑地サッカー場","province":"東京都","city":"大田区","address":"東京都大田区田園調布5丁目54","lat":35.59239824,"lon":139.65872368},{"name":"多摩川緑地野球場（西六郷４丁目）","province":"東京都","city":"大田区","address":"東京都大田区西六郷4丁目33","lat":35.54406986,"lon":139.70286408},{"name":"ガス橋緑地少年サッカー場（下丸子３丁目）","province":"東京都","city":"大田区","address":"東京都大田区下丸子3丁目30","lat":35.5668806,"lon":139.68245956},{"name":"ガス橋緑地少年野球場（下丸子２丁目）","province":"東京都","city":"大田区","address":"東京都大田区下丸子2丁目13","lat":35.56350616,"lon":139.684143},{"name":"東京都保健医療公社荏原病院ヘリポート","province":"東京都","city":"大田区","address":"東京都大田区東雪谷4丁目5-10","lat":35.59460659,"lon":139.69367561},{"name":"東京ガスグラウンド","province":"東京都","city":"大田区","address":"東京都大田区大森東3丁目28-1","lat":35.57249131,"lon":139.7398702},{"name":"多摩川緑地広場硬式野球場Ａ面（旧巨人軍グラウンド）","province":"東京都","city":"大田区","address":"東京都大田区田園調布4丁目44","lat":35.59210389,"lon":139.66145123},{"name":"多摩川大師橋緑地野球場","province":"東京都","city":"大田区","address":"東京都大田区本羽田2丁目14","lat":35.54584467,"lon":139.73048361},{"name":"区民広場（西六郷三丁目）","province":"東京都","city":"大田区","address":"東京都大田区西六郷3丁目13","lat":35.54625004,"lon":139.70335835},{"name":"大田スタジアム","province":"東京都","city":"大田区","address":"東京都大田区東海1丁目2-10","lat":35.58843701,"lon":139.75284626},{"name":"六郷橋緑地野球場","province":"東京都","city":"大田区","address":"東京都大田区東六郷3丁目","lat":35.54202554,"lon":139.71164099},{"name":"多摩川田園調布緑地サッカー場","province":"東京都","city":"大田区","address":"東京都大田区田園調布4丁目","lat":35.59272877,"lon":139.66135396},{"name":"大田区立東調布公園","province":"東京都","city":"大田区","address":"東京都大田区南雪谷5丁目13-1","lat":35.58826574,"lon":139.68930418},{"name":"多摩川大橋緑地","province":"東京都","city":"大田区","address":"東京都大田区矢口3丁目","lat":35.56021468,"lon":139.69576395},{"name":"世田谷公園軟式野球場","province":"東京都","city":"世田谷区","address":"東京都世田谷区池尻1丁目5","lat":35.64370344,"lon":139.68164445},{"name":"駒沢大学祖師谷グラウンド","province":"東京都","city":"世田谷区","address":"東京都世田谷区上祖師谷2丁目8","lat":35.6578273,"lon":139.59866744},{"name":"都立砧公園","province":"東京都","city":"世田谷区","address":"東京都世田谷区砧公園1-1","lat":35.6291067,"lon":139.62140025},{"name":"都立祖師谷公園少年運動場","province":"東京都","city":"世田谷区","address":"東京都世田谷区上祖師谷3丁目22-19","lat":35.65691076,"lon":139.59935631},{"name":"二子玉川緑地運動場","province":"東京都","city":"世田谷区","address":"東京都世田谷区鎌田1丁目","lat":35.617339,"lon":139.61637665},{"name":"世田谷区立小泉公園","province":"東京都","city":"世田谷区","address":"東京都世田谷区駒沢2丁目42","lat":35.63735914,"lon":139.65608295},{"name":"世田谷区立赤松公園","province":"東京都","city":"世田谷区","address":"東京都世田谷区赤堤4丁目10","lat":35.66157812,"lon":139.64139726},{"name":"日本体育大学グラウンド","province":"東京都","city":"世田谷区","address":"東京都世田谷区深沢7丁目1","lat":35.62202455,"lon":139.64835067},{"name":"東京農業大学野球場","province":"東京都","city":"世田谷区","address":"東京都世田谷区桜丘1丁目1","lat":35.64010265,"lon":139.63202372},{"name":"成城学園グラウンド","province":"東京都","city":"世田谷区","address":"東京都世田谷区成城6丁目1","lat":35.64426794,"lon":139.60143164},{"name":"駒澤大学玉川校舎グラウンド","province":"東京都","city":"世田谷区","address":"東京都世田谷区宇奈根1丁目1-2","lat":35.61725287,"lon":139.6089136},{"name":"日本大学グラウンド","province":"東京都","city":"世田谷区","address":"東京都世田谷区桜上水3丁目25-40","lat":35.66200011,"lon":139.63425617},{"name":"日本女子体育大学グラウンド","province":"東京都","city":"世田谷区","address":"東京都世田谷区北烏山8丁目19-1","lat":35.67728871,"lon":139.59020359},{"name":"都立代々木公園競技場（織田フィールド）","province":"東京都","city":"渋谷区","address":"東京都渋谷区神南2丁目3-1","lat":35.66632898,"lon":139.69484253},{"name":"渋谷区立スポーツセンター","province":"東京都","city":"渋谷区","address":"東京都渋谷区西原1丁目40-18","lat":35.67556369,"lon":139.68096562},{"name":"都立広尾病院ヘリポート","province":"東京都","city":"渋谷区","address":"東京都渋谷区恵比寿2丁目34-10","lat":35.64707054,"lon":139.72073544},{"name":"日本赤十字社医療センターヘリポート","province":"東京都","city":"渋谷区","address":"東京都渋谷区広尾4丁目1-22","lat":35.65443909,"lon":139.71794375},{"name":"東京大学教育学部附属中等教育学校校庭","province":"東京都","city":"中野区","address":"東京都中野区南台1丁目15","lat":35.68530682,"lon":139.67376032},{"name":"都立武蔵丘高等学校校庭","province":"東京都","city":"中野区","address":"東京都中野区上鷺宮2丁目14-1","lat":35.72899512,"lon":139.63095098},{"name":"東京警察病院ヘリポート","province":"東京都","city":"中野区","address":"東京都中野区中野4丁目22-1","lat":35.70920915,"lon":139.65931337},{"name":"都立和田掘公園陸上競技場","province":"東京都","city":"杉並区","address":"東京都杉並区大宮1丁目6","lat":35.68397002,"lon":139.64332973},{"name":"済美山運動場広場","province":"東京都","city":"杉並区","address":"東京都杉並区堀ノ内1丁目15","lat":35.68507832,"lon":139.64686271},{"name":"ＮＨＫ旧富士見ヶ丘運動場","province":"東京都","city":"杉並区","address":"東京都杉並区久我山2丁目2-1","lat":35.68135258,"lon":139.60559113},{"name":"杉並区立柏の宮公園","province":"東京都","city":"杉並区","address":"東京都杉並区浜田山2丁目5-1","lat":35.67749532,"lon":139.62648411},{"name":"杉並区立井草森公園","province":"東京都","city":"杉並区","address":"東京都杉並区下井草4丁目12-14","lat":35.71990697,"lon":139.62165216},{"name":"豊島区立総合体育場一帯","province":"東京都","city":"豊島区","address":"東京都豊島区東池袋4丁目","lat":35.72638951,"lon":139.72040461},{"name":"学習院大学グラウンド","province":"東京都","city":"豊島区","address":"東京都豊島区目白","lat":35.7210371,"lon":139.71148892},{"name":"北区立中央公園野球場","province":"東京都","city":"北区","address":"東京都北区十条台1丁目2-1","lat":35.75320885,"lon":139.72756124},{"name":"北区立十条富士見中学校校庭","province":"東京都","city":"北区","address":"東京都北区十条台1丁目9-33","lat":35.75717496,"lon":139.72321144},{"name":"荒川下流岩淵場外","province":"東京都","city":"北区","address":"東京都北区志茂4丁目19-1","lat":35.78343288,"lon":139.73218195},{"name":"北区立北運動公園","province":"東京都","city":"北区","address":"東京都北区神谷2丁目47-6","lat":35.77383973,"lon":139.72797147},{"name":"北区立赤羽スポーツの森公園","province":"東京都","city":"北区","address":"東京都北区赤羽西5丁目2","lat":35.77326984,"lon":139.71003689},{"name":"北区立赤羽自然観察公園","province":"東京都","city":"北区","address":"東京都北区赤羽西5丁目2-34","lat":35.77431419,"lon":139.71157561},{"name":"新河岸東公園・浮間子どもスポーツ広場","province":"東京都","city":"北区","address":"東京都北区浮間4丁目27-1","lat":35.78904234,"lon":139.69236003},{"name":"豊島五丁目遊び場","province":"東京都","city":"北区","address":"東京都北区豊島5丁目6-1","lat":35.76470834,"lon":139.75516113},{"name":"国立西が丘サッカー場","province":"東京都","city":"北区","address":"東京都北区西が丘3丁目15","lat":35.76766219,"lon":139.70831224},{"name":"東尾久運動場多目的広場","province":"東京都","city":"荒川区","address":"東京都荒川区東尾久6丁目46","lat":35.74849157,"lon":139.77175799},{"name":"都立尾久の原公園多目的広場第二サッカーグラウンド","province":"東京都","city":"荒川区","address":"東京都荒川区東尾久7丁目1-1","lat":35.75213275,"lon":139.77513791},{"name":"都立汐入公園多目的広場","province":"東京都","city":"荒川区","address":"東京都荒川区南千住8丁目13","lat":35.73642518,"lon":139.81024806},{"name":"荒川区立南千住野球場","province":"東京都","city":"荒川区","address":"東京都荒川区南千住6丁目45","lat":35.73607733,"lon":139.79205464},{"name":"都立城北中央公園陸上競技場","province":"東京都","city":"板橋区","address":"東京都板橋区桜川1丁目4","lat":35.75681526,"lon":139.67436275},{"name":"板橋区立城北公園野球場","province":"東京都","city":"板橋区","address":"東京都板橋区坂下2丁目19-1","lat":35.78357064,"lon":139.68153885},{"name":"板橋区立東板橋公園グラウンド","province":"東京都","city":"板橋区","address":"東京都板橋区板橋3丁目50-1","lat":35.75398895,"lon":139.71224304},{"name":"荒川戸田橋緑地草地広場","province":"東京都","city":"板橋区","address":"東京都板橋区新河岸1丁目15","lat":35.79670152,"lon":139.66723994},{"name":"荒川戸田橋緑地野球場","province":"東京都","city":"板橋区","address":"東京都板橋区舟渡3丁目","lat":35.79449154,"lon":139.6825884},{"name":"板橋区立小豆沢公園","province":"東京都","city":"板橋区","address":"東京都板橋区小豆沢3丁目8","lat":35.77860211,"lon":139.69505179},{"name":"都立赤塚公園野球場","province":"東京都","city":"板橋区","address":"東京都板橋区高島平3丁目1","lat":35.78522804,"lon":139.65529951},{"name":"帝京大学医学部附属病院ヘリポート","province":"東京都","city":"板橋区","address":"東京都板橋区加賀2丁目11-1","lat":35.75922729,"lon":139.71498704},{"name":"東京都保健医療公社豊島病院ヘリポート","province":"東京都","city":"板橋区","address":"東京都板橋区栄町33-1","lat":35.75269994,"lon":139.70097739},{"name":"板橋区役所屋上","province":"東京都","city":"板橋区","address":"東京都板橋区板橋2丁目66-1","lat":35.75091701,"lon":139.70919342},{"name":"都立城北中央公園野球場","province":"東京都","city":"練馬区","address":"東京都練馬区氷川台1丁目6","lat":35.75399329,"lon":139.67112982},{"name":"都立城北中央公園陸上競技場","province":"東京都","city":"練馬区","address":"東京都練馬区氷川台1丁目3-1","lat":35.75657914,"lon":139.67298788},{"name":"練馬区立練馬総合運動場","province":"東京都","city":"練馬区","address":"東京都練馬区練馬2丁目29-10","lat":35.74518829,"lon":139.65316237},{"name":"都立光が丘公園陸上競技場","province":"東京都","city":"練馬区","address":"東京都練馬区光が丘4丁目1","lat":35.76779071,"lon":139.62921623},{"name":"都立石神井公園内Ｂ地区野球場","province":"東京都","city":"練馬区","address":"東京都練馬区石神井台1丁目26-1","lat":35.73900692,"lon":139.59757011},{"name":"都立大泉中央公園陸上競技場","province":"東京都","city":"練馬区","address":"東京都練馬区大泉学園町9丁目4-3","lat":35.77467193,"lon":139.59766904},{"name":"高野台運動場","province":"東京都","city":"練馬区","address":"東京都練馬区高野台3丁目8-8","lat":35.74368462,"lon":139.61252972},{"name":"練馬区役所屋上","province":"東京都","city":"練馬区","address":"東京都練馬区豊玉北6丁目12-1","lat":35.73558101,"lon":139.65167678},{"name":"豊島園","province":"東京都","city":"練馬区","address":"東京都練馬区向山3丁目25-1","lat":35.74410496,"lon":139.64799896},{"name":"練馬区立松の風公園（旧日銀運動場）","province":"東京都","city":"練馬区","address":"東京都練馬区石神井台1丁目33","lat":35.73939292,"lon":139.59470088},{"name":"足立区立千住新橋グラウンド（虹の広場）","province":"東京都","city":"足立区","address":"東京都足立区千住5丁目22","lat":35.75549987,"lon":139.8057852},{"name":"荒川西新井橋緑地グラウンド","province":"東京都","city":"足立区","address":"東京都足立区梅田3丁目5","lat":35.76227094,"lon":139.79617997},{"name":"都立東綾瀬公園東側野球場","province":"東京都","city":"足立区","address":"東京都足立区東綾瀬3丁目4","lat":35.77023453,"lon":139.83256528},{"name":"都立東綾瀬公園西側野球場","province":"東京都","city":"足立区","address":"東京都足立区綾瀬6丁目37","lat":35.77132878,"lon":139.82859614},{"name":"足立区立谷中公園野球場","province":"東京都","city":"足立区","address":"東京都足立区谷中2丁目23-36","lat":35.77618936,"lon":139.83499544},{"name":"足立区立平野運動場","province":"東京都","city":"足立区","address":"東京都足立区平野2丁目12-1","lat":35.78418247,"lon":139.80431995},{"name":"都立舎人公園管理事務所空地","province":"東京都","city":"足立区","address":"東京都足立区舎人公園","lat":35.79704103,"lon":139.76834198},{"name":"都立舎人公園陸上競技場","province":"東京都","city":"足立区","address":"東京都足立区舎人公園","lat":35.79704103,"lon":139.76834198},{"name":"都立舎人公園野球場","province":"東京都","city":"足立区","address":"東京都足立区舎人公園","lat":35.79704103,"lon":139.76834198},{"name":"足立区立保木間公園","province":"東京都","city":"足立区","address":"東京都足立区竹の塚","lat":35.79213976,"lon":139.79757301},{"name":"総合スポーツセンター","province":"東京都","city":"足立区","address":"東京都足立区東保木間","lat":35.79359268,"lon":139.81228565},{"name":"葛飾区立総合スポーツセンター陸上競技場","province":"東京都","city":"葛飾区","address":"東京都葛飾区奥戸7丁目17-1","lat":35.73772504,"lon":139.86210297},{"name":"都立水元公園駐車場","province":"東京都","city":"葛飾区","address":"東京都葛飾区水元公園4","lat":35.79240643,"lon":139.86812312},{"name":"都立水元公園多目的広場","province":"東京都","city":"葛飾区","address":"東京都葛飾区東金町8丁目31","lat":35.78263806,"lon":139.88528344},{"name":"葛飾区立柴又公園（矢切の渡し）","province":"東京都","city":"葛飾区","address":"東京都葛飾区柴又7丁目","lat":35.75767798,"lon":139.87675403},{"name":"新四つ木橋地区東岸","province":"東京都","city":"葛飾区","address":"東京都葛飾区東四つ木3丁目","lat":35.73102085,"lon":139.83684505},{"name":"葛飾区立奥戸運動場","province":"東京都","city":"葛飾区","address":"東京都葛飾区高砂1丁目","lat":35.74382707,"lon":139.86149721},{"name":"葛飾区立新小岩公園","province":"東京都","city":"葛飾区","address":"東京都葛飾区西新小岩1丁目1-3","lat":35.71611839,"lon":139.85476607},{"name":"都立葛西臨海公園第２駐車場","province":"東京都","city":"江戸川区","address":"東京都江戸川区臨海町6丁目2","lat":35.64164166,"lon":139.86520384},{"name":"都立葛西臨海公園多目的広場","province":"東京都","city":"江戸川区","address":"東京都江戸川区臨海町6丁目2","lat":35.64164166,"lon":139.86520384},{"name":"都立葛西海浜公園人口なぎさ","province":"東京都","city":"江戸川区","address":"東京都江戸川区臨海町6丁目","lat":35.6462852,"lon":139.85139641},{"name":"都立大島小松川公園（自由の広場）","province":"東京都","city":"江戸川区","address":"東京都江戸川区小松川1丁目7","lat":35.69216816,"lon":139.85200056},{"name":"江戸川区臨海球技場第二","province":"東京都","city":"江戸川区","address":"東京都江戸川区臨海町6丁目1","lat":35.64490485,"lon":139.85315466},{"name":"江戸川区球場","province":"東京都","city":"江戸川区","address":"東京都江戸川区北小岩4丁目38","lat":35.73930002,"lon":139.89605594},{"name":"江戸川区立篠崎緑地１９号地・１０号地","province":"東京都","city":"江戸川区","address":"東京都江戸川区篠崎町1丁目26","lat":35.70838102,"lon":139.90561435},{"name":"都立篠崎公園野球場（第２面）","province":"東京都","city":"江戸川区","address":"東京都江戸川区上篠崎1丁目25","lat":35.7146518,"lon":139.89798133},{"name":"区営河川敷広場","province":"東京都","city":"江戸川区","address":"東京都江戸川区上篠崎1丁目","lat":35.71365485,"lon":139.90170055},{"name":"区営河川敷グラウンド","province":"東京都","city":"江戸川区","address":"東京都江戸川区上篠崎3丁目","lat":35.71301614,"lon":139.8983508},{"name":"鹿骨スポーツ広場","province":"東京都","city":"江戸川区","address":"東京都江戸川区上篠崎4丁目5","lat":35.70850907,"lon":139.8962289},{"name":"北小岩４丁目グラウンド","province":"東京都","city":"江戸川区","address":"東京都江戸川区北小岩4丁目","lat":35.73853903,"lon":139.8951338},{"name":"清川河川敷広場","province":"東京都","city":"八王子市","address":"東京都八王子市清川町19","lat":35.67043837,"lon":139.31111937},{"name":"滝が原運動場","province":"東京都","city":"八王子市","address":"東京都八王子市高月町2401","lat":35.70420999,"lon":139.32938606},{"name":"八王子市立由木中学校校庭","province":"東京都","city":"八王子市","address":"東京都八王子市下柚木2丁目34-2","lat":35.62702284,"lon":139.38510899},{"name":"西寺方グラウンド野球場","province":"東京都","city":"八王子市","address":"東京都八王子市西寺方町626","lat":35.68011387,"lon":139.27269728},{"name":"拓殖大学グラウンド","province":"東京都","city":"八王子市","address":"東京都八王子市館町815-1","lat":35.62907928,"lon":139.27986556},{"name":"共立女子学園グラウンド","province":"東京都","city":"八王子市","address":"東京都八王子市元八王子町1丁目710","lat":35.66072221,"lon":139.28961323},{"name":"東海大学八王子病院へリポート","province":"東京都","city":"八王子市","address":"東京都八王子市石川町1838","lat":35.67377242,"lon":139.35707362},{"name":"元横山２号河川敷広場","province":"東京都","city":"八王子市","address":"東京都八王子市田町4","lat":35.66624502,"lon":139.33558406},{"name":"八王子市立富士森公園陸上競技場","province":"東京都","city":"八王子市","address":"東京都八王子市台町2丁目2","lat":35.65092139,"lon":139.3227357},{"name":"八王子市立大塚公園運動場","province":"東京都","city":"八王子市","address":"東京都八王子市松が谷66","lat":35.63167023,"lon":139.41335657},{"name":"東京医科大学八王子医療センターへリポート","province":"東京都","city":"八王子市","address":"東京都八王子市館町1163","lat":35.63195929,"lon":139.28900889},{"name":"首都大学東京南大沢キャンパスグラウンド","province":"東京都","city":"八王子市","address":"東京都八王子市南大沢1丁目1","lat":35.61654608,"lon":139.37719898},{"name":"国立病院機構災害医療センターヘリポート","province":"東京都","city":"立川市","address":"東京都立川市緑町3256","lat":35.70745023,"lon":139.4092319},{"name":"武蔵野陸上競技場","province":"東京都","city":"武蔵野市","address":"東京都武蔵野市吉祥寺北町5丁目11-20","lat":35.71788638,"lon":139.56758731},{"name":"都立武蔵野中央公園","province":"東京都","city":"武蔵野市","address":"東京都武蔵野市八幡町2丁目4-22","lat":35.718175,"lon":139.55645772},{"name":"武蔵野赤十字病院ヘリポート","province":"東京都","city":"武蔵野市","address":"東京都武蔵野市境南町1丁目26-1","lat":35.69687727,"lon":139.54853159},{"name":"三鷹市立第一中学校校庭","province":"東京都","city":"三鷹市","address":"東京都三鷹市下連雀9丁目10-1","lat":35.68538706,"lon":139.55970316},{"name":"三鷹市立大沢第二グラウンドサッカー場","province":"東京都","city":"三鷹市","address":"東京都三鷹市大沢5丁目21","lat":35.67102985,"lon":139.53154793},{"name":"杏林大学医学部付属病院ヘリポート","province":"東京都","city":"三鷹市","address":"東京都三鷹市新川6丁目20-2","lat":35.67747976,"lon":139.56650561},{"name":"立正佼成会青梅練成道場グラウンド","province":"東京都","city":"青梅市","address":"東京都青梅市小曾木2丁目450","lat":35.81221561,"lon":139.29602679},{"name":"明星大学青梅キャンパスグラウンド","province":"東京都","city":"青梅市","address":"東京都青梅市長淵2丁目590","lat":35.77275567,"lon":139.26727244},{"name":"青梅市市民球技場野球場","province":"東京都","city":"青梅市","address":"東京都青梅市河辺町1丁目872-1","lat":35.77784173,"lon":139.28723709},{"name":"青梅市立総合病院ヘリポート","province":"東京都","city":"青梅市","address":"東京都青梅市東青梅4丁目16-5","lat":35.78202441,"lon":139.28118194},{"name":"青梅市立第六小学校校庭","province":"東京都","city":"青梅市","address":"東京都青梅市二俣尾3丁目903-1","lat":35.80159313,"lon":139.2168608},{"name":"都立武蔵野の森公園朝日サッカー場","province":"東京都","city":"府中市","address":"東京都府中市朝日町3丁目","lat":35.6664691,"lon":139.5212629},{"name":"東京競馬場・日吉体育館駐車場","province":"東京都","city":"府中市","address":"東京都府中市八幡町3丁目11","lat":35.66652097,"lon":139.49086538},{"name":"東京競馬場","province":"東京都","city":"府中市","address":"東京都府中市日吉町1","lat":35.66537655,"lon":139.48689909},{"name":"稲城大橋河川敷","province":"東京都","city":"府中市","address":"東京都府中市押立町5丁目","lat":35.65279891,"lon":139.51860288},{"name":"関戸橋河川敷","province":"東京都","city":"府中市","address":"東京都府中市住吉町2丁目","lat":35.65711565,"lon":139.45856007},{"name":"府中市陸上競技場","province":"東京都","city":"府中市","address":"東京都府中市寿町2丁目20","lat":35.67664722,"lon":139.47528856},{"name":"都立多摩・小児総合医療センターヘリポート","province":"東京都","city":"府中市","address":"東京都府中市武蔵台2丁目8-29","lat":35.69188402,"lon":139.46098088},{"name":"郷土の森公園（是政緑地）","province":"東京都","city":"府中市","address":"東京都府中市是政6丁目","lat":35.656008,"lon":139.48189143},{"name":"都立府中の森公園サッカー場","province":"東京都","city":"府中市","address":"東京都府中市浅間町1丁目","lat":35.6770059,"lon":139.49241491},{"name":"昭島市立大神公園・市立多摩川緑地くじら運動公園","province":"東京都","city":"昭島市","address":"東京都昭島市宮沢町3丁目17","lat":35.69509229,"lon":139.36457787},{"name":"昭和の森ゴルフコース（アウトコース７番）","province":"東京都","city":"昭島市","address":"東京都昭島市つつじが丘1丁目1-7","lat":35.72342513,"lon":139.3692435},{"name":"調布市立調布市民野球場","province":"東京都","city":"調布市","address":"東京都調布市染地2丁目43-1","lat":35.64025186,"lon":139.54681004},{"name":"調布市立調布中学校校庭","province":"東京都","city":"調布市","address":"東京都調布市富士見町4丁目17-1","lat":35.66535009,"lon":139.53516172},{"name":"調布市立第八中学校校庭","province":"東京都","city":"調布市","address":"東京都調布市仙川町2丁目15-2","lat":35.66445108,"lon":139.58169365},{"name":"調布市立第四中学校校庭","province":"東京都","city":"調布市","address":"東京都調布市若葉町3丁目15-1","lat":35.65392455,"lon":139.58283002},{"name":"調布市立第三中学校校庭","province":"東京都","city":"調布市","address":"東京都調布市染地3丁目2-7","lat":35.6414069,"lon":139.55643366},{"name":"調布市立神代中学校校庭","province":"東京都","city":"調布市","address":"東京都調布市佐須町5丁目26-1","lat":35.66162316,"lon":139.5616816},{"name":"調布市立布田小学校校庭","province":"東京都","city":"調布市","address":"東京都調布市染地1丁目1-85","lat":35.64330667,"lon":139.54542083},{"name":"調布市立第三小学校校庭","province":"東京都","city":"調布市","address":"東京都調布市上石原2丁目19-13","lat":35.65473491,"lon":139.52783806},{"name":"調布市立北ノ台小学校校庭","province":"東京都","city":"調布市","address":"東京都調布市深大寺北町2丁目41-1","lat":35.67543247,"lon":139.55284301},{"name":"神代植物公園","province":"東京都","city":"調布市","address":"東京都調布市深大寺元町5丁目","lat":35.66837758,"lon":139.54571333},{"name":"大町スポーツ施設大運動場","province":"東京都","city":"調布市","address":"東京都調布市菊野台3丁目27-40","lat":35.65252451,"lon":139.5724838},{"name":"町田市立町田市民球場","province":"東京都","city":"町田市","address":"東京都町田市旭町3丁目20-60","lat":35.55634896,"lon":139.44662554},{"name":"町田市鶴見川クリーンセンター","province":"東京都","city":"町田市","address":"東京都町田市三輪緑山1丁目1","lat":35.56975115,"lon":139.48945637},{"name":"日本大学第三高等学校運動場","province":"東京都","city":"町田市","address":"東京都町田市図師町11-2375","lat":35.59196136,"lon":139.41930483},{"name":"法政大学プレイグラウンド","province":"東京都","city":"町田市","address":"東京都町田市相原町4342","lat":35.61340443,"lon":139.29763694},{"name":"町田市立野津田公園陸上競技場","province":"東京都","city":"町田市","address":"東京都町田市野津田町2035","lat":35.59190908,"lon":139.43862536},{"name":"日向山公園野球場（藤の台球場）","province":"東京都","city":"町田市","address":"東京都町田市本町田3486","lat":35.56881998,"lon":139.44800563},{"name":"町田市立町田中央公園","province":"東京都","city":"町田市","address":"東京都町田市旭町3丁目20-60","lat":35.55634896,"lon":139.44662554},{"name":"町田市立リサイクルセンター","province":"東京都","city":"町田市","address":"東京都町田市下小山田町3160","lat":35.58679242,"lon":139.41140293},{"name":"都立小金井公園","province":"東京都","city":"小金井市","address":"東京都小金井市関野町1丁目","lat":35.71343867,"lon":139.51977227},{"name":"丸井小金井総合グラウンド","province":"東京都","city":"小平市","address":"東京都小平市花小金井8丁目25-1","lat":35.73125838,"lon":139.50415049},{"name":"千代田区花小金井グラウンド","province":"東京都","city":"小平市","address":"東京都小平市花小金井南町3丁目2","lat":35.72044891,"lon":139.51886641},{"name":"小平市立中央公園グラウンド","province":"東京都","city":"小平市","address":"東京都小平市津田町1丁目1","lat":35.72249436,"lon":139.46201018},{"name":"東光寺グラウンド","province":"東京都","city":"日野市","address":"東京都日野市栄町5丁目5","lat":35.68608814,"lon":139.38274327},{"name":"浅川スポーツ広場","province":"東京都","city":"日野市","address":"東京都日野市万願寺5丁目3","lat":35.66786596,"lon":139.41298862},{"name":"豊田児童グラウンド","province":"東京都","city":"日野市","address":"東京都日野市豊田1丁目3","lat":35.65792487,"lon":139.38949084},{"name":"多摩川総合グラウンド","province":"東京都","city":"日野市","address":"東京都日野市万願寺1丁目1-2","lat":35.67381832,"lon":139.42369866},{"name":"杉野女子大学日野キャンパス","province":"東京都","city":"日野市","address":"東京都日野市百草1006","lat":35.64705754,"lon":139.42177197},{"name":"市民の森スポーツ公園","province":"東京都","city":"日野市","address":"東京都日野市日野本町7丁目12","lat":35.67999207,"lon":139.4022724},{"name":"日野市立多摩平第一公園","province":"東京都","city":"日野市","address":"東京都日野市多摩平4丁目2","lat":35.66661255,"lon":139.37938586},{"name":"平山台健康・市民支援センター","province":"東京都","city":"日野市","address":"東京都日野市平山2丁目1-1","lat":35.64097677,"lon":139.38713883},{"name":"万願寺中央公園グラウンド","province":"東京都","city":"日野市","address":"東京都日野市万願寺4丁目20-11","lat":35.67042683,"lon":139.41514947},{"name":"東村山市立東村山運動公園","province":"東京都","city":"東村山市","address":"東京都東村山市恩多町1丁目51-1","lat":35.75413874,"lon":139.48959805},{"name":"経済産業研究所グラウンド","province":"東京都","city":"東村山市","address":"東京都東村山市富士見町5丁目4-36","lat":35.74688305,"lon":139.45748178},{"name":"都立東村山中央公園","province":"東京都","city":"東村山市","address":"東京都東村山市富士見町5丁目","lat":35.74535555,"lon":139.46071488},{"name":"国分寺市立窪東公園","province":"東京都","city":"国分寺市","address":"東京都国分寺市東戸倉2丁目19","lat":35.71561748,"lon":139.46532404},{"name":"一橋大学グラウンド","province":"東京都","city":"国立市","address":"東京都国立市中2丁目1","lat":35.69427214,"lon":139.44260462},{"name":"福生市立多摩川緑地福生南公園","province":"東京都","city":"福生市","address":"東京都福生市南田園1丁目1-1","lat":35.71975535,"lon":139.33089655},{"name":"加美平野球場","province":"東京都","city":"福生市","address":"東京都福生市加美平1丁目21","lat":35.75075425,"lon":139.3271652},{"name":"狛江市立多摩川緑地公園グラウンド","province":"東京都","city":"狛江市","address":"東京都狛江市猪方4丁目","lat":35.62390138,"lon":139.57723281},{"name":"防衛省共済組合狛江スポーツセンター","province":"東京都","city":"狛江市","address":"東京都狛江市元和泉2丁目30","lat":35.63228871,"lon":139.5684829},{"name":"都立東大和南公園","province":"東京都","city":"東大和市","address":"東京都東大和市桜が丘2丁目106-2","lat":35.73352264,"lon":139.42463515},{"name":"東大和市立第６小学校校庭","province":"東京都","city":"東大和市","address":"東京都東大和市仲原1丁目5-1","lat":35.74447733,"lon":139.44344144},{"name":"東京都共済組合清瀬運動場","province":"東京都","city":"清瀬市","address":"東京都清瀬市竹丘3丁目10-5","lat":35.76460172,"lon":139.5013023},{"name":"東久留米市立滝山公園","province":"東京都","city":"東久留米市","address":"東京都東久留米市滝山2丁目4","lat":35.74556523,"lon":139.51002988},{"name":"柳泉園組合グラウンド","province":"東京都","city":"東久留米市","address":"東京都東久留米市下里4丁目3-10","lat":35.75475824,"lon":139.49449483},{"name":"東京経済大学運動場","province":"東京都","city":"武蔵村山市","address":"東京都武蔵村山市学園5丁目22-1","lat":35.74428181,"lon":139.39444868},{"name":"多摩市立多摩市東公園陸上競技場","province":"東京都","city":"多摩市","address":"東京都多摩市諏訪4丁目9","lat":35.62459204,"lon":139.46102787},{"name":"多摩市立関戸公園グラウンド","province":"東京都","city":"多摩市","address":"東京都多摩市関戸3丁目5","lat":35.65016368,"lon":139.45949912},{"name":"宝野公園","province":"東京都","city":"多摩市","address":"東京都多摩市落合5丁目5","lat":35.61428925,"lon":139.42303984},{"name":"稲城市立中央公園総合グラウンド","province":"東京都","city":"稲城市","address":"東京都稲城市長峰1丁目1","lat":35.63011248,"lon":139.48798717},{"name":"稲城市立南山グラウンド","province":"東京都","city":"稲城市","address":"東京都稲城市東長沼2406-1","lat":35.63525992,"lon":139.50477484},{"name":"学校法人菅生学園初等学校校庭","province":"東京都","city":"あきる野市","address":"東京都あきる野市菅生1468","lat":35.7561553,"lon":139.28712116},{"name":"市民運動場","province":"東京都","city":"あきる野市","address":"東京都あきる野市二宮683","lat":35.73040042,"lon":139.30224009},{"name":"あきる野市立小和田グラウンド","province":"東京都","city":"あきる野市","address":"東京都あきる野市小和田8","lat":35.72234618,"lon":139.22531468},{"name":"富士通株式会社あきる野テクノロジーセンター駐車場","province":"東京都","city":"あきる野市","address":"東京都あきる野市渕上50","lat":35.73065782,"lon":139.27354552},{"name":"五日市カントリー","province":"東京都","city":"あきる野市","address":"東京都あきる野市網代745","lat":35.71640895,"lon":139.25022007},{"name":"立川国際カントリー","province":"東京都","city":"あきる野市","address":"東京都あきる野市草花2390","lat":35.75056749,"lon":139.30485031},{"name":"都立秋留台公園陸上競技場","province":"東京都","city":"あきる野市","address":"東京都あきる野市二宮","lat":35.72746496,"lon":139.31077004},{"name":"向台運動場","province":"東京都","city":"西東京市","address":"東京都西東京市向台町5丁目4-44","lat":35.72149068,"lon":139.52844608},{"name":"西東京市立文理台公園","province":"東京都","city":"西東京市","address":"東京都西東京市東町1丁目4","lat":35.74431377,"lon":139.56142287},{"name":"石畑公園","province":"東京都","city":"西多摩郡瑞穂町","address":"東京都西多摩郡瑞穂町石畑（大字）","lat":35.76716696,"lon":139.35720097},{"name":"瑞穂ビューパーク競技場","province":"東京都","city":"西多摩郡瑞穂町","address":"東京都西多摩郡瑞穂町箱根ケ崎（大字）2475","lat":35.77460487,"lon":139.35533972},{"name":"町営第２グラウンド","province":"東京都","city":"西多摩郡瑞穂町","address":"東京都西多摩郡瑞穂町箱根ケ崎西松原33-1","lat":35.77001618,"lon":139.33711925},{"name":"亜細亜大学日の出グラウンド","province":"東京都","city":"西多摩郡日の出町","address":"東京都西多摩郡日の出町平井（大字）1466","lat":35.73682361,"lon":139.26896791},{"name":"谷戸沢グラウンド","province":"東京都","city":"西多摩郡日の出町","address":"東京都西多摩郡日の出町平井（大字）3141","lat":35.75159946,"lon":139.25658506},{"name":"やすらぎの里（原則特異災害のみ）","province":"東京都","city":"西多摩郡檜原村","address":"東京都西多摩郡檜原村三都郷2717","lat":35.7353041,"lon":139.14364675},{"name":"檜原総合グラウンド","province":"東京都","city":"西多摩郡檜原村","address":"東京都西多摩郡檜原村三都郷","lat":35.74083426,"lon":139.13527251},{"name":"登計原山林広場運動公園","province":"東京都","city":"西多摩郡奥多摩町","address":"東京都西多摩郡奥多摩町氷川940","lat":35.80334886,"lon":139.09433293},{"name":"小河内ダム緊急離着陸場","province":"東京都","city":"西多摩郡奥多摩町","address":"東京都西多摩郡奥多摩町原5","lat":35.79240913,"lon":139.04891347},{"name":"町立古里小学校校庭","province":"東京都","city":"西多摩郡奥多摩町","address":"東京都西多摩郡奥多摩町小丹波75","lat":35.81497705,"lon":139.15089924},{"name":"差木地ヘリコプター臨時着陸広場","province":"長崎県","city":"西海市","address":"長崎県西海市大島町","lat":33.0361211,"lon":129.6191306},{"name":"トウシキヘリコプター臨時着陸広","province":"長崎県","city":"西海市","address":"長崎県西海市大島町","lat":33.0361211,"lon":129.6191306},{"name":"利島臨時ヘリポート","province":"東京都","city":"","address":"東京都利島村","lat":34.52913806,"lon":139.28194827},{"name":"式根島臨時ヘリポート","province":"東京都","city":"新島村","address":"東京都新島村式根島","lat":34.32432977,"lon":139.21927444},{"name":"神津島臨時ヘリポート","province":"東京都","city":"神津島村","address":"東京都神津島村","lat":34.20526867,"lon":139.13425768},{"name":"御蔵島臨時ヘリポート","province":"東京都","city":"御蔵島村","address":"東京都御蔵島村","lat":33.89736534,"lon":139.59611904},{"name":"冨士中学校","province":"東京都","city":"八丈町","address":"東京都八丈町","lat":33.11274212,"lon":139.78906712},{"name":"冨士野球場","province":"東京都","city":"八丈町","address":"東京都八丈町","lat":33.11274212,"lon":139.78906712},{"name":"大賀郷中学校","province":"東京都","city":"八丈町","address":"東京都八丈町","lat":33.11274212,"lon":139.78906712},{"name":"三原中学校","province":"東京都","city":"八丈町","address":"東京都八丈町","lat":33.11274212,"lon":139.78906712},{"name":"末吉中学校","province":"東京都","city":"八丈町","address":"東京都八丈町","lat":33.11274212,"lon":139.78906712},{"name":"樫立小学校","province":"東京都","city":"八丈町","address":"東京都八丈町","lat":33.11274212,"lon":139.78906712},{"name":"青ヶ島臨時ヘリポート","province":"東京都","city":"青ヶ島村","address":"東京都青ヶ島村","lat":32.4664592,"lon":139.76331416},{"name":"母島臨時ヘリポート","province":"東京都","city":"小笠原村","address":"東京都小笠原村","lat":27.09435777,"lon":142.19190714},{"name":"都立シンボルプロムナード公園","province":"東京都","city":"江東区","address":"東京都江東区青海1丁目","lat":35.62481633,"lon":139.77819791},{"name":"荒川下流岩淵場外","province":"東京都","city":"北区","address":"東京都北区志茂4丁目19-1","lat":35.78343288,"lon":139.73218195},{"name":"千代田都税事務所","province":"東京都","city":"千代田区","address":"東京都千代田区内神田2丁目1-12","lat":35.689081,"lon":139.76828274},{"name":"東京都中小企業振興公社","province":"東京都","city":"千代田区","address":"東京都千代田区神田佐久間町1丁目9","lat":35.69726364,"lon":139.77425451},{"name":"東京しごとセンター","province":"東京都","city":"千代田区","address":"東京都千代田区飯田橋3丁目10-3","lat":35.70055702,"lon":139.74957525},{"name":"日比谷グリーンサロン","province":"東京都","city":"千代田区","address":"東京都千代田区日比谷公園1-5","lat":35.67282684,"lon":139.75432594},{"name":"「緑と水」の市民カレッジ","province":"東京都","city":"千代田区","address":"東京都千代田区日比谷公園1-5","lat":35.67282684,"lon":139.75432594},{"name":"一橋高等学校","province":"東京都","city":"千代田区","address":"東京都千代田区東神田1丁目12-13","lat":35.69458357,"lon":139.78104065},{"name":"日比谷高等学校","province":"東京都","city":"千代田区","address":"東京都千代田区永田町2丁目16-1","lat":35.67628721,"lon":139.73974095},{"name":"スクワール麹町","province":"東京都","city":"千代田区","address":"東京都千代田区麹町6丁目6","lat":35.68555823,"lon":139.73222458},{"name":"東京交通会館","province":"東京都","city":"千代田区","address":"東京都千代田区有楽町2丁目10-1","lat":35.67498242,"lon":139.76429726},{"name":"東京舞台芸術活動支援センター","province":"東京都","city":"中央区","address":"東京都中央区日本橋箱崎町18-14","lat":35.68017135,"lon":139.78563735},{"name":"築地市場","province":"東京都","city":"中央区","address":"東京都中央区築地5丁目2-1","lat":35.66515585,"lon":139.76925834},{"name":"晴海総合高等学校","province":"東京都","city":"中央区","address":"東京都中央区晴海1丁目2-1","lat":35.65991522,"lon":139.78568212},{"name":"計量検定所","province":"東京都","city":"港区","address":"東京都港区海岸1丁目7-4","lat":35.65533448,"lon":139.76116768},{"name":"島しょ農林水産総合センター","province":"東京都","city":"港区","address":"東京都港区海岸2丁目7-104","lat":35.65068776,"lon":139.76047345},{"name":"産業貿易センター浜松町館","province":"東京都","city":"港区","address":"東京都港区海岸1丁目7-8","lat":35.65482622,"lon":139.76147045},{"name":"東京港建設事務所","province":"東京都","city":"港区","address":"東京都港区港南3丁目9-56","lat":35.63343128,"lon":139.75198321},{"name":"台場フロンティアビル","province":"東京都","city":"港区","address":"東京都港区台場2丁目3-2","lat":35.6286435,"lon":139.7778532},{"name":"ニューピア竹芝ノースタワー（ニューピアホール）","province":"東京都","city":"港区","address":"東京都港区海岸1丁目11-1","lat":35.65570119,"lon":139.76375079},{"name":"三田高等学校","province":"東京都","city":"港区","address":"東京都港区三田1丁目4-46","lat":35.65236491,"lon":139.7434554},{"name":"芝商業高等学校","province":"東京都","city":"港区","address":"東京都港区海岸1丁目8-25","lat":35.65652323,"lon":139.76054825},{"name":"六本木高等学校","province":"東京都","city":"港区","address":"東京都港区六本木6丁目16-36","lat":35.65773624,"lon":139.73120909},{"name":"東京都立中央図書館","province":"東京都","city":"港区","address":"東京都港区南麻布5丁目7-13","lat":35.65211452,"lon":139.72637084},{"name":"ホテルアジュール竹芝","province":"東京都","city":"港区","address":"東京都港区海岸1丁目11-2","lat":35.655304,"lon":139.76326473},{"name":"中央・城北職業能力開発センター","province":"東京都","city":"文京区","address":"東京都文京区後楽1丁目9-5","lat":35.70352608,"lon":139.74679479},{"name":"小石川中等教育学校","province":"東京都","city":"文京区","address":"東京都文京区本駒込2丁目29-29","lat":35.72883159,"lon":139.74594681},{"name":"教職員研修センター","province":"東京都","city":"文京区","address":"東京都文京区本郷1丁目3-3","lat":35.702432,"lon":139.75672739},{"name":"竹早高等学校","province":"東京都","city":"文京区","address":"東京都文京区小石川4丁目2-1","lat":35.71336381,"lon":139.74350307},{"name":"向丘高等学校","province":"東京都","city":"文京区","address":"東京都文京区向丘1丁目11-18","lat":35.72185769,"lon":139.7545297},{"name":"工芸高等学校","province":"東京都","city":"文京区","address":"東京都文京区本郷1丁目3-9","lat":35.70258197,"lon":139.75616354},{"name":"東京都美術館","province":"東京都","city":"台東区","address":"東京都台東区上野公園8-36","lat":35.71717831,"lon":139.77276484},{"name":"東京文化会館","province":"東京都","city":"台東区","address":"東京都台東区上野公園5-45","lat":35.71428974,"lon":139.77523145},{"name":"産業貿易センター台東館","province":"東京都","city":"台東区","address":"東京都台東区花川戸2丁目6-5","lat":35.71446242,"lon":139.79882124},{"name":"上野グリーンサロン","province":"東京都","city":"台東区","address":"東京都台東区上野公園7-47","lat":35.71500915,"lon":139.77625636},{"name":"浅草高等学校","province":"東京都","city":"台東区","address":"東京都台東区今戸1丁目8-13","lat":35.71908473,"lon":139.80254327},{"name":"忍岡高等学校","province":"東京都","city":"台東区","address":"東京都台東区浅草橋5丁目1-24","lat":35.70063851,"lon":139.78250968},{"name":"蔵前工業高等学校","province":"東京都","city":"台東区","address":"東京都台東区蔵前1丁目3-57","lat":35.70036646,"lon":139.79103716},{"name":"上野高等学校","province":"東京都","city":"台東区","address":"東京都台東区上野公園10-14","lat":35.71825035,"lon":139.76997053},{"name":"白鴎高等学校","province":"東京都","city":"台東区","address":"東京都台東区元浅草1丁目6-22","lat":35.70812107,"lon":139.78297858},{"name":"東京都江戸東京博物館","province":"東京都","city":"墨田区","address":"東京都墨田区横網1丁目4-1","lat":35.69651701,"lon":139.79620144},{"name":"皮革技術センター","province":"東京都","city":"墨田区","address":"東京都墨田区東墨田3丁目3-14","lat":35.72012918,"lon":139.83350074},{"name":"墨田川高等学校","province":"東京都","city":"墨田区","address":"東京都墨田区東向島3丁目34-14","lat":35.72188272,"lon":139.81637848},{"name":"両国高等学校","province":"東京都","city":"墨田区","address":"東京都墨田区江東橋1丁目7-14","lat":35.69453935,"lon":139.81008872},{"name":"本所高等学校","province":"東京都","city":"墨田区","address":"東京都墨田区向島3丁目37-25","lat":35.71428529,"lon":139.81112277},{"name":"橘高等学校","province":"東京都","city":"墨田区","address":"東京都墨田区立花4丁目29-7","lat":35.70930795,"lon":139.83334026},{"name":"日本橋高等学校","province":"東京都","city":"墨田区","address":"東京都墨田区八広1丁目28-21","lat":35.71966058,"lon":139.82417998},{"name":"本所都民防災教育センター","province":"東京都","city":"墨田区","address":"東京都墨田区横川4丁目6-6","lat":35.70394926,"lon":139.81518733},{"name":"江東都税事務所","province":"東京都","city":"江東区","address":"東京都江東区大島3丁目1-3","lat":35.68999589,"lon":139.82765002},{"name":"有明テニスの森公園テニス施設","province":"東京都","city":"江東区","address":"東京都江東区有明2丁目2-22","lat":35.63509873,"lon":139.78906597},{"name":"東京辰巳国際水泳場","province":"東京都","city":"江東区","address":"東京都江東区辰巳2丁目8-10","lat":35.64798406,"lon":139.81827674},{"name":"若洲海浜公園ヨット訓練所","province":"東京都","city":"江東区","address":"東京都江東区若洲3丁目1-1","lat":35.63067845,"lon":139.83766495},{"name":"城東職業能力開発センター","province":"東京都","city":"江東区","address":"東京都江東区亀戸9丁目6-27","lat":35.69624265,"lon":139.84205105},{"name":"東京国際展示場","province":"東京都","city":"江東区","address":"東京都江東区有明3丁目11-1","lat":35.62996069,"lon":139.79388808},{"name":"タイム２４ビル","province":"東京都","city":"江東区","address":"東京都江東区青海2丁目4-32","lat":35.61776181,"lon":139.77710127},{"name":"ＴＦＴビル","province":"東京都","city":"江東区","address":"東京都江東区有明3丁目6-11","lat":35.63080208,"lon":139.79057993},{"name":"有明パークビル","province":"東京都","city":"江東区","address":"東京都江東区有明3丁目7-11","lat":35.63258255,"lon":139.79307136},{"name":"産業技術研究センター本部","province":"東京都","city":"江東区","address":"東京都江東区青海2丁目4-10","lat":35.61877566,"lon":139.77967879},{"name":"深川高等学校","province":"東京都","city":"江東区","address":"東京都江東区東陽5丁目32-19","lat":35.6710869,"lon":139.81560148},{"name":"墨田工業高等学校","province":"東京都","city":"江東区","address":"東京都江東区森下5丁目1-7","lat":35.68533784,"lon":139.80693692},{"name":"大江戸高等学校","province":"東京都","city":"江東区","address":"東京都江東区千石3丁目2-11","lat":35.67943313,"lon":139.81809872},{"name":"城東高等学校","province":"東京都","city":"江東区","address":"東京都江東区大島3丁目22-1","lat":35.69293172,"lon":139.82895524},{"name":"東高等学校","province":"東京都","city":"江東区","address":"東京都江東区東砂7丁目19-24","lat":35.67371206,"lon":139.83720488},{"name":"科学技術高等学校","province":"東京都","city":"江東区","address":"東京都江東区大島1丁目2-31","lat":35.68701826,"lon":139.82136772},{"name":"江東商業高等学校","province":"東京都","city":"江東区","address":"東京都江東区亀戸4丁目50-1","lat":35.70251386,"lon":139.83147424},{"name":"第三商業高等学校","province":"東京都","city":"江東区","address":"東京都江東区越中島3丁目3-1","lat":35.66311794,"lon":139.79586185},{"name":"東京都庁第二本庁舎","province":"東京都","city":"新宿区","address":"東京都新宿区西新宿2丁目8-1","lat":35.68918461,"lon":139.69164748},{"name":"東京都議会議事堂","province":"東京都","city":"新宿区","address":"東京都新宿区西新宿2丁目8-1","lat":35.68918461,"lon":139.69164748},{"name":"新宿都税事務所","province":"東京都","city":"新宿区","address":"東京都新宿区西新宿7丁目5-8","lat":35.69678671,"lon":139.69874655},{"name":"淀橋市場","province":"東京都","city":"新宿区","address":"東京都新宿区北新宿4丁目2-1","lat":35.70560501,"lon":139.69364387},{"name":"戸山高等学校","province":"東京都","city":"新宿区","address":"東京都新宿区戸山3丁目19-1","lat":35.70655814,"lon":139.71058956},{"name":"新宿高等学校","province":"東京都","city":"新宿区","address":"東京都新宿区内藤町11-4","lat":35.68919329,"lon":139.70543237},{"name":"総合芸術高等学校","province":"東京都","city":"新宿区","address":"東京都新宿区富久町22-1","lat":35.69324863,"lon":139.71483721},{"name":"新宿山吹高等学校","province":"東京都","city":"新宿区","address":"東京都新宿区山吹町81","lat":35.70703913,"lon":139.7287324},{"name":"消防博物館","province":"東京都","city":"新宿区","address":"東京都新宿区四谷3丁目10","lat":35.68812154,"lon":139.7196617},{"name":"東京ウィメンズプラザ","province":"東京都","city":"渋谷区","address":"東京都渋谷区神宮前5丁目53-67","lat":35.662788,"lon":139.70793876},{"name":"青山高等学校","province":"東京都","city":"渋谷区","address":"東京都渋谷区神宮前2丁目1-8","lat":35.67270374,"lon":139.71607374},{"name":"広尾高等学校","province":"東京都","city":"渋谷区","address":"東京都渋谷区東4丁目14-14","lat":35.65287808,"lon":139.71284984},{"name":"第一商業高等学校","province":"東京都","city":"渋谷区","address":"東京都渋谷区鉢山町8-1","lat":35.65016143,"lon":139.6985845},{"name":"東京消防庁消防学校","province":"東京都","city":"渋谷区","address":"東京都渋谷区西原2丁目51-1","lat":35.67232498,"lon":139.67333307},{"name":"中野都税事務所","province":"東京都","city":"中野区","address":"東京都中野区中野4丁目6-15","lat":35.70966201,"lon":139.66378797},{"name":"武蔵丘高等学校","province":"東京都","city":"中野区","address":"東京都中野区上鷺宮2丁目14-1","lat":35.72899512,"lon":139.63095098},{"name":"稔ヶ丘高等学校","province":"東京都","city":"中野区","address":"東京都中野区上鷺宮5丁目11-1","lat":35.72800066,"lon":139.62576254},{"name":"富士高等学校","province":"東京都","city":"中野区","address":"東京都中野区弥生町5丁目21-1","lat":35.68959503,"lon":139.66701353},{"name":"中野工業高等学校","province":"東京都","city":"中野区","address":"東京都中野区野方3丁目5-5","lat":35.71668603,"lon":139.65667161},{"name":"鷺宮高等学校","province":"東京都","city":"中野区","address":"東京都中野区若宮3丁目46-8","lat":35.72042972,"lon":139.64432249},{"name":"杉並高等学校","province":"東京都","city":"杉並区","address":"東京都杉並区成田西4丁目15-15","lat":35.69697092,"lon":139.6316163},{"name":"荻窪高等学校","province":"東京都","city":"杉並区","address":"東京都杉並区荻窪5丁目7-20","lat":35.7019839,"lon":139.61940594},{"name":"豊多摩高等学校","province":"東京都","city":"杉並区","address":"東京都杉並区成田西2丁目6-18","lat":35.68911344,"lon":139.62882241},{"name":"西高等学校","province":"東京都","city":"杉並区","address":"東京都杉並区宮前4丁目21-32","lat":35.69236797,"lon":139.60574349},{"name":"農芸高等学校","province":"東京都","city":"杉並区","address":"東京都杉並区今川3丁目25-1","lat":35.71812612,"lon":139.6038315},{"name":"杉並工業高等学校","province":"東京都","city":"杉並区","address":"東京都杉並区上井草4丁目13-31","lat":35.7194314,"lon":139.59898463},{"name":"杉並総合高等学校","province":"東京都","city":"杉並区","address":"東京都杉並区下高井戸5丁目17-1","lat":35.67657033,"lon":139.62262609},{"name":"都立産業技術高等専門学校品川キャンパス","province":"東京都","city":"品川区","address":"東京都品川区東大井1丁目10-40","lat":35.60696497,"lon":139.7491345},{"name":"城南職業能力開発センター","province":"東京都","city":"品川区","address":"東京都品川区東品川3丁目31-16","lat":35.61250038,"lon":139.74965367},{"name":"大井ふ頭中央海浜公園","province":"東京都","city":"品川区","address":"東京都品川区八潮4丁目1-19","lat":35.59255032,"lon":139.75229052},{"name":"大井ふ頭中央海浜公園","province":"東京都","city":"品川区","address":"東京都品川区八潮4丁目2-1","lat":35.59337233,"lon":139.74986565},{"name":"大崎高等学校","province":"東京都","city":"品川区","address":"東京都品川区豊町2丁目1-7","lat":35.60950813,"lon":139.72128656},{"name":"小山台高等学校","province":"東京都","city":"品川区","address":"東京都品川区小山3丁目3-32","lat":35.62114821,"lon":139.70368496},{"name":"八潮高等学校","province":"東京都","city":"品川区","address":"東京都品川区東品川3丁目27-22","lat":35.61185035,"lon":139.74660949},{"name":"駒場高等学校","province":"東京都","city":"目黒区","address":"東京都目黒区大橋2丁目18-1","lat":35.65488281,"lon":139.68564374},{"name":"桜修館中等教育学校","province":"東京都","city":"目黒区","address":"東京都目黒区八雲1丁目1-2","lat":35.62118352,"lon":139.67099324},{"name":"目黒高等学校","province":"東京都","city":"目黒区","address":"東京都目黒区祐天寺2丁目7-15","lat":35.63692675,"lon":139.69461583},{"name":"国際高等学校","province":"東京都","city":"目黒区","address":"東京都目黒区駒場2丁目19-59","lat":35.65929326,"lon":139.67889139},{"name":"大田都税事務所","province":"東京都","city":"大田区","address":"東京都大田区西蒲田7丁目11-1","lat":35.56412477,"lon":139.71108117},{"name":"城南職業能力開発センター大田校","province":"東京都","city":"大田区","address":"東京都大田区本羽田3丁目4-30","lat":35.54887804,"lon":139.73934127},{"name":"産業技術研究センター城南支所","province":"東京都","city":"大田区","address":"東京都大田区南蒲田1丁目20-20","lat":35.55879224,"lon":139.72416907},{"name":"大田桜台高等学校","province":"東京都","city":"大田区","address":"東京都大田区中馬込3丁目11-10","lat":35.59227921,"lon":139.70362198},{"name":"大森高等学校","province":"東京都","city":"大田区","address":"東京都大田区西蒲田2丁目2-1","lat":35.57117099,"lon":139.70945034},{"name":"蒲田高等学校","province":"東京都","city":"大田区","address":"東京都大田区蒲田本町1丁目1-30","lat":35.55773127,"lon":139.71513949},{"name":"田園調布高等学校","province":"東京都","city":"大田区","address":"東京都大田区田園調布南27-1","lat":35.5823113,"lon":139.67655891},{"name":"美原高等学校","province":"東京都","city":"大田区","address":"東京都大田区大森東1丁目33-1","lat":35.57802672,"lon":139.74070317},{"name":"雪谷高等学校","province":"東京都","city":"大田区","address":"東京都大田区久が原1丁目14-1","lat":35.58597717,"lon":139.68956818},{"name":"六郷工科高等学校","province":"東京都","city":"大田区","address":"東京都大田区東六郷2丁目18-2","lat":35.54798845,"lon":139.71575962},{"name":"つばさ総合高等学校","province":"東京都","city":"大田区","address":"東京都大田区本羽田3丁目11-5","lat":35.54750602,"lon":139.73922191},{"name":"世田谷市場","province":"東京都","city":"世田谷区","address":"東京都世田谷区大蔵1丁目4-1","lat":35.63340608,"lon":139.62111116},{"name":"深沢高等学校","province":"東京都","city":"世田谷区","address":"東京都世田谷区深沢7丁目3-14","lat":35.62330496,"lon":139.64797566},{"name":"松原高等学校","province":"東京都","city":"世田谷区","address":"東京都世田谷区桜上水4丁目3-5","lat":35.66526919,"lon":139.63491157},{"name":"園芸高等学校","province":"東京都","city":"世田谷区","address":"東京都世田谷区深沢5丁目38-1","lat":35.61918875,"lon":139.64787858},{"name":"総合工科高等学校","province":"東京都","city":"世田谷区","address":"東京都世田谷区成城9丁目25-1","lat":35.65160294,"lon":139.5951874},{"name":"世田谷総合高等学校","province":"東京都","city":"世田谷区","address":"東京都世田谷区岡本2丁目9-1","lat":35.62006913,"lon":139.61914834},{"name":"桜町高等学校","province":"東京都","city":"世田谷区","address":"東京都世田谷区用賀2丁目4-1","lat":35.62644343,"lon":139.64023459},{"name":"千歳丘高等学校","province":"東京都","city":"世田谷区","address":"東京都世田谷区船橋3丁目18-1","lat":35.65227038,"lon":139.62448784},{"name":"芦花高等学校","province":"東京都","city":"世田谷区","address":"東京都世田谷区粕谷3丁目8-1","lat":35.65924678,"lon":139.60520577},{"name":"世田谷泉高等学校","province":"東京都","city":"世田谷区","address":"東京都世田谷区北烏山9丁目22-1","lat":35.67308643,"lon":139.59073425},{"name":"東京芸術劇場","province":"東京都","city":"豊島区","address":"東京都豊島区西池袋1丁目8-1","lat":35.72964715,"lon":139.70794721},{"name":"労働相談情報センター池袋事務所","province":"東京都","city":"豊島区","address":"東京都豊島区東池袋4丁目23-9","lat":35.72830311,"lon":139.71778254},{"name":"豊島市場","province":"東京都","city":"豊島区","address":"東京都豊島区巣鴨5丁目1-5","lat":35.73803576,"lon":139.73552231},{"name":"豊島高等学校","province":"東京都","city":"豊島区","address":"東京都豊島区千早4丁目9-21","lat":35.73865652,"lon":139.68286562},{"name":"文京高等学校","province":"東京都","city":"豊島区","address":"東京都豊島区西巣鴨1丁目1-5","lat":35.7358553,"lon":139.72898683},{"name":"千早高等学校","province":"東京都","city":"豊島区","address":"東京都豊島区千早3丁目46-21","lat":35.73628187,"lon":139.68532385},{"name":"池袋都民防災教育センター","province":"東京都","city":"豊島区","address":"東京都豊島区西池袋2丁目37-8","lat":35.72796675,"lon":139.70688903},{"name":"東京都障害者総合スポーツセンター","province":"東京都","city":"北区","address":"東京都北区十条台1丁目2-2","lat":35.75376426,"lon":139.72398652},{"name":"中央・城北職業能力開発センター赤羽校","province":"東京都","city":"北区","address":"東京都北区西が丘3丁目7-8","lat":35.76595692,"lon":139.71080655},{"name":"赤羽商業高等学校","province":"東京都","city":"北区","address":"東京都北区西が丘3丁目14-20","lat":35.76984251,"lon":139.70938429},{"name":"王子総合高等学校","province":"東京都","city":"北区","address":"東京都北区滝野川3丁目54-7","lat":35.74729847,"lon":139.7308001},{"name":"飛鳥高等学校","province":"東京都","city":"北区","address":"東京都北区王子6丁目8-8","lat":35.76160544,"lon":139.73947656},{"name":"桐ヶ丘高等学校","province":"東京都","city":"北区","address":"東京都北区赤羽北3丁目5-22","lat":35.7814825,"lon":139.70672302},{"name":"首都大学東京荒川キャンパス","province":"東京都","city":"荒川区","address":"東京都荒川区東尾久7丁目2-10","lat":35.74998303,"lon":139.77211339},{"name":"荒川都税事務所","province":"東京都","city":"荒川区","address":"東京都荒川区西日暮里2丁目25-1","lat":35.7295939,"lon":139.77148686},{"name":"荒川工業高等学校","province":"東京都","city":"荒川区","address":"東京都荒川区南千住6丁目42-1","lat":35.7373272,"lon":139.79221569},{"name":"竹台高等学校","province":"東京都","city":"荒川区","address":"東京都荒川区東日暮里5丁目14-1","lat":35.72586666,"lon":139.7777754},{"name":"中央・城北職業能力開発センター板橋校","province":"東京都","city":"板橋区","address":"東京都板橋区舟渡2丁目2-1","lat":35.79383056,"lon":139.69136553},{"name":"板橋市場","province":"東京都","city":"板橋区","address":"東京都板橋区高島平6丁目1-5","lat":35.79387658,"lon":139.65126915},{"name":"板橋高等学校","province":"東京都","city":"板橋区","address":"東京都板橋区大谷口1丁目54-1","lat":35.74187304,"lon":139.68991765},{"name":"大山高等学校","province":"東京都","city":"板橋区","address":"東京都板橋区小茂根5丁目18-1","lat":35.7538323,"lon":139.67484061},{"name":"北園高等学校","province":"東京都","city":"板橋区","address":"東京都板橋区板橋4丁目14-1","lat":35.75028113,"lon":139.7157929},{"name":"高島高等学校","province":"東京都","city":"板橋区","address":"東京都板橋区高島平3丁目7-1","lat":35.78634732,"lon":139.65317743},{"name":"北豊島工業高等学校","province":"東京都","city":"板橋区","address":"東京都板橋区富士見町28-1","lat":35.76089327,"lon":139.6971551},{"name":"板橋有徳高等学校","province":"東京都","city":"板橋区","address":"東京都板橋区徳丸2丁目17-1","lat":35.77254916,"lon":139.66137997},{"name":"練馬工業高等学校","province":"東京都","city":"練馬区","address":"東京都練馬区早宮2丁目9-18","lat":35.75431506,"lon":139.6546174},{"name":"練馬高等学校","province":"東京都","city":"練馬区","address":"東京都練馬区春日町4丁目28-25","lat":35.75723387,"lon":139.6421628},{"name":"第四商業高等学校","province":"東京都","city":"練馬区","address":"東京都練馬区貫井3丁目45-19","lat":35.73887722,"lon":139.62623708},{"name":"井草高等学校","province":"東京都","city":"練馬区","address":"東京都練馬区上石神井2丁目2-43","lat":35.72767489,"lon":139.59843991},{"name":"大泉高等学校","province":"東京都","city":"練馬区","address":"東京都練馬区東大泉5丁目3-1","lat":35.74595884,"lon":139.59345624},{"name":"大泉桜高等学校","province":"東京都","city":"練馬区","address":"東京都練馬区大泉町3丁目5-7","lat":35.76381233,"lon":139.59736645},{"name":"石神井高等学校","province":"東京都","city":"練馬区","address":"東京都練馬区関町北4丁目32-48","lat":35.73043505,"lon":139.57149201},{"name":"田柄高等学校","province":"東京都","city":"練馬区","address":"東京都練馬区光が丘2丁目3-1","lat":35.7633858,"lon":139.63478538},{"name":"光丘高等学校","province":"東京都","city":"練馬区","address":"東京都練馬区旭町2丁目1-35","lat":35.76739341,"lon":139.62469163},{"name":"足立都税事務所","province":"東京都","city":"足立区","address":"東京都足立区西新井栄町2丁目8-15","lat":35.77795495,"lon":139.7881132},{"name":"東京武道館","province":"東京都","city":"足立区","address":"東京都足立区綾瀬3丁目20-1","lat":35.76579609,"lon":139.82580213},{"name":"足立市場","province":"東京都","city":"足立区","address":"東京都足立区千住橋戸町50","lat":35.74084336,"lon":139.79869253},{"name":"北足立市場","province":"東京都","city":"足立区","address":"東京都足立区入谷6丁目3-1","lat":35.79861847,"lon":139.7643284},{"name":"足立新田高等学校","province":"東京都","city":"足立区","address":"東京都足立区新田2丁目10-16","lat":35.7701545,"lon":139.74130933},{"name":"足立東高等学校","province":"東京都","city":"足立区","address":"東京都足立区大谷田2丁目3-5","lat":35.78134984,"lon":139.84544447},{"name":"淵江高等学校","province":"東京都","city":"足立区","address":"東京都足立区東保木間2丁目10-1","lat":35.79201507,"lon":139.81163853},{"name":"荒川商業高等学校","province":"東京都","city":"足立区","address":"東京都足立区小台2丁目1-31","lat":35.75512634,"lon":139.76149721},{"name":"青井高等学校","province":"東京都","city":"足立区","address":"東京都足立区青井1丁目7-35","lat":35.77354217,"lon":139.81205304},{"name":"足立高等学校","province":"東京都","city":"足立区","address":"東京都足立区中央本町1丁目3-9","lat":35.7702674,"lon":139.80490379},{"name":"江北高等学校","province":"東京都","city":"足立区","address":"東京都足立区西綾瀬4丁目14-30","lat":35.76672089,"lon":139.82035257},{"name":"足立工業高等学校","province":"東京都","city":"足立区","address":"東京都足立区西新井4丁目30-1","lat":35.78805347,"lon":139.77796089},{"name":"足立西高等学校","province":"東京都","city":"足立区","address":"東京都足立区江北5丁目7-1","lat":35.77654897,"lon":139.76810389},{"name":"産業技術研究センター城東支所","province":"東京都","city":"葛飾区","address":"東京都葛飾区青戸7丁目2-5","lat":35.75314809,"lon":139.85219761},{"name":"南葛飾高等学校","province":"東京都","city":"葛飾区","address":"東京都葛飾区立石6丁目4-1","lat":35.74460459,"lon":139.84813447},{"name":"葛飾野高等学校","province":"東京都","city":"葛飾区","address":"東京都葛飾区亀有1丁目7-1","lat":35.7557838,"lon":139.84568418},{"name":"農産高等学校","province":"東京都","city":"葛飾区","address":"東京都葛飾区西亀有1丁目28-1","lat":35.7591722,"lon":139.84153162},{"name":"葛飾商業高等学校","province":"東京都","city":"葛飾区","address":"東京都葛飾区新宿3丁目14-1","lat":35.75721985,"lon":139.86483258},{"name":"葛飾総合高等学校","province":"東京都","city":"葛飾区","address":"東京都葛飾区南水元4丁目21-1","lat":35.77796689,"lon":139.86473761},{"name":"城東職業能力開発センター江戸川校","province":"東京都","city":"江戸川区","address":"東京都江戸川区中央2丁目31-27","lat":35.70692643,"lon":139.87508919},{"name":"葛西市場","province":"東京都","city":"江戸川区","address":"東京都江戸川区臨海町3丁目4-1","lat":35.64921017,"lon":139.86351753},{"name":"江戸川高等学校","province":"東京都","city":"江戸川区","address":"東京都江戸川区松島2丁目38-1","lat":35.70868342,"lon":139.865621},{"name":"葛西南高等学校","province":"東京都","city":"江戸川区","address":"東京都江戸川区南葛西1丁目11-1","lat":35.65367379,"lon":139.87079175},{"name":"小松川高等学校","province":"東京都","city":"江戸川区","address":"東京都江戸川区平井1丁目27-10","lat":35.70266933,"lon":139.85134779},{"name":"篠崎高等学校","province":"東京都","city":"江戸川区","address":"東京都江戸川区東篠崎1丁目10-1","lat":35.70047624,"lon":139.91601672},{"name":"葛西工業高等学校","province":"東京都","city":"江戸川区","address":"東京都江戸川区一之江7丁目68-1","lat":35.68361274,"lon":139.87887044},{"name":"小岩高等学校","province":"東京都","city":"江戸川区","address":"東京都江戸川区本一色3丁目10-1","lat":35.7213742,"lon":139.86892265},{"name":"紅葉川高等学校","province":"東京都","city":"江戸川区","address":"東京都江戸川区臨海町2丁目1-1","lat":35.65276793,"lon":139.85881221},{"name":"首都大学東京南大沢キャンパス","province":"東京都","city":"八王子市","address":"東京都八王子市南大沢1丁目1","lat":35.61654608,"lon":139.37719898},{"name":"八王子都税事務所","province":"東京都","city":"八王子市","address":"東京都八王子市明神町3丁目19-2","lat":35.65675182,"lon":139.34245322},{"name":"労働相談情報センター八王子事務所","province":"東京都","city":"八王子市","address":"東京都八王子市明神町3丁目5-1","lat":35.65595477,"lon":139.34558075},{"name":"多摩職業能力開発センター八王子校","province":"東京都","city":"八王子市","address":"東京都八王子市台町1丁目11-1","lat":35.64984943,"lon":139.32771865},{"name":"八王子北高等学校","province":"東京都","city":"八王子市","address":"東京都八王子市楢原町601","lat":35.68519758,"lon":139.30295007},{"name":"八王子拓真高等学校","province":"東京都","city":"八王子市","address":"東京都八王子市台町3丁目25-1","lat":35.65470693,"lon":139.31724991},{"name":"南多摩中等教育学校","province":"東京都","city":"八王子市","address":"東京都八王子市明神町4丁目20-1","lat":35.66063198,"lon":139.34429182},{"name":"八王子桑志高等学校","province":"東京都","city":"八王子市","address":"東京都八王子市千人町4丁目8-1","lat":35.65808959,"lon":139.30537307},{"name":"片倉高等学校","province":"東京都","city":"八王子市","address":"東京都八王子市片倉町1643","lat":35.62971325,"lon":139.34077375},{"name":"翔陽高等学校","province":"東京都","city":"八王子市","address":"東京都八王子市館町1097-136","lat":35.62922368,"lon":139.29131717},{"name":"八王子東高等学校","province":"東京都","city":"八王子市","address":"東京都八王子市高倉町68-1","lat":35.66190448,"lon":139.36441227},{"name":"富士森高等学校","province":"東京都","city":"八王子市","address":"東京都八王子市長房町420-2","lat":35.65720628,"lon":139.30200118},{"name":"松が谷高等学校","province":"東京都","city":"八王子市","address":"東京都八王子市松が谷1772","lat":35.62826501,"lon":139.41032919},{"name":"東京都農林水産振興財団（立川庁舎）","province":"東京都","city":"立川市","address":"東京都立川市富士見町3丁目8-1","lat":35.6984897,"lon":139.39270029},{"name":"立川国際中等教育学校","province":"東京都","city":"立川市","address":"東京都立川市曙町3丁目29-37","lat":35.70278462,"lon":139.42823332},{"name":"多摩教育センター","province":"東京都","city":"立川市","address":"東京都立川市錦町6丁目3-1","lat":35.68951919,"lon":139.41899846},{"name":"立川高等学校","province":"東京都","city":"立川市","address":"東京都立川市錦町2丁目13-5","lat":35.69247702,"lon":139.41289327},{"name":"砂川高等学校","province":"東京都","city":"立川市","address":"東京都立川市泉町935-4","lat":35.71814365,"lon":139.41643375},{"name":"立川都民防災教育センター（立川防災館）","province":"東京都","city":"立川市","address":"東京都立川市泉町1156-1","lat":35.71589087,"lon":139.40621247},{"name":"武蔵高等学校","province":"東京都","city":"武蔵野市","address":"東京都武蔵野市境4丁目13-28","lat":35.70770641,"lon":139.53965969},{"name":"武蔵野北高等学校","province":"東京都","city":"武蔵野市","address":"東京都武蔵野市八幡町2丁目3-10","lat":35.71979428,"lon":139.55733535},{"name":"三鷹中等教育学校","province":"東京都","city":"三鷹市","address":"東京都三鷹市新川6丁目21-21","lat":35.67937122,"lon":139.56690551},{"name":"東京都青梅合同庁舎","province":"東京都","city":"青梅市","address":"東京都青梅市河辺町6丁目4-1","lat":35.77999986,"lon":139.28959793},{"name":"東京都農林水産振興財団（青梅庁舎）","province":"東京都","city":"青梅市","address":"東京都青梅市新町6丁目7-1","lat":35.78966597,"lon":139.31169301},{"name":"多摩高等学校","province":"東京都","city":"青梅市","address":"東京都青梅市裏宿町580","lat":35.78959473,"lon":139.24684382},{"name":"青梅総合高等学校","province":"東京都","city":"青梅市","address":"東京都青梅市勝沼1丁目60-1","lat":35.78894824,"lon":139.26913567},{"name":"多摩職業能力開発センター府中校","province":"東京都","city":"府中市","address":"東京都府中市南町4丁目37-2","lat":35.65667142,"lon":139.46563446},{"name":"府中高等学校","province":"東京都","city":"府中市","address":"東京都府中市栄町3丁目3-1","lat":35.68738208,"lon":139.47445767},{"name":"府中西高等学校","province":"東京都","city":"府中市","address":"東京都府中市日新町4丁目6-7","lat":35.67198313,"lon":139.44669394},{"name":"府中東高等学校","province":"東京都","city":"府中市","address":"東京都府中市押立町4丁目21","lat":35.65608157,"lon":139.5158667},{"name":"農業高等学校","province":"東京都","city":"府中市","address":"東京都府中市寿町1丁目10-2","lat":35.6762279,"lon":139.47862997},{"name":"多摩職業能力開発センター","province":"東京都","city":"昭島市","address":"東京都昭島市東町3丁目6-33","lat":35.69974508,"lon":139.39149757},{"name":"産業技術研究センター多摩テクノプラザ","province":"東京都","city":"昭島市","address":"東京都昭島市東町3丁目6-1","lat":35.69976454,"lon":139.39225862},{"name":"昭和高等学校","province":"東京都","city":"昭島市","address":"東京都昭島市東町2丁目3-21","lat":35.70384171,"lon":139.38706448},{"name":"拝島高等学校","province":"東京都","city":"昭島市","address":"東京都昭島市拝島町4丁目13-1","lat":35.70386031,"lon":139.34331551},{"name":"味の素スタジアム（調布庁舎）","province":"東京都","city":"調布市","address":"東京都調布市西町376-3","lat":35.66355292,"lon":139.52508771},{"name":"神代高等学校","province":"東京都","city":"調布市","address":"東京都調布市若葉町1丁目46-1","lat":35.65693817,"lon":139.58619907},{"name":"調布北高等学校","province":"東京都","city":"調布市","address":"東京都調布市深大寺北町5丁目39-1","lat":35.67999023,"lon":139.54936542},{"name":"調布南高等学校","province":"東京都","city":"調布市","address":"東京都調布市多摩川6丁目2-1","lat":35.64401209,"lon":139.53953247},{"name":"小川高等学校","province":"東京都","city":"町田市","address":"東京都町田市小川2丁目1002-1","lat":35.53233046,"lon":139.46933859},{"name":"町田総合高等学校","province":"東京都","city":"町田市","address":"東京都町田市木曽西3丁目5-1","lat":35.57035541,"lon":139.41678624},{"name":"町田工業高等学校","province":"東京都","city":"町田市","address":"東京都町田市忠生1丁目20-2","lat":35.5755605,"lon":139.42215504},{"name":"町田高等学校","province":"東京都","city":"町田市","address":"東京都町田市中町4丁目25-3","lat":35.55337986,"lon":139.44872268},{"name":"野津田高等学校","province":"東京都","city":"町田市","address":"東京都町田市野津田町2001","lat":35.58961486,"lon":139.43740885},{"name":"山崎高等学校","province":"東京都","city":"町田市","address":"東京都町田市山崎町1453-1","lat":35.57680228,"lon":139.43379559},{"name":"江戸東京たてもの園","province":"東京都","city":"小金井市","address":"東京都小金井市桜町3丁目7-1","lat":35.71581318,"lon":139.51259218},{"name":"小金井北高等学校","province":"東京都","city":"小金井市","address":"東京都小金井市緑町4丁目1-1","lat":35.70524506,"lon":139.51681454},{"name":"多摩科学技術高等学校","province":"東京都","city":"小金井市","address":"東京都小金井市本町6丁目8-9","lat":35.70040901,"lon":139.50024664},{"name":"小平高等学校","province":"東京都","city":"小平市","address":"東京都小平市仲町112-1","lat":35.7328521,"lon":139.48319675},{"name":"小平南高等学校","province":"東京都","city":"小平市","address":"東京都小平市上水本町6丁目21-1","lat":35.71163208,"lon":139.47501223},{"name":"小平西高等学校","province":"東京都","city":"小平市","address":"東京都小平市小川町1丁目502-95","lat":35.72551567,"lon":139.44206742},{"name":"首都大学東京日野キャンパス","province":"東京都","city":"日野市","address":"東京都日野市旭が丘6丁目6","lat":35.66122125,"lon":139.36573439},{"name":"日野台高等学校","province":"東京都","city":"日野市","address":"東京都日野市大坂上4丁目16-1","lat":35.67263422,"lon":139.38604902},{"name":"南平高等学校","province":"東京都","city":"日野市","address":"東京都日野市南平8丁目2-3","lat":35.65158408,"lon":139.39627937},{"name":"日野高等学校","province":"東京都","city":"日野市","address":"東京都日野市石田1丁目190-1","lat":35.66727187,"lon":139.42331557},{"name":"東村山ナーシングホーム","province":"東京都","city":"東村山市","address":"東京都東村山市青葉町1丁目7-1","lat":35.76043805,"lon":139.49094217},{"name":"東村山西高等学校","province":"東京都","city":"東村山市","address":"東京都東村山市富士見町5丁目4-41","lat":35.749666,"lon":139.45542351},{"name":"東村山高等学校","province":"東京都","city":"東村山市","address":"東京都東村山市恩多町4丁目26-1","lat":35.759885,"lon":139.47780442},{"name":"労働相談情報センター国分寺事務所","province":"東京都","city":"国分寺市","address":"東京都国分寺市南町3丁目22-10","lat":35.69871697,"lon":139.47803747},{"name":"国分寺高等学校","province":"東京都","city":"国分寺市","address":"東京都国分寺市新町3丁目2-5","lat":35.71226464,"lon":139.4477841},{"name":"東京都多摩障害者スポーツセンター","province":"東京都","city":"国立市","address":"東京都国立市富士見台2丁目1-1","lat":35.68666756,"lon":139.44659622},{"name":"国立高等学校","province":"東京都","city":"国立市","address":"東京都国立市東4丁目25-1","lat":35.68837299,"lon":139.44920148},{"name":"福生高等学校","province":"東京都","city":"福生市","address":"東京都福生市北田園2丁目11-3","lat":35.73671136,"lon":139.32214663},{"name":"多摩工業高等学校","province":"東京都","city":"福生市","address":"東京都福生市熊川（大字）215","lat":35.71601153,"lon":139.33874607},{"name":"狛江高等学校","province":"東京都","city":"狛江市","address":"東京都狛江市元和泉3丁目9-1","lat":35.62743131,"lon":139.57056099},{"name":"東大和高等学校","province":"東京都","city":"東大和市","address":"東京都東大和市中央3丁目945","lat":35.74553514,"lon":139.42458175},{"name":"東大和南高等学校","province":"東京都","city":"東大和市","address":"東京都東大和市桜が丘3丁目44-8","lat":35.73181724,"lon":139.42322979},{"name":"清瀬高等学校","province":"東京都","city":"清瀬市","address":"東京都清瀬市松山3丁目1-56","lat":35.76969866,"lon":139.51487318},{"name":"東久留米総合高等学校","province":"東京都","city":"東久留米市","address":"東京都東久留米市幸町5丁目8-46","lat":35.76245241,"lon":139.51957291},{"name":"久留米西高等学校","province":"東京都","city":"東久留米市","address":"東京都東久留米市野火止2丁目1-44","lat":35.76190233,"lon":139.51246801},{"name":"上水高等学校","province":"東京都","city":"武蔵村山市","address":"東京都武蔵村山市大南4丁目62-1","lat":35.73534715,"lon":139.41235562},{"name":"武蔵村山高等学校","province":"東京都","city":"武蔵村山市","address":"東京都武蔵村山市中原1丁目7-1","lat":35.75687123,"lon":139.36591733},{"name":"多摩ニュータウン市場","province":"東京都","city":"多摩市","address":"東京都多摩市永山7丁目4","lat":35.60927671,"lon":139.44523259},{"name":"永山高等学校","province":"東京都","city":"多摩市","address":"東京都多摩市永山5丁目22","lat":35.61369294,"lon":139.44800719},{"name":"若葉総合高等学校","province":"東京都","city":"稲城市","address":"東京都稲城市坂浜1434-3","lat":35.61828624,"lon":139.47916351},{"name":"羽村高等学校","province":"東京都","city":"羽村市","address":"東京都羽村市羽4152-1","lat":35.76512217,"lon":139.33141434},{"name":"秋留台高等学校","province":"東京都","city":"あきる野市","address":"東京都あきる野市平沢153-4","lat":35.73220291,"lon":139.30067627},{"name":"五日市高等学校","province":"東京都","city":"あきる野市","address":"東京都あきる野市五日市894","lat":35.72940142,"lon":139.21780665},{"name":"田無高等学校","province":"東京都","city":"西東京市","address":"東京都西東京市向台町5丁目4-34","lat":35.72048804,"lon":139.52920996},{"name":"保谷高等学校","province":"東京都","city":"西東京市","address":"東京都西東京市住吉町5丁目8-23","lat":35.74579123,"lon":139.55540942},{"name":"田無工業高等学校","province":"東京都","city":"西東京市","address":"東京都西東京市向台町1丁目9-1","lat":35.72006073,"lon":139.54860553},{"name":"瑞穂農芸高等学校","province":"東京都","city":"西多摩郡瑞穂町","address":"東京都西多摩郡瑞穂町石畑（大字）2027","lat":35.77686854,"lon":139.35968925}]}