{"category":"toilet","data":[{"name":"駒場東大前駅公衆便所","province":"東京都","city":"目黒区","address":"東京都目黒区駒場2-2-1","lat":35.658784,"lon":139.682796},{"name":"南部橋公衆便所","province":"東京都","city":"目黒区","address":"東京都目黒区青葉台2-19-4","lat":35.649164,"lon":139.693042},{"name":"大橋公衆便所","province":"東京都","city":"目黒区","address":"東京都目黒区大橋2-24-8","lat":35.651482,"lon":139.684671},{"name":"正覚寺公衆便所","province":"東京都","city":"目黒区","address":"東京都目黒区中目黒3-1-6","lat":35.641533,"lon":139.700364},{"name":"祐天寺公衆便所","province":"東京都","city":"目黒区","address":"東京都目黒区中目黒5-24-53","lat":35.636519,"lon":139.696627},{"name":"新橋公衆便所","province":"東京都","city":"目黒区","address":"東京都目黒区下目黒1-6-18","lat":35.633784,"lon":139.711068},{"name":"大鳥神社公衆便所","province":"東京都","city":"目黒区","address":"東京都目黒区下目黒3-1-2","lat":35.632152,"lon":139.708107},{"name":"不動尊公衆便所","province":"東京都","city":"目黒区","address":"東京都目黒区下目黒3-20-26","lat":35.628631,"lon":139.70809},{"name":"不動尊裏公衆便所","province":"東京都","city":"目黒区","address":"東京都目黒区下目黒3-20-50","lat":35.628631,"lon":139.70809},{"name":"祐天寺駅公衆便所","province":"東京都","city":"目黒区","address":"東京都目黒区祐天寺2-13-5","lat":35.637158,"lon":139.690745},{"name":"洗足駅公衆便所","province":"東京都","city":"目黒区","address":"東京都目黒区洗足2-21-21","lat":35.610413,"lon":139.694396},{"name":"圓融寺公衆便所","province":"東京都","city":"目黒区","address":"東京都目黒区碑文谷1-22-40","lat":35.619426,"lon":139.689772},{"name":"碑文谷八幡神社公衆便所","province":"東京都","city":"目黒区","address":"東京都目黒区碑文谷3-7-3","lat":35.617423,"lon":139.685658},{"name":"学芸大学駅公衆便所","province":"東京都","city":"目黒区","address":"東京都目黒区鷹番3-2-1","lat":35.628742,"lon":139.685247},{"name":"緑が丘駅前公衆便所","province":"東京都","city":"目黒区","address":"東京都目黒区緑が丘3-1-13","lat":35.606505,"lon":139.679147},{"name":"熊野神社公衆便所","province":"東京都","city":"目黒区","address":"東京都目黒区自由が丘1-24-12","lat":35.61065,"lon":139.668892},{"name":"自由が丘駅公衆便所","province":"東京都","city":"目黒区","address":"東京都目黒区自由が丘1-30-1","lat":35.607272,"lon":139.668665},{"name":"都立大学駅公衆便所","province":"東京都","city":"目黒区","address":"東京都目黒区中根1-5-1","lat":35.61766,"lon":139.676304},{"name":"めぐろ区民キャンパス公衆便所","province":"東京都","city":"目黒区","address":"東京都目黒区八雲1-1-10","lat":35.621542,"lon":139.672741},{"name":"八雲氷川神社公衆便所","province":"東京都","city":"目黒区","address":"東京都目黒区八雲2-4-16","lat":35.61878,"lon":139.671083}]}