{"keyword":"クラブ","data":[{"name":"駒場小学校内学童保育クラブ","province":"東京都","city":"目黒区","address":"東京都目黒区駒場3-11-13","lat":35.659448053,"lon":139.681547078},{"name":"愛隣会学童保育クラブ","province":"東京都","city":"目黒区","address":"東京都目黒区大橋2-19-1","lat":35.655602078,"lon":139.682445467},{"name":"東山児童館学童保育クラブ","province":"東京都","city":"目黒区","address":"東京都目黒区東山3-24-2","lat":35.648047603,"lon":139.685590925},{"name":"東山児童館第二学童保育クラブ","province":"東京都","city":"目黒区","address":"東京都目黒区東山3-24-2","lat":35.648047603,"lon":139.685590925},{"name":"東山児童館第三学童保育クラブ","province":"東京都","city":"目黒区","address":"東京都目黒区東山3-24-2","lat":35.648047603,"lon":139.685590925},{"name":"菅刈小学校内学童保育クラブ","province":"東京都","city":"目黒区","address":"東京都目黒区青葉台3-3-26","lat":35.651305875,"lon":139.692242364},{"name":"菅刈学童保育クラブ","province":"東京都","city":"目黒区","address":"東京都目黒区青葉台2-10-18","lat":35.649786031,"lon":139.695875683},{"name":"烏森住区センター児童館学童保育クラブ","province":"東京都","city":"目黒区","address":"東京都目黒区上目黒3-37-24","lat":35.643969669,"lon":139.692022294},{"name":"烏森住区センター児童館第二学童保育クラブ","province":"東京都","city":"目黒区","address":"東京都目黒区上目黒5-18-9","lat":35.642676303,"lon":139.688615003},{"name":"中目黒小学校学童保育クラブ","province":"東京都","city":"目黒区","address":"東京都目黒区中目黒3-13-32","lat":35.639828158,"lon":139.698486639},{"name":"中目黒住区センター児童館学童保育クラブ","province":"東京都","city":"目黒区","address":"東京都目黒区中目黒2-10-13","lat":35.640360364,"lon":139.702910097},{"name":"不動児童館学童保育クラブ","province":"東京都","city":"目黒区","address":"東京都目黒区下目黒6-11-35","lat":35.627308444,"lon":139.699191297},{"name":"下目黒小学校学童保育クラブ","province":"東京都","city":"目黒区","address":"東京都目黒区目黒2-7-9","lat":35.633797225,"lon":139.709514056},{"name":"目黒区民センター児童館学童保育クラブ","province":"東京都","city":"目黒区","address":"東京都目黒区目黒2-4-36","lat":35.635324036,"lon":139.707759811},{"name":"田道小学校内学童保育クラブ","province":"東京都","city":"目黒区","address":"東京都目黒区目黒1-15-28","lat":35.637774403,"lon":139.709084444},{"name":"三田学童保育クラブ","province":"東京都","city":"目黒区","address":"東京都目黒区三田二丁目10番33号","lat":35.638864703,"lon":139.712660819},{"name":"油面小学校内学童保育クラブ","province":"東京都","city":"目黒区","address":"東京都目黒区中町1-5-4","lat":35.632523269,"lon":139.699291047},{"name":"油面住区センター児童館学童保育クラブ","province":"東京都","city":"目黒区","address":"東京都目黒区中町1-6-23","lat":35.631309469,"lon":139.699650161},{"name":"上目黒住区センター児童館学童保育クラブ","province":"東京都","city":"目黒区","address":"東京都目黒区祐天寺2-6-6","lat":35.637078786,"lon":139.694058503},{"name":"五本木住区センター児童館学童保育クラブ","province":"東京都","city":"目黒区","address":"東京都目黒区中央町2-17-2","lat":35.633408506,"lon":139.689320631},{"name":"鷹番学童保育クラブ","province":"東京都","city":"目黒区","address":"東京都目黒区碑文谷6-2-23","lat":35.626204514,"lon":139.685154306},{"name":"中央町児童館学童保育クラブ","province":"東京都","city":"目黒区","address":"東京都目黒区中央町2-32-5","lat":35.631734817,"lon":139.688628133},{"name":"月光原小学校内学童保育クラブ","province":"東京都","city":"目黒区","address":"東京都目黒区目黒本町4-15-3","lat":35.622887794,"lon":139.6954608},{"name":"目黒本町学童保育クラブ","province":"東京都","city":"目黒区","address":"東京都目黒区目黒本町2-1-20","lat":35.625484247,"lon":139.695255233},{"name":"向原小学校内学童保育クラブ","province":"東京都","city":"目黒区","address":"東京都目黒区目黒本町6-7-15","lat":35.618405894,"lon":139.695623625},{"name":"向原住区センター児童館学童保育クラブ","province":"東京都","city":"目黒区","address":"東京都目黒区目黒本町5-22-11","lat":35.618559556,"lon":139.698561897},{"name":"原町小学校内学童保育クラブ","province":"東京都","city":"目黒区","address":"東京都目黒区原町2-18-12","lat":35.614990539,"lon":139.690864836},{"name":"原町住区センター児童館学童保育クラブ","province":"東京都","city":"目黒区","address":"東京都目黒区南1-8-9","lat":35.615070692,"lon":139.689595497},{"name":"ひもんや学童保育クラブ","province":"東京都","city":"目黒区","address":"東京都目黒区碑文谷2-8-9","lat":35.622648731,"lon":139.688137861},{"name":"南学童保育クラブ","province":"東京都","city":"目黒区","address":"東京都目黒区南2-8-10","lat":35.613884467,"lon":139.686211581},{"name":"平町児童館学童保育クラブ","province":"東京都","city":"目黒区","address":"東京都目黒区平町1-5-3","lat":35.617263519,"lon":139.6822977},{"name":"大岡山学童保育クラブ","province":"東京都","city":"目黒区","address":"東京都目黒区平町2-4-10","lat":35.614404828,"lon":139.6830171},{"name":"中根小学校内学童保育クラブ","province":"東京都","city":"目黒区","address":"東京都目黒区緑が丘1-1-1","lat":35.612877108,"lon":139.678900311},{"name":"緑が丘児童館学童保育クラブ","province":"東京都","city":"目黒区","address":"東京都目黒区緑が丘2-7-20","lat":35.609630122,"lon":139.674427267},{"name":"八雲小学校内学童保育クラブ","province":"東京都","city":"目黒区","address":"東京都目黒区八雲2-5-1","lat":35.618472406,"lon":139.671715219},{"name":"八雲住区センター児童館学童保育クラブ","province":"東京都","city":"目黒区","address":"東京都目黒区八雲1-10-5","lat":35.618579606,"lon":139.672554319},{"name":"宮前小学校内学童保育クラブ","province":"東京都","city":"目黒区","address":"東京都目黒区八雲3-13-21","lat":35.615387258,"lon":139.666361414},{"name":"東が丘学童保育クラブ","province":"東京都","city":"目黒区","address":"東京都目黒区東が丘1-1-1","lat":35.62960995,"lon":139.672200428},{"name":"東根学童保育クラブ","province":"東京都","city":"目黒区","address":"東京都目黒区東が丘1-20-1","lat":35.627427503,"lon":139.668401294},{"name":"東根第二学童保育クラブ","province":"東京都","city":"目黒区","address":"東京都目黒区東が丘1-31-7","lat":35.629822917,"lon":139.667169014},{"name":"こどもの森学童保育クラブ","province":"東京都","city":"目黒区","address":"東京都目黒区目黒本町1ー16-17","lat":35.626762789,"lon":139.6939224}]}