{"keyword":"メール","data":[{"name":"駒場高等学校","province":"東京都","city":"目黒区","address":"東京都目黒区大橋2丁目18-1","lat":35.65488281,"lon":139.68564374},{"name":"桜修館中等教育学校","province":"東京都","city":"目黒区","address":"東京都目黒区八雲1丁目1-2","lat":35.62118352,"lon":139.67099324},{"name":"目黒高等学校","province":"東京都","city":"目黒区","address":"東京都目黒区祐天寺2丁目7-15","lat":35.63692675,"lon":139.69461583},{"name":"国際高等学校","province":"東京都","city":"目黒区","address":"東京都目黒区駒場2丁目19-59","lat":35.65929326,"lon":139.67889139},{"name":"駒場高等学校","province":"東京都","city":"目黒区","address":"東京都目黒区大橋2丁目18-1","lat":35.65488281,"lon":139.68564374},{"name":"桜修館中等教育学校","province":"東京都","city":"目黒区","address":"東京都目黒区八雲1丁目1-2","lat":35.62118352,"lon":139.67099324},{"name":"目黒高等学校","province":"東京都","city":"目黒区","address":"東京都目黒区祐天寺2丁目7-15","lat":35.63692675,"lon":139.69461583},{"name":"国際高等学校","province":"東京都","city":"目黒区","address":"東京都目黒区駒場2丁目19-59","lat":35.65929326,"lon":139.67889139},{"name":"駒場高等学校","province":"東京都","city":"目黒区","address":"東京都目黒区大橋2丁目18-1","lat":35.65488281,"lon":139.68564374},{"name":"桜修館中等教育学校","province":"東京都","city":"目黒区","address":"東京都目黒区八雲1丁目1-2","lat":35.62118352,"lon":139.67099324},{"name":"目黒高等学校","province":"東京都","city":"目黒区","address":"東京都目黒区祐天寺2丁目7-15","lat":35.63692675,"lon":139.69461583},{"name":"国際高等学校","province":"東京都","city":"目黒区","address":"東京都目黒区駒場2丁目19-59","lat":35.65929326,"lon":139.67889139},{"name":"駒場高等学校","province":"東京都","city":"目黒区","address":"東京都目黒区大橋2丁目18-1","lat":35.65488281,"lon":139.68564374},{"name":"桜修館中等教育学校","province":"東京都","city":"目黒区","address":"東京都目黒区八雲1丁目1-2","lat":35.62118352,"lon":139.67099324},{"name":"目黒高等学校","province":"東京都","city":"目黒区","address":"東京都目黒区祐天寺2丁目7-15","lat":35.63692675,"lon":139.69461583},{"name":"国際高等学校","province":"東京都","city":"目黒区","address":"東京都目黒区駒場2丁目19-59","lat":35.65929326,"lon":139.67889139},{"name":"駒場高等学校","province":"東京都","city":"目黒区","address":"東京都目黒区大橋2丁目18-1","lat":35.65488281,"lon":139.68564374},{"name":"桜修館中等教育学校","province":"東京都","city":"目黒区","address":"東京都目黒区八雲1丁目1-2","lat":35.62118352,"lon":139.67099324},{"name":"目黒高等学校","province":"東京都","city":"目黒区","address":"東京都目黒区祐天寺2丁目7-15","lat":35.63692675,"lon":139.69461583},{"name":"国際高等学校","province":"東京都","city":"目黒区","address":"東京都目黒区駒場2丁目19-59","lat":35.65929326,"lon":139.67889139},{"name":"駒場高等学校","province":"東京都","city":"目黒区","address":"東京都目黒区大橋2丁目18-1","lat":35.65488281,"lon":139.68564374},{"name":"桜修館中等教育学校","province":"東京都","city":"目黒区","address":"東京都目黒区八雲1丁目1-2","lat":35.62118352,"lon":139.67099324},{"name":"目黒高等学校","province":"東京都","city":"目黒区","address":"東京都目黒区祐天寺2丁目7-15","lat":35.63692675,"lon":139.69461583},{"name":"国際高等学校","province":"東京都","city":"目黒区","address":"東京都目黒区駒場2丁目19-59","lat":35.65929326,"lon":139.67889139},{"name":"駒場高等学校","province":"東京都","city":"目黒区","address":"東京都目黒区大橋2丁目18-1","lat":35.65488281,"lon":139.68564374},{"name":"桜修館中等教育学校","province":"東京都","city":"目黒区","address":"東京都目黒区八雲1丁目1-2","lat":35.62118352,"lon":139.67099324},{"name":"目黒高等学校","province":"東京都","city":"目黒区","address":"東京都目黒区祐天寺2丁目7-15","lat":35.63692675,"lon":139.69461583},{"name":"国際高等学校","province":"東京都","city":"目黒区","address":"東京都目黒区駒場2丁目19-59","lat":35.65929326,"lon":139.67889139}]}