{"keyword":"一覧","data":[{"name":"五本木小学校屋内プール","province":"東京都","city":"目黒区","address":"東京都目黒区五本木2丁目24-3","lat":35.63440465,"lon":139.68779979},{"name":"目黒区総合庁舎","province":"東京都","city":"目黒区","address":"東京都目黒区上目黒2丁目19-15","lat":35.64110969,"lon":139.69847649},{"name":"中央町さくらプラザ","province":"東京都","city":"目黒区","address":"東京都目黒区中央町2丁目4-18","lat":35.6318745,"lon":139.69222728},{"name":"水道局目黒営業所","province":"東京都","city":"目黒区","address":"東京都目黒区中町2丁目43-18","lat":35.63298271,"lon":139.69238835},{"name":"中目黒スクエア","province":"東京都","city":"目黒区","address":"東京都目黒区中目黒2丁目10-13","lat":35.64045153,"lon":139.70302891},{"name":"東山児童館","province":"東京都","city":"目黒区","address":"東京都目黒区東山3丁目24-2","lat":35.64793915,"lon":139.68540789},{"name":"東山社会教育館","province":"東京都","city":"目黒区","address":"東京都目黒区東山3丁目24-2","lat":35.64793915,"lon":139.68540789},{"name":"東京都写真美術館","province":"東京都","city":"目黒区","address":"東京都目黒区三田1丁目13-3","lat":35.6416016,"lon":139.71330855},{"name":"碑小学校屋内プール","province":"東京都","city":"目黒区","address":"東京都目黒区碑文谷1丁目18-14","lat":35.61931205,"lon":139.69064446},{"name":"碑文谷体育館","province":"東京都","city":"目黒区","address":"東京都目黒区碑文谷6丁目12-43","lat":35.62721368,"lon":139.68206437},{"name":"緑が丘文化会館","province":"東京都","city":"目黒区","address":"東京都目黒区緑が丘2丁目14-23","lat":35.60935165,"lon":139.67327682},{"name":"緑が丘文化会館別館","province":"東京都","city":"目黒区","address":"東京都目黒区緑が丘2丁目7-20","lat":35.60943778,"lon":139.6743184},{"name":"目黒区民センター社会教育館","province":"東京都","city":"目黒区","address":"東京都目黒区目黒2丁目4-36","lat":35.6354522,"lon":139.7078592},{"name":"目黒区民センター体育館","province":"東京都","city":"目黒区","address":"東京都目黒区目黒2丁目4-36","lat":35.6354522,"lon":139.7078592},{"name":"目黒本町社会教育館","province":"東京都","city":"目黒区","address":"東京都目黒区目黒本町2丁目1-20","lat":35.62522258,"lon":139.69522445},{"name":"中央体育館","province":"東京都","city":"目黒区","address":"東京都目黒区目黒本町5丁目22-8","lat":35.61895117,"lon":139.69900211}]}