{"keyword":"伐採","data":[{"name":"独立行政法人国立病院機構東京医療センター","province":"東京都","city":"目黒区","address":"東京都目黒区東が丘2丁目5-1","lat":35.62656333,"lon":139.66598239},{"name":"国立病院機構東京医療センター","province":"東京都","city":"目黒区","address":"東京都目黒区東が丘2丁目5-1","lat":35.62656333,"lon":139.66598239},{"name":"都立桜修館中等教育学校","province":"東京都","city":"目黒区","address":"東京都目黒区八雲1丁目1-2","lat":35.62118352,"lon":139.67099324},{"name":"目黒区立碑文谷公園（旧第一勧業銀行グラウンド）","province":"東京都","city":"目黒区","address":"東京都目黒区碑文谷6丁目12-43","lat":35.62721368,"lon":139.68206437},{"name":"東京大学陸上競技場","province":"東京都","city":"目黒区","address":"東京都目黒区駒場3丁目8-1","lat":35.65931564,"lon":139.68524362},{"name":"駒沢オリンピック公園陸上競技場","province":"東京都","city":"目黒区","address":"東京都目黒区東が丘2丁目","lat":35.6300629,"lon":139.66396858},{"name":"洗足駅(目黒区)(東急)","province":"東京都","city":"目黒区","address":"東京都目黒区洗足2-21-1","lat":35.60995,"lon":139.694},{"name":"独立行政法人国立病院機構東京医療センター","province":"東京都","city":"目黒区","address":"東京都目黒区東が丘2丁目5-1","lat":35.62656333,"lon":139.66598239},{"name":"国立病院機構東京医療センター","province":"東京都","city":"目黒区","address":"東京都目黒区東が丘2丁目5-1","lat":35.62656333,"lon":139.66598239},{"name":"都立桜修館中等教育学校","province":"東京都","city":"目黒区","address":"東京都目黒区八雲1丁目1-2","lat":35.62118352,"lon":139.67099324},{"name":"目黒区立碑文谷公園（旧第一勧業銀行グラウンド）","province":"東京都","city":"目黒区","address":"東京都目黒区碑文谷6丁目12-43","lat":35.62721368,"lon":139.68206437},{"name":"東京大学陸上競技場","province":"東京都","city":"目黒区","address":"東京都目黒区駒場3丁目8-1","lat":35.65931564,"lon":139.68524362},{"name":"駒沢オリンピック公園陸上競技場","province":"東京都","city":"目黒区","address":"東京都目黒区東が丘2丁目","lat":35.6300629,"lon":139.66396858},{"name":"洗足駅(目黒区)(東急)","province":"東京都","city":"目黒区","address":"東京都目黒区洗足2-21-1","lat":35.60995,"lon":139.694},{"name":"独立行政法人国立病院機構東京医療センター","province":"東京都","city":"目黒区","address":"東京都目黒区東が丘2丁目5-1","lat":35.62656333,"lon":139.66598239},{"name":"国立病院機構東京医療センター","province":"東京都","city":"目黒区","address":"東京都目黒区東が丘2丁目5-1","lat":35.62656333,"lon":139.66598239},{"name":"都立桜修館中等教育学校","province":"東京都","city":"目黒区","address":"東京都目黒区八雲1丁目1-2","lat":35.62118352,"lon":139.67099324},{"name":"目黒区立碑文谷公園（旧第一勧業銀行グラウンド）","province":"東京都","city":"目黒区","address":"東京都目黒区碑文谷6丁目12-43","lat":35.62721368,"lon":139.68206437},{"name":"東京大学陸上競技場","province":"東京都","city":"目黒区","address":"東京都目黒区駒場3丁目8-1","lat":35.65931564,"lon":139.68524362},{"name":"駒沢オリンピック公園陸上競技場","province":"東京都","city":"目黒区","address":"東京都目黒区東が丘2丁目","lat":35.6300629,"lon":139.66396858},{"name":"洗足駅(目黒区)(東急)","province":"東京都","city":"目黒区","address":"東京都目黒区洗足2-21-1","lat":35.60995,"lon":139.694},{"name":"独立行政法人国立病院機構東京医療センター","province":"東京都","city":"目黒区","address":"東京都目黒区東が丘2丁目5-1","lat":35.62656333,"lon":139.66598239},{"name":"国立病院機構東京医療センター","province":"東京都","city":"目黒区","address":"東京都目黒区東が丘2丁目5-1","lat":35.62656333,"lon":139.66598239},{"name":"洗足駅(目黒区)(東急)","province":"東京都","city":"目黒区","address":"東京都目黒区洗足2-21-1","lat":35.60995,"lon":139.694},{"name":"独立行政法人国立病院機構東京医療センター","province":"東京都","city":"目黒区","address":"東京都目黒区東が丘2丁目5-1","lat":35.62656333,"lon":139.66598239},{"name":"国立病院機構東京医療センター","province":"東京都","city":"目黒区","address":"東京都目黒区東が丘2丁目5-1","lat":35.62656333,"lon":139.66598239},{"name":"洗足駅(目黒区)(東急)","province":"東京都","city":"目黒区","address":"東京都目黒区洗足2-21-1","lat":35.60995,"lon":139.694},{"name":"独立行政法人国立病院機構東京医療センター","province":"東京都","city":"目黒区","address":"東京都目黒区東が丘2丁目5-1","lat":35.62656333,"lon":139.66598239},{"name":"国立病院機構東京医療センター","province":"東京都","city":"目黒区","address":"東京都目黒区東が丘2丁目5-1","lat":35.62656333,"lon":139.66598239},{"name":"洗足駅(目黒区)(東急)","province":"東京都","city":"目黒区","address":"東京都目黒区洗足2-21-1","lat":35.60995,"lon":139.694},{"name":"独立行政法人国立病院機構東京医療センター","province":"東京都","city":"目黒区","address":"東京都目黒区東が丘2丁目5-1","lat":35.62656333,"lon":139.66598239},{"name":"国立病院機構東京医療センター","province":"東京都","city":"目黒区","address":"東京都目黒区東が丘2丁目5-1","lat":35.62656333,"lon":139.66598239},{"name":"洗足駅(目黒区)(東急)","province":"東京都","city":"目黒区","address":"東京都目黒区洗足2-21-1","lat":35.60995,"lon":139.694},{"name":"独立行政法人国立病院機構東京医療センター","province":"東京都","city":"目黒区","address":"東京都目黒区東が丘2丁目5-1","lat":35.62656333,"lon":139.66598239},{"name":"国立病院機構東京医療センター","province":"東京都","city":"目黒区","address":"東京都目黒区東が丘2丁目5-1","lat":35.62656333,"lon":139.66598239},{"name":"洗足駅(目黒区)(東急)","province":"東京都","city":"目黒区","address":"東京都目黒区洗足2-21-1","lat":35.60995,"lon":139.694},{"name":"独立行政法人国立病院機構東京医療センター","province":"東京都","city":"目黒区","address":"東京都目黒区東が丘2丁目5-1","lat":35.62656333,"lon":139.66598239},{"name":"国立病院機構東京医療センター","province":"東京都","city":"目黒区","address":"東京都目黒区東が丘2丁目5-1","lat":35.62656333,"lon":139.66598239},{"name":"洗足駅(目黒区)(東急)","province":"東京都","city":"目黒区","address":"東京都目黒区洗足2-21-1","lat":35.60995,"lon":139.694},{"name":"独立行政法人国立病院機構東京医療センター","province":"東京都","city":"目黒区","address":"東京都目黒区東が丘2丁目5-1","lat":35.62656333,"lon":139.66598239},{"name":"国立病院機構東京医療センター","province":"東京都","city":"目黒区","address":"東京都目黒区東が丘2丁目5-1","lat":35.62656333,"lon":139.66598239},{"name":"洗足駅(目黒区)(東急)","province":"東京都","city":"目黒区","address":"東京都目黒区洗足2-21-1","lat":35.60995,"lon":139.694},{"name":"独立行政法人国立病院機構東京医療センター","province":"東京都","city":"目黒区","address":"東京都目黒区東が丘2丁目5-1","lat":35.62656333,"lon":139.66598239},{"name":"国立病院機構東京医療センター","province":"東京都","city":"目黒区","address":"東京都目黒区東が丘2丁目5-1","lat":35.62656333,"lon":139.66598239},{"name":"洗足駅(目黒区)(東急)","province":"東京都","city":"目黒区","address":"東京都目黒区洗足2-21-1","lat":35.60995,"lon":139.694},{"name":"独立行政法人国立病院機構東京医療センター","province":"東京都","city":"目黒区","address":"東京都目黒区東が丘2丁目5-1","lat":35.62656333,"lon":139.66598239},{"name":"国立病院機構東京医療センター","province":"東京都","city":"目黒区","address":"東京都目黒区東が丘2丁目5-1","lat":35.62656333,"lon":139.66598239},{"name":"洗足駅(目黒区)(東急)","province":"東京都","city":"目黒区","address":"東京都目黒区洗足2-21-1","lat":35.60995,"lon":139.694},{"name":"独立行政法人国立病院機構東京医療センター","province":"東京都","city":"目黒区","address":"東京都目黒区東が丘2丁目5-1","lat":35.62656333,"lon":139.66598239},{"name":"国立病院機構東京医療センター","province":"東京都","city":"目黒区","address":"東京都目黒区東が丘2丁目5-1","lat":35.62656333,"lon":139.66598239},{"name":"洗足駅(目黒区)(東急)","province":"東京都","city":"目黒区","address":"東京都目黒区洗足2-21-1","lat":35.60995,"lon":139.694},{"name":"独立行政法人国立病院機構東京医療センター","province":"東京都","city":"目黒区","address":"東京都目黒区東が丘2丁目5-1","lat":35.62656333,"lon":139.66598239},{"name":"国立病院機構東京医療センター","province":"東京都","city":"目黒区","address":"東京都目黒区東が丘2丁目5-1","lat":35.62656333,"lon":139.66598239},{"name":"洗足駅(目黒区)(東急)","province":"東京都","city":"目黒区","address":"東京都目黒区洗足2-21-1","lat":35.60995,"lon":139.694},{"name":"独立行政法人国立病院機構東京医療センター","province":"東京都","city":"目黒区","address":"東京都目黒区東が丘2丁目5-1","lat":35.62656333,"lon":139.66598239},{"name":"国立病院機構東京医療センター","province":"東京都","city":"目黒区","address":"東京都目黒区東が丘2丁目5-1","lat":35.62656333,"lon":139.66598239},{"name":"洗足駅(目黒区)(東急)","province":"東京都","city":"目黒区","address":"東京都目黒区洗足2-21-1","lat":35.60995,"lon":139.694},{"name":"独立行政法人国立病院機構東京医療センター","province":"東京都","city":"目黒区","address":"東京都目黒区東が丘2丁目5-1","lat":35.62656333,"lon":139.66598239},{"name":"国立病院機構東京医療センター","province":"東京都","city":"目黒区","address":"東京都目黒区東が丘2丁目5-1","lat":35.62656333,"lon":139.66598239},{"name":"洗足駅(目黒区)(東急)","province":"東京都","city":"目黒区","address":"東京都目黒区洗足2-21-1","lat":35.60995,"lon":139.694},{"name":"独立行政法人国立病院機構東京医療センター","province":"東京都","city":"目黒区","address":"東京都目黒区東が丘2丁目5-1","lat":35.62656333,"lon":139.66598239},{"name":"国立病院機構東京医療センター","province":"東京都","city":"目黒区","address":"東京都目黒区東が丘2丁目5-1","lat":35.62656333,"lon":139.66598239},{"name":"洗足駅(目黒区)(東急)","province":"東京都","city":"目黒区","address":"東京都目黒区洗足2-21-1","lat":35.60995,"lon":139.694},{"name":"独立行政法人国立病院機構東京医療センター","province":"東京都","city":"目黒区","address":"東京都目黒区東が丘2丁目5-1","lat":35.62656333,"lon":139.66598239},{"name":"国立病院機構東京医療センター","province":"東京都","city":"目黒区","address":"東京都目黒区東が丘2丁目5-1","lat":35.62656333,"lon":139.66598239},{"name":"洗足駅(目黒区)(東急)","province":"東京都","city":"目黒区","address":"東京都目黒区洗足2-21-1","lat":35.60995,"lon":139.694},{"name":"独立行政法人国立病院機構東京医療センター","province":"東京都","city":"目黒区","address":"東京都目黒区東が丘2丁目5-1","lat":35.62656333,"lon":139.66598239},{"name":"国立病院機構東京医療センター","province":"東京都","city":"目黒区","address":"東京都目黒区東が丘2丁目5-1","lat":35.62656333,"lon":139.66598239},{"name":"洗足駅(目黒区)(東急)","province":"東京都","city":"目黒区","address":"東京都目黒区洗足2-21-1","lat":35.60995,"lon":139.694},{"name":"独立行政法人国立病院機構東京医療センター","province":"東京都","city":"目黒区","address":"東京都目黒区東が丘2丁目5-1","lat":35.62656333,"lon":139.66598239},{"name":"国立病院機構東京医療センター","province":"東京都","city":"目黒区","address":"東京都目黒区東が丘2丁目5-1","lat":35.62656333,"lon":139.66598239},{"name":"洗足駅(目黒区)(東急)","province":"東京都","city":"目黒区","address":"東京都目黒区洗足2-21-1","lat":35.60995,"lon":139.694},{"name":"独立行政法人国立病院機構東京医療センター","province":"東京都","city":"目黒区","address":"東京都目黒区東が丘2丁目5-1","lat":35.62656333,"lon":139.66598239},{"name":"国立病院機構東京医療センター","province":"東京都","city":"目黒区","address":"東京都目黒区東が丘2丁目5-1","lat":35.62656333,"lon":139.66598239},{"name":"洗足駅(目黒区)(東急)","province":"東京都","city":"目黒区","address":"東京都目黒区洗足2-21-1","lat":35.60995,"lon":139.694},{"name":"独立行政法人国立病院機構東京医療センター","province":"東京都","city":"目黒区","address":"東京都目黒区東が丘2丁目5-1","lat":35.62656333,"lon":139.66598239},{"name":"国立病院機構東京医療センター","province":"東京都","city":"目黒区","address":"東京都目黒区東が丘2丁目5-1","lat":35.62656333,"lon":139.66598239},{"name":"洗足駅(目黒区)(東急)","province":"東京都","city":"目黒区","address":"東京都目黒区洗足2-21-1","lat":35.60995,"lon":139.694},{"name":"独立行政法人国立病院機構東京医療センター","province":"東京都","city":"目黒区","address":"東京都目黒区東が丘2丁目5-1","lat":35.62656333,"lon":139.66598239},{"name":"国立病院機構東京医療センター","province":"東京都","city":"目黒区","address":"東京都目黒区東が丘2丁目5-1","lat":35.62656333,"lon":139.66598239},{"name":"洗足駅(目黒区)(東急)","province":"東京都","city":"目黒区","address":"東京都目黒区洗足2-21-1","lat":35.60995,"lon":139.694},{"name":"独立行政法人国立病院機構東京医療センター","province":"東京都","city":"目黒区","address":"東京都目黒区東が丘2丁目5-1","lat":35.62656333,"lon":139.66598239},{"name":"国立病院機構東京医療センター","province":"東京都","city":"目黒区","address":"東京都目黒区東が丘2丁目5-1","lat":35.62656333,"lon":139.66598239},{"name":"洗足駅(目黒区)(東急)","province":"東京都","city":"目黒区","address":"東京都目黒区洗足2-21-1","lat":35.60995,"lon":139.694},{"name":"独立行政法人国立病院機構東京医療センター","province":"東京都","city":"目黒区","address":"東京都目黒区東が丘2丁目5-1","lat":35.62656333,"lon":139.66598239},{"name":"国立病院機構東京医療センター","province":"東京都","city":"目黒区","address":"東京都目黒区東が丘2丁目5-1","lat":35.62656333,"lon":139.66598239},{"name":"洗足駅(目黒区)(東急)","province":"東京都","city":"目黒区","address":"東京都目黒区洗足2-21-1","lat":35.60995,"lon":139.694},{"name":"独立行政法人国立病院機構東京医療センター","province":"東京都","city":"目黒区","address":"東京都目黒区東が丘2丁目5-1","lat":35.62656333,"lon":139.66598239},{"name":"国立病院機構東京医療センター","province":"東京都","city":"目黒区","address":"東京都目黒区東が丘2丁目5-1","lat":35.62656333,"lon":139.66598239},{"name":"洗足駅(目黒区)(東急)","province":"東京都","city":"目黒区","address":"東京都目黒区洗足2-21-1","lat":35.60995,"lon":139.694},{"name":"独立行政法人国立病院機構東京医療センター","province":"東京都","city":"目黒区","address":"東京都目黒区東が丘2丁目5-1","lat":35.62656333,"lon":139.66598239},{"name":"国立病院機構東京医療センター","province":"東京都","city":"目黒区","address":"東京都目黒区東が丘2丁目5-1","lat":35.62656333,"lon":139.66598239},{"name":"洗足駅(目黒区)(東急)","province":"東京都","city":"目黒区","address":"東京都目黒区洗足2-21-1","lat":35.60995,"lon":139.694},{"name":"独立行政法人国立病院機構東京医療センター","province":"東京都","city":"目黒区","address":"東京都目黒区東が丘2丁目5-1","lat":35.62656333,"lon":139.66598239},{"name":"国立病院機構東京医療センター","province":"東京都","city":"目黒区","address":"東京都目黒区東が丘2丁目5-1","lat":35.62656333,"lon":139.66598239},{"name":"洗足駅(目黒区)(東急)","province":"東京都","city":"目黒区","address":"東京都目黒区洗足2-21-1","lat":35.60995,"lon":139.694},{"name":"独立行政法人国立病院機構東京医療センター","province":"東京都","city":"目黒区","address":"東京都目黒区東が丘2丁目5-1","lat":35.62656333,"lon":139.66598239},{"name":"国立病院機構東京医療センター","province":"東京都","city":"目黒区","address":"東京都目黒区東が丘2丁目5-1","lat":35.62656333,"lon":139.66598239},{"name":"洗足駅(目黒区)(東急)","province":"東京都","city":"目黒区","address":"東京都目黒区洗足2-21-1","lat":35.60995,"lon":139.694},{"name":"独立行政法人国立病院機構東京医療センター","province":"東京都","city":"目黒区","address":"東京都目黒区東が丘2丁目5-1","lat":35.62656333,"lon":139.66598239},{"name":"国立病院機構東京医療センター","province":"東京都","city":"目黒区","address":"東京都目黒区東が丘2丁目5-1","lat":35.62656333,"lon":139.66598239},{"name":"洗足駅(目黒区)(東急)","province":"東京都","city":"目黒区","address":"東京都目黒区洗足2-21-1","lat":35.60995,"lon":139.694},{"name":"独立行政法人国立病院機構東京医療センター","province":"東京都","city":"目黒区","address":"東京都目黒区東が丘2丁目5-1","lat":35.62656333,"lon":139.66598239},{"name":"国立病院機構東京医療センター","province":"東京都","city":"目黒区","address":"東京都目黒区東が丘2丁目5-1","lat":35.62656333,"lon":139.66598239},{"name":"洗足駅(目黒区)(東急)","province":"東京都","city":"目黒区","address":"東京都目黒区洗足2-21-1","lat":35.60995,"lon":139.694},{"name":"独立行政法人国立病院機構東京医療センター","province":"東京都","city":"目黒区","address":"東京都目黒区東が丘2丁目5-1","lat":35.62656333,"lon":139.66598239},{"name":"国立病院機構東京医療センター","province":"東京都","city":"目黒区","address":"東京都目黒区東が丘2丁目5-1","lat":35.62656333,"lon":139.66598239},{"name":"洗足駅(目黒区)(東急)","province":"東京都","city":"目黒区","address":"東京都目黒区洗足2-21-1","lat":35.60995,"lon":139.694},{"name":"独立行政法人国立病院機構東京医療センター","province":"東京都","city":"目黒区","address":"東京都目黒区東が丘2丁目5-1","lat":35.62656333,"lon":139.66598239},{"name":"国立病院機構東京医療センター","province":"東京都","city":"目黒区","address":"東京都目黒区東が丘2丁目5-1","lat":35.62656333,"lon":139.66598239},{"name":"洗足駅(目黒区)(東急)","province":"東京都","city":"目黒区","address":"東京都目黒区洗足2-21-1","lat":35.60995,"lon":139.694},{"name":"独立行政法人国立病院機構東京医療センター","province":"東京都","city":"目黒区","address":"東京都目黒区東が丘2丁目5-1","lat":35.62656333,"lon":139.66598239},{"name":"国立病院機構東京医療センター","province":"東京都","city":"目黒区","address":"東京都目黒区東が丘2丁目5-1","lat":35.62656333,"lon":139.66598239},{"name":"洗足駅(目黒区)(東急)","province":"東京都","city":"目黒区","address":"東京都目黒区洗足2-21-1","lat":35.60995,"lon":139.694},{"name":"独立行政法人国立病院機構東京医療センター","province":"東京都","city":"目黒区","address":"東京都目黒区東が丘2丁目5-1","lat":35.62656333,"lon":139.66598239},{"name":"国立病院機構東京医療センター","province":"東京都","city":"目黒区","address":"東京都目黒区東が丘2丁目5-1","lat":35.62656333,"lon":139.66598239},{"name":"洗足駅(目黒区)(東急)","province":"東京都","city":"目黒区","address":"東京都目黒区洗足2-21-1","lat":35.60995,"lon":139.694}]}