{"keyword":"保育","data":[{"name":"Jキッズピース三宿保育園","province":"東京都","city":"目黒区","address":"東京都目黒区東山二丁目26番","lat":35.644271,"lon":139.685148},{"name":"優っくり保育園","province":"東京都","city":"目黒区","address":"東京都目黒区中央町二丁目32番23号","lat":35.630871064,"lon":139.688117419},{"name":"学栄ナーサリー　目黒青葉台保育園","province":"東京都","city":"目黒区","address":"東京都目黒区青葉台三丁目10番9号","lat":35.650818667,"lon":139.690033753},{"name":"ビーフェア目黒保育園","province":"東京都","city":"目黒区","address":"東京都目黒区目黒二丁目12番16号","lat":35.634884797,"lon":139.70735945},{"name":"不動さつき保育園","province":"東京都","city":"目黒区","address":"東京都目黒区下目黒五丁目18番4号注記1","lat":35.630304328,"lon":139.702387011},{"name":"ビーフェア中町保育園","province":"東京都","city":"目黒区","address":"東京都目黒区中町一丁目25番16号","lat":35.629601047,"lon":139.698359306},{"name":"保育ルーム　目黒本町","province":"東京都","city":"目黒区","address":"東京都目黒区目黒本町六丁目13番20号","lat":35.621446606,"lon":139.69517445},{"name":"ベイビーワン","province":"東京都","city":"目黒区","address":"東京都目黒区鷹番一丁目15番3号","lat":35.625749161,"lon":139.685987992},{"name":"BUNBUN　GARDEN　学芸大学園","province":"東京都","city":"目黒区","address":"東京都目黒区鷹番三丁目14番4号","lat":35.629675203,"lon":139.684378592},{"name":"マザーグース都立大学園","province":"東京都","city":"目黒区","address":"東京都目黒区平町一丁目26番18号","lat":35.617667514,"lon":139.676533028},{"name":"ウィズブック保育園大岡山","province":"東京都","city":"目黒区","address":"東京都目黒区大岡山二丁目2番14号","lat":35.608166053,"lon":139.684353908},{"name":"モニカ緑が丘園","province":"東京都","city":"目黒区","address":"東京都目黒区緑が丘二丁目7番20号","lat":35.609630122,"lon":139.674427267},{"name":"木下の保育園　都立大学","province":"東京都","city":"目黒区","address":"東京都目黒区中根二丁目13番18号","lat":35.616622931,"lon":139.675509778},{"name":"学栄ナーサリー八雲保育園","province":"東京都","city":"目黒区","address":"東京都目黒区八雲一丁目12番9号","lat":35.616807789,"lon":139.672748522},{"name":"こどもヶ丘保育園学芸大学園","province":"東京都","city":"目黒区","address":"東京都目黒区碑文谷六丁目1番24号","lat":35.6271378,"lon":139.685099308},{"name":"みみよんルーム","province":"東京都","city":"目黒区","address":"東京都目黒区鷹番三丁目23番14号","lat":35.628327361,"lon":139.680641103},{"name":"コビースマイルキッズかみめぐろ","province":"東京都","city":"目黒区","address":"東京都目黒区上目黒五丁目26番6号","lat":35.641953119,"lon":139.687594433}]}