{"keyword":"医薬","data":[{"name":"目黒区","province":"東京都","city":"目黒区","address":"目黒区上目黒2-19-15","lat":35.6412631,"lon":139.6985906},{"name":"東京都写真美術館","province":"東京都","city":"目黒区","address":"東京都目黒区三田1丁目13-3","lat":35.64182,"lon":139.7132},{"name":"東京都写真美術館","province":"東京都","city":"目黒区","address":"東京都目黒区三田1丁目13-3","lat":35.6415,"lon":139.7134},{"name":"東京都写真美術館","province":"東京都","city":"目黒区","address":"東京都目黒区三田1丁目13-3","lat":35.64158,"lon":139.7133},{"name":"東京都写真美術館","province":"東京都","city":"目黒区","address":"東京都目黒区三田1丁目13-3","lat":35.64152,"lon":139.7133},{"name":"駒沢オリンピック公園総合運動場陸上競技場","province":"東京都","city":"目黒区","address":"東京都目黒区東が丘2丁目16","lat":35.625688,"lon":139.66438},{"name":"駒沢オリンピック公園","province":"東京都","city":"目黒区","address":"東京都目黒区東が丘2丁目15","lat":35.627052,"lon":139.663756},{"name":"駒沢オリンピック公園","province":"東京都","city":"目黒区","address":"東京都目黒区八雲5丁目20","lat":35.623498,"lon":139.664842},{"name":"林試の森公園","province":"東京都","city":"目黒区","address":"東京都目黒区下目黒5丁目37","lat":35.625839,"lon":139.704744},{"name":"東京都水道局目黒営業所","province":"東京都","city":"目黒区","address":"東京都目黒区中町2丁目43-18","lat":35.633013,"lon":139.692355},{"name":"目黒消防署","province":"東京都","city":"目黒区","address":"東京都目黒区下目黒6丁目1-22","lat":35.629771,"lon":139.700307},{"name":"小山台公園","province":"東京都","city":"目黒区","address":"東京都目黒区目黒本町3丁目19","lat":35.624488,"lon":139.697951},{"name":"烏森住区センター","province":"東京都","city":"目黒区","address":"東京都目黒区上目黒3丁目44-2","lat":35.643901,"lon":139.69165},{"name":"駒場住区センター","province":"東京都","city":"目黒区","address":"東京都目黒区駒場1丁目22-4","lat":35.656312,"lon":139.686584},{"name":"菅刈住区センター","province":"東京都","city":"目黒区","address":"東京都目黒区青葉台2丁目10-18","lat":35.649859,"lon":139.69562},{"name":"東山住区センター","province":"東京都","city":"目黒区","address":"東京都目黒区東山2丁目24","lat":35.647072,"lon":139.68598},{"name":"北部地区サービス事務所","province":"東京都","city":"目黒区","address":"東京都目黒区大橋1丁目5","lat":35.651607,"lon":139.688229},{"name":"目黒区総合庁舎","province":"東京都","city":"目黒区","address":"東京都目黒区上目黒2丁目19-15","lat":35.641258,"lon":139.698983},{"name":"目黒区総合庁舎","province":"東京都","city":"目黒区","address":"東京都目黒区上目黒2丁目19-15","lat":35.641592,"lon":139.69831},{"name":"目黒区総合庁舎","province":"東京都","city":"目黒区","address":"東京都目黒区上目黒2丁目19","lat":35.640862,"lon":139.698225},{"name":"目黒区総合庁舎","province":"東京都","city":"目黒区","address":"東京都目黒区上目黒2丁目19-15","lat":35.641132,"lon":139.698533},{"name":"目黒区総合庁舎","province":"東京都","city":"目黒区","address":"東京都目黒区上目黒2丁目19-15","lat":35.641364,"lon":139.698797},{"name":"目黒区防災センター","province":"東京都","city":"目黒区","address":"東京都目黒区中央町1丁目9-7","lat":35.629065,"lon":139.692042},{"name":"目黒区南部地区サービス事務所","province":"東京都","city":"目黒区","address":"東京都目黒区碑文谷1丁目18-14","lat":35.61929,"lon":139.690566},{"name":"西部地区サービス事務所","province":"東京都","city":"目黒区","address":"東京都目黒区柿の木坂1丁目28-10","lat":35.61993,"lon":139.675745},{"name":"東山社会教育館","province":"東京都","city":"目黒区","address":"東京都目黒区東山3丁目24-2","lat":35.647926,"lon":139.685395},{"name":"緑が丘コミュニティセンター別館","province":"東京都","city":"目黒区","address":"東京都目黒区緑が丘2丁目7-20","lat":35.609396,"lon":139.674095},{"name":"緑が丘コミュニティセンター本館","province":"東京都","city":"目黒区","address":"東京都目黒区緑が丘2丁目14-23","lat":35.609381,"lon":139.673255},{"name":"緑が丘コミュニティセンター本館","province":"東京都","city":"目黒区","address":"東京都目黒区緑が丘2丁目14-23","lat":35.609431,"lon":139.673258},{"name":"緑が丘コミュニティセンター本館","province":"東京都","city":"目黒区","address":"東京都目黒区緑が丘2丁目14-23","lat":35.609261,"lon":139.673247},{"name":"目黒区中目黒二丁目複合施設（中目黒スクエア）","province":"東京都","city":"目黒区","address":"東京都目黒区中目黒2丁目10-13","lat":35.64036,"lon":139.703155},{"name":"田道住区センター三田分室","province":"東京都","city":"目黒区","address":"東京都目黒区三田2丁目10-33","lat":35.63863,"lon":139.712571},{"name":"下目黒住区センター","province":"東京都","city":"目黒区","address":"東京都目黒区下目黒2丁目20-19","lat":35.63286,"lon":139.709954},{"name":"下目黒住区センター","province":"東京都","city":"目黒区","address":"東京都目黒区下目黒2丁目20-19","lat":35.63291,"lon":139.71001},{"name":"不動住区センター","province":"東京都","city":"目黒区","address":"東京都目黒区下目黒6丁目8-23","lat":35.62645,"lon":139.701026},{"name":"上目黒住区センター","province":"東京都","city":"目黒区","address":"東京都目黒区祐天寺2丁目6-6","lat":35.63712,"lon":139.693784},{"name":"油面住区センター","province":"東京都","city":"目黒区","address":"東京都目黒区中町1丁目6-23","lat":35.63142,"lon":139.699912},{"name":"五本木住区センター","province":"東京都","city":"目黒区","address":"東京都目黒区中央町2丁目17","lat":35.63324,"lon":139.68932},{"name":"鷹番住区センター","province":"東京都","city":"目黒区","address":"東京都目黒区鷹番3丁目17-20","lat":35.62829,"lon":139.683143},{"name":"月光原住区センター","province":"東京都","city":"目黒区","address":"東京都目黒区目黒本町4丁目16-18","lat":35.6221,"lon":139.694741},{"name":"向原住区センター","province":"東京都","city":"目黒区","address":"東京都目黒区目黒本町5丁目22","lat":35.61863,"lon":139.698647},{"name":"碑住区センター","province":"東京都","city":"目黒区","address":"東京都目黒区碑文谷2丁目16-6","lat":35.6208,"lon":139.687726},{"name":"原町住区センター","province":"東京都","city":"目黒区","address":"東京都目黒区南1丁目8-9","lat":35.61517,"lon":139.689343},{"name":"大岡山東住区センター","province":"東京都","city":"目黒区","address":"東京都目黒区碑文谷3丁目15-5","lat":35.61793,"lon":139.684171},{"name":"大岡山西住区センター","province":"東京都","city":"目黒区","address":"東京都目黒区平町1丁目15-12","lat":35.61596,"lon":139.679214},{"name":"中根住区センター","province":"東京都","city":"目黒区","address":"東京都目黒区大岡山1丁目37-2","lat":35.6127,"lon":139.679455},{"name":"自由が丘住区センター","province":"東京都","city":"目黒区","address":"東京都目黒区自由が丘1丁目24-12","lat":35.60996,"lon":139.669165},{"name":"自由が丘住区センター宮前分室","province":"東京都","city":"目黒区","address":"東京都目黒区八雲3丁目22-15","lat":35.61561,"lon":139.665447},{"name":"東根住区センター","province":"東京都","city":"目黒区","address":"東京都目黒区東が丘1丁目7-14","lat":35.6273,"lon":139.670079},{"name":"八雲住区センター","province":"東京都","city":"目黒区","address":"東京都目黒区八雲1丁目10-5","lat":35.61872,"lon":139.672217},{"name":"三田フレンズ","province":"東京都","city":"目黒区","address":"東京都目黒区三田1丁目11-26","lat":35.64053,"lon":139.71245},{"name":"三田フレンズ","province":"東京都","city":"目黒区","address":"東京都目黒区三田1丁目11-26","lat":35.64039,"lon":139.712388},{"name":"目黒区中央町社会教育館","province":"東京都","city":"目黒区","address":"東京都目黒区中央町2丁目4-18","lat":35.63216,"lon":139.692152},{"name":"目黒区中央町社会教育館","province":"東京都","city":"目黒区","address":"東京都目黒区中央町2丁目4-18","lat":35.63219,"lon":139.692131},{"name":"目黒本町社会教育館","province":"東京都","city":"目黒区","address":"東京都目黒区目黒本町2丁目1-20","lat":35.6252,"lon":139.695272},{"name":"守屋図書館","province":"東京都","city":"目黒区","address":"東京都目黒区五本木2丁目20-15","lat":35.63403,"lon":139.689231},{"name":"洗足図書館","province":"東京都","city":"目黒区","address":"東京都目黒区洗足2丁目8-26","lat":35.61235,"lon":139.692416},{"name":"上目黒二丁目文化公益施設（目黒区立中目黒駅前図書館）","province":"東京都","city":"目黒区","address":"東京都目黒区上目黒2丁目1-2","lat":35.64341,"lon":139.698548},{"name":"八雲中央図書館","province":"東京都","city":"目黒区","address":"東京都目黒区八雲1丁目1","lat":35.62155,"lon":139.672444},{"name":"目黒本町図書館","province":"東京都","city":"目黒区","address":"東京都目黒区目黒本町2丁目1-20","lat":35.62517,"lon":139.695312},{"name":"めぐろ区民キャンパス","province":"東京都","city":"目黒区","address":"東京都目黒区八雲1丁目1-1","lat":35.62151,"lon":139.672786},{"name":"めぐろ区民キャンパス","province":"東京都","city":"目黒区","address":"東京都目黒区八雲1丁目1-1","lat":35.62161,"lon":139.672978},{"name":"学芸大学駅公衆便所","province":"東京都","city":"目黒区","address":"東京都目黒区鷹番3丁目6","lat":35.629166,"lon":139.685346},{"name":"駒場東大前駅公衆便所","province":"東京都","city":"目黒区","address":"東京都目黒区駒場2丁目2","lat":35.658764,"lon":139.682825},{"name":"自由が丘駅公衆便所","province":"東京都","city":"目黒区","address":"東京都目黒区自由が丘1丁目30-2","lat":35.607533,"lon":139.668607},{"name":"新橋公衆便所","province":"東京都","city":"目黒区","address":"東京都目黒区下目黒1丁目6","lat":35.633783,"lon":139.711081},{"name":"都立大学駅公衆便所","province":"東京都","city":"目黒区","address":"東京都目黒区中根1丁目5-1","lat":35.617301,"lon":139.675886},{"name":"八雲氷川神社公衆便所","province":"東京都","city":"目黒区","address":"東京都目黒区八雲2丁目4","lat":35.6175,"lon":139.671156},{"name":"不動尊公衆便所","province":"東京都","city":"目黒区","address":"東京都目黒区下目黒3丁目20","lat":35.627691,"lon":139.708596},{"name":"祐天寺駅公衆便所","province":"東京都","city":"目黒区","address":"東京都目黒区祐天寺2丁目13","lat":35.637487,"lon":139.691155},{"name":"祐天寺公衆便所","province":"東京都","city":"目黒区","address":"東京都目黒区中目黒5丁目24","lat":35.636909,"lon":139.697036},{"name":"圓融寺公衆便所","province":"東京都","city":"目黒区","address":"東京都目黒区碑文谷1丁目22","lat":35.61971,"lon":139.689365},{"name":"目黒区めぐろ学校サポートセンター","province":"東京都","city":"目黒区","address":"東京都目黒区中目黒3丁目6-10","lat":35.639378,"lon":139.703012},{"name":"目黒区めぐろ学校サポートセンター","province":"東京都","city":"目黒区","address":"東京都目黒区中目黒3丁目6-10","lat":35.639345,"lon":139.703016},{"name":"目黒区めぐろ学校サポートセンター","province":"東京都","city":"目黒区","address":"東京都目黒区中目黒3丁目6-10","lat":35.639484,"lon":139.702846},{"name":"八雲体育館","province":"東京都","city":"目黒区","address":"東京都目黒区八雲1丁目1-1","lat":35.62152,"lon":139.672533},{"name":"中央体育館","province":"東京都","city":"目黒区","address":"東京都目黒区目黒本町5丁目22-8","lat":35.618865,"lon":139.698793},{"name":"中央体育館","province":"東京都","city":"目黒区","address":"東京都目黒区目黒本町5丁目22-8","lat":35.61886,"lon":139.698815},{"name":"中央体育館","province":"東京都","city":"目黒区","address":"東京都目黒区目黒本町5丁目22-8","lat":35.618784,"lon":139.698944},{"name":"中央体育館","province":"東京都","city":"目黒区","address":"東京都目黒区目黒本町5丁目22-8","lat":35.6188,"lon":139.698942},{"name":"中央体育館","province":"東京都","city":"目黒区","address":"東京都目黒区目黒本町5丁目22-8","lat":35.618789,"lon":139.698931},{"name":"八雲給水所","province":"東京都","city":"目黒区","address":"東京都目黒区八雲1-1","lat":35.620566,"lon":139.670911},{"name":"都立林試の森公園","province":"東京都","city":"目黒区","address":"東京都目黒区下目黒5-37","lat":35.625388,"lon":139.705384},{"name":"駒場東大前西口駐輪場","province":"東京都","city":"目黒区","address":"東京都目黒区駒場2丁目7-1","lat":35.65894061,"lon":139.68226888},{"name":"駒場東大前東大口駐輪場","province":"東京都","city":"目黒区","address":"東京都目黒区駒場3丁目8-1","lat":35.65931564,"lon":139.68524362},{"name":"池尻大橋駅北口駐輪場","province":"東京都","city":"目黒区","address":"東京都目黒区大橋2丁目24-11","lat":35.65143874,"lon":139.68503836},{"name":"祐天寺駅西口第一駐輪場","province":"東京都","city":"目黒区","address":"東京都目黒区五本木1丁目33-8","lat":35.63739048,"lon":139.69029671},{"name":"祐天寺駅南高架下駐輪場","province":"東京都","city":"目黒区","address":"東京都目黒区五本木1丁目32-20","lat":35.63589064,"lon":139.68965515},{"name":"学芸大学駅東口駐輪場","province":"東京都","city":"目黒区","address":"東京都目黒区鷹番2丁目19-15","lat":35.6284303,"lon":139.68599734},{"name":"学芸大学駅西口第一駐輪場","province":"東京都","city":"目黒区","address":"東京都目黒区鷹番3丁目7-4","lat":35.62952182,"lon":139.68485296},{"name":"学芸大学駅西口第二駐輪場","province":"東京都","city":"目黒区","address":"東京都目黒区鷹番3丁目17-20","lat":35.6282247,"lon":139.68315869},{"name":"中根一丁目駐輪場","province":"東京都","city":"目黒区","address":"東京都目黒区中根1丁目2-16","lat":35.618309,"lon":139.67619013},{"name":"自由が丘駅南口駐輪場","province":"東京都","city":"目黒区","address":"東京都目黒区自由が丘2丁目13-9","lat":35.60675176,"lon":139.66759683},{"name":"洗足二丁目駐輪場","province":"東京都","city":"目黒区","address":"東京都目黒区洗足2丁目18-11","lat":35.61054929,"lon":139.69329177},{"name":"青葉台一丁目","province":"東京都","city":"目黒区","address":"東京都目黒区東山1丁目2-7","lat":35.64771994,"lon":139.69357111},{"name":"中目黒","province":"東京都","city":"目黒区","address":"東京都目黒区上目黒2丁目9-5","lat":35.64276232,"lon":139.7003735},{"name":"田道","province":"東京都","city":"目黒区","address":"東京都目黒区目黒2丁目14-13","lat":35.63631596,"lon":139.7063843},{"name":"目黒不動入口","province":"東京都","city":"目黒区","address":"東京都目黒区下目黒2丁目24-7","lat":35.62927518,"lon":139.71109241},{"name":"目黒税務署前","province":"東京都","city":"目黒区","address":"東京都目黒区祐天寺2丁目8-12","lat":35.63629903,"lon":139.69416588},{"name":"上目黒三丁目","province":"東京都","city":"目黒区","address":"東京都目黒区青葉台1丁目22-6","lat":35.64599799,"lon":139.69734031},{"name":"駒場町","province":"東京都","city":"目黒区","address":"東京都目黒区駒場2丁目16-4","lat":35.65581597,"lon":139.68286061},{"name":"守屋図書館前","province":"東京都","city":"目黒区","address":"東京都目黒区中央町2丁目1-13","lat":35.63362978,"lon":139.68948578},{"name":"中央町二丁目","province":"東京都","city":"目黒区","address":"東京都目黒区中町2丁目45-8","lat":35.63318267,"lon":139.69189116},{"name":"池尻ランプ前","province":"東京都","city":"目黒区","address":"東京都目黒区大橋1丁目10-1","lat":35.65126102,"lon":139.68642992},{"name":"中目黒駅前","province":"東京都","city":"目黒区","address":"東京都目黒区上目黒1丁目23-1","lat":35.6444149,"lon":139.69964295},{"name":"西郷山下","province":"東京都","city":"目黒区","address":"東京都目黒区青葉台1丁目12-3","lat":35.64866154,"lon":139.69552092},{"name":"青葉台一丁目第二","province":"東京都","city":"目黒区","address":"東京都目黒区青葉台1丁目28-12","lat":35.64744222,"lon":139.69484879},{"name":"上目黒二丁目","province":"東京都","city":"目黒区","address":"東京都目黒区上目黒2丁目10-8","lat":35.64136524,"lon":139.69935419},{"name":"上目黒一丁目","province":"東京都","city":"目黒区","address":"東京都目黒区青葉台1丁目6","lat":35.64784505,"lon":139.69892067},{"name":"東山一丁目","province":"東京都","city":"目黒区","address":"東京都目黒区東山1丁目6-1","lat":35.64630071,"lon":139.69605151},{"name":"西郷山公園前","province":"東京都","city":"目黒区","address":"東京都目黒区青葉台2丁目10","lat":35.65029745,"lon":139.69516256},{"name":"目黒区総合庁舎前","province":"東京都","city":"目黒区","address":"東京都目黒区中目黒3丁目13-22","lat":35.63919604,"lon":139.69918204},{"name":"碑文谷","province":"東京都","city":"目黒区","address":"東京都目黒区碑文谷2丁目21-13","lat":35.62283372,"lon":139.68495871},{"name":"都立大学駅前","province":"東京都","city":"目黒区","address":"東京都目黒区柿の木坂1丁目30-8","lat":35.61855895,"lon":139.67549296},{"name":"柿の木坂","province":"東京都","city":"目黒区","address":"東京都目黒区柿の木坂3丁目8-13","lat":35.6265135,"lon":139.67227909},{"name":"南一丁目","province":"東京都","city":"目黒区","address":"東京都目黒区南1丁目24-10","lat":35.6132738,"lon":139.68706997},{"name":"柿の木坂陸橋下","province":"東京都","city":"目黒区","address":"東京都目黒区平町1丁目1-1","lat":35.62007002,"lon":139.68040916},{"name":"中根一丁目","province":"東京都","city":"目黒区","address":"東京都目黒区中根1丁目5-1","lat":35.61718968,"lon":139.6759513},{"name":"八雲一丁目","province":"東京都","city":"目黒区","address":"東京都目黒区八雲1丁目1-1","lat":35.62149186,"lon":139.67275697},{"name":"八雲小学校入口","province":"東京都","city":"目黒区","address":"東京都目黒区柿の木坂1丁目31-15","lat":35.61941994,"lon":139.6748402},{"name":"大岡山小学校前","province":"東京都","city":"目黒区","address":"東京都目黒区碑文谷3丁目19-8","lat":35.61628445,"lon":139.68343961},{"name":"田向公園入口","province":"東京都","city":"目黒区","address":"東京都目黒区碑文谷2丁目11-22","lat":35.62386141,"lon":139.68676963},{"name":"国立病院東京医療センター正門前","province":"東京都","city":"目黒区","address":"東京都目黒区東が丘2丁目5-1","lat":35.62656333,"lon":139.66598239},{"name":"学芸大学駅入口","province":"東京都","city":"目黒区","address":"東京都目黒区鷹番3丁目1","lat":35.62949961,"lon":139.68583621},{"name":"独立行政法人国立病院機構東京医療センター","province":"東京都","city":"目黒区","address":"東京都目黒区東が丘2丁目5-1","lat":35.62656333,"lon":139.66598239},{"name":"八雲給水所","province":"東京都","city":"目黒区","address":"東京都目黒区八雲1丁目1","lat":35.62130575,"lon":139.67178483},{"name":"都立林試の森公園","province":"東京都","city":"目黒区","address":"東京都目黒区下目黒5丁目37","lat":35.62487834,"lon":139.70415426},{"name":"国立病院機構東京医療センター","province":"東京都","city":"目黒区","address":"東京都目黒区東が丘2丁目5-1","lat":35.62656333,"lon":139.66598239},{"name":"都立国際高校","province":"東京都","city":"目黒区","address":"東京都目黒区駒場2-19-59","lat":35.659293,"lon":139.678891},{"name":"駒場小学校","province":"東京都","city":"目黒区","address":"東京都目黒区駒場3-11-13","lat":35.65986,"lon":139.681936},{"name":"第一中学校","province":"東京都","city":"目黒区","address":"東京都目黒区大橋2-11-1","lat":35.654667,"lon":139.686633},{"name":"都立駒場高校","province":"東京都","city":"目黒区","address":"東京都目黒区大橋2-18-1","lat":35.654991,"lon":139.685451},{"name":"菅刈小学校","province":"東京都","city":"目黒区","address":"東京都目黒区青葉台3-3-26","lat":35.651673,"lon":139.692158},{"name":"菅刈公園","province":"東京都","city":"目黒区","address":"東京都目黒区青葉台2-11-25","lat":35.650203,"lon":139.693883},{"name":"東山中学校","province":"東京都","city":"目黒区","address":"東京都目黒区東山1-24-31","lat":35.646476,"lon":139.690227},{"name":"東山小学校","province":"東京都","city":"目黒区","address":"東京都目黒区東山2-24-25","lat":35.64692,"lon":139.685758},{"name":"鳥森小学校","province":"東京都","city":"目黒区","address":"東京都目黒区上目黒3-37-27","lat":35.644365,"lon":139.692883},{"name":"めぐろ学校サポートセンター","province":"東京都","city":"目黒区","address":"東京都目黒区中目黒3-6-10","lat":35.639384,"lon":139.702725},{"name":"中目黒小学校","province":"東京都","city":"目黒区","address":"東京都目黒区中目黒3-13-32","lat":35.640194,"lon":139.699171},{"name":"田道小学校","province":"東京都","city":"目黒区","address":"東京都目黒区目黒1-15-28","lat":35.637594,"lon":139.709168},{"name":"下目黒小学校","province":"東京都","city":"目黒区","address":"東京都目黒区目黒2-7-9","lat":35.634203,"lon":139.709154},{"name":"大鳥中学校","province":"東京都","city":"目黒区","address":"東京都目黒区下目黒3-23-18","lat":35.631092,"lon":139.707612},{"name":"不動小学校","province":"東京都","city":"目黒区","address":"東京都目黒区下目黒6-11-35","lat":35.627081,"lon":139.699099},{"name":"上目黒小学校","province":"東京都","city":"目黒区","address":"東京都目黒区五本木1-12-13","lat":35.638735,"lon":139.690425},{"name":"都立目黒高校","province":"東京都","city":"目黒区","address":"東京都目黒区祐天寺2-7-15","lat":35.636927,"lon":139.694616},{"name":"油面小学校","province":"東京都","city":"目黒区","address":"東京都目黒区中町1-5-4","lat":35.632395,"lon":139.698299},{"name":"目黒中央中学校","province":"東京都","city":"目黒区","address":"東京都目黒区中町2-37-38","lat":35.634678,"lon":139.693647},{"name":"五本木小学校","province":"東京都","city":"目黒区","address":"東京都目黒区五本木2-24-3","lat":35.634466,"lon":139.687889},{"name":"鷹番小学校","province":"東京都","city":"目黒区","address":"東京都目黒区中央町1-20-26","lat":35.627761,"lon":139.690222},{"name":"碑文谷公園","province":"東京都","city":"目黒区","address":"東京都目黒区碑文谷6-9-11","lat":35.62655,"lon":139.682084},{"name":"碑文谷体育館","province":"東京都","city":"目黒区","address":"東京都目黒区碑文谷6-12-43","lat":35.627225,"lon":139.682079},{"name":"月光原小学校","province":"東京都","city":"目黒区","address":"東京都目黒区目黒本町4-15-3","lat":35.62251,"lon":139.694586},{"name":"向原小学校","province":"東京都","city":"目黒区","address":"東京都目黒区目黒本町6-7-15","lat":35.618716,"lon":139.695783},{"name":"第七中学校","province":"東京都","city":"目黒区","address":"東京都目黒区碑文谷1-1-33","lat":35.622923,"lon":139.691764},{"name":"碑小学校","province":"東京都","city":"目黒区","address":"東京都目黒区碑文谷1-18-2","lat":35.619603,"lon":139.690579},{"name":"原町小学校","province":"東京都","city":"目黒区","address":"東京都目黒区原町2-18-12","lat":35.615752,"lon":139.690492},{"name":"第九中学校","province":"東京都","city":"目黒区","address":"東京都目黒区洗足1-29-26","lat":35.613508,"lon":139.69455},{"name":"第八中学校","province":"東京都","city":"目黒区","address":"東京都目黒区碑文谷4-19-25","lat":35.619685,"lon":139.682495},{"name":"大岡山小学校","province":"東京都","city":"目黒区","address":"東京都目黒区平町2-3-1","lat":35.615482,"lon":139.683004},{"name":"中根小学校","province":"東京都","city":"目黒区","address":"東京都目黒区緑が丘1-1-1","lat":35.61241,"lon":139.678527},{"name":"第十一中学校","province":"東京都","city":"目黒区","address":"東京都目黒区緑が丘1-8-1","lat":35.609469,"lon":139.679024},{"name":"緑ヶ丘小学校","province":"東京都","city":"目黒区","address":"東京都目黒区緑が丘2-13-1","lat":35.610299,"lon":139.673449},{"name":"宮前小学校","province":"東京都","city":"目黒区","address":"東京都目黒区八雲3-13-21","lat":35.615365,"lon":139.66688},{"name":"めぐろ区民キャンパス","province":"東京都","city":"目黒区","address":"東京都目黒区八雲1-1-1","lat":35.621542,"lon":139.672741},{"name":"都立桜修館中等教育学校","province":"東京都","city":"目黒区","address":"東京都目黒区八雲1-1-2","lat":35.621198,"lon":139.670993},{"name":"八雲小学校","province":"東京都","city":"目黒区","address":"東京都目黒区八雲2-5-1","lat":35.618062,"lon":139.671255},{"name":"第十中学校","province":"東京都","city":"目黒区","address":"東京都目黒区八雲5-2-1","lat":35.62432,"lon":139.668677},{"name":"東根小学校","province":"東京都","city":"目黒区","address":"東京都目黒区東が丘1-20-1","lat":35.627158,"lon":139.668027},{"name":"駒場保育園","province":"東京都","city":"目黒区","address":"東京都目黒区駒場一丁目22番1号","lat":35.65653,"lon":139.686563},{"name":"駒場住区センター","province":"東京都","city":"目黒区","address":"東京都目黒区駒場一丁目22番4号","lat":35.656295,"lon":139.686531},{"name":"駒場老人いこいの家","province":"東京都","city":"目黒区","address":"東京都目黒区駒場一丁目26番6号","lat":35.657158,"lon":139.685425},{"name":"駒場児童館","province":"東京都","city":"目黒区","address":"東京都目黒区駒場二丁目7番5号","lat":35.658766,"lon":139.682028},{"name":"駒場野公園・拡張部","province":"東京都","city":"目黒区","address":"東京都目黒区駒場二丁目17番20号","lat":35.65644399,"lon":139.6813395},{"name":"駒場体育館","province":"東京都","city":"目黒区","address":"東京都目黒区駒場二丁目19番39号","lat":35.658083,"lon":139.680147},{"name":"菅刈住区センター","province":"東京都","city":"目黒区","address":"東京都目黒区青葉台二丁目10番18号","lat":35.649801,"lon":139.695613},{"name":"菅刈保育園","province":"東京都","city":"目黒区","address":"東京都目黒区青葉台二丁目10番27号","lat":35.64999,"lon":139.69521},{"name":"東山公園・拡張部","province":"東京都","city":"目黒区","address":"東京都目黒区東山二丁目18番9号","lat":35.64676488,"lon":139.6875969},{"name":"東山住区センター","province":"東京都","city":"目黒区","address":"東京都目黒区東山二丁目24番30号","lat":35.646695,"lon":139.685956},{"name":"ひがしやま幼稚園","province":"東京都","city":"目黒区","address":"東京都目黒区東山三丁目24番2号","lat":35.648048,"lon":139.685593},{"name":"東山地区センター","province":"東京都","city":"目黒区","address":"東京都目黒区東山三丁目24番2号","lat":35.6480476,"lon":139.6855909},{"name":"特別養護老人ホーム東山","province":"東京都","city":"目黒区","address":"東京都目黒区東山三丁目24番6号","lat":35.647391,"lon":139.685474},{"name":"北部地区サービス事務所","province":"東京都","city":"目黒区","address":"東京都目黒区大橋一丁目5番1号","lat":35.651456,"lon":139.688433},{"name":"オーパス夢ひろば","province":"東京都","city":"目黒区","address":"東京都目黒区大橋一丁目9番4号","lat":35.65135939,"lon":139.6882184},{"name":"大橋えのき園","province":"東京都","city":"目黒区","address":"東京都目黒区大橋二丁目19番38号","lat":35.655426,"lon":139.682005},{"name":"烏森小学校","province":"東京都","city":"目黒区","address":"東京都目黒区上目黒三丁目37番27号","lat":35.644365,"lon":139.692883},{"name":"烏森住区センター児童館学童保育クラブ","province":"東京都","city":"目黒区","address":"東京都目黒区上目黒三丁目37番27号","lat":35.64396967,"lon":139.6920223},{"name":"烏森住区センター","province":"東京都","city":"目黒区","address":"東京都目黒区上目黒三丁目44番2号","lat":35.643932,"lon":139.691644},{"name":"目黒区立コーポ烏森","province":"東京都","city":"目黒区","address":"東京都目黒区上目黒三丁目44番30号","lat":35.64423529,"lon":139.6916985},{"name":"烏森住区センター児童館第二学童保育クラブ","province":"東京都","city":"目黒区","address":"東京都目黒区上目黒五丁目18番9号","lat":35.6426763,"lon":139.688615},{"name":"目黒区立コーポ蛇崩","province":"東京都","city":"目黒区","address":"東京都目黒区上目黒五丁目29番10号","lat":35.64087455,"lon":139.6861576},{"name":"中目黒駅前図書館","province":"東京都","city":"目黒区","address":"東京都目黒区上目黒二丁目1番3号","lat":35.643232,"lon":139.698638},{"name":"上二老人いこいの家","province":"東京都","city":"目黒区","address":"東京都目黒区上目黒二丁目10番4号","lat":35.641403,"lon":139.699125},{"name":"第二上目黒保育園","province":"東京都","city":"目黒区","address":"東京都目黒区上目黒二丁目15番8号","lat":35.642213,"lon":139.697344},{"name":"目黒区役所","province":"東京都","city":"目黒区","address":"東京都目黒区上目黒二丁目19番15号","lat":35.641263,"lon":139.698591},{"name":"中目黒公園","province":"東京都","city":"目黒区","address":"東京都目黒区中目黒二丁目3番14号","lat":35.6412318,"lon":139.7051228},{"name":"中目黒住区センター","province":"東京都","city":"目黒区","address":"東京都目黒区中目黒二丁目10番13号","lat":35.640452,"lon":139.703029},{"name":"目黒区立コーポ中目黒","province":"東京都","city":"目黒区","address":"東京都目黒区中目黒四丁目13番30号","lat":35.63687313,"lon":139.7003358},{"name":"特別養護老人ホーム中目黒","province":"東京都","city":"目黒区","address":"東京都目黒区中目黒五丁目7番35号","lat":35.636011,"lon":139.700865},{"name":"三田フレンズ","province":"東京都","city":"目黒区","address":"東京都目黒区三田一丁目11番26号","lat":35.64044023,"lon":139.7121786},{"name":"田道住区センター三田分室","province":"東京都","city":"目黒区","address":"東京都目黒区三田二丁目10番33号","lat":35.638819,"lon":139.712487},{"name":"田道住区センター","province":"東京都","city":"目黒区","address":"東京都目黒区目黒一丁目25番26号","lat":35.636722,"lon":139.708179},{"name":"高齢者センター","province":"東京都","city":"目黒区","address":"東京都目黒区目黒一丁目25番26号","lat":35.636722,"lon":139.708179},{"name":"目黒区美術館","province":"東京都","city":"目黒区","address":"東京都目黒区目黒二丁目4番36号","lat":35.634877,"lon":139.707728},{"name":"目黒区民センタープール","province":"東京都","city":"目黒区","address":"東京都目黒区目黒二丁目4番36号","lat":35.635403,"lon":139.708472},{"name":"目黒区民センター","province":"東京都","city":"目黒区","address":"東京都目黒区目黒二丁目4番36号","lat":35.63532404,"lon":139.7077598},{"name":"目黒区民センター体育館","province":"東京都","city":"目黒区","address":"東京都目黒区目黒二丁目4番36号","lat":35.635403,"lon":139.708472},{"name":"目黒区民センター児童館","province":"東京都","city":"目黒区","address":"東京都目黒区目黒二丁目4番36号","lat":35.635453,"lon":139.707868},{"name":"田道老人いこいの家","province":"東京都","city":"目黒区","address":"東京都目黒区目黒三丁目1番18号","lat":35.635106,"lon":139.706004},{"name":"田道保育園","province":"東京都","city":"目黒区","address":"東京都目黒区目黒三丁目4番4号","lat":35.634608,"lon":139.706148},{"name":"下目黒住区センター","province":"東京都","city":"目黒区","address":"東京都目黒区下目黒二丁目20番19号","lat":35.632939,"lon":139.709898},{"name":"下目黒福祉工房","province":"東京都","city":"目黒区","address":"東京都目黒区下目黒三丁目10番2号","lat":35.627873,"lon":139.711501},{"name":"不動児童館","province":"東京都","city":"目黒区","address":"東京都目黒区下目黒五丁目18番4号","lat":35.630206,"lon":139.702321},{"name":"不動住区センター","province":"東京都","city":"目黒区","address":"東京都目黒区下目黒六丁目8番23号","lat":35.626409,"lon":139.701038},{"name":"不動保育園","province":"東京都","city":"目黒区","address":"東京都目黒区下目黒六丁目11番20号","lat":35.626486,"lon":139.699504},{"name":"不動児童館学童保育クラブ","province":"東京都","city":"目黒区","address":"東京都目黒区下目黒六丁目11番35号","lat":35.62730844,"lon":139.6991913},{"name":"目黒本町福祉工房","province":"東京都","city":"目黒区","address":"東京都目黒区目黒本町一丁目14番24号","lat":35.628592,"lon":139.695724},{"name":"かみよん工房","province":"東京都","city":"目黒区","address":"東京都目黒区上目黒四丁目1番26号","lat":35.64191,"lon":139.692041},{"name":"上目黒老人いこいの家","province":"東京都","city":"目黒区","address":"東京都目黒区上目黒四丁目18番15号","lat":35.640854,"lon":139.691172},{"name":"中町老人いこいの家","province":"東京都","city":"目黒区","address":"東京都目黒区中町一丁目6番19号","lat":35.630887,"lon":139.700041},{"name":"油面住区センター","province":"東京都","city":"目黒区","address":"東京都目黒区中町一丁目6番23号","lat":35.631375,"lon":139.699785},{"name":"目黒区立コーポ中町","province":"東京都","city":"目黒区","address":"東京都目黒区中町二丁目4番1号","lat":35.63416419,"lon":139.6980216},{"name":"中町保育園","province":"東京都","city":"目黒区","address":"東京都目黒区中町二丁目37番15号","lat":35.634125,"lon":139.694569},{"name":"五本木老人いこいの家","province":"東京都","city":"目黒区","address":"東京都目黒区五本木二丁目11番29号","lat":35.635209,"lon":139.689562},{"name":"守屋図書館","province":"東京都","city":"目黒区","address":"東京都目黒区五本木二丁目20番15号","lat":35.634105,"lon":139.689039},{"name":"五本木小学校屋内プール","province":"東京都","city":"目黒区","address":"東京都目黒区五本木二丁目24番3号","lat":35.634466,"lon":139.687889},{"name":"上目黒住区センター","province":"東京都","city":"目黒区","address":"東京都目黒区祐天寺二丁目6番6号","lat":35.637083,"lon":139.693766},{"name":"目黒区立コーポ目黒","province":"東京都","city":"目黒区","address":"東京都目黒区目黒四丁目4番8号","lat":35.63337711,"lon":139.7033514},{"name":"防災センター","province":"東京都","city":"目黒区","address":"東京都目黒区中央町一丁目9番7号","lat":35.629261,"lon":139.692337},{"name":"目黒区立コーポ中央町一丁目","province":"東京都","city":"目黒区","address":"東京都目黒区中央町一丁目19番14号","lat":35.62820243,"lon":139.6908078},{"name":"中央町さくらプラザ","province":"東京都","city":"目黒区","address":"東京都目黒区中央町二丁目4番18号","lat":35.63228503,"lon":139.6918158},{"name":"中央地区サービス事務所","province":"東京都","city":"目黒区","address":"東京都目黒区中央町二丁目9番13号","lat":35.630972,"lon":139.691958},{"name":"五本木住区センター","province":"東京都","city":"目黒区","address":"東京都目黒区中央町二丁目17番2号","lat":35.633186,"lon":139.689298},{"name":"児童発達支援センターすくすくのびのび園","province":"東京都","city":"目黒区","address":"東京都目黒区中央町二丁目23番24号","lat":35.630828,"lon":139.690942},{"name":"中央町保育園","province":"東京都","city":"目黒区","address":"東京都目黒区中央町二丁目30番7号","lat":35.632203,"lon":139.688411},{"name":"スマイルプラザ中央町","province":"東京都","city":"目黒区","address":"東京都目黒区中央町二丁目32番5号","lat":35.63173482,"lon":139.6886281},{"name":"第三ひもんや保育園","province":"東京都","city":"目黒区","address":"東京都目黒区碑文谷五丁目15番19号","lat":35.621515,"lon":139.681151},{"name":"鷹番学童保育クラブ","province":"東京都","city":"目黒区","address":"東京都目黒区碑文谷六丁目2番23号","lat":35.62620451,"lon":139.6851543},{"name":"碑文谷公園・拡張部","province":"東京都","city":"目黒区","address":"東京都目黒区碑文谷六丁目12番39号","lat":35.62771606,"lon":139.681849},{"name":"鷹番保育園","province":"東京都","city":"目黒区","address":"東京都目黒区鷹番二丁目16番15号","lat":35.628367,"lon":139.687073},{"name":"鷹番住区センター","province":"東京都","city":"目黒区","address":"東京都目黒区鷹番三丁目17番20号","lat":35.628225,"lon":139.683159},{"name":"南部地区センター","province":"東京都","city":"目黒区","address":"東京都目黒区目黒本町二丁目1番20号","lat":35.62548425,"lon":139.6952552},{"name":"目黒本町保育園","province":"東京都","city":"目黒区","address":"東京都目黒区目黒本町二丁目1番20号","lat":35.625223,"lon":139.695225},{"name":"目黒区立コーポ清水町","province":"東京都","city":"目黒区","address":"東京都目黒区目黒本町二丁目20番22号","lat":35.62459501,"lon":139.6915218},{"name":"第二ひもんや保育園","province":"東京都","city":"目黒区","address":"東京都目黒区目黒本町二丁目25番14号","lat":35.62352848,"lon":139.6898963},{"name":"目黒区立コーポ目黒本町二丁目","province":"東京都","city":"目黒区","address":"東京都目黒区目黒本町二丁目25番14号","lat":35.62352848,"lon":139.6898963},{"name":"月光原住区センター","province":"東京都","city":"目黒区","address":"東京都目黒区目黒本町四丁目16番18号","lat":35.622074,"lon":139.694686},{"name":"中央体育館","province":"東京都","city":"目黒区","address":"東京都目黒区目黒本町五丁目22番8号","lat":35.61903,"lon":139.698961},{"name":"向原住区センター","province":"東京都","city":"目黒区","address":"東京都目黒区目黒本町五丁目22番11号","lat":35.618716,"lon":139.6986},{"name":"原町保育園","province":"東京都","city":"目黒区","address":"東京都目黒区原町一丁目20番16号","lat":35.617916,"lon":139.695253},{"name":"原町老人いこいの家","province":"東京都","city":"目黒区","address":"東京都目黒区原町二丁目2番14号","lat":35.616284,"lon":139.692252},{"name":"洗足図書館","province":"東京都","city":"目黒区","address":"東京都目黒区洗足二丁目8番26号","lat":35.612372,"lon":139.692362},{"name":"原町住区センター","province":"東京都","city":"目黒区","address":"東京都目黒区南一丁目8番9号","lat":35.615151,"lon":139.689363},{"name":"南保育園","province":"東京都","city":"目黒区","address":"東京都目黒区南一丁目18番30号","lat":35.613591,"lon":139.689087},{"name":"碑小学校屋内プール","province":"東京都","city":"目黒区","address":"東京都目黒区碑文谷一丁目18番14号","lat":35.619316,"lon":139.690579},{"name":"南部地区サービス事務所","province":"東京都","city":"目黒区","address":"東京都目黒区碑文谷一丁目18番14号","lat":35.619316,"lon":139.690579},{"name":"ひもんや保育園","province":"東京都","city":"目黒区","address":"東京都目黒区碑文谷二丁目8番9号","lat":35.622693,"lon":139.687747},{"name":"ひもんや学童保育クラブ","province":"東京都","city":"目黒区","address":"東京都目黒区碑文谷二丁目8番9号","lat":35.62264873,"lon":139.6881379},{"name":"碑住区センター","province":"東京都","city":"目黒区","address":"東京都目黒区碑文谷二丁目16番6号","lat":35.620765,"lon":139.687651},{"name":"大岡山東住区センター","province":"東京都","city":"目黒区","address":"東京都目黒区碑文谷三丁目15番5号","lat":35.617809,"lon":139.684238},{"name":"碑文谷保健センター","province":"東京都","city":"目黒区","address":"東京都目黒区碑文谷四丁目16番18号","lat":35.621379,"lon":139.682498},{"name":"目黒区立コーポ平町","province":"東京都","city":"目黒区","address":"東京都目黒区平町一丁目3番4号","lat":35.61872694,"lon":139.6814211},{"name":"平町児童館","province":"東京都","city":"目黒区","address":"東京都目黒区平町一丁目5番3号","lat":35.617203,"lon":139.682199},{"name":"大岡山西住区センター","province":"東京都","city":"目黒区","address":"東京都目黒区平町一丁目15番12号","lat":35.615907,"lon":139.679162},{"name":"平町老人いこいの家","province":"東京都","city":"目黒区","address":"東京都目黒区平町二丁目4番10号","lat":35.614416,"lon":139.68311},{"name":"大岡山保育園","province":"東京都","city":"目黒区","address":"東京都目黒区大岡山一丁目36番10号","lat":35.610197,"lon":139.680396},{"name":"中根住区センター","province":"東京都","city":"目黒区","address":"東京都目黒区大岡山一丁目37番2号","lat":35.61269,"lon":139.679532},{"name":"緑が丘文化会館別館","province":"東京都","city":"目黒区","address":"東京都目黒区緑が丘二丁目7番20号","lat":35.60963012,"lon":139.6744273},{"name":"緑ヶ丘小学校屋内プール","province":"東京都","city":"目黒区","address":"東京都目黒区緑が丘二丁目13番1号","lat":35.60991,"lon":139.674223},{"name":"緑が丘文化会館","province":"東京都","city":"目黒区","address":"東京都目黒区緑が丘二丁目14番23号","lat":35.609352,"lon":139.673277},{"name":"自由が丘老人いこいの家","province":"東京都","city":"目黒区","address":"東京都目黒区自由が丘一丁目23番26号","lat":35.611538,"lon":139.669636},{"name":"自由が丘住区センター","province":"東京都","city":"目黒区","address":"東京都目黒区自由が丘一丁目24番12号","lat":35.609913,"lon":139.669161},{"name":"八雲住区センター（中根一丁目会議室）","province":"東京都","city":"目黒区","address":"東京都目黒区中根一丁目10番22号","lat":35.61545607,"lon":139.6732129},{"name":"西部地区サービス事務所","province":"東京都","city":"目黒区","address":"東京都目黒区柿ノ木坂一丁目28番10号","lat":35.619904,"lon":139.675704},{"name":"めぐろパーシモンホール","province":"東京都","city":"目黒区","address":"東京都目黒区八雲一丁目1番1号","lat":35.621542,"lon":139.672741},{"name":"八雲体育館","province":"東京都","city":"目黒区","address":"東京都目黒区八雲一丁目1番1号","lat":35.621542,"lon":139.672741},{"name":"心身障害者センターあいアイ館","province":"東京都","city":"目黒区","address":"東京都目黒区八雲一丁目1番8号","lat":35.620523,"lon":139.673267},{"name":"八雲住区センター","province":"東京都","city":"目黒区","address":"東京都目黒区八雲一丁目10番5号","lat":35.618715,"lon":139.672271},{"name":"八雲保育園","province":"東京都","city":"目黒区","address":"東京都目黒区八雲三丁目10番18号","lat":35.615618,"lon":139.668077},{"name":"目黒区立コーポ八雲","province":"東京都","city":"目黒区","address":"東京都目黒区八雲三丁目14番16号","lat":35.61640812,"lon":139.6661761},{"name":"宮前公園庭球場","province":"東京都","city":"目黒区","address":"東京都目黒区八雲三丁目19番12号","lat":35.61698,"lon":139.665149},{"name":"自由が丘住区センター宮前分室","province":"東京都","city":"目黒区","address":"東京都目黒区八雲三丁目22番15号","lat":35.61564,"lon":139.665406},{"name":"特別養護老人ホーム東が丘","province":"東京都","city":"目黒区","address":"東京都目黒区東が丘一丁目6番4号","lat":35.626356,"lon":139.670513},{"name":"東根住区センター","province":"東京都","city":"目黒区","address":"東京都目黒区東が丘一丁目7番14号","lat":35.62724,"lon":139.670043},{"name":"東が丘障害福祉施設","province":"東京都","city":"目黒区","address":"東京都目黒区東が丘一丁目21番15号","lat":35.627444,"lon":139.667838},{"name":"東根第二学童保育クラブ","province":"東京都","city":"目黒区","address":"東京都目黒区東が丘一丁目31番7号","lat":35.62982292,"lon":139.667169},{"name":"砧野球場・サッカー場","province":"東京都","city":"目黒区","address":"東京都目黒区世田谷区喜多見一丁目12番2号","lat":35.620867,"lon":139.596029},{"name":"興津自然学園","province":"東京都","city":"目黒区","address":"東京都目黒区千葉県勝浦市興津143","lat":35.13696,"lon":140.254779},{"name":"八ヶ岳林間学園","province":"東京都","city":"目黒区","address":"東京都目黒区山梨県北杜市高根町清里3545","lat":35.934211,"lon":138.442816},{"name":"生活安全パトロールカー（2台）","province":"東京都","city":"目黒区","address":"東京都目黒区上目黒二丁目19番15号","lat":35.64046334,"lon":139.6986929},{"name":"柿の木坂支流緑道上","province":"東京都","city":"目黒区","address":"東京都目黒区柿の木坂3-4-16","lat":35.62765,"lon":139.674439},{"name":"めぐろ区民キャンパス公園歩道","province":"東京都","city":"目黒区","address":"東京都目黒区八雲1-1-12","lat":35.621189,"lon":139.673695},{"name":"九品仏川緑道上","province":"東京都","city":"目黒区","address":"東京都目黒区自由が丘3-12-11","lat":35.610662,"lon":139.663863},{"name":"九品仏川緑道上","province":"東京都","city":"目黒区","address":"東京都目黒区自由が丘3-8-7","lat":35.607712,"lon":139.665179},{"name":"芳窪街かど公園内","province":"東京都","city":"目黒区","address":"東京都目黒区東が丘1-31-1","lat":35.629942,"lon":139.666541},{"name":"九品仏川緑道上","province":"東京都","city":"目黒区","address":"東京都目黒区緑が丘2-6-7","lat":35.608401,"lon":139.674529},{"name":"九品仏川緑道上","province":"東京都","city":"目黒区","address":"東京都目黒区緑ヶ丘2-16-10","lat":35.607871,"lon":139.672136},{"name":"呑川本流緑道上","province":"東京都","city":"目黒区","address":"東京都目黒区八雲2-11-20","lat":35.616446,"lon":139.669528},{"name":"目黒消防署八雲出張所","province":"東京都","city":"目黒区","address":"東京都目黒区八雲3-29-14","lat":35.615363,"lon":139.663876},{"name":"目黒消防署大岡山出張所","province":"東京都","city":"目黒区","address":"東京都目黒区大岡山1-37-15","lat":35.611447,"lon":139.679853},{"name":"呑川本流緑道上","province":"東京都","city":"目黒区","address":"東京都目黒区八雲1-5-16","lat":35.617505,"lon":139.673751},{"name":"呑川本流緑道上","province":"東京都","city":"目黒区","address":"東京都目黒区八雲1-11-10","lat":35.617544,"lon":139.672375},{"name":"呑川本流緑道上","province":"東京都","city":"目黒区","address":"東京都目黒区八雲2-7-18","lat":35.616987,"lon":139.671623},{"name":"呑川本流緑道上","province":"東京都","city":"目黒区","address":"東京都目黒区八雲2-11-25","lat":35.616655,"lon":139.670342},{"name":"呑川本流緑道上","province":"東京都","city":"目黒区","address":"東京都目黒区八雲3-9-20","lat":35.616308,"lon":139.668587},{"name":"呑川本流緑道上","province":"東京都","city":"目黒区","address":"東京都目黒区八雲3-13-21","lat":35.615319,"lon":139.666675},{"name":"呑川本流緑道上","province":"東京都","city":"目黒区","address":"東京都目黒区八雲3-22-15","lat":35.615566,"lon":139.665408},{"name":"やくも街かど公園内","province":"東京都","city":"目黒区","address":"東京都目黒区八雲5-15-1","lat":35.621821,"lon":139.665797},{"name":"境橋街かど公園内","province":"東京都","city":"目黒区","address":"東京都目黒区緑が丘3-10-37","lat":35.603168,"lon":139.6807},{"name":"九品仏川緑道上","province":"東京都","city":"目黒区","address":"東京都目黒区緑が丘3-3-4","lat":35.605579,"lon":139.679911},{"name":"九品仏川緑道上","province":"東京都","city":"目黒区","address":"東京都目黒区緑が丘1-21-15","lat":35.608712,"lon":139.676242},{"name":"中根公園内","province":"東京都","city":"目黒区","address":"東京都目黒区中根2-6-33","lat":35.613138,"lon":139.676929},{"name":"呑川本流緑道上","province":"東京都","city":"目黒区","address":"東京都目黒区大岡山1-35-12","lat":35.608624,"lon":139.679914},{"name":"呑川本流緑道上","province":"東京都","city":"目黒区","address":"東京都目黒区平町2-22-14","lat":35.614632,"lon":139.678406},{"name":"呑川本流緑道上","province":"東京都","city":"目黒区","address":"東京都目黒区平町1-25-8","lat":35.616906,"lon":139.67726},{"name":"すずめのお宿緑地公園","province":"東京都","city":"目黒区","address":"東京都目黒区碑文谷3-8-16","lat":35.618071,"lon":139.685873},{"name":"目黒消防署碑文谷出張所","province":"東京都","city":"目黒区","address":"東京都目黒区碑文谷2-11-14","lat":35.623336,"lon":139.685842},{"name":"東町南児童遊園内","province":"東京都","city":"目黒区","address":"東京都目黒区目黒本町5-7-18","lat":35.616997,"lon":139.698565},{"name":"碑住区センター","province":"東京都","city":"目黒区","address":"東京都目黒区碑文谷2-16-6","lat":35.620754,"lon":139.687678},{"name":"碑文谷公園内","province":"東京都","city":"目黒区","address":"東京都目黒区碑文谷6-9-11","lat":35.626561,"lon":139.681895},{"name":"蛇崩川緑道蛇崩下橋","province":"東京都","city":"目黒区","address":"東京都目黒区上目黒4-36-29","lat":35.641529,"lon":139.687598},{"name":"上目黒四丁目防災ひろば","province":"東京都","city":"目黒区","address":"東京都目黒区上目黒4-17-25","lat":35.640294,"lon":139.690908},{"name":"自然園下","province":"東京都","city":"目黒区","address":"東京都目黒区目黒3-21-19","lat":35.633884,"lon":139.703253},{"name":"防災センター前","province":"東京都","city":"目黒区","address":"東京都目黒区中央町1-9-7","lat":35.629051,"lon":139.692056},{"name":"祐天寺裏交差点","province":"東京都","city":"目黒区","address":"東京都目黒区中町2-2-16","lat":35.635091,"lon":139.697665},{"name":"東横線高架下","province":"東京都","city":"目黒区","address":"東京都目黒区五本木2-10-3","lat":35.635665,"lon":139.689588},{"name":"目黒区清掃事業所","province":"東京都","city":"目黒区","address":"東京都目黒区中目黒4-1-2","lat":35.638841,"lon":139.703419},{"name":"大鳥公園内","province":"東京都","city":"目黒区","address":"東京都目黒区下目黒2-20-19","lat":35.632892,"lon":139.709994},{"name":"目黒消防署中目黒出張所","province":"東京都","city":"目黒区","address":"東京都目黒区上目黒2-9-14","lat":35.641918,"lon":139.700106},{"name":"目黒消防署","province":"東京都","city":"目黒区","address":"東京都目黒区下目黒6-1-22","lat":35.62985,"lon":139.700372},{"name":"林試の森公園北口","province":"東京都","city":"目黒区","address":"東京都目黒区下目黒6-9-22","lat":35.626025,"lon":139.699873},{"name":"目黒区総合庁舎駐車場","province":"東京都","city":"目黒区","address":"東京都目黒区上目黒2-19-15","lat":35.640975,"lon":139.698955},{"name":"目黒区総合庁舎南口","province":"東京都","city":"目黒区","address":"東京都目黒区上目黒2-19-15","lat":35.640482,"lon":139.698063},{"name":"目黒区総合庁舎西口","province":"東京都","city":"目黒区","address":"東京都目黒区上目黒2-19-15","lat":35.641485,"lon":139.697874},{"name":"東山公園拡張部","province":"東京都","city":"目黒区","address":"東京都目黒区東山3-21-9","lat":35.648038,"lon":139.686192},{"name":"目黒土木公園事務所","province":"東京都","city":"目黒区","address":"東京都目黒区上目黒2-48-2","lat":35.642012,"lon":139.694692},{"name":"上一防災ひろば","province":"東京都","city":"目黒区","address":"東京都目黒区上目黒1-17-4","lat":35.64579,"lon":139.698218},{"name":"日の出橋付近","province":"東京都","city":"目黒区","address":"東京都目黒区上目黒1-6-10","lat":35.64524,"lon":139.699893},{"name":"宿山橋付近","province":"東京都","city":"目黒区","address":"東京都目黒区上目黒1-16-2","lat":35.646096,"lon":139.697931},{"name":"宿山橋付近","province":"東京都","city":"目黒区","address":"東京都目黒区上目黒1-15-11","lat":35.64654,"lon":139.698108},{"name":"朝日橋付近","province":"東京都","city":"目黒区","address":"東京都目黒区青葉台1-16-10","lat":35.647369,"lon":139.696612},{"name":"柳橋付近","province":"東京都","city":"目黒区","address":"東京都目黒区青葉台2-17-9","lat":35.649305,"lon":139.693451},{"name":"松見坂付近","province":"東京都","city":"目黒区","address":"東京都目黒区大橋2-2-3","lat":35.654553,"lon":139.689424},{"name":"駒場一丁目2番","province":"東京都","city":"目黒区","address":"東京都目黒区駒場1-2-15","lat":35.65659,"lon":139.689183},{"name":"炊事門付近","province":"東京都","city":"目黒区","address":"東京都目黒区駒場3-8-1","lat":35.659881,"lon":139.686574},{"name":"駒場東大前駅付近","province":"東京都","city":"目黒区","address":"東京都目黒区駒場2-1-7","lat":35.658641,"lon":139.683237},{"name":"高木神社横","province":"東京都","city":"目黒区","address":"東京都目黒区南2-1-40","lat":35.61726,"lon":139.688614},{"name":"中央体育館東側","province":"東京都","city":"目黒区","address":"東京都目黒区目黒本町5-22-8","lat":35.618473,"lon":139.699081},{"name":"目黒区民センター駐車場横","province":"東京都","city":"目黒区","address":"東京都目黒区目黒2-4-36","lat":35.63613,"lon":139.707679},{"name":"三田丘の上公園内","province":"東京都","city":"目黒区","address":"東京都目黒区三田1-4-6","lat":35.641953,"lon":139.716202},{"name":"下五児童遊園内","province":"東京都","city":"目黒区","address":"東京都目黒区下目黒5-33-6","lat":35.625984,"lon":139.702942},{"name":"目黒区保健所","province":"東京都","city":"目黒区","address":"東京都目黒区上目黒2丁目19-15","lat":35.64110969,"lon":139.69847649},{"name":"目黒区本庁舎","province":"東京都","city":"目黒区","address":"東京都目黒区上目黒2丁目19-15","lat":35.64110969,"lon":139.69847649},{"name":"目黒区本庁舎","province":"東京都","city":"目黒区","address":"目黒区上目黒2-19-15","lat":35.641263,"lon":139.698591},{"name":"第三機動隊","province":"東京都","city":"目黒区","address":"目黒区大橋2-17-16","lat":35.6535,"lon":139.6843},{"name":"第三方面交通機動隊","province":"東京都","city":"目黒区","address":"目黒区大橋2-21-8","lat":35.65333,"lon":139.683},{"name":"第三方面本部","province":"東京都","city":"目黒区","address":"目黒区大橋2-21-6","lat":35.65328,"lon":139.6839},{"name":"碑文谷警察署","province":"東京都","city":"目黒区","address":"目黒区碑文谷4-24-17","lat":35.62079,"lon":139.6812},{"name":"目黒警察署","province":"東京都","city":"目黒区","address":"目黒区中目黒2-7-13","lat":35.63798,"lon":139.7051},{"name":"目黒消防署","province":"東京都","city":"目黒区","address":"目黒区下目黒6-1-22","lat":35.6299,"lon":139.7004},{"name":"目黒区","province":"東京都","city":"目黒区","address":"目黒区鷹番1-7-11","lat":35.6263,"lon":139.6886},{"name":"アルフレッサ（株）目黒医薬品センター","province":"東京都","city":"目黒区","address":"目黒区目黒本町2-18-16","lat":35.62508,"lon":139.6904},{"name":"目黒清掃工場","province":"東京都","city":"目黒区","address":"目黒区三田2-19-43","lat":35.63788,"lon":139.7075},{"name":"ＮＴＴコミュニケーションズ（株）唐ヶ崎ビル","province":"東京都","city":"目黒区","address":"目黒区中央町1-11-7","lat":35.6277,"lon":139.6917},{"name":"東京ガス（株）目黒ビル","province":"東京都","city":"目黒区","address":"目黒区目黒3-1-3","lat":35.63553,"lon":139.7061},{"name":"※目黒区本庁舎","province":"東京都","city":"目黒区","address":"東京都目黒区上目黒2丁目19-15","lat":35.64110969,"lon":139.69847649},{"name":"目黒区","province":"東京都","city":"目黒区","address":"目黒区上目黒2-19-15","lat":35.6412631,"lon":139.6985906},{"name":"東京都写真美術館","province":"東京都","city":"目黒区","address":"東京都目黒区三田1丁目13-3","lat":35.64182,"lon":139.7132},{"name":"東京都写真美術館","province":"東京都","city":"目黒区","address":"東京都目黒区三田1丁目13-3","lat":35.6415,"lon":139.7134},{"name":"東京都写真美術館","province":"東京都","city":"目黒区","address":"東京都目黒区三田1丁目13-3","lat":35.64158,"lon":139.7133},{"name":"東京都写真美術館","province":"東京都","city":"目黒区","address":"東京都目黒区三田1丁目13-3","lat":35.64152,"lon":139.7133},{"name":"駒沢オリンピック公園総合運動場陸上競技場","province":"東京都","city":"目黒区","address":"東京都目黒区東が丘2丁目16","lat":35.625688,"lon":139.66438},{"name":"駒沢オリンピック公園","province":"東京都","city":"目黒区","address":"東京都目黒区東が丘2丁目15","lat":35.627052,"lon":139.663756},{"name":"駒沢オリンピック公園","province":"東京都","city":"目黒区","address":"東京都目黒区八雲5丁目20","lat":35.623498,"lon":139.664842},{"name":"林試の森公園","province":"東京都","city":"目黒区","address":"東京都目黒区下目黒5丁目37","lat":35.625839,"lon":139.704744},{"name":"東京都水道局目黒営業所","province":"東京都","city":"目黒区","address":"東京都目黒区中町2丁目43-18","lat":35.633013,"lon":139.692355},{"name":"目黒消防署","province":"東京都","city":"目黒区","address":"東京都目黒区下目黒6丁目1-22","lat":35.629771,"lon":139.700307},{"name":"小山台公園","province":"東京都","city":"目黒区","address":"東京都目黒区目黒本町3丁目19","lat":35.624488,"lon":139.697951},{"name":"烏森住区センター","province":"東京都","city":"目黒区","address":"東京都目黒区上目黒3丁目44-2","lat":35.643901,"lon":139.69165},{"name":"駒場住区センター","province":"東京都","city":"目黒区","address":"東京都目黒区駒場1丁目22-4","lat":35.656312,"lon":139.686584},{"name":"菅刈住区センター","province":"東京都","city":"目黒区","address":"東京都目黒区青葉台2丁目10-18","lat":35.649859,"lon":139.69562},{"name":"東山住区センター","province":"東京都","city":"目黒区","address":"東京都目黒区東山2丁目24","lat":35.647072,"lon":139.68598},{"name":"北部地区サービス事務所","province":"東京都","city":"目黒区","address":"東京都目黒区大橋1丁目5","lat":35.651607,"lon":139.688229},{"name":"目黒区総合庁舎","province":"東京都","city":"目黒区","address":"東京都目黒区上目黒2丁目19-15","lat":35.641258,"lon":139.698983},{"name":"目黒区総合庁舎","province":"東京都","city":"目黒区","address":"東京都目黒区上目黒2丁目19-15","lat":35.641592,"lon":139.69831},{"name":"目黒区総合庁舎","province":"東京都","city":"目黒区","address":"東京都目黒区上目黒2丁目19","lat":35.640862,"lon":139.698225},{"name":"目黒区総合庁舎","province":"東京都","city":"目黒区","address":"東京都目黒区上目黒2丁目19-15","lat":35.641132,"lon":139.698533},{"name":"目黒区総合庁舎","province":"東京都","city":"目黒区","address":"東京都目黒区上目黒2丁目19-15","lat":35.641364,"lon":139.698797},{"name":"目黒区防災センター","province":"東京都","city":"目黒区","address":"東京都目黒区中央町1丁目9-7","lat":35.629065,"lon":139.692042},{"name":"目黒区南部地区サービス事務所","province":"東京都","city":"目黒区","address":"東京都目黒区碑文谷1丁目18-14","lat":35.61929,"lon":139.690566},{"name":"西部地区サービス事務所","province":"東京都","city":"目黒区","address":"東京都目黒区柿の木坂1丁目28-10","lat":35.61993,"lon":139.675745},{"name":"東山社会教育館","province":"東京都","city":"目黒区","address":"東京都目黒区東山3丁目24-2","lat":35.647926,"lon":139.685395},{"name":"緑が丘コミュニティセンター別館","province":"東京都","city":"目黒区","address":"東京都目黒区緑が丘2丁目7-20","lat":35.609396,"lon":139.674095},{"name":"緑が丘コミュニティセンター本館","province":"東京都","city":"目黒区","address":"東京都目黒区緑が丘2丁目14-23","lat":35.609381,"lon":139.673255},{"name":"緑が丘コミュニティセンター本館","province":"東京都","city":"目黒区","address":"東京都目黒区緑が丘2丁目14-23","lat":35.609431,"lon":139.673258},{"name":"緑が丘コミュニティセンター本館","province":"東京都","city":"目黒区","address":"東京都目黒区緑が丘2丁目14-23","lat":35.609261,"lon":139.673247},{"name":"目黒区中目黒二丁目複合施設（中目黒スクエア）","province":"東京都","city":"目黒区","address":"東京都目黒区中目黒2丁目10-13","lat":35.64036,"lon":139.703155},{"name":"田道住区センター三田分室","province":"東京都","city":"目黒区","address":"東京都目黒区三田2丁目10-33","lat":35.63863,"lon":139.712571},{"name":"下目黒住区センター","province":"東京都","city":"目黒区","address":"東京都目黒区下目黒2丁目20-19","lat":35.63286,"lon":139.709954},{"name":"下目黒住区センター","province":"東京都","city":"目黒区","address":"東京都目黒区下目黒2丁目20-19","lat":35.63291,"lon":139.71001},{"name":"不動住区センター","province":"東京都","city":"目黒区","address":"東京都目黒区下目黒6丁目8-23","lat":35.62645,"lon":139.701026},{"name":"上目黒住区センター","province":"東京都","city":"目黒区","address":"東京都目黒区祐天寺2丁目6-6","lat":35.63712,"lon":139.693784},{"name":"油面住区センター","province":"東京都","city":"目黒区","address":"東京都目黒区中町1丁目6-23","lat":35.63142,"lon":139.699912},{"name":"五本木住区センター","province":"東京都","city":"目黒区","address":"東京都目黒区中央町2丁目17","lat":35.63324,"lon":139.68932},{"name":"鷹番住区センター","province":"東京都","city":"目黒区","address":"東京都目黒区鷹番3丁目17-20","lat":35.62829,"lon":139.683143},{"name":"月光原住区センター","province":"東京都","city":"目黒区","address":"東京都目黒区目黒本町4丁目16-18","lat":35.6221,"lon":139.694741},{"name":"向原住区センター","province":"東京都","city":"目黒区","address":"東京都目黒区目黒本町5丁目22","lat":35.61863,"lon":139.698647},{"name":"碑住区センター","province":"東京都","city":"目黒区","address":"東京都目黒区碑文谷2丁目16-6","lat":35.6208,"lon":139.687726},{"name":"原町住区センター","province":"東京都","city":"目黒区","address":"東京都目黒区南1丁目8-9","lat":35.61517,"lon":139.689343},{"name":"大岡山東住区センター","province":"東京都","city":"目黒区","address":"東京都目黒区碑文谷3丁目15-5","lat":35.61793,"lon":139.684171},{"name":"大岡山西住区センター","province":"東京都","city":"目黒区","address":"東京都目黒区平町1丁目15-12","lat":35.61596,"lon":139.679214},{"name":"中根住区センター","province":"東京都","city":"目黒区","address":"東京都目黒区大岡山1丁目37-2","lat":35.6127,"lon":139.679455},{"name":"自由が丘住区センター","province":"東京都","city":"目黒区","address":"東京都目黒区自由が丘1丁目24-12","lat":35.60996,"lon":139.669165},{"name":"自由が丘住区センター宮前分室","province":"東京都","city":"目黒区","address":"東京都目黒区八雲3丁目22-15","lat":35.61561,"lon":139.665447},{"name":"東根住区センター","province":"東京都","city":"目黒区","address":"東京都目黒区東が丘1丁目7-14","lat":35.6273,"lon":139.670079},{"name":"八雲住区センター","province":"東京都","city":"目黒区","address":"東京都目黒区八雲1丁目10-5","lat":35.61872,"lon":139.672217},{"name":"三田フレンズ","province":"東京都","city":"目黒区","address":"東京都目黒区三田1丁目11-26","lat":35.64053,"lon":139.71245},{"name":"三田フレンズ","province":"東京都","city":"目黒区","address":"東京都目黒区三田1丁目11-26","lat":35.64039,"lon":139.712388},{"name":"目黒区中央町社会教育館","province":"東京都","city":"目黒区","address":"東京都目黒区中央町2丁目4-18","lat":35.63216,"lon":139.692152},{"name":"目黒区中央町社会教育館","province":"東京都","city":"目黒区","address":"東京都目黒区中央町2丁目4-18","lat":35.63219,"lon":139.692131},{"name":"目黒本町社会教育館","province":"東京都","city":"目黒区","address":"東京都目黒区目黒本町2丁目1-20","lat":35.6252,"lon":139.695272},{"name":"守屋図書館","province":"東京都","city":"目黒区","address":"東京都目黒区五本木2丁目20-15","lat":35.63403,"lon":139.689231},{"name":"洗足図書館","province":"東京都","city":"目黒区","address":"東京都目黒区洗足2丁目8-26","lat":35.61235,"lon":139.692416},{"name":"上目黒二丁目文化公益施設（目黒区立中目黒駅前図書館）","province":"東京都","city":"目黒区","address":"東京都目黒区上目黒2丁目1-2","lat":35.64341,"lon":139.698548},{"name":"八雲中央図書館","province":"東京都","city":"目黒区","address":"東京都目黒区八雲1丁目1","lat":35.62155,"lon":139.672444},{"name":"目黒本町図書館","province":"東京都","city":"目黒区","address":"東京都目黒区目黒本町2丁目1-20","lat":35.62517,"lon":139.695312},{"name":"めぐろ区民キャンパス","province":"東京都","city":"目黒区","address":"東京都目黒区八雲1丁目1-1","lat":35.62151,"lon":139.672786},{"name":"めぐろ区民キャンパス","province":"東京都","city":"目黒区","address":"東京都目黒区八雲1丁目1-1","lat":35.62161,"lon":139.672978},{"name":"学芸大学駅公衆便所","province":"東京都","city":"目黒区","address":"東京都目黒区鷹番3丁目6","lat":35.629166,"lon":139.685346},{"name":"駒場東大前駅公衆便所","province":"東京都","city":"目黒区","address":"東京都目黒区駒場2丁目2","lat":35.658764,"lon":139.682825},{"name":"自由が丘駅公衆便所","province":"東京都","city":"目黒区","address":"東京都目黒区自由が丘1丁目30-2","lat":35.607533,"lon":139.668607},{"name":"新橋公衆便所","province":"東京都","city":"目黒区","address":"東京都目黒区下目黒1丁目6","lat":35.633783,"lon":139.711081},{"name":"都立大学駅公衆便所","province":"東京都","city":"目黒区","address":"東京都目黒区中根1丁目5-1","lat":35.617301,"lon":139.675886},{"name":"八雲氷川神社公衆便所","province":"東京都","city":"目黒区","address":"東京都目黒区八雲2丁目4","lat":35.6175,"lon":139.671156},{"name":"不動尊公衆便所","province":"東京都","city":"目黒区","address":"東京都目黒区下目黒3丁目20","lat":35.627691,"lon":139.708596},{"name":"祐天寺駅公衆便所","province":"東京都","city":"目黒区","address":"東京都目黒区祐天寺2丁目13","lat":35.637487,"lon":139.691155},{"name":"祐天寺公衆便所","province":"東京都","city":"目黒区","address":"東京都目黒区中目黒5丁目24","lat":35.636909,"lon":139.697036},{"name":"圓融寺公衆便所","province":"東京都","city":"目黒区","address":"東京都目黒区碑文谷1丁目22","lat":35.61971,"lon":139.689365},{"name":"目黒区めぐろ学校サポートセンター","province":"東京都","city":"目黒区","address":"東京都目黒区中目黒3丁目6-10","lat":35.639378,"lon":139.703012},{"name":"目黒区めぐろ学校サポートセンター","province":"東京都","city":"目黒区","address":"東京都目黒区中目黒3丁目6-10","lat":35.639345,"lon":139.703016},{"name":"目黒区めぐろ学校サポートセンター","province":"東京都","city":"目黒区","address":"東京都目黒区中目黒3丁目6-10","lat":35.639484,"lon":139.702846},{"name":"八雲体育館","province":"東京都","city":"目黒区","address":"東京都目黒区八雲1丁目1-1","lat":35.62152,"lon":139.672533},{"name":"中央体育館","province":"東京都","city":"目黒区","address":"東京都目黒区目黒本町5丁目22-8","lat":35.618865,"lon":139.698793},{"name":"中央体育館","province":"東京都","city":"目黒区","address":"東京都目黒区目黒本町5丁目22-8","lat":35.61886,"lon":139.698815},{"name":"中央体育館","province":"東京都","city":"目黒区","address":"東京都目黒区目黒本町5丁目22-8","lat":35.618784,"lon":139.698944},{"name":"中央体育館","province":"東京都","city":"目黒区","address":"東京都目黒区目黒本町5丁目22-8","lat":35.6188,"lon":139.698942},{"name":"中央体育館","province":"東京都","city":"目黒区","address":"東京都目黒区目黒本町5丁目22-8","lat":35.618789,"lon":139.698931},{"name":"八雲給水所","province":"東京都","city":"目黒区","address":"東京都目黒区八雲1-1","lat":35.620566,"lon":139.670911},{"name":"都立林試の森公園","province":"東京都","city":"目黒区","address":"東京都目黒区下目黒5-37","lat":35.625388,"lon":139.705384},{"name":"駒場東大前西口駐輪場","province":"東京都","city":"目黒区","address":"東京都目黒区駒場2丁目7-1","lat":35.65894061,"lon":139.68226888},{"name":"駒場東大前東大口駐輪場","province":"東京都","city":"目黒区","address":"東京都目黒区駒場3丁目8-1","lat":35.65931564,"lon":139.68524362},{"name":"池尻大橋駅北口駐輪場","province":"東京都","city":"目黒区","address":"東京都目黒区大橋2丁目24-11","lat":35.65143874,"lon":139.68503836},{"name":"祐天寺駅西口第一駐輪場","province":"東京都","city":"目黒区","address":"東京都目黒区五本木1丁目33-8","lat":35.63739048,"lon":139.69029671},{"name":"祐天寺駅南高架下駐輪場","province":"東京都","city":"目黒区","address":"東京都目黒区五本木1丁目32-20","lat":35.63589064,"lon":139.68965515},{"name":"学芸大学駅東口駐輪場","province":"東京都","city":"目黒区","address":"東京都目黒区鷹番2丁目19-15","lat":35.6284303,"lon":139.68599734},{"name":"学芸大学駅西口第一駐輪場","province":"東京都","city":"目黒区","address":"東京都目黒区鷹番3丁目7-4","lat":35.62952182,"lon":139.68485296},{"name":"学芸大学駅西口第二駐輪場","province":"東京都","city":"目黒区","address":"東京都目黒区鷹番3丁目17-20","lat":35.6282247,"lon":139.68315869},{"name":"中根一丁目駐輪場","province":"東京都","city":"目黒区","address":"東京都目黒区中根1丁目2-16","lat":35.618309,"lon":139.67619013},{"name":"自由が丘駅南口駐輪場","province":"東京都","city":"目黒区","address":"東京都目黒区自由が丘2丁目13-9","lat":35.60675176,"lon":139.66759683},{"name":"洗足二丁目駐輪場","province":"東京都","city":"目黒区","address":"東京都目黒区洗足2丁目18-11","lat":35.61054929,"lon":139.69329177},{"name":"青葉台一丁目","province":"東京都","city":"目黒区","address":"東京都目黒区東山1丁目2-7","lat":35.64771994,"lon":139.69357111},{"name":"中目黒","province":"東京都","city":"目黒区","address":"東京都目黒区上目黒2丁目9-5","lat":35.64276232,"lon":139.7003735},{"name":"田道","province":"東京都","city":"目黒区","address":"東京都目黒区目黒2丁目14-13","lat":35.63631596,"lon":139.7063843},{"name":"目黒不動入口","province":"東京都","city":"目黒区","address":"東京都目黒区下目黒2丁目24-7","lat":35.62927518,"lon":139.71109241},{"name":"目黒税務署前","province":"東京都","city":"目黒区","address":"東京都目黒区祐天寺2丁目8-12","lat":35.63629903,"lon":139.69416588},{"name":"上目黒三丁目","province":"東京都","city":"目黒区","address":"東京都目黒区青葉台1丁目22-6","lat":35.64599799,"lon":139.69734031},{"name":"駒場町","province":"東京都","city":"目黒区","address":"東京都目黒区駒場2丁目16-4","lat":35.65581597,"lon":139.68286061},{"name":"守屋図書館前","province":"東京都","city":"目黒区","address":"東京都目黒区中央町2丁目1-13","lat":35.63362978,"lon":139.68948578},{"name":"中央町二丁目","province":"東京都","city":"目黒区","address":"東京都目黒区中町2丁目45-8","lat":35.63318267,"lon":139.69189116},{"name":"池尻ランプ前","province":"東京都","city":"目黒区","address":"東京都目黒区大橋1丁目10-1","lat":35.65126102,"lon":139.68642992},{"name":"中目黒駅前","province":"東京都","city":"目黒区","address":"東京都目黒区上目黒1丁目23-1","lat":35.6444149,"lon":139.69964295},{"name":"西郷山下","province":"東京都","city":"目黒区","address":"東京都目黒区青葉台1丁目12-3","lat":35.64866154,"lon":139.69552092},{"name":"青葉台一丁目第二","province":"東京都","city":"目黒区","address":"東京都目黒区青葉台1丁目28-12","lat":35.64744222,"lon":139.69484879},{"name":"上目黒二丁目","province":"東京都","city":"目黒区","address":"東京都目黒区上目黒2丁目10-8","lat":35.64136524,"lon":139.69935419},{"name":"上目黒一丁目","province":"東京都","city":"目黒区","address":"東京都目黒区青葉台1丁目6","lat":35.64784505,"lon":139.69892067},{"name":"東山一丁目","province":"東京都","city":"目黒区","address":"東京都目黒区東山1丁目6-1","lat":35.64630071,"lon":139.69605151},{"name":"西郷山公園前","province":"東京都","city":"目黒区","address":"東京都目黒区青葉台2丁目10","lat":35.65029745,"lon":139.69516256},{"name":"目黒区総合庁舎前","province":"東京都","city":"目黒区","address":"東京都目黒区中目黒3丁目13-22","lat":35.63919604,"lon":139.69918204},{"name":"碑文谷","province":"東京都","city":"目黒区","address":"東京都目黒区碑文谷2丁目21-13","lat":35.62283372,"lon":139.68495871},{"name":"都立大学駅前","province":"東京都","city":"目黒区","address":"東京都目黒区柿の木坂1丁目30-8","lat":35.61855895,"lon":139.67549296},{"name":"柿の木坂","province":"東京都","city":"目黒区","address":"東京都目黒区柿の木坂3丁目8-13","lat":35.6265135,"lon":139.67227909},{"name":"南一丁目","province":"東京都","city":"目黒区","address":"東京都目黒区南1丁目24-10","lat":35.6132738,"lon":139.68706997},{"name":"柿の木坂陸橋下","province":"東京都","city":"目黒区","address":"東京都目黒区平町1丁目1-1","lat":35.62007002,"lon":139.68040916},{"name":"中根一丁目","province":"東京都","city":"目黒区","address":"東京都目黒区中根1丁目5-1","lat":35.61718968,"lon":139.6759513},{"name":"八雲一丁目","province":"東京都","city":"目黒区","address":"東京都目黒区八雲1丁目1-1","lat":35.62149186,"lon":139.67275697},{"name":"八雲小学校入口","province":"東京都","city":"目黒区","address":"東京都目黒区柿の木坂1丁目31-15","lat":35.61941994,"lon":139.6748402},{"name":"大岡山小学校前","province":"東京都","city":"目黒区","address":"東京都目黒区碑文谷3丁目19-8","lat":35.61628445,"lon":139.68343961},{"name":"田向公園入口","province":"東京都","city":"目黒区","address":"東京都目黒区碑文谷2丁目11-22","lat":35.62386141,"lon":139.68676963},{"name":"国立病院東京医療センター正門前","province":"東京都","city":"目黒区","address":"東京都目黒区東が丘2丁目5-1","lat":35.62656333,"lon":139.66598239},{"name":"学芸大学駅入口","province":"東京都","city":"目黒区","address":"東京都目黒区鷹番3丁目1","lat":35.62949961,"lon":139.68583621},{"name":"独立行政法人国立病院機構東京医療センター","province":"東京都","city":"目黒区","address":"東京都目黒区東が丘2丁目5-1","lat":35.62656333,"lon":139.66598239},{"name":"八雲給水所","province":"東京都","city":"目黒区","address":"東京都目黒区八雲1丁目1","lat":35.62130575,"lon":139.67178483},{"name":"都立林試の森公園","province":"東京都","city":"目黒区","address":"東京都目黒区下目黒5丁目37","lat":35.62487834,"lon":139.70415426},{"name":"国立病院機構東京医療センター","province":"東京都","city":"目黒区","address":"東京都目黒区東が丘2丁目5-1","lat":35.62656333,"lon":139.66598239},{"name":"都立国際高校","province":"東京都","city":"目黒区","address":"東京都目黒区駒場2-19-59","lat":35.659293,"lon":139.678891},{"name":"駒場小学校","province":"東京都","city":"目黒区","address":"東京都目黒区駒場3-11-13","lat":35.65986,"lon":139.681936},{"name":"第一中学校","province":"東京都","city":"目黒区","address":"東京都目黒区大橋2-11-1","lat":35.654667,"lon":139.686633},{"name":"都立駒場高校","province":"東京都","city":"目黒区","address":"東京都目黒区大橋2-18-1","lat":35.654991,"lon":139.685451},{"name":"菅刈小学校","province":"東京都","city":"目黒区","address":"東京都目黒区青葉台3-3-26","lat":35.651673,"lon":139.692158},{"name":"菅刈公園","province":"東京都","city":"目黒区","address":"東京都目黒区青葉台2-11-25","lat":35.650203,"lon":139.693883},{"name":"東山中学校","province":"東京都","city":"目黒区","address":"東京都目黒区東山1-24-31","lat":35.646476,"lon":139.690227},{"name":"東山小学校","province":"東京都","city":"目黒区","address":"東京都目黒区東山2-24-25","lat":35.64692,"lon":139.685758},{"name":"鳥森小学校","province":"東京都","city":"目黒区","address":"東京都目黒区上目黒3-37-27","lat":35.644365,"lon":139.692883},{"name":"めぐろ学校サポートセンター","province":"東京都","city":"目黒区","address":"東京都目黒区中目黒3-6-10","lat":35.639384,"lon":139.702725},{"name":"中目黒小学校","province":"東京都","city":"目黒区","address":"東京都目黒区中目黒3-13-32","lat":35.640194,"lon":139.699171},{"name":"田道小学校","province":"東京都","city":"目黒区","address":"東京都目黒区目黒1-15-28","lat":35.637594,"lon":139.709168},{"name":"下目黒小学校","province":"東京都","city":"目黒区","address":"東京都目黒区目黒2-7-9","lat":35.634203,"lon":139.709154},{"name":"大鳥中学校","province":"東京都","city":"目黒区","address":"東京都目黒区下目黒3-23-18","lat":35.631092,"lon":139.707612},{"name":"不動小学校","province":"東京都","city":"目黒区","address":"東京都目黒区下目黒6-11-35","lat":35.627081,"lon":139.699099},{"name":"上目黒小学校","province":"東京都","city":"目黒区","address":"東京都目黒区五本木1-12-13","lat":35.638735,"lon":139.690425},{"name":"都立目黒高校","province":"東京都","city":"目黒区","address":"東京都目黒区祐天寺2-7-15","lat":35.636927,"lon":139.694616},{"name":"油面小学校","province":"東京都","city":"目黒区","address":"東京都目黒区中町1-5-4","lat":35.632395,"lon":139.698299},{"name":"目黒中央中学校","province":"東京都","city":"目黒区","address":"東京都目黒区中町2-37-38","lat":35.634678,"lon":139.693647},{"name":"五本木小学校","province":"東京都","city":"目黒区","address":"東京都目黒区五本木2-24-3","lat":35.634466,"lon":139.687889},{"name":"鷹番小学校","province":"東京都","city":"目黒区","address":"東京都目黒区中央町1-20-26","lat":35.627761,"lon":139.690222},{"name":"碑文谷公園","province":"東京都","city":"目黒区","address":"東京都目黒区碑文谷6-9-11","lat":35.62655,"lon":139.682084},{"name":"碑文谷体育館","province":"東京都","city":"目黒区","address":"東京都目黒区碑文谷6-12-43","lat":35.627225,"lon":139.682079},{"name":"月光原小学校","province":"東京都","city":"目黒区","address":"東京都目黒区目黒本町4-15-3","lat":35.62251,"lon":139.694586},{"name":"向原小学校","province":"東京都","city":"目黒区","address":"東京都目黒区目黒本町6-7-15","lat":35.618716,"lon":139.695783},{"name":"第七中学校","province":"東京都","city":"目黒区","address":"東京都目黒区碑文谷1-1-33","lat":35.622923,"lon":139.691764},{"name":"碑小学校","province":"東京都","city":"目黒区","address":"東京都目黒区碑文谷1-18-2","lat":35.619603,"lon":139.690579},{"name":"原町小学校","province":"東京都","city":"目黒区","address":"東京都目黒区原町2-18-12","lat":35.615752,"lon":139.690492},{"name":"第九中学校","province":"東京都","city":"目黒区","address":"東京都目黒区洗足1-29-26","lat":35.613508,"lon":139.69455},{"name":"第八中学校","province":"東京都","city":"目黒区","address":"東京都目黒区碑文谷4-19-25","lat":35.619685,"lon":139.682495},{"name":"大岡山小学校","province":"東京都","city":"目黒区","address":"東京都目黒区平町2-3-1","lat":35.615482,"lon":139.683004},{"name":"中根小学校","province":"東京都","city":"目黒区","address":"東京都目黒区緑が丘1-1-1","lat":35.61241,"lon":139.678527},{"name":"第十一中学校","province":"東京都","city":"目黒区","address":"東京都目黒区緑が丘1-8-1","lat":35.609469,"lon":139.679024},{"name":"緑ヶ丘小学校","province":"東京都","city":"目黒区","address":"東京都目黒区緑が丘2-13-1","lat":35.610299,"lon":139.673449},{"name":"宮前小学校","province":"東京都","city":"目黒区","address":"東京都目黒区八雲3-13-21","lat":35.615365,"lon":139.66688},{"name":"めぐろ区民キャンパス","province":"東京都","city":"目黒区","address":"東京都目黒区八雲1-1-1","lat":35.621542,"lon":139.672741},{"name":"都立桜修館中等教育学校","province":"東京都","city":"目黒区","address":"東京都目黒区八雲1-1-2","lat":35.621198,"lon":139.670993},{"name":"八雲小学校","province":"東京都","city":"目黒区","address":"東京都目黒区八雲2-5-1","lat":35.618062,"lon":139.671255},{"name":"第十中学校","province":"東京都","city":"目黒区","address":"東京都目黒区八雲5-2-1","lat":35.62432,"lon":139.668677},{"name":"東根小学校","province":"東京都","city":"目黒区","address":"東京都目黒区東が丘1-20-1","lat":35.627158,"lon":139.668027},{"name":"駒場保育園","province":"東京都","city":"目黒区","address":"東京都目黒区駒場一丁目22番1号","lat":35.65653,"lon":139.686563},{"name":"駒場住区センター","province":"東京都","city":"目黒区","address":"東京都目黒区駒場一丁目22番4号","lat":35.656295,"lon":139.686531},{"name":"駒場老人いこいの家","province":"東京都","city":"目黒区","address":"東京都目黒区駒場一丁目26番6号","lat":35.657158,"lon":139.685425},{"name":"駒場児童館","province":"東京都","city":"目黒区","address":"東京都目黒区駒場二丁目7番5号","lat":35.658766,"lon":139.682028},{"name":"駒場野公園・拡張部","province":"東京都","city":"目黒区","address":"東京都目黒区駒場二丁目17番20号","lat":35.65644399,"lon":139.6813395},{"name":"駒場体育館","province":"東京都","city":"目黒区","address":"東京都目黒区駒場二丁目19番39号","lat":35.658083,"lon":139.680147},{"name":"菅刈住区センター","province":"東京都","city":"目黒区","address":"東京都目黒区青葉台二丁目10番18号","lat":35.649801,"lon":139.695613},{"name":"菅刈保育園","province":"東京都","city":"目黒区","address":"東京都目黒区青葉台二丁目10番27号","lat":35.64999,"lon":139.69521},{"name":"東山公園・拡張部","province":"東京都","city":"目黒区","address":"東京都目黒区東山二丁目18番9号","lat":35.64676488,"lon":139.6875969},{"name":"東山住区センター","province":"東京都","city":"目黒区","address":"東京都目黒区東山二丁目24番30号","lat":35.646695,"lon":139.685956},{"name":"ひがしやま幼稚園","province":"東京都","city":"目黒区","address":"東京都目黒区東山三丁目24番2号","lat":35.648048,"lon":139.685593},{"name":"東山地区センター","province":"東京都","city":"目黒区","address":"東京都目黒区東山三丁目24番2号","lat":35.6480476,"lon":139.6855909},{"name":"特別養護老人ホーム東山","province":"東京都","city":"目黒区","address":"東京都目黒区東山三丁目24番6号","lat":35.647391,"lon":139.685474},{"name":"北部地区サービス事務所","province":"東京都","city":"目黒区","address":"東京都目黒区大橋一丁目5番1号","lat":35.651456,"lon":139.688433},{"name":"オーパス夢ひろば","province":"東京都","city":"目黒区","address":"東京都目黒区大橋一丁目9番4号","lat":35.65135939,"lon":139.6882184},{"name":"大橋えのき園","province":"東京都","city":"目黒区","address":"東京都目黒区大橋二丁目19番38号","lat":35.655426,"lon":139.682005},{"name":"烏森小学校","province":"東京都","city":"目黒区","address":"東京都目黒区上目黒三丁目37番27号","lat":35.644365,"lon":139.692883},{"name":"烏森住区センター児童館学童保育クラブ","province":"東京都","city":"目黒区","address":"東京都目黒区上目黒三丁目37番27号","lat":35.64396967,"lon":139.6920223},{"name":"烏森住区センター","province":"東京都","city":"目黒区","address":"東京都目黒区上目黒三丁目44番2号","lat":35.643932,"lon":139.691644},{"name":"目黒区立コーポ烏森","province":"東京都","city":"目黒区","address":"東京都目黒区上目黒三丁目44番30号","lat":35.64423529,"lon":139.6916985},{"name":"烏森住区センター児童館第二学童保育クラブ","province":"東京都","city":"目黒区","address":"東京都目黒区上目黒五丁目18番9号","lat":35.6426763,"lon":139.688615},{"name":"目黒区立コーポ蛇崩","province":"東京都","city":"目黒区","address":"東京都目黒区上目黒五丁目29番10号","lat":35.64087455,"lon":139.6861576},{"name":"中目黒駅前図書館","province":"東京都","city":"目黒区","address":"東京都目黒区上目黒二丁目1番3号","lat":35.643232,"lon":139.698638},{"name":"上二老人いこいの家","province":"東京都","city":"目黒区","address":"東京都目黒区上目黒二丁目10番4号","lat":35.641403,"lon":139.699125},{"name":"第二上目黒保育園","province":"東京都","city":"目黒区","address":"東京都目黒区上目黒二丁目15番8号","lat":35.642213,"lon":139.697344},{"name":"目黒区役所","province":"東京都","city":"目黒区","address":"東京都目黒区上目黒二丁目19番15号","lat":35.641263,"lon":139.698591},{"name":"中目黒公園","province":"東京都","city":"目黒区","address":"東京都目黒区中目黒二丁目3番14号","lat":35.6412318,"lon":139.7051228},{"name":"中目黒住区センター","province":"東京都","city":"目黒区","address":"東京都目黒区中目黒二丁目10番13号","lat":35.640452,"lon":139.703029},{"name":"目黒区立コーポ中目黒","province":"東京都","city":"目黒区","address":"東京都目黒区中目黒四丁目13番30号","lat":35.63687313,"lon":139.7003358},{"name":"特別養護老人ホーム中目黒","province":"東京都","city":"目黒区","address":"東京都目黒区中目黒五丁目7番35号","lat":35.636011,"lon":139.700865},{"name":"三田フレンズ","province":"東京都","city":"目黒区","address":"東京都目黒区三田一丁目11番26号","lat":35.64044023,"lon":139.7121786},{"name":"田道住区センター三田分室","province":"東京都","city":"目黒区","address":"東京都目黒区三田二丁目10番33号","lat":35.638819,"lon":139.712487},{"name":"田道住区センター","province":"東京都","city":"目黒区","address":"東京都目黒区目黒一丁目25番26号","lat":35.636722,"lon":139.708179},{"name":"高齢者センター","province":"東京都","city":"目黒区","address":"東京都目黒区目黒一丁目25番26号","lat":35.636722,"lon":139.708179},{"name":"目黒区美術館","province":"東京都","city":"目黒区","address":"東京都目黒区目黒二丁目4番36号","lat":35.634877,"lon":139.707728},{"name":"目黒区民センタープール","province":"東京都","city":"目黒区","address":"東京都目黒区目黒二丁目4番36号","lat":35.635403,"lon":139.708472},{"name":"目黒区民センター","province":"東京都","city":"目黒区","address":"東京都目黒区目黒二丁目4番36号","lat":35.63532404,"lon":139.7077598},{"name":"目黒区民センター体育館","province":"東京都","city":"目黒区","address":"東京都目黒区目黒二丁目4番36号","lat":35.635403,"lon":139.708472},{"name":"目黒区民センター児童館","province":"東京都","city":"目黒区","address":"東京都目黒区目黒二丁目4番36号","lat":35.635453,"lon":139.707868},{"name":"田道老人いこいの家","province":"東京都","city":"目黒区","address":"東京都目黒区目黒三丁目1番18号","lat":35.635106,"lon":139.706004},{"name":"田道保育園","province":"東京都","city":"目黒区","address":"東京都目黒区目黒三丁目4番4号","lat":35.634608,"lon":139.706148},{"name":"下目黒住区センター","province":"東京都","city":"目黒区","address":"東京都目黒区下目黒二丁目20番19号","lat":35.632939,"lon":139.709898},{"name":"下目黒福祉工房","province":"東京都","city":"目黒区","address":"東京都目黒区下目黒三丁目10番2号","lat":35.627873,"lon":139.711501},{"name":"不動児童館","province":"東京都","city":"目黒区","address":"東京都目黒区下目黒五丁目18番4号","lat":35.630206,"lon":139.702321},{"name":"不動住区センター","province":"東京都","city":"目黒区","address":"東京都目黒区下目黒六丁目8番23号","lat":35.626409,"lon":139.701038},{"name":"不動保育園","province":"東京都","city":"目黒区","address":"東京都目黒区下目黒六丁目11番20号","lat":35.626486,"lon":139.699504},{"name":"不動児童館学童保育クラブ","province":"東京都","city":"目黒区","address":"東京都目黒区下目黒六丁目11番35号","lat":35.62730844,"lon":139.6991913},{"name":"目黒本町福祉工房","province":"東京都","city":"目黒区","address":"東京都目黒区目黒本町一丁目14番24号","lat":35.628592,"lon":139.695724},{"name":"かみよん工房","province":"東京都","city":"目黒区","address":"東京都目黒区上目黒四丁目1番26号","lat":35.64191,"lon":139.692041},{"name":"上目黒老人いこいの家","province":"東京都","city":"目黒区","address":"東京都目黒区上目黒四丁目18番15号","lat":35.640854,"lon":139.691172},{"name":"中町老人いこいの家","province":"東京都","city":"目黒区","address":"東京都目黒区中町一丁目6番19号","lat":35.630887,"lon":139.700041},{"name":"油面住区センター","province":"東京都","city":"目黒区","address":"東京都目黒区中町一丁目6番23号","lat":35.631375,"lon":139.699785},{"name":"目黒区立コーポ中町","province":"東京都","city":"目黒区","address":"東京都目黒区中町二丁目4番1号","lat":35.63416419,"lon":139.6980216},{"name":"中町保育園","province":"東京都","city":"目黒区","address":"東京都目黒区中町二丁目37番15号","lat":35.634125,"lon":139.694569},{"name":"五本木老人いこいの家","province":"東京都","city":"目黒区","address":"東京都目黒区五本木二丁目11番29号","lat":35.635209,"lon":139.689562},{"name":"守屋図書館","province":"東京都","city":"目黒区","address":"東京都目黒区五本木二丁目20番15号","lat":35.634105,"lon":139.689039},{"name":"五本木小学校屋内プール","province":"東京都","city":"目黒区","address":"東京都目黒区五本木二丁目24番3号","lat":35.634466,"lon":139.687889},{"name":"上目黒住区センター","province":"東京都","city":"目黒区","address":"東京都目黒区祐天寺二丁目6番6号","lat":35.637083,"lon":139.693766},{"name":"目黒区立コーポ目黒","province":"東京都","city":"目黒区","address":"東京都目黒区目黒四丁目4番8号","lat":35.63337711,"lon":139.7033514},{"name":"防災センター","province":"東京都","city":"目黒区","address":"東京都目黒区中央町一丁目9番7号","lat":35.629261,"lon":139.692337},{"name":"目黒区立コーポ中央町一丁目","province":"東京都","city":"目黒区","address":"東京都目黒区中央町一丁目19番14号","lat":35.62820243,"lon":139.6908078},{"name":"中央町さくらプラザ","province":"東京都","city":"目黒区","address":"東京都目黒区中央町二丁目4番18号","lat":35.63228503,"lon":139.6918158},{"name":"中央地区サービス事務所","province":"東京都","city":"目黒区","address":"東京都目黒区中央町二丁目9番13号","lat":35.630972,"lon":139.691958},{"name":"五本木住区センター","province":"東京都","city":"目黒区","address":"東京都目黒区中央町二丁目17番2号","lat":35.633186,"lon":139.689298},{"name":"児童発達支援センターすくすくのびのび園","province":"東京都","city":"目黒区","address":"東京都目黒区中央町二丁目23番24号","lat":35.630828,"lon":139.690942},{"name":"中央町保育園","province":"東京都","city":"目黒区","address":"東京都目黒区中央町二丁目30番7号","lat":35.632203,"lon":139.688411},{"name":"スマイルプラザ中央町","province":"東京都","city":"目黒区","address":"東京都目黒区中央町二丁目32番5号","lat":35.63173482,"lon":139.6886281},{"name":"第三ひもんや保育園","province":"東京都","city":"目黒区","address":"東京都目黒区碑文谷五丁目15番19号","lat":35.621515,"lon":139.681151},{"name":"鷹番学童保育クラブ","province":"東京都","city":"目黒区","address":"東京都目黒区碑文谷六丁目2番23号","lat":35.62620451,"lon":139.6851543},{"name":"碑文谷公園・拡張部","province":"東京都","city":"目黒区","address":"東京都目黒区碑文谷六丁目12番39号","lat":35.62771606,"lon":139.681849},{"name":"鷹番保育園","province":"東京都","city":"目黒区","address":"東京都目黒区鷹番二丁目16番15号","lat":35.628367,"lon":139.687073},{"name":"鷹番住区センター","province":"東京都","city":"目黒区","address":"東京都目黒区鷹番三丁目17番20号","lat":35.628225,"lon":139.683159},{"name":"南部地区センター","province":"東京都","city":"目黒区","address":"東京都目黒区目黒本町二丁目1番20号","lat":35.62548425,"lon":139.6952552},{"name":"目黒本町保育園","province":"東京都","city":"目黒区","address":"東京都目黒区目黒本町二丁目1番20号","lat":35.625223,"lon":139.695225},{"name":"目黒区立コーポ清水町","province":"東京都","city":"目黒区","address":"東京都目黒区目黒本町二丁目20番22号","lat":35.62459501,"lon":139.6915218},{"name":"第二ひもんや保育園","province":"東京都","city":"目黒区","address":"東京都目黒区目黒本町二丁目25番14号","lat":35.62352848,"lon":139.6898963},{"name":"目黒区立コーポ目黒本町二丁目","province":"東京都","city":"目黒区","address":"東京都目黒区目黒本町二丁目25番14号","lat":35.62352848,"lon":139.6898963},{"name":"月光原住区センター","province":"東京都","city":"目黒区","address":"東京都目黒区目黒本町四丁目16番18号","lat":35.622074,"lon":139.694686},{"name":"中央体育館","province":"東京都","city":"目黒区","address":"東京都目黒区目黒本町五丁目22番8号","lat":35.61903,"lon":139.698961},{"name":"向原住区センター","province":"東京都","city":"目黒区","address":"東京都目黒区目黒本町五丁目22番11号","lat":35.618716,"lon":139.6986},{"name":"原町保育園","province":"東京都","city":"目黒区","address":"東京都目黒区原町一丁目20番16号","lat":35.617916,"lon":139.695253},{"name":"原町老人いこいの家","province":"東京都","city":"目黒区","address":"東京都目黒区原町二丁目2番14号","lat":35.616284,"lon":139.692252},{"name":"洗足図書館","province":"東京都","city":"目黒区","address":"東京都目黒区洗足二丁目8番26号","lat":35.612372,"lon":139.692362},{"name":"原町住区センター","province":"東京都","city":"目黒区","address":"東京都目黒区南一丁目8番9号","lat":35.615151,"lon":139.689363},{"name":"南保育園","province":"東京都","city":"目黒区","address":"東京都目黒区南一丁目18番30号","lat":35.613591,"lon":139.689087},{"name":"碑小学校屋内プール","province":"東京都","city":"目黒区","address":"東京都目黒区碑文谷一丁目18番14号","lat":35.619316,"lon":139.690579},{"name":"南部地区サービス事務所","province":"東京都","city":"目黒区","address":"東京都目黒区碑文谷一丁目18番14号","lat":35.619316,"lon":139.690579},{"name":"ひもんや保育園","province":"東京都","city":"目黒区","address":"東京都目黒区碑文谷二丁目8番9号","lat":35.622693,"lon":139.687747},{"name":"ひもんや学童保育クラブ","province":"東京都","city":"目黒区","address":"東京都目黒区碑文谷二丁目8番9号","lat":35.62264873,"lon":139.6881379},{"name":"碑住区センター","province":"東京都","city":"目黒区","address":"東京都目黒区碑文谷二丁目16番6号","lat":35.620765,"lon":139.687651},{"name":"大岡山東住区センター","province":"東京都","city":"目黒区","address":"東京都目黒区碑文谷三丁目15番5号","lat":35.617809,"lon":139.684238},{"name":"碑文谷保健センター","province":"東京都","city":"目黒区","address":"東京都目黒区碑文谷四丁目16番18号","lat":35.621379,"lon":139.682498},{"name":"目黒区立コーポ平町","province":"東京都","city":"目黒区","address":"東京都目黒区平町一丁目3番4号","lat":35.61872694,"lon":139.6814211},{"name":"平町児童館","province":"東京都","city":"目黒区","address":"東京都目黒区平町一丁目5番3号","lat":35.617203,"lon":139.682199},{"name":"大岡山西住区センター","province":"東京都","city":"目黒区","address":"東京都目黒区平町一丁目15番12号","lat":35.615907,"lon":139.679162},{"name":"平町老人いこいの家","province":"東京都","city":"目黒区","address":"東京都目黒区平町二丁目4番10号","lat":35.614416,"lon":139.68311},{"name":"大岡山保育園","province":"東京都","city":"目黒区","address":"東京都目黒区大岡山一丁目36番10号","lat":35.610197,"lon":139.680396},{"name":"中根住区センター","province":"東京都","city":"目黒区","address":"東京都目黒区大岡山一丁目37番2号","lat":35.61269,"lon":139.679532},{"name":"緑が丘文化会館別館","province":"東京都","city":"目黒区","address":"東京都目黒区緑が丘二丁目7番20号","lat":35.60963012,"lon":139.6744273},{"name":"緑ヶ丘小学校屋内プール","province":"東京都","city":"目黒区","address":"東京都目黒区緑が丘二丁目13番1号","lat":35.60991,"lon":139.674223},{"name":"緑が丘文化会館","province":"東京都","city":"目黒区","address":"東京都目黒区緑が丘二丁目14番23号","lat":35.609352,"lon":139.673277},{"name":"自由が丘老人いこいの家","province":"東京都","city":"目黒区","address":"東京都目黒区自由が丘一丁目23番26号","lat":35.611538,"lon":139.669636},{"name":"自由が丘住区センター","province":"東京都","city":"目黒区","address":"東京都目黒区自由が丘一丁目24番12号","lat":35.609913,"lon":139.669161},{"name":"八雲住区センター（中根一丁目会議室）","province":"東京都","city":"目黒区","address":"東京都目黒区中根一丁目10番22号","lat":35.61545607,"lon":139.6732129},{"name":"西部地区サービス事務所","province":"東京都","city":"目黒区","address":"東京都目黒区柿ノ木坂一丁目28番10号","lat":35.619904,"lon":139.675704},{"name":"めぐろパーシモンホール","province":"東京都","city":"目黒区","address":"東京都目黒区八雲一丁目1番1号","lat":35.621542,"lon":139.672741},{"name":"八雲体育館","province":"東京都","city":"目黒区","address":"東京都目黒区八雲一丁目1番1号","lat":35.621542,"lon":139.672741},{"name":"心身障害者センターあいアイ館","province":"東京都","city":"目黒区","address":"東京都目黒区八雲一丁目1番8号","lat":35.620523,"lon":139.673267},{"name":"八雲住区センター","province":"東京都","city":"目黒区","address":"東京都目黒区八雲一丁目10番5号","lat":35.618715,"lon":139.672271},{"name":"八雲保育園","province":"東京都","city":"目黒区","address":"東京都目黒区八雲三丁目10番18号","lat":35.615618,"lon":139.668077},{"name":"目黒区立コーポ八雲","province":"東京都","city":"目黒区","address":"東京都目黒区八雲三丁目14番16号","lat":35.61640812,"lon":139.6661761},{"name":"宮前公園庭球場","province":"東京都","city":"目黒区","address":"東京都目黒区八雲三丁目19番12号","lat":35.61698,"lon":139.665149},{"name":"自由が丘住区センター宮前分室","province":"東京都","city":"目黒区","address":"東京都目黒区八雲三丁目22番15号","lat":35.61564,"lon":139.665406},{"name":"特別養護老人ホーム東が丘","province":"東京都","city":"目黒区","address":"東京都目黒区東が丘一丁目6番4号","lat":35.626356,"lon":139.670513},{"name":"東根住区センター","province":"東京都","city":"目黒区","address":"東京都目黒区東が丘一丁目7番14号","lat":35.62724,"lon":139.670043},{"name":"東が丘障害福祉施設","province":"東京都","city":"目黒区","address":"東京都目黒区東が丘一丁目21番15号","lat":35.627444,"lon":139.667838},{"name":"東根第二学童保育クラブ","province":"東京都","city":"目黒区","address":"東京都目黒区東が丘一丁目31番7号","lat":35.62982292,"lon":139.667169},{"name":"砧野球場・サッカー場","province":"東京都","city":"目黒区","address":"東京都目黒区世田谷区喜多見一丁目12番2号","lat":35.620867,"lon":139.596029},{"name":"興津自然学園","province":"東京都","city":"目黒区","address":"東京都目黒区千葉県勝浦市興津143","lat":35.13696,"lon":140.254779},{"name":"八ヶ岳林間学園","province":"東京都","city":"目黒区","address":"東京都目黒区山梨県北杜市高根町清里3545","lat":35.934211,"lon":138.442816},{"name":"生活安全パトロールカー（2台）","province":"東京都","city":"目黒区","address":"東京都目黒区上目黒二丁目19番15号","lat":35.64046334,"lon":139.6986929},{"name":"柿の木坂支流緑道上","province":"東京都","city":"目黒区","address":"東京都目黒区柿の木坂3-4-16","lat":35.62765,"lon":139.674439},{"name":"めぐろ区民キャンパス公園歩道","province":"東京都","city":"目黒区","address":"東京都目黒区八雲1-1-12","lat":35.621189,"lon":139.673695},{"name":"九品仏川緑道上","province":"東京都","city":"目黒区","address":"東京都目黒区自由が丘3-12-11","lat":35.610662,"lon":139.663863},{"name":"九品仏川緑道上","province":"東京都","city":"目黒区","address":"東京都目黒区自由が丘3-8-7","lat":35.607712,"lon":139.665179},{"name":"芳窪街かど公園内","province":"東京都","city":"目黒区","address":"東京都目黒区東が丘1-31-1","lat":35.629942,"lon":139.666541},{"name":"九品仏川緑道上","province":"東京都","city":"目黒区","address":"東京都目黒区緑が丘2-6-7","lat":35.608401,"lon":139.674529},{"name":"九品仏川緑道上","province":"東京都","city":"目黒区","address":"東京都目黒区緑ヶ丘2-16-10","lat":35.607871,"lon":139.672136},{"name":"呑川本流緑道上","province":"東京都","city":"目黒区","address":"東京都目黒区八雲2-11-20","lat":35.616446,"lon":139.669528},{"name":"目黒消防署八雲出張所","province":"東京都","city":"目黒区","address":"東京都目黒区八雲3-29-14","lat":35.615363,"lon":139.663876},{"name":"目黒消防署大岡山出張所","province":"東京都","city":"目黒区","address":"東京都目黒区大岡山1-37-15","lat":35.611447,"lon":139.679853},{"name":"呑川本流緑道上","province":"東京都","city":"目黒区","address":"東京都目黒区八雲1-5-16","lat":35.617505,"lon":139.673751},{"name":"呑川本流緑道上","province":"東京都","city":"目黒区","address":"東京都目黒区八雲1-11-10","lat":35.617544,"lon":139.672375},{"name":"呑川本流緑道上","province":"東京都","city":"目黒区","address":"東京都目黒区八雲2-7-18","lat":35.616987,"lon":139.671623},{"name":"呑川本流緑道上","province":"東京都","city":"目黒区","address":"東京都目黒区八雲2-11-25","lat":35.616655,"lon":139.670342},{"name":"呑川本流緑道上","province":"東京都","city":"目黒区","address":"東京都目黒区八雲3-9-20","lat":35.616308,"lon":139.668587},{"name":"呑川本流緑道上","province":"東京都","city":"目黒区","address":"東京都目黒区八雲3-13-21","lat":35.615319,"lon":139.666675},{"name":"呑川本流緑道上","province":"東京都","city":"目黒区","address":"東京都目黒区八雲3-22-15","lat":35.615566,"lon":139.665408},{"name":"やくも街かど公園内","province":"東京都","city":"目黒区","address":"東京都目黒区八雲5-15-1","lat":35.621821,"lon":139.665797},{"name":"境橋街かど公園内","province":"東京都","city":"目黒区","address":"東京都目黒区緑が丘3-10-37","lat":35.603168,"lon":139.6807},{"name":"九品仏川緑道上","province":"東京都","city":"目黒区","address":"東京都目黒区緑が丘3-3-4","lat":35.605579,"lon":139.679911},{"name":"九品仏川緑道上","province":"東京都","city":"目黒区","address":"東京都目黒区緑が丘1-21-15","lat":35.608712,"lon":139.676242},{"name":"中根公園内","province":"東京都","city":"目黒区","address":"東京都目黒区中根2-6-33","lat":35.613138,"lon":139.676929},{"name":"呑川本流緑道上","province":"東京都","city":"目黒区","address":"東京都目黒区大岡山1-35-12","lat":35.608624,"lon":139.679914},{"name":"呑川本流緑道上","province":"東京都","city":"目黒区","address":"東京都目黒区平町2-22-14","lat":35.614632,"lon":139.678406},{"name":"呑川本流緑道上","province":"東京都","city":"目黒区","address":"東京都目黒区平町1-25-8","lat":35.616906,"lon":139.67726},{"name":"すずめのお宿緑地公園","province":"東京都","city":"目黒区","address":"東京都目黒区碑文谷3-8-16","lat":35.618071,"lon":139.685873},{"name":"目黒消防署碑文谷出張所","province":"東京都","city":"目黒区","address":"東京都目黒区碑文谷2-11-14","lat":35.623336,"lon":139.685842},{"name":"東町南児童遊園内","province":"東京都","city":"目黒区","address":"東京都目黒区目黒本町5-7-18","lat":35.616997,"lon":139.698565},{"name":"碑住区センター","province":"東京都","city":"目黒区","address":"東京都目黒区碑文谷2-16-6","lat":35.620754,"lon":139.687678},{"name":"碑文谷公園内","province":"東京都","city":"目黒区","address":"東京都目黒区碑文谷6-9-11","lat":35.626561,"lon":139.681895},{"name":"蛇崩川緑道蛇崩下橋","province":"東京都","city":"目黒区","address":"東京都目黒区上目黒4-36-29","lat":35.641529,"lon":139.687598},{"name":"上目黒四丁目防災ひろば","province":"東京都","city":"目黒区","address":"東京都目黒区上目黒4-17-25","lat":35.640294,"lon":139.690908},{"name":"自然園下","province":"東京都","city":"目黒区","address":"東京都目黒区目黒3-21-19","lat":35.633884,"lon":139.703253},{"name":"防災センター前","province":"東京都","city":"目黒区","address":"東京都目黒区中央町1-9-7","lat":35.629051,"lon":139.692056},{"name":"祐天寺裏交差点","province":"東京都","city":"目黒区","address":"東京都目黒区中町2-2-16","lat":35.635091,"lon":139.697665},{"name":"東横線高架下","province":"東京都","city":"目黒区","address":"東京都目黒区五本木2-10-3","lat":35.635665,"lon":139.689588},{"name":"目黒区清掃事業所","province":"東京都","city":"目黒区","address":"東京都目黒区中目黒4-1-2","lat":35.638841,"lon":139.703419},{"name":"大鳥公園内","province":"東京都","city":"目黒区","address":"東京都目黒区下目黒2-20-19","lat":35.632892,"lon":139.709994},{"name":"目黒消防署中目黒出張所","province":"東京都","city":"目黒区","address":"東京都目黒区上目黒2-9-14","lat":35.641918,"lon":139.700106},{"name":"目黒消防署","province":"東京都","city":"目黒区","address":"東京都目黒区下目黒6-1-22","lat":35.62985,"lon":139.700372},{"name":"林試の森公園北口","province":"東京都","city":"目黒区","address":"東京都目黒区下目黒6-9-22","lat":35.626025,"lon":139.699873},{"name":"目黒区総合庁舎駐車場","province":"東京都","city":"目黒区","address":"東京都目黒区上目黒2-19-15","lat":35.640975,"lon":139.698955},{"name":"目黒区総合庁舎南口","province":"東京都","city":"目黒区","address":"東京都目黒区上目黒2-19-15","lat":35.640482,"lon":139.698063},{"name":"目黒区総合庁舎西口","province":"東京都","city":"目黒区","address":"東京都目黒区上目黒2-19-15","lat":35.641485,"lon":139.697874},{"name":"東山公園拡張部","province":"東京都","city":"目黒区","address":"東京都目黒区東山3-21-9","lat":35.648038,"lon":139.686192},{"name":"目黒土木公園事務所","province":"東京都","city":"目黒区","address":"東京都目黒区上目黒2-48-2","lat":35.642012,"lon":139.694692},{"name":"上一防災ひろば","province":"東京都","city":"目黒区","address":"東京都目黒区上目黒1-17-4","lat":35.64579,"lon":139.698218},{"name":"日の出橋付近","province":"東京都","city":"目黒区","address":"東京都目黒区上目黒1-6-10","lat":35.64524,"lon":139.699893},{"name":"宿山橋付近","province":"東京都","city":"目黒区","address":"東京都目黒区上目黒1-16-2","lat":35.646096,"lon":139.697931},{"name":"宿山橋付近","province":"東京都","city":"目黒区","address":"東京都目黒区上目黒1-15-11","lat":35.64654,"lon":139.698108},{"name":"朝日橋付近","province":"東京都","city":"目黒区","address":"東京都目黒区青葉台1-16-10","lat":35.647369,"lon":139.696612},{"name":"柳橋付近","province":"東京都","city":"目黒区","address":"東京都目黒区青葉台2-17-9","lat":35.649305,"lon":139.693451},{"name":"松見坂付近","province":"東京都","city":"目黒区","address":"東京都目黒区大橋2-2-3","lat":35.654553,"lon":139.689424},{"name":"駒場一丁目2番","province":"東京都","city":"目黒区","address":"東京都目黒区駒場1-2-15","lat":35.65659,"lon":139.689183},{"name":"炊事門付近","province":"東京都","city":"目黒区","address":"東京都目黒区駒場3-8-1","lat":35.659881,"lon":139.686574},{"name":"駒場東大前駅付近","province":"東京都","city":"目黒区","address":"東京都目黒区駒場2-1-7","lat":35.658641,"lon":139.683237},{"name":"高木神社横","province":"東京都","city":"目黒区","address":"東京都目黒区南2-1-40","lat":35.61726,"lon":139.688614},{"name":"中央体育館東側","province":"東京都","city":"目黒区","address":"東京都目黒区目黒本町5-22-8","lat":35.618473,"lon":139.699081},{"name":"目黒区民センター駐車場横","province":"東京都","city":"目黒区","address":"東京都目黒区目黒2-4-36","lat":35.63613,"lon":139.707679},{"name":"三田丘の上公園内","province":"東京都","city":"目黒区","address":"東京都目黒区三田1-4-6","lat":35.641953,"lon":139.716202},{"name":"下五児童遊園内","province":"東京都","city":"目黒区","address":"東京都目黒区下目黒5-33-6","lat":35.625984,"lon":139.702942},{"name":"目黒区保健所","province":"東京都","city":"目黒区","address":"東京都目黒区上目黒2丁目19-15","lat":35.64110969,"lon":139.69847649},{"name":"目黒区本庁舎","province":"東京都","city":"目黒区","address":"東京都目黒区上目黒2丁目19-15","lat":35.64110969,"lon":139.69847649},{"name":"目黒区本庁舎","province":"東京都","city":"目黒区","address":"目黒区上目黒2-19-15","lat":35.641263,"lon":139.698591},{"name":"第三機動隊","province":"東京都","city":"目黒区","address":"目黒区大橋2-17-16","lat":35.6535,"lon":139.6843},{"name":"第三方面交通機動隊","province":"東京都","city":"目黒区","address":"目黒区大橋2-21-8","lat":35.65333,"lon":139.683},{"name":"第三方面本部","province":"東京都","city":"目黒区","address":"目黒区大橋2-21-6","lat":35.65328,"lon":139.6839},{"name":"碑文谷警察署","province":"東京都","city":"目黒区","address":"目黒区碑文谷4-24-17","lat":35.62079,"lon":139.6812},{"name":"目黒警察署","province":"東京都","city":"目黒区","address":"目黒区中目黒2-7-13","lat":35.63798,"lon":139.7051},{"name":"目黒消防署","province":"東京都","city":"目黒区","address":"目黒区下目黒6-1-22","lat":35.6299,"lon":139.7004},{"name":"目黒区","province":"東京都","city":"目黒区","address":"目黒区鷹番1-7-11","lat":35.6263,"lon":139.6886},{"name":"アルフレッサ（株）目黒医薬品センター","province":"東京都","city":"目黒区","address":"目黒区目黒本町2-18-16","lat":35.62508,"lon":139.6904},{"name":"目黒清掃工場","province":"東京都","city":"目黒区","address":"目黒区三田2-19-43","lat":35.63788,"lon":139.7075},{"name":"ＮＴＴコミュニケーションズ（株）唐ヶ崎ビル","province":"東京都","city":"目黒区","address":"目黒区中央町1-11-7","lat":35.6277,"lon":139.6917},{"name":"東京ガス（株）目黒ビル","province":"東京都","city":"目黒区","address":"目黒区目黒3-1-3","lat":35.63553,"lon":139.7061},{"name":"※目黒区本庁舎","province":"東京都","city":"目黒区","address":"東京都目黒区上目黒2丁目19-15","lat":35.64110969,"lon":139.69847649},{"name":"目黒区","province":"東京都","city":"目黒区","address":"目黒区上目黒2-19-15","lat":35.6412631,"lon":139.6985906},{"name":"東京都写真美術館","province":"東京都","city":"目黒区","address":"東京都目黒区三田1丁目13-3","lat":35.64182,"lon":139.7132},{"name":"東京都写真美術館","province":"東京都","city":"目黒区","address":"東京都目黒区三田1丁目13-3","lat":35.6415,"lon":139.7134},{"name":"東京都写真美術館","province":"東京都","city":"目黒区","address":"東京都目黒区三田1丁目13-3","lat":35.64158,"lon":139.7133},{"name":"東京都写真美術館","province":"東京都","city":"目黒区","address":"東京都目黒区三田1丁目13-3","lat":35.64152,"lon":139.7133},{"name":"駒沢オリンピック公園総合運動場陸上競技場","province":"東京都","city":"目黒区","address":"東京都目黒区東が丘2丁目16","lat":35.625688,"lon":139.66438},{"name":"駒沢オリンピック公園","province":"東京都","city":"目黒区","address":"東京都目黒区東が丘2丁目15","lat":35.627052,"lon":139.663756},{"name":"駒沢オリンピック公園","province":"東京都","city":"目黒区","address":"東京都目黒区八雲5丁目20","lat":35.623498,"lon":139.664842},{"name":"林試の森公園","province":"東京都","city":"目黒区","address":"東京都目黒区下目黒5丁目37","lat":35.625839,"lon":139.704744},{"name":"東京都水道局目黒営業所","province":"東京都","city":"目黒区","address":"東京都目黒区中町2丁目43-18","lat":35.633013,"lon":139.692355},{"name":"目黒消防署","province":"東京都","city":"目黒区","address":"東京都目黒区下目黒6丁目1-22","lat":35.629771,"lon":139.700307},{"name":"小山台公園","province":"東京都","city":"目黒区","address":"東京都目黒区目黒本町3丁目19","lat":35.624488,"lon":139.697951},{"name":"烏森住区センター","province":"東京都","city":"目黒区","address":"東京都目黒区上目黒3丁目44-2","lat":35.643901,"lon":139.69165},{"name":"駒場住区センター","province":"東京都","city":"目黒区","address":"東京都目黒区駒場1丁目22-4","lat":35.656312,"lon":139.686584},{"name":"菅刈住区センター","province":"東京都","city":"目黒区","address":"東京都目黒区青葉台2丁目10-18","lat":35.649859,"lon":139.69562},{"name":"東山住区センター","province":"東京都","city":"目黒区","address":"東京都目黒区東山2丁目24","lat":35.647072,"lon":139.68598},{"name":"北部地区サービス事務所","province":"東京都","city":"目黒区","address":"東京都目黒区大橋1丁目5","lat":35.651607,"lon":139.688229},{"name":"目黒区総合庁舎","province":"東京都","city":"目黒区","address":"東京都目黒区上目黒2丁目19-15","lat":35.641258,"lon":139.698983},{"name":"目黒区総合庁舎","province":"東京都","city":"目黒区","address":"東京都目黒区上目黒2丁目19-15","lat":35.641592,"lon":139.69831},{"name":"目黒区総合庁舎","province":"東京都","city":"目黒区","address":"東京都目黒区上目黒2丁目19","lat":35.640862,"lon":139.698225},{"name":"目黒区総合庁舎","province":"東京都","city":"目黒区","address":"東京都目黒区上目黒2丁目19-15","lat":35.641132,"lon":139.698533},{"name":"目黒区総合庁舎","province":"東京都","city":"目黒区","address":"東京都目黒区上目黒2丁目19-15","lat":35.641364,"lon":139.698797},{"name":"目黒区防災センター","province":"東京都","city":"目黒区","address":"東京都目黒区中央町1丁目9-7","lat":35.629065,"lon":139.692042},{"name":"目黒区南部地区サービス事務所","province":"東京都","city":"目黒区","address":"東京都目黒区碑文谷1丁目18-14","lat":35.61929,"lon":139.690566},{"name":"西部地区サービス事務所","province":"東京都","city":"目黒区","address":"東京都目黒区柿の木坂1丁目28-10","lat":35.61993,"lon":139.675745},{"name":"東山社会教育館","province":"東京都","city":"目黒区","address":"東京都目黒区東山3丁目24-2","lat":35.647926,"lon":139.685395},{"name":"緑が丘コミュニティセンター別館","province":"東京都","city":"目黒区","address":"東京都目黒区緑が丘2丁目7-20","lat":35.609396,"lon":139.674095},{"name":"緑が丘コミュニティセンター本館","province":"東京都","city":"目黒区","address":"東京都目黒区緑が丘2丁目14-23","lat":35.609381,"lon":139.673255},{"name":"緑が丘コミュニティセンター本館","province":"東京都","city":"目黒区","address":"東京都目黒区緑が丘2丁目14-23","lat":35.609431,"lon":139.673258},{"name":"緑が丘コミュニティセンター本館","province":"東京都","city":"目黒区","address":"東京都目黒区緑が丘2丁目14-23","lat":35.609261,"lon":139.673247},{"name":"目黒区中目黒二丁目複合施設（中目黒スクエア）","province":"東京都","city":"目黒区","address":"東京都目黒区中目黒2丁目10-13","lat":35.64036,"lon":139.703155},{"name":"田道住区センター三田分室","province":"東京都","city":"目黒区","address":"東京都目黒区三田2丁目10-33","lat":35.63863,"lon":139.712571},{"name":"下目黒住区センター","province":"東京都","city":"目黒区","address":"東京都目黒区下目黒2丁目20-19","lat":35.63286,"lon":139.709954},{"name":"下目黒住区センター","province":"東京都","city":"目黒区","address":"東京都目黒区下目黒2丁目20-19","lat":35.63291,"lon":139.71001},{"name":"不動住区センター","province":"東京都","city":"目黒区","address":"東京都目黒区下目黒6丁目8-23","lat":35.62645,"lon":139.701026},{"name":"上目黒住区センター","province":"東京都","city":"目黒区","address":"東京都目黒区祐天寺2丁目6-6","lat":35.63712,"lon":139.693784},{"name":"油面住区センター","province":"東京都","city":"目黒区","address":"東京都目黒区中町1丁目6-23","lat":35.63142,"lon":139.699912},{"name":"五本木住区センター","province":"東京都","city":"目黒区","address":"東京都目黒区中央町2丁目17","lat":35.63324,"lon":139.68932},{"name":"鷹番住区センター","province":"東京都","city":"目黒区","address":"東京都目黒区鷹番3丁目17-20","lat":35.62829,"lon":139.683143},{"name":"月光原住区センター","province":"東京都","city":"目黒区","address":"東京都目黒区目黒本町4丁目16-18","lat":35.6221,"lon":139.694741},{"name":"向原住区センター","province":"東京都","city":"目黒区","address":"東京都目黒区目黒本町5丁目22","lat":35.61863,"lon":139.698647},{"name":"碑住区センター","province":"東京都","city":"目黒区","address":"東京都目黒区碑文谷2丁目16-6","lat":35.6208,"lon":139.687726},{"name":"原町住区センター","province":"東京都","city":"目黒区","address":"東京都目黒区南1丁目8-9","lat":35.61517,"lon":139.689343},{"name":"大岡山東住区センター","province":"東京都","city":"目黒区","address":"東京都目黒区碑文谷3丁目15-5","lat":35.61793,"lon":139.684171},{"name":"大岡山西住区センター","province":"東京都","city":"目黒区","address":"東京都目黒区平町1丁目15-12","lat":35.61596,"lon":139.679214},{"name":"中根住区センター","province":"東京都","city":"目黒区","address":"東京都目黒区大岡山1丁目37-2","lat":35.6127,"lon":139.679455},{"name":"自由が丘住区センター","province":"東京都","city":"目黒区","address":"東京都目黒区自由が丘1丁目24-12","lat":35.60996,"lon":139.669165},{"name":"自由が丘住区センター宮前分室","province":"東京都","city":"目黒区","address":"東京都目黒区八雲3丁目22-15","lat":35.61561,"lon":139.665447},{"name":"東根住区センター","province":"東京都","city":"目黒区","address":"東京都目黒区東が丘1丁目7-14","lat":35.6273,"lon":139.670079},{"name":"八雲住区センター","province":"東京都","city":"目黒区","address":"東京都目黒区八雲1丁目10-5","lat":35.61872,"lon":139.672217},{"name":"三田フレンズ","province":"東京都","city":"目黒区","address":"東京都目黒区三田1丁目11-26","lat":35.64053,"lon":139.71245},{"name":"三田フレンズ","province":"東京都","city":"目黒区","address":"東京都目黒区三田1丁目11-26","lat":35.64039,"lon":139.712388},{"name":"目黒区中央町社会教育館","province":"東京都","city":"目黒区","address":"東京都目黒区中央町2丁目4-18","lat":35.63216,"lon":139.692152},{"name":"目黒区中央町社会教育館","province":"東京都","city":"目黒区","address":"東京都目黒区中央町2丁目4-18","lat":35.63219,"lon":139.692131},{"name":"目黒本町社会教育館","province":"東京都","city":"目黒区","address":"東京都目黒区目黒本町2丁目1-20","lat":35.6252,"lon":139.695272},{"name":"守屋図書館","province":"東京都","city":"目黒区","address":"東京都目黒区五本木2丁目20-15","lat":35.63403,"lon":139.689231},{"name":"洗足図書館","province":"東京都","city":"目黒区","address":"東京都目黒区洗足2丁目8-26","lat":35.61235,"lon":139.692416},{"name":"上目黒二丁目文化公益施設（目黒区立中目黒駅前図書館）","province":"東京都","city":"目黒区","address":"東京都目黒区上目黒2丁目1-2","lat":35.64341,"lon":139.698548},{"name":"八雲中央図書館","province":"東京都","city":"目黒区","address":"東京都目黒区八雲1丁目1","lat":35.62155,"lon":139.672444},{"name":"目黒本町図書館","province":"東京都","city":"目黒区","address":"東京都目黒区目黒本町2丁目1-20","lat":35.62517,"lon":139.695312},{"name":"めぐろ区民キャンパス","province":"東京都","city":"目黒区","address":"東京都目黒区八雲1丁目1-1","lat":35.62151,"lon":139.672786},{"name":"めぐろ区民キャンパス","province":"東京都","city":"目黒区","address":"東京都目黒区八雲1丁目1-1","lat":35.62161,"lon":139.672978},{"name":"学芸大学駅公衆便所","province":"東京都","city":"目黒区","address":"東京都目黒区鷹番3丁目6","lat":35.629166,"lon":139.685346},{"name":"駒場東大前駅公衆便所","province":"東京都","city":"目黒区","address":"東京都目黒区駒場2丁目2","lat":35.658764,"lon":139.682825},{"name":"自由が丘駅公衆便所","province":"東京都","city":"目黒区","address":"東京都目黒区自由が丘1丁目30-2","lat":35.607533,"lon":139.668607},{"name":"新橋公衆便所","province":"東京都","city":"目黒区","address":"東京都目黒区下目黒1丁目6","lat":35.633783,"lon":139.711081},{"name":"都立大学駅公衆便所","province":"東京都","city":"目黒区","address":"東京都目黒区中根1丁目5-1","lat":35.617301,"lon":139.675886},{"name":"八雲氷川神社公衆便所","province":"東京都","city":"目黒区","address":"東京都目黒区八雲2丁目4","lat":35.6175,"lon":139.671156},{"name":"不動尊公衆便所","province":"東京都","city":"目黒区","address":"東京都目黒区下目黒3丁目20","lat":35.627691,"lon":139.708596},{"name":"祐天寺駅公衆便所","province":"東京都","city":"目黒区","address":"東京都目黒区祐天寺2丁目13","lat":35.637487,"lon":139.691155},{"name":"祐天寺公衆便所","province":"東京都","city":"目黒区","address":"東京都目黒区中目黒5丁目24","lat":35.636909,"lon":139.697036},{"name":"圓融寺公衆便所","province":"東京都","city":"目黒区","address":"東京都目黒区碑文谷1丁目22","lat":35.61971,"lon":139.689365},{"name":"目黒区めぐろ学校サポートセンター","province":"東京都","city":"目黒区","address":"東京都目黒区中目黒3丁目6-10","lat":35.639378,"lon":139.703012},{"name":"目黒区めぐろ学校サポートセンター","province":"東京都","city":"目黒区","address":"東京都目黒区中目黒3丁目6-10","lat":35.639345,"lon":139.703016},{"name":"目黒区めぐろ学校サポートセンター","province":"東京都","city":"目黒区","address":"東京都目黒区中目黒3丁目6-10","lat":35.639484,"lon":139.702846},{"name":"八雲体育館","province":"東京都","city":"目黒区","address":"東京都目黒区八雲1丁目1-1","lat":35.62152,"lon":139.672533},{"name":"中央体育館","province":"東京都","city":"目黒区","address":"東京都目黒区目黒本町5丁目22-8","lat":35.618865,"lon":139.698793},{"name":"中央体育館","province":"東京都","city":"目黒区","address":"東京都目黒区目黒本町5丁目22-8","lat":35.61886,"lon":139.698815},{"name":"中央体育館","province":"東京都","city":"目黒区","address":"東京都目黒区目黒本町5丁目22-8","lat":35.618784,"lon":139.698944},{"name":"中央体育館","province":"東京都","city":"目黒区","address":"東京都目黒区目黒本町5丁目22-8","lat":35.6188,"lon":139.698942},{"name":"中央体育館","province":"東京都","city":"目黒区","address":"東京都目黒区目黒本町5丁目22-8","lat":35.618789,"lon":139.698931},{"name":"駒場東大前西口駐輪場","province":"東京都","city":"目黒区","address":"東京都目黒区駒場2丁目7-1","lat":35.65894061,"lon":139.68226888},{"name":"駒場東大前東大口駐輪場","province":"東京都","city":"目黒区","address":"東京都目黒区駒場3丁目8-1","lat":35.65931564,"lon":139.68524362},{"name":"池尻大橋駅北口駐輪場","province":"東京都","city":"目黒区","address":"東京都目黒区大橋2丁目24-11","lat":35.65143874,"lon":139.68503836},{"name":"祐天寺駅西口第一駐輪場","province":"東京都","city":"目黒区","address":"東京都目黒区五本木1丁目33-8","lat":35.63739048,"lon":139.69029671},{"name":"祐天寺駅南高架下駐輪場","province":"東京都","city":"目黒区","address":"東京都目黒区五本木1丁目32-20","lat":35.63589064,"lon":139.68965515},{"name":"学芸大学駅東口駐輪場","province":"東京都","city":"目黒区","address":"東京都目黒区鷹番2丁目19-15","lat":35.6284303,"lon":139.68599734},{"name":"学芸大学駅西口第一駐輪場","province":"東京都","city":"目黒区","address":"東京都目黒区鷹番3丁目7-4","lat":35.62952182,"lon":139.68485296},{"name":"学芸大学駅西口第二駐輪場","province":"東京都","city":"目黒区","address":"東京都目黒区鷹番3丁目17-20","lat":35.6282247,"lon":139.68315869},{"name":"中根一丁目駐輪場","province":"東京都","city":"目黒区","address":"東京都目黒区中根1丁目2-16","lat":35.618309,"lon":139.67619013},{"name":"自由が丘駅南口駐輪場","province":"東京都","city":"目黒区","address":"東京都目黒区自由が丘2丁目13-9","lat":35.60675176,"lon":139.66759683},{"name":"洗足二丁目駐輪場","province":"東京都","city":"目黒区","address":"東京都目黒区洗足2丁目18-11","lat":35.61054929,"lon":139.69329177},{"name":"青葉台一丁目","province":"東京都","city":"目黒区","address":"東京都目黒区東山1丁目2-7","lat":35.64771994,"lon":139.69357111},{"name":"中目黒","province":"東京都","city":"目黒区","address":"東京都目黒区上目黒2丁目9-5","lat":35.64276232,"lon":139.7003735},{"name":"田道","province":"東京都","city":"目黒区","address":"東京都目黒区目黒2丁目14-13","lat":35.63631596,"lon":139.7063843},{"name":"目黒不動入口","province":"東京都","city":"目黒区","address":"東京都目黒区下目黒2丁目24-7","lat":35.62927518,"lon":139.71109241},{"name":"目黒税務署前","province":"東京都","city":"目黒区","address":"東京都目黒区祐天寺2丁目8-12","lat":35.63629903,"lon":139.69416588},{"name":"上目黒三丁目","province":"東京都","city":"目黒区","address":"東京都目黒区青葉台1丁目22-6","lat":35.64599799,"lon":139.69734031},{"name":"駒場町","province":"東京都","city":"目黒区","address":"東京都目黒区駒場2丁目16-4","lat":35.65581597,"lon":139.68286061},{"name":"守屋図書館前","province":"東京都","city":"目黒区","address":"東京都目黒区中央町2丁目1-13","lat":35.63362978,"lon":139.68948578},{"name":"中央町二丁目","province":"東京都","city":"目黒区","address":"東京都目黒区中町2丁目45-8","lat":35.63318267,"lon":139.69189116},{"name":"池尻ランプ前","province":"東京都","city":"目黒区","address":"東京都目黒区大橋1丁目10-1","lat":35.65126102,"lon":139.68642992},{"name":"中目黒駅前","province":"東京都","city":"目黒区","address":"東京都目黒区上目黒1丁目23-1","lat":35.6444149,"lon":139.69964295},{"name":"西郷山下","province":"東京都","city":"目黒区","address":"東京都目黒区青葉台1丁目12-3","lat":35.64866154,"lon":139.69552092},{"name":"青葉台一丁目第二","province":"東京都","city":"目黒区","address":"東京都目黒区青葉台1丁目28-12","lat":35.64744222,"lon":139.69484879},{"name":"上目黒二丁目","province":"東京都","city":"目黒区","address":"東京都目黒区上目黒2丁目10-8","lat":35.64136524,"lon":139.69935419},{"name":"上目黒一丁目","province":"東京都","city":"目黒区","address":"東京都目黒区青葉台1丁目6","lat":35.64784505,"lon":139.69892067},{"name":"東山一丁目","province":"東京都","city":"目黒区","address":"東京都目黒区東山1丁目6-1","lat":35.64630071,"lon":139.69605151},{"name":"西郷山公園前","province":"東京都","city":"目黒区","address":"東京都目黒区青葉台2丁目10","lat":35.65029745,"lon":139.69516256},{"name":"目黒区総合庁舎前","province":"東京都","city":"目黒区","address":"東京都目黒区中目黒3丁目13-22","lat":35.63919604,"lon":139.69918204},{"name":"碑文谷","province":"東京都","city":"目黒区","address":"東京都目黒区碑文谷2丁目21-13","lat":35.62283372,"lon":139.68495871},{"name":"都立大学駅前","province":"東京都","city":"目黒区","address":"東京都目黒区柿の木坂1丁目30-8","lat":35.61855895,"lon":139.67549296},{"name":"柿の木坂","province":"東京都","city":"目黒区","address":"東京都目黒区柿の木坂3丁目8-13","lat":35.6265135,"lon":139.67227909},{"name":"南一丁目","province":"東京都","city":"目黒区","address":"東京都目黒区南1丁目24-10","lat":35.6132738,"lon":139.68706997},{"name":"柿の木坂陸橋下","province":"東京都","city":"目黒区","address":"東京都目黒区平町1丁目1-1","lat":35.62007002,"lon":139.68040916},{"name":"中根一丁目","province":"東京都","city":"目黒区","address":"東京都目黒区中根1丁目5-1","lat":35.61718968,"lon":139.6759513},{"name":"八雲一丁目","province":"東京都","city":"目黒区","address":"東京都目黒区八雲1丁目1-1","lat":35.62149186,"lon":139.67275697},{"name":"八雲小学校入口","province":"東京都","city":"目黒区","address":"東京都目黒区柿の木坂1丁目31-15","lat":35.61941994,"lon":139.6748402},{"name":"大岡山小学校前","province":"東京都","city":"目黒区","address":"東京都目黒区碑文谷3丁目19-8","lat":35.61628445,"lon":139.68343961},{"name":"田向公園入口","province":"東京都","city":"目黒区","address":"東京都目黒区碑文谷2丁目11-22","lat":35.62386141,"lon":139.68676963},{"name":"国立病院東京医療センター正門前","province":"東京都","city":"目黒区","address":"東京都目黒区東が丘2丁目5-1","lat":35.62656333,"lon":139.66598239},{"name":"学芸大学駅入口","province":"東京都","city":"目黒区","address":"東京都目黒区鷹番3丁目1","lat":35.62949961,"lon":139.68583621},{"name":"都立国際高校","province":"東京都","city":"目黒区","address":"東京都目黒区駒場2-19-59","lat":35.659293,"lon":139.678891},{"name":"駒場小学校","province":"東京都","city":"目黒区","address":"東京都目黒区駒場3-11-13","lat":35.65986,"lon":139.681936},{"name":"第一中学校","province":"東京都","city":"目黒区","address":"東京都目黒区大橋2-11-1","lat":35.654667,"lon":139.686633},{"name":"都立駒場高校","province":"東京都","city":"目黒区","address":"東京都目黒区大橋2-18-1","lat":35.654991,"lon":139.685451},{"name":"菅刈小学校","province":"東京都","city":"目黒区","address":"東京都目黒区青葉台3-3-26","lat":35.651673,"lon":139.692158},{"name":"菅刈公園","province":"東京都","city":"目黒区","address":"東京都目黒区青葉台2-11-25","lat":35.650203,"lon":139.693883},{"name":"東山中学校","province":"東京都","city":"目黒区","address":"東京都目黒区東山1-24-31","lat":35.646476,"lon":139.690227},{"name":"東山小学校","province":"東京都","city":"目黒区","address":"東京都目黒区東山2-24-25","lat":35.64692,"lon":139.685758},{"name":"鳥森小学校","province":"東京都","city":"目黒区","address":"東京都目黒区上目黒3-37-27","lat":35.644365,"lon":139.692883},{"name":"めぐろ学校サポートセンター","province":"東京都","city":"目黒区","address":"東京都目黒区中目黒3-6-10","lat":35.639384,"lon":139.702725},{"name":"中目黒小学校","province":"東京都","city":"目黒区","address":"東京都目黒区中目黒3-13-32","lat":35.640194,"lon":139.699171},{"name":"田道小学校","province":"東京都","city":"目黒区","address":"東京都目黒区目黒1-15-28","lat":35.637594,"lon":139.709168},{"name":"下目黒小学校","province":"東京都","city":"目黒区","address":"東京都目黒区目黒2-7-9","lat":35.634203,"lon":139.709154},{"name":"大鳥中学校","province":"東京都","city":"目黒区","address":"東京都目黒区下目黒3-23-18","lat":35.631092,"lon":139.707612},{"name":"不動小学校","province":"東京都","city":"目黒区","address":"東京都目黒区下目黒6-11-35","lat":35.627081,"lon":139.699099},{"name":"上目黒小学校","province":"東京都","city":"目黒区","address":"東京都目黒区五本木1-12-13","lat":35.638735,"lon":139.690425},{"name":"都立目黒高校","province":"東京都","city":"目黒区","address":"東京都目黒区祐天寺2-7-15","lat":35.636927,"lon":139.694616},{"name":"油面小学校","province":"東京都","city":"目黒区","address":"東京都目黒区中町1-5-4","lat":35.632395,"lon":139.698299},{"name":"目黒中央中学校","province":"東京都","city":"目黒区","address":"東京都目黒区中町2-37-38","lat":35.634678,"lon":139.693647},{"name":"五本木小学校","province":"東京都","city":"目黒区","address":"東京都目黒区五本木2-24-3","lat":35.634466,"lon":139.687889},{"name":"鷹番小学校","province":"東京都","city":"目黒区","address":"東京都目黒区中央町1-20-26","lat":35.627761,"lon":139.690222},{"name":"碑文谷公園","province":"東京都","city":"目黒区","address":"東京都目黒区碑文谷6-9-11","lat":35.62655,"lon":139.682084},{"name":"碑文谷体育館","province":"東京都","city":"目黒区","address":"東京都目黒区碑文谷6-12-43","lat":35.627225,"lon":139.682079},{"name":"月光原小学校","province":"東京都","city":"目黒区","address":"東京都目黒区目黒本町4-15-3","lat":35.62251,"lon":139.694586},{"name":"向原小学校","province":"東京都","city":"目黒区","address":"東京都目黒区目黒本町6-7-15","lat":35.618716,"lon":139.695783},{"name":"第七中学校","province":"東京都","city":"目黒区","address":"東京都目黒区碑文谷1-1-33","lat":35.622923,"lon":139.691764},{"name":"碑小学校","province":"東京都","city":"目黒区","address":"東京都目黒区碑文谷1-18-2","lat":35.619603,"lon":139.690579},{"name":"原町小学校","province":"東京都","city":"目黒区","address":"東京都目黒区原町2-18-12","lat":35.615752,"lon":139.690492},{"name":"第九中学校","province":"東京都","city":"目黒区","address":"東京都目黒区洗足1-29-26","lat":35.613508,"lon":139.69455},{"name":"第八中学校","province":"東京都","city":"目黒区","address":"東京都目黒区碑文谷4-19-25","lat":35.619685,"lon":139.682495},{"name":"大岡山小学校","province":"東京都","city":"目黒区","address":"東京都目黒区平町2-3-1","lat":35.615482,"lon":139.683004},{"name":"中根小学校","province":"東京都","city":"目黒区","address":"東京都目黒区緑が丘1-1-1","lat":35.61241,"lon":139.678527},{"name":"第十一中学校","province":"東京都","city":"目黒区","address":"東京都目黒区緑が丘1-8-1","lat":35.609469,"lon":139.679024},{"name":"緑ヶ丘小学校","province":"東京都","city":"目黒区","address":"東京都目黒区緑が丘2-13-1","lat":35.610299,"lon":139.673449},{"name":"宮前小学校","province":"東京都","city":"目黒区","address":"東京都目黒区八雲3-13-21","lat":35.615365,"lon":139.66688},{"name":"めぐろ区民キャンパス","province":"東京都","city":"目黒区","address":"東京都目黒区八雲1-1-1","lat":35.621542,"lon":139.672741},{"name":"都立桜修館中等教育学校","province":"東京都","city":"目黒区","address":"東京都目黒区八雲1-1-2","lat":35.621198,"lon":139.670993},{"name":"八雲小学校","province":"東京都","city":"目黒区","address":"東京都目黒区八雲2-5-1","lat":35.618062,"lon":139.671255},{"name":"第十中学校","province":"東京都","city":"目黒区","address":"東京都目黒区八雲5-2-1","lat":35.62432,"lon":139.668677},{"name":"東根小学校","province":"東京都","city":"目黒区","address":"東京都目黒区東が丘1-20-1","lat":35.627158,"lon":139.668027},