{"keyword":"収蔵","data":[{"name":"八雲給水所","province":"東京都","city":"目黒区","address":"東京都目黒区八雲1-1","lat":35.620566,"lon":139.670911},{"name":"都立林試の森公園","province":"東京都","city":"目黒区","address":"東京都目黒区下目黒5-37","lat":35.625388,"lon":139.705384},{"name":"独立行政法人国立病院機構東京医療センター","province":"東京都","city":"目黒区","address":"東京都目黒区東が丘2丁目5-1","lat":35.62656333,"lon":139.66598239},{"name":"八雲給水所","province":"東京都","city":"目黒区","address":"東京都目黒区八雲1丁目1","lat":35.62130575,"lon":139.67178483},{"name":"都立林試の森公園","province":"東京都","city":"目黒区","address":"東京都目黒区下目黒5丁目37","lat":35.62487834,"lon":139.70415426},{"name":"国立病院機構東京医療センター","province":"東京都","city":"目黒区","address":"東京都目黒区東が丘2丁目5-1","lat":35.62656333,"lon":139.66598239},{"name":"都立桜修館中等教育学校","province":"東京都","city":"目黒区","address":"東京都目黒区八雲1丁目1-2","lat":35.62118352,"lon":139.67099324},{"name":"目黒区立碑文谷公園（旧第一勧業銀行グラウンド）","province":"東京都","city":"目黒区","address":"東京都目黒区碑文谷6丁目12-43","lat":35.62721368,"lon":139.68206437},{"name":"東京大学陸上競技場","province":"東京都","city":"目黒区","address":"東京都目黒区駒場3丁目8-1","lat":35.65931564,"lon":139.68524362},{"name":"駒沢オリンピック公園陸上競技場","province":"東京都","city":"目黒区","address":"東京都目黒区東が丘2丁目","lat":35.6300629,"lon":139.66396858},{"name":"蛇崩川緑道1","province":"東京都","city":"目黒区","address":"東京都目黒区上目黒1丁目23-1","lat":35.64438,"lon":139.69969},{"name":"蛇崩川緑道2","province":"東京都","city":"目黒区","address":"東京都目黒区上目黒2丁目1-1","lat":35.643565,"lon":139.698846},{"name":"蛇崩川緑道3","province":"東京都","city":"目黒区","address":"東京都目黒区上目黒2丁目46","lat":35.641975,"lon":139.695809},{"name":"蛇崩川支流緑道","province":"東京都","city":"目黒区","address":"東京都目黒区上目黒4丁目23","lat":35.642315,"lon":139.69056},{"name":"羅漢寺川緑道","province":"東京都","city":"目黒区","address":"東京都目黒区目黒本町1丁目7","lat":35.625642,"lon":139.698319},{"name":"目黒区","province":"東京都","city":"目黒区","address":"目黒区鷹番1-7-11","lat":35.6263,"lon":139.6886},{"name":"アルフレッサ（株）目黒医薬品センター","province":"東京都","city":"目黒区","address":"目黒区目黒本町2-18-16","lat":35.62508,"lon":139.6904},{"name":"八雲給水所","province":"東京都","city":"目黒区","address":"東京都目黒区八雲1-1","lat":35.620566,"lon":139.670911},{"name":"都立林試の森公園","province":"東京都","city":"目黒区","address":"東京都目黒区下目黒5-37","lat":35.625388,"lon":139.705384},{"name":"独立行政法人国立病院機構東京医療センター","province":"東京都","city":"目黒区","address":"東京都目黒区東が丘2丁目5-1","lat":35.62656333,"lon":139.66598239},{"name":"八雲給水所","province":"東京都","city":"目黒区","address":"東京都目黒区八雲1丁目1","lat":35.62130575,"lon":139.67178483},{"name":"都立林試の森公園","province":"東京都","city":"目黒区","address":"東京都目黒区下目黒5丁目37","lat":35.62487834,"lon":139.70415426},{"name":"国立病院機構東京医療センター","province":"東京都","city":"目黒区","address":"東京都目黒区東が丘2丁目5-1","lat":35.62656333,"lon":139.66598239},{"name":"都立桜修館中等教育学校","province":"東京都","city":"目黒区","address":"東京都目黒区八雲1丁目1-2","lat":35.62118352,"lon":139.67099324},{"name":"目黒区立碑文谷公園（旧第一勧業銀行グラウンド）","province":"東京都","city":"目黒区","address":"東京都目黒区碑文谷6丁目12-43","lat":35.62721368,"lon":139.68206437},{"name":"東京大学陸上競技場","province":"東京都","city":"目黒区","address":"東京都目黒区駒場3丁目8-1","lat":35.65931564,"lon":139.68524362},{"name":"駒沢オリンピック公園陸上競技場","province":"東京都","city":"目黒区","address":"東京都目黒区東が丘2丁目","lat":35.6300629,"lon":139.66396858},{"name":"蛇崩川緑道1","province":"東京都","city":"目黒区","address":"東京都目黒区上目黒1丁目23-1","lat":35.64438,"lon":139.69969},{"name":"蛇崩川緑道2","province":"東京都","city":"目黒区","address":"東京都目黒区上目黒2丁目1-1","lat":35.643565,"lon":139.698846},{"name":"蛇崩川緑道3","province":"東京都","city":"目黒区","address":"東京都目黒区上目黒2丁目46","lat":35.641975,"lon":139.695809},{"name":"蛇崩川支流緑道","province":"東京都","city":"目黒区","address":"東京都目黒区上目黒4丁目23","lat":35.642315,"lon":139.69056},{"name":"羅漢寺川緑道","province":"東京都","city":"目黒区","address":"東京都目黒区目黒本町1丁目7","lat":35.625642,"lon":139.698319},{"name":"目黒区","province":"東京都","city":"目黒区","address":"目黒区鷹番1-7-11","lat":35.6263,"lon":139.6886},{"name":"アルフレッサ（株）目黒医薬品センター","province":"東京都","city":"目黒区","address":"目黒区目黒本町2-18-16","lat":35.62508,"lon":139.6904},{"name":"八雲給水所","province":"東京都","city":"目黒区","address":"東京都目黒区八雲1-1","lat":35.620566,"lon":139.670911},{"name":"都立林試の森公園","province":"東京都","city":"目黒区","address":"東京都目黒区下目黒5-37","lat":35.625388,"lon":139.705384},{"name":"独立行政法人国立病院機構東京医療センター","province":"東京都","city":"目黒区","address":"東京都目黒区東が丘2丁目5-1","lat":35.62656333,"lon":139.66598239},{"name":"八雲給水所","province":"東京都","city":"目黒区","address":"東京都目黒区八雲1丁目1","lat":35.62130575,"lon":139.67178483},{"name":"都立林試の森公園","province":"東京都","city":"目黒区","address":"東京都目黒区下目黒5丁目37","lat":35.62487834,"lon":139.70415426},{"name":"国立病院機構東京医療センター","province":"東京都","city":"目黒区","address":"東京都目黒区東が丘2丁目5-1","lat":35.62656333,"lon":139.66598239},{"name":"都立桜修館中等教育学校","province":"東京都","city":"目黒区","address":"東京都目黒区八雲1丁目1-2","lat":35.62118352,"lon":139.67099324},{"name":"目黒区立碑文谷公園（旧第一勧業銀行グラウンド）","province":"東京都","city":"目黒区","address":"東京都目黒区碑文谷6丁目12-43","lat":35.62721368,"lon":139.68206437},{"name":"東京大学陸上競技場","province":"東京都","city":"目黒区","address":"東京都目黒区駒場3丁目8-1","lat":35.65931564,"lon":139.68524362},{"name":"駒沢オリンピック公園陸上競技場","province":"東京都","city":"目黒区","address":"東京都目黒区東が丘2丁目","lat":35.6300629,"lon":139.66396858},{"name":"蛇崩川緑道1","province":"東京都","city":"目黒区","address":"東京都目黒区上目黒1丁目23-1","lat":35.64438,"lon":139.69969},{"name":"蛇崩川緑道2","province":"東京都","city":"目黒区","address":"東京都目黒区上目黒2丁目1-1","lat":35.643565,"lon":139.698846},{"name":"蛇崩川緑道3","province":"東京都","city":"目黒区","address":"東京都目黒区上目黒2丁目46","lat":35.641975,"lon":139.695809},{"name":"蛇崩川支流緑道","province":"東京都","city":"目黒区","address":"東京都目黒区上目黒4丁目23","lat":35.642315,"lon":139.69056},{"name":"羅漢寺川緑道","province":"東京都","city":"目黒区","address":"東京都目黒区目黒本町1丁目7","lat":35.625642,"lon":139.698319},{"name":"目黒区","province":"東京都","city":"目黒区","address":"目黒区鷹番1-7-11","lat":35.6263,"lon":139.6886},{"name":"アルフレッサ（株）目黒医薬品センター","province":"東京都","city":"目黒区","address":"目黒区目黒本町2-18-16","lat":35.62508,"lon":139.6904},{"name":"八雲給水所","province":"東京都","city":"目黒区","address":"東京都目黒区八雲1-1","lat":35.620566,"lon":139.670911},{"name":"都立林試の森公園","province":"東京都","city":"目黒区","address":"東京都目黒区下目黒5-37","lat":35.625388,"lon":139.705384},{"name":"独立行政法人国立病院機構東京医療センター","province":"東京都","city":"目黒区","address":"東京都目黒区東が丘2丁目5-1","lat":35.62656333,"lon":139.66598239},{"name":"国立病院機構東京医療センター","province":"東京都","city":"目黒区","address":"東京都目黒区東が丘2丁目5-1","lat":35.62656333,"lon":139.66598239},{"name":"都立桜修館中等教育学校","province":"東京都","city":"目黒区","address":"東京都目黒区八雲1丁目1-2","lat":35.62118352,"lon":139.67099324},{"name":"目黒区立碑文谷公園（旧第一勧業銀行グラウンド）","province":"東京都","city":"目黒区","address":"東京都目黒区碑文谷6丁目12-43","lat":35.62721368,"lon":139.68206437},{"name":"東京大学陸上競技場","province":"東京都","city":"目黒区","address":"東京都目黒区駒場3丁目8-1","lat":35.65931564,"lon":139.68524362},{"name":"駒沢オリンピック公園陸上競技場","province":"東京都","city":"目黒区","address":"東京都目黒区東が丘2丁目","lat":35.6300629,"lon":139.66396858},{"name":"蛇崩川緑道1","province":"東京都","city":"目黒区","address":"東京都目黒区上目黒1丁目23-1","lat":35.64438,"lon":139.69969},{"name":"蛇崩川緑道2","province":"東京都","city":"目黒区","address":"東京都目黒区上目黒2丁目1-1","lat":35.643565,"lon":139.698846},{"name":"蛇崩川緑道3","province":"東京都","city":"目黒区","address":"東京都目黒区上目黒2丁目46","lat":35.641975,"lon":139.695809},{"name":"蛇崩川支流緑道","province":"東京都","city":"目黒区","address":"東京都目黒区上目黒4丁目23","lat":35.642315,"lon":139.69056},{"name":"羅漢寺川緑道","province":"東京都","city":"目黒区","address":"東京都目黒区目黒本町1丁目7","lat":35.625642,"lon":139.698319},{"name":"目黒区","province":"東京都","city":"目黒区","address":"目黒区鷹番1-7-11","lat":35.6263,"lon":139.6886},{"name":"アルフレッサ（株）目黒医薬品センター","province":"東京都","city":"目黒区","address":"目黒区目黒本町2-18-16","lat":35.62508,"lon":139.6904},{"name":"八雲給水所","province":"東京都","city":"目黒区","address":"東京都目黒区八雲1-1","lat":35.620566,"lon":139.670911},{"name":"都立林試の森公園","province":"東京都","city":"目黒区","address":"東京都目黒区下目黒5-37","lat":35.625388,"lon":139.705384},{"name":"独立行政法人国立病院機構東京医療センター","province":"東京都","city":"目黒区","address":"東京都目黒区東が丘2丁目5-1","lat":35.62656333,"lon":139.66598239},{"name":"国立病院機構東京医療センター","province":"東京都","city":"目黒区","address":"東京都目黒区東が丘2丁目5-1","lat":35.62656333,"lon":139.66598239},{"name":"蛇崩川緑道1","province":"東京都","city":"目黒区","address":"東京都目黒区上目黒1丁目23-1","lat":35.64438,"lon":139.69969},{"name":"蛇崩川緑道2","province":"東京都","city":"目黒区","address":"東京都目黒区上目黒2丁目1-1","lat":35.643565,"lon":139.698846},{"name":"蛇崩川緑道3","province":"東京都","city":"目黒区","address":"東京都目黒区上目黒2丁目46","lat":35.641975,"lon":139.695809},{"name":"蛇崩川支流緑道","province":"東京都","city":"目黒区","address":"東京都目黒区上目黒4丁目23","lat":35.642315,"lon":139.69056},{"name":"羅漢寺川緑道","province":"東京都","city":"目黒区","address":"東京都目黒区目黒本町1丁目7","lat":35.625642,"lon":139.698319},{"name":"目黒区","province":"東京都","city":"目黒区","address":"目黒区鷹番1-7-11","lat":35.6263,"lon":139.6886},{"name":"アルフレッサ（株）目黒医薬品センター","province":"東京都","city":"目黒区","address":"目黒区目黒本町2-18-16","lat":35.62508,"lon":139.6904},{"name":"八雲給水所","province":"東京都","city":"目黒区","address":"東京都目黒区八雲1-1","lat":35.620566,"lon":139.670911},{"name":"都立林試の森公園","province":"東京都","city":"目黒区","address":"東京都目黒区下目黒5-37","lat":35.625388,"lon":139.705384},{"name":"独立行政法人国立病院機構東京医療センター","province":"東京都","city":"目黒区","address":"東京都目黒区東が丘2丁目5-1","lat":35.62656333,"lon":139.66598239},{"name":"国立病院機構東京医療センター","province":"東京都","city":"目黒区","address":"東京都目黒区東が丘2丁目5-1","lat":35.62656333,"lon":139.66598239},{"name":"蛇崩川緑道1","province":"東京都","city":"目黒区","address":"東京都目黒区上目黒1丁目23-1","lat":35.64438,"lon":139.69969},{"name":"蛇崩川緑道2","province":"東京都","city":"目黒区","address":"東京都目黒区上目黒2丁目1-1","lat":35.643565,"lon":139.698846},{"name":"蛇崩川緑道3","province":"東京都","city":"目黒区","address":"東京都目黒区上目黒2丁目46","lat":35.641975,"lon":139.695809},{"name":"蛇崩川支流緑道","province":"東京都","city":"目黒区","address":"東京都目黒区上目黒4丁目23","lat":35.642315,"lon":139.69056},{"name":"羅漢寺川緑道","province":"東京都","city":"目黒区","address":"東京都目黒区目黒本町1丁目7","lat":35.625642,"lon":139.698319},{"name":"目黒区","province":"東京都","city":"目黒区","address":"目黒区鷹番1-7-11","lat":35.6263,"lon":139.6886},{"name":"アルフレッサ（株）目黒医薬品センター","province":"東京都","city":"目黒区","address":"目黒区目黒本町2-18-16","lat":35.62508,"lon":139.6904},{"name":"八雲給水所","province":"東京都","city":"目黒区","address":"東京都目黒区八雲1-1","lat":35.620566,"lon":139.670911},{"name":"都立林試の森公園","province":"東京都","city":"目黒区","address":"東京都目黒区下目黒5-37","lat":35.625388,"lon":139.705384},{"name":"独立行政法人国立病院機構東京医療センター","province":"東京都","city":"目黒区","address":"東京都目黒区東が丘2丁目5-1","lat":35.62656333,"lon":139.66598239},{"name":"国立病院機構東京医療センター","province":"東京都","city":"目黒区","address":"東京都目黒区東が丘2丁目5-1","lat":35.62656333,"lon":139.66598239},{"name":"蛇崩川緑道1","province":"東京都","city":"目黒区","address":"東京都目黒区上目黒1丁目23-1","lat":35.64438,"lon":139.69969},{"name":"蛇崩川緑道2","province":"東京都","city":"目黒区","address":"東京都目黒区上目黒2丁目1-1","lat":35.643565,"lon":139.698846},{"name":"蛇崩川緑道3","province":"東京都","city":"目黒区","address":"東京都目黒区上目黒2丁目46","lat":35.641975,"lon":139.695809},{"name":"蛇崩川支流緑道","province":"東京都","city":"目黒区","address":"東京都目黒区上目黒4丁目23","lat":35.642315,"lon":139.69056},{"name":"羅漢寺川緑道","province":"東京都","city":"目黒区","address":"東京都目黒区目黒本町1丁目7","lat":35.625642,"lon":139.698319},{"name":"目黒区","province":"東京都","city":"目黒区","address":"目黒区鷹番1-7-11","lat":35.6263,"lon":139.6886},{"name":"アルフレッサ（株）目黒医薬品センター","province":"東京都","city":"目黒区","address":"目黒区目黒本町2-18-16","lat":35.62508,"lon":139.6904},{"name":"八雲給水所","province":"東京都","city":"目黒区","address":"東京都目黒区八雲1-1","lat":35.620566,"lon":139.670911},{"name":"都立林試の森公園","province":"東京都","city":"目黒区","address":"東京都目黒区下目黒5-37","lat":35.625388,"lon":139.705384},{"name":"独立行政法人国立病院機構東京医療センター","province":"東京都","city":"目黒区","address":"東京都目黒区東が丘2丁目5-1","lat":35.62656333,"lon":139.66598239},{"name":"国立病院機構東京医療センター","province":"東京都","city":"目黒区","address":"東京都目黒区東が丘2丁目5-1","lat":35.62656333,"lon":139.66598239},{"name":"蛇崩川緑道1","province":"東京都","city":"目黒区","address":"東京都目黒区上目黒1丁目23-1","lat":35.64438,"lon":139.69969},{"name":"蛇崩川緑道2","province":"東京都","city":"目黒区","address":"東京都目黒区上目黒2丁目1-1","lat":35.643565,"lon":139.698846},{"name":"蛇崩川緑道3","province":"東京都","city":"目黒区","address":"東京都目黒区上目黒2丁目46","lat":35.641975,"lon":139.695809},{"name":"蛇崩川支流緑道","province":"東京都","city":"目黒区","address":"東京都目黒区上目黒4丁目23","lat":35.642315,"lon":139.69056},{"name":"羅漢寺川緑道","province":"東京都","city":"目黒区","address":"東京都目黒区目黒本町1丁目7","lat":35.625642,"lon":139.698319},{"name":"目黒区","province":"東京都","city":"目黒区","address":"目黒区鷹番1-7-11","lat":35.6263,"lon":139.6886},{"name":"アルフレッサ（株）目黒医薬品センター","province":"東京都","city":"目黒区","address":"目黒区目黒本町2-18-16","lat":35.62508,"lon":139.6904},{"name":"八雲給水所","province":"東京都","city":"目黒区","address":"東京都目黒区八雲1-1","lat":35.620566,"lon":139.670911},{"name":"都立林試の森公園","province":"東京都","city":"目黒区","address":"東京都目黒区下目黒5-37","lat":35.625388,"lon":139.705384},{"name":"独立行政法人国立病院機構東京医療センター","province":"東京都","city":"目黒区","address":"東京都目黒区東が丘2丁目5-1","lat":35.62656333,"lon":139.66598239},{"name":"国立病院機構東京医療センター","province":"東京都","city":"目黒区","address":"東京都目黒区東が丘2丁目5-1","lat":35.62656333,"lon":139.66598239},{"name":"蛇崩川緑道1","province":"東京都","city":"目黒区","address":"東京都目黒区上目黒1丁目23-1","lat":35.64438,"lon":139.69969},{"name":"蛇崩川緑道2","province":"東京都","city":"目黒区","address":"東京都目黒区上目黒2丁目1-1","lat":35.643565,"lon":139.698846},{"name":"蛇崩川緑道3","province":"東京都","city":"目黒区","address":"東京都目黒区上目黒2丁目46","lat":35.641975,"lon":139.695809},{"name":"蛇崩川支流緑道","province":"東京都","city":"目黒区","address":"東京都目黒区上目黒4丁目23","lat":35.642315,"lon":139.69056},{"name":"羅漢寺川緑道","province":"東京都","city":"目黒区","address":"東京都目黒区目黒本町1丁目7","lat":35.625642,"lon":139.698319},{"name":"目黒区","province":"東京都","city":"目黒区","address":"目黒区鷹番1-7-11","lat":35.6263,"lon":139.6886},{"name":"アルフレッサ（株）目黒医薬品センター","province":"東京都","city":"目黒区","address":"目黒区目黒本町2-18-16","lat":35.62508,"lon":139.6904},{"name":"八雲給水所","province":"東京都","city":"目黒区","address":"東京都目黒区八雲1-1","lat":35.620566,"lon":139.670911},{"name":"都立林試の森公園","province":"東京都","city":"目黒区","address":"東京都目黒区下目黒5-37","lat":35.625388,"lon":139.705384},{"name":"独立行政法人国立病院機構東京医療センター","province":"東京都","city":"目黒区","address":"東京都目黒区東が丘2丁目5-1","lat":35.62656333,"lon":139.66598239},{"name":"国立病院機構東京医療センター","province":"東京都","city":"目黒区","address":"東京都目黒区東が丘2丁目5-1","lat":35.62656333,"lon":139.66598239},{"name":"蛇崩川緑道1","province":"東京都","city":"目黒区","address":"東京都目黒区上目黒1丁目23-1","lat":35.64438,"lon":139.69969},{"name":"蛇崩川緑道2","province":"東京都","city":"目黒区","address":"東京都目黒区上目黒2丁目1-1","lat":35.643565,"lon":139.698846},{"name":"蛇崩川緑道3","province":"東京都","city":"目黒区","address":"東京都目黒区上目黒2丁目46","lat":35.641975,"lon":139.695809},{"name":"蛇崩川支流緑道","province":"東京都","city":"目黒区","address":"東京都目黒区上目黒4丁目23","lat":35.642315,"lon":139.69056},{"name":"羅漢寺川緑道","province":"東京都","city":"目黒区","address":"東京都目黒区目黒本町1丁目7","lat":35.625642,"lon":139.698319},{"name":"目黒区","province":"東京都","city":"目黒区","address":"目黒区鷹番1-7-11","lat":35.6263,"lon":139.6886},{"name":"アルフレッサ（株）目黒医薬品センター","province":"東京都","city":"目黒区","address":"目黒区目黒本町2-18-16","lat":35.62508,"lon":139.6904},{"name":"八雲給水所","province":"東京都","city":"目黒区","address":"東京都目黒区八雲1-1","lat":35.620566,"lon":139.670911},{"name":"都立林試の森公園","province":"東京都","city":"目黒区","address":"東京都目黒区下目黒5-37","lat":35.625388,"lon":139.705384},{"name":"蛇崩川緑道1","province":"東京都","city":"目黒区","address":"東京都目黒区上目黒1丁目23-1","lat":35.64438,"lon":139.69969},{"name":"蛇崩川緑道2","province":"東京都","city":"目黒区","address":"東京都目黒区上目黒2丁目1-1","lat":35.643565,"lon":139.698846},{"name":"蛇崩川緑道3","province":"東京都","city":"目黒区","address":"東京都目黒区上目黒2丁目46","lat":35.641975,"lon":139.695809},{"name":"蛇崩川支流緑道","province":"東京都","city":"目黒区","address":"東京都目黒区上目黒4丁目23","lat":35.642315,"lon":139.69056},{"name":"羅漢寺川緑道","province":"東京都","city":"目黒区","address":"東京都目黒区目黒本町1丁目7","lat":35.625642,"lon":139.698319},{"name":"目黒区","province":"東京都","city":"目黒区","address":"目黒区鷹番1-7-11","lat":35.6263,"lon":139.6886},{"name":"アルフレッサ（株）目黒医薬品センター","province":"東京都","city":"目黒区","address":"目黒区目黒本町2-18-16","lat":35.62508,"lon":139.6904},{"name":"八雲給水所","province":"東京都","city":"目黒区","address":"東京都目黒区八雲1-1","lat":35.620566,"lon":139.670911},{"name":"都立林試の森公園","province":"東京都","city":"目黒区","address":"東京都目黒区下目黒5-37","lat":35.625388,"lon":139.705384},{"name":"蛇崩川緑道1","province":"東京都","city":"目黒区","address":"東京都目黒区上目黒1丁目23-1","lat":35.64438,"lon":139.69969},{"name":"蛇崩川緑道2","province":"東京都","city":"目黒区","address":"東京都目黒区上目黒2丁目1-1","lat":35.643565,"lon":139.698846},{"name":"蛇崩川緑道3","province":"東京都","city":"目黒区","address":"東京都目黒区上目黒2丁目46","lat":35.641975,"lon":139.695809},{"name":"蛇崩川支流緑道","province":"東京都","city":"目黒区","address":"東京都目黒区上目黒4丁目23","lat":35.642315,"lon":139.69056},{"name":"羅漢寺川緑道","province":"東京都","city":"目黒区","address":"東京都目黒区目黒本町1丁目7","lat":35.625642,"lon":139.698319},{"name":"目黒区","province":"東京都","city":"目黒区","address":"目黒区鷹番1-7-11","lat":35.6263,"lon":139.6886},{"name":"アルフレッサ（株）目黒医薬品センター","province":"東京都","city":"目黒区","address":"目黒区目黒本町2-18-16","lat":35.62508,"lon":139.6904},{"name":"八雲給水所","province":"東京都","city":"目黒区","address":"東京都目黒区八雲1-1","lat":35.620566,"lon":139.670911},{"name":"都立林試の森公園","province":"東京都","city":"目黒区","address":"東京都目黒区下目黒5-37","lat":35.625388,"lon":139.705384},{"name":"蛇崩川緑道1","province":"東京都","city":"目黒区","address":"東京都目黒区上目黒1丁目23-1","lat":35.64438,"lon":139.69969},{"name":"蛇崩川緑道2","province":"東京都","city":"目黒区","address":"東京都目黒区上目黒2丁目1-1","lat":35.643565,"lon":139.698846},{"name":"蛇崩川緑道3","province":"東京都","city":"目黒区","address":"東京都目黒区上目黒2丁目46","lat":35.641975,"lon":139.695809},{"name":"蛇崩川支流緑道","province":"東京都","city":"目黒区","address":"東京都目黒区上目黒4丁目23","lat":35.642315,"lon":139.69056},{"name":"羅漢寺川緑道","province":"東京都","city":"目黒区","address":"東京都目黒区目黒本町1丁目7","lat":35.625642,"lon":139.698319},{"name":"目黒区","province":"東京都","city":"目黒区","address":"目黒区鷹番1-7-11","lat":35.6263,"lon":139.6886},{"name":"アルフレッサ（株）目黒医薬品センター","province":"東京都","city":"目黒区","address":"目黒区目黒本町2-18-16","lat":35.62508,"lon":139.6904},{"name":"八雲給水所","province":"東京都","city":"目黒区","address":"東京都目黒区八雲1-1","lat":35.620566,"lon":139.670911},{"name":"都立林試の森公園","province":"東京都","city":"目黒区","address":"東京都目黒区下目黒5-37","lat":35.625388,"lon":139.705384},{"name":"蛇崩川緑道1","province":"東京都","city":"目黒区","address":"東京都目黒区上目黒1丁目23-1","lat":35.64438,"lon":139.69969},{"name":"蛇崩川緑道2","province":"東京都","city":"目黒区","address":"東京都目黒区上目黒2丁目1-1","lat":35.643565,"lon":139.698846},{"name":"蛇崩川緑道3","province":"東京都","city":"目黒区","address":"東京都目黒区上目黒2丁目46","lat":35.641975,"lon":139.695809},{"name":"蛇崩川支流緑道","province":"東京都","city":"目黒区","address":"東京都目黒区上目黒4丁目23","lat":35.642315,"lon":139.69056},{"name":"羅漢寺川緑道","province":"東京都","city":"目黒区","address":"東京都目黒区目黒本町1丁目7","lat":35.625642,"lon":139.698319},{"name":"目黒区","province":"東京都","city":"目黒区","address":"目黒区鷹番1-7-11","lat":35.6263,"lon":139.6886},{"name":"アルフレッサ（株）目黒医薬品センター","province":"東京都","city":"目黒区","address":"目黒区目黒本町2-18-16","lat":35.62508,"lon":139.6904},{"name":"八雲給水所","province":"東京都","city":"目黒区","address":"東京都目黒区八雲1-1","lat":35.620566,"lon":139.670911},{"name":"都立林試の森公園","province":"東京都","city":"目黒区","address":"東京都目黒区下目黒5-37","lat":35.625388,"lon":139.705384},{"name":"蛇崩川緑道1","province":"東京都","city":"目黒区","address":"東京都目黒区上目黒1丁目23-1","lat":35.64438,"lon":139.69969},{"name":"蛇崩川緑道2","province":"東京都","city":"目黒区","address":"東京都目黒区上目黒2丁目1-1","lat":35.643565,"lon":139.698846},{"name":"蛇崩川緑道3","province":"東京都","city":"目黒区","address":"東京都目黒区上目黒2丁目46","lat":35.641975,"lon":139.695809},{"name":"蛇崩川支流緑道","province":"東京都","city":"目黒区","address":"東京都目黒区上目黒4丁目23","lat":35.642315,"lon":139.69056},{"name":"羅漢寺川緑道","province":"東京都","city":"目黒区","address":"東京都目黒区目黒本町1丁目7","lat":35.625642,"lon":139.698319},{"name":"目黒区","province":"東京都","city":"目黒区","address":"目黒区鷹番1-7-11","lat":35.6263,"lon":139.6886},{"name":"アルフレッサ（株）目黒医薬品センター","province":"東京都","city":"目黒区","address":"目黒区目黒本町2-18-16","lat":35.62508,"lon":139.6904},{"name":"八雲給水所","province":"東京都","city":"目黒区","address":"東京都目黒区八雲1-1","lat":35.620566,"lon":139.670911},{"name":"都立林試の森公園","province":"東京都","city":"目黒区","address":"東京都目黒区下目黒5-37","lat":35.625388,"lon":139.705384},{"name":"蛇崩川緑道1","province":"東京都","city":"目黒区","address":"東京都目黒区上目黒1丁目23-1","lat":35.64438,"lon":139.69969},{"name":"蛇崩川緑道2","province":"東京都","city":"目黒区","address":"東京都目黒区上目黒2丁目1-1","lat":35.643565,"lon":139.698846},{"name":"蛇崩川緑道3","province":"東京都","city":"目黒区","address":"東京都目黒区上目黒2丁目46","lat":35.641975,"lon":139.695809},{"name":"蛇崩川支流緑道","province":"東京都","city":"目黒区","address":"東京都目黒区上目黒4丁目23","lat":35.642315,"lon":139.69056},{"name":"羅漢寺川緑道","province":"東京都","city":"目黒区","address":"東京都目黒区目黒本町1丁目7","lat":35.625642,"lon":139.698319},{"name":"目黒区","province":"東京都","city":"目黒区","address":"目黒区鷹番1-7-11","lat":35.6263,"lon":139.6886},{"name":"アルフレッサ（株）目黒医薬品センター","province":"東京都","city":"目黒区","address":"目黒区目黒本町2-18-16","lat":35.62508,"lon":139.6904},{"name":"八雲給水所","province":"東京都","city":"目黒区","address":"東京都目黒区八雲1-1","lat":35.620566,"lon":139.670911},{"name":"都立林試の森公園","province":"東京都","city":"目黒区","address":"東京都目黒区下目黒5-37","lat":35.625388,"lon":139.705384},{"name":"蛇崩川緑道1","province":"東京都","city":"目黒区","address":"東京都目黒区上目黒1丁目23-1","lat":35.64438,"lon":139.69969},{"name":"蛇崩川緑道2","province":"東京都","city":"目黒区","address":"東京都目黒区上目黒2丁目1-1","lat":35.643565,"lon":139.698846},{"name":"蛇崩川緑道3","province":"東京都","city":"目黒区","address":"東京都目黒区上目黒2丁目46","lat":35.641975,"lon":139.695809},{"name":"蛇崩川支流緑道","province":"東京都","city":"目黒区","address":"東京都目黒区上目黒4丁目23","lat":35.642315,"lon":139.69056},{"name":"羅漢寺川緑道","province":"東京都","city":"目黒区","address":"東京都目黒区目黒本町1丁目7","lat":35.625642,"lon":139.698319},{"name":"目黒区","province":"東京都","city":"目黒区","address":"目黒区鷹番1-7-11","lat":35.6263,"lon":139.6886},{"name":"アルフレッサ（株）目黒医薬品センター","province":"東京都","city":"目黒区","address":"目黒区目黒本町2-18-16","lat":35.62508,"lon":139.6904},{"name":"八雲給水所","province":"東京都","city":"目黒区","address":"東京都目黒区八雲1-1","lat":35.620566,"lon":139.670911},{"name":"都立林試の森公園","province":"東京都","city":"目黒区","address":"東京都目黒区下目黒5-37","lat":35.625388,"lon":139.705384},{"name":"蛇崩川緑道1","province":"東京都","city":"目黒区","address":"東京都目黒区上目黒1丁目23-1","lat":35.64438,"lon":139.69969},{"name":"蛇崩川緑道2","province":"東京都","city":"目黒区","address":"東京都目黒区上目黒2丁目1-1","lat":35.643565,"lon":139.698846},{"name":"蛇崩川緑道3","province":"東京都","city":"目黒区","address":"東京都目黒区上目黒2丁目46","lat":35.641975,"lon":139.695809},{"name":"蛇崩川支流緑道","province":"東京都","city":"目黒区","address":"東京都目黒区上目黒4丁目23","lat":35.642315,"lon":139.69056},{"name":"羅漢寺川緑道","province":"東京都","city":"目黒区","address":"東京都目黒区目黒本町1丁目7","lat":35.625642,"lon":139.698319},{"name":"目黒区","province":"東京都","city":"目黒区","address":"目黒区鷹番1-7-11","lat":35.6263,"lon":139.6886},{"name":"アルフレッサ（株）目黒医薬品センター","province":"東京都","city":"目黒区","address":"目黒区目黒本町2-18-16","lat":35.62508,"lon":139.6904},{"name":"八雲給水所","province":"東京都","city":"目黒区","address":"東京都目黒区八雲1-1","lat":35.620566,"lon":139.670911},{"name":"都立林試の森公園","province":"東京都","city":"目黒区","address":"東京都目黒区下目黒5-37","lat":35.625388,"lon":139.705384},{"name":"蛇崩川緑道1","province":"東京都","city":"目黒区","address":"東京都目黒区上目黒1丁目23-1","lat":35.64438,"lon":139.69969},{"name":"蛇崩川緑道2","province":"東京都","city":"目黒区","address":"東京都目黒区上目黒2丁目1-1","lat":35.643565,"lon":139.698846},{"name":"蛇崩川緑道3","province":"東京都","city":"目黒区","address":"東京都目黒区上目黒2丁目46","lat":35.641975,"lon":139.695809},{"name":"蛇崩川支流緑道","province":"東京都","city":"目黒区","address":"東京都目黒区上目黒4丁目23","lat":35.642315,"lon":139.69056},{"name":"羅漢寺川緑道","province":"東京都","city":"目黒区","address":"東京都目黒区目黒本町1丁目7","lat":35.625642,"lon":139.698319},{"name":"目黒区","province":"東京都","city":"目黒区","address":"目黒区鷹番1-7-11","lat":35.6263,"lon":139.6886},{"name":"アルフレッサ（株）目黒医薬品センター","province":"東京都","city":"目黒区","address":"目黒区目黒本町2-18-16","lat":35.62508,"lon":139.6904},{"name":"八雲給水所","province":"東京都","city":"目黒区","address":"東京都目黒区八雲1-1","lat":35.620566,"lon":139.670911},{"name":"都立林試の森公園","province":"東京都","city":"目黒区","address":"東京都目黒区下目黒5-37","lat":35.625388,"lon":139.705384},{"name":"蛇崩川緑道1","province":"東京都","city":"目黒区","address":"東京都目黒区上目黒1丁目23-1","lat":35.64438,"lon":139.69969},{"name":"蛇崩川緑道2","province":"東京都","city":"目黒区","address":"東京都目黒区上目黒2丁目1-1","lat":35.643565,"lon":139.698846},{"name":"蛇崩川緑道3","province":"東京都","city":"目黒区","address":"東京都目黒区上目黒2丁目46","lat":35.641975,"lon":139.695809},{"name":"蛇崩川支流緑道","province":"東京都","city":"目黒区","address":"東京都目黒区上目黒4丁目23","lat":35.642315,"lon":139.69056},{"name":"羅漢寺川緑道","province":"東京都","city":"目黒区","address":"東京都目黒区目黒本町1丁目7","lat":35.625642,"lon":139.698319},{"name":"目黒区","province":"東京都","city":"目黒区","address":"目黒区鷹番1-7-11","lat":35.6263,"lon":139.6886},{"name":"アルフレッサ（株）目黒医薬品センター","province":"東京都","city":"目黒区","address":"目黒区目黒本町2-18-16","lat":35.62508,"lon":139.6904},{"name":"八雲給水所","province":"東京都","city":"目黒区","address":"東京都目黒区八雲1-1","lat":35.620566,"lon":139.670911},{"name":"都立林試の森公園","province":"東京都","city":"目黒区","address":"東京都目黒区下目黒5-37","lat":35.625388,"lon":139.705384},{"name":"蛇崩川緑道1","province":"東京都","city":"目黒区","address":"東京都目黒区上目黒1丁目23-1","lat":35.64438,"lon":139.69969},{"name":"蛇崩川緑道2","province":"東京都","city":"目黒区","address":"東京都目黒区上目黒2丁目1-1","lat":35.643565,"lon":139.698846},{"name":"蛇崩川緑道3","province":"東京都","city":"目黒区","address":"東京都目黒区上目黒2丁目46","lat":35.641975,"lon":139.695809},{"name":"蛇崩川支流緑道","province":"東京都","city":"目黒区","address":"東京都目黒区上目黒4丁目23","lat":35.642315,"lon":139.69056},{"name":"羅漢寺川緑道","province":"東京都","city":"目黒区","address":"東京都目黒区目黒本町1丁目7","lat":35.625642,"lon":139.698319},{"name":"目黒区","province":"東京都","city":"目黒区","address":"目黒区鷹番1-7-11","lat":35.6263,"lon":139.6886},{"name":"アルフレッサ（株）目黒医薬品センター","province":"東京都","city":"目黒区","address":"目黒区目黒本町2-18-16","lat":35.62508,"lon":139.6904},{"name":"八雲給水所","province":"東京都","city":"目黒区","address":"東京都目黒区八雲1-1","lat":35.620566,"lon":139.670911},{"name":"都立林試の森公園","province":"東京都","city":"目黒区","address":"東京都目黒区下目黒5-37","lat":35.625388,"lon":139.705384},{"name":"蛇崩川緑道1","province":"東京都","city":"目黒区","address":"東京都目黒区上目黒1丁目23-1","lat":35.64438,"lon":139.69969},{"name":"蛇崩川緑道2","province":"東京都","city":"目黒区","address":"東京都目黒区上目黒2丁目1-1","lat":35.643565,"lon":139.698846},{"name":"蛇崩川緑道3","province":"東京都","city":"目黒区","address":"東京都目黒区上目黒2丁目46","lat":35.641975,"lon":139.695809},{"name":"蛇崩川支流緑道","province":"東京都","city":"目黒区","address":"東京都目黒区上目黒4丁目23","lat":35.642315,"lon":139.69056},{"name":"羅漢寺川緑道","province":"東京都","city":"目黒区","address":"東京都目黒区目黒本町1丁目7","lat":35.625642,"lon":139.698319},{"name":"目黒区","province":"東京都","city":"目黒区","address":"目黒区鷹番1-7-11","lat":35.6263,"lon":139.6886},{"name":"アルフレッサ（株）目黒医薬品センター","province":"東京都","city":"目黒区","address":"目黒区目黒本町2-18-16","lat":35.62508,"lon":139.6904},{"name":"八雲給水所","province":"東京都","city":"目黒区","address":"東京都目黒区八雲1-1","lat":35.620566,"lon":139.670911},{"name":"都立林試の森公園","province":"東京都","city":"目黒区","address":"東京都目黒区下目黒5-37","lat":35.625388,"lon":139.705384},{"name":"蛇崩川緑道1","province":"東京都","city":"目黒区","address":"東京都目黒区上目黒1丁目23-1","lat":35.64438,"lon":139.69969},{"name":"蛇崩川緑道2","province":"東京都","city":"目黒区","address":"東京都目黒区上目黒2丁目1-1","lat":35.643565,"lon":139.698846},{"name":"蛇崩川緑道3","province":"東京都","city":"目黒区","address":"東京都目黒区上目黒2丁目46","lat":35.641975,"lon":139.695809},{"name":"蛇崩川支流緑道","province":"東京都","city":"目黒区","address":"東京都目黒区上目黒4丁目23","lat":35.642315,"lon":139.69056},{"name":"羅漢寺川緑道","province":"東京都","city":"目黒区","address":"東京都目黒区目黒本町1丁目7","lat":35.625642,"lon":139.698319},{"name":"目黒区","province":"東京都","city":"目黒区","address":"目黒区鷹番1-7-11","lat":35.6263,"lon":139.6886},{"name":"アルフレッサ（株）目黒医薬品センター","province":"東京都","city":"目黒区","address":"目黒区目黒本町2-18-16","lat":35.62508,"lon":139.6904},{"name":"八雲給水所","province":"東京都","city":"目黒区","address":"東京都目黒区八雲1-1","lat":35.620566,"lon":139.670911},{"name":"都立林試の森公園","province":"東京都","city":"目黒区","address":"東京都目黒区下目黒5-37","lat":35.625388,"lon":139.705384},{"name":"蛇崩川緑道1","province":"東京都","city":"目黒区","address":"東京都目黒区上目黒1丁目23-1","lat":35.64438,"lon":139.69969},{"name":"蛇崩川緑道2","province":"東京都","city":"目黒区","address":"東京都目黒区上目黒2丁目1-1","lat":35.643565,"lon":139.698846},{"name":"蛇崩川緑道3","province":"東京都","city":"目黒区","address":"東京都目黒区上目黒2丁目46","lat":35.641975,"lon":139.695809},{"name":"蛇崩川支流緑道","province":"東京都","city":"目黒区","address":"東京都目黒区上目黒4丁目23","lat":35.642315,"lon":139.69056},{"name":"羅漢寺川緑道","province":"東京都","city":"目黒区","address":"東京都目黒区目黒本町1丁目7","lat":35.625642,"lon":139.698319},{"name":"目黒区","province":"東京都","city":"目黒区","address":"目黒区鷹番1-7-11","lat":35.6263,"lon":139.6886},{"name":"アルフレッサ（株）目黒医薬品センター","province":"東京都","city":"目黒区","address":"目黒区目黒本町2-18-16","lat":35.62508,"lon":139.6904},{"name":"八雲給水所","province":"東京都","city":"目黒区","address":"東京都目黒区八雲1-1","lat":35.620566,"lon":139.670911},{"name":"都立林試の森公園","province":"東京都","city":"目黒区","address":"東京都目黒区下目黒5-37","lat":35.625388,"lon":139.705384},{"name":"蛇崩川緑道1","province":"東京都","city":"目黒区","address":"東京都目黒区上目黒1丁目23-1","lat":35.64438,"lon":139.69969},{"name":"蛇崩川緑道2","province":"東京都","city":"目黒区","address":"東京都目黒区上目黒2丁目1-1","lat":35.643565,"lon":139.698846},{"name":"蛇崩川緑道3","province":"東京都","city":"目黒区","address":"東京都目黒区上目黒2丁目46","lat":35.641975,"lon":139.695809},{"name":"蛇崩川支流緑道","province":"東京都","city":"目黒区","address":"東京都目黒区上目黒4丁目23","lat":35.642315,"lon":139.69056},{"name":"羅漢寺川緑道","province":"東京都","city":"目黒区","address":"東京都目黒区目黒本町1丁目7","lat":35.625642,"lon":139.698319},{"name":"目黒区","province":"東京都","city":"目黒区","address":"目黒区鷹番1-7-11","lat":35.6263,"lon":139.6886},{"name":"アルフレッサ（株）目黒医薬品センター","province":"東京都","city":"目黒区","address":"目黒区目黒本町2-18-16","lat":35.62508,"lon":139.6904},{"name":"八雲給水所","province":"東京都","city":"目黒区","address":"東京都目黒区八雲1-1","lat":35.620566,"lon":139.670911},{"name":"都立林試の森公園","province":"東京都","city":"目黒区","address":"東京都目黒区下目黒5-37","lat":35.625388,"lon":139.705384},{"name":"蛇崩川緑道1","province":"東京都","city":"目黒区","address":"東京都目黒区上目黒1丁目23-1","lat":35.64438,"lon":139.69969},{"name":"蛇崩川緑道2","province":"東京都","city":"目黒区","address":"東京都目黒区上目黒2丁目1-1","lat":35.643565,"lon":139.698846},{"name":"蛇崩川緑道3","province":"東京都","city":"目黒区","address":"東京都目黒区上目黒2丁目46","lat":35.641975,"lon":139.695809},{"name":"蛇崩川支流緑道","province":"東京都","city":"目黒区","address":"東京都目黒区上目黒4丁目23","lat":35.642315,"lon":139.69056},{"name":"羅漢寺川緑道","province":"東京都","city":"目黒区","address":"東京都目黒区目黒本町1丁目7","lat":35.625642,"lon":139.698319},{"name":"目黒区","province":"東京都","city":"目黒区","address":"目黒区鷹番1-7-11","lat":35.6263,"lon":139.6886},{"name":"アルフレッサ（株）目黒医薬品センター","province":"東京都","city":"目黒区","address":"目黒区目黒本町2-18-16","lat":35.62508,"lon":139.6904},{"name":"八雲給水所","province":"東京都","city":"目黒区","address":"東京都目黒区八雲1-1","lat":35.620566,"lon":139.670911},{"name":"都立林試の森公園","province":"東京都","city":"目黒区","address":"東京都目黒区下目黒5-37","lat":35.625388,"lon":139.705384},{"name":"蛇崩川緑道1","province":"東京都","city":"目黒区","address":"東京都目黒区上目黒1丁目23-1","lat":35.64438,"lon":139.69969},{"name":"蛇崩川緑道2","province":"東京都","city":"目黒区","address":"東京都目黒区上目黒2丁目1-1","lat":35.643565,"lon":139.698846},{"name":"蛇崩川緑道3","province":"東京都","city":"目黒区","address":"東京都目黒区上目黒2丁目46","lat":35.641975,"lon":139.695809},{"name":"蛇崩川支流緑道","province":"東京都","city":"目黒区","address":"東京都目黒区上目黒4丁目23","lat":35.642315,"lon":139.69056},{"name":"羅漢寺川緑道","province":"東京都","city":"目黒区","address":"東京都目黒区目黒本町1丁目7","lat":35.625642,"lon":139.698319},{"name":"目黒区","province":"東京都","city":"目黒区","address":"目黒区鷹番1-7-11","lat":35.6263,"lon":139.6886},{"name":"アルフレッサ（株）目黒医薬品センター","province":"東京都","city":"目黒区","address":"目黒区目黒本町2-18-16","lat":35.62508,"lon":139.6904},{"name":"八雲給水所","province":"東京都","city":"目黒区","address":"東京都目黒区八雲1-1","lat":35.620566,"lon":139.670911},{"name":"都立林試の森公園","province":"東京都","city":"目黒区","address":"東京都目黒区下目黒5-37","lat":35.625388,"lon":139.705384},{"name":"蛇崩川緑道1","province":"東京都","city":"目黒区","address":"東京都目黒区上目黒1丁目23-1","lat":35.64438,"lon":139.69969},{"name":"蛇崩川緑道2","province":"東京都","city":"目黒区","address":"東京都目黒区上目黒2丁目1-1","lat":35.643565,"lon":139.698846},{"name":"蛇崩川緑道3","province":"東京都","city":"目黒区","address":"東京都目黒区上目黒2丁目46","lat":35.641975,"lon":139.695809},{"name":"蛇崩川支流緑道","province":"東京都","city":"目黒区","address":"東京都目黒区上目黒4丁目23","lat":35.642315,"lon":139.69056},{"name":"羅漢寺川緑道","province":"東京都","city":"目黒区","address":"東京都目黒区目黒本町1丁目7","lat":35.625642,"lon":139.698319},{"name":"目黒区","province":"東京都","city":"目黒区","address":"目黒区鷹番1-7-11","lat":35.6263,"lon":139.6886},{"name":"アルフレッサ（株）目黒医薬品センター","province":"東京都","city":"目黒区","address":"目黒区目黒本町2-18-16","lat":35.62508,"lon":139.6904},{"name":"八雲給水所","province":"東京都","city":"目黒区","address":"東京都目黒区八雲1-1","lat":35.620566,"lon":139.670911},{"name":"都立林試の森公園","province":"東京都","city":"目黒区","address":"東京都目黒区下目黒5-37","lat":35.625388,"lon":139.705384},{"name":"蛇崩川緑道1","province":"東京都","city":"目黒区","address":"東京都目黒区上目黒1丁目23-1","lat":35.64438,"lon":139.69969},{"name":"蛇崩川緑道2","province":"東京都","city":"目黒区","address":"東京都目黒区上目黒2丁目1-1","lat":35.643565,"lon":139.698846},{"name":"蛇崩川緑道3","province":"東京都","city":"目黒区","address":"東京都目黒区上目黒2丁目46","lat":35.641975,"lon":139.695809},{"name":"蛇崩川支流緑道","province":"東京都","city":"目黒区","address":"東京都目黒区上目黒4丁目23","lat":35.642315,"lon":139.69056},{"name":"羅漢寺川緑道","province":"東京都","city":"目黒区","address":"東京都目黒区目黒本町1丁目7","lat":35.625642,"lon":139.698319},{"name":"目黒区","province":"東京都","city":"目黒区","address":"目黒区鷹番1-7-11","lat":35.6263,"lon":139.6886},{"name":"アルフレッサ（株）目黒医薬品センター","province":"東京都","city":"目黒区","address":"目黒区目黒本町2-18-16","lat":35.62508,"lon":139.6904},{"name":"八雲給水所","province":"東京都","city":"目黒区","address":"東京都目黒区八雲1-1","lat":35.620566,"lon":139.670911},{"name":"都立林試の森公園","province":"東京都","city":"目黒区","address":"東京都目黒区下目黒5-37","lat":35.625388,"lon":139.705384},{"name":"蛇崩川緑道1","province":"東京都","city":"目黒区","address":"東京都目黒区上目黒1丁目23-1","lat":35.64438,"lon":139.69969},{"name":"蛇崩川緑道2","province":"東京都","city":"目黒区","address":"東京都目黒区上目黒2丁目1-1","lat":35.643565,"lon":139.698846},{"name":"蛇崩川緑道3","province":"東京都","city":"目黒区","address":"東京都目黒区上目黒2丁目46","lat":35.641975,"lon":139.695809},{"name":"蛇崩川支流緑道","province":"東京都","city":"目黒区","address":"東京都目黒区上目黒4丁目23","lat":35.642315,"lon":139.69056},{"name":"羅漢寺川緑道","province":"東京都","city":"目黒区","address":"東京都目黒区目黒本町1丁目7","lat":35.625642,"lon":139.698319},{"name":"目黒区","province":"東京都","city":"目黒区","address":"目黒区鷹番1-7-11","lat":35.6263,"lon":139.6886},{"name":"アルフレッサ（株）目黒医薬品センター","province":"東京都","city":"目黒区","address":"目黒区目黒本町2-18-16","lat":35.62508,"lon":139.6904},{"name":"八雲給水所","province":"東京都","city":"目黒区","address":"東京都目黒区八雲1-1","lat":35.620566,"lon":139.670911},{"name":"都立林試の森公園","province":"東京都","city":"目黒区","address":"東京都目黒区下目黒5-37","lat":35.625388,"lon":139.705384},{"name":"蛇崩川緑道1","province":"東京都","city":"目黒区","address":"東京都目黒区上目黒1丁目23-1","lat":35.64438,"lon":139.69969},{"name":"蛇崩川緑道2","province":"東京都","city":"目黒区","address":"東京都目黒区上目黒2丁目1-1","lat":35.643565,"lon":139.698846},{"name":"蛇崩川緑道3","province":"東京都","city":"目黒区","address":"東京都目黒区上目黒2丁目46","lat":35.641975,"lon":139.695809},{"name":"蛇崩川支流緑道","province":"東京都","city":"目黒区","address":"東京都目黒区上目黒4丁目23","lat":35.642315,"lon":139.69056},{"name":"羅漢寺川緑道","province":"東京都","city":"目黒区","address":"東京都目黒区目黒本町1丁目7","lat":35.625642,"lon":139.698319},{"name":"目黒区","province":"東京都","city":"目黒区","address":"目黒区鷹番1-7-11","lat":35.6263,"lon":139.6886},{"name":"アルフレッサ（株）目黒医薬品センター","province":"東京都","city":"目黒区","address":"目黒区目黒本町2-18-16","lat":35.62508,"lon":139.6904},{"name":"八雲給水所","province":"東京都","city":"目黒区","address":"東京都目黒区八雲1-1","lat":35.620566,"lon":139.670911},{"name":"都立林試の森公園","province":"東京都","city":"目黒区","address":"東京都目黒区下目黒5-37","lat":35.625388,"lon":139.705384},{"name":"蛇崩川緑道1","province":"東京都","city":"目黒区","address":"東京都目黒区上目黒1丁目23-1","lat":35.64438,"lon":139.69969},{"name":"蛇崩川緑道2","province":"東京都","city":"目黒区","address":"東京都目黒区上目黒2丁目1-1","lat":35.643565,"lon":139.698846},{"name":"蛇崩川緑道3","province":"東京都","city":"目黒区","address":"東京都目黒区上目黒2丁目46","lat":35.641975,"lon":139.695809},{"name":"蛇崩川支流緑道","province":"東京都","city":"目黒区","address":"東京都目黒区上目黒4丁目23","lat":35.642315,"lon":139.69056},{"name":"羅漢寺川緑道","province":"東京都","city":"目黒区","address":"東京都目黒区目黒本町1丁目7","lat":35.625642,"lon":139.698319},{"name":"目黒区","province":"東京都","city":"目黒区","address":"目黒区鷹番1-7-11","lat":35.6263,"lon":139.6886},{"name":"アルフレッサ（株）目黒医薬品センター","province":"東京都","city":"目黒区","address":"目黒区目黒本町2-18-16","lat":35.62508,"lon":139.6904},{"name":"八雲給水所","province":"東京都","city":"目黒区","address":"東京都目黒区八雲1-1","lat":35.620566,"lon":139.670911},{"name":"都立林試の森公園","province":"東京都","city":"目黒区","address":"東京都目黒区下目黒5-37","lat":35.625388,"lon":139.705384},{"name":"蛇崩川緑道1","province":"東京都","city":"目黒区","address":"東京都目黒区上目黒1丁目23-1","lat":35.64438,"lon":139.69969},{"name":"蛇崩川緑道2","province":"東京都","city":"目黒区","address":"東京都目黒区上目黒2丁目1-1","lat":35.643565,"lon":139.698846},{"name":"蛇崩川緑道3","province":"東京都","city":"目黒区","address":"東京都目黒区上目黒2丁目46","lat":35.641975,"lon":139.695809},{"name":"蛇崩川支流緑道","province":"東京都","city":"目黒区","address":"東京都目黒区上目黒4丁目23","lat":35.642315,"lon":139.69056},{"name":"羅漢寺川緑道","province":"東京都","city":"目黒区","address":"東京都目黒区目黒本町1丁目7","lat":35.625642,"lon":139.698319},{"name":"八雲給水所","province":"東京都","city":"目黒区","address":"東京都目黒区八雲1-1","lat":35.620566,"lon":139.670911},{"name":"都立林試の森公園","province":"東京都","city":"目黒区","address":"東京都目黒区下目黒5-37","lat":35.625388,"lon":139.705384},{"name":"蛇崩川緑道1","province":"東京都","city":"目黒区","address":"東京都目黒区上目黒1丁目23-1","lat":35.64438,"lon":139.69969},{"name":"蛇崩川緑道2","province":"東京都","city":"目黒区","address":"東京都目黒区上目黒2丁目1-1","lat":35.643565,"lon":139.698846},{"name":"蛇崩川緑道3","province":"東京都","city":"目黒区","address":"東京都目黒区上目黒2丁目46","lat":35.641975,"lon":139.695809},{"name":"蛇崩川支流緑道","province":"東京都","city":"目黒区","address":"東京都目黒区上目黒4丁目23","lat":35.642315,"lon":139.69056},{"name":"羅漢寺川緑道","province":"東京都","city":"目黒区","address":"東京都目黒区目黒本町1丁目7","lat":35.625642,"lon":139.698319},{"name":"八雲給水所","province":"東京都","city":"目黒区","address":"東京都目黒区八雲1-1","lat":35.620566,"lon":139.670911},{"name":"都立林試の森公園","province":"東京都","city":"目黒区","address":"東京都目黒区下目黒5-37","lat":35.625388,"lon":139.705384},{"name":"蛇崩川緑道1","province":"東京都","city":"目黒区","address":"東京都目黒区上目黒1丁目23-1","lat":35.64438,"lon":139.69969},{"name":"蛇崩川緑道2","province":"東京都","city":"目黒区","address":"東京都目黒区上目黒2丁目1-1","lat":35.643565,"lon":139.698846},{"name":"蛇崩川緑道3","province":"東京都","city":"目黒区","address":"東京都目黒区上目黒2丁目46","lat":35.641975,"lon":139.695809},{"name":"蛇崩川支流緑道","province":"東京都","city":"目黒区","address":"東京都目黒区上目黒4丁目23","lat":35.642315,"lon":139.69056},{"name":"羅漢寺川緑道","province":"東京都","city":"目黒区","address":"東京都目黒区目黒本町1丁目7","lat":35.625642,"lon":139.698319},{"name":"八雲給水所","province":"東京都","city":"目黒区","address":"東京都目黒区八雲1-1","lat":35.620566,"lon":139.670911},{"name":"都立林試の森公園","province":"東京都","city":"目黒区","address":"東京都目黒区下目黒5-37","lat":35.625388,"lon":139.705384},{"name":"蛇崩川緑道1","province":"東京都","city":"目黒区","address":"東京都目黒区上目黒1丁目23-1","lat":35.64438,"lon":139.69969},{"name":"蛇崩川緑道2","province":"東京都","city":"目黒区","address":"東京都目黒区上目黒2丁目1-1","lat":35.643565,"lon":139.698846},{"name":"蛇崩川緑道3","province":"東京都","city":"目黒区","address":"東京都目黒区上目黒2丁目46","lat":35.641975,"lon":139.695809},{"name":"蛇崩川支流緑道","province":"東京都","city":"目黒区","address":"東京都目黒区上目黒4丁目23","lat":35.642315,"lon":139.69056},{"name":"羅漢寺川緑道","province":"東京都","city":"目黒区","address":"東京都目黒区目黒本町1丁目7","lat":35.625642,"lon":139.698319},{"name":"八雲給水所","province":"東京都","city":"目黒区","address":"東京都目黒区八雲1-1","lat":35.620566,"lon":139.670911},{"name":"都立林試の森公園","province":"東京都","city":"目黒区","address":"東京都目黒区下目黒5-37","lat":35.625388,"lon":139.705384},{"name":"蛇崩川緑道1","province":"東京都","city":"目黒区","address":"東京都目黒区上目黒1丁目23-1","lat":35.64438,"lon":139.69969},{"name":"蛇崩川緑道2","province":"東京都","city":"目黒区","address":"東京都目黒区上目黒2丁目1-1","lat":35.643565,"lon":139.698846},{"name":"蛇崩川緑道3","province":"東京都","city":"目黒区","address":"東京都目黒区上目黒2丁目46","lat":35.641975,"lon":139.695809},{"name":"蛇崩川支流緑道","province":"東京都","city":"目黒区","address":"東京都目黒区上目黒4丁目23","lat":35.642315,"lon":139.69056},{"name":"羅漢寺川緑道","province":"東京都","city":"目黒区","address":"東京都目黒区目黒本町1丁目7","lat":35.625642,"lon":139.698319},{"name":"八雲給水所","province":"東京都","city":"目黒区","address":"東京都目黒区八雲1-1","lat":35.620566,"lon":139.670911},{"name":"都立林試の森公園","province":"東京都","city":"目黒区","address":"東京都目黒区下目黒5-37","lat":35.625388,"lon":139.705384},{"name":"蛇崩川緑道1","province":"東京都","city":"目黒区","address":"東京都目黒区上目黒1丁目23-1","lat":35.64438,"lon":139.69969},{"name":"蛇崩川緑道2","province":"東京都","city":"目黒区","address":"東京都目黒区上目黒2丁目1-1","lat":35.643565,"lon":139.698846},{"name":"蛇崩川緑道3","province":"東京都","city":"目黒区","address":"東京都目黒区上目黒2丁目46","lat":35.641975,"lon":139.695809},{"name":"蛇崩川支流緑道","province":"東京都","city":"目黒区","address":"東京都目黒区上目黒4丁目23","lat":35.642315,"lon":139.69056},{"name":"羅漢寺川緑道","province":"東京都","city":"目黒区","address":"東京都目黒区目黒本町1丁目7","lat":35.625642,"lon":139.698319},{"name":"八雲給水所","province":"東京都","city":"目黒区","address":"東京都目黒区八雲1-1","lat":35.620566,"lon":139.670911},{"name":"都立林試の森公園","province":"東京都","city":"目黒区","address":"東京都目黒区下目黒5-37","lat":35.625388,"lon":139.705384},{"name":"蛇崩川緑道1","province":"東京都","city":"目黒区","address":"東京都目黒区上目黒1丁目23-1","lat":35.64438,"lon":139.69969},{"name":"蛇崩川緑道2","province":"東京都","city":"目黒区","address":"東京都目黒区上目黒2丁目1-1","lat":35.643565,"lon":139.698846},{"name":"蛇崩川緑道3","province":"東京都","city":"目黒区","address":"東京都目黒区上目黒2丁目46","lat":35.641975,"lon":139.695809},{"name":"蛇崩川支流緑道","province":"東京都","city":"目黒区","address":"東京都目黒区上目黒4丁目23","lat":35.642315,"lon":139.69056},{"name":"羅漢寺川緑道","province":"東京都","city":"目黒区","address":"東京都目黒区目黒本町1丁目7","lat":35.625642,"lon":139.698319},{"name":"八雲給水所","province":"東京都","city":"目黒区","address":"東京都目黒区八雲1-1","lat":35.620566,"lon":139.670911},{"name":"都立林試の森公園","province":"東京都","city":"目黒区","address":"東京都目黒区下目黒5-37","lat":35.625388,"lon":139.705384},{"name":"蛇崩川緑道1","province":"東京都","city":"目黒区","address":"東京都目黒区上目黒1丁目23-1","lat":35.64438,"lon":139.69969},{"name":"蛇崩川緑道2","province":"東京都","city":"目黒区","address":"東京都目黒区上目黒2丁目1-1","lat":35.643565,"lon":139.698846},{"name":"蛇崩川緑道3","province":"東京都","city":"目黒区","address":"東京都目黒区上目黒2丁目46","lat":35.641975,"lon":139.695809},{"name":"蛇崩川支流緑道","province":"東京都","city":"目黒区","address":"東京都目黒区上目黒4丁目23","lat":35.642315,"lon":139.69056},{"name":"羅漢寺川緑道","province":"東京都","city":"目黒区","address":"東京都目黒区目黒本町1丁目7","lat":35.625642,"lon":139.698319},{"name":"八雲給水所","province":"東京都","city":"目黒区","address":"東京都目黒区八雲1-1","lat":35.620566,"lon":139.670911},{"name":"都立林試の森公園","province":"東京都","city":"目黒区","address":"東京都目黒区下目黒5-37","lat":35.625388,"lon":139.705384},{"name":"蛇崩川緑道1","province":"東京都","city":"目黒区","address":"東京都目黒区上目黒1丁目23-1","lat":35.64438,"lon":139.69969},{"name":"蛇崩川緑道2","province":"東京都","city":"目黒区","address":"東京都目黒区上目黒2丁目1-1","lat":35.643565,"lon":139.698846},{"name":"蛇崩川緑道3","province":"東京都","city":"目黒区","address":"東京都目黒区上目黒2丁目46","lat":35.641975,"lon":139.695809},{"name":"蛇崩川支流緑道","province":"東京都","city":"目黒区","address":"東京都目黒区上目黒4丁目23","lat":35.642315,"lon":139.69056},{"name":"羅漢寺川緑道","province":"東京都","city":"目黒区","address":"東京都目黒区目黒本町1丁目7","lat":35.625642,"lon":139.698319},{"name":"八雲給水所","province":"東京都","city":"目黒区","address":"東京都目黒区八雲1-1","lat":35.620566,"lon":139.670911},{"name":"都立林試の森公園","province":"東京都","city":"目黒区","address":"東京都目黒区下目黒5-37","lat":35.625388,"lon":139.705384},{"name":"蛇崩川緑道1","province":"東京都","city":"目黒区","address":"東京都目黒区上目黒1丁目23-1","lat":35.64438,"lon":139.69969},{"name":"蛇崩川緑道2","province":"東京都","city":"目黒区","address":"東京都目黒区上目黒2丁目1-1","lat":35.643565,"lon":139.698846},{"name":"蛇崩川緑道3","province":"東京都","city":"目黒区","address":"東京都目黒区上目黒2丁目46","lat":35.641975,"lon":139.695809},{"name":"蛇崩川支流緑道","province":"東京都","city":"目黒区","address":"東京都目黒区上目黒4丁目23","lat":35.642315,"lon":139.69056},{"name":"羅漢寺川緑道","province":"東京都","city":"目黒区","address":"東京都目黒区目黒本町1丁目7","lat":35.625642,"lon":139.698319},{"name":"八雲給水所","province":"東京都","city":"目黒区","address":"東京都目黒区八雲1-1","lat":35.620566,"lon":139.670911},{"name":"都立林試の森公園","province":"東京都","city":"目黒区","address":"東京都目黒区下目黒5-37","lat":35.625388,"lon":139.705384},{"name":"蛇崩川緑道1","province":"東京都","city":"目黒区","address":"東京都目黒区上目黒1丁目23-1","lat":35.64438,"lon":139.69969},{"name":"蛇崩川緑道2","province":"東京都","city":"目黒区","address":"東京都目黒区上目黒2丁目1-1","lat":35.643565,"lon":139.698846},{"name":"蛇崩川緑道3","province":"東京都","city":"目黒区","address":"東京都目黒区上目黒2丁目46","lat":35.641975,"lon":139.695809},{"name":"蛇崩川支流緑道","province":"東京都","city":"目黒区","address":"東京都目黒区上目黒4丁目23","lat":35.642315,"lon":139.69056},{"name":"羅漢寺川緑道","province":"東京都","city":"目黒区","address":"東京都目黒区目黒本町1丁目7","lat":35.625642,"lon":139.698319},{"name":"八雲給水所","province":"東京都","city":"目黒区","address":"東京都目黒区八雲1-1","lat":35.620566,"lon":139.670911},{"name":"都立林試の森公園","province":"東京都","city":"目黒区","address":"東京都目黒区下目黒5-37","lat":35.625388,"lon":139.705384},{"name":"蛇崩川緑道1","province":"東京都","city":"目黒区","address":"東京都目黒区上目黒1丁目23-1","lat":35.64438,"lon":139.69969},{"name":"蛇崩川緑道2","province":"東京都","city":"目黒区","address":"東京都目黒区上目黒2丁目1-1","lat":35.643565,"lon":139.698846},{"name":"蛇崩川緑道3","province":"東京都","city":"目黒区","address":"東京都目黒区上目黒2丁目46","lat":35.641975,"lon":139.695809},{"name":"蛇崩川支流緑道","province":"東京都","city":"目黒区","address":"東京都目黒区上目黒4丁目23","lat":35.642315,"lon":139.69056},{"name":"羅漢寺川緑道","province":"東京都","city":"目黒区","address":"東京都目黒区目黒本町1丁目7","lat":35.625642,"lon":139.698319},{"name":"八雲給水所","province":"東京都","city":"目黒区","address":"東京都目黒区八雲1-1","lat":35.620566,"lon":139.670911},{"name":"都立林試の森公園","province":"東京都","city":"目黒区","address":"東京都目黒区下目黒5-37","lat":35.625388,"lon":139.705384},{"name":"蛇崩川緑道1","province":"東京都","city":"目黒区","address":"東京都目黒区上目黒1丁目23-1","lat":35.64438,"lon":139.69969},{"name":"蛇崩川緑道2","province":"東京都","city":"目黒区","address":"東京都目黒区上目黒2丁目1-1","lat":35.643565,"lon":139.698846},{"name":"蛇崩川緑道3","province":"東京都","city":"目黒区","address":"東京都目黒区上目黒2丁目46","lat":35.641975,"lon":139.695809},{"name":"蛇崩川支流緑道","province":"東京都","city":"目黒区","address":"東京都目黒区上目黒4丁目23","lat":35.642315,"lon":139.69056},{"name":"羅漢寺川緑道","province":"東京都","city":"目黒区","address":"東京都目黒区目黒本町1丁目7","lat":35.625642,"lon":139.698319}]}