{"keyword":"密着","data":[{"name":"有限会社　はぎ介護センター","province":"東京都","city":"目黒区","address":"東京都目黒区目黒二丁目8番10号","lat":35.633519083,"lon":139.709916458},{"name":"やさしい手学芸大学　定期巡回・随時対応型訪問介護看護事業所","province":"東京都","city":"目黒区","address":"東京都目黒区碑文谷五丁目20番1号","lat":35.624546619,"lon":139.682451347},{"name":"やさしい手学芸大学　定期巡回・随時対応型訪問介護看護事業所サテライト自由が丘","province":"東京都","city":"目黒区","address":"東京都目黒区自由が丘二丁目11番10号","lat":35.607330483,"lon":139.667465908},{"name":"SOMPOケア在宅老人ホーム目黒定期巡回","province":"東京都","city":"目黒区","address":"東京都目黒区柿の木坂二丁目30番15号","lat":35.626288044,"lon":139.67231925},{"name":"SOMPOケア在宅老人ホーム目黒夜間訪問介護","province":"東京都","city":"目黒区","address":"東京都目黒区柿の木坂二丁目30番15号","lat":35.626288044,"lon":139.67231925},{"name":"東山デイホームいちょう","province":"東京都","city":"目黒区","address":"東京都目黒区東山三丁目24番6号","lat":35.647529733,"lon":139.685851803},{"name":"田道地域密着型デイサービス","province":"東京都","city":"目黒区","address":"東京都目黒区目黒一丁目25番26号","lat":35.636790958,"lon":139.707874383},{"name":"こぶしえん","province":"東京都","city":"目黒区","address":"東京都目黒区下目黒六丁目18番2号","lat":35.6288639,"lon":139.697255603},{"name":"グループホームひかり目黒","province":"東京都","city":"目黒区","address":"東京都目黒区平町二丁目15番20号","lat":35.615157983,"lon":139.679913725},{"name":"東が丘デイホームしいの木","province":"東京都","city":"目黒区","address":"東京都目黒区東が丘一丁目6番4号","lat":35.626490786,"lon":139.670985903},{"name":"東山多機能ホームけやき","province":"東京都","city":"目黒区","address":"東京都目黒区東山三丁目24番6号","lat":35.647529733,"lon":139.685851803},{"name":"田道小規模多機能型居宅介護事業所","province":"東京都","city":"目黒区","address":"東京都目黒区目黒一丁目25番26号","lat":35.636790958,"lon":139.707874383},{"name":"優っくり小規模多機能介護目黒中央","province":"東京都","city":"目黒区","address":"東京都目黒区中央町二丁目32番23号","lat":35.630871064,"lon":139.688117419},{"name":"ニチイケアセンター目黒本町","province":"東京都","city":"目黒区","address":"東京都目黒区目黒本町二丁目17番1号","lat":35.626374333,"lon":139.69119335},{"name":"小規模多機能鷹番あやめ","province":"東京都","city":"目黒区","address":"東京都目黒区鷹番二丁目6番8号","lat":35.627016539,"lon":139.688944147},{"name":"東が丘多機能ホームあすなろ","province":"東京都","city":"目黒区","address":"東京都目黒区東が丘一丁目6番4号","lat":35.626490786,"lon":139.670985903},{"name":"看多機かえりえ大橋","province":"東京都","city":"目黒区","address":"東京都目黒区大橋二丁目16番38号","lat":35.653358947,"lon":139.686619083},{"name":"グループホームきらら目黒青葉台","province":"東京都","city":"目黒区","address":"東京都目黒区青葉台三丁目15番17号","lat":35.650394817,"lon":139.691724089},{"name":"グループホームこまば","province":"東京都","city":"目黒区","address":"東京都目黒区大橋二丁目19番1号","lat":35.655602078,"lon":139.682445467},{"name":"上目黒つどいの家","province":"東京都","city":"目黒区","address":"東京都目黒区上目黒四丁目11番2号","lat":35.640592731,"lon":139.693159336},{"name":"グループホームかがやき目黒","province":"東京都","city":"目黒区","address":"東京都目黒区目黒四丁目17番18号","lat":35.633664256,"lon":139.700720364},{"name":"グループホームあいある下目黒","province":"東京都","city":"目黒区","address":"東京都目黒区下目黒六丁目3番11号","lat":35.628487219,"lon":139.699595019},{"name":"グループホームかたくりの里目黒","province":"東京都","city":"目黒区","address":"東京都目黒区目黒本町五丁目21番2号","lat":35.619667636,"lon":139.699901283},{"name":"グループホームソラスト碑文谷","province":"東京都","city":"目黒区","address":"東京都目黒区碑文谷二丁目8番2号","lat":35.623060872,"lon":139.688798886},{"name":"グループホーム鷹番あやめ","province":"東京都","city":"目黒区","address":"東京都目黒区鷹番二丁目6番8号","lat":35.627016539,"lon":139.688944147},{"name":"ニチイケアセンター都立大学","province":"東京都","city":"目黒区","address":"東京都目黒区平町一丁目10番15号","lat":35.618549878,"lon":139.679608172},{"name":"グループホームひかり　目黒","province":"東京都","city":"目黒区","address":"東京都目黒区平町二丁目15番20号","lat":35.615157983,"lon":139.679913725},{"name":"グループホームめぐろ別荘","province":"東京都","city":"目黒区","address":"東京都目黒区緑が丘三丁目10番25号","lat":35.601890822,"lon":139.680332411},{"name":"グループホームみんなの家　目黒","province":"東京都","city":"目黒区","address":"東京都目黒区中根一丁目10番22号","lat":35.615456072,"lon":139.673212917},{"name":"グループホームたのしい家目黒東が丘","province":"東京都","city":"目黒区","address":"東京都目黒区東が丘一丁目29番4号","lat":35.630576214,"lon":139.667206719},{"name":"新駒場ビレッジ","province":"東京都","city":"目黒区","address":"東京都目黒区駒場一丁目24番2号","lat":35.656399317,"lon":139.685933731},{"name":"グリーンデイ　駒場","province":"東京都","city":"目黒区","address":"東京都目黒区駒場三丁目5番9号","lat":35.657613736,"lon":139.687708369},{"name":"デイサービス　ヨウコー中目黒","province":"東京都","city":"目黒区","address":"東京都目黒区中目黒三丁目23番16号","lat":35.638617828,"lon":139.697851464},{"name":"レコードブック祐天寺","province":"東京都","city":"目黒区","address":"東京都目黒区中目黒五丁目24番24号","lat":35.6352356,"lon":139.696604464},{"name":"レコードブック目黒","province":"東京都","city":"目黒区","address":"東京都目黒区目黒二丁目10番8号","lat":35.633207639,"lon":139.709100839},{"name":"ブリッジライフ不動前","province":"東京都","city":"目黒区","address":"東京都目黒区下目黒四丁目18番5号","lat":35.628366208,"lon":139.706988264},{"name":"デイサービスクローバー学芸大学","province":"東京都","city":"目黒区","address":"東京都目黒区中町一丁目25番22号","lat":35.629584047,"lon":139.697490925},{"name":"デイサービス　ル・クール","province":"東京都","city":"目黒区","address":"東京都目黒区五本木一丁目16番9号","lat":35.638195978,"lon":139.688160294},{"name":"デイサービスクローバー学芸大学別邸","province":"東京都","city":"目黒区","address":"東京都目黒区中央町一丁目3番2号","lat":35.629728522,"lon":139.694535803},{"name":"リハビリデイサービスnagomi目黒中央町店","province":"東京都","city":"目黒区","address":"東京都目黒区中央町一丁目19番14号","lat":35.628202425,"lon":139.690807803},{"name":"リハビリフィットネス　ゆずりは学芸大学","province":"東京都","city":"目黒区","address":"東京都目黒区中央町二丁目7番5号","lat":35.630808442,"lon":139.693247669},{"name":"生羅　通所介護所　学芸大学","province":"東京都","city":"目黒区","address":"東京都目黒区中央町二丁目16番3号","lat":35.632968461,"lon":139.689279981},{"name":"早稲田イーライフ目黒本町","province":"東京都","city":"目黒区","address":"東京都目黒区目黒本町一丁目1番22号","lat":35.628342894,"lon":139.696045675},{"name":"めぐろリハビリセンター","province":"東京都","city":"目黒区","address":"東京都目黒区目黒本町二丁目16番14号","lat":35.626140039,"lon":139.691392394},{"name":"デイサービスセンターはづき","province":"東京都","city":"目黒区","address":"東京都目黒区目黒本町二丁目16番14号","lat":35.626140039,"lon":139.691392394},{"name":"ブリッジライフ武蔵小山","province":"東京都","city":"目黒区","address":"東京都目黒区目黒本町三丁目18番6号","lat":35.623796597,"lon":139.698913086},{"name":"カインドケア　デイサービス　武蔵小山","province":"東京都","city":"目黒区","address":"東京都目黒区目黒本町四丁目16番16号","lat":35.621866444,"lon":139.694593289},{"name":"B&Bスタジオ目黒本町","province":"東京都","city":"目黒区","address":"東京都目黒区目黒本町五丁目16番17号","lat":35.622211542,"lon":139.699453089},{"name":"西小山診療所","province":"東京都","city":"目黒区","address":"東京都目黒区目黒本町六丁目6番8号","lat":35.618470644,"lon":139.696861922},{"name":"レコードブック碑文谷","province":"東京都","city":"目黒区","address":"東京都目黒区目黒本町六丁目9番15号","lat":35.620186322,"lon":139.695585997},{"name":"グリーンデイ　西小山","province":"東京都","city":"目黒区","address":"東京都目黒区原町一丁目6番2号","lat":35.616623967,"lon":139.698388492},{"name":"ぽじえじステーション西小山","province":"東京都","city":"目黒区","address":"東京都目黒区原町一丁目12番12号","lat":35.615565628,"lon":139.696508886},{"name":"半日型デイサービス　ふろりは目黒","province":"東京都","city":"目黒区","address":"東京都目黒区原町二丁目10番9号","lat":35.616712708,"lon":139.691908572},{"name":"デイサービススマイル","province":"東京都","city":"目黒区","address":"東京都目黒区洗足二丁目7番19号","lat":35.611793481,"lon":139.693350842},{"name":"グリーンデイ　碑文谷","province":"東京都","city":"目黒区","address":"東京都目黒区碑文谷二丁目5番19号","lat":35.622785719,"lon":139.689094744},{"name":"いきいき・がくだい","province":"東京都","city":"目黒区","address":"東京都目黒区碑文谷五丁目12番1号","lat":35.624036592,"lon":139.682876664},{"name":"グリーン・レーベル　学芸大学","province":"東京都","city":"目黒区","address":"東京都目黒区碑文谷六丁目1番22号","lat":35.627170981,"lon":139.684775822},{"name":"ソフィアデイサービス学大","province":"東京都","city":"目黒区","address":"東京都目黒区鷹番一丁目2番6号","lat":35.626317478,"lon":139.690441219},{"name":"ソラノイロ","province":"東京都","city":"目黒区","address":"東京都目黒区鷹番二丁目2番5号","lat":35.629580711,"lon":139.689526589},{"name":"あいがある　デイサービスセンター都立大学","province":"東京都","city":"目黒区","address":"東京都目黒区平町二丁目22番8号","lat":35.614346478,"lon":139.679111517},{"name":"大岡山運動教室","province":"東京都","city":"目黒区","address":"東京都目黒区大岡山一丁目4番3号","lat":35.611120425,"lon":139.684470867},{"name":"生羅　通所介護所　都立大学","province":"東京都","city":"目黒区","address":"東京都目黒区大岡山一丁目29番33号","lat":35.613216131,"lon":139.680236119},{"name":"B&B（ビーアンドビー）スタジオ　緑が丘","province":"東京都","city":"目黒区","address":"東京都目黒区緑が丘一丁目23番6号","lat":35.607537733,"lon":139.678114342},{"name":"リハビリデイサービス　すずらん","province":"東京都","city":"目黒区","address":"東京都目黒区自由が丘一丁目20番21号","lat":35.613756033,"lon":139.669457367},{"name":"早稲田イーライフ柿の木坂","province":"東京都","city":"目黒区","address":"東京都目黒区柿の木坂三丁目1番7号","lat":35.629122961,"lon":139.673281064},{"name":"都立大学ビレッジ","province":"東京都","city":"目黒区","address":"東京都目黒区八雲三丁目3番11号","lat":35.618844472,"lon":139.66640845}]}