{"keyword":"戸数","data":[{"name":"目黒区社会福祉協議会","province":"東京都","city":"目黒区","address":"目黒区上目黒2-19-15目黒総合庁舎別館1-3階","lat":35.641262,"lon":139.69859},{"name":"目黒区","province":"東京都","city":"目黒区","address":"目黒区上目黒2-19-15","lat":35.6412631,"lon":139.6985906},{"name":"株式会社　あおば葬祭","province":"東京都","city":"目黒区","address":"東京都目黒区下目黒5丁目7-1","lat":35.62943615,"lon":139.70472908},{"name":"勝山葬祭　株式会社","province":"東京都","city":"目黒区","address":"東京都目黒区洗足2丁目21-17","lat":35.61003269,"lon":139.69382229},{"name":"葬祭総合センター　株式会社　門脇","province":"東京都","city":"目黒区","address":"東京都目黒区目黒本町4丁目14-14","lat":35.62328667,"lon":139.69439958},{"name":"株式会社　式典","province":"東京都","city":"目黒区","address":"東京都目黒区平町1丁目26-20","lat":35.61782019,"lon":139.6768262},{"name":"すみやセレモニー　株式会社","province":"東京都","city":"目黒区","address":"東京都目黒区祐天寺2丁目10-3","lat":35.63682115,"lon":139.69230491},{"name":"東京式典　株式会社","province":"東京都","city":"目黒区","address":"東京都目黒区鷹番3丁目8-6","lat":35.62931629,"lon":139.68532237},{"name":"株式会社　花会","province":"東京都","city":"目黒区","address":"東京都目黒区碑文谷1丁目5-1","lat":35.61927878,"lon":139.69272762},{"name":"有限会社　花心","province":"東京都","city":"目黒区","address":"東京都目黒区柿の木坂1丁目34-15","lat":35.62170576,"lon":139.67397075},{"name":"有限会社　横山葬祭","province":"東京都","city":"目黒区","address":"東京都目黒区五本木2丁目20-3","lat":35.63450191,"lon":139.68991628},{"name":"有限会社　吉田葬儀社","province":"東京都","city":"目黒区","address":"東京都目黒区原町1丁目12-6","lat":35.61546269,"lon":139.69711628},{"name":"目黒区社会福祉協議会","province":"東京都","city":"目黒区","address":"目黒区上目黒2-19-15目黒総合庁舎別館1、3階","lat":35.64108,"lon":139.69838},{"name":"北部包括支援センター","province":"東京都","city":"目黒区","address":"目黒区大橋1-51-1クロスエアタワー9階","lat":35.652462,"lon":139.68924},{"name":"東部包括支援センター","province":"東京都","city":"目黒区","address":"目黒区上目黒2-19-15総合庁舎内","lat":35.640465,"lon":139.6987},{"name":"中央包括支援センター","province":"東京都","city":"目黒区","address":"目黒区中央町2-9-13食販ビル2階","lat":35.631126,"lon":139.692123},{"name":"南部包括支援センター","province":"東京都","city":"目黒区","address":"目黒区碑文谷1-18-14碑小学校内南西側","lat":35.618874,"lon":139.690491},{"name":"西部包括支援センター","province":"東京都","city":"目黒区","address":"目黒区柿の木坂1-28-10","lat":35.619823,"lon":139.675735},{"name":"青葉台さくら苑在宅介護支援センター","province":"東京都","city":"目黒区","address":"目黒区青葉台3-21-6青葉台さくら苑内","lat":35.649391,"lon":139.692413},{"name":"清徳会在宅介護支援センター","province":"東京都","city":"目黒区","address":"目黒区目黒本町4-2-1清徳苑内","lat":35.623085,"lon":139.698441},{"name":"目黒区大橋在宅介護支援センター","province":"東京都","city":"目黒区","address":"目黒区大橋2-16-1坂本ビル1階","lat":35.653767,"lon":139.68718},{"name":"目黒区下目黒在宅介護支援センター","province":"東京都","city":"目黒区","address":"目黒区下目黒2-21-16-101","lat":35.634972,"lon":139.709427},{"name":"目黒区日扇会在宅介護支援センター","province":"東京都","city":"目黒区","address":"目黒区中根2-13-18文保堂ビル2階","lat":35.635044,"lon":139.707016},{"name":"東京共済病院在宅介護支援センター","province":"東京都","city":"目黒区","address":"目黒区中目黒2-3-8東京共済病院内","lat":35.641899,"lon":139.703857},{"name":"日本補助犬協会","province":"東京都","city":"目黒区","address":"目黒区下目黒6-3-20-1","lat":35.628853,"lon":139.700618},{"name":"独立行政法人国立病院機構東京医療センター","province":"東京都","city":"目黒区","address":"東京都目黒区東が丘2丁目5-1","lat":35.62656333,"lon":139.66598239},{"name":"八雲給水所","province":"東京都","city":"目黒区","address":"東京都目黒区八雲1丁目1","lat":35.62130575,"lon":139.67178483},{"name":"都立林試の森公園","province":"東京都","city":"目黒区","address":"東京都目黒区下目黒5丁目37","lat":35.62487834,"lon":139.70415426},{"name":"都立桜修館中等教育学校","province":"東京都","city":"目黒区","address":"東京都目黒区八雲1丁目1-2","lat":35.62118352,"lon":139.67099324},{"name":"目黒区立碑文谷公園（旧第一勧業銀行グラウンド）","province":"東京都","city":"目黒区","address":"東京都目黒区碑文谷6丁目12-43","lat":35.62721368,"lon":139.68206437},{"name":"東京大学陸上競技場","province":"東京都","city":"目黒区","address":"東京都目黒区駒場3丁目8-1","lat":35.65931564,"lon":139.68524362},{"name":"駒沢オリンピック公園陸上競技場","province":"東京都","city":"目黒区","address":"東京都目黒区東が丘2丁目","lat":35.6300629,"lon":139.66396858},{"name":"池尻大橋","province":"東京都","city":"目黒区","address":"東京都目黒区大橋1-12-13","lat":35.651403,"lon":139.686405},{"name":"学芸大学駅前","province":"東京都","city":"目黒区","address":"東京都目黒区鷹番3-6-1","lat":35.629108,"lon":139.685463},{"name":"自由が丘駅前","province":"東京都","city":"目黒区","address":"東京都目黒区自由が丘1-30-1","lat":35.607583,"lon":139.668505},{"name":"旧前田家本邸（和館）","province":"東京都","city":"目黒区","address":"東京都目黒区駒場4-3-55","lat":35.662344,"lon":139.680753},{"name":"目黒区総合庁舎","province":"東京都","city":"目黒区","address":"東京都目黒区上目黒2-19-15","lat":35.641612,"lon":139.698392},{"name":"めぐろ観光まちづくり協会","province":"東京都","city":"目黒区","address":"東京都目黒区上目黒2-1-3","lat":35.643291,"lon":139.698767},{"name":"中目黒駅前","province":"東京都","city":"目黒区","address":"東京都目黒区上目黒3-4-1","lat":35.644203,"lon":139.698871},{"name":"都立大学駅前","province":"東京都","city":"目黒区","address":"東京都目黒区中根1-5-1","lat":35.617506,"lon":139.676137},{"name":"駒場東大駅前","province":"東京都","city":"目黒区","address":"東京都目黒区駒場3-9","lat":35.659041,"lon":139.68285},{"name":"緑が丘駅前","province":"東京都","city":"目黒区","address":"東京都目黒区緑が丘3-2-2","lat":35.606444,"lon":139.67895},{"name":"洗足駅前","province":"東京都","city":"目黒区","address":"東京都目黒区洗足2-21-1","lat":35.610276,"lon":139.694212},{"name":"東京音楽大学前","province":"東京都","city":"目黒区","address":"東京都目黒区上目黒1-9-1","lat":35.646597,"lon":139.699557},{"name":"目黒区選挙管理委員会","province":"東京都","city":"目黒区","address":"目黒区上目黒2-19-15","lat":35.64139,"lon":139.698105},{"name":"駒場高等学校","province":"東京都","city":"目黒区","address":"東京都目黒区大橋2丁目18-1","lat":35.65488281,"lon":139.68564374},{"name":"桜修館中等教育学校","province":"東京都","city":"目黒区","address":"東京都目黒区八雲1丁目1-2","lat":35.62118352,"lon":139.67099324},{"name":"目黒高等学校","province":"東京都","city":"目黒区","address":"東京都目黒区祐天寺2丁目7-15","lat":35.63692675,"lon":139.69461583},{"name":"国際高等学校","province":"東京都","city":"目黒区","address":"東京都目黒区駒場2丁目19-59","lat":35.65929326,"lon":139.67889139},{"name":"目黒区","province":"東京都","city":"目黒区","address":"目黒区鷹番1-7-11","lat":35.6263,"lon":139.6886},{"name":"アルフレッサ（株）目黒医薬品センター","province":"東京都","city":"目黒区","address":"目黒区目黒本町2-18-16","lat":35.62508,"lon":139.6904},{"name":"ＮＴＴコミュニケーションズ（株）唐ヶ崎ビル","province":"東京都","city":"目黒区","address":"目黒区中央町1-11-7","lat":35.6277,"lon":139.6917},{"name":"目黒区社会福祉協議会","province":"東京都","city":"目黒区","address":"目黒区上目黒2-19-15目黒総合庁舎別館1-3階","lat":35.641262,"lon":139.69859},{"name":"目黒区社会福祉協議会","province":"東京都","city":"目黒区","address":"目黒区上目黒2-19-15目黒総合庁舎別館1、3階","lat":35.64108,"lon":139.69838},{"name":"北部包括支援センター","province":"東京都","city":"目黒区","address":"目黒区大橋1-51-1クロスエアタワー9階","lat":35.652462,"lon":139.68924},{"name":"東部包括支援センター","province":"東京都","city":"目黒区","address":"目黒区上目黒2-19-15総合庁舎内","lat":35.640465,"lon":139.6987},{"name":"中央包括支援センター","province":"東京都","city":"目黒区","address":"目黒区中央町2-9-13食販ビル2階","lat":35.631126,"lon":139.692123},{"name":"南部包括支援センター","province":"東京都","city":"目黒区","address":"目黒区碑文谷1-18-14碑小学校内南西側","lat":35.618874,"lon":139.690491},{"name":"西部包括支援センター","province":"東京都","city":"目黒区","address":"目黒区柿の木坂1-28-10","lat":35.619823,"lon":139.675735},{"name":"青葉台さくら苑在宅介護支援センター","province":"東京都","city":"目黒区","address":"目黒区青葉台3-21-6青葉台さくら苑内","lat":35.649391,"lon":139.692413},{"name":"清徳会在宅介護支援センター","province":"東京都","city":"目黒区","address":"目黒区目黒本町4-2-1清徳苑内","lat":35.623085,"lon":139.698441},{"name":"目黒区大橋在宅介護支援センター","province":"東京都","city":"目黒区","address":"目黒区大橋2-16-1坂本ビル1階","lat":35.653767,"lon":139.68718},{"name":"目黒区下目黒在宅介護支援センター","province":"東京都","city":"目黒区","address":"目黒区下目黒2-21-16-101","lat":35.634972,"lon":139.709427},{"name":"目黒区日扇会在宅介護支援センター","province":"東京都","city":"目黒区","address":"目黒区中根2-13-18文保堂ビル2階","lat":35.635044,"lon":139.707016},{"name":"東京共済病院在宅介護支援センター","province":"東京都","city":"目黒区","address":"目黒区中目黒2-3-8東京共済病院内","lat":35.641899,"lon":139.703857},{"name":"日本補助犬協会","province":"東京都","city":"目黒区","address":"目黒区下目黒6-3-20-1","lat":35.628853,"lon":139.700618},{"name":"独立行政法人国立病院機構東京医療センター","province":"東京都","city":"目黒区","address":"東京都目黒区東が丘2丁目5-1","lat":35.62656333,"lon":139.66598239},{"name":"八雲給水所","province":"東京都","city":"目黒区","address":"東京都目黒区八雲1丁目1","lat":35.62130575,"lon":139.67178483},{"name":"都立林試の森公園","province":"東京都","city":"目黒区","address":"東京都目黒区下目黒5丁目37","lat":35.62487834,"lon":139.70415426},{"name":"都立桜修館中等教育学校","province":"東京都","city":"目黒区","address":"東京都目黒区八雲1丁目1-2","lat":35.62118352,"lon":139.67099324},{"name":"目黒区立碑文谷公園（旧第一勧業銀行グラウンド）","province":"東京都","city":"目黒区","address":"東京都目黒区碑文谷6丁目12-43","lat":35.62721368,"lon":139.68206437},{"name":"東京大学陸上競技場","province":"東京都","city":"目黒区","address":"東京都目黒区駒場3丁目8-1","lat":35.65931564,"lon":139.68524362},{"name":"駒沢オリンピック公園陸上競技場","province":"東京都","city":"目黒区","address":"東京都目黒区東が丘2丁目","lat":35.6300629,"lon":139.66396858},{"name":"池尻大橋","province":"東京都","city":"目黒区","address":"東京都目黒区大橋1-12-13","lat":35.651403,"lon":139.686405},{"name":"学芸大学駅前","province":"東京都","city":"目黒区","address":"東京都目黒区鷹番3-6-1","lat":35.629108,"lon":139.685463},{"name":"自由が丘駅前","province":"東京都","city":"目黒区","address":"東京都目黒区自由が丘1-30-1","lat":35.607583,"lon":139.668505},{"name":"旧前田家本邸（和館）","province":"東京都","city":"目黒区","address":"東京都目黒区駒場4-3-55","lat":35.662344,"lon":139.680753},{"name":"目黒区総合庁舎","province":"東京都","city":"目黒区","address":"東京都目黒区上目黒2-19-15","lat":35.641612,"lon":139.698392},{"name":"めぐろ観光まちづくり協会","province":"東京都","city":"目黒区","address":"東京都目黒区上目黒2-1-3","lat":35.643291,"lon":139.698767},{"name":"中目黒駅前","province":"東京都","city":"目黒区","address":"東京都目黒区上目黒3-4-1","lat":35.644203,"lon":139.698871},{"name":"都立大学駅前","province":"東京都","city":"目黒区","address":"東京都目黒区中根1-5-1","lat":35.617506,"lon":139.676137},{"name":"駒場東大駅前","province":"東京都","city":"目黒区","address":"東京都目黒区駒場3-9","lat":35.659041,"lon":139.68285},{"name":"緑が丘駅前","province":"東京都","city":"目黒区","address":"東京都目黒区緑が丘3-2-2","lat":35.606444,"lon":139.67895},{"name":"洗足駅前","province":"東京都","city":"目黒区","address":"東京都目黒区洗足2-21-1","lat":35.610276,"lon":139.694212},{"name":"東京音楽大学前","province":"東京都","city":"目黒区","address":"東京都目黒区上目黒1-9-1","lat":35.646597,"lon":139.699557},{"name":"駒場高等学校","province":"東京都","city":"目黒区","address":"東京都目黒区大橋2丁目18-1","lat":35.65488281,"lon":139.68564374},{"name":"桜修館中等教育学校","province":"東京都","city":"目黒区","address":"東京都目黒区八雲1丁目1-2","lat":35.62118352,"lon":139.67099324},{"name":"目黒高等学校","province":"東京都","city":"目黒区","address":"東京都目黒区祐天寺2丁目7-15","lat":35.63692675,"lon":139.69461583},{"name":"国際高等学校","province":"東京都","city":"目黒区","address":"東京都目黒区駒場2丁目19-59","lat":35.65929326,"lon":139.67889139},{"name":"目黒区","province":"東京都","city":"目黒区","address":"目黒区鷹番1-7-11","lat":35.6263,"lon":139.6886},{"name":"アルフレッサ（株）目黒医薬品センター","province":"東京都","city":"目黒区","address":"目黒区目黒本町2-18-16","lat":35.62508,"lon":139.6904},{"name":"ＮＴＴコミュニケーションズ（株）唐ヶ崎ビル","province":"東京都","city":"目黒区","address":"目黒区中央町1-11-7","lat":35.6277,"lon":139.6917},{"name":"北部包括支援センター","province":"東京都","city":"目黒区","address":"目黒区大橋1-51-1クロスエアタワー9階","lat":35.652462,"lon":139.68924},{"name":"東部包括支援センター","province":"東京都","city":"目黒区","address":"目黒区上目黒2-19-15総合庁舎内","lat":35.640465,"lon":139.6987},{"name":"中央包括支援センター","province":"東京都","city":"目黒区","address":"目黒区中央町2-9-13食販ビル2階","lat":35.631126,"lon":139.692123},{"name":"南部包括支援センター","province":"東京都","city":"目黒区","address":"目黒区碑文谷1-18-14碑小学校内南西側","lat":35.618874,"lon":139.690491},{"name":"西部包括支援センター","province":"東京都","city":"目黒区","address":"目黒区柿の木坂1-28-10","lat":35.619823,"lon":139.675735},{"name":"青葉台さくら苑在宅介護支援センター","province":"東京都","city":"目黒区","address":"目黒区青葉台3-21-6青葉台さくら苑内","lat":35.649391,"lon":139.692413},{"name":"清徳会在宅介護支援センター","province":"東京都","city":"目黒区","address":"目黒区目黒本町4-2-1清徳苑内","lat":35.623085,"lon":139.698441},{"name":"目黒区大橋在宅介護支援センター","province":"東京都","city":"目黒区","address":"目黒区大橋2-16-1坂本ビル1階","lat":35.653767,"lon":139.68718},{"name":"目黒区下目黒在宅介護支援センター","province":"東京都","city":"目黒区","address":"目黒区下目黒2-21-16-101","lat":35.634972,"lon":139.709427},{"name":"目黒区日扇会在宅介護支援センター","province":"東京都","city":"目黒区","address":"目黒区中根2-13-18文保堂ビル2階","lat":35.635044,"lon":139.707016},{"name":"東京共済病院在宅介護支援センター","province":"東京都","city":"目黒区","address":"目黒区中目黒2-3-8東京共済病院内","lat":35.641899,"lon":139.703857},{"name":"日本補助犬協会","province":"東京都","city":"目黒区","address":"目黒区下目黒6-3-20-1","lat":35.628853,"lon":139.700618},{"name":"独立行政法人国立病院機構東京医療センター","province":"東京都","city":"目黒区","address":"東京都目黒区東が丘2丁目5-1","lat":35.62656333,"lon":139.66598239},{"name":"池尻大橋","province":"東京都","city":"目黒区","address":"東京都目黒区大橋1-12-13","lat":35.651403,"lon":139.686405},{"name":"学芸大学駅前","province":"東京都","city":"目黒区","address":"東京都目黒区鷹番3-6-1","lat":35.629108,"lon":139.685463},{"name":"自由が丘駅前","province":"東京都","city":"目黒区","address":"東京都目黒区自由が丘1-30-1","lat":35.607583,"lon":139.668505},{"name":"旧前田家本邸（和館）","province":"東京都","city":"目黒区","address":"東京都目黒区駒場4-3-55","lat":35.662344,"lon":139.680753},{"name":"目黒区総合庁舎","province":"東京都","city":"目黒区","address":"東京都目黒区上目黒2-19-15","lat":35.641612,"lon":139.698392},{"name":"めぐろ観光まちづくり協会","province":"東京都","city":"目黒区","address":"東京都目黒区上目黒2-1-3","lat":35.643291,"lon":139.698767},{"name":"中目黒駅前","province":"東京都","city":"目黒区","address":"東京都目黒区上目黒3-4-1","lat":35.644203,"lon":139.698871},{"name":"都立大学駅前","province":"東京都","city":"目黒区","address":"東京都目黒区中根1-5-1","lat":35.617506,"lon":139.676137},{"name":"駒場東大駅前","province":"東京都","city":"目黒区","address":"東京都目黒区駒場3-9","lat":35.659041,"lon":139.68285},{"name":"緑が丘駅前","province":"東京都","city":"目黒区","address":"東京都目黒区緑が丘3-2-2","lat":35.606444,"lon":139.67895},{"name":"洗足駅前","province":"東京都","city":"目黒区","address":"東京都目黒区洗足2-21-1","lat":35.610276,"lon":139.694212},{"name":"東京音楽大学前","province":"東京都","city":"目黒区","address":"東京都目黒区上目黒1-9-1","lat":35.646597,"lon":139.699557},{"name":"駒場高等学校","province":"東京都","city":"目黒区","address":"東京都目黒区大橋2丁目18-1","lat":35.65488281,"lon":139.68564374},{"name":"桜修館中等教育学校","province":"東京都","city":"目黒区","address":"東京都目黒区八雲1丁目1-2","lat":35.62118352,"lon":139.67099324},{"name":"目黒高等学校","province":"東京都","city":"目黒区","address":"東京都目黒区祐天寺2丁目7-15","lat":35.63692675,"lon":139.69461583},{"name":"国際高等学校","province":"東京都","city":"目黒区","address":"東京都目黒区駒場2丁目19-59","lat":35.65929326,"lon":139.67889139},{"name":"北部包括支援センター","province":"東京都","city":"目黒区","address":"目黒区大橋1-51-1クロスエアタワー9階","lat":35.652462,"lon":139.68924},{"name":"東部包括支援センター","province":"東京都","city":"目黒区","address":"目黒区上目黒2-19-15総合庁舎内","lat":35.640465,"lon":139.6987},{"name":"中央包括支援センター","province":"東京都","city":"目黒区","address":"目黒区中央町2-9-13食販ビル2階","lat":35.631126,"lon":139.692123},{"name":"南部包括支援センター","province":"東京都","city":"目黒区","address":"目黒区碑文谷1-18-14碑小学校内南西側","lat":35.618874,"lon":139.690491},{"name":"西部包括支援センター","province":"東京都","city":"目黒区","address":"目黒区柿の木坂1-28-10","lat":35.619823,"lon":139.675735},{"name":"青葉台さくら苑在宅介護支援センター","province":"東京都","city":"目黒区","address":"目黒区青葉台3-21-6青葉台さくら苑内","lat":35.649391,"lon":139.692413},{"name":"清徳会在宅介護支援センター","province":"東京都","city":"目黒区","address":"目黒区目黒本町4-2-1清徳苑内","lat":35.623085,"lon":139.698441},{"name":"目黒区大橋在宅介護支援センター","province":"東京都","city":"目黒区","address":"目黒区大橋2-16-1坂本ビル1階","lat":35.653767,"lon":139.68718},{"name":"目黒区下目黒在宅介護支援センター","province":"東京都","city":"目黒区","address":"目黒区下目黒2-21-16-101","lat":35.634972,"lon":139.709427},{"name":"目黒区日扇会在宅介護支援センター","province":"東京都","city":"目黒区","address":"目黒区中根2-13-18文保堂ビル2階","lat":35.635044,"lon":139.707016},{"name":"東京共済病院在宅介護支援センター","province":"東京都","city":"目黒区","address":"目黒区中目黒2-3-8東京共済病院内","lat":35.641899,"lon":139.703857},{"name":"日本補助犬協会","province":"東京都","city":"目黒区","address":"目黒区下目黒6-3-20-1","lat":35.628853,"lon":139.700618},{"name":"独立行政法人国立病院機構東京医療センター","province":"東京都","city":"目黒区","address":"東京都目黒区東が丘2丁目5-1","lat":35.62656333,"lon":139.66598239},{"name":"池尻大橋","province":"東京都","city":"目黒区","address":"東京都目黒区大橋1-12-13","lat":35.651403,"lon":139.686405},{"name":"学芸大学駅前","province":"東京都","city":"目黒区","address":"東京都目黒区鷹番3-6-1","lat":35.629108,"lon":139.685463},{"name":"自由が丘駅前","province":"東京都","city":"目黒区","address":"東京都目黒区自由が丘1-30-1","lat":35.607583,"lon":139.668505},{"name":"旧前田家本邸（和館）","province":"東京都","city":"目黒区","address":"東京都目黒区駒場4-3-55","lat":35.662344,"lon":139.680753},{"name":"目黒区総合庁舎","province":"東京都","city":"目黒区","address":"東京都目黒区上目黒2-19-15","lat":35.641612,"lon":139.698392},{"name":"めぐろ観光まちづくり協会","province":"東京都","city":"目黒区","address":"東京都目黒区上目黒2-1-3","lat":35.643291,"lon":139.698767},{"name":"中目黒駅前","province":"東京都","city":"目黒区","address":"東京都目黒区上目黒3-4-1","lat":35.644203,"lon":139.698871},{"name":"都立大学駅前","province":"東京都","city":"目黒区","address":"東京都目黒区中根1-5-1","lat":35.617506,"lon":139.676137},{"name":"駒場東大駅前","province":"東京都","city":"目黒区","address":"東京都目黒区駒場3-9","lat":35.659041,"lon":139.68285},{"name":"緑が丘駅前","province":"東京都","city":"目黒区","address":"東京都目黒区緑が丘3-2-2","lat":35.606444,"lon":139.67895},{"name":"洗足駅前","province":"東京都","city":"目黒区","address":"東京都目黒区洗足2-21-1","lat":35.610276,"lon":139.694212},{"name":"東京音楽大学前","province":"東京都","city":"目黒区","address":"東京都目黒区上目黒1-9-1","lat":35.646597,"lon":139.699557},{"name":"駒場高等学校","province":"東京都","city":"目黒区","address":"東京都目黒区大橋2丁目18-1","lat":35.65488281,"lon":139.68564374},{"name":"桜修館中等教育学校","province":"東京都","city":"目黒区","address":"東京都目黒区八雲1丁目1-2","lat":35.62118352,"lon":139.67099324},{"name":"目黒高等学校","province":"東京都","city":"目黒区","address":"東京都目黒区祐天寺2丁目7-15","lat":35.63692675,"lon":139.69461583},{"name":"国際高等学校","province":"東京都","city":"目黒区","address":"東京都目黒区駒場2丁目19-59","lat":35.65929326,"lon":139.67889139},{"name":"北部包括支援センター","province":"東京都","city":"目黒区","address":"目黒区大橋1-51-1クロスエアタワー9階","lat":35.652462,"lon":139.68924},{"name":"東部包括支援センター","province":"東京都","city":"目黒区","address":"目黒区上目黒2-19-15総合庁舎内","lat":35.640465,"lon":139.6987},{"name":"中央包括支援センター","province":"東京都","city":"目黒区","address":"目黒区中央町2-9-13食販ビル2階","lat":35.631126,"lon":139.692123},{"name":"南部包括支援センター","province":"東京都","city":"目黒区","address":"目黒区碑文谷1-18-14碑小学校内南西側","lat":35.618874,"lon":139.690491},{"name":"西部包括支援センター","province":"東京都","city":"目黒区","address":"目黒区柿の木坂1-28-10","lat":35.619823,"lon":139.675735},{"name":"青葉台さくら苑在宅介護支援センター","province":"東京都","city":"目黒区","address":"目黒区青葉台3-21-6青葉台さくら苑内","lat":35.649391,"lon":139.692413},{"name":"清徳会在宅介護支援センター","province":"東京都","city":"目黒区","address":"目黒区目黒本町4-2-1清徳苑内","lat":35.623085,"lon":139.698441},{"name":"目黒区大橋在宅介護支援センター","province":"東京都","city":"目黒区","address":"目黒区大橋2-16-1坂本ビル1階","lat":35.653767,"lon":139.68718},{"name":"目黒区下目黒在宅介護支援センター","province":"東京都","city":"目黒区","address":"目黒区下目黒2-21-16-101","lat":35.634972,"lon":139.709427},{"name":"目黒区日扇会在宅介護支援センター","province":"東京都","city":"目黒区","address":"目黒区中根2-13-18文保堂ビル2階","lat":35.635044,"lon":139.707016},{"name":"東京共済病院在宅介護支援センター","province":"東京都","city":"目黒区","address":"目黒区中目黒2-3-8東京共済病院内","lat":35.641899,"lon":139.703857},{"name":"日本補助犬協会","province":"東京都","city":"目黒区","address":"目黒区下目黒6-3-20-1","lat":35.628853,"lon":139.700618},{"name":"池尻大橋","province":"東京都","city":"目黒区","address":"東京都目黒区大橋1-12-13","lat":35.651403,"lon":139.686405},{"name":"学芸大学駅前","province":"東京都","city":"目黒区","address":"東京都目黒区鷹番3-6-1","lat":35.629108,"lon":139.685463},{"name":"自由が丘駅前","province":"東京都","city":"目黒区","address":"東京都目黒区自由が丘1-30-1","lat":35.607583,"lon":139.668505},{"name":"旧前田家本邸（和館）","province":"東京都","city":"目黒区","address":"東京都目黒区駒場4-3-55","lat":35.662344,"lon":139.680753},{"name":"目黒区総合庁舎","province":"東京都","city":"目黒区","address":"東京都目黒区上目黒2-19-15","lat":35.641612,"lon":139.698392},{"name":"めぐろ観光まちづくり協会","province":"東京都","city":"目黒区","address":"東京都目黒区上目黒2-1-3","lat":35.643291,"lon":139.698767},{"name":"中目黒駅前","province":"東京都","city":"目黒区","address":"東京都目黒区上目黒3-4-1","lat":35.644203,"lon":139.698871},{"name":"都立大学駅前","province":"東京都","city":"目黒区","address":"東京都目黒区中根1-5-1","lat":35.617506,"lon":139.676137},{"name":"駒場東大駅前","province":"東京都","city":"目黒区","address":"東京都目黒区駒場3-9","lat":35.659041,"lon":139.68285},{"name":"緑が丘駅前","province":"東京都","city":"目黒区","address":"東京都目黒区緑が丘3-2-2","lat":35.606444,"lon":139.67895},{"name":"洗足駅前","province":"東京都","city":"目黒区","address":"東京都目黒区洗足2-21-1","lat":35.610276,"lon":139.694212},{"name":"東京音楽大学前","province":"東京都","city":"目黒区","address":"東京都目黒区上目黒1-9-1","lat":35.646597,"lon":139.699557},{"name":"北部包括支援センター","province":"東京都","city":"目黒区","address":"目黒区大橋1-51-1クロスエアタワー9階","lat":35.652462,"lon":139.68924},{"name":"東部包括支援センター","province":"東京都","city":"目黒区","address":"目黒区上目黒2-19-15総合庁舎内","lat":35.640465,"lon":139.6987},{"name":"中央包括支援センター","province":"東京都","city":"目黒区","address":"目黒区中央町2-9-13食販ビル2階","lat":35.631126,"lon":139.692123},{"name":"南部包括支援センター","province":"東京都","city":"目黒区","address":"目黒区碑文谷1-18-14碑小学校内南西側","lat":35.618874,"lon":139.690491},{"name":"西部包括支援センター","province":"東京都","city":"目黒区","address":"目黒区柿の木坂1-28-10","lat":35.619823,"lon":139.675735},{"name":"青葉台さくら苑在宅介護支援センター","province":"東京都","city":"目黒区","address":"目黒区青葉台3-21-6青葉台さくら苑内","lat":35.649391,"lon":139.692413},{"name":"清徳会在宅介護支援センター","province":"東京都","city":"目黒区","address":"目黒区目黒本町4-2-1清徳苑内","lat":35.623085,"lon":139.698441},{"name":"目黒区大橋在宅介護支援センター","province":"東京都","city":"目黒区","address":"目黒区大橋2-16-1坂本ビル1階","lat":35.653767,"lon":139.68718},{"name":"目黒区下目黒在宅介護支援センター","province":"東京都","city":"目黒区","address":"目黒区下目黒2-21-16-101","lat":35.634972,"lon":139.709427},{"name":"目黒区日扇会在宅介護支援センター","province":"東京都","city":"目黒区","address":"目黒区中根2-13-18文保堂ビル2階","lat":35.635044,"lon":139.707016},{"name":"東京共済病院在宅介護支援センター","province":"東京都","city":"目黒区","address":"目黒区中目黒2-3-8東京共済病院内","lat":35.641899,"lon":139.703857},{"name":"日本補助犬協会","province":"東京都","city":"目黒区","address":"目黒区下目黒6-3-20-1","lat":35.628853,"lon":139.700618},{"name":"池尻大橋","province":"東京都","city":"目黒区","address":"東京都目黒区大橋1-12-13","lat":35.651403,"lon":139.686405},{"name":"学芸大学駅前","province":"東京都","city":"目黒区","address":"東京都目黒区鷹番3-6-1","lat":35.629108,"lon":139.685463},{"name":"自由が丘駅前","province":"東京都","city":"目黒区","address":"東京都目黒区自由が丘1-30-1","lat":35.607583,"lon":139.668505},{"name":"旧前田家本邸（和館）","province":"東京都","city":"目黒区","address":"東京都目黒区駒場4-3-55","lat":35.662344,"lon":139.680753},{"name":"目黒区総合庁舎","province":"東京都","city":"目黒区","address":"東京都目黒区上目黒2-19-15","lat":35.641612,"lon":139.698392},{"name":"めぐろ観光まちづくり協会","province":"東京都","city":"目黒区","address":"東京都目黒区上目黒2-1-3","lat":35.643291,"lon":139.698767},{"name":"中目黒駅前","province":"東京都","city":"目黒区","address":"東京都目黒区上目黒3-4-1","lat":35.644203,"lon":139.698871},{"name":"都立大学駅前","province":"東京都","city":"目黒区","address":"東京都目黒区中根1-5-1","lat":35.617506,"lon":139.676137},{"name":"駒場東大駅前","province":"東京都","city":"目黒区","address":"東京都目黒区駒場3-9","lat":35.659041,"lon":139.68285},{"name":"緑が丘駅前","province":"東京都","city":"目黒区","address":"東京都目黒区緑が丘3-2-2","lat":35.606444,"lon":139.67895},{"name":"洗足駅前","province":"東京都","city":"目黒区","address":"東京都目黒区洗足2-21-1","lat":35.610276,"lon":139.694212},{"name":"東京音楽大学前","province":"東京都","city":"目黒区","address":"東京都目黒区上目黒1-9-1","lat":35.646597,"lon":139.699557},{"name":"北部包括支援センター","province":"東京都","city":"目黒区","address":"目黒区大橋1-51-1クロスエアタワー9階","lat":35.652462,"lon":139.68924},{"name":"東部包括支援センター","province":"東京都","city":"目黒区","address":"目黒区上目黒2-19-15総合庁舎内","lat":35.640465,"lon":139.6987},{"name":"中央包括支援センター","province":"東京都","city":"目黒区","address":"目黒区中央町2-9-13食販ビル2階","lat":35.631126,"lon":139.692123},{"name":"南部包括支援センター","province":"東京都","city":"目黒区","address":"目黒区碑文谷1-18-14碑小学校内南西側","lat":35.618874,"lon":139.690491},{"name":"西部包括支援センター","province":"東京都","city":"目黒区","address":"目黒区柿の木坂1-28-10","lat":35.619823,"lon":139.675735},{"name":"青葉台さくら苑在宅介護支援センター","province":"東京都","city":"目黒区","address":"目黒区青葉台3-21-6青葉台さくら苑内","lat":35.649391,"lon":139.692413},{"name":"清徳会在宅介護支援センター","province":"東京都","city":"目黒区","address":"目黒区目黒本町4-2-1清徳苑内","lat":35.623085,"lon":139.698441},{"name":"目黒区大橋在宅介護支援センター","province":"東京都","city":"目黒区","address":"目黒区大橋2-16-1坂本ビル1階","lat":35.653767,"lon":139.68718},{"name":"目黒区下目黒在宅介護支援センター","province":"東京都","city":"目黒区","address":"目黒区下目黒2-21-16-101","lat":35.634972,"lon":139.709427},{"name":"目黒区日扇会在宅介護支援センター","province":"東京都","city":"目黒区","address":"目黒区中根2-13-18文保堂ビル2階","lat":35.635044,"lon":139.707016},{"name":"東京共済病院在宅介護支援センター","province":"東京都","city":"目黒区","address":"目黒区中目黒2-3-8東京共済病院内","lat":35.641899,"lon":139.703857},{"name":"池尻大橋","province":"東京都","city":"目黒区","address":"東京都目黒区大橋1-12-13","lat":35.651403,"lon":139.686405},{"name":"学芸大学駅前","province":"東京都","city":"目黒区","address":"東京都目黒区鷹番3-6-1","lat":35.629108,"lon":139.685463},{"name":"自由が丘駅前","province":"東京都","city":"目黒区","address":"東京都目黒区自由が丘1-30-1","lat":35.607583,"lon":139.668505},{"name":"旧前田家本邸（和館）","province":"東京都","city":"目黒区","address":"東京都目黒区駒場4-3-55","lat":35.662344,"lon":139.680753},{"name":"目黒区総合庁舎","province":"東京都","city":"目黒区","address":"東京都目黒区上目黒2-19-15","lat":35.641612,"lon":139.698392},{"name":"めぐろ観光まちづくり協会","province":"東京都","city":"目黒区","address":"東京都目黒区上目黒2-1-3","lat":35.643291,"lon":139.698767},{"name":"中目黒駅前","province":"東京都","city":"目黒区","address":"東京都目黒区上目黒3-4-1","lat":35.644203,"lon":139.698871},{"name":"都立大学駅前","province":"東京都","city":"目黒区","address":"東京都目黒区中根1-5-1","lat":35.617506,"lon":139.676137},{"name":"駒場東大駅前","province":"東京都","city":"目黒区","address":"東京都目黒区駒場3-9","lat":35.659041,"lon":139.68285},{"name":"緑が丘駅前","province":"東京都","city":"目黒区","address":"東京都目黒区緑が丘3-2-2","lat":35.606444,"lon":139.67895},{"name":"洗足駅前","province":"東京都","city":"目黒区","address":"東京都目黒区洗足2-21-1","lat":35.610276,"lon":139.694212},{"name":"東京音楽大学前","province":"東京都","city":"目黒区","address":"東京都目黒区上目黒1-9-1","lat":35.646597,"lon":139.699557},{"name":"北部包括支援センター","province":"東京都","city":"目黒区","address":"目黒区大橋1-51-1クロスエアタワー9階","lat":35.652462,"lon":139.68924},{"name":"東部包括支援センター","province":"東京都","city":"目黒区","address":"目黒区上目黒2-19-15総合庁舎内","lat":35.640465,"lon":139.6987},{"name":"中央包括支援センター","province":"東京都","city":"目黒区","address":"目黒区中央町2-9-13食販ビル2階","lat":35.631126,"lon":139.692123},{"name":"南部包括支援センター","province":"東京都","city":"目黒区","address":"目黒区碑文谷1-18-14碑小学校内南西側","lat":35.618874,"lon":139.690491},{"name":"西部包括支援センター","province":"東京都","city":"目黒区","address":"目黒区柿の木坂1-28-10","lat":35.619823,"lon":139.675735},{"name":"青葉台さくら苑在宅介護支援センター","province":"東京都","city":"目黒区","address":"目黒区青葉台3-21-6青葉台さくら苑内","lat":35.649391,"lon":139.692413},{"name":"清徳会在宅介護支援センター","province":"東京都","city":"目黒区","address":"目黒区目黒本町4-2-1清徳苑内","lat":35.623085,"lon":139.698441},{"name":"目黒区大橋在宅介護支援センター","province":"東京都","city":"目黒区","address":"目黒区大橋2-16-1坂本ビル1階","lat":35.653767,"lon":139.68718},{"name":"目黒区下目黒在宅介護支援センター","province":"東京都","city":"目黒区","address":"目黒区下目黒2-21-16-101","lat":35.634972,"lon":139.709427},{"name":"目黒区日扇会在宅介護支援センター","province":"東京都","city":"目黒区","address":"目黒区中根2-13-18文保堂ビル2階","lat":35.635044,"lon":139.707016},{"name":"東京共済病院在宅介護支援センター","province":"東京都","city":"目黒区","address":"目黒区中目黒2-3-8東京共済病院内","lat":35.641899,"lon":139.703857},{"name":"池尻大橋","province":"東京都","city":"目黒区","address":"東京都目黒区大橋1-12-13","lat":35.651403,"lon":139.686405},{"name":"学芸大学駅前","province":"東京都","city":"目黒区","address":"東京都目黒区鷹番3-6-1","lat":35.629108,"lon":139.685463},{"name":"自由が丘駅前","province":"東京都","city":"目黒区","address":"東京都目黒区自由が丘1-30-1","lat":35.607583,"lon":139.668505},{"name":"旧前田家本邸（和館）","province":"東京都","city":"目黒区","address":"東京都目黒区駒場4-3-55","lat":35.662344,"lon":139.680753},{"name":"目黒区総合庁舎","province":"東京都","city":"目黒区","address":"東京都目黒区上目黒2-19-15","lat":35.641612,"lon":139.698392},{"name":"めぐろ観光まちづくり協会","province":"東京都","city":"目黒区","address":"東京都目黒区上目黒2-1-3","lat":35.643291,"lon":139.698767},{"name":"中目黒駅前","province":"東京都","city":"目黒区","address":"東京都目黒区上目黒3-4-1","lat":35.644203,"lon":139.698871},{"name":"都立大学駅前","province":"東京都","city":"目黒区","address":"東京都目黒区中根1-5-1","lat":35.617506,"lon":139.676137},{"name":"駒場東大駅前","province":"東京都","city":"目黒区","address":"東京都目黒区駒場3-9","lat":35.659041,"lon":139.68285},{"name":"緑が丘駅前","province":"東京都","city":"目黒区","address":"東京都目黒区緑が丘3-2-2","lat":35.606444,"lon":139.67895},{"name":"洗足駅前","province":"東京都","city":"目黒区","address":"東京都目黒区洗足2-21-1","lat":35.610276,"lon":139.694212},{"name":"東京音楽大学前","province":"東京都","city":"目黒区","address":"東京都目黒区上目黒1-9-1","lat":35.646597,"lon":139.699557},{"name":"北部包括支援センター","province":"東京都","city":"目黒区","address":"目黒区大橋1-51-1クロスエアタワー9階","lat":35.652462,"lon":139.68924},{"name":"東部包括支援センター","province":"東京都","city":"目黒区","address":"目黒区上目黒2-19-15総合庁舎内","lat":35.640465,"lon":139.6987},{"name":"中央包括支援センター","province":"東京都","city":"目黒区","address":"目黒区中央町2-9-13食販ビル2階","lat":35.631126,"lon":139.692123},{"name":"南部包括支援センター","province":"東京都","city":"目黒区","address":"目黒区碑文谷1-18-14碑小学校内南西側","lat":35.618874,"lon":139.690491},{"name":"西部包括支援センター","province":"東京都","city":"目黒区","address":"目黒区柿の木坂1-28-10","lat":35.619823,"lon":139.675735},{"name":"青葉台さくら苑在宅介護支援センター","province":"東京都","city":"目黒区","address":"目黒区青葉台3-21-6青葉台さくら苑内","lat":35.649391,"lon":139.692413},{"name":"清徳会在宅介護支援センター","province":"東京都","city":"目黒区","address":"目黒区目黒本町4-2-1清徳苑内","lat":35.623085,"lon":139.698441},{"name":"目黒区大橋在宅介護支援センター","province":"東京都","city":"目黒区","address":"目黒区大橋2-16-1坂本ビル1階","lat":35.653767,"lon":139.68718},{"name":"目黒区下目黒在宅介護支援センター","province":"東京都","city":"目黒区","address":"目黒区下目黒2-21-16-101","lat":35.634972,"lon":139.709427},{"name":"目黒区日扇会在宅介護支援センター","province":"東京都","city":"目黒区","address":"目黒区中根2-13-18文保堂ビル2階","lat":35.635044,"lon":139.707016},{"name":"東京共済病院在宅介護支援センター","province":"東京都","city":"目黒区","address":"目黒区中目黒2-3-8東京共済病院内","lat":35.641899,"lon":139.703857},{"name":"北部包括支援センター","province":"東京都","city":"目黒区","address":"目黒区大橋1-51-1クロスエアタワー9階","lat":35.652462,"lon":139.68924},{"name":"東部包括支援センター","province":"東京都","city":"目黒区","address":"目黒区上目黒2-19-15総合庁舎内","lat":35.640465,"lon":139.6987},{"name":"中央包括支援センター","province":"東京都","city":"目黒区","address":"目黒区中央町2-9-13食販ビル2階","lat":35.631126,"lon":139.692123},{"name":"南部包括支援センター","province":"東京都","city":"目黒区","address":"目黒区碑文谷1-18-14碑小学校内南西側","lat":35.618874,"lon":139.690491},{"name":"西部包括支援センター","province":"東京都","city":"目黒区","address":"目黒区柿の木坂1-28-10","lat":35.619823,"lon":139.675735},{"name":"青葉台さくら苑在宅介護支援センター","province":"東京都","city":"目黒区","address":"目黒区青葉台3-21-6青葉台さくら苑内","lat":35.649391,"lon":139.692413},{"name":"清徳会在宅介護支援センター","province":"東京都","city":"目黒区","address":"目黒区目黒本町4-2-1清徳苑内","lat":35.623085,"lon":139.698441},{"name":"目黒区大橋在宅介護支援センター","province":"東京都","city":"目黒区","address":"目黒区大橋2-16-1坂本ビル1階","lat":35.653767,"lon":139.68718},{"name":"目黒区下目黒在宅介護支援センター","province":"東京都","city":"目黒区","address":"目黒区下目黒2-21-16-101","lat":35.634972,"lon":139.709427},{"name":"目黒区日扇会在宅介護支援センター","province":"東京都","city":"目黒区","address":"目黒区中根2-13-18文保堂ビル2階","lat":35.635044,"lon":139.707016},{"name":"東京共済病院在宅介護支援センター","province":"東京都","city":"目黒区","address":"目黒区中目黒2-3-8東京共済病院内","lat":35.641899,"lon":139.703857},{"name":"北部包括支援センター","province":"東京都","city":"目黒区","address":"目黒区大橋1-51-1クロスエアタワー9階","lat":35.652462,"lon":139.68924},{"name":"東部包括支援センター","province":"東京都","city":"目黒区","address":"目黒区上目黒2-19-15総合庁舎内","lat":35.640465,"lon":139.6987},{"name":"中央包括支援センター","province":"東京都","city":"目黒区","address":"目黒区中央町2-9-13食販ビル2階","lat":35.631126,"lon":139.692123},{"name":"南部包括支援センター","province":"東京都","city":"目黒区","address":"目黒区碑文谷1-18-14碑小学校内南西側","lat":35.618874,"lon":139.690491},{"name":"西部包括支援センター","province":"東京都","city":"目黒区","address":"目黒区柿の木坂1-28-10","lat":35.619823,"lon":139.675735},{"name":"青葉台さくら苑在宅介護支援センター","province":"東京都","city":"目黒区","address":"目黒区青葉台3-21-6青葉台さくら苑内","lat":35.649391,"lon":139.692413},{"name":"清徳会在宅介護支援センター","province":"東京都","city":"目黒区","address":"目黒区目黒本町4-2-1清徳苑内","lat":35.623085,"lon":139.698441},{"name":"目黒区大橋在宅介護支援センター","province":"東京都","city":"目黒区","address":"目黒区大橋2-16-1坂本ビル1階","lat":35.653767,"lon":139.68718},{"name":"目黒区下目黒在宅介護支援センター","province":"東京都","city":"目黒区","address":"目黒区下目黒2-21-16-101","lat":35.634972,"lon":139.709427},{"name":"目黒区日扇会在宅介護支援センター","province":"東京都","city":"目黒区","address":"目黒区中根2-13-18文保堂ビル2階","lat":35.635044,"lon":139.707016},{"name":"東京共済病院在宅介護支援センター","province":"東京都","city":"目黒区","address":"目黒区中目黒2-3-8東京共済病院内","lat":35.641899,"lon":139.703857},{"name":"北部包括支援センター","province":"東京都","city":"目黒区","address":"目黒区大橋1-51-1クロスエアタワー9階","lat":35.652462,"lon":139.68924},{"name":"東部包括支援センター","province":"東京都","city":"目黒区","address":"目黒区上目黒2-19-15総合庁舎内","lat":35.640465,"lon":139.6987},{"name":"中央包括支援センター","province":"東京都","city":"目黒区","address":"目黒区中央町2-9-13食販ビル2階","lat":35.631126,"lon":139.692123},{"name":"南部包括支援センター","province":"東京都","city":"目黒区","address":"目黒区碑文谷1-18-14碑小学校内南西側","lat":35.618874,"lon":139.690491},{"name":"西部包括支援センター","province":"東京都","city":"目黒区","address":"目黒区柿の木坂1-28-10","lat":35.619823,"lon":139.675735},{"name":"青葉台さくら苑在宅介護支援センター","province":"東京都","city":"目黒区","address":"目黒区青葉台3-21-6青葉台さくら苑内","lat":35.649391,"lon":139.692413},{"name":"清徳会在宅介護支援センター","province":"東京都","city":"目黒区","address":"目黒区目黒本町4-2-1清徳苑内","lat":35.623085,"lon":139.698441},{"name":"目黒区大橋在宅介護支援センター","province":"東京都","city":"目黒区","address":"目黒区大橋2-16-1坂本ビル1階","lat":35.653767,"lon":139.68718},{"name":"目黒区下目黒在宅介護支援センター","province":"東京都","city":"目黒区","address":"目黒区下目黒2-21-16-101","lat":35.634972,"lon":139.709427},{"name":"目黒区日扇会在宅介護支援センター","province":"東京都","city":"目黒区","address":"目黒区中根2-13-18文保堂ビル2階","lat":35.635044,"lon":139.707016},{"name":"東京共済病院在宅介護支援センター","province":"東京都","city":"目黒区","address":"目黒区中目黒2-3-8東京共済病院内","lat":35.641899,"lon":139.703857},{"name":"北部包括支援センター","province":"東京都","city":"目黒区","address":"目黒区大橋1-51-1クロスエアタワー9階","lat":35.652462,"lon":139.68924},{"name":"東部包括支援センター","province":"東京都","city":"目黒区","address":"目黒区上目黒2-19-15総合庁舎内","lat":35.640465,"lon":139.6987},{"name":"中央包括支援センター","province":"東京都","city":"目黒区","address":"目黒区中央町2-9-13食販ビル2階","lat":35.631126,"lon":139.692123},{"name":"南部包括支援センター","province":"東京都","city":"目黒区","address":"目黒区碑文谷1-18-14碑小学校内南西側","lat":35.618874,"lon":139.690491},{"name":"西部包括支援センター","province":"東京都","city":"目黒区","address":"目黒区柿の木坂1-28-10","lat":35.619823,"lon":139.675735},{"name":"青葉台さくら苑在宅介護支援センター","province":"東京都","city":"目黒区","address":"目黒区青葉台3-21-6青葉台さくら苑内","lat":35.649391,"lon":139.692413},{"name":"清徳会在宅介護支援センター","province":"東京都","city":"目黒区","address":"目黒区目黒本町4-2-1清徳苑内","lat":35.623085,"lon":139.698441},{"name":"目黒区大橋在宅介護支援センター","province":"東京都","city":"目黒区","address":"目黒区大橋2-16-1坂本ビル1階","lat":35.653767,"lon":139.68718},{"name":"目黒区下目黒在宅介護支援センター","province":"東京都","city":"目黒区","address":"目黒区下目黒2-21-16-101","lat":35.634972,"lon":139.709427},{"name":"目黒区日扇会在宅介護支援センター","province":"東京都","city":"目黒区","address":"目黒区中根2-13-18文保堂ビル2階","lat":35.635044,"lon":139.707016},{"name":"東京共済病院在宅介護支援センター","province":"東京都","city":"目黒区","address":"目黒区中目黒2-3-8東京共済病院内","lat":35.641899,"lon":139.703857},{"name":"北部包括支援センター","province":"東京都","city":"目黒区","address":"目黒区大橋1-51-1クロスエアタワー9階","lat":35.652462,"lon":139.68924},{"name":"東部包括支援センター","province":"東京都","city":"目黒区","address":"目黒区上目黒2-19-15総合庁舎内","lat":35.640465,"lon":139.6987},{"name":"中央包括支援センター","province":"東京都","city":"目黒区","address":"目黒区中央町2-9-13食販ビル2階","lat":35.631126,"lon":139.692123},{"name":"南部包括支援センター","province":"東京都","city":"目黒区","address":"目黒区碑文谷1-18-14碑小学校内南西側","lat":35.618874,"lon":139.690491},{"name":"西部包括支援センター","province":"東京都","city":"目黒区","address":"目黒区柿の木坂1-28-10","lat":35.619823,"lon":139.675735},{"name":"青葉台さくら苑在宅介護支援センター","province":"東京都","city":"目黒区","address":"目黒区青葉台3-21-6青葉台さくら苑内","lat":35.649391,"lon":139.692413},{"name":"清徳会在宅介護支援センター","province":"東京都","city":"目黒区","address":"目黒区目黒本町4-2-1清徳苑内","lat":35.623085,"lon":139.698441},{"name":"目黒区大橋在宅介護支援センター","province":"東京都","city":"目黒区","address":"目黒区大橋2-16-1坂本ビル1階","lat":35.653767,"lon":139.68718},{"name":"目黒区下目黒在宅介護支援センター","province":"東京都","city":"目黒区","address":"目黒区下目黒2-21-16-101","lat":35.634972,"lon":139.709427},{"name":"目黒区日扇会在宅介護支援センター","province":"東京都","city":"目黒区","address":"目黒区中根2-13-18文保堂ビル2階","lat":35.635044,"lon":139.707016},{"name":"東京共済病院在宅介護支援センター","province":"東京都","city":"目黒区","address":"目黒区中目黒2-3-8東京共済病院内","lat":35.641899,"lon":139.703857},{"name":"北部包括支援センター","province":"東京都","city":"目黒区","address":"目黒区大橋1-51-1クロスエアタワー9階","lat":35.652462,"lon":139.68924},{"name":"東部包括支援センター","province":"東京都","city":"目黒区","address":"目黒区上目黒2-19-15総合庁舎内","lat":35.640465,"lon":139.6987},{"name":"中央包括支援センター","province":"東京都","city":"目黒区","address":"目黒区中央町2-9-13食販ビル2階","lat":35.631126,"lon":139.692123},{"name":"南部包括支援センター","province":"東京都","city":"目黒区","address":"目黒区碑文谷1-18-14碑小学校内南西側","lat":35.618874,"lon":139.690491},{"name":"西部包括支援センター","province":"東京都","city":"目黒区","address":"目黒区柿の木坂1-28-10","lat":35.619823,"lon":139.675735},{"name":"青葉台さくら苑在宅介護支援センター","province":"東京都","city":"目黒区","address":"目黒区青葉台3-21-6青葉台さくら苑内","lat":35.649391,"lon":139.692413},{"name":"清徳会在宅介護支援センター","province":"東京都","city":"目黒区","address":"目黒区目黒本町4-2-1清徳苑内","lat":35.623085,"lon":139.698441},{"name":"目黒区大橋在宅介護支援センター","province":"東京都","city":"目黒区","address":"目黒区大橋2-16-1坂本ビル1階","lat":35.653767,"lon":139.68718},{"name":"目黒区下目黒在宅介護支援センター","province":"東京都","city":"目黒区","address":"目黒区下目黒2-21-16-101","lat":35.634972,"lon":139.709427},{"name":"目黒区日扇会在宅介護支援センター","province":"東京都","city":"目黒区","address":"目黒区中根2-13-18文保堂ビル2階","lat":35.635044,"lon":139.707016},{"name":"東京共済病院在宅介護支援センター","province":"東京都","city":"目黒区","address":"目黒区中目黒2-3-8東京共済病院内","lat":35.641899,"lon":139.703857},{"name":"北部包括支援センター","province":"東京都","city":"目黒区","address":"目黒区大橋1-51-1クロスエアタワー9階","lat":35.652462,"lon":139.68924},{"name":"東部包括支援センター","province":"東京都","city":"目黒区","address":"目黒区上目黒2-19-15総合庁舎内","lat":35.640465,"lon":139.6987},{"name":"中央包括支援センター","province":"東京都","city":"目黒区","address":"目黒区中央町2-9-13食販ビル2階","lat":35.631126,"lon":139.692123},{"name":"南部包括支援センター","province":"東京都","city":"目黒区","address":"目黒区碑文谷1-18-14碑小学校内南西側","lat":35.618874,"lon":139.690491},{"name":"西部包括支援センター","province":"東京都","city":"目黒区","address":"目黒区柿の木坂1-28-10","lat":35.619823,"lon":139.675735},{"name":"青葉台さくら苑在宅介護支援センター","province":"東京都","city":"目黒区","address":"目黒区青葉台3-21-6青葉台さくら苑内","lat":35.649391,"lon":139.692413},{"name":"清徳会在宅介護支援センター","province":"東京都","city":"目黒区","address":"目黒区目黒本町4-2-1清徳苑内","lat":35.623085,"lon":139.698441},{"name":"目黒区大橋在宅介護支援センター","province":"東京都","city":"目黒区","address":"目黒区大橋2-16-1坂本ビル1階","lat":35.653767,"lon":139.68718},{"name":"目黒区下目黒在宅介護支援センター","province":"東京都","city":"目黒区","address":"目黒区下目黒2-21-16-101","lat":35.634972,"lon":139.709427},{"name":"目黒区日扇会在宅介護支援センター","province":"東京都","city":"目黒区","address":"目黒区中根2-13-18文保堂ビル2階","lat":35.635044,"lon":139.707016},{"name":"東京共済病院在宅介護支援センター","province":"東京都","city":"目黒区","address":"目黒区中目黒2-3-8東京共済病院内","lat":35.641899,"lon":139.703857},{"name":"北部包括支援センター","province":"東京都","city":"目黒区","address":"目黒区大橋1-51-1クロスエアタワー9階","lat":35.652462,"lon":139.68924},{"name":"東部包括支援センター","province":"東京都","city":"目黒区","address":"目黒区上目黒2-19-15総合庁舎内","lat":35.640465,"lon":139.6987},{"name":"中央包括支援センター","province":"東京都","city":"目黒区","address":"目黒区中央町2-9-13食販ビル2階","lat":35.631126,"lon":139.692123},{"name":"南部包括支援センター","province":"東京都","city":"目黒区","address":"目黒区碑文谷1-18-14碑小学校内南西側","lat":35.618874,"lon":139.690491},{"name":"西部包括支援センター","province":"東京都","city":"目黒区","address":"目黒区柿の木坂1-28-10","lat":35.619823,"lon":139.675735},{"name":"青葉台さくら苑在宅介護支援センター","province":"東京都","city":"目黒区","address":"目黒区青葉台3-21-6青葉台さくら苑内","lat":35.649391,"lon":139.692413},{"name":"清徳会在宅介護支援センター","province":"東京都","city":"目黒区","address":"目黒区目黒本町4-2-1清徳苑内","lat":35.623085,"lon":139.698441},{"name":"目黒区大橋在宅介護支援センター","province":"東京都","city":"目黒区","address":"目黒区大橋2-16-1坂本ビル1階","lat":35.653767,"lon":139.68718},{"name":"目黒区下目黒在宅介護支援センター","province":"東京都","city":"目黒区","address":"目黒区下目黒2-21-16-101","lat":35.634972,"lon":139.709427},{"name":"目黒区日扇会在宅介護支援センター","province":"東京都","city":"目黒区","address":"目黒区中根2-13-18文保堂ビル2階","lat":35.635044,"lon":139.707016},{"name":"東京共済病院在宅介護支援センター","province":"東京都","city":"目黒区","address":"目黒区中目黒2-3-8東京共済病院内","lat":35.641899,"lon":139.703857},{"name":"北部包括支援センター","province":"東京都","city":"目黒区","address":"目黒区大橋1-51-1クロスエアタワー9階","lat":35.652462,"lon":139.68924},{"name":"東部包括支援センター","province":"東京都","city":"目黒区","address":"目黒区上目黒2-19-15総合庁舎内","lat":35.640465,"lon":139.6987},{"name":"中央包括支援センター","province":"東京都","city":"目黒区","address":"目黒区中央町2-9-13食販ビル2階","lat":35.631126,"lon":139.692123},{"name":"南部包括支援センター","province":"東京都","city":"目黒区","address":"目黒区碑文谷1-18-14碑小学校内南西側","lat":35.618874,"lon":139.690491},{"name":"西部包括支援センター","province":"東京都","city":"目黒区","address":"目黒区柿の木坂1-28-10","lat":35.619823,"lon":139.675735},{"name":"青葉台さくら苑在宅介護支援センター","province":"東京都","city":"目黒区","address":"目黒区青葉台3-21-6青葉台さくら苑内","lat":35.649391,"lon":139.692413},{"name":"清徳会在宅介護支援センター","province":"東京都","city":"目黒区","address":"目黒区目黒本町4-2-1清徳苑内","lat":35.623085,"lon":139.698441},{"name":"目黒区大橋在宅介護支援センター","province":"東京都","city":"目黒区","address":"目黒区大橋2-16-1坂本ビル1階","lat":35.653767,"lon":139.68718},{"name":"目黒区下目黒在宅介護支援センター","province":"東京都","city":"目黒区","address":"目黒区下目黒2-21-16-101","lat":35.634972,"lon":139.709427},{"name":"目黒区日扇会在宅介護支援センター","province":"東京都","city":"目黒区","address":"目黒区中根2-13-18文保堂ビル2階","lat":35.635044,"lon":139.707016},{"name":"東京共済病院在宅介護支援センター","province":"東京都","city":"目黒区","address":"目黒区中目黒2-3-8東京共済病院内","lat":35.641899,"lon":139.703857},{"name":"北部包括支援センター","province":"東京都","city":"目黒区","address":"目黒区大橋1-51-1クロスエアタワー9階","lat":35.652462,"lon":139.68924},{"name":"東部包括支援センター","province":"東京都","city":"目黒区","address":"目黒区上目黒2-19-15総合庁舎内","lat":35.640465,"lon":139.6987},{"name":"中央包括支援センター","province":"東京都","city":"目黒区","address":"目黒区中央町2-9-13食販ビル2階","lat":35.631126,"lon":139.692123},{"name":"南部包括支援センター","province":"東京都","city":"目黒区","address":"目黒区碑文谷1-18-14碑小学校内南西側","lat":35.618874,"lon":139.690491},{"name":"西部包括支援センター","province":"東京都","city":"目黒区","address":"目黒区柿の木坂1-28-10","lat":35.619823,"lon":139.675735},{"name":"青葉台さくら苑在宅介護支援センター","province":"東京都","city":"目黒区","address":"目黒区青葉台3-21-6青葉台さくら苑内","lat":35.649391,"lon":139.692413},{"name":"清徳会在宅介護支援センター","province":"東京都","city":"目黒区","address":"目黒区目黒本町4-2-1清徳苑内","lat":35.623085,"lon":139.698441},{"name":"目黒区大橋在宅介護支援センター","province":"東京都","city":"目黒区","address":"目黒区大橋2-16-1坂本ビル1階","lat":35.653767,"lon":139.68718},{"name":"目黒区下目黒在宅介護支援センター","province":"東京都","city":"目黒区","address":"目黒区下目黒2-21-16-101","lat":35.634972,"lon":139.709427},{"name":"目黒区日扇会在宅介護支援センター","province":"東京都","city":"目黒区","address":"目黒区中根2-13-18文保堂ビル2階","lat":35.635044,"lon":139.707016},{"name":"東京共済病院在宅介護支援センター","province":"東京都","city":"目黒区","address":"目黒区中目黒2-3-8東京共済病院内","lat":35.641899,"lon":139.703857},{"name":"北部包括支援センター","province":"東京都","city":"目黒区","address":"目黒区大橋1-51-1クロスエアタワー9階","lat":35.652462,"lon":139.68924},{"name":"東部包括支援センター","province":"東京都","city":"目黒区","address":"目黒区上目黒2-19-15総合庁舎内","lat":35.640465,"lon":139.6987},{"name":"中央包括支援センター","province":"東京都","city":"目黒区","address":"目黒区中央町2-9-13食販ビル2階","lat":35.631126,"lon":139.692123},{"name":"南部包括支援センター","province":"東京都","city":"目黒区","address":"目黒区碑文谷1-18-14碑小学校内南西側","lat":35.618874,"lon":139.690491},{"name":"西部包括支援センター","province":"東京都","city":"目黒区","address":"目黒区柿の木坂1-28-10","lat":35.619823,"lon":139.675735},{"name":"青葉台さくら苑在宅介護支援センター","province":"東京都","city":"目黒区","address":"目黒区青葉台3-21-6青葉台さくら苑内","lat":35.649391,"lon":139.692413},{"name":"清徳会在宅介護支援センター","province":"東京都","city":"目黒区","address":"目黒区目黒本町4-2-1清徳苑内","lat":35.623085,"lon":139.698441},{"name":"目黒区大橋在宅介護支援センター","province":"東京都","city":"目黒区","address":"目黒区大橋2-16-1坂本ビル1階","lat":35.653767,"lon":139.68718},{"name":"目黒区下目黒在宅介護支援センター","province":"東京都","city":"目黒区","address":"目黒区下目黒2-21-16-101","lat":35.634972,"lon":139.709427},{"name":"目黒区日扇会在宅介護支援センター","province":"東京都","city":"目黒区","address":"目黒区中根2-13-18文保堂ビル2階","lat":35.635044,"lon":139.707016},{"name":"東京共済病院在宅介護支援センター","province":"東京都","city":"目黒区","address":"目黒区中目黒2-3-8東京共済病院内","lat":35.641899,"lon":139.703857},{"name":"北部包括支援センター","province":"東京都","city":"目黒区","address":"目黒区大橋1-51-1クロスエアタワー9階","lat":35.652462,"lon":139.68924},{"name":"東部包括支援センター","province":"東京都","city":"目黒区","address":"目黒区上目黒2-19-15総合庁舎内","lat":35.640465,"lon":139.6987},{"name":"中央包括支援センター","province":"東京都","city":"目黒区","address":"目黒区中央町2-9-13食販ビル2階","lat":35.631126,"lon":139.692123},{"name":"南部包括支援センター","province":"東京都","city":"目黒区","address":"目黒区碑文谷1-18-14碑小学校内南西側","lat":35.618874,"lon":139.690491},{"name":"西部包括支援センター","province":"東京都","city":"目黒区","address":"目黒区柿の木坂1-28-10","lat":35.619823,"lon":139.675735},{"name":"青葉台さくら苑在宅介護支援センター","province":"東京都","city":"目黒区","address":"目黒区青葉台3-21-6青葉台さくら苑内","lat":35.649391,"lon":139.692413},{"name":"清徳会在宅介護支援センター","province":"東京都","city":"目黒区","address":"目黒区目黒本町4-2-1清徳苑内","lat":35.623085,"lon":139.698441},{"name":"目黒区大橋在宅介護支援センター","province":"東京都","city":"目黒区","address":"目黒区大橋2-16-1坂本ビル1階","lat":35.653767,"lon":139.68718},{"name":"目黒区下目黒在宅介護支援センター","province":"東京都","city":"目黒区","address":"目黒区下目黒2-21-16-101","lat":35.634972,"lon":139.709427},{"name":"目黒区日扇会在宅介護支援センター","province":"東京都","city":"目黒区","address":"目黒区中根2-13-18文保堂ビル2階","lat":35.635044,"lon":139.707016},{"name":"東京共済病院在宅介護支援センター","province":"東京都","city":"目黒区","address":"目黒区中目黒2-3-8東京共済病院内","lat":35.641899,"lon":139.703857}]}