{"keyword":"放課後","data":[{"name":"びりぃぶ","province":"東京都","city":"目黒区","address":"目黒区中央町二丁目32番5号スマイルプラザ中央町3階","lat":35.631511,"lon":139.688775},{"name":"アトリエほんちょう","province":"東京都","city":"目黒区","address":"目黒区目黒本町6-9-20","lat":35.620137,"lon":139.696277},{"name":"スタジオそら学芸大学","province":"東京都","city":"目黒区","address":"目黒区鷹番二丁目17番11号イムーブル鷹番A-1号","lat":35.627192,"lon":139.686914},{"name":"桐塾　学芸大学駅前第二教室","province":"東京都","city":"目黒区","address":"目黒区鷹番2-15-18パル学芸大学202","lat":35.629747,"lon":139.687094},{"name":"もうひとつのおうち","province":"東京都","city":"目黒区","address":"目黒区八雲5-1-5","lat":35.624741,"lon":139.668971},{"name":"めぐろアフタースクール","province":"東京都","city":"目黒区","address":"目黒区上目黒5丁目30-7サンライズ浅見T1","lat":35.640982,"lon":139.685739},{"name":"桐塾　祐天寺教室","province":"東京都","city":"目黒区","address":"目黒区祐天寺2-3-11第6エスペランス3階","lat":35.637241,"lon":139.692488},{"name":"ハミングツリー","province":"東京都","city":"目黒区","address":"目黒区中目黒5-27-12ライフイン祐天寺101","lat":35.635344,"lon":139.694883},{"name":"さくら","province":"東京都","city":"目黒区","address":"目黒区下目黒3-4-4グランメゾン清和202","lat":35.630422,"lon":139.708779}]}