{"keyword":"朝","data":[{"name":"株式会社　あおば葬祭","province":"東京都","city":"目黒区","address":"東京都目黒区下目黒5丁目7-1","lat":35.62943615,"lon":139.70472908},{"name":"勝山葬祭　株式会社","province":"東京都","city":"目黒区","address":"東京都目黒区洗足2丁目21-17","lat":35.61003269,"lon":139.69382229},{"name":"葬祭総合センター　株式会社　門脇","province":"東京都","city":"目黒区","address":"東京都目黒区目黒本町4丁目14-14","lat":35.62328667,"lon":139.69439958},{"name":"株式会社　式典","province":"東京都","city":"目黒区","address":"東京都目黒区平町1丁目26-20","lat":35.61782019,"lon":139.6768262},{"name":"すみやセレモニー　株式会社","province":"東京都","city":"目黒区","address":"東京都目黒区祐天寺2丁目10-3","lat":35.63682115,"lon":139.69230491},{"name":"東京式典　株式会社","province":"東京都","city":"目黒区","address":"東京都目黒区鷹番3丁目8-6","lat":35.62931629,"lon":139.68532237},{"name":"株式会社　花会","province":"東京都","city":"目黒区","address":"東京都目黒区碑文谷1丁目5-1","lat":35.61927878,"lon":139.69272762},{"name":"有限会社　花心","province":"東京都","city":"目黒区","address":"東京都目黒区柿の木坂1丁目34-15","lat":35.62170576,"lon":139.67397075},{"name":"有限会社　横山葬祭","province":"東京都","city":"目黒区","address":"東京都目黒区五本木2丁目20-3","lat":35.63450191,"lon":139.68991628},{"name":"有限会社　吉田葬儀社","province":"東京都","city":"目黒区","address":"東京都目黒区原町1丁目12-6","lat":35.61546269,"lon":139.69711628},{"name":"こどもば食堂＠上目黒","province":"東京都","city":"目黒区","address":"東京都目黒区祐天寺2丁目6-6","lat":35.6370906,"lon":139.69376866},{"name":"こどもば食堂＠中央町","province":"東京都","city":"目黒区","address":"東京都目黒区中央町2丁目4-18","lat":35.6318745,"lon":139.69222728},{"name":"かみめみんなの食堂","province":"東京都","city":"目黒区","address":"東京都目黒区祐天寺2丁目6-6","lat":35.6370906,"lon":139.69376866},{"name":"おてらでごはん","province":"東京都","city":"目黒区","address":"東京都目黒区中目黒5丁目24-53","lat":35.63690459,"lon":139.69705729},{"name":"ちゃいるどべーす目黒本町","province":"東京都","city":"目黒区","address":"東京都目黒区目黒本町2丁目1-20","lat":35.62522258,"lon":139.69522445},{"name":"すずめ食堂","province":"東京都","city":"目黒区","address":"東京都目黒区碑文谷3丁目15-5","lat":35.61786761,"lon":139.68421449},{"name":"とりつだい処","province":"東京都","city":"目黒区","address":"東京都目黒区八雲1丁目10-5","lat":35.61871439,"lon":139.67224043},{"name":"ECO膳","province":"東京都","city":"目黒区","address":"東京都目黒区東が丘1丁目7-14","lat":35.62727725,"lon":139.67001258},{"name":"まると食堂","province":"東京都","city":"目黒区","address":"東京都目黒区青葉台2丁目10-18","lat":35.6498003,"lon":139.69561254},{"name":"おやこカフェ","province":"東京都","city":"目黒区","address":"東京都目黒区目黒本町4丁目3-14","lat":35.62321732,"lon":139.6982187},{"name":"青葉台一丁目","province":"東京都","city":"目黒区","address":"東京都目黒区東山1丁目2-7","lat":35.64771994,"lon":139.69357111},{"name":"中目黒","province":"東京都","city":"目黒区","address":"東京都目黒区上目黒2丁目9-5","lat":35.64276232,"lon":139.7003735},{"name":"田道","province":"東京都","city":"目黒区","address":"東京都目黒区目黒2丁目14-13","lat":35.63631596,"lon":139.7063843},{"name":"目黒不動入口","province":"東京都","city":"目黒区","address":"東京都目黒区下目黒2丁目24-7","lat":35.62927518,"lon":139.71109241},{"name":"目黒税務署前","province":"東京都","city":"目黒区","address":"東京都目黒区祐天寺2丁目8-12","lat":35.63629903,"lon":139.69416588},{"name":"上目黒三丁目","province":"東京都","city":"目黒区","address":"東京都目黒区青葉台1丁目22-6","lat":35.64599799,"lon":139.69734031},{"name":"駒場町","province":"東京都","city":"目黒区","address":"東京都目黒区駒場2丁目16-4","lat":35.65581597,"lon":139.68286061},{"name":"守屋図書館前","province":"東京都","city":"目黒区","address":"東京都目黒区中央町2丁目1-13","lat":35.63362978,"lon":139.68948578},{"name":"中央町二丁目","province":"東京都","city":"目黒区","address":"東京都目黒区中町2丁目45-8","lat":35.63318267,"lon":139.69189116},{"name":"池尻ランプ前","province":"東京都","city":"目黒区","address":"東京都目黒区大橋1丁目10-1","lat":35.65126102,"lon":139.68642992},{"name":"中目黒駅前","province":"東京都","city":"目黒区","address":"東京都目黒区上目黒1丁目23-1","lat":35.6444149,"lon":139.69964295},{"name":"西郷山下","province":"東京都","city":"目黒区","address":"東京都目黒区青葉台1丁目12-3","lat":35.64866154,"lon":139.69552092},{"name":"青葉台一丁目第二","province":"東京都","city":"目黒区","address":"東京都目黒区青葉台1丁目28-12","lat":35.64744222,"lon":139.69484879},{"name":"上目黒二丁目","province":"東京都","city":"目黒区","address":"東京都目黒区上目黒2丁目10-8","lat":35.64136524,"lon":139.69935419},{"name":"上目黒一丁目","province":"東京都","city":"目黒区","address":"東京都目黒区青葉台1丁目6","lat":35.64784505,"lon":139.69892067},{"name":"東山一丁目","province":"東京都","city":"目黒区","address":"東京都目黒区東山1丁目6-1","lat":35.64630071,"lon":139.69605151},{"name":"西郷山公園前","province":"東京都","city":"目黒区","address":"東京都目黒区青葉台2丁目10","lat":35.65029745,"lon":139.69516256},{"name":"目黒区総合庁舎前","province":"東京都","city":"目黒区","address":"東京都目黒区中目黒3丁目13-22","lat":35.63919604,"lon":139.69918204},{"name":"碑文谷","province":"東京都","city":"目黒区","address":"東京都目黒区碑文谷2丁目21-13","lat":35.62283372,"lon":139.68495871},{"name":"都立大学駅前","province":"東京都","city":"目黒区","address":"東京都目黒区柿の木坂1丁目30-8","lat":35.61855895,"lon":139.67549296},{"name":"柿の木坂","province":"東京都","city":"目黒区","address":"東京都目黒区柿の木坂3丁目8-13","lat":35.6265135,"lon":139.67227909},{"name":"南一丁目","province":"東京都","city":"目黒区","address":"東京都目黒区南1丁目24-10","lat":35.6132738,"lon":139.68706997},{"name":"柿の木坂陸橋下","province":"東京都","city":"目黒区","address":"東京都目黒区平町1丁目1-1","lat":35.62007002,"lon":139.68040916},{"name":"中根一丁目","province":"東京都","city":"目黒区","address":"東京都目黒区中根1丁目5-1","lat":35.61718968,"lon":139.6759513},{"name":"八雲一丁目","province":"東京都","city":"目黒区","address":"東京都目黒区八雲1丁目1-1","lat":35.62149186,"lon":139.67275697},{"name":"八雲小学校入口","province":"東京都","city":"目黒区","address":"東京都目黒区柿の木坂1丁目31-15","lat":35.61941994,"lon":139.6748402},{"name":"大岡山小学校前","province":"東京都","city":"目黒区","address":"東京都目黒区碑文谷3丁目19-8","lat":35.61628445,"lon":139.68343961},{"name":"田向公園入口","province":"東京都","city":"目黒区","address":"東京都目黒区碑文谷2丁目11-22","lat":35.62386141,"lon":139.68676963},{"name":"国立病院東京医療センター正門前","province":"東京都","city":"目黒区","address":"東京都目黒区東が丘2丁目5-1","lat":35.62656333,"lon":139.66598239},{"name":"学芸大学駅入口","province":"東京都","city":"目黒区","address":"東京都目黒区鷹番3丁目1","lat":35.62949961,"lon":139.68583621},{"name":"八雲給水所","province":"東京都","city":"目黒区","address":"東京都目黒区八雲1丁目1","lat":35.62130575,"lon":139.67178483},{"name":"都立林試の森公園","province":"東京都","city":"目黒区","address":"東京都目黒区下目黒5丁目37","lat":35.62487834,"lon":139.70415426},{"name":"株式会社　あおば葬祭","province":"東京都","city":"目黒区","address":"東京都目黒区下目黒5丁目7-1","lat":35.62943615,"lon":139.70472908},{"name":"勝山葬祭　株式会社","province":"東京都","city":"目黒区","address":"東京都目黒区洗足2丁目21-17","lat":35.61003269,"lon":139.69382229},{"name":"葬祭総合センター　株式会社　門脇","province":"東京都","city":"目黒区","address":"東京都目黒区目黒本町4丁目14-14","lat":35.62328667,"lon":139.69439958},{"name":"株式会社　式典","province":"東京都","city":"目黒区","address":"東京都目黒区平町1丁目26-20","lat":35.61782019,"lon":139.6768262},{"name":"すみやセレモニー　株式会社","province":"東京都","city":"目黒区","address":"東京都目黒区祐天寺2丁目10-3","lat":35.63682115,"lon":139.69230491},{"name":"東京式典　株式会社","province":"東京都","city":"目黒区","address":"東京都目黒区鷹番3丁目8-6","lat":35.62931629,"lon":139.68532237},{"name":"株式会社　花会","province":"東京都","city":"目黒区","address":"東京都目黒区碑文谷1丁目5-1","lat":35.61927878,"lon":139.69272762},{"name":"有限会社　花心","province":"東京都","city":"目黒区","address":"東京都目黒区柿の木坂1丁目34-15","lat":35.62170576,"lon":139.67397075},{"name":"有限会社　横山葬祭","province":"東京都","city":"目黒区","address":"東京都目黒区五本木2丁目20-3","lat":35.63450191,"lon":139.68991628},{"name":"有限会社　吉田葬儀社","province":"東京都","city":"目黒区","address":"東京都目黒区原町1丁目12-6","lat":35.61546269,"lon":139.69711628},{"name":"こどもば食堂＠上目黒","province":"東京都","city":"目黒区","address":"東京都目黒区祐天寺2丁目6-6","lat":35.6370906,"lon":139.69376866},{"name":"こどもば食堂＠中央町","province":"東京都","city":"目黒区","address":"東京都目黒区中央町2丁目4-18","lat":35.6318745,"lon":139.69222728},{"name":"かみめみんなの食堂","province":"東京都","city":"目黒区","address":"東京都目黒区祐天寺2丁目6-6","lat":35.6370906,"lon":139.69376866},{"name":"おてらでごはん","province":"東京都","city":"目黒区","address":"東京都目黒区中目黒5丁目24-53","lat":35.63690459,"lon":139.69705729},{"name":"ちゃいるどべーす目黒本町","province":"東京都","city":"目黒区","address":"東京都目黒区目黒本町2丁目1-20","lat":35.62522258,"lon":139.69522445},{"name":"すずめ食堂","province":"東京都","city":"目黒区","address":"東京都目黒区碑文谷3丁目15-5","lat":35.61786761,"lon":139.68421449},{"name":"とりつだい処","province":"東京都","city":"目黒区","address":"東京都目黒区八雲1丁目10-5","lat":35.61871439,"lon":139.67224043},{"name":"ECO膳","province":"東京都","city":"目黒区","address":"東京都目黒区東が丘1丁目7-14","lat":35.62727725,"lon":139.67001258},{"name":"まると食堂","province":"東京都","city":"目黒区","address":"東京都目黒区青葉台2丁目10-18","lat":35.6498003,"lon":139.69561254},{"name":"おやこカフェ","province":"東京都","city":"目黒区","address":"東京都目黒区目黒本町4丁目3-14","lat":35.62321732,"lon":139.6982187},{"name":"青葉台一丁目","province":"東京都","city":"目黒区","address":"東京都目黒区東山1丁目2-7","lat":35.64771994,"lon":139.69357111},{"name":"中目黒","province":"東京都","city":"目黒区","address":"東京都目黒区上目黒2丁目9-5","lat":35.64276232,"lon":139.7003735},{"name":"田道","province":"東京都","city":"目黒区","address":"東京都目黒区目黒2丁目14-13","lat":35.63631596,"lon":139.7063843},{"name":"目黒不動入口","province":"東京都","city":"目黒区","address":"東京都目黒区下目黒2丁目24-7","lat":35.62927518,"lon":139.71109241},{"name":"目黒税務署前","province":"東京都","city":"目黒区","address":"東京都目黒区祐天寺2丁目8-12","lat":35.63629903,"lon":139.69416588},{"name":"上目黒三丁目","province":"東京都","city":"目黒区","address":"東京都目黒区青葉台1丁目22-6","lat":35.64599799,"lon":139.69734031},{"name":"駒場町","province":"東京都","city":"目黒区","address":"東京都目黒区駒場2丁目16-4","lat":35.65581597,"lon":139.68286061},{"name":"守屋図書館前","province":"東京都","city":"目黒区","address":"東京都目黒区中央町2丁目1-13","lat":35.63362978,"lon":139.68948578},{"name":"中央町二丁目","province":"東京都","city":"目黒区","address":"東京都目黒区中町2丁目45-8","lat":35.63318267,"lon":139.69189116},{"name":"池尻ランプ前","province":"東京都","city":"目黒区","address":"東京都目黒区大橋1丁目10-1","lat":35.65126102,"lon":139.68642992},{"name":"中目黒駅前","province":"東京都","city":"目黒区","address":"東京都目黒区上目黒1丁目23-1","lat":35.6444149,"lon":139.69964295},{"name":"西郷山下","province":"東京都","city":"目黒区","address":"東京都目黒区青葉台1丁目12-3","lat":35.64866154,"lon":139.69552092},{"name":"青葉台一丁目第二","province":"東京都","city":"目黒区","address":"東京都目黒区青葉台1丁目28-12","lat":35.64744222,"lon":139.69484879},{"name":"上目黒二丁目","province":"東京都","city":"目黒区","address":"東京都目黒区上目黒2丁目10-8","lat":35.64136524,"lon":139.69935419},{"name":"上目黒一丁目","province":"東京都","city":"目黒区","address":"東京都目黒区青葉台1丁目6","lat":35.64784505,"lon":139.69892067},{"name":"東山一丁目","province":"東京都","city":"目黒区","address":"東京都目黒区東山1丁目6-1","lat":35.64630071,"lon":139.69605151},{"name":"西郷山公園前","province":"東京都","city":"目黒区","address":"東京都目黒区青葉台2丁目10","lat":35.65029745,"lon":139.69516256},{"name":"目黒区総合庁舎前","province":"東京都","city":"目黒区","address":"東京都目黒区中目黒3丁目13-22","lat":35.63919604,"lon":139.69918204},{"name":"碑文谷","province":"東京都","city":"目黒区","address":"東京都目黒区碑文谷2丁目21-13","lat":35.62283372,"lon":139.68495871},{"name":"都立大学駅前","province":"東京都","city":"目黒区","address":"東京都目黒区柿の木坂1丁目30-8","lat":35.61855895,"lon":139.67549296},{"name":"柿の木坂","province":"東京都","city":"目黒区","address":"東京都目黒区柿の木坂3丁目8-13","lat":35.6265135,"lon":139.67227909},{"name":"南一丁目","province":"東京都","city":"目黒区","address":"東京都目黒区南1丁目24-10","lat":35.6132738,"lon":139.68706997},{"name":"柿の木坂陸橋下","province":"東京都","city":"目黒区","address":"東京都目黒区平町1丁目1-1","lat":35.62007002,"lon":139.68040916},{"name":"中根一丁目","province":"東京都","city":"目黒区","address":"東京都目黒区中根1丁目5-1","lat":35.61718968,"lon":139.6759513},{"name":"八雲一丁目","province":"東京都","city":"目黒区","address":"東京都目黒区八雲1丁目1-1","lat":35.62149186,"lon":139.67275697},{"name":"八雲小学校入口","province":"東京都","city":"目黒区","address":"東京都目黒区柿の木坂1丁目31-15","lat":35.61941994,"lon":139.6748402},{"name":"大岡山小学校前","province":"東京都","city":"目黒区","address":"東京都目黒区碑文谷3丁目19-8","lat":35.61628445,"lon":139.68343961},{"name":"田向公園入口","province":"東京都","city":"目黒区","address":"東京都目黒区碑文谷2丁目11-22","lat":35.62386141,"lon":139.68676963},{"name":"国立病院東京医療センター正門前","province":"東京都","city":"目黒区","address":"東京都目黒区東が丘2丁目5-1","lat":35.62656333,"lon":139.66598239},{"name":"学芸大学駅入口","province":"東京都","city":"目黒区","address":"東京都目黒区鷹番3丁目1","lat":35.62949961,"lon":139.68583621},{"name":"八雲給水所","province":"東京都","city":"目黒区","address":"東京都目黒区八雲1丁目1","lat":35.62130575,"lon":139.67178483},{"name":"都立林試の森公園","province":"東京都","city":"目黒区","address":"東京都目黒区下目黒5丁目37","lat":35.62487834,"lon":139.70415426},{"name":"株式会社　あおば葬祭","province":"東京都","city":"目黒区","address":"東京都目黒区下目黒5丁目7-1","lat":35.62943615,"lon":139.70472908},{"name":"勝山葬祭　株式会社","province":"東京都","city":"目黒区","address":"東京都目黒区洗足2丁目21-17","lat":35.61003269,"lon":139.69382229},{"name":"葬祭総合センター　株式会社　門脇","province":"東京都","city":"目黒区","address":"東京都目黒区目黒本町4丁目14-14","lat":35.62328667,"lon":139.69439958},{"name":"株式会社　式典","province":"東京都","city":"目黒区","address":"東京都目黒区平町1丁目26-20","lat":35.61782019,"lon":139.6768262},{"name":"すみやセレモニー　株式会社","province":"東京都","city":"目黒区","address":"東京都目黒区祐天寺2丁目10-3","lat":35.63682115,"lon":139.69230491},{"name":"東京式典　株式会社","province":"東京都","city":"目黒区","address":"東京都目黒区鷹番3丁目8-6","lat":35.62931629,"lon":139.68532237},{"name":"株式会社　花会","province":"東京都","city":"目黒区","address":"東京都目黒区碑文谷1丁目5-1","lat":35.61927878,"lon":139.69272762},{"name":"有限会社　花心","province":"東京都","city":"目黒区","address":"東京都目黒区柿の木坂1丁目34-15","lat":35.62170576,"lon":139.67397075},{"name":"有限会社　横山葬祭","province":"東京都","city":"目黒区","address":"東京都目黒区五本木2丁目20-3","lat":35.63450191,"lon":139.68991628},{"name":"有限会社　吉田葬儀社","province":"東京都","city":"目黒区","address":"東京都目黒区原町1丁目12-6","lat":35.61546269,"lon":139.69711628},{"name":"こどもば食堂＠上目黒","province":"東京都","city":"目黒区","address":"東京都目黒区祐天寺2丁目6-6","lat":35.6370906,"lon":139.69376866},{"name":"こどもば食堂＠中央町","province":"東京都","city":"目黒区","address":"東京都目黒区中央町2丁目4-18","lat":35.6318745,"lon":139.69222728},{"name":"かみめみんなの食堂","province":"東京都","city":"目黒区","address":"東京都目黒区祐天寺2丁目6-6","lat":35.6370906,"lon":139.69376866},{"name":"おてらでごはん","province":"東京都","city":"目黒区","address":"東京都目黒区中目黒5丁目24-53","lat":35.63690459,"lon":139.69705729},{"name":"ちゃいるどべーす目黒本町","province":"東京都","city":"目黒区","address":"東京都目黒区目黒本町2丁目1-20","lat":35.62522258,"lon":139.69522445},{"name":"すずめ食堂","province":"東京都","city":"目黒区","address":"東京都目黒区碑文谷3丁目15-5","lat":35.61786761,"lon":139.68421449},{"name":"とりつだい処","province":"東京都","city":"目黒区","address":"東京都目黒区八雲1丁目10-5","lat":35.61871439,"lon":139.67224043},{"name":"ECO膳","province":"東京都","city":"目黒区","address":"東京都目黒区東が丘1丁目7-14","lat":35.62727725,"lon":139.67001258},{"name":"まると食堂","province":"東京都","city":"目黒区","address":"東京都目黒区青葉台2丁目10-18","lat":35.6498003,"lon":139.69561254},{"name":"おやこカフェ","province":"東京都","city":"目黒区","address":"東京都目黒区目黒本町4丁目3-14","lat":35.62321732,"lon":139.6982187},{"name":"青葉台一丁目","province":"東京都","city":"目黒区","address":"東京都目黒区東山1丁目2-7","lat":35.64771994,"lon":139.69357111},{"name":"中目黒","province":"東京都","city":"目黒区","address":"東京都目黒区上目黒2丁目9-5","lat":35.64276232,"lon":139.7003735},{"name":"田道","province":"東京都","city":"目黒区","address":"東京都目黒区目黒2丁目14-13","lat":35.63631596,"lon":139.7063843},{"name":"目黒不動入口","province":"東京都","city":"目黒区","address":"東京都目黒区下目黒2丁目24-7","lat":35.62927518,"lon":139.71109241},{"name":"目黒税務署前","province":"東京都","city":"目黒区","address":"東京都目黒区祐天寺2丁目8-12","lat":35.63629903,"lon":139.69416588},{"name":"上目黒三丁目","province":"東京都","city":"目黒区","address":"東京都目黒区青葉台1丁目22-6","lat":35.64599799,"lon":139.69734031},{"name":"駒場町","province":"東京都","city":"目黒区","address":"東京都目黒区駒場2丁目16-4","lat":35.65581597,"lon":139.68286061},{"name":"守屋図書館前","province":"東京都","city":"目黒区","address":"東京都目黒区中央町2丁目1-13","lat":35.63362978,"lon":139.68948578},{"name":"中央町二丁目","province":"東京都","city":"目黒区","address":"東京都目黒区中町2丁目45-8","lat":35.63318267,"lon":139.69189116},{"name":"池尻ランプ前","province":"東京都","city":"目黒区","address":"東京都目黒区大橋1丁目10-1","lat":35.65126102,"lon":139.68642992},{"name":"中目黒駅前","province":"東京都","city":"目黒区","address":"東京都目黒区上目黒1丁目23-1","lat":35.6444149,"lon":139.69964295},{"name":"西郷山下","province":"東京都","city":"目黒区","address":"東京都目黒区青葉台1丁目12-3","lat":35.64866154,"lon":139.69552092},{"name":"青葉台一丁目第二","province":"東京都","city":"目黒区","address":"東京都目黒区青葉台1丁目28-12","lat":35.64744222,"lon":139.69484879},{"name":"上目黒二丁目","province":"東京都","city":"目黒区","address":"東京都目黒区上目黒2丁目10-8","lat":35.64136524,"lon":139.69935419},{"name":"上目黒一丁目","province":"東京都","city":"目黒区","address":"東京都目黒区青葉台1丁目6","lat":35.64784505,"lon":139.69892067},{"name":"東山一丁目","province":"東京都","city":"目黒区","address":"東京都目黒区東山1丁目6-1","lat":35.64630071,"lon":139.69605151},{"name":"西郷山公園前","province":"東京都","city":"目黒区","address":"東京都目黒区青葉台2丁目10","lat":35.65029745,"lon":139.69516256},{"name":"目黒区総合庁舎前","province":"東京都","city":"目黒区","address":"東京都目黒区中目黒3丁目13-22","lat":35.63919604,"lon":139.69918204},{"name":"碑文谷","province":"東京都","city":"目黒区","address":"東京都目黒区碑文谷2丁目21-13","lat":35.62283372,"lon":139.68495871},{"name":"都立大学駅前","province":"東京都","city":"目黒区","address":"東京都目黒区柿の木坂1丁目30-8","lat":35.61855895,"lon":139.67549296},{"name":"柿の木坂","province":"東京都","city":"目黒区","address":"東京都目黒区柿の木坂3丁目8-13","lat":35.6265135,"lon":139.67227909},{"name":"南一丁目","province":"東京都","city":"目黒区","address":"東京都目黒区南1丁目24-10","lat":35.6132738,"lon":139.68706997},{"name":"柿の木坂陸橋下","province":"東京都","city":"目黒区","address":"東京都目黒区平町1丁目1-1","lat":35.62007002,"lon":139.68040916},{"name":"中根一丁目","province":"東京都","city":"目黒区","address":"東京都目黒区中根1丁目5-1","lat":35.61718968,"lon":139.6759513},{"name":"八雲一丁目","province":"東京都","city":"目黒区","address":"東京都目黒区八雲1丁目1-1","lat":35.62149186,"lon":139.67275697},{"name":"八雲小学校入口","province":"東京都","city":"目黒区","address":"東京都目黒区柿の木坂1丁目31-15","lat":35.61941994,"lon":139.6748402},{"name":"大岡山小学校前","province":"東京都","city":"目黒区","address":"東京都目黒区碑文谷3丁目19-8","lat":35.61628445,"lon":139.68343961},{"name":"田向公園入口","province":"東京都","city":"目黒区","address":"東京都目黒区碑文谷2丁目11-22","lat":35.62386141,"lon":139.68676963},{"name":"国立病院東京医療センター正門前","province":"東京都","city":"目黒区","address":"東京都目黒区東が丘2丁目5-1","lat":35.62656333,"lon":139.66598239},{"name":"学芸大学駅入口","province":"東京都","city":"目黒区","address":"東京都目黒区鷹番3丁目1","lat":35.62949961,"lon":139.68583621},{"name":"八雲給水所","province":"東京都","city":"目黒区","address":"東京都目黒区八雲1丁目1","lat":35.62130575,"lon":139.67178483},{"name":"都立林試の森公園","province":"東京都","city":"目黒区","address":"東京都目黒区下目黒5丁目37","lat":35.62487834,"lon":139.70415426},{"name":"株式会社　あおば葬祭","province":"東京都","city":"目黒区","address":"東京都目黒区下目黒5丁目7-1","lat":35.62943615,"lon":139.70472908},{"name":"勝山葬祭　株式会社","province":"東京都","city":"目黒区","address":"東京都目黒区洗足2丁目21-17","lat":35.61003269,"lon":139.69382229},{"name":"葬祭総合センター　株式会社　門脇","province":"東京都","city":"目黒区","address":"東京都目黒区目黒本町4丁目14-14","lat":35.62328667,"lon":139.69439958},{"name":"株式会社　式典","province":"東京都","city":"目黒区","address":"東京都目黒区平町1丁目26-20","lat":35.61782019,"lon":139.6768262},{"name":"すみやセレモニー　株式会社","province":"東京都","city":"目黒区","address":"東京都目黒区祐天寺2丁目10-3","lat":35.63682115,"lon":139.69230491},{"name":"東京式典　株式会社","province":"東京都","city":"目黒区","address":"東京都目黒区鷹番3丁目8-6","lat":35.62931629,"lon":139.68532237},{"name":"株式会社　花会","province":"東京都","city":"目黒区","address":"東京都目黒区碑文谷1丁目5-1","lat":35.61927878,"lon":139.69272762},{"name":"有限会社　花心","province":"東京都","city":"目黒区","address":"東京都目黒区柿の木坂1丁目34-15","lat":35.62170576,"lon":139.67397075},{"name":"有限会社　横山葬祭","province":"東京都","city":"目黒区","address":"東京都目黒区五本木2丁目20-3","lat":35.63450191,"lon":139.68991628},{"name":"有限会社　吉田葬儀社","province":"東京都","city":"目黒区","address":"東京都目黒区原町1丁目12-6","lat":35.61546269,"lon":139.69711628},{"name":"こどもば食堂＠上目黒","province":"東京都","city":"目黒区","address":"東京都目黒区祐天寺2丁目6-6","lat":35.6370906,"lon":139.69376866},{"name":"こどもば食堂＠中央町","province":"東京都","city":"目黒区","address":"東京都目黒区中央町2丁目4-18","lat":35.6318745,"lon":139.69222728},{"name":"かみめみんなの食堂","province":"東京都","city":"目黒区","address":"東京都目黒区祐天寺2丁目6-6","lat":35.6370906,"lon":139.69376866},{"name":"おてらでごはん","province":"東京都","city":"目黒区","address":"東京都目黒区中目黒5丁目24-53","lat":35.63690459,"lon":139.69705729},{"name":"ちゃいるどべーす目黒本町","province":"東京都","city":"目黒区","address":"東京都目黒区目黒本町2丁目1-20","lat":35.62522258,"lon":139.69522445},{"name":"すずめ食堂","province":"東京都","city":"目黒区","address":"東京都目黒区碑文谷3丁目15-5","lat":35.61786761,"lon":139.68421449},{"name":"とりつだい処","province":"東京都","city":"目黒区","address":"東京都目黒区八雲1丁目10-5","lat":35.61871439,"lon":139.67224043},{"name":"ECO膳","province":"東京都","city":"目黒区","address":"東京都目黒区東が丘1丁目7-14","lat":35.62727725,"lon":139.67001258},{"name":"まると食堂","province":"東京都","city":"目黒区","address":"東京都目黒区青葉台2丁目10-18","lat":35.6498003,"lon":139.69561254},{"name":"おやこカフェ","province":"東京都","city":"目黒区","address":"東京都目黒区目黒本町4丁目3-14","lat":35.62321732,"lon":139.6982187},{"name":"青葉台一丁目","province":"東京都","city":"目黒区","address":"東京都目黒区東山1丁目2-7","lat":35.64771994,"lon":139.69357111},{"name":"中目黒","province":"東京都","city":"目黒区","address":"東京都目黒区上目黒2丁目9-5","lat":35.64276232,"lon":139.7003735},{"name":"田道","province":"東京都","city":"目黒区","address":"東京都目黒区目黒2丁目14-13","lat":35.63631596,"lon":139.7063843},{"name":"目黒不動入口","province":"東京都","city":"目黒区","address":"東京都目黒区下目黒2丁目24-7","lat":35.62927518,"lon":139.71109241},{"name":"目黒税務署前","province":"東京都","city":"目黒区","address":"東京都目黒区祐天寺2丁目8-12","lat":35.63629903,"lon":139.69416588},{"name":"上目黒三丁目","province":"東京都","city":"目黒区","address":"東京都目黒区青葉台1丁目22-6","lat":35.64599799,"lon":139.69734031},{"name":"駒場町","province":"東京都","city":"目黒区","address":"東京都目黒区駒場2丁目16-4","lat":35.65581597,"lon":139.68286061},{"name":"守屋図書館前","province":"東京都","city":"目黒区","address":"東京都目黒区中央町2丁目1-13","lat":35.63362978,"lon":139.68948578},{"name":"中央町二丁目","province":"東京都","city":"目黒区","address":"東京都目黒区中町2丁目45-8","lat":35.63318267,"lon":139.69189116},{"name":"池尻ランプ前","province":"東京都","city":"目黒区","address":"東京都目黒区大橋1丁目10-1","lat":35.65126102,"lon":139.68642992},{"name":"中目黒駅前","province":"東京都","city":"目黒区","address":"東京都目黒区上目黒1丁目23-1","lat":35.6444149,"lon":139.69964295},{"name":"西郷山下","province":"東京都","city":"目黒区","address":"東京都目黒区青葉台1丁目12-3","lat":35.64866154,"lon":139.69552092},{"name":"青葉台一丁目第二","province":"東京都","city":"目黒区","address":"東京都目黒区青葉台1丁目28-12","lat":35.64744222,"lon":139.69484879},{"name":"上目黒二丁目","province":"東京都","city":"目黒区","address":"東京都目黒区上目黒2丁目10-8","lat":35.64136524,"lon":139.69935419},{"name":"上目黒一丁目","province":"東京都","city":"目黒区","address":"東京都目黒区青葉台1丁目6","lat":35.64784505,"lon":139.69892067},{"name":"東山一丁目","province":"東京都","city":"目黒区","address":"東京都目黒区東山1丁目6-1","lat":35.64630071,"lon":139.69605151},{"name":"西郷山公園前","province":"東京都","city":"目黒区","address":"東京都目黒区青葉台2丁目10","lat":35.65029745,"lon":139.69516256},{"name":"目黒区総合庁舎前","province":"東京都","city":"目黒区","address":"東京都目黒区中目黒3丁目13-22","lat":35.63919604,"lon":139.69918204},{"name":"碑文谷","province":"東京都","city":"目黒区","address":"東京都目黒区碑文谷2丁目21-13","lat":35.62283372,"lon":139.68495871},{"name":"都立大学駅前","province":"東京都","city":"目黒区","address":"東京都目黒区柿の木坂1丁目30-8","lat":35.61855895,"lon":139.67549296},{"name":"柿の木坂","province":"東京都","city":"目黒区","address":"東京都目黒区柿の木坂3丁目8-13","lat":35.6265135,"lon":139.67227909},{"name":"南一丁目","province":"東京都","city":"目黒区","address":"東京都目黒区南1丁目24-10","lat":35.6132738,"lon":139.68706997},{"name":"柿の木坂陸橋下","province":"東京都","city":"目黒区","address":"東京都目黒区平町1丁目1-1","lat":35.62007002,"lon":139.68040916},{"name":"中根一丁目","province":"東京都","city":"目黒区","address":"東京都目黒区中根1丁目5-1","lat":35.61718968,"lon":139.6759513},{"name":"八雲一丁目","province":"東京都","city":"目黒区","address":"東京都目黒区八雲1丁目1-1","lat":35.62149186,"lon":139.67275697},{"name":"八雲小学校入口","province":"東京都","city":"目黒区","address":"東京都目黒区柿の木坂1丁目31-15","lat":35.61941994,"lon":139.6748402},{"name":"大岡山小学校前","province":"東京都","city":"目黒区","address":"東京都目黒区碑文谷3丁目19-8","lat":35.61628445,"lon":139.68343961},{"name":"田向公園入口","province":"東京都","city":"目黒区","address":"東京都目黒区碑文谷2丁目11-22","lat":35.62386141,"lon":139.68676963},{"name":"国立病院東京医療センター正門前","province":"東京都","city":"目黒区","address":"東京都目黒区東が丘2丁目5-1","lat":35.62656333,"lon":139.66598239},{"name":"学芸大学駅入口","province":"東京都","city":"目黒区","address":"東京都目黒区鷹番3丁目1","lat":35.62949961,"lon":139.68583621},{"name":"八雲給水所","province":"東京都","city":"目黒区","address":"東京都目黒区八雲1丁目1","lat":35.62130575,"lon":139.67178483},{"name":"都立林試の森公園","province":"東京都","city":"目黒区","address":"東京都目黒区下目黒5丁目37","lat":35.62487834,"lon":139.70415426},{"name":"株式会社　あおば葬祭","province":"東京都","city":"目黒区","address":"東京都目黒区下目黒5丁目7-1","lat":35.62943615,"lon":139.70472908},{"name":"勝山葬祭　株式会社","province":"東京都","city":"目黒区","address":"東京都目黒区洗足2丁目21-17","lat":35.61003269,"lon":139.69382229},{"name":"葬祭総合センター　株式会社　門脇","province":"東京都","city":"目黒区","address":"東京都目黒区目黒本町4丁目14-14","lat":35.62328667,"lon":139.69439958},{"name":"株式会社　式典","province":"東京都","city":"目黒区","address":"東京都目黒区平町1丁目26-20","lat":35.61782019,"lon":139.6768262},{"name":"すみやセレモニー　株式会社","province":"東京都","city":"目黒区","address":"東京都目黒区祐天寺2丁目10-3","lat":35.63682115,"lon":139.69230491},{"name":"東京式典　株式会社","province":"東京都","city":"目黒区","address":"東京都目黒区鷹番3丁目8-6","lat":35.62931629,"lon":139.68532237},{"name":"株式会社　花会","province":"東京都","city":"目黒区","address":"東京都目黒区碑文谷1丁目5-1","lat":35.61927878,"lon":139.69272762},{"name":"有限会社　花心","province":"東京都","city":"目黒区","address":"東京都目黒区柿の木坂1丁目34-15","lat":35.62170576,"lon":139.67397075},{"name":"有限会社　横山葬祭","province":"東京都","city":"目黒区","address":"東京都目黒区五本木2丁目20-3","lat":35.63450191,"lon":139.68991628},{"name":"有限会社　吉田葬儀社","province":"東京都","city":"目黒区","address":"東京都目黒区原町1丁目12-6","lat":35.61546269,"lon":139.69711628},{"name":"こどもば食堂＠上目黒","province":"東京都","city":"目黒区","address":"東京都目黒区祐天寺2丁目6-6","lat":35.6370906,"lon":139.69376866},{"name":"こどもば食堂＠中央町","province":"東京都","city":"目黒区","address":"東京都目黒区中央町2丁目4-18","lat":35.6318745,"lon":139.69222728},{"name":"かみめみんなの食堂","province":"東京都","city":"目黒区","address":"東京都目黒区祐天寺2丁目6-6","lat":35.6370906,"lon":139.69376866},{"name":"おてらでごはん","province":"東京都","city":"目黒区","address":"東京都目黒区中目黒5丁目24-53","lat":35.63690459,"lon":139.69705729},{"name":"ちゃいるどべーす目黒本町","province":"東京都","city":"目黒区","address":"東京都目黒区目黒本町2丁目1-20","lat":35.62522258,"lon":139.69522445},{"name":"すずめ食堂","province":"東京都","city":"目黒区","address":"東京都目黒区碑文谷3丁目15-5","lat":35.61786761,"lon":139.68421449},{"name":"とりつだい処","province":"東京都","city":"目黒区","address":"東京都目黒区八雲1丁目10-5","lat":35.61871439,"lon":139.67224043},{"name":"ECO膳","province":"東京都","city":"目黒区","address":"東京都目黒区東が丘1丁目7-14","lat":35.62727725,"lon":139.67001258},{"name":"まると食堂","province":"東京都","city":"目黒区","address":"東京都目黒区青葉台2丁目10-18","lat":35.6498003,"lon":139.69561254},{"name":"おやこカフェ","province":"東京都","city":"目黒区","address":"東京都目黒区目黒本町4丁目3-14","lat":35.62321732,"lon":139.6982187},{"name":"青葉台一丁目","province":"東京都","city":"目黒区","address":"東京都目黒区東山1丁目2-7","lat":35.64771994,"lon":139.69357111},{"name":"中目黒","province":"東京都","city":"目黒区","address":"東京都目黒区上目黒2丁目9-5","lat":35.64276232,"lon":139.7003735},{"name":"田道","province":"東京都","city":"目黒区","address":"東京都目黒区目黒2丁目14-13","lat":35.63631596,"lon":139.7063843},{"name":"目黒不動入口","province":"東京都","city":"目黒区","address":"東京都目黒区下目黒2丁目24-7","lat":35.62927518,"lon":139.71109241},{"name":"目黒税務署前","province":"東京都","city":"目黒区","address":"東京都目黒区祐天寺2丁目8-12","lat":35.63629903,"lon":139.69416588},{"name":"上目黒三丁目","province":"東京都","city":"目黒区","address":"東京都目黒区青葉台1丁目22-6","lat":35.64599799,"lon":139.69734031},{"name":"駒場町","province":"東京都","city":"目黒区","address":"東京都目黒区駒場2丁目16-4","lat":35.65581597,"lon":139.68286061},{"name":"守屋図書館前","province":"東京都","city":"目黒区","address":"東京都目黒区中央町2丁目1-13","lat":35.63362978,"lon":139.68948578},{"name":"中央町二丁目","province":"東京都","city":"目黒区","address":"東京都目黒区中町2丁目45-8","lat":35.63318267,"lon":139.69189116},{"name":"池尻ランプ前","province":"東京都","city":"目黒区","address":"東京都目黒区大橋1丁目10-1","lat":35.65126102,"lon":139.68642992},{"name":"中目黒駅前","province":"東京都","city":"目黒区","address":"東京都目黒区上目黒1丁目23-1","lat":35.6444149,"lon":139.69964295},{"name":"西郷山下","province":"東京都","city":"目黒区","address":"東京都目黒区青葉台1丁目12-3","lat":35.64866154,"lon":139.69552092},{"name":"青葉台一丁目第二","province":"東京都","city":"目黒区","address":"東京都目黒区青葉台1丁目28-12","lat":35.64744222,"lon":139.69484879},{"name":"上目黒二丁目","province":"東京都","city":"目黒区","address":"東京都目黒区上目黒2丁目10-8","lat":35.64136524,"lon":139.69935419},{"name":"上目黒一丁目","province":"東京都","city":"目黒区","address":"東京都目黒区青葉台1丁目6","lat":35.64784505,"lon":139.69892067},{"name":"東山一丁目","province":"東京都","city":"目黒区","address":"東京都目黒区東山1丁目6-1","lat":35.64630071,"lon":139.69605151},{"name":"西郷山公園前","province":"東京都","city":"目黒区","address":"東京都目黒区青葉台2丁目10","lat":35.65029745,"lon":139.69516256},{"name":"目黒区総合庁舎前","province":"東京都","city":"目黒区","address":"東京都目黒区中目黒3丁目13-22","lat":35.63919604,"lon":139.69918204},{"name":"碑文谷","province":"東京都","city":"目黒区","address":"東京都目黒区碑文谷2丁目21-13","lat":35.62283372,"lon":139.68495871},{"name":"都立大学駅前","province":"東京都","city":"目黒区","address":"東京都目黒区柿の木坂1丁目30-8","lat":35.61855895,"lon":139.67549296},{"name":"柿の木坂","province":"東京都","city":"目黒区","address":"東京都目黒区柿の木坂3丁目8-13","lat":35.6265135,"lon":139.67227909},{"name":"南一丁目","province":"東京都","city":"目黒区","address":"東京都目黒区南1丁目24-10","lat":35.6132738,"lon":139.68706997},{"name":"柿の木坂陸橋下","province":"東京都","city":"目黒区","address":"東京都目黒区平町1丁目1-1","lat":35.62007002,"lon":139.68040916},{"name":"中根一丁目","province":"東京都","city":"目黒区","address":"東京都目黒区中根1丁目5-1","lat":35.61718968,"lon":139.6759513},{"name":"八雲一丁目","province":"東京都","city":"目黒区","address":"東京都目黒区八雲1丁目1-1","lat":35.62149186,"lon":139.67275697},{"name":"八雲小学校入口","province":"東京都","city":"目黒区","address":"東京都目黒区柿の木坂1丁目31-15","lat":35.61941994,"lon":139.6748402},{"name":"大岡山小学校前","province":"東京都","city":"目黒区","address":"東京都目黒区碑文谷3丁目19-8","lat":35.61628445,"lon":139.68343961},{"name":"田向公園入口","province":"東京都","city":"目黒区","address":"東京都目黒区碑文谷2丁目11-22","lat":35.62386141,"lon":139.68676963},{"name":"国立病院東京医療センター正門前","province":"東京都","city":"目黒区","address":"東京都目黒区東が丘2丁目5-1","lat":35.62656333,"lon":139.66598239},{"name":"学芸大学駅入口","province":"東京都","city":"目黒区","address":"東京都目黒区鷹番3丁目1","lat":35.62949961,"lon":139.68583621},{"name":"八雲給水所","province":"東京都","city":"目黒区","address":"東京都目黒区八雲1丁目1","lat":35.62130575,"lon":139.67178483},{"name":"都立林試の森公園","province":"東京都","city":"目黒区","address":"東京都目黒区下目黒5丁目37","lat":35.62487834,"lon":139.70415426},{"name":"株式会社　あおば葬祭","province":"東京都","city":"目黒区","address":"東京都目黒区下目黒5丁目7-1","lat":35.62943615,"lon":139.70472908},{"name":"勝山葬祭　株式会社","province":"東京都","city":"目黒区","address":"東京都目黒区洗足2丁目21-17","lat":35.61003269,"lon":139.69382229},{"name":"葬祭総合センター　株式会社　門脇","province":"東京都","city":"目黒区","address":"東京都目黒区目黒本町4丁目14-14","lat":35.62328667,"lon":139.69439958},{"name":"株式会社　式典","province":"東京都","city":"目黒区","address":"東京都目黒区平町1丁目26-20","lat":35.61782019,"lon":139.6768262},{"name":"すみやセレモニー　株式会社","province":"東京都","city":"目黒区","address":"東京都目黒区祐天寺2丁目10-3","lat":35.63682115,"lon":139.69230491},{"name":"東京式典　株式会社","province":"東京都","city":"目黒区","address":"東京都目黒区鷹番3丁目8-6","lat":35.62931629,"lon":139.68532237},{"name":"株式会社　花会","province":"東京都","city":"目黒区","address":"東京都目黒区碑文谷1丁目5-1","lat":35.61927878,"lon":139.69272762},{"name":"有限会社　花心","province":"東京都","city":"目黒区","address":"東京都目黒区柿の木坂1丁目34-15","lat":35.62170576,"lon":139.67397075},{"name":"有限会社　横山葬祭","province":"東京都","city":"目黒区","address":"東京都目黒区五本木2丁目20-3","lat":35.63450191,"lon":139.68991628},{"name":"有限会社　吉田葬儀社","province":"東京都","city":"目黒区","address":"東京都目黒区原町1丁目12-6","lat":35.61546269,"lon":139.69711628},{"name":"こどもば食堂＠上目黒","province":"東京都","city":"目黒区","address":"東京都目黒区祐天寺2丁目6-6","lat":35.6370906,"lon":139.69376866},{"name":"こどもば食堂＠中央町","province":"東京都","city":"目黒区","address":"東京都目黒区中央町2丁目4-18","lat":35.6318745,"lon":139.69222728},{"name":"かみめみんなの食堂","province":"東京都","city":"目黒区","address":"東京都目黒区祐天寺2丁目6-6","lat":35.6370906,"lon":139.69376866},{"name":"おてらでごはん","province":"東京都","city":"目黒区","address":"東京都目黒区中目黒5丁目24-53","lat":35.63690459,"lon":139.69705729},{"name":"ちゃいるどべーす目黒本町","province":"東京都","city":"目黒区","address":"東京都目黒区目黒本町2丁目1-20","lat":35.62522258,"lon":139.69522445},{"name":"すずめ食堂","province":"東京都","city":"目黒区","address":"東京都目黒区碑文谷3丁目15-5","lat":35.61786761,"lon":139.68421449},{"name":"とりつだい処","province":"東京都","city":"目黒区","address":"東京都目黒区八雲1丁目10-5","lat":35.61871439,"lon":139.67224043},{"name":"ECO膳","province":"東京都","city":"目黒区","address":"東京都目黒区東が丘1丁目7-14","lat":35.62727725,"lon":139.67001258},{"name":"まると食堂","province":"東京都","city":"目黒区","address":"東京都目黒区青葉台2丁目10-18","lat":35.6498003,"lon":139.69561254},{"name":"おやこカフェ","province":"東京都","city":"目黒区","address":"東京都目黒区目黒本町4丁目3-14","lat":35.62321732,"lon":139.6982187},{"name":"青葉台一丁目","province":"東京都","city":"目黒区","address":"東京都目黒区東山1丁目2-7","lat":35.64771994,"lon":139.69357111},{"name":"中目黒","province":"東京都","city":"目黒区","address":"東京都目黒区上目黒2丁目9-5","lat":35.64276232,"lon":139.7003735},{"name":"田道","province":"東京都","city":"目黒区","address":"東京都目黒区目黒2丁目14-13","lat":35.63631596,"lon":139.7063843},{"name":"目黒不動入口","province":"東京都","city":"目黒区","address":"東京都目黒区下目黒2丁目24-7","lat":35.62927518,"lon":139.71109241},{"name":"目黒税務署前","province":"東京都","city":"目黒区","address":"東京都目黒区祐天寺2丁目8-12","lat":35.63629903,"lon":139.69416588},{"name":"上目黒三丁目","province":"東京都","city":"目黒区","address":"東京都目黒区青葉台1丁目22-6","lat":35.64599799,"lon":139.69734031},{"name":"駒場町","province":"東京都","city":"目黒区","address":"東京都目黒区駒場2丁目16-4","lat":35.65581597,"lon":139.68286061},{"name":"守屋図書館前","province":"東京都","city":"目黒区","address":"東京都目黒区中央町2丁目1-13","lat":35.63362978,"lon":139.68948578},{"name":"中央町二丁目","province":"東京都","city":"目黒区","address":"東京都目黒区中町2丁目45-8","lat":35.63318267,"lon":139.69189116},{"name":"池尻ランプ前","province":"東京都","city":"目黒区","address":"東京都目黒区大橋1丁目10-1","lat":35.65126102,"lon":139.68642992},{"name":"中目黒駅前","province":"東京都","city":"目黒区","address":"東京都目黒区上目黒1丁目23-1","lat":35.6444149,"lon":139.69964295},{"name":"西郷山下","province":"東京都","city":"目黒区","address":"東京都目黒区青葉台1丁目12-3","lat":35.64866154,"lon":139.69552092},{"name":"青葉台一丁目第二","province":"東京都","city":"目黒区","address":"東京都目黒区青葉台1丁目28-12","lat":35.64744222,"lon":139.69484879},{"name":"上目黒二丁目","province":"東京都","city":"目黒区","address":"東京都目黒区上目黒2丁目10-8","lat":35.64136524,"lon":139.69935419},{"name":"上目黒一丁目","province":"東京都","city":"目黒区","address":"東京都目黒区青葉台1丁目6","lat":35.64784505,"lon":139.69892067},{"name":"東山一丁目","province":"東京都","city":"目黒区","address":"東京都目黒区東山1丁目6-1","lat":35.64630071,"lon":139.69605151},{"name":"西郷山公園前","province":"東京都","city":"目黒区","address":"東京都目黒区青葉台2丁目10","lat":35.65029745,"lon":139.69516256},{"name":"目黒区総合庁舎前","province":"東京都","city":"目黒区","address":"東京都目黒区中目黒3丁目13-22","lat":35.63919604,"lon":139.69918204},{"name":"碑文谷","province":"東京都","city":"目黒区","address":"東京都目黒区碑文谷2丁目21-13","lat":35.62283372,"lon":139.68495871},{"name":"都立大学駅前","province":"東京都","city":"目黒区","address":"東京都目黒区柿の木坂1丁目30-8","lat":35.61855895,"lon":139.67549296},{"name":"柿の木坂","province":"東京都","city":"目黒区","address":"東京都目黒区柿の木坂3丁目8-13","lat":35.6265135,"lon":139.67227909},{"name":"南一丁目","province":"東京都","city":"目黒区","address":"東京都目黒区南1丁目24-10","lat":35.6132738,"lon":139.68706997},{"name":"柿の木坂陸橋下","province":"東京都","city":"目黒区","address":"東京都目黒区平町1丁目1-1","lat":35.62007002,"lon":139.68040916},{"name":"中根一丁目","province":"東京都","city":"目黒区","address":"東京都目黒区中根1丁目5-1","lat":35.61718968,"lon":139.6759513},{"name":"八雲一丁目","province":"東京都","city":"目黒区","address":"東京都目黒区八雲1丁目1-1","lat":35.62149186,"lon":139.67275697},{"name":"八雲小学校入口","province":"東京都","city":"目黒区","address":"東京都目黒区柿の木坂1丁目31-15","lat":35.61941994,"lon":139.6748402},{"name":"大岡山小学校前","province":"東京都","city":"目黒区","address":"東京都目黒区碑文谷3丁目19-8","lat":35.61628445,"lon":139.68343961},{"name":"田向公園入口","province":"東京都","city":"目黒区","address":"東京都目黒区碑文谷2丁目11-22","lat":35.62386141,"lon":139.68676963},{"name":"国立病院東京医療センター正門前","province":"東京都","city":"目黒区","address":"東京都目黒区東が丘2丁目5-1","lat":35.62656333,"lon":139.66598239},{"name":"学芸大学駅入口","province":"東京都","city":"目黒区","address":"東京都目黒区鷹番3丁目1","lat":35.62949961,"lon":139.68583621},{"name":"八雲給水所","province":"東京都","city":"目黒区","address":"東京都目黒区八雲1丁目1","lat":35.62130575,"lon":139.67178483},{"name":"都立林試の森公園","province":"東京都","city":"目黒区","address":"東京都目黒区下目黒5丁目37","lat":35.62487834,"lon":139.70415426},{"name":"株式会社　あおば葬祭","province":"東京都","city":"目黒区","address":"東京都目黒区下目黒5丁目7-1","lat":35.62943615,"lon":139.70472908},{"name":"勝山葬祭　株式会社","province":"東京都","city":"目黒区","address":"東京都目黒区洗足2丁目21-17","lat":35.61003269,"lon":139.69382229},{"name":"葬祭総合センター　株式会社　門脇","province":"東京都","city":"目黒区","address":"東京都目黒区目黒本町4丁目14-14","lat":35.62328667,"lon":139.69439958},{"name":"株式会社　式典","province":"東京都","city":"目黒区","address":"東京都目黒区平町1丁目26-20","lat":35.61782019,"lon":139.6768262},{"name":"すみやセレモニー　株式会社","province":"東京都","city":"目黒区","address":"東京都目黒区祐天寺2丁目10-3","lat":35.63682115,"lon":139.69230491},{"name":"東京式典　株式会社","province":"東京都","city":"目黒区","address":"東京都目黒区鷹番3丁目8-6","lat":35.62931629,"lon":139.68532237},{"name":"株式会社　花会","province":"東京都","city":"目黒区","address":"東京都目黒区碑文谷1丁目5-1","lat":35.61927878,"lon":139.69272762},{"name":"有限会社　花心","province":"東京都","city":"目黒区","address":"東京都目黒区柿の木坂1丁目34-15","lat":35.62170576,"lon":139.67397075},{"name":"有限会社　横山葬祭","province":"東京都","city":"目黒区","address":"東京都目黒区五本木2丁目20-3","lat":35.63450191,"lon":139.68991628},{"name":"有限会社　吉田葬儀社","province":"東京都","city":"目黒区","address":"東京都目黒区原町1丁目12-6","lat":35.61546269,"lon":139.69711628},{"name":"こどもば食堂＠上目黒","province":"東京都","city":"目黒区","address":"東京都目黒区祐天寺2丁目6-6","lat":35.6370906,"lon":139.69376866},{"name":"こどもば食堂＠中央町","province":"東京都","city":"目黒区","address":"東京都目黒区中央町2丁目4-18","lat":35.6318745,"lon":139.69222728},{"name":"かみめみんなの食堂","province":"東京都","city":"目黒区","address":"東京都目黒区祐天寺2丁目6-6","lat":35.6370906,"lon":139.69376866},{"name":"おてらでごはん","province":"東京都","city":"目黒区","address":"東京都目黒区中目黒5丁目24-53","lat":35.63690459,"lon":139.69705729},{"name":"ちゃいるどべーす目黒本町","province":"東京都","city":"目黒区","address":"東京都目黒区目黒本町2丁目1-20","lat":35.62522258,"lon":139.69522445},{"name":"すずめ食堂","province":"東京都","city":"目黒区","address":"東京都目黒区碑文谷3丁目15-5","lat":35.61786761,"lon":139.68421449},{"name":"とりつだい処","province":"東京都","city":"目黒区","address":"東京都目黒区八雲1丁目10-5","lat":35.61871439,"lon":139.67224043},{"name":"ECO膳","province":"東京都","city":"目黒区","address":"東京都目黒区東が丘1丁目7-14","lat":35.62727725,"lon":139.67001258},{"name":"まると食堂","province":"東京都","city":"目黒区","address":"東京都目黒区青葉台2丁目10-18","lat":35.6498003,"lon":139.69561254},{"name":"おやこカフェ","province":"東京都","city":"目黒区","address":"東京都目黒区目黒本町4丁目3-14","lat":35.62321732,"lon":139.6982187},{"name":"青葉台一丁目","province":"東京都","city":"目黒区","address":"東京都目黒区東山1丁目2-7","lat":35.64771994,"lon":139.69357111},{"name":"中目黒","province":"東京都","city":"目黒区","address":"東京都目黒区上目黒2丁目9-5","lat":35.64276232,"lon":139.7003735},{"name":"田道","province":"東京都","city":"目黒区","address":"東京都目黒区目黒2丁目14-13","lat":35.63631596,"lon":139.7063843},{"name":"目黒不動入口","province":"東京都","city":"目黒区","address":"東京都目黒区下目黒2丁目24-7","lat":35.62927518,"lon":139.71109241},{"name":"目黒税務署前","province":"東京都","city":"目黒区","address":"東京都目黒区祐天寺2丁目8-12","lat":35.63629903,"lon":139.69416588},{"name":"上目黒三丁目","province":"東京都","city":"目黒区","address":"東京都目黒区青葉台1丁目22-6","lat":35.64599799,"lon":139.69734031},{"name":"駒場町","province":"東京都","city":"目黒区","address":"東京都目黒区駒場2丁目16-4","lat":35.65581597,"lon":139.68286061},{"name":"守屋図書館前","province":"東京都","city":"目黒区","address":"東京都目黒区中央町2丁目1-13","lat":35.63362978,"lon":139.68948578},{"name":"中央町二丁目","province":"東京都","city":"目黒区","address":"東京都目黒区中町2丁目45-8","lat":35.63318267,"lon":139.69189116},{"name":"池尻ランプ前","province":"東京都","city":"目黒区","address":"東京都目黒区大橋1丁目10-1","lat":35.65126102,"lon":139.68642992},{"name":"中目黒駅前","province":"東京都","city":"目黒区","address":"東京都目黒区上目黒1丁目23-1","lat":35.6444149,"lon":139.69964295},{"name":"西郷山下","province":"東京都","city":"目黒区","address":"東京都目黒区青葉台1丁目12-3","lat":35.64866154,"lon":139.69552092},{"name":"青葉台一丁目第二","province":"東京都","city":"目黒区","address":"東京都目黒区青葉台1丁目28-12","lat":35.64744222,"lon":139.69484879},{"name":"上目黒二丁目","province":"東京都","city":"目黒区","address":"東京都目黒区上目黒2丁目10-8","lat":35.64136524,"lon":139.69935419},{"name":"上目黒一丁目","province":"東京都","city":"目黒区","address":"東京都目黒区青葉台1丁目6","lat":35.64784505,"lon":139.69892067},{"name":"東山一丁目","province":"東京都","city":"目黒区","address":"東京都目黒区東山1丁目6-1","lat":35.64630071,"lon":139.69605151},{"name":"西郷山公園前","province":"東京都","city":"目黒区","address":"東京都目黒区青葉台2丁目10","lat":35.65029745,"lon":139.69516256},{"name":"目黒区総合庁舎前","province":"東京都","city":"目黒区","address":"東京都目黒区中目黒3丁目13-22","lat":35.63919604,"lon":139.69918204},{"name":"碑文谷","province":"東京都","city":"目黒区","address":"東京都目黒区碑文谷2丁目21-13","lat":35.62283372,"lon":139.68495871},{"name":"都立大学駅前","province":"東京都","city":"目黒区","address":"東京都目黒区柿の木坂1丁目30-8","lat":35.61855895,"lon":139.67549296},{"name":"柿の木坂","province":"東京都","city":"目黒区","address":"東京都目黒区柿の木坂3丁目8-13","lat":35.6265135,"lon":139.67227909},{"name":"南一丁目","province":"東京都","city":"目黒区","address":"東京都目黒区南1丁目24-10","lat":35.6132738,"lon":139.68706997},{"name":"柿の木坂陸橋下","province":"東京都","city":"目黒区","address":"東京都目黒区平町1丁目1-1","lat":35.62007002,"lon":139.68040916},{"name":"中根一丁目","province":"東京都","city":"目黒区","address":"東京都目黒区中根1丁目5-1","lat":35.61718968,"lon":139.6759513},{"name":"八雲一丁目","province":"東京都","city":"目黒区","address":"東京都目黒区八雲1丁目1-1","lat":35.62149186,"lon":139.67275697},{"name":"八雲小学校入口","province":"東京都","city":"目黒区","address":"東京都目黒区柿の木坂1丁目31-15","lat":35.61941994,"lon":139.6748402},{"name":"大岡山小学校前","province":"東京都","city":"目黒区","address":"東京都目黒区碑文谷3丁目19-8","lat":35.61628445,"lon":139.68343961},{"name":"田向公園入口","province":"東京都","city":"目黒区","address":"東京都目黒区碑文谷2丁目11-22","lat":35.62386141,"lon":139.68676963},{"name":"国立病院東京医療センター正門前","province":"東京都","city":"目黒区","address":"東京都目黒区東が丘2丁目5-1","lat":35.62656333,"lon":139.66598239},{"name":"学芸大学駅入口","province":"東京都","city":"目黒区","address":"東京都目黒区鷹番3丁目1","lat":35.62949961,"lon":139.68583621},{"name":"八雲給水所","province":"東京都","city":"目黒区","address":"東京都目黒区八雲1丁目1","lat":35.62130575,"lon":139.67178483},{"name":"都立林試の森公園","province":"東京都","city":"目黒区","address":"東京都目黒区下目黒5丁目37","lat":35.62487834,"lon":139.70415426},{"name":"株式会社　あおば葬祭","province":"東京都","city":"目黒区","address":"東京都目黒区下目黒5丁目7-1","lat":35.62943615,"lon":139.70472908},{"name":"勝山葬祭　株式会社","province":"東京都","city":"目黒区","address":"東京都目黒区洗足2丁目21-17","lat":35.61003269,"lon":139.69382229},{"name":"葬祭総合センター　株式会社　門脇","province":"東京都","city":"目黒区","address":"東京都目黒区目黒本町4丁目14-14","lat":35.62328667,"lon":139.69439958},{"name":"株式会社　式典","province":"東京都","city":"目黒区","address":"東京都目黒区平町1丁目26-20","lat":35.61782019,"lon":139.6768262},{"name":"すみやセレモニー　株式会社","province":"東京都","city":"目黒区","address":"東京都目黒区祐天寺2丁目10-3","lat":35.63682115,"lon":139.69230491},{"name":"東京式典　株式会社","province":"東京都","city":"目黒区","address":"東京都目黒区鷹番3丁目8-6","lat":35.62931629,"lon":139.68532237},{"name":"株式会社　花会","province":"東京都","city":"目黒区","address":"東京都目黒区碑文谷1丁目5-1","lat":35.61927878,"lon":139.69272762},{"name":"有限会社　花心","province":"東京都","city":"目黒区","address":"東京都目黒区柿の木坂1丁目34-15","lat":35.62170576,"lon":139.67397075},{"name":"有限会社　横山葬祭","province":"東京都","city":"目黒区","address":"東京都目黒区五本木2丁目20-3","lat":35.63450191,"lon":139.68991628},{"name":"有限会社　吉田葬儀社","province":"東京都","city":"目黒区","address":"東京都目黒区原町1丁目12-6","lat":35.61546269,"lon":139.69711628},{"name":"こどもば食堂＠上目黒","province":"東京都","city":"目黒区","address":"東京都目黒区祐天寺2丁目6-6","lat":35.6370906,"lon":139.69376866},{"name":"こどもば食堂＠中央町","province":"東京都","city":"目黒区","address":"東京都目黒区中央町2丁目4-18","lat":35.6318745,"lon":139.69222728},{"name":"かみめみんなの食堂","province":"東京都","city":"目黒区","address":"東京都目黒区祐天寺2丁目6-6","lat":35.6370906,"lon":139.69376866},{"name":"おてらでごはん","province":"東京都","city":"目黒区","address":"東京都目黒区中目黒5丁目24-53","lat":35.63690459,"lon":139.69705729},{"name":"ちゃいるどべーす目黒本町","province":"東京都","city":"目黒区","address":"東京都目黒区目黒本町2丁目1-20","lat":35.62522258,"lon":139.69522445},{"name":"すずめ食堂","province":"東京都","city":"目黒区","address":"東京都目黒区碑文谷3丁目15-5","lat":35.61786761,"lon":139.68421449},{"name":"とりつだい処","province":"東京都","city":"目黒区","address":"東京都目黒区八雲1丁目10-5","lat":35.61871439,"lon":139.67224043},{"name":"ECO膳","province":"東京都","city":"目黒区","address":"東京都目黒区東が丘1丁目7-14","lat":35.62727725,"lon":139.67001258},{"name":"まると食堂","province":"東京都","city":"目黒区","address":"東京都目黒区青葉台2丁目10-18","lat":35.6498003,"lon":139.69561254},{"name":"おやこカフェ","province":"東京都","city":"目黒区","address":"東京都目黒区目黒本町4丁目3-14","lat":35.62321732,"lon":139.6982187},{"name":"青葉台一丁目","province":"東京都","city":"目黒区","address":"東京都目黒区東山1丁目2-7","lat":35.64771994,"lon":139.69357111},{"name":"中目黒","province":"東京都","city":"目黒区","address":"東京都目黒区上目黒2丁目9-5","lat":35.64276232,"lon":139.7003735},{"name":"田道","province":"東京都","city":"目黒区","address":"東京都目黒区目黒2丁目14-13","lat":35.63631596,"lon":139.7063843},{"name":"目黒不動入口","province":"東京都","city":"目黒区","address":"東京都目黒区下目黒2丁目24-7","lat":35.62927518,"lon":139.71109241},{"name":"目黒税務署前","province":"東京都","city":"目黒区","address":"東京都目黒区祐天寺2丁目8-12","lat":35.63629903,"lon":139.69416588},{"name":"上目黒三丁目","province":"東京都","city":"目黒区","address":"東京都目黒区青葉台1丁目22-6","lat":35.64599799,"lon":139.69734031},{"name":"駒場町","province":"東京都","city":"目黒区","address":"東京都目黒区駒場2丁目16-4","lat":35.65581597,"lon":139.68286061},{"name":"守屋図書館前","province":"東京都","city":"目黒区","address":"東京都目黒区中央町2丁目1-13","lat":35.63362978,"lon":139.68948578},{"name":"中央町二丁目","province":"東京都","city":"目黒区","address":"東京都目黒区中町2丁目45-8","lat":35.63318267,"lon":139.69189116},{"name":"池尻ランプ前","province":"東京都","city":"目黒区","address":"東京都目黒区大橋1丁目10-1","lat":35.65126102,"lon":139.68642992},{"name":"中目黒駅前","province":"東京都","city":"目黒区","address":"東京都目黒区上目黒1丁目23-1","lat":35.6444149,"lon":139.69964295},{"name":"西郷山下","province":"東京都","city":"目黒区","address":"東京都目黒区青葉台1丁目12-3","lat":35.64866154,"lon":139.69552092},{"name":"青葉台一丁目第二","province":"東京都","city":"目黒区","address":"東京都目黒区青葉台1丁目28-12","lat":35.64744222,"lon":139.69484879},{"name":"上目黒二丁目","province":"東京都","city":"目黒区","address":"東京都目黒区上目黒2丁目10-8","lat":35.64136524,"lon":139.69935419},{"name":"上目黒一丁目","province":"東京都","city":"目黒区","address":"東京都目黒区青葉台1丁目6","lat":35.64784505,"lon":139.69892067},{"name":"東山一丁目","province":"東京都","city":"目黒区","address":"東京都目黒区東山1丁目6-1","lat":35.64630071,"lon":139.69605151},{"name":"西郷山公園前","province":"東京都","city":"目黒区","address":"東京都目黒区青葉台2丁目10","lat":35.65029745,"lon":139.69516256},{"name":"目黒区総合庁舎前","province":"東京都","city":"目黒区","address":"東京都目黒区中目黒3丁目13-22","lat":35.63919604,"lon":139.69918204},{"name":"碑文谷","province":"東京都","city":"目黒区","address":"東京都目黒区碑文谷2丁目21-13","lat":35.62283372,"lon":139.68495871},{"name":"都立大学駅前","province":"東京都","city":"目黒区","address":"東京都目黒区柿の木坂1丁目30-8","lat":35.61855895,"lon":139.67549296},{"name":"柿の木坂","province":"東京都","city":"目黒区","address":"東京都目黒区柿の木坂3丁目8-13","lat":35.6265135,"lon":139.67227909},{"name":"南一丁目","province":"東京都","city":"目黒区","address":"東京都目黒区南1丁目24-10","lat":35.6132738,"lon":139.68706997},{"name":"柿の木坂陸橋下","province":"東京都","city":"目黒区","address":"東京都目黒区平町1丁目1-1","lat":35.62007002,"lon":139.68040916},{"name":"中根一丁目","province":"東京都","city":"目黒区","address":"東京都目黒区中根1丁目5-1","lat":35.61718968,"lon":139.6759513},{"name":"八雲一丁目","province":"東京都","city":"目黒区","address":"東京都目黒区八雲1丁目1-1","lat":35.62149186,"lon":139.67275697},{"name":"八雲小学校入口","province":"東京都","city":"目黒区","address":"東京都目黒区柿の木坂1丁目31-15","lat":35.61941994,"lon":139.6748402},{"name":"大岡山小学校前","province":"東京都","city":"目黒区","address":"東京都目黒区碑文谷3丁目19-8","lat":35.61628445,"lon":139.68343961},{"name":"田向公園入口","province":"東京都","city":"目黒区","address":"東京都目黒区碑文谷2丁目11-22","lat":35.62386141,"lon":139.68676963},{"name":"国立病院東京医療センター正門前","province":"東京都","city":"目黒区","address":"東京都目黒区東が丘2丁目5-1","lat":35.62656333,"lon":139.66598239},{"name":"学芸大学駅入口","province":"東京都","city":"目黒区","address":"東京都目黒区鷹番3丁目1","lat":35.62949961,"lon":139.68583621},{"name":"八雲給水所","province":"東京都","city":"目黒区","address":"東京都目黒区八雲1丁目1","lat":35.62130575,"lon":139.67178483},{"name":"都立林試の森公園","province":"東京都","city":"目黒区","address":"東京都目黒区下目黒5丁目37","lat":35.62487834,"lon":139.70415426},{"name":"株式会社　あおば葬祭","province":"東京都","city":"目黒区","address":"東京都目黒区下目黒5丁目7-1","lat":35.62943615,"lon":139.70472908},{"name":"勝山葬祭　株式会社","province":"東京都","city":"目黒区","address":"東京都目黒区洗足2丁目21-17","lat":35.61003269,"lon":139.69382229},{"name":"葬祭総合センター　株式会社　門脇","province":"東京都","city":"目黒区","address":"東京都目黒区目黒本町4丁目14-14","lat":35.62328667,"lon":139.69439958},{"name":"株式会社　式典","province":"東京都","city":"目黒区","address":"東京都目黒区平町1丁目26-20","lat":35.61782019,"lon":139.6768262},{"name":"すみやセレモニー　株式会社","province":"東京都","city":"目黒区","address":"東京都目黒区祐天寺2丁目10-3","lat":35.63682115,"lon":139.69230491},{"name":"東京式典　株式会社","province":"東京都","city":"目黒区","address":"東京都目黒区鷹番3丁目8-6","lat":35.62931629,"lon":139.68532237},{"name":"株式会社　花会","province":"東京都","city":"目黒区","address":"東京都目黒区碑文谷1丁目5-1","lat":35.61927878,"lon":139.69272762},{"name":"有限会社　花心","province":"東京都","city":"目黒区","address":"東京都目黒区柿の木坂1丁目34-15","lat":35.62170576,"lon":139.67397075},{"name":"有限会社　横山葬祭","province":"東京都","city":"目黒区","address":"東京都目黒区五本木2丁目20-3","lat":35.63450191,"lon":139.68991628},{"name":"有限会社　吉田葬儀社","province":"東京都","city":"目黒区","address":"東京都目黒区原町1丁目12-6","lat":35.61546269,"lon":139.69711628},{"name":"こどもば食堂＠上目黒","province":"東京都","city":"目黒区","address":"東京都目黒区祐天寺2丁目6-6","lat":35.6370906,"lon":139.69376866},{"name":"こどもば食堂＠中央町","province":"東京都","city":"目黒区","address":"東京都目黒区中央町2丁目4-18","lat":35.6318745,"lon":139.69222728},{"name":"かみめみんなの食堂","province":"東京都","city":"目黒区","address":"東京都目黒区祐天寺2丁目6-6","lat":35.6370906,"lon":139.69376866},{"name":"おてらでごはん","province":"東京都","city":"目黒区","address":"東京都目黒区中目黒5丁目24-53","lat":35.63690459,"lon":139.69705729},{"name":"ちゃいるどべーす目黒本町","province":"東京都","city":"目黒区","address":"東京都目黒区目黒本町2丁目1-20","lat":35.62522258,"lon":139.69522445},{"name":"すずめ食堂","province":"東京都","city":"目黒区","address":"東京都目黒区碑文谷3丁目15-5","lat":35.61786761,"lon":139.68421449},{"name":"とりつだい処","province":"東京都","city":"目黒区","address":"東京都目黒区八雲1丁目10-5","lat":35.61871439,"lon":139.67224043},{"name":"ECO膳","province":"東京都","city":"目黒区","address":"東京都目黒区東が丘1丁目7-14","lat":35.62727725,"lon":139.67001258},{"name":"まると食堂","province":"東京都","city":"目黒区","address":"東京都目黒区青葉台2丁目10-18","lat":35.6498003,"lon":139.69561254},{"name":"おやこカフェ","province":"東京都","city":"目黒区","address":"東京都目黒区目黒本町4丁目3-14","lat":35.62321732,"lon":139.6982187},{"name":"青葉台一丁目","province":"東京都","city":"目黒区","address":"東京都目黒区東山1丁目2-7","lat":35.64771994,"lon":139.69357111},{"name":"中目黒","province":"東京都","city":"目黒区","address":"東京都目黒区上目黒2丁目9-5","lat":35.64276232,"lon":139.7003735},{"name":"田道","province":"東京都","city":"目黒区","address":"東京都目黒区目黒2丁目14-13","lat":35.63631596,"lon":139.7063843},{"name":"目黒不動入口","province":"東京都","city":"目黒区","address":"東京都目黒区下目黒2丁目24-7","lat":35.62927518,"lon":139.71109241},{"name":"目黒税務署前","province":"東京都","city":"目黒区","address":"東京都目黒区祐天寺2丁目8-12","lat":35.63629903,"lon":139.69416588},{"name":"上目黒三丁目","province":"東京都","city":"目黒区","address":"東京都目黒区青葉台1丁目22-6","lat":35.64599799,"lon":139.69734031},{"name":"駒場町","province":"東京都","city":"目黒区","address":"東京都目黒区駒場2丁目16-4","lat":35.65581597,"lon":139.68286061},{"name":"守屋図書館前","province":"東京都","city":"目黒区","address":"東京都目黒区中央町2丁目1-13","lat":35.63362978,"lon":139.68948578},{"name":"中央町二丁目","province":"東京都","city":"目黒区","address":"東京都目黒区中町2丁目45-8","lat":35.63318267,"lon":139.69189116},{"name":"池尻ランプ前","province":"東京都","city":"目黒区","address":"東京都目黒区大橋1丁目10-1","lat":35.65126102,"lon":139.68642992},{"name":"中目黒駅前","province":"東京都","city":"目黒区","address":"東京都目黒区上目黒1丁目23-1","lat":35.6444149,"lon":139.69964295},{"name":"西郷山下","province":"東京都","city":"目黒区","address":"東京都目黒区青葉台1丁目12-3","lat":35.64866154,"lon":139.69552092},{"name":"青葉台一丁目第二","province":"東京都","city":"目黒区","address":"東京都目黒区青葉台1丁目28-12","lat":35.64744222,"lon":139.69484879},{"name":"上目黒二丁目","province":"東京都","city":"目黒区","address":"東京都目黒区上目黒2丁目10-8","lat":35.64136524,"lon":139.69935419},{"name":"上目黒一丁目","province":"東京都","city":"目黒区","address":"東京都目黒区青葉台1丁目6","lat":35.64784505,"lon":139.69892067},{"name":"東山一丁目","province":"東京都","city":"目黒区","address":"東京都目黒区東山1丁目6-1","lat":35.64630071,"lon":139.69605151},{"name":"西郷山公園前","province":"東京都","city":"目黒区","address":"東京都目黒区青葉台2丁目10","lat":35.65029745,"lon":139.69516256},{"name":"目黒区総合庁舎前","province":"東京都","city":"目黒区","address":"東京都目黒区中目黒3丁目13-22","lat":35.63919604,"lon":139.69918204},{"name":"碑文谷","province":"東京都","city":"目黒区","address":"東京都目黒区碑文谷2丁目21-13","lat":35.62283372,"lon":139.68495871},{"name":"都立大学駅前","province":"東京都","city":"目黒区","address":"東京都目黒区柿の木坂1丁目30-8","lat":35.61855895,"lon":139.67549296},{"name":"柿の木坂","province":"東京都","city":"目黒区","address":"東京都目黒区柿の木坂3丁目8-13","lat":35.6265135,"lon":139.67227909},{"name":"南一丁目","province":"東京都","city":"目黒区","address":"東京都目黒区南1丁目24-10","lat":35.6132738,"lon":139.68706997},{"name":"柿の木坂陸橋下","province":"東京都","city":"目黒区","address":"東京都目黒区平町1丁目1-1","lat":35.62007002,"lon":139.68040916},{"name":"中根一丁目","province":"東京都","city":"目黒区","address":"東京都目黒区中根1丁目5-1","lat":35.61718968,"lon":139.6759513},{"name":"八雲一丁目","province":"東京都","city":"目黒区","address":"東京都目黒区八雲1丁目1-1","lat":35.62149186,"lon":139.67275697},{"name":"八雲小学校入口","province":"東京都","city":"目黒区","address":"東京都目黒区柿の木坂1丁目31-15","lat":35.61941994,"lon":139.6748402},{"name":"大岡山小学校前","province":"東京都","city":"目黒区","address":"東京都目黒区碑文谷3丁目19-8","lat":35.61628445,"lon":139.68343961},{"name":"田向公園入口","province":"東京都","city":"目黒区","address":"東京都目黒区碑文谷2丁目11-22","lat":35.62386141,"lon":139.68676963},{"name":"国立病院東京医療センター正門前","province":"東京都","city":"目黒区","address":"東京都目黒区東が丘2丁目5-1","lat":35.62656333,"lon":139.66598239},{"name":"学芸大学駅入口","province":"東京都","city":"目黒区","address":"東京都目黒区鷹番3丁目1","lat":35.62949961,"lon":139.68583621},{"name":"八雲給水所","province":"東京都","city":"目黒区","address":"東京都目黒区八雲1丁目1","lat":35.62130575,"lon":139.67178483},{"name":"都立林試の森公園","province":"東京都","city":"目黒区","address":"東京都目黒区下目黒5丁目37","lat":35.62487834,"lon":139.70415426},{"name":"株式会社　あおば葬祭","province":"東京都","city":"目黒区","address":"東京都目黒区下目黒5丁目7-1","lat":35.62943615,"lon":139.70472908},{"name":"勝山葬祭　株式会社","province":"東京都","city":"目黒区","address":"東京都目黒区洗足2丁目21-17","lat":35.61003269,"lon":139.69382229},{"name":"葬祭総合センター　株式会社　門脇","province":"東京都","city":"目黒区","address":"東京都目黒区目黒本町4丁目14-14","lat":35.62328667,"lon":139.69439958},{"name":"株式会社　式典","province":"東京都","city":"目黒区","address":"東京都目黒区平町1丁目26-20","lat":35.61782019,"lon":139.6768262},{"name":"すみやセレモニー　株式会社","province":"東京都","city":"目黒区","address":"東京都目黒区祐天寺2丁目10-3","lat":35.63682115,"lon":139.69230491},{"name":"東京式典　株式会社","province":"東京都","city":"目黒区","address":"東京都目黒区鷹番3丁目8-6","lat":35.62931629,"lon":139.68532237},{"name":"株式会社　花会","province":"東京都","city":"目黒区","address":"東京都目黒区碑文谷1丁目5-1","lat":35.61927878,"lon":139.69272762},{"name":"有限会社　花心","province":"東京都","city":"目黒区","address":"東京都目黒区柿の木坂1丁目34-15","lat":35.62170576,"lon":139.67397075},{"name":"有限会社　横山葬祭","province":"東京都","city":"目黒区","address":"東京都目黒区五本木2丁目20-3","lat":35.63450191,"lon":139.68991628},{"name":"有限会社　吉田葬儀社","province":"東京都","city":"目黒区","address":"東京都目黒区原町1丁目12-6","lat":35.61546269,"lon":139.69711628},{"name":"こどもば食堂＠上目黒","province":"東京都","city":"目黒区","address":"東京都目黒区祐天寺2丁目6-6","lat":35.6370906,"lon":139.69376866},{"name":"こどもば食堂＠中央町","province":"東京都","city":"目黒区","address":"東京都目黒区中央町2丁目4-18","lat":35.6318745,"lon":139.69222728},{"name":"かみめみんなの食堂","province":"東京都","city":"目黒区","address":"東京都目黒区祐天寺2丁目6-6","lat":35.6370906,"lon":139.69376866},{"name":"おてらでごはん","province":"東京都","city":"目黒区","address":"東京都目黒区中目黒5丁目24-53","lat":35.63690459,"lon":139.69705729},{"name":"ちゃいるどべーす目黒本町","province":"東京都","city":"目黒区","address":"東京都目黒区目黒本町2丁目1-20","lat":35.62522258,"lon":139.69522445},{"name":"すずめ食堂","province":"東京都","city":"目黒区","address":"東京都目黒区碑文谷3丁目15-5","lat":35.61786761,"lon":139.68421449},{"name":"とりつだい処","province":"東京都","city":"目黒区","address":"東京都目黒区八雲1丁目10-5","lat":35.61871439,"lon":139.67224043},{"name":"ECO膳","province":"東京都","city":"目黒区","address":"東京都目黒区東が丘1丁目7-14","lat":35.62727725,"lon":139.67001258},{"name":"まると食堂","province":"東京都","city":"目黒区","address":"東京都目黒区青葉台2丁目10-18","lat":35.6498003,"lon":139.69561254},{"name":"おやこカフェ","province":"東京都","city":"目黒区","address":"東京都目黒区目黒本町4丁目3-14","lat":35.62321732,"lon":139.6982187},{"name":"株式会社　あおば葬祭","province":"東京都","city":"目黒区","address":"東京都目黒区下目黒5丁目7-1","lat":35.62943615,"lon":139.70472908},{"name":"勝山葬祭　株式会社","province":"東京都","city":"目黒区","address":"東京都目黒区洗足2丁目21-17","lat":35.61003269,"lon":139.69382229},{"name":"葬祭総合センター　株式会社　門脇","province":"東京都","city":"目黒区","address":"東京都目黒区目黒本町4丁目14-14","lat":35.62328667,"lon":139.69439958},{"name":"株式会社　式典","province":"東京都","city":"目黒区","address":"東京都目黒区平町1丁目26-20","lat":35.61782019,"lon":139.6768262},{"name":"すみやセレモニー　株式会社","province":"東京都","city":"目黒区","address":"東京都目黒区祐天寺2丁目10-3","lat":35.63682115,"lon":139.69230491},{"name":"東京式典　株式会社","province":"東京都","city":"目黒区","address":"東京都目黒区鷹番3丁目8-6","lat":35.62931629,"lon":139.68532237},{"name":"株式会社　花会","province":"東京都","city":"目黒区","address":"東京都目黒区碑文谷1丁目5-1","lat":35.61927878,"lon":139.69272762},{"name":"有限会社　花心","province":"東京都","city":"目黒区","address":"東京都目黒区柿の木坂1丁目34-15","lat":35.62170576,"lon":139.67397075},{"name":"有限会社　横山葬祭","province":"東京都","city":"目黒区","address":"東京都目黒区五本木2丁目20-3","lat":35.63450191,"lon":139.68991628},{"name":"有限会社　吉田葬儀社","province":"東京都","city":"目黒区","address":"東京都目黒区原町1丁目12-6","lat":35.61546269,"lon":139.69711628},{"name":"こどもば食堂＠上目黒","province":"東京都","city":"目黒区","address":"東京都目黒区祐天寺2丁目6-6","lat":35.6370906,"lon":139.69376866},{"name":"こどもば食堂＠中央町","province":"東京都","city":"目黒区","address":"東京都目黒区中央町2丁目4-18","lat":35.6318745,"lon":139.69222728},{"name":"かみめみんなの食堂","province":"東京都","city":"目黒区","address":"東京都目黒区祐天寺2丁目6-6","lat":35.6370906,"lon":139.69376866},{"name":"おてらでごはん","province":"東京都","city":"目黒区","address":"東京都目黒区中目黒5丁目24-53","lat":35.63690459,"lon":139.69705729},{"name":"ちゃいるどべーす目黒本町","province":"東京都","city":"目黒区","address":"東京都目黒区目黒本町2丁目1-20","lat":35.62522258,"lon":139.69522445},{"name":"すずめ食堂","province":"東京都","city":"目黒区","address":"東京都目黒区碑文谷3丁目15-5","lat":35.61786761,"lon":139.68421449},{"name":"とりつだい処","province":"東京都","city":"目黒区","address":"東京都目黒区八雲1丁目10-5","lat":35.61871439,"lon":139.67224043},{"name":"ECO膳","province":"東京都","city":"目黒区","address":"東京都目黒区東が丘1丁目7-14","lat":35.62727725,"lon":139.67001258},{"name":"まると食堂","province":"東京都","city":"目黒区","address":"東京都目黒区青葉台2丁目10-18","lat":35.6498003,"lon":139.69561254},{"name":"おやこカフェ","province":"東京都","city":"目黒区","address":"東京都目黒区目黒本町4丁目3-14","lat":35.62321732,"lon":139.6982187},{"name":"株式会社　あおば葬祭","province":"東京都","city":"目黒区","address":"東京都目黒区下目黒5丁目7-1","lat":35.62943615,"lon":139.70472908},{"name":"勝山葬祭　株式会社","province":"東京都","city":"目黒区","address":"東京都目黒区洗足2丁目21-17","lat":35.61003269,"lon":139.69382229},{"name":"葬祭総合センター　株式会社　門脇","province":"東京都","city":"目黒区","address":"東京都目黒区目黒本町4丁目14-14","lat":35.62328667,"lon":139.69439958},{"name":"株式会社　式典","province":"東京都","city":"目黒区","address":"東京都目黒区平町1丁目26-20","lat":35.61782019,"lon":139.6768262},{"name":"すみやセレモニー　株式会社","province":"東京都","city":"目黒区","address":"東京都目黒区祐天寺2丁目10-3","lat":35.63682115,"lon":139.69230491},{"name":"東京式典　株式会社","province":"東京都","city":"目黒区","address":"東京都目黒区鷹番3丁目8-6","lat":35.62931629,"lon":139.68532237},{"name":"株式会社　花会","province":"東京都","city":"目黒区","address":"東京都目黒区碑文谷1丁目5-1","lat":35.61927878,"lon":139.69272762},{"name":"有限会社　花心","province":"東京都","city":"目黒区","address":"東京都目黒区柿の木坂1丁目34-15","lat":35.62170576,"lon":139.67397075},{"name":"有限会社　横山葬祭","province":"東京都","city":"目黒区","address":"東京都目黒区五本木2丁目20-3","lat":35.63450191,"lon":139.68991628},{"name":"有限会社　吉田葬儀社","province":"東京都","city":"目黒区","address":"東京都目黒区原町1丁目12-6","lat":35.61546269,"lon":139.69711628},{"name":"こどもば食堂＠上目黒","province":"東京都","city":"目黒区","address":"東京都目黒区祐天寺2丁目6-6","lat":35.6370906,"lon":139.69376866},{"name":"こどもば食堂＠中央町","province":"東京都","city":"目黒区","address":"東京都目黒区中央町2丁目4-18","lat":35.6318745,"lon":139.69222728},{"name":"かみめみんなの食堂","province":"東京都","city":"目黒区","address":"東京都目黒区祐天寺2丁目6-6","lat":35.6370906,"lon":139.69376866},{"name":"おてらでごはん","province":"東京都","city":"目黒区","address":"東京都目黒区中目黒5丁目24-53","lat":35.63690459,"lon":139.69705729},{"name":"ちゃいるどべーす目黒本町","province":"東京都","city":"目黒区","address":"東京都目黒区目黒本町2丁目1-20","lat":35.62522258,"lon":139.69522445},{"name":"すずめ食堂","province":"東京都","city":"目黒区","address":"東京都目黒区碑文谷3丁目15-5","lat":35.61786761,"lon":139.68421449},{"name":"とりつだい処","province":"東京都","city":"目黒区","address":"東京都目黒区八雲1丁目10-5","lat":35.61871439,"lon":139.67224043},{"name":"ECO膳","province":"東京都","city":"目黒区","address":"東京都目黒区東が丘1丁目7-14","lat":35.62727725,"lon":139.67001258},{"name":"まると食堂","province":"東京都","city":"目黒区","address":"東京都目黒区青葉台2丁目10-18","lat":35.6498003,"lon":139.69561254},{"name":"おやこカフェ","province":"東京都","city":"目黒区","address":"東京都目黒区目黒本町4丁目3-14","lat":35.62321732,"lon":139.6982187},{"name":"株式会社　あおば葬祭","province":"東京都","city":"目黒区","address":"東京都目黒区下目黒5丁目7-1","lat":35.62943615,"lon":139.70472908},{"name":"勝山葬祭　株式会社","province":"東京都","city":"目黒区","address":"東京都目黒区洗足2丁目21-17","lat":35.61003269,"lon":139.69382229},{"name":"葬祭総合センター　株式会社　門脇","province":"東京都","city":"目黒区","address":"東京都目黒区目黒本町4丁目14-14","lat":35.62328667,"lon":139.69439958},{"name":"株式会社　式典","province":"東京都","city":"目黒区","address":"東京都目黒区平町1丁目26-20","lat":35.61782019,"lon":139.6768262},{"name":"すみやセレモニー　株式会社","province":"東京都","city":"目黒区","address":"東京都目黒区祐天寺2丁目10-3","lat":35.63682115,"lon":139.69230491},{"name":"東京式典　株式会社","province":"東京都","city":"目黒区","address":"東京都目黒区鷹番3丁目8-6","lat":35.62931629,"lon":139.68532237},{"name":"株式会社　花会","province":"東京都","city":"目黒区","address":"東京都目黒区碑文谷1丁目5-1","lat":35.61927878,"lon":139.69272762},{"name":"有限会社　花心","province":"東京都","city":"目黒区","address":"東京都目黒区柿の木坂1丁目34-15","lat":35.62170576,"lon":139.67397075},{"name":"有限会社　横山葬祭","province":"東京都","city":"目黒区","address":"東京都目黒区五本木2丁目20-3","lat":35.63450191,"lon":139.68991628},{"name":"有限会社　吉田葬儀社","province":"東京都","city":"目黒区","address":"東京都目黒区原町1丁目12-6","lat":35.61546269,"lon":139.69711628},{"name":"こどもば食堂＠上目黒","province":"東京都","city":"目黒区","address":"東京都目黒区祐天寺2丁目6-6","lat":35.6370906,"lon":139.69376866},{"name":"こどもば食堂＠中央町","province":"東京都","city":"目黒区","address":"東京都目黒区中央町2丁目4-18","lat":35.6318745,"lon":139.69222728},{"name":"かみめみんなの食堂","province":"東京都","city":"目黒区","address":"東京都目黒区祐天寺2丁目6-6","lat":35.6370906,"lon":139.69376866},{"name":"おてらでごはん","province":"東京都","city":"目黒区","address":"東京都目黒区中目黒5丁目24-53","lat":35.63690459,"lon":139.69705729},{"name":"ちゃいるどべーす目黒本町","province":"東京都","city":"目黒区","address":"東京都目黒区目黒本町2丁目1-20","lat":35.62522258,"lon":139.69522445},{"name":"すずめ食堂","province":"東京都","city":"目黒区","address":"東京都目黒区碑文谷3丁目15-5","lat":35.61786761,"lon":139.68421449},{"name":"とりつだい処","province":"東京都","city":"目黒区","address":"東京都目黒区八雲1丁目10-5","lat":35.61871439,"lon":139.67224043},{"name":"ECO膳","province":"東京都","city":"目黒区","address":"東京都目黒区東が丘1丁目7-14","lat":35.62727725,"lon":139.67001258},{"name":"まると食堂","province":"東京都","city":"目黒区","address":"東京都目黒区青葉台2丁目10-18","lat":35.6498003,"lon":139.69561254},{"name":"おやこカフェ","province":"東京都","city":"目黒区","address":"東京都目黒区目黒本町4丁目3-14","lat":35.62321732,"lon":139.6982187},{"name":"株式会社　あおば葬祭","province":"東京都","city":"目黒区","address":"東京都目黒区下目黒5丁目7-1","lat":35.62943615,"lon":139.70472908},{"name":"勝山葬祭　株式会社","province":"東京都","city":"目黒区","address":"東京都目黒区洗足2丁目21-17","lat":35.61003269,"lon":139.69382229},{"name":"葬祭総合センター　株式会社　門脇","province":"東京都","city":"目黒区","address":"東京都目黒区目黒本町4丁目14-14","lat":35.62328667,"lon":139.69439958},{"name":"株式会社　式典","province":"東京都","city":"目黒区","address":"東京都目黒区平町1丁目26-20","lat":35.61782019,"lon":139.6768262},{"name":"すみやセレモニー　株式会社","province":"東京都","city":"目黒区","address":"東京都目黒区祐天寺2丁目10-3","lat":35.63682115,"lon":139.69230491},{"name":"東京式典　株式会社","province":"東京都","city":"目黒区","address":"東京都目黒区鷹番3丁目8-6","lat":35.62931629,"lon":139.68532237},{"name":"株式会社　花会","province":"東京都","city":"目黒区","address":"東京都目黒区碑文谷1丁目5-1","lat":35.61927878,"lon":139.69272762},{"name":"有限会社　花心","province":"東京都","city":"目黒区","address":"東京都目黒区柿の木坂1丁目34-15","lat":35.62170576,"lon":139.67397075},{"name":"有限会社　横山葬祭","province":"東京都","city":"目黒区","address":"東京都目黒区五本木2丁目20-3","lat":35.63450191,"lon":139.68991628},{"name":"有限会社　吉田葬儀社","province":"東京都","city":"目黒区","address":"東京都目黒区原町1丁目12-6","lat":35.61546269,"lon":139.69711628},{"name":"こどもば食堂＠上目黒","province":"東京都","city":"目黒区","address":"東京都目黒区祐天寺2丁目6-6","lat":35.6370906,"lon":139.69376866},{"name":"こどもば食堂＠中央町","province":"東京都","city":"目黒区","address":"東京都目黒区中央町2丁目4-18","lat":35.6318745,"lon":139.69222728},{"name":"かみめみんなの食堂","province":"東京都","city":"目黒区","address":"東京都目黒区祐天寺2丁目6-6","lat":35.6370906,"lon":139.69376866},{"name":"おてらでごはん","province":"東京都","city":"目黒区","address":"東京都目黒区中目黒5丁目24-53","lat":35.63690459,"lon":139.69705729},{"name":"ちゃいるどべーす目黒本町","province":"東京都","city":"目黒区","address":"東京都目黒区目黒本町2丁目1-20","lat":35.62522258,"lon":139.69522445},{"name":"すずめ食堂","province":"東京都","city":"目黒区","address":"東京都目黒区碑文谷3丁目15-5","lat":35.61786761,"lon":139.68421449},{"name":"とりつだい処","province":"東京都","city":"目黒区","address":"東京都目黒区八雲1丁目10-5","lat":35.61871439,"lon":139.67224043},{"name":"ECO膳","province":"東京都","city":"目黒区","address":"東京都目黒区東が丘1丁目7-14","lat":35.62727725,"lon":139.67001258},{"name":"まると食堂","province":"東京都","city":"目黒区","address":"東京都目黒区青葉台2丁目10-18","lat":35.6498003,"lon":139.69561254},{"name":"おやこカフェ","province":"東京都","city":"目黒区","address":"東京都目黒区目黒本町4丁目3-14","lat":35.62321732,"lon":139.6982187},{"name":"株式会社　あおば葬祭","province":"東京都","city":"目黒区","address":"東京都目黒区下目黒5丁目7-1","lat":35.62943615,"lon":139.70472908},{"name":"勝山葬祭　株式会社","province":"東京都","city":"目黒区","address":"東京都目黒区洗足2丁目21-17","lat":35.61003269,"lon":139.69382229},{"name":"葬祭総合センター　株式会社　門脇","province":"東京都","city":"目黒区","address":"東京都目黒区目黒本町4丁目14-14","lat":35.62328667,"lon":139.69439958},{"name":"株式会社　式典","province":"東京都","city":"目黒区","address":"東京都目黒区平町1丁目26-20","lat":35.61782019,"lon":139.6768262},{"name":"すみやセレモニー　株式会社","province":"東京都","city":"目黒区","address":"東京都目黒区祐天寺2丁目10-3","lat":35.63682115,"lon":139.69230491},{"name":"東京式典　株式会社","province":"東京都","city":"目黒区","address":"東京都目黒区鷹番3丁目8-6","lat":35.62931629,"lon":139.68532237},{"name":"株式会社　花会","province":"東京都","city":"目黒区","address":"東京都目黒区碑文谷1丁目5-1","lat":35.61927878,"lon":139.69272762},{"name":"有限会社　花心","province":"東京都","city":"目黒区","address":"東京都目黒区柿の木坂1丁目34-15","lat":35.62170576,"lon":139.67397075},{"name":"有限会社　横山葬祭","province":"東京都","city":"目黒区","address":"東京都目黒区五本木2丁目20-3","lat":35.63450191,"lon":139.68991628},{"name":"有限会社　吉田葬儀社","province":"東京都","city":"目黒区","address":"東京都目黒区原町1丁目12-6","lat":35.61546269,"lon":139.69711628},{"name":"こどもば食堂＠上目黒","province":"東京都","city":"目黒区","address":"東京都目黒区祐天寺2丁目6-6","lat":35.6370906,"lon":139.69376866},{"name":"こどもば食堂＠中央町","province":"東京都","city":"目黒区","address":"東京都目黒区中央町2丁目4-18","lat":35.6318745,"lon":139.69222728},{"name":"かみめみんなの食堂","province":"東京都","city":"目黒区","address":"東京都目黒区祐天寺2丁目6-6","lat":35.6370906,"lon":139.69376866},{"name":"おてらでごはん","province":"東京都","city":"目黒区","address":"東京都目黒区中目黒5丁目24-53","lat":35.63690459,"lon":139.69705729},{"name":"ちゃいるどべーす目黒本町","province":"東京都","city":"目黒区","address":"東京都目黒区目黒本町2丁目1-20","lat":35.62522258,"lon":139.69522445},{"name":"すずめ食堂","province":"東京都","city":"目黒区","address":"東京都目黒区碑文谷3丁目15-5","lat":35.61786761,"lon":139.68421449},{"name":"とりつだい処","province":"東京都","city":"目黒区","address":"東京都目黒区八雲1丁目10-5","lat":35.61871439,"lon":139.67224043},{"name":"ECO膳","province":"東京都","city":"目黒区","address":"東京都目黒区東が丘1丁目7-14","lat":35.62727725,"lon":139.67001258},{"name":"まると食堂","province":"東京都","city":"目黒区","address":"東京都目黒区青葉台2丁目10-18","lat":35.6498003,"lon":139.69561254},{"name":"おやこカフェ","province":"東京都","city":"目黒区","address":"東京都目黒区目黒本町4丁目3-14","lat":35.62321732,"lon":139.6982187},{"name":"株式会社　あおば葬祭","province":"東京都","city":"目黒区","address":"東京都目黒区下目黒5丁目7-1","lat":35.62943615,"lon":139.70472908},{"name":"勝山葬祭　株式会社","province":"東京都","city":"目黒区","address":"東京都目黒区洗足2丁目21-17","lat":35.61003269,"lon":139.69382229},{"name":"葬祭総合センター　株式会社　門脇","province":"東京都","city":"目黒区","address":"東京都目黒区目黒本町4丁目14-14","lat":35.62328667,"lon":139.69439958},{"name":"株式会社　式典","province":"東京都","city":"目黒区","address":"東京都目黒区平町1丁目26-20","lat":35.61782019,"lon":139.6768262},{"name":"すみやセレモニー　株式会社","province":"東京都","city":"目黒区","address":"東京都目黒区祐天寺2丁目10-3","lat":35.63682115,"lon":139.69230491},{"name":"東京式典　株式会社","province":"東京都","city":"目黒区","address":"東京都目黒区鷹番3丁目8-6","lat":35.62931629,"lon":139.68532237},{"name":"株式会社　花会","province":"東京都","city":"目黒区","address":"東京都目黒区碑文谷1丁目5-1","lat":35.61927878,"lon":139.69272762},{"name":"有限会社　花心","province":"東京都","city":"目黒区","address":"東京都目黒区柿の木坂1丁目34-15","lat":35.62170576,"lon":139.67397075},{"name":"有限会社　横山葬祭","province":"東京都","city":"目黒区","address":"東京都目黒区五本木2丁目20-3","lat":35.63450191,"lon":139.68991628},{"name":"有限会社　吉田葬儀社","province":"東京都","city":"目黒区","address":"東京都目黒区原町1丁目12-6","lat":35.61546269,"lon":139.69711628},{"name":"こどもば食堂＠上目黒","province":"東京都","city":"目黒区","address":"東京都目黒区祐天寺2丁目6-6","lat":35.6370906,"lon":139.69376866},{"name":"こどもば食堂＠中央町","province":"東京都","city":"目黒区","address":"東京都目黒区中央町2丁目4-18","lat":35.6318745,"lon":139.69222728},{"name":"かみめみんなの食堂","province":"東京都","city":"目黒区","address":"東京都目黒区祐天寺2丁目6-6","lat":35.6370906,"lon":139.69376866},{"name":"おてらでごはん","province":"東京都","city":"目黒区","address":"東京都目黒区中目黒5丁目24-53","lat":35.63690459,"lon":139.69705729},{"name":"ちゃいるどべーす目黒本町","province":"東京都","city":"目黒区","address":"東京都目黒区目黒本町2丁目1-20","lat":35.62522258,"lon":139.69522445},{"name":"すずめ食堂","province":"東京都","city":"目黒区","address":"東京都目黒区碑文谷3丁目15-5","lat":35.61786761,"lon":139.68421449},{"name":"とりつだい処","province":"東京都","city":"目黒区","address":"東京都目黒区八雲1丁目10-5","lat":35.61871439,"lon":139.67224043},{"name":"ECO膳","province":"東京都","city":"目黒区","address":"東京都目黒区東が丘1丁目7-14","lat":35.62727725,"lon":139.67001258},{"name":"まると食堂","province":"東京都","city":"目黒区","address":"東京都目黒区青葉台2丁目10-18","lat":35.6498003,"lon":139.69561254},{"name":"おやこカフェ","province":"東京都","city":"目黒区","address":"東京都目黒区目黒本町4丁目3-14","lat":35.62321732,"lon":139.6982187},{"name":"株式会社　あおば葬祭","province":"東京都","city":"目黒区","address":"東京都目黒区下目黒5丁目7-1","lat":35.62943615,"lon":139.70472908},{"name":"勝山葬祭　株式会社","province":"東京都","city":"目黒区","address":"東京都目黒区洗足2丁目21-17","lat":35.61003269,"lon":139.69382229},{"name":"葬祭総合センター　株式会社　門脇","province":"東京都","city":"目黒区","address":"東京都目黒区目黒本町4丁目14-14","lat":35.62328667,"lon":139.69439958},{"name":"株式会社　式典","province":"東京都","city":"目黒区","address":"東京都目黒区平町1丁目26-20","lat":35.61782019,"lon":139.6768262},{"name":"すみやセレモニー　株式会社","province":"東京都","city":"目黒区","address":"東京都目黒区祐天寺2丁目10-3","lat":35.63682115,"lon":139.69230491},{"name":"東京式典　株式会社","province":"東京都","city":"目黒区","address":"東京都目黒区鷹番3丁目8-6","lat":35.62931629,"lon":139.68532237},{"name":"株式会社　花会","province":"東京都","city":"目黒区","address":"東京都目黒区碑文谷1丁目5-1","lat":35.61927878,"lon":139.69272762},{"name":"有限会社　花心","province":"東京都","city":"目黒区","address":"東京都目黒区柿の木坂1丁目34-15","lat":35.62170576,"lon":139.67397075},{"name":"有限会社　横山葬祭","province":"東京都","city":"目黒区","address":"東京都目黒区五本木2丁目20-3","lat":35.63450191,"lon":139.68991628},{"name":"有限会社　吉田葬儀社","province":"東京都","city":"目黒区","address":"東京都目黒区原町1丁目12-6","lat":35.61546269,"lon":139.69711628},{"name":"こどもば食堂＠上目黒","province":"東京都","city":"目黒区","address":"東京都目黒区祐天寺2丁目6-6","lat":35.6370906,"lon":139.69376866},{"name":"こどもば食堂＠中央町","province":"東京都","city":"目黒区","address":"東京都目黒区中央町2丁目4-18","lat":35.6318745,"lon":139.69222728},{"name":"かみめみんなの食堂","province":"東京都","city":"目黒区","address":"東京都目黒区祐天寺2丁目6-6","lat":35.6370906,"lon":139.69376866},{"name":"おてらでごはん","province":"東京都","city":"目黒区","address":"東京都目黒区中目黒5丁目24-53","lat":35.63690459,"lon":139.69705729},{"name":"ちゃいるどべーす目黒本町","province":"東京都","city":"目黒区","address":"東京都目黒区目黒本町2丁目1-20","lat":35.62522258,"lon":139.69522445},{"name":"すずめ食堂","province":"東京都","city":"目黒区","address":"東京都目黒区碑文谷3丁目15-5","lat":35.61786761,"lon":139.68421449},{"name":"とりつだい処","province":"東京都","city":"目黒区","address":"東京都目黒区八雲1丁目10-5","lat":35.61871439,"lon":139.67224043},{"name":"ECO膳","province":"東京都","city":"目黒区","address":"東京都目黒区東が丘1丁目7-14","lat":35.62727725,"lon":139.67001258},{"name":"まると食堂","province":"東京都","city":"目黒区","address":"東京都目黒区青葉台2丁目10-18","lat":35.6498003,"lon":139.69561254},{"name":"おやこカフェ","province":"東京都","city":"目黒区","address":"東京都目黒区目黒本町4丁目3-14","lat":35.62321732,"lon":139.6982187},{"name":"株式会社　あおば葬祭","province":"東京都","city":"目黒区","address":"東京都目黒区下目黒5丁目7-1","lat":35.62943615,"lon":139.70472908},{"name":"勝山葬祭　株式会社","province":"東京都","city":"目黒区","address":"東京都目黒区洗足2丁目21-17","lat":35.61003269,"lon":139.69382229},{"name":"葬祭総合センター　株式会社　門脇","province":"東京都","city":"目黒区","address":"東京都目黒区目黒本町4丁目14-14","lat":35.62328667,"lon":139.69439958},{"name":"株式会社　式典","province":"東京都","city":"目黒区","address":"東京都目黒区平町1丁目26-20","lat":35.61782019,"lon":139.6768262},{"name":"すみやセレモニー　株式会社","province":"東京都","city":"目黒区","address":"東京都目黒区祐天寺2丁目10-3","lat":35.63682115,"lon":139.69230491},{"name":"東京式典　株式会社","province":"東京都","city":"目黒区","address":"東京都目黒区鷹番3丁目8-6","lat":35.62931629,"lon":139.68532237},{"name":"株式会社　花会","province":"東京都","city":"目黒区","address":"東京都目黒区碑文谷1丁目5-1","lat":35.61927878,"lon":139.69272762},{"name":"有限会社　花心","province":"東京都","city":"目黒区","address":"東京都目黒区柿の木坂1丁目34-15","lat":35.62170576,"lon":139.67397075},{"name":"有限会社　横山葬祭","province":"東京都","city":"目黒区","address":"東京都目黒区五本木2丁目20-3","lat":35.63450191,"lon":139.68991628},{"name":"有限会社　吉田葬儀社","province":"東京都","city":"目黒区","address":"東京都目黒区原町1丁目12-6","lat":35.61546269,"lon":139.69711628},{"name":"こどもば食堂＠上目黒","province":"東京都","city":"目黒区","address":"東京都目黒区祐天寺2丁目6-6","lat":35.6370906,"lon":139.69376866},{"name":"こどもば食堂＠中央町","province":"東京都","city":"目黒区","address":"東京都目黒区中央町2丁目4-18","lat":35.6318745,"lon":139.69222728},{"name":"かみめみんなの食堂","province":"東京都","city":"目黒区","address":"東京都目黒区祐天寺2丁目6-6","lat":35.6370906,"lon":139.69376866},{"name":"おてらでごはん","province":"東京都","city":"目黒区","address":"東京都目黒区中目黒5丁目24-53","lat":35.63690459,"lon":139.69705729},{"name":"ちゃいるどべーす目黒本町","province":"東京都","city":"目黒区","address":"東京都目黒区目黒本町2丁目1-20","lat":35.62522258,"lon":139.69522445},{"name":"すずめ食堂","province":"東京都","city":"目黒区","address":"東京都目黒区碑文谷3丁目15-5","lat":35.61786761,"lon":139.68421449},{"name":"とりつだい処","province":"東京都","city":"目黒区","address":"東京都目黒区八雲1丁目10-5","lat":35.61871439,"lon":139.67224043},{"name":"ECO膳","province":"東京都","city":"目黒区","address":"東京都目黒区東が丘1丁目7-14","lat":35.62727725,"lon":139.67001258},{"name":"まると食堂","province":"東京都","city":"目黒区","address":"東京都目黒区青葉台2丁目10-18","lat":35.6498003,"lon":139.69561254},{"name":"おやこカフェ","province":"東京都","city":"目黒区","address":"東京都目黒区目黒本町4丁目3-14","lat":35.62321732,"lon":139.6982187},{"name":"株式会社　あおば葬祭","province":"東京都","city":"目黒区","address":"東京都目黒区下目黒5丁目7-1","lat":35.62943615,"lon":139.70472908},{"name":"勝山葬祭　株式会社","province":"東京都","city":"目黒区","address":"東京都目黒区洗足2丁目21-17","lat":35.61003269,"lon":139.69382229},{"name":"葬祭総合センター　株式会社　門脇","province":"東京都","city":"目黒区","address":"東京都目黒区目黒本町4丁目14-14","lat":35.62328667,"lon":139.69439958},{"name":"株式会社　式典","province":"東京都","city":"目黒区","address":"東京都目黒区平町1丁目26-20","lat":35.61782019,"lon":139.6768262},{"name":"すみやセレモニー　株式会社","province":"東京都","city":"目黒区","address":"東京都目黒区祐天寺2丁目10-3","lat":35.63682115,"lon":139.69230491},{"name":"東京式典　株式会社","province":"東京都","city":"目黒区","address":"東京都目黒区鷹番3丁目8-6","lat":35.62931629,"lon":139.68532237},{"name":"株式会社　花会","province":"東京都","city":"目黒区","address":"東京都目黒区碑文谷1丁目5-1","lat":35.61927878,"lon":139.69272762},{"name":"有限会社　花心","province":"東京都","city":"目黒区","address":"東京都目黒区柿の木坂1丁目34-15","lat":35.62170576,"lon":139.67397075},{"name":"有限会社　横山葬祭","province":"東京都","city":"目黒区","address":"東京都目黒区五本木2丁目20-3","lat":35.63450191,"lon":139.68991628},{"name":"有限会社　吉田葬儀社","province":"東京都","city":"目黒区","address":"東京都目黒区原町1丁目12-6","lat":35.61546269,"lon":139.69711628},{"name":"こどもば食堂＠上目黒","province":"東京都","city":"目黒区","address":"東京都目黒区祐天寺2丁目6-6","lat":35.6370906,"lon":139.69376866},{"name":"こどもば食堂＠中央町","province":"東京都","city":"目黒区","address":"東京都目黒区中央町2丁目4-18","lat":35.6318745,"lon":139.69222728},{"name":"かみめみんなの食堂","province":"東京都","city":"目黒区","address":"東京都目黒区祐天寺2丁目6-6","lat":35.6370906,"lon":139.69376866},{"name":"おてらでごはん","province":"東京都","city":"目黒区","address":"東京都目黒区中目黒5丁目24-53","lat":35.63690459,"lon":139.69705729},{"name":"ちゃいるどべーす目黒本町","province":"東京都","city":"目黒区","address":"東京都目黒区目黒本町2丁目1-20","lat":35.62522258,"lon":139.69522445},{"name":"すずめ食堂","province":"東京都","city":"目黒区","address":"東京都目黒区碑文谷3丁目15-5","lat":35.61786761,"lon":139.68421449},{"name":"とりつだい処","province":"東京都","city":"目黒区","address":"東京都目黒区八雲1丁目10-5","lat":35.61871439,"lon":139.67224043},{"name":"ECO膳","province":"東京都","city":"目黒区","address":"東京都目黒区東が丘1丁目7-14","lat":35.62727725,"lon":139.67001258},{"name":"まると食堂","province":"東京都","city":"目黒区","address":"東京都目黒区青葉台2丁目10-18","lat":35.6498003,"lon":139.69561254},{"name":"おやこカフェ","province":"東京都","city":"目黒区","address":"東京都目黒区目黒本町4丁目3-14","lat":35.62321732,"lon":139.6982187},{"name":"株式会社　あおば葬祭","province":"東京都","city":"目黒区","address":"東京都目黒区下目黒5丁目7-1","lat":35.62943615,"lon":139.70472908},{"name":"勝山葬祭　株式会社","province":"東京都","city":"目黒区","address":"東京都目黒区洗足2丁目21-17","lat":35.61003269,"lon":139.69382229},{"name":"葬祭総合センター　株式会社　門脇","province":"東京都","city":"目黒区","address":"東京都目黒区目黒本町4丁目14-14","lat":35.62328667,"lon":139.69439958},{"name":"株式会社　式典","province":"東京都","city":"目黒区","address":"東京都目黒区平町1丁目26-20","lat":35.61782019,"lon":139.6768262},{"name":"すみやセレモニー　株式会社","province":"東京都","city":"目黒区","address":"東京都目黒区祐天寺2丁目10-3","lat":35.63682115,"lon":139.69230491},{"name":"東京式典　株式会社","province":"東京都","city":"目黒区","address":"東京都目黒区鷹番3丁目8-6","lat":35.62931629,"lon":139.68532237},{"name":"株式会社　花会","province":"東京都","city":"目黒区","address":"東京都目黒区碑文谷1丁目5-1","lat":35.61927878,"lon":139.69272762},{"name":"有限会社　花心","province":"東京都","city":"目黒区","address":"東京都目黒区柿の木坂1丁目34-15","lat":35.62170576,"lon":139.67397075},{"name":"有限会社　横山葬祭","province":"東京都","city":"目黒区","address":"東京都目黒区五本木2丁目20-3","lat":35.63450191,"lon":139.68991628},{"name":"有限会社　吉田葬儀社","province":"東京都","city":"目黒区","address":"東京都目黒区原町1丁目12-6","lat":35.61546269,"lon":139.69711628},{"name":"こどもば食堂＠上目黒","province":"東京都","city":"目黒区","address":"東京都目黒区祐天寺2丁目6-6","lat":35.6370906,"lon":139.69376866},{"name":"こどもば食堂＠中央町","province":"東京都","city":"目黒区","address":"東京都目黒区中央町2丁目4-18","lat":35.6318745,"lon":139.69222728},{"name":"かみめみんなの食堂","province":"東京都","city":"目黒区","address":"東京都目黒区祐天寺2丁目6-6","lat":35.6370906,"lon":139.69376866},{"name":"おてらでごはん","province":"東京都","city":"目黒区","address":"東京都目黒区中目黒5丁目24-53","lat":35.63690459,"lon":139.69705729},{"name":"ちゃいるどべーす目黒本町","province":"東京都","city":"目黒区","address":"東京都目黒区目黒本町2丁目1-20","lat":35.62522258,"lon":139.69522445},{"name":"すずめ食堂","province":"東京都","city":"目黒区","address":"東京都目黒区碑文谷3丁目15-5","lat":35.61786761,"lon":139.68421449},{"name":"とりつだい処","province":"東京都","city":"目黒区","address":"東京都目黒区八雲1丁目10-5","lat":35.61871439,"lon":139.67224043},{"name":"ECO膳","province":"東京都","city":"目黒区","address":"東京都目黒区東が丘1丁目7-14","lat":35.62727725,"lon":139.67001258},{"name":"まると食堂","province":"東京都","city":"目黒区","address":"東京都目黒区青葉台2丁目10-18","lat":35.6498003,"lon":139.69561254},{"name":"おやこカフェ","province":"東京都","city":"目黒区","address":"東京都目黒区目黒本町4丁目3-14","lat":35.62321732,"lon":139.6982187},{"name":"株式会社　あおば葬祭","province":"東京都","city":"目黒区","address":"東京都目黒区下目黒5丁目7-1","lat":35.62943615,"lon":139.70472908},{"name":"勝山葬祭　株式会社","province":"東京都","city":"目黒区","address":"東京都目黒区洗足2丁目21-17","lat":35.61003269,"lon":139.69382229},{"name":"葬祭総合センター　株式会社　門脇","province":"東京都","city":"目黒区","address":"東京都目黒区目黒本町4丁目14-14","lat":35.62328667,"lon":139.69439958},{"name":"株式会社　式典","province":"東京都","city":"目黒区","address":"東京都目黒区平町1丁目26-20","lat":35.61782019,"lon":139.6768262},{"name":"すみやセレモニー　株式会社","province":"東京都","city":"目黒区","address":"東京都目黒区祐天寺2丁目10-3","lat":35.63682115,"lon":139.69230491},{"name":"東京式典　株式会社","province":"東京都","city":"目黒区","address":"東京都目黒区鷹番3丁目8-6","lat":35.62931629,"lon":139.68532237},{"name":"株式会社　花会","province":"東京都","city":"目黒区","address":"東京都目黒区碑文谷1丁目5-1","lat":35.61927878,"lon":139.69272762},{"name":"有限会社　花心","province":"東京都","city":"目黒区","address":"東京都目黒区柿の木坂1丁目34-15","lat":35.62170576,"lon":139.67397075},{"name":"有限会社　横山葬祭","province":"東京都","city":"目黒区","address":"東京都目黒区五本木2丁目20-3","lat":35.63450191,"lon":139.68991628},{"name":"有限会社　吉田葬儀社","province":"東京都","city":"目黒区","address":"東京都目黒区原町1丁目12-6","lat":35.61546269,"lon":139.69711628},{"name":"こどもば食堂＠上目黒","province":"東京都","city":"目黒区","address":"東京都目黒区祐天寺2丁目6-6","lat":35.6370906,"lon":139.69376866},{"name":"こどもば食堂＠中央町","province":"東京都","city":"目黒区","address":"東京都目黒区中央町2丁目4-18","lat":35.6318745,"lon":139.69222728},{"name":"かみめみんなの食堂","province":"東京都","city":"目黒区","address":"東京都目黒区祐天寺2丁目6-6","lat":35.6370906,"lon":139.69376866},{"name":"おてらでごはん","province":"東京都","city":"目黒区","address":"東京都目黒区中目黒5丁目24-53","lat":35.63690459,"lon":139.69705729},{"name":"ちゃいるどべーす目黒本町","province":"東京都","city":"目黒区","address":"東京都目黒区目黒本町2丁目1-20","lat":35.62522258,"lon":139.69522445},{"name":"すずめ食堂","province":"東京都","city":"目黒区","address":"東京都目黒区碑文谷3丁目15-5","lat":35.61786761,"lon":139.68421449},{"name":"とりつだい処","province":"東京都","city":"目黒区","address":"東京都目黒区八雲1丁目10-5","lat":35.61871439,"lon":139.67224043},{"name":"ECO膳","province":"東京都","city":"目黒区","address":"東京都目黒区東が丘1丁目7-14","lat":35.62727725,"lon":139.67001258},{"name":"まると食堂","province":"東京都","city":"目黒区","address":"東京都目黒区青葉台2丁目10-18","lat":35.6498003,"lon":139.69561254},{"name":"おやこカフェ","province":"東京都","city":"目黒区","address":"東京都目黒区目黒本町4丁目3-14","lat":35.62321732,"lon":139.6982187},{"name":"株式会社　あおば葬祭","province":"東京都","city":"目黒区","address":"東京都目黒区下目黒5丁目7-1","lat":35.62943615,"lon":139.70472908},{"name":"勝山葬祭　株式会社","province":"東京都","city":"目黒区","address":"東京都目黒区洗足2丁目21-17","lat":35.61003269,"lon":139.69382229},{"name":"葬祭総合センター　株式会社　門脇","province":"東京都","city":"目黒区","address":"東京都目黒区目黒本町4丁目14-14","lat":35.62328667,"lon":139.69439958},{"name":"株式会社　式典","province":"東京都","city":"目黒区","address":"東京都目黒区平町1丁目26-20","lat":35.61782019,"lon":139.6768262},{"name":"すみやセレモニー　株式会社","province":"東京都","city":"目黒区","address":"東京都目黒区祐天寺2丁目10-3","lat":35.63682115,"lon":139.69230491},{"name":"東京式典　株式会社","province":"東京都","city":"目黒区","address":"東京都目黒区鷹番3丁目8-6","lat":35.62931629,"lon":139.68532237},{"name":"株式会社　花会","province":"東京都","city":"目黒区","address":"東京都目黒区碑文谷1丁目5-1","lat":35.61927878,"lon":139.69272762},{"name":"有限会社　花心","province":"東京都","city":"目黒区","address":"東京都目黒区柿の木坂1丁目34-15","lat":35.62170576,"lon":139.67397075},{"name":"有限会社　横山葬祭","province":"東京都","city":"目黒区","address":"東京都目黒区五本木2丁目20-3","lat":35.63450191,"lon":139.68991628},{"name":"有限会社　吉田葬儀社","province":"東京都","city":"目黒区","address":"東京都目黒区原町1丁目12-6","lat":35.61546269,"lon":139.69711628},{"name":"こどもば食堂＠上目黒","province":"東京都","city":"目黒区","address":"東京都目黒区祐天寺2丁目6-6","lat":35.6370906,"lon":139.69376866},{"name":"こどもば食堂＠中央町","province":"東京都","city":"目黒区","address":"東京都目黒区中央町2丁目4-18","lat":35.6318745,"lon":139.69222728},{"name":"かみめみんなの食堂","province":"東京都","city":"目黒区","address":"東京都目黒区祐天寺2丁目6-6","lat":35.6370906,"lon":139.69376866},{"name":"おてらでごはん","province":"東京都","city":"目黒区","address":"東京都目黒区中目黒5丁目24-53","lat":35.63690459,"lon":139.69705729},{"name":"ちゃいるどべーす目黒本町","province":"東京都","city":"目黒区","address":"東京都目黒区目黒本町2丁目1-20","lat":35.62522258,"lon":139.69522445},{"name":"すずめ食堂","province":"東京都","city":"目黒区","address":"東京都目黒区碑文谷3丁目15-5","lat":35.61786761,"lon":139.68421449},{"name":"とりつだい処","province":"東京都","city":"目黒区","address":"東京都目黒区八雲1丁目10-5","lat":35.61871439,"lon":139.67224043},{"name":"ECO膳","province":"東京都","city":"目黒区","address":"東京都目黒区東が丘1丁目7-14","lat":35.62727725,"lon":139.67001258},{"name":"まると食堂","province":"東京都","city":"目黒区","address":"東京都目黒区青葉台2丁目10-18","lat":35.6498003,"lon":139.69561254},{"name":"おやこカフェ","province":"東京都","city":"目黒区","address":"東京都目黒区目黒本町4丁目3-14","lat":35.62321732,"lon":139.6982187},{"name":"株式会社　あおば葬祭","province":"東京都","city":"目黒区","address":"東京都目黒区下目黒5丁目7-1","lat":35.62943615,"lon":139.70472908},{"name":"勝山葬祭　株式会社","province":"東京都","city":"目黒区","address":"東京都目黒区洗足2丁目21-17","lat":35.61003269,"lon":139.69382229},{"name":"葬祭総合センター　株式会社　門脇","province":"東京都","city":"目黒区","address":"東京都目黒区目黒本町4丁目14-14","lat":35.62328667,"lon":139.69439958},{"name":"株式会社　式典","province":"東京都","city":"目黒区","address":"東京都目黒区平町1丁目26-20","lat":35.61782019,"lon":139.6768262},{"name":"すみやセレモニー　株式会社","province":"東京都","city":"目黒区","address":"東京都目黒区祐天寺2丁目10-3","lat":35.63682115,"lon":139.69230491},{"name":"東京式典　株式会社","province":"東京都","city":"目黒区","address":"東京都目黒区鷹番3丁目8-6","lat":35.62931629,"lon":139.68532237},{"name":"株式会社　花会","province":"東京都","city":"目黒区","address":"東京都目黒区碑文谷1丁目5-1","lat":35.61927878,"lon":139.69272762},{"name":"有限会社　花心","province":"東京都","city":"目黒区","address":"東京都目黒区柿の木坂1丁目34-15","lat":35.62170576,"lon":139.67397075},{"name":"有限会社　横山葬祭","province":"東京都","city":"目黒区","address":"東京都目黒区五本木2丁目20-3","lat":35.63450191,"lon":139.68991628},{"name":"有限会社　吉田葬儀社","province":"東京都","city":"目黒区","address":"東京都目黒区原町1丁目12-6","lat":35.61546269,"lon":139.69711628},{"name":"こどもば食堂＠上目黒","province":"東京都","city":"目黒区","address":"東京都目黒区祐天寺2丁目6-6","lat":35.6370906,"lon":139.69376866},{"name":"こどもば食堂＠中央町","province":"東京都","city":"目黒区","address":"東京都目黒区中央町2丁目4-18","lat":35.6318745,"lon":139.69222728},{"name":"かみめみんなの食堂","province":"東京都","city":"目黒区","address":"東京都目黒区祐天寺2丁目6-6","lat":35.6370906,"lon":139.69376866},{"name":"おてらでごはん","province":"東京都","city":"目黒区","address":"東京都目黒区中目黒5丁目24-53","lat":35.63690459,"lon":139.69705729},{"name":"ちゃいるどべーす目黒本町","province":"東京都","city":"目黒区","address":"東京都目黒区目黒本町2丁目1-20","lat":35.62522258,"lon":139.69522445},{"name":"すずめ食堂","province":"東京都","city":"目黒区","address":"東京都目黒区碑文谷3丁目15-5","lat":35.61786761,"lon":139.68421449},{"name":"とりつだい処","province":"東京都","city":"目黒区","address":"東京都目黒区八雲1丁目10-5","lat":35.61871439,"lon":139.67224043},{"name":"ECO膳","province":"東京都","city":"目黒区","address":"東京都目黒区東が丘1丁目7-14","lat":35.62727725,"lon":139.67001258},{"name":"まると食堂","province":"東京都","city":"目黒区","address":"東京都目黒区青葉台2丁目10-18","lat":35.6498003,"lon":139.69561254},{"name":"おやこカフェ","province":"東京都","city":"目黒区","address":"東京都目黒区目黒本町4丁目3-14","lat":35.62321732,"lon":139.6982187},{"name":"株式会社　あおば葬祭","province":"東京都","city":"目黒区","address":"東京都目黒区下目黒5丁目7-1","lat":35.62943615,"lon":139.70472908},{"name":"勝山葬祭　株式会社","province":"東京都","city":"目黒区","address":"東京都目黒区洗足2丁目21-17","lat":35.61003269,"lon":139.69382229},{"name":"葬祭総合センター　株式会社　門脇","province":"東京都","city":"目黒区","address":"東京都目黒区目黒本町4丁目14-14","lat":35.62328667,"lon":139.69439958},{"name":"株式会社　式典","province":"東京都","city":"目黒区","address":"東京都目黒区平町1丁目26-20","lat":35.61782019,"lon":139.6768262},{"name":"すみやセレモニー　株式会社","province":"東京都","city":"目黒区","address":"東京都目黒区祐天寺2丁目10-3","lat":35.63682115,"lon":139.69230491},{"name":"東京式典　株式会社","province":"東京都","city":"目黒区","address":"東京都目黒区鷹番3丁目8-6","lat":35.62931629,"lon":139.68532237},{"name":"株式会社　花会","province":"東京都","city":"目黒区","address":"東京都目黒区碑文谷1丁目5-1","lat":35.61927878,"lon":139.69272762},{"name":"有限会社　花心","province":"東京都","city":"目黒区","address":"東京都目黒区柿の木坂1丁目34-15","lat":35.62170576,"lon":139.67397075},{"name":"有限会社　横山葬祭","province":"東京都","city":"目黒区","address":"東京都目黒区五本木2丁目20-3","lat":35.63450191,"lon":139.68991628},{"name":"有限会社　吉田葬儀社","province":"東京都","city":"目黒区","address":"東京都目黒区原町1丁目12-6","lat":35.61546269,"lon":139.69711628},{"name":"こどもば食堂＠上目黒","province":"東京都","city":"目黒区","address":"東京都目黒区祐天寺2丁目6-6","lat":35.6370906,"lon":139.69376866},{"name":"こどもば食堂＠中央町","province":"東京都","city":"目黒区","address":"東京都目黒区中央町2丁目4-18","lat":35.6318745,"lon":139.69222728},{"name":"かみめみんなの食堂","province":"東京都","city":"目黒区","address":"東京都目黒区祐天寺2丁目6-6","lat":35.6370906,"lon":139.69376866},{"name":"おてらでごはん","province":"東京都","city":"目黒区","address":"東京都目黒区中目黒5丁目24-53","lat":35.63690459,"lon":139.69705729},{"name":"ちゃいるどべーす目黒本町","province":"東京都","city":"目黒区","address":"東京都目黒区目黒本町2丁目1-20","lat":35.62522258,"lon":139.69522445},{"name":"すずめ食堂","province":"東京都","city":"目黒区","address":"東京都目黒区碑文谷3丁目15-5","lat":35.61786761,"lon":139.68421449},{"name":"とりつだい処","province":"東京都","city":"目黒区","address":"東京都目黒区八雲1丁目10-5","lat":35.61871439,"lon":139.67224043},{"name":"ECO膳","province":"東京都","city":"目黒区","address":"東京都目黒区東が丘1丁目7-14","lat":35.62727725,"lon":139.67001258},{"name":"まると食堂","province":"東京都","city":"目黒区","address":"東京都目黒区青葉台2丁目10-18","lat":35.6498003,"lon":139.69561254},{"name":"おやこカフェ","province":"東京都","city":"目黒区","address":"東京都目黒区目黒本町4丁目3-14","lat":35.62321732,"lon":139.6982187},{"name":"株式会社　あおば葬祭","province":"東京都","city":"目黒区","address":"東京都目黒区下目黒5丁目7-1","lat":35.62943615,"lon":139.70472908},{"name":"勝山葬祭　株式会社","province":"東京都","city":"目黒区","address":"東京都目黒区洗足2丁目21-17","lat":35.61003269,"lon":139.69382229},{"name":"葬祭総合センター　株式会社　門脇","province":"東京都","city":"目黒区","address":"東京都目黒区目黒本町4丁目14-14","lat":35.62328667,"lon":139.69439958},{"name":"株式会社　式典","province":"東京都","city":"目黒区","address":"東京都目黒区平町1丁目26-20","lat":35.61782019,"lon":139.6768262},{"name":"すみやセレモニー　株式会社","province":"東京都","city":"目黒区","address":"東京都目黒区祐天寺2丁目10-3","lat":35.63682115,"lon":139.69230491},{"name":"東京式典　株式会社","province":"東京都","city":"目黒区","address":"東京都目黒区鷹番3丁目8-6","lat":35.62931629,"lon":139.68532237},{"name":"株式会社　花会","province":"東京都","city":"目黒区","address":"東京都目黒区碑文谷1丁目5-1","lat":35.61927878,"lon":139.69272762},{"name":"有限会社　花心","province":"東京都","city":"目黒区","address":"東京都目黒区柿の木坂1丁目34-15","lat":35.62170576,"lon":139.67397075},{"name":"有限会社　横山葬祭","province":"東京都","city":"目黒区","address":"東京都目黒区五本木2丁目20-3","lat":35.63450191,"lon":139.68991628},{"name":"有限会社　吉田葬儀社","province":"東京都","city":"目黒区","address":"東京都目黒区原町1丁目12-6","lat":35.61546269,"lon":139.69711628},{"name":"こどもば食堂＠上目黒","province":"東京都","city":"目黒区","address":"東京都目黒区祐天寺2丁目6-6","lat":35.6370906,"lon":139.69376866},{"name":"こどもば食堂＠中央町","province":"東京都","city":"目黒区","address":"東京都目黒区中央町2丁目4-18","lat":35.6318745,"lon":139.69222728},{"name":"かみめみんなの食堂","province":"東京都","city":"目黒区","address":"東京都目黒区祐天寺2丁目6-6","lat":35.6370906,"lon":139.69376866},{"name":"おてらでごはん","province":"東京都","city":"目黒区","address":"東京都目黒区中目黒5丁目24-53","lat":35.63690459,"lon":139.69705729},{"name":"ちゃいるどべーす目黒本町","province":"東京都","city":"目黒区","address":"東京都目黒区目黒本町2丁目1-20","lat":35.62522258,"lon":139.69522445},{"name":"すずめ食堂","province":"東京都","city":"目黒区","address":"東京都目黒区碑文谷3丁目15-5","lat":35.61786761,"lon":139.68421449},{"name":"とりつだい処","province":"東京都","city":"目黒区","address":"東京都目黒区八雲1丁目10-5","lat":35.61871439,"lon":139.67224043},{"name":"ECO膳","province":"東京都","city":"目黒区","address":"東京都目黒区東が丘1丁目7-14","lat":35.62727725,"lon":139.67001258},{"name":"まると食堂","province":"東京都","city":"目黒区","address":"東京都目黒区青葉台2丁目10-18","lat":35.6498003,"lon":139.69561254},{"name":"おやこカフェ","province":"東京都","city":"目黒区","address":"東京都目黒区目黒本町4丁目3-14","lat":35.62321732,"lon":139.6982187},{"name":"株式会社　あおば葬祭","province":"東京都","city":"目黒区","address":"東京都目黒区下目黒5丁目7-1","lat":35.62943615,"lon":139.70472908},{"name":"勝山葬祭　株式会社","province":"東京都","city":"目黒区","address":"東京都目黒区洗足2丁目21-17","lat":35.61003269,"lon":139.69382229},{"name":"葬祭総合センター　株式会社　門脇","province":"東京都","city":"目黒区","address":"東京都目黒区目黒本町4丁目14-14","lat":35.62328667,"lon":139.69439958},{"name":"株式会社　式典","province":"東京都","city":"目黒区","address":"東京都目黒区平町1丁目26-20","lat":35.61782019,"lon":139.6768262},{"name":"すみやセレモニー　株式会社","province":"東京都","city":"目黒区","address":"東京都目黒区祐天寺2丁目10-3","lat":35.63682115,"lon":139.69230491},{"name":"東京式典　株式会社","province":"東京都","city":"目黒区","address":"東京都目黒区鷹番3丁目8-6","lat":35.62931629,"lon":139.68532237},{"name":"株式会社　花会","province":"東京都","city":"目黒区","address":"東京都目黒区碑文谷1丁目5-1","lat":35.61927878,"lon":139.69272762},{"name":"有限会社　花心","province":"東京都","city":"目黒区","address":"東京都目黒区柿の木坂1丁目34-15","lat":35.62170576,"lon":139.67397075},{"name":"有限会社　横山葬祭","province":"東京都","city":"目黒区","address":"東京都目黒区五本木2丁目20-3","lat":35.63450191,"lon":139.68991628},{"name":"有限会社　吉田葬儀社","province":"東京都","city":"目黒区","address":"東京都目黒区原町1丁目12-6","lat":35.61546269,"lon":139.69711628},{"name":"こどもば食堂＠上目黒","province":"東京都","city":"目黒区","address":"東京都目黒区祐天寺2丁目6-6","lat":35.6370906,"lon":139.69376866},{"name":"こどもば食堂＠中央町","province":"東京都","city":"目黒区","address":"東京都目黒区中央町2丁目4-18","lat":35.6318745,"lon":139.69222728},{"name":"かみめみんなの食堂","province":"東京都","city":"目黒区","address":"東京都目黒区祐天寺2丁目6-6","lat":35.6370906,"lon":139.69376866},{"name":"おてらでごはん","province":"東京都","city":"目黒区","address":"東京都目黒区中目黒5丁目24-53","lat":35.63690459,"lon":139.69705729},{"name":"ちゃいるどべーす目黒本町","province":"東京都","city":"目黒区","address":"東京都目黒区目黒本町2丁目1-20","lat":35.62522258,"lon":139.69522445},{"name":"すずめ食堂","province":"東京都","city":"目黒区","address":"東京都目黒区碑文谷3丁目15-5","lat":35.61786761,"lon":139.68421449},{"name":"とりつだい処","province":"東京都","city":"目黒区","address":"東京都目黒区八雲1丁目10-5","lat":35.61871439,"lon":139.67224043},{"name":"ECO膳","province":"東京都","city":"目黒区","address":"東京都目黒区東が丘1丁目7-14","lat":35.62727725,"lon":139.67001258},{"name":"まると食堂","province":"東京都","city":"目黒区","address":"東京都目黒区青葉台2丁目10-18","lat":35.6498003,"lon":139.69561254},{"name":"おやこカフェ","province":"東京都","city":"目黒区","address":"東京都目黒区目黒本町4丁目3-14","lat":35.62321732,"lon":139.6982187},{"name":"株式会社　あおば葬祭","province":"東京都","city":"目黒区","address":"東京都目黒区下目黒5丁目7-1","lat":35.62943615,"lon":139.70472908},{"name":"勝山葬祭　株式会社","province":"東京都","city":"目黒区","address":"東京都目黒区洗足2丁目21-17","lat":35.61003269,"lon":139.69382229},{"name":"葬祭総合センター　株式会社　門脇","province":"東京都","city":"目黒区","address":"東京都目黒区目黒本町4丁目14-14","lat":35.62328667,"lon":139.69439958},{"name":"株式会社　式典","province":"東京都","city":"目黒区","address":"東京都目黒区平町1丁目26-20","lat":35.61782019,"lon":139.6768262},{"name":"すみやセレモニー　株式会社","province":"東京都","city":"目黒区","address":"東京都目黒区祐天寺2丁目10-3","lat":35.63682115,"lon":139.69230491},{"name":"東京式典　株式会社","province":"東京都","city":"目黒区","address":"東京都目黒区鷹番3丁目8-6","lat":35.62931629,"lon":139.68532237},{"name":"株式会社　花会","province":"東京都","city":"目黒区","address":"東京都目黒区碑文谷1丁目5-1","lat":35.61927878,"lon":139.69272762},{"name":"有限会社　花心","province":"東京都","city":"目黒区","address":"東京都目黒区柿の木坂1丁目34-15","lat":35.62170576,"lon":139.67397075},{"name":"有限会社　横山葬祭","province":"東京都","city":"目黒区","address":"東京都目黒区五本木2丁目20-3","lat":35.63450191,"lon":139.68991628},{"name":"有限会社　吉田葬儀社","province":"東京都","city":"目黒区","address":"東京都目黒区原町1丁目12-6","lat":35.61546269,"lon":139.69711628},{"name":"こどもば食堂＠上目黒","province":"東京都","city":"目黒区","address":"東京都目黒区祐天寺2丁目6-6","lat":35.6370906,"lon":139.69376866},{"name":"こどもば食堂＠中央町","province":"東京都","city":"目黒区","address":"東京都目黒区中央町2丁目4-18","lat":35.6318745,"lon":139.69222728},{"name":"かみめみんなの食堂","province":"東京都","city":"目黒区","address":"東京都目黒区祐天寺2丁目6-6","lat":35.6370906,"lon":139.69376866},{"name":"おてらでごはん","province":"東京都","city":"目黒区","address":"東京都目黒区中目黒5丁目24-53","lat":35.63690459,"lon":139.69705729},{"name":"ちゃいるどべーす目黒本町","province":"東京都","city":"目黒区","address":"東京都目黒区目黒本町2丁目1-20","lat":35.62522258,"lon":139.69522445},{"name":"すずめ食堂","province":"東京都","city":"目黒区","address":"東京都目黒区碑文谷3丁目15-5","lat":35.61786761,"lon":139.68421449},{"name":"とりつだい処","province":"東京都","city":"目黒区","address":"東京都目黒区八雲1丁目10-5","lat":35.61871439,"lon":139.67224043},{"name":"ECO膳","province":"東京都","city":"目黒区","address":"東京都目黒区東が丘1丁目7-14","lat":35.62727725,"lon":139.67001258},{"name":"まると食堂","province":"東京都","city":"目黒区","address":"東京都目黒区青葉台2丁目10-18","lat":35.6498003,"lon":139.69561254},{"name":"おやこカフェ","province":"東京都","city":"目黒区","address":"東京都目黒区目黒本町4丁目3-14","lat":35.62321732,"lon":139.6982187},{"name":"株式会社　あおば葬祭","province":"東京都","city":"目黒区","address":"東京都目黒区下目黒5丁目7-1","lat":35.62943615,"lon":139.70472908},{"name":"勝山葬祭　株式会社","province":"東京都","city":"目黒区","address":"東京都目黒区洗足2丁目21-17","lat":35.61003269,"lon":139.69382229},{"name":"葬祭総合センター　株式会社　門脇","province":"東京都","city":"目黒区","address":"東京都目黒区目黒本町4丁目14-14","lat":35.62328667,"lon":139.69439958},{"name":"株式会社　式典","province":"東京都","city":"目黒区","address":"東京都目黒区平町1丁目26-20","lat":35.61782019,"lon":139.6768262},{"name":"すみやセレモニー　株式会社","province":"東京都","city":"目黒区","address":"東京都目黒区祐天寺2丁目10-3","lat":35.63682115,"lon":139.69230491},{"name":"東京式典　株式会社","province":"東京都","city":"目黒区","address":"東京都目黒区鷹番3丁目8-6","lat":35.62931629,"lon":139.68532237},{"name":"株式会社　花会","province":"東京都","city":"目黒区","address":"東京都目黒区碑文谷1丁目5-1","lat":35.61927878,"lon":139.69272762},{"name":"有限会社　花心","province":"東京都","city":"目黒区","address":"東京都目黒区柿の木坂1丁目34-15","lat":35.62170576,"lon":139.67397075},{"name":"有限会社　横山葬祭","province":"東京都","city":"目黒区","address":"東京都目黒区五本木2丁目20-3","lat":35.63450191,"lon":139.68991628},{"name":"有限会社　吉田葬儀社","province":"東京都","city":"目黒区","address":"東京都目黒区原町1丁目12-6","lat":35.61546269,"lon":139.69711628},{"name":"こどもば食堂＠上目黒","province":"東京都","city":"目黒区","address":"東京都目黒区祐天寺2丁目6-6","lat":35.6370906,"lon":139.69376866},{"name":"こどもば食堂＠中央町","province":"東京都","city":"目黒区","address":"東京都目黒区中央町2丁目4-18","lat":35.6318745,"lon":139.69222728},{"name":"かみめみんなの食堂","province":"東京都","city":"目黒区","address":"東京都目黒区祐天寺2丁目6-6","lat":35.6370906,"lon":139.69376866},{"name":"おてらでごはん","province":"東京都","city":"目黒区","address":"東京都目黒区中目黒5丁目24-53","lat":35.63690459,"lon":139.69705729},{"name":"ちゃいるどべーす目黒本町","province":"東京都","city":"目黒区","address":"東京都目黒区目黒本町2丁目1-20","lat":35.62522258,"lon":139.69522445},{"name":"すずめ食堂","province":"東京都","city":"目黒区","address":"東京都目黒区碑文谷3丁目15-5","lat":35.61786761,"lon":139.68421449},{"name":"とりつだい処","province":"東京都","city":"目黒区","address":"東京都目黒区八雲1丁目10-5","lat":35.61871439,"lon":139.67224043},{"name":"ECO膳","province":"東京都","city":"目黒区","address":"東京都目黒区東が丘1丁目7-14","lat":35.62727725,"lon":139.67001258},{"name":"まると食堂","province":"東京都","city":"目黒区","address":"東京都目黒区青葉台2丁目10-18","lat":35.6498003,"lon":139.69561254},{"name":"おやこカフェ","province":"東京都","city":"目黒区","address":"東京都目黒区目黒本町4丁目3-14","lat":35.62321732,"lon":139.6982187},{"name":"株式会社　あおば葬祭","province":"東京都","city":"目黒区","address":"東京都目黒区下目黒5丁目7-1","lat":35.62943615,"lon":139.70472908},{"name":"勝山葬祭　株式会社","province":"東京都","city":"目黒区","address":"東京都目黒区洗足2丁目21-17","lat":35.61003269,"lon":139.69382229},{"name":"葬祭総合センター　株式会社　門脇","province":"東京都","city":"目黒区","address":"東京都目黒区目黒本町4丁目14-14","lat":35.62328667,"lon":139.69439958},{"name":"株式会社　式典","province":"東京都","city":"目黒区","address":"東京都目黒区平町1丁目26-20","lat":35.61782019,"lon":139.6768262},{"name":"すみやセレモニー　株式会社","province":"東京都","city":"目黒区","address":"東京都目黒区祐天寺2丁目10-3","lat":35.63682115,"lon":139.69230491},{"name":"東京式典　株式会社","province":"東京都","city":"目黒区","address":"東京都目黒区鷹番3丁目8-6","lat":35.62931629,"lon":139.68532237},{"name":"株式会社　花会","province":"東京都","city":"目黒区","address":"東京都目黒区碑文谷1丁目5-1","lat":35.61927878,"lon":139.69272762},{"name":"有限会社　花心","province":"東京都","city":"目黒区","address":"東京都目黒区柿の木坂1丁目34-15","lat":35.62170576,"lon":139.67397075},{"name":"有限会社　横山葬祭","province":"東京都","city":"目黒区","address":"東京都目黒区五本木2丁目20-3","lat":35.63450191,"lon":139.68991628},{"name":"有限会社　吉田葬儀社","province":"東京都","city":"目黒区","address":"東京都目黒区原町1丁目12-6","lat":35.61546269,"lon":139.69711628},{"name":"こどもば食堂＠上目黒","province":"東京都","city":"目黒区","address":"東京都目黒区祐天寺2丁目6-6","lat":35.6370906,"lon":139.69376866},{"name":"こどもば食堂＠中央町","province":"東京都","city":"目黒区","address":"東京都目黒区中央町2丁目4-18","lat":35.6318745,"lon":139.69222728},{"name":"かみめみんなの食堂","province":"東京都","city":"目黒区","address":"東京都目黒区祐天寺2丁目6-6","lat":35.6370906,"lon":139.69376866},{"name":"おてらでごはん","province":"東京都","city":"目黒区","address":"東京都目黒区中目黒5丁目24-53","lat":35.63690459,"lon":139.69705729},{"name":"ちゃいるどべーす目黒本町","province":"東京都","city":"目黒区","address":"東京都目黒区目黒本町2丁目1-20","lat":35.62522258,"lon":139.69522445},{"name":"すずめ食堂","province":"東京都","city":"目黒区","address":"東京都目黒区碑文谷3丁目15-5","lat":35.61786761,"lon":139.68421449},{"name":"とりつだい処","province":"東京都","city":"目黒区","address":"東京都目黒区八雲1丁目10-5","lat":35.61871439,"lon":139.67224043},{"name":"ECO膳","province":"東京都","city":"目黒区","address":"東京都目黒区東が丘1丁目7-14","lat":35.62727725,"lon":139.67001258},{"name":"まると食堂","province":"東京都","city":"目黒区","address":"東京都目黒区青葉台2丁目10-18","lat":35.6498003,"lon":139.69561254},{"name":"おやこカフェ","province":"東京都","city":"目黒区","address":"東京都目黒区目黒本町4丁目3-14","lat":35.62321732,"lon":139.6982187},{"name":"株式会社　あおば葬祭","province":"東京都","city":"目黒区","address":"東京都目黒区下目黒5丁目7-1","lat":35.62943615,"lon":139.70472908},{"name":"勝山葬祭　株式会社","province":"東京都","city":"目黒区","address":"東京都目黒区洗足2丁目21-17","lat":35.61003269,"lon":139.69382229},{"name":"葬祭総合センター　株式会社　門脇","province":"東京都","city":"目黒区","address":"東京都目黒区目黒本町4丁目14-14","lat":35.62328667,"lon":139.69439958},{"name":"株式会社　式典","province":"東京都","city":"目黒区","address":"東京都目黒区平町1丁目26-20","lat":35.61782019,"lon":139.6768262},{"name":"すみやセレモニー　株式会社","province":"東京都","city":"目黒区","address":"東京都目黒区祐天寺2丁目10-3","lat":35.63682115,"lon":139.69230491},{"name":"東京式典　株式会社","province":"東京都","city":"目黒区","address":"東京都目黒区鷹番3丁目8-6","lat":35.62931629,"lon":139.68532237},{"name":"株式会社　花会","province":"東京都","city":"目黒区","address":"東京都目黒区碑文谷1丁目5-1","lat":35.61927878,"lon":139.69272762},{"name":"有限会社　花心","province":"東京都","city":"目黒区","address":"東京都目黒区柿の木坂1丁目34-15","lat":35.62170576,"lon":139.67397075},{"name":"有限会社　横山葬祭","province":"東京都","city":"目黒区","address":"東京都目黒区五本木2丁目20-3","lat":35.63450191,"lon":139.68991628},{"name":"有限会社　吉田葬儀社","province":"東京都","city":"目黒区","address":"東京都目黒区原町1丁目12-6","lat":35.61546269,"lon":139.69711628},{"name":"こどもば食堂＠上目黒","province":"東京都","city":"目黒区","address":"東京都目黒区祐天寺2丁目6-6","lat":35.6370906,"lon":139.69376866},{"name":"こどもば食堂＠中央町","province":"東京都","city":"目黒区","address":"東京都目黒区中央町2丁目4-18","lat":35.6318745,"lon":139.69222728},{"name":"かみめみんなの食堂","province":"東京都","city":"目黒区","address":"東京都目黒区祐天寺2丁目6-6","lat":35.6370906,"lon":139.69376866},{"name":"おてらでごはん","province":"東京都","city":"目黒区","address":"東京都目黒区中目黒5丁目24-53","lat":35.63690459,"lon":139.69705729},{"name":"ちゃいるどべーす目黒本町","province":"東京都","city":"目黒区","address":"東京都目黒区目黒本町2丁目1-20","lat":35.62522258,"lon":139.69522445},{"name":"すずめ食堂","province":"東京都","city":"目黒区","address":"東京都目黒区碑文谷3丁目15-5","lat":35.61786761,"lon":139.68421449},{"name":"とりつだい処","province":"東京都","city":"目黒区","address":"東京都目黒区八雲1丁目10-5","lat":35.61871439,"lon":139.67224043},{"name":"ECO膳","province":"東京都","city":"目黒区","address":"東京都目黒区東が丘1丁目7-14","lat":35.62727725,"lon":139.67001258},{"name":"まると食堂","province":"東京都","city":"目黒区","address":"東京都目黒区青葉台2丁目10-18","lat":35.6498003,"lon":139.69561254},{"name":"おやこカフェ","province":"東京都","city":"目黒区","address":"東京都目黒区目黒本町4丁目3-14","lat":35.62321732,"lon":139.6982187},{"name":"株式会社　あおば葬祭","province":"東京都","city":"目黒区","address":"東京都目黒区下目黒5丁目7-1","lat":35.62943615,"lon":139.70472908},{"name":"勝山葬祭　株式会社","province":"東京都","city":"目黒区","address":"東京都目黒区洗足2丁目21-17","lat":35.61003269,"lon":139.69382229},{"name":"葬祭総合センター　株式会社　門脇","province":"東京都","city":"目黒区","address":"東京都目黒区目黒本町4丁目14-14","lat":35.62328667,"lon":139.69439958},{"name":"株式会社　式典","province":"東京都","city":"目黒区","address":"東京都目黒区平町1丁目26-20","lat":35.61782019,"lon":139.6768262},{"name":"すみやセレモニー　株式会社","province":"東京都","city":"目黒区","address":"東京都目黒区祐天寺2丁目10-3","lat":35.63682115,"lon":139.69230491},{"name":"東京式典　株式会社","province":"東京都","city":"目黒区","address":"東京都目黒区鷹番3丁目8-6","lat":35.62931629,"lon":139.68532237},{"name":"株式会社　花会","province":"東京都","city":"目黒区","address":"東京都目黒区碑文谷1丁目5-1","lat":35.61927878,"lon":139.69272762},{"name":"有限会社　花心","province":"東京都","city":"目黒区","address":"東京都目黒区柿の木坂1丁目34-15","lat":35.62170576,"lon":139.67397075},{"name":"有限会社　横山葬祭","province":"東京都","city":"目黒区","address":"東京都目黒区五本木2丁目20-3","lat":35.63450191,"lon":139.68991628},{"name":"有限会社　吉田葬儀社","province":"東京都","city":"目黒区","address":"東京都目黒区原町1丁目12-6","lat":35.61546269,"lon":139.69711628},{"name":"こどもば食堂＠上目黒","province":"東京都","city":"目黒区","address":"東京都目黒区祐天寺2丁目6-6","lat":35.6370906,"lon":139.69376866},{"name":"こどもば食堂＠中央町","province":"東京都","city":"目黒区","address":"東京都目黒区中央町2丁目4-18","lat":35.6318745,"lon":139.69222728},{"name":"かみめみんなの食堂","province":"東京都","city":"目黒区","address":"東京都目黒区祐天寺2丁目6-6","lat":35.6370906,"lon":139.69376866},{"name":"おてらでごはん","province":"東京都","city":"目黒区","address":"東京都目黒区中目黒5丁目24-53","lat":35.63690459,"lon":139.69705729},{"name":"ちゃいるどべーす目黒本町","province":"東京都","city":"目黒区","address":"東京都目黒区目黒本町2丁目1-20","lat":35.62522258,"lon":139.69522445},{"name":"すずめ食堂","province":"東京都","city":"目黒区","address":"東京都目黒区碑文谷3丁目15-5","lat":35.61786761,"lon":139.68421449},{"name":"とりつだい処","province":"東京都","city":"目黒区","address":"東京都目黒区八雲1丁目10-5","lat":35.61871439,"lon":139.67224043},{"name":"ECO膳","province":"東京都","city":"目黒区","address":"東京都目黒区東が丘1丁目7-14","lat":35.62727725,"lon":139.67001258},{"name":"まると食堂","province":"東京都","city":"目黒区","address":"東京都目黒区青葉台2丁目10-18","lat":35.6498003,"lon":139.69561254},{"name":"おやこカフェ","province":"東京都","city":"目黒区","address":"東京都目黒区目黒本町4丁目3-14","lat":35.62321732,"lon":139.6982187},{"name":"株式会社　あおば葬祭","province":"東京都","city":"目黒区","address":"東京都目黒区下目黒5丁目7-1","lat":35.62943615,"lon":139.70472908},{"name":"勝山葬祭　株式会社","province":"東京都","city":"目黒区","address":"東京都目黒区洗足2丁目21-17","lat":35.61003269,"lon":139.69382229},{"name":"葬祭総合センター　株式会社　門脇","province":"東京都","city":"目黒区","address":"東京都目黒区目黒本町4丁目14-14","lat":35.62328667,"lon":139.69439958},{"name":"株式会社　式典","province":"東京都","city":"目黒区","address":"東京都目黒区平町1丁目26-20","lat":35.61782019,"lon":139.6768262},{"name":"すみやセレモニー　株式会社","province":"東京都","city":"目黒区","address":"東京都目黒区祐天寺2丁目10-3","lat":35.63682115,"lon":139.69230491},{"name":"東京式典　株式会社","province":"東京都","city":"目黒区","address":"東京都目黒区鷹番3丁目8-6","lat":35.62931629,"lon":139.68532237},{"name":"株式会社　花会","province":"東京都","city":"目黒区","address":"東京都目黒区碑文谷1丁目5-1","lat":35.61927878,"lon":139.69272762},{"name":"有限会社　花心","province":"東京都","city":"目黒区","address":"東京都目黒区柿の木坂1丁目34-15","lat":35.62170576,"lon":139.67397075},{"name":"有限会社　横山葬祭","province":"東京都","city":"目黒区","address":"東京都目黒区五本木2丁目20-3","lat":35.63450191,"lon":139.68991628},{"name":"有限会社　吉田葬儀社","province":"東京都","city":"目黒区","address":"東京都目黒区原町1丁目12-6","lat":35.61546269,"lon":139.69711628},{"name":"こどもば食堂＠上目黒","province":"東京都","city":"目黒区","address":"東京都目黒区祐天寺2丁目6-6","lat":35.6370906,"lon":139.69376866},{"name":"こどもば食堂＠中央町","province":"東京都","city":"目黒区","address":"東京都目黒区中央町2丁目4-18","lat":35.6318745,"lon":139.69222728},{"name":"かみめみんなの食堂","province":"東京都","city":"目黒区","address":"東京都目黒区祐天寺2丁目6-6","lat":35.6370906,"lon":139.69376866},{"name":"おてらでごはん","province":"東京都","city":"目黒区","address":"東京都目黒区中目黒5丁目24-53","lat":35.63690459,"lon":139.69705729},{"name":"ちゃいるどべーす目黒本町","province":"東京都","city":"目黒区","address":"東京都目黒区目黒本町2丁目1-20","lat":35.62522258,"lon":139.69522445},{"name":"すずめ食堂","province":"東京都","city":"目黒区","address":"東京都目黒区碑文谷3丁目15-5","lat":35.61786761,"lon":139.68421449},{"name":"とりつだい処","province":"東京都","city":"目黒区","address":"東京都目黒区八雲1丁目10-5","lat":35.61871439,"lon":139.67224043},{"name":"ECO膳","province":"東京都","city":"目黒区","address":"東京都目黒区東が丘1丁目7-14","lat":35.62727725,"lon":139.67001258},{"name":"まると食堂","province":"東京都","city":"目黒区","address":"東京都目黒区青葉台2丁目10-18","lat":35.6498003,"lon":139.69561254},{"name":"おやこカフェ","province":"東京都","city":"目黒区","address":"東京都目黒区目黒本町4丁目3-14","lat":35.62321732,"lon":139.6982187},{"name":"株式会社　あおば葬祭","province":"東京都","city":"目黒区","address":"東京都目黒区下目黒5丁目7-1","lat":35.62943615,"lon":139.70472908},{"name":"勝山葬祭　株式会社","province":"東京都","city":"目黒区","address":"東京都目黒区洗足2丁目21-17","lat":35.61003269,"lon":139.69382229},{"name":"葬祭総合センター　株式会社　門脇","province":"東京都","city":"目黒区","address":"東京都目黒区目黒本町4丁目14-14","lat":35.62328667,"lon":139.69439958},{"name":"株式会社　式典","province":"東京都","city":"目黒区","address":"東京都目黒区平町1丁目26-20","lat":35.61782019,"lon":139.6768262},{"name":"すみやセレモニー　株式会社","province":"東京都","city":"目黒区","address":"東京都目黒区祐天寺2丁目10-3","lat":35.63682115,"lon":139.69230491},{"name":"東京式典　株式会社","province":"東京都","city":"目黒区","address":"東京都目黒区鷹番3丁目8-6","lat":35.62931629,"lon":139.68532237},{"name":"株式会社　花会","province":"東京都","city":"目黒区","address":"東京都目黒区碑文谷1丁目5-1","lat":35.61927878,"lon":139.69272762},{"name":"有限会社　花心","province":"東京都","city":"目黒区","address":"東京都目黒区柿の木坂1丁目34-15","lat":35.62170576,"lon":139.67397075},{"name":"有限会社　横山葬祭","province":"東京都","city":"目黒区","address":"東京都目黒区五本木2丁目20-3","lat":35.63450191,"lon":139.68991628},{"name":"有限会社　吉田葬儀社","province":"東京都","city":"目黒区","address":"東京都目黒区原町1丁目12-6","lat":35.61546269,"lon":139.69711628},{"name":"こどもば食堂＠上目黒","province":"東京都","city":"目黒区","address":"東京都目黒区祐天寺2丁目6-6","lat":35.6370906,"lon":139.69376866},{"name":"こどもば食堂＠中央町","province":"東京都","city":"目黒区","address":"東京都目黒区中央町2丁目4-18","lat":35.6318745,"lon":139.69222728},{"name":"かみめみんなの食堂","province":"東京都","city":"目黒区","address":"東京都目黒区祐天寺2丁目6-6","lat":35.6370906,"lon":139.69376866},{"name":"おてらでごはん","province":"東京都","city":"目黒区","address":"東京都目黒区中目黒5丁目24-53","lat":35.63690459,"lon":139.69705729},{"name":"ちゃいるどべーす目黒本町","province":"東京都","city":"目黒区","address":"東京都目黒区目黒本町2丁目1-20","lat":35.62522258,"lon":139.69522445},{"name":"すずめ食堂","province":"東京都","city":"目黒区","address":"東京都目黒区碑文谷3丁目15-5","lat":35.61786761,"lon":139.68421449},{"name":"とりつだい処","province":"東京都","city":"目黒区","address":"東京都目黒区八雲1丁目10-5","lat":35.61871439,"lon":139.67224043},{"name":"ECO膳","province":"東京都","city":"目黒区","address":"東京都目黒区東が丘1丁目7-14","lat":35.62727725,"lon":139.67001258},{"name":"まると食堂","province":"東京都","city":"目黒区","address":"東京都目黒区青葉台2丁目10-18","lat":35.6498003,"lon":139.69561254},{"name":"おやこカフェ","province":"東京都","city":"目黒区","address":"東京都目黒区目黒本町4丁目3-14","lat":35.62321732,"lon":139.6982187},{"name":"株式会社　あおば葬祭","province":"東京都","city":"目黒区","address":"東京都目黒区下目黒5丁目7-1","lat":35.62943615,"lon":139.70472908},{"name":"勝山葬祭　株式会社","province":"東京都","city":"目黒区","address":"東京都目黒区洗足2丁目21-17","lat":35.61003269,"lon":139.69382229},{"name":"葬祭総合センター　株式会社　門脇","province":"東京都","city":"目黒区","address":"東京都目黒区目黒本町4丁目14-14","lat":35.62328667,"lon":139.69439958},{"name":"株式会社　式典","province":"東京都","city":"目黒区","address":"東京都目黒区平町1丁目26-20","lat":35.61782019,"lon":139.6768262},{"name":"すみやセレモニー　株式会社","province":"東京都","city":"目黒区","address":"東京都目黒区祐天寺2丁目10-3","lat":35.63682115,"lon":139.69230491},{"name":"東京式典　株式会社","province":"東京都","city":"目黒区","address":"東京都目黒区鷹番3丁目8-6","lat":35.62931629,"lon":139.68532237},{"name":"株式会社　花会","province":"東京都","city":"目黒区","address":"東京都目黒区碑文谷1丁目5-1","lat":35.61927878,"lon":139.69272762},{"name":"有限会社　花心","province":"東京都","city":"目黒区","address":"東京都目黒区柿の木坂1丁目34-15","lat":35.62170576,"lon":139.67397075},{"name":"有限会社　横山葬祭","province":"東京都","city":"目黒区","address":"東京都目黒区五本木2丁目20-3","lat":35.63450191,"lon":139.68991628},{"name":"有限会社　吉田葬儀社","province":"東京都","city":"目黒区","address":"東京都目黒区原町1丁目12-6","lat":35.61546269,"lon":139.69711628},{"name":"こどもば食堂＠上目黒","province":"東京都","city":"目黒区","address":"東京都目黒区祐天寺2丁目6-6","lat":35.6370906,"lon":139.69376866},{"name":"こどもば食堂＠中央町","province":"東京都","city":"目黒区","address":"東京都目黒区中央町2丁目4-18","lat":35.6318745,"lon":139.69222728},{"name":"かみめみんなの食堂","province":"東京都","city":"目黒区","address":"東京都目黒区祐天寺2丁目6-6","lat":35.6370906,"lon":139.69376866},{"name":"おてらでごはん","province":"東京都","city":"目黒区","address":"東京都目黒区中目黒5丁目24-53","lat":35.63690459,"lon":139.69705729},{"name":"ちゃいるどべーす目黒本町","province":"東京都","city":"目黒区","address":"東京都目黒区目黒本町2丁目1-20","lat":35.62522258,"lon":139.69522445},{"name":"すずめ食堂","province":"東京都","city":"目黒区","address":"東京都目黒区碑文谷3丁目15-5","lat":35.61786761,"lon":139.68421449},{"name":"とりつだい処","province":"東京都","city":"目黒区","address":"東京都目黒区八雲1丁目10-5","lat":35.61871439,"lon":139.67224043},{"name":"ECO膳","province":"東京都","city":"目黒区","address":"東京都目黒区東が丘1丁目7-14","lat":35.62727725,"lon":139.67001258},{"name":"まると食堂","province":"東京都","city":"目黒区","address":"東京都目黒区青葉台2丁目10-18","lat":35.6498003,"lon":139.69561254},{"name":"おやこカフェ","province":"東京都","city":"目黒区","address":"東京都目黒区目黒本町4丁目3-14","lat":35.62321732,"lon":139.6982187},{"name":"株式会社　あおば葬祭","province":"東京都","city":"目黒区","address":"東京都目黒区下目黒5丁目7-1","lat":35.62943615,"lon":139.70472908},{"name":"勝山葬祭　株式会社","province":"東京都","city":"目黒区","address":"東京都目黒区洗足2丁目21-17","lat":35.61003269,"lon":139.69382229},{"name":"葬祭総合センター　株式会社　門脇","province":"東京都","city":"目黒区","address":"東京都目黒区目黒本町4丁目14-14","lat":35.62328667,"lon":139.69439958},{"name":"株式会社　式典","province":"東京都","city":"目黒区","address":"東京都目黒区平町1丁目26-20","lat":35.61782019,"lon":139.6768262},{"name":"すみやセレモニー　株式会社","province":"東京都","city":"目黒区","address":"東京都目黒区祐天寺2丁目10-3","lat":35.63682115,"lon":139.69230491},{"name":"東京式典　株式会社","province":"東京都","city":"目黒区","address":"東京都目黒区鷹番3丁目8-6","lat":35.62931629,"lon":139.68532237},{"name":"株式会社　花会","province":"東京都","city":"目黒区","address":"東京都目黒区碑文谷1丁目5-1","lat":35.61927878,"lon":139.69272762},{"name":"有限会社　花心","province":"東京都","city":"目黒区","address":"東京都目黒区柿の木坂1丁目34-15","lat":35.62170576,"lon":139.67397075},{"name":"有限会社　横山葬祭","province":"東京都","city":"目黒区","address":"東京都目黒区五本木2丁目20-3","lat":35.63450191,"lon":139.68991628},{"name":"有限会社　吉田葬儀社","province":"東京都","city":"目黒区","address":"東京都目黒区原町1丁目12-6","lat":35.61546269,"lon":139.69711628},{"name":"こどもば食堂＠上目黒","province":"東京都","city":"目黒区","address":"東京都目黒区祐天寺2丁目6-6","lat":35.6370906,"lon":139.69376866},{"name":"こどもば食堂＠中央町","province":"東京都","city":"目黒区","address":"東京都目黒区中央町2丁目4-18","lat":35.6318745,"lon":139.69222728},{"name":"かみめみんなの食堂","province":"東京都","city":"目黒区","address":"東京都目黒区祐天寺2丁目6-6","lat":35.6370906,"lon":139.69376866},{"name":"おてらでごはん","province":"東京都","city":"目黒区","address":"東京都目黒区中目黒5丁目24-53","lat":35.63690459,"lon":139.69705729},{"name":"ちゃいるどべーす目黒本町","province":"東京都","city":"目黒区","address":"東京都目黒区目黒本町2丁目1-20","lat":35.62522258,"lon":139.69522445},{"name":"すずめ食堂","province":"東京都","city":"目黒区","address":"東京都目黒区碑文谷3丁目15-5","lat":35.61786761,"lon":139.68421449},{"name":"とりつだい処","province":"東京都","city":"目黒区","address":"東京都目黒区八雲1丁目10-5","lat":35.61871439,"lon":139.67224043},{"name":"ECO膳","province":"東京都","city":"目黒区","address":"東京都目黒区東が丘1丁目7-14","lat":35.62727725,"lon":139.67001258},{"name":"まると食堂","province":"東京都","city":"目黒区","address":"東京都目黒区青葉台2丁目10-18","lat":35.6498003,"lon":139.69561254},{"name":"おやこカフェ","province":"東京都","city":"目黒区","address":"東京都目黒区目黒本町4丁目3-14","lat":35.62321732,"lon":139.6982187},{"name":"株式会社　あおば葬祭","province":"東京都","city":"目黒区","address":"東京都目黒区下目黒5丁目7-1","lat":35.62943615,"lon":139.70472908},{"name":"勝山葬祭　株式会社","province":"東京都","city":"目黒区","address":"東京都目黒区洗足2丁目21-17","lat":35.61003269,"lon":139.69382229},{"name":"葬祭総合センター　株式会社　門脇","province":"東京都","city":"目黒区","address":"東京都目黒区目黒本町4丁目14-14","lat":35.62328667,"lon":139.69439958},{"name":"株式会社　式典","province":"東京都","city":"目黒区","address":"東京都目黒区平町1丁目26-20","lat":35.61782019,"lon":139.6768262},{"name":"すみやセレモニー　株式会社","province":"東京都","city":"目黒区","address":"東京都目黒区祐天寺2丁目10-3","lat":35.63682115,"lon":139.69230491},{"name":"東京式典　株式会社","province":"東京都","city":"目黒区","address":"東京都目黒区鷹番3丁目8-6","lat":35.62931629,"lon":139.68532237},{"name":"株式会社　花会","province":"東京都","city":"目黒区","address":"東京都目黒区碑文谷1丁目5-1","lat":35.61927878,"lon":139.69272762},{"name":"有限会社　花心","province":"東京都","city":"目黒区","address":"東京都目黒区柿の木坂1丁目34-15","lat":35.62170576,"lon":139.67397075},{"name":"有限会社　横山葬祭","province":"東京都","city":"目黒区","address":"東京都目黒区五本木2丁目20-3","lat":35.63450191,"lon":139.68991628},{"name":"有限会社　吉田葬儀社","province":"東京都","city":"目黒区","address":"東京都目黒区原町1丁目12-6","lat":35.61546269,"lon":139.69711628},{"name":"こどもば食堂＠上目黒","province":"東京都","city":"目黒区","address":"東京都目黒区祐天寺2丁目6-6","lat":35.6370906,"lon":139.69376866},{"name":"こどもば食堂＠中央町","province":"東京都","city":"目黒区","address":"東京都目黒区中央町2丁目4-18","lat":35.6318745,"lon":139.69222728},{"name":"かみめみんなの食堂","province":"東京都","city":"目黒区","address":"東京都目黒区祐天寺2丁目6-6","lat":35.6370906,"lon":139.69376866},{"name":"おてらでごはん","province":"東京都","city":"目黒区","address":"東京都目黒区中目黒5丁目24-53","lat":35.63690459,"lon":139.69705729},{"name":"ちゃいるどべーす目黒本町","province":"東京都","city":"目黒区","address":"東京都目黒区目黒本町2丁目1-20","lat":35.62522258,"lon":139.69522445},{"name":"すずめ食堂","province":"東京都","city":"目黒区","address":"東京都目黒区碑文谷3丁目15-5","lat":35.61786761,"lon":139.68421449},{"name":"とりつだい処","province":"東京都","city":"目黒区","address":"東京都目黒区八雲1丁目10-5","lat":35.61871439,"lon":139.67224043},{"name":"ECO膳","province":"東京都","city":"目黒区","address":"東京都目黒区東が丘1丁目7-14","lat":35.62727725,"lon":139.67001258},{"name":"まると食堂","province":"東京都","city":"目黒区","address":"東京都目黒区青葉台2丁目10-18","lat":35.6498003,"lon":139.69561254},{"name":"おやこカフェ","province":"東京都","city":"目黒区","address":"東京都目黒区目黒本町4丁目3-14","lat":35.62321732,"lon":139.6982187},{"name":"株式会社　あおば葬祭","province":"東京都","city":"目黒区","address":"東京都目黒区下目黒5丁目7-1","lat":35.62943615,"lon":139.70472908},{"name":"勝山葬祭　株式会社","province":"東京都","city":"目黒区","address":"東京都目黒区洗足2丁目21-17","lat":35.61003269,"lon":139.69382229},{"name":"葬祭総合センター　株式会社　門脇","province":"東京都","city":"目黒区","address":"東京都目黒区目黒本町4丁目14-14","lat":35.62328667,"lon":139.69439958},{"name":"株式会社　式典","province":"東京都","city":"目黒区","address":"東京都目黒区平町1丁目26-20","lat":35.61782019,"lon":139.6768262},{"name":"すみやセレモニー　株式会社","province":"東京都","city":"目黒区","address":"東京都目黒区祐天寺2丁目10-3","lat":35.63682115,"lon":139.69230491},{"name":"東京式典　株式会社","province":"東京都","city":"目黒区","address":"東京都目黒区鷹番3丁目8-6","lat":35.62931629,"lon":139.68532237},{"name":"株式会社　花会","province":"東京都","city":"目黒区","address":"東京都目黒区碑文谷1丁目5-1","lat":35.61927878,"lon":139.69272762},{"name":"有限会社　花心","province":"東京都","city":"目黒区","address":"東京都目黒区柿の木坂1丁目34-15","lat":35.62170576,"lon":139.67397075},{"name":"有限会社　横山葬祭","province":"東京都","city":"目黒区","address":"東京都目黒区五本木2丁目20-3","lat":35.63450191,"lon":139.68991628},{"name":"有限会社　吉田葬儀社","province":"東京都","city":"目黒区","address":"東京都目黒区原町1丁目12-6","lat":35.61546269,"lon":139.69711628},{"name":"こどもば食堂＠上目黒","province":"東京都","city":"目黒区","address":"東京都目黒区祐天寺2丁目6-6","lat":35.6370906,"lon":139.69376866},{"name":"こどもば食堂＠中央町","province":"東京都","city":"目黒区","address":"東京都目黒区中央町2丁目4-18","lat":35.6318745,"lon":139.69222728},{"name":"かみめみんなの食堂","province":"東京都","city":"目黒区","address":"東京都目黒区祐天寺2丁目6-6","lat":35.6370906,"lon":139.69376866},{"name":"おてらでごはん","province":"東京都","city":"目黒区","address":"東京都目黒区中目黒5丁目24-53","lat":35.63690459,"lon":139.69705729},{"name":"ちゃいるどべーす目黒本町","province":"東京都","city":"目黒区","address":"東京都目黒区目黒本町2丁目1-20","lat":35.62522258,"lon":139.69522445},{"name":"すずめ食堂","province":"東京都","city":"目黒区","address":"東京都目黒区碑文谷3丁目15-5","lat":35.61786761,"lon":139.68421449},{"name":"とりつだい処","province":"東京都","city":"目黒区","address":"東京都目黒区八雲1丁目10-5","lat":35.61871439,"lon":139.67224043},{"name":"ECO膳","province":"東京都","city":"目黒区","address":"東京都目黒区東が丘1丁目7-14","lat":35.62727725,"lon":139.67001258},{"name":"まると食堂","province":"東京都","city":"目黒区","address":"東京都目黒区青葉台2丁目10-18","lat":35.6498003,"lon":139.69561254},{"name":"おやこカフェ","province":"東京都","city":"目黒区","address":"東京都目黒区目黒本町4丁目3-14","lat":35.62321732,"lon":139.6982187},{"name":"株式会社　あおば葬祭","province":"東京都","city":"目黒区","address":"東京都目黒区下目黒5丁目7-1","lat":35.62943615,"lon":139.70472908},{"name":"勝山葬祭　株式会社","province":"東京都","city":"目黒区","address":"東京都目黒区洗足2丁目21-17","lat":35.61003269,"lon":139.69382229},{"name":"葬祭総合センター　株式会社　門脇","province":"東京都","city":"目黒区","address":"東京都目黒区目黒本町4丁目14-14","lat":35.62328667,"lon":139.69439958},{"name":"株式会社　式典","province":"東京都","city":"目黒区","address":"東京都目黒区平町1丁目26-20","lat":35.61782019,"lon":139.6768262},{"name":"すみやセレモニー　株式会社","province":"東京都","city":"目黒区","address":"東京都目黒区祐天寺2丁目10-3","lat":35.63682115,"lon":139.69230491},{"name":"東京式典　株式会社","province":"東京都","city":"目黒区","address":"東京都目黒区鷹番3丁目8-6","lat":35.62931629,"lon":139.68532237},{"name":"株式会社　花会","province":"東京都","city":"目黒区","address":"東京都目黒区碑文谷1丁目5-1","lat":35.61927878,"lon":139.69272762},{"name":"有限会社　花心","province":"東京都","city":"目黒区","address":"東京都目黒区柿の木坂1丁目34-15","lat":35.62170576,"lon":139.67397075},{"name":"有限会社　横山葬祭","province":"東京都","city":"目黒区","address":"東京都目黒区五本木2丁目20-3","lat":35.63450191,"lon":139.68991628},{"name":"有限会社　吉田葬儀社","province":"東京都","city":"目黒区","address":"東京都目黒区原町1丁目12-6","lat":35.61546269,"lon":139.69711628},{"name":"こどもば食堂＠上目黒","province":"東京都","city":"目黒区","address":"東京都目黒区祐天寺2丁目6-6","lat":35.6370906,"lon":139.69376866},{"name":"こどもば食堂＠中央町","province":"東京都","city":"目黒区","address":"東京都目黒区中央町2丁目4-18","lat":35.6318745,"lon":139.69222728},{"name":"かみめみんなの食堂","province":"東京都","city":"目黒区","address":"東京都目黒区祐天寺2丁目6-6","lat":35.6370906,"lon":139.69376866},{"name":"おてらでごはん","province":"東京都","city":"目黒区","address":"東京都目黒区中目黒5丁目24-53","lat":35.63690459,"lon":139.69705729},{"name":"ちゃいるどべーす目黒本町","province":"東京都","city":"目黒区","address":"東京都目黒区目黒本町2丁目1-20","lat":35.62522258,"lon":139.69522445},{"name":"すずめ食堂","province":"東京都","city":"目黒区","address":"東京都目黒区碑文谷3丁目15-5","lat":35.61786761,"lon":139.68421449},{"name":"とりつだい処","province":"東京都","city":"目黒区","address":"東京都目黒区八雲1丁目10-5","lat":35.61871439,"lon":139.67224043},{"name":"ECO膳","province":"東京都","city":"目黒区","address":"東京都目黒区東が丘1丁目7-14","lat":35.62727725,"lon":139.67001258},{"name":"まると食堂","province":"東京都","city":"目黒区","address":"東京都目黒区青葉台2丁目10-18","lat":35.6498003,"lon":139.69561254},{"name":"おやこカフェ","province":"東京都","city":"目黒区","address":"東京都目黒区目黒本町4丁目3-14","lat":35.62321732,"lon":139.6982187},{"name":"株式会社　あおば葬祭","province":"東京都","city":"目黒区","address":"東京都目黒区下目黒5丁目7-1","lat":35.62943615,"lon":139.70472908},{"name":"勝山葬祭　株式会社","province":"東京都","city":"目黒区","address":"東京都目黒区洗足2丁目21-17","lat":35.61003269,"lon":139.69382229},{"name":"葬祭総合センター　株式会社　門脇","province":"東京都","city":"目黒区","address":"東京都目黒区目黒本町4丁目14-14","lat":35.62328667,"lon":139.69439958},{"name":"株式会社　式典","province":"東京都","city":"目黒区","address":"東京都目黒区平町1丁目26-20","lat":35.61782019,"lon":139.6768262},{"name":"すみやセレモニー　株式会社","province":"東京都","city":"目黒区","address":"東京都目黒区祐天寺2丁目10-3","lat":35.63682115,"lon":139.69230491},{"name":"東京式典　株式会社","province":"東京都","city":"目黒区","address":"東京都目黒区鷹番3丁目8-6","lat":35.62931629,"lon":139.68532237},{"name":"株式会社　花会","province":"東京都","city":"目黒区","address":"東京都目黒区碑文谷1丁目5-1","lat":35.61927878,"lon":139.69272762},{"name":"有限会社　花心","province":"東京都","city":"目黒区","address":"東京都目黒区柿の木坂1丁目34-15","lat":35.62170576,"lon":139.67397075},{"name":"有限会社　横山葬祭","province":"東京都","city":"目黒区","address":"東京都目黒区五本木2丁目20-3","lat":35.63450191,"lon":139.68991628},{"name":"有限会社　吉田葬儀社","province":"東京都","city":"目黒区","address":"東京都目黒区原町1丁目12-6","lat":35.61546269,"lon":139.69711628},{"name":"こどもば食堂＠上目黒","province":"東京都","city":"目黒区","address":"東京都目黒区祐天寺2丁目6-6","lat":35.6370906,"lon":139.69376866},{"name":"こどもば食堂＠中央町","province":"東京都","city":"目黒区","address":"東京都目黒区中央町2丁目4-18","lat":35.6318745,"lon":139.69222728},{"name":"かみめみんなの食堂","province":"東京都","city":"目黒区","address":"東京都目黒区祐天寺2丁目6-6","lat":35.6370906,"lon":139.69376866},{"name":"おてらでごはん","province":"東京都","city":"目黒区","address":"東京都目黒区中目黒5丁目24-53","lat":35.63690459,"lon":139.69705729},{"name":"ちゃいるどべーす目黒本町","province":"東京都","city":"目黒区","address":"東京都目黒区目黒本町2丁目1-20","lat":35.62522258,"lon":139.69522445},{"name":"すずめ食堂","province":"東京都","city":"目黒区","address":"東京都目黒区碑文谷3丁目15-5","lat":35.61786761,"lon":139.68421449},{"name":"とりつだい処","province":"東京都","city":"目黒区","address":"東京都目黒区八雲1丁目10-5","lat":35.61871439,"lon":139.67224043},{"name":"ECO膳","province":"東京都","city":"目黒区","address":"東京都目黒区東が丘1丁目7-14","lat":35.62727725,"lon":139.67001258},{"name":"まると食堂","province":"東京都","city":"目黒区","address":"東京都目黒区青葉台2丁目10-18","lat":35.6498003,"lon":139.69561254},{"name":"おやこカフェ","province":"東京都","city":"目黒区","address":"東京都目黒区目黒本町4丁目3-14","lat":35.62321732,"lon":139.6982187},{"name":"株式会社　あおば葬祭","province":"東京都","city":"目黒区","address":"東京都目黒区下目黒5丁目7-1","lat":35.62943615,"lon":139.70472908},{"name":"勝山葬祭　株式会社","province":"東京都","city":"目黒区","address":"東京都目黒区洗足2丁目21-17","lat":35.61003269,"lon":139.69382229},{"name":"葬祭総合センター　株式会社　門脇","province":"東京都","city":"目黒区","address":"東京都目黒区目黒本町4丁目14-14","lat":35.62328667,"lon":139.69439958},{"name":"株式会社　式典","province":"東京都","city":"目黒区","address":"東京都目黒区平町1丁目26-20","lat":35.61782019,"lon":139.6768262},{"name":"すみやセレモニー　株式会社","province":"東京都","city":"目黒区","address":"東京都目黒区祐天寺2丁目10-3","lat":35.63682115,"lon":139.69230491},{"name":"東京式典　株式会社","province":"東京都","city":"目黒区","address":"東京都目黒区鷹番3丁目8-6","lat":35.62931629,"lon":139.68532237},{"name":"株式会社　花会","province":"東京都","city":"目黒区","address":"東京都目黒区碑文谷1丁目5-1","lat":35.61927878,"lon":139.69272762},{"name":"有限会社　花心","province":"東京都","city":"目黒区","address":"東京都目黒区柿の木坂1丁目34-15","lat":35.62170576,"lon":139.67397075},{"name":"有限会社　横山葬祭","province":"東京都","city":"目黒区","address":"東京都目黒区五本木2丁目20-3","lat":35.63450191,"lon":139.68991628},{"name":"有限会社　吉田葬儀社","province":"東京都","city":"目黒区","address":"東京都目黒区原町1丁目12-6","lat":35.61546269,"lon":139.69711628},{"name":"こどもば食堂＠上目黒","province":"東京都","city":"目黒区","address":"東京都目黒区祐天寺2丁目6-6","lat":35.6370906,"lon":139.69376866},{"name":"こどもば食堂＠中央町","province":"東京都","city":"目黒区","address":"東京都目黒区中央町2丁目4-18","lat":35.6318745,"lon":139.69222728},{"name":"かみめみんなの食堂","province":"東京都","city":"目黒区","address":"東京都目黒区祐天寺2丁目6-6","lat":35.6370906,"lon":139.69376866},{"name":"おてらでごはん","province":"東京都","city":"目黒区","address":"東京都目黒区中目黒5丁目24-53","lat":35.63690459,"lon":139.69705729},{"name":"ちゃいるどべーす目黒本町","province":"東京都","city":"目黒区","address":"東京都目黒区目黒本町2丁目1-20","lat":35.62522258,"lon":139.69522445},{"name":"すずめ食堂","province":"東京都","city":"目黒区","address":"東京都目黒区碑文谷3丁目15-5","lat":35.61786761,"lon":139.68421449},{"name":"とりつだい処","province":"東京都","city":"目黒区","address":"東京都目黒区八雲1丁目10-5","lat":35.61871439,"lon":139.67224043},{"name":"ECO膳","province":"東京都","city":"目黒区","address":"東京都目黒区東が丘1丁目7-14","lat":35.62727725,"lon":139.67001258},{"name":"まると食堂","province":"東京都","city":"目黒区","address":"東京都目黒区青葉台2丁目10-18","lat":35.6498003,"lon":139.69561254},{"name":"おやこカフェ","province":"東京都","city":"目黒区","address":"東京都目黒区目黒本町4丁目3-14","lat":35.62321732,"lon":139.6982187},{"name":"株式会社　あおば葬祭","province":"東京都","city":"目黒区","address":"東京都目黒区下目黒5丁目7-1","lat":35.62943615,"lon":139.70472908},{"name":"勝山葬祭　株式会社","province":"東京都","city":"目黒区","address":"東京都目黒区洗足2丁目21-17","lat":35.61003269,"lon":139.69382229},{"name":"葬祭総合センター　株式会社　門脇","province":"東京都","city":"目黒区","address":"東京都目黒区目黒本町4丁目14-14","lat":35.62328667,"lon":139.69439958},{"name":"株式会社　式典","province":"東京都","city":"目黒区","address":"東京都目黒区平町1丁目26-20","lat":35.61782019,"lon":139.6768262},{"name":"すみやセレモニー　株式会社","province":"東京都","city":"目黒区","address":"東京都目黒区祐天寺2丁目10-3","lat":35.63682115,"lon":139.69230491},{"name":"東京式典　株式会社","province":"東京都","city":"目黒区","address":"東京都目黒区鷹番3丁目8-6","lat":35.62931629,"lon":139.68532237},{"name":"株式会社　花会","province":"東京都","city":"目黒区","address":"東京都目黒区碑文谷1丁目5-1","lat":35.61927878,"lon":139.69272762},{"name":"有限会社　花心","province":"東京都","city":"目黒区","address":"東京都目黒区柿の木坂1丁目34-15","lat":35.62170576,"lon":139.67397075},{"name":"有限会社　横山葬祭","province":"東京都","city":"目黒区","address":"東京都目黒区五本木2丁目20-3","lat":35.63450191,"lon":139.68991628},{"name":"有限会社　吉田葬儀社","province":"東京都","city":"目黒区","address":"東京都目黒区原町1丁目12-6","lat":35.61546269,"lon":139.69711628},{"name":"こどもば食堂＠上目黒","province":"東京都","city":"目黒区","address":"東京都目黒区祐天寺2丁目6-6","lat":35.6370906,"lon":139.69376866},{"name":"こどもば食堂＠中央町","province":"東京都","city":"目黒区","address":"東京都目黒区中央町2丁目4-18","lat":35.6318745,"lon":139.69222728},{"name":"かみめみんなの食堂","province":"東京都","city":"目黒区","address":"東京都目黒区祐天寺2丁目6-6","lat":35.6370906,"lon":139.69376866},{"name":"おてらでごはん","province":"東京都","city":"目黒区","address":"東京都目黒区中目黒5丁目24-53","lat":35.63690459,"lon":139.69705729},{"name":"ちゃいるどべーす目黒本町","province":"東京都","city":"目黒区","address":"東京都目黒区目黒本町2丁目1-20","lat":35.62522258,"lon":139.69522445},{"name":"すずめ食堂","province":"東京都","city":"目黒区","address":"東京都目黒区碑文谷3丁目15-5","lat":35.61786761,"lon":139.68421449},{"name":"とりつだい処","province":"東京都","city":"目黒区","address":"東京都目黒区八雲1丁目10-5","lat":35.61871439,"lon":139.67224043},{"name":"ECO膳","province":"東京都","city":"目黒区","address":"東京都目黒区東が丘1丁目7-14","lat":35.62727725,"lon":139.67001258},{"name":"まると食堂","province":"東京都","city":"目黒区","address":"東京都目黒区青葉台2丁目10-18","lat":35.6498003,"lon":139.69561254},{"name":"おやこカフェ","province":"東京都","city":"目黒区","address":"東京都目黒区目黒本町4丁目3-14","lat":35.62321732,"lon":139.6982187},{"name":"株式会社　あおば葬祭","province":"東京都","city":"目黒区","address":"東京都目黒区下目黒5丁目7-1","lat":35.62943615,"lon":139.70472908},{"name":"勝山葬祭　株式会社","province":"東京都","city":"目黒区","address":"東京都目黒区洗足2丁目21-17","lat":35.61003269,"lon":139.69382229},{"name":"葬祭総合センター　株式会社　門脇","province":"東京都","city":"目黒区","address":"東京都目黒区目黒本町4丁目14-14","lat":35.62328667,"lon":139.69439958},{"name":"株式会社　式典","province":"東京都","city":"目黒区","address":"東京都目黒区平町1丁目26-20","lat":35.61782019,"lon":139.6768262},{"name":"すみやセレモニー　株式会社","province":"東京都","city":"目黒区","address":"東京都目黒区祐天寺2丁目10-3","lat":35.63682115,"lon":139.69230491},{"name":"東京式典　株式会社","province":"東京都","city":"目黒区","address":"東京都目黒区鷹番3丁目8-6","lat":35.62931629,"lon":139.68532237},{"name":"株式会社　花会","province":"東京都","city":"目黒区","address":"東京都目黒区碑文谷1丁目5-1","lat":35.61927878,"lon":139.69272762},{"name":"有限会社　花心","province":"東京都","city":"目黒区","address":"東京都目黒区柿の木坂1丁目34-15","lat":35.62170576,"lon":139.67397075},{"name":"有限会社　横山葬祭","province":"東京都","city":"目黒区","address":"東京都目黒区五本木2丁目20-3","lat":35.63450191,"lon":139.68991628},{"name":"有限会社　吉田葬儀社","province":"東京都","city":"目黒区","address":"東京都目黒区原町1丁目12-6","lat":35.61546269,"lon":139.69711628},{"name":"こどもば食堂＠上目黒","province":"東京都","city":"目黒区","address":"東京都目黒区祐天寺2丁目6-6","lat":35.6370906,"lon":139.69376866},{"name":"こどもば食堂＠中央町","province":"東京都","city":"目黒区","address":"東京都目黒区中央町2丁目4-18","lat":35.6318745,"lon":139.69222728},{"name":"かみめみんなの食堂","province":"東京都","city":"目黒区","address":"東京都目黒区祐天寺2丁目6-6","lat":35.6370906,"lon":139.69376866},{"name":"おてらでごはん","province":"東京都","city":"目黒区","address":"東京都目黒区中目黒5丁目24-53","lat":35.63690459,"lon":139.69705729},{"name":"ちゃいるどべーす目黒本町","province":"東京都","city":"目黒区","address":"東京都目黒区目黒本町2丁目1-20","lat":35.62522258,"lon":139.69522445},{"name":"すずめ食堂","province":"東京都","city":"目黒区","address":"東京都目黒区碑文谷3丁目15-5","lat":35.61786761,"lon":139.68421449},{"name":"とりつだい処","province":"東京都","city":"目黒区","address":"東京都目黒区八雲1丁目10-5","lat":35.61871439,"lon":139.67224043},{"name":"ECO膳","province":"東京都","city":"目黒区","address":"東京都目黒区東が丘1丁目7-14","lat":35.62727725,"lon":139.67001258},{"name":"まると食堂","province":"東京都","city":"目黒区","address":"東京都目黒区青葉台2丁目10-18","lat":35.6498003,"lon":139.69561254},{"name":"おやこカフェ","province":"東京都","city":"目黒区","address":"東京都目黒区目黒本町4丁目3-14","lat":35.62321732,"lon":139.6982187}]}