{"keyword":"無線","data":[{"name":"池尻大橋","province":"東京都","city":"目黒区","address":"東京都目黒区大橋1-12-13","lat":35.651403,"lon":139.686405},{"name":"学芸大学駅前","province":"東京都","city":"目黒区","address":"東京都目黒区鷹番3-6-1","lat":35.629108,"lon":139.685463},{"name":"自由が丘駅前","province":"東京都","city":"目黒区","address":"東京都目黒区自由が丘1-30-1","lat":35.607583,"lon":139.668505},{"name":"旧前田家本邸（和館）","province":"東京都","city":"目黒区","address":"東京都目黒区駒場4-3-55","lat":35.662344,"lon":139.680753},{"name":"目黒区総合庁舎","province":"東京都","city":"目黒区","address":"東京都目黒区上目黒2-19-15","lat":35.641612,"lon":139.698392},{"name":"めぐろ観光まちづくり協会","province":"東京都","city":"目黒区","address":"東京都目黒区上目黒2-1-3","lat":35.643291,"lon":139.698767},{"name":"中目黒駅前","province":"東京都","city":"目黒区","address":"東京都目黒区上目黒3-4-1","lat":35.644203,"lon":139.698871},{"name":"都立大学駅前","province":"東京都","city":"目黒区","address":"東京都目黒区中根1-5-1","lat":35.617506,"lon":139.676137},{"name":"駒場東大駅前","province":"東京都","city":"目黒区","address":"東京都目黒区駒場3-9","lat":35.659041,"lon":139.68285},{"name":"緑が丘駅前","province":"東京都","city":"目黒区","address":"東京都目黒区緑が丘3-2-2","lat":35.606444,"lon":139.67895},{"name":"洗足駅前","province":"東京都","city":"目黒区","address":"東京都目黒区洗足2-21-1","lat":35.610276,"lon":139.694212},{"name":"東京音楽大学前","province":"東京都","city":"目黒区","address":"東京都目黒区上目黒1-9-1","lat":35.646597,"lon":139.699557}]}