{"keyword":"破損","data":[{"name":"北部包括支援センター","province":"東京都","city":"目黒区","address":"目黒区大橋1-51-1クロスエアタワー9階","lat":35.652462,"lon":139.68924},{"name":"東部包括支援センター","province":"東京都","city":"目黒区","address":"目黒区上目黒2-19-15総合庁舎内","lat":35.640465,"lon":139.6987},{"name":"中央包括支援センター","province":"東京都","city":"目黒区","address":"目黒区中央町2-9-13食販ビル2階","lat":35.631126,"lon":139.692123},{"name":"南部包括支援センター","province":"東京都","city":"目黒区","address":"目黒区碑文谷1-18-14碑小学校内南西側","lat":35.618874,"lon":139.690491},{"name":"西部包括支援センター","province":"東京都","city":"目黒区","address":"目黒区柿の木坂1-28-10","lat":35.619823,"lon":139.675735},{"name":"青葉台さくら苑在宅介護支援センター","province":"東京都","city":"目黒区","address":"目黒区青葉台3-21-6青葉台さくら苑内","lat":35.649391,"lon":139.692413},{"name":"清徳会在宅介護支援センター","province":"東京都","city":"目黒区","address":"目黒区目黒本町4-2-1清徳苑内","lat":35.623085,"lon":139.698441},{"name":"目黒区大橋在宅介護支援センター","province":"東京都","city":"目黒区","address":"目黒区大橋2-16-1坂本ビル1階","lat":35.653767,"lon":139.68718},{"name":"目黒区下目黒在宅介護支援センター","province":"東京都","city":"目黒区","address":"目黒区下目黒2-21-16-101","lat":35.634972,"lon":139.709427},{"name":"目黒区日扇会在宅介護支援センター","province":"東京都","city":"目黒区","address":"目黒区中根2-13-18文保堂ビル2階","lat":35.635044,"lon":139.707016},{"name":"東京共済病院在宅介護支援センター","province":"東京都","city":"目黒区","address":"目黒区中目黒2-3-8東京共済病院内","lat":35.641899,"lon":139.703857},{"name":"青葉台一丁目","province":"東京都","city":"目黒区","address":"東京都目黒区東山1丁目2-7","lat":35.64771994,"lon":139.69357111},{"name":"中目黒","province":"東京都","city":"目黒区","address":"東京都目黒区上目黒2丁目9-5","lat":35.64276232,"lon":139.7003735},{"name":"田道","province":"東京都","city":"目黒区","address":"東京都目黒区目黒2丁目14-13","lat":35.63631596,"lon":139.7063843},{"name":"目黒不動入口","province":"東京都","city":"目黒区","address":"東京都目黒区下目黒2丁目24-7","lat":35.62927518,"lon":139.71109241},{"name":"目黒税務署前","province":"東京都","city":"目黒区","address":"東京都目黒区祐天寺2丁目8-12","lat":35.63629903,"lon":139.69416588},{"name":"上目黒三丁目","province":"東京都","city":"目黒区","address":"東京都目黒区青葉台1丁目22-6","lat":35.64599799,"lon":139.69734031},{"name":"駒場町","province":"東京都","city":"目黒区","address":"東京都目黒区駒場2丁目16-4","lat":35.65581597,"lon":139.68286061},{"name":"守屋図書館前","province":"東京都","city":"目黒区","address":"東京都目黒区中央町2丁目1-13","lat":35.63362978,"lon":139.68948578},{"name":"中央町二丁目","province":"東京都","city":"目黒区","address":"東京都目黒区中町2丁目45-8","lat":35.63318267,"lon":139.69189116},{"name":"池尻ランプ前","province":"東京都","city":"目黒区","address":"東京都目黒区大橋1丁目10-1","lat":35.65126102,"lon":139.68642992},{"name":"中目黒駅前","province":"東京都","city":"目黒区","address":"東京都目黒区上目黒1丁目23-1","lat":35.6444149,"lon":139.69964295},{"name":"西郷山下","province":"東京都","city":"目黒区","address":"東京都目黒区青葉台1丁目12-3","lat":35.64866154,"lon":139.69552092},{"name":"青葉台一丁目第二","province":"東京都","city":"目黒区","address":"東京都目黒区青葉台1丁目28-12","lat":35.64744222,"lon":139.69484879},{"name":"上目黒二丁目","province":"東京都","city":"目黒区","address":"東京都目黒区上目黒2丁目10-8","lat":35.64136524,"lon":139.69935419},{"name":"上目黒一丁目","province":"東京都","city":"目黒区","address":"東京都目黒区青葉台1丁目6","lat":35.64784505,"lon":139.69892067},{"name":"東山一丁目","province":"東京都","city":"目黒区","address":"東京都目黒区東山1丁目6-1","lat":35.64630071,"lon":139.69605151},{"name":"西郷山公園前","province":"東京都","city":"目黒区","address":"東京都目黒区青葉台2丁目10","lat":35.65029745,"lon":139.69516256},{"name":"目黒区総合庁舎前","province":"東京都","city":"目黒区","address":"東京都目黒区中目黒3丁目13-22","lat":35.63919604,"lon":139.69918204},{"name":"碑文谷","province":"東京都","city":"目黒区","address":"東京都目黒区碑文谷2丁目21-13","lat":35.62283372,"lon":139.68495871},{"name":"都立大学駅前","province":"東京都","city":"目黒区","address":"東京都目黒区柿の木坂1丁目30-8","lat":35.61855895,"lon":139.67549296},{"name":"柿の木坂","province":"東京都","city":"目黒区","address":"東京都目黒区柿の木坂3丁目8-13","lat":35.6265135,"lon":139.67227909},{"name":"南一丁目","province":"東京都","city":"目黒区","address":"東京都目黒区南1丁目24-10","lat":35.6132738,"lon":139.68706997},{"name":"柿の木坂陸橋下","province":"東京都","city":"目黒区","address":"東京都目黒区平町1丁目1-1","lat":35.62007002,"lon":139.68040916},{"name":"中根一丁目","province":"東京都","city":"目黒区","address":"東京都目黒区中根1丁目5-1","lat":35.61718968,"lon":139.6759513},{"name":"八雲一丁目","province":"東京都","city":"目黒区","address":"東京都目黒区八雲1丁目1-1","lat":35.62149186,"lon":139.67275697},{"name":"八雲小学校入口","province":"東京都","city":"目黒区","address":"東京都目黒区柿の木坂1丁目31-15","lat":35.61941994,"lon":139.6748402},{"name":"大岡山小学校前","province":"東京都","city":"目黒区","address":"東京都目黒区碑文谷3丁目19-8","lat":35.61628445,"lon":139.68343961},{"name":"田向公園入口","province":"東京都","city":"目黒区","address":"東京都目黒区碑文谷2丁目11-22","lat":35.62386141,"lon":139.68676963},{"name":"国立病院東京医療センター正門前","province":"東京都","city":"目黒区","address":"東京都目黒区東が丘2丁目5-1","lat":35.62656333,"lon":139.66598239},{"name":"学芸大学駅入口","province":"東京都","city":"目黒区","address":"東京都目黒区鷹番3丁目1","lat":35.62949961,"lon":139.68583621},{"name":"八雲給水所","province":"東京都","city":"目黒区","address":"東京都目黒区八雲1丁目1","lat":35.62130575,"lon":139.67178483},{"name":"都立林試の森公園","province":"東京都","city":"目黒区","address":"東京都目黒区下目黒5丁目37","lat":35.62487834,"lon":139.70415426},{"name":"北部包括支援センター","province":"東京都","city":"目黒区","address":"目黒区大橋1-51-1クロスエアタワー9階","lat":35.652462,"lon":139.68924},{"name":"東部包括支援センター","province":"東京都","city":"目黒区","address":"目黒区上目黒2-19-15総合庁舎内","lat":35.640465,"lon":139.6987},{"name":"中央包括支援センター","province":"東京都","city":"目黒区","address":"目黒区中央町2-9-13食販ビル2階","lat":35.631126,"lon":139.692123},{"name":"南部包括支援センター","province":"東京都","city":"目黒区","address":"目黒区碑文谷1-18-14碑小学校内南西側","lat":35.618874,"lon":139.690491},{"name":"西部包括支援センター","province":"東京都","city":"目黒区","address":"目黒区柿の木坂1-28-10","lat":35.619823,"lon":139.675735},{"name":"青葉台さくら苑在宅介護支援センター","province":"東京都","city":"目黒区","address":"目黒区青葉台3-21-6青葉台さくら苑内","lat":35.649391,"lon":139.692413},{"name":"清徳会在宅介護支援センター","province":"東京都","city":"目黒区","address":"目黒区目黒本町4-2-1清徳苑内","lat":35.623085,"lon":139.698441},{"name":"目黒区大橋在宅介護支援センター","province":"東京都","city":"目黒区","address":"目黒区大橋2-16-1坂本ビル1階","lat":35.653767,"lon":139.68718},{"name":"目黒区下目黒在宅介護支援センター","province":"東京都","city":"目黒区","address":"目黒区下目黒2-21-16-101","lat":35.634972,"lon":139.709427},{"name":"目黒区日扇会在宅介護支援センター","province":"東京都","city":"目黒区","address":"目黒区中根2-13-18文保堂ビル2階","lat":35.635044,"lon":139.707016},{"name":"東京共済病院在宅介護支援センター","province":"東京都","city":"目黒区","address":"目黒区中目黒2-3-8東京共済病院内","lat":35.641899,"lon":139.703857},{"name":"青葉台一丁目","province":"東京都","city":"目黒区","address":"東京都目黒区東山1丁目2-7","lat":35.64771994,"lon":139.69357111},{"name":"中目黒","province":"東京都","city":"目黒区","address":"東京都目黒区上目黒2丁目9-5","lat":35.64276232,"lon":139.7003735},{"name":"田道","province":"東京都","city":"目黒区","address":"東京都目黒区目黒2丁目14-13","lat":35.63631596,"lon":139.7063843},{"name":"目黒不動入口","province":"東京都","city":"目黒区","address":"東京都目黒区下目黒2丁目24-7","lat":35.62927518,"lon":139.71109241},{"name":"目黒税務署前","province":"東京都","city":"目黒区","address":"東京都目黒区祐天寺2丁目8-12","lat":35.63629903,"lon":139.69416588},{"name":"上目黒三丁目","province":"東京都","city":"目黒区","address":"東京都目黒区青葉台1丁目22-6","lat":35.64599799,"lon":139.69734031},{"name":"駒場町","province":"東京都","city":"目黒区","address":"東京都目黒区駒場2丁目16-4","lat":35.65581597,"lon":139.68286061},{"name":"守屋図書館前","province":"東京都","city":"目黒区","address":"東京都目黒区中央町2丁目1-13","lat":35.63362978,"lon":139.68948578},{"name":"中央町二丁目","province":"東京都","city":"目黒区","address":"東京都目黒区中町2丁目45-8","lat":35.63318267,"lon":139.69189116},{"name":"池尻ランプ前","province":"東京都","city":"目黒区","address":"東京都目黒区大橋1丁目10-1","lat":35.65126102,"lon":139.68642992},{"name":"中目黒駅前","province":"東京都","city":"目黒区","address":"東京都目黒区上目黒1丁目23-1","lat":35.6444149,"lon":139.69964295},{"name":"西郷山下","province":"東京都","city":"目黒区","address":"東京都目黒区青葉台1丁目12-3","lat":35.64866154,"lon":139.69552092},{"name":"青葉台一丁目第二","province":"東京都","city":"目黒区","address":"東京都目黒区青葉台1丁目28-12","lat":35.64744222,"lon":139.69484879},{"name":"上目黒二丁目","province":"東京都","city":"目黒区","address":"東京都目黒区上目黒2丁目10-8","lat":35.64136524,"lon":139.69935419},{"name":"上目黒一丁目","province":"東京都","city":"目黒区","address":"東京都目黒区青葉台1丁目6","lat":35.64784505,"lon":139.69892067},{"name":"東山一丁目","province":"東京都","city":"目黒区","address":"東京都目黒区東山1丁目6-1","lat":35.64630071,"lon":139.69605151},{"name":"西郷山公園前","province":"東京都","city":"目黒区","address":"東京都目黒区青葉台2丁目10","lat":35.65029745,"lon":139.69516256},{"name":"目黒区総合庁舎前","province":"東京都","city":"目黒区","address":"東京都目黒区中目黒3丁目13-22","lat":35.63919604,"lon":139.69918204},{"name":"碑文谷","province":"東京都","city":"目黒区","address":"東京都目黒区碑文谷2丁目21-13","lat":35.62283372,"lon":139.68495871},{"name":"都立大学駅前","province":"東京都","city":"目黒区","address":"東京都目黒区柿の木坂1丁目30-8","lat":35.61855895,"lon":139.67549296},{"name":"柿の木坂","province":"東京都","city":"目黒区","address":"東京都目黒区柿の木坂3丁目8-13","lat":35.6265135,"lon":139.67227909},{"name":"南一丁目","province":"東京都","city":"目黒区","address":"東京都目黒区南1丁目24-10","lat":35.6132738,"lon":139.68706997},{"name":"柿の木坂陸橋下","province":"東京都","city":"目黒区","address":"東京都目黒区平町1丁目1-1","lat":35.62007002,"lon":139.68040916},{"name":"中根一丁目","province":"東京都","city":"目黒区","address":"東京都目黒区中根1丁目5-1","lat":35.61718968,"lon":139.6759513},{"name":"八雲一丁目","province":"東京都","city":"目黒区","address":"東京都目黒区八雲1丁目1-1","lat":35.62149186,"lon":139.67275697},{"name":"八雲小学校入口","province":"東京都","city":"目黒区","address":"東京都目黒区柿の木坂1丁目31-15","lat":35.61941994,"lon":139.6748402},{"name":"大岡山小学校前","province":"東京都","city":"目黒区","address":"東京都目黒区碑文谷3丁目19-8","lat":35.61628445,"lon":139.68343961},{"name":"田向公園入口","province":"東京都","city":"目黒区","address":"東京都目黒区碑文谷2丁目11-22","lat":35.62386141,"lon":139.68676963},{"name":"国立病院東京医療センター正門前","province":"東京都","city":"目黒区","address":"東京都目黒区東が丘2丁目5-1","lat":35.62656333,"lon":139.66598239},{"name":"学芸大学駅入口","province":"東京都","city":"目黒区","address":"東京都目黒区鷹番3丁目1","lat":35.62949961,"lon":139.68583621},{"name":"八雲給水所","province":"東京都","city":"目黒区","address":"東京都目黒区八雲1丁目1","lat":35.62130575,"lon":139.67178483},{"name":"都立林試の森公園","province":"東京都","city":"目黒区","address":"東京都目黒区下目黒5丁目37","lat":35.62487834,"lon":139.70415426},{"name":"北部包括支援センター","province":"東京都","city":"目黒区","address":"目黒区大橋1-51-1クロスエアタワー9階","lat":35.652462,"lon":139.68924},{"name":"東部包括支援センター","province":"東京都","city":"目黒区","address":"目黒区上目黒2-19-15総合庁舎内","lat":35.640465,"lon":139.6987},{"name":"中央包括支援センター","province":"東京都","city":"目黒区","address":"目黒区中央町2-9-13食販ビル2階","lat":35.631126,"lon":139.692123},{"name":"南部包括支援センター","province":"東京都","city":"目黒区","address":"目黒区碑文谷1-18-14碑小学校内南西側","lat":35.618874,"lon":139.690491},{"name":"西部包括支援センター","province":"東京都","city":"目黒区","address":"目黒区柿の木坂1-28-10","lat":35.619823,"lon":139.675735},{"name":"青葉台さくら苑在宅介護支援センター","province":"東京都","city":"目黒区","address":"目黒区青葉台3-21-6青葉台さくら苑内","lat":35.649391,"lon":139.692413},{"name":"清徳会在宅介護支援センター","province":"東京都","city":"目黒区","address":"目黒区目黒本町4-2-1清徳苑内","lat":35.623085,"lon":139.698441},{"name":"目黒区大橋在宅介護支援センター","province":"東京都","city":"目黒区","address":"目黒区大橋2-16-1坂本ビル1階","lat":35.653767,"lon":139.68718},{"name":"目黒区下目黒在宅介護支援センター","province":"東京都","city":"目黒区","address":"目黒区下目黒2-21-16-101","lat":35.634972,"lon":139.709427},{"name":"目黒区日扇会在宅介護支援センター","province":"東京都","city":"目黒区","address":"目黒区中根2-13-18文保堂ビル2階","lat":35.635044,"lon":139.707016},{"name":"東京共済病院在宅介護支援センター","province":"東京都","city":"目黒区","address":"目黒区中目黒2-3-8東京共済病院内","lat":35.641899,"lon":139.703857},{"name":"青葉台一丁目","province":"東京都","city":"目黒区","address":"東京都目黒区東山1丁目2-7","lat":35.64771994,"lon":139.69357111},{"name":"中目黒","province":"東京都","city":"目黒区","address":"東京都目黒区上目黒2丁目9-5","lat":35.64276232,"lon":139.7003735},{"name":"田道","province":"東京都","city":"目黒区","address":"東京都目黒区目黒2丁目14-13","lat":35.63631596,"lon":139.7063843},{"name":"目黒不動入口","province":"東京都","city":"目黒区","address":"東京都目黒区下目黒2丁目24-7","lat":35.62927518,"lon":139.71109241},{"name":"目黒税務署前","province":"東京都","city":"目黒区","address":"東京都目黒区祐天寺2丁目8-12","lat":35.63629903,"lon":139.69416588},{"name":"上目黒三丁目","province":"東京都","city":"目黒区","address":"東京都目黒区青葉台1丁目22-6","lat":35.64599799,"lon":139.69734031},{"name":"駒場町","province":"東京都","city":"目黒区","address":"東京都目黒区駒場2丁目16-4","lat":35.65581597,"lon":139.68286061},{"name":"守屋図書館前","province":"東京都","city":"目黒区","address":"東京都目黒区中央町2丁目1-13","lat":35.63362978,"lon":139.68948578},{"name":"中央町二丁目","province":"東京都","city":"目黒区","address":"東京都目黒区中町2丁目45-8","lat":35.63318267,"lon":139.69189116},{"name":"池尻ランプ前","province":"東京都","city":"目黒区","address":"東京都目黒区大橋1丁目10-1","lat":35.65126102,"lon":139.68642992},{"name":"中目黒駅前","province":"東京都","city":"目黒区","address":"東京都目黒区上目黒1丁目23-1","lat":35.6444149,"lon":139.69964295},{"name":"西郷山下","province":"東京都","city":"目黒区","address":"東京都目黒区青葉台1丁目12-3","lat":35.64866154,"lon":139.69552092},{"name":"青葉台一丁目第二","province":"東京都","city":"目黒区","address":"東京都目黒区青葉台1丁目28-12","lat":35.64744222,"lon":139.69484879},{"name":"上目黒二丁目","province":"東京都","city":"目黒区","address":"東京都目黒区上目黒2丁目10-8","lat":35.64136524,"lon":139.69935419},{"name":"上目黒一丁目","province":"東京都","city":"目黒区","address":"東京都目黒区青葉台1丁目6","lat":35.64784505,"lon":139.69892067},{"name":"東山一丁目","province":"東京都","city":"目黒区","address":"東京都目黒区東山1丁目6-1","lat":35.64630071,"lon":139.69605151},{"name":"西郷山公園前","province":"東京都","city":"目黒区","address":"東京都目黒区青葉台2丁目10","lat":35.65029745,"lon":139.69516256},{"name":"目黒区総合庁舎前","province":"東京都","city":"目黒区","address":"東京都目黒区中目黒3丁目13-22","lat":35.63919604,"lon":139.69918204},{"name":"碑文谷","province":"東京都","city":"目黒区","address":"東京都目黒区碑文谷2丁目21-13","lat":35.62283372,"lon":139.68495871},{"name":"都立大学駅前","province":"東京都","city":"目黒区","address":"東京都目黒区柿の木坂1丁目30-8","lat":35.61855895,"lon":139.67549296},{"name":"柿の木坂","province":"東京都","city":"目黒区","address":"東京都目黒区柿の木坂3丁目8-13","lat":35.6265135,"lon":139.67227909},{"name":"南一丁目","province":"東京都","city":"目黒区","address":"東京都目黒区南1丁目24-10","lat":35.6132738,"lon":139.68706997},{"name":"柿の木坂陸橋下","province":"東京都","city":"目黒区","address":"東京都目黒区平町1丁目1-1","lat":35.62007002,"lon":139.68040916},{"name":"中根一丁目","province":"東京都","city":"目黒区","address":"東京都目黒区中根1丁目5-1","lat":35.61718968,"lon":139.6759513},{"name":"八雲一丁目","province":"東京都","city":"目黒区","address":"東京都目黒区八雲1丁目1-1","lat":35.62149186,"lon":139.67275697},{"name":"八雲小学校入口","province":"東京都","city":"目黒区","address":"東京都目黒区柿の木坂1丁目31-15","lat":35.61941994,"lon":139.6748402},{"name":"大岡山小学校前","province":"東京都","city":"目黒区","address":"東京都目黒区碑文谷3丁目19-8","lat":35.61628445,"lon":139.68343961},{"name":"田向公園入口","province":"東京都","city":"目黒区","address":"東京都目黒区碑文谷2丁目11-22","lat":35.62386141,"lon":139.68676963},{"name":"国立病院東京医療センター正門前","province":"東京都","city":"目黒区","address":"東京都目黒区東が丘2丁目5-1","lat":35.62656333,"lon":139.66598239},{"name":"学芸大学駅入口","province":"東京都","city":"目黒区","address":"東京都目黒区鷹番3丁目1","lat":35.62949961,"lon":139.68583621},{"name":"八雲給水所","province":"東京都","city":"目黒区","address":"東京都目黒区八雲1丁目1","lat":35.62130575,"lon":139.67178483},{"name":"都立林試の森公園","province":"東京都","city":"目黒区","address":"東京都目黒区下目黒5丁目37","lat":35.62487834,"lon":139.70415426},{"name":"北部包括支援センター","province":"東京都","city":"目黒区","address":"目黒区大橋1-51-1クロスエアタワー9階","lat":35.652462,"lon":139.68924},{"name":"東部包括支援センター","province":"東京都","city":"目黒区","address":"目黒区上目黒2-19-15総合庁舎内","lat":35.640465,"lon":139.6987},{"name":"中央包括支援センター","province":"東京都","city":"目黒区","address":"目黒区中央町2-9-13食販ビル2階","lat":35.631126,"lon":139.692123},{"name":"南部包括支援センター","province":"東京都","city":"目黒区","address":"目黒区碑文谷1-18-14碑小学校内南西側","lat":35.618874,"lon":139.690491},{"name":"西部包括支援センター","province":"東京都","city":"目黒区","address":"目黒区柿の木坂1-28-10","lat":35.619823,"lon":139.675735},{"name":"青葉台さくら苑在宅介護支援センター","province":"東京都","city":"目黒区","address":"目黒区青葉台3-21-6青葉台さくら苑内","lat":35.649391,"lon":139.692413},{"name":"清徳会在宅介護支援センター","province":"東京都","city":"目黒区","address":"目黒区目黒本町4-2-1清徳苑内","lat":35.623085,"lon":139.698441},{"name":"目黒区大橋在宅介護支援センター","province":"東京都","city":"目黒区","address":"目黒区大橋2-16-1坂本ビル1階","lat":35.653767,"lon":139.68718},{"name":"目黒区下目黒在宅介護支援センター","province":"東京都","city":"目黒区","address":"目黒区下目黒2-21-16-101","lat":35.634972,"lon":139.709427},{"name":"目黒区日扇会在宅介護支援センター","province":"東京都","city":"目黒区","address":"目黒区中根2-13-18文保堂ビル2階","lat":35.635044,"lon":139.707016},{"name":"東京共済病院在宅介護支援センター","province":"東京都","city":"目黒区","address":"目黒区中目黒2-3-8東京共済病院内","lat":35.641899,"lon":139.703857},{"name":"青葉台一丁目","province":"東京都","city":"目黒区","address":"東京都目黒区東山1丁目2-7","lat":35.64771994,"lon":139.69357111},{"name":"中目黒","province":"東京都","city":"目黒区","address":"東京都目黒区上目黒2丁目9-5","lat":35.64276232,"lon":139.7003735},{"name":"田道","province":"東京都","city":"目黒区","address":"東京都目黒区目黒2丁目14-13","lat":35.63631596,"lon":139.7063843},{"name":"目黒不動入口","province":"東京都","city":"目黒区","address":"東京都目黒区下目黒2丁目24-7","lat":35.62927518,"lon":139.71109241},{"name":"目黒税務署前","province":"東京都","city":"目黒区","address":"東京都目黒区祐天寺2丁目8-12","lat":35.63629903,"lon":139.69416588},{"name":"上目黒三丁目","province":"東京都","city":"目黒区","address":"東京都目黒区青葉台1丁目22-6","lat":35.64599799,"lon":139.69734031},{"name":"駒場町","province":"東京都","city":"目黒区","address":"東京都目黒区駒場2丁目16-4","lat":35.65581597,"lon":139.68286061},{"name":"守屋図書館前","province":"東京都","city":"目黒区","address":"東京都目黒区中央町2丁目1-13","lat":35.63362978,"lon":139.68948578},{"name":"中央町二丁目","province":"東京都","city":"目黒区","address":"東京都目黒区中町2丁目45-8","lat":35.63318267,"lon":139.69189116},{"name":"池尻ランプ前","province":"東京都","city":"目黒区","address":"東京都目黒区大橋1丁目10-1","lat":35.65126102,"lon":139.68642992},{"name":"中目黒駅前","province":"東京都","city":"目黒区","address":"東京都目黒区上目黒1丁目23-1","lat":35.6444149,"lon":139.69964295},{"name":"西郷山下","province":"東京都","city":"目黒区","address":"東京都目黒区青葉台1丁目12-3","lat":35.64866154,"lon":139.69552092},{"name":"青葉台一丁目第二","province":"東京都","city":"目黒区","address":"東京都目黒区青葉台1丁目28-12","lat":35.64744222,"lon":139.69484879},{"name":"上目黒二丁目","province":"東京都","city":"目黒区","address":"東京都目黒区上目黒2丁目10-8","lat":35.64136524,"lon":139.69935419},{"name":"上目黒一丁目","province":"東京都","city":"目黒区","address":"東京都目黒区青葉台1丁目6","lat":35.64784505,"lon":139.69892067},{"name":"東山一丁目","province":"東京都","city":"目黒区","address":"東京都目黒区東山1丁目6-1","lat":35.64630071,"lon":139.69605151},{"name":"西郷山公園前","province":"東京都","city":"目黒区","address":"東京都目黒区青葉台2丁目10","lat":35.65029745,"lon":139.69516256},{"name":"目黒区総合庁舎前","province":"東京都","city":"目黒区","address":"東京都目黒区中目黒3丁目13-22","lat":35.63919604,"lon":139.69918204},{"name":"碑文谷","province":"東京都","city":"目黒区","address":"東京都目黒区碑文谷2丁目21-13","lat":35.62283372,"lon":139.68495871},{"name":"都立大学駅前","province":"東京都","city":"目黒区","address":"東京都目黒区柿の木坂1丁目30-8","lat":35.61855895,"lon":139.67549296},{"name":"柿の木坂","province":"東京都","city":"目黒区","address":"東京都目黒区柿の木坂3丁目8-13","lat":35.6265135,"lon":139.67227909},{"name":"南一丁目","province":"東京都","city":"目黒区","address":"東京都目黒区南1丁目24-10","lat":35.6132738,"lon":139.68706997},{"name":"柿の木坂陸橋下","province":"東京都","city":"目黒区","address":"東京都目黒区平町1丁目1-1","lat":35.62007002,"lon":139.68040916},{"name":"中根一丁目","province":"東京都","city":"目黒区","address":"東京都目黒区中根1丁目5-1","lat":35.61718968,"lon":139.6759513},{"name":"八雲一丁目","province":"東京都","city":"目黒区","address":"東京都目黒区八雲1丁目1-1","lat":35.62149186,"lon":139.67275697},{"name":"八雲小学校入口","province":"東京都","city":"目黒区","address":"東京都目黒区柿の木坂1丁目31-15","lat":35.61941994,"lon":139.6748402},{"name":"大岡山小学校前","province":"東京都","city":"目黒区","address":"東京都目黒区碑文谷3丁目19-8","lat":35.61628445,"lon":139.68343961},{"name":"田向公園入口","province":"東京都","city":"目黒区","address":"東京都目黒区碑文谷2丁目11-22","lat":35.62386141,"lon":139.68676963},{"name":"国立病院東京医療センター正門前","province":"東京都","city":"目黒区","address":"東京都目黒区東が丘2丁目5-1","lat":35.62656333,"lon":139.66598239},{"name":"学芸大学駅入口","province":"東京都","city":"目黒区","address":"東京都目黒区鷹番3丁目1","lat":35.62949961,"lon":139.68583621},{"name":"八雲給水所","province":"東京都","city":"目黒区","address":"東京都目黒区八雲1丁目1","lat":35.62130575,"lon":139.67178483},{"name":"都立林試の森公園","province":"東京都","city":"目黒区","address":"東京都目黒区下目黒5丁目37","lat":35.62487834,"lon":139.70415426},{"name":"北部包括支援センター","province":"東京都","city":"目黒区","address":"目黒区大橋1-51-1クロスエアタワー9階","lat":35.652462,"lon":139.68924},{"name":"東部包括支援センター","province":"東京都","city":"目黒区","address":"目黒区上目黒2-19-15総合庁舎内","lat":35.640465,"lon":139.6987},{"name":"中央包括支援センター","province":"東京都","city":"目黒区","address":"目黒区中央町2-9-13食販ビル2階","lat":35.631126,"lon":139.692123},{"name":"南部包括支援センター","province":"東京都","city":"目黒区","address":"目黒区碑文谷1-18-14碑小学校内南西側","lat":35.618874,"lon":139.690491},{"name":"西部包括支援センター","province":"東京都","city":"目黒区","address":"目黒区柿の木坂1-28-10","lat":35.619823,"lon":139.675735},{"name":"青葉台さくら苑在宅介護支援センター","province":"東京都","city":"目黒区","address":"目黒区青葉台3-21-6青葉台さくら苑内","lat":35.649391,"lon":139.692413},{"name":"清徳会在宅介護支援センター","province":"東京都","city":"目黒区","address":"目黒区目黒本町4-2-1清徳苑内","lat":35.623085,"lon":139.698441},{"name":"目黒区大橋在宅介護支援センター","province":"東京都","city":"目黒区","address":"目黒区大橋2-16-1坂本ビル1階","lat":35.653767,"lon":139.68718},{"name":"目黒区下目黒在宅介護支援センター","province":"東京都","city":"目黒区","address":"目黒区下目黒2-21-16-101","lat":35.634972,"lon":139.709427},{"name":"目黒区日扇会在宅介護支援センター","province":"東京都","city":"目黒区","address":"目黒区中根2-13-18文保堂ビル2階","lat":35.635044,"lon":139.707016},{"name":"東京共済病院在宅介護支援センター","province":"東京都","city":"目黒区","address":"目黒区中目黒2-3-8東京共済病院内","lat":35.641899,"lon":139.703857},{"name":"青葉台一丁目","province":"東京都","city":"目黒区","address":"東京都目黒区東山1丁目2-7","lat":35.64771994,"lon":139.69357111},{"name":"中目黒","province":"東京都","city":"目黒区","address":"東京都目黒区上目黒2丁目9-5","lat":35.64276232,"lon":139.7003735},{"name":"田道","province":"東京都","city":"目黒区","address":"東京都目黒区目黒2丁目14-13","lat":35.63631596,"lon":139.7063843},{"name":"目黒不動入口","province":"東京都","city":"目黒区","address":"東京都目黒区下目黒2丁目24-7","lat":35.62927518,"lon":139.71109241},{"name":"目黒税務署前","province":"東京都","city":"目黒区","address":"東京都目黒区祐天寺2丁目8-12","lat":35.63629903,"lon":139.69416588},{"name":"上目黒三丁目","province":"東京都","city":"目黒区","address":"東京都目黒区青葉台1丁目22-6","lat":35.64599799,"lon":139.69734031},{"name":"駒場町","province":"東京都","city":"目黒区","address":"東京都目黒区駒場2丁目16-4","lat":35.65581597,"lon":139.68286061},{"name":"守屋図書館前","province":"東京都","city":"目黒区","address":"東京都目黒区中央町2丁目1-13","lat":35.63362978,"lon":139.68948578},{"name":"中央町二丁目","province":"東京都","city":"目黒区","address":"東京都目黒区中町2丁目45-8","lat":35.63318267,"lon":139.69189116},{"name":"池尻ランプ前","province":"東京都","city":"目黒区","address":"東京都目黒区大橋1丁目10-1","lat":35.65126102,"lon":139.68642992},{"name":"中目黒駅前","province":"東京都","city":"目黒区","address":"東京都目黒区上目黒1丁目23-1","lat":35.6444149,"lon":139.69964295},{"name":"西郷山下","province":"東京都","city":"目黒区","address":"東京都目黒区青葉台1丁目12-3","lat":35.64866154,"lon":139.69552092},{"name":"青葉台一丁目第二","province":"東京都","city":"目黒区","address":"東京都目黒区青葉台1丁目28-12","lat":35.64744222,"lon":139.69484879},{"name":"上目黒二丁目","province":"東京都","city":"目黒区","address":"東京都目黒区上目黒2丁目10-8","lat":35.64136524,"lon":139.69935419},{"name":"上目黒一丁目","province":"東京都","city":"目黒区","address":"東京都目黒区青葉台1丁目6","lat":35.64784505,"lon":139.69892067},{"name":"東山一丁目","province":"東京都","city":"目黒区","address":"東京都目黒区東山1丁目6-1","lat":35.64630071,"lon":139.69605151},{"name":"西郷山公園前","province":"東京都","city":"目黒区","address":"東京都目黒区青葉台2丁目10","lat":35.65029745,"lon":139.69516256},{"name":"目黒区総合庁舎前","province":"東京都","city":"目黒区","address":"東京都目黒区中目黒3丁目13-22","lat":35.63919604,"lon":139.69918204},{"name":"碑文谷","province":"東京都","city":"目黒区","address":"東京都目黒区碑文谷2丁目21-13","lat":35.62283372,"lon":139.68495871},{"name":"都立大学駅前","province":"東京都","city":"目黒区","address":"東京都目黒区柿の木坂1丁目30-8","lat":35.61855895,"lon":139.67549296},{"name":"柿の木坂","province":"東京都","city":"目黒区","address":"東京都目黒区柿の木坂3丁目8-13","lat":35.6265135,"lon":139.67227909},{"name":"南一丁目","province":"東京都","city":"目黒区","address":"東京都目黒区南1丁目24-10","lat":35.6132738,"lon":139.68706997},{"name":"柿の木坂陸橋下","province":"東京都","city":"目黒区","address":"東京都目黒区平町1丁目1-1","lat":35.62007002,"lon":139.68040916},{"name":"中根一丁目","province":"東京都","city":"目黒区","address":"東京都目黒区中根1丁目5-1","lat":35.61718968,"lon":139.6759513},{"name":"八雲一丁目","province":"東京都","city":"目黒区","address":"東京都目黒区八雲1丁目1-1","lat":35.62149186,"lon":139.67275697},{"name":"八雲小学校入口","province":"東京都","city":"目黒区","address":"東京都目黒区柿の木坂1丁目31-15","lat":35.61941994,"lon":139.6748402},{"name":"大岡山小学校前","province":"東京都","city":"目黒区","address":"東京都目黒区碑文谷3丁目19-8","lat":35.61628445,"lon":139.68343961},{"name":"田向公園入口","province":"東京都","city":"目黒区","address":"東京都目黒区碑文谷2丁目11-22","lat":35.62386141,"lon":139.68676963},{"name":"国立病院東京医療センター正門前","province":"東京都","city":"目黒区","address":"東京都目黒区東が丘2丁目5-1","lat":35.62656333,"lon":139.66598239},{"name":"学芸大学駅入口","province":"東京都","city":"目黒区","address":"東京都目黒区鷹番3丁目1","lat":35.62949961,"lon":139.68583621},{"name":"八雲給水所","province":"東京都","city":"目黒区","address":"東京都目黒区八雲1丁目1","lat":35.62130575,"lon":139.67178483},{"name":"都立林試の森公園","province":"東京都","city":"目黒区","address":"東京都目黒区下目黒5丁目37","lat":35.62487834,"lon":139.70415426},{"name":"北部包括支援センター","province":"東京都","city":"目黒区","address":"目黒区大橋1-51-1クロスエアタワー9階","lat":35.652462,"lon":139.68924},{"name":"東部包括支援センター","province":"東京都","city":"目黒区","address":"目黒区上目黒2-19-15総合庁舎内","lat":35.640465,"lon":139.6987},{"name":"中央包括支援センター","province":"東京都","city":"目黒区","address":"目黒区中央町2-9-13食販ビル2階","lat":35.631126,"lon":139.692123},{"name":"南部包括支援センター","province":"東京都","city":"目黒区","address":"目黒区碑文谷1-18-14碑小学校内南西側","lat":35.618874,"lon":139.690491},{"name":"西部包括支援センター","province":"東京都","city":"目黒区","address":"目黒区柿の木坂1-28-10","lat":35.619823,"lon":139.675735},{"name":"青葉台さくら苑在宅介護支援センター","province":"東京都","city":"目黒区","address":"目黒区青葉台3-21-6青葉台さくら苑内","lat":35.649391,"lon":139.692413},{"name":"清徳会在宅介護支援センター","province":"東京都","city":"目黒区","address":"目黒区目黒本町4-2-1清徳苑内","lat":35.623085,"lon":139.698441},{"name":"目黒区大橋在宅介護支援センター","province":"東京都","city":"目黒区","address":"目黒区大橋2-16-1坂本ビル1階","lat":35.653767,"lon":139.68718},{"name":"目黒区下目黒在宅介護支援センター","province":"東京都","city":"目黒区","address":"目黒区下目黒2-21-16-101","lat":35.634972,"lon":139.709427},{"name":"目黒区日扇会在宅介護支援センター","province":"東京都","city":"目黒区","address":"目黒区中根2-13-18文保堂ビル2階","lat":35.635044,"lon":139.707016},{"name":"東京共済病院在宅介護支援センター","province":"東京都","city":"目黒区","address":"目黒区中目黒2-3-8東京共済病院内","lat":35.641899,"lon":139.703857},{"name":"青葉台一丁目","province":"東京都","city":"目黒区","address":"東京都目黒区東山1丁目2-7","lat":35.64771994,"lon":139.69357111},{"name":"中目黒","province":"東京都","city":"目黒区","address":"東京都目黒区上目黒2丁目9-5","lat":35.64276232,"lon":139.7003735},{"name":"田道","province":"東京都","city":"目黒区","address":"東京都目黒区目黒2丁目14-13","lat":35.63631596,"lon":139.7063843},{"name":"目黒不動入口","province":"東京都","city":"目黒区","address":"東京都目黒区下目黒2丁目24-7","lat":35.62927518,"lon":139.71109241},{"name":"目黒税務署前","province":"東京都","city":"目黒区","address":"東京都目黒区祐天寺2丁目8-12","lat":35.63629903,"lon":139.69416588},{"name":"上目黒三丁目","province":"東京都","city":"目黒区","address":"東京都目黒区青葉台1丁目22-6","lat":35.64599799,"lon":139.69734031},{"name":"駒場町","province":"東京都","city":"目黒区","address":"東京都目黒区駒場2丁目16-4","lat":35.65581597,"lon":139.68286061},{"name":"守屋図書館前","province":"東京都","city":"目黒区","address":"東京都目黒区中央町2丁目1-13","lat":35.63362978,"lon":139.68948578},{"name":"中央町二丁目","province":"東京都","city":"目黒区","address":"東京都目黒区中町2丁目45-8","lat":35.63318267,"lon":139.69189116},{"name":"池尻ランプ前","province":"東京都","city":"目黒区","address":"東京都目黒区大橋1丁目10-1","lat":35.65126102,"lon":139.68642992},{"name":"中目黒駅前","province":"東京都","city":"目黒区","address":"東京都目黒区上目黒1丁目23-1","lat":35.6444149,"lon":139.69964295},{"name":"西郷山下","province":"東京都","city":"目黒区","address":"東京都目黒区青葉台1丁目12-3","lat":35.64866154,"lon":139.69552092},{"name":"青葉台一丁目第二","province":"東京都","city":"目黒区","address":"東京都目黒区青葉台1丁目28-12","lat":35.64744222,"lon":139.69484879},{"name":"上目黒二丁目","province":"東京都","city":"目黒区","address":"東京都目黒区上目黒2丁目10-8","lat":35.64136524,"lon":139.69935419},{"name":"上目黒一丁目","province":"東京都","city":"目黒区","address":"東京都目黒区青葉台1丁目6","lat":35.64784505,"lon":139.69892067},{"name":"東山一丁目","province":"東京都","city":"目黒区","address":"東京都目黒区東山1丁目6-1","lat":35.64630071,"lon":139.69605151},{"name":"西郷山公園前","province":"東京都","city":"目黒区","address":"東京都目黒区青葉台2丁目10","lat":35.65029745,"lon":139.69516256},{"name":"目黒区総合庁舎前","province":"東京都","city":"目黒区","address":"東京都目黒区中目黒3丁目13-22","lat":35.63919604,"lon":139.69918204},{"name":"碑文谷","province":"東京都","city":"目黒区","address":"東京都目黒区碑文谷2丁目21-13","lat":35.62283372,"lon":139.68495871},{"name":"都立大学駅前","province":"東京都","city":"目黒区","address":"東京都目黒区柿の木坂1丁目30-8","lat":35.61855895,"lon":139.67549296},{"name":"柿の木坂","province":"東京都","city":"目黒区","address":"東京都目黒区柿の木坂3丁目8-13","lat":35.6265135,"lon":139.67227909},{"name":"南一丁目","province":"東京都","city":"目黒区","address":"東京都目黒区南1丁目24-10","lat":35.6132738,"lon":139.68706997},{"name":"柿の木坂陸橋下","province":"東京都","city":"目黒区","address":"東京都目黒区平町1丁目1-1","lat":35.62007002,"lon":139.68040916},{"name":"中根一丁目","province":"東京都","city":"目黒区","address":"東京都目黒区中根1丁目5-1","lat":35.61718968,"lon":139.6759513},{"name":"八雲一丁目","province":"東京都","city":"目黒区","address":"東京都目黒区八雲1丁目1-1","lat":35.62149186,"lon":139.67275697},{"name":"八雲小学校入口","province":"東京都","city":"目黒区","address":"東京都目黒区柿の木坂1丁目31-15","lat":35.61941994,"lon":139.6748402},{"name":"大岡山小学校前","province":"東京都","city":"目黒区","address":"東京都目黒区碑文谷3丁目19-8","lat":35.61628445,"lon":139.68343961},{"name":"田向公園入口","province":"東京都","city":"目黒区","address":"東京都目黒区碑文谷2丁目11-22","lat":35.62386141,"lon":139.68676963},{"name":"国立病院東京医療センター正門前","province":"東京都","city":"目黒区","address":"東京都目黒区東が丘2丁目5-1","lat":35.62656333,"lon":139.66598239},{"name":"学芸大学駅入口","province":"東京都","city":"目黒区","address":"東京都目黒区鷹番3丁目1","lat":35.62949961,"lon":139.68583621},{"name":"八雲給水所","province":"東京都","city":"目黒区","address":"東京都目黒区八雲1丁目1","lat":35.62130575,"lon":139.67178483},{"name":"都立林試の森公園","province":"東京都","city":"目黒区","address":"東京都目黒区下目黒5丁目37","lat":35.62487834,"lon":139.70415426},{"name":"北部包括支援センター","province":"東京都","city":"目黒区","address":"目黒区大橋1-51-1クロスエアタワー9階","lat":35.652462,"lon":139.68924},{"name":"東部包括支援センター","province":"東京都","city":"目黒区","address":"目黒区上目黒2-19-15総合庁舎内","lat":35.640465,"lon":139.6987},{"name":"中央包括支援センター","province":"東京都","city":"目黒区","address":"目黒区中央町2-9-13食販ビル2階","lat":35.631126,"lon":139.692123},{"name":"南部包括支援センター","province":"東京都","city":"目黒区","address":"目黒区碑文谷1-18-14碑小学校内南西側","lat":35.618874,"lon":139.690491},{"name":"西部包括支援センター","province":"東京都","city":"目黒区","address":"目黒区柿の木坂1-28-10","lat":35.619823,"lon":139.675735},{"name":"青葉台さくら苑在宅介護支援センター","province":"東京都","city":"目黒区","address":"目黒区青葉台3-21-6青葉台さくら苑内","lat":35.649391,"lon":139.692413},{"name":"清徳会在宅介護支援センター","province":"東京都","city":"目黒区","address":"目黒区目黒本町4-2-1清徳苑内","lat":35.623085,"lon":139.698441},{"name":"目黒区大橋在宅介護支援センター","province":"東京都","city":"目黒区","address":"目黒区大橋2-16-1坂本ビル1階","lat":35.653767,"lon":139.68718},{"name":"目黒区下目黒在宅介護支援センター","province":"東京都","city":"目黒区","address":"目黒区下目黒2-21-16-101","lat":35.634972,"lon":139.709427},{"name":"目黒区日扇会在宅介護支援センター","province":"東京都","city":"目黒区","address":"目黒区中根2-13-18文保堂ビル2階","lat":35.635044,"lon":139.707016},{"name":"東京共済病院在宅介護支援センター","province":"東京都","city":"目黒区","address":"目黒区中目黒2-3-8東京共済病院内","lat":35.641899,"lon":139.703857},{"name":"青葉台一丁目","province":"東京都","city":"目黒区","address":"東京都目黒区東山1丁目2-7","lat":35.64771994,"lon":139.69357111},{"name":"中目黒","province":"東京都","city":"目黒区","address":"東京都目黒区上目黒2丁目9-5","lat":35.64276232,"lon":139.7003735},{"name":"田道","province":"東京都","city":"目黒区","address":"東京都目黒区目黒2丁目14-13","lat":35.63631596,"lon":139.7063843},{"name":"目黒不動入口","province":"東京都","city":"目黒区","address":"東京都目黒区下目黒2丁目24-7","lat":35.62927518,"lon":139.71109241},{"name":"目黒税務署前","province":"東京都","city":"目黒区","address":"東京都目黒区祐天寺2丁目8-12","lat":35.63629903,"lon":139.69416588},{"name":"上目黒三丁目","province":"東京都","city":"目黒区","address":"東京都目黒区青葉台1丁目22-6","lat":35.64599799,"lon":139.69734031},{"name":"駒場町","province":"東京都","city":"目黒区","address":"東京都目黒区駒場2丁目16-4","lat":35.65581597,"lon":139.68286061},{"name":"守屋図書館前","province":"東京都","city":"目黒区","address":"東京都目黒区中央町2丁目1-13","lat":35.63362978,"lon":139.68948578},{"name":"中央町二丁目","province":"東京都","city":"目黒区","address":"東京都目黒区中町2丁目45-8","lat":35.63318267,"lon":139.69189116},{"name":"池尻ランプ前","province":"東京都","city":"目黒区","address":"東京都目黒区大橋1丁目10-1","lat":35.65126102,"lon":139.68642992},{"name":"中目黒駅前","province":"東京都","city":"目黒区","address":"東京都目黒区上目黒1丁目23-1","lat":35.6444149,"lon":139.69964295},{"name":"西郷山下","province":"東京都","city":"目黒区","address":"東京都目黒区青葉台1丁目12-3","lat":35.64866154,"lon":139.69552092},{"name":"青葉台一丁目第二","province":"東京都","city":"目黒区","address":"東京都目黒区青葉台1丁目28-12","lat":35.64744222,"lon":139.69484879},{"name":"上目黒二丁目","province":"東京都","city":"目黒区","address":"東京都目黒区上目黒2丁目10-8","lat":35.64136524,"lon":139.69935419},{"name":"上目黒一丁目","province":"東京都","city":"目黒区","address":"東京都目黒区青葉台1丁目6","lat":35.64784505,"lon":139.69892067},{"name":"東山一丁目","province":"東京都","city":"目黒区","address":"東京都目黒区東山1丁目6-1","lat":35.64630071,"lon":139.69605151},{"name":"西郷山公園前","province":"東京都","city":"目黒区","address":"東京都目黒区青葉台2丁目10","lat":35.65029745,"lon":139.69516256},{"name":"目黒区総合庁舎前","province":"東京都","city":"目黒区","address":"東京都目黒区中目黒3丁目13-22","lat":35.63919604,"lon":139.69918204},{"name":"碑文谷","province":"東京都","city":"目黒区","address":"東京都目黒区碑文谷2丁目21-13","lat":35.62283372,"lon":139.68495871},{"name":"都立大学駅前","province":"東京都","city":"目黒区","address":"東京都目黒区柿の木坂1丁目30-8","lat":35.61855895,"lon":139.67549296},{"name":"柿の木坂","province":"東京都","city":"目黒区","address":"東京都目黒区柿の木坂3丁目8-13","lat":35.6265135,"lon":139.67227909},{"name":"南一丁目","province":"東京都","city":"目黒区","address":"東京都目黒区南1丁目24-10","lat":35.6132738,"lon":139.68706997},{"name":"柿の木坂陸橋下","province":"東京都","city":"目黒区","address":"東京都目黒区平町1丁目1-1","lat":35.62007002,"lon":139.68040916},{"name":"中根一丁目","province":"東京都","city":"目黒区","address":"東京都目黒区中根1丁目5-1","lat":35.61718968,"lon":139.6759513},{"name":"八雲一丁目","province":"東京都","city":"目黒区","address":"東京都目黒区八雲1丁目1-1","lat":35.62149186,"lon":139.67275697},{"name":"八雲小学校入口","province":"東京都","city":"目黒区","address":"東京都目黒区柿の木坂1丁目31-15","lat":35.61941994,"lon":139.6748402},{"name":"大岡山小学校前","province":"東京都","city":"目黒区","address":"東京都目黒区碑文谷3丁目19-8","lat":35.61628445,"lon":139.68343961},{"name":"田向公園入口","province":"東京都","city":"目黒区","address":"東京都目黒区碑文谷2丁目11-22","lat":35.62386141,"lon":139.68676963},{"name":"国立病院東京医療センター正門前","province":"東京都","city":"目黒区","address":"東京都目黒区東が丘2丁目5-1","lat":35.62656333,"lon":139.66598239},{"name":"学芸大学駅入口","province":"東京都","city":"目黒区","address":"東京都目黒区鷹番3丁目1","lat":35.62949961,"lon":139.68583621},{"name":"八雲給水所","province":"東京都","city":"目黒区","address":"東京都目黒区八雲1丁目1","lat":35.62130575,"lon":139.67178483},{"name":"都立林試の森公園","province":"東京都","city":"目黒区","address":"東京都目黒区下目黒5丁目37","lat":35.62487834,"lon":139.70415426},{"name":"北部包括支援センター","province":"東京都","city":"目黒区","address":"目黒区大橋1-51-1クロスエアタワー9階","lat":35.652462,"lon":139.68924},{"name":"東部包括支援センター","province":"東京都","city":"目黒区","address":"目黒区上目黒2-19-15総合庁舎内","lat":35.640465,"lon":139.6987},{"name":"中央包括支援センター","province":"東京都","city":"目黒区","address":"目黒区中央町2-9-13食販ビル2階","lat":35.631126,"lon":139.692123},{"name":"南部包括支援センター","province":"東京都","city":"目黒区","address":"目黒区碑文谷1-18-14碑小学校内南西側","lat":35.618874,"lon":139.690491},{"name":"西部包括支援センター","province":"東京都","city":"目黒区","address":"目黒区柿の木坂1-28-10","lat":35.619823,"lon":139.675735},{"name":"青葉台さくら苑在宅介護支援センター","province":"東京都","city":"目黒区","address":"目黒区青葉台3-21-6青葉台さくら苑内","lat":35.649391,"lon":139.692413},{"name":"清徳会在宅介護支援センター","province":"東京都","city":"目黒区","address":"目黒区目黒本町4-2-1清徳苑内","lat":35.623085,"lon":139.698441},{"name":"目黒区大橋在宅介護支援センター","province":"東京都","city":"目黒区","address":"目黒区大橋2-16-1坂本ビル1階","lat":35.653767,"lon":139.68718},{"name":"目黒区下目黒在宅介護支援センター","province":"東京都","city":"目黒区","address":"目黒区下目黒2-21-16-101","lat":35.634972,"lon":139.709427},{"name":"目黒区日扇会在宅介護支援センター","province":"東京都","city":"目黒区","address":"目黒区中根2-13-18文保堂ビル2階","lat":35.635044,"lon":139.707016},{"name":"東京共済病院在宅介護支援センター","province":"東京都","city":"目黒区","address":"目黒区中目黒2-3-8東京共済病院内","lat":35.641899,"lon":139.703857},{"name":"青葉台一丁目","province":"東京都","city":"目黒区","address":"東京都目黒区東山1丁目2-7","lat":35.64771994,"lon":139.69357111},{"name":"中目黒","province":"東京都","city":"目黒区","address":"東京都目黒区上目黒2丁目9-5","lat":35.64276232,"lon":139.7003735},{"name":"田道","province":"東京都","city":"目黒区","address":"東京都目黒区目黒2丁目14-13","lat":35.63631596,"lon":139.7063843},{"name":"目黒不動入口","province":"東京都","city":"目黒区","address":"東京都目黒区下目黒2丁目24-7","lat":35.62927518,"lon":139.71109241},{"name":"目黒税務署前","province":"東京都","city":"目黒区","address":"東京都目黒区祐天寺2丁目8-12","lat":35.63629903,"lon":139.69416588},{"name":"上目黒三丁目","province":"東京都","city":"目黒区","address":"東京都目黒区青葉台1丁目22-6","lat":35.64599799,"lon":139.69734031},{"name":"駒場町","province":"東京都","city":"目黒区","address":"東京都目黒区駒場2丁目16-4","lat":35.65581597,"lon":139.68286061},{"name":"守屋図書館前","province":"東京都","city":"目黒区","address":"東京都目黒区中央町2丁目1-13","lat":35.63362978,"lon":139.68948578},{"name":"中央町二丁目","province":"東京都","city":"目黒区","address":"東京都目黒区中町2丁目45-8","lat":35.63318267,"lon":139.69189116},{"name":"池尻ランプ前","province":"東京都","city":"目黒区","address":"東京都目黒区大橋1丁目10-1","lat":35.65126102,"lon":139.68642992},{"name":"中目黒駅前","province":"東京都","city":"目黒区","address":"東京都目黒区上目黒1丁目23-1","lat":35.6444149,"lon":139.69964295},{"name":"西郷山下","province":"東京都","city":"目黒区","address":"東京都目黒区青葉台1丁目12-3","lat":35.64866154,"lon":139.69552092},{"name":"青葉台一丁目第二","province":"東京都","city":"目黒区","address":"東京都目黒区青葉台1丁目28-12","lat":35.64744222,"lon":139.69484879},{"name":"上目黒二丁目","province":"東京都","city":"目黒区","address":"東京都目黒区上目黒2丁目10-8","lat":35.64136524,"lon":139.69935419},{"name":"上目黒一丁目","province":"東京都","city":"目黒区","address":"東京都目黒区青葉台1丁目6","lat":35.64784505,"lon":139.69892067},{"name":"東山一丁目","province":"東京都","city":"目黒区","address":"東京都目黒区東山1丁目6-1","lat":35.64630071,"lon":139.69605151},{"name":"西郷山公園前","province":"東京都","city":"目黒区","address":"東京都目黒区青葉台2丁目10","lat":35.65029745,"lon":139.69516256},{"name":"目黒区総合庁舎前","province":"東京都","city":"目黒区","address":"東京都目黒区中目黒3丁目13-22","lat":35.63919604,"lon":139.69918204},{"name":"碑文谷","province":"東京都","city":"目黒区","address":"東京都目黒区碑文谷2丁目21-13","lat":35.62283372,"lon":139.68495871},{"name":"都立大学駅前","province":"東京都","city":"目黒区","address":"東京都目黒区柿の木坂1丁目30-8","lat":35.61855895,"lon":139.67549296},{"name":"柿の木坂","province":"東京都","city":"目黒区","address":"東京都目黒区柿の木坂3丁目8-13","lat":35.6265135,"lon":139.67227909},{"name":"南一丁目","province":"東京都","city":"目黒区","address":"東京都目黒区南1丁目24-10","lat":35.6132738,"lon":139.68706997},{"name":"柿の木坂陸橋下","province":"東京都","city":"目黒区","address":"東京都目黒区平町1丁目1-1","lat":35.62007002,"lon":139.68040916},{"name":"中根一丁目","province":"東京都","city":"目黒区","address":"東京都目黒区中根1丁目5-1","lat":35.61718968,"lon":139.6759513},{"name":"八雲一丁目","province":"東京都","city":"目黒区","address":"東京都目黒区八雲1丁目1-1","lat":35.62149186,"lon":139.67275697},{"name":"八雲小学校入口","province":"東京都","city":"目黒区","address":"東京都目黒区柿の木坂1丁目31-15","lat":35.61941994,"lon":139.6748402},{"name":"大岡山小学校前","province":"東京都","city":"目黒区","address":"東京都目黒区碑文谷3丁目19-8","lat":35.61628445,"lon":139.68343961},{"name":"田向公園入口","province":"東京都","city":"目黒区","address":"東京都目黒区碑文谷2丁目11-22","lat":35.62386141,"lon":139.68676963},{"name":"国立病院東京医療センター正門前","province":"東京都","city":"目黒区","address":"東京都目黒区東が丘2丁目5-1","lat":35.62656333,"lon":139.66598239},{"name":"学芸大学駅入口","province":"東京都","city":"目黒区","address":"東京都目黒区鷹番3丁目1","lat":35.62949961,"lon":139.68583621},{"name":"八雲給水所","province":"東京都","city":"目黒区","address":"東京都目黒区八雲1丁目1","lat":35.62130575,"lon":139.67178483},{"name":"都立林試の森公園","province":"東京都","city":"目黒区","address":"東京都目黒区下目黒5丁目37","lat":35.62487834,"lon":139.70415426},{"name":"北部包括支援センター","province":"東京都","city":"目黒区","address":"目黒区大橋1-51-1クロスエアタワー9階","lat":35.652462,"lon":139.68924},{"name":"東部包括支援センター","province":"東京都","city":"目黒区","address":"目黒区上目黒2-19-15総合庁舎内","lat":35.640465,"lon":139.6987},{"name":"中央包括支援センター","province":"東京都","city":"目黒区","address":"目黒区中央町2-9-13食販ビル2階","lat":35.631126,"lon":139.692123},{"name":"南部包括支援センター","province":"東京都","city":"目黒区","address":"目黒区碑文谷1-18-14碑小学校内南西側","lat":35.618874,"lon":139.690491},{"name":"西部包括支援センター","province":"東京都","city":"目黒区","address":"目黒区柿の木坂1-28-10","lat":35.619823,"lon":139.675735},{"name":"青葉台さくら苑在宅介護支援センター","province":"東京都","city":"目黒区","address":"目黒区青葉台3-21-6青葉台さくら苑内","lat":35.649391,"lon":139.692413},{"name":"清徳会在宅介護支援センター","province":"東京都","city":"目黒区","address":"目黒区目黒本町4-2-1清徳苑内","lat":35.623085,"lon":139.698441},{"name":"目黒区大橋在宅介護支援センター","province":"東京都","city":"目黒区","address":"目黒区大橋2-16-1坂本ビル1階","lat":35.653767,"lon":139.68718},{"name":"目黒区下目黒在宅介護支援センター","province":"東京都","city":"目黒区","address":"目黒区下目黒2-21-16-101","lat":35.634972,"lon":139.709427},{"name":"目黒区日扇会在宅介護支援センター","province":"東京都","city":"目黒区","address":"目黒区中根2-13-18文保堂ビル2階","lat":35.635044,"lon":139.707016},{"name":"東京共済病院在宅介護支援センター","province":"東京都","city":"目黒区","address":"目黒区中目黒2-3-8東京共済病院内","lat":35.641899,"lon":139.703857},{"name":"青葉台一丁目","province":"東京都","city":"目黒区","address":"東京都目黒区東山1丁目2-7","lat":35.64771994,"lon":139.69357111},{"name":"中目黒","province":"東京都","city":"目黒区","address":"東京都目黒区上目黒2丁目9-5","lat":35.64276232,"lon":139.7003735},{"name":"田道","province":"東京都","city":"目黒区","address":"東京都目黒区目黒2丁目14-13","lat":35.63631596,"lon":139.7063843},{"name":"目黒不動入口","province":"東京都","city":"目黒区","address":"東京都目黒区下目黒2丁目24-7","lat":35.62927518,"lon":139.71109241},{"name":"目黒税務署前","province":"東京都","city":"目黒区","address":"東京都目黒区祐天寺2丁目8-12","lat":35.63629903,"lon":139.69416588},{"name":"上目黒三丁目","province":"東京都","city":"目黒区","address":"東京都目黒区青葉台1丁目22-6","lat":35.64599799,"lon":139.69734031},{"name":"駒場町","province":"東京都","city":"目黒区","address":"東京都目黒区駒場2丁目16-4","lat":35.65581597,"lon":139.68286061},{"name":"守屋図書館前","province":"東京都","city":"目黒区","address":"東京都目黒区中央町2丁目1-13","lat":35.63362978,"lon":139.68948578},{"name":"中央町二丁目","province":"東京都","city":"目黒区","address":"東京都目黒区中町2丁目45-8","lat":35.63318267,"lon":139.69189116},{"name":"池尻ランプ前","province":"東京都","city":"目黒区","address":"東京都目黒区大橋1丁目10-1","lat":35.65126102,"lon":139.68642992},{"name":"中目黒駅前","province":"東京都","city":"目黒区","address":"東京都目黒区上目黒1丁目23-1","lat":35.6444149,"lon":139.69964295},{"name":"西郷山下","province":"東京都","city":"目黒区","address":"東京都目黒区青葉台1丁目12-3","lat":35.64866154,"lon":139.69552092},{"name":"青葉台一丁目第二","province":"東京都","city":"目黒区","address":"東京都目黒区青葉台1丁目28-12","lat":35.64744222,"lon":139.69484879},{"name":"上目黒二丁目","province":"東京都","city":"目黒区","address":"東京都目黒区上目黒2丁目10-8","lat":35.64136524,"lon":139.69935419},{"name":"上目黒一丁目","province":"東京都","city":"目黒区","address":"東京都目黒区青葉台1丁目6","lat":35.64784505,"lon":139.69892067},{"name":"東山一丁目","province":"東京都","city":"目黒区","address":"東京都目黒区東山1丁目6-1","lat":35.64630071,"lon":139.69605151},{"name":"西郷山公園前","province":"東京都","city":"目黒区","address":"東京都目黒区青葉台2丁目10","lat":35.65029745,"lon":139.69516256},{"name":"目黒区総合庁舎前","province":"東京都","city":"目黒区","address":"東京都目黒区中目黒3丁目13-22","lat":35.63919604,"lon":139.69918204},{"name":"碑文谷","province":"東京都","city":"目黒区","address":"東京都目黒区碑文谷2丁目21-13","lat":35.62283372,"lon":139.68495871},{"name":"都立大学駅前","province":"東京都","city":"目黒区","address":"東京都目黒区柿の木坂1丁目30-8","lat":35.61855895,"lon":139.67549296},{"name":"柿の木坂","province":"東京都","city":"目黒区","address":"東京都目黒区柿の木坂3丁目8-13","lat":35.6265135,"lon":139.67227909},{"name":"南一丁目","province":"東京都","city":"目黒区","address":"東京都目黒区南1丁目24-10","lat":35.6132738,"lon":139.68706997},{"name":"柿の木坂陸橋下","province":"東京都","city":"目黒区","address":"東京都目黒区平町1丁目1-1","lat":35.62007002,"lon":139.68040916},{"name":"中根一丁目","province":"東京都","city":"目黒区","address":"東京都目黒区中根1丁目5-1","lat":35.61718968,"lon":139.6759513},{"name":"八雲一丁目","province":"東京都","city":"目黒区","address":"東京都目黒区八雲1丁目1-1","lat":35.62149186,"lon":139.67275697},{"name":"八雲小学校入口","province":"東京都","city":"目黒区","address":"東京都目黒区柿の木坂1丁目31-15","lat":35.61941994,"lon":139.6748402},{"name":"大岡山小学校前","province":"東京都","city":"目黒区","address":"東京都目黒区碑文谷3丁目19-8","lat":35.61628445,"lon":139.68343961},{"name":"田向公園入口","province":"東京都","city":"目黒区","address":"東京都目黒区碑文谷2丁目11-22","lat":35.62386141,"lon":139.68676963},{"name":"国立病院東京医療センター正門前","province":"東京都","city":"目黒区","address":"東京都目黒区東が丘2丁目5-1","lat":35.62656333,"lon":139.66598239},{"name":"学芸大学駅入口","province":"東京都","city":"目黒区","address":"東京都目黒区鷹番3丁目1","lat":35.62949961,"lon":139.68583621},{"name":"八雲給水所","province":"東京都","city":"目黒区","address":"東京都目黒区八雲1丁目1","lat":35.62130575,"lon":139.67178483},{"name":"都立林試の森公園","province":"東京都","city":"目黒区","address":"東京都目黒区下目黒5丁目37","lat":35.62487834,"lon":139.70415426},{"name":"北部包括支援センター","province":"東京都","city":"目黒区","address":"目黒区大橋1-51-1クロスエアタワー9階","lat":35.652462,"lon":139.68924},{"name":"東部包括支援センター","province":"東京都","city":"目黒区","address":"目黒区上目黒2-19-15総合庁舎内","lat":35.640465,"lon":139.6987},{"name":"中央包括支援センター","province":"東京都","city":"目黒区","address":"目黒区中央町2-9-13食販ビル2階","lat":35.631126,"lon":139.692123},{"name":"南部包括支援センター","province":"東京都","city":"目黒区","address":"目黒区碑文谷1-18-14碑小学校内南西側","lat":35.618874,"lon":139.690491},{"name":"西部包括支援センター","province":"東京都","city":"目黒区","address":"目黒区柿の木坂1-28-10","lat":35.619823,"lon":139.675735},{"name":"青葉台さくら苑在宅介護支援センター","province":"東京都","city":"目黒区","address":"目黒区青葉台3-21-6青葉台さくら苑内","lat":35.649391,"lon":139.692413},{"name":"清徳会在宅介護支援センター","province":"東京都","city":"目黒区","address":"目黒区目黒本町4-2-1清徳苑内","lat":35.623085,"lon":139.698441},{"name":"目黒区大橋在宅介護支援センター","province":"東京都","city":"目黒区","address":"目黒区大橋2-16-1坂本ビル1階","lat":35.653767,"lon":139.68718},{"name":"目黒区下目黒在宅介護支援センター","province":"東京都","city":"目黒区","address":"目黒区下目黒2-21-16-101","lat":35.634972,"lon":139.709427},{"name":"目黒区日扇会在宅介護支援センター","province":"東京都","city":"目黒区","address":"目黒区中根2-13-18文保堂ビル2階","lat":35.635044,"lon":139.707016},{"name":"東京共済病院在宅介護支援センター","province":"東京都","city":"目黒区","address":"目黒区中目黒2-3-8東京共済病院内","lat":35.641899,"lon":139.703857},{"name":"青葉台一丁目","province":"東京都","city":"目黒区","address":"東京都目黒区東山1丁目2-7","lat":35.64771994,"lon":139.69357111},{"name":"中目黒","province":"東京都","city":"目黒区","address":"東京都目黒区上目黒2丁目9-5","lat":35.64276232,"lon":139.7003735},{"name":"田道","province":"東京都","city":"目黒区","address":"東京都目黒区目黒2丁目14-13","lat":35.63631596,"lon":139.7063843},{"name":"目黒不動入口","province":"東京都","city":"目黒区","address":"東京都目黒区下目黒2丁目24-7","lat":35.62927518,"lon":139.71109241},{"name":"目黒税務署前","province":"東京都","city":"目黒区","address":"東京都目黒区祐天寺2丁目8-12","lat":35.63629903,"lon":139.69416588},{"name":"上目黒三丁目","province":"東京都","city":"目黒区","address":"東京都目黒区青葉台1丁目22-6","lat":35.64599799,"lon":139.69734031},{"name":"駒場町","province":"東京都","city":"目黒区","address":"東京都目黒区駒場2丁目16-4","lat":35.65581597,"lon":139.68286061},{"name":"守屋図書館前","province":"東京都","city":"目黒区","address":"東京都目黒区中央町2丁目1-13","lat":35.63362978,"lon":139.68948578},{"name":"中央町二丁目","province":"東京都","city":"目黒区","address":"東京都目黒区中町2丁目45-8","lat":35.63318267,"lon":139.69189116},{"name":"池尻ランプ前","province":"東京都","city":"目黒区","address":"東京都目黒区大橋1丁目10-1","lat":35.65126102,"lon":139.68642992},{"name":"中目黒駅前","province":"東京都","city":"目黒区","address":"東京都目黒区上目黒1丁目23-1","lat":35.6444149,"lon":139.69964295},{"name":"西郷山下","province":"東京都","city":"目黒区","address":"東京都目黒区青葉台1丁目12-3","lat":35.64866154,"lon":139.69552092},{"name":"青葉台一丁目第二","province":"東京都","city":"目黒区","address":"東京都目黒区青葉台1丁目28-12","lat":35.64744222,"lon":139.69484879},{"name":"上目黒二丁目","province":"東京都","city":"目黒区","address":"東京都目黒区上目黒2丁目10-8","lat":35.64136524,"lon":139.69935419},{"name":"上目黒一丁目","province":"東京都","city":"目黒区","address":"東京都目黒区青葉台1丁目6","lat":35.64784505,"lon":139.69892067},{"name":"東山一丁目","province":"東京都","city":"目黒区","address":"東京都目黒区東山1丁目6-1","lat":35.64630071,"lon":139.69605151},{"name":"西郷山公園前","province":"東京都","city":"目黒区","address":"東京都目黒区青葉台2丁目10","lat":35.65029745,"lon":139.69516256},{"name":"目黒区総合庁舎前","province":"東京都","city":"目黒区","address":"東京都目黒区中目黒3丁目13-22","lat":35.63919604,"lon":139.69918204},{"name":"碑文谷","province":"東京都","city":"目黒区","address":"東京都目黒区碑文谷2丁目21-13","lat":35.62283372,"lon":139.68495871},{"name":"都立大学駅前","province":"東京都","city":"目黒区","address":"東京都目黒区柿の木坂1丁目30-8","lat":35.61855895,"lon":139.67549296},{"name":"柿の木坂","province":"東京都","city":"目黒区","address":"東京都目黒区柿の木坂3丁目8-13","lat":35.6265135,"lon":139.67227909},{"name":"南一丁目","province":"東京都","city":"目黒区","address":"東京都目黒区南1丁目24-10","lat":35.6132738,"lon":139.68706997},{"name":"柿の木坂陸橋下","province":"東京都","city":"目黒区","address":"東京都目黒区平町1丁目1-1","lat":35.62007002,"lon":139.68040916},{"name":"中根一丁目","province":"東京都","city":"目黒区","address":"東京都目黒区中根1丁目5-1","lat":35.61718968,"lon":139.6759513},{"name":"八雲一丁目","province":"東京都","city":"目黒区","address":"東京都目黒区八雲1丁目1-1","lat":35.62149186,"lon":139.67275697},{"name":"八雲小学校入口","province":"東京都","city":"目黒区","address":"東京都目黒区柿の木坂1丁目31-15","lat":35.61941994,"lon":139.6748402},{"name":"大岡山小学校前","province":"東京都","city":"目黒区","address":"東京都目黒区碑文谷3丁目19-8","lat":35.61628445,"lon":139.68343961},{"name":"田向公園入口","province":"東京都","city":"目黒区","address":"東京都目黒区碑文谷2丁目11-22","lat":35.62386141,"lon":139.68676963},{"name":"国立病院東京医療センター正門前","province":"東京都","city":"目黒区","address":"東京都目黒区東が丘2丁目5-1","lat":35.62656333,"lon":139.66598239},{"name":"学芸大学駅入口","province":"東京都","city":"目黒区","address":"東京都目黒区鷹番3丁目1","lat":35.62949961,"lon":139.68583621},{"name":"八雲給水所","province":"東京都","city":"目黒区","address":"東京都目黒区八雲1丁目1","lat":35.62130575,"lon":139.67178483},{"name":"都立林試の森公園","province":"東京都","city":"目黒区","address":"東京都目黒区下目黒5丁目37","lat":35.62487834,"lon":139.70415426},{"name":"北部包括支援センター","province":"東京都","city":"目黒区","address":"目黒区大橋1-51-1クロスエアタワー9階","lat":35.652462,"lon":139.68924},{"name":"東部包括支援センター","province":"東京都","city":"目黒区","address":"目黒区上目黒2-19-15総合庁舎内","lat":35.640465,"lon":139.6987},{"name":"中央包括支援センター","province":"東京都","city":"目黒区","address":"目黒区中央町2-9-13食販ビル2階","lat":35.631126,"lon":139.692123},{"name":"南部包括支援センター","province":"東京都","city":"目黒区","address":"目黒区碑文谷1-18-14碑小学校内南西側","lat":35.618874,"lon":139.690491},{"name":"西部包括支援センター","province":"東京都","city":"目黒区","address":"目黒区柿の木坂1-28-10","lat":35.619823,"lon":139.675735},{"name":"青葉台さくら苑在宅介護支援センター","province":"東京都","city":"目黒区","address":"目黒区青葉台3-21-6青葉台さくら苑内","lat":35.649391,"lon":139.692413},{"name":"清徳会在宅介護支援センター","province":"東京都","city":"目黒区","address":"目黒区目黒本町4-2-1清徳苑内","lat":35.623085,"lon":139.698441},{"name":"目黒区大橋在宅介護支援センター","province":"東京都","city":"目黒区","address":"目黒区大橋2-16-1坂本ビル1階","lat":35.653767,"lon":139.68718},{"name":"目黒区下目黒在宅介護支援センター","province":"東京都","city":"目黒区","address":"目黒区下目黒2-21-16-101","lat":35.634972,"lon":139.709427},{"name":"目黒区日扇会在宅介護支援センター","province":"東京都","city":"目黒区","address":"目黒区中根2-13-18文保堂ビル2階","lat":35.635044,"lon":139.707016},{"name":"東京共済病院在宅介護支援センター","province":"東京都","city":"目黒区","address":"目黒区中目黒2-3-8東京共済病院内","lat":35.641899,"lon":139.703857},{"name":"青葉台一丁目","province":"東京都","city":"目黒区","address":"東京都目黒区東山1丁目2-7","lat":35.64771994,"lon":139.69357111},{"name":"中目黒","province":"東京都","city":"目黒区","address":"東京都目黒区上目黒2丁目9-5","lat":35.64276232,"lon":139.7003735},{"name":"田道","province":"東京都","city":"目黒区","address":"東京都目黒区目黒2丁目14-13","lat":35.63631596,"lon":139.7063843},{"name":"目黒不動入口","province":"東京都","city":"目黒区","address":"東京都目黒区下目黒2丁目24-7","lat":35.62927518,"lon":139.71109241},{"name":"目黒税務署前","province":"東京都","city":"目黒区","address":"東京都目黒区祐天寺2丁目8-12","lat":35.63629903,"lon":139.69416588},{"name":"上目黒三丁目","province":"東京都","city":"目黒区","address":"東京都目黒区青葉台1丁目22-6","lat":35.64599799,"lon":139.69734031},{"name":"駒場町","province":"東京都","city":"目黒区","address":"東京都目黒区駒場2丁目16-4","lat":35.65581597,"lon":139.68286061},{"name":"守屋図書館前","province":"東京都","city":"目黒区","address":"東京都目黒区中央町2丁目1-13","lat":35.63362978,"lon":139.68948578},{"name":"中央町二丁目","province":"東京都","city":"目黒区","address":"東京都目黒区中町2丁目45-8","lat":35.63318267,"lon":139.69189116},{"name":"池尻ランプ前","province":"東京都","city":"目黒区","address":"東京都目黒区大橋1丁目10-1","lat":35.65126102,"lon":139.68642992},{"name":"中目黒駅前","province":"東京都","city":"目黒区","address":"東京都目黒区上目黒1丁目23-1","lat":35.6444149,"lon":139.69964295},{"name":"西郷山下","province":"東京都","city":"目黒区","address":"東京都目黒区青葉台1丁目12-3","lat":35.64866154,"lon":139.69552092},{"name":"青葉台一丁目第二","province":"東京都","city":"目黒区","address":"東京都目黒区青葉台1丁目28-12","lat":35.64744222,"lon":139.69484879},{"name":"上目黒二丁目","province":"東京都","city":"目黒区","address":"東京都目黒区上目黒2丁目10-8","lat":35.64136524,"lon":139.69935419},{"name":"上目黒一丁目","province":"東京都","city":"目黒区","address":"東京都目黒区青葉台1丁目6","lat":35.64784505,"lon":139.69892067},{"name":"東山一丁目","province":"東京都","city":"目黒区","address":"東京都目黒区東山1丁目6-1","lat":35.64630071,"lon":139.69605151},{"name":"西郷山公園前","province":"東京都","city":"目黒区","address":"東京都目黒区青葉台2丁目10","lat":35.65029745,"lon":139.69516256},{"name":"目黒区総合庁舎前","province":"東京都","city":"目黒区","address":"東京都目黒区中目黒3丁目13-22","lat":35.63919604,"lon":139.69918204},{"name":"碑文谷","province":"東京都","city":"目黒区","address":"東京都目黒区碑文谷2丁目21-13","lat":35.62283372,"lon":139.68495871},{"name":"都立大学駅前","province":"東京都","city":"目黒区","address":"東京都目黒区柿の木坂1丁目30-8","lat":35.61855895,"lon":139.67549296},{"name":"柿の木坂","province":"東京都","city":"目黒区","address":"東京都目黒区柿の木坂3丁目8-13","lat":35.6265135,"lon":139.67227909},{"name":"南一丁目","province":"東京都","city":"目黒区","address":"東京都目黒区南1丁目24-10","lat":35.6132738,"lon":139.68706997},{"name":"柿の木坂陸橋下","province":"東京都","city":"目黒区","address":"東京都目黒区平町1丁目1-1","lat":35.62007002,"lon":139.68040916},{"name":"中根一丁目","province":"東京都","city":"目黒区","address":"東京都目黒区中根1丁目5-1","lat":35.61718968,"lon":139.6759513},{"name":"八雲一丁目","province":"東京都","city":"目黒区","address":"東京都目黒区八雲1丁目1-1","lat":35.62149186,"lon":139.67275697},{"name":"八雲小学校入口","province":"東京都","city":"目黒区","address":"東京都目黒区柿の木坂1丁目31-15","lat":35.61941994,"lon":139.6748402},{"name":"大岡山小学校前","province":"東京都","city":"目黒区","address":"東京都目黒区碑文谷3丁目19-8","lat":35.61628445,"lon":139.68343961},{"name":"田向公園入口","province":"東京都","city":"目黒区","address":"東京都目黒区碑文谷2丁目11-22","lat":35.62386141,"lon":139.68676963},{"name":"国立病院東京医療センター正門前","province":"東京都","city":"目黒区","address":"東京都目黒区東が丘2丁目5-1","lat":35.62656333,"lon":139.66598239},{"name":"学芸大学駅入口","province":"東京都","city":"目黒区","address":"東京都目黒区鷹番3丁目1","lat":35.62949961,"lon":139.68583621},{"name":"八雲給水所","province":"東京都","city":"目黒区","address":"東京都目黒区八雲1丁目1","lat":35.62130575,"lon":139.67178483},{"name":"都立林試の森公園","province":"東京都","city":"目黒区","address":"東京都目黒区下目黒5丁目37","lat":35.62487834,"lon":139.70415426},{"name":"北部包括支援センター","province":"東京都","city":"目黒区","address":"目黒区大橋1-51-1クロスエアタワー9階","lat":35.652462,"lon":139.68924},{"name":"東部包括支援センター","province":"東京都","city":"目黒区","address":"目黒区上目黒2-19-15総合庁舎内","lat":35.640465,"lon":139.6987},{"name":"中央包括支援センター","province":"東京都","city":"目黒区","address":"目黒区中央町2-9-13食販ビル2階","lat":35.631126,"lon":139.692123},{"name":"南部包括支援センター","province":"東京都","city":"目黒区","address":"目黒区碑文谷1-18-14碑小学校内南西側","lat":35.618874,"lon":139.690491},{"name":"西部包括支援センター","province":"東京都","city":"目黒区","address":"目黒区柿の木坂1-28-10","lat":35.619823,"lon":139.675735},{"name":"青葉台さくら苑在宅介護支援センター","province":"東京都","city":"目黒区","address":"目黒区青葉台3-21-6青葉台さくら苑内","lat":35.649391,"lon":139.692413},{"name":"清徳会在宅介護支援センター","province":"東京都","city":"目黒区","address":"目黒区目黒本町4-2-1清徳苑内","lat":35.623085,"lon":139.698441},{"name":"目黒区大橋在宅介護支援センター","province":"東京都","city":"目黒区","address":"目黒区大橋2-16-1坂本ビル1階","lat":35.653767,"lon":139.68718},{"name":"目黒区下目黒在宅介護支援センター","province":"東京都","city":"目黒区","address":"目黒区下目黒2-21-16-101","lat":35.634972,"lon":139.709427},{"name":"目黒区日扇会在宅介護支援センター","province":"東京都","city":"目黒区","address":"目黒区中根2-13-18文保堂ビル2階","lat":35.635044,"lon":139.707016},{"name":"東京共済病院在宅介護支援センター","province":"東京都","city":"目黒区","address":"目黒区中目黒2-3-8東京共済病院内","lat":35.641899,"lon":139.703857},{"name":"青葉台一丁目","province":"東京都","city":"目黒区","address":"東京都目黒区東山1丁目2-7","lat":35.64771994,"lon":139.69357111},{"name":"中目黒","province":"東京都","city":"目黒区","address":"東京都目黒区上目黒2丁目9-5","lat":35.64276232,"lon":139.7003735},{"name":"田道","province":"東京都","city":"目黒区","address":"東京都目黒区目黒2丁目14-13","lat":35.63631596,"lon":139.7063843},{"name":"目黒不動入口","province":"東京都","city":"目黒区","address":"東京都目黒区下目黒2丁目24-7","lat":35.62927518,"lon":139.71109241},{"name":"目黒税務署前","province":"東京都","city":"目黒区","address":"東京都目黒区祐天寺2丁目8-12","lat":35.63629903,"lon":139.69416588},{"name":"上目黒三丁目","province":"東京都","city":"目黒区","address":"東京都目黒区青葉台1丁目22-6","lat":35.64599799,"lon":139.69734031},{"name":"駒場町","province":"東京都","city":"目黒区","address":"東京都目黒区駒場2丁目16-4","lat":35.65581597,"lon":139.68286061},{"name":"守屋図書館前","province":"東京都","city":"目黒区","address":"東京都目黒区中央町2丁目1-13","lat":35.63362978,"lon":139.68948578},{"name":"中央町二丁目","province":"東京都","city":"目黒区","address":"東京都目黒区中町2丁目45-8","lat":35.63318267,"lon":139.69189116},{"name":"池尻ランプ前","province":"東京都","city":"目黒区","address":"東京都目黒区大橋1丁目10-1","lat":35.65126102,"lon":139.68642992},{"name":"中目黒駅前","province":"東京都","city":"目黒区","address":"東京都目黒区上目黒1丁目23-1","lat":35.6444149,"lon":139.69964295},{"name":"西郷山下","province":"東京都","city":"目黒区","address":"東京都目黒区青葉台1丁目12-3","lat":35.64866154,"lon":139.69552092},{"name":"青葉台一丁目第二","province":"東京都","city":"目黒区","address":"東京都目黒区青葉台1丁目28-12","lat":35.64744222,"lon":139.69484879},{"name":"上目黒二丁目","province":"東京都","city":"目黒区","address":"東京都目黒区上目黒2丁目10-8","lat":35.64136524,"lon":139.69935419},{"name":"上目黒一丁目","province":"東京都","city":"目黒区","address":"東京都目黒区青葉台1丁目6","lat":35.64784505,"lon":139.69892067},{"name":"東山一丁目","province":"東京都","city":"目黒区","address":"東京都目黒区東山1丁目6-1","lat":35.64630071,"lon":139.69605151},{"name":"西郷山公園前","province":"東京都","city":"目黒区","address":"東京都目黒区青葉台2丁目10","lat":35.65029745,"lon":139.69516256},{"name":"目黒区総合庁舎前","province":"東京都","city":"目黒区","address":"東京都目黒区中目黒3丁目13-22","lat":35.63919604,"lon":139.69918204},{"name":"碑文谷","province":"東京都","city":"目黒区","address":"東京都目黒区碑文谷2丁目21-13","lat":35.62283372,"lon":139.68495871},{"name":"都立大学駅前","province":"東京都","city":"目黒区","address":"東京都目黒区柿の木坂1丁目30-8","lat":35.61855895,"lon":139.67549296},{"name":"柿の木坂","province":"東京都","city":"目黒区","address":"東京都目黒区柿の木坂3丁目8-13","lat":35.6265135,"lon":139.67227909},{"name":"南一丁目","province":"東京都","city":"目黒区","address":"東京都目黒区南1丁目24-10","lat":35.6132738,"lon":139.68706997},{"name":"柿の木坂陸橋下","province":"東京都","city":"目黒区","address":"東京都目黒区平町1丁目1-1","lat":35.62007002,"lon":139.68040916},{"name":"中根一丁目","province":"東京都","city":"目黒区","address":"東京都目黒区中根1丁目5-1","lat":35.61718968,"lon":139.6759513},{"name":"八雲一丁目","province":"東京都","city":"目黒区","address":"東京都目黒区八雲1丁目1-1","lat":35.62149186,"lon":139.67275697},{"name":"八雲小学校入口","province":"東京都","city":"目黒区","address":"東京都目黒区柿の木坂1丁目31-15","lat":35.61941994,"lon":139.6748402},{"name":"大岡山小学校前","province":"東京都","city":"目黒区","address":"東京都目黒区碑文谷3丁目19-8","lat":35.61628445,"lon":139.68343961},{"name":"田向公園入口","province":"東京都","city":"目黒区","address":"東京都目黒区碑文谷2丁目11-22","lat":35.62386141,"lon":139.68676963},{"name":"国立病院東京医療センター正門前","province":"東京都","city":"目黒区","address":"東京都目黒区東が丘2丁目5-1","lat":35.62656333,"lon":139.66598239},{"name":"学芸大学駅入口","province":"東京都","city":"目黒区","address":"東京都目黒区鷹番3丁目1","lat":35.62949961,"lon":139.68583621},{"name":"八雲給水所","province":"東京都","city":"目黒区","address":"東京都目黒区八雲1丁目1","lat":35.62130575,"lon":139.67178483},{"name":"都立林試の森公園","province":"東京都","city":"目黒区","address":"東京都目黒区下目黒5丁目37","lat":35.62487834,"lon":139.70415426},{"name":"北部包括支援センター","province":"東京都","city":"目黒区","address":"目黒区大橋1-51-1クロスエアタワー9階","lat":35.652462,"lon":139.68924},{"name":"東部包括支援センター","province":"東京都","city":"目黒区","address":"目黒区上目黒2-19-15総合庁舎内","lat":35.640465,"lon":139.6987},{"name":"中央包括支援センター","province":"東京都","city":"目黒区","address":"目黒区中央町2-9-13食販ビル2階","lat":35.631126,"lon":139.692123},{"name":"南部包括支援センター","province":"東京都","city":"目黒区","address":"目黒区碑文谷1-18-14碑小学校内南西側","lat":35.618874,"lon":139.690491},{"name":"西部包括支援センター","province":"東京都","city":"目黒区","address":"目黒区柿の木坂1-28-10","lat":35.619823,"lon":139.675735},{"name":"青葉台さくら苑在宅介護支援センター","province":"東京都","city":"目黒区","address":"目黒区青葉台3-21-6青葉台さくら苑内","lat":35.649391,"lon":139.692413},{"name":"清徳会在宅介護支援センター","province":"東京都","city":"目黒区","address":"目黒区目黒本町4-2-1清徳苑内","lat":35.623085,"lon":139.698441},{"name":"目黒区大橋在宅介護支援センター","province":"東京都","city":"目黒区","address":"目黒区大橋2-16-1坂本ビル1階","lat":35.653767,"lon":139.68718},{"name":"目黒区下目黒在宅介護支援センター","province":"東京都","city":"目黒区","address":"目黒区下目黒2-21-16-101","lat":35.634972,"lon":139.709427},{"name":"目黒区日扇会在宅介護支援センター","province":"東京都","city":"目黒区","address":"目黒区中根2-13-18文保堂ビル2階","lat":35.635044,"lon":139.707016},{"name":"東京共済病院在宅介護支援センター","province":"東京都","city":"目黒区","address":"目黒区中目黒2-3-8東京共済病院内","lat":35.641899,"lon":139.703857},{"name":"青葉台一丁目","province":"東京都","city":"目黒区","address":"東京都目黒区東山1丁目2-7","lat":35.64771994,"lon":139.69357111},{"name":"中目黒","province":"東京都","city":"目黒区","address":"東京都目黒区上目黒2丁目9-5","lat":35.64276232,"lon":139.7003735},{"name":"田道","province":"東京都","city":"目黒区","address":"東京都目黒区目黒2丁目14-13","lat":35.63631596,"lon":139.7063843},{"name":"目黒不動入口","province":"東京都","city":"目黒区","address":"東京都目黒区下目黒2丁目24-7","lat":35.62927518,"lon":139.71109241},{"name":"目黒税務署前","province":"東京都","city":"目黒区","address":"東京都目黒区祐天寺2丁目8-12","lat":35.63629903,"lon":139.69416588},{"name":"上目黒三丁目","province":"東京都","city":"目黒区","address":"東京都目黒区青葉台1丁目22-6","lat":35.64599799,"lon":139.69734031},{"name":"駒場町","province":"東京都","city":"目黒区","address":"東京都目黒区駒場2丁目16-4","lat":35.65581597,"lon":139.68286061},{"name":"守屋図書館前","province":"東京都","city":"目黒区","address":"東京都目黒区中央町2丁目1-13","lat":35.63362978,"lon":139.68948578},{"name":"中央町二丁目","province":"東京都","city":"目黒区","address":"東京都目黒区中町2丁目45-8","lat":35.63318267,"lon":139.69189116},{"name":"池尻ランプ前","province":"東京都","city":"目黒区","address":"東京都目黒区大橋1丁目10-1","lat":35.65126102,"lon":139.68642992},{"name":"中目黒駅前","province":"東京都","city":"目黒区","address":"東京都目黒区上目黒1丁目23-1","lat":35.6444149,"lon":139.69964295},{"name":"西郷山下","province":"東京都","city":"目黒区","address":"東京都目黒区青葉台1丁目12-3","lat":35.64866154,"lon":139.69552092},{"name":"青葉台一丁目第二","province":"東京都","city":"目黒区","address":"東京都目黒区青葉台1丁目28-12","lat":35.64744222,"lon":139.69484879},{"name":"上目黒二丁目","province":"東京都","city":"目黒区","address":"東京都目黒区上目黒2丁目10-8","lat":35.64136524,"lon":139.69935419},{"name":"上目黒一丁目","province":"東京都","city":"目黒区","address":"東京都目黒区青葉台1丁目6","lat":35.64784505,"lon":139.69892067},{"name":"東山一丁目","province":"東京都","city":"目黒区","address":"東京都目黒区東山1丁目6-1","lat":35.64630071,"lon":139.69605151},{"name":"西郷山公園前","province":"東京都","city":"目黒区","address":"東京都目黒区青葉台2丁目10","lat":35.65029745,"lon":139.69516256},{"name":"目黒区総合庁舎前","province":"東京都","city":"目黒区","address":"東京都目黒区中目黒3丁目13-22","lat":35.63919604,"lon":139.69918204},{"name":"碑文谷","province":"東京都","city":"目黒区","address":"東京都目黒区碑文谷2丁目21-13","lat":35.62283372,"lon":139.68495871},{"name":"都立大学駅前","province":"東京都","city":"目黒区","address":"東京都目黒区柿の木坂1丁目30-8","lat":35.61855895,"lon":139.67549296},{"name":"柿の木坂","province":"東京都","city":"目黒区","address":"東京都目黒区柿の木坂3丁目8-13","lat":35.6265135,"lon":139.67227909},{"name":"南一丁目","province":"東京都","city":"目黒区","address":"東京都目黒区南1丁目24-10","lat":35.6132738,"lon":139.68706997},{"name":"柿の木坂陸橋下","province":"東京都","city":"目黒区","address":"東京都目黒区平町1丁目1-1","lat":35.62007002,"lon":139.68040916},{"name":"中根一丁目","province":"東京都","city":"目黒区","address":"東京都目黒区中根1丁目5-1","lat":35.61718968,"lon":139.6759513},{"name":"八雲一丁目","province":"東京都","city":"目黒区","address":"東京都目黒区八雲1丁目1-1","lat":35.62149186,"lon":139.67275697},{"name":"八雲小学校入口","province":"東京都","city":"目黒区","address":"東京都目黒区柿の木坂1丁目31-15","lat":35.61941994,"lon":139.6748402},{"name":"大岡山小学校前","province":"東京都","city":"目黒区","address":"東京都目黒区碑文谷3丁目19-8","lat":35.61628445,"lon":139.68343961},{"name":"田向公園入口","province":"東京都","city":"目黒区","address":"東京都目黒区碑文谷2丁目11-22","lat":35.62386141,"lon":139.68676963},{"name":"国立病院東京医療センター正門前","province":"東京都","city":"目黒区","address":"東京都目黒区東が丘2丁目5-1","lat":35.62656333,"lon":139.66598239},{"name":"学芸大学駅入口","province":"東京都","city":"目黒区","address":"東京都目黒区鷹番3丁目1","lat":35.62949961,"lon":139.68583621},{"name":"八雲給水所","province":"東京都","city":"目黒区","address":"東京都目黒区八雲1丁目1","lat":35.62130575,"lon":139.67178483},{"name":"都立林試の森公園","province":"東京都","city":"目黒区","address":"東京都目黒区下目黒5丁目37","lat":35.62487834,"lon":139.70415426},{"name":"北部包括支援センター","province":"東京都","city":"目黒区","address":"目黒区大橋1-51-1クロスエアタワー9階","lat":35.652462,"lon":139.68924},{"name":"東部包括支援センター","province":"東京都","city":"目黒区","address":"目黒区上目黒2-19-15総合庁舎内","lat":35.640465,"lon":139.6987},{"name":"中央包括支援センター","province":"東京都","city":"目黒区","address":"目黒区中央町2-9-13食販ビル2階","lat":35.631126,"lon":139.692123},{"name":"南部包括支援センター","province":"東京都","city":"目黒区","address":"目黒区碑文谷1-18-14碑小学校内南西側","lat":35.618874,"lon":139.690491},{"name":"西部包括支援センター","province":"東京都","city":"目黒区","address":"目黒区柿の木坂1-28-10","lat":35.619823,"lon":139.675735},{"name":"青葉台さくら苑在宅介護支援センター","province":"東京都","city":"目黒区","address":"目黒区青葉台3-21-6青葉台さくら苑内","lat":35.649391,"lon":139.692413},{"name":"清徳会在宅介護支援センター","province":"東京都","city":"目黒区","address":"目黒区目黒本町4-2-1清徳苑内","lat":35.623085,"lon":139.698441},{"name":"目黒区大橋在宅介護支援センター","province":"東京都","city":"目黒区","address":"目黒区大橋2-16-1坂本ビル1階","lat":35.653767,"lon":139.68718},{"name":"目黒区下目黒在宅介護支援センター","province":"東京都","city":"目黒区","address":"目黒区下目黒2-21-16-101","lat":35.634972,"lon":139.709427},{"name":"目黒区日扇会在宅介護支援センター","province":"東京都","city":"目黒区","address":"目黒区中根2-13-18文保堂ビル2階","lat":35.635044,"lon":139.707016},{"name":"東京共済病院在宅介護支援センター","province":"東京都","city":"目黒区","address":"目黒区中目黒2-3-8東京共済病院内","lat":35.641899,"lon":139.703857},{"name":"青葉台一丁目","province":"東京都","city":"目黒区","address":"東京都目黒区東山1丁目2-7","lat":35.64771994,"lon":139.69357111},{"name":"中目黒","province":"東京都","city":"目黒区","address":"東京都目黒区上目黒2丁目9-5","lat":35.64276232,"lon":139.7003735},{"name":"田道","province":"東京都","city":"目黒区","address":"東京都目黒区目黒2丁目14-13","lat":35.63631596,"lon":139.7063843},{"name":"目黒不動入口","province":"東京都","city":"目黒区","address":"東京都目黒区下目黒2丁目24-7","lat":35.62927518,"lon":139.71109241},{"name":"目黒税務署前","province":"東京都","city":"目黒区","address":"東京都目黒区祐天寺2丁目8-12","lat":35.63629903,"lon":139.69416588},{"name":"上目黒三丁目","province":"東京都","city":"目黒区","address":"東京都目黒区青葉台1丁目22-6","lat":35.64599799,"lon":139.69734031},{"name":"駒場町","province":"東京都","city":"目黒区","address":"東京都目黒区駒場2丁目16-4","lat":35.65581597,"lon":139.68286061},{"name":"守屋図書館前","province":"東京都","city":"目黒区","address":"東京都目黒区中央町2丁目1-13","lat":35.63362978,"lon":139.68948578},{"name":"中央町二丁目","province":"東京都","city":"目黒区","address":"東京都目黒区中町2丁目45-8","lat":35.63318267,"lon":139.69189116},{"name":"池尻ランプ前","province":"東京都","city":"目黒区","address":"東京都目黒区大橋1丁目10-1","lat":35.65126102,"lon":139.68642992},{"name":"中目黒駅前","province":"東京都","city":"目黒区","address":"東京都目黒区上目黒1丁目23-1","lat":35.6444149,"lon":139.69964295},{"name":"西郷山下","province":"東京都","city":"目黒区","address":"東京都目黒区青葉台1丁目12-3","lat":35.64866154,"lon":139.69552092},{"name":"青葉台一丁目第二","province":"東京都","city":"目黒区","address":"東京都目黒区青葉台1丁目28-12","lat":35.64744222,"lon":139.69484879},{"name":"上目黒二丁目","province":"東京都","city":"目黒区","address":"東京都目黒区上目黒2丁目10-8","lat":35.64136524,"lon":139.69935419},{"name":"上目黒一丁目","province":"東京都","city":"目黒区","address":"東京都目黒区青葉台1丁目6","lat":35.64784505,"lon":139.69892067},{"name":"東山一丁目","province":"東京都","city":"目黒区","address":"東京都目黒区東山1丁目6-1","lat":35.64630071,"lon":139.69605151},{"name":"西郷山公園前","province":"東京都","city":"目黒区","address":"東京都目黒区青葉台2丁目10","lat":35.65029745,"lon":139.69516256},{"name":"目黒区総合庁舎前","province":"東京都","city":"目黒区","address":"東京都目黒区中目黒3丁目13-22","lat":35.63919604,"lon":139.69918204},{"name":"碑文谷","province":"東京都","city":"目黒区","address":"東京都目黒区碑文谷2丁目21-13","lat":35.62283372,"lon":139.68495871},{"name":"都立大学駅前","province":"東京都","city":"目黒区","address":"東京都目黒区柿の木坂1丁目30-8","lat":35.61855895,"lon":139.67549296},{"name":"柿の木坂","province":"東京都","city":"目黒区","address":"東京都目黒区柿の木坂3丁目8-13","lat":35.6265135,"lon":139.67227909},{"name":"南一丁目","province":"東京都","city":"目黒区","address":"東京都目黒区南1丁目24-10","lat":35.6132738,"lon":139.68706997},{"name":"柿の木坂陸橋下","province":"東京都","city":"目黒区","address":"東京都目黒区平町1丁目1-1","lat":35.62007002,"lon":139.68040916},{"name":"中根一丁目","province":"東京都","city":"目黒区","address":"東京都目黒区中根1丁目5-1","lat":35.61718968,"lon":139.6759513},{"name":"八雲一丁目","province":"東京都","city":"目黒区","address":"東京都目黒区八雲1丁目1-1","lat":35.62149186,"lon":139.67275697},{"name":"八雲小学校入口","province":"東京都","city":"目黒区","address":"東京都目黒区柿の木坂1丁目31-15","lat":35.61941994,"lon":139.6748402},{"name":"大岡山小学校前","province":"東京都","city":"目黒区","address":"東京都目黒区碑文谷3丁目19-8","lat":35.61628445,"lon":139.68343961},{"name":"田向公園入口","province":"東京都","city":"目黒区","address":"東京都目黒区碑文谷2丁目11-22","lat":35.62386141,"lon":139.68676963},{"name":"国立病院東京医療センター正門前","province":"東京都","city":"目黒区","address":"東京都目黒区東が丘2丁目5-1","lat":35.62656333,"lon":139.66598239},{"name":"学芸大学駅入口","province":"東京都","city":"目黒区","address":"東京都目黒区鷹番3丁目1","lat":35.62949961,"lon":139.68583621},{"name":"八雲給水所","province":"東京都","city":"目黒区","address":"東京都目黒区八雲1丁目1","lat":35.62130575,"lon":139.67178483},{"name":"都立林試の森公園","province":"東京都","city":"目黒区","address":"東京都目黒区下目黒5丁目37","lat":35.62487834,"lon":139.70415426},{"name":"北部包括支援センター","province":"東京都","city":"目黒区","address":"目黒区大橋1-51-1クロスエアタワー9階","lat":35.652462,"lon":139.68924},{"name":"東部包括支援センター","province":"東京都","city":"目黒区","address":"目黒区上目黒2-19-15総合庁舎内","lat":35.640465,"lon":139.6987},{"name":"中央包括支援センター","province":"東京都","city":"目黒区","address":"目黒区中央町2-9-13食販ビル2階","lat":35.631126,"lon":139.692123},{"name":"南部包括支援センター","province":"東京都","city":"目黒区","address":"目黒区碑文谷1-18-14碑小学校内南西側","lat":35.618874,"lon":139.690491},{"name":"西部包括支援センター","province":"東京都","city":"目黒区","address":"目黒区柿の木坂1-28-10","lat":35.619823,"lon":139.675735},{"name":"青葉台さくら苑在宅介護支援センター","province":"東京都","city":"目黒区","address":"目黒区青葉台3-21-6青葉台さくら苑内","lat":35.649391,"lon":139.692413},{"name":"清徳会在宅介護支援センター","province":"東京都","city":"目黒区","address":"目黒区目黒本町4-2-1清徳苑内","lat":35.623085,"lon":139.698441},{"name":"目黒区大橋在宅介護支援センター","province":"東京都","city":"目黒区","address":"目黒区大橋2-16-1坂本ビル1階","lat":35.653767,"lon":139.68718},{"name":"目黒区下目黒在宅介護支援センター","province":"東京都","city":"目黒区","address":"目黒区下目黒2-21-16-101","lat":35.634972,"lon":139.709427},{"name":"目黒区日扇会在宅介護支援センター","province":"東京都","city":"目黒区","address":"目黒区中根2-13-18文保堂ビル2階","lat":35.635044,"lon":139.707016},{"name":"東京共済病院在宅介護支援センター","province":"東京都","city":"目黒区","address":"目黒区中目黒2-3-8東京共済病院内","lat":35.641899,"lon":139.703857},{"name":"青葉台一丁目","province":"東京都","city":"目黒区","address":"東京都目黒区東山1丁目2-7","lat":35.64771994,"lon":139.69357111},{"name":"中目黒","province":"東京都","city":"目黒区","address":"東京都目黒区上目黒2丁目9-5","lat":35.64276232,"lon":139.7003735},{"name":"田道","province":"東京都","city":"目黒区","address":"東京都目黒区目黒2丁目14-13","lat":35.63631596,"lon":139.7063843},{"name":"目黒不動入口","province":"東京都","city":"目黒区","address":"東京都目黒区下目黒2丁目24-7","lat":35.62927518,"lon":139.71109241},{"name":"目黒税務署前","province":"東京都","city":"目黒区","address":"東京都目黒区祐天寺2丁目8-12","lat":35.63629903,"lon":139.69416588},{"name":"上目黒三丁目","province":"東京都","city":"目黒区","address":"東京都目黒区青葉台1丁目22-6","lat":35.64599799,"lon":139.69734031},{"name":"駒場町","province":"東京都","city":"目黒区","address":"東京都目黒区駒場2丁目16-4","lat":35.65581597,"lon":139.68286061},{"name":"守屋図書館前","province":"東京都","city":"目黒区","address":"東京都目黒区中央町2丁目1-13","lat":35.63362978,"lon":139.68948578},{"name":"中央町二丁目","province":"東京都","city":"目黒区","address":"東京都目黒区中町2丁目45-8","lat":35.63318267,"lon":139.69189116},{"name":"池尻ランプ前","province":"東京都","city":"目黒区","address":"東京都目黒区大橋1丁目10-1","lat":35.65126102,"lon":139.68642992},{"name":"中目黒駅前","province":"東京都","city":"目黒区","address":"東京都目黒区上目黒1丁目23-1","lat":35.6444149,"lon":139.69964295},{"name":"西郷山下","province":"東京都","city":"目黒区","address":"東京都目黒区青葉台1丁目12-3","lat":35.64866154,"lon":139.69552092},{"name":"青葉台一丁目第二","province":"東京都","city":"目黒区","address":"東京都目黒区青葉台1丁目28-12","lat":35.64744222,"lon":139.69484879},{"name":"上目黒二丁目","province":"東京都","city":"目黒区","address":"東京都目黒区上目黒2丁目10-8","lat":35.64136524,"lon":139.69935419},{"name":"上目黒一丁目","province":"東京都","city":"目黒区","address":"東京都目黒区青葉台1丁目6","lat":35.64784505,"lon":139.69892067},{"name":"東山一丁目","province":"東京都","city":"目黒区","address":"東京都目黒区東山1丁目6-1","lat":35.64630071,"lon":139.69605151},{"name":"西郷山公園前","province":"東京都","city":"目黒区","address":"東京都目黒区青葉台2丁目10","lat":35.65029745,"lon":139.69516256},{"name":"目黒区総合庁舎前","province":"東京都","city":"目黒区","address":"東京都目黒区中目黒3丁目13-22","lat":35.63919604,"lon":139.69918204},{"name":"碑文谷","province":"東京都","city":"目黒区","address":"東京都目黒区碑文谷2丁目21-13","lat":35.62283372,"lon":139.68495871},{"name":"都立大学駅前","province":"東京都","city":"目黒区","address":"東京都目黒区柿の木坂1丁目30-8","lat":35.61855895,"lon":139.67549296},{"name":"柿の木坂","province":"東京都","city":"目黒区","address":"東京都目黒区柿の木坂3丁目8-13","lat":35.6265135,"lon":139.67227909},{"name":"南一丁目","province":"東京都","city":"目黒区","address":"東京都目黒区南1丁目24-10","lat":35.6132738,"lon":139.68706997},{"name":"柿の木坂陸橋下","province":"東京都","city":"目黒区","address":"東京都目黒区平町1丁目1-1","lat":35.62007002,"lon":139.68040916},{"name":"中根一丁目","province":"東京都","city":"目黒区","address":"東京都目黒区中根1丁目5-1","lat":35.61718968,"lon":139.6759513},{"name":"八雲一丁目","province":"東京都","city":"目黒区","address":"東京都目黒区八雲1丁目1-1","lat":35.62149186,"lon":139.67275697},{"name":"八雲小学校入口","province":"東京都","city":"目黒区","address":"東京都目黒区柿の木坂1丁目31-15","lat":35.61941994,"lon":139.6748402},{"name":"大岡山小学校前","province":"東京都","city":"目黒区","address":"東京都目黒区碑文谷3丁目19-8","lat":35.61628445,"lon":139.68343961},{"name":"田向公園入口","province":"東京都","city":"目黒区","address":"東京都目黒区碑文谷2丁目11-22","lat":35.62386141,"lon":139.68676963},{"name":"国立病院東京医療センター正門前","province":"東京都","city":"目黒区","address":"東京都目黒区東が丘2丁目5-1","lat":35.62656333,"lon":139.66598239},{"name":"学芸大学駅入口","province":"東京都","city":"目黒区","address":"東京都目黒区鷹番3丁目1","lat":35.62949961,"lon":139.68583621},{"name":"八雲給水所","province":"東京都","city":"目黒区","address":"東京都目黒区八雲1丁目1","lat":35.62130575,"lon":139.67178483},{"name":"都立林試の森公園","province":"東京都","city":"目黒区","address":"東京都目黒区下目黒5丁目37","lat":35.62487834,"lon":139.70415426},{"name":"北部包括支援センター","province":"東京都","city":"目黒区","address":"目黒区大橋1-51-1クロスエアタワー9階","lat":35.652462,"lon":139.68924},{"name":"東部包括支援センター","province":"東京都","city":"目黒区","address":"目黒区上目黒2-19-15総合庁舎内","lat":35.640465,"lon":139.6987},{"name":"中央包括支援センター","province":"東京都","city":"目黒区","address":"目黒区中央町2-9-13食販ビル2階","lat":35.631126,"lon":139.692123},{"name":"南部包括支援センター","province":"東京都","city":"目黒区","address":"目黒区碑文谷1-18-14碑小学校内南西側","lat":35.618874,"lon":139.690491},{"name":"西部包括支援センター","province":"東京都","city":"目黒区","address":"目黒区柿の木坂1-28-10","lat":35.619823,"lon":139.675735},{"name":"青葉台さくら苑在宅介護支援センター","province":"東京都","city":"目黒区","address":"目黒区青葉台3-21-6青葉台さくら苑内","lat":35.649391,"lon":139.692413},{"name":"清徳会在宅介護支援センター","province":"東京都","city":"目黒区","address":"目黒区目黒本町4-2-1清徳苑内","lat":35.623085,"lon":139.698441},{"name":"目黒区大橋在宅介護支援センター","province":"東京都","city":"目黒区","address":"目黒区大橋2-16-1坂本ビル1階","lat":35.653767,"lon":139.68718},{"name":"目黒区下目黒在宅介護支援センター","province":"東京都","city":"目黒区","address":"目黒区下目黒2-21-16-101","lat":35.634972,"lon":139.709427},{"name":"目黒区日扇会在宅介護支援センター","province":"東京都","city":"目黒区","address":"目黒区中根2-13-18文保堂ビル2階","lat":35.635044,"lon":139.707016},{"name":"東京共済病院在宅介護支援センター","province":"東京都","city":"目黒区","address":"目黒区中目黒2-3-8東京共済病院内","lat":35.641899,"lon":139.703857},{"name":"青葉台一丁目","province":"東京都","city":"目黒区","address":"東京都目黒区東山1丁目2-7","lat":35.64771994,"lon":139.69357111},{"name":"中目黒","province":"東京都","city":"目黒区","address":"東京都目黒区上目黒2丁目9-5","lat":35.64276232,"lon":139.7003735},{"name":"田道","province":"東京都","city":"目黒区","address":"東京都目黒区目黒2丁目14-13","lat":35.63631596,"lon":139.7063843},{"name":"目黒不動入口","province":"東京都","city":"目黒区","address":"東京都目黒区下目黒2丁目24-7","lat":35.62927518,"lon":139.71109241},{"name":"目黒税務署前","province":"東京都","city":"目黒区","address":"東京都目黒区祐天寺2丁目8-12","lat":35.63629903,"lon":139.69416588},{"name":"上目黒三丁目","province":"東京都","city":"目黒区","address":"東京都目黒区青葉台1丁目22-6","lat":35.64599799,"lon":139.69734031},{"name":"駒場町","province":"東京都","city":"目黒区","address":"東京都目黒区駒場2丁目16-4","lat":35.65581597,"lon":139.68286061},{"name":"守屋図書館前","province":"東京都","city":"目黒区","address":"東京都目黒区中央町2丁目1-13","lat":35.63362978,"lon":139.68948578},{"name":"中央町二丁目","province":"東京都","city":"目黒区","address":"東京都目黒区中町2丁目45-8","lat":35.63318267,"lon":139.69189116},{"name":"池尻ランプ前","province":"東京都","city":"目黒区","address":"東京都目黒区大橋1丁目10-1","lat":35.65126102,"lon":139.68642992},{"name":"中目黒駅前","province":"東京都","city":"目黒区","address":"東京都目黒区上目黒1丁目23-1","lat":35.6444149,"lon":139.69964295},{"name":"西郷山下","province":"東京都","city":"目黒区","address":"東京都目黒区青葉台1丁目12-3","lat":35.64866154,"lon":139.69552092},{"name":"青葉台一丁目第二","province":"東京都","city":"目黒区","address":"東京都目黒区青葉台1丁目28-12","lat":35.64744222,"lon":139.69484879},{"name":"上目黒二丁目","province":"東京都","city":"目黒区","address":"東京都目黒区上目黒2丁目10-8","lat":35.64136524,"lon":139.69935419},{"name":"上目黒一丁目","province":"東京都","city":"目黒区","address":"東京都目黒区青葉台1丁目6","lat":35.64784505,"lon":139.69892067},{"name":"東山一丁目","province":"東京都","city":"目黒区","address":"東京都目黒区東山1丁目6-1","lat":35.64630071,"lon":139.69605151},{"name":"西郷山公園前","province":"東京都","city":"目黒区","address":"東京都目黒区青葉台2丁目10","lat":35.65029745,"lon":139.69516256},{"name":"目黒区総合庁舎前","province":"東京都","city":"目黒区","address":"東京都目黒区中目黒3丁目13-22","lat":35.63919604,"lon":139.69918204},{"name":"碑文谷","province":"東京都","city":"目黒区","address":"東京都目黒区碑文谷2丁目21-13","lat":35.62283372,"lon":139.68495871},{"name":"都立大学駅前","province":"東京都","city":"目黒区","address":"東京都目黒区柿の木坂1丁目30-8","lat":35.61855895,"lon":139.67549296},{"name":"柿の木坂","province":"東京都","city":"目黒区","address":"東京都目黒区柿の木坂3丁目8-13","lat":35.6265135,"lon":139.67227909},{"name":"南一丁目","province":"東京都","city":"目黒区","address":"東京都目黒区南1丁目24-10","lat":35.6132738,"lon":139.68706997},{"name":"柿の木坂陸橋下","province":"東京都","city":"目黒区","address":"東京都目黒区平町1丁目1-1","lat":35.62007002,"lon":139.68040916},{"name":"中根一丁目","province":"東京都","city":"目黒区","address":"東京都目黒区中根1丁目5-1","lat":35.61718968,"lon":139.6759513},{"name":"八雲一丁目","province":"東京都","city":"目黒区","address":"東京都目黒区八雲1丁目1-1","lat":35.62149186,"lon":139.67275697},{"name":"八雲小学校入口","province":"東京都","city":"目黒区","address":"東京都目黒区柿の木坂1丁目31-15","lat":35.61941994,"lon":139.6748402},{"name":"大岡山小学校前","province":"東京都","city":"目黒区","address":"東京都目黒区碑文谷3丁目19-8","lat":35.61628445,"lon":139.68343961},{"name":"田向公園入口","province":"東京都","city":"目黒区","address":"東京都目黒区碑文谷2丁目11-22","lat":35.62386141,"lon":139.68676963},{"name":"国立病院東京医療センター正門前","province":"東京都","city":"目黒区","address":"東京都目黒区東が丘2丁目5-1","lat":35.62656333,"lon":139.66598239},{"name":"学芸大学駅入口","province":"東京都","city":"目黒区","address":"東京都目黒区鷹番3丁目1","lat":35.62949961,"lon":139.68583621},{"name":"八雲給水所","province":"東京都","city":"目黒区","address":"東京都目黒区八雲1丁目1","lat":35.62130575,"lon":139.67178483},{"name":"都立林試の森公園","province":"東京都","city":"目黒区","address":"東京都目黒区下目黒5丁目37","lat":35.62487834,"lon":139.70415426},{"name":"北部包括支援センター","province":"東京都","city":"目黒区","address":"目黒区大橋1-51-1クロスエアタワー9階","lat":35.652462,"lon":139.68924},{"name":"東部包括支援センター","province":"東京都","city":"目黒区","address":"目黒区上目黒2-19-15総合庁舎内","lat":35.640465,"lon":139.6987},{"name":"中央包括支援センター","province":"東京都","city":"目黒区","address":"目黒区中央町2-9-13食販ビル2階","lat":35.631126,"lon":139.692123},{"name":"南部包括支援センター","province":"東京都","city":"目黒区","address":"目黒区碑文谷1-18-14碑小学校内南西側","lat":35.618874,"lon":139.690491},{"name":"西部包括支援センター","province":"東京都","city":"目黒区","address":"目黒区柿の木坂1-28-10","lat":35.619823,"lon":139.675735},{"name":"青葉台さくら苑在宅介護支援センター","province":"東京都","city":"目黒区","address":"目黒区青葉台3-21-6青葉台さくら苑内","lat":35.649391,"lon":139.692413},{"name":"清徳会在宅介護支援センター","province":"東京都","city":"目黒区","address":"目黒区目黒本町4-2-1清徳苑内","lat":35.623085,"lon":139.698441},{"name":"目黒区大橋在宅介護支援センター","province":"東京都","city":"目黒区","address":"目黒区大橋2-16-1坂本ビル1階","lat":35.653767,"lon":139.68718},{"name":"目黒区下目黒在宅介護支援センター","province":"東京都","city":"目黒区","address":"目黒区下目黒2-21-16-101","lat":35.634972,"lon":139.709427},{"name":"目黒区日扇会在宅介護支援センター","province":"東京都","city":"目黒区","address":"目黒区中根2-13-18文保堂ビル2階","lat":35.635044,"lon":139.707016},{"name":"東京共済病院在宅介護支援センター","province":"東京都","city":"目黒区","address":"目黒区中目黒2-3-8東京共済病院内","lat":35.641899,"lon":139.703857},{"name":"青葉台一丁目","province":"東京都","city":"目黒区","address":"東京都目黒区東山1丁目2-7","lat":35.64771994,"lon":139.69357111},{"name":"中目黒","province":"東京都","city":"目黒区","address":"東京都目黒区上目黒2丁目9-5","lat":35.64276232,"lon":139.7003735},{"name":"田道","province":"東京都","city":"目黒区","address":"東京都目黒区目黒2丁目14-13","lat":35.63631596,"lon":139.7063843},{"name":"目黒不動入口","province":"東京都","city":"目黒区","address":"東京都目黒区下目黒2丁目24-7","lat":35.62927518,"lon":139.71109241},{"name":"目黒税務署前","province":"東京都","city":"目黒区","address":"東京都目黒区祐天寺2丁目8-12","lat":35.63629903,"lon":139.69416588},{"name":"上目黒三丁目","province":"東京都","city":"目黒区","address":"東京都目黒区青葉台1丁目22-6","lat":35.64599799,"lon":139.69734031},{"name":"駒場町","province":"東京都","city":"目黒区","address":"東京都目黒区駒場2丁目16-4","lat":35.65581597,"lon":139.68286061},{"name":"守屋図書館前","province":"東京都","city":"目黒区","address":"東京都目黒区中央町2丁目1-13","lat":35.63362978,"lon":139.68948578},{"name":"中央町二丁目","province":"東京都","city":"目黒区","address":"東京都目黒区中町2丁目45-8","lat":35.63318267,"lon":139.69189116},{"name":"池尻ランプ前","province":"東京都","city":"目黒区","address":"東京都目黒区大橋1丁目10-1","lat":35.65126102,"lon":139.68642992},{"name":"中目黒駅前","province":"東京都","city":"目黒区","address":"東京都目黒区上目黒1丁目23-1","lat":35.6444149,"lon":139.69964295},{"name":"西郷山下","province":"東京都","city":"目黒区","address":"東京都目黒区青葉台1丁目12-3","lat":35.64866154,"lon":139.69552092},{"name":"青葉台一丁目第二","province":"東京都","city":"目黒区","address":"東京都目黒区青葉台1丁目28-12","lat":35.64744222,"lon":139.69484879},{"name":"上目黒二丁目","province":"東京都","city":"目黒区","address":"東京都目黒区上目黒2丁目10-8","lat":35.64136524,"lon":139.69935419},{"name":"上目黒一丁目","province":"東京都","city":"目黒区","address":"東京都目黒区青葉台1丁目6","lat":35.64784505,"lon":139.69892067},{"name":"東山一丁目","province":"東京都","city":"目黒区","address":"東京都目黒区東山1丁目6-1","lat":35.64630071,"lon":139.69605151},{"name":"西郷山公園前","province":"東京都","city":"目黒区","address":"東京都目黒区青葉台2丁目10","lat":35.65029745,"lon":139.69516256},{"name":"目黒区総合庁舎前","province":"東京都","city":"目黒区","address":"東京都目黒区中目黒3丁目13-22","lat":35.63919604,"lon":139.69918204},{"name":"碑文谷","province":"東京都","city":"目黒区","address":"東京都目黒区碑文谷2丁目21-13","lat":35.62283372,"lon":139.68495871},{"name":"都立大学駅前","province":"東京都","city":"目黒区","address":"東京都目黒区柿の木坂1丁目30-8","lat":35.61855895,"lon":139.67549296},{"name":"柿の木坂","province":"東京都","city":"目黒区","address":"東京都目黒区柿の木坂3丁目8-13","lat":35.6265135,"lon":139.67227909},{"name":"南一丁目","province":"東京都","city":"目黒区","address":"東京都目黒区南1丁目24-10","lat":35.6132738,"lon":139.68706997},{"name":"柿の木坂陸橋下","province":"東京都","city":"目黒区","address":"東京都目黒区平町1丁目1-1","lat":35.62007002,"lon":139.68040916},{"name":"中根一丁目","province":"東京都","city":"目黒区","address":"東京都目黒区中根1丁目5-1","lat":35.61718968,"lon":139.6759513},{"name":"八雲一丁目","province":"東京都","city":"目黒区","address":"東京都目黒区八雲1丁目1-1","lat":35.62149186,"lon":139.67275697},{"name":"八雲小学校入口","province":"東京都","city":"目黒区","address":"東京都目黒区柿の木坂1丁目31-15","lat":35.61941994,"lon":139.6748402},{"name":"大岡山小学校前","province":"東京都","city":"目黒区","address":"東京都目黒区碑文谷3丁目19-8","lat":35.61628445,"lon":139.68343961},{"name":"田向公園入口","province":"東京都","city":"目黒区","address":"東京都目黒区碑文谷2丁目11-22","lat":35.62386141,"lon":139.68676963},{"name":"国立病院東京医療センター正門前","province":"東京都","city":"目黒区","address":"東京都目黒区東が丘2丁目5-1","lat":35.62656333,"lon":139.66598239},{"name":"学芸大学駅入口","province":"東京都","city":"目黒区","address":"東京都目黒区鷹番3丁目1","lat":35.62949961,"lon":139.68583621},{"name":"八雲給水所","province":"東京都","city":"目黒区","address":"東京都目黒区八雲1丁目1","lat":35.62130575,"lon":139.67178483},{"name":"都立林試の森公園","province":"東京都","city":"目黒区","address":"東京都目黒区下目黒5丁目37","lat":35.62487834,"lon":139.70415426},{"name":"北部包括支援センター","province":"東京都","city":"目黒区","address":"目黒区大橋1-51-1クロスエアタワー9階","lat":35.652462,"lon":139.68924},{"name":"東部包括支援センター","province":"東京都","city":"目黒区","address":"目黒区上目黒2-19-15総合庁舎内","lat":35.640465,"lon":139.6987},{"name":"中央包括支援センター","province":"東京都","city":"目黒区","address":"目黒区中央町2-9-13食販ビル2階","lat":35.631126,"lon":139.692123},{"name":"南部包括支援センター","province":"東京都","city":"目黒区","address":"目黒区碑文谷1-18-14碑小学校内南西側","lat":35.618874,"lon":139.690491},{"name":"西部包括支援センター","province":"東京都","city":"目黒区","address":"目黒区柿の木坂1-28-10","lat":35.619823,"lon":139.675735},{"name":"青葉台さくら苑在宅介護支援センター","province":"東京都","city":"目黒区","address":"目黒区青葉台3-21-6青葉台さくら苑内","lat":35.649391,"lon":139.692413},{"name":"清徳会在宅介護支援センター","province":"東京都","city":"目黒区","address":"目黒区目黒本町4-2-1清徳苑内","lat":35.623085,"lon":139.698441},{"name":"目黒区大橋在宅介護支援センター","province":"東京都","city":"目黒区","address":"目黒区大橋2-16-1坂本ビル1階","lat":35.653767,"lon":139.68718},{"name":"目黒区下目黒在宅介護支援センター","province":"東京都","city":"目黒区","address":"目黒区下目黒2-21-16-101","lat":35.634972,"lon":139.709427},{"name":"目黒区日扇会在宅介護支援センター","province":"東京都","city":"目黒区","address":"目黒区中根2-13-18文保堂ビル2階","lat":35.635044,"lon":139.707016},{"name":"東京共済病院在宅介護支援センター","province":"東京都","city":"目黒区","address":"目黒区中目黒2-3-8東京共済病院内","lat":35.641899,"lon":139.703857},{"name":"青葉台一丁目","province":"東京都","city":"目黒区","address":"東京都目黒区東山1丁目2-7","lat":35.64771994,"lon":139.69357111},{"name":"中目黒","province":"東京都","city":"目黒区","address":"東京都目黒区上目黒2丁目9-5","lat":35.64276232,"lon":139.7003735},{"name":"田道","province":"東京都","city":"目黒区","address":"東京都目黒区目黒2丁目14-13","lat":35.63631596,"lon":139.7063843},{"name":"目黒不動入口","province":"東京都","city":"目黒区","address":"東京都目黒区下目黒2丁目24-7","lat":35.62927518,"lon":139.71109241},{"name":"目黒税務署前","province":"東京都","city":"目黒区","address":"東京都目黒区祐天寺2丁目8-12","lat":35.63629903,"lon":139.69416588},{"name":"上目黒三丁目","province":"東京都","city":"目黒区","address":"東京都目黒区青葉台1丁目22-6","lat":35.64599799,"lon":139.69734031},{"name":"駒場町","province":"東京都","city":"目黒区","address":"東京都目黒区駒場2丁目16-4","lat":35.65581597,"lon":139.68286061},{"name":"守屋図書館前","province":"東京都","city":"目黒区","address":"東京都目黒区中央町2丁目1-13","lat":35.63362978,"lon":139.68948578},{"name":"中央町二丁目","province":"東京都","city":"目黒区","address":"東京都目黒区中町2丁目45-8","lat":35.63318267,"lon":139.69189116},{"name":"池尻ランプ前","province":"東京都","city":"目黒区","address":"東京都目黒区大橋1丁目10-1","lat":35.65126102,"lon":139.68642992},{"name":"中目黒駅前","province":"東京都","city":"目黒区","address":"東京都目黒区上目黒1丁目23-1","lat":35.6444149,"lon":139.69964295},{"name":"西郷山下","province":"東京都","city":"目黒区","address":"東京都目黒区青葉台1丁目12-3","lat":35.64866154,"lon":139.69552092},{"name":"青葉台一丁目第二","province":"東京都","city":"目黒区","address":"東京都目黒区青葉台1丁目28-12","lat":35.64744222,"lon":139.69484879},{"name":"上目黒二丁目","province":"東京都","city":"目黒区","address":"東京都目黒区上目黒2丁目10-8","lat":35.64136524,"lon":139.69935419},{"name":"上目黒一丁目","province":"東京都","city":"目黒区","address":"東京都目黒区青葉台1丁目6","lat":35.64784505,"lon":139.69892067},{"name":"東山一丁目","province":"東京都","city":"目黒区","address":"東京都目黒区東山1丁目6-1","lat":35.64630071,"lon":139.69605151},{"name":"西郷山公園前","province":"東京都","city":"目黒区","address":"東京都目黒区青葉台2丁目10","lat":35.65029745,"lon":139.69516256},{"name":"目黒区総合庁舎前","province":"東京都","city":"目黒区","address":"東京都目黒区中目黒3丁目13-22","lat":35.63919604,"lon":139.69918204},{"name":"碑文谷","province":"東京都","city":"目黒区","address":"東京都目黒区碑文谷2丁目21-13","lat":35.62283372,"lon":139.68495871},{"name":"都立大学駅前","province":"東京都","city":"目黒区","address":"東京都目黒区柿の木坂1丁目30-8","lat":35.61855895,"lon":139.67549296},{"name":"柿の木坂","province":"東京都","city":"目黒区","address":"東京都目黒区柿の木坂3丁目8-13","lat":35.6265135,"lon":139.67227909},{"name":"南一丁目","province":"東京都","city":"目黒区","address":"東京都目黒区南1丁目24-10","lat":35.6132738,"lon":139.68706997},{"name":"柿の木坂陸橋下","province":"東京都","city":"目黒区","address":"東京都目黒区平町1丁目1-1","lat":35.62007002,"lon":139.68040916},{"name":"中根一丁目","province":"東京都","city":"目黒区","address":"東京都目黒区中根1丁目5-1","lat":35.61718968,"lon":139.6759513},{"name":"八雲一丁目","province":"東京都","city":"目黒区","address":"東京都目黒区八雲1丁目1-1","lat":35.62149186,"lon":139.67275697},{"name":"八雲小学校入口","province":"東京都","city":"目黒区","address":"東京都目黒区柿の木坂1丁目31-15","lat":35.61941994,"lon":139.6748402},{"name":"大岡山小学校前","province":"東京都","city":"目黒区","address":"東京都目黒区碑文谷3丁目19-8","lat":35.61628445,"lon":139.68343961},{"name":"田向公園入口","province":"東京都","city":"目黒区","address":"東京都目黒区碑文谷2丁目11-22","lat":35.62386141,"lon":139.68676963},{"name":"国立病院東京医療センター正門前","province":"東京都","city":"目黒区","address":"東京都目黒区東が丘2丁目5-1","lat":35.62656333,"lon":139.66598239},{"name":"学芸大学駅入口","province":"東京都","city":"目黒区","address":"東京都目黒区鷹番3丁目1","lat":35.62949961,"lon":139.68583621},{"name":"八雲給水所","province":"東京都","city":"目黒区","address":"東京都目黒区八雲1丁目1","lat":35.62130575,"lon":139.67178483},{"name":"都立林試の森公園","province":"東京都","city":"目黒区","address":"東京都目黒区下目黒5丁目37","lat":35.62487834,"lon":139.70415426},{"name":"北部包括支援センター","province":"東京都","city":"目黒区","address":"目黒区大橋1-51-1クロスエアタワー9階","lat":35.652462,"lon":139.68924},{"name":"東部包括支援センター","province":"東京都","city":"目黒区","address":"目黒区上目黒2-19-15総合庁舎内","lat":35.640465,"lon":139.6987},{"name":"中央包括支援センター","province":"東京都","city":"目黒区","address":"目黒区中央町2-9-13食販ビル2階","lat":35.631126,"lon":139.692123},{"name":"南部包括支援センター","province":"東京都","city":"目黒区","address":"目黒区碑文谷1-18-14碑小学校内南西側","lat":35.618874,"lon":139.690491},{"name":"西部包括支援センター","province":"東京都","city":"目黒区","address":"目黒区柿の木坂1-28-10","lat":35.619823,"lon":139.675735},{"name":"青葉台さくら苑在宅介護支援センター","province":"東京都","city":"目黒区","address":"目黒区青葉台3-21-6青葉台さくら苑内","lat":35.649391,"lon":139.692413},{"name":"清徳会在宅介護支援センター","province":"東京都","city":"目黒区","address":"目黒区目黒本町4-2-1清徳苑内","lat":35.623085,"lon":139.698441},{"name":"目黒区大橋在宅介護支援センター","province":"東京都","city":"目黒区","address":"目黒区大橋2-16-1坂本ビル1階","lat":35.653767,"lon":139.68718},{"name":"目黒区下目黒在宅介護支援センター","province":"東京都","city":"目黒区","address":"目黒区下目黒2-21-16-101","lat":35.634972,"lon":139.709427},{"name":"目黒区日扇会在宅介護支援センター","province":"東京都","city":"目黒区","address":"目黒区中根2-13-18文保堂ビル2階","lat":35.635044,"lon":139.707016},{"name":"東京共済病院在宅介護支援センター","province":"東京都","city":"目黒区","address":"目黒区中目黒2-3-8東京共済病院内","lat":35.641899,"lon":139.703857},{"name":"青葉台一丁目","province":"東京都","city":"目黒区","address":"東京都目黒区東山1丁目2-7","lat":35.64771994,"lon":139.69357111},{"name":"中目黒","province":"東京都","city":"目黒区","address":"東京都目黒区上目黒2丁目9-5","lat":35.64276232,"lon":139.7003735},{"name":"田道","province":"東京都","city":"目黒区","address":"東京都目黒区目黒2丁目14-13","lat":35.63631596,"lon":139.7063843},{"name":"目黒不動入口","province":"東京都","city":"目黒区","address":"東京都目黒区下目黒2丁目24-7","lat":35.62927518,"lon":139.71109241},{"name":"目黒税務署前","province":"東京都","city":"目黒区","address":"東京都目黒区祐天寺2丁目8-12","lat":35.63629903,"lon":139.69416588},{"name":"上目黒三丁目","province":"東京都","city":"目黒区","address":"東京都目黒区青葉台1丁目22-6","lat":35.64599799,"lon":139.69734031},{"name":"駒場町","province":"東京都","city":"目黒区","address":"東京都目黒区駒場2丁目16-4","lat":35.65581597,"lon":139.68286061},{"name":"守屋図書館前","province":"東京都","city":"目黒区","address":"東京都目黒区中央町2丁目1-13","lat":35.63362978,"lon":139.68948578},{"name":"中央町二丁目","province":"東京都","city":"目黒区","address":"東京都目黒区中町2丁目45-8","lat":35.63318267,"lon":139.69189116},{"name":"池尻ランプ前","province":"東京都","city":"目黒区","address":"東京都目黒区大橋1丁目10-1","lat":35.65126102,"lon":139.68642992},{"name":"中目黒駅前","province":"東京都","city":"目黒区","address":"東京都目黒区上目黒1丁目23-1","lat":35.6444149,"lon":139.69964295},{"name":"西郷山下","province":"東京都","city":"目黒区","address":"東京都目黒区青葉台1丁目12-3","lat":35.64866154,"lon":139.69552092},{"name":"青葉台一丁目第二","province":"東京都","city":"目黒区","address":"東京都目黒区青葉台1丁目28-12","lat":35.64744222,"lon":139.69484879},{"name":"上目黒二丁目","province":"東京都","city":"目黒区","address":"東京都目黒区上目黒2丁目10-8","lat":35.64136524,"lon":139.69935419},{"name":"上目黒一丁目","province":"東京都","city":"目黒区","address":"東京都目黒区青葉台1丁目6","lat":35.64784505,"lon":139.69892067},{"name":"東山一丁目","province":"東京都","city":"目黒区","address":"東京都目黒区東山1丁目6-1","lat":35.64630071,"lon":139.69605151},{"name":"西郷山公園前","province":"東京都","city":"目黒区","address":"東京都目黒区青葉台2丁目10","lat":35.65029745,"lon":139.69516256},{"name":"目黒区総合庁舎前","province":"東京都","city":"目黒区","address":"東京都目黒区中目黒3丁目13-22","lat":35.63919604,"lon":139.69918204},{"name":"碑文谷","province":"東京都","city":"目黒区","address":"東京都目黒区碑文谷2丁目21-13","lat":35.62283372,"lon":139.68495871},{"name":"都立大学駅前","province":"東京都","city":"目黒区","address":"東京都目黒区柿の木坂1丁目30-8","lat":35.61855895,"lon":139.67549296},{"name":"柿の木坂","province":"東京都","city":"目黒区","address":"東京都目黒区柿の木坂3丁目8-13","lat":35.6265135,"lon":139.67227909},{"name":"南一丁目","province":"東京都","city":"目黒区","address":"東京都目黒区南1丁目24-10","lat":35.6132738,"lon":139.68706997},{"name":"柿の木坂陸橋下","province":"東京都","city":"目黒区","address":"東京都目黒区平町1丁目1-1","lat":35.62007002,"lon":139.68040916},{"name":"中根一丁目","province":"東京都","city":"目黒区","address":"東京都目黒区中根1丁目5-1","lat":35.61718968,"lon":139.6759513},{"name":"八雲一丁目","province":"東京都","city":"目黒区","address":"東京都目黒区八雲1丁目1-1","lat":35.62149186,"lon":139.67275697},{"name":"八雲小学校入口","province":"東京都","city":"目黒区","address":"東京都目黒区柿の木坂1丁目31-15","lat":35.61941994,"lon":139.6748402},{"name":"大岡山小学校前","province":"東京都","city":"目黒区","address":"東京都目黒区碑文谷3丁目19-8","lat":35.61628445,"lon":139.68343961},{"name":"田向公園入口","province":"東京都","city":"目黒区","address":"東京都目黒区碑文谷2丁目11-22","lat":35.62386141,"lon":139.68676963},{"name":"国立病院東京医療センター正門前","province":"東京都","city":"目黒区","address":"東京都目黒区東が丘2丁目5-1","lat":35.62656333,"lon":139.66598239},{"name":"学芸大学駅入口","province":"東京都","city":"目黒区","address":"東京都目黒区鷹番3丁目1","lat":35.62949961,"lon":139.68583621},{"name":"八雲給水所","province":"東京都","city":"目黒区","address":"東京都目黒区八雲1丁目1","lat":35.62130575,"lon":139.67178483},{"name":"都立林試の森公園","province":"東京都","city":"目黒区","address":"東京都目黒区下目黒5丁目37","lat":35.62487834,"lon":139.70415426},{"name":"北部包括支援センター","province":"東京都","city":"目黒区","address":"目黒区大橋1-51-1クロスエアタワー9階","lat":35.652462,"lon":139.68924},{"name":"東部包括支援センター","province":"東京都","city":"目黒区","address":"目黒区上目黒2-19-15総合庁舎内","lat":35.640465,"lon":139.6987},{"name":"中央包括支援センター","province":"東京都","city":"目黒区","address":"目黒区中央町2-9-13食販ビル2階","lat":35.631126,"lon":139.692123},{"name":"南部包括支援センター","province":"東京都","city":"目黒区","address":"目黒区碑文谷1-18-14碑小学校内南西側","lat":35.618874,"lon":139.690491},{"name":"西部包括支援センター","province":"東京都","city":"目黒区","address":"目黒区柿の木坂1-28-10","lat":35.619823,"lon":139.675735},{"name":"青葉台さくら苑在宅介護支援センター","province":"東京都","city":"目黒区","address":"目黒区青葉台3-21-6青葉台さくら苑内","lat":35.649391,"lon":139.692413},{"name":"清徳会在宅介護支援センター","province":"東京都","city":"目黒区","address":"目黒区目黒本町4-2-1清徳苑内","lat":35.623085,"lon":139.698441},{"name":"目黒区大橋在宅介護支援センター","province":"東京都","city":"目黒区","address":"目黒区大橋2-16-1坂本ビル1階","lat":35.653767,"lon":139.68718},{"name":"目黒区下目黒在宅介護支援センター","province":"東京都","city":"目黒区","address":"目黒区下目黒2-21-16-101","lat":35.634972,"lon":139.709427},{"name":"目黒区日扇会在宅介護支援センター","province":"東京都","city":"目黒区","address":"目黒区中根2-13-18文保堂ビル2階","lat":35.635044,"lon":139.707016},{"name":"東京共済病院在宅介護支援センター","province":"東京都","city":"目黒区","address":"目黒区中目黒2-3-8東京共済病院内","lat":35.641899,"lon":139.703857},{"name":"青葉台一丁目","province":"東京都","city":"目黒区","address":"東京都目黒区東山1丁目2-7","lat":35.64771994,"lon":139.69357111},{"name":"中目黒","province":"東京都","city":"目黒区","address":"東京都目黒区上目黒2丁目9-5","lat":35.64276232,"lon":139.7003735},{"name":"田道","province":"東京都","city":"目黒区","address":"東京都目黒区目黒2丁目14-13","lat":35.63631596,"lon":139.7063843},{"name":"目黒不動入口","province":"東京都","city":"目黒区","address":"東京都目黒区下目黒2丁目24-7","lat":35.62927518,"lon":139.71109241},{"name":"目黒税務署前","province":"東京都","city":"目黒区","address":"東京都目黒区祐天寺2丁目8-12","lat":35.63629903,"lon":139.69416588},{"name":"上目黒三丁目","province":"東京都","city":"目黒区","address":"東京都目黒区青葉台1丁目22-6","lat":35.64599799,"lon":139.69734031},{"name":"駒場町","province":"東京都","city":"目黒区","address":"東京都目黒区駒場2丁目16-4","lat":35.65581597,"lon":139.68286061},{"name":"守屋図書館前","province":"東京都","city":"目黒区","address":"東京都目黒区中央町2丁目1-13","lat":35.63362978,"lon":139.68948578},{"name":"中央町二丁目","province":"東京都","city":"目黒区","address":"東京都目黒区中町2丁目45-8","lat":35.63318267,"lon":139.69189116},{"name":"池尻ランプ前","province":"東京都","city":"目黒区","address":"東京都目黒区大橋1丁目10-1","lat":35.65126102,"lon":139.68642992},{"name":"中目黒駅前","province":"東京都","city":"目黒区","address":"東京都目黒区上目黒1丁目23-1","lat":35.6444149,"lon":139.69964295},{"name":"西郷山下","province":"東京都","city":"目黒区","address":"東京都目黒区青葉台1丁目12-3","lat":35.64866154,"lon":139.69552092},{"name":"青葉台一丁目第二","province":"東京都","city":"目黒区","address":"東京都目黒区青葉台1丁目28-12","lat":35.64744222,"lon":139.69484879},{"name":"上目黒二丁目","province":"東京都","city":"目黒区","address":"東京都目黒区上目黒2丁目10-8","lat":35.64136524,"lon":139.69935419},{"name":"上目黒一丁目","province":"東京都","city":"目黒区","address":"東京都目黒区青葉台1丁目6","lat":35.64784505,"lon":139.69892067},{"name":"東山一丁目","province":"東京都","city":"目黒区","address":"東京都目黒区東山1丁目6-1","lat":35.64630071,"lon":139.69605151},{"name":"西郷山公園前","province":"東京都","city":"目黒区","address":"東京都目黒区青葉台2丁目10","lat":35.65029745,"lon":139.69516256},{"name":"目黒区総合庁舎前","province":"東京都","city":"目黒区","address":"東京都目黒区中目黒3丁目13-22","lat":35.63919604,"lon":139.69918204},{"name":"碑文谷","province":"東京都","city":"目黒区","address":"東京都目黒区碑文谷2丁目21-13","lat":35.62283372,"lon":139.68495871},{"name":"都立大学駅前","province":"東京都","city":"目黒区","address":"東京都目黒区柿の木坂1丁目30-8","lat":35.61855895,"lon":139.67549296},{"name":"柿の木坂","province":"東京都","city":"目黒区","address":"東京都目黒区柿の木坂3丁目8-13","lat":35.6265135,"lon":139.67227909},{"name":"南一丁目","province":"東京都","city":"目黒区","address":"東京都目黒区南1丁目24-10","lat":35.6132738,"lon":139.68706997},{"name":"柿の木坂陸橋下","province":"東京都","city":"目黒区","address":"東京都目黒区平町1丁目1-1","lat":35.62007002,"lon":139.68040916},{"name":"中根一丁目","province":"東京都","city":"目黒区","address":"東京都目黒区中根1丁目5-1","lat":35.61718968,"lon":139.6759513},{"name":"八雲一丁目","province":"東京都","city":"目黒区","address":"東京都目黒区八雲1丁目1-1","lat":35.62149186,"lon":139.67275697},{"name":"八雲小学校入口","province":"東京都","city":"目黒区","address":"東京都目黒区柿の木坂1丁目31-15","lat":35.61941994,"lon":139.6748402},{"name":"大岡山小学校前","province":"東京都","city":"目黒区","address":"東京都目黒区碑文谷3丁目19-8","lat":35.61628445,"lon":139.68343961},{"name":"田向公園入口","province":"東京都","city":"目黒区","address":"東京都目黒区碑文谷2丁目11-22","lat":35.62386141,"lon":139.68676963},{"name":"国立病院東京医療センター正門前","province":"東京都","city":"目黒区","address":"東京都目黒区東が丘2丁目5-1","lat":35.62656333,"lon":139.66598239},{"name":"学芸大学駅入口","province":"東京都","city":"目黒区","address":"東京都目黒区鷹番3丁目1","lat":35.62949961,"lon":139.68583621},{"name":"八雲給水所","province":"東京都","city":"目黒区","address":"東京都目黒区八雲1丁目1","lat":35.62130575,"lon":139.67178483},{"name":"都立林試の森公園","province":"東京都","city":"目黒区","address":"東京都目黒区下目黒5丁目37","lat":35.62487834,"lon":139.70415426},{"name":"北部包括支援センター","province":"東京都","city":"目黒区","address":"目黒区大橋1-51-1クロスエアタワー9階","lat":35.652462,"lon":139.68924},{"name":"東部包括支援センター","province":"東京都","city":"目黒区","address":"目黒区上目黒2-19-15総合庁舎内","lat":35.640465,"lon":139.6987},{"name":"中央包括支援センター","province":"東京都","city":"目黒区","address":"目黒区中央町2-9-13食販ビル2階","lat":35.631126,"lon":139.692123},{"name":"南部包括支援センター","province":"東京都","city":"目黒区","address":"目黒区碑文谷1-18-14碑小学校内南西側","lat":35.618874,"lon":139.690491},{"name":"西部包括支援センター","province":"東京都","city":"目黒区","address":"目黒区柿の木坂1-28-10","lat":35.619823,"lon":139.675735},{"name":"青葉台さくら苑在宅介護支援センター","province":"東京都","city":"目黒区","address":"目黒区青葉台3-21-6青葉台さくら苑内","lat":35.649391,"lon":139.692413},{"name":"清徳会在宅介護支援センター","province":"東京都","city":"目黒区","address":"目黒区目黒本町4-2-1清徳苑内","lat":35.623085,"lon":139.698441},{"name":"目黒区大橋在宅介護支援センター","province":"東京都","city":"目黒区","address":"目黒区大橋2-16-1坂本ビル1階","lat":35.653767,"lon":139.68718},{"name":"目黒区下目黒在宅介護支援センター","province":"東京都","city":"目黒区","address":"目黒区下目黒2-21-16-101","lat":35.634972,"lon":139.709427},{"name":"目黒区日扇会在宅介護支援センター","province":"東京都","city":"目黒区","address":"目黒区中根2-13-18文保堂ビル2階","lat":35.635044,"lon":139.707016},{"name":"東京共済病院在宅介護支援センター","province":"東京都","city":"目黒区","address":"目黒区中目黒2-3-8東京共済病院内","lat":35.641899,"lon":139.703857},{"name":"北部包括支援センター","province":"東京都","city":"目黒区","address":"目黒区大橋1-51-1クロスエアタワー9階","lat":35.652462,"lon":139.68924},{"name":"東部包括支援センター","province":"東京都","city":"目黒区","address":"目黒区上目黒2-19-15総合庁舎内","lat":35.640465,"lon":139.6987},{"name":"中央包括支援センター","province":"東京都","city":"目黒区","address":"目黒区中央町2-9-13食販ビル2階","lat":35.631126,"lon":139.692123},{"name":"南部包括支援センター","province":"東京都","city":"目黒区","address":"目黒区碑文谷1-18-14碑小学校内南西側","lat":35.618874,"lon":139.690491},{"name":"西部包括支援センター","province":"東京都","city":"目黒区","address":"目黒区柿の木坂1-28-10","lat":35.619823,"lon":139.675735},{"name":"青葉台さくら苑在宅介護支援センター","province":"東京都","city":"目黒区","address":"目黒区青葉台3-21-6青葉台さくら苑内","lat":35.649391,"lon":139.692413},{"name":"清徳会在宅介護支援センター","province":"東京都","city":"目黒区","address":"目黒区目黒本町4-2-1清徳苑内","lat":35.623085,"lon":139.698441},{"name":"目黒区大橋在宅介護支援センター","province":"東京都","city":"目黒区","address":"目黒区大橋2-16-1坂本ビル1階","lat":35.653767,"lon":139.68718},{"name":"目黒区下目黒在宅介護支援センター","province":"東京都","city":"目黒区","address":"目黒区下目黒2-21-16-101","lat":35.634972,"lon":139.709427},{"name":"目黒区日扇会在宅介護支援センター","province":"東京都","city":"目黒区","address":"目黒区中根2-13-18文保堂ビル2階","lat":35.635044,"lon":139.707016},{"name":"東京共済病院在宅介護支援センター","province":"東京都","city":"目黒区","address":"目黒区中目黒2-3-8東京共済病院内","lat":35.641899,"lon":139.703857},{"name":"北部包括支援センター","province":"東京都","city":"目黒区","address":"目黒区大橋1-51-1クロスエアタワー9階","lat":35.652462,"lon":139.68924},{"name":"東部包括支援センター","province":"東京都","city":"目黒区","address":"目黒区上目黒2-19-15総合庁舎内","lat":35.640465,"lon":139.6987},{"name":"中央包括支援センター","province":"東京都","city":"目黒区","address":"目黒区中央町2-9-13食販ビル2階","lat":35.631126,"lon":139.692123},{"name":"南部包括支援センター","province":"東京都","city":"目黒区","address":"目黒区碑文谷1-18-14碑小学校内南西側","lat":35.618874,"lon":139.690491},{"name":"西部包括支援センター","province":"東京都","city":"目黒区","address":"目黒区柿の木坂1-28-10","lat":35.619823,"lon":139.675735},{"name":"青葉台さくら苑在宅介護支援センター","province":"東京都","city":"目黒区","address":"目黒区青葉台3-21-6青葉台さくら苑内","lat":35.649391,"lon":139.692413},{"name":"清徳会在宅介護支援センター","province":"東京都","city":"目黒区","address":"目黒区目黒本町4-2-1清徳苑内","lat":35.623085,"lon":139.698441},{"name":"目黒区大橋在宅介護支援センター","province":"東京都","city":"目黒区","address":"目黒区大橋2-16-1坂本ビル1階","lat":35.653767,"lon":139.68718},{"name":"目黒区下目黒在宅介護支援センター","province":"東京都","city":"目黒区","address":"目黒区下目黒2-21-16-101","lat":35.634972,"lon":139.709427},{"name":"目黒区日扇会在宅介護支援センター","province":"東京都","city":"目黒区","address":"目黒区中根2-13-18文保堂ビル2階","lat":35.635044,"lon":139.707016},{"name":"東京共済病院在宅介護支援センター","province":"東京都","city":"目黒区","address":"目黒区中目黒2-3-8東京共済病院内","lat":35.641899,"lon":139.703857},{"name":"北部包括支援センター","province":"東京都","city":"目黒区","address":"目黒区大橋1-51-1クロスエアタワー9階","lat":35.652462,"lon":139.68924},{"name":"東部包括支援センター","province":"東京都","city":"目黒区","address":"目黒区上目黒2-19-15総合庁舎内","lat":35.640465,"lon":139.6987},{"name":"中央包括支援センター","province":"東京都","city":"目黒区","address":"目黒区中央町2-9-13食販ビル2階","lat":35.631126,"lon":139.692123},{"name":"南部包括支援センター","province":"東京都","city":"目黒区","address":"目黒区碑文谷1-18-14碑小学校内南西側","lat":35.618874,"lon":139.690491},{"name":"西部包括支援センター","province":"東京都","city":"目黒区","address":"目黒区柿の木坂1-28-10","lat":35.619823,"lon":139.675735},{"name":"青葉台さくら苑在宅介護支援センター","province":"東京都","city":"目黒区","address":"目黒区青葉台3-21-6青葉台さくら苑内","lat":35.649391,"lon":139.692413},{"name":"清徳会在宅介護支援センター","province":"東京都","city":"目黒区","address":"目黒区目黒本町4-2-1清徳苑内","lat":35.623085,"lon":139.698441},{"name":"目黒区大橋在宅介護支援センター","province":"東京都","city":"目黒区","address":"目黒区大橋2-16-1坂本ビル1階","lat":35.653767,"lon":139.68718},{"name":"目黒区下目黒在宅介護支援センター","province":"東京都","city":"目黒区","address":"目黒区下目黒2-21-16-101","lat":35.634972,"lon":139.709427},{"name":"目黒区日扇会在宅介護支援センター","province":"東京都","city":"目黒区","address":"目黒区中根2-13-18文保堂ビル2階","lat":35.635044,"lon":139.707016},{"name":"東京共済病院在宅介護支援センター","province":"東京都","city":"目黒区","address":"目黒区中目黒2-3-8東京共済病院内","lat":35.641899,"lon":139.703857},{"name":"北部包括支援センター","province":"東京都","city":"目黒区","address":"目黒区大橋1-51-1クロスエアタワー9階","lat":35.652462,"lon":139.68924},{"name":"東部包括支援センター","province":"東京都","city":"目黒区","address":"目黒区上目黒2-19-15総合庁舎内","lat":35.640465,"lon":139.6987},{"name":"中央包括支援センター","province":"東京都","city":"目黒区","address":"目黒区中央町2-9-13食販ビル2階","lat":35.631126,"lon":139.692123},{"name":"南部包括支援センター","province":"東京都","city":"目黒区","address":"目黒区碑文谷1-18-14碑小学校内南西側","lat":35.618874,"lon":139.690491},{"name":"西部包括支援センター","province":"東京都","city":"目黒区","address":"目黒区柿の木坂1-28-10","lat":35.619823,"lon":139.675735},{"name":"青葉台さくら苑在宅介護支援センター","province":"東京都","city":"目黒区","address":"目黒区青葉台3-21-6青葉台さくら苑内","lat":35.649391,"lon":139.692413},{"name":"清徳会在宅介護支援センター","province":"東京都","city":"目黒区","address":"目黒区目黒本町4-2-1清徳苑内","lat":35.623085,"lon":139.698441},{"name":"目黒区大橋在宅介護支援センター","province":"東京都","city":"目黒区","address":"目黒区大橋2-16-1坂本ビル1階","lat":35.653767,"lon":139.68718},{"name":"目黒区下目黒在宅介護支援センター","province":"東京都","city":"目黒区","address":"目黒区下目黒2-21-16-101","lat":35.634972,"lon":139.709427},{"name":"目黒区日扇会在宅介護支援センター","province":"東京都","city":"目黒区","address":"目黒区中根2-13-18文保堂ビル2階","lat":35.635044,"lon":139.707016},{"name":"東京共済病院在宅介護支援センター","province":"東京都","city":"目黒区","address":"目黒区中目黒2-3-8東京共済病院内","lat":35.641899,"lon":139.703857},{"name":"北部包括支援センター","province":"東京都","city":"目黒区","address":"目黒区大橋1-51-1クロスエアタワー9階","lat":35.652462,"lon":139.68924},{"name":"東部包括支援センター","province":"東京都","city":"目黒区","address":"目黒区上目黒2-19-15総合庁舎内","lat":35.640465,"lon":139.6987},{"name":"中央包括支援センター","province":"東京都","city":"目黒区","address":"目黒区中央町2-9-13食販ビル2階","lat":35.631126,"lon":139.692123},{"name":"南部包括支援センター","province":"東京都","city":"目黒区","address":"目黒区碑文谷1-18-14碑小学校内南西側","lat":35.618874,"lon":139.690491},{"name":"西部包括支援センター","province":"東京都","city":"目黒区","address":"目黒区柿の木坂1-28-10","lat":35.619823,"lon":139.675735},{"name":"青葉台さくら苑在宅介護支援センター","province":"東京都","city":"目黒区","address":"目黒区青葉台3-21-6青葉台さくら苑内","lat":35.649391,"lon":139.692413},{"name":"清徳会在宅介護支援センター","province":"東京都","city":"目黒区","address":"目黒区目黒本町4-2-1清徳苑内","lat":35.623085,"lon":139.698441},{"name":"目黒区大橋在宅介護支援センター","province":"東京都","city":"目黒区","address":"目黒区大橋2-16-1坂本ビル1階","lat":35.653767,"lon":139.68718},{"name":"目黒区下目黒在宅介護支援センター","province":"東京都","city":"目黒区","address":"目黒区下目黒2-21-16-101","lat":35.634972,"lon":139.709427},{"name":"目黒区日扇会在宅介護支援センター","province":"東京都","city":"目黒区","address":"目黒区中根2-13-18文保堂ビル2階","lat":35.635044,"lon":139.707016},{"name":"東京共済病院在宅介護支援センター","province":"東京都","city":"目黒区","address":"目黒区中目黒2-3-8東京共済病院内","lat":35.641899,"lon":139.703857},{"name":"北部包括支援センター","province":"東京都","city":"目黒区","address":"目黒区大橋1-51-1クロスエアタワー9階","lat":35.652462,"lon":139.68924},{"name":"東部包括支援センター","province":"東京都","city":"目黒区","address":"目黒区上目黒2-19-15総合庁舎内","lat":35.640465,"lon":139.6987},{"name":"中央包括支援センター","province":"東京都","city":"目黒区","address":"目黒区中央町2-9-13食販ビル2階","lat":35.631126,"lon":139.692123},{"name":"南部包括支援センター","province":"東京都","city":"目黒区","address":"目黒区碑文谷1-18-14碑小学校内南西側","lat":35.618874,"lon":139.690491},{"name":"西部包括支援センター","province":"東京都","city":"目黒区","address":"目黒区柿の木坂1-28-10","lat":35.619823,"lon":139.675735},{"name":"青葉台さくら苑在宅介護支援センター","province":"東京都","city":"目黒区","address":"目黒区青葉台3-21-6青葉台さくら苑内","lat":35.649391,"lon":139.692413},{"name":"清徳会在宅介護支援センター","province":"東京都","city":"目黒区","address":"目黒区目黒本町4-2-1清徳苑内","lat":35.623085,"lon":139.698441},{"name":"目黒区大橋在宅介護支援センター","province":"東京都","city":"目黒区","address":"目黒区大橋2-16-1坂本ビル1階","lat":35.653767,"lon":139.68718},{"name":"目黒区下目黒在宅介護支援センター","province":"東京都","city":"目黒区","address":"目黒区下目黒2-21-16-101","lat":35.634972,"lon":139.709427},{"name":"目黒区日扇会在宅介護支援センター","province":"東京都","city":"目黒区","address":"目黒区中根2-13-18文保堂ビル2階","lat":35.635044,"lon":139.707016},{"name":"東京共済病院在宅介護支援センター","province":"東京都","city":"目黒区","address":"目黒区中目黒2-3-8東京共済病院内","lat":35.641899,"lon":139.703857},{"name":"北部包括支援センター","province":"東京都","city":"目黒区","address":"目黒区大橋1-51-1クロスエアタワー9階","lat":35.652462,"lon":139.68924},{"name":"東部包括支援センター","province":"東京都","city":"目黒区","address":"目黒区上目黒2-19-15総合庁舎内","lat":35.640465,"lon":139.6987},{"name":"中央包括支援センター","province":"東京都","city":"目黒区","address":"目黒区中央町2-9-13食販ビル2階","lat":35.631126,"lon":139.692123},{"name":"南部包括支援センター","province":"東京都","city":"目黒区","address":"目黒区碑文谷1-18-14碑小学校内南西側","lat":35.618874,"lon":139.690491},{"name":"西部包括支援センター","province":"東京都","city":"目黒区","address":"目黒区柿の木坂1-28-10","lat":35.619823,"lon":139.675735},{"name":"青葉台さくら苑在宅介護支援センター","province":"東京都","city":"目黒区","address":"目黒区青葉台3-21-6青葉台さくら苑内","lat":35.649391,"lon":139.692413},{"name":"清徳会在宅介護支援センター","province":"東京都","city":"目黒区","address":"目黒区目黒本町4-2-1清徳苑内","lat":35.623085,"lon":139.698441},{"name":"目黒区大橋在宅介護支援センター","province":"東京都","city":"目黒区","address":"目黒区大橋2-16-1坂本ビル1階","lat":35.653767,"lon":139.68718},{"name":"目黒区下目黒在宅介護支援センター","province":"東京都","city":"目黒区","address":"目黒区下目黒2-21-16-101","lat":35.634972,"lon":139.709427},{"name":"目黒区日扇会在宅介護支援センター","province":"東京都","city":"目黒区","address":"目黒区中根2-13-18文保堂ビル2階","lat":35.635044,"lon":139.707016},{"name":"東京共済病院在宅介護支援センター","province":"東京都","city":"目黒区","address":"目黒区中目黒2-3-8東京共済病院内","lat":35.641899,"lon":139.703857},{"name":"北部包括支援センター","province":"東京都","city":"目黒区","address":"目黒区大橋1-51-1クロスエアタワー9階","lat":35.652462,"lon":139.68924},{"name":"東部包括支援センター","province":"東京都","city":"目黒区","address":"目黒区上目黒2-19-15総合庁舎内","lat":35.640465,"lon":139.6987},{"name":"中央包括支援センター","province":"東京都","city":"目黒区","address":"目黒区中央町2-9-13食販ビル2階","lat":35.631126,"lon":139.692123},{"name":"南部包括支援センター","province":"東京都","city":"目黒区","address":"目黒区碑文谷1-18-14碑小学校内南西側","lat":35.618874,"lon":139.690491},{"name":"西部包括支援センター","province":"東京都","city":"目黒区","address":"目黒区柿の木坂1-28-10","lat":35.619823,"lon":139.675735},{"name":"青葉台さくら苑在宅介護支援センター","province":"東京都","city":"目黒区","address":"目黒区青葉台3-21-6青葉台さくら苑内","lat":35.649391,"lon":139.692413},{"name":"清徳会在宅介護支援センター","province":"東京都","city":"目黒区","address":"目黒区目黒本町4-2-1清徳苑内","lat":35.623085,"lon":139.698441},{"name":"目黒区大橋在宅介護支援センター","province":"東京都","city":"目黒区","address":"目黒区大橋2-16-1坂本ビル1階","lat":35.653767,"lon":139.68718},{"name":"目黒区下目黒在宅介護支援センター","province":"東京都","city":"目黒区","address":"目黒区下目黒2-21-16-101","lat":35.634972,"lon":139.709427},{"name":"目黒区日扇会在宅介護支援センター","province":"東京都","city":"目黒区","address":"目黒区中根2-13-18文保堂ビル2階","lat":35.635044,"lon":139.707016},{"name":"東京共済病院在宅介護支援センター","province":"東京都","city":"目黒区","address":"目黒区中目黒2-3-8東京共済病院内","lat":35.641899,"lon":139.703857},{"name":"北部包括支援センター","province":"東京都","city":"目黒区","address":"目黒区大橋1-51-1クロスエアタワー9階","lat":35.652462,"lon":139.68924},{"name":"東部包括支援センター","province":"東京都","city":"目黒区","address":"目黒区上目黒2-19-15総合庁舎内","lat":35.640465,"lon":139.6987},{"name":"中央包括支援センター","province":"東京都","city":"目黒区","address":"目黒区中央町2-9-13食販ビル2階","lat":35.631126,"lon":139.692123},{"name":"南部包括支援センター","province":"東京都","city":"目黒区","address":"目黒区碑文谷1-18-14碑小学校内南西側","lat":35.618874,"lon":139.690491},{"name":"西部包括支援センター","province":"東京都","city":"目黒区","address":"目黒区柿の木坂1-28-10","lat":35.619823,"lon":139.675735},{"name":"青葉台さくら苑在宅介護支援センター","province":"東京都","city":"目黒区","address":"目黒区青葉台3-21-6青葉台さくら苑内","lat":35.649391,"lon":139.692413},{"name":"清徳会在宅介護支援センター","province":"東京都","city":"目黒区","address":"目黒区目黒本町4-2-1清徳苑内","lat":35.623085,"lon":139.698441},{"name":"目黒区大橋在宅介護支援センター","province":"東京都","city":"目黒区","address":"目黒区大橋2-16-1坂本ビル1階","lat":35.653767,"lon":139.68718},{"name":"目黒区下目黒在宅介護支援センター","province":"東京都","city":"目黒区","address":"目黒区下目黒2-21-16-101","lat":35.634972,"lon":139.709427},{"name":"目黒区日扇会在宅介護支援センター","province":"東京都","city":"目黒区","address":"目黒区中根2-13-18文保堂ビル2階","lat":35.635044,"lon":139.707016},{"name":"東京共済病院在宅介護支援センター","province":"東京都","city":"目黒区","address":"目黒区中目黒2-3-8東京共済病院内","lat":35.641899,"lon":139.703857},{"name":"北部包括支援センター","province":"東京都","city":"目黒区","address":"目黒区大橋1-51-1クロスエアタワー9階","lat":35.652462,"lon":139.68924},{"name":"東部包括支援センター","province":"東京都","city":"目黒区","address":"目黒区上目黒2-19-15総合庁舎内","lat":35.640465,"lon":139.6987},{"name":"中央包括支援センター","province":"東京都","city":"目黒区","address":"目黒区中央町2-9-13食販ビル2階","lat":35.631126,"lon":139.692123},{"name":"南部包括支援センター","province":"東京都","city":"目黒区","address":"目黒区碑文谷1-18-14碑小学校内南西側","lat":35.618874,"lon":139.690491},{"name":"西部包括支援センター","province":"東京都","city":"目黒区","address":"目黒区柿の木坂1-28-10","lat":35.619823,"lon":139.675735},{"name":"青葉台さくら苑在宅介護支援センター","province":"東京都","city":"目黒区","address":"目黒区青葉台3-21-6青葉台さくら苑内","lat":35.649391,"lon":139.692413},{"name":"清徳会在宅介護支援センター","province":"東京都","city":"目黒区","address":"目黒区目黒本町4-2-1清徳苑内","lat":35.623085,"lon":139.698441},{"name":"目黒区大橋在宅介護支援センター","province":"東京都","city":"目黒区","address":"目黒区大橋2-16-1坂本ビル1階","lat":35.653767,"lon":139.68718},{"name":"目黒区下目黒在宅介護支援センター","province":"東京都","city":"目黒区","address":"目黒区下目黒2-21-16-101","lat":35.634972,"lon":139.709427},{"name":"目黒区日扇会在宅介護支援センター","province":"東京都","city":"目黒区","address":"目黒区中根2-13-18文保堂ビル2階","lat":35.635044,"lon":139.707016},{"name":"東京共済病院在宅介護支援センター","province":"東京都","city":"目黒区","address":"目黒区中目黒2-3-8東京共済病院内","lat":35.641899,"lon":139.703857},{"name":"北部包括支援センター","province":"東京都","city":"目黒区","address":"目黒区大橋1-51-1クロスエアタワー9階","lat":35.652462,"lon":139.68924},{"name":"東部包括支援センター","province":"東京都","city":"目黒区","address":"目黒区上目黒2-19-15総合庁舎内","lat":35.640465,"lon":139.6987},{"name":"中央包括支援センター","province":"東京都","city":"目黒区","address":"目黒区中央町2-9-13食販ビル2階","lat":35.631126,"lon":139.692123},{"name":"南部包括支援センター","province":"東京都","city":"目黒区","address":"目黒区碑文谷1-18-14碑小学校内南西側","lat":35.618874,"lon":139.690491},{"name":"西部包括支援センター","province":"東京都","city":"目黒区","address":"目黒区柿の木坂1-28-10","lat":35.619823,"lon":139.675735},{"name":"青葉台さくら苑在宅介護支援センター","province":"東京都","city":"目黒区","address":"目黒区青葉台3-21-6青葉台さくら苑内","lat":35.649391,"lon":139.692413},{"name":"清徳会在宅介護支援センター","province":"東京都","city":"目黒区","address":"目黒区目黒本町4-2-1清徳苑内","lat":35.623085,"lon":139.698441},{"name":"目黒区大橋在宅介護支援センター","province":"東京都","city":"目黒区","address":"目黒区大橋2-16-1坂本ビル1階","lat":35.653767,"lon":139.68718},{"name":"目黒区下目黒在宅介護支援センター","province":"東京都","city":"目黒区","address":"目黒区下目黒2-21-16-101","lat":35.634972,"lon":139.709427},{"name":"目黒区日扇会在宅介護支援センター","province":"東京都","city":"目黒区","address":"目黒区中根2-13-18文保堂ビル2階","lat":35.635044,"lon":139.707016},{"name":"東京共済病院在宅介護支援センター","province":"東京都","city":"目黒区","address":"目黒区中目黒2-3-8東京共済病院内","lat":35.641899,"lon":139.703857},{"name":"北部包括支援センター","province":"東京都","city":"目黒区","address":"目黒区大橋1-51-1クロスエアタワー9階","lat":35.652462,"lon":139.68924},{"name":"東部包括支援センター","province":"東京都","city":"目黒区","address":"目黒区上目黒2-19-15総合庁舎内","lat":35.640465,"lon":139.6987},{"name":"中央包括支援センター","province":"東京都","city":"目黒区","address":"目黒区中央町2-9-13食販ビル2階","lat":35.631126,"lon":139.692123},{"name":"南部包括支援センター","province":"東京都","city":"目黒区","address":"目黒区碑文谷1-18-14碑小学校内南西側","lat":35.618874,"lon":139.690491},{"name":"西部包括支援センター","province":"東京都","city":"目黒区","address":"目黒区柿の木坂1-28-10","lat":35.619823,"lon":139.675735},{"name":"青葉台さくら苑在宅介護支援センター","province":"東京都","city":"目黒区","address":"目黒区青葉台3-21-6青葉台さくら苑内","lat":35.649391,"lon":139.692413},{"name":"清徳会在宅介護支援センター","province":"東京都","city":"目黒区","address":"目黒区目黒本町4-2-1清徳苑内","lat":35.623085,"lon":139.698441},{"name":"目黒区大橋在宅介護支援センター","province":"東京都","city":"目黒区","address":"目黒区大橋2-16-1坂本ビル1階","lat":35.653767,"lon":139.68718},{"name":"目黒区下目黒在宅介護支援センター","province":"東京都","city":"目黒区","address":"目黒区下目黒2-21-16-101","lat":35.634972,"lon":139.709427},{"name":"目黒区日扇会在宅介護支援センター","province":"東京都","city":"目黒区","address":"目黒区中根2-13-18文保堂ビル2階","lat":35.635044,"lon":139.707016},{"name":"東京共済病院在宅介護支援センター","province":"東京都","city":"目黒区","address":"目黒区中目黒2-3-8東京共済病院内","lat":35.641899,"lon":139.703857}]}