{"keyword":"自転車","data":[{"name":"駒場東大前西口駐輪場","province":"東京都","city":"目黒区","address":"東京都目黒区駒場2丁目7-1","lat":35.65894061,"lon":139.68226888},{"name":"駒場東大前東大口駐輪場","province":"東京都","city":"目黒区","address":"東京都目黒区駒場3丁目8-1","lat":35.65931564,"lon":139.68524362},{"name":"池尻大橋駅北口駐輪場","province":"東京都","city":"目黒区","address":"東京都目黒区大橋2丁目24-11","lat":35.65143874,"lon":139.68503836},{"name":"祐天寺駅西口第一駐輪場","province":"東京都","city":"目黒区","address":"東京都目黒区五本木1丁目33-8","lat":35.63739048,"lon":139.69029671},{"name":"祐天寺駅南高架下駐輪場","province":"東京都","city":"目黒区","address":"東京都目黒区五本木1丁目32-20","lat":35.63589064,"lon":139.68965515},{"name":"学芸大学駅東口駐輪場","province":"東京都","city":"目黒区","address":"東京都目黒区鷹番2丁目19-15","lat":35.6284303,"lon":139.68599734},{"name":"学芸大学駅西口第一駐輪場","province":"東京都","city":"目黒区","address":"東京都目黒区鷹番3丁目7-4","lat":35.62952182,"lon":139.68485296},{"name":"学芸大学駅西口第二駐輪場","province":"東京都","city":"目黒区","address":"東京都目黒区鷹番3丁目17-20","lat":35.6282247,"lon":139.68315869},{"name":"中根一丁目駐輪場","province":"東京都","city":"目黒区","address":"東京都目黒区中根1丁目2-16","lat":35.618309,"lon":139.67619013},{"name":"自由が丘駅南口駐輪場","province":"東京都","city":"目黒区","address":"東京都目黒区自由が丘2丁目13-9","lat":35.60675176,"lon":139.66759683},{"name":"洗足二丁目駐輪場","province":"東京都","city":"目黒区","address":"東京都目黒区洗足2丁目18-11","lat":35.61054929,"lon":139.69329177}]}