{"keyword":"葬儀","data":[{"name":"株式会社　あおば葬祭","province":"東京都","city":"目黒区","address":"東京都目黒区下目黒5丁目7-1","lat":35.62943615,"lon":139.70472908},{"name":"勝山葬祭　株式会社","province":"東京都","city":"目黒区","address":"東京都目黒区洗足2丁目21-17","lat":35.61003269,"lon":139.69382229},{"name":"葬祭総合センター　株式会社　門脇","province":"東京都","city":"目黒区","address":"東京都目黒区目黒本町4丁目14-14","lat":35.62328667,"lon":139.69439958},{"name":"株式会社　式典","province":"東京都","city":"目黒区","address":"東京都目黒区平町1丁目26-20","lat":35.61782019,"lon":139.6768262},{"name":"すみやセレモニー　株式会社","province":"東京都","city":"目黒区","address":"東京都目黒区祐天寺2丁目10-3","lat":35.63682115,"lon":139.69230491},{"name":"東京式典　株式会社","province":"東京都","city":"目黒区","address":"東京都目黒区鷹番3丁目8-6","lat":35.62931629,"lon":139.68532237},{"name":"株式会社　花会","province":"東京都","city":"目黒区","address":"東京都目黒区碑文谷1丁目5-1","lat":35.61927878,"lon":139.69272762},{"name":"有限会社　花心","province":"東京都","city":"目黒区","address":"東京都目黒区柿の木坂1丁目34-15","lat":35.62170576,"lon":139.67397075},{"name":"有限会社　横山葬祭","province":"東京都","city":"目黒区","address":"東京都目黒区五本木2丁目20-3","lat":35.63450191,"lon":139.68991628},{"name":"有限会社　吉田葬儀社","province":"東京都","city":"目黒区","address":"東京都目黒区原町1丁目12-6","lat":35.61546269,"lon":139.69711628}]}