{"keyword":"認可","data":[{"name":"みらいく鷹番園","province":"東京都","city":"目黒区","address":"目黒区中央町1-19-9","lat":35.62805,"lon":139.69066},{"name":"中央町保育園","province":"東京都","city":"目黒区","address":"目黒区中央町2-30-7","lat":35.63203,"lon":139.68837},{"name":"目黒かえで保育園","province":"東京都","city":"目黒区","address":"目黒区中央町2-32-22","lat":35.63137,"lon":139.68837},{"name":"まなびの森保育園学芸大学前","province":"東京都","city":"目黒区","address":"目黒区目黒本町1-16-17","lat":35.62682,"lon":139.69431},{"name":"目黒本町保育園","province":"東京都","city":"目黒区","address":"目黒区目黒本町2-1-20","lat":35.62535,"lon":139.69501},{"name":"アンジェリカ目黒本町保育園","province":"東京都","city":"目黒区","address":"目黒区目黒本町3-16-2","lat":35.62288,"lon":139.69911},{"name":"第二ひもんや保育園","province":"東京都","city":"目黒区","address":"目黒区目黒本町二丁目25番14号","lat":35.62331,"lon":139.69006},{"name":"ここいく保育園碑文谷","province":"東京都","city":"目黒区","address":"目黒区碑文谷2-8-2","lat":35.62285,"lon":139.68816},{"name":"ひもんや保育園","province":"東京都","city":"目黒区","address":"目黒区碑文谷2-8-9","lat":35.62285,"lon":139.68816},{"name":"さくらさくみらい　碑文谷","province":"東京都","city":"目黒区","address":"目黒区碑文谷5-10-11","lat":35.62425,"lon":139.68343},{"name":"第三ひもんや保育園","province":"東京都","city":"目黒区","address":"目黒区碑文谷5-15-19","lat":35.62133,"lon":139.68105},{"name":"目黒碑文谷雲母保育園","province":"東京都","city":"目黒区","address":"目黒区碑文谷5-26-14","lat":35.62414,"lon":139.6795},{"name":"碑文谷もみじの森保育園","province":"東京都","city":"目黒区","address":"目黒区碑文谷6-13-1","lat":35.6263,"lon":139.68004},{"name":"アソシエ学芸大学東保育園","province":"東京都","city":"目黒区","address":"目黒区鷹番1-1-15","lat":35.6269,"lon":139.69135},{"name":"アソシエ学芸大学南保育園","province":"東京都","city":"目黒区","address":"目黒区鷹番1-15-19","lat":35.62552,"lon":139.68556},{"name":"鷹番保育園","province":"東京都","city":"目黒区","address":"目黒区鷹番2-16-15","lat":35.62847,"lon":139.6873},{"name":"さくらさくみらい　鷹番","province":"東京都","city":"目黒区","address":"目黒区鷹番3-24-1","lat":35.62907,"lon":139.68135},{"name":"さくらさくみらい　学芸大","province":"東京都","city":"目黒区","address":"目黒区鷹番3-4-17","lat":35.6273,"lon":139.68539},{"name":"蓮美幼児学園西小山ナーサリー","province":"東京都","city":"目黒区","address":"目黒区原町1-14-20","lat":35.6162,"lon":139.6964},{"name":"原町保育園","province":"東京都","city":"目黒区","address":"目黒区原町1-20-16","lat":35.61781,"lon":139.69519},{"name":"西小山すみれ保育園","province":"東京都","city":"目黒区","address":"目黒区原町1-3-16","lat":35.61683,"lon":139.69714},{"name":"にじいろ保育園原町","province":"東京都","city":"目黒区","address":"目黒区原町1-5-5","lat":35.61629,"lon":139.6978},{"name":"ポピンズナーサリースクール洗足","province":"東京都","city":"目黒区","address":"目黒区洗足2-27-16","lat":35.60928,"lon":139.6949},{"name":"南保育園","province":"東京都","city":"目黒区","address":"目黒区南1-18-30","lat":35.61332,"lon":139.68907},{"name":"グローバルキッズ大岡山園","province":"東京都","city":"目黒区","address":"目黒区南1-22-9","lat":35.61428,"lon":139.68782},{"name":"ピュアリー目黒南保育園","province":"東京都","city":"目黒区","address":"目黒区南2-10-3","lat":35.61586,"lon":139.68593},{"name":"東が丘保育園","province":"東京都","city":"目黒区","address":"目黒区東が丘1-1-1","lat":35.62944,"lon":139.67168},{"name":"アイグラン保育園東が丘","province":"東京都","city":"目黒区","address":"目黒区東が丘1-17-24","lat":35.62707,"lon":139.66925},{"name":"にじいろ保育園東が丘","province":"東京都","city":"目黒区","address":"目黒区東が丘1-29-22","lat":35.63031,"lon":139.66693},{"name":"ウィズブック保育園東が丘","province":"東京都","city":"目黒区","address":"目黒区東が丘2-8-5","lat":35.63071,"lon":139.6638},{"name":"アソシエ柿の木坂マミー保育園","province":"東京都","city":"目黒区","address":"目黒区柿の木坂1-31-14","lat":35.61917,"lon":139.67503},{"name":"スクルドエンジェル保育園柿の木坂園","province":"東京都","city":"目黒区","address":"目黒区柿の木坂1-33-18","lat":35.62102,"lon":139.67458},{"name":"アソシエ柿の木坂保育園","province":"東京都","city":"目黒区","address":"目黒区柿の木坂2-14-4","lat":35.62472,"lon":139.67625},{"name":"アソシエ八雲ママン保育園","province":"東京都","city":"目黒区","address":"目黒区八雲2-18-19","lat":35.62067,"lon":139.66913},{"name":"八雲保育園","province":"東京都","city":"目黒区","address":"目黒区八雲3-10-18","lat":35.61562,"lon":139.66858},{"name":"アスクやくも保育園","province":"東京都","city":"目黒区","address":"目黒区八雲3-12-10","lat":35.61445,"lon":139.66702},{"name":"にじいろ保育園八雲","province":"東京都","city":"目黒区","address":"目黒区八雲3-24-11","lat":35.61432,"lon":139.66589},{"name":"ナーサリールームベリーベアー八雲","province":"東京都","city":"目黒区","address":"目黒区八雲3-32-2","lat":35.61628,"lon":139.66449},{"name":"アソシエ都立大学保育園","province":"東京都","city":"目黒区","address":"目黒区平町1-19-14","lat":35.61866,"lon":139.67862},{"name":"ポピンズナーサリースクール都立大学","province":"東京都","city":"目黒区","address":"目黒区平町1-25-21","lat":35.61703,"lon":139.6768},{"name":"さくらさくみらい　都立大","province":"東京都","city":"目黒区","address":"目黒区平町二丁目2番20号","lat":35.61597,"lon":139.68216},{"name":"大岡山保育園","province":"東京都","city":"目黒区","address":"目黒区大岡山1-36-10","lat":35.61042,"lon":139.68015},{"name":"モニカ都立大園","province":"東京都","city":"目黒区","address":"目黒区緑が丘1-2-14","lat":35.61177,"lon":139.67824},{"name":"いいほいくえん自由が丘","province":"東京都","city":"目黒区","address":"目黒区緑が丘2-16-11","lat":35.6082,"lon":139.67239},{"name":"緑丘保育園","province":"東京都","city":"目黒区","address":"目黒区緑が丘2-16-6","lat":35.6082,"lon":139.67239},{"name":"にじいろ保育園自由が丘","province":"東京都","city":"目黒区","address":"目黒区自由が丘1-2-13","lat":35.61054,"lon":139.6713},{"name":"アソシエ自由が丘保育園","province":"東京都","city":"目黒区","address":"目黒区自由が丘2-18-12","lat":35.60981,"lon":139.66611},{"name":"にじいろ保育園自由が丘目黒通り","province":"東京都","city":"目黒区","address":"目黒区自由が丘2-23-13","lat":35.6135,"lon":139.66599},{"name":"駒場保育園","province":"東京都","city":"目黒区","address":"目黒区駒場1-22-1","lat":35.65659,"lon":139.68637},{"name":"ＢｕｎＢｕ学院Ｊｒ．中目黒園","province":"東京都","city":"目黒区","address":"目黒区青葉台1-15-14","lat":35.64785,"lon":139.6969},{"name":"菅刈保育園","province":"東京都","city":"目黒区","address":"目黒区青葉台2-10-27","lat":35.6507,"lon":139.69528},{"name":"目黒東山ちとせ保育園","province":"東京都","city":"目黒区","address":"目黒区東山2-10-17","lat":35.64779,"lon":139.69064},{"name":"双葉の園ひがしやま保育園","province":"東京都","city":"目黒区","address":"目黒区東山2-20-16","lat":35.64606,"lon":139.68716},{"name":"野のゆり保育園","province":"東京都","city":"目黒区","address":"目黒区大橋2-15-12","lat":35.65349,"lon":139.68855},{"name":"双葉の園保育園","province":"東京都","city":"目黒区","address":"目黒区大橋2-16-6","lat":35.65339,"lon":139.687},{"name":"のぞみ保育園","province":"東京都","city":"目黒区","address":"目黒区大橋2-19-1","lat":35.65539,"lon":139.68199},{"name":"アソシエ大橋保育園","province":"東京都","city":"目黒区","address":"目黒区大橋2-22-42","lat":35.65208,"lon":139.68553},{"name":"キッズハウス池尻大橋","province":"東京都","city":"目黒区","address":"目黒区大橋2-3-5","lat":35.65383,"lon":139.68941},{"name":"中目黒駅前保育園","province":"東京都","city":"目黒区","address":"目黒区上目黒1-26-1","lat":35.64379,"lon":139.70041},{"name":"中目黒ちとせ保育園","province":"東京都","city":"目黒区","address":"目黒区上目黒2-10-9","lat":35.64169,"lon":139.6991},{"name":"第二上目黒保育園","province":"東京都","city":"目黒区","address":"目黒区上目黒2-15-8","lat":35.64235,"lon":139.69746},{"name":"上目黒桜祐保育園","province":"東京都","city":"目黒区","address":"目黒区上目黒3ー39-20","lat":35.64309,"lon":139.69244},{"name":"桑の実中目黒保育園","province":"東京都","city":"目黒区","address":"目黒区上目黒3-37-24","lat":35.64416,"lon":139.69273},{"name":"キッズガーデン上目黒","province":"東京都","city":"目黒区","address":"目黒区上目黒5-19-33","lat":35.6424,"lon":139.68794},{"name":"コビープリスクールかみめぐろ","province":"東京都","city":"目黒区","address":"目黒区上目黒5-5-8","lat":35.6443,"lon":139.68968},{"name":"祐天寺保育園","province":"東京都","city":"目黒区","address":"目黒区祐天寺1-10-9","lat":35.63942,"lon":139.6949},{"name":"ちゃいれっく祐天寺駅前保育園","province":"東京都","city":"目黒区","address":"目黒区祐天寺2-11-10","lat":35.63668,"lon":139.69188},{"name":"アスク上目黒保育園","province":"東京都","city":"目黒区","address":"目黒区五本木1-12-13","lat":35.63841,"lon":139.69028},{"name":"ＡＩＡＩ　ＮＵＲＳＥＲＹ　祐天寺","province":"東京都","city":"目黒区","address":"目黒区五本木1-26-2","lat":35.63757,"lon":139.68823},{"name":"蓮美幼児学園祐天寺ナーサリー","province":"東京都","city":"目黒区","address":"目黒区五本木1-31-15","lat":35.63769,"lon":139.69054},{"name":"アソシエ祐天寺西保育園","province":"東京都","city":"目黒区","address":"目黒区五本木1-40-11","lat":35.63671,"lon":139.68735},{"name":"くれよん保育園","province":"東京都","city":"目黒区","address":"目黒区五本木2-15-9","lat":35.63535,"lon":139.69223},{"name":"しいのき保育園","province":"東京都","city":"目黒区","address":"目黒区五本木2-20-20","lat":35.63425,"lon":139.68958},{"name":"にじいろ保育園学芸大学","province":"東京都","city":"目黒区","address":"目黒区五本木3-13-3","lat":35.63232,"lon":139.68298},{"name":"桜のこみち保育園","province":"東京都","city":"目黒区","address":"目黒区中目黒2-6-20","lat":35.6384,"lon":139.70532},{"name":"キッズガーデン中目黒","province":"東京都","city":"目黒区","address":"目黒区中目黒3-5-8","lat":35.63992,"lon":139.70212},{"name":"中目黒どろんこ保育園","province":"東京都","city":"目黒区","address":"目黒区中目黒5-7-4","lat":35.63565,"lon":139.70189},{"name":"目黒三田保育園キミトミライト","province":"東京都","city":"目黒区","address":"目黒区三田一丁目11番26号","lat":35.64137,"lon":139.71242},{"name":"目黒保育園","province":"東京都","city":"目黒区","address":"目黒区目黒1-7-16","lat":35.63561,"lon":139.71147},{"name":"アソシエ目黒おおとり保育園","province":"東京都","city":"目黒区","address":"目黒区目黒3-11-3","lat":35.63208,"lon":139.70647},{"name":"キッズガーデン目黒三丁目","province":"東京都","city":"目黒区","address":"目黒区目黒3-1-3","lat":35.63533,"lon":139.70615},{"name":"田道保育園","province":"東京都","city":"目黒区","address":"目黒区目黒3-4-4","lat":35.63459,"lon":139.70592},{"name":"さくらさくみらい　目黒","province":"東京都","city":"目黒区","address":"目黒区目黒3-6-19","lat":35.63369,"lon":139.70625},{"name":"アソシエ下目黒保育園","province":"東京都","city":"目黒区","address":"目黒区下目黒2-19-32F","lat":35.63231,"lon":139.71004},{"name":"アンジェリカ下目黒２丁目保育園","province":"東京都","city":"目黒区","address":"目黒区下目黒2-2-2","lat":35.63191,"lon":139.71098},{"name":"まなびの森保育園目黒","province":"東京都","city":"目黒区","address":"目黒区下目黒2-24-122F","lat":35.62969,"lon":139.71095},{"name":"さくらさくみらい　下目黒","province":"東京都","city":"目黒区","address":"目黒区下目黒3-17-2","lat":35.62725,"lon":139.70822},{"name":"みらいく下目黒園","province":"東京都","city":"目黒区","address":"目黒区下目黒3-6-6","lat":35.62967,"lon":139.70992},{"name":"アソシエ不動保育園","province":"東京都","city":"目黒区","address":"目黒区下目黒4-11-11","lat":35.631,"lon":139.70418},{"name":"グローバルキッズ目黒園","province":"東京都","city":"目黒区","address":"目黒区下目黒4-7-2","lat":35.63067,"lon":139.70624},{"name":"不動保育園","province":"東京都","city":"目黒区","address":"目黒区下目黒6-11-20","lat":35.62682,"lon":139.69952},{"name":"アンジェリカ下目黒６丁目保育園","province":"東京都","city":"目黒区","address":"目黒区下目黒6-15-18","lat":35.62923,"lon":139.69882},{"name":"ゆらりん下目黒保育園","province":"東京都","city":"目黒区","address":"目黒区下目黒6-18-11","lat":35.62849,"lon":139.69673},{"name":"アソシエ油面公園保育園","province":"東京都","city":"目黒区","address":"目黒区中町1-16-21","lat":35.63205,"lon":139.69643},{"name":"油面ちとせ保育園","province":"東京都","city":"目黒区","address":"目黒区中町1-5-5","lat":35.63211,"lon":139.69873},{"name":"中町保育園","province":"東京都","city":"目黒区","address":"目黒区中町2-37-15","lat":35.63432,"lon":139.69386},{"name":"夢花保育園","province":"東京都","city":"目黒区","address":"目黒区中町2-46-14","lat":35.6334,"lon":139.69093},{"name":"あい保育園東が丘","province":"東京都","city":"目黒区","address":"目黒区東が丘1-17-24","lat":35.62707,"lon":139.66925},{"name":"ＡＩＡＩ ＮＵＲＳＥＲＹ 祐天寺","province":"東京都","city":"目黒区","address":"目黒区五本木1-26-2","lat":35.63757,"lon":139.68823},{"name":"さくらさくみらい碑文谷","province":"東京都","city":"目黒区","address":"目黒区碑文谷5-10-11","lat":35.62425,"lon":139.68343},{"name":"さくらさくみらい学芸大","province":"東京都","city":"目黒区","address":"目黒区鷹番3-4-17","lat":35.6273,"lon":139.68539},{"name":"さくらさくみらい鷹番","province":"東京都","city":"目黒区","address":"目黒区鷹番3-24-1","lat":35.62907,"lon":139.68135},{"name":"スクルドエンジェル保育園柿の木坂","province":"東京都","city":"目黒区","address":"目黒区柿の木坂1-33-18","lat":35.62102,"lon":139.67458},{"name":"双葉の園ひがしやま保育園","province":"東京都","city":"目黒区","address":"目黒区東山2-20-16","lat":35.64779,"lon":139.69064},{"name":"キッズハウス池尻大橋保育園","province":"東京都","city":"目黒区","address":"目黒区大橋2-3-5","lat":35.65383,"lon":139.68941},{"name":"さくらさくみらい目黒","province":"東京都","city":"目黒区","address":"目黒区目黒3-6-19","lat":35.63369,"lon":139.70625},{"name":"あい・あい保育園　祐天寺園","province":"東京都","city":"目黒区","address":"目黒区五本木1-26-2","lat":35.63757,"lon":139.68823},{"name":"碑文谷もみじの森保育園","province":"東京都","city":"目黒区","address":"目黒区碑文谷6-13-1","lat":35.62631,"lon":139.68004},{"name":"にじいろ保育園原町","province":"東京都","city":"目黒区","address":"目黒区原町1-5-5","lat":35.6163,"lon":139.6978},{"name":"グローバルキッズ大岡山園","province":"東京都","city":"目黒区","address":"目黒区南1-22-9","lat":35.61429,"lon":139.68782},{"name":"アソシエ柿の木坂マミー保育園","province":"東京都","city":"目黒区","address":"目黒区柿の木坂1-31-14","lat":35.61918,"lon":139.67503},{"name":"ポピンズナーサリースクール都立大学","province":"東京都","city":"目黒区","address":"目黒区平町1-25-21","lat":35.61704,"lon":139.6768},{"name":"桑の実中目黒保育園","province":"東京都","city":"目黒区","address":"目黒区上目黒3-37-24","lat":35.63459,"lon":139.70592},{"name":"キッズガーデン上目黒","province":"東京都","city":"目黒区","address":"目黒区上目黒5-19-33","lat":35.6338,"lon":139.70535},{"name":"不動保育園","province":"東京都","city":"目黒区","address":"目黒区下目黒6-11-20","lat":35.63613,"lon":139.71094},{"name":"ゆらりん下目黒保育園","province":"東京都","city":"目黒区","address":"目黒区下目黒6-18-11","lat":35.63609,"lon":139.71094}]}