{"keyword":"認証","data":[{"name":"エデュケアセンター・めぐろ","province":"東京都","city":"目黒区","address":"東京都目黒区東山3-10-7","lat":35.64886444,"lon":139.688951},{"name":"モンテッソーリ学芸大学子どもの家","province":"東京都","city":"目黒区","address":"東京都目黒区鷹番2-2-10","lat":35.62982345,"lon":139.6889288},{"name":"ゆらりん自由が丘保育園","province":"東京都","city":"目黒区","address":"東京都目黒区自由が丘1-25-20","lat":35.60979271,"lon":139.6693197},{"name":"東大駒場地区保育所","province":"東京都","city":"目黒区","address":"東京都目黒区駒場3-8-1","lat":35.660009,"lon":139.684969},{"name":"アンジェリカ保育園中目黒園","province":"東京都","city":"目黒区","address":"東京都目黒区上目黒2-44-23","lat":35.64197046,"lon":139.6967388},{"name":"たけのこ保育園","province":"東京都","city":"目黒区","address":"東京都目黒区自由が丘1-3-17","lat":35.60877102,"lon":139.6705908},{"name":"共同保育所コロちゃんの家","province":"東京都","city":"目黒区","address":"東京都目黒区目黒本町3-12-15","lat":35.62358626,"lon":139.7010697},{"name":"ニコニコ保育園","province":"東京都","city":"目黒区","address":"東京都目黒区中町1-39-7","lat":35.62970886,"lon":139.6946919},{"name":"マグハウス都立大学","province":"東京都","city":"目黒区","address":"東京都目黒区中根2-11-4","lat":35.61521468,"lon":139.6771135}]}