{"keyword":"連絡","data":[{"name":"北部包括支援センター","province":"東京都","city":"目黒区","address":"目黒区大橋1-51-1クロスエアタワー9階","lat":35.652462,"lon":139.68924},{"name":"東部包括支援センター","province":"東京都","city":"目黒区","address":"目黒区上目黒2-19-15総合庁舎内","lat":35.640465,"lon":139.6987},{"name":"中央包括支援センター","province":"東京都","city":"目黒区","address":"目黒区中央町2-9-13食販ビル2階","lat":35.631126,"lon":139.692123},{"name":"南部包括支援センター","province":"東京都","city":"目黒区","address":"目黒区碑文谷1-18-14碑小学校内南西側","lat":35.618874,"lon":139.690491},{"name":"西部包括支援センター","province":"東京都","city":"目黒区","address":"目黒区柿の木坂1-28-10","lat":35.619823,"lon":139.675735},{"name":"青葉台さくら苑在宅介護支援センター","province":"東京都","city":"目黒区","address":"目黒区青葉台3-21-6青葉台さくら苑内","lat":35.649391,"lon":139.692413},{"name":"清徳会在宅介護支援センター","province":"東京都","city":"目黒区","address":"目黒区目黒本町4-2-1清徳苑内","lat":35.623085,"lon":139.698441},{"name":"目黒区大橋在宅介護支援センター","province":"東京都","city":"目黒区","address":"目黒区大橋2-16-1坂本ビル1階","lat":35.653767,"lon":139.68718},{"name":"目黒区下目黒在宅介護支援センター","province":"東京都","city":"目黒区","address":"目黒区下目黒2-21-16-101","lat":35.634972,"lon":139.709427},{"name":"目黒区日扇会在宅介護支援センター","province":"東京都","city":"目黒区","address":"目黒区中根2-13-18文保堂ビル2階","lat":35.635044,"lon":139.707016},{"name":"東京共済病院在宅介護支援センター","province":"東京都","city":"目黒区","address":"目黒区中目黒2-3-8東京共済病院内","lat":35.641899,"lon":139.703857}]}