{"keyword":"避難","data":[{"name":"都立国際高校","province":"東京都","city":"目黒区","address":"東京都目黒区駒場2-19-59","lat":35.659293,"lon":139.678891},{"name":"駒場小学校","province":"東京都","city":"目黒区","address":"東京都目黒区駒場3-11-13","lat":35.65986,"lon":139.681936},{"name":"第一中学校","province":"東京都","city":"目黒区","address":"東京都目黒区大橋2-11-1","lat":35.654667,"lon":139.686633},{"name":"都立駒場高校","province":"東京都","city":"目黒区","address":"東京都目黒区大橋2-18-1","lat":35.654991,"lon":139.685451},{"name":"菅刈小学校","province":"東京都","city":"目黒区","address":"東京都目黒区青葉台3-3-26","lat":35.651673,"lon":139.692158},{"name":"菅刈公園","province":"東京都","city":"目黒区","address":"東京都目黒区青葉台2-11-25","lat":35.650203,"lon":139.693883},{"name":"東山中学校","province":"東京都","city":"目黒区","address":"東京都目黒区東山1-24-31","lat":35.646476,"lon":139.690227},{"name":"東山小学校","province":"東京都","city":"目黒区","address":"東京都目黒区東山2-24-25","lat":35.64692,"lon":139.685758},{"name":"鳥森小学校","province":"東京都","city":"目黒区","address":"東京都目黒区上目黒3-37-27","lat":35.644365,"lon":139.692883},{"name":"めぐろ学校サポートセンター","province":"東京都","city":"目黒区","address":"東京都目黒区中目黒3-6-10","lat":35.639384,"lon":139.702725},{"name":"中目黒小学校","province":"東京都","city":"目黒区","address":"東京都目黒区中目黒3-13-32","lat":35.640194,"lon":139.699171},{"name":"田道小学校","province":"東京都","city":"目黒区","address":"東京都目黒区目黒1-15-28","lat":35.637594,"lon":139.709168},{"name":"下目黒小学校","province":"東京都","city":"目黒区","address":"東京都目黒区目黒2-7-9","lat":35.634203,"lon":139.709154},{"name":"大鳥中学校","province":"東京都","city":"目黒区","address":"東京都目黒区下目黒3-23-18","lat":35.631092,"lon":139.707612},{"name":"不動小学校","province":"東京都","city":"目黒区","address":"東京都目黒区下目黒6-11-35","lat":35.627081,"lon":139.699099},{"name":"上目黒小学校","province":"東京都","city":"目黒区","address":"東京都目黒区五本木1-12-13","lat":35.638735,"lon":139.690425},{"name":"都立目黒高校","province":"東京都","city":"目黒区","address":"東京都目黒区祐天寺2-7-15","lat":35.636927,"lon":139.694616},{"name":"油面小学校","province":"東京都","city":"目黒区","address":"東京都目黒区中町1-5-4","lat":35.632395,"lon":139.698299},{"name":"目黒中央中学校","province":"東京都","city":"目黒区","address":"東京都目黒区中町2-37-38","lat":35.634678,"lon":139.693647},{"name":"五本木小学校","province":"東京都","city":"目黒区","address":"東京都目黒区五本木2-24-3","lat":35.634466,"lon":139.687889},{"name":"鷹番小学校","province":"東京都","city":"目黒区","address":"東京都目黒区中央町1-20-26","lat":35.627761,"lon":139.690222},{"name":"碑文谷公園","province":"東京都","city":"目黒区","address":"東京都目黒区碑文谷6-9-11","lat":35.62655,"lon":139.682084},{"name":"碑文谷体育館","province":"東京都","city":"目黒区","address":"東京都目黒区碑文谷6-12-43","lat":35.627225,"lon":139.682079},{"name":"月光原小学校","province":"東京都","city":"目黒区","address":"東京都目黒区目黒本町4-15-3","lat":35.62251,"lon":139.694586},{"name":"向原小学校","province":"東京都","city":"目黒区","address":"東京都目黒区目黒本町6-7-15","lat":35.618716,"lon":139.695783},{"name":"第七中学校","province":"東京都","city":"目黒区","address":"東京都目黒区碑文谷1-1-33","lat":35.622923,"lon":139.691764},{"name":"碑小学校","province":"東京都","city":"目黒区","address":"東京都目黒区碑文谷1-18-2","lat":35.619603,"lon":139.690579},{"name":"原町小学校","province":"東京都","city":"目黒区","address":"東京都目黒区原町2-18-12","lat":35.615752,"lon":139.690492},{"name":"第九中学校","province":"東京都","city":"目黒区","address":"東京都目黒区洗足1-29-26","lat":35.613508,"lon":139.69455},{"name":"第八中学校","province":"東京都","city":"目黒区","address":"東京都目黒区碑文谷4-19-25","lat":35.619685,"lon":139.682495},{"name":"大岡山小学校","province":"東京都","city":"目黒区","address":"東京都目黒区平町2-3-1","lat":35.615482,"lon":139.683004},{"name":"中根小学校","province":"東京都","city":"目黒区","address":"東京都目黒区緑が丘1-1-1","lat":35.61241,"lon":139.678527},{"name":"第十一中学校","province":"東京都","city":"目黒区","address":"東京都目黒区緑が丘1-8-1","lat":35.609469,"lon":139.679024},{"name":"緑ヶ丘小学校","province":"東京都","city":"目黒区","address":"東京都目黒区緑が丘2-13-1","lat":35.610299,"lon":139.673449},{"name":"宮前小学校","province":"東京都","city":"目黒区","address":"東京都目黒区八雲3-13-21","lat":35.615365,"lon":139.66688},{"name":"めぐろ区民キャンパス","province":"東京都","city":"目黒区","address":"東京都目黒区八雲1-1-1","lat":35.621542,"lon":139.672741},{"name":"都立桜修館中等教育学校","province":"東京都","city":"目黒区","address":"東京都目黒区八雲1-1-2","lat":35.621198,"lon":139.670993},{"name":"八雲小学校","province":"東京都","city":"目黒区","address":"東京都目黒区八雲2-5-1","lat":35.618062,"lon":139.671255},{"name":"第十中学校","province":"東京都","city":"目黒区","address":"東京都目黒区八雲5-2-1","lat":35.62432,"lon":139.668677},{"name":"東根小学校","province":"東京都","city":"目黒区","address":"東京都目黒区東が丘1-20-1","lat":35.627158,"lon":139.668027}]}