{"keyword":"食堂","data":[{"name":"こどもば食堂＠上目黒","province":"東京都","city":"目黒区","address":"東京都目黒区祐天寺2丁目6-6","lat":35.6370906,"lon":139.69376866},{"name":"こどもば食堂＠中央町","province":"東京都","city":"目黒区","address":"東京都目黒区中央町2丁目4-18","lat":35.6318745,"lon":139.69222728},{"name":"かみめみんなの食堂","province":"東京都","city":"目黒区","address":"東京都目黒区祐天寺2丁目6-6","lat":35.6370906,"lon":139.69376866},{"name":"おてらでごはん","province":"東京都","city":"目黒区","address":"東京都目黒区中目黒5丁目24-53","lat":35.63690459,"lon":139.69705729},{"name":"ちゃいるどべーす目黒本町","province":"東京都","city":"目黒区","address":"東京都目黒区目黒本町2丁目1-20","lat":35.62522258,"lon":139.69522445},{"name":"すずめ食堂","province":"東京都","city":"目黒区","address":"東京都目黒区碑文谷3丁目15-5","lat":35.61786761,"lon":139.68421449},{"name":"とりつだい処","province":"東京都","city":"目黒区","address":"東京都目黒区八雲1丁目10-5","lat":35.61871439,"lon":139.67224043},{"name":"ECO膳","province":"東京都","city":"目黒区","address":"東京都目黒区東が丘1丁目7-14","lat":35.62727725,"lon":139.67001258},{"name":"まると食堂","province":"東京都","city":"目黒区","address":"東京都目黒区青葉台2丁目10-18","lat":35.6498003,"lon":139.69561254},{"name":"おやこカフェ","province":"東京都","city":"目黒区","address":"東京都目黒区目黒本町4丁目3-14","lat":35.62321732,"lon":139.6982187}]}