{"keyword":"館","data":[{"name":"目黒区立平町児童館","province":"東京都","city":"目黒区","address":"目黒区平町1-5-3","lat":35.641463,"lon":139.698171},{"name":"目黒区立五本木住区センター児童館","province":"東京都","city":"目黒区","address":"目黒区中央町2-17-2","lat":35.633038,"lon":139.689258},{"name":"目黒区立中央町児童館","province":"東京都","city":"目黒区","address":"目黒区中央町2-32-5","lat":35.631511,"lon":139.688775},{"name":"目黒区立向原住区センター児童館","province":"東京都","city":"目黒区","address":"目黒区目黒本町5-22-11","lat":35.618721,"lon":139.698602},{"name":"目黒区立原町住区センター児童館","province":"東京都","city":"目黒区","address":"目黒区南1-8-9","lat":35.615163,"lon":139.689364},{"name":"目黒区立八雲住区センター児童館","province":"東京都","city":"目黒区","address":"目黒区八雲1-10-5","lat":35.618714,"lon":139.672271},{"name":"目黒区立緑が丘児童館","province":"東京都","city":"目黒区","address":"目黒区緑が丘2-7-20","lat":35.609416,"lon":139.67433},{"name":"目黒区立駒場児童館","province":"東京都","city":"目黒区","address":"目黒区駒場2-7-5","lat":35.658766,"lon":139.682027},{"name":"目黒区立東山児童館","province":"東京都","city":"目黒区","address":"目黒区東山3-24-2","lat":35.647892,"lon":139.685388},{"name":"目黒区立烏森住区センター児童館","province":"東京都","city":"目黒区","address":"目黒区上目黒3-44-2","lat":35.643931,"lon":139.691644},{"name":"目黒区立上目黒住区センター児童館","province":"東京都","city":"目黒区","address":"目黒区祐天寺2-6-6","lat":35.637082,"lon":139.693766},{"name":"目黒区立中目黒住区センター児童館","province":"東京都","city":"目黒区","address":"目黒区中目黒2-10-13","lat":35.640452,"lon":139.703029},{"name":"目黒区立目黒区民センター児童館","province":"東京都","city":"目黒区","address":"目黒区目黒2-4-36","lat":35.635452,"lon":139.707868},{"name":"目黒区立不動児童館","province":"東京都","city":"目黒区","address":"目黒区下目黒5-18-4","lat":35.630205,"lon":139.702321},{"name":"目黒区立油面住区センター児童館","province":"東京都","city":"目黒区","address":"目黒区中町1-6-23","lat":35.631375,"lon":139.699785},{"name":"八雲中央図書館","province":"東京都","city":"目黒区","address":"東京都目黒区八雲1-1-1","lat":35.621684,"lon":139.672995},{"name":"大橋図書館","province":"東京都","city":"目黒区","address":"東京都目黒区大橋1-5-1クロスエアタワー9階","lat":35.651494,"lon":139.688491},{"name":"中目黒駅前図書館","province":"東京都","city":"目黒区","address":"東京都目黒区上目黒2-1-3中目黒GTプラザ","lat":35.643227,"lon":139.698683},{"name":"目黒区民センター図書館","province":"東京都","city":"目黒区","address":"東京都目黒区目黒2-4-36","lat":35.635734,"lon":139.708251},{"name":"守屋図書館","province":"東京都","city":"目黒区","address":"東京都目黒区五本木2-20-15","lat":35.634099,"lon":139.689114},{"name":"目黒本町図書館","province":"東京都","city":"目黒区","address":"東京都目黒区目黒本町2-1-20","lat":35.625238,"lon":139.695228},{"name":"洗足図書館","province":"東京都","city":"目黒区","address":"東京都目黒区洗足2-8-26","lat":35.612341,"lon":139.692376},{"name":"緑が丘図書館","province":"東京都","city":"目黒区","address":"東京都目黒区緑が丘2-14-23","lat":35.609353,"lon":139.673304},{"name":"目黒区立五本木住区センター児童館","province":"東京都","city":"目黒区","address":"目黒区中央町2-17-2","lat":35.63317,"lon":139.6893},{"name":"目黒区立中央町児童館","province":"東京都","city":"目黒区","address":"目黒区中央町2-32-5","lat":35.63137,"lon":139.68837},{"name":"こどもの森児童館","province":"東京都","city":"目黒区","address":"目黒区本町1-16-17","lat":35.64141,"lon":139.69812},{"name":"目黒区立向原住区センター児童館","province":"東京都","city":"目黒区","address":"目黒区目黒本町5-22-11","lat":35.61893,"lon":139.69901},{"name":"目黒区立原町住区センター児童館","province":"東京都","city":"目黒区","address":"目黒区南1-8-9","lat":35.61538,"lon":139.68933},{"name":"東根住区センター児童館","province":"東京都","city":"目黒区","address":"目黒区東が丘1-7-14","lat":35.62726,"lon":139.67023},{"name":"目黒区立八雲住区センター児童館","province":"東京都","city":"目黒区","address":"目黒区八雲1-10-5","lat":35.61869,"lon":139.67204},{"name":"目黒区立平町児童館","province":"東京都","city":"目黒区","address":"目黒区平野1-5-3","lat":35.61501,"lon":139.68083},{"name":"目黒区立緑が丘児童館","province":"東京都","city":"目黒区","address":"目黒区緑が丘2-7-20","lat":35.6092,"lon":139.67447},{"name":"目黒区立駒場児童館","province":"東京都","city":"目黒区","address":"目黒区駒場2-7-5","lat":35.65858,"lon":139.68146},{"name":"目黒区立東山児童館","province":"東京都","city":"目黒区","address":"目黒区東山3-24-2","lat":35.64754,"lon":139.68495},{"name":"目黒区立烏森住区センター児童館","province":"東京都","city":"目黒区","address":"目黒区上目黒3-44-2","lat":35.64368,"lon":139.69121},{"name":"目黒区立上目黒住区センター児童館","province":"東京都","city":"目黒区","address":"目黒区祐天寺2-6-6","lat":35.63697,"lon":139.69362},{"name":"目黒区立中目黒住区センター児童館","province":"東京都","city":"目黒区","address":"目黒区中目黒2-10-13","lat":35.64057,"lon":139.7029},{"name":"目黒区立目黒区民センター児童館","province":"東京都","city":"目黒区","address":"目黒区目黒2-4-36","lat":35.63549,"lon":139.70818},{"name":"目黒区立不動児童館","province":"東京都","city":"目黒区","address":"目黒区下目黒5-18-4","lat":35.63036,"lon":139.70216},{"name":"目黒区立油面住区センター児童館","province":"東京都","city":"目黒区","address":"目黒区中町1-6-23","lat":35.63133,"lon":139.69997},{"name":"碑住区センター児童館","province":"東京都","city":"目黒区","address":"目黒区碑文谷2-16-6","lat":35.62084,"lon":139.68753},{"name":"こどもの森児童館","province":"東京都","city":"目黒区","address":"目黒区本町1-16-17","lat":35.626945,"lon":139.694039},{"name":"目黒区立平町児童館","province":"東京都","city":"目黒区","address":"目黒区平町1-5-3","lat":35.617264,"lon":139.682297},{"name":"こどもの森児童館","province":"東京都","city":"目黒区","address":"目黒区目黒本町1-16-17","lat":35.62682,"lon":139.69431},{"name":"目黒区立平町児童館","province":"東京都","city":"目黒区","address":"目黒区平町1-5-3","lat":35.61709,"lon":139.68182},{"name":"こどもの森児童館","province":"東京都","city":"目黒区","address":"目黒区本町1-16-17","lat":35.64046,"lon":139.6987},{"name":"目黒区立目黒区民センター児童館","province":"東京都","city":"目黒区","address":"目黒区目黒2-4-36","lat":35.63285,"lon":139.70152},{"name":"＊?大橋図書館","province":"東京都","city":"目黒区","address":"目黒区大橋1-5-1","lat":35.651494,"lon":139.688491},{"name":"＊?中目黒駅前図書館","province":"東京都","city":"目黒区","address":"目黒区上目黒2-1-3","lat":35.643227,"lon":139.698683},{"name":"＊?目黒区民センター図書館","province":"東京都","city":"目黒区","address":"目黒区目黒2-4-36","lat":35.635734,"lon":139.708251},{"name":"＊?洗足図書館","province":"東京都","city":"目黒区","address":"目黒区洗足2-8-26","lat":35.612341,"lon":139.692376},{"name":"＊?緑が丘図書館","province":"東京都","city":"目黒区","address":"目黒区緑が丘2-14-23","lat":35.609353,"lon":139.673304},{"name":"＊?目黒本町図書館","province":"東京都","city":"目黒区","address":"目黒区目黒本町2-1-20","lat":35.625238,"lon":139.695228},{"name":"＊?守屋図書館","province":"東京都","city":"目黒区","address":"目黒区五本木2-20-15","lat":35.634099,"lon":139.689114},{"name":"＊?八雲中央図書館","province":"東京都","city":"目黒区","address":"目黒区八雲1-1-1","lat":35.621684,"lon":139.672995}]}