{"keyword":"館","data":[{"name":"こどもの森児童館","province":"東京都","city":"目黒区","address":"目黒区本町1-16-17","lat":35.626945,"lon":139.694039},{"name":"目黒区立平町児童館","province":"東京都","city":"目黒区","address":"目黒区平町1-5-3","lat":35.617264,"lon":139.682297},{"name":"こどもの森児童館","province":"東京都","city":"目黒区","address":"目黒区目黒本町1-16-17","lat":35.62682,"lon":139.69431},{"name":"目黒区立平町児童館","province":"東京都","city":"目黒区","address":"目黒区平町1-5-3","lat":35.61709,"lon":139.68182},{"name":"こどもの森児童館","province":"東京都","city":"目黒区","address":"目黒区本町1-16-17","lat":35.64046,"lon":139.6987},{"name":"目黒区立目黒区民センター児童館","province":"東京都","city":"目黒区","address":"目黒区目黒2-4-36","lat":35.63285,"lon":139.70152},{"name":"＊?大橋図書館","province":"東京都","city":"目黒区","address":"目黒区大橋1-5-1","lat":35.651494,"lon":139.688491},{"name":"＊?中目黒駅前図書館","province":"東京都","city":"目黒区","address":"目黒区上目黒2-1-3","lat":35.643227,"lon":139.698683},{"name":"＊?目黒区民センター図書館","province":"東京都","city":"目黒区","address":"目黒区目黒2-4-36","lat":35.635734,"lon":139.708251},{"name":"＊?洗足図書館","province":"東京都","city":"目黒区","address":"目黒区洗足2-8-26","lat":35.612341,"lon":139.692376},{"name":"＊?緑が丘図書館","province":"東京都","city":"目黒区","address":"目黒区緑が丘2-14-23","lat":35.609353,"lon":139.673304},{"name":"＊?目黒本町図書館","province":"東京都","city":"目黒区","address":"目黒区目黒本町2-1-20","lat":35.625238,"lon":139.695228},{"name":"＊?守屋図書館","province":"東京都","city":"目黒区","address":"目黒区五本木2-20-15","lat":35.634099,"lon":139.689114},{"name":"＊?八雲中央図書館","province":"東京都","city":"目黒区","address":"目黒区八雲1-1-1","lat":35.621684,"lon":139.672995}]}