{"keyword":"区立","data":[{"name":"真砂中央図書館","province":"東京都","city":"文京区","address":"東京都文京区本郷4丁目8番15号","lat":35.7085539999999,"lon":139.756995999999},{"name":"本郷図書館","province":"東京都","city":"文京区","address":"東京都文京区千駄木3丁目2番6号汐見地域センター内","lat":35.72552194,"lon":139.7614226},{"name":"小石川図書館","province":"東京都","city":"文京区","address":"東京都文京区小石川5丁目9番20号","lat":35.7169719999999,"lon":139.740124},{"name":"本駒込図書館","province":"東京都","city":"文京区","address":"東京都文京区本駒込4丁目35番15号","lat":35.7332759999999,"lon":139.755369},{"name":"水道端図書館","province":"東京都","city":"文京区","address":"東京都文京区水道2丁目16番14号","lat":35.710636,"lon":139.737720999999},{"name":"目白台図書館","province":"東京都","city":"文京区","address":"東京都文京区関口3丁目17番9号","lat":35.7151479999999,"lon":139.72551},{"name":"千石図書館","province":"東京都","city":"文京区","address":"東京都文京区千石1丁目25番3号","lat":35.7275769999999,"lon":139.74375},{"name":"湯島図書館","province":"東京都","city":"文京区","address":"東京都文京区本郷3丁目10番18号湯島総合センター4階","lat":35.7040119999999,"lon":139.763645999999},{"name":"根津図書室","province":"東京都","city":"文京区","address":"東京都文京区根津2丁目20番7号不忍通りふれあい館2階","lat":35.7191919999999,"lon":139.764204},{"name":"大塚公園みどりの図書室","province":"東京都","city":"文京区","address":"東京都文京区大塚4丁目49番2号大塚公園内","lat":35.7238299999999,"lon":139.73245},{"name":"第一中学校","province":"東京都","city":"文京区","address":"東京都文京区小石川5丁目8番9号","lat":35.7180129999999,"lon":139.738682},{"name":"第三中学校","province":"東京都","city":"文京区","address":"東京都文京区春日1丁目9番31号","lat":35.7091509999999,"lon":139.746670999999},{"name":"第六中学校","province":"東京都","city":"文京区","address":"東京都文京区向丘1丁目2番2号","lat":35.7170739999999,"lon":139.757725999999},{"name":"第八中学校","province":"東京都","city":"文京区","address":"東京都文京区千駄木2丁目19番22号","lat":35.724322,"lon":139.761014999999},{"name":"第九中学校","province":"東京都","city":"文京区","address":"東京都文京区本駒込3丁目28番9号","lat":35.7296539999999,"lon":139.75278},{"name":"第十中学校","province":"東京都","city":"文京区","address":"東京都文京区千石2丁目40番17号","lat":35.7235159999999,"lon":139.742537999999},{"name":"文林中学校","province":"東京都","city":"文京区","address":"東京都文京区千駄木5丁目25番10号","lat":35.7280519999999,"lon":139.758571999999},{"name":"茗台中学校","province":"東京都","city":"文京区","address":"東京都文京区春日2丁目9番5号","lat":35.7135389999999,"lon":139.741205},{"name":"本郷台中学校","province":"東京都","city":"文京区","address":"東京都文京区本郷2丁目38番23号","lat":35.7069509999999,"lon":139.758938},{"name":"音羽中学校","province":"東京都","city":"文京区","address":"東京都文京区大塚1丁目9番24号","lat":35.7172169999999,"lon":139.732789999999},{"name":"礫川小学校","province":"東京都","city":"文京区","address":"東京都文京区小石川2丁目13番2号","lat":35.7108339999999,"lon":139.747575},{"name":"柳町小学校","province":"東京都","city":"文京区","address":"東京都文京区小石川1丁目23番16号","lat":35.7144589999999,"lon":139.750137999999},{"name":"指ヶ谷小学校","province":"東京都","city":"文京区","address":"東京都文京区白山2丁目28番4号","lat":35.717306,"lon":139.750766999999},{"name":"林町小学校","province":"東京都","city":"文京区","address":"東京都文京区千石2丁目36番3号","lat":35.724322,"lon":139.742247999999},{"name":"明化小学校","province":"東京都","city":"文京区","address":"東京都文京区千石1丁目13番9号","lat":35.7248329999999,"lon":139.744880999999},{"name":"青柳小学校","province":"東京都","city":"文京区","address":"東京都文京区大塚5丁目40番18号","lat":35.7204169999999,"lon":139.725097},{"name":"関口台町小学校","province":"東京都","city":"文京区","address":"東京都文京区関口2丁目6番1号","lat":35.7118669999999,"lon":139.726756999999},{"name":"金富小学校","province":"東京都","city":"文京区","address":"東京都文京区春日2丁目6番15号","lat":35.7108309999999,"lon":139.741618999999},{"name":"窪町小学校","province":"東京都","city":"文京区","address":"東京都文京区大塚3丁目2番3号","lat":35.7188769999999,"lon":139.735628999999},{"name":"大塚小学校","province":"東京都","city":"文京区","address":"東京都文京区大塚4丁目1番7号","lat":35.7237289999999,"lon":139.736379999999},{"name":"誠之小学校","province":"東京都","city":"文京区","address":"東京都文京区西片2丁目14番6号","lat":35.7179429999999,"lon":139.754029},{"name":"根津小学校","province":"東京都","city":"文京区","address":"東京都文京区根津1丁目14番3号","lat":35.7184389999999,"lon":139.763222},{"name":"千駄木小学校","province":"東京都","city":"文京区","address":"東京都文京区千駄木5丁目44番2号","lat":35.72914,"lon":139.758950999999},{"name":"昭和小学校","province":"東京都","city":"文京区","address":"東京都文京区本駒込2丁目28番31号","lat":35.731554,"lon":139.749484999999},{"name":"駒本小学校","province":"東京都","city":"文京区","address":"東京都文京区向丘2丁目37番5号","lat":35.7246179999999,"lon":139.754577},{"name":"駕籠町小学校","province":"東京都","city":"文京区","address":"東京都文京区本駒込2丁目29番6号","lat":35.7283619999999,"lon":139.7458},{"name":"本郷小学校","province":"東京都","city":"文京区","address":"東京都文京区本郷4丁目5番15号","lat":35.7080929999999,"lon":139.758136},{"name":"旭丘中学校","province":"東京都","city":"練馬区","address":"練馬区旭丘2-40-1","lat":35.73782699,"lon":139.6776834},{"name":"開進第四中学校","province":"東京都","city":"練馬区","address":"練馬区羽沢3-24-1","lat":35.75096779,"lon":139.6734492},{"name":"豊玉中学校","province":"東京都","city":"練馬区","address":"練馬区豊玉南2-1-20","lat":35.7292554,"lon":139.6576551},{"name":"豊玉第二中学校","province":"東京都","city":"練馬区","address":"練馬区豊玉北2-24-5","lat":35.73502218,"lon":139.6644186},{"name":"中村中学校","province":"東京都","city":"練馬区","address":"練馬区中村南1-32-21","lat":35.72825892,"lon":139.645294},{"name":"開進第三中学校","province":"東京都","city":"練馬区","address":"練馬区桜台3-28ー1","lat":35.74511387,"lon":139.6652202},{"name":"開進第二中学校","province":"東京都","city":"練馬区","address":"練馬区練馬2-27-28","lat":35.74312343,"lon":139.6526824},{"name":"貫井中学校","province":"東京都","city":"練馬区","address":"練馬区貫井2-14-13","lat":35.7395055,"lon":139.6329056},{"name":"開進第一中学校","province":"東京都","city":"練馬区","address":"練馬区早宮1-16-50","lat":35.75255192,"lon":139.6590965},{"name":"練馬東中学校","province":"東京都","city":"練馬区","address":"練馬区春日町2-14-22","lat":35.75668766,"lon":139.6473744},{"name":"練馬中学校","province":"東京都","city":"練馬区","address":"練馬区高松1-24-1","lat":35.74758514,"lon":139.634767},{"name":"北町中学校","province":"東京都","city":"練馬区","address":"練馬区北町3-1-34","lat":35.76728437,"lon":139.6565089},{"name":"田柄中学校","province":"東京都","city":"練馬区","address":"練馬区田柄3-3-1","lat":35.75950288,"lon":139.6411313},{"name":"光が丘第三中学校","province":"東京都","city":"練馬区","address":"練馬区光が丘3-2-1","lat":35.75545213,"lon":139.6315783},{"name":"光が丘第一中学校","province":"東京都","city":"練馬区","address":"練馬区光が丘6-5-1","lat":35.76037463,"lon":139.6220791},{"name":"光が丘第二中学校","province":"東京都","city":"練馬区","address":"練馬区光が丘7-1-1","lat":35.75454943,"lon":139.6255485},{"name":"豊溪中学校","province":"東京都","city":"練馬区","address":"練馬区旭町3-5-10","lat":35.77406833,"lon":139.6280741},{"name":"八坂中学校","province":"東京都","city":"練馬区","address":"練馬区土支田4-47-21","lat":35.76958193,"lon":139.6119711},{"name":"南が丘中学校","province":"東京都","city":"練馬区","address":"練馬区南田中4-8-23","lat":35.7339791,"lon":139.6127754},{"name":"石神井東中学校","province":"東京都","city":"練馬区","address":"練馬区高野台1-8-34","lat":35.74245359,"lon":139.616585},{"name":"谷原中学校","province":"東京都","city":"練馬区","address":"練馬区谷原4-10-5","lat":35.75491417,"lon":139.6150945},{"name":"三原台中学校","province":"東京都","city":"練馬区","address":"練馬区三原台3-13-41","lat":35.75457093,"lon":139.5996896},{"name":"石神井中学校","province":"東京都","city":"練馬区","address":"練馬区石神井台1-32-1","lat":35.74115709,"lon":139.5955958},{"name":"石神井南中学校","province":"東京都","city":"練馬区","address":"練馬区下石神井2-7-23","lat":35.73045882,"lon":139.6090176},{"name":"大泉中学校","province":"東京都","city":"練馬区","address":"練馬区東大泉4-27-35","lat":35.75306259,"lon":139.5850595},{"name":"大泉第二中学校","province":"東京都","city":"練馬区","address":"練馬区東大泉6-21-1","lat":35.74467218,"lon":139.5837008},{"name":"大泉西中学校","province":"東京都","city":"練馬区","address":"練馬区西大泉3-19-27","lat":35.75843301,"lon":139.5796347},{"name":"大泉北中学校","province":"東京都","city":"練馬区","address":"練馬区大泉町5-4-32","lat":35.75958772,"lon":139.5964188},{"name":"大泉学園中学校","province":"東京都","city":"練馬区","address":"練馬区大泉学園町4-17-32","lat":35.7666241,"lon":139.5897988},{"name":"大泉学園桜中学校","province":"東京都","city":"練馬区","address":"練馬区大泉学園町9-2-1","lat":35.77741781,"lon":139.5912604},{"name":"関中学校","province":"東京都","city":"練馬区","address":"練馬区関町北4-34-23","lat":35.73084548,"lon":139.5752341},{"name":"石神井西中学校","province":"東京都","city":"練馬区","address":"練馬区関町南3-10-3","lat":35.72051459,"lon":139.5805784},{"name":"上石神井中学校","province":"東京都","city":"練馬区","address":"練馬区上石神井4-15-27","lat":35.72844099,"lon":139.5876278},{"name":"栄町保育園","province":"東京都","city":"練馬区","address":"練馬区栄町40-7","lat":35.73960219,"lon":139.6710413},{"name":"豊玉第四保育園","province":"東京都","city":"練馬区","address":"練馬区豊玉中1-9-11","lat":35.73080466,"lon":139.6613958},{"name":"豊玉保育園","province":"東京都","city":"練馬区","address":"練馬区豊玉中4-13-6","lat":35.73263144,"lon":139.6501502},{"name":"豊玉第三保育園","province":"東京都","city":"練馬区","address":"練馬区豊玉南3-32-37","lat":35.72928758,"lon":139.6495081},{"name":"豊玉第二保育園","province":"東京都","city":"練馬区","address":"練馬区豊玉北6-17-9","lat":35.73597192,"lon":139.6499316},{"name":"桜台第二保育園","province":"東京都","city":"練馬区","address":"練馬区桜台3-39-17","lat":35.74603655,"lon":139.6632029},{"name":"桜台保育園","province":"東京都","city":"練馬区","address":"練馬区桜台5-41-12","lat":35.74438083,"lon":139.6573112},{"name":"練馬保育園","province":"東京都","city":"練馬区","address":"練馬区練馬2-13-3","lat":35.74220294,"lon":139.6514171},{"name":"向山保育園","province":"東京都","city":"練馬区","address":"練馬区向山1-5-7","lat":35.73781894,"lon":139.6422001},{"name":"貫井第二保育園","province":"東京都","city":"練馬区","address":"練馬区貫井4-13-4","lat":35.74098934,"lon":139.6314638},{"name":"貫井保育園","province":"東京都","city":"練馬区","address":"練馬区貫井4-24-9","lat":35.74220326,"lon":139.6273891},{"name":"氷川台第二保育園","province":"東京都","city":"練馬区","address":"練馬区氷川台2-16-14","lat":35.75679545,"lon":139.6673276},{"name":"氷川台保育園","province":"東京都","city":"練馬区","address":"練馬区氷川台4-47-12","lat":35.75275197,"lon":139.6640449},{"name":"平和台保育園","province":"東京都","city":"練馬区","address":"練馬区平和台2-18-14","lat":35.76021541,"lon":139.6615056},{"name":"早宮保育園","province":"東京都","city":"練馬区","address":"練馬区早宮3-13-31","lat":35.75016923,"lon":139.6531991},{"name":"春日町第三保育園","province":"東京都","city":"練馬区","address":"練馬区春日町5-30-5","lat":35.75111098,"lon":139.6387908},{"name":"春日町第二保育園","province":"東京都","city":"練馬区","address":"練馬区春日町1-29-8","lat":35.75190085,"lon":139.6464682},{"name":"春日町保育園","province":"東京都","city":"練馬区","address":"練馬区春日町5-17-10","lat":35.74636194,"lon":139.6376534},{"name":"高松保育園","province":"東京都","city":"練馬区","address":"練馬区高松3-24-27","lat":35.75000131,"lon":139.6251604},{"name":"北町第二保育園","province":"東京都","city":"練馬区","address":"練馬区北町1-19-17","lat":35.76425315,"lon":139.6678795},{"name":"北町保育園","province":"東京都","city":"練馬区","address":"練馬区北町3-3-14","lat":35.7674238,"lon":139.6556458},{"name":"田柄第二保育園","province":"東京都","city":"練馬区","address":"練馬区田柄2-6-22","lat":35.76360908,"lon":139.6447606},{"name":"田柄保育園","province":"東京都","city":"練馬区","address":"練馬区田柄4-36-4","lat":35.76683961,"lon":139.6377424},{"name":"光が丘保育園","province":"東京都","city":"練馬区","address":"練馬区光が丘1-3-104","lat":35.76843957,"lon":139.6388875},{"name":"光が丘第二保育園","province":"東京都","city":"練馬区","address":"練馬区光が丘1-6-3-101","lat":35.76780947,"lon":139.6358114},{"name":"光が丘第九保育園","province":"東京都","city":"練馬区","address":"練馬区光が丘2-4-9","lat":35.76304131,"lon":139.6331012},{"name":"光が丘第十一保育園","province":"東京都","city":"練馬区","address":"練馬区光が丘2-4-11-101","lat":35.76382746,"lon":139.6327675},{"name":"光が丘第七保育園","province":"東京都","city":"練馬区","address":"練馬区光が丘2-7-4-105","lat":35.7610823,"lon":139.6313721},{"name":"光が丘第三保育園","province":"東京都","city":"練馬区","address":"練馬区光が丘3-3-2-101","lat":35.75590355,"lon":139.6271245},{"name":"光が丘第十保育園","province":"東京都","city":"練馬区","address":"練馬区光が丘3-7-3-101","lat":35.7581089,"lon":139.6307849},{"name":"光が丘第八保育園","province":"東京都","city":"練馬区","address":"練馬区光が丘5-2-3","lat":35.75899495,"lon":139.6271347},{"name":"光が丘第四保育園","province":"東京都","city":"練馬区","address":"練馬区光が丘7-3-1-102","lat":35.75627838,"lon":139.6257411},{"name":"光が丘第五保育園","province":"東京都","city":"練馬区","address":"練馬区光が丘7-3-3-101","lat":35.75579931,"lon":139.6248509},{"name":"光が丘第六保育園","province":"東京都","city":"練馬区","address":"練馬区光が丘7-7-2-101","lat":35.75812127,"lon":139.6233364},{"name":"旭町第二保育園","province":"東京都","city":"練馬区","address":"練馬区旭町1-33-22-107","lat":35.76622719,"lon":139.6247877},{"name":"旭町保育園","province":"東京都","city":"練馬区","address":"練馬区旭町3-11-6","lat":35.77429304,"lon":139.6250324},{"name":"土支田保育園","province":"東京都","city":"練馬区","address":"練馬区土支田2-32-8","lat":35.76362736,"lon":139.6136239},{"name":"富士見台こぶし保育園","province":"東京都","city":"練馬区","address":"練馬区富士見台3-10-1","lat":35.73863488,"lon":139.624377},{"name":"南田中第二保育園","province":"東京都","city":"練馬区","address":"練馬区南田中3-31-4","lat":35.73896738,"lon":139.6177314},{"name":"南田中保育園","province":"東京都","city":"練馬区","address":"練馬区南田中5-25-16","lat":35.73892257,"lon":139.613291},{"name":"高野台保育園","province":"東京都","city":"練馬区","address":"練馬区高野台3-25-17","lat":35.74442935,"lon":139.6124597},{"name":"谷原保育園","province":"東京都","city":"練馬区","address":"練馬区谷原5-16-41","lat":35.75050963,"lon":139.6107845},{"name":"石神井町さくら保育園","province":"東京都","city":"練馬区","address":"練馬区石神井町7-25-45","lat":35.74418607,"lon":139.5993474},{"name":"石神井町つつじ保育園","province":"東京都","city":"練馬区","address":"練馬区石神井町8-1-10","lat":35.74533972,"lon":139.6016732},{"name":"石神井台保育園","province":"東京都","city":"練馬区","address":"練馬区石神井台2-18-13","lat":35.73569585,"lon":139.5898354},{"name":"石神井台第二保育園","province":"東京都","city":"練馬区","address":"練馬区石神井台6-2-10","lat":35.74015948,"lon":139.5860776},{"name":"上石神井第二保育園","province":"東京都","city":"練馬区","address":"練馬区上石神井1-5-3","lat":35.72564673,"lon":139.5920183},{"name":"上石神井第三保育園","province":"東京都","city":"練馬区","address":"練馬区石神井台4-5-20","lat":35.73169851,"lon":139.5846438},{"name":"上石神井保育園","province":"東京都","city":"練馬区","address":"練馬区上石神井4-21-3","lat":35.72991977,"lon":139.5879852},{"name":"下石神井第三保育園","province":"東京都","city":"練馬区","address":"練馬区下石神井6-8-15","lat":35.73363491,"lon":139.6036463},{"name":"関町保育園","province":"東京都","city":"練馬区","address":"練馬区関町南3-9-29","lat":35.72120889,"lon":139.5817731},{"name":"関町第二保育園","province":"東京都","city":"練馬区","address":"練馬区関町北3-20-30","lat":35.72557023,"lon":139.5703519},{"name":"関町第三保育園","province":"東京都","city":"練馬区","address":"練馬区関町北5-4-12","lat":35.73265403,"lon":139.5746759},{"name":"東大泉保育園","province":"東京都","city":"練馬区","address":"練馬区東大泉3-59-2","lat":35.75599499,"lon":139.5907184},{"name":"東大泉第二保育園","province":"東京都","city":"練馬区","address":"練馬区東大泉7-20-1","lat":35.74260481,"lon":139.577047},{"name":"西大泉保育園","province":"東京都","city":"練馬区","address":"練馬区西大泉3-21-16","lat":35.75953203,"lon":139.5788621},{"name":"南大泉保育園","province":"東京都","city":"練馬区","address":"練馬区南大泉5-26-7","lat":35.75117272,"lon":139.5731205},{"name":"北大泉保育園","province":"東京都","city":"練馬区","address":"練馬区大泉町4-15-15","lat":35.76292508,"lon":139.6001532},{"name":"大泉学園保育園","province":"東京都","city":"練馬区","address":"練馬区大泉学園町8-9-5","lat":35.77263126,"lon":139.5927931},{"name":"東大泉第三保育園","province":"東京都","city":"練馬区","address":"練馬区東大泉2-42-5","lat":35.75423315,"lon":139.5924028},{"name":"練馬デイサービスセンター","province":"東京都","city":"練馬区","address":"練馬区練馬2-24-3","lat":35.74411961,"lon":139.6541304},{"name":"錦デイサービスセンター","province":"東京都","city":"練馬区","address":"練馬区錦2-6-14","lat":35.76171138,"lon":139.6661029},{"name":"光が丘デイサービスセンター","province":"東京都","city":"練馬区","address":"練馬区光が丘2-9-6","lat":35.75939033,"lon":139.6296473},{"name":"東大泉デイサービスセンター","province":"東京都","city":"練馬区","address":"練馬区東大泉5-15-2","lat":35.74368709,"lon":139.5894135},{"name":"土支田デイサービスセンター","province":"東京都","city":"練馬区","address":"練馬区土支田2-40-18","lat":35.76429051,"lon":139.6113315},{"name":"高松デイサービスセンター","province":"東京都","city":"練馬区","address":"練馬区高松6-3-24","lat":35.75703725,"lon":139.6196245},{"name":"高野台デイサービスセンター","province":"東京都","city":"練馬区","address":"練馬区高野台5-24-1","lat":35.74659837,"lon":139.6095763},{"name":"練馬中学校デイサービスセンター","province":"東京都","city":"練馬区","address":"練馬区高松1-24-1","lat":35.74789636,"lon":139.635525},{"name":"豊玉デイサービスセンター","province":"東京都","city":"練馬区","address":"練馬区豊玉南3-9-13","lat":35.72769899,"lon":139.6527694},{"name":"旭丘小学校","province":"東京都","city":"練馬区","address":"練馬区旭丘2-21-1","lat":35.73669464,"lon":139.6768029},{"name":"小竹小学校","province":"東京都","city":"練馬区","address":"練馬区小竹町2-6-7","lat":35.7440981,"lon":139.6798355},{"name":"開進第四小学校","province":"東京都","city":"練馬区","address":"練馬区羽沢2-33-1","lat":35.74781734,"lon":139.6712784},{"name":"豊玉第二小学校","province":"東京都","city":"練馬区","address":"練馬区豊玉上2-16-1","lat":35.73742126,"lon":139.6616903},{"name":"豊玉小学校","province":"東京都","city":"練馬区","address":"練馬区豊玉中4-2-20","lat":35.73294284,"lon":139.6522172},{"name":"豊玉南小学校","province":"東京都","city":"練馬区","address":"練馬区豊玉南2-14-1","lat":35.72767887,"lon":139.6560252},{"name":"豊玉東小学校","province":"東京都","city":"練馬区","address":"練馬区豊玉北1-16-1","lat":35.73273377,"lon":139.6679676},{"name":"中村小学校","province":"東京都","city":"練馬区","address":"練馬区中村2-8-1","lat":35.73143017,"lon":139.643675},{"name":"中村西小学校","province":"東京都","city":"練馬区","address":"練馬区中村北4-17-1","lat":35.73421391,"lon":139.634829},{"name":"開進第三小学校","province":"東京都","city":"練馬区","address":"練馬区桜台2-18-1","lat":35.74288071,"lon":139.6666245},{"name":"開進第二小学校","province":"東京都","city":"練馬区","address":"練馬区桜台5-10-5","lat":35.74197859,"lon":139.6581551},{"name":"南町小学校","province":"東京都","city":"練馬区","address":"練馬区練馬2-7-5","lat":35.74089413,"lon":139.6527707},{"name":"向山小学校","province":"東京都","city":"練馬区","address":"練馬区向山2-14-11","lat":35.74039886,"lon":139.6405327},{"name":"練馬第三小学校","province":"東京都","city":"練馬区","address":"練馬区貫井1-36-15","lat":35.73729053,"lon":139.6354345},{"name":"練馬第二小学校","province":"東京都","city":"練馬区","address":"練馬区貫井2-31-13","lat":35.74141098,"lon":139.6336661},{"name":"仲町小学校","province":"東京都","city":"練馬区","address":"練馬区氷川台2-18-24","lat":35.75792902,"lon":139.6676761},{"name":"早宮小学校","province":"東京都","city":"練馬区","address":"練馬区早宮4-10-17","lat":35.75209195,"lon":139.651002},{"name":"開進第一小学校","province":"東京都","city":"練馬区","address":"練馬区早宮2-1-31","lat":35.75461393,"lon":139.6574017},{"name":"練馬東小学校","province":"東京都","city":"練馬区","address":"練馬区春日町1-30-11","lat":35.75219899,"lon":139.6473268},{"name":"春日小学校","province":"東京都","city":"練馬区","address":"練馬区春日町5-12-1","lat":35.7467741,"lon":139.6395234},{"name":"練馬小学校","province":"東京都","city":"練馬区","address":"練馬区春日町6-11-36","lat":35.75245959,"lon":139.6359081},{"name":"高松小学校","province":"東京都","city":"練馬区","address":"練馬区高松3-16-1","lat":35.749728,"lon":139.6266663},{"name":"光が丘四季の香小学校","province":"東京都","city":"練馬区","address":"練馬区高松5-24-1","lat":35.7615858,"lon":139.6242042},{"name":"北町小学校","province":"東京都","city":"練馬区","address":"練馬区北町1-14-11","lat":35.76484648,"lon":139.6639688},{"name":"北町西小学校","province":"東京都","city":"練馬区","address":"練馬区北町7-3-8","lat":35.76161175,"lon":139.653518},{"name":"田柄小学校","province":"東京都","city":"練馬区","address":"練馬区田柄2-19-19","lat":35.76591317,"lon":139.6438079},{"name":"田柄第二小学校","province":"東京都","city":"練馬区","address":"練馬区田柄1-5-27","lat":35.75894613,"lon":139.6423281},{"name":"光が丘第八小学校","province":"東京都","city":"練馬区","address":"練馬区光が丘1-4-1","lat":35.76850429,"lon":139.6370008},{"name":"光が丘秋の陽小学校","province":"東京都","city":"練馬区","address":"練馬区光が丘2-1-1","lat":35.76187602,"lon":139.6351062},{"name":"光が丘夏の雲小学校","province":"東京都","city":"練馬区","address":"練馬区光が丘3-6-1","lat":35.75736383,"lon":139.6309429},{"name":"光が丘春の風小学校","province":"東京都","city":"練馬区","address":"練馬区光が丘7-2-1","lat":35.75560109,"lon":139.6257307},{"name":"旭町小学校","province":"東京都","city":"練馬区","address":"練馬区旭町2-29-1","lat":35.77262505,"lon":139.6274223},{"name":"豊溪小学校","province":"東京都","city":"練馬区","address":"練馬区土支田2-26-28","lat":35.76304441,"lon":139.6152352},{"name":"八坂小学校","province":"東京都","city":"練馬区","address":"練馬区土支田4-48-1","lat":35.76875646,"lon":139.6111826},{"name":"富士見台小学校","province":"東京都","city":"練馬区","address":"練馬区富士見台4-16-10","lat":35.74484426,"lon":139.6229813},{"name":"南が丘小学校","province":"東京都","city":"練馬区","address":"練馬区南田中2-13-1","lat":35.73380199,"lon":139.6169989},{"name":"石神井東小学校","province":"東京都","city":"練馬区","address":"練馬区南田中3-9-1","lat":35.73746854,"lon":139.6195164},{"name":"南田中小学校","province":"東京都","city":"練馬区","address":"練馬区南田中5-15-37","lat":35.73706564,"lon":139.6111617},{"name":"谷原小学校","province":"東京都","city":"練馬区","address":"練馬区谷原2-9-26","lat":35.75085036,"lon":139.6139348},{"name":"北原小学校","province":"東京都","city":"練馬区","address":"練馬区谷原4-9-1","lat":35.75457806,"lon":139.6135632},{"name":"泉新小学校","province":"東京都","city":"練馬区","address":"練馬区三原台3-18-30","lat":35.75425975,"lon":139.6012096},{"name":"光和小学校","province":"東京都","city":"練馬区","address":"練馬区石神井町2-16-34","lat":35.74644086,"lon":139.6070466},{"name":"石神井小学校","province":"東京都","city":"練馬区","address":"練馬区石神井台1-1-25","lat":35.73543505,"lon":139.5988481},{"name":"上石神井北小学校","province":"東京都","city":"練馬区","address":"練馬区石神井台5-1-32","lat":35.7358474,"lon":139.5882954},{"name":"石神井台小学校","province":"東京都","city":"練馬区","address":"練馬区石神井台8-6-33","lat":35.73517186,"lon":139.5809427},{"name":"下石神井小学校","province":"東京都","city":"練馬区","address":"練馬区下石神井2-20-18","lat":35.73165025,"lon":139.6053281},{"name":"大泉東小学校","province":"東京都","city":"練馬区","address":"練馬区東大泉1-22-1","lat":35.74890987,"lon":139.5907693},{"name":"大泉小学校","province":"東京都","city":"練馬区","address":"練馬区東大泉4-25-1","lat":35.75205413,"lon":139.584309},{"name":"大泉南小学校","province":"東京都","city":"練馬区","address":"練馬区東大泉6-28-1","lat":35.74482598,"lon":139.5809069},{"name":"大泉第四小学校","province":"東京都","city":"練馬区","address":"練馬区西大泉1-24-1","lat":35.75537627,"lon":139.5735294},{"name":"大泉西小学校","province":"東京都","city":"練馬区","address":"練馬区西大泉4-25-1","lat":35.76524024,"lon":139.5716003},{"name":"大泉第二小学校","province":"東京都","city":"練馬区","address":"練馬区南大泉4-29-11","lat":35.74437381,"lon":139.5728874},{"name":"大泉第六小学校","province":"東京都","city":"練馬区","address":"練馬区南大泉5-25-29","lat":35.75120955,"lon":139.5710312},{"name":"橋戸小学校","province":"東京都","city":"練馬区","address":"練馬区大泉町2-11-25","lat":35.75871034,"lon":139.6020733},{"name":"大泉第一小学校","province":"東京都","city":"練馬区","address":"練馬区大泉町3-16-23","lat":35.76556414,"lon":139.5986127},{"name":"大泉北小学校","province":"東京都","city":"練馬区","address":"練馬区大泉町4-28-22","lat":35.76216554,"lon":139.5955684},{"name":"大泉第三小学校","province":"東京都","city":"練馬区","address":"練馬区大泉学園町3-22-1","lat":35.76338205,"lon":139.5796594},{"name":"大泉学園小学校","province":"東京都","city":"練馬区","address":"練馬区大泉学園町4-7-1","lat":35.76566374,"lon":139.593178},{"name":"大泉学園緑小学校","province":"東京都","city":"練馬区","address":"練馬区大泉学園町5-11-47","lat":35.76625928,"lon":139.5852395},{"name":"大泉学園桜小学校","province":"東京都","city":"練馬区","address":"練馬区大泉学園町9-2-2","lat":35.77735311,"lon":139.5916307},{"name":"石神井西小学校","province":"東京都","city":"練馬区","address":"練馬区関町北1-1-5","lat":35.72390577,"lon":139.5799725},{"name":"関町小学校","province":"東京都","city":"練馬区","address":"練馬区関町北3-23-34","lat":35.7250107,"lon":139.5719381},{"name":"関町北小学校","province":"東京都","city":"練馬区","address":"練馬区関町北5-13-40","lat":35.73212204,"lon":139.573503},{"name":"立野小学校","province":"東京都","city":"練馬区","address":"練馬区立野町17-13","lat":35.71817948,"lon":139.5806019},{"name":"上石神井小学校","province":"東京都","city":"練馬区","address":"練馬区上石神井4-10-9","lat":35.72809095,"lon":139.5891117},{"name":"目黒区民ｾﾝﾀ-公園","province":"","city":"","address":"目黒2-4-36","lat":35.635323,"lon":139.707764},{"name":"指ヶ谷小学校","province":"東京都","city":"文京区","address":"東京都文京区白山2丁目28番4号","lat":35.717306,"lon":139.750767},{"name":"江東橋保育園","province":"東京都","city":"墨田区","address":"墨田区緑四丁目35番9号","lat":35.695826,"lon":139.807408},{"name":"長浦保育園","province":"東京都","city":"墨田区","address":"墨田区八広五丁目10番1号105号室","lat":35.72481,"lon":139.825793},{"name":"たちばな認定こども園","province":"東京都","city":"墨田区","address":"墨田区立花三丁目21番16号","lat":35.707091,"lon":139.83434},{"name":"八広認定こども園","province":"東京都","city":"墨田区","address":"墨田区八広三丁目7番5号","lat":35.720913,"lon":139.826387},{"name":"緑小学校","province":"東京都","city":"墨田区","address":"墨田区緑二丁目12番12号","lat":35.694025,"lon":139.801337},{"name":"外手小学校","province":"東京都","city":"墨田区","address":"墨田区本所二丁目1番16号","lat":35.702607,"lon":139.800598},{"name":"二葉小学校","province":"東京都","city":"墨田区","address":"墨田区石原二丁目1番5号","lat":35.699284,"lon":139.800185},{"name":"錦糸小学校","province":"東京都","city":"墨田区","address":"墨田区錦糸一丁目9番12号","lat":35.698701,"lon":139.811392},{"name":"中和小学校","province":"東京都","city":"墨田区","address":"墨田区菊川一丁目18番10号","lat":35.690154,"lon":139.802724},{"name":"言問小学校","province":"東京都","city":"墨田区","address":"墨田区向島五丁目40番14号","lat":35.71871,"lon":139.811376},{"name":"小梅小学校","province":"東京都","city":"墨田区","address":"墨田区向島二丁目4番10号","lat":35.714446,"lon":139.805935},{"name":"柳島小学校","province":"東京都","city":"墨田区","address":"墨田区横川五丁目2番30号","lat":35.703609,"lon":139.817465},{"name":"業平小学校","province":"東京都","city":"墨田区","address":"墨田区業平二丁目4番8号","lat":35.70641,"lon":139.811509},{"name":"両国小学校","province":"東京都","city":"墨田区","address":"墨田区両国四丁目26番6号","lat":35.693745,"lon":139.795191},{"name":"横川小学校","province":"東京都","city":"墨田区","address":"墨田区東駒形四丁目18番4号","lat":35.707194,"lon":139.806277},{"name":"菊川小学校","province":"東京都","city":"墨田区","address":"墨田区立川四丁目12番15号","lat":35.691621,"lon":139.807607},{"name":"第三吾嬬小学校","province":"東京都","city":"墨田区","address":"墨田区八広二丁目36番3号","lat":35.717152,"lon":139.827789},{"name":"第四吾嬬小学校","province":"東京都","city":"墨田区","address":"墨田区京島三丁目64番9号","lat":35.713043,"lon":139.825063},{"name":"第一寺島小学校","province":"東京都","city":"墨田区","address":"墨田区東向島一丁目16番2号","lat":35.721582,"lon":139.814452},{"name":"第二寺島小学校","province":"東京都","city":"墨田区","address":"墨田区東向島四丁目30番2号","lat":35.724713,"lon":139.818599},{"name":"第三寺島小学校","province":"東京都","city":"墨田区","address":"墨田区東向島六丁目8番1号","lat":35.721427,"lon":139.820419},{"name":"曳舟小学校","province":"東京都","city":"墨田区","address":"墨田区京島一丁目28番2号","lat":35.716603,"lon":139.820836},{"name":"中川小学校","province":"東京都","city":"墨田区","address":"墨田区立花五丁目49番4号","lat":35.713561,"lon":139.831476},{"name":"東吾嬬小学校","province":"東京都","city":"墨田区","address":"墨田区立花四丁目22番11号","lat":35.708518,"lon":139.831957},{"name":"押上小学校","province":"東京都","city":"墨田区","address":"墨田区押上三丁目46番17号","lat":35.712022,"lon":139.819369},{"name":"八広小学校","province":"東京都","city":"墨田区","address":"墨田区八広五丁目12番15号","lat":35.727133,"lon":139.826297},{"name":"隅田小学校","province":"東京都","city":"墨田区","address":"墨田区墨田四丁目6番5号","lat":35.736017,"lon":139.820914},{"name":"立花吾嬬の森小学校","province":"東京都","city":"墨田区","address":"墨田区立花一丁目18番6号","lat":35.706662,"lon":139.829365},{"name":"梅若小学校","province":"東京都","city":"墨田区","address":"墨田区墨田二丁目25番1号","lat":35.730445,"lon":139.815545},{"name":"墨田中学校","province":"東京都","city":"墨田区","address":"墨田区向島四丁目25番22号","lat":35.714953,"lon":139.811528},{"name":"本所中学校","province":"東京都","city":"墨田区","address":"墨田区東駒形三丁目1番10号","lat":35.705289,"lon":139.802817},{"name":"両国中学校","province":"東京都","city":"墨田区","address":"墨田区横網一丁目8番1号","lat":35.697477,"lon":139.796161},{"name":"竪川中学校","province":"東京都","city":"墨田区","address":"墨田区亀沢四丁目11番15号","lat":35.697029,"lon":139.805913},{"name":"錦糸中学校","province":"東京都","city":"墨田区","address":"墨田区石原四丁目33番14号","lat":35.701414,"lon":139.806942},{"name":"吾嬬第二中学校","province":"東京都","city":"墨田区","address":"墨田区八広四丁目4番4号","lat":35.721514,"lon":139.82712},{"name":"寺島中学校","province":"東京都","city":"墨田区","address":"墨田区八広一丁目17番15号","lat":35.720131,"lon":139.823186},{"name":"文花中学校","province":"東京都","city":"墨田区","address":"墨田区文花一丁目22番7号","lat":35.710217,"lon":139.822281},{"name":"桜堤中学校","province":"東京都","city":"墨田区","address":"墨田区堤通二丁目19番1号","lat":35.730445,"lon":139.811928},{"name":"吾嬬立花中学校","province":"東京都","city":"墨田区","address":"墨田区立花五丁目48番2号","lat":35.712679,"lon":139.831863},{"name":"江東橋","province":"大阪府","city":"豊中市","address":"大阪府豊中市緑丘4丁目35-9","lat":34.81504496,"lon":135.47813423},{"name":"江東橋（分園）","province":"東京都","city":"墨田区","address":"東京都墨田区亀沢3丁目12-5","lat":35.69713075,"lon":139.80450307},{"name":"横川橋","province":"東京都","city":"墨田区","address":"東京都墨田区太平1丁目27-13","lat":35.7021662,"lon":139.81077669},{"name":"中川","province":"東京都","city":"墨田区","address":"東京都墨田区東墨田2丁目1-15","lat":35.71870454,"lon":139.83058735},{"name":"花園","province":"東京都","city":"墨田区","address":"東京都墨田区東向島3丁目16-2","lat":35.72466858,"lon":139.81462615},{"name":"押上","province":"東京都","city":"墨田区","address":"東京都墨田区押上2丁目10-17","lat":35.71131304,"lon":139.81179184},{"name":"あおやぎ","province":"東京都","city":"墨田区","address":"東京都墨田区東向島4丁目37-17","lat":35.72583524,"lon":139.81916983},{"name":"たちばな","province":"東京都","city":"墨田区","address":"東京都墨田区立花3丁目21-16","lat":35.707097,"lon":139.83429579},{"name":"八広","province":"東京都","city":"墨田区","address":"東京都墨田区八広3丁目7-5","lat":35.72091034,"lon":139.82649354},{"name":"亀沢","province":"東京都","city":"墨田区","address":"東京都墨田区亀沢1丁目27-5","lat":35.69856397,"lon":139.79949242},{"name":"ひきふね","province":"東京都","city":"墨田区","address":"東京都墨田区八広1丁目1-18","lat":35.72004964,"lon":139.82087495},{"name":"太平","province":"新潟県","city":"新潟市東区","address":"新潟県新潟市東区太平1丁目13-10","lat":37.94444179,"lon":139.11753501},{"name":"梅若","province":"東京都","city":"墨田区","address":"東京都墨田区墨田2丁目38-13","lat":35.7309485,"lon":139.8175894},{"name":"立川","province":"東京都","city":"墨田区","address":"東京都墨田区立川1丁目5-2","lat":35.69046226,"lon":139.79950201},{"name":"寺島","province":"東京都","city":"墨田区","address":"東京都墨田区東向島1丁目23-10","lat":35.72018834,"lon":139.81260395},{"name":"横川さくら","province":"東京都","city":"墨田区","address":"東京都墨田区横川5丁目9-1","lat":35.70517431,"lon":139.81750923},{"name":"墨田児童会館学童クラブ","province":"東京都","city":"墨田区","address":"東京都墨田区墨田2丁目30-15","lat":35.72926266,"lon":139.81890044},{"name":"墨田児童会館第二学童クラブ","province":"東京都","city":"墨田区","address":"東京都墨田区墨田2丁目30-15","lat":35.72926266,"lon":139.81890044},{"name":"墨田児童会館学童クラブ二寺分室","province":"東京都","city":"墨田区","address":"東京都墨田区東向島4丁目30-2","lat":35.72470754,"lon":139.81845881},{"name":"墨田児童会館学童クラブ隅田分室","province":"東京都","city":"墨田区","address":"東京都墨田区墨田4丁目6-5","lat":35.73392317,"lon":139.82186348},{"name":"墨田児童会館学童クラブ梅若分室","province":"東京都","city":"墨田区","address":"東京都墨田区墨田2丁目25-1","lat":35.73053185,"lon":139.81560645},{"name":"八広児童館学童クラブ","province":"東京都","city":"墨田区","address":"東京都墨田区八広2丁目38-14","lat":35.71586062,"lon":139.82792391},{"name":"八広児童館学童クラブ三吾分室","province":"東京都","city":"墨田区","address":"東京都墨田区八広2丁目36-3","lat":35.71717161,"lon":139.82774891},{"name":"江東橋児童館学童クラブ","province":"東京都","city":"墨田区","address":"東京都墨田区江東橋1丁目15-4","lat":35.69591418,"lon":139.80968586},{"name":"江東橋児童館学童クラブ菊川分室","province":"東京都","city":"墨田区","address":"東京都墨田区立川4丁目12-15","lat":35.69164531,"lon":139.8076726},{"name":"東向島児童館学童クラブ","province":"東京都","city":"墨田区","address":"東京都墨田区東向島6丁目6-12","lat":35.72145228,"lon":139.81971127},{"name":"東向島児童館学童クラブ一寺分室","province":"東京都","city":"墨田区","address":"東京都墨田区東向島1丁目16-2","lat":35.72158271,"lon":139.81445099},{"name":"東向島児童館学童クラブ三寺分室","province":"東京都","city":"墨田区","address":"東京都墨田区東向島6丁目8-1","lat":35.72140784,"lon":139.82042783},{"name":"立花児童館学童クラブ","province":"東京都","city":"墨田区","address":"東京都墨田区立花1丁目27-9","lat":35.70555246,"lon":139.82881617},{"name":"立川児童館学童クラブ","province":"東京都","city":"墨田区","address":"東京都墨田区立川1丁目5-2","lat":35.69046226,"lon":139.79950201},{"name":"立川児童館学童クラブ中和分室","province":"東京都","city":"墨田区","address":"東京都墨田区菊川1丁目18-10","lat":35.6901567,"lon":139.80272644},{"name":"立川児童館学童クラブ中和第二分室","province":"東京都","city":"墨田区","address":"東京都墨田区菊川1丁目18-10","lat":35.6901567,"lon":139.80272644},{"name":"立川児童館学童クラブ両国分室","province":"東京都","city":"墨田区","address":"東京都墨田区両国4丁目24-5","lat":35.69394512,"lon":139.79647686},{"name":"文花児童館学童クラブ","province":"東京都","city":"墨田区","address":"東京都墨田区文花1丁目32-11","lat":35.70871099,"lon":139.82437198},{"name":"文花児童館第二学童クラブ","province":"東京都","city":"墨田区","address":"東京都墨田区文花1丁目32-11","lat":35.70871099,"lon":139.82437198},{"name":"文花児童館学童クラブ押上分室","province":"東京都","city":"墨田区","address":"東京都墨田区押上3丁目46-17","lat":35.71201677,"lon":139.81932198},{"name":"文花児童館学童クラブ四吾分室","province":"東京都","city":"墨田区","address":"東京都墨田区京島3丁目64-9","lat":35.7131389,"lon":139.82518538},{"name":"中川児童館学童クラブ","province":"東京都","city":"墨田区","address":"東京都墨田区立花5丁目18-9","lat":35.71294397,"lon":139.83097086},{"name":"外手児童館学童クラブ","province":"新潟県","city":"見附市","address":"新潟県見附市本所2丁目6-9","lat":37.53984423,"lon":138.90652521},{"name":"外手児童館第二学童クラブ","province":"新潟県","city":"見附市","address":"新潟県見附市本所2丁目6-9","lat":37.53984423,"lon":138.90652521},{"name":"外手児童館学童クラブ分室","province":"東京都","city":"墨田区","address":"東京都墨田区亀沢2丁目24-12","lat":35.69834452,"lon":139.80209766},{"name":"外手児童館学童クラブ業平分室","province":"東京都","city":"墨田区","address":"東京都墨田区業平2丁目4-8","lat":35.70627427,"lon":139.81149546},{"name":"八広はなみずき児童館学童クラブ","province":"東京都","city":"墨田区","address":"東京都墨田区八広4丁目27-8","lat":35.72456579,"lon":139.82940716},{"name":"八広はなみずき児童館第二学童クラブ","province":"東京都","city":"墨田区","address":"東京都墨田区八広4丁目27-8","lat":35.72456579,"lon":139.82940716},{"name":"さくら橋コミュニティセンター学童クラブ","province":"東京都","city":"墨田区","address":"東京都墨田区向島2丁目3-8","lat":35.71368772,"lon":139.80584268},{"name":"さくら橋コミュニティセンター第二学童クラブ","province":"東京都","city":"墨田区","address":"東京都墨田区向島2丁目3-8","lat":35.71368772,"lon":139.80584268},{"name":"さくら橋コミュニティセンター学童クラブ言問分室","province":"東京都","city":"墨田区","address":"東京都墨田区向島5丁目40-14","lat":35.71843549,"lon":139.81134557},{"name":"東駒形コミュニティ会館学童クラブ","province":"東京都","city":"墨田区","address":"東京都墨田区東駒形4丁目14-1","lat":35.70547984,"lon":139.80774036},{"name":"梅若橋コミュニティ会館学童クラブ","province":"東京都","city":"墨田区","address":"東京都墨田区堤通2丁目9-1","lat":35.73539223,"lon":139.81675295},{"name":"横川コミュニティ会館学童クラブ","province":"東京都","city":"墨田区","address":"東京都墨田区横川5丁目9-1","lat":35.70517431,"lon":139.81750923},{"name":"横川コミュニティ会館第二学童クラブ","province":"東京都","city":"墨田区","address":"東京都墨田区横川5丁目9-1","lat":35.70517431,"lon":139.81750923},{"name":"はなみずきホーム","province":"東京都","city":"墨田区","address":"東京都墨田区八広3丁目22-14","lat":35.71843814,"lon":139.82793219},{"name":"たちばなホーム","province":"東京都","city":"墨田区","address":"東京都墨田区立花3丁目10-1","lat":35.70530821,"lon":139.83305996},{"name":"なりひらホーム","province":"東京都","city":"墨田区","address":"東京都墨田区業平5丁目6-2","lat":35.70709118,"lon":139.81802555},{"name":"本所松坂町","province":"東京都","city":"墨田区","address":"東京都墨田区両国3丁目13-9","lat":35.69331183,"lon":139.79428527},{"name":"両国","province":"東京都","city":"墨田区","address":"東京都墨田区両国4丁目25-3","lat":35.6937507,"lon":139.79611856},{"name":"菊川","province":"東京都","city":"墨田区","address":"東京都墨田区立川4丁目12-21","lat":35.69118983,"lon":139.80758376},{"name":"中和","province":"石川県","city":"金沢市","address":"石川県金沢市菊川1丁目18-25","lat":36.55184277,"lon":136.66258817},{"name":"若宮","province":"東京都","city":"墨田区","address":"東京都墨田区本所2丁目2-19","lat":35.70232739,"lon":139.80111665},{"name":"横川","province":"東京都","city":"墨田区","address":"東京都墨田区東駒形4丁目18-21","lat":35.70678529,"lon":139.8068125},{"name":"業平","province":"東京都","city":"墨田区","address":"東京都墨田区業平2丁目3-2","lat":35.70611874,"lon":139.81266766},{"name":"原","province":"東京都","city":"墨田区","address":"東京都墨田区京島3丁目44-14","lat":35.7129474,"lon":139.82341058},{"name":"竪川第一","province":"東京都","city":"墨田区","address":"東京都墨田区江東橋4丁目1-3","lat":35.69338672,"lon":139.81732938},{"name":"京島南","province":"東京都","city":"墨田区","address":"東京都墨田区京島2丁目20-17","lat":35.7130003,"lon":139.82191074},{"name":"押上","province":"東京都","city":"墨田区","address":"東京都墨田区押上1丁目47-8","lat":35.70897186,"lon":139.8173086},{"name":"錦糸","province":"東京都","city":"墨田区","address":"東京都墨田区錦糸4丁目15-1","lat":35.69947749,"lon":139.8171875},{"name":"新平井橋","province":"東京都","city":"墨田区","address":"東京都墨田区東墨田1丁目6-2","lat":35.71565486,"lon":139.83040693},{"name":"旧安田庭園","province":"東京都","city":"墨田区","address":"東京都墨田区横網1丁目12-1","lat":35.69795846,"lon":139.79397072},{"name":"吾嬬西","province":"東京都","city":"墨田区","address":"東京都墨田区八広6丁目53-16","lat":35.72424908,"lon":139.83025702},{"name":"ふじのき","province":"東京都","city":"墨田区","address":"東京都墨田区東向島2丁目7-5","lat":35.71734678,"lon":139.81547271},{"name":"さつき","province":"東京都","city":"墨田区","address":"東京都墨田区東向島6丁目19-12","lat":35.72262441,"lon":139.82039453},{"name":"ひいらぎ","province":"東京都","city":"墨田区","address":"東京都墨田区八広1丁目16-11","lat":35.72019681,"lon":139.82236639},{"name":"つばき","province":"東京都","city":"墨田区","address":"東京都墨田区墨田5丁目33-9","lat":35.73761145,"lon":139.82036616},{"name":"日進","province":"東京都","city":"墨田区","address":"東京都墨田区亀沢3丁目24-3","lat":35.69862503,"lon":139.80441676},{"name":"銅像堀","province":"東京都","city":"墨田区","address":"東京都墨田区向島5丁目9-1","lat":35.7218326,"lon":139.81005447},{"name":"吾妻橋","province":"東京都","city":"墨田区","address":"東京都墨田区吾妻橋1丁目12-15","lat":35.70809627,"lon":139.79825794},{"name":"文花","province":"東京都","city":"墨田区","address":"東京都墨田区文花1丁目27-5","lat":35.7094556,"lon":139.82244155},{"name":"隅田川緑道","province":"東京都","city":"墨田区","address":"東京都墨田区横網1丁目","lat":35.69796404,"lon":139.79521513},{"name":"東向島北","province":"東京都","city":"墨田区","address":"東京都墨田区東向島4丁目12-19","lat":35.72556299,"lon":139.81589264},{"name":"堤通","province":"東京都","city":"墨田区","address":"東京都墨田区堤通1丁目8-1","lat":35.72447964,"lon":139.81077124},{"name":"隅田","province":"東京都","city":"墨田区","address":"東京都墨田区向島1丁目","lat":35.71141546,"lon":139.8054231},{"name":"荒川四ッ木橋緑地","province":"東京都","city":"墨田区","address":"東京都墨田区墨田4丁目","lat":35.73137358,"lon":139.82435222},{"name":"舟原","province":"東京都","city":"墨田区","address":"東京都墨田区八広2丁目43-16","lat":35.71514967,"lon":139.8267824},{"name":"福寿","province":"東京都","city":"墨田区","address":"東京都墨田区立花3丁目24-3","lat":35.7078636,"lon":139.83437075},{"name":"京島西","province":"東京都","city":"墨田区","address":"東京都墨田区京島1丁目22-3","lat":35.71567483,"lon":139.81871112},{"name":"東向島ふじ","province":"東京都","city":"墨田区","address":"東京都墨田区東向島2丁目46-7","lat":35.72032456,"lon":139.81849198},{"name":"立花","province":"東京都","city":"墨田区","address":"東京都墨田区立花1丁目27-5","lat":35.70547192,"lon":139.82927722},{"name":"横川東","province":"東京都","city":"墨田区","address":"東京都墨田区横川5丁目2-8","lat":35.7030186,"lon":139.81765122},{"name":"文花宮前橋","province":"東京都","city":"墨田区","address":"東京都墨田区文花1丁目32-11","lat":35.70871099,"lon":139.82437198},{"name":"曳舟さくら","province":"東京都","city":"墨田区","address":"東京都墨田区京島1丁目40-1","lat":35.71877194,"lon":139.82017778},{"name":"八広中央","province":"東京都","city":"墨田区","address":"東京都墨田区八広3丁目13-19","lat":35.71918814,"lon":139.82718507},{"name":"たちばな仲よし","province":"東京都","city":"墨田区","address":"東京都墨田区立花5丁目19-2","lat":35.71244966,"lon":139.82994877},{"name":"千歳","province":"東京都","city":"墨田区","address":"東京都墨田区千歳2丁目2-1","lat":35.69036782,"lon":139.79502744},{"name":"平井橋第一","province":"東京都","city":"墨田区","address":"東京都墨田区立花6丁目8-55","lat":35.71049669,"lon":139.83451507},{"name":"平井橋第二","province":"東京都","city":"墨田区","address":"東京都墨田区立花6丁目8-44","lat":35.71055222,"lon":139.83608996},{"name":"東あずま","province":"東京都","city":"墨田区","address":"東京都墨田区立花2丁目32-12","lat":35.70834973,"lon":139.83030736},{"name":"八広","province":"東京都","city":"墨田区","address":"東京都墨田区八広5丁目10-14","lat":35.72583527,"lon":139.82486062},{"name":"緑と花の学習園","province":"東京都","city":"墨田区","address":"東京都墨田区文花2丁目12-17","lat":35.7090221,"lon":139.82545791},{"name":"なつめ","province":"東京都","city":"墨田区","address":"東京都墨田区東向島6丁目40-2","lat":35.72445761,"lon":139.82188321},{"name":"東墨田東","province":"東京都","city":"墨田区","address":"東京都墨田区東墨田3丁目19-2","lat":35.71845425,"lon":139.83744771},{"name":"みわさと","province":"東京都","city":"墨田区","address":"東京都墨田区八広1丁目38-13","lat":35.72107709,"lon":139.82532706},{"name":"東墨田第一","province":"東京都","city":"墨田区","address":"東京都墨田区東墨田2丁目1-16","lat":35.71876293,"lon":139.82996799},{"name":"八広あずま","province":"東京都","city":"墨田区","address":"東京都墨田区八広4丁目19-14","lat":35.72376025,"lon":139.82809342},{"name":"東","province":"東京都","city":"墨田区","address":"東京都墨田区東墨田3丁目12-19","lat":35.72114587,"lon":139.83582279},{"name":"きねがわ","province":"東京都","city":"墨田区","address":"東京都墨田区東墨田2丁目25-8","lat":35.724149,"lon":139.83316217},{"name":"立花いこい","province":"東京都","city":"墨田区","address":"東京都墨田区立花6丁目8-34","lat":35.71113272,"lon":139.83600382},{"name":"大横川親水","province":"東京都","city":"墨田区","address":"東京都墨田区吾妻橋3丁目","lat":35.70826849,"lon":139.80518472},{"name":"竪川親水","province":"東京都","city":"墨田区","address":"東京都墨田区江東橋1丁目","lat":35.69558088,"lon":139.81014418},{"name":"東墨田二丁目","province":"東京都","city":"墨田区","address":"東京都墨田区東墨田2丁目12-10","lat":35.7210821,"lon":139.83277592},{"name":"東墨田","province":"東京都","city":"墨田区","address":"東京都墨田区東墨田3丁目4-14","lat":35.71999578,"lon":139.83525055},{"name":"横川さんかく","province":"東京都","city":"墨田区","address":"東京都墨田区横川5丁目9-31","lat":35.70553546,"lon":139.81795082},{"name":"立花大正民家園","province":"東京都","city":"墨田区","address":"東京都墨田区立花6丁目13-17","lat":35.70986058,"lon":139.83808152},{"name":"白鬚","province":"東京都","city":"墨田区","address":"東京都墨田区墨田1丁目4-42","lat":35.72808777,"lon":139.81503183},{"name":"旧中川水辺","province":"東京都","city":"墨田区","address":"東京都墨田区東墨田1丁目","lat":35.71565486,"lon":139.83040693},{"name":"おしなり公園","province":"東京都","city":"墨田区","address":"東京都墨田区押上1丁目","lat":35.71011625,"lon":139.81578627},{"name":"横川北","province":"東京都","city":"墨田区","address":"東京都墨田区横川3丁目12-13","lat":35.70522153,"lon":139.81353999},{"name":"小梅","province":"東京都","city":"墨田区","address":"東京都墨田区向島1丁目33-3","lat":35.71042667,"lon":139.80815339},{"name":"横川南","province":"東京都","city":"墨田区","address":"東京都墨田区横川3丁目6-3","lat":35.70349372,"lon":139.81405691},{"name":"柳島","province":"東京都","city":"墨田区","address":"東京都墨田区横川5丁目10-13","lat":35.70495485,"lon":139.81626489},{"name":"六間堀","province":"東京都","city":"墨田区","address":"東京都墨田区千歳3丁目1-11","lat":35.68926524,"lon":139.79795807},{"name":"菊一","province":"東京都","city":"墨田区","address":"東京都墨田区菊川1丁目1-17","lat":35.68846253,"lon":139.80053822},{"name":"菊川橋","province":"東京都","city":"墨田区","address":"東京都墨田区菊川3丁目13-2","lat":35.68874569,"lon":139.8090975},{"name":"緑","province":"大阪府","city":"大阪市鶴見区","address":"大阪府大阪市鶴見区緑1丁目1-17","lat":34.7096809,"lon":135.56092373},{"name":"もみじばし","province":"東京都","city":"墨田区","address":"東京都墨田区本所4丁目8-6","lat":35.70311337,"lon":139.8078435},{"name":"しいのき","province":"東京都","city":"墨田区","address":"東京都墨田区吾妻橋3丁目9-4","lat":35.70954062,"lon":139.80490679},{"name":"横川橋","province":"東京都","city":"墨田区","address":"東京都墨田区横川1丁目1-10","lat":35.70318558,"lon":139.80863506},{"name":"あかしや","province":"東京都","city":"墨田区","address":"東京都墨田区太平4丁目23-3","lat":35.70217705,"lon":139.81819011},{"name":"くるみ","province":"東京都","city":"墨田区","address":"東京都墨田区業平5丁目1-1","lat":35.70623271,"lon":139.81617301},{"name":"つくし","province":"東京都","city":"墨田区","address":"東京都墨田区亀沢3丁目4-8","lat":35.69642806,"lon":139.80470036},{"name":"両国橋","province":"東京都","city":"墨田区","address":"東京都墨田区両国1丁目11-2","lat":35.69388943,"lon":139.78980457},{"name":"露伴","province":"東京都","city":"墨田区","address":"東京都墨田区東向島1丁目7-11","lat":35.72189933,"lon":139.81308177},{"name":"あづま","province":"東京都","city":"墨田区","address":"東京都墨田区立花1丁目2-3","lat":35.70523847,"lon":139.82695816},{"name":"隅田","province":"東京都","city":"墨田区","address":"東京都墨田区墨田4丁目23-12","lat":35.73224843,"lon":139.82340228},{"name":"香取","province":"東京都","city":"墨田区","address":"東京都墨田区立花1丁目25-6","lat":35.70476097,"lon":139.83218236},{"name":"境","province":"東京都","city":"墨田区","address":"東京都墨田区江東橋1丁目13-3","lat":35.69596417,"lon":139.81078571},{"name":"とらばし","province":"東京都","city":"墨田区","address":"東京都墨田区京島1丁目21-9","lat":35.71512495,"lon":139.81978043},{"name":"さくら","province":"東京都","city":"墨田区","address":"東京都墨田区堤通1丁目18-20","lat":35.72591012,"lon":139.81222944},{"name":"くすのき","province":"東京都","city":"墨田区","address":"東京都墨田区東向島4丁目28-8","lat":35.7237965,"lon":139.81857543},{"name":"あすなろ","province":"東京都","city":"墨田区","address":"東京都墨田区東向島1丁目34-5","lat":35.72015506,"lon":139.81538965},{"name":"すずかけ","province":"東京都","city":"墨田区","address":"東京都墨田区東向島5丁目39-8","lat":35.72864067,"lon":139.82451349},{"name":"あおぎり","province":"東京都","city":"墨田区","address":"東京都墨田区八広4丁目11-6","lat":35.72246307,"lon":139.82706574},{"name":"こでまり","province":"東京都","city":"墨田区","address":"東京都墨田区東向島5丁目24-1","lat":35.72764346,"lon":139.82184162},{"name":"からたち","province":"東京都","city":"墨田区","address":"東京都墨田区京島3丁目10-19","lat":35.71659437,"lon":139.82234965},{"name":"どんぐり","province":"大阪府","city":"大阪市鶴見区","address":"大阪府大阪市鶴見区緑3丁目12-9","lat":34.71433884,"lon":135.56741472},{"name":"さくらんぼ","province":"東京都","city":"墨田区","address":"東京都墨田区向島5丁目38-7","lat":35.71796608,"lon":139.81255091},{"name":"さざんか","province":"東京都","city":"墨田区","address":"東京都墨田区江東橋1丁目1-4","lat":35.69291179,"lon":139.80918616},{"name":"ささのは","province":"東京都","city":"墨田区","address":"東京都墨田区亀沢4丁目18-8","lat":35.69864721,"lon":139.80823292},{"name":"かしわ","province":"東京都","city":"墨田区","address":"東京都墨田区東駒形2丁目8-2","lat":35.70608257,"lon":139.80098005},{"name":"かつら","province":"東京都","city":"墨田区","address":"東京都墨田区墨田3丁目36-13","lat":35.73147348,"lon":139.82056385},{"name":"こぶし","province":"東京都","city":"墨田区","address":"東京都墨田区東墨田2丁目14-3","lat":35.72180997,"lon":139.83228159},{"name":"やまぶき","province":"東京都","city":"墨田区","address":"東京都墨田区東向島6丁目60-6","lat":35.72752963,"lon":139.82428018},{"name":"けやき","province":"東京都","city":"墨田区","address":"東京都墨田区八広1丁目7-4","lat":35.7214523,"lon":139.82195259},{"name":"とちのき","province":"広島県","city":"広島市佐伯区","address":"広島県広島市佐伯区美鈴が丘緑2丁目8-12","lat":34.39433669,"lon":132.37703853},{"name":"押上第一","province":"東京都","city":"墨田区","address":"東京都墨田区押上3丁目48-1","lat":35.71179188,"lon":139.82010526},{"name":"立川第二","province":"東京都","city":"墨田区","address":"東京都墨田区立川3丁目15-6","lat":35.69203976,"lon":139.80390933},{"name":"本四三ツ目","province":"東京都","city":"墨田区","address":"東京都墨田区本所4丁目1-4","lat":35.70288841,"lon":139.80498554},{"name":"きくはな","province":"東京都","city":"墨田区","address":"東京都墨田区緑4丁目2-4","lat":35.69298957,"lon":139.80849461},{"name":"請地","province":"東京都","city":"墨田区","address":"東京都墨田区向島4丁目12-11","lat":35.71693833,"lon":139.81343679},{"name":"八広第一","province":"東京都","city":"墨田区","address":"東京都墨田区八広5丁目7-6","lat":35.72431035,"lon":139.82398291},{"name":"八広第二","province":"東京都","city":"墨田区","address":"東京都墨田区八広5丁目7-18","lat":35.72376869,"lon":139.82473835},{"name":"墨田二丁目","province":"東京都","city":"墨田区","address":"東京都墨田区墨田2丁目42-4","lat":35.73228443,"lon":139.81873074},{"name":"六軒","province":"東京都","city":"墨田区","address":"東京都墨田区立花3丁目18-12","lat":35.70610819,"lon":139.83438194},{"name":"亀沢第一","province":"東京都","city":"墨田区","address":"東京都墨田区亀沢2丁目13-7","lat":35.69784458,"lon":139.80188665},{"name":"隅田第二","province":"東京都","city":"墨田区","address":"東京都墨田区墨田4丁目8-14","lat":35.73288164,"lon":139.82186355},{"name":"両国第一","province":"東京都","city":"墨田区","address":"東京都墨田区両国4丁目36-16","lat":35.69517271,"lon":139.79557943},{"name":"墨田第三","province":"東京都","city":"墨田区","address":"東京都墨田区墨田2丁目17-6","lat":35.7314956,"lon":139.81623679},{"name":"八広つるかめ","province":"東京都","city":"墨田区","address":"東京都墨田区八広4丁目28-6","lat":35.72451856,"lon":139.82910998},{"name":"ごあずま","province":"東京都","city":"墨田区","address":"東京都墨田区八広4丁目36-24","lat":35.7227685,"lon":139.82939596},{"name":"立花第一","province":"東京都","city":"墨田区","address":"東京都墨田区立花4丁目9-6","lat":35.71009965,"lon":139.83163207},{"name":"押上第二","province":"東京都","city":"墨田区","address":"東京都墨田区押上3丁目57-3","lat":35.71191978,"lon":139.82117743},{"name":"隅田西","province":"東京都","city":"墨田区","address":"東京都墨田区墨田3丁目31-2","lat":35.73245111,"lon":139.81994721},{"name":"隅田東","province":"東京都","city":"墨田区","address":"東京都墨田区墨田4丁目52-12","lat":35.72950444,"lon":139.82512169},{"name":"墨田第六","province":"東京都","city":"墨田区","address":"東京都墨田区墨田2丁目20-15","lat":35.73052355,"lon":139.81718117},{"name":"八広六西","province":"東京都","city":"墨田区","address":"東京都墨田区八広6丁目13-1","lat":35.72851578,"lon":139.82735203},{"name":"隅田東第二","province":"東京都","city":"墨田区","address":"東京都墨田区墨田4丁目34-20","lat":35.73275392,"lon":139.82414937},{"name":"長浦","province":"東京都","city":"墨田区","address":"東京都墨田区八広1丁目8-18","lat":35.72162165,"lon":139.82324129},{"name":"八広一丁目","province":"東京都","city":"墨田区","address":"東京都墨田区八広1丁目19-14","lat":35.718808,"lon":139.82292739},{"name":"立花六丁目","province":"東京都","city":"墨田区","address":"東京都墨田区立花6丁目14-5","lat":35.71043553,"lon":139.83777873},{"name":"中之郷","province":"東京都","city":"墨田区","address":"東京都墨田区押上2丁目12-1","lat":35.71232977,"lon":139.8122502},{"name":"白鬚","province":"東京都","city":"墨田区","address":"東京都墨田区東墨田1丁目4-9","lat":35.71666592,"lon":139.82995695}]}