一連番号,測定地点の住所,緯度,経度,座標系,道路名,環境基準類型等,測定開始年月日,測定終了年月日,道路種別,車線数,車道端からの距離(m),地上からの高さ(m),等価騒音ﾚﾍﾞﾙ(Leq)／昼間(dB),等価騒音ﾚﾍﾞﾙ(Leq)／夜間(dB)
1,千代田区神田神保町2-15,35.696636,139.756454,JGD2011,白山祝田田町線（白山通り）,c,2004-06-01,2004-06-08,4,6,8.8,1.5,71,69
2,千代田区麹町6-2,35.685215,139.733078,JGD2011,国道２０号（新宿通り）,c,2004-06-01,2004-06-03,3,6,6.9,1.5,70,69
3,千代田区九段南1-1,35.693378,139.754913,JGD2011,麹町竹平線（内堀通り）,b,2004-07-20,2004-07-22,4,4,1.7,1.5,68,66
4,千代田区飯田橋4-5-14,35.700676,139.747147,JGD2011,千代田練馬田無線（目白通り）,c,2004-07-20,2004-07-22,4,5,4.4,1.5,71,70
5,千代田区平河町2-5-2,35.680115,139.739044,JGD2011,区道１８８号（貝坂通り）,b,2004-07-20,2004-07-22,6,2,1.9,1.5,63,59
6,千代田区九段南3-8-14,35.692753,139.742584,JGD2011,新宿両国線（靖国通り）,c,2004-09-28,2004-09-30,4,5,4.5,1.5,69,67
7,千代田区神田須田町1-3,35.696018,139.769287,JGD2011,新宿両国線（靖国通り）,c,2004-09-28,2004-09-30,4,6,6.0,1.5,69,67
8,千代田区東神田2-10-18,35.695621,139.780716,JGD2011,新宿両国線（靖国通り）,c,2004-09-28,2004-09-30,4,6,6.0,1.5,71,69
9,千代田区外神田3-16-12,35.702133,139.771149,JGD2011,秋葉原雑司ケ谷線,c,2005-01-25,2005-01-27,4,6,6.6,1.5,71,69
10,千代田区富士見1-4-4,35.698582,139.746185,JGD2011,区道２７０号（早稲田通り）,c,2004-11-16,2004-11-18,6,1,2.7,1.5,66,61
11,千代田区神田神保町2-15,35.696636,139.756454,JGD2011,白山祝田田町線（白山通り）,c,2004-11-05,2004-11-12,4,6,8.8,1.5,71,69
12,千代田区神田岩本町15,35.696655,139.775024,JGD2011,国道４号（日光街道）,c,2004-11-05,2004-11-12,3,7,7.0,1.5,72,71
13,千代田区神田岩本町15(和泉橋出張所4階),35.696655,139.775024,JGD2011,首都高速１号上野線,c,2004-11-05,2004-11-12,2,4,18.2,13.6,75,73
14,千代田区岩本町2-8-10,35.692696,139.776596,JGD2011,区道７９２号,c,2005-01-25,2005-01-27,5,5,3.8,1.5,69,67
15,千代田区丸の内1-1-3,35.684559,139.761765,JGD2011,国道１号（日比谷通り）,c,2005-02-01,2005-01-03,3,7,5.0,1.5,67,64
16,千代田区日比谷公園,35.673889,139.756195,JGD2011,国道１号（日比谷通り）,b,2005-02-01,2005-01-03,3,10,3.4,1.5,70,69
17,千代田区霞ヶ関2-1,35.676193,139.751129,JGD2011,国道２０号（桜田通り）,c,2005-02-01,2005-01-03,3,8,4.0,1.5,74,73
18,千代田区神田須田町1-28,35.695080,139.770081,JGD2011,国道17号（中央通り）,C,2004-11-24,2004-11-25,3,6,4.3,1.2,68,66
19,千代田区内神田1-14,35.692028,139.765015,JGD2011,大手町湯島線,C,2004-11-24,2004-11-25,4,6,5.5,1.2,71,69
20,中央区日本橋小伝馬町20-3先,35.692455,139.780502,JGD2011,国道６号（江戸通り）,c,2004-06-01,2004-06-04,3,6,3.5,1.2,67,65
21,中央区日本橋本町2-2-10先,35.687996,139.775497,JGD2011,日本橋芝浦大森線（昭和通り）,c,2004-06-22,2004-06-25,4,7,4.5,1.2,72,71
22,中央区築地6-1-11先,35.665749,139.772690,JGD2011,日比谷豊洲埠頭東雲町線（晴海通り）,c,2004-07-06,2004-07-09,4,5,4.5,1.2,71,70
23,中央区京橋3-11-8先,35.674385,139.771667,JGD2011,日本橋芝浦大森線（昭和通り）,c,2004-10-26,2004-10-29,4,8,4.6,1.2,71,70
24,中央区京橋2-3-13先,35.676655,139.771225,JGD2011,国道１５号（中央通り）,c,2004-11-16,2004-11-19,3,5,3.5,1.2,67,66
25,中央区新富2-15-5先,35.671257,139.775208,JGD2011,東京市川線（新大橋通り）,c,2004-11-30,2004-12-03,4,6,4.5,1.2,71,69
26,中央区日本橋人形町2-36-1先,35.685848,139.786469,JGD2011,東京市川線（新大橋通り）,c,2004-12-07,2004-12-10,4,6,4.5,1.2,72,70
27,中央区晴海3-1-4先,35.656456,139.779572,JGD2011,日比谷豊洲埠頭東雲町線（晴海通り）,c,2005-01-25,2005-01-28,4,9,5.0,1.2,70,68
28,中央区勝どき2-15,35.658085,139.778656,JGD2011,日比谷豊洲埠頭東雲町線（晴海通り）,C,2004-11-16,2004-11-17,4,4,9.0,1.2,70,68
29,中央区勝どき2-5,35.658321,139.779022,JGD2011,日比谷豊洲埠頭東雲町線（晴海通り）,C,2004-11-16,2004-11-17,4,4,9.0,1.2,71,69
30,中央区日本橋蛎殻町1-16,35.683125,139.782669,JGD2011,東京市川線（新大橋通り）,C,2004-11-29,2004-11-30,4,6,5.5,1.2,70,70
31,中央区日本橋蛎殻町1-29,35.683262,139.783646,JGD2011,東京市川線（新大橋通り）,C,2004-11-29,2004-11-30,4,6,5.6,1.2,72,71
32,中央区銀座1-14,35.673042,139.769714,JGD2011,日本橋芝浦大森線（昭和通り）,C,2004-11-24,2004-11-25,4,10,6.0,1.2,73,73
33,中央区銀座1-20,35.672783,139.770218,JGD2011,日本橋芝浦大森線（昭和通り）,C,2004-11-24,2004-11-25,4,10,6.0,1.2,72,73
34,中央区月島3-11,35.662590,139.781677,JGD2011,上野月島線（清澄通り）,C,2004-11-16,2004-11-17,4,6,5.1,1.2,69,66
35,中央区月島4-1,35.662067,139.782181,JGD2011,上野月島線（清澄通り）,C,2004-11-16,2004-11-17,4,6,7.2,1.2,68,66
36,中央区日本橋浜町2-19,35.686562,139.787079,JGD2011,区道中日第３号線（清洲橋通り）,C,2004-11-29,2004-11-30,5,5,5.5,1.2,68,65
37,中央区日本橋浜町2-30,35.687157,139.787476,JGD2011,区道中日第３号線（清洲橋通り）,C,2004-11-29,2004-11-30,5,5,5.2,1.2,68,64
38,中央区新川1-3,35.678551,139.781754,JGD2011,東京浦安線（永代通り）,C,2004-11-29,2004-11-30,4,6,6.5,1.2,70,68
39,中央区新川1-1,35.679291,139.782104,JGD2011,東京浦安線（永代通り）,C,2004-11-29,2004-11-30,4,6,6.5,1.2,70,68
40,港区白金台1-2,35.636738,139.730743,JGD2011,国道１号（桜田通り）,c,2004-05-24,2004-11-11,3,8,3.1,2.6,72,73
41,港区芝大門1-4,35.658218,139.754623,JGD2011,国道１５号（第一京浜）,c,2004-05-24,2004-11-11,3,8,3.3,2.5,72,71
42,港区赤坂7-3,35.673260,139.728806,JGD2011,国道２４６号（青山通り）,a,2004-05-24,2004-11-11,3,6,7.6,2.3,70,70
43,港区芝5-18,35.648060,139.748489,JGD2011,日比谷芝浦線（日比谷通り）,c,2004-05-24,2004-11-11,4,6,2.7,2.9,69,66
44,港区西麻布3-12,35.656204,139.724091,JGD2011,北品川四谷線（外苑西通り）,b,2004-05-24,2004-11-11,4,6,2.7,1.2,70,70
45,港区白金台4-8,35.637562,139.724762,JGD2011,白金台町等々力線（目黒通り）,c,2004-05-24,2004-11-11,4,4,5.5,2.2,68,67
46,港区港南3-9,35.632515,139.751373,JGD2011,国道１号（海岸通り）,c,2004-05-24,2004-11-11,4,6,5.5,1.5,73,71
47,港区台場1-3,35.632473,139.778198,JGD2011,臨港道路,c,2004-05-24,2004-11-11,4,5,4.3,1.7,72,69
48,港区赤坂8-11,35.668865,139.727951,JGD2011,環状３号線（外苑東通り）,c,2004-05-24,2004-11-11,4,4,2.1,2.1,70,69
49,港区三田2-13,35.649624,139.744522,JGD2011,国道１号（桜田通り）,c,2004-05-24,2004-11-11,3,6,5.0,2.4,69,66
50,港区高輪2-13,35.634586,139.737762,JGD2011,国道１５号（第一京浜）,c,2004-05-24,2004-11-11,3,8,3.1,2.2,72,70
51,港区北青山3-3,35.668293,139.714828,JGD2011,国道２４６号（青山通り）,c,2004-05-24,2004-11-11,3,8,6.5,3.4,71,71
52,港区西麻布3-21,35.659618,139.725067,JGD2011,霞ヶ関渋谷線（六本木通り）,c,2004-05-24,2004-11-11,4,6,4.5,2.2,73,73
53,港区芝大門1-4,35.658218,139.754623,JGD2011,国道１５号（第一京浜）,C,2004-05-24,2004-11-17,3,8,3.3,2.5,72,72
54,港区三田2-13,35.649624,139.744522,JGD2011,国道１号（桜田通り）,C,2004-05-24,2004-11-17,3,6,5.0,2.4,69,66
55,港区北青山3-3,35.668293,139.714828,JGD2011,国道２４６号（青山通り）,C,2004-05-24,2004-11-17,3,8,6.5,3.4,71,72
56,港区赤坂8-11,35.668865,139.727951,JGD2011,環状３号線（外苑東通り）,C,2004-05-24,2004-11-17,4,4,2.1,2.1,70,69
57,港区西麻布3-12,35.656204,139.724091,JGD2011,北品川四谷線（外苑西通り）,B,2004-05-24,2004-11-17,4,6,2.7,1.2,71,70
58,新宿区新小川町6-27,35.707233,139.742157,JGD2011,千代田練馬田無線（目白通り）,c,2004-07-15,2003-07-17,4,4,0.0,1.2,75,75
59,新宿区下落合3-18-5,35.722824,139.704117,JGD2011,千代田練馬田無線（目白通り）,c,2004-05-11,2004-05-13,4,2,0.0,1.2,73,73
60,新宿区西落合4-3-9,35.727287,139.680771,JGD2011,千代田練馬田無線（新目白通り）,b,2004-04-13,2004-04-15,4,4,0.0,1.2,73,73
61,新宿区西早稲田1-13-5,35.711437,139.721130,JGD2011,千代田練馬田無線（新目白通り）,c,2004-06-22,2004-06-24,4,4,0.0,1.2,74,72
62,新宿区中落合1-3-8,35.716949,139.692093,JGD2011,千代田練馬田無線（新目白通り）,c,2005-01-25,2005-01-27,4,4,0.0,1.2,75,75
63,新宿区神楽坂6-58,35.702477,139.736923,JGD2011,飯田橋石神井新座線,c,2004-01-27,2004-01-29,4,1,0.0,1.2,68,68
64,新宿区西早稲田1-4-14,35.709278,139.717209,JGD2011,飯田橋石神井新座線,c,2004-06-22,2004-06-24,4,4,0.0,1.2,72,68
65,新宿区高田馬場4-13-8,35.712811,139.700867,JGD2011,飯田橋石神井新座線（早稲田通り）,c,2004-08-31,2004-09-02,4,2,0.0,1.2,72,71
66,新宿区西早稲田2-14-4,35.708271,139.711517,JGD2011,飯田橋石神井新座線,b,2004-01-27,2004-01-29,4,4,0.0,1.2,68,65
67,新宿区余丁町4-15,35.695354,139.715897,JGD2011,新宿両国線（抜弁天通り）,c,2005-02-15,2005-02-17,4,2,0.0,1.2,70,67
68,新宿区富久町8-25,35.691235,139.717834,JGD2011,新宿両国線（靖国通り）,c,2005-02-15,2005-02-17,4,4,0.0,1.2,71,69
69,新宿区新宿5-16-5,35.692585,139.706238,JGD2011,新宿両国線,c,2004-11-30,2004-12-02,4,4,0.0,1.2,74,72
70,新宿区西新宿8-19-3,35.695469,139.690643,JGD2011,東京所沢線（青梅街道）,c,2005-01-18,2005-01-20,4,4,0.0,1.2,77,75
71,新宿区新宿1-7-3,35.688854,139.710388,JGD2011,国道２０号（新宿通り）,c,2004-11-30,2004-12-02,3,4,0.0,1.2,74,72
72,新宿区市谷本村町7-3,35.695023,139.726059,JGD2011,環状３号線（外苑東通り）,b,2005-02-01,2005-02-03,4,4,0.0,1.2,67,62
73,新宿区左門町13,35.686466,139.719818,JGD2011,芝新宿王子線（明治通り）,c,2004-07-13,2004-07-15,4,4,0.0,1.2,72,71
74,新宿区高田馬場2-1-9,35.711758,139.709824,JGD2011,芝新宿王子線（明治通り）,c,2004-05-11,2004-05-13,4,4,0.0,1.2,76,75
75,新宿区中落合1-14-22,35.716637,139.688553,JGD2011,環状６号線（山手通り）,a,2004-04-13,2004-04-15,4,4,0.0,1.2,78,76
76,新宿区納戸町36,35.696926,139.733063,JGD2011,区道３４－１９１,a,2005-02-01,2005-02-03,6,1,0.0,1.2,72,67
77,新宿区新宿1-33,35.691113,139.711960,JGD2011,新宿両国線,C,2004-11-24,2004-11-25,4,6,6.0,1.2,68,67
78,新宿区原町3-19,35.700424,139.722900,JGD2011,神楽坂高円寺線,C,2004-11-24,2004-11-25,4,2,2.8,1.2,67,66
79,新宿区西新宿3-1,35.687241,139.695084,JGD2011,国道２０号（甲州街道）,C,2004-11-24,2004-11-25,3,6,5.5,1.2,71,69
80,文京区小石川1-21,35.714695,139.751694,JGD2011,白山祝田田町線（白山通り）,C,2005-01-18,2005-01-19,4,6,5.0,1.2,66,63
81,台東区下谷3-1-30,35.723507,139.786118,JGD2011,国道４号（昭和通り）,c,2004-04-19,2004-04-23,3,6,10.0,1.2,72,73
82,台東区浅草橋3-20-18,35.701096,139.788528,JGD2011,国道６号（江戸通り）,c,2005-02-14,2005-02-18,3,6,5.0,1.2,68,66
83,台東区駒形1-4-15,35.707001,139.794510,JGD2011,国道６号（江戸通り）,c,2005-01-31,2005-02-04,3,4,5.0,1.2,71,71
84,台東区今戸1-1,35.718094,139.805069,JGD2011,言問大谷田線,b,2004-12-13,2004-12-17,4,1,3.0,1.2,64,58
85,台東区台東2-6-4,35.702648,139.777527,JGD2011,御徒町小岩線（蔵前橋通り）,c,2004-07-05,2004-07-09,4,4,4.0,1.2,72,71
86,台東区入谷1-3-2,35.719337,139.786346,JGD2011,環状３号線（言問通り）,c,2004-05-17,2004-05-20,4,4,5.0,1.2,71,68
87,台東区谷中1-1-21,35.719852,139.768478,JGD2011,環状３号線（言問通り）,c,2004-09-13,2004-09-17,4,2,2.0,1.2,68,67
88,台東区西浅草3-27-22,35.716606,139.792023,JGD2011,蔵前三ノ輪線（国際通り）,c,2005-01-17,2005-01-21,4,6,5.0,1.2,69,67
89,台東区東上野5-2-2,35.711891,139.781128,JGD2011,上野月島線（浅草通り）,c,2004-11-15,2004-11-19,4,6,6.0,1.2,73,70
90,台東区小島2-21-13,35.706764,139.783005,JGD2011,本郷亀戸線（春日通り）,c,2005-03-14,2005-03-18,4,4,4.0,1.2,67,65
91,台東区浅草橋3-33,35.701591,139.785065,JGD2011,御徒町小岩線,C,2004-11-09,2004-11-10,4,4,4.4,1.2,72,70
92,台東区小島2-18,35.706631,139.783859,JGD2011,本郷亀戸線,C,2004-11-09,2004-11-10,4,4,3.7,1.2,70,67
93,台東区元浅草2-11,35.710930,139.783417,JGD2011,上野月島線,C,2004-11-09,2004-11-10,4,6,5.3,1.2,69,66
94,墨田区東向島1-28,35.718975,139.813736,JGD2011,国道６号（水戸街道）,c,2004-09-06,2004-09-10,3,4,0.0,1.2,73,73
95,墨田区墨田4-61,35.729778,139.826065,JGD2011,国道６号（水戸街道）,c,2004-09-06,2004-09-10,3,4,0.0,1.2,75,78
96,墨田区東向島3-18,35.724251,139.815582,JGD2011,王子千住南砂町線,c,2004-09-13,2004-09-17,4,4,0.0,1.2,73,72
97,墨田区東向島6-6,35.721504,139.819626,JGD2011,王子千住南砂町線（明治通り）,c,2004-09-13,2004-09-17,4,4,0.0,1.2,70,68
98,墨田区江東橋1-7,35.694637,139.810318,JGD2011,国道１４号（京葉道路）,c,2004-09-27,2004-10-01,3,4,0.0,1.2,73,70
99,墨田区緑2-14,35.694542,139.802292,JGD2011,国道１４号（京葉道路）,c,2004-09-27,2004-10-01,3,4,0.0,1.2,75,72
100,墨田区横網2-3,35.699745,139.796921,JGD2011,御徒町小岩線（蔵前橋通り）,b,2004-10-04,2004-10-08,4,4,0.0,1.2,74,68
101,墨田区太平1-1,35.700741,139.808640,JGD2011,御徒町小岩線（蔵前橋通り）,c,2004-10-04,2004-10-08,4,4,0.0,1.2,72,71
102,墨田区菊川3-16,35.688679,139.806351,JGD2011,環状３号線（三ツ目通り）,c,2004-10-18,2004-10-22,4,4,0.0,1.2,76,75
103,墨田区本所4-1,35.702679,139.805069,JGD2011,環状３号線,c,2004-10-18,2004-10-22,4,4,0.0,1.2,74,72
104,墨田区横網2-3,35.699745,139.796921,JGD2011,御徒町小岩線（蔵前橋通り）,b,2004-10-25,2004-10-29,4,4,0.0,1.2,69,65
105,墨田区錦糸4-15,35.698555,139.815033,JGD2011,深川吾需町線（四ツ目通り）,b,2004-10-25,2004-10-29,4,4,0.0,1.2,73,70
106,墨田区東駒形4-15,35.707531,139.807663,JGD2011,本郷亀戸線,c,2004-11-08,2004-11-12,4,6,0.0,1.2,68,66
107,墨田区堤通2-6,35.733002,139.815521,JGD2011,吾妻橋伊興町線,b,2004-11-08,2004-11-12,4,4,0.0,1.2,69,68
108,墨田区八広4-12,35.722603,139.826538,JGD2011,特別区道 墨120,c,2004-11-15,2004-11-19,6,2,2.0,1.2,68,65
109,墨田区八広6-53,35.724098,139.830521,JGD2011,特別区道 墨121,c,2004-11-15,2004-11-19,6,2,0.0,1.2,72,68
110,墨田区八広5-7,35.723965,139.824219,JGD2011,特別区道 墨119,c,2004-11-29,2004-12-03,6,2,0.0,1.2,72,69
111,墨田区両国4-17,35.693279,139.797455,JGD2011,上野月島線,C,2004-10-28,2004-10-29,4,4,4.2,1.2,69,67
112,墨田区石原3-14,35.700012,139.804688,JGD2011,御徒町小岩線,C,2004-10-28,2004-10-29,4,4,2.7,1.2,71,69
113,墨田区横川3-7,35.703743,139.814056,JGD2011,深川吾嬬町線,C,2004-10-28,2004-10-29,4,4,2.7,1.2,70,67
114,墨田区堤通1-18,35.726112,139.812149,JGD2011,吾妻橋伊興町線,C,2004-10-28,2004-10-29,4,4,2.0,1.2,70,66
115,江東区亀戸4-14,35.701527,139.828720,JGD2011,御徒町小岩線（蔵前橋通り）,b,2004-11-24,2004-11-25,4,6,4.0,1.2,74,72
116,江東区亀戸7-39-9,35.696800,139.839569,JGD2011,国道１４号（京葉道路）,c,2004-05-18,2004-05-19,3,6,3.6,1.5,73,71
117,江東区住吉2-28-36,35.688477,139.818192,JGD2011,東京市川線（新大橋通り）,b,2004-05-26,2004-05-27,4,4,4.0,1.5,70,68
118,江東区大島3-16-2,35.689991,139.830032,JGD2011,東京市川線（新大橋通り）,c,2004-11-24,2004-11-25,4,4,3.4,1.2,71,68
119,江東区北砂4-13-23,35.677395,139.829285,JGD2011,浜町北砂町線（清洲橋通り）,c,2004-06-15,2004-06-16,4,4,3.0,1.5,69,65
120,江東区南砂4-4-1,35.674950,139.827621,JGD2011,永代葛西橋線（葛西橋通り）,c,2004-05-11,2004-05-12,4,4,2.8,1.2,74,72
121,江東区永代2-31,35.673653,139.792633,JGD2011,東京浦安線（永代通り）,c,2004-06-16,2004-06-17,4,6,6.0,1.5,71,70
122,江東区東陽3-27,35.670174,139.815643,JGD2011,東京浦安線（永代通り）,c,2004-11-24,2004-11-25,4,6,6.0,1.5,69,69
123,江東区豊洲4-11-18,35.652431,139.799774,JGD2011,日比谷豊洲埠頭東雲町線（晴海通り）,c,2004-06-10,2004-06-11,4,8,6.1,1.2,73,70
124,江東区平野1-2-3,35.678173,139.798935,JGD2011,上野月島線（清澄通り）,c,2004-11-24,2004-11-25,4,4,4.0,1.5,72,68
125,江東区東雲2-5,35.640823,139.799210,JGD2011,国道３５７号（湾岸道路）,c,2004-06-03,2004-06-04,3,4,4.0,1.5,73,73
126,江東区枝川1-8-15,35.657528,139.802109,JGD2011,環状３号線（三ツ目通り）,c,2004-06-09,2004-06-10,4,6,6.0,1.5,73,70
127,江東区森下4-9-22,35.685005,139.805496,JGD2011,環状３号線（三ツ目通り）,c,2004-05-27,2004-05-28,4,4,3.1,1.2,73,73
128,江東区塩浜2-5-20,35.661232,139.805176,JGD2011,環状３号線（三ツ目通り）,c,2004-06-02,2004-06-03,4,6,6.0,1.5,73,70
129,江東区千田16,35.682106,139.816254,JGD2011,深川吾嬬町線(四ツ目通り）,c,2004-11-24,2004-11-25,4,4,2.4,1.2,71,66
130,江東区大島3-4,35.692505,139.826523,JGD2011,王子千住南砂町線（明治通り）,c,2004-05-12,2004-05-13,4,4,4.1,1.2,71,70
131,江東区大島6-7-8,35.691402,139.834503,JGD2011,南砂町吾嬬町線（丸八通り）,b,2004-05-13,2004-05-14,4,6,4.0,1.5,70,68
132,江東区東砂2-12-14,35.683624,139.844009,JGD2011,亀戸葛西橋線（番所橋通り）,b,2004-05-25,2004-05-26,4,4,4.0,1.5,71,66
133,江東区大島7-30,35.693832,139.841415,JGD2011,首都高速７号小松川線,c,2004-05-19,2004-05-20,2,4,23.0,25.8,70,71
134,江東区枝川2-1,35.659821,139.805649,JGD2011,首都高速９号深川線,c,2004-06-08,2004-06-09,2,4,28.0,27.0,74,72
135,江東区亀戸4-14-5,35.701527,139.828720,JGD2011,御徒町小岩線(蔵前橋通り）,Ｂ,2004-11-24,2004-11-25,4,6,4.0,1.2,74,72
136,江東区大島3-16-2,35.689991,139.830032,JGD2011,東京市川線（新大橋通り）,C,2004-11-24,2004-11-25,4,4,3.4,1.2,71,68
137,江東区東陽3-27,35.670174,139.815643,JGD2011,東京浦安線（永代通り）,C,2004-11-24,2004-11-25,4,6,6.0,1.5,69,69
138,江東区平野1-2-3,35.678173,139.798935,JGD2011,上野月島線（清澄通り）,C,2004-11-24,2004-11-25,4,4,4.0,1.5,72,68
139,江東区千田16,35.682106,139.816254,JGD2011,深川吾嬬町線（四ツ目通り）,C,2004-11-24,2004-11-25,4,4,2.4,1.2,71,66
140,品川区五反田6-6-19,35.608261,139.731781,JGD2011,東京丸子横浜線,c,2004-05-11,2004-05-14,4,6,6.0,3.0,73,71
141,品川区八潮5-10,35.599377,139.752625,JGD2011,国道３５７号（湾岸道路）,b,2004-05-25,2004-05-28,3,4,35.0,1.2,62,60
142,品川区北品川3-10-13,35.616417,139.737625,JGD2011,環状６号線（山手通り）,c,2004-07-06,2004-07-09,4,4,4.0,1.2,72,69
143,品川区北品川5-1-1,35.624058,139.731888,JGD2011,環状６号線（山手通り）,c,2004-09-29,2004-10-02,4,4,4.0,1.2,72,70
144,品川区上大崎2-13-36,35.634651,139.717880,JGD2011,白金台町等々力線（目黒通り）,c,2004-09-14,2004-09-17,4,5,6.0,1.5,68,68
145,品川区旗の台1-11-17,35.607334,139.702728,JGD2011,東京丸子横浜線（中原街道）,c,2004-10-26,2004-10-29,4,4,5.0,3.0,71,69
146,品川区上大崎3-14-23,35.632114,139.720078,JGD2011,北品川四谷線,b,2004-11-09,2004-11-12,4,8,7.0,2.0,70,67
147,品川区上大崎3-14-23,35.632114,139.720078,JGD2011,首都高速２号目黒線,b,2004-11-09,2004-11-12,2,4,15.0,8.0,73,70
148,品川区東大井3-18-34,35.600006,139.738266,JGD2011,国道１５号線（第一京浜）,c,2004-12-07,2004-12-10,3,6,4.0,2.0,72,69
149,品川区東中延2-5-10,35.607838,139.713608,JGD2011,国道１号線（第二京浜）,c,2005-01-18,2005-01-21,3,6,3.0,3.0,75,73
150,品川区東五反田4-8,35.629799,139.726486,JGD2011,国道１号線（第二京浜）,C,2004-10-14,2004-10-15,3,8,3.2,1.2,70,67
151,品川区荏原2-1,35.618107,139.713577,JGD2011,東京丸子横浜線（中原街道）,C,2004-10-14,2004-10-15,4,4,4.2,1.2,71,69
152,品川区東大井5-13,35.606754,139.736786,JGD2011,鮫洲大山線,C,2004-10-14,2004-10-15,4,2,3.0,1.2,70,66
153,目黒区目黒3-1-7,35.635330,139.706146,JGD2011,環状６号線（山手通り）,c,2004-08-24,2004-08-26,4,5,5.5,1.2,72,70
154,目黒区碑文谷4-22-16,35.619095,139.681763,JGD2011,環状７号線,b,2004-09-07,2004-09-09,4,6,3.0,1.2,73,74
155,目黒区下目黒1-6-18,35.633797,139.711502,JGD2011,白金台町等々力線（目黒通り）,c,2004-08-24,2004-08-26,4,4,5.2,1.2,72,72
156,目黒区碑文谷5-1-5,35.624027,139.685898,JGD2011,白金台町等々力線（目黒通り）,c,2004-07-27,2004-07-29,4,6,4.3,1.2,70,69
157,目黒区中根1-7-22,35.617378,139.674408,JGD2011,白金台町等々力線（目黒通り）,c,2004-07-27,2004-07-29,4,6,4.3,1.2,72,71
158,目黒区八雲2-24-12,35.617336,139.668839,JGD2011,上馬奥沢線,a,2004-09-07,2004-09-09,4,2,1.7,1.2,68,65
159,目黒区東山3-1-11,35.650799,139.685730,JGD2011,国道２４６号（玉川通り）,C,2004-11-30,2004-12-01,3,6,4.2,1.2,74,74
160,目黒区中根1-25-17,35.614166,139.668488,JGD2011,白金台町等々力線（目黒通り）,B,2004-11-30,2004-12-01,4,4,4.3,1.2,70,67
161,目黒区青葉台3-7-17,35.651764,139.689926,JGD2011,環状６号線（山手通り）,C,2004-11-30,2004-12-01,4,4,5.0,1.2,70,70
162,目黒区柿の木坂2-4-7,35.625145,139.677933,JGD2011,環状７号線,B,2004-11-30,2004-12-01,4,6,3.5,1.2,77,77
163,目黒区中目黒1-4,35.644466,139.701752,JGD2011,旧山手通り,C,2004-11-30,2004-12-01,4,4,3.2,1.2,69,67
164,目黒区駒場1-19-15,35.655750,139.687668,JGD2011,渋谷経堂線,B,2004-11-30,2004-12-01,4,2,2.5,1.2,68,68
165,大田区大森西3-32-17,35.575008,139.733810,JGD2011,国道１５号（第一京浜）,c,2004-10-26,2004-10-29,3,9,5.1,1.5,78,76
166,大田区蒲田本町2-30先,35.556835,139.720657,JGD2011,国道１５号（第一京浜）,c,2004-10-26,2004-10-29,3,4,4.5,1.2,71,72
167,大田区東六郷2-8-8,35.550240,139.716812,JGD2011,国道１５号（第一京浜）,c,2004-10-26,2004-10-29,3,4,4.5,1.5,73,72
168,大田区北馬込2-39-3,35.598221,139.712006,JGD2011,国道１号（第二京浜）,b,2004-10-12,2004-10-15,3,6,1.9,2.3,72,70
169,大田区南馬込5-30-4,35.587440,139.706802,JGD2011,国道１号（第二京浜）,b,2004-10-12,2004-10-15,3,6,2.8,2.7,75,71
170,大田区南馬込5-42,35.585648,139.705750,JGD2011,国道１号（第二京浜）,B,2004-11-24,2004-11-25,3,6,2.0,2.1,72,70
171,大田区大森中2-1,35.568119,139.730362,JGD2011,国道１５号（第一京浜）,C,2004-11-10,2004-11-11,3,4,4.2,2.3,71,70
172,大田区東糀谷1-14,35.558262,139.739014,JGD2011,国道１３１号（産業道路）,C,2004-11-24,2004-11-25,3,4,3.6,2.3,74,73
173,大田区新蒲田1-13,35.559074,139.710052,JGD2011,環状８号線,C,2004-11-15,2004-11-16,4,4,5.8,2.3,69,68
174,大田区山王4-13,35.588856,139.719299,JGD2011,環状７号線,B,2004-11-08,2004-11-09,4,4,4.2,1.8,71,70
175,大田区南千束3-32,35.599949,139.687881,JGD2011,東京丸子横浜線（中原街道）,B,2004-11-24,2004-11-25,4,4,4.2,1.6,71,68
176,大田区東六郷2-8,35.550240,139.716812,JGD2011,国道１５号（第一京浜）,C,2004-11-15,2004-11-16,3,4,4.3,2.5,72,73
177,大田区中馬込1-2,35.598106,139.704681,JGD2011,環状７号線,B,2004-11-10,2004-11-11,4,4,4.3,2.3,72,72
178,大田区東嶺町35,35.580730,139.683029,JGD2011,環状８号線,B,2004-11-15,2004-11-16,4,4,3.0,1.6,73,70
179,大田区南蒲田3-2,35.554874,139.727783,JGD2011,環状８号線,C,2004-11-10,2004-11-11,4,4,4.9,2.0,67,65
180,世田谷区羽根木1-6-14,35.664577,139.660339,JGD2011,環状７号線,c,2004-05-11,2004-05-21,4,5,4.2,1.3,72,72
181,世田谷区三軒茶屋1-30-9,35.641663,139.669739,JGD2011,国道２４６号（玉川通り）,c,2004-06-01,2004-06-11,3,6,2.8,1.3,76,75
182,世田谷区上馬4-1-3,35.635326,139.664017,JGD2011,国道２４６号（玉川通り）,c,2004-08-31,2004-09-10,3,6,3.2,1.3,75,75
183,世田谷区野毛1-25-1,35.605839,139.641632,JGD2011,環状８号線,b,2004-09-28,2004-10-08,4,6,4.2,1.3,75,72
184,世田谷区八幡山2-10-2,35.660618,139.615280,JGD2011,環状８号線,b,2004-10-12,2004-10-22,4,6,3.0,1.3,73,72
185,世田谷区南烏山6-25-8,35.670761,139.597229,JGD2011,国道２０号（甲州街道）,b,2004-11-02,2004-11-12,3,5,3.0,1.3,75,75
186,世田谷区等々力4-19-18,35.610359,139.652618,JGD2011,白金台町等々力線（目黒通り）,b,2004-04-06,2004-04-16,4,4,9.0,1.8,72,69
187,世田谷区代沢4-1-2,35.651436,139.669678,JGD2011,渋谷経堂線（淡島通り）,b,2004-06-15,2004-06-25,4,2,3.0,1.2,70,68
188,世田谷区深沢7-16-3,35.621071,139.648407,JGD2011,古川橋二子玉川線（駒沢通り）,a,2004-06-29,2004-07-09,4,2,3.0,2.5,69,68
189,世田谷区鎌田3-18-5,35.619007,139.617798,JGD2011,大田調布線（多摩堤通り）,a,2004-07-13,2004-07-23,4,2,5.0,1.2,68,64
190,世田谷区上祖師谷2-7-6,35.658173,139.599258,JGD2011,調布経堂停車場線,a,2004-08-17,2004-08-27,4,2,1.0,1.2,69,65
191,世田谷区桜上水1-18-8,35.657021,139.629318,JGD2011,区道（赤堤通り）,a,2004-09-14,2004-09-24,6,2,1.5,1.2,70,67
192,世田谷区野沢3-4-18,35.629002,139.674240,JGD2011,環状７号線,b,2004-12-06,2004-12-07,4,6,2.7,1.3,73,72
193,世田谷区太子堂2-13-1,35.644962,139.672821,JGD2011,国道２４６号（玉川通り）,c,2004-12-06,2004-12-07,3,7,2.6,1.3,74,72
194,世田谷区世田谷1-11-18,35.641205,139.653061,JGD2011,世田谷町田線（世田谷通り）,c,2004-12-02,2004-12-03,4,2,3.5,1.2,72,70
195,世田谷区上北沢4-31-10,35.670887,139.618103,JGD2011,国道２０号（甲州街道）,c,2004-12-01,2004-12-02,3,6,4.8,1.3,69,69
196,世田谷区千歳台3-20-1,35.653828,139.615509,JGD2011,環状８号線,b,2004-12-01,2004-12-02,4,6,2.5,1.2,72,72
197,世田谷区砧公園7,35.630386,139.620163,JGD2011,環状８号線,b,2004-12-09,2004-12-10,4,6,4.6,1.2,71,69
198,世田谷区大蔵3-3,35.633099,139.607727,JGD2011,世田谷町田線（世田谷通り）,a,2004-12-13,2004-12-14,4,2,3.0,1.2,73,71
199,世田谷区太子堂4-5-2,35.644112,139.666290,JGD2011,世田谷町田線（世田谷通り）,c,2004-12-09,2004-12-10,4,4,3.4,1.2,72,73
200,世田谷区瀬田2-31-2,35.618965,139.629761,JGD2011,国道２４６号（玉川通り）,b,2004-12-08,2004-12-09,3,8,3.0,1.2,74,74
201,世田谷区野毛3-20-10,35.604420,139.637070,JGD2011,大田調布線（多摩堤通り）,a,2004-12-08,2004-12-09,4,2,0.8,1.2,73,70
202,世田谷区松原1-39-11,35.669838,139.651657,JGD2011,国道２０号（甲州街道）,c,2004-12-02,2004-12-03,3,8,3.5,1.2,72,71
203,世田谷区太子堂1-4-24,35.646374,139.677002,JGD2011,国道２４６号（玉川通り）,b,2004-12-07,2004-12-08,3,6,4.5,1.3,72,73
204,世田谷区成城3-18-23,35.633675,139.598297,JGD2011,世田谷町田線（世田谷通り）,b,2004-12-13,2004-12-14,4,2,2.5,1.2,73,72
205,世田谷区等々力3-27-7,35.610371,139.650818,JGD2011,白金台町等々力線（目黒通り）,b,2004-12-07,2004-12-08,4,4,2.0,1.2,73,72
206,世田谷区奥沢8-2-3,35.602543,139.658829,JGD2011,環状８号線,B,2004-11-04,2004-11-05,4,6,2.7,1.2,71,69
207,世田谷区池尻2-35-8,35.648422,139.680801,JGD2011,国道２４６号（玉川通り）,C,2004-11-04,2004-11-05,3,6,4.5,1.2,72,73
208,世田谷区代田3-2-12,35.652069,139.660034,JGD2011,環状７号線,B,2004-11-04,2004-11-05,4,6,2.0,1.2,75,75
209,世田谷区喜多見6-19-7,35.631779,139.602478,JGD2011,世田谷町田線（世田谷通り）,B,2004-11-01,2004-11-02,4,2,3.0,1.2,73,73
210,世田谷区野沢4-8-20,35.631832,139.668655,JGD2011,環状７号線,C,2004-11-04,2004-11-05,4,6,6.4,1.2,71,71
211,世田谷区桜丘4-23,35.641811,139.619843,JGD2011,環状８号線,B,2004-11-01,2004-11-02,4,6,2.7,1.2,72,72
212,世田谷区千歳台4-29-11,35.658829,139.612717,JGD2011,調布経堂停車場線,A,2004-11-01,2004-11-02,4,2,3.3,1.2,68,65
213,世田谷区船橋1-44-8,35.650986,139.619919,JGD2011,高円寺砧浄水場線,A,2004-11-01,2004-11-02,4,1,1.2,1.2,66,61
214,渋谷区初台1-32,35.679077,139.684341,JGD2011,国道２０号（甲州街道）,c,2004-09-09,2004-09-10,3,8,5.0,2.0,73,74
215,渋谷区千駄ヶ谷2-4,35.675117,139.707581,JGD2011,芝新宿王子線（明治通り）,c,2004-09-14,2004-09-15,4,4,4.0,2.0,71,69
216,渋谷区初台2-27,35.675186,139.687469,JGD2011,環状６号線（山手通り）,b,2004-09-09,2004-09-10,4,4,3.0,2.0,63,62
217,渋谷区代々木3-21,35.686443,139.695099,JGD2011,国道２０号（甲州街道）,c,2004-09-09,2004-09-10,3,8,6.0,2.0,70,70
218,渋谷区南平台町16,35.654274,139.694397,JGD2011,国道２４６号（玉川通り）,c,2004-09-16,2004-09-17,3,6,5.0,2.0,75,75
219,渋谷区鉢山町8,35.650227,139.698654,JGD2011,環状６号線（山手通り）,a,2004-09-16,2004-09-17,4,4,3.0,2.0,68,67
220,渋谷区東3-14,35.651119,139.709732,JGD2011,芝新宿王子線（明治通り）,c,2004-09-16,2004-09-17,4,4,5.0,2.0,70,67
221,渋谷区道玄坂1-9,35.657192,139.699615,JGD2011,国道２４６号（玉川通り）,C,2004-09-16,2004-09-17,3,6,6.0,1.2,72,73
222,渋谷区広尾5-8,35.648281,139.721222,JGD2011,古川橋二子玉川線,C,2004-09-16,2004-09-17,4,6,4.5,1.2,68,66
223,渋谷区初台1-2,35.678291,139.687866,JGD2011,環状６号線（山手通り）,B,2004-09-09,2004-09-10,4,4,3.0,1.2,75,74
224,渋谷区千駄ヶ谷3-1,35.675823,139.706238,JGD2011,芝新宿王子線（明治通り）,C,2004-09-14,2004-09-15,4,4,4.2,1.2,70,68
225,渋谷区本町1-56,35.682873,139.683731,JGD2011,角筈和泉町線,C,2004-09-09,2004-09-10,4,2,3.0,1.2,67,68
226,渋谷区神宮前5-2,35.665829,139.709366,JGD2011,赤坂杉並線,C,2004-09-14,2004-09-15,4,4,5.8,1.2,68,69
227,中野区大和町1-12-1,35.712528,139.653717,JGD2011,環状７号線,c,2004-10-12,2004-10-15,4,4,4.5,1.2,77,78
228,中野区江原町3-5-1,35.730846,139.675552,JGD2011,千代田練馬田無線（目白通り）,c,2004-11-09,2004-11-12,4,4,4.1,1.2,71,69
229,中野区本町4-18-12,35.696976,139.672409,JGD2011,東京所沢線（青梅街道）,c,2004-10-12,2004-10-15,4,4,0.5,1.2,71,71
230,中野区中野2-17-4,35.702869,139.669495,JGD2011,神楽坂高円寺線（大久保通り）,c,2004-11-09,2004-11-12,4,2,1.9,1.2,69,67
231,中野区中野5-68-7,35.709263,139.665207,JGD2011,特例都道420号鮫洲大山線,c,2004-10-12,2004-10-15,4,4,3.5,1.2,69,68
232,中野区弥生町4-20,35.686672,139.671631,JGD2011,新宿国立線（方南通り）,c,2004-10-12,2004-10-15,4,2,3.5,1.2,69,67
233,中野区江古田4-2,35.724026,139.665192,JGD2011,落合井草線（新青梅街道）,c,2004-11-09,2004-11-12,4,2,3.1,1.2,71,70
234,中野区上鷺宮3-17-4,35.735073,139.631134,JGD2011,椎名町上井草線（千川通り）,c,2004-11-09,2004-11-12,4,2,2.7,1.2,72,69
235,中野区白鷺1-27-4,35.720589,139.636948,JGD2011,世田谷貫井線（中杉通り）,c,2004-11-09,2004-11-12,4,2,1.2,1.2,68,67
236,中野区中野5-4-7,35.709061,139.672165,JGD2011,飯田橋石神井新座線,c,2004-10-12,2004-10-15,4,2,3.0,1.2,71,70
237,中野区中央2-18-21,35.700245,139.682617,JGD2011,環状６号線（山手通り）,c,2004-10-07,2004-10-08,4,4,4.0,1.2,71,70
238,中野区弥生町2-41-2,35.691360,139.671951,JGD2011,区道補助６３号（本郷通り）,c,2004-10-12,2004-10-15,6,2,2.2,1.2,67,65
239,中野区弥生町4-41,35.688129,139.670837,JGD2011,区道補助６３号（本郷通り）,C,2004-10-12,2004-10-15,4,2,2.1,1.2,68,66
240,中野区中野5-68,35.709263,139.665207,JGD2011,鮫洲大山線（中野通り）,C,2004-10-12,2004-10-15,4,3,3.5,1.2,69,68
241,中野区中野5-4,35.709061,139.672165,JGD2011,飯田橋石神井新座線,C,2004-10-12,2004-10-15,4,2,3.0,1.2,71,71
242,中野区弥生町4-20,35.686672,139.671631,JGD2011,新宿国立線（方南通り）,C,2004-10-12,2004-10-15,4,2,3.1,1.2,69,67
243,杉並区高円寺北2-1,35.705902,139.653915,JGD2011,環状７号線,c,2004-04-19,2004-04-22,4,6,7.0,1.4,72,71
244,杉並区和田2-7,35.686996,139.656174,JGD2011,環状７号線,c,2004-05-10,2004-05-13,4,6,3.0,1.4,75,75
245,杉並区和泉1-21,35.674351,139.659515,JGD2011,環状７号線,c,2004-05-17,2004-05-20,4,6,3.0,1.4,75,75
246,杉並区桃井1-39,35.713997,139.614243,JGD2011,環状８号線,b,2004-05-24,2004-05-27,4,4,4.0,1.4,75,73
247,杉並区荻窪5-10,35.701599,139.617706,JGD2011,環状８号線,c,2004-06-01,2004-06-04,4,4,3.0,1.4,75,73
248,杉並区高井戸西1-5,35.680756,139.613739,JGD2011,環状８号線,b,2004-06-28,2004-07-01,4,4,4.0,1.4,74,75
249,杉並区下高井戸4-2,35.670437,139.629974,JGD2011,国道２０号（甲州街道）,c,2004-09-06,2004-09-10,3,8,6.0,2.0,72,71
250,杉並区高井戸東2-3,35.677635,139.615311,JGD2011,新宿国立線,b,2004-09-13,2004-09-16,4,6,5.0,1.4,71,70
251,杉並区上高井戸2-16,35.679134,139.606979,JGD2011,新宿国立線,b,2004-09-28,2004-10-01,4,2,9.0,1.4,68,67
252,杉並区高円寺南2-11,35.698475,139.650757,JGD2011,東京所沢線（青梅街道）,c,2004-10-04,2004-10-07,4,4,4.0,1.4,72,69
253,杉並区成田東5-20,35.700909,139.631165,JGD2011,東京所沢線（青梅街道）,c,2004-11-29,2004-12-02,4,4,4.0,1.4,71,70
254,杉並区桃井4-2,35.712292,139.603058,JGD2011,東京所沢線（青梅街道）,c,2004-11-08,2004-11-11,4,4,5.0,1.4,71,69
255,杉並区高井戸東4-3,35.687462,139.620407,JGD2011,赤坂杉並線（井の頭通り）,b,2004-10-19,2004-10-22,4,4,3.0,1.9,75,74
256,杉並区松庵2-10,35.696754,139.595718,JGD2011,杉並あきる野線（井の頭通り）,b,2004-10-25,2004-10-28,4,4,3.0,1.4,73,73
257,杉並区高井戸東4-13,35.690083,139.619766,JGD2011,杉並あきる野線（五日市街道）,b,2004-12-06,2004-12-09,4,2,4.0,2.4,65,63
258,杉並区宮前1-18,35.690220,139.613647,JGD2011,杉並あきる野線（五日市街道）,c,2005-01-17,2005-01-20,4,2,2.0,1.4,68,68
259,杉並区阿佐谷北5-45,35.711430,139.641129,JGD2011,飯田橋石神井新座線（早稲田通り）,c,2005-01-31,2005-02-03,4,2,3.0,2.3,68,67
260,杉並区上井草3-6,35.719406,139.602066,JGD2011,向井町新町線（早稲田通り）,a,2005-01-25,2005-01-28,4,2,2.0,1.4,66,64
261,杉並区堀ﾉ内1-9,35.683540,139.650314,JGD2011,新宿国立線（方南通り）,b,2005-02-14,2005-02-17,4,4,4.0,1.4,68,64
262,杉並区阿佐谷北1-32,35.708199,139.635712,JGD2011,瀬田貫井線（中杉通り）,c,2004-12-13,2004-12-16,4,2,6.0,1.4,68,67
263,杉並区宮前3-27,35.696415,139.609192,JGD2011,区道2132号（神明通り）,a,2004-07-06,2004-07-09,6,1,1.0,1.4,69,64
264,杉並区西荻北2-32,35.706882,139.605515,JGD2011,区道２１０３－１（真中橋通り）,a,2004-06-14,2004-06-17,6,2,2.0,1.8,64,57
265,杉並区高井戸西1-17,35.681786,139.606659,JGD2011,区道2133－1号線,a,2004-06-22,2004-06-25,6,2,1.0,1.4,68,63
266,杉並区下高井戸2-1,35.667671,139.639420,JGD2011,国道２０号（甲州街道）,C,2004-10-28,2004-10-29,3,8,5.0,1.2,73,72
267,杉並区善福寺1-15,35.712730,139.599976,JGD2011,東京所沢線（青梅街道）,C,2004-10-07,2004-10-08,4,4,4.7,1.2,70,69
268,杉並区高円寺南5-32,35.704590,139.655273,JGD2011,環状７号線,C,2004-10-07,2004-10-08,4,6,9.2,1.2,72,72
269,杉並区高井戸東2-13,35.680080,139.614975,JGD2011,環状８号線,B,2004-10-28,2004-10-29,4,4,4.6,1.2,76,77
270,杉並区高井戸東3-33,35.686672,139.620056,JGD2011,赤坂杉並線（井の頭通り）,B,2004-10-28,2004-10-29,4,4,3.3,1.2,73,72
271,杉並区今川4-27,35.717552,139.601364,JGD2011,向井町新町線（早稲田通り）,A,2004-10-07,2004-10-08,4,2,2.3,1.2,69,67
272,豊島区南池袋4-18-10,35.724346,139.720291,JGD2011,首都高速５号池袋線,c,2004-06-14,2004-06-17,2,4,9.0,16.5,73,73
273,豊島区池袋1-13-22,35.737099,139.713638,JGD2011,首都高速５号池袋線,c,2005-02-21,2005-02-24,2,4,9.0,22.5,76,76
274,豊島区池袋1-13-22,35.737099,139.713638,JGD2011,国道２５４号（川越街道）,c,2005-02-21,2005-02-24,3,6,5.0,1.3,71,69
275,豊島区東池袋5-39-18,35.728218,139.725494,JGD2011,国道２５４号（春日通り）,c,2004-11-29,2004-12-03,3,4,3.0,1.5,73,70
276,豊島区南長崎4-13-35,35.724495,139.683685,JGD2011,千代田練馬田無線（目白通り）,c,2004-05-24,2004-05-27,4,4,4.0,2.8,70,69
277,豊島区南長崎3-5-2,35.723106,139.687775,JGD2011,千代田練馬田無線（目白通り）,c,2004-11-16,2004-11-19,4,2,3.0,1.5,73,72
278,豊島区西巣鴨4-9-1,35.743462,139.729477,JGD2011,国道１７号（白山通り）,c,2004-07-12,2004-07-15,3,6,5.0,1.8,67,65
279,豊島区目白1-1,35.717491,139.711899,JGD2011,芝新宿王子線,b,2005-02-14,2005-02-17,4,4,4.0,1.5,69,66
280,豊島区池袋2-61-5,35.734947,139.709808,JGD2011,区道(補助73号線),c,2004-12-06,2004-12-09,6,2,4.0,1.5,66,64
281,豊島区東池袋5-44-16,35.727516,139.726395,JGD2011,国道２５４号（春日通り）,c,2004-11-17,2004-11-18,3,4,5.0,1.2,73,72
282,豊島区雑司が谷3-8-16,35.721489,139.713058,JGD2011,芝新宿王子線,c,2004-11-17,2004-11-18,4,4,4.0,1.2,75,74
283,豊島区要町2-14-16,35.736393,139.691284,JGD2011,池袋谷原線,c,2004-11-17,2004-11-18,4,4,5.0,1.2,64,62
284,豊島区南大塚1-19-2,35.728470,139.732513,JGD2011,小石川西巣鴨線,c,2004-11-17,2004-11-18,4,4,4.0,1.2,66,63
285,豊島区上池袋1-37-1,35.736809,139.723221,JGD2011,小石川西巣鴨線,c,2004-11-25,2004-11-26,4,2,4.0,1.8,66,63
286,豊島区長崎1-28-22,35.729290,139.696808,JGD2011,環状６号線（山手通り）,c,2004-11-08,2004-11-11,4,4,4.0,1.5,71,71
287,豊島区東池袋5-44,35.727516,139.726395,JGD2011,国道２５４号（春日通り）,C,2004-11-17,2004-11-18,3,4,4.6,1.2,73,72
288,豊島区雑司が谷3-8,35.721489,139.713058,JGD2011,芝新宿王子線,C,2004-11-17,2004-11-18,4,4,3.6,1.2,75,74
289,豊島区要町2-14,35.736393,139.691284,JGD2011,池袋谷原線（要町通り）,C,2004-11-17,2004-11-18,4,4,4.6,1.2,64,62
290,豊島区大塚1-19-2,35.732368,139.715897,JGD2011,小石川西巣鴨線,C,2004-11-17,2004-11-18,4,4,3.6,1.2,66,63
291,豊島区上池袋1-37,35.736809,139.723221,JGD2011,小石川西巣鴨線,C,2004-11-25,2004-11-26,4,2,3.6,1.8,66,63
292,北区岩渕町26-6,35.785709,139.722275,JGD2011,国道１２２号（北本通り）,c,2004-10-25,2004-10-26,3,5,4.5,1.7,69,67
293,北区神谷3-30-2,35.771313,139.733536,JGD2011,国道１２２号（北本通り）,c,2004-11-04,2004-11-05,3,6,3.4,1.3,70,66
294,北区神谷1-10-1,35.769032,139.734085,JGD2011,国道１２２号（北本通り）,c,2004-11-16,2004-11-17,3,7,3.2,1.3,69,66
295,北区昭和町3-9-10,35.749084,139.751450,JGD2011,王子千住南砂線（明治通り）,c,2004-11-15,2004-11-16,4,4,3.8,1.3,70,67
296,北区赤羽北1-12-1,35.785969,139.711655,JGD2011,環状８号線,c,2004-11-08,2004-11-09,4,4,4.0,1.5,69,65
297,北区上十条5-4-1,35.764984,139.717239,JGD2011,環状７号線,c,2004-11-09,2004-11-10,4,4,4.7,1.7,74,73
298,北区滝野川1-90-8,35.745979,139.730972,JGD2011,国道１２２号,c,2004-11-01,2004-11-02,3,4,4.6,1.4,72,70
299,北区岩淵町10,35.783188,139.725143,JGD2011,国道１２２号（北本通り）,C,2004-11-24,2004-11-25,3,4,4.2,1.2,73,71
300,北区堀船2-10,35.753471,139.745438,JGD2011,都道王子千住南砂町線,C,2004-11-24,2004-11-25,4,4,3.7,1.2,71,67
301,荒川区東尾久2-43-9,35.742863,139.769562,JGD2011,台東鳩ヶ谷線（尾久橋通り）,c,2004-12-13,2004-12-17,4,4,5.5,1.5,71,71
302,荒川区荒川3-51-3,35.735783,139.780014,JGD2011,王子千住南砂町線（明治通り）,c,2004-09-06,2004-09-10,4,6,3.3,1.2,71,69
303,荒川区南千住1-59-11,35.734081,139.793381,JGD2011,国道４号（日光街道）,c,2004-05-10,2004-05-14,3,4,4.4,1.8,71,70
304,荒川区町屋3-8-15,35.746952,139.782974,JGD2011,上野尾竹橋線（尾竹橋通り）,c,2004-10-18,2004-10-20,4,2,3.2,1.6,70,68
305,荒川区荒川3-67-1,35.734917,139.778183,JGD2011,上野尾竹橋線（尾竹橋通り）,c,2004-09-27,2004-09-29,4,4,3.4,1.3,70,66
306,荒川区東日暮里6-17-6,35.729103,139.777298,JGD2011,特別区道荒１０７号（日暮里中央通り）,c,2004-11-15,2004-11-19,6,2,3.3,1.8,67,64
307,荒川区東尾久6-35-10,35.749165,139.772858,JGD2011,特別区道荒１１１号（旭電化通り）,c,2004-06-07,2004-06-11,6,2,2.5,1.5,67,66
308,荒川区南千住5ｰ6,35.733055,139.793564,JGD2011,国道４号（日光街道）,C,2004-10-14,2004-10-15,3,4,4.2,1.2,71,70
309,荒川区荒川3ｰ22,35.734619,139.782333,JGD2011,王子千住南砂町線（明治通り）,C,2004-10-14,2004-10-15,4,4,4.3,1.2,72,69
310,荒川区東尾久1-37,35.742054,139.769180,JGD2011,台東鳩ヶ谷線（尾久橋通り）,C,2004-10-14,2004-10-15,4,4,3.5,1.2,72,70
311,板橋区板橋2-67,35.751736,139.709290,JGD2011,国道１７号（中山道）,c,2004-09-13,2004-09-17,3,4,4.0,1.0,71,68
312,板橋区高島平1-9,35.782066,139.668015,JGD2011,区道補助２０１号,b,2004-09-28,2004-10-01,4,6,2.0,1.0,73,69
313,板橋区双葉町42番地先,35.759560,139.700302,JGD2011,環状７号線,c,2004-06-22,2004-06-25,4,4,4.0,1.0,74,73
314,板橋区高島平1-75,35.786488,139.669830,JGD2011,区道補助２０２号,b,2005-02-01,2005-02-04,4,6,4.0,1.0,70,68
315,板橋区南常磐台2-8,35.756393,139.689240,JGD2011,国道２５４号（川越街道）,c,2004-12-13,2004-12-16,3,4,4.0,1.0,72,72
316,板橋区熊野町25,35.744221,139.707901,JGD2011,環状６号線（山手通り）,c,2004-06-29,2004-06-30,4,6,4.0,1.0,76,74
317,板橋区大山町13番地,35.747055,139.700409,JGD2011,国道２５４号（川越街道）,c,2004-11-29,2004-11-30,3,4,4.0,1.0,72,70
318,板橋区本町41,35.757793,139.707443,JGD2011,国道１７号（中山道）,c,2004-12-01,2004-12-02,3,6,4.0,1.0,79,77
319,板橋区小茂根4-9,35.746487,139.675751,JGD2011,環状７号線,c,2004-07-20,2004-07-21,4,4,4.0,1.0,72,71
320,板橋区大原町6,35.769924,139.700775,JGD2011,国道１７号（中山道）,c,2004-07-21,2004-07-22,3,4,4.0,1.0,70,69
321,板橋区坂下3-35,35.790768,139.683426,JGD2011,国道１７号（中山道）,c,2004-11-24,2004-11-25,3,4,4.0,1.0,74,72
322,板橋区坂下1-5,35.779690,139.687164,JGD2011,環状８号線,c,2004-11-25,2004-11-26,4,4,4.0,1.0,71,66
323,板橋区稲荷台22,35.762180,139.710297,JGD2011,環状７号線,c,2005-03-08,2005-03-09,4,4,3.0,1.0,74,71
324,板橋区熊野町11,35.741783,139.706451,JGD2011,環状６号線（山手通り）,c,2004-06-28,2004-06-29,4,9,4.0,1.0,71,70
325,板橋区高島平6-1,35.791908,139.645660,JGD2011,首都高速5号池袋線,c,2005-02-15,2005-02-16,2,4,4.0,1.0,76,72
326,板橋区赤塚7-25,35.779480,139.649689,JGD2011,国道１７号（新大宮バイパス）,b,2005-02-14,2005-02-15,3,3,4.0,1.0,68,57
327,板橋区赤塚新町3-3,35.770729,139.641541,JGD2011,国道２５４号（川越街道）,c,2005-03-10,2005-03-11,3,4,4.0,1.0,76,75
328,足立区新田2-4,35.773075,139.740738,JGD2011,環状７号線,c,2004-09-08,2004-09-09,4,4,3.0,1.5,75,74
329,足立区大谷田4-1,35.777340,139.837265,JGD2011,環状７号線,c,2004-11-08,2004-11-09,4,4,4.0,1.5,74,72
330,足立区千住河原町10,35.743710,139.797867,JGD2011,国道４号（日光街道）,c,2004-04-20,2004-04-21,3,7,4.0,1.5,77,76
331,足立区中央本町1-5-3,35.771072,139.803894,JGD2011,国道４号（日光街道）,c,2004-11-04,2004-11-05,3,4,5.0,1.5,71,71
332,足立区西保木間1-15,35.796452,139.801788,JGD2011,国道４号（日光街道）,c,2004-10-28,2004-10-29,3,4,4.0,1.5,74,73
333,足立区西新井本町2-3-1,35.777035,139.775955,JGD2011,王子金町江戸川線,c,2004-10-28,2004-10-29,4,2,1.0,1.2,69,67
334,足立区足立1-13,35.764042,139.805466,JGD2011,千住小松川葛西沖線,c,2004-11-04,2004-11-05,4,5,8.0,1.5,71,68
335,足立区綾瀬3-12-15,35.763535,139.828522,JGD2011,言問大谷田線,b,2004-10-21,2004-10-22,4,2,6.0,1.5,66,61
336,足立区綾瀬1-11,35.756969,139.821121,JGD2011,千住小松川葛西沖線,b,2004-10-21,2004-10-22,4,2,3.0,1.5,69,67
337,足立区梅島2-2,35.775856,139.802994,JGD2011,国道４号（日光街道）,C,2004-11-08,2004-11-09,3,4,4.0,1.2,72,72
338,足立区中央本町5-12,35.778484,139.807846,JGD2011,環状７号線,C,2004-11-10,2004-11-11,4,4,4.2,1.2,74,73
339,足立区島根2-32-18,35.784908,139.802475,JGD2011,国道４号（日光街道）,C,2004-11-08,2004-11-09,3,4,4.3,1.2,73,73
340,足立区本木南町2-13,35.760323,139.781052,JGD2011,新荒川葛西堤防線／首都高速中央環状線,C,2004-11-08,2004-11-09,4,4,7.1,1.2,72,69
341,足立区入谷7-16,35.801758,139.759796,JGD2011,東京鳩ヶ谷線,C,2004-11-10,2004-11-11,4,6,5.9,1.2,74,72
342,足立区千住桜木町1-18-15,35.751392,139.792053,JGD2011,吾妻橋伊興町線,C,2004-11-08,2004-11-09,4,2,3.0,1.2,70,68
343,葛飾区金町5-24-21,35.765957,139.868622,JGD2011,国道６号（水戸街道）,c,2004-11-24,2004-12-01,3,8,6.0,1.2,64,63
344,葛飾区柴又4-30-1,35.752903,139.877029,JGD2011,王子金町江戸川線（柴又街道）,c,2004-11-24,2004-12-01,4,2,5.0,1.2,67,64
345,葛飾区東新小岩3-12-1,35.722919,139.861862,JGD2011,御徒町小岩線（蔵前橋通り）,c,2004-11-04,2004-11-11,4,4,4.6,1.2,72,69
346,葛飾区亀有3-38-17,35.763786,139.850296,JGD2011,環状７号線,c,2004-11-24,2004-12-01,4,4,4.3,1.2,70,68
347,葛飾区四つ木5-15-21,35.742584,139.841217,JGD2011,国道６号（水戸街道）,c,2004-10-14,2004-10-21,3,4,4.7,1.2,74,73
348,葛飾区東立石2-1-4,35.733753,139.843430,JGD2011,千住小松川葛西沖線（平和橋通り）,c,2004-12-06,2004-12-09,4,3,4.0,1.2,68,64
349,葛飾区水元3-20-1,35.782383,139.865417,JGD2011,王子金町江戸川線（岩槻街道）,b,2004-11-12,2004-11-19,4,2,5.0,1.2,67,62
350,葛飾区高砂1-2-1,35.741302,139.863144,JGD2011,環状７号線,c,2004-11-04,2004-11-11,4,5,4.1,2.3,73,72
351,葛飾区小菅3-6-17,35.755337,139.824203,JGD2011,千住小松川葛西沖線,c,2004-10-22,2004-10-29,4,2,0.3,1.2,70,64
352,葛飾区小菅2-19-21,35.750191,139.825821,JGD2011,言問大谷田線,c,2004-10-22,2004-10-29,4,5,4.1,1.2,68,63
353,葛飾区奥戸2-37-7,35.734699,139.861832,JGD2011,市川四つ木線（奥戸街道）,c,2004-11-04,2004-11-11,4,2,3.2,1.8,69,66
354,葛飾区水元5-4-6,35.790070,139.858185,JGD2011,王子金町江戸川線,b,2004-11-12,2004-11-19,4,2,0.2,1.2,71,66
355,葛飾区堀切6-1-1,35.752026,139.827789,JGD2011,言問大谷田線,c,2004-10-22,2004-10-29,4,4,10.0,1.6,71,68
356,葛飾区東金町8-2-21,35.779060,139.883957,JGD2011,松戸草加線,c,2004-11-12,2004-11-19,4,5,5.8,1.2,70,66
357,葛飾区堀切1-42-13,35.741985,139.833939,JGD2011,千住小松川葛西沖線（平和橋通り）,c,2004-10-14,2004-10-21,4,2,3.5,1.8,69,66
358,葛飾区新小岩1-51,35.715363,139.860443,JGD2011,千住小松川葛西沖線（平和橋通り）,c,2004-11-04,2004-11-11,4,3,3.0,1.2,69,67
359,葛飾区四つ木2-4,35.736511,139.835846,JGD2011,国道６号（水戸街道）,C,2004-12-16,2004-12-17,3,8,3.1,1.2,75,74
360,葛飾区新宿2-13,35.761452,139.857101,JGD2011,千住新宿町線,B,2004-11-10,2004-11-11,4,2,1.2,1.2,66,60
361,葛飾区奥戸2-23,35.735279,139.858261,JGD2011,市川四つ木線（奥戸街道）,C,2004-11-29,2004-11-30,4,2,3.1,1.2,69,67
361,葛飾区水元2-1,35.783989,139.854935,JGD2011,王子金町江戸川線,B,2004-11-10,2004-11-11,4,2,2.0,1.2,68,64
362,葛飾区鎌倉3-38,35.748539,139.879196,JGD2011,王子金町江戸川線（柴又街道）,C,2004-11-29,2004-11-30,4,2,2.5,1.2,70,68
364,葛飾区奥戸7-15,35.738132,139.863708,JGD2011,環状７号線,C,2004-11-29,2004-11-30,4,4,3.7,1.2,71,70
365,江戸川区平井6-13,35.706902,139.839432,JGD2011,御徒町小岩線（蔵前橋通り）,c,2004-11-24,2004-11-25,4,4,4.0,1.2,70,67
366,江戸川区北小岩3-6,35.737469,139.890579,JGD2011,市川四ツ木線（蔵前橋通り）,c,2004-11-24,2004-11-25,4,4,4.2,1.2,70,67
367,江戸川区東小岩3-20,35.732632,139.892456,JGD2011,国道１４号（千葉街道）,c,2004-11-24,2004-11-25,3,2,1.7,1.2,70,68
368,江戸川区東小松川1-6,35.702507,139.866241,JGD2011,国道１４号（京葉道路）,c,2004-10-21,2004-10-22,3,4,4.0,1.2,75,73
369,江戸川区船堀1-3,35.686417,139.862823,JGD2011,東京市川線（新大橋通り）,c,2004-10-21,2004-10-22,4,4,4.0,1.2,76,73
370,江戸川区一之江町2990,35.683815,139.872513,JGD2011,東京市川線（新大橋通り）,c,2004-10-21,2004-10-22,4,4,5.4,1.2,69,67
371,江戸川区中葛西4-9,35.667912,139.867798,JGD2011,東京浦安線（葛西橋通り）,c,2004-11-04,2004-11-05,4,4,4.0,1.2,71,69
372,江戸川区中葛西5-8,35.661694,139.866394,JGD2011,放射１６号線,c,2004-11-04,2004-11-05,4,6,5.5,1.2,67,64
373,江戸川区北小岩5-34,35.739582,139.891663,JGD2011,江戸川堤防線,a,2004-11-24,2004-11-25,4,2,1.3,1.2,67,62
374,江戸川区江戸川1-36,35.686520,139.907822,JGD2011,新荒川葛西堤防線,a,2004-10-28,2004-10-29,4,2,2.0,1.2,69,65
375,江戸川区東小岩1-5,35.720238,139.891144,JGD2011,王子金町江戸川線（柴又街道）,c,2004-10-28,2004-10-29,4,2,2.6,1.2,69,66
376,江戸川区南葛西3-23,35.650539,139.871368,JGD2011,環状７号線,c,2004-11-04,2004-11-05,4,6,4.8,1.2,69,67
377,八王子市片倉町1404-1,35.626556,139.341415,JGD2011,国道１６号（東京環状）,a,2005-01-11,2005-01-12,3,2,2.0,1.2,75,76
378,八王子市中野山王1-8-5,35.671257,139.330734,JGD2011,国道１６号（東京環状）,c,2005-01-11,2005-01-12,3,2,1.0,1.2,73,73
379,八王子市北野町549-5,35.646137,139.353210,JGD2011,国道１６号（八王子バイパス）,c,2005-01-11,2005-01-12,3,6,8.0,1.2,71,70
380,八王子市大谷町355-1,35.676857,139.354065,JGD2011,国道１６号（八王子バイパス）,b,2005-01-11,2005-01-12,3,4,0.0,1.2,72,72
381,八王子市明神町4-21-1,35.660000,139.345459,JGD2011,国道２０号（甲州街道）,c,2005-01-11,2005-01-12,3,4,4.0,1.2,70,67
382,八王子市八日町6-2,35.660484,139.329498,JGD2011,国道２０号（甲州街道）,c,2005-01-24,2005-01-25,3,4,5.0,1.2,72,68
383,八王子市並木町15-15,35.650925,139.300262,JGD2011,国道２０号（甲州街道）,b,2005-01-11,2005-01-12,3,4,4.0,1.2,70,68
384,八王子市加住町1-170-2,35.700542,139.316833,JGD2011,国道４１１号（滝山街道）,a,2005-01-11,2005-01-12,3,2,1.0,1.2,71,68
385,八王子市下柚木2-10-6,35.626877,139.382278,JGD2011,府中相模原線（野猿街道）,b,2004-12-21,2004-12-22,4,4,3.0,1.2,71,67
386,八王子市中野上町1-32-19,35.668297,139.322601,JGD2011,八王子五日市線（秋川街道）,c,2005-01-19,2005-01-20,4,2,1.0,1.2,71,68
387,八王子市川口町908-1,35.693378,139.279099,JGD2011,八王子五日市線（秋川街道）,a,2005-01-19,2005-01-20,4,2,1.0,1.2,70,65
388,八王子市犬目町863,35.693054,139.303253,JGD2011,八王子あきる野線（高尾街道）,a,2005-01-19,2005-01-20,4,2,2.0,1.2,70,66
389,八王子市四谷町738,35.675873,139.297012,JGD2011,八王子あきる野線（高尾街道）,b,2005-01-19,2005-01-20,4,2,1.0,1.2,73,71
390,八王子市狭間町1737,35.637131,139.287140,JGD2011,八王子町田線（町田街道）,a,2005-01-19,2005-01-20,4,2,3.0,1.2,70,67
391,八王子市石川町2065,35.671555,139.360764,JGD2011,八王子武蔵村山線,b,2004-12-21,2004-12-22,4,2,3.0,1.2,69,66
392,八王子市片倉町119-4,35.643246,139.333313,JGD2011,上館日野線（北野街道）,a,2004-12-21,2004-12-22,4,2,2.0,1.2,71,68
393,八王子市大楽寺町539,35.670731,139.298981,JGD2011,上野原八王子線（陣馬街道）,b,2005-01-11,2005-01-12,4,2,2.0,1.2,71,69
394,八王子市西寺方町732,35.681908,139.273453,JGD2011,上野原八王子線（陣馬街道）,a,2005-01-24,2005-01-25,4,2,1.0,1.2,73,68
395,八王子市八木町8-14,35.661766,139.320541,JGD2011,八王子幹線一級17号線,c,2005-01-11,2005-01-12,5,4,3.0,1.2,71,69
396,八王子市下恩方町1849-1,35.672089,139.260956,JGD2011,山田宮の前線,a,2005-01-19,2005-01-20,4,2,5.0,1.2,73,68
397,八王子市松木30-1,35.621815,139.390411,JGD2011,小山乞田線（多摩ニュータウン通り）,b,2004-12-21,2004-12-22,4,4,5.0,1.2,67,63
398,八王子市下柚木341,35.628994,139.380585,JGD2011,下柚木八王子線（野猿街道）,c,2004-12-21,2004-12-22,4,4,5.0,1.2,69,64
399,八王子市散田町4-10,35.651222,139.304153,JGD2011,八王子幹線一級35号線,b,2005-01-19,2005-01-20,5,4,0.0,1.2,63,58
400,八王子市北野町574,35.649750,139.352295,JGD2011,国道１６号（八王子バイパス）,C,2004-11-24,2004-11-25,3,4,3.3,1.2,70,70
401,八王子市北野町529,35.648705,139.351425,JGD2011,国道１６号（八王子バイパス）,C,2004-11-24,2004-11-25,3,4,3.3,1.2,72,72
402,八王子市大谷町47,35.668674,139.353714,JGD2011,国道１６号（八王子バイパス）,B,2004-11-24,2004-11-25,3,4,2.6,1.2,72,71
403,八王子市大谷町48,35.668865,139.353210,JGD2011,国道１６号（八王子バイパス）,B,2004-11-24,2004-11-25,3,4,3.5,1.2,72,71
404,八王子市万町34-1,35.653214,139.333649,JGD2011,国道１６号（東京環状）,B,2004-12-06,2004-12-07,3,2,3.0,1.2,67,67
405,八王子市上野町112,35.655148,139.327194,JGD2011,国道１６号（東京環状）,B,2004-12-06,2004-12-07,3,2,3.0,1.2,67,65
406,八王子市暁町1-23,35.670490,139.332275,JGD2011,国道１６号（東京環状）,C,2004-12-06,2004-12-07,3,2,1.5,1.2,74,73
407,八王子市中野山王1-8,35.671257,139.330734,JGD2011,国道１６号（東京環状）,C,2004-12-06,2004-12-07,3,2,1.2,1.2,72,72
408,八王子市尾崎町48,35.681007,139.346024,JGD2011,国道１６号（東京環状）,C,2004-12-06,2004-12-07,3,4,8.0,1.2,75,74
409,八王子市左入町126,35.680996,139.341629,JGD2011,国道１６号（東京環状）,C,2004-12-06,2004-12-07,3,4,1.5,1.2,75,75
410,八王子市宇津木町664-2,35.681549,139.352844,JGD2011,国道１６号（東京環状）,C,2004-12-06,2004-12-07,3,4,3.5,1.2,72,71
411,八王子市宇津木町663,35.681152,139.352493,JGD2011,国道１６号（東京環状）,C,2004-12-06,2004-12-07,3,4,7.5,1.2,74,75
412,八王子市宇津木町734-8,35.683167,139.350281,JGD2011,国道１６号（東京環状）,C,2004-12-06,2004-12-07,3,4,3.5,1.2,74,74
413,八王子市宇津木町710-1,35.682232,139.350357,JGD2011,国道１６号（東京環状）,C,2004-12-06,2004-12-07,3,4,3.5,1.2,74,75
414,立川市泉町786-11,35.718124,139.417175,JGD2011,主地道４３号（立川東大和線）,a,2004-10-28,2004-10-29,4,4,6.0,1.2,70,68
415,立川市西砂町6-12,35.729572,139.372147,JGD2011,主地道７号（杉並あきる野線）,a,2004-10-25,2004-10-26,4,2,2.0,1.2,73,72
416,立川市柴崎町1-17,35.692822,139.405746,JGD2011,主地道２９号（立川青梅線）,a,2004-11-04,2004-11-05,4,2,1.0,1.2,68,62
417,立川市幸町3-3-9,35.718521,139.430435,JGD2011,主地道１６号（立川所沢線）,b,2004-10-14,2004-10-15,4,2,2.0,1.2,73,71
418,立川市幸町4-3,35.723442,139.426300,JGD2011,主地道７号（杉並あきる野線）,b,2004-11-01,2004-11-02,4,2,2.0,1.2,72,69
419,立川市高松町2-26-3,35.704899,139.418930,JGD2011,主地道１６号（立川所沢線）,c,2004-11-09,2004-11-10,4,2,3.0,1.2,73,72
420,立川市錦町5-15,35.688423,139.412872,JGD2011,立川青梅線（新奥多摩街道）,B,2004-12-20,2004-12-21,4,4,4.0,1.2,74,72
421,立川市錦町5-19,35.686337,139.413528,JGD2011,立川青梅線（新奥多摩街道）,B,2004-12-20,2004-12-21,4,4,4.8,1.2,74,72
422,武蔵野市中町2-10,35.706509,139.563416,JGD2011,杉並五日市線（井ノ頭通り）,c,2005-02-21,2005-02-22,4,2,0.0,1.5,71,70
423,武蔵野市中町3-9-11,35.710838,139.565765,JGD2011,杉並五日市線（井ノ頭通り）,c,2005-02-23,2005-02-24,4,2,0.0,1.6,67,65
424,武蔵野市緑町2-2-28,35.717758,139.565857,JGD2011,市道１７号線（中央通り）,b,2005-02-09,2005-02-10,6,2,3.0,1.6,70,67
425,武蔵野市関前1-9,35.710793,139.544022,JGD2011,調布田無線（武蔵境通り）,c,2005-03-02,2005-03-03,4,2,0.0,1.5,72,68
426,武蔵野市八幡町4-28-13,35.719620,139.554062,JGD2011,杉並あきる野線,b,2005-02-28,2005-03-01,4,3,0.0,1.5,70,68
427,武蔵野市吉祥寺北町1-18-3,35.709072,139.577286,JGD2011,杉並あきる野線（井の頭通り）,C,2004-12-13,2004-12-14,4,2,2.5,1.2,71,70
428,武蔵野市吉祥寺本町2-31,35.707474,139.575912,JGD2011,杉並あきる野線（井の頭通り）,C,2004-12-13,2004-12-14,4,2,2.5,1.2,70,70
429,三鷹市上連雀9-41-4,35.687614,139.550568,JGD2011,調布田無線（武蔵境通り）,a,2004-05-10,2004-05-14,4,2,2.0,1.0,70,68
430,三鷹市上連雀9-18-16,35.684200,139.553696,JGD2011,府中三鷹線（人見街道）,b,2004-05-17,2004-05-21,4,2,2.0,1.0,71,68
431,三鷹市下連雀1-13-1,35.695774,139.569687,JGD2011,武蔵野狛江線（吉祥寺通り）,b,2004-06-07,2004-06-11,4,2,2.0,1.0,72,69
432,三鷹市下連雀2-26-9,35.697388,139.566025,JGD2011,市道６号線,b,2004-06-14,2004-06-18,6,2,2.0,1.0,69,66
433,三鷹市上連雀7-31,35.692650,139.550751,JGD2011,調布田無線,A,2004-12-13,2004-12-14,4,2,2.0,1.2,69,67
434,三鷹市井口1-7,35.693138,139.549026,JGD2011,調布田無線,A,2004-12-13,2004-12-14,4,2,2.0,1.2,70,67
435,青梅市新町1-21-13,35.787998,139.298141,JGD2011,新宿青梅線（青梅街道）,b,2004-10-26,2004-10-29,4,4,4.5,1.2,71,66
436,青梅市畑中3-953-1,35.778954,139.235001,JGD2011,奥多摩青梅線（吉野街道）,a,2004-11-01,2004-11-04,4,2,1.5,1.2,71,67
437,青梅市新町8-20,35.784454,139.309372,JGD2011,市道幹１２号線,b,2004-10-05,2004-10-08,5,4,4.5,1.2,69,66
438,青梅市根ヶ布2-276,35.806583,139.265411,JGD2011,青梅飯能線（成木街道）,a,2004-09-28,2004-10-01,4,2,2.0,1.2,71,63
439,青梅市長淵8-234-2,35.774155,139.258316,JGD2011,青梅あきる野線（秋川街道）,c,2004-09-14,2004-09-17,4,2,2.0,1.4,70,64
440,青梅市日向和田3-706,35.786888,139.230652,JGD2011,国道４１１号（青梅街道）,a,2004-10-18,2004-10-21,3,2,2.0,1.6,71,64
441,青梅市柚木町2-405-1,35.796734,139.198288,JGD2011,奥多摩青梅線（吉野街道）,a,2004-11-29,2004-12-02,4,2,3.0,1.2,68,64
442,青梅市長淵4-1359,35.779507,139.272720,JGD2011,国道４１１号,B,2004-12-02,2004-12-03,3,2,3.0,1.2,69,64
443,青梅市長淵4-253,35.778084,139.272995,JGD2011,国道４１１号（吉野街道）,B,2004-12-02,2004-12-03,3,2,3.5,1.2,69,65
444,青梅市裏宿町661,35.790878,139.247635,JGD2011,国道４１１号（青梅街道）,A,2004-12-02,2004-12-03,3,2,1.2,1.2,70,66
445,青梅市裏宿町570,35.790203,139.248825,JGD2011,国道４１１号（青梅街道）,A,2004-12-02,2004-12-03,3,2,1.1,1.2,68,65
446,府中市住吉町2-30,35.655674,139.456924,JGD2011,府中町田線（鎌倉街道）,a,2004-08-09,2004-08-12,4,6,5.0,1.5,72,69
447,府中市栄町3-7,35.686638,139.472107,JGD2011,市道学園通り,b,2004-11-02,2004-11-05,6,2,3.0,1.5,68,62
448,府中市四谷3-2740,35.659714,139.444138,JGD2011,市道多摩川通り,a,2004-07-27,2004-07-30,6,2,3.0,1.5,69,66
449,府中市美好町2-4-2,35.672638,139.466782,JGD2011,国道２０号（甲州街道）,c,2004-09-07,2004-09-10,3,4,3.0,2.0,73,72
450,府中市分梅町3-50号,35.665642,139.459076,JGD2011,府中町田線（主地道18号）,b,2004-10-25,2004-10-28,4,4,3.0,2.2,70,67
451,府中市若松町3-11-1,35.673546,139.499054,JGD2011,府中小平線（主地道248号）,b,2004-08-23,2004-08-27,4,2,4.0,2.0,65,61
452,府中市緑町1-12号,35.672012,139.485672,JGD2011,国道２０号（甲州街道）,c,2004-09-28,2004-10-01,3,4,3.0,2.0,71,70
453,府中市若松町3-39,35.675034,139.506744,JGD2011,府中三鷹線（人見街道）,a,2004-10-19,2004-10-22,4,2,1.0,1.5,65,59
454,府中市西府町2-9,35.674881,139.456924,JGD2011,国道２０号（甲州街道）,b,2005-02-21,2005-02-25,3,5,2.0,1.5,71,70
455,府中市寿町3-7,35.675293,139.473862,JGD2011,府中所沢線（府中街道）,c,2004-12-20,2004-12-24,4,3,4.0,2.0,68,67
456,府中市四谷4-46,35.667736,139.440521,JGD2011,市道四谷通り,a,2004-11-22,2004-11-25,6,2,1.0,1.5,63,58
457,府中市四谷5-44,35.663307,139.440155,JGD2011,市道多摩川通り,c,2004-10-12,2004-10-15,6,2,5.0,1.5,70,67
458,府中市美好町1-14,35.673325,139.470764,JGD2011,国道２０号（甲州街道）,C,2004-12-13,2004-12-14,3,4,2.5,1.2,72,71
459,府中市美好町1-30,35.672745,139.468567,JGD2011,国道２０号（甲州街道）,C,2004-12-13,2004-12-14,3,4,2.5,1.2,72,70
460,昭島市緑町4-26-22,35.711311,139.341385,JGD2011,国道１６号（東京環状）,b,2004-06-08,2004-06-10,3,5,5.2,1.2,75,75
461,昭島市田中町2-28-25,35.705250,139.350647,JGD2011,国道１６号（東京環状）,b,2004-07-06,2004-07-08,3,5,8.5,1.2,69,70
462,昭島市田中町2-16-14,35.702557,139.352737,JGD2011,立川青梅線（奥多摩街道）,a,2004-07-06,2004-07-08,4,2,1.9,1.2,73,71
463,昭島市昭和町3-6-3,35.708076,139.368256,JGD2011,三ツ木八王子線（諏訪松中通り）,a,2004-10-05,2004-10-07,4,2,3.5,1.2,73,71
464,昭島市朝日町4-23-28,35.708611,139.369812,JGD2011,市道１７号線（江戸街道）,c,2004-10-05,2004-10-07,6,2,4.5,1.2,68,64
465,昭島市福島町3-23-27,35.696148,139.375916,JGD2011,八王子武蔵村山線,a,2005-02-01,2005-02-03,4,3,2.0,1.2,74,72
466,昭島市福島町3-22-20,35.696331,139.377045,JGD2011,立川青梅線（新奥多摩街道）,b,2004-11-09,2004-11-11,4,4,3.8,1.2,69,68
467,昭島市緑町5ｰ7,35.712883,139.339859,JGD2011,国道１６号（東京環状）,B,2004-11-24,2004-11-25,3,6,3.5,1.2,75,75
468,昭島市拝島町1ｰ8,35.707340,139.346237,JGD2011,国道１６号（東京環状）,B,2004-11-24,2004-11-25,3,6,3.5,1.2,74,76
469,昭島市松原町5ｰ14,35.719196,139.340836,JGD2011,国道１６号（東京環状）,C,2004-11-24,2004-11-25,3,2,1.8,1.2,75,76
470,昭島市松原町5-19,35.719372,139.339523,JGD2011,国道１６号（東京環状）,C,2004-11-24,2004-11-25,3,2,0.5,1.2,75,75
471,調布市仙川2-6-5,35.660881,139.585602,JGD2011,国道２０号（甲州街道）,c,2005-01-13,2005-01-21,3,4,6.0,2.5,73,72
472,調布市富士見町2-16-33,35.659603,139.540939,JGD2011,調布田無線（武蔵境通り）,a,2005-01-26,2005-01-27,4,2,15.0,1.2,68,63
473,調布市西つつじヶ丘3-19-1,35.657852,139.571289,JGD2011,国道２０号（甲州街道）,b,2005-01-24,2005-01-25,3,4,9.0,3.5,69,67
474,調布市深大寺北町7-6-3,35.673126,139.544632,JGD2011,調布田無線（武蔵境通り）,a,2005-01-25,2005-01-26,4,2,2.0,1.2,75,75
475,調布市多摩川1-51,35.648731,139.532318,JGD2011,町田調布線（鶴川街道）,c,2004-01-31,2005-02-08,4,2,14.0,1.2,69,65
476,調布市調布ヶ丘1-23,35.654976,139.546005,JGD2011,国道２０号（甲州街道）,B,2004-12-16,2004-12-17,3,4,2.1,1.2,72,71
477,調布市調布ヶ丘1-17,35.658939,139.546265,JGD2011,国道２０号（甲州街道）,B,2004-12-16,2004-12-17,3,4,2.2,1.2,72,71
478,調布市上石原1-16,35.661289,139.529602,JGD2011,国道２０号（甲州街道）,B,2004-12-16,2004-12-17,3,4,2.2,1.2,76,75
479,調布市上石原1-1,35.661350,139.528564,JGD2011,国道２０号（甲州街道）,B,2004-12-16,2004-12-17,3,4,2.5,1.2,77,75
480,町田市木曽町205,35.561333,139.429779,JGD2011,市道町田４３７号線（町田駅前通り）,c,2005-03-02,2005-03-03,6,2,2.4,1.2,69,67
481,町田市中町1-20-23,35.548164,139.446594,JGD2011,八王子町田線（町田街道）,c,2005-03-07,2005-03-08,4,2,2.1,1.2,70,67
482,町田市小山町2507,35.597279,139.368607,JGD2011,八王子町田線（町田街道）,b,2005-03-09,2005-03-10,4,2,2.1,1.2,71,66
483,町田市小野路町1840,35.594700,139.452621,JGD2011,府中町田線（鎌倉街道）,A,2004-12-16,2004-12-17,4,2,3.0,1.2,71,70
484,町田市小野路町1861,35.595470,139.452805,JGD2011,府中町田線（鎌倉街道）,A,2004-12-16,2004-12-17,4,2,1.5,1.2,71,70
485,町田市相原町304-1,35.607555,139.344742,JGD2011,国道１６号（東京環状）,B,2004-12-16,2004-12-17,3,2,2.0,1.2,75,75
486,町田市相原町343,35.609680,139.343918,JGD2011,国道１６号（東京環状）,B,2004-12-16,2004-12-17,3,2,2.5,1.2,71,71
487,小金井市桜町3-1-3,35.713051,139.512100,JGD2011,杉並あきる野線（五日市街道）,a,2004-11-04,2004-11-05,4,2,3.0,1.2,68,67
488,小金井市本町4-12-40,35.706532,139.505981,JGD2011,府中清瀬線（小金井街道）,c,2004-11-08,2004-11-09,4,2,5.0,1.2,68,66
489,小金井市貫井北町5-13-31,35.703228,139.486588,JGD2011,恋ヶ窪新田三鷹線（連雀通り）,a,2004-11-09,2004-11-10,4,2,3.0,1.2,68,66
490,小金井市貫井南町1-25-4,35.691528,139.498215,JGD2011,府中小平線（新小金井街道）,b,2004-11-10,2004-11-11,4,2,5.0,1.2,68,65
491,小金井市前原町4-17-14,35.689507,139.503082,JGD2011,新宿国立線（東八道路）,b,2004-11-11,2004-11-12,4,6,5.0,1.2,65,65
492,小金井市本町3-9,35.706890,139.508224,JGD2011,府中清瀬線（小金井街道）,B,2004-12-13,2004-12-14,4,2,4.0,1.2,64,63
493,小金井市本町4-14,35.708012,139.507477,JGD2011,府中清瀬線（小金井街道）,B,2004-12-13,2004-12-14,4,2,3.0,1.2,67,67
494,小平市中島町26-9,35.729675,139.433945,JGD2011,中島十番線（村山街道）,a,2004-11-17,2004-11-18,4,2,2.0,1.2,71,69
495,小平市上水本町1-25-3,35.719688,139.464127,JGD2011,所沢府中線（府中街道）,a,2004-11-17,2004-11-18,4,2,2.0,1.2,71,71
496,小平市上水本町3-11-1,35.717052,139.470261,JGD2011,杉並あきる野線（五日市街道）,a,2004-11-17,2004-11-18,4,2,2.0,1.2,71,69
497,小平市鈴木町1-487,35.718842,139.496735,JGD2011,府中小平線（新小金井街道）,a,2004-11-17,2004-11-18,4,2,5.0,1.2,70,68
498,小平市花小金井5-463,35.732895,139.509491,JGD2011,新宿青梅線（青梅街道）,a,2004-11-17,2004-11-18,4,2,2.0,1.2,69,67
499,小平市津田町3-34-8,35.725952,139.470139,JGD2011,市道第Ｂ-20号（たかの街道）,a,2004-11-17,2004-11-18,6,2,2.0,1.2,69,63
500,小平市回田町305,35.716537,139.497238,JGD2011,府中小平線（新小金井街道）,A,2004-12-20,2004-12-21,4,2,4.0,1.2,69,66
501,小平市回田町278,35.714813,139.496353,JGD2011,府中小平線（新小金井街道）,A,2004-12-20,2004-12-21,4,2,4.4,1.2,67,65
502,小平市上水本町5-1,35.709869,139.475769,JGD2011,恋ケ窪新田三鷹線,B,2004-12-13,2004-12-14,4,2,1.5,1.2,69,67
503,日野市日野本町7-5-14,35.679592,139.399765,JGD2011,国道２０号（甲州街道）,c,2004-10-01,2004-10-07,3,3,2.0,2.0,72,73
504,日野市多摩平5-10-4,35.670784,139.376984,JGD2011,国道２０号（甲州街道）,c,2004-10-08,2004-10-14,3,2,2.0,2.0,71,68
505,日野市日野1521,35.677761,139.405807,JGD2011,国道２０号（甲州街道）,c,2004-10-15,2004-10-21,3,2,1.0,2.0,73,71
506,日野市三沢1-19-1,35.659542,139.421097,JGD2011,稲城日野線（川崎街道）,b,2004-11-05,2004-11-11,4,2,2.0,2.0,72,70
507,日野市平山5-12-16,35.647003,139.383423,JGD2011,上館日野線（北野街道）,c,2004-10-29,2004-11-04,4,2,1.0,2.0,67,65
508,日野市旭が丘1-8,35.657703,139.375183,JGD2011,町田平山八王子線,b,2004-10-22,2004-10-28,4,3,3.0,2.0,71,66
509,日野市日野本町7-5,35.679592,139.399765,JGD2011,国道２０号（甲州街道）,A,2004-12-06,2004-12-07,3,2,3.0,1.2,74,72
510,日野市日野本町2-18,35.678444,139.397873,JGD2011,国道２０号（甲州街道）,A,2004-12-06,2004-12-07,3,2,2.0,1.2,72,71
511,東村山市本町2-6,35.761913,139.466995,JGD2011,立川所沢線（府中街道）,c,2004-12-21,2004-12-22,4,2,3.1,1.2,66,67
512,東村山市久米川町3-30,35.761127,139.479584,JGD2011,市道第３７３号線の１,a,2004-10-27,2004-10-28,6,2,4.0,1.2,67,61
513,東村山市富士見町1-2,35.744614,139.456924,JGD2011,市補助道１号線,c,2004-11-29,2004-11-30,6,2,2.1,1.2,67,62
514,東村山市久米川町4-43,35.765846,139.469147,JGD2011,立川所沢線（府中街道）,A,2004-12-20,2004-12-21,4,2,2.2,1.2,69,70
515,東村山市久米川町4-23,35.764484,139.469635,JGD2011,立川所沢線（府中街道）,A,2004-12-20,2004-12-21,4,2,2.0,1.2,70,70
516,国分寺市並木町2-33-15,35.716381,139.450119,JGD2011,杉並あきる野線（五日市街道）,a,2004-12-16,2004-12-17,4,2,2.9,1.2,71,69
517,国分寺市東恋ヶ窪5-16-5,35.711868,139.467545,JGD2011,所沢府中線（府中街道）,c,2004-12-16,2004-12-17,4,2,2.0,1.2,72,71
518,国分寺市東元町2-20-12,35.696693,139.481644,JGD2011,小川山府中線（国分寺街道）,c,2004-12-16,2004-12-17,4,2,2.1,1.2,68,65
519,国分寺市戸倉2-27,35.704582,139.454102,JGD2011,国立停車場恋ヶ窪線（市役所通り）,a,2004-12-16,2004-12-17,4,2,3.2,1.2,69,65
520,国分寺市西町1-5-8,35.703697,139.437271,JGD2011,市道幹１１号線（戸倉通り）,a,2004-12-16,2004-12-17,6,2,1.2,1.2,70,64
521,国分寺市東恋ヶ窪2-33,35.709320,139.474472,JGD2011,恋ケ窪新田三鷹線,B,2004-12-13,2004-12-14,4,2,0.5,1.2,70,68
522,国立市谷保7190-4,35.682117,139.441635,JGD2011,国道２０号（甲州街道）,b,2005-02-15,2005-02-17,3,4,1.0,1.2,76,74
523,国立市谷保6256-8,35.681122,139.431946,JGD2011,市道南２６号線（石田街道）,b,2005-02-08,2005-02-08,6,2,1.0,1.2,71,68
524,国立市東2-29-3,35.693478,139.449585,JGD2011,国立停車場谷保線（大学通り）,a,2005-02-23,2005-02-23,4,4,3.0,1.2,66,62
525,国立市谷保7082,35.682617,139.436234,JGD2011,国道２０号（甲州街道）,B,2004-12-13,2004-12-14,3,4,2.0,1.2,72,71
526,国立市谷保5912,35.681084,139.439560,JGD2011,国道２０号（甲州街道）,B,2004-12-13,2004-12-14,3,4,1.5,1.2,74,73
527,福生市本町5,35.738701,139.326782,JGD2011,立川青梅線（新奥多摩街道）,c,2004-12-20,2004-12-21,4,2,3.0,1.5,72,69
528,福生市牛浜163,35.733948,139.336945,JGD2011,都道杉並・あきる野線,a,2004-11-30,2004-12-01,4,2,3.0,1.5,68,62
529,福生市福生2300-4,35.740284,139.337677,JGD2011,国道１６号（東京環状）,c,2004-11-09,2004-11-10,3,4,3.0,1.5,72,72
530,福生市熊川308,35.719730,139.332642,JGD2011,杉並あきる野線（睦橋通り）,b,2004-11-16,2004-11-17,4,4,3.0,2.0,70,67
531,福生市熊川1631,35.723953,139.348816,JGD2011,杉並あきる野線（五日市街道）,c,2004-11-11,2004-11-12,4,2,3.0,1.5,69,69
532,福生市熊川1120-1,35.731098,139.341370,JGD2011,国道１６号（東京環状）,C,2004-11-29,2004-11-30,3,4,3.4,1.2,77,76
533,福生市福生2215,35.742916,139.337067,JGD2011,国道１６号（東京環状）,C,2004-11-29,2004-11-30,3,4,3.8,1.2,71,72
534,狛江市東和泉1-28-1,35.630695,139.579437,JGD2011,世田谷町田線（世田谷通り）,c,2005-01-25,2005-01-26,4,2,0.0,1.2,60,62
535,狛江市和泉本町1-1-5,35.634945,139.578369,JGD2011,大田調布線（狛江通り）,c,2004-12-13,2004-12-14,4,2,0.0,1.2,60,58
536,狛江市和泉本町3-1,35.638641,139.574127,JGD2011,武蔵野・狛江線,b,2005-01-20,2005-01-21,4,2,0.0,1.2,61,57
537,狛江市和泉本町4-1,35.640842,139.570389,JGD2011,大田調布線（狛江通り）,C,2004-12-16,2004-12-17,4,2,1.2,1.2,71,67
538,狛江市中和泉5-1,35.640610,139.569626,JGD2011,大田調布線（狛江通り）,C,2004-12-16,2004-12-17,4,2,1.5,1.2,73,69
539,東大和市中央2-870,35.746445,139.429016,JGD2011,新宿青梅線（新青梅街道）,b,2004-11-30,2004-12-01,4,4,2.0,1.2,77,74
540,東大和市中央2-1101,35.743881,139.430359,JGD2011,所沢武蔵村山立川線（青梅街道）,b,2004-11-24,2004-11-25,4,2,1.0,1.2,69,67
541,東大和市蔵敷1-476,35.754211,139.421036,JGD2011,所沢武蔵村山立川線（青梅街道）,a,2004-11-04,2004-11-05,4,2,0.5,1.2,71,65
542,東大和市立野4-476,35.741055,139.417053,JGD2011,立川東大和線（芋窪街道）,c,2004-11-16,2004-11-17,4,2,3.4,1.2,69,65
543,東大和市奈良橋5-816,35.747772,139.429367,JGD2011,新宿青梅線（新青梅街道）,B,2004-12-20,2004-12-21,4,4,2.4,1.2,77,74
544,東大和市中央2-870,35.746445,139.429016,JGD2011,新宿青梅線（新青梅街道）,B,2004-12-20,2004-12-21,4,4,2.5,1.2,76,74
545,清瀬市中清戸2-686,35.781063,139.527237,JGD2011,さいたま東村山線（志木街道）,a,2004-11-26,2004-11-27,4,2,2.0,1.2,72,71
546,清瀬市元町2-27-12,35.778091,139.517990,JGD2011,練馬所沢線（小金井街道）,c,2004-11-10,2004-11-11,4,2,2.0,1.2,70,68
547,清瀬市竹丘1-17-9,35.769478,139.508118,JGD2011,東村山清瀬線,a,2004-11-04,2004-11-05,4,2,2.0,1.2,67,61
548,清瀬市中清戸2-664,35.782059,139.527145,JGD2011,さいたま東村山線（志木街道）,A,2004-12-20,2004-12-21,4,2,2.0,1.2,70,69
549,清瀬市中清戸1-526,35.778427,139.526855,JGD2011,さいたま東村山線（志木街道）,A,2004-12-20,2004-12-21,4,2,3.0,1.2,69,68
550,東久留米市滝山3-11,35.740479,139.505096,JGD2011,新宿青梅線（新青梅街道）,b,2004-11-18,2004-11-19,4,4,3.8,1.2,76,75
551,東久留米市野火止1-1-34,35.761608,139.515976,JGD2011,府中清瀬線（小金井街道）,c,2004-11-18,2004-11-19,4,2,3.2,1.2,74,74
552,東久留米市南沢5-18-38,35.744312,139.524948,JGD2011,東京所沢線（所沢街道）,a,2004-11-18,2004-11-19,4,2,1.5,1.2,72,72
553,東久留米市滝山6ｰ1-18,35.746067,139.504303,JGD2011,府中清瀬線（新小金井街道）,a,2004-11-18,2004-11-19,4,2,3.5,1.2,71,70
554,東久留米市中央町5-12,35.750767,139.515366,JGD2011,府中清瀬線（小金井街道）,A,2004-12-20,2004-12-21,4,2,1.2,1.2,68,67
555,東久留米市八幡町3-1,35.749889,139.514450,JGD2011,府中清瀬線,A,2004-12-20,2004-12-21,4,2,1.2,1.2,68,66
556,武蔵村山市三ﾂ木2-54-1,35.758183,139.371475,JGD2011,新宿青梅線（新青梅街道）,b,2004-11-17,2004-11-18,4,4,0.0,1.2,72,70
557,武蔵村山市神明4-130-14,35.751202,139.402679,JGD2011,新宿青梅線（新青梅街道）,b,2004-10-25,2004-10-26,4,4,0.0,1.2,75,71
558,武蔵村山市三ﾂ木3-23-1,35.760361,139.371445,JGD2011,新宿青梅線（青梅街道）,b,2004-10-29,2004-10-29,4,2,0.0,1.2,72,69
559,武蔵村山市中藤4-18-1,35.757717,139.403427,JGD2011,新宿青梅線（青梅街道）,b,2004-10-21,2004-10-22,4,2,0.0,1.2,70,66
560,武蔵村山市榎1-18,35.740891,139.388016,JGD2011,所沢武蔵村山立川線,c,2004-10-18,2004-10-18,4,2,0.0,1.2,72,69
561,武蔵村山市三ﾂ藤1-72,35.749630,139.382645,JGD2011,八王子武蔵村山線,b,2004-10-27,2004-10-28,4,2,0.0,1.2,71,68
562,武蔵村山市残堀5-160-12,35.752380,139.369675,JGD2011,三ツ木八王子線,b,2004-11-01,2004-11-01,4,2,0.0,1.2,69,67
563,武蔵村山市本町4-11,35.756393,139.386154,JGD2011,所沢武蔵村山立川線,A,2004-12-20,2004-12-21,4,2,3.5,1.2,66,61
564,武蔵村山市残堀4-15,35.748596,139.370239,JGD2011,所沢武蔵村山立川線,A,2004-12-20,2004-12-21,4,2,3.5,1.2,68,63
565,多摩市一ﾉ宮4-40-6,35.651226,139.438278,JGD2011,府中相模原線（川崎街道）,c,2005-02-19,2005-02-25,4,5,4.0,1.2,69,65
566,多摩市永山7-6-3,35.612514,139.448669,JGD2011,府中町田線,b,2005-02-19,2005-02-25,4,4,4.0,1.2,67,64
567,多摩市関戸4-10,35.647438,139.452744,JGD2011,府中町田線,c,2005-02-19,2005-02-25,4,7,4.0,1.2,70,68
568,多摩市鶴牧1-1-4,35.625404,139.421799,JGD2011,小山乞田線（多摩ニュータウン通り）,c,2005-02-19,2005-02-25,4,4,3.5,1.2,69,66
569,多摩市関戸6-11-1,35.636600,139.446716,JGD2011,府中町田線（旧鎌倉街道）,b,2005-02-22,2006-02-23,4,2,1.0,1.2,66,61
570,多摩市関戸6-4-20,35.636635,139.448532,JGD2011,府中町田線（鎌倉街道）,b,2005-02-22,2006-02-23,4,5,3.5,1.2,68,65
571,多摩市乞田712,35.631371,139.436386,JGD2011,小山乞田線（多摩ニュータウン通り）,b,2005-02-19,2005-02-25,4,4,4.0,1.2,71,68
572,多摩市諏訪6-5,35.620663,139.457764,JGD2011,府中町田線,b,2005-02-22,2006-02-23,4,2,2.6,1.2,73,69
573,多摩市関戸6-4,35.636635,139.448532,JGD2011,府中町田線（尾根幹線道路）,B,2004-12-16,2004-12-17,4,4,2.8,1.2,73,70
574,多摩市関戸5-9,35.641861,139.451431,JGD2011,府中町田線,B,2004-12-16,2004-12-17,4,4,3.0,1.2,68,65
575,稲城市東長沼1362-1,35.643494,139.506638,JGD2011,川崎府中線（川崎街道）,b,2004-08-24,2004-08-25,4,4,6.0,1.2,70,68
576,稲城市大丸1173,35.649818,139.481720,JGD2011,稲城日野線（川崎街道）,c,2004-08-24,2004-08-25,4,4,6.0,1.2,70,66
577,稲城市坂浜2359,35.622749,139.482407,JGD2011,町田調布線（鶴川街道）,a,2004-08-24,2004-08-25,4,2,1.6,1.2,72,68
578,稲城市大丸124,35.644272,139.500458,JGD2011,川崎府中線（川崎街道）,B,2004-12-16,2004-12-17,4,4,5.0,1.2,72,68
579,稲城市大丸86,35.643898,139.499893,JGD2011,川崎府中線（川崎街道）,B,2004-12-16,2004-12-17,4,4,5.0,1.2,70,67
580,羽村市羽加美4-2-9,35.765034,139.299774,JGD2011,立川青梅線（奥多摩街道）,a,2004-05-25,2004-05-26,4,2,1.5,1.2,71,66
581,羽村市羽加美1-29-5,35.768253,139.307465,JGD2011,立川青梅線（新奥多摩街道）,b,2004-05-25,2004-05-26,4,2,3.5,1.2,66,63
582,羽村市富士見平2-20-1,35.762592,139.325638,JGD2011,羽村瑞穂線（羽村街道）,a,2004-05-18,2004-05-18,4,4,2.5,1.2,70,
583,羽村市羽加美4-2-9,35.765034,139.299774,JGD2011,立川青梅線（奥多摩街道）,a,2004-11-25,2004-11-26,4,2,1.5,1.2,71,66
584,羽村市羽東2-1,35.761192,139.309967,JGD2011,立川青梅線,b,2004-11-25,2004-11-26,4,2,3.5,1.2,68,65
585,羽村市富士見平2-20-1,35.762592,139.325638,JGD2011,羽村瑞穂線（羽村街道）,a,2004-11-16,2004-11-16,4,4,2.5,1.2,70,
586,羽村市羽西1-20,35.768478,139.299652,JGD2011,立川青梅線,A,2004-12-02,2004-12-03,4,2,1.5,1.2,73,68
587,羽村市羽加美4-1,35.766624,139.299927,JGD2011,立川青梅線,A,2004-12-02,2004-12-03,4,2,1.4,1.2,74,69
588,あきる野市小川638,35.721107,139.317123,JGD2011,瑞穂あきる野八王子線,a,2004-11-04,2004-11-05,4,2,1.0,1.2,72,67
589,あきる野市菅生725,35.747017,139.289734,JGD2011,国道４１１号（滝山街道）,b,2004-11-04,2004-11-05,3,2,2.0,1.2,71,68
590,あきる野市舘谷199,35.730366,139.231628,JGD2011,杉並あきる野線（五日市街道）,c,2004-11-04,2004-11-05,4,4,3.0,1.2,69,63
591,あきる野市小川837,35.720715,139.319839,JGD2011,杉並あきる野線（睦橋通り）,b,2004-11-04,2004-11-05,4,4,3.0,1.2,70,66
592,あきるの市山田723-2,35.726387,139.264984,JGD2011,杉並あきる野線,A,2004-12-06,2004-12-07,4,4,4.0,1.2,72,66
593,あきるの市山田726,35.725697,139.265015,JGD2011,杉並あきる野線,A,2004-12-06,2004-12-07,4,4,5.2,1.2,72,66
594,西東京市田無町1-1,35.731247,139.542877,JGD2011,新宿青梅線（新青梅街道）,b,2004-12-08,2004-12-09,4,4,3.0,1.5,74,73
595,西東京市南町3-18-40,35.722900,139.542709,JGD2011,市道４１号線,b,2004-06-01,2004-06-02,6,2,5.0,1.5,66,65
596,西東京市向台町2-5-1,35.720837,139.542542,JGD2011,調布田無線（武蔵境通り）,b,2004-12-01,2004-12-02,4,2,6.0,1.5,68,65
597,西東京市田無町6-3-12,35.729973,139.531281,JGD2011,新宿青梅線（青梅街道）,b,2004-12-07,2004-12-08,4,2,2.0,1.5,70,68
598,西東京市保谷町1-19-11,35.732288,139.555161,JGD2011,杉並田無線（新青梅街道）,b,2004-11-30,2004-12-01,4,2,2.0,1.5,70,68
599,西東京市柳沢1-11-9,35.725906,139.553146,JGD2011,東京所沢線（青梅街道）,c,2004-06-02,2004-06-03,4,6,1.0,1.5,75,74
600,西東京市住吉町6-1-5,35.743519,139.551392,JGD2011,保谷志木線,a,2004-06-08,2004-06-03,4,2,2.0,1.5,68,65
601,西多摩郡瑞穂町駒形冨士398,35.783318,139.353287,JGD2011,国道１６号（東京環状）,B,2004-11-29,2004-11-30,3,4,4.2,1.2,68,67
602,西多摩郡瑞穂町富士山413,35.788841,139.343796,JGD2011,国道１６号（東京環状）,B,2004-11-29,2004-11-30,3,4,3.0,1.2,74,73
603,西多摩郡瑞穂町箱根ヶ崎東松原29,35.775089,139.337082,JGD2011,国道１６号（東京環状）,C,2004-11-29,2004-11-30,3,4,9.5,1.2,58,56
604,西多摩郡瑞穂町箱根ヶ崎西松原13,35.769112,139.338028,JGD2011,国道１６号（東京環状）,C,2004-11-29,2004-11-30,3,4,14.6,1.2,59,57
605,西多摩郡日の出町大久野7003,35.753010,139.234390,JGD2011,青梅あきる野線（秋川街道）,C,2004-12-02,2004-12-03,4,2,1.5,1.2,71,65
606,西多摩郡日の出町大久野7056,35.749756,139.240509,JGD2011,青梅あきる野線（秋川街道）,C,2004-12-02,2004-12-03,4,2,1.6,1.2,71,65
