{"keyword":"し尿","data":[{"name":"御蔵島村子ども家庭支援センター","province":"東京都","city":"御蔵島村","address":"御蔵島村字入かねが沢御蔵島村役場内","lat":33.897386,"lon":139.595805},{"name":"御蔵島ふれあい広場","province":"東京都","city":"御蔵島村","address":"東京都御蔵島村","lat":33.895526,"lon":139.591078},{"name":"御蔵島観光資料館","province":"東京都","city":"御蔵島村","address":"東京都御蔵島村","lat":33.896712,"lon":139.592076},{"name":"警視庁御蔵島警察署","province":"東京都","city":"御蔵島村","address":"東京都御蔵島村","lat":33.897366,"lon":139.596116},{"name":"御蔵島村役場","province":"東京都","city":"御蔵島村","address":"東京都御蔵島村","lat":33.897366,"lon":139.596116},{"name":"御蔵島郵便局","province":"東京都","city":"御蔵島村","address":"東京都御蔵島村","lat":33.897366,"lon":139.596116},{"name":"御蔵島村農業協同組合","province":"東京都","city":"御蔵島村","address":"東京都御蔵島村","lat":33.897366,"lon":139.596116},{"name":"御蔵島村漁業協同組合","province":"東京都","city":"御蔵島村","address":"東京都御蔵島村","lat":33.897366,"lon":139.596116},{"name":"御蔵島観光協会（みくらしま観光案内所）","province":"東京都","city":"御蔵島村","address":"東京都御蔵島村","lat":33.897366,"lon":139.596116},{"name":"御蔵島村子ども家庭支援センター","province":"東京都","city":"御蔵島村","address":"御蔵島村字入かねが沢御蔵島村役場内","lat":33.89729,"lon":139.5959},{"name":"御蔵島村役場","province":"東京都","city":"御蔵島村","address":"東京都御蔵島村","lat":33.89736534,"lon":139.59611904},{"name":"御蔵島郵便局","province":"東京都","city":"御蔵島村","address":"東京都御蔵島村","lat":33.89736534,"lon":139.59611904},{"name":"御蔵島村農業協同組合","province":"東京都","city":"御蔵島村","address":"東京都御蔵島村","lat":33.89736534,"lon":139.59611904},{"name":"御蔵島村漁業協同組合","province":"東京都","city":"御蔵島村","address":"東京都御蔵島村","lat":33.89736534,"lon":139.59611904},{"name":"御蔵島村役場","province":"東京都","city":"御蔵島村","address":"東京都御蔵島村字入かねが沢","lat":33.897402,"lon":139.595862},{"name":"御蔵島村子ども家庭支援センター","province":"東京都","city":"御蔵島村","address":"御蔵島村字入かねが沢御蔵島村役場内","lat":33.897386,"lon":139.595805},{"name":"御蔵島ふれあい広場","province":"東京都","city":"御蔵島村","address":"東京都御蔵島村","lat":33.895526,"lon":139.591078},{"name":"御蔵島観光資料館","province":"東京都","city":"御蔵島村","address":"東京都御蔵島村","lat":33.896712,"lon":139.592076},{"name":"警視庁御蔵島警察署","province":"東京都","city":"御蔵島村","address":"東京都御蔵島村","lat":33.897366,"lon":139.596116},{"name":"御蔵島村役場","province":"東京都","city":"御蔵島村","address":"東京都御蔵島村","lat":33.897366,"lon":139.596116},{"name":"御蔵島郵便局","province":"東京都","city":"御蔵島村","address":"東京都御蔵島村","lat":33.897366,"lon":139.596116},{"name":"御蔵島村農業協同組合","province":"東京都","city":"御蔵島村","address":"東京都御蔵島村","lat":33.897366,"lon":139.596116},{"name":"御蔵島村漁業協同組合","province":"東京都","city":"御蔵島村","address":"東京都御蔵島村","lat":33.897366,"lon":139.596116},{"name":"御蔵島観光協会（みくらしま観光案内所）","province":"東京都","city":"御蔵島村","address":"東京都御蔵島村","lat":33.897366,"lon":139.596116},{"name":"御蔵島村子ども家庭支援センター","province":"東京都","city":"御蔵島村","address":"御蔵島村字入かねが沢御蔵島村役場内","lat":33.89729,"lon":139.5959},{"name":"御蔵島村役場","province":"東京都","city":"御蔵島村","address":"東京都御蔵島村","lat":33.89736534,"lon":139.59611904},{"name":"御蔵島郵便局","province":"東京都","city":"御蔵島村","address":"東京都御蔵島村","lat":33.89736534,"lon":139.59611904},{"name":"御蔵島村農業協同組合","province":"東京都","city":"御蔵島村","address":"東京都御蔵島村","lat":33.89736534,"lon":139.59611904},{"name":"御蔵島村漁業協同組合","province":"東京都","city":"御蔵島村","address":"東京都御蔵島村","lat":33.89736534,"lon":139.59611904},{"name":"御蔵島村役場","province":"東京都","city":"御蔵島村","address":"東京都御蔵島村字入かねが沢","lat":33.897402,"lon":139.595862},{"name":"御蔵島村子ども家庭支援センター","province":"東京都","city":"御蔵島村","address":"御蔵島村字入かねが沢御蔵島村役場内","lat":33.897386,"lon":139.595805},{"name":"警視庁御蔵島警察署","province":"東京都","city":"御蔵島村","address":"東京都御蔵島村","lat":33.897366,"lon":139.596116},{"name":"御蔵島村役場","province":"東京都","city":"御蔵島村","address":"東京都御蔵島村","lat":33.897366,"lon":139.596116},{"name":"御蔵島郵便局","province":"東京都","city":"御蔵島村","address":"東京都御蔵島村","lat":33.897366,"lon":139.596116},{"name":"御蔵島村農業協同組合","province":"東京都","city":"御蔵島村","address":"東京都御蔵島村","lat":33.897366,"lon":139.596116},{"name":"御蔵島村漁業協同組合","province":"東京都","city":"御蔵島村","address":"東京都御蔵島村","lat":33.897366,"lon":139.596116},{"name":"御蔵島観光協会（みくらしま観光案内所）","province":"東京都","city":"御蔵島村","address":"東京都御蔵島村","lat":33.897366,"lon":139.596116},{"name":"御蔵島村子ども家庭支援センター","province":"東京都","city":"御蔵島村","address":"御蔵島村字入かねが沢御蔵島村役場内","lat":33.89729,"lon":139.5959},{"name":"御蔵島村役場","province":"東京都","city":"御蔵島村","address":"東京都御蔵島村","lat":33.89736534,"lon":139.59611904},{"name":"御蔵島郵便局","province":"東京都","city":"御蔵島村","address":"東京都御蔵島村","lat":33.89736534,"lon":139.59611904},{"name":"御蔵島村農業協同組合","province":"東京都","city":"御蔵島村","address":"東京都御蔵島村","lat":33.89736534,"lon":139.59611904},{"name":"御蔵島村漁業協同組合","province":"東京都","city":"御蔵島村","address":"東京都御蔵島村","lat":33.89736534,"lon":139.59611904},{"name":"御蔵島村役場","province":"東京都","city":"御蔵島村","address":"東京都御蔵島村字入かねが沢","lat":33.897402,"lon":139.595862},{"name":"警視庁御蔵島警察署","province":"東京都","city":"御蔵島村","address":"東京都御蔵島村","lat":33.897366,"lon":139.596116},{"name":"御蔵島村役場","province":"東京都","city":"御蔵島村","address":"東京都御蔵島村","lat":33.897366,"lon":139.596116},{"name":"御蔵島郵便局","province":"東京都","city":"御蔵島村","address":"東京都御蔵島村","lat":33.897366,"lon":139.596116},{"name":"御蔵島村農業協同組合","province":"東京都","city":"御蔵島村","address":"東京都御蔵島村","lat":33.897366,"lon":139.596116},{"name":"御蔵島村漁業協同組合","province":"東京都","city":"御蔵島村","address":"東京都御蔵島村","lat":33.897366,"lon":139.596116},{"name":"御蔵島観光協会（みくらしま観光案内所）","province":"東京都","city":"御蔵島村","address":"東京都御蔵島村","lat":33.897366,"lon":139.596116},{"name":"御蔵島村役場","province":"東京都","city":"御蔵島村","address":"東京都御蔵島村","lat":33.89736534,"lon":139.59611904},{"name":"御蔵島郵便局","province":"東京都","city":"御蔵島村","address":"東京都御蔵島村","lat":33.89736534,"lon":139.59611904},{"name":"御蔵島村農業協同組合","province":"東京都","city":"御蔵島村","address":"東京都御蔵島村","lat":33.89736534,"lon":139.59611904},{"name":"御蔵島村漁業協同組合","province":"東京都","city":"御蔵島村","address":"東京都御蔵島村","lat":33.89736534,"lon":139.59611904},{"name":"御蔵島村役場","province":"東京都","city":"御蔵島村","address":"東京都御蔵島村字入かねが沢","lat":33.897402,"lon":139.595862},{"name":"警視庁御蔵島警察署","province":"東京都","city":"御蔵島村","address":"東京都御蔵島村","lat":33.897366,"lon":139.596116},{"name":"御蔵島村役場","province":"東京都","city":"御蔵島村","address":"東京都御蔵島村","lat":33.897366,"lon":139.596116},{"name":"御蔵島郵便局","province":"東京都","city":"御蔵島村","address":"東京都御蔵島村","lat":33.897366,"lon":139.596116},{"name":"御蔵島村農業協同組合","province":"東京都","city":"御蔵島村","address":"東京都御蔵島村","lat":33.897366,"lon":139.596116},{"name":"御蔵島村漁業協同組合","province":"東京都","city":"御蔵島村","address":"東京都御蔵島村","lat":33.897366,"lon":139.596116},{"name":"御蔵島観光協会（みくらしま観光案内所）","province":"東京都","city":"御蔵島村","address":"東京都御蔵島村","lat":33.897366,"lon":139.596116},{"name":"御蔵島村役場","province":"東京都","city":"御蔵島村","address":"東京都御蔵島村","lat":33.89736534,"lon":139.59611904},{"name":"御蔵島郵便局","province":"東京都","city":"御蔵島村","address":"東京都御蔵島村","lat":33.89736534,"lon":139.59611904},{"name":"御蔵島村農業協同組合","province":"東京都","city":"御蔵島村","address":"東京都御蔵島村","lat":33.89736534,"lon":139.59611904},{"name":"御蔵島村漁業協同組合","province":"東京都","city":"御蔵島村","address":"東京都御蔵島村","lat":33.89736534,"lon":139.59611904},{"name":"御蔵島村役場","province":"東京都","city":"御蔵島村","address":"東京都御蔵島村字入かねが沢","lat":33.897402,"lon":139.595862},{"name":"警視庁御蔵島警察署","province":"東京都","city":"御蔵島村","address":"東京都御蔵島村","lat":33.897366,"lon":139.596116},{"name":"御蔵島村役場","province":"東京都","city":"御蔵島村","address":"東京都御蔵島村","lat":33.897366,"lon":139.596116},{"name":"御蔵島郵便局","province":"東京都","city":"御蔵島村","address":"東京都御蔵島村","lat":33.897366,"lon":139.596116},{"name":"御蔵島村農業協同組合","province":"東京都","city":"御蔵島村","address":"東京都御蔵島村","lat":33.897366,"lon":139.596116},{"name":"御蔵島村漁業協同組合","province":"東京都","city":"御蔵島村","address":"東京都御蔵島村","lat":33.897366,"lon":139.596116},{"name":"御蔵島観光協会（みくらしま観光案内所）","province":"東京都","city":"御蔵島村","address":"東京都御蔵島村","lat":33.897366,"lon":139.596116},{"name":"御蔵島村役場","province":"東京都","city":"御蔵島村","address":"東京都御蔵島村","lat":33.89736534,"lon":139.59611904},{"name":"御蔵島郵便局","province":"東京都","city":"御蔵島村","address":"東京都御蔵島村","lat":33.89736534,"lon":139.59611904},{"name":"御蔵島村農業協同組合","province":"東京都","city":"御蔵島村","address":"東京都御蔵島村","lat":33.89736534,"lon":139.59611904},{"name":"御蔵島村漁業協同組合","province":"東京都","city":"御蔵島村","address":"東京都御蔵島村","lat":33.89736534,"lon":139.59611904},{"name":"御蔵島村役場","province":"東京都","city":"御蔵島村","address":"東京都御蔵島村字入かねが沢","lat":33.897402,"lon":139.595862},{"name":"警視庁御蔵島警察署","province":"東京都","city":"御蔵島村","address":"東京都御蔵島村","lat":33.897366,"lon":139.596116},{"name":"御蔵島村役場","province":"東京都","city":"御蔵島村","address":"東京都御蔵島村","lat":33.897366,"lon":139.596116},{"name":"御蔵島郵便局","province":"東京都","city":"御蔵島村","address":"東京都御蔵島村","lat":33.897366,"lon":139.596116},{"name":"御蔵島村農業協同組合","province":"東京都","city":"御蔵島村","address":"東京都御蔵島村","lat":33.897366,"lon":139.596116},{"name":"御蔵島村漁業協同組合","province":"東京都","city":"御蔵島村","address":"東京都御蔵島村","lat":33.897366,"lon":139.596116},{"name":"御蔵島観光協会（みくらしま観光案内所）","province":"東京都","city":"御蔵島村","address":"東京都御蔵島村","lat":33.897366,"lon":139.596116},{"name":"御蔵島村役場","province":"東京都","city":"御蔵島村","address":"東京都御蔵島村","lat":33.89736534,"lon":139.59611904},{"name":"御蔵島郵便局","province":"東京都","city":"御蔵島村","address":"東京都御蔵島村","lat":33.89736534,"lon":139.59611904},{"name":"御蔵島村農業協同組合","province":"東京都","city":"御蔵島村","address":"東京都御蔵島村","lat":33.89736534,"lon":139.59611904},{"name":"御蔵島村漁業協同組合","province":"東京都","city":"御蔵島村","address":"東京都御蔵島村","lat":33.89736534,"lon":139.59611904},{"name":"御蔵島村役場","province":"東京都","city":"御蔵島村","address":"東京都御蔵島村字入かねが沢","lat":33.897402,"lon":139.595862},{"name":"警視庁御蔵島警察署","province":"東京都","city":"御蔵島村","address":"東京都御蔵島村","lat":33.897366,"lon":139.596116},{"name":"御蔵島村役場","province":"東京都","city":"御蔵島村","address":"東京都御蔵島村","lat":33.897366,"lon":139.596116},{"name":"御蔵島郵便局","province":"東京都","city":"御蔵島村","address":"東京都御蔵島村","lat":33.897366,"lon":139.596116},{"name":"御蔵島村農業協同組合","province":"東京都","city":"御蔵島村","address":"東京都御蔵島村","lat":33.897366,"lon":139.596116},{"name":"御蔵島村漁業協同組合","province":"東京都","city":"御蔵島村","address":"東京都御蔵島村","lat":33.897366,"lon":139.596116},{"name":"御蔵島観光協会（みくらしま観光案内所）","province":"東京都","city":"御蔵島村","address":"東京都御蔵島村","lat":33.897366,"lon":139.596116},{"name":"御蔵島村役場","province":"東京都","city":"御蔵島村","address":"東京都御蔵島村","lat":33.89736534,"lon":139.59611904},{"name":"御蔵島郵便局","province":"東京都","city":"御蔵島村","address":"東京都御蔵島村","lat":33.89736534,"lon":139.59611904},{"name":"御蔵島村農業協同組合","province":"東京都","city":"御蔵島村","address":"東京都御蔵島村","lat":33.89736534,"lon":139.59611904},{"name":"御蔵島村漁業協同組合","province":"東京都","city":"御蔵島村","address":"東京都御蔵島村","lat":33.89736534,"lon":139.59611904},{"name":"御蔵島村役場","province":"東京都","city":"御蔵島村","address":"東京都御蔵島村字入かねが沢","lat":33.897402,"lon":139.595862},{"name":"警視庁御蔵島警察署","province":"東京都","city":"御蔵島村","address":"東京都御蔵島村","lat":33.897366,"lon":139.596116},{"name":"御蔵島村役場","province":"東京都","city":"御蔵島村","address":"東京都御蔵島村","lat":33.897366,"lon":139.596116},{"name":"御蔵島郵便局","province":"東京都","city":"御蔵島村","address":"東京都御蔵島村","lat":33.897366,"lon":139.596116},{"name":"御蔵島村農業協同組合","province":"東京都","city":"御蔵島村","address":"東京都御蔵島村","lat":33.897366,"lon":139.596116},{"name":"御蔵島村漁業協同組合","province":"東京都","city":"御蔵島村","address":"東京都御蔵島村","lat":33.897366,"lon":139.596116},{"name":"御蔵島観光協会（みくらしま観光案内所）","province":"東京都","city":"御蔵島村","address":"東京都御蔵島村","lat":33.897366,"lon":139.596116},{"name":"御蔵島村役場","province":"東京都","city":"御蔵島村","address":"東京都御蔵島村","lat":33.89736534,"lon":139.59611904},{"name":"御蔵島郵便局","province":"東京都","city":"御蔵島村","address":"東京都御蔵島村","lat":33.89736534,"lon":139.59611904},{"name":"御蔵島村農業協同組合","province":"東京都","city":"御蔵島村","address":"東京都御蔵島村","lat":33.89736534,"lon":139.59611904},{"name":"御蔵島村漁業協同組合","province":"東京都","city":"御蔵島村","address":"東京都御蔵島村","lat":33.89736534,"lon":139.59611904},{"name":"御蔵島村役場","province":"東京都","city":"御蔵島村","address":"東京都御蔵島村字入かねが沢","lat":33.897402,"lon":139.595862},{"name":"警視庁御蔵島警察署","province":"東京都","city":"御蔵島村","address":"東京都御蔵島村","lat":33.897366,"lon":139.596116},{"name":"御蔵島村役場","province":"東京都","city":"御蔵島村","address":"東京都御蔵島村","lat":33.897366,"lon":139.596116},{"name":"御蔵島郵便局","province":"東京都","city":"御蔵島村","address":"東京都御蔵島村","lat":33.897366,"lon":139.596116},{"name":"御蔵島村農業協同組合","province":"東京都","city":"御蔵島村","address":"東京都御蔵島村","lat":33.897366,"lon":139.596116},{"name":"御蔵島村漁業協同組合","province":"東京都","city":"御蔵島村","address":"東京都御蔵島村","lat":33.897366,"lon":139.596116},{"name":"御蔵島観光協会（みくらしま観光案内所）","province":"東京都","city":"御蔵島村","address":"東京都御蔵島村","lat":33.897366,"lon":139.596116},{"name":"御蔵島村役場","province":"東京都","city":"御蔵島村","address":"東京都御蔵島村","lat":33.89736534,"lon":139.59611904},{"name":"御蔵島郵便局","province":"東京都","city":"御蔵島村","address":"東京都御蔵島村","lat":33.89736534,"lon":139.59611904},{"name":"御蔵島村農業協同組合","province":"東京都","city":"御蔵島村","address":"東京都御蔵島村","lat":33.89736534,"lon":139.59611904},{"name":"御蔵島村漁業協同組合","province":"東京都","city":"御蔵島村","address":"東京都御蔵島村","lat":33.89736534,"lon":139.59611904},{"name":"御蔵島村役場","province":"東京都","city":"御蔵島村","address":"東京都御蔵島村字入かねが沢","lat":33.897402,"lon":139.595862},{"name":"警視庁御蔵島警察署","province":"東京都","city":"御蔵島村","address":"東京都御蔵島村","lat":33.897366,"lon":139.596116},{"name":"御蔵島村役場","province":"東京都","city":"御蔵島村","address":"東京都御蔵島村","lat":33.897366,"lon":139.596116},{"name":"御蔵島郵便局","province":"東京都","city":"御蔵島村","address":"東京都御蔵島村","lat":33.897366,"lon":139.596116},{"name":"御蔵島村農業協同組合","province":"東京都","city":"御蔵島村","address":"東京都御蔵島村","lat":33.897366,"lon":139.596116},{"name":"御蔵島村漁業協同組合","province":"東京都","city":"御蔵島村","address":"東京都御蔵島村","lat":33.897366,"lon":139.596116},{"name":"御蔵島観光協会（みくらしま観光案内所）","province":"東京都","city":"御蔵島村","address":"東京都御蔵島村","lat":33.897366,"lon":139.596116},{"name":"御蔵島村役場","province":"東京都","city":"御蔵島村","address":"東京都御蔵島村","lat":33.89736534,"lon":139.59611904},{"name":"御蔵島郵便局","province":"東京都","city":"御蔵島村","address":"東京都御蔵島村","lat":33.89736534,"lon":139.59611904},{"name":"御蔵島村農業協同組合","province":"東京都","city":"御蔵島村","address":"東京都御蔵島村","lat":33.89736534,"lon":139.59611904},{"name":"御蔵島村漁業協同組合","province":"東京都","city":"御蔵島村","address":"東京都御蔵島村","lat":33.89736534,"lon":139.59611904},{"name":"御蔵島村役場","province":"東京都","city":"御蔵島村","address":"東京都御蔵島村字入かねが沢","lat":33.897402,"lon":139.595862},{"name":"警視庁御蔵島警察署","province":"東京都","city":"御蔵島村","address":"東京都御蔵島村","lat":33.897366,"lon":139.596116},{"name":"御蔵島村役場","province":"東京都","city":"御蔵島村","address":"東京都御蔵島村","lat":33.897366,"lon":139.596116},{"name":"御蔵島郵便局","province":"東京都","city":"御蔵島村","address":"東京都御蔵島村","lat":33.897366,"lon":139.596116},{"name":"御蔵島村農業協同組合","province":"東京都","city":"御蔵島村","address":"東京都御蔵島村","lat":33.897366,"lon":139.596116},{"name":"御蔵島村漁業協同組合","province":"東京都","city":"御蔵島村","address":"東京都御蔵島村","lat":33.897366,"lon":139.596116},{"name":"御蔵島観光協会（みくらしま観光案内所）","province":"東京都","city":"御蔵島村","address":"東京都御蔵島村","lat":33.897366,"lon":139.596116},{"name":"御蔵島村役場","province":"東京都","city":"御蔵島村","address":"東京都御蔵島村","lat":33.89736534,"lon":139.59611904},{"name":"御蔵島郵便局","province":"東京都","city":"御蔵島村","address":"東京都御蔵島村","lat":33.89736534,"lon":139.59611904},{"name":"御蔵島村農業協同組合","province":"東京都","city":"御蔵島村","address":"東京都御蔵島村","lat":33.89736534,"lon":139.59611904},{"name":"御蔵島村漁業協同組合","province":"東京都","city":"御蔵島村","address":"東京都御蔵島村","lat":33.89736534,"lon":139.59611904},{"name":"御蔵島村役場","province":"東京都","city":"御蔵島村","address":"東京都御蔵島村字入かねが沢","lat":33.897402,"lon":139.595862},{"name":"警視庁御蔵島警察署","province":"東京都","city":"御蔵島村","address":"東京都御蔵島村","lat":33.897366,"lon":139.596116},{"name":"御蔵島村役場","province":"東京都","city":"御蔵島村","address":"東京都御蔵島村","lat":33.897366,"lon":139.596116},{"name":"御蔵島郵便局","province":"東京都","city":"御蔵島村","address":"東京都御蔵島村","lat":33.897366,"lon":139.596116},{"name":"御蔵島村農業協同組合","province":"東京都","city":"御蔵島村","address":"東京都御蔵島村","lat":33.897366,"lon":139.596116},{"name":"御蔵島村漁業協同組合","province":"東京都","city":"御蔵島村","address":"東京都御蔵島村","lat":33.897366,"lon":139.596116},{"name":"御蔵島観光協会（みくらしま観光案内所）","province":"東京都","city":"御蔵島村","address":"東京都御蔵島村","lat":33.897366,"lon":139.596116},{"name":"御蔵島村役場","province":"東京都","city":"御蔵島村","address":"東京都御蔵島村","lat":33.89736534,"lon":139.59611904},{"name":"御蔵島郵便局","province":"東京都","city":"御蔵島村","address":"東京都御蔵島村","lat":33.89736534,"lon":139.59611904},{"name":"御蔵島村農業協同組合","province":"東京都","city":"御蔵島村","address":"東京都御蔵島村","lat":33.89736534,"lon":139.59611904},{"name":"御蔵島村漁業協同組合","province":"東京都","city":"御蔵島村","address":"東京都御蔵島村","lat":33.89736534,"lon":139.59611904},{"name":"御蔵島村役場","province":"東京都","city":"御蔵島村","address":"東京都御蔵島村字入かねが沢","lat":33.897402,"lon":139.595862},{"name":"警視庁御蔵島警察署","province":"東京都","city":"御蔵島村","address":"東京都御蔵島村","lat":33.897366,"lon":139.596116},{"name":"御蔵島村役場","province":"東京都","city":"御蔵島村","address":"東京都御蔵島村","lat":33.897366,"lon":139.596116},{"name":"御蔵島郵便局","province":"東京都","city":"御蔵島村","address":"東京都御蔵島村","lat":33.897366,"lon":139.596116},{"name":"御蔵島村農業協同組合","province":"東京都","city":"御蔵島村","address":"東京都御蔵島村","lat":33.897366,"lon":139.596116},{"name":"御蔵島村漁業協同組合","province":"東京都","city":"御蔵島村","address":"東京都御蔵島村","lat":33.897366,"lon":139.596116},{"name":"御蔵島観光協会（みくらしま観光案内所）","province":"東京都","city":"御蔵島村","address":"東京都御蔵島村","lat":33.897366,"lon":139.596116},{"name":"御蔵島村役場","province":"東京都","city":"御蔵島村","address":"東京都御蔵島村","lat":33.89736534,"lon":139.59611904},{"name":"御蔵島郵便局","province":"東京都","city":"御蔵島村","address":"東京都御蔵島村","lat":33.89736534,"lon":139.59611904},{"name":"御蔵島村農業協同組合","province":"東京都","city":"御蔵島村","address":"東京都御蔵島村","lat":33.89736534,"lon":139.59611904},{"name":"御蔵島村漁業協同組合","province":"東京都","city":"御蔵島村","address":"東京都御蔵島村","lat":33.89736534,"lon":139.59611904},{"name":"御蔵島村役場","province":"東京都","city":"御蔵島村","address":"東京都御蔵島村字入かねが沢","lat":33.897402,"lon":139.595862},{"name":"警視庁御蔵島警察署","province":"東京都","city":"御蔵島村","address":"東京都御蔵島村","lat":33.897366,"lon":139.596116},{"name":"御蔵島村役場","province":"東京都","city":"御蔵島村","address":"東京都御蔵島村","lat":33.897366,"lon":139.596116},{"name":"御蔵島郵便局","province":"東京都","city":"御蔵島村","address":"東京都御蔵島村","lat":33.897366,"lon":139.596116},{"name":"御蔵島村農業協同組合","province":"東京都","city":"御蔵島村","address":"東京都御蔵島村","lat":33.897366,"lon":139.596116},{"name":"御蔵島村漁業協同組合","province":"東京都","city":"御蔵島村","address":"東京都御蔵島村","lat":33.897366,"lon":139.596116},{"name":"御蔵島観光協会（みくらしま観光案内所）","province":"東京都","city":"御蔵島村","address":"東京都御蔵島村","lat":33.897366,"lon":139.596116},{"name":"御蔵島村役場","province":"東京都","city":"御蔵島村","address":"東京都御蔵島村","lat":33.89736534,"lon":139.59611904},{"name":"御蔵島郵便局","province":"東京都","city":"御蔵島村","address":"東京都御蔵島村","lat":33.89736534,"lon":139.59611904},{"name":"御蔵島村農業協同組合","province":"東京都","city":"御蔵島村","address":"東京都御蔵島村","lat":33.89736534,"lon":139.59611904},{"name":"御蔵島村漁業協同組合","province":"東京都","city":"御蔵島村","address":"東京都御蔵島村","lat":33.89736534,"lon":139.59611904},{"name":"御蔵島村役場","province":"東京都","city":"御蔵島村","address":"東京都御蔵島村字入かねが沢","lat":33.897402,"lon":139.595862},{"name":"警視庁御蔵島警察署","province":"東京都","city":"御蔵島村","address":"東京都御蔵島村","lat":33.897366,"lon":139.596116},{"name":"御蔵島村役場","province":"東京都","city":"御蔵島村","address":"東京都御蔵島村","lat":33.897366,"lon":139.596116},{"name":"御蔵島郵便局","province":"東京都","city":"御蔵島村","address":"東京都御蔵島村","lat":33.897366,"lon":139.596116},{"name":"御蔵島村農業協同組合","province":"東京都","city":"御蔵島村","address":"東京都御蔵島村","lat":33.897366,"lon":139.596116},{"name":"御蔵島村漁業協同組合","province":"東京都","city":"御蔵島村","address":"東京都御蔵島村","lat":33.897366,"lon":139.596116},{"name":"御蔵島観光協会（みくらしま観光案内所）","province":"東京都","city":"御蔵島村","address":"東京都御蔵島村","lat":33.897366,"lon":139.596116},{"name":"御蔵島村役場","province":"東京都","city":"御蔵島村","address":"東京都御蔵島村","lat":33.89736534,"lon":139.59611904},{"name":"御蔵島郵便局","province":"東京都","city":"御蔵島村","address":"東京都御蔵島村","lat":33.89736534,"lon":139.59611904},{"name":"御蔵島村農業協同組合","province":"東京都","city":"御蔵島村","address":"東京都御蔵島村","lat":33.89736534,"lon":139.59611904},{"name":"御蔵島村漁業協同組合","province":"東京都","city":"御蔵島村","address":"東京都御蔵島村","lat":33.89736534,"lon":139.59611904},{"name":"御蔵島村役場","province":"東京都","city":"御蔵島村","address":"東京都御蔵島村字入かねが沢","lat":33.897402,"lon":139.595862},{"name":"警視庁御蔵島警察署","province":"東京都","city":"御蔵島村","address":"東京都御蔵島村","lat":33.897366,"lon":139.596116},{"name":"御蔵島村役場","province":"東京都","city":"御蔵島村","address":"東京都御蔵島村","lat":33.897366,"lon":139.596116},{"name":"御蔵島郵便局","province":"東京都","city":"御蔵島村","address":"東京都御蔵島村","lat":33.897366,"lon":139.596116},{"name":"御蔵島村農業協同組合","province":"東京都","city":"御蔵島村","address":"東京都御蔵島村","lat":33.897366,"lon":139.596116},{"name":"御蔵島村漁業協同組合","province":"東京都","city":"御蔵島村","address":"東京都御蔵島村","lat":33.897366,"lon":139.596116},{"name":"御蔵島観光協会（みくらしま観光案内所）","province":"東京都","city":"御蔵島村","address":"東京都御蔵島村","lat":33.897366,"lon":139.596116},{"name":"御蔵島村役場","province":"東京都","city":"御蔵島村","address":"東京都御蔵島村","lat":33.89736534,"lon":139.59611904},{"name":"御蔵島郵便局","province":"東京都","city":"御蔵島村","address":"東京都御蔵島村","lat":33.89736534,"lon":139.59611904},{"name":"御蔵島村農業協同組合","province":"東京都","city":"御蔵島村","address":"東京都御蔵島村","lat":33.89736534,"lon":139.59611904},{"name":"御蔵島村漁業協同組合","province":"東京都","city":"御蔵島村","address":"東京都御蔵島村","lat":33.89736534,"lon":139.59611904},{"name":"御蔵島村役場","province":"東京都","city":"御蔵島村","address":"東京都御蔵島村字入かねが沢","lat":33.897402,"lon":139.595862},{"name":"警視庁御蔵島警察署","province":"東京都","city":"御蔵島村","address":"東京都御蔵島村","lat":33.897366,"lon":139.596116},{"name":"御蔵島村役場","province":"東京都","city":"御蔵島村","address":"東京都御蔵島村","lat":33.897366,"lon":139.596116},{"name":"御蔵島郵便局","province":"東京都","city":"御蔵島村","address":"東京都御蔵島村","lat":33.897366,"lon":139.596116},{"name":"御蔵島村農業協同組合","province":"東京都","city":"御蔵島村","address":"東京都御蔵島村","lat":33.897366,"lon":139.596116},{"name":"御蔵島村漁業協同組合","province":"東京都","city":"御蔵島村","address":"東京都御蔵島村","lat":33.897366,"lon":139.596116},{"name":"御蔵島観光協会（みくらしま観光案内所）","province":"東京都","city":"御蔵島村","address":"東京都御蔵島村","lat":33.897366,"lon":139.596116},{"name":"御蔵島村役場","province":"東京都","city":"御蔵島村","address":"東京都御蔵島村","lat":33.89736534,"lon":139.59611904},{"name":"御蔵島郵便局","province":"東京都","city":"御蔵島村","address":"東京都御蔵島村","lat":33.89736534,"lon":139.59611904},{"name":"御蔵島村農業協同組合","province":"東京都","city":"御蔵島村","address":"東京都御蔵島村","lat":33.89736534,"lon":139.59611904},{"name":"御蔵島村漁業協同組合","province":"東京都","city":"御蔵島村","address":"東京都御蔵島村","lat":33.89736534,"lon":139.59611904},{"name":"御蔵島村役場","province":"東京都","city":"御蔵島村","address":"東京都御蔵島村字入かねが沢","lat":33.897402,"lon":139.595862},{"name":"御蔵島村役場","province":"東京都","city":"御蔵島村","address":"東京都御蔵島村字入かねが沢","lat":33.897402,"lon":139.595862},{"name":"御蔵島村役場","province":"東京都","city":"御蔵島村","address":"東京都御蔵島村字入かねが沢","lat":33.897402,"lon":139.595862},{"name":"御蔵島村役場","province":"東京都","city":"御蔵島村","address":"東京都御蔵島村字入かねが沢","lat":33.897402,"lon":139.595862},{"name":"御蔵島村役場","province":"東京都","city":"御蔵島村","address":"東京都御蔵島村字入かねが沢","lat":33.897402,"lon":139.595862},{"name":"御蔵島村役場","province":"東京都","city":"御蔵島村","address":"東京都御蔵島村字入かねが沢","lat":33.897402,"lon":139.595862},{"name":"御蔵島村役場","province":"東京都","city":"御蔵島村","address":"東京都御蔵島村字入かねが沢","lat":33.897402,"lon":139.595862},{"name":"御蔵島村役場","province":"東京都","city":"御蔵島村","address":"東京都御蔵島村字入かねが沢","lat":33.897402,"lon":139.595862},{"name":"御蔵島村役場","province":"東京都","city":"御蔵島村","address":"東京都御蔵島村字入かねが沢","lat":33.897402,"lon":139.595862},{"name":"御蔵島村役場","province":"東京都","city":"御蔵島村","address":"東京都御蔵島村字入かねが沢","lat":33.897402,"lon":139.595862},{"name":"御蔵島村役場","province":"東京都","city":"御蔵島村","address":"東京都御蔵島村字入かねが沢","lat":33.897402,"lon":139.595862},{"name":"御蔵島村役場","province":"東京都","city":"御蔵島村","address":"東京都御蔵島村字入かねが沢","lat":33.897402,"lon":139.595862},{"name":"御蔵島村役場","province":"東京都","city":"御蔵島村","address":"東京都御蔵島村字入かねが沢","lat":33.897402,"lon":139.595862},{"name":"御蔵島村役場","province":"東京都","city":"御蔵島村","address":"東京都御蔵島村字入かねが沢","lat":33.897402,"lon":139.595862},{"name":"御蔵島村役場","province":"東京都","city":"御蔵島村","address":"東京都御蔵島村字入かねが沢","lat":33.897402,"lon":139.595862},{"name":"御蔵島村役場","province":"東京都","city":"御蔵島村","address":"東京都御蔵島村字入かねが沢","lat":33.897402,"lon":139.595862},{"name":"御蔵島村役場","province":"東京都","city":"御蔵島村","address":"東京都御蔵島村字入かねが沢","lat":33.897402,"lon":139.595862},{"name":"御蔵島村役場","province":"東京都","city":"御蔵島村","address":"東京都御蔵島村字入かねが沢","lat":33.897402,"lon":139.595862},{"name":"御蔵島村役場","province":"東京都","city":"御蔵島村","address":"東京都御蔵島村字入かねが沢","lat":33.897402,"lon":139.595862},{"name":"御蔵島村役場","province":"東京都","city":"御蔵島村","address":"東京都御蔵島村字入かねが沢","lat":33.897402,"lon":139.595862},{"name":"御蔵島村役場","province":"東京都","city":"御蔵島村","address":"東京都御蔵島村字入かねが沢","lat":33.897402,"lon":139.595862},{"name":"御蔵島村役場","province":"東京都","city":"御蔵島村","address":"東京都御蔵島村字入かねが沢","lat":33.897402,"lon":139.595862},{"name":"御蔵島村役場","province":"東京都","city":"御蔵島村","address":"東京都御蔵島村字入かねが沢","lat":33.897402,"lon":139.595862},{"name":"御蔵島村役場","province":"東京都","city":"御蔵島村","address":"東京都御蔵島村字入かねが沢","lat":33.897402,"lon":139.595862},{"name":"御蔵島村役場","province":"東京都","city":"御蔵島村","address":"東京都御蔵島村字入かねが沢","lat":33.897402,"lon":139.595862},{"name":"御蔵島村役場","province":"東京都","city":"御蔵島村","address":"東京都御蔵島村字入かねが沢","lat":33.897402,"lon":139.595862},{"name":"御蔵島村役場","province":"東京都","city":"御蔵島村","address":"東京都御蔵島村字入かねが沢","lat":33.897402,"lon":139.595862},{"name":"御蔵島村役場","province":"東京都","city":"御蔵島村","address":"東京都御蔵島村字入かねが沢","lat":33.897402,"lon":139.595862},{"name":"御蔵島村役場","province":"東京都","city":"御蔵島村","address":"東京都御蔵島村字入かねが沢","lat":33.897402,"lon":139.595862},{"name":"御蔵島村役場","province":"東京都","city":"御蔵島村","address":"東京都御蔵島村字入かねが沢","lat":33.897402,"lon":139.595862},{"name":"御蔵島村役場","province":"東京都","city":"御蔵島村","address":"東京都御蔵島村字入かねが沢","lat":33.897402,"lon":139.595862},{"name":"御蔵島村役場","province":"東京都","city":"御蔵島村","address":"東京都御蔵島村字入かねが沢","lat":33.897402,"lon":139.595862}]}