{"keyword":"公","data":[{"name":"警視庁御蔵島警察署","province":"東京都","city":"御蔵島村","address":"東京都御蔵島村","lat":33.897366,"lon":139.596116},{"name":"御蔵島村役場","province":"東京都","city":"御蔵島村","address":"東京都御蔵島村","lat":33.897366,"lon":139.596116},{"name":"御蔵島郵便局","province":"東京都","city":"御蔵島村","address":"東京都御蔵島村","lat":33.897366,"lon":139.596116},{"name":"御蔵島村農業協同組合","province":"東京都","city":"御蔵島村","address":"東京都御蔵島村","lat":33.897366,"lon":139.596116},{"name":"御蔵島村漁業協同組合","province":"東京都","city":"御蔵島村","address":"東京都御蔵島村","lat":33.897366,"lon":139.596116},{"name":"御蔵島観光協会（みくらしま観光案内所）","province":"東京都","city":"御蔵島村","address":"東京都御蔵島村","lat":33.897366,"lon":139.596116},{"name":"御蔵島村役場","province":"東京都","city":"御蔵島村","address":"東京都御蔵島村","lat":33.89736534,"lon":139.59611904},{"name":"御蔵島郵便局","province":"東京都","city":"御蔵島村","address":"東京都御蔵島村","lat":33.89736534,"lon":139.59611904},{"name":"御蔵島村農業協同組合","province":"東京都","city":"御蔵島村","address":"東京都御蔵島村","lat":33.89736534,"lon":139.59611904},{"name":"御蔵島村漁業協同組合","province":"東京都","city":"御蔵島村","address":"東京都御蔵島村","lat":33.89736534,"lon":139.59611904}]}