{"keyword":"商品","data":[{"name":"御蔵島社会福祉協議会","province":"東京都","city":"御蔵島村","address":"御蔵島村字かんぶり御蔵島村福祉保健センター2階","lat":33.896272,"lon":139.591884},{"name":"御蔵島村子ども家庭支援センター","province":"東京都","city":"御蔵島村","address":"御蔵島村字入かねが沢御蔵島村役場内","lat":33.897386,"lon":139.595805},{"name":"御蔵島ふれあい広場","province":"東京都","city":"御蔵島村","address":"東京都御蔵島村","lat":33.895526,"lon":139.591078},{"name":"御蔵島観光資料館","province":"東京都","city":"御蔵島村","address":"東京都御蔵島村","lat":33.896712,"lon":139.592076},{"name":"御蔵島社会福祉協議会","province":"東京都","city":"御蔵島村","address":"御蔵島村字かんぶり御蔵島村福祉保健センター2階","lat":33.89716,"lon":139.59601},{"name":"御蔵島村子ども家庭支援センター","province":"東京都","city":"御蔵島村","address":"御蔵島村字入かねが沢御蔵島村役場内","lat":33.89729,"lon":139.5959},{"name":"御蔵島社会福祉協議会","province":"東京都","city":"御蔵島村","address":"御蔵島村字かんぶり御蔵島村福祉保健センター2階","lat":33.86452,"lon":139.58795},{"name":"御蔵島村子ども家庭支援センター","province":"東京都","city":"御蔵島村","address":"御蔵島村字入かねが沢御蔵島村役場内","lat":33.897386,"lon":139.595805},{"name":"御蔵島ふれあい広場","province":"東京都","city":"御蔵島村","address":"東京都御蔵島村","lat":33.895526,"lon":139.591078},{"name":"御蔵島観光資料館","province":"東京都","city":"御蔵島村","address":"東京都御蔵島村","lat":33.896712,"lon":139.592076},{"name":"御蔵島村子ども家庭支援センター","province":"東京都","city":"御蔵島村","address":"御蔵島村字入かねが沢御蔵島村役場内","lat":33.89729,"lon":139.5959}]}