{"keyword":"戸数","data":[{"name":"御蔵島社会福祉協議会","province":"東京都","city":"御蔵島村","address":"御蔵島村字かんぶり御蔵島村福祉保健センター2階","lat":33.896272,"lon":139.591884},{"name":"御蔵島社会福祉協議会","province":"東京都","city":"御蔵島村","address":"御蔵島村字かんぶり御蔵島村福祉保健センター2階","lat":33.89716,"lon":139.59601},{"name":"御蔵島村地域包括支援センター","province":"東京都","city":"御蔵島村","address":"御蔵島村字入かねが沢","lat":33.897289,"lon":139.595901},{"name":"御蔵島社会福祉協議会","province":"東京都","city":"御蔵島村","address":"御蔵島村字かんぶり御蔵島村福祉保健センター2階","lat":33.86452,"lon":139.58795},{"name":"御蔵島臨時ヘリポート","province":"東京都","city":"御蔵島村","address":"東京都御蔵島村","lat":33.89736534,"lon":139.59611904},{"name":"御蔵島村役場","province":"東京都","city":"御蔵島村","address":"東京都御蔵島村字入かねが沢","lat":33.897402,"lon":139.595862},{"name":"御蔵島社会福祉協議会","province":"東京都","city":"御蔵島村","address":"御蔵島村字かんぶり御蔵島村福祉保健センター2階","lat":33.896272,"lon":139.591884},{"name":"御蔵島社会福祉協議会","province":"東京都","city":"御蔵島村","address":"御蔵島村字かんぶり御蔵島村福祉保健センター2階","lat":33.89716,"lon":139.59601},{"name":"御蔵島村地域包括支援センター","province":"東京都","city":"御蔵島村","address":"御蔵島村字入かねが沢","lat":33.897289,"lon":139.595901},{"name":"御蔵島社会福祉協議会","province":"東京都","city":"御蔵島村","address":"御蔵島村字かんぶり御蔵島村福祉保健センター2階","lat":33.86452,"lon":139.58795},{"name":"御蔵島臨時ヘリポート","province":"東京都","city":"御蔵島村","address":"東京都御蔵島村","lat":33.89736534,"lon":139.59611904},{"name":"御蔵島村地域包括支援センター","province":"東京都","city":"御蔵島村","address":"御蔵島村字入かねが沢","lat":33.897289,"lon":139.595901},{"name":"御蔵島村地域包括支援センター","province":"東京都","city":"御蔵島村","address":"御蔵島村字入かねが沢","lat":33.897289,"lon":139.595901},{"name":"御蔵島村地域包括支援センター","province":"東京都","city":"御蔵島村","address":"御蔵島村字入かねが沢","lat":33.897289,"lon":139.595901},{"name":"御蔵島村地域包括支援センター","province":"東京都","city":"御蔵島村","address":"御蔵島村字入かねが沢","lat":33.897289,"lon":139.595901},{"name":"御蔵島村地域包括支援センター","province":"東京都","city":"御蔵島村","address":"御蔵島村字入かねが沢","lat":33.897289,"lon":139.595901},{"name":"御蔵島村地域包括支援センター","province":"東京都","city":"御蔵島村","address":"御蔵島村字入かねが沢","lat":33.897289,"lon":139.595901},{"name":"御蔵島村地域包括支援センター","province":"東京都","city":"御蔵島村","address":"御蔵島村字入かねが沢","lat":33.897289,"lon":139.595901},{"name":"御蔵島村地域包括支援センター","province":"東京都","city":"御蔵島村","address":"御蔵島村字入かねが沢","lat":33.897289,"lon":139.595901},{"name":"御蔵島村地域包括支援センター","province":"東京都","city":"御蔵島村","address":"御蔵島村字入かねが沢","lat":33.897289,"lon":139.595901},{"name":"御蔵島村地域包括支援センター","province":"東京都","city":"御蔵島村","address":"御蔵島村字入かねが沢","lat":33.897289,"lon":139.595901},{"name":"御蔵島村地域包括支援センター","province":"東京都","city":"御蔵島村","address":"御蔵島村字入かねが沢","lat":33.897289,"lon":139.595901},{"name":"御蔵島村地域包括支援センター","province":"東京都","city":"御蔵島村","address":"御蔵島村字入かねが沢","lat":33.897289,"lon":139.595901},{"name":"御蔵島村地域包括支援センター","province":"東京都","city":"御蔵島村","address":"御蔵島村字入かねが沢","lat":33.897289,"lon":139.595901},{"name":"御蔵島村地域包括支援センター","province":"東京都","city":"御蔵島村","address":"御蔵島村字入かねが沢","lat":33.897289,"lon":139.595901},{"name":"御蔵島村地域包括支援センター","province":"東京都","city":"御蔵島村","address":"御蔵島村字入かねが沢","lat":33.897289,"lon":139.595901},{"name":"御蔵島村地域包括支援センター","province":"東京都","city":"御蔵島村","address":"御蔵島村字入かねが沢","lat":33.897289,"lon":139.595901},{"name":"御蔵島村地域包括支援センター","province":"東京都","city":"御蔵島村","address":"御蔵島村字入かねが沢","lat":33.897289,"lon":139.595901},{"name":"御蔵島村地域包括支援センター","province":"東京都","city":"御蔵島村","address":"御蔵島村字入かねが沢","lat":33.897289,"lon":139.595901},{"name":"御蔵島村地域包括支援センター","province":"東京都","city":"御蔵島村","address":"御蔵島村字入かねが沢","lat":33.897289,"lon":139.595901}]}