{"keyword":"男女","data":[{"name":"御蔵島ふれあい広場","province":"東京都","city":"御蔵島村","address":"東京都御蔵島村","lat":33.895526,"lon":139.591078},{"name":"御蔵島観光資料館","province":"東京都","city":"御蔵島村","address":"東京都御蔵島村","lat":33.896712,"lon":139.592076},{"name":"御蔵島村地域包括支援センター","province":"東京都","city":"御蔵島村","address":"御蔵島村字入かねが沢","lat":33.897289,"lon":139.595901},{"name":"御蔵島臨時ヘリポート","province":"東京都","city":"御蔵島村","address":"東京都御蔵島村","lat":33.89736534,"lon":139.59611904},{"name":"＊?御蔵島観光資料館（郷土資料館）","province":"東京都","city":"御蔵島村","address":"御蔵島村おうし屋敷","lat":33.896761,"lon":139.592174},{"name":"御蔵島村じん芥処理施設","province":"東京都","city":"御蔵島村","address":"東京都御蔵島村","lat":33.864521,"lon":139.587952},{"name":"御蔵島村地域包括支援センター","province":"東京都","city":"御蔵島村","address":"御蔵島村字入かねが沢","lat":33.897289,"lon":139.595901},{"name":"＊?御蔵島観光資料館（郷土資料館）","province":"東京都","city":"御蔵島村","address":"御蔵島村おうし屋敷","lat":33.896761,"lon":139.592174},{"name":"御蔵島村じん芥処理施設","province":"東京都","city":"御蔵島村","address":"東京都御蔵島村","lat":33.864521,"lon":139.587952},{"name":"御蔵島村地域包括支援センター","province":"東京都","city":"御蔵島村","address":"御蔵島村字入かねが沢","lat":33.897289,"lon":139.595901},{"name":"＊?御蔵島観光資料館（郷土資料館）","province":"東京都","city":"御蔵島村","address":"御蔵島村おうし屋敷","lat":33.896761,"lon":139.592174},{"name":"御蔵島村じん芥処理施設","province":"東京都","city":"御蔵島村","address":"東京都御蔵島村","lat":33.864521,"lon":139.587952},{"name":"＊?御蔵島観光資料館（郷土資料館）","province":"東京都","city":"御蔵島村","address":"御蔵島村おうし屋敷","lat":33.896761,"lon":139.592174},{"name":"御蔵島村じん芥処理施設","province":"東京都","city":"御蔵島村","address":"東京都御蔵島村","lat":33.864521,"lon":139.587952},{"name":"＊?御蔵島観光資料館（郷土資料館）","province":"東京都","city":"御蔵島村","address":"御蔵島村おうし屋敷","lat":33.896761,"lon":139.592174},{"name":"御蔵島村じん芥処理施設","province":"東京都","city":"御蔵島村","address":"東京都御蔵島村","lat":33.864521,"lon":139.587952},{"name":"御蔵島村じん芥処理施設","province":"東京都","city":"御蔵島村","address":"東京都御蔵島村","lat":33.864521,"lon":139.587952},{"name":"御蔵島村じん芥処理施設","province":"東京都","city":"御蔵島村","address":"東京都御蔵島村","lat":33.864521,"lon":139.587952},{"name":"御蔵島村じん芥処理施設","province":"東京都","city":"御蔵島村","address":"東京都御蔵島村","lat":33.864521,"lon":139.587952},{"name":"御蔵島村じん芥処理施設","province":"東京都","city":"御蔵島村","address":"東京都御蔵島村","lat":33.864521,"lon":139.587952},{"name":"御蔵島村じん芥処理施設","province":"東京都","city":"御蔵島村","address":"東京都御蔵島村","lat":33.864521,"lon":139.587952},{"name":"御蔵島村じん芥処理施設","province":"東京都","city":"御蔵島村","address":"東京都御蔵島村","lat":33.864521,"lon":139.587952},{"name":"御蔵島村じん芥処理施設","province":"東京都","city":"御蔵島村","address":"東京都御蔵島村","lat":33.864521,"lon":139.587952},{"name":"御蔵島村じん芥処理施設","province":"東京都","city":"御蔵島村","address":"東京都御蔵島村","lat":33.864521,"lon":139.587952},{"name":"御蔵島村じん芥処理施設","province":"東京都","city":"御蔵島村","address":"東京都御蔵島村","lat":33.864521,"lon":139.587952},{"name":"御蔵島村じん芥処理施設","province":"東京都","city":"御蔵島村","address":"東京都御蔵島村","lat":33.864521,"lon":139.587952},{"name":"御蔵島村じん芥処理施設","province":"東京都","city":"御蔵島村","address":"東京都御蔵島村","lat":33.864521,"lon":139.587952},{"name":"御蔵島村じん芥処理施設","province":"東京都","city":"御蔵島村","address":"東京都御蔵島村","lat":33.864521,"lon":139.587952},{"name":"御蔵島村じん芥処理施設","province":"東京都","city":"御蔵島村","address":"東京都御蔵島村","lat":33.864521,"lon":139.587952},{"name":"御蔵島村じん芥処理施設","province":"東京都","city":"御蔵島村","address":"東京都御蔵島村","lat":33.864521,"lon":139.587952},{"name":"御蔵島村じん芥処理施設","province":"東京都","city":"御蔵島村","address":"東京都御蔵島村","lat":33.864521,"lon":139.587952},{"name":"御蔵島村じん芥処理施設","province":"東京都","city":"御蔵島村","address":"東京都御蔵島村","lat":33.864521,"lon":139.587952},{"name":"御蔵島村じん芥処理施設","province":"東京都","city":"御蔵島村","address":"東京都御蔵島村","lat":33.864521,"lon":139.587952},{"name":"御蔵島村じん芥処理施設","province":"東京都","city":"御蔵島村","address":"東京都御蔵島村","lat":33.864521,"lon":139.587952},{"name":"御蔵島村じん芥処理施設","province":"東京都","city":"御蔵島村","address":"東京都御蔵島村","lat":33.864521,"lon":139.587952},{"name":"御蔵島村じん芥処理施設","province":"東京都","city":"御蔵島村","address":"東京都御蔵島村","lat":33.864521,"lon":139.587952},{"name":"御蔵島村じん芥処理施設","province":"東京都","city":"御蔵島村","address":"東京都御蔵島村","lat":33.864521,"lon":139.587952},{"name":"御蔵島村じん芥処理施設","province":"東京都","city":"御蔵島村","address":"東京都御蔵島村","lat":33.864521,"lon":139.587952},{"name":"御蔵島村じん芥処理施設","province":"東京都","city":"御蔵島村","address":"東京都御蔵島村","lat":33.864521,"lon":139.587952},{"name":"御蔵島村じん芥処理施設","province":"東京都","city":"御蔵島村","address":"東京都御蔵島村","lat":33.864521,"lon":139.587952},{"name":"御蔵島村じん芥処理施設","province":"東京都","city":"御蔵島村","address":"東京都御蔵島村","lat":33.864521,"lon":139.587952},{"name":"御蔵島村じん芥処理施設","province":"東京都","city":"御蔵島村","address":"東京都御蔵島村","lat":33.864521,"lon":139.587952},{"name":"御蔵島村じん芥処理施設","province":"東京都","city":"御蔵島村","address":"東京都御蔵島村","lat":33.864521,"lon":139.587952},{"name":"御蔵島村じん芥処理施設","province":"東京都","city":"御蔵島村","address":"東京都御蔵島村","lat":33.864521,"lon":139.587952},{"name":"御蔵島村じん芥処理施設","province":"東京都","city":"御蔵島村","address":"東京都御蔵島村","lat":33.864521,"lon":139.587952},{"name":"御蔵島村じん芥処理施設","province":"東京都","city":"御蔵島村","address":"東京都御蔵島村","lat":33.864521,"lon":139.587952},{"name":"御蔵島村じん芥処理施設","province":"東京都","city":"御蔵島村","address":"東京都御蔵島村","lat":33.864521,"lon":139.587952}]}