{"category":"wireless","data":[{"name":"江戸川区中央","province":"東京都","city":"江戸川区","address":"東京都江戸川区中央1丁目4-1","lat":35.70665062,"lon":139.8683651},{"name":"東京臨海病院","province":"東京都","city":"江戸川区","address":"東京都江戸川区臨海町1丁目4-2","lat":35.65210677,"lon":139.85363487},{"name":"江戸川病院","province":"東京都","city":"江戸川区","address":"東京都江戸川区東小岩2丁目24-18","lat":35.72860723,"lon":139.89289248},{"name":"瑞江葬儀所","province":"東京都","city":"江戸川区","address":"東京都江戸川区春江町3丁目26-1","lat":35.694788,"lon":139.89013556},{"name":"西瑞江給水所","province":"東京都","city":"江戸川区","address":"東京都江戸川区東瑞江1丁目26-2","lat":35.69135275,"lon":139.89810175},{"name":"葛西給水所","province":"東京都","city":"江戸川区","address":"東京都江戸川区北葛西3丁目9","lat":35.67359591,"lon":139.85917535},{"name":"都立篠崎公園","province":"東京都","city":"江戸川区","address":"東京都江戸川区上篠崎1丁目25","lat":35.7146518,"lon":139.89798133},{"name":"区立宇喜田中央公園","province":"東京都","city":"江戸川区","address":"東京都江戸川区北葛西4丁目15","lat":35.67038268,"lon":139.86439164},{"name":"区立小岩公園","province":"東京都","city":"江戸川区","address":"東京都江戸川区北小岩6丁目43","lat":35.74601851,"lon":139.8865981},{"name":"都立大島小松川公園","province":"東京都","city":"江戸川区","address":"東京都江戸川区小松川1丁目7","lat":35.69216816,"lon":139.85200056},{"name":"都立葛西南高等学校","province":"東京都","city":"江戸川区","address":"東京都江戸川区南葛西1丁目11-1","lat":35.65367379,"lon":139.87079175},{"name":"西瑞江給水所（注５）","province":"東京都","city":"江戸川区","address":"東京都江戸川区東瑞江1丁目26-2","lat":35.69135275,"lon":139.89810175},{"name":"葛西トラックターミナル","province":"東京都","city":"江戸川区","address":"東京都江戸川区臨海町4丁目3-1","lat":35.64589396,"lon":139.86608413},{"name":"城東職業能力開発センター江戸川校","province":"東京都","city":"江戸川区","address":"東京都江戸川区中央2丁目31-27","lat":35.70692643,"lon":139.87508919},{"name":"葛西市場","province":"東京都","city":"江戸川区","address":"東京都江戸川区臨海町3丁目4-1","lat":35.64921017,"lon":139.86351753},{"name":"江戸川高等学校","province":"東京都","city":"江戸川区","address":"東京都江戸川区松島2丁目38-1","lat":35.70868342,"lon":139.865621},{"name":"葛西南高等学校","province":"東京都","city":"江戸川区","address":"東京都江戸川区南葛西1丁目11-1","lat":35.65367379,"lon":139.87079175},{"name":"小松川高等学校","province":"東京都","city":"江戸川区","address":"東京都江戸川区平井1丁目27-10","lat":35.70266933,"lon":139.85134779},{"name":"篠崎高等学校","province":"東京都","city":"江戸川区","address":"東京都江戸川区東篠崎1丁目10-1","lat":35.70047624,"lon":139.91601672},{"name":"葛西工業高等学校","province":"東京都","city":"江戸川区","address":"東京都江戸川区一之江7丁目68-1","lat":35.68361274,"lon":139.87887044},{"name":"小岩高等学校","province":"東京都","city":"江戸川区","address":"東京都江戸川区本一色3丁目10-1","lat":35.7213742,"lon":139.86892265},{"name":"紅葉川高等学校","province":"東京都","city":"江戸川区","address":"東京都江戸川区臨海町2丁目1-1","lat":35.65276793,"lon":139.85881221},{"name":"葛西トラックターミナル","province":"東京都","city":"江戸川区","address":"東京都江戸川区臨海町4丁目3-1","lat":35.64589396,"lon":139.86608413},{"name":"上篠崎","province":"東京都","city":"江戸川区","address":"東京都江戸川区上篠崎2丁目27","lat":35.71283558,"lon":139.90618361},{"name":"葛西臨海公園","province":"東京都","city":"江戸川区","address":"東京都江戸川区臨海町6丁目","lat":35.6462852,"lon":139.85139641},{"name":"一之江橋","province":"東京都","city":"江戸川区","address":"東京都江戸川区新堀1丁目1","lat":35.70258678,"lon":139.88574945},{"name":"小松川","province":"東京都","city":"江戸川区","address":"東京都江戸川区小松川1丁目","lat":35.68984346,"lon":139.84946741},{"name":"新今井橋","province":"東京都","city":"江戸川区","address":"東京都江戸川区江戸川4丁目","lat":35.68234427,"lon":139.88820301},{"name":"平井","province":"東京都","city":"江戸川区","address":"東京都江戸川区平井6丁目71","lat":35.71365739,"lon":139.84385591},{"name":"なぎさ公園","province":"東京都","city":"江戸川区","address":"東京都江戸川区南葛西7丁目3","lat":35.64875249,"lon":139.88177994},{"name":"今井交通公園","province":"東京都","city":"江戸川区","address":"東京都江戸川区中葛西4丁目9","lat":35.66799142,"lon":139.86705815},{"name":"スポーツランド","province":"東京都","city":"江戸川区","address":"東京都江戸川区東篠崎1丁目8","lat":35.69783207,"lon":139.91731117},{"name":"ポニーランド","province":"東京都","city":"江戸川区","address":"東京都江戸川区南篠崎町3丁目23","lat":35.69480527,"lon":139.90019585},{"name":"篠崎公園","province":"東京都","city":"江戸川区","address":"東京都江戸川区上篠崎1丁目25","lat":35.7146518,"lon":139.89798133},{"name":"小岩菖蒲園","province":"東京都","city":"江戸川区","address":"東京都江戸川区北小岩4丁目37","lat":35.73856957,"lon":139.89622538},{"name":"江戸川区総合文化センター","province":"東京都","city":"江戸川区","address":"東京都江戸川区中央4丁目14-1","lat":35.71108906,"lon":139.86826216},{"name":"葛西防災施設","province":"東京都","city":"江戸川区","address":"東京都江戸川区西葛西8丁目17-1","lat":35.65538166,"lon":139.86321174}]}