{"keyword":"スモッグ","data":[{"name":"葛西海浜公園","province":"東京都","city":"江戸川区","address":"東京都江戸川区臨海町六丁目地先","lat":35.640708,"lon":139.855249},{"name":"宇喜田公園","province":"東京都","city":"江戸川区","address":"東京都江戸川区北葛西三丁目・宇喜田町","lat":35.674423,"lon":139.860592},{"name":"葛西臨海公園","province":"東京都","city":"江戸川区","address":"東京都江戸川区臨海町六丁目","lat":35.642245,"lon":139.860296},{"name":"篠崎公園","province":"東京都","city":"江戸川区","address":"東京都江戸川区上篠崎一・四・八丁目、篠崎町六・七・八丁目、西篠崎一・二丁目、谷河内二丁目、南篠崎町四丁目、鹿骨町","lat":35.715629,"lon":139.899176},{"name":"都立葛西臨海公園第２駐車場","province":"東京都","city":"江戸川区","address":"東京都江戸川区臨海町6丁目2","lat":35.64164166,"lon":139.86520384},{"name":"都立葛西臨海公園多目的広場","province":"東京都","city":"江戸川区","address":"東京都江戸川区臨海町6丁目2","lat":35.64164166,"lon":139.86520384},{"name":"都立葛西海浜公園人口なぎさ","province":"東京都","city":"江戸川区","address":"東京都江戸川区臨海町6丁目","lat":35.6462852,"lon":139.85139641},{"name":"都立大島小松川公園（自由の広場）","province":"東京都","city":"江戸川区","address":"東京都江戸川区小松川1丁目7","lat":35.69216816,"lon":139.85200056},{"name":"江戸川区臨海球技場第二","province":"東京都","city":"江戸川区","address":"東京都江戸川区臨海町6丁目1","lat":35.64490485,"lon":139.85315466},{"name":"江戸川区球場","province":"東京都","city":"江戸川区","address":"東京都江戸川区北小岩4丁目38","lat":35.73930002,"lon":139.89605594},{"name":"江戸川区立篠崎緑地１９号地・１０号地","province":"東京都","city":"江戸川区","address":"東京都江戸川区篠崎町1丁目26","lat":35.70838102,"lon":139.90561435},{"name":"都立篠崎公園野球場（第２面）","province":"東京都","city":"江戸川区","address":"東京都江戸川区上篠崎1丁目25","lat":35.7146518,"lon":139.89798133},{"name":"区営河川敷広場","province":"東京都","city":"江戸川区","address":"東京都江戸川区上篠崎1丁目","lat":35.71365485,"lon":139.90170055},{"name":"区営河川敷グラウンド","province":"東京都","city":"江戸川区","address":"東京都江戸川区上篠崎3丁目","lat":35.71301614,"lon":139.8983508},{"name":"鹿骨スポーツ広場","province":"東京都","city":"江戸川区","address":"東京都江戸川区上篠崎4丁目5","lat":35.70850907,"lon":139.8962289},{"name":"北小岩４丁目グラウンド","province":"東京都","city":"江戸川区","address":"東京都江戸川区北小岩4丁目","lat":35.73853903,"lon":139.8951338},{"name":"(株)中島商店","province":"東京都","city":"江戸川区","address":"江戸川区大杉2-22-12","lat":35.702911,"lon":139.880539},{"name":"(株)鈴亀","province":"東京都","city":"江戸川区","address":"江戸川区中央1-17-19","lat":35.705864,"lon":139.870163},{"name":"(有)フルカワ","province":"東京都","city":"江戸川区","address":"江戸川区南篠崎町4-23-4","lat":35.699673,"lon":139.902283},{"name":"鐵甲金属(株)","province":"東京都","city":"江戸川区","address":"江戸川区大杉4-29-17","lat":35.711552,"lon":139.881821},{"name":"(株)春江","province":"東京都","city":"江戸川区","address":"江戸川区松江4-24-10","lat":35.689644,"lon":139.870438},{"name":"(有)福田川商店","province":"東京都","city":"江戸川区","address":"江戸川区南小岩5-3-14","lat":35.723526,"lon":139.879807},{"name":"ｶﾜﾊﾗﾒﾀﾙ(株)","province":"東京都","city":"江戸川区","address":"江戸川区篠崎町4-17-1","lat":35.699566,"lon":139.908569},{"name":"(株)伊藤信司商店  京葉営業所","province":"東京都","city":"江戸川区","address":"江戸川区南篠崎町4-23-22","lat":35.699673,"lon":139.902283},{"name":"(株)ヤハギ環境","province":"東京都","city":"江戸川区","address":"江戸川区南葛西2-18-7","lat":35.655132,"lon":139.875214},{"name":"(株)日成ストマック･トーキョー  本社工場","province":"東京都","city":"江戸川区","address":"江戸川区東葛西3-17-15","lat":35.668476,"lon":139.885406},{"name":"(株)オグラ","province":"東京都","city":"江戸川区","address":"江戸川区松江4-29-1","lat":35.691471,"lon":139.871536},{"name":"(有)山口商店","province":"東京都","city":"江戸川区","address":"江戸川区東小松川2-23-12","lat":35.694427,"lon":139.866165},{"name":"(株)上田紙業","province":"東京都","city":"江戸川区","address":"江戸川区上篠崎4-15-5","lat":35.707611,"lon":139.898926},{"name":"(有)牧野商店","province":"東京都","city":"江戸川区","address":"江戸川区篠崎町8-13-11","lat":35.705566,"lon":139.898376},{"name":"(株)坪野谷紙業  江戸川事業所","province":"東京都","city":"江戸川区","address":"江戸川区松江7-15-2","lat":35.691669,"lon":139.874008},{"name":"(株)須賀  船堀営業所","province":"東京都","city":"江戸川区","address":"江戸川区船堀3-9-20","lat":35.681896,"lon":139.865479},{"name":"(株)須賀  東小松川営業所","province":"東京都","city":"江戸川区","address":"江戸川区東小松川4-18-20","lat":35.687618,"lon":139.862045},{"name":"三東運輸(株)  エコプラント","province":"東京都","city":"江戸川区","address":"江戸川区篠崎町5-6-8","lat":35.70369,"lon":139.906052},{"name":"(株)乙  江戸川営業所","province":"東京都","city":"江戸川区","address":"江戸川区松江6-5-5","lat":35.687317,"lon":139.871521},{"name":"(株)浜田  東京リサイクルセンター","province":"東京都","city":"江戸川区","address":"江戸川区松江5-22-21","lat":35.686195,"lon":139.868637},{"name":"(有)太田商店  東京リサイクル工場","province":"東京都","city":"江戸川区","address":"江戸川区大杉5-31-15","lat":35.712456,"lon":139.878754},{"name":"中央鉄鋼（有）","province":"東京都","city":"江戸川区","address":"江戸川区西葛西8-20-198-20-1","lat":35.658245,"lon":139.862839},{"name":"葛西海浜公園","province":"東京都","city":"江戸川区","address":"東京都江戸川区臨海町六丁目地先","lat":35.640708,"lon":139.855249},{"name":"宇喜田公園","province":"東京都","city":"江戸川区","address":"東京都江戸川区北葛西三丁目・宇喜田町","lat":35.674423,"lon":139.860592},{"name":"葛西臨海公園","province":"東京都","city":"江戸川区","address":"東京都江戸川区臨海町六丁目","lat":35.642245,"lon":139.860296},{"name":"篠崎公園","province":"東京都","city":"江戸川区","address":"東京都江戸川区上篠崎一・四・八丁目、篠崎町六・七・八丁目、西篠崎一・二丁目、谷河内二丁目、南篠崎町四丁目、鹿骨町","lat":35.715629,"lon":139.899176},{"name":"(株)中島商店","province":"東京都","city":"江戸川区","address":"江戸川区大杉2-22-12","lat":35.702911,"lon":139.880539},{"name":"(株)鈴亀","province":"東京都","city":"江戸川区","address":"江戸川区中央1-17-19","lat":35.705864,"lon":139.870163},{"name":"(有)フルカワ","province":"東京都","city":"江戸川区","address":"江戸川区南篠崎町4-23-4","lat":35.699673,"lon":139.902283},{"name":"鐵甲金属(株)","province":"東京都","city":"江戸川区","address":"江戸川区大杉4-29-17","lat":35.711552,"lon":139.881821},{"name":"(株)春江","province":"東京都","city":"江戸川区","address":"江戸川区松江4-24-10","lat":35.689644,"lon":139.870438},{"name":"(有)福田川商店","province":"東京都","city":"江戸川区","address":"江戸川区南小岩5-3-14","lat":35.723526,"lon":139.879807},{"name":"ｶﾜﾊﾗﾒﾀﾙ(株)","province":"東京都","city":"江戸川区","address":"江戸川区篠崎町4-17-1","lat":35.699566,"lon":139.908569},{"name":"(株)伊藤信司商店  京葉営業所","province":"東京都","city":"江戸川区","address":"江戸川区南篠崎町4-23-22","lat":35.699673,"lon":139.902283},{"name":"(株)ヤハギ環境","province":"東京都","city":"江戸川区","address":"江戸川区南葛西2-18-7","lat":35.655132,"lon":139.875214},{"name":"(株)日成ストマック･トーキョー  本社工場","province":"東京都","city":"江戸川区","address":"江戸川区東葛西3-17-15","lat":35.668476,"lon":139.885406},{"name":"(株)オグラ","province":"東京都","city":"江戸川区","address":"江戸川区松江4-29-1","lat":35.691471,"lon":139.871536},{"name":"(有)山口商店","province":"東京都","city":"江戸川区","address":"江戸川区東小松川2-23-12","lat":35.694427,"lon":139.866165},{"name":"(株)上田紙業","province":"東京都","city":"江戸川区","address":"江戸川区上篠崎4-15-5","lat":35.707611,"lon":139.898926},{"name":"(有)牧野商店","province":"東京都","city":"江戸川区","address":"江戸川区篠崎町8-13-11","lat":35.705566,"lon":139.898376},{"name":"(株)坪野谷紙業  江戸川事業所","province":"東京都","city":"江戸川区","address":"江戸川区松江7-15-2","lat":35.691669,"lon":139.874008},{"name":"(株)須賀  船堀営業所","province":"東京都","city":"江戸川区","address":"江戸川区船堀3-9-20","lat":35.681896,"lon":139.865479},{"name":"(株)須賀  東小松川営業所","province":"東京都","city":"江戸川区","address":"江戸川区東小松川4-18-20","lat":35.687618,"lon":139.862045},{"name":"三東運輸(株)  エコプラント","province":"東京都","city":"江戸川区","address":"江戸川区篠崎町5-6-8","lat":35.70369,"lon":139.906052},{"name":"(株)乙  江戸川営業所","province":"東京都","city":"江戸川区","address":"江戸川区松江6-5-5","lat":35.687317,"lon":139.871521},{"name":"(株)浜田  東京リサイクルセンター","province":"東京都","city":"江戸川区","address":"江戸川区松江5-22-21","lat":35.686195,"lon":139.868637},{"name":"(有)太田商店  東京リサイクル工場","province":"東京都","city":"江戸川区","address":"江戸川区大杉5-31-15","lat":35.712456,"lon":139.878754},{"name":"中央鉄鋼（有）","province":"東京都","city":"江戸川区","address":"江戸川区西葛西8-20-198-20-1","lat":35.658245,"lon":139.862839},{"name":"葛西海浜公園","province":"東京都","city":"江戸川区","address":"東京都江戸川区臨海町六丁目地先","lat":35.640708,"lon":139.855249},{"name":"宇喜田公園","province":"東京都","city":"江戸川区","address":"東京都江戸川区北葛西三丁目・宇喜田町","lat":35.674423,"lon":139.860592},{"name":"葛西臨海公園","province":"東京都","city":"江戸川区","address":"東京都江戸川区臨海町六丁目","lat":35.642245,"lon":139.860296},{"name":"篠崎公園","province":"東京都","city":"江戸川区","address":"東京都江戸川区上篠崎一・四・八丁目、篠崎町六・七・八丁目、西篠崎一・二丁目、谷河内二丁目、南篠崎町四丁目、鹿骨町","lat":35.715629,"lon":139.899176},{"name":"(株)中島商店","province":"東京都","city":"江戸川区","address":"江戸川区大杉2-22-12","lat":35.702911,"lon":139.880539},{"name":"(株)鈴亀","province":"東京都","city":"江戸川区","address":"江戸川区中央1-17-19","lat":35.705864,"lon":139.870163},{"name":"(有)フルカワ","province":"東京都","city":"江戸川区","address":"江戸川区南篠崎町4-23-4","lat":35.699673,"lon":139.902283},{"name":"鐵甲金属(株)","province":"東京都","city":"江戸川区","address":"江戸川区大杉4-29-17","lat":35.711552,"lon":139.881821},{"name":"(株)春江","province":"東京都","city":"江戸川区","address":"江戸川区松江4-24-10","lat":35.689644,"lon":139.870438},{"name":"(有)福田川商店","province":"東京都","city":"江戸川区","address":"江戸川区南小岩5-3-14","lat":35.723526,"lon":139.879807},{"name":"ｶﾜﾊﾗﾒﾀﾙ(株)","province":"東京都","city":"江戸川区","address":"江戸川区篠崎町4-17-1","lat":35.699566,"lon":139.908569},{"name":"(株)伊藤信司商店  京葉営業所","province":"東京都","city":"江戸川区","address":"江戸川区南篠崎町4-23-22","lat":35.699673,"lon":139.902283},{"name":"(株)ヤハギ環境","province":"東京都","city":"江戸川区","address":"江戸川区南葛西2-18-7","lat":35.655132,"lon":139.875214},{"name":"(株)日成ストマック･トーキョー  本社工場","province":"東京都","city":"江戸川区","address":"江戸川区東葛西3-17-15","lat":35.668476,"lon":139.885406},{"name":"(株)オグラ","province":"東京都","city":"江戸川区","address":"江戸川区松江4-29-1","lat":35.691471,"lon":139.871536},{"name":"(有)山口商店","province":"東京都","city":"江戸川区","address":"江戸川区東小松川2-23-12","lat":35.694427,"lon":139.866165},{"name":"(株)上田紙業","province":"東京都","city":"江戸川区","address":"江戸川区上篠崎4-15-5","lat":35.707611,"lon":139.898926},{"name":"(有)牧野商店","province":"東京都","city":"江戸川区","address":"江戸川区篠崎町8-13-11","lat":35.705566,"lon":139.898376},{"name":"(株)坪野谷紙業  江戸川事業所","province":"東京都","city":"江戸川区","address":"江戸川区松江7-15-2","lat":35.691669,"lon":139.874008},{"name":"(株)須賀  船堀営業所","province":"東京都","city":"江戸川区","address":"江戸川区船堀3-9-20","lat":35.681896,"lon":139.865479},{"name":"(株)須賀  東小松川営業所","province":"東京都","city":"江戸川区","address":"江戸川区東小松川4-18-20","lat":35.687618,"lon":139.862045},{"name":"三東運輸(株)  エコプラント","province":"東京都","city":"江戸川区","address":"江戸川区篠崎町5-6-8","lat":35.70369,"lon":139.906052},{"name":"(株)乙  江戸川営業所","province":"東京都","city":"江戸川区","address":"江戸川区松江6-5-5","lat":35.687317,"lon":139.871521},{"name":"(株)浜田  東京リサイクルセンター","province":"東京都","city":"江戸川区","address":"江戸川区松江5-22-21","lat":35.686195,"lon":139.868637},{"name":"(有)太田商店  東京リサイクル工場","province":"東京都","city":"江戸川区","address":"江戸川区大杉5-31-15","lat":35.712456,"lon":139.878754},{"name":"中央鉄鋼（有）","province":"東京都","city":"江戸川区","address":"江戸川区西葛西8-20-198-20-1","lat":35.658245,"lon":139.862839},{"name":"葛西海浜公園","province":"東京都","city":"江戸川区","address":"東京都江戸川区臨海町六丁目地先","lat":35.640708,"lon":139.855249},{"name":"宇喜田公園","province":"東京都","city":"江戸川区","address":"東京都江戸川区北葛西三丁目・宇喜田町","lat":35.674423,"lon":139.860592},{"name":"葛西臨海公園","province":"東京都","city":"江戸川区","address":"東京都江戸川区臨海町六丁目","lat":35.642245,"lon":139.860296},{"name":"篠崎公園","province":"東京都","city":"江戸川区","address":"東京都江戸川区上篠崎一・四・八丁目、篠崎町六・七・八丁目、西篠崎一・二丁目、谷河内二丁目、南篠崎町四丁目、鹿骨町","lat":35.715629,"lon":139.899176},{"name":"(株)中島商店","province":"東京都","city":"江戸川区","address":"江戸川区大杉2-22-12","lat":35.702911,"lon":139.880539},{"name":"(株)鈴亀","province":"東京都","city":"江戸川区","address":"江戸川区中央1-17-19","lat":35.705864,"lon":139.870163},{"name":"(有)フルカワ","province":"東京都","city":"江戸川区","address":"江戸川区南篠崎町4-23-4","lat":35.699673,"lon":139.902283},{"name":"鐵甲金属(株)","province":"東京都","city":"江戸川区","address":"江戸川区大杉4-29-17","lat":35.711552,"lon":139.881821},{"name":"(株)春江","province":"東京都","city":"江戸川区","address":"江戸川区松江4-24-10","lat":35.689644,"lon":139.870438},{"name":"(有)福田川商店","province":"東京都","city":"江戸川区","address":"江戸川区南小岩5-3-14","lat":35.723526,"lon":139.879807},{"name":"ｶﾜﾊﾗﾒﾀﾙ(株)","province":"東京都","city":"江戸川区","address":"江戸川区篠崎町4-17-1","lat":35.699566,"lon":139.908569},{"name":"(株)伊藤信司商店  京葉営業所","province":"東京都","city":"江戸川区","address":"江戸川区南篠崎町4-23-22","lat":35.699673,"lon":139.902283},{"name":"(株)ヤハギ環境","province":"東京都","city":"江戸川区","address":"江戸川区南葛西2-18-7","lat":35.655132,"lon":139.875214},{"name":"(株)日成ストマック･トーキョー  本社工場","province":"東京都","city":"江戸川区","address":"江戸川区東葛西3-17-15","lat":35.668476,"lon":139.885406},{"name":"(株)オグラ","province":"東京都","city":"江戸川区","address":"江戸川区松江4-29-1","lat":35.691471,"lon":139.871536},{"name":"(有)山口商店","province":"東京都","city":"江戸川区","address":"江戸川区東小松川2-23-12","lat":35.694427,"lon":139.866165},{"name":"(株)上田紙業","province":"東京都","city":"江戸川区","address":"江戸川区上篠崎4-15-5","lat":35.707611,"lon":139.898926},{"name":"(有)牧野商店","province":"東京都","city":"江戸川区","address":"江戸川区篠崎町8-13-11","lat":35.705566,"lon":139.898376},{"name":"(株)坪野谷紙業  江戸川事業所","province":"東京都","city":"江戸川区","address":"江戸川区松江7-15-2","lat":35.691669,"lon":139.874008},{"name":"(株)須賀  船堀営業所","province":"東京都","city":"江戸川区","address":"江戸川区船堀3-9-20","lat":35.681896,"lon":139.865479},{"name":"(株)須賀  東小松川営業所","province":"東京都","city":"江戸川区","address":"江戸川区東小松川4-18-20","lat":35.687618,"lon":139.862045},{"name":"三東運輸(株)  エコプラント","province":"東京都","city":"江戸川区","address":"江戸川区篠崎町5-6-8","lat":35.70369,"lon":139.906052},{"name":"(株)乙  江戸川営業所","province":"東京都","city":"江戸川区","address":"江戸川区松江6-5-5","lat":35.687317,"lon":139.871521},{"name":"(株)浜田  東京リサイクルセンター","province":"東京都","city":"江戸川区","address":"江戸川区松江5-22-21","lat":35.686195,"lon":139.868637},{"name":"(有)太田商店  東京リサイクル工場","province":"東京都","city":"江戸川区","address":"江戸川区大杉5-31-15","lat":35.712456,"lon":139.878754},{"name":"中央鉄鋼（有）","province":"東京都","city":"江戸川区","address":"江戸川区西葛西8-20-198-20-1","lat":35.658245,"lon":139.862839},{"name":"葛西海浜公園","province":"東京都","city":"江戸川区","address":"東京都江戸川区臨海町六丁目地先","lat":35.640708,"lon":139.855249},{"name":"宇喜田公園","province":"東京都","city":"江戸川区","address":"東京都江戸川区北葛西三丁目・宇喜田町","lat":35.674423,"lon":139.860592},{"name":"葛西臨海公園","province":"東京都","city":"江戸川区","address":"東京都江戸川区臨海町六丁目","lat":35.642245,"lon":139.860296},{"name":"篠崎公園","province":"東京都","city":"江戸川区","address":"東京都江戸川区上篠崎一・四・八丁目、篠崎町六・七・八丁目、西篠崎一・二丁目、谷河内二丁目、南篠崎町四丁目、鹿骨町","lat":35.715629,"lon":139.899176},{"name":"(株)中島商店","province":"東京都","city":"江戸川区","address":"江戸川区大杉2-22-12","lat":35.702911,"lon":139.880539},{"name":"(株)鈴亀","province":"東京都","city":"江戸川区","address":"江戸川区中央1-17-19","lat":35.705864,"lon":139.870163},{"name":"(有)フルカワ","province":"東京都","city":"江戸川区","address":"江戸川区南篠崎町4-23-4","lat":35.699673,"lon":139.902283},{"name":"鐵甲金属(株)","province":"東京都","city":"江戸川区","address":"江戸川区大杉4-29-17","lat":35.711552,"lon":139.881821},{"name":"(株)春江","province":"東京都","city":"江戸川区","address":"江戸川区松江4-24-10","lat":35.689644,"lon":139.870438},{"name":"(有)福田川商店","province":"東京都","city":"江戸川区","address":"江戸川区南小岩5-3-14","lat":35.723526,"lon":139.879807},{"name":"ｶﾜﾊﾗﾒﾀﾙ(株)","province":"東京都","city":"江戸川区","address":"江戸川区篠崎町4-17-1","lat":35.699566,"lon":139.908569},{"name":"(株)伊藤信司商店  京葉営業所","province":"東京都","city":"江戸川区","address":"江戸川区南篠崎町4-23-22","lat":35.699673,"lon":139.902283},{"name":"(株)ヤハギ環境","province":"東京都","city":"江戸川区","address":"江戸川区南葛西2-18-7","lat":35.655132,"lon":139.875214},{"name":"(株)日成ストマック･トーキョー  本社工場","province":"東京都","city":"江戸川区","address":"江戸川区東葛西3-17-15","lat":35.668476,"lon":139.885406},{"name":"(株)オグラ","province":"東京都","city":"江戸川区","address":"江戸川区松江4-29-1","lat":35.691471,"lon":139.871536},{"name":"(有)山口商店","province":"東京都","city":"江戸川区","address":"江戸川区東小松川2-23-12","lat":35.694427,"lon":139.866165},{"name":"(株)上田紙業","province":"東京都","city":"江戸川区","address":"江戸川区上篠崎4-15-5","lat":35.707611,"lon":139.898926},{"name":"(有)牧野商店","province":"東京都","city":"江戸川区","address":"江戸川区篠崎町8-13-11","lat":35.705566,"lon":139.898376},{"name":"(株)坪野谷紙業  江戸川事業所","province":"東京都","city":"江戸川区","address":"江戸川区松江7-15-2","lat":35.691669,"lon":139.874008},{"name":"(株)須賀  船堀営業所","province":"東京都","city":"江戸川区","address":"江戸川区船堀3-9-20","lat":35.681896,"lon":139.865479},{"name":"(株)須賀  東小松川営業所","province":"東京都","city":"江戸川区","address":"江戸川区東小松川4-18-20","lat":35.687618,"lon":139.862045},{"name":"三東運輸(株)  エコプラント","province":"東京都","city":"江戸川区","address":"江戸川区篠崎町5-6-8","lat":35.70369,"lon":139.906052},{"name":"(株)乙  江戸川営業所","province":"東京都","city":"江戸川区","address":"江戸川区松江6-5-5","lat":35.687317,"lon":139.871521},{"name":"(株)浜田  東京リサイクルセンター","province":"東京都","city":"江戸川区","address":"江戸川区松江5-22-21","lat":35.686195,"lon":139.868637},{"name":"(有)太田商店  東京リサイクル工場","province":"東京都","city":"江戸川区","address":"江戸川区大杉5-31-15","lat":35.712456,"lon":139.878754},{"name":"中央鉄鋼（有）","province":"東京都","city":"江戸川区","address":"江戸川区西葛西8-20-198-20-1","lat":35.658245,"lon":139.862839},{"name":"葛西海浜公園","province":"東京都","city":"江戸川区","address":"東京都江戸川区臨海町六丁目地先","lat":35.640708,"lon":139.855249},{"name":"宇喜田公園","province":"東京都","city":"江戸川区","address":"東京都江戸川区北葛西三丁目・宇喜田町","lat":35.674423,"lon":139.860592},{"name":"葛西臨海公園","province":"東京都","city":"江戸川区","address":"東京都江戸川区臨海町六丁目","lat":35.642245,"lon":139.860296},{"name":"篠崎公園","province":"東京都","city":"江戸川区","address":"東京都江戸川区上篠崎一・四・八丁目、篠崎町六・七・八丁目、西篠崎一・二丁目、谷河内二丁目、南篠崎町四丁目、鹿骨町","lat":35.715629,"lon":139.899176},{"name":"(株)中島商店","province":"東京都","city":"江戸川区","address":"江戸川区大杉2-22-12","lat":35.702911,"lon":139.880539},{"name":"(株)鈴亀","province":"東京都","city":"江戸川区","address":"江戸川区中央1-17-19","lat":35.705864,"lon":139.870163},{"name":"(有)フルカワ","province":"東京都","city":"江戸川区","address":"江戸川区南篠崎町4-23-4","lat":35.699673,"lon":139.902283},{"name":"鐵甲金属(株)","province":"東京都","city":"江戸川区","address":"江戸川区大杉4-29-17","lat":35.711552,"lon":139.881821},{"name":"(株)春江","province":"東京都","city":"江戸川区","address":"江戸川区松江4-24-10","lat":35.689644,"lon":139.870438},{"name":"(有)福田川商店","province":"東京都","city":"江戸川区","address":"江戸川区南小岩5-3-14","lat":35.723526,"lon":139.879807},{"name":"ｶﾜﾊﾗﾒﾀﾙ(株)","province":"東京都","city":"江戸川区","address":"江戸川区篠崎町4-17-1","lat":35.699566,"lon":139.908569},{"name":"(株)伊藤信司商店  京葉営業所","province":"東京都","city":"江戸川区","address":"江戸川区南篠崎町4-23-22","lat":35.699673,"lon":139.902283},{"name":"(株)ヤハギ環境","province":"東京都","city":"江戸川区","address":"江戸川区南葛西2-18-7","lat":35.655132,"lon":139.875214},{"name":"(株)日成ストマック･トーキョー  本社工場","province":"東京都","city":"江戸川区","address":"江戸川区東葛西3-17-15","lat":35.668476,"lon":139.885406},{"name":"(株)オグラ","province":"東京都","city":"江戸川区","address":"江戸川区松江4-29-1","lat":35.691471,"lon":139.871536},{"name":"(有)山口商店","province":"東京都","city":"江戸川区","address":"江戸川区東小松川2-23-12","lat":35.694427,"lon":139.866165},{"name":"(株)上田紙業","province":"東京都","city":"江戸川区","address":"江戸川区上篠崎4-15-5","lat":35.707611,"lon":139.898926},{"name":"(有)牧野商店","province":"東京都","city":"江戸川区","address":"江戸川区篠崎町8-13-11","lat":35.705566,"lon":139.898376},{"name":"(株)坪野谷紙業  江戸川事業所","province":"東京都","city":"江戸川区","address":"江戸川区松江7-15-2","lat":35.691669,"lon":139.874008},{"name":"(株)須賀  船堀営業所","province":"東京都","city":"江戸川区","address":"江戸川区船堀3-9-20","lat":35.681896,"lon":139.865479},{"name":"(株)須賀  東小松川営業所","province":"東京都","city":"江戸川区","address":"江戸川区東小松川4-18-20","lat":35.687618,"lon":139.862045},{"name":"三東運輸(株)  エコプラント","province":"東京都","city":"江戸川区","address":"江戸川区篠崎町5-6-8","lat":35.70369,"lon":139.906052},{"name":"(株)乙  江戸川営業所","province":"東京都","city":"江戸川区","address":"江戸川区松江6-5-5","lat":35.687317,"lon":139.871521},{"name":"(株)浜田  東京リサイクルセンター","province":"東京都","city":"江戸川区","address":"江戸川区松江5-22-21","lat":35.686195,"lon":139.868637},{"name":"(有)太田商店  東京リサイクル工場","province":"東京都","city":"江戸川区","address":"江戸川区大杉5-31-15","lat":35.712456,"lon":139.878754},{"name":"中央鉄鋼（有）","province":"東京都","city":"江戸川区","address":"江戸川区西葛西8-20-198-20-1","lat":35.658245,"lon":139.862839},{"name":"葛西海浜公園","province":"東京都","city":"江戸川区","address":"東京都江戸川区臨海町六丁目地先","lat":35.640708,"lon":139.855249},{"name":"宇喜田公園","province":"東京都","city":"江戸川区","address":"東京都江戸川区北葛西三丁目・宇喜田町","lat":35.674423,"lon":139.860592},{"name":"葛西臨海公園","province":"東京都","city":"江戸川区","address":"東京都江戸川区臨海町六丁目","lat":35.642245,"lon":139.860296},{"name":"篠崎公園","province":"東京都","city":"江戸川区","address":"東京都江戸川区上篠崎一・四・八丁目、篠崎町六・七・八丁目、西篠崎一・二丁目、谷河内二丁目、南篠崎町四丁目、鹿骨町","lat":35.715629,"lon":139.899176},{"name":"(株)中島商店","province":"東京都","city":"江戸川区","address":"江戸川区大杉2-22-12","lat":35.702911,"lon":139.880539},{"name":"(株)鈴亀","province":"東京都","city":"江戸川区","address":"江戸川区中央1-17-19","lat":35.705864,"lon":139.870163},{"name":"(有)フルカワ","province":"東京都","city":"江戸川区","address":"江戸川区南篠崎町4-23-4","lat":35.699673,"lon":139.902283},{"name":"鐵甲金属(株)","province":"東京都","city":"江戸川区","address":"江戸川区大杉4-29-17","lat":35.711552,"lon":139.881821},{"name":"(株)春江","province":"東京都","city":"江戸川区","address":"江戸川区松江4-24-10","lat":35.689644,"lon":139.870438},{"name":"(有)福田川商店","province":"東京都","city":"江戸川区","address":"江戸川区南小岩5-3-14","lat":35.723526,"lon":139.879807},{"name":"ｶﾜﾊﾗﾒﾀﾙ(株)","province":"東京都","city":"江戸川区","address":"江戸川区篠崎町4-17-1","lat":35.699566,"lon":139.908569},{"name":"(株)伊藤信司商店  京葉営業所","province":"東京都","city":"江戸川区","address":"江戸川区南篠崎町4-23-22","lat":35.699673,"lon":139.902283},{"name":"(株)ヤハギ環境","province":"東京都","city":"江戸川区","address":"江戸川区南葛西2-18-7","lat":35.655132,"lon":139.875214},{"name":"(株)日成ストマック･トーキョー  本社工場","province":"東京都","city":"江戸川区","address":"江戸川区東葛西3-17-15","lat":35.668476,"lon":139.885406},{"name":"(株)オグラ","province":"東京都","city":"江戸川区","address":"江戸川区松江4-29-1","lat":35.691471,"lon":139.871536},{"name":"(有)山口商店","province":"東京都","city":"江戸川区","address":"江戸川区東小松川2-23-12","lat":35.694427,"lon":139.866165},{"name":"(株)上田紙業","province":"東京都","city":"江戸川区","address":"江戸川区上篠崎4-15-5","lat":35.707611,"lon":139.898926},{"name":"(有)牧野商店","province":"東京都","city":"江戸川区","address":"江戸川区篠崎町8-13-11","lat":35.705566,"lon":139.898376},{"name":"(株)坪野谷紙業  江戸川事業所","province":"東京都","city":"江戸川区","address":"江戸川区松江7-15-2","lat":35.691669,"lon":139.874008},{"name":"(株)須賀  船堀営業所","province":"東京都","city":"江戸川区","address":"江戸川区船堀3-9-20","lat":35.681896,"lon":139.865479},{"name":"(株)須賀  東小松川営業所","province":"東京都","city":"江戸川区","address":"江戸川区東小松川4-18-20","lat":35.687618,"lon":139.862045},{"name":"三東運輸(株)  エコプラント","province":"東京都","city":"江戸川区","address":"江戸川区篠崎町5-6-8","lat":35.70369,"lon":139.906052},{"name":"(株)乙  江戸川営業所","province":"東京都","city":"江戸川区","address":"江戸川区松江6-5-5","lat":35.687317,"lon":139.871521},{"name":"(株)浜田  東京リサイクルセンター","province":"東京都","city":"江戸川区","address":"江戸川区松江5-22-21","lat":35.686195,"lon":139.868637},{"name":"(有)太田商店  東京リサイクル工場","province":"東京都","city":"江戸川区","address":"江戸川区大杉5-31-15","lat":35.712456,"lon":139.878754},{"name":"中央鉄鋼（有）","province":"東京都","city":"江戸川区","address":"江戸川区西葛西8-20-198-20-1","lat":35.658245,"lon":139.862839},{"name":"葛西海浜公園","province":"東京都","city":"江戸川区","address":"東京都江戸川区臨海町六丁目地先","lat":35.640708,"lon":139.855249},{"name":"宇喜田公園","province":"東京都","city":"江戸川区","address":"東京都江戸川区北葛西三丁目・宇喜田町","lat":35.674423,"lon":139.860592},{"name":"葛西臨海公園","province":"東京都","city":"江戸川区","address":"東京都江戸川区臨海町六丁目","lat":35.642245,"lon":139.860296},{"name":"篠崎公園","province":"東京都","city":"江戸川区","address":"東京都江戸川区上篠崎一・四・八丁目、篠崎町六・七・八丁目、西篠崎一・二丁目、谷河内二丁目、南篠崎町四丁目、鹿骨町","lat":35.715629,"lon":139.899176},{"name":"(株)中島商店","province":"東京都","city":"江戸川区","address":"江戸川区大杉2-22-12","lat":35.702911,"lon":139.880539},{"name":"(株)鈴亀","province":"東京都","city":"江戸川区","address":"江戸川区中央1-17-19","lat":35.705864,"lon":139.870163},{"name":"(有)フルカワ","province":"東京都","city":"江戸川区","address":"江戸川区南篠崎町4-23-4","lat":35.699673,"lon":139.902283},{"name":"鐵甲金属(株)","province":"東京都","city":"江戸川区","address":"江戸川区大杉4-29-17","lat":35.711552,"lon":139.881821},{"name":"(株)春江","province":"東京都","city":"江戸川区","address":"江戸川区松江4-24-10","lat":35.689644,"lon":139.870438},{"name":"(有)福田川商店","province":"東京都","city":"江戸川区","address":"江戸川区南小岩5-3-14","lat":35.723526,"lon":139.879807},{"name":"ｶﾜﾊﾗﾒﾀﾙ(株)","province":"東京都","city":"江戸川区","address":"江戸川区篠崎町4-17-1","lat":35.699566,"lon":139.908569},{"name":"(株)伊藤信司商店  京葉営業所","province":"東京都","city":"江戸川区","address":"江戸川区南篠崎町4-23-22","lat":35.699673,"lon":139.902283},{"name":"(株)ヤハギ環境","province":"東京都","city":"江戸川区","address":"江戸川区南葛西2-18-7","lat":35.655132,"lon":139.875214},{"name":"(株)日成ストマック･トーキョー  本社工場","province":"東京都","city":"江戸川区","address":"江戸川区東葛西3-17-15","lat":35.668476,"lon":139.885406},{"name":"(株)オグラ","province":"東京都","city":"江戸川区","address":"江戸川区松江4-29-1","lat":35.691471,"lon":139.871536},{"name":"(有)山口商店","province":"東京都","city":"江戸川区","address":"江戸川区東小松川2-23-12","lat":35.694427,"lon":139.866165},{"name":"(株)上田紙業","province":"東京都","city":"江戸川区","address":"江戸川区上篠崎4-15-5","lat":35.707611,"lon":139.898926},{"name":"(有)牧野商店","province":"東京都","city":"江戸川区","address":"江戸川区篠崎町8-13-11","lat":35.705566,"lon":139.898376},{"name":"(株)坪野谷紙業  江戸川事業所","province":"東京都","city":"江戸川区","address":"江戸川区松江7-15-2","lat":35.691669,"lon":139.874008},{"name":"(株)須賀  船堀営業所","province":"東京都","city":"江戸川区","address":"江戸川区船堀3-9-20","lat":35.681896,"lon":139.865479},{"name":"(株)須賀  東小松川営業所","province":"東京都","city":"江戸川区","address":"江戸川区東小松川4-18-20","lat":35.687618,"lon":139.862045},{"name":"三東運輸(株)  エコプラント","province":"東京都","city":"江戸川区","address":"江戸川区篠崎町5-6-8","lat":35.70369,"lon":139.906052},{"name":"(株)乙  江戸川営業所","province":"東京都","city":"江戸川区","address":"江戸川区松江6-5-5","lat":35.687317,"lon":139.871521},{"name":"(株)浜田  東京リサイクルセンター","province":"東京都","city":"江戸川区","address":"江戸川区松江5-22-21","lat":35.686195,"lon":139.868637},{"name":"(有)太田商店  東京リサイクル工場","province":"東京都","city":"江戸川区","address":"江戸川区大杉5-31-15","lat":35.712456,"lon":139.878754},{"name":"中央鉄鋼（有）","province":"東京都","city":"江戸川区","address":"江戸川区西葛西8-20-198-20-1","lat":35.658245,"lon":139.862839},{"name":"葛西海浜公園","province":"東京都","city":"江戸川区","address":"東京都江戸川区臨海町六丁目地先","lat":35.640708,"lon":139.855249},{"name":"宇喜田公園","province":"東京都","city":"江戸川区","address":"東京都江戸川区北葛西三丁目・宇喜田町","lat":35.674423,"lon":139.860592},{"name":"葛西臨海公園","province":"東京都","city":"江戸川区","address":"東京都江戸川区臨海町六丁目","lat":35.642245,"lon":139.860296},{"name":"篠崎公園","province":"東京都","city":"江戸川区","address":"東京都江戸川区上篠崎一・四・八丁目、篠崎町六・七・八丁目、西篠崎一・二丁目、谷河内二丁目、南篠崎町四丁目、鹿骨町","lat":35.715629,"lon":139.899176},{"name":"(株)中島商店","province":"東京都","city":"江戸川区","address":"江戸川区大杉2-22-12","lat":35.702911,"lon":139.880539},{"name":"(株)鈴亀","province":"東京都","city":"江戸川区","address":"江戸川区中央1-17-19","lat":35.705864,"lon":139.870163},{"name":"(有)フルカワ","province":"東京都","city":"江戸川区","address":"江戸川区南篠崎町4-23-4","lat":35.699673,"lon":139.902283},{"name":"鐵甲金属(株)","province":"東京都","city":"江戸川区","address":"江戸川区大杉4-29-17","lat":35.711552,"lon":139.881821},{"name":"(株)春江","province":"東京都","city":"江戸川区","address":"江戸川区松江4-24-10","lat":35.689644,"lon":139.870438},{"name":"(有)福田川商店","province":"東京都","city":"江戸川区","address":"江戸川区南小岩5-3-14","lat":35.723526,"lon":139.879807},{"name":"ｶﾜﾊﾗﾒﾀﾙ(株)","province":"東京都","city":"江戸川区","address":"江戸川区篠崎町4-17-1","lat":35.699566,"lon":139.908569},{"name":"(株)伊藤信司商店  京葉営業所","province":"東京都","city":"江戸川区","address":"江戸川区南篠崎町4-23-22","lat":35.699673,"lon":139.902283},{"name":"(株)ヤハギ環境","province":"東京都","city":"江戸川区","address":"江戸川区南葛西2-18-7","lat":35.655132,"lon":139.875214},{"name":"(株)日成ストマック･トーキョー  本社工場","province":"東京都","city":"江戸川区","address":"江戸川区東葛西3-17-15","lat":35.668476,"lon":139.885406},{"name":"(株)オグラ","province":"東京都","city":"江戸川区","address":"江戸川区松江4-29-1","lat":35.691471,"lon":139.871536},{"name":"(有)山口商店","province":"東京都","city":"江戸川区","address":"江戸川区東小松川2-23-12","lat":35.694427,"lon":139.866165},{"name":"(株)上田紙業","province":"東京都","city":"江戸川区","address":"江戸川区上篠崎4-15-5","lat":35.707611,"lon":139.898926},{"name":"(有)牧野商店","province":"東京都","city":"江戸川区","address":"江戸川区篠崎町8-13-11","lat":35.705566,"lon":139.898376},{"name":"(株)坪野谷紙業  江戸川事業所","province":"東京都","city":"江戸川区","address":"江戸川区松江7-15-2","lat":35.691669,"lon":139.874008},{"name":"(株)須賀  船堀営業所","province":"東京都","city":"江戸川区","address":"江戸川区船堀3-9-20","lat":35.681896,"lon":139.865479},{"name":"(株)須賀  東小松川営業所","province":"東京都","city":"江戸川区","address":"江戸川区東小松川4-18-20","lat":35.687618,"lon":139.862045},{"name":"三東運輸(株)  エコプラント","province":"東京都","city":"江戸川区","address":"江戸川区篠崎町5-6-8","lat":35.70369,"lon":139.906052},{"name":"(株)乙  江戸川営業所","province":"東京都","city":"江戸川区","address":"江戸川区松江6-5-5","lat":35.687317,"lon":139.871521},{"name":"(株)浜田  東京リサイクルセンター","province":"東京都","city":"江戸川区","address":"江戸川区松江5-22-21","lat":35.686195,"lon":139.868637},{"name":"(有)太田商店  東京リサイクル工場","province":"東京都","city":"江戸川区","address":"江戸川区大杉5-31-15","lat":35.712456,"lon":139.878754},{"name":"中央鉄鋼（有）","province":"東京都","city":"江戸川区","address":"江戸川区西葛西8-20-198-20-1","lat":35.658245,"lon":139.862839},{"name":"葛西海浜公園","province":"東京都","city":"江戸川区","address":"東京都江戸川区臨海町六丁目地先","lat":35.640708,"lon":139.855249},{"name":"宇喜田公園","province":"東京都","city":"江戸川区","address":"東京都江戸川区北葛西三丁目・宇喜田町","lat":35.674423,"lon":139.860592},{"name":"葛西臨海公園","province":"東京都","city":"江戸川区","address":"東京都江戸川区臨海町六丁目","lat":35.642245,"lon":139.860296},{"name":"篠崎公園","province":"東京都","city":"江戸川区","address":"東京都江戸川区上篠崎一・四・八丁目、篠崎町六・七・八丁目、西篠崎一・二丁目、谷河内二丁目、南篠崎町四丁目、鹿骨町","lat":35.715629,"lon":139.899176},{"name":"(株)中島商店","province":"東京都","city":"江戸川区","address":"江戸川区大杉2-22-12","lat":35.702911,"lon":139.880539},{"name":"(株)鈴亀","province":"東京都","city":"江戸川区","address":"江戸川区中央1-17-19","lat":35.705864,"lon":139.870163},{"name":"(有)フルカワ","province":"東京都","city":"江戸川区","address":"江戸川区南篠崎町4-23-4","lat":35.699673,"lon":139.902283},{"name":"鐵甲金属(株)","province":"東京都","city":"江戸川区","address":"江戸川区大杉4-29-17","lat":35.711552,"lon":139.881821},{"name":"(株)春江","province":"東京都","city":"江戸川区","address":"江戸川区松江4-24-10","lat":35.689644,"lon":139.870438},{"name":"(有)福田川商店","province":"東京都","city":"江戸川区","address":"江戸川区南小岩5-3-14","lat":35.723526,"lon":139.879807},{"name":"ｶﾜﾊﾗﾒﾀﾙ(株)","province":"東京都","city":"江戸川区","address":"江戸川区篠崎町4-17-1","lat":35.699566,"lon":139.908569},{"name":"(株)伊藤信司商店  京葉営業所","province":"東京都","city":"江戸川区","address":"江戸川区南篠崎町4-23-22","lat":35.699673,"lon":139.902283},{"name":"(株)ヤハギ環境","province":"東京都","city":"江戸川区","address":"江戸川区南葛西2-18-7","lat":35.655132,"lon":139.875214},{"name":"(株)日成ストマック･トーキョー  本社工場","province":"東京都","city":"江戸川区","address":"江戸川区東葛西3-17-15","lat":35.668476,"lon":139.885406},{"name":"(株)オグラ","province":"東京都","city":"江戸川区","address":"江戸川区松江4-29-1","lat":35.691471,"lon":139.871536},{"name":"(有)山口商店","province":"東京都","city":"江戸川区","address":"江戸川区東小松川2-23-12","lat":35.694427,"lon":139.866165},{"name":"(株)上田紙業","province":"東京都","city":"江戸川区","address":"江戸川区上篠崎4-15-5","lat":35.707611,"lon":139.898926},{"name":"(有)牧野商店","province":"東京都","city":"江戸川区","address":"江戸川区篠崎町8-13-11","lat":35.705566,"lon":139.898376},{"name":"(株)坪野谷紙業  江戸川事業所","province":"東京都","city":"江戸川区","address":"江戸川区松江7-15-2","lat":35.691669,"lon":139.874008},{"name":"(株)須賀  船堀営業所","province":"東京都","city":"江戸川区","address":"江戸川区船堀3-9-20","lat":35.681896,"lon":139.865479},{"name":"(株)須賀  東小松川営業所","province":"東京都","city":"江戸川区","address":"江戸川区東小松川4-18-20","lat":35.687618,"lon":139.862045},{"name":"三東運輸(株)  エコプラント","province":"東京都","city":"江戸川区","address":"江戸川区篠崎町5-6-8","lat":35.70369,"lon":139.906052},{"name":"(株)乙  江戸川営業所","province":"東京都","city":"江戸川区","address":"江戸川区松江6-5-5","lat":35.687317,"lon":139.871521},{"name":"(株)浜田  東京リサイクルセンター","province":"東京都","city":"江戸川区","address":"江戸川区松江5-22-21","lat":35.686195,"lon":139.868637},{"name":"(有)太田商店  東京リサイクル工場","province":"東京都","city":"江戸川区","address":"江戸川区大杉5-31-15","lat":35.712456,"lon":139.878754},{"name":"中央鉄鋼（有）","province":"東京都","city":"江戸川区","address":"江戸川区西葛西8-20-198-20-1","lat":35.658245,"lon":139.862839},{"name":"葛西海浜公園","province":"東京都","city":"江戸川区","address":"東京都江戸川区臨海町六丁目地先","lat":35.640708,"lon":139.855249},{"name":"宇喜田公園","province":"東京都","city":"江戸川区","address":"東京都江戸川区北葛西三丁目・宇喜田町","lat":35.674423,"lon":139.860592},{"name":"葛西臨海公園","province":"東京都","city":"江戸川区","address":"東京都江戸川区臨海町六丁目","lat":35.642245,"lon":139.860296},{"name":"篠崎公園","province":"東京都","city":"江戸川区","address":"東京都江戸川区上篠崎一・四・八丁目、篠崎町六・七・八丁目、西篠崎一・二丁目、谷河内二丁目、南篠崎町四丁目、鹿骨町","lat":35.715629,"lon":139.899176},{"name":"(株)中島商店","province":"東京都","city":"江戸川区","address":"江戸川区大杉2-22-12","lat":35.702911,"lon":139.880539},{"name":"(株)鈴亀","province":"東京都","city":"江戸川区","address":"江戸川区中央1-17-19","lat":35.705864,"lon":139.870163},{"name":"(有)フルカワ","province":"東京都","city":"江戸川区","address":"江戸川区南篠崎町4-23-4","lat":35.699673,"lon":139.902283},{"name":"鐵甲金属(株)","province":"東京都","city":"江戸川区","address":"江戸川区大杉4-29-17","lat":35.711552,"lon":139.881821},{"name":"(株)春江","province":"東京都","city":"江戸川区","address":"江戸川区松江4-24-10","lat":35.689644,"lon":139.870438},{"name":"(有)福田川商店","province":"東京都","city":"江戸川区","address":"江戸川区南小岩5-3-14","lat":35.723526,"lon":139.879807},{"name":"ｶﾜﾊﾗﾒﾀﾙ(株)","province":"東京都","city":"江戸川区","address":"江戸川区篠崎町4-17-1","lat":35.699566,"lon":139.908569},{"name":"(株)伊藤信司商店  京葉営業所","province":"東京都","city":"江戸川区","address":"江戸川区南篠崎町4-23-22","lat":35.699673,"lon":139.902283},{"name":"(株)ヤハギ環境","province":"東京都","city":"江戸川区","address":"江戸川区南葛西2-18-7","lat":35.655132,"lon":139.875214},{"name":"(株)日成ストマック･トーキョー  本社工場","province":"東京都","city":"江戸川区","address":"江戸川区東葛西3-17-15","lat":35.668476,"lon":139.885406},{"name":"(株)オグラ","province":"東京都","city":"江戸川区","address":"江戸川区松江4-29-1","lat":35.691471,"lon":139.871536},{"name":"(有)山口商店","province":"東京都","city":"江戸川区","address":"江戸川区東小松川2-23-12","lat":35.694427,"lon":139.866165},{"name":"(株)上田紙業","province":"東京都","city":"江戸川区","address":"江戸川区上篠崎4-15-5","lat":35.707611,"lon":139.898926},{"name":"(有)牧野商店","province":"東京都","city":"江戸川区","address":"江戸川区篠崎町8-13-11","lat":35.705566,"lon":139.898376},{"name":"(株)坪野谷紙業  江戸川事業所","province":"東京都","city":"江戸川区","address":"江戸川区松江7-15-2","lat":35.691669,"lon":139.874008},{"name":"(株)須賀  船堀営業所","province":"東京都","city":"江戸川区","address":"江戸川区船堀3-9-20","lat":35.681896,"lon":139.865479},{"name":"(株)須賀  東小松川営業所","province":"東京都","city":"江戸川区","address":"江戸川区東小松川4-18-20","lat":35.687618,"lon":139.862045},{"name":"三東運輸(株)  エコプラント","province":"東京都","city":"江戸川区","address":"江戸川区篠崎町5-6-8","lat":35.70369,"lon":139.906052},{"name":"(株)乙  江戸川営業所","province":"東京都","city":"江戸川区","address":"江戸川区松江6-5-5","lat":35.687317,"lon":139.871521},{"name":"(株)浜田  東京リサイクルセンター","province":"東京都","city":"江戸川区","address":"江戸川区松江5-22-21","lat":35.686195,"lon":139.868637},{"name":"(有)太田商店  東京リサイクル工場","province":"東京都","city":"江戸川区","address":"江戸川区大杉5-31-15","lat":35.712456,"lon":139.878754},{"name":"中央鉄鋼（有）","province":"東京都","city":"江戸川区","address":"江戸川区西葛西8-20-198-20-1","lat":35.658245,"lon":139.862839},{"name":"葛西海浜公園","province":"東京都","city":"江戸川区","address":"東京都江戸川区臨海町六丁目地先","lat":35.640708,"lon":139.855249},{"name":"宇喜田公園","province":"東京都","city":"江戸川区","address":"東京都江戸川区北葛西三丁目・宇喜田町","lat":35.674423,"lon":139.860592},{"name":"葛西臨海公園","province":"東京都","city":"江戸川区","address":"東京都江戸川区臨海町六丁目","lat":35.642245,"lon":139.860296},{"name":"篠崎公園","province":"東京都","city":"江戸川区","address":"東京都江戸川区上篠崎一・四・八丁目、篠崎町六・七・八丁目、西篠崎一・二丁目、谷河内二丁目、南篠崎町四丁目、鹿骨町","lat":35.715629,"lon":139.899176},{"name":"(株)中島商店","province":"東京都","city":"江戸川区","address":"江戸川区大杉2-22-12","lat":35.702911,"lon":139.880539},{"name":"(株)鈴亀","province":"東京都","city":"江戸川区","address":"江戸川区中央1-17-19","lat":35.705864,"lon":139.870163},{"name":"(有)フルカワ","province":"東京都","city":"江戸川区","address":"江戸川区南篠崎町4-23-4","lat":35.699673,"lon":139.902283},{"name":"鐵甲金属(株)","province":"東京都","city":"江戸川区","address":"江戸川区大杉4-29-17","lat":35.711552,"lon":139.881821},{"name":"(株)春江","province":"東京都","city":"江戸川区","address":"江戸川区松江4-24-10","lat":35.689644,"lon":139.870438},{"name":"(有)福田川商店","province":"東京都","city":"江戸川区","address":"江戸川区南小岩5-3-14","lat":35.723526,"lon":139.879807},{"name":"ｶﾜﾊﾗﾒﾀﾙ(株)","province":"東京都","city":"江戸川区","address":"江戸川区篠崎町4-17-1","lat":35.699566,"lon":139.908569},{"name":"(株)伊藤信司商店  京葉営業所","province":"東京都","city":"江戸川区","address":"江戸川区南篠崎町4-23-22","lat":35.699673,"lon":139.902283},{"name":"(株)ヤハギ環境","province":"東京都","city":"江戸川区","address":"江戸川区南葛西2-18-7","lat":35.655132,"lon":139.875214},{"name":"(株)日成ストマック･トーキョー  本社工場","province":"東京都","city":"江戸川区","address":"江戸川区東葛西3-17-15","lat":35.668476,"lon":139.885406},{"name":"(株)オグラ","province":"東京都","city":"江戸川区","address":"江戸川区松江4-29-1","lat":35.691471,"lon":139.871536},{"name":"(有)山口商店","province":"東京都","city":"江戸川区","address":"江戸川区東小松川2-23-12","lat":35.694427,"lon":139.866165},{"name":"(株)上田紙業","province":"東京都","city":"江戸川区","address":"江戸川区上篠崎4-15-5","lat":35.707611,"lon":139.898926},{"name":"(有)牧野商店","province":"東京都","city":"江戸川区","address":"江戸川区篠崎町8-13-11","lat":35.705566,"lon":139.898376},{"name":"(株)坪野谷紙業  江戸川事業所","province":"東京都","city":"江戸川区","address":"江戸川区松江7-15-2","lat":35.691669,"lon":139.874008},{"name":"(株)須賀  船堀営業所","province":"東京都","city":"江戸川区","address":"江戸川区船堀3-9-20","lat":35.681896,"lon":139.865479},{"name":"(株)須賀  東小松川営業所","province":"東京都","city":"江戸川区","address":"江戸川区東小松川4-18-20","lat":35.687618,"lon":139.862045},{"name":"三東運輸(株)  エコプラント","province":"東京都","city":"江戸川区","address":"江戸川区篠崎町5-6-8","lat":35.70369,"lon":139.906052},{"name":"(株)乙  江戸川営業所","province":"東京都","city":"江戸川区","address":"江戸川区松江6-5-5","lat":35.687317,"lon":139.871521},{"name":"(株)浜田  東京リサイクルセンター","province":"東京都","city":"江戸川区","address":"江戸川区松江5-22-21","lat":35.686195,"lon":139.868637},{"name":"(有)太田商店  東京リサイクル工場","province":"東京都","city":"江戸川区","address":"江戸川区大杉5-31-15","lat":35.712456,"lon":139.878754},{"name":"中央鉄鋼（有）","province":"東京都","city":"江戸川区","address":"江戸川区西葛西8-20-198-20-1","lat":35.658245,"lon":139.862839},{"name":"葛西海浜公園","province":"東京都","city":"江戸川区","address":"東京都江戸川区臨海町六丁目地先","lat":35.640708,"lon":139.855249},{"name":"宇喜田公園","province":"東京都","city":"江戸川区","address":"東京都江戸川区北葛西三丁目・宇喜田町","lat":35.674423,"lon":139.860592},{"name":"葛西臨海公園","province":"東京都","city":"江戸川区","address":"東京都江戸川区臨海町六丁目","lat":35.642245,"lon":139.860296},{"name":"篠崎公園","province":"東京都","city":"江戸川区","address":"東京都江戸川区上篠崎一・四・八丁目、篠崎町六・七・八丁目、西篠崎一・二丁目、谷河内二丁目、南篠崎町四丁目、鹿骨町","lat":35.715629,"lon":139.899176},{"name":"(株)中島商店","province":"東京都","city":"江戸川区","address":"江戸川区大杉2-22-12","lat":35.702911,"lon":139.880539},{"name":"(株)鈴亀","province":"東京都","city":"江戸川区","address":"江戸川区中央1-17-19","lat":35.705864,"lon":139.870163},{"name":"(有)フルカワ","province":"東京都","city":"江戸川区","address":"江戸川区南篠崎町4-23-4","lat":35.699673,"lon":139.902283},{"name":"鐵甲金属(株)","province":"東京都","city":"江戸川区","address":"江戸川区大杉4-29-17","lat":35.711552,"lon":139.881821},{"name":"(株)春江","province":"東京都","city":"江戸川区","address":"江戸川区松江4-24-10","lat":35.689644,"lon":139.870438},{"name":"(有)福田川商店","province":"東京都","city":"江戸川区","address":"江戸川区南小岩5-3-14","lat":35.723526,"lon":139.879807},{"name":"ｶﾜﾊﾗﾒﾀﾙ(株)","province":"東京都","city":"江戸川区","address":"江戸川区篠崎町4-17-1","lat":35.699566,"lon":139.908569},{"name":"(株)伊藤信司商店  京葉営業所","province":"東京都","city":"江戸川区","address":"江戸川区南篠崎町4-23-22","lat":35.699673,"lon":139.902283},{"name":"(株)ヤハギ環境","province":"東京都","city":"江戸川区","address":"江戸川区南葛西2-18-7","lat":35.655132,"lon":139.875214},{"name":"(株)日成ストマック･トーキョー  本社工場","province":"東京都","city":"江戸川区","address":"江戸川区東葛西3-17-15","lat":35.668476,"lon":139.885406},{"name":"(株)オグラ","province":"東京都","city":"江戸川区","address":"江戸川区松江4-29-1","lat":35.691471,"lon":139.871536},{"name":"(有)山口商店","province":"東京都","city":"江戸川区","address":"江戸川区東小松川2-23-12","lat":35.694427,"lon":139.866165},{"name":"(株)上田紙業","province":"東京都","city":"江戸川区","address":"江戸川区上篠崎4-15-5","lat":35.707611,"lon":139.898926},{"name":"(有)牧野商店","province":"東京都","city":"江戸川区","address":"江戸川区篠崎町8-13-11","lat":35.705566,"lon":139.898376},{"name":"(株)坪野谷紙業  江戸川事業所","province":"東京都","city":"江戸川区","address":"江戸川区松江7-15-2","lat":35.691669,"lon":139.874008},{"name":"(株)須賀  船堀営業所","province":"東京都","city":"江戸川区","address":"江戸川区船堀3-9-20","lat":35.681896,"lon":139.865479},{"name":"(株)須賀  東小松川営業所","province":"東京都","city":"江戸川区","address":"江戸川区東小松川4-18-20","lat":35.687618,"lon":139.862045},{"name":"三東運輸(株)  エコプラント","province":"東京都","city":"江戸川区","address":"江戸川区篠崎町5-6-8","lat":35.70369,"lon":139.906052},{"name":"(株)乙  江戸川営業所","province":"東京都","city":"江戸川区","address":"江戸川区松江6-5-5","lat":35.687317,"lon":139.871521},{"name":"(株)浜田  東京リサイクルセンター","province":"東京都","city":"江戸川区","address":"江戸川区松江5-22-21","lat":35.686195,"lon":139.868637},{"name":"(有)太田商店  東京リサイクル工場","province":"東京都","city":"江戸川区","address":"江戸川区大杉5-31-15","lat":35.712456,"lon":139.878754},{"name":"中央鉄鋼（有）","province":"東京都","city":"江戸川区","address":"江戸川区西葛西8-20-198-20-1","lat":35.658245,"lon":139.862839},{"name":"葛西海浜公園","province":"東京都","city":"江戸川区","address":"東京都江戸川区臨海町六丁目地先","lat":35.640708,"lon":139.855249},{"name":"宇喜田公園","province":"東京都","city":"江戸川区","address":"東京都江戸川区北葛西三丁目・宇喜田町","lat":35.674423,"lon":139.860592},{"name":"葛西臨海公園","province":"東京都","city":"江戸川区","address":"東京都江戸川区臨海町六丁目","lat":35.642245,"lon":139.860296},{"name":"篠崎公園","province":"東京都","city":"江戸川区","address":"東京都江戸川区上篠崎一・四・八丁目、篠崎町六・七・八丁目、西篠崎一・二丁目、谷河内二丁目、南篠崎町四丁目、鹿骨町","lat":35.715629,"lon":139.899176},{"name":"(株)中島商店","province":"東京都","city":"江戸川区","address":"江戸川区大杉2-22-12","lat":35.702911,"lon":139.880539},{"name":"(株)鈴亀","province":"東京都","city":"江戸川区","address":"江戸川区中央1-17-19","lat":35.705864,"lon":139.870163},{"name":"(有)フルカワ","province":"東京都","city":"江戸川区","address":"江戸川区南篠崎町4-23-4","lat":35.699673,"lon":139.902283},{"name":"鐵甲金属(株)","province":"東京都","city":"江戸川区","address":"江戸川区大杉4-29-17","lat":35.711552,"lon":139.881821},{"name":"(株)春江","province":"東京都","city":"江戸川区","address":"江戸川区松江4-24-10","lat":35.689644,"lon":139.870438},{"name":"(有)福田川商店","province":"東京都","city":"江戸川区","address":"江戸川区南小岩5-3-14","lat":35.723526,"lon":139.879807},{"name":"ｶﾜﾊﾗﾒﾀﾙ(株)","province":"東京都","city":"江戸川区","address":"江戸川区篠崎町4-17-1","lat":35.699566,"lon":139.908569},{"name":"(株)伊藤信司商店  京葉営業所","province":"東京都","city":"江戸川区","address":"江戸川区南篠崎町4-23-22","lat":35.699673,"lon":139.902283},{"name":"(株)ヤハギ環境","province":"東京都","city":"江戸川区","address":"江戸川区南葛西2-18-7","lat":35.655132,"lon":139.875214},{"name":"(株)日成ストマック･トーキョー  本社工場","province":"東京都","city":"江戸川区","address":"江戸川区東葛西3-17-15","lat":35.668476,"lon":139.885406},{"name":"(株)オグラ","province":"東京都","city":"江戸川区","address":"江戸川区松江4-29-1","lat":35.691471,"lon":139.871536},{"name":"(有)山口商店","province":"東京都","city":"江戸川区","address":"江戸川区東小松川2-23-12","lat":35.694427,"lon":139.866165},{"name":"(株)上田紙業","province":"東京都","city":"江戸川区","address":"江戸川区上篠崎4-15-5","lat":35.707611,"lon":139.898926},{"name":"(有)牧野商店","province":"東京都","city":"江戸川区","address":"江戸川区篠崎町8-13-11","lat":35.705566,"lon":139.898376},{"name":"(株)坪野谷紙業  江戸川事業所","province":"東京都","city":"江戸川区","address":"江戸川区松江7-15-2","lat":35.691669,"lon":139.874008},{"name":"(株)須賀  船堀営業所","province":"東京都","city":"江戸川区","address":"江戸川区船堀3-9-20","lat":35.681896,"lon":139.865479},{"name":"(株)須賀  東小松川営業所","province":"東京都","city":"江戸川区","address":"江戸川区東小松川4-18-20","lat":35.687618,"lon":139.862045},{"name":"三東運輸(株)  エコプラント","province":"東京都","city":"江戸川区","address":"江戸川区篠崎町5-6-8","lat":35.70369,"lon":139.906052},{"name":"(株)乙  江戸川営業所","province":"東京都","city":"江戸川区","address":"江戸川区松江6-5-5","lat":35.687317,"lon":139.871521},{"name":"(株)浜田  東京リサイクルセンター","province":"東京都","city":"江戸川区","address":"江戸川区松江5-22-21","lat":35.686195,"lon":139.868637},{"name":"(有)太田商店  東京リサイクル工場","province":"東京都","city":"江戸川区","address":"江戸川区大杉5-31-15","lat":35.712456,"lon":139.878754},{"name":"中央鉄鋼（有）","province":"東京都","city":"江戸川区","address":"江戸川区西葛西8-20-198-20-1","lat":35.658245,"lon":139.862839},{"name":"葛西海浜公園","province":"東京都","city":"江戸川区","address":"東京都江戸川区臨海町六丁目地先","lat":35.640708,"lon":139.855249},{"name":"宇喜田公園","province":"東京都","city":"江戸川区","address":"東京都江戸川区北葛西三丁目・宇喜田町","lat":35.674423,"lon":139.860592},{"name":"葛西臨海公園","province":"東京都","city":"江戸川区","address":"東京都江戸川区臨海町六丁目","lat":35.642245,"lon":139.860296},{"name":"篠崎公園","province":"東京都","city":"江戸川区","address":"東京都江戸川区上篠崎一・四・八丁目、篠崎町六・七・八丁目、西篠崎一・二丁目、谷河内二丁目、南篠崎町四丁目、鹿骨町","lat":35.715629,"lon":139.899176},{"name":"(株)中島商店","province":"東京都","city":"江戸川区","address":"江戸川区大杉2-22-12","lat":35.702911,"lon":139.880539},{"name":"(株)鈴亀","province":"東京都","city":"江戸川区","address":"江戸川区中央1-17-19","lat":35.705864,"lon":139.870163},{"name":"(有)フルカワ","province":"東京都","city":"江戸川区","address":"江戸川区南篠崎町4-23-4","lat":35.699673,"lon":139.902283},{"name":"鐵甲金属(株)","province":"東京都","city":"江戸川区","address":"江戸川区大杉4-29-17","lat":35.711552,"lon":139.881821},{"name":"(株)春江","province":"東京都","city":"江戸川区","address":"江戸川区松江4-24-10","lat":35.689644,"lon":139.870438},{"name":"(有)福田川商店","province":"東京都","city":"江戸川区","address":"江戸川区南小岩5-3-14","lat":35.723526,"lon":139.879807},{"name":"ｶﾜﾊﾗﾒﾀﾙ(株)","province":"東京都","city":"江戸川区","address":"江戸川区篠崎町4-17-1","lat":35.699566,"lon":139.908569},{"name":"(株)伊藤信司商店  京葉営業所","province":"東京都","city":"江戸川区","address":"江戸川区南篠崎町4-23-22","lat":35.699673,"lon":139.902283},{"name":"(株)ヤハギ環境","province":"東京都","city":"江戸川区","address":"江戸川区南葛西2-18-7","lat":35.655132,"lon":139.875214},{"name":"(株)日成ストマック･トーキョー  本社工場","province":"東京都","city":"江戸川区","address":"江戸川区東葛西3-17-15","lat":35.668476,"lon":139.885406},{"name":"(株)オグラ","province":"東京都","city":"江戸川区","address":"江戸川区松江4-29-1","lat":35.691471,"lon":139.871536},{"name":"(有)山口商店","province":"東京都","city":"江戸川区","address":"江戸川区東小松川2-23-12","lat":35.694427,"lon":139.866165},{"name":"(株)上田紙業","province":"東京都","city":"江戸川区","address":"江戸川区上篠崎4-15-5","lat":35.707611,"lon":139.898926},{"name":"(有)牧野商店","province":"東京都","city":"江戸川区","address":"江戸川区篠崎町8-13-11","lat":35.705566,"lon":139.898376},{"name":"(株)坪野谷紙業  江戸川事業所","province":"東京都","city":"江戸川区","address":"江戸川区松江7-15-2","lat":35.691669,"lon":139.874008},{"name":"(株)須賀  船堀営業所","province":"東京都","city":"江戸川区","address":"江戸川区船堀3-9-20","lat":35.681896,"lon":139.865479},{"name":"(株)須賀  東小松川営業所","province":"東京都","city":"江戸川区","address":"江戸川区東小松川4-18-20","lat":35.687618,"lon":139.862045},{"name":"三東運輸(株)  エコプラント","province":"東京都","city":"江戸川区","address":"江戸川区篠崎町5-6-8","lat":35.70369,"lon":139.906052},{"name":"(株)乙  江戸川営業所","province":"東京都","city":"江戸川区","address":"江戸川区松江6-5-5","lat":35.687317,"lon":139.871521},{"name":"(株)浜田  東京リサイクルセンター","province":"東京都","city":"江戸川区","address":"江戸川区松江5-22-21","lat":35.686195,"lon":139.868637},{"name":"(有)太田商店  東京リサイクル工場","province":"東京都","city":"江戸川区","address":"江戸川区大杉5-31-15","lat":35.712456,"lon":139.878754},{"name":"中央鉄鋼（有）","province":"東京都","city":"江戸川区","address":"江戸川区西葛西8-20-198-20-1","lat":35.658245,"lon":139.862839},{"name":"葛西海浜公園","province":"東京都","city":"江戸川区","address":"東京都江戸川区臨海町六丁目地先","lat":35.640708,"lon":139.855249},{"name":"宇喜田公園","province":"東京都","city":"江戸川区","address":"東京都江戸川区北葛西三丁目・宇喜田町","lat":35.674423,"lon":139.860592},{"name":"葛西臨海公園","province":"東京都","city":"江戸川区","address":"東京都江戸川区臨海町六丁目","lat":35.642245,"lon":139.860296},{"name":"篠崎公園","province":"東京都","city":"江戸川区","address":"東京都江戸川区上篠崎一・四・八丁目、篠崎町六・七・八丁目、西篠崎一・二丁目、谷河内二丁目、南篠崎町四丁目、鹿骨町","lat":35.715629,"lon":139.899176},{"name":"(株)中島商店","province":"東京都","city":"江戸川区","address":"江戸川区大杉2-22-12","lat":35.702911,"lon":139.880539},{"name":"(株)鈴亀","province":"東京都","city":"江戸川区","address":"江戸川区中央1-17-19","lat":35.705864,"lon":139.870163},{"name":"(有)フルカワ","province":"東京都","city":"江戸川区","address":"江戸川区南篠崎町4-23-4","lat":35.699673,"lon":139.902283},{"name":"鐵甲金属(株)","province":"東京都","city":"江戸川区","address":"江戸川区大杉4-29-17","lat":35.711552,"lon":139.881821},{"name":"(株)春江","province":"東京都","city":"江戸川区","address":"江戸川区松江4-24-10","lat":35.689644,"lon":139.870438},{"name":"(有)福田川商店","province":"東京都","city":"江戸川区","address":"江戸川区南小岩5-3-14","lat":35.723526,"lon":139.879807},{"name":"ｶﾜﾊﾗﾒﾀﾙ(株)","province":"東京都","city":"江戸川区","address":"江戸川区篠崎町4-17-1","lat":35.699566,"lon":139.908569},{"name":"(株)伊藤信司商店  京葉営業所","province":"東京都","city":"江戸川区","address":"江戸川区南篠崎町4-23-22","lat":35.699673,"lon":139.902283},{"name":"(株)ヤハギ環境","province":"東京都","city":"江戸川区","address":"江戸川区南葛西2-18-7","lat":35.655132,"lon":139.875214},{"name":"(株)日成ストマック･トーキョー  本社工場","province":"東京都","city":"江戸川区","address":"江戸川区東葛西3-17-15","lat":35.668476,"lon":139.885406},{"name":"(株)オグラ","province":"東京都","city":"江戸川区","address":"江戸川区松江4-29-1","lat":35.691471,"lon":139.871536},{"name":"(有)山口商店","province":"東京都","city":"江戸川区","address":"江戸川区東小松川2-23-12","lat":35.694427,"lon":139.866165},{"name":"(株)上田紙業","province":"東京都","city":"江戸川区","address":"江戸川区上篠崎4-15-5","lat":35.707611,"lon":139.898926},{"name":"(有)牧野商店","province":"東京都","city":"江戸川区","address":"江戸川区篠崎町8-13-11","lat":35.705566,"lon":139.898376},{"name":"(株)坪野谷紙業  江戸川事業所","province":"東京都","city":"江戸川区","address":"江戸川区松江7-15-2","lat":35.691669,"lon":139.874008},{"name":"(株)須賀  船堀営業所","province":"東京都","city":"江戸川区","address":"江戸川区船堀3-9-20","lat":35.681896,"lon":139.865479},{"name":"(株)須賀  東小松川営業所","province":"東京都","city":"江戸川区","address":"江戸川区東小松川4-18-20","lat":35.687618,"lon":139.862045},{"name":"三東運輸(株)  エコプラント","province":"東京都","city":"江戸川区","address":"江戸川区篠崎町5-6-8","lat":35.70369,"lon":139.906052},{"name":"(株)乙  江戸川営業所","province":"東京都","city":"江戸川区","address":"江戸川区松江6-5-5","lat":35.687317,"lon":139.871521},{"name":"(株)浜田  東京リサイクルセンター","province":"東京都","city":"江戸川区","address":"江戸川区松江5-22-21","lat":35.686195,"lon":139.868637},{"name":"(有)太田商店  東京リサイクル工場","province":"東京都","city":"江戸川区","address":"江戸川区大杉5-31-15","lat":35.712456,"lon":139.878754},{"name":"中央鉄鋼（有）","province":"東京都","city":"江戸川区","address":"江戸川区西葛西8-20-198-20-1","lat":35.658245,"lon":139.862839},{"name":"葛西海浜公園","province":"東京都","city":"江戸川区","address":"東京都江戸川区臨海町六丁目地先","lat":35.640708,"lon":139.855249},{"name":"宇喜田公園","province":"東京都","city":"江戸川区","address":"東京都江戸川区北葛西三丁目・宇喜田町","lat":35.674423,"lon":139.860592},{"name":"葛西臨海公園","province":"東京都","city":"江戸川区","address":"東京都江戸川区臨海町六丁目","lat":35.642245,"lon":139.860296},{"name":"篠崎公園","province":"東京都","city":"江戸川区","address":"東京都江戸川区上篠崎一・四・八丁目、篠崎町六・七・八丁目、西篠崎一・二丁目、谷河内二丁目、南篠崎町四丁目、鹿骨町","lat":35.715629,"lon":139.899176},{"name":"(株)中島商店","province":"東京都","city":"江戸川区","address":"江戸川区大杉2-22-12","lat":35.702911,"lon":139.880539},{"name":"(株)鈴亀","province":"東京都","city":"江戸川区","address":"江戸川区中央1-17-19","lat":35.705864,"lon":139.870163},{"name":"(有)フルカワ","province":"東京都","city":"江戸川区","address":"江戸川区南篠崎町4-23-4","lat":35.699673,"lon":139.902283},{"name":"鐵甲金属(株)","province":"東京都","city":"江戸川区","address":"江戸川区大杉4-29-17","lat":35.711552,"lon":139.881821},{"name":"(株)春江","province":"東京都","city":"江戸川区","address":"江戸川区松江4-24-10","lat":35.689644,"lon":139.870438},{"name":"(有)福田川商店","province":"東京都","city":"江戸川区","address":"江戸川区南小岩5-3-14","lat":35.723526,"lon":139.879807},{"name":"ｶﾜﾊﾗﾒﾀﾙ(株)","province":"東京都","city":"江戸川区","address":"江戸川区篠崎町4-17-1","lat":35.699566,"lon":139.908569},{"name":"(株)伊藤信司商店  京葉営業所","province":"東京都","city":"江戸川区","address":"江戸川区南篠崎町4-23-22","lat":35.699673,"lon":139.902283},{"name":"(株)ヤハギ環境","province":"東京都","city":"江戸川区","address":"江戸川区南葛西2-18-7","lat":35.655132,"lon":139.875214},{"name":"(株)日成ストマック･トーキョー  本社工場","province":"東京都","city":"江戸川区","address":"江戸川区東葛西3-17-15","lat":35.668476,"lon":139.885406},{"name":"(株)オグラ","province":"東京都","city":"江戸川区","address":"江戸川区松江4-29-1","lat":35.691471,"lon":139.871536},{"name":"(有)山口商店","province":"東京都","city":"江戸川区","address":"江戸川区東小松川2-23-12","lat":35.694427,"lon":139.866165},{"name":"(株)上田紙業","province":"東京都","city":"江戸川区","address":"江戸川区上篠崎4-15-5","lat":35.707611,"lon":139.898926},{"name":"(有)牧野商店","province":"東京都","city":"江戸川区","address":"江戸川区篠崎町8-13-11","lat":35.705566,"lon":139.898376},{"name":"(株)坪野谷紙業  江戸川事業所","province":"東京都","city":"江戸川区","address":"江戸川区松江7-15-2","lat":35.691669,"lon":139.874008},{"name":"(株)須賀  船堀営業所","province":"東京都","city":"江戸川区","address":"江戸川区船堀3-9-20","lat":35.681896,"lon":139.865479},{"name":"(株)須賀  東小松川営業所","province":"東京都","city":"江戸川区","address":"江戸川区東小松川4-18-20","lat":35.687618,"lon":139.862045},{"name":"三東運輸(株)  エコプラント","province":"東京都","city":"江戸川区","address":"江戸川区篠崎町5-6-8","lat":35.70369,"lon":139.906052},{"name":"(株)乙  江戸川営業所","province":"東京都","city":"江戸川区","address":"江戸川区松江6-5-5","lat":35.687317,"lon":139.871521},{"name":"(株)浜田  東京リサイクルセンター","province":"東京都","city":"江戸川区","address":"江戸川区松江5-22-21","lat":35.686195,"lon":139.868637},{"name":"(有)太田商店  東京リサイクル工場","province":"東京都","city":"江戸川区","address":"江戸川区大杉5-31-15","lat":35.712456,"lon":139.878754},{"name":"中央鉄鋼（有）","province":"東京都","city":"江戸川区","address":"江戸川区西葛西8-20-198-20-1","lat":35.658245,"lon":139.862839},{"name":"葛西海浜公園","province":"東京都","city":"江戸川区","address":"東京都江戸川区臨海町六丁目地先","lat":35.640708,"lon":139.855249},{"name":"宇喜田公園","province":"東京都","city":"江戸川区","address":"東京都江戸川区北葛西三丁目・宇喜田町","lat":35.674423,"lon":139.860592},{"name":"葛西臨海公園","province":"東京都","city":"江戸川区","address":"東京都江戸川区臨海町六丁目","lat":35.642245,"lon":139.860296},{"name":"篠崎公園","province":"東京都","city":"江戸川区","address":"東京都江戸川区上篠崎一・四・八丁目、篠崎町六・七・八丁目、西篠崎一・二丁目、谷河内二丁目、南篠崎町四丁目、鹿骨町","lat":35.715629,"lon":139.899176},{"name":"(株)中島商店","province":"東京都","city":"江戸川区","address":"江戸川区大杉2-22-12","lat":35.702911,"lon":139.880539},{"name":"(株)鈴亀","province":"東京都","city":"江戸川区","address":"江戸川区中央1-17-19","lat":35.705864,"lon":139.870163},{"name":"(有)フルカワ","province":"東京都","city":"江戸川区","address":"江戸川区南篠崎町4-23-4","lat":35.699673,"lon":139.902283},{"name":"鐵甲金属(株)","province":"東京都","city":"江戸川区","address":"江戸川区大杉4-29-17","lat":35.711552,"lon":139.881821},{"name":"(株)春江","province":"東京都","city":"江戸川区","address":"江戸川区松江4-24-10","lat":35.689644,"lon":139.870438},{"name":"(有)福田川商店","province":"東京都","city":"江戸川区","address":"江戸川区南小岩5-3-14","lat":35.723526,"lon":139.879807},{"name":"ｶﾜﾊﾗﾒﾀﾙ(株)","province":"東京都","city":"江戸川区","address":"江戸川区篠崎町4-17-1","lat":35.699566,"lon":139.908569},{"name":"(株)伊藤信司商店  京葉営業所","province":"東京都","city":"江戸川区","address":"江戸川区南篠崎町4-23-22","lat":35.699673,"lon":139.902283},{"name":"(株)ヤハギ環境","province":"東京都","city":"江戸川区","address":"江戸川区南葛西2-18-7","lat":35.655132,"lon":139.875214},{"name":"(株)日成ストマック･トーキョー  本社工場","province":"東京都","city":"江戸川区","address":"江戸川区東葛西3-17-15","lat":35.668476,"lon":139.885406},{"name":"(株)オグラ","province":"東京都","city":"江戸川区","address":"江戸川区松江4-29-1","lat":35.691471,"lon":139.871536},{"name":"(有)山口商店","province":"東京都","city":"江戸川区","address":"江戸川区東小松川2-23-12","lat":35.694427,"lon":139.866165},{"name":"(株)上田紙業","province":"東京都","city":"江戸川区","address":"江戸川区上篠崎4-15-5","lat":35.707611,"lon":139.898926},{"name":"(有)牧野商店","province":"東京都","city":"江戸川区","address":"江戸川区篠崎町8-13-11","lat":35.705566,"lon":139.898376},{"name":"(株)坪野谷紙業  江戸川事業所","province":"東京都","city":"江戸川区","address":"江戸川区松江7-15-2","lat":35.691669,"lon":139.874008},{"name":"(株)須賀  船堀営業所","province":"東京都","city":"江戸川区","address":"江戸川区船堀3-9-20","lat":35.681896,"lon":139.865479},{"name":"(株)須賀  東小松川営業所","province":"東京都","city":"江戸川区","address":"江戸川区東小松川4-18-20","lat":35.687618,"lon":139.862045},{"name":"三東運輸(株)  エコプラント","province":"東京都","city":"江戸川区","address":"江戸川区篠崎町5-6-8","lat":35.70369,"lon":139.906052},{"name":"(株)乙  江戸川営業所","province":"東京都","city":"江戸川区","address":"江戸川区松江6-5-5","lat":35.687317,"lon":139.871521},{"name":"(株)浜田  東京リサイクルセンター","province":"東京都","city":"江戸川区","address":"江戸川区松江5-22-21","lat":35.686195,"lon":139.868637},{"name":"(有)太田商店  東京リサイクル工場","province":"東京都","city":"江戸川区","address":"江戸川区大杉5-31-15","lat":35.712456,"lon":139.878754},{"name":"中央鉄鋼（有）","province":"東京都","city":"江戸川区","address":"江戸川区西葛西8-20-198-20-1","lat":35.658245,"lon":139.862839},{"name":"葛西海浜公園","province":"東京都","city":"江戸川区","address":"東京都江戸川区臨海町六丁目地先","lat":35.640708,"lon":139.855249},{"name":"宇喜田公園","province":"東京都","city":"江戸川区","address":"東京都江戸川区北葛西三丁目・宇喜田町","lat":35.674423,"lon":139.860592},{"name":"葛西臨海公園","province":"東京都","city":"江戸川区","address":"東京都江戸川区臨海町六丁目","lat":35.642245,"lon":139.860296},{"name":"篠崎公園","province":"東京都","city":"江戸川区","address":"東京都江戸川区上篠崎一・四・八丁目、篠崎町六・七・八丁目、西篠崎一・二丁目、谷河内二丁目、南篠崎町四丁目、鹿骨町","lat":35.715629,"lon":139.899176},{"name":"(株)中島商店","province":"東京都","city":"江戸川区","address":"江戸川区大杉2-22-12","lat":35.702911,"lon":139.880539},{"name":"(株)鈴亀","province":"東京都","city":"江戸川区","address":"江戸川区中央1-17-19","lat":35.705864,"lon":139.870163},{"name":"(有)フルカワ","province":"東京都","city":"江戸川区","address":"江戸川区南篠崎町4-23-4","lat":35.699673,"lon":139.902283},{"name":"鐵甲金属(株)","province":"東京都","city":"江戸川区","address":"江戸川区大杉4-29-17","lat":35.711552,"lon":139.881821},{"name":"(株)春江","province":"東京都","city":"江戸川区","address":"江戸川区松江4-24-10","lat":35.689644,"lon":139.870438},{"name":"(有)福田川商店","province":"東京都","city":"江戸川区","address":"江戸川区南小岩5-3-14","lat":35.723526,"lon":139.879807},{"name":"ｶﾜﾊﾗﾒﾀﾙ(株)","province":"東京都","city":"江戸川区","address":"江戸川区篠崎町4-17-1","lat":35.699566,"lon":139.908569},{"name":"(株)伊藤信司商店  京葉営業所","province":"東京都","city":"江戸川区","address":"江戸川区南篠崎町4-23-22","lat":35.699673,"lon":139.902283},{"name":"(株)ヤハギ環境","province":"東京都","city":"江戸川区","address":"江戸川区南葛西2-18-7","lat":35.655132,"lon":139.875214},{"name":"(株)日成ストマック･トーキョー  本社工場","province":"東京都","city":"江戸川区","address":"江戸川区東葛西3-17-15","lat":35.668476,"lon":139.885406},{"name":"(株)オグラ","province":"東京都","city":"江戸川区","address":"江戸川区松江4-29-1","lat":35.691471,"lon":139.871536},{"name":"(有)山口商店","province":"東京都","city":"江戸川区","address":"江戸川区東小松川2-23-12","lat":35.694427,"lon":139.866165},{"name":"(株)上田紙業","province":"東京都","city":"江戸川区","address":"江戸川区上篠崎4-15-5","lat":35.707611,"lon":139.898926},{"name":"(有)牧野商店","province":"東京都","city":"江戸川区","address":"江戸川区篠崎町8-13-11","lat":35.705566,"lon":139.898376},{"name":"(株)坪野谷紙業  江戸川事業所","province":"東京都","city":"江戸川区","address":"江戸川区松江7-15-2","lat":35.691669,"lon":139.874008},{"name":"(株)須賀  船堀営業所","province":"東京都","city":"江戸川区","address":"江戸川区船堀3-9-20","lat":35.681896,"lon":139.865479},{"name":"(株)須賀  東小松川営業所","province":"東京都","city":"江戸川区","address":"江戸川区東小松川4-18-20","lat":35.687618,"lon":139.862045},{"name":"三東運輸(株)  エコプラント","province":"東京都","city":"江戸川区","address":"江戸川区篠崎町5-6-8","lat":35.70369,"lon":139.906052},{"name":"(株)乙  江戸川営業所","province":"東京都","city":"江戸川区","address":"江戸川区松江6-5-5","lat":35.687317,"lon":139.871521},{"name":"(株)浜田  東京リサイクルセンター","province":"東京都","city":"江戸川区","address":"江戸川区松江5-22-21","lat":35.686195,"lon":139.868637},{"name":"(有)太田商店  東京リサイクル工場","province":"東京都","city":"江戸川区","address":"江戸川区大杉5-31-15","lat":35.712456,"lon":139.878754},{"name":"中央鉄鋼（有）","province":"東京都","city":"江戸川区","address":"江戸川区西葛西8-20-198-20-1","lat":35.658245,"lon":139.862839},{"name":"葛西海浜公園","province":"東京都","city":"江戸川区","address":"東京都江戸川区臨海町六丁目地先","lat":35.640708,"lon":139.855249},{"name":"宇喜田公園","province":"東京都","city":"江戸川区","address":"東京都江戸川区北葛西三丁目・宇喜田町","lat":35.674423,"lon":139.860592},{"name":"葛西臨海公園","province":"東京都","city":"江戸川区","address":"東京都江戸川区臨海町六丁目","lat":35.642245,"lon":139.860296},{"name":"篠崎公園","province":"東京都","city":"江戸川区","address":"東京都江戸川区上篠崎一・四・八丁目、篠崎町六・七・八丁目、西篠崎一・二丁目、谷河内二丁目、南篠崎町四丁目、鹿骨町","lat":35.715629,"lon":139.899176},{"name":"(株)中島商店","province":"東京都","city":"江戸川区","address":"江戸川区大杉2-22-12","lat":35.702911,"lon":139.880539},{"name":"(株)鈴亀","province":"東京都","city":"江戸川区","address":"江戸川区中央1-17-19","lat":35.705864,"lon":139.870163},{"name":"(有)フルカワ","province":"東京都","city":"江戸川区","address":"江戸川区南篠崎町4-23-4","lat":35.699673,"lon":139.902283},{"name":"鐵甲金属(株)","province":"東京都","city":"江戸川区","address":"江戸川区大杉4-29-17","lat":35.711552,"lon":139.881821},{"name":"(株)春江","province":"東京都","city":"江戸川区","address":"江戸川区松江4-24-10","lat":35.689644,"lon":139.870438},{"name":"(有)福田川商店","province":"東京都","city":"江戸川区","address":"江戸川区南小岩5-3-14","lat":35.723526,"lon":139.879807},{"name":"ｶﾜﾊﾗﾒﾀﾙ(株)","province":"東京都","city":"江戸川区","address":"江戸川区篠崎町4-17-1","lat":35.699566,"lon":139.908569},{"name":"(株)伊藤信司商店  京葉営業所","province":"東京都","city":"江戸川区","address":"江戸川区南篠崎町4-23-22","lat":35.699673,"lon":139.902283},{"name":"(株)ヤハギ環境","province":"東京都","city":"江戸川区","address":"江戸川区南葛西2-18-7","lat":35.655132,"lon":139.875214},{"name":"(株)日成ストマック･トーキョー  本社工場","province":"東京都","city":"江戸川区","address":"江戸川区東葛西3-17-15","lat":35.668476,"lon":139.885406},{"name":"(株)オグラ","province":"東京都","city":"江戸川区","address":"江戸川区松江4-29-1","lat":35.691471,"lon":139.871536},{"name":"(有)山口商店","province":"東京都","city":"江戸川区","address":"江戸川区東小松川2-23-12","lat":35.694427,"lon":139.866165},{"name":"(株)上田紙業","province":"東京都","city":"江戸川区","address":"江戸川区上篠崎4-15-5","lat":35.707611,"lon":139.898926},{"name":"(有)牧野商店","province":"東京都","city":"江戸川区","address":"江戸川区篠崎町8-13-11","lat":35.705566,"lon":139.898376},{"name":"(株)坪野谷紙業  江戸川事業所","province":"東京都","city":"江戸川区","address":"江戸川区松江7-15-2","lat":35.691669,"lon":139.874008},{"name":"(株)須賀  船堀営業所","province":"東京都","city":"江戸川区","address":"江戸川区船堀3-9-20","lat":35.681896,"lon":139.865479},{"name":"(株)須賀  東小松川営業所","province":"東京都","city":"江戸川区","address":"江戸川区東小松川4-18-20","lat":35.687618,"lon":139.862045},{"name":"三東運輸(株)  エコプラント","province":"東京都","city":"江戸川区","address":"江戸川区篠崎町5-6-8","lat":35.70369,"lon":139.906052},{"name":"(株)乙  江戸川営業所","province":"東京都","city":"江戸川区","address":"江戸川区松江6-5-5","lat":35.687317,"lon":139.871521},{"name":"(株)浜田  東京リサイクルセンター","province":"東京都","city":"江戸川区","address":"江戸川区松江5-22-21","lat":35.686195,"lon":139.868637},{"name":"(有)太田商店  東京リサイクル工場","province":"東京都","city":"江戸川区","address":"江戸川区大杉5-31-15","lat":35.712456,"lon":139.878754},{"name":"中央鉄鋼（有）","province":"東京都","city":"江戸川区","address":"江戸川区西葛西8-20-198-20-1","lat":35.658245,"lon":139.862839},{"name":"葛西海浜公園","province":"東京都","city":"江戸川区","address":"東京都江戸川区臨海町六丁目地先","lat":35.640708,"lon":139.855249},{"name":"宇喜田公園","province":"東京都","city":"江戸川区","address":"東京都江戸川区北葛西三丁目・宇喜田町","lat":35.674423,"lon":139.860592},{"name":"葛西臨海公園","province":"東京都","city":"江戸川区","address":"東京都江戸川区臨海町六丁目","lat":35.642245,"lon":139.860296},{"name":"篠崎公園","province":"東京都","city":"江戸川区","address":"東京都江戸川区上篠崎一・四・八丁目、篠崎町六・七・八丁目、西篠崎一・二丁目、谷河内二丁目、南篠崎町四丁目、鹿骨町","lat":35.715629,"lon":139.899176},{"name":"(株)中島商店","province":"東京都","city":"江戸川区","address":"江戸川区大杉2-22-12","lat":35.702911,"lon":139.880539},{"name":"(株)鈴亀","province":"東京都","city":"江戸川区","address":"江戸川区中央1-17-19","lat":35.705864,"lon":139.870163},{"name":"(有)フルカワ","province":"東京都","city":"江戸川区","address":"江戸川区南篠崎町4-23-4","lat":35.699673,"lon":139.902283},{"name":"鐵甲金属(株)","province":"東京都","city":"江戸川区","address":"江戸川区大杉4-29-17","lat":35.711552,"lon":139.881821},{"name":"(株)春江","province":"東京都","city":"江戸川区","address":"江戸川区松江4-24-10","lat":35.689644,"lon":139.870438},{"name":"(有)福田川商店","province":"東京都","city":"江戸川区","address":"江戸川区南小岩5-3-14","lat":35.723526,"lon":139.879807},{"name":"ｶﾜﾊﾗﾒﾀﾙ(株)","province":"東京都","city":"江戸川区","address":"江戸川区篠崎町4-17-1","lat":35.699566,"lon":139.908569},{"name":"(株)伊藤信司商店  京葉営業所","province":"東京都","city":"江戸川区","address":"江戸川区南篠崎町4-23-22","lat":35.699673,"lon":139.902283},{"name":"(株)ヤハギ環境","province":"東京都","city":"江戸川区","address":"江戸川区南葛西2-18-7","lat":35.655132,"lon":139.875214},{"name":"(株)日成ストマック･トーキョー  本社工場","province":"東京都","city":"江戸川区","address":"江戸川区東葛西3-17-15","lat":35.668476,"lon":139.885406},{"name":"(株)オグラ","province":"東京都","city":"江戸川区","address":"江戸川区松江4-29-1","lat":35.691471,"lon":139.871536},{"name":"(有)山口商店","province":"東京都","city":"江戸川区","address":"江戸川区東小松川2-23-12","lat":35.694427,"lon":139.866165},{"name":"(株)上田紙業","province":"東京都","city":"江戸川区","address":"江戸川区上篠崎4-15-5","lat":35.707611,"lon":139.898926},{"name":"(有)牧野商店","province":"東京都","city":"江戸川区","address":"江戸川区篠崎町8-13-11","lat":35.705566,"lon":139.898376},{"name":"(株)坪野谷紙業  江戸川事業所","province":"東京都","city":"江戸川区","address":"江戸川区松江7-15-2","lat":35.691669,"lon":139.874008},{"name":"(株)須賀  船堀営業所","province":"東京都","city":"江戸川区","address":"江戸川区船堀3-9-20","lat":35.681896,"lon":139.865479},{"name":"(株)須賀  東小松川営業所","province":"東京都","city":"江戸川区","address":"江戸川区東小松川4-18-20","lat":35.687618,"lon":139.862045},{"name":"三東運輸(株)  エコプラント","province":"東京都","city":"江戸川区","address":"江戸川区篠崎町5-6-8","lat":35.70369,"lon":139.906052},{"name":"(株)乙  江戸川営業所","province":"東京都","city":"江戸川区","address":"江戸川区松江6-5-5","lat":35.687317,"lon":139.871521},{"name":"(株)浜田  東京リサイクルセンター","province":"東京都","city":"江戸川区","address":"江戸川区松江5-22-21","lat":35.686195,"lon":139.868637},{"name":"(有)太田商店  東京リサイクル工場","province":"東京都","city":"江戸川区","address":"江戸川区大杉5-31-15","lat":35.712456,"lon":139.878754},{"name":"中央鉄鋼（有）","province":"東京都","city":"江戸川区","address":"江戸川区西葛西8-20-198-20-1","lat":35.658245,"lon":139.862839},{"name":"葛西海浜公園","province":"東京都","city":"江戸川区","address":"東京都江戸川区臨海町六丁目地先","lat":35.640708,"lon":139.855249},{"name":"宇喜田公園","province":"東京都","city":"江戸川区","address":"東京都江戸川区北葛西三丁目・宇喜田町","lat":35.674423,"lon":139.860592},{"name":"葛西臨海公園","province":"東京都","city":"江戸川区","address":"東京都江戸川区臨海町六丁目","lat":35.642245,"lon":139.860296},{"name":"篠崎公園","province":"東京都","city":"江戸川区","address":"東京都江戸川区上篠崎一・四・八丁目、篠崎町六・七・八丁目、西篠崎一・二丁目、谷河内二丁目、南篠崎町四丁目、鹿骨町","lat":35.715629,"lon":139.899176},{"name":"(株)中島商店","province":"東京都","city":"江戸川区","address":"江戸川区大杉2-22-12","lat":35.702911,"lon":139.880539},{"name":"(株)鈴亀","province":"東京都","city":"江戸川区","address":"江戸川区中央1-17-19","lat":35.705864,"lon":139.870163},{"name":"(有)フルカワ","province":"東京都","city":"江戸川区","address":"江戸川区南篠崎町4-23-4","lat":35.699673,"lon":139.902283},{"name":"鐵甲金属(株)","province":"東京都","city":"江戸川区","address":"江戸川区大杉4-29-17","lat":35.711552,"lon":139.881821},{"name":"(株)春江","province":"東京都","city":"江戸川区","address":"江戸川区松江4-24-10","lat":35.689644,"lon":139.870438},{"name":"(有)福田川商店","province":"東京都","city":"江戸川区","address":"江戸川区南小岩5-3-14","lat":35.723526,"lon":139.879807},{"name":"ｶﾜﾊﾗﾒﾀﾙ(株)","province":"東京都","city":"江戸川区","address":"江戸川区篠崎町4-17-1","lat":35.699566,"lon":139.908569},{"name":"(株)伊藤信司商店  京葉営業所","province":"東京都","city":"江戸川区","address":"江戸川区南篠崎町4-23-22","lat":35.699673,"lon":139.902283},{"name":"(株)ヤハギ環境","province":"東京都","city":"江戸川区","address":"江戸川区南葛西2-18-7","lat":35.655132,"lon":139.875214},{"name":"(株)日成ストマック･トーキョー  本社工場","province":"東京都","city":"江戸川区","address":"江戸川区東葛西3-17-15","lat":35.668476,"lon":139.885406},{"name":"(株)オグラ","province":"東京都","city":"江戸川区","address":"江戸川区松江4-29-1","lat":35.691471,"lon":139.871536},{"name":"(有)山口商店","province":"東京都","city":"江戸川区","address":"江戸川区東小松川2-23-12","lat":35.694427,"lon":139.866165},{"name":"(株)上田紙業","province":"東京都","city":"江戸川区","address":"江戸川区上篠崎4-15-5","lat":35.707611,"lon":139.898926},{"name":"(有)牧野商店","province":"東京都","city":"江戸川区","address":"江戸川区篠崎町8-13-11","lat":35.705566,"lon":139.898376},{"name":"(株)坪野谷紙業  江戸川事業所","province":"東京都","city":"江戸川区","address":"江戸川区松江7-15-2","lat":35.691669,"lon":139.874008},{"name":"(株)須賀  船堀営業所","province":"東京都","city":"江戸川区","address":"江戸川区船堀3-9-20","lat":35.681896,"lon":139.865479},{"name":"(株)須賀  東小松川営業所","province":"東京都","city":"江戸川区","address":"江戸川区東小松川4-18-20","lat":35.687618,"lon":139.862045},{"name":"三東運輸(株)  エコプラント","province":"東京都","city":"江戸川区","address":"江戸川区篠崎町5-6-8","lat":35.70369,"lon":139.906052},{"name":"(株)乙  江戸川営業所","province":"東京都","city":"江戸川区","address":"江戸川区松江6-5-5","lat":35.687317,"lon":139.871521},{"name":"(株)浜田  東京リサイクルセンター","province":"東京都","city":"江戸川区","address":"江戸川区松江5-22-21","lat":35.686195,"lon":139.868637},{"name":"(有)太田商店  東京リサイクル工場","province":"東京都","city":"江戸川区","address":"江戸川区大杉5-31-15","lat":35.712456,"lon":139.878754},{"name":"中央鉄鋼（有）","province":"東京都","city":"江戸川区","address":"江戸川区西葛西8-20-198-20-1","lat":35.658245,"lon":139.862839},{"name":"葛西海浜公園","province":"東京都","city":"江戸川区","address":"東京都江戸川区臨海町六丁目地先","lat":35.640708,"lon":139.855249},{"name":"宇喜田公園","province":"東京都","city":"江戸川区","address":"東京都江戸川区北葛西三丁目・宇喜田町","lat":35.674423,"lon":139.860592},{"name":"葛西臨海公園","province":"東京都","city":"江戸川区","address":"東京都江戸川区臨海町六丁目","lat":35.642245,"lon":139.860296},{"name":"篠崎公園","province":"東京都","city":"江戸川区","address":"東京都江戸川区上篠崎一・四・八丁目、篠崎町六・七・八丁目、西篠崎一・二丁目、谷河内二丁目、南篠崎町四丁目、鹿骨町","lat":35.715629,"lon":139.899176},{"name":"(株)中島商店","province":"東京都","city":"江戸川区","address":"江戸川区大杉2-22-12","lat":35.702911,"lon":139.880539},{"name":"(株)鈴亀","province":"東京都","city":"江戸川区","address":"江戸川区中央1-17-19","lat":35.705864,"lon":139.870163},{"name":"(有)フルカワ","province":"東京都","city":"江戸川区","address":"江戸川区南篠崎町4-23-4","lat":35.699673,"lon":139.902283},{"name":"鐵甲金属(株)","province":"東京都","city":"江戸川区","address":"江戸川区大杉4-29-17","lat":35.711552,"lon":139.881821},{"name":"(株)春江","province":"東京都","city":"江戸川区","address":"江戸川区松江4-24-10","lat":35.689644,"lon":139.870438},{"name":"(有)福田川商店","province":"東京都","city":"江戸川区","address":"江戸川区南小岩5-3-14","lat":35.723526,"lon":139.879807},{"name":"ｶﾜﾊﾗﾒﾀﾙ(株)","province":"東京都","city":"江戸川区","address":"江戸川区篠崎町4-17-1","lat":35.699566,"lon":139.908569},{"name":"(株)伊藤信司商店  京葉営業所","province":"東京都","city":"江戸川区","address":"江戸川区南篠崎町4-23-22","lat":35.699673,"lon":139.902283},{"name":"(株)ヤハギ環境","province":"東京都","city":"江戸川区","address":"江戸川区南葛西2-18-7","lat":35.655132,"lon":139.875214},{"name":"(株)日成ストマック･トーキョー  本社工場","province":"東京都","city":"江戸川区","address":"江戸川区東葛西3-17-15","lat":35.668476,"lon":139.885406},{"name":"(株)オグラ","province":"東京都","city":"江戸川区","address":"江戸川区松江4-29-1","lat":35.691471,"lon":139.871536},{"name":"(有)山口商店","province":"東京都","city":"江戸川区","address":"江戸川区東小松川2-23-12","lat":35.694427,"lon":139.866165},{"name":"(株)上田紙業","province":"東京都","city":"江戸川区","address":"江戸川区上篠崎4-15-5","lat":35.707611,"lon":139.898926},{"name":"(有)牧野商店","province":"東京都","city":"江戸川区","address":"江戸川区篠崎町8-13-11","lat":35.705566,"lon":139.898376},{"name":"(株)坪野谷紙業  江戸川事業所","province":"東京都","city":"江戸川区","address":"江戸川区松江7-15-2","lat":35.691669,"lon":139.874008},{"name":"(株)須賀  船堀営業所","province":"東京都","city":"江戸川区","address":"江戸川区船堀3-9-20","lat":35.681896,"lon":139.865479},{"name":"(株)須賀  東小松川営業所","province":"東京都","city":"江戸川区","address":"江戸川区東小松川4-18-20","lat":35.687618,"lon":139.862045},{"name":"三東運輸(株)  エコプラント","province":"東京都","city":"江戸川区","address":"江戸川区篠崎町5-6-8","lat":35.70369,"lon":139.906052},{"name":"(株)乙  江戸川営業所","province":"東京都","city":"江戸川区","address":"江戸川区松江6-5-5","lat":35.687317,"lon":139.871521},{"name":"(株)浜田  東京リサイクルセンター","province":"東京都","city":"江戸川区","address":"江戸川区松江5-22-21","lat":35.686195,"lon":139.868637},{"name":"(有)太田商店  東京リサイクル工場","province":"東京都","city":"江戸川区","address":"江戸川区大杉5-31-15","lat":35.712456,"lon":139.878754},{"name":"中央鉄鋼（有）","province":"東京都","city":"江戸川区","address":"江戸川区西葛西8-20-198-20-1","lat":35.658245,"lon":139.862839},{"name":"葛西海浜公園","province":"東京都","city":"江戸川区","address":"東京都江戸川区臨海町六丁目地先","lat":35.640708,"lon":139.855249},{"name":"宇喜田公園","province":"東京都","city":"江戸川区","address":"東京都江戸川区北葛西三丁目・宇喜田町","lat":35.674423,"lon":139.860592},{"name":"葛西臨海公園","province":"東京都","city":"江戸川区","address":"東京都江戸川区臨海町六丁目","lat":35.642245,"lon":139.860296},{"name":"篠崎公園","province":"東京都","city":"江戸川区","address":"東京都江戸川区上篠崎一・四・八丁目、篠崎町六・七・八丁目、西篠崎一・二丁目、谷河内二丁目、南篠崎町四丁目、鹿骨町","lat":35.715629,"lon":139.899176},{"name":"(株)中島商店","province":"東京都","city":"江戸川区","address":"江戸川区大杉2-22-12","lat":35.702911,"lon":139.880539},{"name":"(株)鈴亀","province":"東京都","city":"江戸川区","address":"江戸川区中央1-17-19","lat":35.705864,"lon":139.870163},{"name":"(有)フルカワ","province":"東京都","city":"江戸川区","address":"江戸川区南篠崎町4-23-4","lat":35.699673,"lon":139.902283},{"name":"鐵甲金属(株)","province":"東京都","city":"江戸川区","address":"江戸川区大杉4-29-17","lat":35.711552,"lon":139.881821},{"name":"(株)春江","province":"東京都","city":"江戸川区","address":"江戸川区松江4-24-10","lat":35.689644,"lon":139.870438},{"name":"(有)福田川商店","province":"東京都","city":"江戸川区","address":"江戸川区南小岩5-3-14","lat":35.723526,"lon":139.879807},{"name":"ｶﾜﾊﾗﾒﾀﾙ(株)","province":"東京都","city":"江戸川区","address":"江戸川区篠崎町4-17-1","lat":35.699566,"lon":139.908569},{"name":"(株)伊藤信司商店  京葉営業所","province":"東京都","city":"江戸川区","address":"江戸川区南篠崎町4-23-22","lat":35.699673,"lon":139.902283},{"name":"(株)ヤハギ環境","province":"東京都","city":"江戸川区","address":"江戸川区南葛西2-18-7","lat":35.655132,"lon":139.875214},{"name":"(株)日成ストマック･トーキョー  本社工場","province":"東京都","city":"江戸川区","address":"江戸川区東葛西3-17-15","lat":35.668476,"lon":139.885406},{"name":"(株)オグラ","province":"東京都","city":"江戸川区","address":"江戸川区松江4-29-1","lat":35.691471,"lon":139.871536},{"name":"(有)山口商店","province":"東京都","city":"江戸川区","address":"江戸川区東小松川2-23-12","lat":35.694427,"lon":139.866165},{"name":"(株)上田紙業","province":"東京都","city":"江戸川区","address":"江戸川区上篠崎4-15-5","lat":35.707611,"lon":139.898926},{"name":"(有)牧野商店","province":"東京都","city":"江戸川区","address":"江戸川区篠崎町8-13-11","lat":35.705566,"lon":139.898376},{"name":"(株)坪野谷紙業  江戸川事業所","province":"東京都","city":"江戸川区","address":"江戸川区松江7-15-2","lat":35.691669,"lon":139.874008},{"name":"(株)須賀  船堀営業所","province":"東京都","city":"江戸川区","address":"江戸川区船堀3-9-20","lat":35.681896,"lon":139.865479},{"name":"(株)須賀  東小松川営業所","province":"東京都","city":"江戸川区","address":"江戸川区東小松川4-18-20","lat":35.687618,"lon":139.862045},{"name":"三東運輸(株)  エコプラント","province":"東京都","city":"江戸川区","address":"江戸川区篠崎町5-6-8","lat":35.70369,"lon":139.906052},{"name":"(株)乙  江戸川営業所","province":"東京都","city":"江戸川区","address":"江戸川区松江6-5-5","lat":35.687317,"lon":139.871521},{"name":"(株)浜田  東京リサイクルセンター","province":"東京都","city":"江戸川区","address":"江戸川区松江5-22-21","lat":35.686195,"lon":139.868637},{"name":"(有)太田商店  東京リサイクル工場","province":"東京都","city":"江戸川区","address":"江戸川区大杉5-31-15","lat":35.712456,"lon":139.878754},{"name":"中央鉄鋼（有）","province":"東京都","city":"江戸川区","address":"江戸川区西葛西8-20-198-20-1","lat":35.658245,"lon":139.862839},{"name":"葛西海浜公園","province":"東京都","city":"江戸川区","address":"東京都江戸川区臨海町六丁目地先","lat":35.640708,"lon":139.855249},{"name":"宇喜田公園","province":"東京都","city":"江戸川区","address":"東京都江戸川区北葛西三丁目・宇喜田町","lat":35.674423,"lon":139.860592},{"name":"葛西臨海公園","province":"東京都","city":"江戸川区","address":"東京都江戸川区臨海町六丁目","lat":35.642245,"lon":139.860296},{"name":"篠崎公園","province":"東京都","city":"江戸川区","address":"東京都江戸川区上篠崎一・四・八丁目、篠崎町六・七・八丁目、西篠崎一・二丁目、谷河内二丁目、南篠崎町四丁目、鹿骨町","lat":35.715629,"lon":139.899176},{"name":"(株)中島商店","province":"東京都","city":"江戸川区","address":"江戸川区大杉2-22-12","lat":35.702911,"lon":139.880539},{"name":"(株)鈴亀","province":"東京都","city":"江戸川区","address":"江戸川区中央1-17-19","lat":35.705864,"lon":139.870163},{"name":"(有)フルカワ","province":"東京都","city":"江戸川区","address":"江戸川区南篠崎町4-23-4","lat":35.699673,"lon":139.902283},{"name":"鐵甲金属(株)","province":"東京都","city":"江戸川区","address":"江戸川区大杉4-29-17","lat":35.711552,"lon":139.881821},{"name":"(株)春江","province":"東京都","city":"江戸川区","address":"江戸川区松江4-24-10","lat":35.689644,"lon":139.870438},{"name":"(有)福田川商店","province":"東京都","city":"江戸川区","address":"江戸川区南小岩5-3-14","lat":35.723526,"lon":139.879807},{"name":"ｶﾜﾊﾗﾒﾀﾙ(株)","province":"東京都","city":"江戸川区","address":"江戸川区篠崎町4-17-1","lat":35.699566,"lon":139.908569},{"name":"(株)伊藤信司商店  京葉営業所","province":"東京都","city":"江戸川区","address":"江戸川区南篠崎町4-23-22","lat":35.699673,"lon":139.902283},{"name":"(株)ヤハギ環境","province":"東京都","city":"江戸川区","address":"江戸川区南葛西2-18-7","lat":35.655132,"lon":139.875214},{"name":"(株)日成ストマック･トーキョー  本社工場","province":"東京都","city":"江戸川区","address":"江戸川区東葛西3-17-15","lat":35.668476,"lon":139.885406},{"name":"(株)オグラ","province":"東京都","city":"江戸川区","address":"江戸川区松江4-29-1","lat":35.691471,"lon":139.871536},{"name":"(有)山口商店","province":"東京都","city":"江戸川区","address":"江戸川区東小松川2-23-12","lat":35.694427,"lon":139.866165},{"name":"(株)上田紙業","province":"東京都","city":"江戸川区","address":"江戸川区上篠崎4-15-5","lat":35.707611,"lon":139.898926},{"name":"(有)牧野商店","province":"東京都","city":"江戸川区","address":"江戸川区篠崎町8-13-11","lat":35.705566,"lon":139.898376},{"name":"(株)坪野谷紙業  江戸川事業所","province":"東京都","city":"江戸川区","address":"江戸川区松江7-15-2","lat":35.691669,"lon":139.874008},{"name":"(株)須賀  船堀営業所","province":"東京都","city":"江戸川区","address":"江戸川区船堀3-9-20","lat":35.681896,"lon":139.865479},{"name":"(株)須賀  東小松川営業所","province":"東京都","city":"江戸川区","address":"江戸川区東小松川4-18-20","lat":35.687618,"lon":139.862045},{"name":"三東運輸(株)  エコプラント","province":"東京都","city":"江戸川区","address":"江戸川区篠崎町5-6-8","lat":35.70369,"lon":139.906052},{"name":"(株)乙  江戸川営業所","province":"東京都","city":"江戸川区","address":"江戸川区松江6-5-5","lat":35.687317,"lon":139.871521},{"name":"(株)浜田  東京リサイクルセンター","province":"東京都","city":"江戸川区","address":"江戸川区松江5-22-21","lat":35.686195,"lon":139.868637},{"name":"(有)太田商店  東京リサイクル工場","province":"東京都","city":"江戸川区","address":"江戸川区大杉5-31-15","lat":35.712456,"lon":139.878754},{"name":"中央鉄鋼（有）","province":"東京都","city":"江戸川区","address":"江戸川区西葛西8-20-198-20-1","lat":35.658245,"lon":139.862839},{"name":"葛西海浜公園","province":"東京都","city":"江戸川区","address":"東京都江戸川区臨海町六丁目地先","lat":35.640708,"lon":139.855249},{"name":"宇喜田公園","province":"東京都","city":"江戸川区","address":"東京都江戸川区北葛西三丁目・宇喜田町","lat":35.674423,"lon":139.860592},{"name":"葛西臨海公園","province":"東京都","city":"江戸川区","address":"東京都江戸川区臨海町六丁目","lat":35.642245,"lon":139.860296},{"name":"篠崎公園","province":"東京都","city":"江戸川区","address":"東京都江戸川区上篠崎一・四・八丁目、篠崎町六・七・八丁目、西篠崎一・二丁目、谷河内二丁目、南篠崎町四丁目、鹿骨町","lat":35.715629,"lon":139.899176},{"name":"(株)中島商店","province":"東京都","city":"江戸川区","address":"江戸川区大杉2-22-12","lat":35.702911,"lon":139.880539},{"name":"(株)鈴亀","province":"東京都","city":"江戸川区","address":"江戸川区中央1-17-19","lat":35.705864,"lon":139.870163},{"name":"(有)フルカワ","province":"東京都","city":"江戸川区","address":"江戸川区南篠崎町4-23-4","lat":35.699673,"lon":139.902283},{"name":"鐵甲金属(株)","province":"東京都","city":"江戸川区","address":"江戸川区大杉4-29-17","lat":35.711552,"lon":139.881821},{"name":"(株)春江","province":"東京都","city":"江戸川区","address":"江戸川区松江4-24-10","lat":35.689644,"lon":139.870438},{"name":"(有)福田川商店","province":"東京都","city":"江戸川区","address":"江戸川区南小岩5-3-14","lat":35.723526,"lon":139.879807},{"name":"ｶﾜﾊﾗﾒﾀﾙ(株)","province":"東京都","city":"江戸川区","address":"江戸川区篠崎町4-17-1","lat":35.699566,"lon":139.908569},{"name":"(株)伊藤信司商店  京葉営業所","province":"東京都","city":"江戸川区","address":"江戸川区南篠崎町4-23-22","lat":35.699673,"lon":139.902283},{"name":"(株)ヤハギ環境","province":"東京都","city":"江戸川区","address":"江戸川区南葛西2-18-7","lat":35.655132,"lon":139.875214},{"name":"(株)日成ストマック･トーキョー  本社工場","province":"東京都","city":"江戸川区","address":"江戸川区東葛西3-17-15","lat":35.668476,"lon":139.885406},{"name":"(株)オグラ","province":"東京都","city":"江戸川区","address":"江戸川区松江4-29-1","lat":35.691471,"lon":139.871536},{"name":"(有)山口商店","province":"東京都","city":"江戸川区","address":"江戸川区東小松川2-23-12","lat":35.694427,"lon":139.866165},{"name":"(株)上田紙業","province":"東京都","city":"江戸川区","address":"江戸川区上篠崎4-15-5","lat":35.707611,"lon":139.898926},{"name":"(有)牧野商店","province":"東京都","city":"江戸川区","address":"江戸川区篠崎町8-13-11","lat":35.705566,"lon":139.898376},{"name":"(株)坪野谷紙業  江戸川事業所","province":"東京都","city":"江戸川区","address":"江戸川区松江7-15-2","lat":35.691669,"lon":139.874008},{"name":"(株)須賀  船堀営業所","province":"東京都","city":"江戸川区","address":"江戸川区船堀3-9-20","lat":35.681896,"lon":139.865479},{"name":"(株)須賀  東小松川営業所","province":"東京都","city":"江戸川区","address":"江戸川区東小松川4-18-20","lat":35.687618,"lon":139.862045},{"name":"三東運輸(株)  エコプラント","province":"東京都","city":"江戸川区","address":"江戸川区篠崎町5-6-8","lat":35.70369,"lon":139.906052},{"name":"(株)乙  江戸川営業所","province":"東京都","city":"江戸川区","address":"江戸川区松江6-5-5","lat":35.687317,"lon":139.871521},{"name":"(株)浜田  東京リサイクルセンター","province":"東京都","city":"江戸川区","address":"江戸川区松江5-22-21","lat":35.686195,"lon":139.868637},{"name":"(有)太田商店  東京リサイクル工場","province":"東京都","city":"江戸川区","address":"江戸川区大杉5-31-15","lat":35.712456,"lon":139.878754},{"name":"中央鉄鋼（有）","province":"東京都","city":"江戸川区","address":"江戸川区西葛西8-20-198-20-1","lat":35.658245,"lon":139.862839},{"name":"葛西海浜公園","province":"東京都","city":"江戸川区","address":"東京都江戸川区臨海町六丁目地先","lat":35.640708,"lon":139.855249},{"name":"宇喜田公園","province":"東京都","city":"江戸川区","address":"東京都江戸川区北葛西三丁目・宇喜田町","lat":35.674423,"lon":139.860592},{"name":"葛西臨海公園","province":"東京都","city":"江戸川区","address":"東京都江戸川区臨海町六丁目","lat":35.642245,"lon":139.860296},{"name":"篠崎公園","province":"東京都","city":"江戸川区","address":"東京都江戸川区上篠崎一・四・八丁目、篠崎町六・七・八丁目、西篠崎一・二丁目、谷河内二丁目、南篠崎町四丁目、鹿骨町","lat":35.715629,"lon":139.899176},{"name":"(株)中島商店","province":"東京都","city":"江戸川区","address":"江戸川区大杉2-22-12","lat":35.702911,"lon":139.880539},{"name":"(株)鈴亀","province":"東京都","city":"江戸川区","address":"江戸川区中央1-17-19","lat":35.705864,"lon":139.870163},{"name":"(有)フルカワ","province":"東京都","city":"江戸川区","address":"江戸川区南篠崎町4-23-4","lat":35.699673,"lon":139.902283},{"name":"鐵甲金属(株)","province":"東京都","city":"江戸川区","address":"江戸川区大杉4-29-17","lat":35.711552,"lon":139.881821},{"name":"(株)春江","province":"東京都","city":"江戸川区","address":"江戸川区松江4-24-10","lat":35.689644,"lon":139.870438},{"name":"(有)福田川商店","province":"東京都","city":"江戸川区","address":"江戸川区南小岩5-3-14","lat":35.723526,"lon":139.879807},{"name":"ｶﾜﾊﾗﾒﾀﾙ(株)","province":"東京都","city":"江戸川区","address":"江戸川区篠崎町4-17-1","lat":35.699566,"lon":139.908569},{"name":"(株)伊藤信司商店  京葉営業所","province":"東京都","city":"江戸川区","address":"江戸川区南篠崎町4-23-22","lat":35.699673,"lon":139.902283},{"name":"(株)ヤハギ環境","province":"東京都","city":"江戸川区","address":"江戸川区南葛西2-18-7","lat":35.655132,"lon":139.875214},{"name":"(株)日成ストマック･トーキョー  本社工場","province":"東京都","city":"江戸川区","address":"江戸川区東葛西3-17-15","lat":35.668476,"lon":139.885406},{"name":"(株)オグラ","province":"東京都","city":"江戸川区","address":"江戸川区松江4-29-1","lat":35.691471,"lon":139.871536},{"name":"(有)山口商店","province":"東京都","city":"江戸川区","address":"江戸川区東小松川2-23-12","lat":35.694427,"lon":139.866165},{"name":"(株)上田紙業","province":"東京都","city":"江戸川区","address":"江戸川区上篠崎4-15-5","lat":35.707611,"lon":139.898926},{"name":"(有)牧野商店","province":"東京都","city":"江戸川区","address":"江戸川区篠崎町8-13-11","lat":35.705566,"lon":139.898376},{"name":"(株)坪野谷紙業  江戸川事業所","province":"東京都","city":"江戸川区","address":"江戸川区松江7-15-2","lat":35.691669,"lon":139.874008},{"name":"(株)須賀  船堀営業所","province":"東京都","city":"江戸川区","address":"江戸川区船堀3-9-20","lat":35.681896,"lon":139.865479},{"name":"(株)須賀  東小松川営業所","province":"東京都","city":"江戸川区","address":"江戸川区東小松川4-18-20","lat":35.687618,"lon":139.862045},{"name":"三東運輸(株)  エコプラント","province":"東京都","city":"江戸川区","address":"江戸川区篠崎町5-6-8","lat":35.70369,"lon":139.906052},{"name":"(株)乙  江戸川営業所","province":"東京都","city":"江戸川区","address":"江戸川区松江6-5-5","lat":35.687317,"lon":139.871521},{"name":"(株)浜田  東京リサイクルセンター","province":"東京都","city":"江戸川区","address":"江戸川区松江5-22-21","lat":35.686195,"lon":139.868637},{"name":"(有)太田商店  東京リサイクル工場","province":"東京都","city":"江戸川区","address":"江戸川区大杉5-31-15","lat":35.712456,"lon":139.878754},{"name":"中央鉄鋼（有）","province":"東京都","city":"江戸川区","address":"江戸川区西葛西8-20-198-20-1","lat":35.658245,"lon":139.862839},{"name":"葛西海浜公園","province":"東京都","city":"江戸川区","address":"東京都江戸川区臨海町六丁目地先","lat":35.640708,"lon":139.855249},{"name":"宇喜田公園","province":"東京都","city":"江戸川区","address":"東京都江戸川区北葛西三丁目・宇喜田町","lat":35.674423,"lon":139.860592},{"name":"葛西臨海公園","province":"東京都","city":"江戸川区","address":"東京都江戸川区臨海町六丁目","lat":35.642245,"lon":139.860296},{"name":"篠崎公園","province":"東京都","city":"江戸川区","address":"東京都江戸川区上篠崎一・四・八丁目、篠崎町六・七・八丁目、西篠崎一・二丁目、谷河内二丁目、南篠崎町四丁目、鹿骨町","lat":35.715629,"lon":139.899176},{"name":"(株)中島商店","province":"東京都","city":"江戸川区","address":"江戸川区大杉2-22-12","lat":35.702911,"lon":139.880539},{"name":"(株)鈴亀","province":"東京都","city":"江戸川区","address":"江戸川区中央1-17-19","lat":35.705864,"lon":139.870163},{"name":"(有)フルカワ","province":"東京都","city":"江戸川区","address":"江戸川区南篠崎町4-23-4","lat":35.699673,"lon":139.902283},{"name":"鐵甲金属(株)","province":"東京都","city":"江戸川区","address":"江戸川区大杉4-29-17","lat":35.711552,"lon":139.881821},{"name":"(株)春江","province":"東京都","city":"江戸川区","address":"江戸川区松江4-24-10","lat":35.689644,"lon":139.870438},{"name":"(有)福田川商店","province":"東京都","city":"江戸川区","address":"江戸川区南小岩5-3-14","lat":35.723526,"lon":139.879807},{"name":"ｶﾜﾊﾗﾒﾀﾙ(株)","province":"東京都","city":"江戸川区","address":"江戸川区篠崎町4-17-1","lat":35.699566,"lon":139.908569},{"name":"(株)伊藤信司商店  京葉営業所","province":"東京都","city":"江戸川区","address":"江戸川区南篠崎町4-23-22","lat":35.699673,"lon":139.902283},{"name":"(株)ヤハギ環境","province":"東京都","city":"江戸川区","address":"江戸川区南葛西2-18-7","lat":35.655132,"lon":139.875214},{"name":"(株)日成ストマック･トーキョー  本社工場","province":"東京都","city":"江戸川区","address":"江戸川区東葛西3-17-15","lat":35.668476,"lon":139.885406},{"name":"(株)オグラ","province":"東京都","city":"江戸川区","address":"江戸川区松江4-29-1","lat":35.691471,"lon":139.871536},{"name":"(有)山口商店","province":"東京都","city":"江戸川区","address":"江戸川区東小松川2-23-12","lat":35.694427,"lon":139.866165},{"name":"(株)上田紙業","province":"東京都","city":"江戸川区","address":"江戸川区上篠崎4-15-5","lat":35.707611,"lon":139.898926},{"name":"(有)牧野商店","province":"東京都","city":"江戸川区","address":"江戸川区篠崎町8-13-11","lat":35.705566,"lon":139.898376},{"name":"(株)坪野谷紙業  江戸川事業所","province":"東京都","city":"江戸川区","address":"江戸川区松江7-15-2","lat":35.691669,"lon":139.874008},{"name":"(株)須賀  船堀営業所","province":"東京都","city":"江戸川区","address":"江戸川区船堀3-9-20","lat":35.681896,"lon":139.865479},{"name":"(株)須賀  東小松川営業所","province":"東京都","city":"江戸川区","address":"江戸川区東小松川4-18-20","lat":35.687618,"lon":139.862045},{"name":"三東運輸(株)  エコプラント","province":"東京都","city":"江戸川区","address":"江戸川区篠崎町5-6-8","lat":35.70369,"lon":139.906052},{"name":"(株)乙  江戸川営業所","province":"東京都","city":"江戸川区","address":"江戸川区松江6-5-5","lat":35.687317,"lon":139.871521},{"name":"(株)浜田  東京リサイクルセンター","province":"東京都","city":"江戸川区","address":"江戸川区松江5-22-21","lat":35.686195,"lon":139.868637},{"name":"(有)太田商店  東京リサイクル工場","province":"東京都","city":"江戸川区","address":"江戸川区大杉5-31-15","lat":35.712456,"lon":139.878754},{"name":"中央鉄鋼（有）","province":"東京都","city":"江戸川区","address":"江戸川区西葛西8-20-198-20-1","lat":35.658245,"lon":139.862839},{"name":"葛西海浜公園","province":"東京都","city":"江戸川区","address":"東京都江戸川区臨海町六丁目地先","lat":35.640708,"lon":139.855249},{"name":"宇喜田公園","province":"東京都","city":"江戸川区","address":"東京都江戸川区北葛西三丁目・宇喜田町","lat":35.674423,"lon":139.860592},{"name":"葛西臨海公園","province":"東京都","city":"江戸川区","address":"東京都江戸川区臨海町六丁目","lat":35.642245,"lon":139.860296},{"name":"篠崎公園","province":"東京都","city":"江戸川区","address":"東京都江戸川区上篠崎一・四・八丁目、篠崎町六・七・八丁目、西篠崎一・二丁目、谷河内二丁目、南篠崎町四丁目、鹿骨町","lat":35.715629,"lon":139.899176},{"name":"(株)中島商店","province":"東京都","city":"江戸川区","address":"江戸川区大杉2-22-12","lat":35.702911,"lon":139.880539},{"name":"(株)鈴亀","province":"東京都","city":"江戸川区","address":"江戸川区中央1-17-19","lat":35.705864,"lon":139.870163},{"name":"(有)フルカワ","province":"東京都","city":"江戸川区","address":"江戸川区南篠崎町4-23-4","lat":35.699673,"lon":139.902283},{"name":"鐵甲金属(株)","province":"東京都","city":"江戸川区","address":"江戸川区大杉4-29-17","lat":35.711552,"lon":139.881821},{"name":"(株)春江","province":"東京都","city":"江戸川区","address":"江戸川区松江4-24-10","lat":35.689644,"lon":139.870438},{"name":"(有)福田川商店","province":"東京都","city":"江戸川区","address":"江戸川区南小岩5-3-14","lat":35.723526,"lon":139.879807},{"name":"ｶﾜﾊﾗﾒﾀﾙ(株)","province":"東京都","city":"江戸川区","address":"江戸川区篠崎町4-17-1","lat":35.699566,"lon":139.908569},{"name":"(株)伊藤信司商店  京葉営業所","province":"東京都","city":"江戸川区","address":"江戸川区南篠崎町4-23-22","lat":35.699673,"lon":139.902283},{"name":"(株)ヤハギ環境","province":"東京都","city":"江戸川区","address":"江戸川区南葛西2-18-7","lat":35.655132,"lon":139.875214},{"name":"(株)日成ストマック･トーキョー  本社工場","province":"東京都","city":"江戸川区","address":"江戸川区東葛西3-17-15","lat":35.668476,"lon":139.885406},{"name":"(株)オグラ","province":"東京都","city":"江戸川区","address":"江戸川区松江4-29-1","lat":35.691471,"lon":139.871536},{"name":"(有)山口商店","province":"東京都","city":"江戸川区","address":"江戸川区東小松川2-23-12","lat":35.694427,"lon":139.866165},{"name":"(株)上田紙業","province":"東京都","city":"江戸川区","address":"江戸川区上篠崎4-15-5","lat":35.707611,"lon":139.898926},{"name":"(有)牧野商店","province":"東京都","city":"江戸川区","address":"江戸川区篠崎町8-13-11","lat":35.705566,"lon":139.898376},{"name":"(株)坪野谷紙業  江戸川事業所","province":"東京都","city":"江戸川区","address":"江戸川区松江7-15-2","lat":35.691669,"lon":139.874008},{"name":"(株)須賀  船堀営業所","province":"東京都","city":"江戸川区","address":"江戸川区船堀3-9-20","lat":35.681896,"lon":139.865479},{"name":"(株)須賀  東小松川営業所","province":"東京都","city":"江戸川区","address":"江戸川区東小松川4-18-20","lat":35.687618,"lon":139.862045},{"name":"三東運輸(株)  エコプラント","province":"東京都","city":"江戸川区","address":"江戸川区篠崎町5-6-8","lat":35.70369,"lon":139.906052},{"name":"(株)乙  江戸川営業所","province":"東京都","city":"江戸川区","address":"江戸川区松江6-5-5","lat":35.687317,"lon":139.871521},{"name":"(株)浜田  東京リサイクルセンター","province":"東京都","city":"江戸川区","address":"江戸川区松江5-22-21","lat":35.686195,"lon":139.868637},{"name":"(有)太田商店  東京リサイクル工場","province":"東京都","city":"江戸川区","address":"江戸川区大杉5-31-15","lat":35.712456,"lon":139.878754},{"name":"中央鉄鋼（有）","province":"東京都","city":"江戸川区","address":"江戸川区西葛西8-20-198-20-1","lat":35.658245,"lon":139.862839},{"name":"葛西海浜公園","province":"東京都","city":"江戸川区","address":"東京都江戸川区臨海町六丁目地先","lat":35.640708,"lon":139.855249},{"name":"宇喜田公園","province":"東京都","city":"江戸川区","address":"東京都江戸川区北葛西三丁目・宇喜田町","lat":35.674423,"lon":139.860592},{"name":"葛西臨海公園","province":"東京都","city":"江戸川区","address":"東京都江戸川区臨海町六丁目","lat":35.642245,"lon":139.860296},{"name":"篠崎公園","province":"東京都","city":"江戸川区","address":"東京都江戸川区上篠崎一・四・八丁目、篠崎町六・七・八丁目、西篠崎一・二丁目、谷河内二丁目、南篠崎町四丁目、鹿骨町","lat":35.715629,"lon":139.899176},{"name":"(株)中島商店","province":"東京都","city":"江戸川区","address":"江戸川区大杉2-22-12","lat":35.702911,"lon":139.880539},{"name":"(株)鈴亀","province":"東京都","city":"江戸川区","address":"江戸川区中央1-17-19","lat":35.705864,"lon":139.870163},{"name":"(有)フルカワ","province":"東京都","city":"江戸川区","address":"江戸川区南篠崎町4-23-4","lat":35.699673,"lon":139.902283},{"name":"鐵甲金属(株)","province":"東京都","city":"江戸川区","address":"江戸川区大杉4-29-17","lat":35.711552,"lon":139.881821},{"name":"(株)春江","province":"東京都","city":"江戸川区","address":"江戸川区松江4-24-10","lat":35.689644,"lon":139.870438},{"name":"(有)福田川商店","province":"東京都","city":"江戸川区","address":"江戸川区南小岩5-3-14","lat":35.723526,"lon":139.879807},{"name":"ｶﾜﾊﾗﾒﾀﾙ(株)","province":"東京都","city":"江戸川区","address":"江戸川区篠崎町4-17-1","lat":35.699566,"lon":139.908569},{"name":"(株)伊藤信司商店  京葉営業所","province":"東京都","city":"江戸川区","address":"江戸川区南篠崎町4-23-22","lat":35.699673,"lon":139.902283},{"name":"(株)ヤハギ環境","province":"東京都","city":"江戸川区","address":"江戸川区南葛西2-18-7","lat":35.655132,"lon":139.875214},{"name":"(株)日成ストマック･トーキョー  本社工場","province":"東京都","city":"江戸川区","address":"江戸川区東葛西3-17-15","lat":35.668476,"lon":139.885406},{"name":"(株)オグラ","province":"東京都","city":"江戸川区","address":"江戸川区松江4-29-1","lat":35.691471,"lon":139.871536},{"name":"(有)山口商店","province":"東京都","city":"江戸川区","address":"江戸川区東小松川2-23-12","lat":35.694427,"lon":139.866165},{"name":"(株)上田紙業","province":"東京都","city":"江戸川区","address":"江戸川区上篠崎4-15-5","lat":35.707611,"lon":139.898926},{"name":"(有)牧野商店","province":"東京都","city":"江戸川区","address":"江戸川区篠崎町8-13-11","lat":35.705566,"lon":139.898376},{"name":"(株)坪野谷紙業  江戸川事業所","province":"東京都","city":"江戸川区","address":"江戸川区松江7-15-2","lat":35.691669,"lon":139.874008},{"name":"(株)須賀  船堀営業所","province":"東京都","city":"江戸川区","address":"江戸川区船堀3-9-20","lat":35.681896,"lon":139.865479},{"name":"(株)須賀  東小松川営業所","province":"東京都","city":"江戸川区","address":"江戸川区東小松川4-18-20","lat":35.687618,"lon":139.862045},{"name":"三東運輸(株)  エコプラント","province":"東京都","city":"江戸川区","address":"江戸川区篠崎町5-6-8","lat":35.70369,"lon":139.906052},{"name":"(株)乙  江戸川営業所","province":"東京都","city":"江戸川区","address":"江戸川区松江6-5-5","lat":35.687317,"lon":139.871521},{"name":"(株)浜田  東京リサイクルセンター","province":"東京都","city":"江戸川区","address":"江戸川区松江5-22-21","lat":35.686195,"lon":139.868637},{"name":"(有)太田商店  東京リサイクル工場","province":"東京都","city":"江戸川区","address":"江戸川区大杉5-31-15","lat":35.712456,"lon":139.878754},{"name":"中央鉄鋼（有）","province":"東京都","city":"江戸川区","address":"江戸川区西葛西8-20-198-20-1","lat":35.658245,"lon":139.862839},{"name":"葛西海浜公園","province":"東京都","city":"江戸川区","address":"東京都江戸川区臨海町六丁目地先","lat":35.640708,"lon":139.855249},{"name":"宇喜田公園","province":"東京都","city":"江戸川区","address":"東京都江戸川区北葛西三丁目・宇喜田町","lat":35.674423,"lon":139.860592},{"name":"葛西臨海公園","province":"東京都","city":"江戸川区","address":"東京都江戸川区臨海町六丁目","lat":35.642245,"lon":139.860296},{"name":"篠崎公園","province":"東京都","city":"江戸川区","address":"東京都江戸川区上篠崎一・四・八丁目、篠崎町六・七・八丁目、西篠崎一・二丁目、谷河内二丁目、南篠崎町四丁目、鹿骨町","lat":35.715629,"lon":139.899176},{"name":"(株)中島商店","province":"東京都","city":"江戸川区","address":"江戸川区大杉2-22-12","lat":35.702911,"lon":139.880539},{"name":"(株)鈴亀","province":"東京都","city":"江戸川区","address":"江戸川区中央1-17-19","lat":35.705864,"lon":139.870163},{"name":"(有)フルカワ","province":"東京都","city":"江戸川区","address":"江戸川区南篠崎町4-23-4","lat":35.699673,"lon":139.902283},{"name":"鐵甲金属(株)","province":"東京都","city":"江戸川区","address":"江戸川区大杉4-29-17","lat":35.711552,"lon":139.881821},{"name":"(株)春江","province":"東京都","city":"江戸川区","address":"江戸川区松江4-24-10","lat":35.689644,"lon":139.870438},{"name":"(有)福田川商店","province":"東京都","city":"江戸川区","address":"江戸川区南小岩5-3-14","lat":35.723526,"lon":139.879807},{"name":"ｶﾜﾊﾗﾒﾀﾙ(株)","province":"東京都","city":"江戸川区","address":"江戸川区篠崎町4-17-1","lat":35.699566,"lon":139.908569},{"name":"(株)伊藤信司商店  京葉営業所","province":"東京都","city":"江戸川区","address":"江戸川区南篠崎町4-23-22","lat":35.699673,"lon":139.902283},{"name":"(株)ヤハギ環境","province":"東京都","city":"江戸川区","address":"江戸川区南葛西2-18-7","lat":35.655132,"lon":139.875214},{"name":"(株)日成ストマック･トーキョー  本社工場","province":"東京都","city":"江戸川区","address":"江戸川区東葛西3-17-15","lat":35.668476,"lon":139.885406},{"name":"(株)オグラ","province":"東京都","city":"江戸川区","address":"江戸川区松江4-29-1","lat":35.691471,"lon":139.871536},{"name":"(有)山口商店","province":"東京都","city":"江戸川区","address":"江戸川区東小松川2-23-12","lat":35.694427,"lon":139.866165},{"name":"(株)上田紙業","province":"東京都","city":"江戸川区","address":"江戸川区上篠崎4-15-5","lat":35.707611,"lon":139.898926},{"name":"(有)牧野商店","province":"東京都","city":"江戸川区","address":"江戸川区篠崎町8-13-11","lat":35.705566,"lon":139.898376},{"name":"(株)坪野谷紙業  江戸川事業所","province":"東京都","city":"江戸川区","address":"江戸川区松江7-15-2","lat":35.691669,"lon":139.874008},{"name":"(株)須賀  船堀営業所","province":"東京都","city":"江戸川区","address":"江戸川区船堀3-9-20","lat":35.681896,"lon":139.865479},{"name":"(株)須賀  東小松川営業所","province":"東京都","city":"江戸川区","address":"江戸川区東小松川4-18-20","lat":35.687618,"lon":139.862045},{"name":"三東運輸(株)  エコプラント","province":"東京都","city":"江戸川区","address":"江戸川区篠崎町5-6-8","lat":35.70369,"lon":139.906052},{"name":"(株)乙  江戸川営業所","province":"東京都","city":"江戸川区","address":"江戸川区松江6-5-5","lat":35.687317,"lon":139.871521},{"name":"(株)浜田  東京リサイクルセンター","province":"東京都","city":"江戸川区","address":"江戸川区松江5-22-21","lat":35.686195,"lon":139.868637},{"name":"(有)太田商店  東京リサイクル工場","province":"東京都","city":"江戸川区","address":"江戸川区大杉5-31-15","lat":35.712456,"lon":139.878754},{"name":"中央鉄鋼（有）","province":"東京都","city":"江戸川区","address":"江戸川区西葛西8-20-198-20-1","lat":35.658245,"lon":139.862839},{"name":"葛西海浜公園","province":"東京都","city":"江戸川区","address":"東京都江戸川区臨海町六丁目地先","lat":35.640708,"lon":139.855249},{"name":"宇喜田公園","province":"東京都","city":"江戸川区","address":"東京都江戸川区北葛西三丁目・宇喜田町","lat":35.674423,"lon":139.860592},{"name":"葛西臨海公園","province":"東京都","city":"江戸川区","address":"東京都江戸川区臨海町六丁目","lat":35.642245,"lon":139.860296},{"name":"篠崎公園","province":"東京都","city":"江戸川区","address":"東京都江戸川区上篠崎一・四・八丁目、篠崎町六・七・八丁目、西篠崎一・二丁目、谷河内二丁目、南篠崎町四丁目、鹿骨町","lat":35.715629,"lon":139.899176},{"name":"(株)中島商店","province":"東京都","city":"江戸川区","address":"江戸川区大杉2-22-12","lat":35.702911,"lon":139.880539},{"name":"(株)鈴亀","province":"東京都","city":"江戸川区","address":"江戸川区中央1-17-19","lat":35.705864,"lon":139.870163},{"name":"(有)フルカワ","province":"東京都","city":"江戸川区","address":"江戸川区南篠崎町4-23-4","lat":35.699673,"lon":139.902283},{"name":"鐵甲金属(株)","province":"東京都","city":"江戸川区","address":"江戸川区大杉4-29-17","lat":35.711552,"lon":139.881821},{"name":"(株)春江","province":"東京都","city":"江戸川区","address":"江戸川区松江4-24-10","lat":35.689644,"lon":139.870438},{"name":"(有)福田川商店","province":"東京都","city":"江戸川区","address":"江戸川区南小岩5-3-14","lat":35.723526,"lon":139.879807},{"name":"ｶﾜﾊﾗﾒﾀﾙ(株)","province":"東京都","city":"江戸川区","address":"江戸川区篠崎町4-17-1","lat":35.699566,"lon":139.908569},{"name":"(株)伊藤信司商店  京葉営業所","province":"東京都","city":"江戸川区","address":"江戸川区南篠崎町4-23-22","lat":35.699673,"lon":139.902283},{"name":"(株)ヤハギ環境","province":"東京都","city":"江戸川区","address":"江戸川区南葛西2-18-7","lat":35.655132,"lon":139.875214},{"name":"(株)日成ストマック･トーキョー  本社工場","province":"東京都","city":"江戸川区","address":"江戸川区東葛西3-17-15","lat":35.668476,"lon":139.885406},{"name":"(株)オグラ","province":"東京都","city":"江戸川区","address":"江戸川区松江4-29-1","lat":35.691471,"lon":139.871536},{"name":"(有)山口商店","province":"東京都","city":"江戸川区","address":"江戸川区東小松川2-23-12","lat":35.694427,"lon":139.866165},{"name":"(株)上田紙業","province":"東京都","city":"江戸川区","address":"江戸川区上篠崎4-15-5","lat":35.707611,"lon":139.898926},{"name":"(有)牧野商店","province":"東京都","city":"江戸川区","address":"江戸川区篠崎町8-13-11","lat":35.705566,"lon":139.898376},{"name":"(株)坪野谷紙業  江戸川事業所","province":"東京都","city":"江戸川区","address":"江戸川区松江7-15-2","lat":35.691669,"lon":139.874008},{"name":"(株)須賀  船堀営業所","province":"東京都","city":"江戸川区","address":"江戸川区船堀3-9-20","lat":35.681896,"lon":139.865479},{"name":"(株)須賀  東小松川営業所","province":"東京都","city":"江戸川区","address":"江戸川区東小松川4-18-20","lat":35.687618,"lon":139.862045},{"name":"三東運輸(株)  エコプラント","province":"東京都","city":"江戸川区","address":"江戸川区篠崎町5-6-8","lat":35.70369,"lon":139.906052},{"name":"(株)乙  江戸川営業所","province":"東京都","city":"江戸川区","address":"江戸川区松江6-5-5","lat":35.687317,"lon":139.871521},{"name":"(株)浜田  東京リサイクルセンター","province":"東京都","city":"江戸川区","address":"江戸川区松江5-22-21","lat":35.686195,"lon":139.868637},{"name":"(有)太田商店  東京リサイクル工場","province":"東京都","city":"江戸川区","address":"江戸川区大杉5-31-15","lat":35.712456,"lon":139.878754},{"name":"中央鉄鋼（有）","province":"東京都","city":"江戸川区","address":"江戸川区西葛西8-20-198-20-1","lat":35.658245,"lon":139.862839},{"name":"葛西海浜公園","province":"東京都","city":"江戸川区","address":"東京都江戸川区臨海町六丁目地先","lat":35.640708,"lon":139.855249},{"name":"宇喜田公園","province":"東京都","city":"江戸川区","address":"東京都江戸川区北葛西三丁目・宇喜田町","lat":35.674423,"lon":139.860592},{"name":"葛西臨海公園","province":"東京都","city":"江戸川区","address":"東京都江戸川区臨海町六丁目","lat":35.642245,"lon":139.860296},{"name":"篠崎公園","province":"東京都","city":"江戸川区","address":"東京都江戸川区上篠崎一・四・八丁目、篠崎町六・七・八丁目、西篠崎一・二丁目、谷河内二丁目、南篠崎町四丁目、鹿骨町","lat":35.715629,"lon":139.899176},{"name":"(株)中島商店","province":"東京都","city":"江戸川区","address":"江戸川区大杉2-22-12","lat":35.702911,"lon":139.880539},{"name":"(株)鈴亀","province":"東京都","city":"江戸川区","address":"江戸川区中央1-17-19","lat":35.705864,"lon":139.870163},{"name":"(有)フルカワ","province":"東京都","city":"江戸川区","address":"江戸川区南篠崎町4-23-4","lat":35.699673,"lon":139.902283},{"name":"鐵甲金属(株)","province":"東京都","city":"江戸川区","address":"江戸川区大杉4-29-17","lat":35.711552,"lon":139.881821},{"name":"(株)春江","province":"東京都","city":"江戸川区","address":"江戸川区松江4-24-10","lat":35.689644,"lon":139.870438},{"name":"(有)福田川商店","province":"東京都","city":"江戸川区","address":"江戸川区南小岩5-3-14","lat":35.723526,"lon":139.879807},{"name":"ｶﾜﾊﾗﾒﾀﾙ(株)","province":"東京都","city":"江戸川区","address":"江戸川区篠崎町4-17-1","lat":35.699566,"lon":139.908569},{"name":"(株)伊藤信司商店  京葉営業所","province":"東京都","city":"江戸川区","address":"江戸川区南篠崎町4-23-22","lat":35.699673,"lon":139.902283},{"name":"(株)ヤハギ環境","province":"東京都","city":"江戸川区","address":"江戸川区南葛西2-18-7","lat":35.655132,"lon":139.875214},{"name":"(株)日成ストマック･トーキョー  本社工場","province":"東京都","city":"江戸川区","address":"江戸川区東葛西3-17-15","lat":35.668476,"lon":139.885406},{"name":"(株)オグラ","province":"東京都","city":"江戸川区","address":"江戸川区松江4-29-1","lat":35.691471,"lon":139.871536},{"name":"(有)山口商店","province":"東京都","city":"江戸川区","address":"江戸川区東小松川2-23-12","lat":35.694427,"lon":139.866165},{"name":"(株)上田紙業","province":"東京都","city":"江戸川区","address":"江戸川区上篠崎4-15-5","lat":35.707611,"lon":139.898926},{"name":"(有)牧野商店","province":"東京都","city":"江戸川区","address":"江戸川区篠崎町8-13-11","lat":35.705566,"lon":139.898376},{"name":"(株)坪野谷紙業  江戸川事業所","province":"東京都","city":"江戸川区","address":"江戸川区松江7-15-2","lat":35.691669,"lon":139.874008},{"name":"(株)須賀  船堀営業所","province":"東京都","city":"江戸川区","address":"江戸川区船堀3-9-20","lat":35.681896,"lon":139.865479},{"name":"(株)須賀  東小松川営業所","province":"東京都","city":"江戸川区","address":"江戸川区東小松川4-18-20","lat":35.687618,"lon":139.862045},{"name":"三東運輸(株)  エコプラント","province":"東京都","city":"江戸川区","address":"江戸川区篠崎町5-6-8","lat":35.70369,"lon":139.906052},{"name":"(株)乙  江戸川営業所","province":"東京都","city":"江戸川区","address":"江戸川区松江6-5-5","lat":35.687317,"lon":139.871521},{"name":"(株)浜田  東京リサイクルセンター","province":"東京都","city":"江戸川区","address":"江戸川区松江5-22-21","lat":35.686195,"lon":139.868637},{"name":"(有)太田商店  東京リサイクル工場","province":"東京都","city":"江戸川区","address":"江戸川区大杉5-31-15","lat":35.712456,"lon":139.878754},{"name":"中央鉄鋼（有）","province":"東京都","city":"江戸川区","address":"江戸川区西葛西8-20-198-20-1","lat":35.658245,"lon":139.862839},{"name":"葛西海浜公園","province":"東京都","city":"江戸川区","address":"東京都江戸川区臨海町六丁目地先","lat":35.640708,"lon":139.855249},{"name":"宇喜田公園","province":"東京都","city":"江戸川区","address":"東京都江戸川区北葛西三丁目・宇喜田町","lat":35.674423,"lon":139.860592},{"name":"葛西臨海公園","province":"東京都","city":"江戸川区","address":"東京都江戸川区臨海町六丁目","lat":35.642245,"lon":139.860296},{"name":"篠崎公園","province":"東京都","city":"江戸川区","address":"東京都江戸川区上篠崎一・四・八丁目、篠崎町六・七・八丁目、西篠崎一・二丁目、谷河内二丁目、南篠崎町四丁目、鹿骨町","lat":35.715629,"lon":139.899176},{"name":"(株)中島商店","province":"東京都","city":"江戸川区","address":"江戸川区大杉2-22-12","lat":35.702911,"lon":139.880539},{"name":"(株)鈴亀","province":"東京都","city":"江戸川区","address":"江戸川区中央1-17-19","lat":35.705864,"lon":139.870163},{"name":"(有)フルカワ","province":"東京都","city":"江戸川区","address":"江戸川区南篠崎町4-23-4","lat":35.699673,"lon":139.902283},{"name":"鐵甲金属(株)","province":"東京都","city":"江戸川区","address":"江戸川区大杉4-29-17","lat":35.711552,"lon":139.881821},{"name":"(株)春江","province":"東京都","city":"江戸川区","address":"江戸川区松江4-24-10","lat":35.689644,"lon":139.870438},{"name":"(有)福田川商店","province":"東京都","city":"江戸川区","address":"江戸川区南小岩5-3-14","lat":35.723526,"lon":139.879807},{"name":"ｶﾜﾊﾗﾒﾀﾙ(株)","province":"東京都","city":"江戸川区","address":"江戸川区篠崎町4-17-1","lat":35.699566,"lon":139.908569},{"name":"(株)伊藤信司商店  京葉営業所","province":"東京都","city":"江戸川区","address":"江戸川区南篠崎町4-23-22","lat":35.699673,"lon":139.902283},{"name":"(株)ヤハギ環境","province":"東京都","city":"江戸川区","address":"江戸川区南葛西2-18-7","lat":35.655132,"lon":139.875214},{"name":"(株)日成ストマック･トーキョー  本社工場","province":"東京都","city":"江戸川区","address":"江戸川区東葛西3-17-15","lat":35.668476,"lon":139.885406},{"name":"(株)オグラ","province":"東京都","city":"江戸川区","address":"江戸川区松江4-29-1","lat":35.691471,"lon":139.871536},{"name":"(有)山口商店","province":"東京都","city":"江戸川区","address":"江戸川区東小松川2-23-12","lat":35.694427,"lon":139.866165},{"name":"(株)上田紙業","province":"東京都","city":"江戸川区","address":"江戸川区上篠崎4-15-5","lat":35.707611,"lon":139.898926},{"name":"(有)牧野商店","province":"東京都","city":"江戸川区","address":"江戸川区篠崎町8-13-11","lat":35.705566,"lon":139.898376},{"name":"(株)坪野谷紙業  江戸川事業所","province":"東京都","city":"江戸川区","address":"江戸川区松江7-15-2","lat":35.691669,"lon":139.874008},{"name":"(株)須賀  船堀営業所","province":"東京都","city":"江戸川区","address":"江戸川区船堀3-9-20","lat":35.681896,"lon":139.865479},{"name":"(株)須賀  東小松川営業所","province":"東京都","city":"江戸川区","address":"江戸川区東小松川4-18-20","lat":35.687618,"lon":139.862045},{"name":"三東運輸(株)  エコプラント","province":"東京都","city":"江戸川区","address":"江戸川区篠崎町5-6-8","lat":35.70369,"lon":139.906052},{"name":"(株)乙  江戸川営業所","province":"東京都","city":"江戸川区","address":"江戸川区松江6-5-5","lat":35.687317,"lon":139.871521},{"name":"(株)浜田  東京リサイクルセンター","province":"東京都","city":"江戸川区","address":"江戸川区松江5-22-21","lat":35.686195,"lon":139.868637},{"name":"(有)太田商店  東京リサイクル工場","province":"東京都","city":"江戸川区","address":"江戸川区大杉5-31-15","lat":35.712456,"lon":139.878754},{"name":"中央鉄鋼（有）","province":"東京都","city":"江戸川区","address":"江戸川区西葛西8-20-198-20-1","lat":35.658245,"lon":139.862839},{"name":"葛西海浜公園","province":"東京都","city":"江戸川区","address":"東京都江戸川区臨海町六丁目地先","lat":35.640708,"lon":139.855249},{"name":"宇喜田公園","province":"東京都","city":"江戸川区","address":"東京都江戸川区北葛西三丁目・宇喜田町","lat":35.674423,"lon":139.860592},{"name":"葛西臨海公園","province":"東京都","city":"江戸川区","address":"東京都江戸川区臨海町六丁目","lat":35.642245,"lon":139.860296},{"name":"篠崎公園","province":"東京都","city":"江戸川区","address":"東京都江戸川区上篠崎一・四・八丁目、篠崎町六・七・八丁目、西篠崎一・二丁目、谷河内二丁目、南篠崎町四丁目、鹿骨町","lat":35.715629,"lon":139.899176},{"name":"(株)中島商店","province":"東京都","city":"江戸川区","address":"江戸川区大杉2-22-12","lat":35.702911,"lon":139.880539},{"name":"(株)鈴亀","province":"東京都","city":"江戸川区","address":"江戸川区中央1-17-19","lat":35.705864,"lon":139.870163},{"name":"(有)フルカワ","province":"東京都","city":"江戸川区","address":"江戸川区南篠崎町4-23-4","lat":35.699673,"lon":139.902283},{"name":"鐵甲金属(株)","province":"東京都","city":"江戸川区","address":"江戸川区大杉4-29-17","lat":35.711552,"lon":139.881821},{"name":"(株)春江","province":"東京都","city":"江戸川区","address":"江戸川区松江4-24-10","lat":35.689644,"lon":139.870438},{"name":"(有)福田川商店","province":"東京都","city":"江戸川区","address":"江戸川区南小岩5-3-14","lat":35.723526,"lon":139.879807},{"name":"ｶﾜﾊﾗﾒﾀﾙ(株)","province":"東京都","city":"江戸川区","address":"江戸川区篠崎町4-17-1","lat":35.699566,"lon":139.908569},{"name":"(株)伊藤信司商店  京葉営業所","province":"東京都","city":"江戸川区","address":"江戸川区南篠崎町4-23-22","lat":35.699673,"lon":139.902283},{"name":"(株)ヤハギ環境","province":"東京都","city":"江戸川区","address":"江戸川区南葛西2-18-7","lat":35.655132,"lon":139.875214},{"name":"(株)日成ストマック･トーキョー  本社工場","province":"東京都","city":"江戸川区","address":"江戸川区東葛西3-17-15","lat":35.668476,"lon":139.885406},{"name":"(株)オグラ","province":"東京都","city":"江戸川区","address":"江戸川区松江4-29-1","lat":35.691471,"lon":139.871536},{"name":"(有)山口商店","province":"東京都","city":"江戸川区","address":"江戸川区東小松川2-23-12","lat":35.694427,"lon":139.866165},{"name":"(株)上田紙業","province":"東京都","city":"江戸川区","address":"江戸川区上篠崎4-15-5","lat":35.707611,"lon":139.898926},{"name":"(有)牧野商店","province":"東京都","city":"江戸川区","address":"江戸川区篠崎町8-13-11","lat":35.705566,"lon":139.898376},{"name":"(株)坪野谷紙業  江戸川事業所","province":"東京都","city":"江戸川区","address":"江戸川区松江7-15-2","lat":35.691669,"lon":139.874008},{"name":"(株)須賀  船堀営業所","province":"東京都","city":"江戸川区","address":"江戸川区船堀3-9-20","lat":35.681896,"lon":139.865479},{"name":"(株)須賀  東小松川営業所","province":"東京都","city":"江戸川区","address":"江戸川区東小松川4-18-20","lat":35.687618,"lon":139.862045},{"name":"三東運輸(株)  エコプラント","province":"東京都","city":"江戸川区","address":"江戸川区篠崎町5-6-8","lat":35.70369,"lon":139.906052},{"name":"(株)乙  江戸川営業所","province":"東京都","city":"江戸川区","address":"江戸川区松江6-5-5","lat":35.687317,"lon":139.871521},{"name":"(株)浜田  東京リサイクルセンター","province":"東京都","city":"江戸川区","address":"江戸川区松江5-22-21","lat":35.686195,"lon":139.868637},{"name":"(有)太田商店  東京リサイクル工場","province":"東京都","city":"江戸川区","address":"江戸川区大杉5-31-15","lat":35.712456,"lon":139.878754},{"name":"中央鉄鋼（有）","province":"東京都","city":"江戸川区","address":"江戸川区西葛西8-20-198-20-1","lat":35.658245,"lon":139.862839},{"name":"葛西海浜公園","province":"東京都","city":"江戸川区","address":"東京都江戸川区臨海町六丁目地先","lat":35.640708,"lon":139.855249},{"name":"宇喜田公園","province":"東京都","city":"江戸川区","address":"東京都江戸川区北葛西三丁目・宇喜田町","lat":35.674423,"lon":139.860592},{"name":"葛西臨海公園","province":"東京都","city":"江戸川区","address":"東京都江戸川区臨海町六丁目","lat":35.642245,"lon":139.860296},{"name":"篠崎公園","province":"東京都","city":"江戸川区","address":"東京都江戸川区上篠崎一・四・八丁目、篠崎町六・七・八丁目、西篠崎一・二丁目、谷河内二丁目、南篠崎町四丁目、鹿骨町","lat":35.715629,"lon":139.899176},{"name":"(株)中島商店","province":"東京都","city":"江戸川区","address":"江戸川区大杉2-22-12","lat":35.702911,"lon":139.880539},{"name":"(株)鈴亀","province":"東京都","city":"江戸川区","address":"江戸川区中央1-17-19","lat":35.705864,"lon":139.870163},{"name":"(有)フルカワ","province":"東京都","city":"江戸川区","address":"江戸川区南篠崎町4-23-4","lat":35.699673,"lon":139.902283},{"name":"鐵甲金属(株)","province":"東京都","city":"江戸川区","address":"江戸川区大杉4-29-17","lat":35.711552,"lon":139.881821},{"name":"(株)春江","province":"東京都","city":"江戸川区","address":"江戸川区松江4-24-10","lat":35.689644,"lon":139.870438},{"name":"(有)福田川商店","province":"東京都","city":"江戸川区","address":"江戸川区南小岩5-3-14","lat":35.723526,"lon":139.879807},{"name":"ｶﾜﾊﾗﾒﾀﾙ(株)","province":"東京都","city":"江戸川区","address":"江戸川区篠崎町4-17-1","lat":35.699566,"lon":139.908569},{"name":"(株)伊藤信司商店  京葉営業所","province":"東京都","city":"江戸川区","address":"江戸川区南篠崎町4-23-22","lat":35.699673,"lon":139.902283},{"name":"(株)ヤハギ環境","province":"東京都","city":"江戸川区","address":"江戸川区南葛西2-18-7","lat":35.655132,"lon":139.875214},{"name":"(株)日成ストマック･トーキョー  本社工場","province":"東京都","city":"江戸川区","address":"江戸川区東葛西3-17-15","lat":35.668476,"lon":139.885406},{"name":"(株)オグラ","province":"東京都","city":"江戸川区","address":"江戸川区松江4-29-1","lat":35.691471,"lon":139.871536},{"name":"(有)山口商店","province":"東京都","city":"江戸川区","address":"江戸川区東小松川2-23-12","lat":35.694427,"lon":139.866165},{"name":"(株)上田紙業","province":"東京都","city":"江戸川区","address":"江戸川区上篠崎4-15-5","lat":35.707611,"lon":139.898926},{"name":"(有)牧野商店","province":"東京都","city":"江戸川区","address":"江戸川区篠崎町8-13-11","lat":35.705566,"lon":139.898376},{"name":"(株)坪野谷紙業  江戸川事業所","province":"東京都","city":"江戸川区","address":"江戸川区松江7-15-2","lat":35.691669,"lon":139.874008},{"name":"(株)須賀  船堀営業所","province":"東京都","city":"江戸川区","address":"江戸川区船堀3-9-20","lat":35.681896,"lon":139.865479},{"name":"(株)須賀  東小松川営業所","province":"東京都","city":"江戸川区","address":"江戸川区東小松川4-18-20","lat":35.687618,"lon":139.862045},{"name":"三東運輸(株)  エコプラント","province":"東京都","city":"江戸川区","address":"江戸川区篠崎町5-6-8","lat":35.70369,"lon":139.906052},{"name":"(株)乙  江戸川営業所","province":"東京都","city":"江戸川区","address":"江戸川区松江6-5-5","lat":35.687317,"lon":139.871521},{"name":"(株)浜田  東京リサイクルセンター","province":"東京都","city":"江戸川区","address":"江戸川区松江5-22-21","lat":35.686195,"lon":139.868637},{"name":"(有)太田商店  東京リサイクル工場","province":"東京都","city":"江戸川区","address":"江戸川区大杉5-31-15","lat":35.712456,"lon":139.878754},{"name":"中央鉄鋼（有）","province":"東京都","city":"江戸川区","address":"江戸川区西葛西8-20-198-20-1","lat":35.658245,"lon":139.862839},{"name":"葛西海浜公園","province":"東京都","city":"江戸川区","address":"東京都江戸川区臨海町六丁目地先","lat":35.640708,"lon":139.855249},{"name":"宇喜田公園","province":"東京都","city":"江戸川区","address":"東京都江戸川区北葛西三丁目・宇喜田町","lat":35.674423,"lon":139.860592},{"name":"葛西臨海公園","province":"東京都","city":"江戸川区","address":"東京都江戸川区臨海町六丁目","lat":35.642245,"lon":139.860296},{"name":"篠崎公園","province":"東京都","city":"江戸川区","address":"東京都江戸川区上篠崎一・四・八丁目、篠崎町六・七・八丁目、西篠崎一・二丁目、谷河内二丁目、南篠崎町四丁目、鹿骨町","lat":35.715629,"lon":139.899176},{"name":"(株)中島商店","province":"東京都","city":"江戸川区","address":"江戸川区大杉2-22-12","lat":35.702911,"lon":139.880539},{"name":"(株)鈴亀","province":"東京都","city":"江戸川区","address":"江戸川区中央1-17-19","lat":35.705864,"lon":139.870163},{"name":"(有)フルカワ","province":"東京都","city":"江戸川区","address":"江戸川区南篠崎町4-23-4","lat":35.699673,"lon":139.902283},{"name":"鐵甲金属(株)","province":"東京都","city":"江戸川区","address":"江戸川区大杉4-29-17","lat":35.711552,"lon":139.881821},{"name":"(株)春江","province":"東京都","city":"江戸川区","address":"江戸川区松江4-24-10","lat":35.689644,"lon":139.870438},{"name":"(有)福田川商店","province":"東京都","city":"江戸川区","address":"江戸川区南小岩5-3-14","lat":35.723526,"lon":139.879807},{"name":"ｶﾜﾊﾗﾒﾀﾙ(株)","province":"東京都","city":"江戸川区","address":"江戸川区篠崎町4-17-1","lat":35.699566,"lon":139.908569},{"name":"(株)伊藤信司商店  京葉営業所","province":"東京都","city":"江戸川区","address":"江戸川区南篠崎町4-23-22","lat":35.699673,"lon":139.902283},{"name":"(株)ヤハギ環境","province":"東京都","city":"江戸川区","address":"江戸川区南葛西2-18-7","lat":35.655132,"lon":139.875214},{"name":"(株)日成ストマック･トーキョー  本社工場","province":"東京都","city":"江戸川区","address":"江戸川区東葛西3-17-15","lat":35.668476,"lon":139.885406},{"name":"(株)オグラ","province":"東京都","city":"江戸川区","address":"江戸川区松江4-29-1","lat":35.691471,"lon":139.871536},{"name":"(有)山口商店","province":"東京都","city":"江戸川区","address":"江戸川区東小松川2-23-12","lat":35.694427,"lon":139.866165},{"name":"(株)上田紙業","province":"東京都","city":"江戸川区","address":"江戸川区上篠崎4-15-5","lat":35.707611,"lon":139.898926},{"name":"(有)牧野商店","province":"東京都","city":"江戸川区","address":"江戸川区篠崎町8-13-11","lat":35.705566,"lon":139.898376},{"name":"(株)坪野谷紙業  江戸川事業所","province":"東京都","city":"江戸川区","address":"江戸川区松江7-15-2","lat":35.691669,"lon":139.874008},{"name":"(株)須賀  船堀営業所","province":"東京都","city":"江戸川区","address":"江戸川区船堀3-9-20","lat":35.681896,"lon":139.865479},{"name":"(株)須賀  東小松川営業所","province":"東京都","city":"江戸川区","address":"江戸川区東小松川4-18-20","lat":35.687618,"lon":139.862045},{"name":"三東運輸(株)  エコプラント","province":"東京都","city":"江戸川区","address":"江戸川区篠崎町5-6-8","lat":35.70369,"lon":139.906052},{"name":"(株)乙  江戸川営業所","province":"東京都","city":"江戸川区","address":"江戸川区松江6-5-5","lat":35.687317,"lon":139.871521},{"name":"(株)浜田  東京リサイクルセンター","province":"東京都","city":"江戸川区","address":"江戸川区松江5-22-21","lat":35.686195,"lon":139.868637},{"name":"(有)太田商店  東京リサイクル工場","province":"東京都","city":"江戸川区","address":"江戸川区大杉5-31-15","lat":35.712456,"lon":139.878754},{"name":"中央鉄鋼（有）","province":"東京都","city":"江戸川区","address":"江戸川区西葛西8-20-198-20-1","lat":35.658245,"lon":139.862839},{"name":"葛西海浜公園","province":"東京都","city":"江戸川区","address":"東京都江戸川区臨海町六丁目地先","lat":35.640708,"lon":139.855249},{"name":"宇喜田公園","province":"東京都","city":"江戸川区","address":"東京都江戸川区北葛西三丁目・宇喜田町","lat":35.674423,"lon":139.860592},{"name":"葛西臨海公園","province":"東京都","city":"江戸川区","address":"東京都江戸川区臨海町六丁目","lat":35.642245,"lon":139.860296},{"name":"篠崎公園","province":"東京都","city":"江戸川区","address":"東京都江戸川区上篠崎一・四・八丁目、篠崎町六・七・八丁目、西篠崎一・二丁目、谷河内二丁目、南篠崎町四丁目、鹿骨町","lat":35.715629,"lon":139.899176},{"name":"(株)中島商店","province":"東京都","city":"江戸川区","address":"江戸川区大杉2-22-12","lat":35.702911,"lon":139.880539},{"name":"(株)鈴亀","province":"東京都","city":"江戸川区","address":"江戸川区中央1-17-19","lat":35.705864,"lon":139.870163},{"name":"(有)フルカワ","province":"東京都","city":"江戸川区","address":"江戸川区南篠崎町4-23-4","lat":35.699673,"lon":139.902283},{"name":"鐵甲金属(株)","province":"東京都","city":"江戸川区","address":"江戸川区大杉4-29-17","lat":35.711552,"lon":139.881821},{"name":"(株)春江","province":"東京都","city":"江戸川区","address":"江戸川区松江4-24-10","lat":35.689644,"lon":139.870438},{"name":"(有)福田川商店","province":"東京都","city":"江戸川区","address":"江戸川区南小岩5-3-14","lat":35.723526,"lon":139.879807},{"name":"ｶﾜﾊﾗﾒﾀﾙ(株)","province":"東京都","city":"江戸川区","address":"江戸川区篠崎町4-17-1","lat":35.699566,"lon":139.908569},{"name":"(株)伊藤信司商店  京葉営業所","province":"東京都","city":"江戸川区","address":"江戸川区南篠崎町4-23-22","lat":35.699673,"lon":139.902283},{"name":"(株)ヤハギ環境","province":"東京都","city":"江戸川区","address":"江戸川区南葛西2-18-7","lat":35.655132,"lon":139.875214},{"name":"(株)日成ストマック･トーキョー  本社工場","province":"東京都","city":"江戸川区","address":"江戸川区東葛西3-17-15","lat":35.668476,"lon":139.885406},{"name":"(株)オグラ","province":"東京都","city":"江戸川区","address":"江戸川区松江4-29-1","lat":35.691471,"lon":139.871536},{"name":"(有)山口商店","province":"東京都","city":"江戸川区","address":"江戸川区東小松川2-23-12","lat":35.694427,"lon":139.866165},{"name":"(株)上田紙業","province":"東京都","city":"江戸川区","address":"江戸川区上篠崎4-15-5","lat":35.707611,"lon":139.898926},{"name":"(有)牧野商店","province":"東京都","city":"江戸川区","address":"江戸川区篠崎町8-13-11","lat":35.705566,"lon":139.898376},{"name":"(株)坪野谷紙業  江戸川事業所","province":"東京都","city":"江戸川区","address":"江戸川区松江7-15-2","lat":35.691669,"lon":139.874008},{"name":"(株)須賀  船堀営業所","province":"東京都","city":"江戸川区","address":"江戸川区船堀3-9-20","lat":35.681896,"lon":139.865479},{"name":"(株)須賀  東小松川営業所","province":"東京都","city":"江戸川区","address":"江戸川区東小松川4-18-20","lat":35.687618,"lon":139.862045},{"name":"三東運輸(株)  エコプラント","province":"東京都","city":"江戸川区","address":"江戸川区篠崎町5-6-8","lat":35.70369,"lon":139.906052},{"name":"(株)乙  江戸川営業所","province":"東京都","city":"江戸川区","address":"江戸川区松江6-5-5","lat":35.687317,"lon":139.871521},{"name":"(株)浜田  東京リサイクルセンター","province":"東京都","city":"江戸川区","address":"江戸川区松江5-22-21","lat":35.686195,"lon":139.868637},{"name":"(有)太田商店  東京リサイクル工場","province":"東京都","city":"江戸川区","address":"江戸川区大杉5-31-15","lat":35.712456,"lon":139.878754},{"name":"中央鉄鋼（有）","province":"東京都","city":"江戸川区","address":"江戸川区西葛西8-20-198-20-1","lat":35.658245,"lon":139.862839},{"name":"葛西海浜公園","province":"東京都","city":"江戸川区","address":"東京都江戸川区臨海町六丁目地先","lat":35.640708,"lon":139.855249},{"name":"宇喜田公園","province":"東京都","city":"江戸川区","address":"東京都江戸川区北葛西三丁目・宇喜田町","lat":35.674423,"lon":139.860592},{"name":"葛西臨海公園","province":"東京都","city":"江戸川区","address":"東京都江戸川区臨海町六丁目","lat":35.642245,"lon":139.860296},{"name":"篠崎公園","province":"東京都","city":"江戸川区","address":"東京都江戸川区上篠崎一・四・八丁目、篠崎町六・七・八丁目、西篠崎一・二丁目、谷河内二丁目、南篠崎町四丁目、鹿骨町","lat":35.715629,"lon":139.899176},{"name":"(株)中島商店","province":"東京都","city":"江戸川区","address":"江戸川区大杉2-22-12","lat":35.702911,"lon":139.880539},{"name":"(株)鈴亀","province":"東京都","city":"江戸川区","address":"江戸川区中央1-17-19","lat":35.705864,"lon":139.870163},{"name":"(有)フルカワ","province":"東京都","city":"江戸川区","address":"江戸川区南篠崎町4-23-4","lat":35.699673,"lon":139.902283},{"name":"鐵甲金属(株)","province":"東京都","city":"江戸川区","address":"江戸川区大杉4-29-17","lat":35.711552,"lon":139.881821},{"name":"(株)春江","province":"東京都","city":"江戸川区","address":"江戸川区松江4-24-10","lat":35.689644,"lon":139.870438},{"name":"(有)福田川商店","province":"東京都","city":"江戸川区","address":"江戸川区南小岩5-3-14","lat":35.723526,"lon":139.879807},{"name":"ｶﾜﾊﾗﾒﾀﾙ(株)","province":"東京都","city":"江戸川区","address":"江戸川区篠崎町4-17-1","lat":35.699566,"lon":139.908569},{"name":"(株)伊藤信司商店  京葉営業所","province":"東京都","city":"江戸川区","address":"江戸川区南篠崎町4-23-22","lat":35.699673,"lon":139.902283},{"name":"(株)ヤハギ環境","province":"東京都","city":"江戸川区","address":"江戸川区南葛西2-18-7","lat":35.655132,"lon":139.875214},{"name":"(株)日成ストマック･トーキョー  本社工場","province":"東京都","city":"江戸川区","address":"江戸川区東葛西3-17-15","lat":35.668476,"lon":139.885406},{"name":"(株)オグラ","province":"東京都","city":"江戸川区","address":"江戸川区松江4-29-1","lat":35.691471,"lon":139.871536},{"name":"(有)山口商店","province":"東京都","city":"江戸川区","address":"江戸川区東小松川2-23-12","lat":35.694427,"lon":139.866165},{"name":"(株)上田紙業","province":"東京都","city":"江戸川区","address":"江戸川区上篠崎4-15-5","lat":35.707611,"lon":139.898926},{"name":"(有)牧野商店","province":"東京都","city":"江戸川区","address":"江戸川区篠崎町8-13-11","lat":35.705566,"lon":139.898376},{"name":"(株)坪野谷紙業  江戸川事業所","province":"東京都","city":"江戸川区","address":"江戸川区松江7-15-2","lat":35.691669,"lon":139.874008},{"name":"(株)須賀  船堀営業所","province":"東京都","city":"江戸川区","address":"江戸川区船堀3-9-20","lat":35.681896,"lon":139.865479},{"name":"(株)須賀  東小松川営業所","province":"東京都","city":"江戸川区","address":"江戸川区東小松川4-18-20","lat":35.687618,"lon":139.862045},{"name":"三東運輸(株)  エコプラント","province":"東京都","city":"江戸川区","address":"江戸川区篠崎町5-6-8","lat":35.70369,"lon":139.906052},{"name":"(株)乙  江戸川営業所","province":"東京都","city":"江戸川区","address":"江戸川区松江6-5-5","lat":35.687317,"lon":139.871521},{"name":"(株)浜田  東京リサイクルセンター","province":"東京都","city":"江戸川区","address":"江戸川区松江5-22-21","lat":35.686195,"lon":139.868637},{"name":"(有)太田商店  東京リサイクル工場","province":"東京都","city":"江戸川区","address":"江戸川区大杉5-31-15","lat":35.712456,"lon":139.878754},{"name":"中央鉄鋼（有）","province":"東京都","city":"江戸川区","address":"江戸川区西葛西8-20-198-20-1","lat":35.658245,"lon":139.862839},{"name":"葛西海浜公園","province":"東京都","city":"江戸川区","address":"東京都江戸川区臨海町六丁目地先","lat":35.640708,"lon":139.855249},{"name":"宇喜田公園","province":"東京都","city":"江戸川区","address":"東京都江戸川区北葛西三丁目・宇喜田町","lat":35.674423,"lon":139.860592},{"name":"葛西臨海公園","province":"東京都","city":"江戸川区","address":"東京都江戸川区臨海町六丁目","lat":35.642245,"lon":139.860296},{"name":"篠崎公園","province":"東京都","city":"江戸川区","address":"東京都江戸川区上篠崎一・四・八丁目、篠崎町六・七・八丁目、西篠崎一・二丁目、谷河内二丁目、南篠崎町四丁目、鹿骨町","lat":35.715629,"lon":139.899176},{"name":"(株)中島商店","province":"東京都","city":"江戸川区","address":"江戸川区大杉2-22-12","lat":35.702911,"lon":139.880539},{"name":"(株)鈴亀","province":"東京都","city":"江戸川区","address":"江戸川区中央1-17-19","lat":35.705864,"lon":139.870163},{"name":"(有)フルカワ","province":"東京都","city":"江戸川区","address":"江戸川区南篠崎町4-23-4","lat":35.699673,"lon":139.902283},{"name":"鐵甲金属(株)","province":"東京都","city":"江戸川区","address":"江戸川区大杉4-29-17","lat":35.711552,"lon":139.881821},{"name":"(株)春江","province":"東京都","city":"江戸川区","address":"江戸川区松江4-24-10","lat":35.689644,"lon":139.870438},{"name":"(有)福田川商店","province":"東京都","city":"江戸川区","address":"江戸川区南小岩5-3-14","lat":35.723526,"lon":139.879807},{"name":"ｶﾜﾊﾗﾒﾀﾙ(株)","province":"東京都","city":"江戸川区","address":"江戸川区篠崎町4-17-1","lat":35.699566,"lon":139.908569},{"name":"(株)伊藤信司商店  京葉営業所","province":"東京都","city":"江戸川区","address":"江戸川区南篠崎町4-23-22","lat":35.699673,"lon":139.902283},{"name":"(株)ヤハギ環境","province":"東京都","city":"江戸川区","address":"江戸川区南葛西2-18-7","lat":35.655132,"lon":139.875214},{"name":"(株)日成ストマック･トーキョー  本社工場","province":"東京都","city":"江戸川区","address":"江戸川区東葛西3-17-15","lat":35.668476,"lon":139.885406},{"name":"(株)オグラ","province":"東京都","city":"江戸川区","address":"江戸川区松江4-29-1","lat":35.691471,"lon":139.871536},{"name":"(有)山口商店","province":"東京都","city":"江戸川区","address":"江戸川区東小松川2-23-12","lat":35.694427,"lon":139.866165},{"name":"(株)上田紙業","province":"東京都","city":"江戸川区","address":"江戸川区上篠崎4-15-5","lat":35.707611,"lon":139.898926},{"name":"(有)牧野商店","province":"東京都","city":"江戸川区","address":"江戸川区篠崎町8-13-11","lat":35.705566,"lon":139.898376},{"name":"(株)坪野谷紙業  江戸川事業所","province":"東京都","city":"江戸川区","address":"江戸川区松江7-15-2","lat":35.691669,"lon":139.874008},{"name":"(株)須賀  船堀営業所","province":"東京都","city":"江戸川区","address":"江戸川区船堀3-9-20","lat":35.681896,"lon":139.865479},{"name":"(株)須賀  東小松川営業所","province":"東京都","city":"江戸川区","address":"江戸川区東小松川4-18-20","lat":35.687618,"lon":139.862045},{"name":"三東運輸(株)  エコプラント","province":"東京都","city":"江戸川区","address":"江戸川区篠崎町5-6-8","lat":35.70369,"lon":139.906052},{"name":"(株)乙  江戸川営業所","province":"東京都","city":"江戸川区","address":"江戸川区松江6-5-5","lat":35.687317,"lon":139.871521},{"name":"(株)浜田  東京リサイクルセンター","province":"東京都","city":"江戸川区","address":"江戸川区松江5-22-21","lat":35.686195,"lon":139.868637},{"name":"(有)太田商店  東京リサイクル工場","province":"東京都","city":"江戸川区","address":"江戸川区大杉5-31-15","lat":35.712456,"lon":139.878754},{"name":"中央鉄鋼（有）","province":"東京都","city":"江戸川区","address":"江戸川区西葛西8-20-198-20-1","lat":35.658245,"lon":139.862839},{"name":"葛西海浜公園","province":"東京都","city":"江戸川区","address":"東京都江戸川区臨海町六丁目地先","lat":35.640708,"lon":139.855249},{"name":"宇喜田公園","province":"東京都","city":"江戸川区","address":"東京都江戸川区北葛西三丁目・宇喜田町","lat":35.674423,"lon":139.860592},{"name":"葛西臨海公園","province":"東京都","city":"江戸川区","address":"東京都江戸川区臨海町六丁目","lat":35.642245,"lon":139.860296},{"name":"篠崎公園","province":"東京都","city":"江戸川区","address":"東京都江戸川区上篠崎一・四・八丁目、篠崎町六・七・八丁目、西篠崎一・二丁目、谷河内二丁目、南篠崎町四丁目、鹿骨町","lat":35.715629,"lon":139.899176},{"name":"(株)中島商店","province":"東京都","city":"江戸川区","address":"江戸川区大杉2-22-12","lat":35.702911,"lon":139.880539},{"name":"(株)鈴亀","province":"東京都","city":"江戸川区","address":"江戸川区中央1-17-19","lat":35.705864,"lon":139.870163},{"name":"(有)フルカワ","province":"東京都","city":"江戸川区","address":"江戸川区南篠崎町4-23-4","lat":35.699673,"lon":139.902283},{"name":"鐵甲金属(株)","province":"東京都","city":"江戸川区","address":"江戸川区大杉4-29-17","lat":35.711552,"lon":139.881821},{"name":"(株)春江","province":"東京都","city":"江戸川区","address":"江戸川区松江4-24-10","lat":35.689644,"lon":139.870438},{"name":"(有)福田川商店","province":"東京都","city":"江戸川区","address":"江戸川区南小岩5-3-14","lat":35.723526,"lon":139.879807},{"name":"ｶﾜﾊﾗﾒﾀﾙ(株)","province":"東京都","city":"江戸川区","address":"江戸川区篠崎町4-17-1","lat":35.699566,"lon":139.908569},{"name":"(株)伊藤信司商店  京葉営業所","province":"東京都","city":"江戸川区","address":"江戸川区南篠崎町4-23-22","lat":35.699673,"lon":139.902283},{"name":"(株)ヤハギ環境","province":"東京都","city":"江戸川区","address":"江戸川区南葛西2-18-7","lat":35.655132,"lon":139.875214},{"name":"(株)日成ストマック･トーキョー  本社工場","province":"東京都","city":"江戸川区","address":"江戸川区東葛西3-17-15","lat":35.668476,"lon":139.885406},{"name":"(株)オグラ","province":"東京都","city":"江戸川区","address":"江戸川区松江4-29-1","lat":35.691471,"lon":139.871536},{"name":"(有)山口商店","province":"東京都","city":"江戸川区","address":"江戸川区東小松川2-23-12","lat":35.694427,"lon":139.866165},{"name":"(株)上田紙業","province":"東京都","city":"江戸川区","address":"江戸川区上篠崎4-15-5","lat":35.707611,"lon":139.898926},{"name":"(有)牧野商店","province":"東京都","city":"江戸川区","address":"江戸川区篠崎町8-13-11","lat":35.705566,"lon":139.898376},{"name":"(株)坪野谷紙業  江戸川事業所","province":"東京都","city":"江戸川区","address":"江戸川区松江7-15-2","lat":35.691669,"lon":139.874008},{"name":"(株)須賀  船堀営業所","province":"東京都","city":"江戸川区","address":"江戸川区船堀3-9-20","lat":35.681896,"lon":139.865479},{"name":"(株)須賀  東小松川営業所","province":"東京都","city":"江戸川区","address":"江戸川区東小松川4-18-20","lat":35.687618,"lon":139.862045},{"name":"三東運輸(株)  エコプラント","province":"東京都","city":"江戸川区","address":"江戸川区篠崎町5-6-8","lat":35.70369,"lon":139.906052},{"name":"(株)乙  江戸川営業所","province":"東京都","city":"江戸川区","address":"江戸川区松江6-5-5","lat":35.687317,"lon":139.871521},{"name":"(株)浜田  東京リサイクルセンター","province":"東京都","city":"江戸川区","address":"江戸川区松江5-22-21","lat":35.686195,"lon":139.868637},{"name":"(有)太田商店  東京リサイクル工場","province":"東京都","city":"江戸川区","address":"江戸川区大杉5-31-15","lat":35.712456,"lon":139.878754},{"name":"中央鉄鋼（有）","province":"東京都","city":"江戸川区","address":"江戸川区西葛西8-20-198-20-1","lat":35.658245,"lon":139.862839},{"name":"葛西海浜公園","province":"東京都","city":"江戸川区","address":"東京都江戸川区臨海町六丁目地先","lat":35.640708,"lon":139.855249},{"name":"宇喜田公園","province":"東京都","city":"江戸川区","address":"東京都江戸川区北葛西三丁目・宇喜田町","lat":35.674423,"lon":139.860592},{"name":"葛西臨海公園","province":"東京都","city":"江戸川区","address":"東京都江戸川区臨海町六丁目","lat":35.642245,"lon":139.860296},{"name":"篠崎公園","province":"東京都","city":"江戸川区","address":"東京都江戸川区上篠崎一・四・八丁目、篠崎町六・七・八丁目、西篠崎一・二丁目、谷河内二丁目、南篠崎町四丁目、鹿骨町","lat":35.715629,"lon":139.899176},{"name":"(株)中島商店","province":"東京都","city":"江戸川区","address":"江戸川区大杉2-22-12","lat":35.702911,"lon":139.880539},{"name":"(株)鈴亀","province":"東京都","city":"江戸川区","address":"江戸川区中央1-17-19","lat":35.705864,"lon":139.870163},{"name":"(有)フルカワ","province":"東京都","city":"江戸川区","address":"江戸川区南篠崎町4-23-4","lat":35.699673,"lon":139.902283},{"name":"鐵甲金属(株)","province":"東京都","city":"江戸川区","address":"江戸川区大杉4-29-17","lat":35.711552,"lon":139.881821},{"name":"(株)春江","province":"東京都","city":"江戸川区","address":"江戸川区松江4-24-10","lat":35.689644,"lon":139.870438},{"name":"(有)福田川商店","province":"東京都","city":"江戸川区","address":"江戸川区南小岩5-3-14","lat":35.723526,"lon":139.879807},{"name":"ｶﾜﾊﾗﾒﾀﾙ(株)","province":"東京都","city":"江戸川区","address":"江戸川区篠崎町4-17-1","lat":35.699566,"lon":139.908569},{"name":"(株)伊藤信司商店  京葉営業所","province":"東京都","city":"江戸川区","address":"江戸川区南篠崎町4-23-22","lat":35.699673,"lon":139.902283},{"name":"(株)ヤハギ環境","province":"東京都","city":"江戸川区","address":"江戸川区南葛西2-18-7","lat":35.655132,"lon":139.875214},{"name":"(株)日成ストマック･トーキョー  本社工場","province":"東京都","city":"江戸川区","address":"江戸川区東葛西3-17-15","lat":35.668476,"lon":139.885406},{"name":"(株)オグラ","province":"東京都","city":"江戸川区","address":"江戸川区松江4-29-1","lat":35.691471,"lon":139.871536},{"name":"(有)山口商店","province":"東京都","city":"江戸川区","address":"江戸川区東小松川2-23-12","lat":35.694427,"lon":139.866165},{"name":"(株)上田紙業","province":"東京都","city":"江戸川区","address":"江戸川区上篠崎4-15-5","lat":35.707611,"lon":139.898926},{"name":"(有)牧野商店","province":"東京都","city":"江戸川区","address":"江戸川区篠崎町8-13-11","lat":35.705566,"lon":139.898376},{"name":"(株)坪野谷紙業  江戸川事業所","province":"東京都","city":"江戸川区","address":"江戸川区松江7-15-2","lat":35.691669,"lon":139.874008},{"name":"(株)須賀  船堀営業所","province":"東京都","city":"江戸川区","address":"江戸川区船堀3-9-20","lat":35.681896,"lon":139.865479},{"name":"(株)須賀  東小松川営業所","province":"東京都","city":"江戸川区","address":"江戸川区東小松川4-18-20","lat":35.687618,"lon":139.862045},{"name":"三東運輸(株)  エコプラント","province":"東京都","city":"江戸川区","address":"江戸川区篠崎町5-6-8","lat":35.70369,"lon":139.906052},{"name":"(株)乙  江戸川営業所","province":"東京都","city":"江戸川区","address":"江戸川区松江6-5-5","lat":35.687317,"lon":139.871521},{"name":"(株)浜田  東京リサイクルセンター","province":"東京都","city":"江戸川区","address":"江戸川区松江5-22-21","lat":35.686195,"lon":139.868637},{"name":"(有)太田商店  東京リサイクル工場","province":"東京都","city":"江戸川区","address":"江戸川区大杉5-31-15","lat":35.712456,"lon":139.878754},{"name":"中央鉄鋼（有）","province":"東京都","city":"江戸川区","address":"江戸川区西葛西8-20-198-20-1","lat":35.658245,"lon":139.862839},{"name":"葛西海浜公園","province":"東京都","city":"江戸川区","address":"東京都江戸川区臨海町六丁目地先","lat":35.640708,"lon":139.855249},{"name":"宇喜田公園","province":"東京都","city":"江戸川区","address":"東京都江戸川区北葛西三丁目・宇喜田町","lat":35.674423,"lon":139.860592},{"name":"葛西臨海公園","province":"東京都","city":"江戸川区","address":"東京都江戸川区臨海町六丁目","lat":35.642245,"lon":139.860296},{"name":"篠崎公園","province":"東京都","city":"江戸川区","address":"東京都江戸川区上篠崎一・四・八丁目、篠崎町六・七・八丁目、西篠崎一・二丁目、谷河内二丁目、南篠崎町四丁目、鹿骨町","lat":35.715629,"lon":139.899176},{"name":"(株)中島商店","province":"東京都","city":"江戸川区","address":"江戸川区大杉2-22-12","lat":35.702911,"lon":139.880539},{"name":"(株)鈴亀","province":"東京都","city":"江戸川区","address":"江戸川区中央1-17-19","lat":35.705864,"lon":139.870163},{"name":"(有)フルカワ","province":"東京都","city":"江戸川区","address":"江戸川区南篠崎町4-23-4","lat":35.699673,"lon":139.902283},{"name":"鐵甲金属(株)","province":"東京都","city":"江戸川区","address":"江戸川区大杉4-29-17","lat":35.711552,"lon":139.881821},{"name":"(株)春江","province":"東京都","city":"江戸川区","address":"江戸川区松江4-24-10","lat":35.689644,"lon":139.870438},{"name":"(有)福田川商店","province":"東京都","city":"江戸川区","address":"江戸川区南小岩5-3-14","lat":35.723526,"lon":139.879807},{"name":"ｶﾜﾊﾗﾒﾀﾙ(株)","province":"東京都","city":"江戸川区","address":"江戸川区篠崎町4-17-1","lat":35.699566,"lon":139.908569},{"name":"(株)伊藤信司商店  京葉営業所","province":"東京都","city":"江戸川区","address":"江戸川区南篠崎町4-23-22","lat":35.699673,"lon":139.902283},{"name":"(株)ヤハギ環境","province":"東京都","city":"江戸川区","address":"江戸川区南葛西2-18-7","lat":35.655132,"lon":139.875214},{"name":"(株)日成ストマック･トーキョー  本社工場","province":"東京都","city":"江戸川区","address":"江戸川区東葛西3-17-15","lat":35.668476,"lon":139.885406},{"name":"(株)オグラ","province":"東京都","city":"江戸川区","address":"江戸川区松江4-29-1","lat":35.691471,"lon":139.871536},{"name":"(有)山口商店","province":"東京都","city":"江戸川区","address":"江戸川区東小松川2-23-12","lat":35.694427,"lon":139.866165},{"name":"(株)上田紙業","province":"東京都","city":"江戸川区","address":"江戸川区上篠崎4-15-5","lat":35.707611,"lon":139.898926},{"name":"(有)牧野商店","province":"東京都","city":"江戸川区","address":"江戸川区篠崎町8-13-11","lat":35.705566,"lon":139.898376},{"name":"(株)坪野谷紙業  江戸川事業所","province":"東京都","city":"江戸川区","address":"江戸川区松江7-15-2","lat":35.691669,"lon":139.874008},{"name":"(株)須賀  船堀営業所","province":"東京都","city":"江戸川区","address":"江戸川区船堀3-9-20","lat":35.681896,"lon":139.865479},{"name":"(株)須賀  東小松川営業所","province":"東京都","city":"江戸川区","address":"江戸川区東小松川4-18-20","lat":35.687618,"lon":139.862045},{"name":"三東運輸(株)  エコプラント","province":"東京都","city":"江戸川区","address":"江戸川区篠崎町5-6-8","lat":35.70369,"lon":139.906052},{"name":"(株)乙  江戸川営業所","province":"東京都","city":"江戸川区","address":"江戸川区松江6-5-5","lat":35.687317,"lon":139.871521},{"name":"(株)浜田  東京リサイクルセンター","province":"東京都","city":"江戸川区","address":"江戸川区松江5-22-21","lat":35.686195,"lon":139.868637},{"name":"(有)太田商店  東京リサイクル工場","province":"東京都","city":"江戸川区","address":"江戸川区大杉5-31-15","lat":35.712456,"lon":139.878754},{"name":"中央鉄鋼（有）","province":"東京都","city":"江戸川区","address":"江戸川区西葛西8-20-198-20-1","lat":35.658245,"lon":139.862839},{"name":"葛西海浜公園","province":"東京都","city":"江戸川区","address":"東京都江戸川区臨海町六丁目地先","lat":35.640708,"lon":139.855249},{"name":"宇喜田公園","province":"東京都","city":"江戸川区","address":"東京都江戸川区北葛西三丁目・宇喜田町","lat":35.674423,"lon":139.860592},{"name":"葛西臨海公園","province":"東京都","city":"江戸川区","address":"東京都江戸川区臨海町六丁目","lat":35.642245,"lon":139.860296},{"name":"篠崎公園","province":"東京都","city":"江戸川区","address":"東京都江戸川区上篠崎一・四・八丁目、篠崎町六・七・八丁目、西篠崎一・二丁目、谷河内二丁目、南篠崎町四丁目、鹿骨町","lat":35.715629,"lon":139.899176},{"name":"(株)中島商店","province":"東京都","city":"江戸川区","address":"江戸川区大杉2-22-12","lat":35.702911,"lon":139.880539},{"name":"(株)鈴亀","province":"東京都","city":"江戸川区","address":"江戸川区中央1-17-19","lat":35.705864,"lon":139.870163},{"name":"(有)フルカワ","province":"東京都","city":"江戸川区","address":"江戸川区南篠崎町4-23-4","lat":35.699673,"lon":139.902283},{"name":"鐵甲金属(株)","province":"東京都","city":"江戸川区","address":"江戸川区大杉4-29-17","lat":35.711552,"lon":139.881821},{"name":"(株)春江","province":"東京都","city":"江戸川区","address":"江戸川区松江4-24-10","lat":35.689644,"lon":139.870438},{"name":"(有)福田川商店","province":"東京都","city":"江戸川区","address":"江戸川区南小岩5-3-14","lat":35.723526,"lon":139.879807},{"name":"ｶﾜﾊﾗﾒﾀﾙ(株)","province":"東京都","city":"江戸川区","address":"江戸川区篠崎町4-17-1","lat":35.699566,"lon":139.908569},{"name":"(株)伊藤信司商店  京葉営業所","province":"東京都","city":"江戸川区","address":"江戸川区南篠崎町4-23-22","lat":35.699673,"lon":139.902283},{"name":"(株)ヤハギ環境","province":"東京都","city":"江戸川区","address":"江戸川区南葛西2-18-7","lat":35.655132,"lon":139.875214},{"name":"(株)日成ストマック･トーキョー  本社工場","province":"東京都","city":"江戸川区","address":"江戸川区東葛西3-17-15","lat":35.668476,"lon":139.885406},{"name":"(株)オグラ","province":"東京都","city":"江戸川区","address":"江戸川区松江4-29-1","lat":35.691471,"lon":139.871536},{"name":"(有)山口商店","province":"東京都","city":"江戸川区","address":"江戸川区東小松川2-23-12","lat":35.694427,"lon":139.866165},{"name":"(株)上田紙業","province":"東京都","city":"江戸川区","address":"江戸川区上篠崎4-15-5","lat":35.707611,"lon":139.898926},{"name":"(有)牧野商店","province":"東京都","city":"江戸川区","address":"江戸川区篠崎町8-13-11","lat":35.705566,"lon":139.898376},{"name":"(株)坪野谷紙業  江戸川事業所","province":"東京都","city":"江戸川区","address":"江戸川区松江7-15-2","lat":35.691669,"lon":139.874008},{"name":"(株)須賀  船堀営業所","province":"東京都","city":"江戸川区","address":"江戸川区船堀3-9-20","lat":35.681896,"lon":139.865479},{"name":"(株)須賀  東小松川営業所","province":"東京都","city":"江戸川区","address":"江戸川区東小松川4-18-20","lat":35.687618,"lon":139.862045},{"name":"三東運輸(株)  エコプラント","province":"東京都","city":"江戸川区","address":"江戸川区篠崎町5-6-8","lat":35.70369,"lon":139.906052},{"name":"(株)乙  江戸川営業所","province":"東京都","city":"江戸川区","address":"江戸川区松江6-5-5","lat":35.687317,"lon":139.871521},{"name":"(株)浜田  東京リサイクルセンター","province":"東京都","city":"江戸川区","address":"江戸川区松江5-22-21","lat":35.686195,"lon":139.868637},{"name":"(有)太田商店  東京リサイクル工場","province":"東京都","city":"江戸川区","address":"江戸川区大杉5-31-15","lat":35.712456,"lon":139.878754},{"name":"中央鉄鋼（有）","province":"東京都","city":"江戸川区","address":"江戸川区西葛西8-20-198-20-1","lat":35.658245,"lon":139.862839},{"name":"葛西海浜公園","province":"東京都","city":"江戸川区","address":"東京都江戸川区臨海町六丁目地先","lat":35.640708,"lon":139.855249},{"name":"宇喜田公園","province":"東京都","city":"江戸川区","address":"東京都江戸川区北葛西三丁目・宇喜田町","lat":35.674423,"lon":139.860592},{"name":"葛西臨海公園","province":"東京都","city":"江戸川区","address":"東京都江戸川区臨海町六丁目","lat":35.642245,"lon":139.860296},{"name":"篠崎公園","province":"東京都","city":"江戸川区","address":"東京都江戸川区上篠崎一・四・八丁目、篠崎町六・七・八丁目、西篠崎一・二丁目、谷河内二丁目、南篠崎町四丁目、鹿骨町","lat":35.715629,"lon":139.899176},{"name":"(株)中島商店","province":"東京都","city":"江戸川区","address":"江戸川区大杉2-22-12","lat":35.702911,"lon":139.880539},{"name":"(株)鈴亀","province":"東京都","city":"江戸川区","address":"江戸川区中央1-17-19","lat":35.705864,"lon":139.870163},{"name":"(有)フルカワ","province":"東京都","city":"江戸川区","address":"江戸川区南篠崎町4-23-4","lat":35.699673,"lon":139.902283},{"name":"鐵甲金属(株)","province":"東京都","city":"江戸川区","address":"江戸川区大杉4-29-17","lat":35.711552,"lon":139.881821},{"name":"(株)春江","province":"東京都","city":"江戸川区","address":"江戸川区松江4-24-10","lat":35.689644,"lon":139.870438},{"name":"(有)福田川商店","province":"東京都","city":"江戸川区","address":"江戸川区南小岩5-3-14","lat":35.723526,"lon":139.879807},{"name":"ｶﾜﾊﾗﾒﾀﾙ(株)","province":"東京都","city":"江戸川区","address":"江戸川区篠崎町4-17-1","lat":35.699566,"lon":139.908569},{"name":"(株)伊藤信司商店  京葉営業所","province":"東京都","city":"江戸川区","address":"江戸川区南篠崎町4-23-22","lat":35.699673,"lon":139.902283},{"name":"(株)ヤハギ環境","province":"東京都","city":"江戸川区","address":"江戸川区南葛西2-18-7","lat":35.655132,"lon":139.875214},{"name":"(株)日成ストマック･トーキョー  本社工場","province":"東京都","city":"江戸川区","address":"江戸川区東葛西3-17-15","lat":35.668476,"lon":139.885406},{"name":"(株)オグラ","province":"東京都","city":"江戸川区","address":"江戸川区松江4-29-1","lat":35.691471,"lon":139.871536},{"name":"(有)山口商店","province":"東京都","city":"江戸川区","address":"江戸川区東小松川2-23-12","lat":35.694427,"lon":139.866165},{"name":"(株)上田紙業","province":"東京都","city":"江戸川区","address":"江戸川区上篠崎4-15-5","lat":35.707611,"lon":139.898926},{"name":"(有)牧野商店","province":"東京都","city":"江戸川区","address":"江戸川区篠崎町8-13-11","lat":35.705566,"lon":139.898376},{"name":"(株)坪野谷紙業  江戸川事業所","province":"東京都","city":"江戸川区","address":"江戸川区松江7-15-2","lat":35.691669,"lon":139.874008},{"name":"(株)須賀  船堀営業所","province":"東京都","city":"江戸川区","address":"江戸川区船堀3-9-20","lat":35.681896,"lon":139.865479},{"name":"(株)須賀  東小松川営業所","province":"東京都","city":"江戸川区","address":"江戸川区東小松川4-18-20","lat":35.687618,"lon":139.862045},{"name":"三東運輸(株)  エコプラント","province":"東京都","city":"江戸川区","address":"江戸川区篠崎町5-6-8","lat":35.70369,"lon":139.906052},{"name":"(株)乙  江戸川営業所","province":"東京都","city":"江戸川区","address":"江戸川区松江6-5-5","lat":35.687317,"lon":139.871521},{"name":"(株)浜田  東京リサイクルセンター","province":"東京都","city":"江戸川区","address":"江戸川区松江5-22-21","lat":35.686195,"lon":139.868637},{"name":"(有)太田商店  東京リサイクル工場","province":"東京都","city":"江戸川区","address":"江戸川区大杉5-31-15","lat":35.712456,"lon":139.878754},{"name":"中央鉄鋼（有）","province":"東京都","city":"江戸川区","address":"江戸川区西葛西8-20-198-20-1","lat":35.658245,"lon":139.862839},{"name":"葛西海浜公園","province":"東京都","city":"江戸川区","address":"東京都江戸川区臨海町六丁目地先","lat":35.640708,"lon":139.855249},{"name":"宇喜田公園","province":"東京都","city":"江戸川区","address":"東京都江戸川区北葛西三丁目・宇喜田町","lat":35.674423,"lon":139.860592},{"name":"葛西臨海公園","province":"東京都","city":"江戸川区","address":"東京都江戸川区臨海町六丁目","lat":35.642245,"lon":139.860296},{"name":"篠崎公園","province":"東京都","city":"江戸川区","address":"東京都江戸川区上篠崎一・四・八丁目、篠崎町六・七・八丁目、西篠崎一・二丁目、谷河内二丁目、南篠崎町四丁目、鹿骨町","lat":35.715629,"lon":139.899176},{"name":"(株)中島商店","province":"東京都","city":"江戸川区","address":"江戸川区大杉2-22-12","lat":35.702911,"lon":139.880539},{"name":"(株)鈴亀","province":"東京都","city":"江戸川区","address":"江戸川区中央1-17-19","lat":35.705864,"lon":139.870163},{"name":"(有)フルカワ","province":"東京都","city":"江戸川区","address":"江戸川区南篠崎町4-23-4","lat":35.699673,"lon":139.902283},{"name":"鐵甲金属(株)","province":"東京都","city":"江戸川区","address":"江戸川区大杉4-29-17","lat":35.711552,"lon":139.881821},{"name":"(株)春江","province":"東京都","city":"江戸川区","address":"江戸川区松江4-24-10","lat":35.689644,"lon":139.870438},{"name":"(有)福田川商店","province":"東京都","city":"江戸川区","address":"江戸川区南小岩5-3-14","lat":35.723526,"lon":139.879807},{"name":"ｶﾜﾊﾗﾒﾀﾙ(株)","province":"東京都","city":"江戸川区","address":"江戸川区篠崎町4-17-1","lat":35.699566,"lon":139.908569},{"name":"(株)伊藤信司商店  京葉営業所","province":"東京都","city":"江戸川区","address":"江戸川区南篠崎町4-23-22","lat":35.699673,"lon":139.902283},{"name":"(株)ヤハギ環境","province":"東京都","city":"江戸川区","address":"江戸川区南葛西2-18-7","lat":35.655132,"lon":139.875214},{"name":"(株)日成ストマック･トーキョー  本社工場","province":"東京都","city":"江戸川区","address":"江戸川区東葛西3-17-15","lat":35.668476,"lon":139.885406},{"name":"(株)オグラ","province":"東京都","city":"江戸川区","address":"江戸川区松江4-29-1","lat":35.691471,"lon":139.871536},{"name":"(有)山口商店","province":"東京都","city":"江戸川区","address":"江戸川区東小松川2-23-12","lat":35.694427,"lon":139.866165},{"name":"(株)上田紙業","province":"東京都","city":"江戸川区","address":"江戸川区上篠崎4-15-5","lat":35.707611,"lon":139.898926},{"name":"(有)牧野商店","province":"東京都","city":"江戸川区","address":"江戸川区篠崎町8-13-11","lat":35.705566,"lon":139.898376},{"name":"(株)坪野谷紙業  江戸川事業所","province":"東京都","city":"江戸川区","address":"江戸川区松江7-15-2","lat":35.691669,"lon":139.874008},{"name":"(株)須賀  船堀営業所","province":"東京都","city":"江戸川区","address":"江戸川区船堀3-9-20","lat":35.681896,"lon":139.865479},{"name":"(株)須賀  東小松川営業所","province":"東京都","city":"江戸川区","address":"江戸川区東小松川4-18-20","lat":35.687618,"lon":139.862045},{"name":"三東運輸(株)  エコプラント","province":"東京都","city":"江戸川区","address":"江戸川区篠崎町5-6-8","lat":35.70369,"lon":139.906052},{"name":"(株)乙  江戸川営業所","province":"東京都","city":"江戸川区","address":"江戸川区松江6-5-5","lat":35.687317,"lon":139.871521},{"name":"(株)浜田  東京リサイクルセンター","province":"東京都","city":"江戸川区","address":"江戸川区松江5-22-21","lat":35.686195,"lon":139.868637},{"name":"(有)太田商店  東京リサイクル工場","province":"東京都","city":"江戸川区","address":"江戸川区大杉5-31-15","lat":35.712456,"lon":139.878754},{"name":"中央鉄鋼（有）","province":"東京都","city":"江戸川区","address":"江戸川区西葛西8-20-198-20-1","lat":35.658245,"lon":139.862839}]}