{"keyword":"一覧","data":[{"name":"一之江コミュニティ会館","province":"東京都","city":"江戸川区","address":"東京都江戸川区一之江2丁目6-15","lat":35.69474283,"lon":139.88315283},{"name":"共育プラザ一之江","province":"東京都","city":"江戸川区","address":"東京都江戸川区一之江3丁目13-7","lat":35.68976836,"lon":139.88425574},{"name":"コミュニティプラザ一之江","province":"東京都","city":"江戸川区","address":"東京都江戸川区一之江7丁目35-22","lat":35.68614337,"lon":139.88165895},{"name":"一之江駅（都営新宿線）","province":"東京都","city":"江戸川区","address":"東京都江戸川区一之江8丁目14-1","lat":35.68602407,"lon":139.88303104},{"name":"共育プラザ葛西","province":"東京都","city":"江戸川区","address":"東京都江戸川区宇喜田町175","lat":35.67286832,"lon":139.8612113},{"name":"東部図書館","province":"東京都","city":"江戸川区","address":"東京都江戸川区松江2丁目35-6","lat":35.7006549,"lon":139.87437839},{"name":"江戸川コミュニティ会館","province":"東京都","city":"江戸川区","address":"東京都江戸川区江戸川2丁目8","lat":35.68601977,"lon":139.89940473},{"name":"葛西図書館","province":"東京都","city":"江戸川区","address":"東京都江戸川区江戸川6丁目24-1","lat":35.67554899,"lon":139.87083259},{"name":"二之江コミュニティ会館","province":"東京都","city":"江戸川区","address":"東京都江戸川区江戸川6丁目46","lat":35.67694408,"lon":139.88081775},{"name":"上一色コミュニティセンター","province":"東京都","city":"江戸川区","address":"東京都江戸川区上一色2丁目6-10","lat":35.7255906,"lon":139.87251651},{"name":"篠崎コミュニティ会館","province":"東京都","city":"江戸川区","address":"東京都江戸川区上篠崎4丁目21-8","lat":35.70807572,"lon":139.90125356},{"name":"北葛西コミュニティ会館","province":"東京都","city":"江戸川区","address":"東京都江戸川区北葛西2丁目11-39","lat":35.67311814,"lon":139.85718663},{"name":"小岩アーバンプラザ","province":"東京都","city":"江戸川区","address":"東京都江戸川区北小岩1丁目17-1","lat":35.73561727,"lon":139.8926729},{"name":"北小岩コミュニティ会館","province":"東京都","city":"江戸川区","address":"東京都江戸川区北小岩6丁目35-17","lat":35.74219131,"lon":139.88691483},{"name":"小松川さくらホール","province":"東京都","city":"江戸川区","address":"東京都江戸川区小松川3丁目6-3","lat":35.69662582,"lon":139.84888403},{"name":"鹿骨区民館","province":"東京都","city":"江戸川区","address":"東京都江戸川区鹿骨1丁目54-2","lat":35.70951096,"lon":139.88986829},{"name":"篠崎文化プラザ","province":"東京都","city":"江戸川区","address":"東京都江戸川区篠崎町7丁目20-19","lat":35.70537076,"lon":139.90281744},{"name":"篠崎駅（都営新宿線）","province":"東京都","city":"江戸川区","address":"東京都江戸川区篠崎町7丁目27-1","lat":35.70605388,"lon":139.90360347},{"name":"清新町コミュニティ会館","province":"東京都","city":"江戸川区","address":"東京都江戸川区清新町1丁目2-2","lat":35.65887822,"lon":139.85598997},{"name":"江戸川校\"","province":"東京都","city":"江戸川区","address":"東京都江戸川区中央2丁目31-27","lat":35.70692643,"lon":139.87508919},{"name":"中央図書館","province":"東京都","city":"江戸川区","address":"東京都江戸川区中央3丁目1-3","lat":35.71058648,"lon":139.86976474},{"name":"総合文化センター","province":"東京都","city":"江戸川区","address":"東京都江戸川区中央4丁目14-1","lat":35.71108906,"lon":139.86826216},{"name":"葛西区民館","province":"東京都","city":"江戸川区","address":"東京都江戸川区中葛西3丁目10-1","lat":35.66592511,"lon":139.86958022},{"name":"新田コミュニティ会館","province":"東京都","city":"江戸川区","address":"東京都江戸川区中葛西7丁目17-1","lat":35.65465964,"lon":139.86643095},{"name":"スポーツセンター","province":"東京都","city":"江戸川区","address":"東京都江戸川区西葛西4丁目2-20","lat":35.66800789,"lon":139.86256411},{"name":"西葛西図書館","province":"東京都","city":"江戸川区","address":"東京都江戸川区西葛西5丁目10-47","lat":35.66485273,"lon":139.86291418},{"name":"江戸川区球場","province":"東京都","city":"江戸川区","address":"東京都江戸川区西葛西7丁目2-1","lat":35.66233062,"lon":139.85749805},{"name":"西小岩コミュニティ会館","province":"東京都","city":"江戸川区","address":"東京都江戸川区西小岩4丁目3-22","lat":35.73726431,"lon":139.88014042},{"name":"瑞江コミュニティ会館","province":"東京都","city":"江戸川区","address":"東京都江戸川区西瑞江3丁目18-1","lat":35.68678309,"lon":139.89103591},{"name":"長島桑川コミュニティ会館","province":"東京都","city":"江戸川区","address":"東京都江戸川区東葛西5丁目31-18","lat":35.66596165,"lon":139.8779156},{"name":"東葛西コミュニティ会館","province":"東京都","city":"江戸川区","address":"東京都江戸川区東葛西8丁目22-1","lat":35.6548379,"lon":139.87969652},{"name":"小岩図書館","province":"東京都","city":"江戸川区","address":"東京都江戸川区東小岩3丁目6-9","lat":35.73129292,"lon":139.89051482},{"name":"スポーツランド","province":"東京都","city":"江戸川区","address":"東京都江戸川区東篠崎1丁目8-1","lat":35.69837367,"lon":139.91694728},{"name":"東部区民館","province":"東京都","city":"江戸川区","address":"東京都江戸川区東瑞江1丁目17-1","lat":35.68995839,"lon":139.89951006},{"name":"小松川図書館","province":"東京都","city":"江戸川区","address":"東京都江戸川区平井1丁目11-26","lat":35.70149175,"lon":139.85097835},{"name":"小松川区民館","province":"東京都","city":"江戸川区","address":"東京都江戸川区平井4丁目1-1","lat":35.70281664,"lon":139.8480812},{"name":"平井コミュニティ会館","province":"東京都","city":"江戸川区","address":"東京都江戸川区平井4丁目18-10","lat":35.70554971,"lon":139.84796997},{"name":"中平井コミュニティ会館","province":"東京都","city":"江戸川区","address":"東京都江戸川区平井7丁目1-6","lat":35.71184094,"lon":139.83971187},{"name":"共育プラザ平井","province":"東京都","city":"江戸川区","address":"東京都江戸川区平井7丁目21-6","lat":35.71459347,"lon":139.84013389},{"name":"船堀コミュニティ会館","province":"東京都","city":"江戸川区","address":"東京都江戸川区船堀1丁目3-1","lat":35.68623051,"lon":139.86225534},{"name":"船堀駅（都営新宿線）","province":"東京都","city":"江戸川区","address":"東京都江戸川区船堀3丁目6-1","lat":35.68367542,"lon":139.8642413},{"name":"タワーホール船堀","province":"東京都","city":"江戸川区","address":"東京都江戸川区船堀4丁目1-1","lat":35.68437538,"lon":139.86496067},{"name":"新川さくら館","province":"東京都","city":"江戸川区","address":"東京都江戸川区船堀7丁目15-12","lat":35.67544893,"lon":139.86925773},{"name":"松江区民プラザ","province":"東京都","city":"江戸川区","address":"東京都江戸川区松江2丁目1-10","lat":35.69693823,"lon":139.87107344},{"name":"水道局江戸川営業所","province":"東京都","city":"江戸川区","address":"東京都江戸川区松江5丁目4-12","lat":35.68771672,"lon":139.86624657},{"name":"松江コミュニティ会館","province":"東京都","city":"江戸川区","address":"東京都江戸川区松江7丁目5-12","lat":35.69120855,"lon":139.8729124},{"name":"グリーンパレス","province":"東京都","city":"江戸川区","address":"東京都江戸川区松島1丁目38-1","lat":35.70574763,"lon":139.86622663},{"name":"総合体育館","province":"東京都","city":"江戸川区","address":"東京都江戸川区松本1丁目35-1","lat":35.71738346,"lon":139.87633873},{"name":"瑞江駅（都営新宿線）","province":"東京都","city":"江戸川区","address":"東京都江戸川区瑞江2丁目2-1","lat":35.69319986,"lon":139.89785444},{"name":"東部フレンドホール","province":"東京都","city":"江戸川区","address":"東京都江戸川区瑞江2丁目5-7","lat":35.69401926,"lon":139.8976433},{"name":"南葛西会館","province":"東京都","city":"江戸川区","address":"東京都江戸川区南葛西6丁目8-9","lat":35.64673028,"lon":139.87602772},{"name":"南小岩コミュニティ会館","province":"東京都","city":"江戸川区","address":"東京都江戸川区南小岩7丁目17-10","lat":35.73052355,"lon":139.88192939},{"name":"臨海町コミュニティ会館","province":"東京都","city":"江戸川区","address":"東京都江戸川区臨海町2丁目2-9","lat":35.65293462,"lon":139.86000655}]}