{"keyword":"伐採","data":[{"name":"東京臨海病院","province":"東京都","city":"江戸川区","address":"東京都江戸川区臨海町1丁目4-2","lat":35.65210677,"lon":139.85363487},{"name":"江戸川病院","province":"東京都","city":"江戸川区","address":"東京都江戸川区東小岩2丁目24-18","lat":35.72860723,"lon":139.89289248},{"name":"都立葛西臨海公園第２駐車場","province":"東京都","city":"江戸川区","address":"東京都江戸川区臨海町6丁目2","lat":35.64164166,"lon":139.86520384},{"name":"都立葛西臨海公園多目的広場","province":"東京都","city":"江戸川区","address":"東京都江戸川区臨海町6丁目2","lat":35.64164166,"lon":139.86520384},{"name":"都立葛西海浜公園人口なぎさ","province":"東京都","city":"江戸川区","address":"東京都江戸川区臨海町6丁目","lat":35.6462852,"lon":139.85139641},{"name":"都立大島小松川公園（自由の広場）","province":"東京都","city":"江戸川区","address":"東京都江戸川区小松川1丁目7","lat":35.69216816,"lon":139.85200056},{"name":"江戸川区臨海球技場第二","province":"東京都","city":"江戸川区","address":"東京都江戸川区臨海町6丁目1","lat":35.64490485,"lon":139.85315466},{"name":"江戸川区球場","province":"東京都","city":"江戸川区","address":"東京都江戸川区北小岩4丁目38","lat":35.73930002,"lon":139.89605594},{"name":"江戸川区立篠崎緑地１９号地・１０号地","province":"東京都","city":"江戸川区","address":"東京都江戸川区篠崎町1丁目26","lat":35.70838102,"lon":139.90561435},{"name":"都立篠崎公園野球場（第２面）","province":"東京都","city":"江戸川区","address":"東京都江戸川区上篠崎1丁目25","lat":35.7146518,"lon":139.89798133},{"name":"区営河川敷広場","province":"東京都","city":"江戸川区","address":"東京都江戸川区上篠崎1丁目","lat":35.71365485,"lon":139.90170055},{"name":"区営河川敷グラウンド","province":"東京都","city":"江戸川区","address":"東京都江戸川区上篠崎3丁目","lat":35.71301614,"lon":139.8983508},{"name":"鹿骨スポーツ広場","province":"東京都","city":"江戸川区","address":"東京都江戸川区上篠崎4丁目5","lat":35.70850907,"lon":139.8962289},{"name":"北小岩４丁目グラウンド","province":"東京都","city":"江戸川区","address":"東京都江戸川区北小岩4丁目","lat":35.73853903,"lon":139.8951338},{"name":"上篠崎","province":"東京都","city":"江戸川区","address":"東京都江戸川区上篠崎2丁目27","lat":35.71283558,"lon":139.90618361},{"name":"葛西臨海公園","province":"東京都","city":"江戸川区","address":"東京都江戸川区臨海町6丁目","lat":35.6462852,"lon":139.85139641},{"name":"一之江橋","province":"東京都","city":"江戸川区","address":"東京都江戸川区新堀1丁目1","lat":35.70258678,"lon":139.88574945},{"name":"小松川","province":"東京都","city":"江戸川区","address":"東京都江戸川区小松川1丁目","lat":35.68984346,"lon":139.84946741},{"name":"新今井橋","province":"東京都","city":"江戸川区","address":"東京都江戸川区江戸川4丁目","lat":35.68234427,"lon":139.88820301},{"name":"平井","province":"東京都","city":"江戸川区","address":"東京都江戸川区平井6丁目71","lat":35.71365739,"lon":139.84385591},{"name":"なぎさ公園","province":"東京都","city":"江戸川区","address":"東京都江戸川区南葛西7丁目3","lat":35.64875249,"lon":139.88177994},{"name":"今井交通公園","province":"東京都","city":"江戸川区","address":"東京都江戸川区中葛西4丁目9","lat":35.66799142,"lon":139.86705815},{"name":"スポーツランド","province":"東京都","city":"江戸川区","address":"東京都江戸川区東篠崎1丁目8","lat":35.69783207,"lon":139.91731117},{"name":"ポニーランド","province":"東京都","city":"江戸川区","address":"東京都江戸川区南篠崎町3丁目23","lat":35.69480527,"lon":139.90019585},{"name":"篠崎公園","province":"東京都","city":"江戸川区","address":"東京都江戸川区上篠崎1丁目25","lat":35.7146518,"lon":139.89798133},{"name":"小岩菖蒲園","province":"東京都","city":"江戸川区","address":"東京都江戸川区北小岩4丁目37","lat":35.73856957,"lon":139.89622538},{"name":"東京臨海病院","province":"東京都","city":"江戸川区","address":"東京都江戸川区臨海町1丁目4-2","lat":35.65210677,"lon":139.85363487},{"name":"江戸川病院","province":"東京都","city":"江戸川区","address":"東京都江戸川区東小岩2丁目24-18","lat":35.72860723,"lon":139.89289248},{"name":"都立葛西臨海公園第２駐車場","province":"東京都","city":"江戸川区","address":"東京都江戸川区臨海町6丁目2","lat":35.64164166,"lon":139.86520384},{"name":"都立葛西臨海公園多目的広場","province":"東京都","city":"江戸川区","address":"東京都江戸川区臨海町6丁目2","lat":35.64164166,"lon":139.86520384},{"name":"都立葛西海浜公園人口なぎさ","province":"東京都","city":"江戸川区","address":"東京都江戸川区臨海町6丁目","lat":35.6462852,"lon":139.85139641},{"name":"都立大島小松川公園（自由の広場）","province":"東京都","city":"江戸川区","address":"東京都江戸川区小松川1丁目7","lat":35.69216816,"lon":139.85200056},{"name":"江戸川区臨海球技場第二","province":"東京都","city":"江戸川区","address":"東京都江戸川区臨海町6丁目1","lat":35.64490485,"lon":139.85315466},{"name":"江戸川区球場","province":"東京都","city":"江戸川区","address":"東京都江戸川区北小岩4丁目38","lat":35.73930002,"lon":139.89605594},{"name":"江戸川区立篠崎緑地１９号地・１０号地","province":"東京都","city":"江戸川区","address":"東京都江戸川区篠崎町1丁目26","lat":35.70838102,"lon":139.90561435},{"name":"都立篠崎公園野球場（第２面）","province":"東京都","city":"江戸川区","address":"東京都江戸川区上篠崎1丁目25","lat":35.7146518,"lon":139.89798133},{"name":"区営河川敷広場","province":"東京都","city":"江戸川区","address":"東京都江戸川区上篠崎1丁目","lat":35.71365485,"lon":139.90170055},{"name":"区営河川敷グラウンド","province":"東京都","city":"江戸川区","address":"東京都江戸川区上篠崎3丁目","lat":35.71301614,"lon":139.8983508},{"name":"鹿骨スポーツ広場","province":"東京都","city":"江戸川区","address":"東京都江戸川区上篠崎4丁目5","lat":35.70850907,"lon":139.8962289},{"name":"北小岩４丁目グラウンド","province":"東京都","city":"江戸川区","address":"東京都江戸川区北小岩4丁目","lat":35.73853903,"lon":139.8951338},{"name":"上篠崎","province":"東京都","city":"江戸川区","address":"東京都江戸川区上篠崎2丁目27","lat":35.71283558,"lon":139.90618361},{"name":"葛西臨海公園","province":"東京都","city":"江戸川区","address":"東京都江戸川区臨海町6丁目","lat":35.6462852,"lon":139.85139641},{"name":"一之江橋","province":"東京都","city":"江戸川区","address":"東京都江戸川区新堀1丁目1","lat":35.70258678,"lon":139.88574945},{"name":"小松川","province":"東京都","city":"江戸川区","address":"東京都江戸川区小松川1丁目","lat":35.68984346,"lon":139.84946741},{"name":"新今井橋","province":"東京都","city":"江戸川区","address":"東京都江戸川区江戸川4丁目","lat":35.68234427,"lon":139.88820301},{"name":"平井","province":"東京都","city":"江戸川区","address":"東京都江戸川区平井6丁目71","lat":35.71365739,"lon":139.84385591},{"name":"なぎさ公園","province":"東京都","city":"江戸川区","address":"東京都江戸川区南葛西7丁目3","lat":35.64875249,"lon":139.88177994},{"name":"今井交通公園","province":"東京都","city":"江戸川区","address":"東京都江戸川区中葛西4丁目9","lat":35.66799142,"lon":139.86705815},{"name":"スポーツランド","province":"東京都","city":"江戸川区","address":"東京都江戸川区東篠崎1丁目8","lat":35.69783207,"lon":139.91731117},{"name":"ポニーランド","province":"東京都","city":"江戸川区","address":"東京都江戸川区南篠崎町3丁目23","lat":35.69480527,"lon":139.90019585},{"name":"篠崎公園","province":"東京都","city":"江戸川区","address":"東京都江戸川区上篠崎1丁目25","lat":35.7146518,"lon":139.89798133},{"name":"小岩菖蒲園","province":"東京都","city":"江戸川区","address":"東京都江戸川区北小岩4丁目37","lat":35.73856957,"lon":139.89622538},{"name":"東京臨海病院","province":"東京都","city":"江戸川区","address":"東京都江戸川区臨海町1丁目4-2","lat":35.65210677,"lon":139.85363487},{"name":"江戸川病院","province":"東京都","city":"江戸川区","address":"東京都江戸川区東小岩2丁目24-18","lat":35.72860723,"lon":139.89289248},{"name":"都立葛西臨海公園第２駐車場","province":"東京都","city":"江戸川区","address":"東京都江戸川区臨海町6丁目2","lat":35.64164166,"lon":139.86520384},{"name":"都立葛西臨海公園多目的広場","province":"東京都","city":"江戸川区","address":"東京都江戸川区臨海町6丁目2","lat":35.64164166,"lon":139.86520384},{"name":"都立葛西海浜公園人口なぎさ","province":"東京都","city":"江戸川区","address":"東京都江戸川区臨海町6丁目","lat":35.6462852,"lon":139.85139641},{"name":"都立大島小松川公園（自由の広場）","province":"東京都","city":"江戸川区","address":"東京都江戸川区小松川1丁目7","lat":35.69216816,"lon":139.85200056},{"name":"江戸川区臨海球技場第二","province":"東京都","city":"江戸川区","address":"東京都江戸川区臨海町6丁目1","lat":35.64490485,"lon":139.85315466},{"name":"江戸川区球場","province":"東京都","city":"江戸川区","address":"東京都江戸川区北小岩4丁目38","lat":35.73930002,"lon":139.89605594},{"name":"江戸川区立篠崎緑地１９号地・１０号地","province":"東京都","city":"江戸川区","address":"東京都江戸川区篠崎町1丁目26","lat":35.70838102,"lon":139.90561435},{"name":"都立篠崎公園野球場（第２面）","province":"東京都","city":"江戸川区","address":"東京都江戸川区上篠崎1丁目25","lat":35.7146518,"lon":139.89798133},{"name":"区営河川敷広場","province":"東京都","city":"江戸川区","address":"東京都江戸川区上篠崎1丁目","lat":35.71365485,"lon":139.90170055},{"name":"区営河川敷グラウンド","province":"東京都","city":"江戸川区","address":"東京都江戸川区上篠崎3丁目","lat":35.71301614,"lon":139.8983508},{"name":"鹿骨スポーツ広場","province":"東京都","city":"江戸川区","address":"東京都江戸川区上篠崎4丁目5","lat":35.70850907,"lon":139.8962289},{"name":"北小岩４丁目グラウンド","province":"東京都","city":"江戸川区","address":"東京都江戸川区北小岩4丁目","lat":35.73853903,"lon":139.8951338},{"name":"上篠崎","province":"東京都","city":"江戸川区","address":"東京都江戸川区上篠崎2丁目27","lat":35.71283558,"lon":139.90618361},{"name":"葛西臨海公園","province":"東京都","city":"江戸川区","address":"東京都江戸川区臨海町6丁目","lat":35.6462852,"lon":139.85139641},{"name":"一之江橋","province":"東京都","city":"江戸川区","address":"東京都江戸川区新堀1丁目1","lat":35.70258678,"lon":139.88574945},{"name":"小松川","province":"東京都","city":"江戸川区","address":"東京都江戸川区小松川1丁目","lat":35.68984346,"lon":139.84946741},{"name":"新今井橋","province":"東京都","city":"江戸川区","address":"東京都江戸川区江戸川4丁目","lat":35.68234427,"lon":139.88820301},{"name":"平井","province":"東京都","city":"江戸川区","address":"東京都江戸川区平井6丁目71","lat":35.71365739,"lon":139.84385591},{"name":"なぎさ公園","province":"東京都","city":"江戸川区","address":"東京都江戸川区南葛西7丁目3","lat":35.64875249,"lon":139.88177994},{"name":"今井交通公園","province":"東京都","city":"江戸川区","address":"東京都江戸川区中葛西4丁目9","lat":35.66799142,"lon":139.86705815},{"name":"スポーツランド","province":"東京都","city":"江戸川区","address":"東京都江戸川区東篠崎1丁目8","lat":35.69783207,"lon":139.91731117},{"name":"ポニーランド","province":"東京都","city":"江戸川区","address":"東京都江戸川区南篠崎町3丁目23","lat":35.69480527,"lon":139.90019585},{"name":"篠崎公園","province":"東京都","city":"江戸川区","address":"東京都江戸川区上篠崎1丁目25","lat":35.7146518,"lon":139.89798133},{"name":"小岩菖蒲園","province":"東京都","city":"江戸川区","address":"東京都江戸川区北小岩4丁目37","lat":35.73856957,"lon":139.89622538},{"name":"東京臨海病院","province":"東京都","city":"江戸川区","address":"東京都江戸川区臨海町1丁目4-2","lat":35.65210677,"lon":139.85363487},{"name":"江戸川病院","province":"東京都","city":"江戸川区","address":"東京都江戸川区東小岩2丁目24-18","lat":35.72860723,"lon":139.89289248},{"name":"上篠崎","province":"東京都","city":"江戸川区","address":"東京都江戸川区上篠崎2丁目27","lat":35.71283558,"lon":139.90618361},{"name":"葛西臨海公園","province":"東京都","city":"江戸川区","address":"東京都江戸川区臨海町6丁目","lat":35.6462852,"lon":139.85139641},{"name":"一之江橋","province":"東京都","city":"江戸川区","address":"東京都江戸川区新堀1丁目1","lat":35.70258678,"lon":139.88574945},{"name":"小松川","province":"東京都","city":"江戸川区","address":"東京都江戸川区小松川1丁目","lat":35.68984346,"lon":139.84946741},{"name":"新今井橋","province":"東京都","city":"江戸川区","address":"東京都江戸川区江戸川4丁目","lat":35.68234427,"lon":139.88820301},{"name":"平井","province":"東京都","city":"江戸川区","address":"東京都江戸川区平井6丁目71","lat":35.71365739,"lon":139.84385591},{"name":"なぎさ公園","province":"東京都","city":"江戸川区","address":"東京都江戸川区南葛西7丁目3","lat":35.64875249,"lon":139.88177994},{"name":"今井交通公園","province":"東京都","city":"江戸川区","address":"東京都江戸川区中葛西4丁目9","lat":35.66799142,"lon":139.86705815},{"name":"スポーツランド","province":"東京都","city":"江戸川区","address":"東京都江戸川区東篠崎1丁目8","lat":35.69783207,"lon":139.91731117},{"name":"ポニーランド","province":"東京都","city":"江戸川区","address":"東京都江戸川区南篠崎町3丁目23","lat":35.69480527,"lon":139.90019585},{"name":"篠崎公園","province":"東京都","city":"江戸川区","address":"東京都江戸川区上篠崎1丁目25","lat":35.7146518,"lon":139.89798133},{"name":"小岩菖蒲園","province":"東京都","city":"江戸川区","address":"東京都江戸川区北小岩4丁目37","lat":35.73856957,"lon":139.89622538},{"name":"東京臨海病院","province":"東京都","city":"江戸川区","address":"東京都江戸川区臨海町1丁目4-2","lat":35.65210677,"lon":139.85363487},{"name":"江戸川病院","province":"東京都","city":"江戸川区","address":"東京都江戸川区東小岩2丁目24-18","lat":35.72860723,"lon":139.89289248},{"name":"上篠崎","province":"東京都","city":"江戸川区","address":"東京都江戸川区上篠崎2丁目27","lat":35.71283558,"lon":139.90618361},{"name":"葛西臨海公園","province":"東京都","city":"江戸川区","address":"東京都江戸川区臨海町6丁目","lat":35.6462852,"lon":139.85139641},{"name":"一之江橋","province":"東京都","city":"江戸川区","address":"東京都江戸川区新堀1丁目1","lat":35.70258678,"lon":139.88574945},{"name":"小松川","province":"東京都","city":"江戸川区","address":"東京都江戸川区小松川1丁目","lat":35.68984346,"lon":139.84946741},{"name":"新今井橋","province":"東京都","city":"江戸川区","address":"東京都江戸川区江戸川4丁目","lat":35.68234427,"lon":139.88820301},{"name":"平井","province":"東京都","city":"江戸川区","address":"東京都江戸川区平井6丁目71","lat":35.71365739,"lon":139.84385591},{"name":"なぎさ公園","province":"東京都","city":"江戸川区","address":"東京都江戸川区南葛西7丁目3","lat":35.64875249,"lon":139.88177994},{"name":"今井交通公園","province":"東京都","city":"江戸川区","address":"東京都江戸川区中葛西4丁目9","lat":35.66799142,"lon":139.86705815},{"name":"スポーツランド","province":"東京都","city":"江戸川区","address":"東京都江戸川区東篠崎1丁目8","lat":35.69783207,"lon":139.91731117},{"name":"ポニーランド","province":"東京都","city":"江戸川区","address":"東京都江戸川区南篠崎町3丁目23","lat":35.69480527,"lon":139.90019585},{"name":"篠崎公園","province":"東京都","city":"江戸川区","address":"東京都江戸川区上篠崎1丁目25","lat":35.7146518,"lon":139.89798133},{"name":"小岩菖蒲園","province":"東京都","city":"江戸川区","address":"東京都江戸川区北小岩4丁目37","lat":35.73856957,"lon":139.89622538},{"name":"東京臨海病院","province":"東京都","city":"江戸川区","address":"東京都江戸川区臨海町1丁目4-2","lat":35.65210677,"lon":139.85363487},{"name":"江戸川病院","province":"東京都","city":"江戸川区","address":"東京都江戸川区東小岩2丁目24-18","lat":35.72860723,"lon":139.89289248},{"name":"上篠崎","province":"東京都","city":"江戸川区","address":"東京都江戸川区上篠崎2丁目27","lat":35.71283558,"lon":139.90618361},{"name":"葛西臨海公園","province":"東京都","city":"江戸川区","address":"東京都江戸川区臨海町6丁目","lat":35.6462852,"lon":139.85139641},{"name":"一之江橋","province":"東京都","city":"江戸川区","address":"東京都江戸川区新堀1丁目1","lat":35.70258678,"lon":139.88574945},{"name":"小松川","province":"東京都","city":"江戸川区","address":"東京都江戸川区小松川1丁目","lat":35.68984346,"lon":139.84946741},{"name":"新今井橋","province":"東京都","city":"江戸川区","address":"東京都江戸川区江戸川4丁目","lat":35.68234427,"lon":139.88820301},{"name":"平井","province":"東京都","city":"江戸川区","address":"東京都江戸川区平井6丁目71","lat":35.71365739,"lon":139.84385591},{"name":"なぎさ公園","province":"東京都","city":"江戸川区","address":"東京都江戸川区南葛西7丁目3","lat":35.64875249,"lon":139.88177994},{"name":"今井交通公園","province":"東京都","city":"江戸川区","address":"東京都江戸川区中葛西4丁目9","lat":35.66799142,"lon":139.86705815},{"name":"スポーツランド","province":"東京都","city":"江戸川区","address":"東京都江戸川区東篠崎1丁目8","lat":35.69783207,"lon":139.91731117},{"name":"ポニーランド","province":"東京都","city":"江戸川区","address":"東京都江戸川区南篠崎町3丁目23","lat":35.69480527,"lon":139.90019585},{"name":"篠崎公園","province":"東京都","city":"江戸川区","address":"東京都江戸川区上篠崎1丁目25","lat":35.7146518,"lon":139.89798133},{"name":"小岩菖蒲園","province":"東京都","city":"江戸川区","address":"東京都江戸川区北小岩4丁目37","lat":35.73856957,"lon":139.89622538},{"name":"東京臨海病院","province":"東京都","city":"江戸川区","address":"東京都江戸川区臨海町1丁目4-2","lat":35.65210677,"lon":139.85363487},{"name":"江戸川病院","province":"東京都","city":"江戸川区","address":"東京都江戸川区東小岩2丁目24-18","lat":35.72860723,"lon":139.89289248},{"name":"上篠崎","province":"東京都","city":"江戸川区","address":"東京都江戸川区上篠崎2丁目27","lat":35.71283558,"lon":139.90618361},{"name":"葛西臨海公園","province":"東京都","city":"江戸川区","address":"東京都江戸川区臨海町6丁目","lat":35.6462852,"lon":139.85139641},{"name":"一之江橋","province":"東京都","city":"江戸川区","address":"東京都江戸川区新堀1丁目1","lat":35.70258678,"lon":139.88574945},{"name":"小松川","province":"東京都","city":"江戸川区","address":"東京都江戸川区小松川1丁目","lat":35.68984346,"lon":139.84946741},{"name":"新今井橋","province":"東京都","city":"江戸川区","address":"東京都江戸川区江戸川4丁目","lat":35.68234427,"lon":139.88820301},{"name":"平井","province":"東京都","city":"江戸川区","address":"東京都江戸川区平井6丁目71","lat":35.71365739,"lon":139.84385591},{"name":"なぎさ公園","province":"東京都","city":"江戸川区","address":"東京都江戸川区南葛西7丁目3","lat":35.64875249,"lon":139.88177994},{"name":"今井交通公園","province":"東京都","city":"江戸川区","address":"東京都江戸川区中葛西4丁目9","lat":35.66799142,"lon":139.86705815},{"name":"スポーツランド","province":"東京都","city":"江戸川区","address":"東京都江戸川区東篠崎1丁目8","lat":35.69783207,"lon":139.91731117},{"name":"ポニーランド","province":"東京都","city":"江戸川区","address":"東京都江戸川区南篠崎町3丁目23","lat":35.69480527,"lon":139.90019585},{"name":"篠崎公園","province":"東京都","city":"江戸川区","address":"東京都江戸川区上篠崎1丁目25","lat":35.7146518,"lon":139.89798133},{"name":"小岩菖蒲園","province":"東京都","city":"江戸川区","address":"東京都江戸川区北小岩4丁目37","lat":35.73856957,"lon":139.89622538},{"name":"東京臨海病院","province":"東京都","city":"江戸川区","address":"東京都江戸川区臨海町1丁目4-2","lat":35.65210677,"lon":139.85363487},{"name":"江戸川病院","province":"東京都","city":"江戸川区","address":"東京都江戸川区東小岩2丁目24-18","lat":35.72860723,"lon":139.89289248},{"name":"上篠崎","province":"東京都","city":"江戸川区","address":"東京都江戸川区上篠崎2丁目27","lat":35.71283558,"lon":139.90618361},{"name":"葛西臨海公園","province":"東京都","city":"江戸川区","address":"東京都江戸川区臨海町6丁目","lat":35.6462852,"lon":139.85139641},{"name":"一之江橋","province":"東京都","city":"江戸川区","address":"東京都江戸川区新堀1丁目1","lat":35.70258678,"lon":139.88574945},{"name":"小松川","province":"東京都","city":"江戸川区","address":"東京都江戸川区小松川1丁目","lat":35.68984346,"lon":139.84946741},{"name":"新今井橋","province":"東京都","city":"江戸川区","address":"東京都江戸川区江戸川4丁目","lat":35.68234427,"lon":139.88820301},{"name":"平井","province":"東京都","city":"江戸川区","address":"東京都江戸川区平井6丁目71","lat":35.71365739,"lon":139.84385591},{"name":"なぎさ公園","province":"東京都","city":"江戸川区","address":"東京都江戸川区南葛西7丁目3","lat":35.64875249,"lon":139.88177994},{"name":"今井交通公園","province":"東京都","city":"江戸川区","address":"東京都江戸川区中葛西4丁目9","lat":35.66799142,"lon":139.86705815},{"name":"スポーツランド","province":"東京都","city":"江戸川区","address":"東京都江戸川区東篠崎1丁目8","lat":35.69783207,"lon":139.91731117},{"name":"ポニーランド","province":"東京都","city":"江戸川区","address":"東京都江戸川区南篠崎町3丁目23","lat":35.69480527,"lon":139.90019585},{"name":"篠崎公園","province":"東京都","city":"江戸川区","address":"東京都江戸川区上篠崎1丁目25","lat":35.7146518,"lon":139.89798133},{"name":"小岩菖蒲園","province":"東京都","city":"江戸川区","address":"東京都江戸川区北小岩4丁目37","lat":35.73856957,"lon":139.89622538},{"name":"東京臨海病院","province":"東京都","city":"江戸川区","address":"東京都江戸川区臨海町1丁目4-2","lat":35.65210677,"lon":139.85363487},{"name":"江戸川病院","province":"東京都","city":"江戸川区","address":"東京都江戸川区東小岩2丁目24-18","lat":35.72860723,"lon":139.89289248},{"name":"上篠崎","province":"東京都","city":"江戸川区","address":"東京都江戸川区上篠崎2丁目27","lat":35.71283558,"lon":139.90618361},{"name":"葛西臨海公園","province":"東京都","city":"江戸川区","address":"東京都江戸川区臨海町6丁目","lat":35.6462852,"lon":139.85139641},{"name":"一之江橋","province":"東京都","city":"江戸川区","address":"東京都江戸川区新堀1丁目1","lat":35.70258678,"lon":139.88574945},{"name":"小松川","province":"東京都","city":"江戸川区","address":"東京都江戸川区小松川1丁目","lat":35.68984346,"lon":139.84946741},{"name":"新今井橋","province":"東京都","city":"江戸川区","address":"東京都江戸川区江戸川4丁目","lat":35.68234427,"lon":139.88820301},{"name":"平井","province":"東京都","city":"江戸川区","address":"東京都江戸川区平井6丁目71","lat":35.71365739,"lon":139.84385591},{"name":"なぎさ公園","province":"東京都","city":"江戸川区","address":"東京都江戸川区南葛西7丁目3","lat":35.64875249,"lon":139.88177994},{"name":"今井交通公園","province":"東京都","city":"江戸川区","address":"東京都江戸川区中葛西4丁目9","lat":35.66799142,"lon":139.86705815},{"name":"スポーツランド","province":"東京都","city":"江戸川区","address":"東京都江戸川区東篠崎1丁目8","lat":35.69783207,"lon":139.91731117},{"name":"ポニーランド","province":"東京都","city":"江戸川区","address":"東京都江戸川区南篠崎町3丁目23","lat":35.69480527,"lon":139.90019585},{"name":"篠崎公園","province":"東京都","city":"江戸川区","address":"東京都江戸川区上篠崎1丁目25","lat":35.7146518,"lon":139.89798133},{"name":"小岩菖蒲園","province":"東京都","city":"江戸川区","address":"東京都江戸川区北小岩4丁目37","lat":35.73856957,"lon":139.89622538},{"name":"東京臨海病院","province":"東京都","city":"江戸川区","address":"東京都江戸川区臨海町1丁目4-2","lat":35.65210677,"lon":139.85363487},{"name":"江戸川病院","province":"東京都","city":"江戸川区","address":"東京都江戸川区東小岩2丁目24-18","lat":35.72860723,"lon":139.89289248},{"name":"上篠崎","province":"東京都","city":"江戸川区","address":"東京都江戸川区上篠崎2丁目27","lat":35.71283558,"lon":139.90618361},{"name":"葛西臨海公園","province":"東京都","city":"江戸川区","address":"東京都江戸川区臨海町6丁目","lat":35.6462852,"lon":139.85139641},{"name":"一之江橋","province":"東京都","city":"江戸川区","address":"東京都江戸川区新堀1丁目1","lat":35.70258678,"lon":139.88574945},{"name":"小松川","province":"東京都","city":"江戸川区","address":"東京都江戸川区小松川1丁目","lat":35.68984346,"lon":139.84946741},{"name":"新今井橋","province":"東京都","city":"江戸川区","address":"東京都江戸川区江戸川4丁目","lat":35.68234427,"lon":139.88820301},{"name":"平井","province":"東京都","city":"江戸川区","address":"東京都江戸川区平井6丁目71","lat":35.71365739,"lon":139.84385591},{"name":"なぎさ公園","province":"東京都","city":"江戸川区","address":"東京都江戸川区南葛西7丁目3","lat":35.64875249,"lon":139.88177994},{"name":"今井交通公園","province":"東京都","city":"江戸川区","address":"東京都江戸川区中葛西4丁目9","lat":35.66799142,"lon":139.86705815},{"name":"スポーツランド","province":"東京都","city":"江戸川区","address":"東京都江戸川区東篠崎1丁目8","lat":35.69783207,"lon":139.91731117},{"name":"ポニーランド","province":"東京都","city":"江戸川区","address":"東京都江戸川区南篠崎町3丁目23","lat":35.69480527,"lon":139.90019585},{"name":"篠崎公園","province":"東京都","city":"江戸川区","address":"東京都江戸川区上篠崎1丁目25","lat":35.7146518,"lon":139.89798133},{"name":"小岩菖蒲園","province":"東京都","city":"江戸川区","address":"東京都江戸川区北小岩4丁目37","lat":35.73856957,"lon":139.89622538},{"name":"東京臨海病院","province":"東京都","city":"江戸川区","address":"東京都江戸川区臨海町1丁目4-2","lat":35.65210677,"lon":139.85363487},{"name":"江戸川病院","province":"東京都","city":"江戸川区","address":"東京都江戸川区東小岩2丁目24-18","lat":35.72860723,"lon":139.89289248},{"name":"上篠崎","province":"東京都","city":"江戸川区","address":"東京都江戸川区上篠崎2丁目27","lat":35.71283558,"lon":139.90618361},{"name":"葛西臨海公園","province":"東京都","city":"江戸川区","address":"東京都江戸川区臨海町6丁目","lat":35.6462852,"lon":139.85139641},{"name":"一之江橋","province":"東京都","city":"江戸川区","address":"東京都江戸川区新堀1丁目1","lat":35.70258678,"lon":139.88574945},{"name":"小松川","province":"東京都","city":"江戸川区","address":"東京都江戸川区小松川1丁目","lat":35.68984346,"lon":139.84946741},{"name":"新今井橋","province":"東京都","city":"江戸川区","address":"東京都江戸川区江戸川4丁目","lat":35.68234427,"lon":139.88820301},{"name":"平井","province":"東京都","city":"江戸川区","address":"東京都江戸川区平井6丁目71","lat":35.71365739,"lon":139.84385591},{"name":"なぎさ公園","province":"東京都","city":"江戸川区","address":"東京都江戸川区南葛西7丁目3","lat":35.64875249,"lon":139.88177994},{"name":"今井交通公園","province":"東京都","city":"江戸川区","address":"東京都江戸川区中葛西4丁目9","lat":35.66799142,"lon":139.86705815},{"name":"スポーツランド","province":"東京都","city":"江戸川区","address":"東京都江戸川区東篠崎1丁目8","lat":35.69783207,"lon":139.91731117},{"name":"ポニーランド","province":"東京都","city":"江戸川区","address":"東京都江戸川区南篠崎町3丁目23","lat":35.69480527,"lon":139.90019585},{"name":"篠崎公園","province":"東京都","city":"江戸川区","address":"東京都江戸川区上篠崎1丁目25","lat":35.7146518,"lon":139.89798133},{"name":"小岩菖蒲園","province":"東京都","city":"江戸川区","address":"東京都江戸川区北小岩4丁目37","lat":35.73856957,"lon":139.89622538},{"name":"東京臨海病院","province":"東京都","city":"江戸川区","address":"東京都江戸川区臨海町1丁目4-2","lat":35.65210677,"lon":139.85363487},{"name":"江戸川病院","province":"東京都","city":"江戸川区","address":"東京都江戸川区東小岩2丁目24-18","lat":35.72860723,"lon":139.89289248},{"name":"上篠崎","province":"東京都","city":"江戸川区","address":"東京都江戸川区上篠崎2丁目27","lat":35.71283558,"lon":139.90618361},{"name":"葛西臨海公園","province":"東京都","city":"江戸川区","address":"東京都江戸川区臨海町6丁目","lat":35.6462852,"lon":139.85139641},{"name":"一之江橋","province":"東京都","city":"江戸川区","address":"東京都江戸川区新堀1丁目1","lat":35.70258678,"lon":139.88574945},{"name":"小松川","province":"東京都","city":"江戸川区","address":"東京都江戸川区小松川1丁目","lat":35.68984346,"lon":139.84946741},{"name":"新今井橋","province":"東京都","city":"江戸川区","address":"東京都江戸川区江戸川4丁目","lat":35.68234427,"lon":139.88820301},{"name":"平井","province":"東京都","city":"江戸川区","address":"東京都江戸川区平井6丁目71","lat":35.71365739,"lon":139.84385591},{"name":"なぎさ公園","province":"東京都","city":"江戸川区","address":"東京都江戸川区南葛西7丁目3","lat":35.64875249,"lon":139.88177994},{"name":"今井交通公園","province":"東京都","city":"江戸川区","address":"東京都江戸川区中葛西4丁目9","lat":35.66799142,"lon":139.86705815},{"name":"スポーツランド","province":"東京都","city":"江戸川区","address":"東京都江戸川区東篠崎1丁目8","lat":35.69783207,"lon":139.91731117},{"name":"ポニーランド","province":"東京都","city":"江戸川区","address":"東京都江戸川区南篠崎町3丁目23","lat":35.69480527,"lon":139.90019585},{"name":"篠崎公園","province":"東京都","city":"江戸川区","address":"東京都江戸川区上篠崎1丁目25","lat":35.7146518,"lon":139.89798133},{"name":"小岩菖蒲園","province":"東京都","city":"江戸川区","address":"東京都江戸川区北小岩4丁目37","lat":35.73856957,"lon":139.89622538},{"name":"東京臨海病院","province":"東京都","city":"江戸川区","address":"東京都江戸川区臨海町1丁目4-2","lat":35.65210677,"lon":139.85363487},{"name":"江戸川病院","province":"東京都","city":"江戸川区","address":"東京都江戸川区東小岩2丁目24-18","lat":35.72860723,"lon":139.89289248},{"name":"上篠崎","province":"東京都","city":"江戸川区","address":"東京都江戸川区上篠崎2丁目27","lat":35.71283558,"lon":139.90618361},{"name":"葛西臨海公園","province":"東京都","city":"江戸川区","address":"東京都江戸川区臨海町6丁目","lat":35.6462852,"lon":139.85139641},{"name":"一之江橋","province":"東京都","city":"江戸川区","address":"東京都江戸川区新堀1丁目1","lat":35.70258678,"lon":139.88574945},{"name":"小松川","province":"東京都","city":"江戸川区","address":"東京都江戸川区小松川1丁目","lat":35.68984346,"lon":139.84946741},{"name":"新今井橋","province":"東京都","city":"江戸川区","address":"東京都江戸川区江戸川4丁目","lat":35.68234427,"lon":139.88820301},{"name":"平井","province":"東京都","city":"江戸川区","address":"東京都江戸川区平井6丁目71","lat":35.71365739,"lon":139.84385591},{"name":"なぎさ公園","province":"東京都","city":"江戸川区","address":"東京都江戸川区南葛西7丁目3","lat":35.64875249,"lon":139.88177994},{"name":"今井交通公園","province":"東京都","city":"江戸川区","address":"東京都江戸川区中葛西4丁目9","lat":35.66799142,"lon":139.86705815},{"name":"スポーツランド","province":"東京都","city":"江戸川区","address":"東京都江戸川区東篠崎1丁目8","lat":35.69783207,"lon":139.91731117},{"name":"ポニーランド","province":"東京都","city":"江戸川区","address":"東京都江戸川区南篠崎町3丁目23","lat":35.69480527,"lon":139.90019585},{"name":"篠崎公園","province":"東京都","city":"江戸川区","address":"東京都江戸川区上篠崎1丁目25","lat":35.7146518,"lon":139.89798133},{"name":"小岩菖蒲園","province":"東京都","city":"江戸川区","address":"東京都江戸川区北小岩4丁目37","lat":35.73856957,"lon":139.89622538},{"name":"東京臨海病院","province":"東京都","city":"江戸川区","address":"東京都江戸川区臨海町1丁目4-2","lat":35.65210677,"lon":139.85363487},{"name":"江戸川病院","province":"東京都","city":"江戸川区","address":"東京都江戸川区東小岩2丁目24-18","lat":35.72860723,"lon":139.89289248},{"name":"上篠崎","province":"東京都","city":"江戸川区","address":"東京都江戸川区上篠崎2丁目27","lat":35.71283558,"lon":139.90618361},{"name":"葛西臨海公園","province":"東京都","city":"江戸川区","address":"東京都江戸川区臨海町6丁目","lat":35.6462852,"lon":139.85139641},{"name":"一之江橋","province":"東京都","city":"江戸川区","address":"東京都江戸川区新堀1丁目1","lat":35.70258678,"lon":139.88574945},{"name":"小松川","province":"東京都","city":"江戸川区","address":"東京都江戸川区小松川1丁目","lat":35.68984346,"lon":139.84946741},{"name":"新今井橋","province":"東京都","city":"江戸川区","address":"東京都江戸川区江戸川4丁目","lat":35.68234427,"lon":139.88820301},{"name":"平井","province":"東京都","city":"江戸川区","address":"東京都江戸川区平井6丁目71","lat":35.71365739,"lon":139.84385591},{"name":"なぎさ公園","province":"東京都","city":"江戸川区","address":"東京都江戸川区南葛西7丁目3","lat":35.64875249,"lon":139.88177994},{"name":"今井交通公園","province":"東京都","city":"江戸川区","address":"東京都江戸川区中葛西4丁目9","lat":35.66799142,"lon":139.86705815},{"name":"スポーツランド","province":"東京都","city":"江戸川区","address":"東京都江戸川区東篠崎1丁目8","lat":35.69783207,"lon":139.91731117},{"name":"ポニーランド","province":"東京都","city":"江戸川区","address":"東京都江戸川区南篠崎町3丁目23","lat":35.69480527,"lon":139.90019585},{"name":"篠崎公園","province":"東京都","city":"江戸川区","address":"東京都江戸川区上篠崎1丁目25","lat":35.7146518,"lon":139.89798133},{"name":"小岩菖蒲園","province":"東京都","city":"江戸川区","address":"東京都江戸川区北小岩4丁目37","lat":35.73856957,"lon":139.89622538},{"name":"東京臨海病院","province":"東京都","city":"江戸川区","address":"東京都江戸川区臨海町1丁目4-2","lat":35.65210677,"lon":139.85363487},{"name":"江戸川病院","province":"東京都","city":"江戸川区","address":"東京都江戸川区東小岩2丁目24-18","lat":35.72860723,"lon":139.89289248},{"name":"上篠崎","province":"東京都","city":"江戸川区","address":"東京都江戸川区上篠崎2丁目27","lat":35.71283558,"lon":139.90618361},{"name":"葛西臨海公園","province":"東京都","city":"江戸川区","address":"東京都江戸川区臨海町6丁目","lat":35.6462852,"lon":139.85139641},{"name":"一之江橋","province":"東京都","city":"江戸川区","address":"東京都江戸川区新堀1丁目1","lat":35.70258678,"lon":139.88574945},{"name":"小松川","province":"東京都","city":"江戸川区","address":"東京都江戸川区小松川1丁目","lat":35.68984346,"lon":139.84946741},{"name":"新今井橋","province":"東京都","city":"江戸川区","address":"東京都江戸川区江戸川4丁目","lat":35.68234427,"lon":139.88820301},{"name":"平井","province":"東京都","city":"江戸川区","address":"東京都江戸川区平井6丁目71","lat":35.71365739,"lon":139.84385591},{"name":"なぎさ公園","province":"東京都","city":"江戸川区","address":"東京都江戸川区南葛西7丁目3","lat":35.64875249,"lon":139.88177994},{"name":"今井交通公園","province":"東京都","city":"江戸川区","address":"東京都江戸川区中葛西4丁目9","lat":35.66799142,"lon":139.86705815},{"name":"スポーツランド","province":"東京都","city":"江戸川区","address":"東京都江戸川区東篠崎1丁目8","lat":35.69783207,"lon":139.91731117},{"name":"ポニーランド","province":"東京都","city":"江戸川区","address":"東京都江戸川区南篠崎町3丁目23","lat":35.69480527,"lon":139.90019585},{"name":"篠崎公園","province":"東京都","city":"江戸川区","address":"東京都江戸川区上篠崎1丁目25","lat":35.7146518,"lon":139.89798133},{"name":"小岩菖蒲園","province":"東京都","city":"江戸川区","address":"東京都江戸川区北小岩4丁目37","lat":35.73856957,"lon":139.89622538},{"name":"東京臨海病院","province":"東京都","city":"江戸川区","address":"東京都江戸川区臨海町1丁目4-2","lat":35.65210677,"lon":139.85363487},{"name":"江戸川病院","province":"東京都","city":"江戸川区","address":"東京都江戸川区東小岩2丁目24-18","lat":35.72860723,"lon":139.89289248},{"name":"上篠崎","province":"東京都","city":"江戸川区","address":"東京都江戸川区上篠崎2丁目27","lat":35.71283558,"lon":139.90618361},{"name":"葛西臨海公園","province":"東京都","city":"江戸川区","address":"東京都江戸川区臨海町6丁目","lat":35.6462852,"lon":139.85139641},{"name":"一之江橋","province":"東京都","city":"江戸川区","address":"東京都江戸川区新堀1丁目1","lat":35.70258678,"lon":139.88574945},{"name":"小松川","province":"東京都","city":"江戸川区","address":"東京都江戸川区小松川1丁目","lat":35.68984346,"lon":139.84946741},{"name":"新今井橋","province":"東京都","city":"江戸川区","address":"東京都江戸川区江戸川4丁目","lat":35.68234427,"lon":139.88820301},{"name":"平井","province":"東京都","city":"江戸川区","address":"東京都江戸川区平井6丁目71","lat":35.71365739,"lon":139.84385591},{"name":"なぎさ公園","province":"東京都","city":"江戸川区","address":"東京都江戸川区南葛西7丁目3","lat":35.64875249,"lon":139.88177994},{"name":"今井交通公園","province":"東京都","city":"江戸川区","address":"東京都江戸川区中葛西4丁目9","lat":35.66799142,"lon":139.86705815},{"name":"スポーツランド","province":"東京都","city":"江戸川区","address":"東京都江戸川区東篠崎1丁目8","lat":35.69783207,"lon":139.91731117},{"name":"ポニーランド","province":"東京都","city":"江戸川区","address":"東京都江戸川区南篠崎町3丁目23","lat":35.69480527,"lon":139.90019585},{"name":"篠崎公園","province":"東京都","city":"江戸川区","address":"東京都江戸川区上篠崎1丁目25","lat":35.7146518,"lon":139.89798133},{"name":"小岩菖蒲園","province":"東京都","city":"江戸川区","address":"東京都江戸川区北小岩4丁目37","lat":35.73856957,"lon":139.89622538},{"name":"東京臨海病院","province":"東京都","city":"江戸川区","address":"東京都江戸川区臨海町1丁目4-2","lat":35.65210677,"lon":139.85363487},{"name":"江戸川病院","province":"東京都","city":"江戸川区","address":"東京都江戸川区東小岩2丁目24-18","lat":35.72860723,"lon":139.89289248},{"name":"上篠崎","province":"東京都","city":"江戸川区","address":"東京都江戸川区上篠崎2丁目27","lat":35.71283558,"lon":139.90618361},{"name":"葛西臨海公園","province":"東京都","city":"江戸川区","address":"東京都江戸川区臨海町6丁目","lat":35.6462852,"lon":139.85139641},{"name":"一之江橋","province":"東京都","city":"江戸川区","address":"東京都江戸川区新堀1丁目1","lat":35.70258678,"lon":139.88574945},{"name":"小松川","province":"東京都","city":"江戸川区","address":"東京都江戸川区小松川1丁目","lat":35.68984346,"lon":139.84946741},{"name":"新今井橋","province":"東京都","city":"江戸川区","address":"東京都江戸川区江戸川4丁目","lat":35.68234427,"lon":139.88820301},{"name":"平井","province":"東京都","city":"江戸川区","address":"東京都江戸川区平井6丁目71","lat":35.71365739,"lon":139.84385591},{"name":"なぎさ公園","province":"東京都","city":"江戸川区","address":"東京都江戸川区南葛西7丁目3","lat":35.64875249,"lon":139.88177994},{"name":"今井交通公園","province":"東京都","city":"江戸川区","address":"東京都江戸川区中葛西4丁目9","lat":35.66799142,"lon":139.86705815},{"name":"スポーツランド","province":"東京都","city":"江戸川区","address":"東京都江戸川区東篠崎1丁目8","lat":35.69783207,"lon":139.91731117},{"name":"ポニーランド","province":"東京都","city":"江戸川区","address":"東京都江戸川区南篠崎町3丁目23","lat":35.69480527,"lon":139.90019585},{"name":"篠崎公園","province":"東京都","city":"江戸川区","address":"東京都江戸川区上篠崎1丁目25","lat":35.7146518,"lon":139.89798133},{"name":"小岩菖蒲園","province":"東京都","city":"江戸川区","address":"東京都江戸川区北小岩4丁目37","lat":35.73856957,"lon":139.89622538},{"name":"東京臨海病院","province":"東京都","city":"江戸川区","address":"東京都江戸川区臨海町1丁目4-2","lat":35.65210677,"lon":139.85363487},{"name":"江戸川病院","province":"東京都","city":"江戸川区","address":"東京都江戸川区東小岩2丁目24-18","lat":35.72860723,"lon":139.89289248},{"name":"上篠崎","province":"東京都","city":"江戸川区","address":"東京都江戸川区上篠崎2丁目27","lat":35.71283558,"lon":139.90618361},{"name":"葛西臨海公園","province":"東京都","city":"江戸川区","address":"東京都江戸川区臨海町6丁目","lat":35.6462852,"lon":139.85139641},{"name":"一之江橋","province":"東京都","city":"江戸川区","address":"東京都江戸川区新堀1丁目1","lat":35.70258678,"lon":139.88574945},{"name":"小松川","province":"東京都","city":"江戸川区","address":"東京都江戸川区小松川1丁目","lat":35.68984346,"lon":139.84946741},{"name":"新今井橋","province":"東京都","city":"江戸川区","address":"東京都江戸川区江戸川4丁目","lat":35.68234427,"lon":139.88820301},{"name":"平井","province":"東京都","city":"江戸川区","address":"東京都江戸川区平井6丁目71","lat":35.71365739,"lon":139.84385591},{"name":"なぎさ公園","province":"東京都","city":"江戸川区","address":"東京都江戸川区南葛西7丁目3","lat":35.64875249,"lon":139.88177994},{"name":"今井交通公園","province":"東京都","city":"江戸川区","address":"東京都江戸川区中葛西4丁目9","lat":35.66799142,"lon":139.86705815},{"name":"スポーツランド","province":"東京都","city":"江戸川区","address":"東京都江戸川区東篠崎1丁目8","lat":35.69783207,"lon":139.91731117},{"name":"ポニーランド","province":"東京都","city":"江戸川区","address":"東京都江戸川区南篠崎町3丁目23","lat":35.69480527,"lon":139.90019585},{"name":"篠崎公園","province":"東京都","city":"江戸川区","address":"東京都江戸川区上篠崎1丁目25","lat":35.7146518,"lon":139.89798133},{"name":"小岩菖蒲園","province":"東京都","city":"江戸川区","address":"東京都江戸川区北小岩4丁目37","lat":35.73856957,"lon":139.89622538},{"name":"東京臨海病院","province":"東京都","city":"江戸川区","address":"東京都江戸川区臨海町1丁目4-2","lat":35.65210677,"lon":139.85363487},{"name":"江戸川病院","province":"東京都","city":"江戸川区","address":"東京都江戸川区東小岩2丁目24-18","lat":35.72860723,"lon":139.89289248},{"name":"上篠崎","province":"東京都","city":"江戸川区","address":"東京都江戸川区上篠崎2丁目27","lat":35.71283558,"lon":139.90618361},{"name":"葛西臨海公園","province":"東京都","city":"江戸川区","address":"東京都江戸川区臨海町6丁目","lat":35.6462852,"lon":139.85139641},{"name":"一之江橋","province":"東京都","city":"江戸川区","address":"東京都江戸川区新堀1丁目1","lat":35.70258678,"lon":139.88574945},{"name":"小松川","province":"東京都","city":"江戸川区","address":"東京都江戸川区小松川1丁目","lat":35.68984346,"lon":139.84946741},{"name":"新今井橋","province":"東京都","city":"江戸川区","address":"東京都江戸川区江戸川4丁目","lat":35.68234427,"lon":139.88820301},{"name":"平井","province":"東京都","city":"江戸川区","address":"東京都江戸川区平井6丁目71","lat":35.71365739,"lon":139.84385591},{"name":"なぎさ公園","province":"東京都","city":"江戸川区","address":"東京都江戸川区南葛西7丁目3","lat":35.64875249,"lon":139.88177994},{"name":"今井交通公園","province":"東京都","city":"江戸川区","address":"東京都江戸川区中葛西4丁目9","lat":35.66799142,"lon":139.86705815},{"name":"スポーツランド","province":"東京都","city":"江戸川区","address":"東京都江戸川区東篠崎1丁目8","lat":35.69783207,"lon":139.91731117},{"name":"ポニーランド","province":"東京都","city":"江戸川区","address":"東京都江戸川区南篠崎町3丁目23","lat":35.69480527,"lon":139.90019585},{"name":"篠崎公園","province":"東京都","city":"江戸川区","address":"東京都江戸川区上篠崎1丁目25","lat":35.7146518,"lon":139.89798133},{"name":"小岩菖蒲園","province":"東京都","city":"江戸川区","address":"東京都江戸川区北小岩4丁目37","lat":35.73856957,"lon":139.89622538},{"name":"東京臨海病院","province":"東京都","city":"江戸川区","address":"東京都江戸川区臨海町1丁目4-2","lat":35.65210677,"lon":139.85363487},{"name":"江戸川病院","province":"東京都","city":"江戸川区","address":"東京都江戸川区東小岩2丁目24-18","lat":35.72860723,"lon":139.89289248},{"name":"上篠崎","province":"東京都","city":"江戸川区","address":"東京都江戸川区上篠崎2丁目27","lat":35.71283558,"lon":139.90618361},{"name":"葛西臨海公園","province":"東京都","city":"江戸川区","address":"東京都江戸川区臨海町6丁目","lat":35.6462852,"lon":139.85139641},{"name":"一之江橋","province":"東京都","city":"江戸川区","address":"東京都江戸川区新堀1丁目1","lat":35.70258678,"lon":139.88574945},{"name":"小松川","province":"東京都","city":"江戸川区","address":"東京都江戸川区小松川1丁目","lat":35.68984346,"lon":139.84946741},{"name":"新今井橋","province":"東京都","city":"江戸川区","address":"東京都江戸川区江戸川4丁目","lat":35.68234427,"lon":139.88820301},{"name":"平井","province":"東京都","city":"江戸川区","address":"東京都江戸川区平井6丁目71","lat":35.71365739,"lon":139.84385591},{"name":"なぎさ公園","province":"東京都","city":"江戸川区","address":"東京都江戸川区南葛西7丁目3","lat":35.64875249,"lon":139.88177994},{"name":"今井交通公園","province":"東京都","city":"江戸川区","address":"東京都江戸川区中葛西4丁目9","lat":35.66799142,"lon":139.86705815},{"name":"スポーツランド","province":"東京都","city":"江戸川区","address":"東京都江戸川区東篠崎1丁目8","lat":35.69783207,"lon":139.91731117},{"name":"ポニーランド","province":"東京都","city":"江戸川区","address":"東京都江戸川区南篠崎町3丁目23","lat":35.69480527,"lon":139.90019585},{"name":"篠崎公園","province":"東京都","city":"江戸川区","address":"東京都江戸川区上篠崎1丁目25","lat":35.7146518,"lon":139.89798133},{"name":"小岩菖蒲園","province":"東京都","city":"江戸川区","address":"東京都江戸川区北小岩4丁目37","lat":35.73856957,"lon":139.89622538},{"name":"東京臨海病院","province":"東京都","city":"江戸川区","address":"東京都江戸川区臨海町1丁目4-2","lat":35.65210677,"lon":139.85363487},{"name":"江戸川病院","province":"東京都","city":"江戸川区","address":"東京都江戸川区東小岩2丁目24-18","lat":35.72860723,"lon":139.89289248},{"name":"上篠崎","province":"東京都","city":"江戸川区","address":"東京都江戸川区上篠崎2丁目27","lat":35.71283558,"lon":139.90618361},{"name":"葛西臨海公園","province":"東京都","city":"江戸川区","address":"東京都江戸川区臨海町6丁目","lat":35.6462852,"lon":139.85139641},{"name":"一之江橋","province":"東京都","city":"江戸川区","address":"東京都江戸川区新堀1丁目1","lat":35.70258678,"lon":139.88574945},{"name":"小松川","province":"東京都","city":"江戸川区","address":"東京都江戸川区小松川1丁目","lat":35.68984346,"lon":139.84946741},{"name":"新今井橋","province":"東京都","city":"江戸川区","address":"東京都江戸川区江戸川4丁目","lat":35.68234427,"lon":139.88820301},{"name":"平井","province":"東京都","city":"江戸川区","address":"東京都江戸川区平井6丁目71","lat":35.71365739,"lon":139.84385591},{"name":"なぎさ公園","province":"東京都","city":"江戸川区","address":"東京都江戸川区南葛西7丁目3","lat":35.64875249,"lon":139.88177994},{"name":"今井交通公園","province":"東京都","city":"江戸川区","address":"東京都江戸川区中葛西4丁目9","lat":35.66799142,"lon":139.86705815},{"name":"スポーツランド","province":"東京都","city":"江戸川区","address":"東京都江戸川区東篠崎1丁目8","lat":35.69783207,"lon":139.91731117},{"name":"ポニーランド","province":"東京都","city":"江戸川区","address":"東京都江戸川区南篠崎町3丁目23","lat":35.69480527,"lon":139.90019585},{"name":"篠崎公園","province":"東京都","city":"江戸川区","address":"東京都江戸川区上篠崎1丁目25","lat":35.7146518,"lon":139.89798133},{"name":"小岩菖蒲園","province":"東京都","city":"江戸川区","address":"東京都江戸川区北小岩4丁目37","lat":35.73856957,"lon":139.89622538},{"name":"東京臨海病院","province":"東京都","city":"江戸川区","address":"東京都江戸川区臨海町1丁目4-2","lat":35.65210677,"lon":139.85363487},{"name":"江戸川病院","province":"東京都","city":"江戸川区","address":"東京都江戸川区東小岩2丁目24-18","lat":35.72860723,"lon":139.89289248},{"name":"上篠崎","province":"東京都","city":"江戸川区","address":"東京都江戸川区上篠崎2丁目27","lat":35.71283558,"lon":139.90618361},{"name":"葛西臨海公園","province":"東京都","city":"江戸川区","address":"東京都江戸川区臨海町6丁目","lat":35.6462852,"lon":139.85139641},{"name":"一之江橋","province":"東京都","city":"江戸川区","address":"東京都江戸川区新堀1丁目1","lat":35.70258678,"lon":139.88574945},{"name":"小松川","province":"東京都","city":"江戸川区","address":"東京都江戸川区小松川1丁目","lat":35.68984346,"lon":139.84946741},{"name":"新今井橋","province":"東京都","city":"江戸川区","address":"東京都江戸川区江戸川4丁目","lat":35.68234427,"lon":139.88820301},{"name":"平井","province":"東京都","city":"江戸川区","address":"東京都江戸川区平井6丁目71","lat":35.71365739,"lon":139.84385591},{"name":"なぎさ公園","province":"東京都","city":"江戸川区","address":"東京都江戸川区南葛西7丁目3","lat":35.64875249,"lon":139.88177994},{"name":"今井交通公園","province":"東京都","city":"江戸川区","address":"東京都江戸川区中葛西4丁目9","lat":35.66799142,"lon":139.86705815},{"name":"スポーツランド","province":"東京都","city":"江戸川区","address":"東京都江戸川区東篠崎1丁目8","lat":35.69783207,"lon":139.91731117},{"name":"ポニーランド","province":"東京都","city":"江戸川区","address":"東京都江戸川区南篠崎町3丁目23","lat":35.69480527,"lon":139.90019585},{"name":"篠崎公園","province":"東京都","city":"江戸川区","address":"東京都江戸川区上篠崎1丁目25","lat":35.7146518,"lon":139.89798133},{"name":"小岩菖蒲園","province":"東京都","city":"江戸川区","address":"東京都江戸川区北小岩4丁目37","lat":35.73856957,"lon":139.89622538},{"name":"東京臨海病院","province":"東京都","city":"江戸川区","address":"東京都江戸川区臨海町1丁目4-2","lat":35.65210677,"lon":139.85363487},{"name":"江戸川病院","province":"東京都","city":"江戸川区","address":"東京都江戸川区東小岩2丁目24-18","lat":35.72860723,"lon":139.89289248},{"name":"東京臨海病院","province":"東京都","city":"江戸川区","address":"東京都江戸川区臨海町1丁目4-2","lat":35.65210677,"lon":139.85363487},{"name":"江戸川病院","province":"東京都","city":"江戸川区","address":"東京都江戸川区東小岩2丁目24-18","lat":35.72860723,"lon":139.89289248},{"name":"東京臨海病院","province":"東京都","city":"江戸川区","address":"東京都江戸川区臨海町1丁目4-2","lat":35.65210677,"lon":139.85363487},{"name":"江戸川病院","province":"東京都","city":"江戸川区","address":"東京都江戸川区東小岩2丁目24-18","lat":35.72860723,"lon":139.89289248},{"name":"東京臨海病院","province":"東京都","city":"江戸川区","address":"東京都江戸川区臨海町1丁目4-2","lat":35.65210677,"lon":139.85363487},{"name":"江戸川病院","province":"東京都","city":"江戸川区","address":"東京都江戸川区東小岩2丁目24-18","lat":35.72860723,"lon":139.89289248},{"name":"東京臨海病院","province":"東京都","city":"江戸川区","address":"東京都江戸川区臨海町1丁目4-2","lat":35.65210677,"lon":139.85363487},{"name":"江戸川病院","province":"東京都","city":"江戸川区","address":"東京都江戸川区東小岩2丁目24-18","lat":35.72860723,"lon":139.89289248},{"name":"東京臨海病院","province":"東京都","city":"江戸川区","address":"東京都江戸川区臨海町1丁目4-2","lat":35.65210677,"lon":139.85363487},{"name":"江戸川病院","province":"東京都","city":"江戸川区","address":"東京都江戸川区東小岩2丁目24-18","lat":35.72860723,"lon":139.89289248},{"name":"東京臨海病院","province":"東京都","city":"江戸川区","address":"東京都江戸川区臨海町1丁目4-2","lat":35.65210677,"lon":139.85363487},{"name":"江戸川病院","province":"東京都","city":"江戸川区","address":"東京都江戸川区東小岩2丁目24-18","lat":35.72860723,"lon":139.89289248},{"name":"東京臨海病院","province":"東京都","city":"江戸川区","address":"東京都江戸川区臨海町1丁目4-2","lat":35.65210677,"lon":139.85363487},{"name":"江戸川病院","province":"東京都","city":"江戸川区","address":"東京都江戸川区東小岩2丁目24-18","lat":35.72860723,"lon":139.89289248},{"name":"東京臨海病院","province":"東京都","city":"江戸川区","address":"東京都江戸川区臨海町1丁目4-2","lat":35.65210677,"lon":139.85363487},{"name":"江戸川病院","province":"東京都","city":"江戸川区","address":"東京都江戸川区東小岩2丁目24-18","lat":35.72860723,"lon":139.89289248},{"name":"東京臨海病院","province":"東京都","city":"江戸川区","address":"東京都江戸川区臨海町1丁目4-2","lat":35.65210677,"lon":139.85363487},{"name":"江戸川病院","province":"東京都","city":"江戸川区","address":"東京都江戸川区東小岩2丁目24-18","lat":35.72860723,"lon":139.89289248},{"name":"東京臨海病院","province":"東京都","city":"江戸川区","address":"東京都江戸川区臨海町1丁目4-2","lat":35.65210677,"lon":139.85363487},{"name":"江戸川病院","province":"東京都","city":"江戸川区","address":"東京都江戸川区東小岩2丁目24-18","lat":35.72860723,"lon":139.89289248},{"name":"東京臨海病院","province":"東京都","city":"江戸川区","address":"東京都江戸川区臨海町1丁目4-2","lat":35.65210677,"lon":139.85363487},{"name":"江戸川病院","province":"東京都","city":"江戸川区","address":"東京都江戸川区東小岩2丁目24-18","lat":35.72860723,"lon":139.89289248},{"name":"東京臨海病院","province":"東京都","city":"江戸川区","address":"東京都江戸川区臨海町1丁目4-2","lat":35.65210677,"lon":139.85363487},{"name":"江戸川病院","province":"東京都","city":"江戸川区","address":"東京都江戸川区東小岩2丁目24-18","lat":35.72860723,"lon":139.89289248}]}