{"keyword":"保育","data":[{"name":"新堀おひさま保育園","province":"東京都","city":"江戸川区","address":"江戸川区新堀2-13-13","lat":35.703599,"lon":139.891454},{"name":"春江第二保育園","province":"東京都","city":"江戸川区","address":"江戸川区春江町2-4-2","lat":35.699476,"lon":139.886713},{"name":"ココファン・ナーサリー瑞江","province":"東京都","city":"江戸川区","address":"江戸川区瑞江1-28-9","lat":35.699641,"lon":139.897654},{"name":"若葉インターナショナルナーサリー","province":"東京都","city":"江戸川区","address":"江戸川区瑞江2-14-71F","lat":35.694269,"lon":139.897163},{"name":"江戸川二丁目保育園","province":"東京都","city":"江戸川区","address":"江戸川区江戸川2-31","lat":35.685361,"lon":139.901055},{"name":"ルンビニ―保育園","province":"東京都","city":"江戸川区","address":"江戸川区江戸川3-8","lat":35.684936,"lon":139.895025},{"name":"江戸川保育園","province":"東京都","city":"江戸川区","address":"江戸川区江戸川1-46","lat":35.688447,"lon":139.902732},{"name":"みどりの郷保育園","province":"東京都","city":"江戸川区","address":"江戸川区江戸川2-15-22","lat":35.684078,"lon":139.903496},{"name":"若葉インターナショナル幼保園瑞江園","province":"東京都","city":"江戸川区","address":"江戸川区東瑞江3-55-21-101","lat":35.690017,"lon":139.897566},{"name":"今井保育園","province":"東京都","city":"江戸川区","address":"江戸川区西瑞江3-38-4","lat":35.685661,"lon":139.888267},{"name":"アゼリー保育園","province":"東京都","city":"江戸川区","address":"江戸川区中央1-8-21","lat":35.709312,"lon":139.869534},{"name":"大杉保育園","province":"東京都","city":"江戸川区","address":"江戸川区大杉1-16-9","lat":35.70536,"lon":139.876378},{"name":"ゆずりは保育園","province":"東京都","city":"江戸川区","address":"江戸川区大杉3-23-17","lat":35.705283,"lon":139.882683},{"name":"アスク西一之江保育園","province":"東京都","city":"江戸川区","address":"江戸川区西一之江3-45-10","lat":35.695034,"lon":139.880056},{"name":"にじいろ保育園一之江","province":"東京都","city":"江戸川区","address":"江戸川区一之江7-39-13","lat":35.685485,"lon":139.880534},{"name":"一之江第一保育園","province":"東京都","city":"江戸川区","address":"江戸川区一之江3-13-7","lat":35.689768,"lon":139.884256},{"name":"一之江保育園","province":"東京都","city":"江戸川区","address":"江戸川区一之江6-19-10","lat":35.690673,"lon":139.877445},{"name":"ピノキオ幼児舎ゆめのこ保育園","province":"東京都","city":"江戸川区","address":"江戸川区一之江7-35-223階","lat":35.686132,"lon":139.881667},{"name":"小鳩ナーサリースクール一之江","province":"東京都","city":"江戸川区","address":"江戸川区一之江7-41-151F","lat":35.686624,"lon":139.881514},{"name":"松江おひさま保育園","province":"東京都","city":"江戸川区","address":"江戸川区松江1-10-5","lat":35.702801,"lon":139.86964},{"name":"南松島保育園","province":"東京都","city":"江戸川区","address":"江戸川区松島1-19-15","lat":35.703084,"lon":139.86348},{"name":"東小松川おひさま保育園","province":"東京都","city":"江戸川区","address":"江戸川区松島1-40-18","lat":35.707284,"lon":139.866474},{"name":"松島おひさま保育園","province":"東京都","city":"江戸川区","address":"江戸川区松島2-30-17","lat":35.707794,"lon":139.863807},{"name":"わんぱくすまいる保育園","province":"東京都","city":"江戸川区","address":"江戸川区松島3-39-15","lat":35.711716,"lon":139.86404},{"name":"西小松川保育園","province":"東京都","city":"江戸川区","address":"江戸川区西小松川町11-17","lat":35.698498,"lon":139.864005},{"name":"松江保育園","province":"東京都","city":"江戸川区","address":"江戸川区東小松川1-5-13","lat":35.701934,"lon":139.866132},{"name":"みのりのわかば保育園","province":"東京都","city":"江戸川区","address":"江戸川区東小松川3-24-16","lat":35.69366,"lon":139.866271},{"name":"小松川おひさま保育園","province":"東京都","city":"江戸川区","address":"江戸川区小松川1-2-2-116","lat":35.687777,"lon":139.848651},{"name":"小松川第二保育園","province":"東京都","city":"江戸川区","address":"江戸川区小松川2-3-3-101","lat":35.696687,"lon":139.850459},{"name":"小松川第三保育園","province":"東京都","city":"江戸川区","address":"江戸川区小松川3-13-1","lat":35.699606,"lon":139.852784},{"name":"平井保育園","province":"東京都","city":"江戸川区","address":"江戸川区平井6-15-16","lat":35.707675,"lon":139.839931},{"name":"南平井保育園","province":"東京都","city":"江戸川区","address":"江戸川区平井3-4-7-101","lat":35.703597,"lon":139.840982},{"name":"西平井保育園","province":"東京都","city":"江戸川区","address":"江戸川区平井7-21-6","lat":35.714593,"lon":139.840134},{"name":"平井第二保育園","province":"東京都","city":"江戸川区","address":"江戸川区平井6-1-23-101","lat":35.705655,"lon":139.83549},{"name":"逆井保育園","province":"東京都","city":"江戸川区","address":"江戸川区平井1-24-33","lat":35.703822,"lon":139.850542},{"name":"光徳保育園","province":"東京都","city":"江戸川区","address":"江戸川区平井6-53-7","lat":35.712349,"lon":139.842398},{"name":"つくしんぼ保育園","province":"東京都","city":"江戸川区","address":"江戸川区平井3-6-6","lat":35.704897,"lon":139.840643},{"name":"善隣館保育園","province":"東京都","city":"江戸川区","address":"江戸川区上一色1-13-1","lat":35.72473,"lon":139.871869},{"name":"松本おひさま保育園","province":"東京都","city":"江戸川区","address":"江戸川区松本1-9-3","lat":35.713659,"lon":139.876708},{"name":"小岩保育園","province":"東京都","city":"江戸川区","address":"江戸川区北小岩6-49-9","lat":35.743391,"lon":139.888606},{"name":"小岩みどり保育園","province":"東京都","city":"江戸川区","address":"江戸川区北小岩5-27-16","lat":35.740683,"lon":139.890526},{"name":"富士見保育園","province":"東京都","city":"江戸川区","address":"江戸川区北小岩2-15-8","lat":35.740569,"lon":139.885196},{"name":"北小岩おひさま保育園","province":"東京都","city":"江戸川区","address":"江戸川区北小岩5-7-4","lat":35.740653,"lon":139.887743},{"name":"太陽の子北小岩保育園","province":"東京都","city":"江戸川区","address":"江戸川区北小岩4-29-21","lat":35.740594,"lon":139.894978},{"name":"ベルカント保育園","province":"東京都","city":"江戸川区","address":"江戸川区東小岩4-4-2","lat":35.725127,"lon":139.889012},{"name":"東小岩おひさま保育園","province":"東京都","city":"江戸川区","address":"江戸川区東小岩2-6-24","lat":35.727435,"lon":139.892381},{"name":"東小岩わんぱく保育園","province":"東京都","city":"江戸川区","address":"江戸川区東葛西1-7-4","lat":35.671805,"lon":139.876593},{"name":"なないろ保育園","province":"東京都","city":"江戸川区","address":"江戸川区上篠崎1-10-2","lat":35.713702,"lon":139.903312},{"name":"西篠崎おひさま保育園","province":"東京都","city":"江戸川区","address":"江戸川区西篠崎2-6-11","lat":35.711683,"lon":139.894826},{"name":"南小岩保育園","province":"東京都","city":"江戸川区","address":"江戸川区南小岩4-5-8","lat":35.720925,"lon":139.885652},{"name":"ルーテル保育園","province":"東京都","city":"江戸川区","address":"江戸川区南小岩3-6-8","lat":35.725366,"lon":139.884407},{"name":"白鳩保育園","province":"東京都","city":"江戸川区","address":"江戸川区南小岩3-22-19","lat":35.724816,"lon":139.88774},{"name":"つぼみ保育園","province":"東京都","city":"江戸川区","address":"江戸川区南小岩7-4-9","lat":35.727355,"lon":139.883896},{"name":"西小岩保育園","province":"東京都","city":"江戸川区","address":"江戸川区西小岩2-13-2","lat":35.732668,"lon":139.874747},{"name":"なでしこ保育園","province":"東京都","city":"江戸川区","address":"江戸川区西小岩5-7-17","lat":35.741111,"lon":139.881512},{"name":"西小岩おひさま保育園","province":"東京都","city":"江戸川区","address":"江戸川区西小岩1-19-1","lat":35.73234,"lon":139.879449},{"name":"篠崎わんぱく保育園","province":"東京都","city":"江戸川区","address":"江戸川区篠崎町2-19-21","lat":35.705326,"lon":139.905948},{"name":"しのざきさくらさくほいくえん","province":"東京都","city":"江戸川区","address":"江戸川区篠崎町7-13-18","lat":35.703738,"lon":139.902723},{"name":"東篠崎保育園","province":"東京都","city":"江戸川区","address":"江戸川区東篠崎1-6-1","lat":35.696663,"lon":139.915959},{"name":"南篠崎保育園","province":"東京都","city":"江戸川区","address":"江戸川区南篠崎町3-12-8","lat":35.696777,"lon":139.899063},{"name":"南篠崎第二保育園","province":"東京都","city":"江戸川区","address":"江戸川区南篠崎町5-11-1","lat":35.692016,"lon":139.908998},{"name":"篠崎保育園","province":"東京都","city":"江戸川区","address":"江戸川区南篠崎町1-1-24","lat":35.692614,"lon":139.906107},{"name":"なの花保育園","province":"東京都","city":"江戸川区","address":"江戸川区南篠崎町2-9-5","lat":35.6923,"lon":139.899649},{"name":"南篠崎おひさま保育園","province":"東京都","city":"江戸川区","address":"江戸川区南篠崎5-13-40","lat":35.694638,"lon":139.910515},{"name":"鹿骨おひさま保育園","province":"東京都","city":"江戸川区","address":"江戸川区鹿骨2-23-1","lat":35.707523,"lon":139.894046},{"name":"春江おひさま保育園","province":"東京都","city":"江戸川区","address":"江戸川区春江町5-2","lat":35.682332,"lon":139.879129},{"name":"みづえ保育園","province":"東京都","city":"江戸川区","address":"江戸川区江戸川4-23","lat":35.678822,"lon":139.883609},{"name":"宇喜田保育園","province":"東京都","city":"江戸川区","address":"江戸川区北葛西2-19-1","lat":35.674973,"lon":139.856326},{"name":"白百合保育園","province":"東京都","city":"江戸川区","address":"江戸川区北葛西4-3-9","lat":35.672466,"lon":139.86195},{"name":"北葛西おひさま保育園","province":"東京都","city":"江戸川区","address":"江戸川区北葛西4-3-23","lat":35.671344,"lon":139.86285},{"name":"宇喜田第二保育園","province":"東京都","city":"江戸川区","address":"江戸川区中葛西4-9-5","lat":35.667758,"lon":139.867089},{"name":"ふきのとう保育園","province":"東京都","city":"江戸川区","address":"江戸川区中葛西6-4-7","lat":35.660703,"lon":139.865406},{"name":"葛西第二おひさま保育園","province":"東京都","city":"江戸川区","address":"江戸川区中葛西2-11-13","lat":35.673388,"lon":139.875485},{"name":"中葛西おひさま保育園","province":"東京都","city":"江戸川区","address":"江戸川区中葛西6-17-15","lat":35.660334,"lon":139.868242},{"name":"ほっぺるランド中葛西","province":"東京都","city":"江戸川区","address":"江戸川区中葛西1-1-15","lat":35.66915,"lon":139.867105},{"name":"ポピンズナーサリースクール中葛西","province":"東京都","city":"江戸川区","address":"江戸川区中葛西5-21-2","lat":35.662525,"lon":139.869175},{"name":"たんぽぽ保育園","province":"東京都","city":"江戸川区","address":"江戸川区東葛西8-19-2","lat":35.655791,"lon":139.880169},{"name":"東葛西保育園","province":"東京都","city":"江戸川区","address":"江戸川区東葛西9-10-1-101","lat":35.658415,"lon":139.882482},{"name":"仲町保育園","province":"東京都","city":"江戸川区","address":"江戸川区東葛西9-6-5","lat":35.658199,"lon":139.881513},{"name":"葛西駅前さくら保育園","province":"東京都","city":"江戸川区","address":"江戸川区東葛西5-1-3ボアビル2F","lat":35.664126,"lon":139.873513},{"name":"葛西おひさま保育園","province":"東京都","city":"江戸川区","address":"江戸川区東葛西5-29-14","lat":35.664306,"lon":139.878024},{"name":"太陽の子東葛西保育園","province":"東京都","city":"江戸川区","address":"江戸川区東葛西7-28-151F","lat":35.657307,"lon":139.880788},{"name":"アスク東葛西保育園","province":"東京都","city":"江戸川区","address":"江戸川区東葛西6-28-6","lat":35.660104,"lon":139.876433},{"name":"南葛西おひさま保育園","province":"東京都","city":"江戸川区","address":"江戸川区南葛西5-18-1","lat":35.642681,"lon":139.871928},{"name":"堀江保育園","province":"東京都","city":"江戸川区","address":"江戸川区南葛西3-16-5","lat":35.64881,"lon":139.869792},{"name":"堀江第二保育園","province":"東京都","city":"江戸川区","address":"江戸川区南葛西7-1-6","lat":35.645464,"lon":139.8806},{"name":"堀江第三保育園","province":"東京都","city":"江戸川区","address":"江戸川区南葛西7-2-5","lat":35.646289,"lon":139.881183},{"name":"グローバルキッズ南葛西園","province":"東京都","city":"江戸川区","address":"江戸川区南葛西6-19-131階","lat":35.647527,"lon":139.87745},{"name":"にじのいるか保育園南葛西","province":"東京都","city":"江戸川区","address":"江戸川区南葛西5-7-21F","lat":35.646286,"lon":139.872267},{"name":"臨海第一保育園","province":"東京都","city":"江戸川区","address":"江戸川区臨海町2-2-5","lat":35.651082,"lon":139.861432},{"name":"臨海第二保育園","province":"東京都","city":"江戸川区","address":"江戸川区臨海町5-1-2","lat":35.643411,"lon":139.868837},{"name":"清新おひさま保育園","province":"東京都","city":"江戸川区","address":"江戸川区清新町1-1-37","lat":35.659128,"lon":139.855279},{"name":"清新第一保育園","province":"東京都","city":"江戸川区","address":"江戸川区清新町1-3-2-103","lat":35.661075,"lon":139.856279},{"name":"清新第三保育園","province":"東京都","city":"江戸川区","address":"江戸川区清新町2-8-4-105","lat":35.656801,"lon":139.855868},{"name":"清新第二おひさま保育園","province":"東京都","city":"江戸川区","address":"江戸川区清新町1-2-1-101","lat":35.65897,"lon":139.856818},{"name":"西葛西おひさま保育園","province":"東京都","city":"江戸川区","address":"江戸川区西葛西5-10-12","lat":35.666469,"lon":139.862828},{"name":"小島保育園","province":"東京都","city":"江戸川区","address":"江戸川区西葛西5-8-2","lat":35.665772,"lon":139.86135},{"name":"新田保育園","province":"東京都","city":"江戸川区","address":"江戸川区西葛西8-2-1","lat":35.656942,"lon":139.859959},{"name":"新田第二保育園","province":"東京都","city":"江戸川区","address":"江戸川区西葛西8-15-6-1","lat":35.654698,"lon":139.861456},{"name":"ちゃいれっく西葛西駅ビル保育園","province":"東京都","city":"江戸川区","address":"江戸川区西葛西6-7-1A棟1F","lat":35.664733,"lon":139.856979},{"name":"西葛西ちとせ保育園","province":"東京都","city":"江戸川区","address":"江戸川区西葛西2-17-15","lat":35.665611,"lon":139.852729},{"name":"船堀保育園","province":"東京都","city":"江戸川区","address":"江戸川区船堀2-1-5","lat":35.68327,"lon":139.856814},{"name":"船堀第二保育園","province":"東京都","city":"江戸川区","address":"江戸川区船堀1-3-1","lat":35.686231,"lon":139.862255},{"name":"船堀第三保育園","province":"東京都","city":"江戸川区","address":"江戸川区船堀1-1-2-108","lat":35.685364,"lon":139.860461},{"name":"月映保育園","province":"東京都","city":"江戸川区","address":"江戸川区船堀6-9-30","lat":35.679318,"lon":139.868235},{"name":"マリヤ保育園","province":"東京都","city":"江戸川区","address":"江戸川区船堀2-19-4","lat":35.681637,"lon":139.860211},{"name":"船堀中央保育園","province":"東京都","city":"江戸川区","address":"江戸川区船堀2-23-10","lat":35.683556,"lon":139.863005},{"name":"船堀わんぱく保育園","province":"東京都","city":"江戸川区","address":"江戸川区船堀5-11-15","lat":35.680934,"lon":139.870755},{"name":"なつめ保育園","province":"東京都","city":"江戸川区","address":"江戸川区船堀4-8-17","lat":35.682992,"lon":139.866497},{"name":"ソラスト船堀保育園","province":"東京都","city":"江戸川区","address":"江戸川区船堀3-15-151F","lat":35.680418,"lon":139.866083},{"name":"グローバルキッズ船堀園","province":"東京都","city":"江戸川区","address":"江戸川区船堀4-8-11","lat":35.682856,"lon":139.86713}]}