{"keyword":"区","data":[{"name":"江戸川保健所（生活衛生課）","province":"東京都","city":"江戸川区","address":"江戸川区東小岩3-23-3","lat":35.733873,"lon":139.893965},{"name":"江戸川保健所（保健予防課）","province":"東京都","city":"江戸川区","address":"江戸川区中央4-24-19","lat":35.709623,"lon":139.868262},{"name":"中央健康サポートセンター","province":"東京都","city":"江戸川区","address":"江戸川区中央4-24-19","lat":35.709623,"lon":139.868262},{"name":"小岩健康サポートセンター","province":"東京都","city":"江戸川区","address":"江戸川区東小岩3-23-3","lat":35.733873,"lon":139.893965},{"name":"東部健康サポートセンター","province":"東京都","city":"江戸川区","address":"江戸川区瑞江2-5-7","lat":35.694019,"lon":139.897643},{"name":"清新町健康サポートセンター","province":"東京都","city":"江戸川区","address":"江戸川区清新町1-3-11","lat":35.662897,"lon":139.855773},{"name":"葛西健康サポートセンター","province":"東京都","city":"江戸川区","address":"江戸川区中葛西3-10-1","lat":35.665925,"lon":139.86958},{"name":"鹿骨健康サポートセンター","province":"東京都","city":"江戸川区","address":"江戸川区鹿骨1-55-10","lat":35.709728,"lon":139.890588},{"name":"小松川健康サポートセンター","province":"東京都","city":"江戸川区","address":"江戸川区小松川3-6-1","lat":35.696298,"lon":139.848617},{"name":"なぎさ健康サポートセンター","province":"東京都","city":"江戸川区","address":"江戸川区南葛西7-1-27","lat":35.645633,"lon":139.8813},{"name":"江戸川保健所（生活衛生課）","province":"東京都","city":"江戸川区","address":"東京都江戸川区東小岩3丁目23-3","lat":35.73387864,"lon":139.89399229},{"name":"江戸川保健所（保健予防課）","province":"東京都","city":"江戸川区","address":"東京都江戸川区中央4丁目24-19","lat":35.70962253,"lon":139.86826222},{"name":"中央健康サポートセンター","province":"東京都","city":"江戸川区","address":"東京都江戸川区中央4丁目24-19","lat":35.70962253,"lon":139.86826222},{"name":"小岩健康サポートセンター","province":"東京都","city":"江戸川区","address":"東京都江戸川区東小岩3丁目23-3","lat":35.73387864,"lon":139.89399229},{"name":"東部健康サポートセンター","province":"東京都","city":"江戸川区","address":"東京都江戸川区瑞江2丁目5-7","lat":35.69401926,"lon":139.8976433},{"name":"清新町健康サポートセンター","province":"東京都","city":"江戸川区","address":"東京都江戸川区清新町1丁目3-11","lat":35.66289717,"lon":139.85577317},{"name":"葛西健康サポートセンター","province":"東京都","city":"江戸川区","address":"東京都江戸川区中葛西3丁目10-1","lat":35.66592511,"lon":139.86958022},{"name":"鹿骨健康サポートセンター","province":"東京都","city":"江戸川区","address":"東京都江戸川区鹿骨1丁目55-10","lat":35.70972765,"lon":139.89058766},{"name":"小松川健康サポートセンター","province":"東京都","city":"江戸川区","address":"東京都江戸川区小松川3丁目6-1","lat":35.69629809,"lon":139.84861738},{"name":"なぎさ健康サポートセンター","province":"東京都","city":"江戸川区","address":"東京都江戸川区南葛西7丁目1-27","lat":35.64563335,"lon":139.88129956},{"name":"江戸川保健所（生活衛生課）","province":"東京都","city":"江戸川区","address":"江戸川区東小岩3-23-3","lat":35.73393,"lon":139.89398},{"name":"江戸川保健所（保健予防課）","province":"東京都","city":"江戸川区","address":"江戸川区中央4-24-19","lat":35.70982,"lon":139.86824},{"name":"中央健康サポートセンター","province":"東京都","city":"江戸川区","address":"江戸川区中央4-24-19","lat":35.70982,"lon":139.86824},{"name":"小岩健康サポートセンター","province":"東京都","city":"江戸川区","address":"江戸川区東小岩3-23-3","lat":35.73393,"lon":139.89398},{"name":"東部健康サポートセンター","province":"東京都","city":"江戸川区","address":"江戸川区瑞江2-5-7","lat":35.69398,"lon":139.89775},{"name":"清新町健康サポートセンター","province":"東京都","city":"江戸川区","address":"江戸川区清新町1-3-11","lat":35.66125,"lon":139.85623},{"name":"葛西健康サポートセンター","province":"東京都","city":"江戸川区","address":"江戸川区中葛西3-10-1","lat":35.66589,"lon":139.86938},{"name":"鹿骨健康サポートセンター","province":"東京都","city":"江戸川区","address":"江戸川区鹿骨1-55-10","lat":35.70947,"lon":139.89064},{"name":"小松川健康サポートセンター","province":"東京都","city":"江戸川区","address":"江戸川区小松川3-6-1","lat":35.69702,"lon":139.84932},{"name":"なぎさ健康サポートセンター","province":"東京都","city":"江戸川区","address":"江戸川区南葛西7-1-27","lat":35.64574,"lon":139.87993},{"name":"清新町健康サポートセンター","province":"東京都","city":"江戸川区","address":"江戸川区清新町1-3-11","lat":35.66126,"lon":139.85623},{"name":"葛西健康サポートセンター","province":"東京都","city":"江戸川区","address":"江戸川区中葛西3-10-1","lat":35.66589,"lon":139.86939}]}