{"keyword":"商品","data":[{"name":"共育プラザ一之江","province":"東京都","city":"江戸川区","address":"江戸川区一之江3-13-7","lat":35.689768,"lon":139.884256},{"name":"共育プラザ平井","province":"東京都","city":"江戸川区","address":"江戸川区平井7-21-6","lat":35.714593,"lon":139.840134},{"name":"共育プラザ小岩","province":"東京都","city":"江戸川区","address":"江戸川区北小岩2-14-17","lat":35.740158,"lon":139.884893},{"name":"共育プラザ南小岩","province":"東京都","city":"江戸川区","address":"江戸川区南小岩4-5-8","lat":35.720925,"lon":139.885652},{"name":"共育プラザ南篠崎","province":"東京都","city":"江戸川区","address":"江戸川区南篠崎町3-12-8","lat":35.696777,"lon":139.899063},{"name":"共育プラザ葛西","province":"東京都","city":"江戸川区","address":"江戸川区宇喜田町175","lat":35.673385,"lon":139.860928},{"name":"にっこり相談室","province":"東京都","city":"江戸川区","address":"江戸川区東小岩3-17-19-1","lat":35.731677,"lon":139.892892},{"name":"もぐらの家","province":"東京都","city":"江戸川区","address":"江戸川区春江町3-21-6","lat":35.69336,"lon":139.888819},{"name":"一之江あゆみの園","province":"東京都","city":"江戸川区","address":"江戸川区西一之江3-12-13","lat":35.693214,"lon":139.87604},{"name":"江戸川区社会福祉協議会","province":"東京都","city":"江戸川区","address":"江戸川区松島1-38-1グリーンパレス新館1階","lat":35.705756,"lon":139.866229},{"name":"江戸川区子ども家庭支援センター","province":"東京都","city":"江戸川区","address":"江戸川区瑞江2-9-15","lat":35.694852,"lon":139.895996},{"name":"カヌー・スラロームセンター","province":"東京都","city":"江戸川区","address":"東京都江戸川区臨海町6丁目1-1","lat":35.643447,"lon":139.855166},{"name":"カヌー・スラロームセンター","province":"東京都","city":"江戸川区","address":"東京都江戸川区臨海町6丁目1-1","lat":35.643472,"lon":139.855203},{"name":"カヌー・スラロームセンター","province":"東京都","city":"江戸川区","address":"東京都江戸川区臨海町6丁目1-1","lat":35.643465,"lon":139.855265},{"name":"カヌー・スラロームセンター","province":"東京都","city":"江戸川区","address":"東京都江戸川区臨海町6丁目1-1","lat":35.64347,"lon":139.855172},{"name":"カヌー・スラロームセンター","province":"東京都","city":"江戸川区","address":"東京都江戸川区臨海町6丁目1-1","lat":35.643381,"lon":139.85517},{"name":"カヌー・スラロームセンター","province":"東京都","city":"江戸川区","address":"東京都江戸川区臨海町6丁目1-1","lat":35.643592,"lon":139.855207},{"name":"カヌー・スラロームセンター","province":"東京都","city":"江戸川区","address":"東京都江戸川区臨海町6丁目1-1","lat":35.643437,"lon":139.855304},{"name":"カヌー・スラロームセンター","province":"東京都","city":"江戸川区","address":"東京都江戸川区臨海町6丁目1","lat":35.643434,"lon":139.855345},{"name":"カヌー・スラロームセンター","province":"東京都","city":"江戸川区","address":"東京都江戸川区臨海町6丁目1","lat":35.643434,"lon":139.855331},{"name":"城東職業能力開発センター江戸川校","province":"東京都","city":"江戸川区","address":"東京都江戸川区中央2丁目31-27","lat":35.706681,"lon":139.874953},{"name":"篠崎公園","province":"東京都","city":"江戸川区","address":"東京都江戸川区上篠崎1丁目25","lat":35.715528,"lon":139.895835},{"name":"篠崎公園","province":"東京都","city":"江戸川区","address":"東京都江戸川区上篠崎1丁目25","lat":35.714053,"lon":139.896914},{"name":"篠崎公園","province":"東京都","city":"江戸川区","address":"東京都江戸川区上篠崎1丁目25","lat":35.71604,"lon":139.899822},{"name":"篠崎公園","province":"東京都","city":"江戸川区","address":"東京都江戸川区上篠崎1丁目25","lat":35.714584,"lon":139.899601},{"name":"篠崎公園","province":"東京都","city":"江戸川区","address":"東京都江戸川区上篠崎1丁目25","lat":35.716807,"lon":139.898621},{"name":"篠崎公園","province":"東京都","city":"江戸川区","address":"東京都江戸川区篠崎町8丁目5","lat":35.705165,"lon":139.897657},{"name":"篠崎公園","province":"東京都","city":"江戸川区","address":"東京都江戸川区上篠崎4丁目5","lat":35.708243,"lon":139.895821},{"name":"葛西臨海公園","province":"東京都","city":"江戸川区","address":"東京都江戸川区臨海町6丁目2","lat":35.642037,"lon":139.860568},{"name":"葛西臨海公園","province":"東京都","city":"江戸川区","address":"東京都江戸川区臨海町6丁目3-10","lat":35.642527,"lon":139.866887},{"name":"葛西臨海公園","province":"東京都","city":"江戸川区","address":"東京都江戸川区臨海町6丁目2","lat":35.644263,"lon":139.860993},{"name":"葛西臨海公園","province":"東京都","city":"江戸川区","address":"東京都江戸川区臨海町6丁目2","lat":35.643758,"lon":139.860548},{"name":"葛西臨海公園","province":"東京都","city":"江戸川区","address":"東京都江戸川区臨海町6丁目2","lat":35.641428,"lon":139.853684},{"name":"葛西臨海公園","province":"東京都","city":"江戸川区","address":"東京都江戸川区臨海町6丁目2","lat":35.644663,"lon":139.857169},{"name":"葛西臨海公園","province":"東京都","city":"江戸川区","address":"東京都江戸川区臨海町6丁目2","lat":35.642793,"lon":139.860858},{"name":"葛西臨海公園","province":"東京都","city":"江戸川区","address":"東京都江戸川区臨海町6丁目2","lat":35.639774,"lon":139.865676},{"name":"葛西臨海公園","province":"東京都","city":"江戸川区","address":"東京都江戸川区臨海町6丁目2-1","lat":35.64187,"lon":139.86036},{"name":"葛西臨海公園","province":"東京都","city":"江戸川区","address":"東京都江戸川区臨海町6丁目2","lat":35.63901,"lon":139.860825},{"name":"葛西臨海公園","province":"東京都","city":"江戸川区","address":"東京都江戸川区臨海町6丁目2","lat":35.644011,"lon":139.857566},{"name":"葛西臨海公園","province":"東京都","city":"江戸川区","address":"東京都江戸川区臨海町6丁目2","lat":35.64058,"lon":139.859564},{"name":"大島小松川公園","province":"東京都","city":"江戸川区","address":"東京都江戸川区小松川1丁目4","lat":35.689455,"lon":139.849747},{"name":"大島小松川公園","province":"東京都","city":"江戸川区","address":"東京都江戸川区小松川1丁目7","lat":35.69262,"lon":139.852458},{"name":"大島小松川公園","province":"東京都","city":"江戸川区","address":"東京都江戸川区小松川1丁目7","lat":35.693296,"lon":139.84979},{"name":"大島小松川公園","province":"東京都","city":"江戸川区","address":"東京都江戸川区小松川1丁目7","lat":35.691353,"lon":139.850236},{"name":"大島小松川公園","province":"東京都","city":"江戸川区","address":"東京都江戸川区小松川1丁目1","lat":35.686266,"lon":139.848117},{"name":"大島小松川公園","province":"東京都","city":"江戸川区","address":"東京都江戸川区小松川1丁目2","lat":35.687563,"lon":139.849317},{"name":"宇喜田公園","province":"東京都","city":"江戸川区","address":"東京都江戸川区北葛西3丁目4","lat":35.673422,"lon":139.858853},{"name":"宇喜田公園","province":"東京都","city":"江戸川区","address":"東京都江戸川区北葛西3丁目9","lat":35.674712,"lon":139.860394},{"name":"宇喜田公園","province":"東京都","city":"江戸川区","address":"東京都江戸川区北葛西3丁目4","lat":35.671971,"lon":139.859978},{"name":"瑞江葬儀所","province":"東京都","city":"江戸川区","address":"東京都江戸川区春江町3丁目26-1","lat":35.694886,"lon":139.890068},{"name":"瑞江葬儀所","province":"東京都","city":"江戸川区","address":"東京都江戸川区春江町3丁目26","lat":35.69536,"lon":139.889688},{"name":"葛西臨海水族園","province":"東京都","city":"江戸川区","address":"東京都江戸川区臨海町6丁目2","lat":35.640771,"lon":139.861379},{"name":"葛西臨海水族園","province":"東京都","city":"江戸川区","address":"東京都江戸川区臨海町6丁目2","lat":35.639856,"lon":139.86165},{"name":"葛西臨海水族園","province":"東京都","city":"江戸川区","address":"東京都江戸川区臨海町6丁目2","lat":35.642229,"lon":139.860922},{"name":"葛西臨海水族園","province":"東京都","city":"江戸川区","address":"東京都江戸川区臨海町6丁目2-3","lat":35.640318,"lon":139.862424},{"name":"葛西臨海水族園","province":"東京都","city":"江戸川区","address":"東京都江戸川区臨海町6丁目2-3","lat":35.639813,"lon":139.862169},{"name":"葛西海浜公園","province":"東京都","city":"江戸川区","address":"東京都江戸川区臨海町6丁目","lat":35.638302,"lon":139.856665},{"name":"葛西海浜公園","province":"東京都","city":"江戸川区","address":"東京都江戸川区臨海町6丁目2","lat":35.640737,"lon":139.855408},{"name":"都営新宿線東大島駅","province":"東京都","city":"江戸川区","address":"東京都江戸川区小松川1丁目3","lat":35.689368,"lon":139.848723},{"name":"都営新宿線船堀駅","province":"東京都","city":"江戸川区","address":"東京都江戸川区船堀3丁目6","lat":35.683823,"lon":139.864327},{"name":"都営新宿線一之江駅","province":"東京都","city":"江戸川区","address":"東京都江戸川区一之江7丁目36","lat":35.685887,"lon":139.88207},{"name":"都営新宿線瑞江駅","province":"東京都","city":"江戸川区","address":"東京都江戸川区瑞江2丁目5-16","lat":35.693843,"lon":139.898147},{"name":"都営新宿線篠崎駅","province":"東京都","city":"江戸川区","address":"東京都江戸川区篠崎町7丁目27-1","lat":35.706077,"lon":139.903912},{"name":"東京都水道局江戸川営業所","province":"東京都","city":"江戸川区","address":"東京都江戸川区松江5丁目4-12","lat":35.687733,"lon":139.866043},{"name":"松島ｺﾐｭﾆﾃｨ会館","province":"東京都","city":"江戸川区","address":"東京都江戸川区松島4丁目25-6","lat":35.711165,"lon":139.858132},{"name":"江戸川区役所本庁舎","province":"東京都","city":"江戸川区","address":"東京都江戸川区中央1丁目4-1","lat":35.707079,"lon":139.86814},{"name":"江戸川区役所本庁舎","province":"東京都","city":"江戸川区","address":"東京都江戸川区中央1丁目4-1","lat":35.706648,"lon":139.868734},{"name":"江戸川区役所本庁舎","province":"東京都","city":"江戸川区","address":"東京都江戸川区中央1丁目4-1","lat":35.706993,"lon":139.868795},{"name":"江戸川区役所第二庁舎","province":"東京都","city":"江戸川区","address":"東京都江戸川区中央1丁目10-5","lat":35.70766,"lon":139.869278},{"name":"江戸川区役所第三庁舎","province":"東京都","city":"江戸川区","address":"東京都江戸川区中央1丁目5-3","lat":35.707674,"lon":139.868028},{"name":"江戸川区役所分庁舎","province":"東京都","city":"江戸川区","address":"東京都江戸川区中央1丁目3-17","lat":35.70591,"lon":139.868595},{"name":"松江コミュニティ会館","province":"東京都","city":"江戸川区","address":"東京都江戸川区松江7丁目5-12","lat":35.691128,"lon":139.872854},{"name":"一之江コミュニティ会館","province":"東京都","city":"江戸川区","address":"東京都江戸川区一之江2丁目6-15","lat":35.694701,"lon":139.883319},{"name":"松江区民プラザ","province":"東京都","city":"江戸川区","address":"東京都江戸川区松江2丁目1-10","lat":35.69679,"lon":139.871196},{"name":"松江区民プラザ","province":"東京都","city":"江戸川区","address":"東京都江戸川区松江2丁目1-10","lat":35.696906,"lon":139.871159},{"name":"小松川区民館","province":"東京都","city":"江戸川区","address":"東京都江戸川区平井4丁目1-1","lat":35.702932,"lon":139.848171},{"name":"平井コミュニティ会館","province":"東京都","city":"江戸川区","address":"東京都江戸川区平井4丁目18-10","lat":35.705608,"lon":139.848179},{"name":"中平井コミュニティ会館","province":"東京都","city":"江戸川区","address":"東京都江戸川区平井7丁目1-6","lat":35.71185,"lon":139.839728},{"name":"江戸川区立葛西区民館・葛西健康サポートセンター","province":"東京都","city":"江戸川区","address":"東京都江戸川区中葛西3丁目10-1","lat":35.665979,"lon":139.869685},{"name":"江戸川区立葛西区民館・葛西健康サポートセンター","province":"東京都","city":"江戸川区","address":"東京都江戸川区中葛西3丁目10-1","lat":35.665874,"lon":139.86932},{"name":"江戸川区立葛西区民館・葛西健康サポートセンター","province":"東京都","city":"江戸川区","address":"東京都江戸川区中葛西3丁目10-1","lat":35.665827,"lon":139.869466},{"name":"船堀コミュニティ会館","province":"東京都","city":"江戸川区","address":"東京都江戸川区船堀1丁目3-1","lat":35.686343,"lon":139.862365},{"name":"二之江コミュニティ会館","province":"東京都","city":"江戸川区","address":"東京都江戸川区江戸川6丁目46","lat":35.676988,"lon":139.880804},{"name":"南葛西会館","province":"東京都","city":"江戸川区","address":"東京都江戸川区南葛西6丁目8-9","lat":35.6468,"lon":139.875984},{"name":"新田コミュニティ会館","province":"東京都","city":"江戸川区","address":"東京都江戸川区中葛西7丁目17-1","lat":35.654593,"lon":139.866433},{"name":"清新町コミュニティ会館","province":"東京都","city":"江戸川区","address":"東京都江戸川区清新町1丁目2-2","lat":35.658747,"lon":139.856022},{"name":"臨海町コミュニティ会館","province":"東京都","city":"江戸川区","address":"東京都江戸川区臨海町2丁目2-9","lat":35.652804,"lon":139.859933},{"name":"東葛西コミュニティ会館","province":"東京都","city":"江戸川区","address":"東京都江戸川区東葛西8丁目22-1","lat":35.654886,"lon":139.879746},{"name":"長島桑川コミュニティ会館","province":"東京都","city":"江戸川区","address":"東京都江戸川区東葛西5丁目31-18","lat":35.665835,"lon":139.877844},{"name":"江戸川区小岩区民館","province":"東京都","city":"江戸川区","address":"東京都江戸川区東小岩6丁目9-14","lat":35.733857,"lon":139.887928},{"name":"江戸川区西小岩コミュニティ会館","province":"東京都","city":"江戸川区","address":"東京都江戸川区西小岩4丁目3-22","lat":35.737164,"lon":139.880163},{"name":"江戸川区北小岩コミュニティ会館","province":"東京都","city":"江戸川区","address":"東京都江戸川区北小岩6丁目35-17","lat":35.742247,"lon":139.886869},{"name":"江戸川区南小岩コミュニティ会館","province":"東京都","city":"江戸川区","address":"東京都江戸川区南小岩7丁目17-10","lat":35.730571,"lon":139.881917},{"name":"江戸川区上一色コミュニティセンター","province":"東京都","city":"江戸川区","address":"東京都江戸川区上一色2丁目6-10","lat":35.725578,"lon":139.872374},{"name":"東部区民館","province":"東京都","city":"江戸川区","address":"東京都江戸川区東瑞江1丁目17-1","lat":35.689746,"lon":139.899705},{"name":"東部区民館","province":"東京都","city":"江戸川区","address":"東京都江戸川区東瑞江1丁目17-1","lat":35.690059,"lon":139.899492},{"name":"東部区民館","province":"東京都","city":"江戸川区","address":"東京都江戸川区東瑞江1丁目17-1","lat":35.689884,"lon":139.899473},{"name":"瑞江コミュニティ会館","province":"東京都","city":"江戸川区","address":"東京都江戸川区西瑞江3丁目18-1","lat":35.686819,"lon":139.890994},{"name":"江戸川コミュニティ会館","province":"東京都","city":"江戸川区","address":"東京都江戸川区江戸川2丁目33-9","lat":35.686779,"lon":139.903116},{"name":"鹿骨区民館","province":"東京都","city":"江戸川区","address":"東京都江戸川区鹿骨1丁目54-2","lat":35.709487,"lon":139.889835},{"name":"篠崎コミュニティ会館","province":"東京都","city":"江戸川区","address":"東京都江戸川区上篠崎4丁目21-8","lat":35.708013,"lon":139.901201},{"name":"江戸川区新川さくら館","province":"東京都","city":"江戸川区","address":"東京都江戸川区船堀7丁目15-12","lat":35.675457,"lon":139.869313},{"name":"行船公園","province":"東京都","city":"江戸川区","address":"東京都江戸川区北葛西3丁目2","lat":35.671542,"lon":139.858492},{"name":"江戸川保健所","province":"東京都","city":"江戸川区","address":"東京都江戸川区中央4丁目24-19","lat":35.709589,"lon":139.868285},{"name":"江戸川保健所","province":"東京都","city":"江戸川区","address":"東京都江戸川区中央4丁目24-19","lat":35.709599,"lon":139.868265},{"name":"江戸川区小岩健康サポートセンター","province":"東京都","city":"江戸川区","address":"東京都江戸川区東小岩3丁目23-3","lat":35.733742,"lon":139.893762},{"name":"江戸川区清新町健康サポートセンター","province":"東京都","city":"江戸川区","address":"東京都江戸川区清新町1丁目3-11","lat":35.66291,"lon":139.855709},{"name":"江戸川区鹿骨健康サポートセンター","province":"東京都","city":"江戸川区","address":"東京都江戸川区鹿骨1丁目55-10","lat":35.7097,"lon":139.890462},{"name":"江戸川区小松川健康サポートセンター","province":"東京都","city":"江戸川区","address":"東京都江戸川区小松川3丁目6-1","lat":35.696267,"lon":139.848669},{"name":"江戸川区なぎさ健康サポートセンター","province":"東京都","city":"江戸川区","address":"東京都江戸川区南葛西7丁目1","lat":35.645591,"lon":139.881519},{"name":"江戸川区立中央図書館","province":"東京都","city":"江戸川区","address":"東京都江戸川区中央3丁目1-3","lat":35.710798,"lon":139.869992},{"name":"江戸川区立中央図書館","province":"東京都","city":"江戸川区","address":"東京都江戸川区中央3丁目1-3","lat":35.710422,"lon":139.869858},{"name":"江戸川区立中央図書館","province":"東京都","city":"江戸川区","address":"東京都江戸川区中央3丁目1-3","lat":35.710424,"lon":139.86982},{"name":"江戸川区立中央図書館","province":"東京都","city":"江戸川区","address":"東京都江戸川区中央3丁目1-3","lat":35.710481,"lon":139.86982},{"name":"江戸川区立小岩図書館","province":"東京都","city":"江戸川区","address":"東京都江戸川区東小岩3丁目6-9","lat":35.731364,"lon":139.890637},{"name":"江戸川区立葛西図書館","province":"東京都","city":"江戸川区","address":"東京都江戸川区江戸川6丁目24-1","lat":35.675554,"lon":139.870789},{"name":"江戸川区立西葛西図書館","province":"東京都","city":"江戸川区","address":"東京都江戸川区西葛西5丁目10-47","lat":35.664825,"lon":139.862844},{"name":"江戸川区立東部図書館","province":"東京都","city":"江戸川区","address":"東京都江戸川区江戸川2丁目26-1","lat":35.684173,"lon":139.899891},{"name":"江戸川区総合文化センター","province":"東京都","city":"江戸川区","address":"東京都江戸川区中央4丁目14-1","lat":35.711241,"lon":139.868625},{"name":"グリーンパレス（江戸川区民センター）","province":"東京都","city":"江戸川区","address":"東京都江戸川区松島1丁目38-1","lat":35.706228,"lon":139.866383},{"name":"グリーンパレス（江戸川区民センター）","province":"東京都","city":"江戸川区","address":"東京都江戸川区松島1丁目38-1","lat":35.705723,"lon":139.866233},{"name":"グリーンパレス（江戸川区民センター）","province":"東京都","city":"江戸川区","address":"東京都江戸川区松島1丁目38-1","lat":35.706158,"lon":139.866378},{"name":"篠崎文化プラザ","province":"東京都","city":"江戸川区","address":"東京都江戸川区篠崎町7丁目20-19","lat":35.705355,"lon":139.903172},{"name":"小松川さくらホール","province":"東京都","city":"江戸川区","address":"東京都江戸川区小松川3丁目6-3","lat":35.696545,"lon":139.848903},{"name":"小松川さくらホール","province":"東京都","city":"江戸川区","address":"東京都江戸川区小松川3丁目6-3","lat":35.696554,"lon":139.848792},{"name":"江戸川区小岩アーバンプラザ","province":"東京都","city":"江戸川区","address":"東京都江戸川区北小岩1丁目17-1","lat":35.735891,"lon":139.892468},{"name":"江戸川区小岩アーバンプラザ","province":"東京都","city":"江戸川区","address":"東京都江戸川区北小岩1丁目17-1","lat":35.735863,"lon":139.892267},{"name":"東部フレンドホール","province":"東京都","city":"江戸川区","address":"東京都江戸川区瑞江2丁目5-7","lat":35.693845,"lon":139.897614},{"name":"東部フレンドホール","province":"東京都","city":"江戸川区","address":"東京都江戸川区瑞江2丁目5-7","lat":35.694074,"lon":139.897806},{"name":"江戸川区文化共育部健全育成課共育プラザ葛西","province":"東京都","city":"江戸川区","address":"東京都江戸川区宇喜田町175","lat":35.673321,"lon":139.861144},{"name":"江戸川区立共育プラザ一之江","province":"東京都","city":"江戸川区","address":"東京都江戸川区一之江3丁目13-7","lat":35.689843,"lon":139.884361},{"name":"江戸川区立 共育プラザ南篠崎","province":"東京都","city":"江戸川区","address":"東京都江戸川区南篠崎町3丁目12-8","lat":35.696809,"lon":139.899104},{"name":"江戸川区立 共育プラザ南篠崎","province":"東京都","city":"江戸川区","address":"東京都江戸川区南篠崎町3丁目12-8","lat":35.696769,"lon":139.899041},{"name":"江戸川区子ども未来館","province":"東京都","city":"江戸川区","address":"東京都江戸川区篠崎町3丁目12-10","lat":35.70565,"lon":139.912838},{"name":"江戸川区子ども未来館","province":"東京都","city":"江戸川区","address":"東京都江戸川区篠崎町3丁目12-10","lat":35.705717,"lon":139.91287},{"name":"江戸川区総合区民ホール","province":"東京都","city":"江戸川区","address":"東京都江戸川区船堀4丁目1-1","lat":35.684015,"lon":139.865406},{"name":"江戸川区総合区民ホール","province":"東京都","city":"江戸川区","address":"東京都江戸川区船堀4丁目1-1","lat":35.68447,"lon":139.864356},{"name":"江戸川区総合区民ホール","province":"東京都","city":"江戸川区","address":"東京都江戸川区船堀4丁目1-1","lat":35.684519,"lon":139.864876},{"name":"江戸川区総合区民ホール","province":"東京都","city":"江戸川区","address":"東京都江戸川区船堀4丁目1-1","lat":35.684475,"lon":139.864929},{"name":"江戸川区総合区民ホール","province":"東京都","city":"江戸川区","address":"東京都江戸川区船堀4丁目1-1","lat":35.684595,"lon":139.864908},{"name":"江戸川区総合区民ホール","province":"東京都","city":"江戸川区","address":"東京都江戸川区船堀4丁目1-1","lat":35.684304,"lon":139.864719},{"name":"江戸川区総合区民ホール","province":"東京都","city":"江戸川区","address":"東京都江戸川区船堀4丁目1-1","lat":35.684446,"lon":139.864323},{"name":"江戸川区総合文化センター","province":"東京都","city":"江戸川区","address":"東京都江戸川区中央4丁目14-1","lat":35.710709,"lon":139.868136},{"name":"平井公園","province":"東京都","city":"江戸川区","address":"東京都江戸川区平井2丁目16","lat":35.702625,"lon":139.844457},{"name":"小松川千本桜","province":"東京都","city":"江戸川区","address":"東京都江戸川区小松川2丁目","lat":35.69806,"lon":139.854083},{"name":"本一色さくら公園","province":"東京都","city":"江戸川区","address":"東京都江戸川区本一色3丁目25","lat":35.719809,"lon":139.871191},{"name":"松島もみじひろば","province":"東京都","city":"江戸川区","address":"東京都江戸川区松島3丁目20","lat":35.710241,"lon":139.860975},{"name":"大杉一丁目公園","province":"東京都","city":"江戸川区","address":"東京都江戸川区大杉1丁目11","lat":35.703028,"lon":139.878538},{"name":"中央三丁目公園","province":"東京都","city":"江戸川区","address":"東京都江戸川区中央3丁目8","lat":35.712211,"lon":139.872499},{"name":"五北さくら公園","province":"東京都","city":"江戸川区","address":"東京都江戸川区大杉4丁目22","lat":35.708926,"lon":139.881709},{"name":"大杉五丁目児童遊園","province":"東京都","city":"江戸川区","address":"東京都江戸川区大杉5丁目12","lat":35.711842,"lon":139.876238},{"name":"五分一児童遊園","province":"東京都","city":"江戸川区","address":"東京都江戸川区松島1丁目9","lat":35.704274,"lon":139.86326},{"name":"本一色児童遊園","province":"東京都","city":"江戸川区","address":"東京都江戸川区本一色2丁目9","lat":35.717976,"lon":139.871549},{"name":"西一之江さくら公園","province":"東京都","city":"江戸川区","address":"東京都江戸川区西一之江1丁目6","lat":35.701356,"lon":139.87671},{"name":"東小松川スポーツ公園","province":"東京都","city":"江戸川区","address":"東京都江戸川区東小松川4丁目48","lat":35.687939,"lon":139.86573},{"name":"東小松川スポーツ公園","province":"東京都","city":"江戸川区","address":"東京都江戸川区東小松川4丁目48","lat":35.687975,"lon":139.865748},{"name":"一之江ひだまり公園","province":"東京都","city":"江戸川区","address":"東京都江戸川区一之江7丁目69","lat":35.684408,"lon":139.878516},{"name":"一之江ゆりのき公園","province":"東京都","city":"江戸川区","address":"東京都江戸川区一之江8丁目11","lat":35.684467,"lon":139.883633},{"name":"一之江しいのき公園","province":"東京都","city":"江戸川区","address":"東京都江戸川区一之江7丁目7","lat":35.684827,"lon":139.876748},{"name":"一之江しいのき公園","province":"東京都","city":"江戸川区","address":"東京都江戸川区一之江7丁目7","lat":35.684821,"lon":139.876788},{"name":"小松川境川親水公園","province":"東京都","city":"江戸川区","address":"東京都江戸川区東小松川1丁目1","lat":35.699362,"lon":139.865898},{"name":"小松川境川親水公園","province":"東京都","city":"江戸川区","address":"東京都江戸川区東小松川2丁目5","lat":35.697515,"lon":139.863784},{"name":"中央森林公園","province":"東京都","city":"江戸川区","address":"東京都江戸川区中央4丁目18","lat":35.7139,"lon":139.870113},{"name":"文化センター前公園（小松川境川親水公園）","province":"東京都","city":"江戸川区","address":"東京都江戸川区中央4丁目23","lat":35.710963,"lon":139.868891},{"name":"一之江境川親水公園","province":"東京都","city":"江戸川区","address":"東京都江戸川区一之江6丁目17","lat":35.687994,"lon":139.876546},{"name":"一之江境川親水公園","province":"東京都","city":"江戸川区","address":"東京都江戸川区一之江6丁目17","lat":35.68798,"lon":139.876545},{"name":"二之江さくら公園","province":"東京都","city":"江戸川区","address":"東京都江戸川区二之江町","lat":35.682633,"lon":139.87204},{"name":"二之江さくら公園","province":"東京都","city":"江戸川区","address":"東京都江戸川区二之江町","lat":35.682604,"lon":139.872093},{"name":"一之江抹香亭","province":"東京都","city":"江戸川区","address":"東京都江戸川区一之江5丁目13-16","lat":35.697013,"lon":139.881288},{"name":"西瑞江五丁目公園","province":"東京都","city":"江戸川区","address":"東京都江戸川区西瑞江5丁目","lat":35.679877,"lon":139.878886},{"name":"西瑞江五丁目公園","province":"東京都","city":"江戸川区","address":"東京都江戸川区西瑞江5丁目","lat":35.679887,"lon":139.878891},{"name":"春江五丁目公園","province":"東京都","city":"江戸川区","address":"東京都江戸川区春江町5丁目","lat":35.682108,"lon":139.875089},{"name":"春江五丁目公園","province":"東京都","city":"江戸川区","address":"東京都江戸川区春江町5丁目","lat":35.682124,"lon":139.875091},{"name":"二之江ひまわり公園","province":"東京都","city":"江戸川区","address":"東京都江戸川区春江町5丁目","lat":35.677388,"lon":139.874843},{"name":"くまの公園","province":"東京都","city":"江戸川区","address":"東京都江戸川区江戸川5丁目","lat":35.676285,"lon":139.883382},{"name":"新川口児童遊園","province":"東京都","city":"江戸川区","address":"東京都江戸川区江戸川5丁目","lat":35.672631,"lon":139.882821},{"name":"春江町五丁目南公園","province":"東京都","city":"江戸川区","address":"東京都江戸川区春江町5丁目","lat":35.679062,"lon":139.874637},{"name":"宇喜田第一公園","province":"東京都","city":"江戸川区","address":"東京都江戸川区宇喜田町","lat":35.677839,"lon":139.86459},{"name":"長島香取児童遊園","province":"東京都","city":"江戸川区","address":"東京都江戸川区東葛西2丁目34-20","lat":35.668389,"lon":139.880891},{"name":"なぎさ和楽公園","province":"東京都","city":"江戸川区","address":"東京都江戸川区西葛西8丁目1","lat":35.654823,"lon":139.859753},{"name":"虹の広場（総合レクリエーション公園）","province":"東京都","city":"江戸川区","address":"東京都江戸川区西葛西7丁目2","lat":35.660397,"lon":139.857564},{"name":"新田の森（総合レクリエーション公園）","province":"東京都","city":"江戸川区","address":"東京都江戸川区西葛西8丁目14","lat":35.65721,"lon":139.860972},{"name":"葛西防災公園（総合レクリエーション公園）","province":"東京都","city":"江戸川区","address":"東京都江戸川区西葛西8丁目17","lat":35.656679,"lon":139.862958},{"name":"新田はらっぱ公園（総合レクリエーション公園）","province":"東京都","city":"江戸川区","address":"東京都江戸川区中葛西7丁目1","lat":35.654658,"lon":139.86397},{"name":"新田はらっぱ公園（総合レクリエーション公園）","province":"東京都","city":"江戸川区","address":"東京都江戸川区中葛西7丁目1","lat":35.654665,"lon":139.864},{"name":"中葛西おひさま公園","province":"東京都","city":"江戸川区","address":"東京都江戸川区中葛西8丁目6","lat":35.657409,"lon":139.869563},{"name":"富士公園（総合レクリエーション公園）","province":"東京都","city":"江戸川区","address":"東京都江戸川区南葛西6丁目23","lat":35.648802,"lon":139.879493},{"name":"なぎさ公園（総合レクリエーション公園）","province":"東京都","city":"江戸川区","address":"東京都江戸川区南葛西7丁目3","lat":35.649329,"lon":139.883033},{"name":"なぎさ公園（総合レクリエーション公園）","province":"東京都","city":"江戸川区","address":"東京都江戸川区南葛西7丁目3","lat":35.647761,"lon":139.882161},{"name":"フラワーガーデン（総合レクリエーション公園）","province":"東京都","city":"江戸川区","address":"東京都江戸川区南葛西4丁目9","lat":35.650857,"lon":139.872621},{"name":"フラワーガーデン（総合レクリエーション公園）","province":"東京都","city":"江戸川区","address":"東京都江戸川区南葛西4丁目15","lat":35.650424,"lon":139.874704},{"name":"東葛西スポーツ公園","province":"東京都","city":"江戸川区","address":"東京都江戸川区東葛西9丁目2","lat":35.650807,"lon":139.881374},{"name":"左近川くろまつひろば","province":"東京都","city":"江戸川区","address":"東京都江戸川区東葛西8丁目31","lat":35.652496,"lon":139.87826},{"name":"仲町公園","province":"東京都","city":"江戸川区","address":"東京都江戸川区東葛西6丁目12","lat":35.660851,"lon":139.875788},{"name":"東葛西けやき公園","province":"東京都","city":"江戸川区","address":"東京都江戸川区東葛西6丁目32","lat":35.661442,"lon":139.878637},{"name":"臨海町二丁目児童遊園","province":"東京都","city":"江戸川区","address":"東京都江戸川区臨海町2丁目2","lat":35.651998,"lon":139.861369},{"name":"新左近川駐車場（新左近川親水公園）","province":"東京都","city":"江戸川区","address":"東京都江戸川区臨海町3丁目","lat":35.65362,"lon":139.865353},{"name":"新左近川デイキャンプ場（新左近川親水公園）","province":"東京都","city":"江戸川区","address":"東京都江戸川区臨海町2丁目","lat":35.653567,"lon":139.860042},{"name":"わかくさ公園","province":"東京都","city":"江戸川区","address":"東京都江戸川区清新町1丁目4","lat":35.66102,"lon":139.851633},{"name":"さざなみ公園","province":"東京都","city":"江戸川区","address":"東京都江戸川区清新町2丁目8","lat":35.658261,"lon":139.855981},{"name":"新長島川親水公園","province":"東京都","city":"江戸川区","address":"東京都江戸川区清新町2丁目10","lat":35.654905,"lon":139.858807},{"name":"行船公園","province":"東京都","city":"江戸川区","address":"東京都江戸川区北葛西3丁目2","lat":35.671717,"lon":139.857611},{"name":"古川親水公園","province":"東京都","city":"江戸川区","address":"東京都江戸川区江戸川6丁目","lat":35.677757,"lon":139.88308},{"name":"行船公園","province":"東京都","city":"江戸川区","address":"東京都江戸川区北葛西3丁目2","lat":35.672234,"lon":139.859192},{"name":"西小岩公園","province":"東京都","city":"江戸川区","address":"東京都江戸川区西小岩4丁目13","lat":35.73716,"lon":139.88116},{"name":"かるがもひろば","province":"東京都","city":"江戸川区","address":"東京都江戸川区南小岩7丁目16","lat":35.730598,"lon":139.882244},{"name":"南小岩三丁目児童遊園","province":"東京都","city":"江戸川区","address":"東京都江戸川区南小岩3丁目15","lat":35.725853,"lon":139.886911},{"name":"南小岩七丁目南児童遊園","province":"東京都","city":"江戸川区","address":"東京都江戸川区南小岩7丁目1","lat":35.725987,"lon":139.88388},{"name":"鹿骨あさがお公園","province":"東京都","city":"江戸川区","address":"東京都江戸川区鹿骨6丁目8","lat":35.714383,"lon":139.884005},{"name":"鹿骨あさがお公園","province":"東京都","city":"江戸川区","address":"東京都江戸川区鹿骨6丁目8","lat":35.714378,"lon":139.883969},{"name":"篠崎二丁目公園","province":"東京都","city":"江戸川区","address":"東京都江戸川区篠崎町2丁目15","lat":35.707378,"lon":139.905619},{"name":"篠崎なごみ公園","province":"東京都","city":"江戸川区","address":"東京都江戸川区篠崎町7丁目5","lat":35.706193,"lon":139.899944},{"name":"西篠崎さくら公園","province":"東京都","city":"江戸川区","address":"東京都江戸川区西篠崎2丁目6","lat":35.710797,"lon":139.895063},{"name":"西篠崎さくら公園","province":"東京都","city":"江戸川区","address":"東京都江戸川区西篠崎2丁目6","lat":35.710823,"lon":139.895055},{"name":"中図師さくら公園","province":"東京都","city":"江戸川区","address":"東京都江戸川区篠崎町2丁目42","lat":35.706119,"lon":139.908424},{"name":"椿ひがし公園","province":"東京都","city":"江戸川区","address":"東京都江戸川区瑞江3丁目22","lat":35.695502,"lon":139.892604},{"name":"瑞穂の里公園","province":"東京都","city":"江戸川区","address":"東京都江戸川区東瑞江3丁目43","lat":35.690837,"lon":139.895855},{"name":"みずえの森公園","province":"東京都","city":"江戸川区","address":"東京都江戸川区瑞江4丁目29","lat":35.693816,"lon":139.893204},{"name":"東部フレンド公園","province":"東京都","city":"江戸川区","address":"東京都江戸川区南篠崎町3丁目8","lat":35.69486,"lon":139.898219},{"name":"江戸川一丁目公園","province":"東京都","city":"江戸川区","address":"東京都江戸川区江戸川1丁目30","lat":35.689039,"lon":139.907111},{"name":"東部公園","province":"東京都","city":"江戸川区","address":"東京都江戸川区東瑞江1丁目18","lat":35.689593,"lon":139.898975},{"name":"南篠崎さくら公園","province":"東京都","city":"江戸川区","address":"東京都江戸川区南篠崎町2丁目47","lat":35.691932,"lon":139.904568},{"name":"下鎌田へび土手公園","province":"東京都","city":"江戸川区","address":"東京都江戸川区東瑞江1丁目38","lat":35.691626,"lon":139.900598},{"name":"みずえ中央公園","province":"東京都","city":"江戸川区","address":"東京都江戸川区瑞江2丁目40","lat":35.697307,"lon":139.89588},{"name":"江戸川一丁目東公園","province":"東京都","city":"江戸川区","address":"東京都江戸川区江戸川1丁目6","lat":35.686581,"lon":139.906162},{"name":"江戸川一丁目東公園","province":"東京都","city":"江戸川区","address":"東京都江戸川区江戸川1丁目6","lat":35.686563,"lon":139.90621},{"name":"江戸川中央公園","province":"東京都","city":"江戸川区","address":"東京都江戸川区江戸川1丁目9","lat":35.687552,"lon":139.904385},{"name":"江戸川中央公園","province":"東京都","city":"江戸川区","address":"東京都江戸川区江戸川1丁目9","lat":35.687568,"lon":139.904398},{"name":"下鎌田東公園","province":"東京都","city":"江戸川区","address":"東京都江戸川区江戸川2丁目28","lat":35.685289,"lon":139.901057},{"name":"下鎌田東公園","province":"東京都","city":"江戸川区","address":"東京都江戸川区江戸川2丁目28","lat":35.68531,"lon":139.901073},{"name":"前野公園","province":"東京都","city":"江戸川区","address":"東京都江戸川区東篠崎2丁目1","lat":35.687547,"lon":139.90905},{"name":"江戸川一丁目第二児童遊園","province":"東京都","city":"江戸川区","address":"東京都江戸川区江戸川1丁目42","lat":35.689207,"lon":139.909064},{"name":"中篠崎公園","province":"東京都","city":"江戸川区","address":"東京都江戸川区篠崎町3丁目12","lat":35.705907,"lon":139.913075},{"name":"篠崎五丁目公園","province":"東京都","city":"江戸川区","address":"東京都江戸川区篠崎町5丁目13","lat":35.703318,"lon":139.908362},{"name":"南篠崎児童遊園","province":"東京都","city":"江戸川区","address":"東京都江戸川区南篠崎町5丁目5","lat":35.690812,"lon":139.90951},{"name":"篠崎第四広場","province":"東京都","city":"江戸川区","address":"東京都江戸川区篠崎町6丁目5","lat":35.702843,"lon":139.904472},{"name":"篠崎緑地","province":"東京都","city":"江戸川区","address":"東京都江戸川区篠崎町3丁目","lat":35.705667,"lon":139.91451},{"name":"篠崎仲町公園","province":"東京都","city":"江戸川区","address":"東京都江戸川区篠崎町2丁目21","lat":35.705171,"lon":139.90679},{"name":"下篠崎ふれあい公園","province":"東京都","city":"江戸川区","address":"東京都江戸川区篠崎町4丁目15","lat":35.698659,"lon":139.910217},{"name":"瑞江すずかぜ公園","province":"東京都","city":"江戸川区","address":"東京都江戸川区春江町3丁目3","lat":35.690359,"lon":139.887909},{"name":"くじゃく児童遊園","province":"東京都","city":"江戸川区","address":"東京都江戸川区平井6丁目21","lat":35.708912,"lon":139.841022},{"name":"つばめ児童遊園","province":"東京都","city":"江戸川区","address":"東京都江戸川区平井5丁目32","lat":35.708903,"lon":139.843649},{"name":"ファミリースポーツ広場（総合レクリエーション公園）","province":"東京都","city":"江戸川区","address":"東京都江戸川区南葛西3丁目23","lat":35.650767,"lon":139.870931},{"name":"逆井公園","province":"東京都","city":"江戸川区","address":"東京都江戸川区平井1丁目24","lat":35.703323,"lon":139.850058},{"name":"小岩緑地","province":"東京都","city":"江戸川区","address":"東京都江戸川区北小岩4丁目","lat":35.738726,"lon":139.897609},{"name":"松江三丁目児童遊園","province":"東京都","city":"江戸川区","address":"東京都江戸川区松江3丁目8","lat":35.695215,"lon":139.868589},{"name":"中川児童遊園","province":"東京都","city":"江戸川区","address":"東京都江戸川区平井6丁目77","lat":35.715083,"lon":139.842388},{"name":"長島東公園","province":"東京都","city":"江戸川区","address":"東京都江戸川区東葛西5丁目47","lat":35.665017,"lon":139.880608},{"name":"平井運動公園","province":"東京都","city":"江戸川区","address":"東京都江戸川区平井6丁目","lat":35.713321,"lon":139.845123},{"name":"平井三丁目南公園","province":"東京都","city":"江戸川区","address":"東京都江戸川区平井3丁目4","lat":35.703109,"lon":139.841608},{"name":"新左近川親水公園","province":"東京都","city":"江戸川区","address":"東京都江戸川区臨海町1丁目","lat":35.653718,"lon":139.85551},{"name":"新左近川親水公園カヌー場","province":"東京都","city":"江戸川区","address":"東京都江戸川区臨海町2丁目","lat":35.653896,"lon":139.859293},{"name":"新川休養公園","province":"東京都","city":"江戸川区","address":"東京都江戸川区北葛西1丁目21","lat":35.680568,"lon":139.860858},{"name":"東小松川東公園","province":"東京都","city":"江戸川区","address":"東京都江戸川区東小松川2丁目11","lat":35.698027,"lon":139.867508},{"name":"東部交通公園","province":"東京都","city":"江戸川区","address":"東京都江戸川区江戸川2丁目28","lat":35.683951,"lon":139.900952},{"name":"春江ゆりのきひろば","province":"東京都","city":"江戸川区","address":"東京都江戸川区春江町5丁目","lat":35.679294,"lon":139.873071},{"name":"篠崎本郷公園","province":"東京都","city":"江戸川区","address":"東京都江戸川区篠崎町1丁目32-23","lat":35.708511,"lon":139.907855},{"name":"中央一丁目東公園","province":"東京都","city":"江戸川区","address":"東京都江戸川区中央1丁目26","lat":35.706448,"lon":139.870723},{"name":"古川親水公園","province":"東京都","city":"江戸川区","address":"東京都江戸川区江戸川6丁目","lat":35.675188,"lon":139.874728},{"name":"古川親水公園","province":"東京都","city":"江戸川区","address":"東京都江戸川区江戸川6丁目","lat":35.675156,"lon":139.874699},{"name":"東篠崎公園","province":"東京都","city":"江戸川区","address":"東京都江戸川区東篠崎1丁目7","lat":35.698151,"lon":139.916088},{"name":"かぶとむし児童遊園","province":"東京都","city":"江戸川区","address":"東京都江戸川区西小松川町","lat":35.699124,"lon":139.863027},{"name":"えどがわ金魚公園","province":"東京都","city":"江戸川区","address":"東京都江戸川区春江町5丁目","lat":35.677151,"lon":139.871647},{"name":"江戸川区総合体育館","province":"東京都","city":"江戸川区","address":"東京都江戸川区松本1丁目35-1","lat":35.717655,"lon":139.876534},{"name":"公衆手洗所（京成小岩駅前）","province":"東京都","city":"江戸川区","address":"東京都江戸川区北小岩6丁目12","lat":35.742236,"lon":139.883878},{"name":"公衆手洗所（三角）","province":"東京都","city":"江戸川区","address":"東京都江戸川区江戸川6丁目","lat":35.675401,"lon":139.87105},{"name":"公衆手洗所（松江）","province":"東京都","city":"江戸川区","address":"東京都江戸川区松江1丁目16","lat":35.696985,"lon":139.870054},{"name":"公衆手洗所（新川親水河川）","province":"東京都","city":"江戸川区","address":"東京都江戸川区宇喜田町","lat":35.679321,"lon":139.863482},{"name":"公衆手洗所（新川西水門広場）","province":"東京都","city":"江戸川区","address":"東京都江戸川区北葛西1丁目","lat":35.682171,"lon":139.856768},{"name":"公衆手洗所（清新町第一）","province":"東京都","city":"江戸川区","address":"東京都江戸川区清新町1丁目3","lat":35.661438,"lon":139.85657},{"name":"公衆手洗所（清新町第二）","province":"東京都","city":"江戸川区","address":"東京都江戸川区清新町1丁目2","lat":35.658715,"lon":139.857411},{"name":"公衆手洗所（清新町北緑地）","province":"東京都","city":"江戸川区","address":"東京都江戸川区清新町1丁目5","lat":35.664629,"lon":139.852448},{"name":"公衆手洗所（中川新橋北）","province":"東京都","city":"江戸川区","address":"東京都江戸川区平井2丁目2","lat":35.698567,"lon":139.845624},{"name":"公衆手洗所（臨海町）","province":"東京都","city":"江戸川区","address":"東京都江戸川区臨海町1丁目2","lat":35.650655,"lon":139.856358},{"name":"駅前広場手洗所（一之江駅前西口）","province":"東京都","city":"江戸川区","address":"東京都江戸川区一之江7丁目36","lat":35.685521,"lon":139.881917},{"name":"駅前広場手洗所（一之江駅前東口）","province":"東京都","city":"江戸川区","address":"東京都江戸川区一之江8丁目14","lat":35.685933,"lon":139.882777},{"name":"駅前広場手洗所（葛西駅東口）","province":"東京都","city":"江戸川区","address":"東京都江戸川区東葛西6丁目3","lat":35.663334,"lon":139.873859},{"name":"駅前広場手洗所（篠崎駅前）","province":"東京都","city":"江戸川区","address":"東京都江戸川区篠崎町7丁目27","lat":35.705691,"lon":139.904089},{"name":"駅前広場手洗所（小岩駅前）","province":"東京都","city":"江戸川区","address":"東京都江戸川区南小岩7丁目24","lat":35.733164,"lon":139.881991},{"name":"駅前広場手洗所（瑞江駅前）","province":"東京都","city":"江戸川区","address":"東京都江戸川区瑞江2丁目2-1","lat":35.692656,"lon":139.897655},{"name":"駅前広場手洗所（西葛西駅前）","province":"東京都","city":"江戸川区","address":"東京都江戸川区西葛西5丁目1","lat":35.664773,"lon":139.85911},{"name":"駅前広場手洗所（船堀駅前）","province":"東京都","city":"江戸川区","address":"東京都江戸川区船堀3丁目6","lat":35.683555,"lon":139.864358},{"name":"駅前広場手洗所（東大島駅前）","province":"東京都","city":"江戸川区","address":"東京都江戸川区小松川1丁目4","lat":35.689458,"lon":139.849733},{"name":"駅前広場手洗所（平井駅前）","province":"東京都","city":"江戸川区","address":"東京都江戸川区平井5丁目18","lat":35.706995,"lon":139.842058},{"name":"公衆手洗所（興農親水緑道）","province":"東京都","city":"江戸川区","address":"東京都江戸川区北篠崎1丁目9","lat":35.721623,"lon":139.896046},{"name":"葛西駅西口手洗所","province":"東京都","city":"江戸川区","address":"東京都江戸川区中葛西5丁目43","lat":35.663469,"lon":139.872494},{"name":"公衆手洗所（松江橋）","province":"東京都","city":"江戸川区","address":"東京都江戸川区東小松川1丁目1","lat":35.699427,"lon":139.865685},{"name":"小岩テニスコート","province":"東京都","city":"江戸川区","address":"東京都江戸川区北小岩6丁目43","lat":35.746519,"lon":139.887009},{"name":"江戸川区総合体育館","province":"東京都","city":"江戸川区","address":"東京都江戸川区松本1丁目35-1","lat":35.717435,"lon":139.876629},{"name":"江戸川区スポーツランド","province":"東京都","city":"江戸川区","address":"東京都江戸川区東篠崎1丁目8-1","lat":35.698642,"lon":139.916953},{"name":"江戸川区総合体育館","province":"東京都","city":"江戸川区","address":"東京都江戸川区松本1丁目35-1","lat":35.717261,"lon":139.876553},{"name":"江戸川区スポーツランド","province":"東京都","city":"江戸川区","address":"東京都江戸川区東篠崎1丁目8-1","lat":35.69874,"lon":139.917314},{"name":"江戸川区スポーツセンター","province":"東京都","city":"江戸川区","address":"東京都江戸川区西葛西4丁目2-20","lat":35.667857,"lon":139.862478},{"name":"江戸川区スポーツセンター","province":"東京都","city":"江戸川区","address":"東京都江戸川区西葛西4丁目2-20","lat":35.667726,"lon":139.862398},{"name":"江戸川区球場","province":"東京都","city":"江戸川区","address":"東京都江戸川区西葛西7丁目2-1","lat":35.662244,"lon":139.857797},{"name":"江戸川区球場","province":"東京都","city":"江戸川区","address":"東京都江戸川区西葛西7丁目2","lat":35.661846,"lon":139.857077},{"name":"江戸川区臨海球技場","province":"東京都","city":"江戸川区","address":"東京都江戸川区臨海町1丁目1","lat":35.649259,"lon":139.855673},{"name":"江戸川区陸上競技場","province":"東京都","city":"江戸川区","address":"東京都江戸川区清新町2丁目1-1","lat":35.655791,"lon":139.853005},{"name":"江戸川区陸上競技場","province":"東京都","city":"江戸川区","address":"東京都江戸川区清新町2丁目1-1","lat":35.655791,"lon":139.852757},{"name":"水辺のスポーツガーデン","province":"東京都","city":"江戸川区","address":"東京都江戸川区東篠崎2丁目","lat":35.690806,"lon":139.912062},{"name":"水辺のスポーツガーデン","province":"東京都","city":"江戸川区","address":"東京都江戸川区東篠崎2丁目","lat":35.692677,"lon":139.914077},{"name":"人権・男女共同参画推進センター","province":"東京都","city":"江戸川区","address":"東京都江戸川区瑞江2丁目9","lat":35.694868,"lon":139.895941},{"name":"中央くすのきカルチャーセンター","province":"東京都","city":"江戸川区","address":"東京都江戸川区西小松川町34-1","lat":35.700904,"lon":139.864265},{"name":"小岩くすのきカルチャーセンター","province":"東京都","city":"江戸川区","address":"東京都江戸川区東小岩2丁目6-22","lat":35.72765,"lon":139.892258},{"name":"葛西くすのきカルチャーセンター","province":"東京都","city":"江戸川区","address":"東京都江戸川区宇喜田町191","lat":35.673549,"lon":139.861857},{"name":"ホテルシーサイド江戸川","province":"東京都","city":"江戸川区","address":"東京都江戸川区臨海町6丁目2-2","lat":35.642955,"lon":139.859407},{"name":"江戸川区児童相談所","province":"東京都","city":"江戸川区","address":"東京都江戸川区中央3丁目4-18","lat":35.709989,"lon":139.871561},{"name":"江戸川区児童相談所","province":"東京都","city":"江戸川区","address":"東京都江戸川区中央3丁目4","lat":35.710193,"lon":139.871621},{"name":"江戸川区児童相談所","province":"東京都","city":"江戸川区","address":"東京都江戸川区中央3丁目4-18","lat":35.710023,"lon":139.871478},{"name":"谷河内テニスコート","province":"東京都","city":"江戸川区","address":"東京都江戸川区谷河内2丁目9","lat":35.701055,"lon":139.899308},{"name":"西葛西テニスコート","province":"東京都","city":"江戸川区","address":"東京都江戸川区西葛西8丁目17-1","lat":35.655467,"lon":139.863205},{"name":"江戸川保健所（生活衛生課）","province":"東京都","city":"江戸川区","address":"東京都江戸川区東小岩3丁目23-3","lat":35.73387864,"lon":139.89399229},{"name":"江戸川保健所（保健予防課）","province":"東京都","city":"江戸川区","address":"東京都江戸川区中央4丁目24-19","lat":35.70962253,"lon":139.86826222},{"name":"中央健康サポートセンター","province":"東京都","city":"江戸川区","address":"東京都江戸川区中央4丁目24-19","lat":35.70962253,"lon":139.86826222},{"name":"小岩健康サポートセンター","province":"東京都","city":"江戸川区","address":"東京都江戸川区東小岩3丁目23-3","lat":35.73387864,"lon":139.89399229},{"name":"東部健康サポートセンター","province":"東京都","city":"江戸川区","address":"東京都江戸川区瑞江2丁目5-7","lat":35.69401926,"lon":139.8976433},{"name":"清新町健康サポートセンター","province":"東京都","city":"江戸川区","address":"東京都江戸川区清新町1丁目3-11","lat":35.66289717,"lon":139.85577317},{"name":"葛西健康サポートセンター","province":"東京都","city":"江戸川区","address":"東京都江戸川区中葛西3丁目10-1","lat":35.66592511,"lon":139.86958022},{"name":"鹿骨健康サポートセンター","province":"東京都","city":"江戸川区","address":"東京都江戸川区鹿骨1丁目55-10","lat":35.70972765,"lon":139.89058766},{"name":"小松川健康サポートセンター","province":"東京都","city":"江戸川区","address":"東京都江戸川区小松川3丁目6-1","lat":35.69629809,"lon":139.84861738},{"name":"なぎさ健康サポートセンター","province":"東京都","city":"江戸川区","address":"東京都江戸川区南葛西7丁目1-27","lat":35.64563335,"lon":139.88129956},{"name":"わんぱく乳児院","province":"東京都","city":"江戸川区","address":"江戸川区篠崎町1-28-16","lat":35.70831,"lon":139.90698},{"name":"江戸川つむぎの家","province":"東京都","city":"江戸川区","address":"江戸川区江戸川2-38-20","lat":35.6852,"lon":139.89879},{"name":"共育プラザ一之江","province":"東京都","city":"江戸川区","address":"江戸川区一之江3-13-7","lat":35.68967,"lon":139.88434},{"name":"共育プラザ中央","province":"東京都","city":"江戸川区","address":"江戸川区松島1-38-1グリーンパレス内","lat":35.70605,"lon":139.86636},{"name":"共育プラザ平井","province":"東京都","city":"江戸川区","address":"江戸川区平井7-21-6","lat":35.71465,"lon":139.84042},{"name":"共育プラザ小岩","province":"東京都","city":"江戸川区","address":"江戸川区北小岩2-14-17","lat":35.73995,"lon":139.88454},{"name":"共育プラザ南小岩","province":"東京都","city":"江戸川区","address":"江戸川区南小岩4-5-8","lat":35.72095,"lon":139.88564},{"name":"共育プラザ南篠崎","province":"東京都","city":"江戸川区","address":"江戸川区南篠崎町3-12-8","lat":35.69662,"lon":139.89914},{"name":"共育プラザ葛西","province":"東京都","city":"江戸川区","address":"江戸川区宇喜田町175","lat":35.67343,"lon":139.8615},{"name":"えどがわ","province":"東京都","city":"江戸川区","address":"東京都江戸川区","lat":35.70697836,"lon":139.8683262},{"name":"L'espoir","province":"東京都","city":"江戸川区","address":"東京都江戸川区","lat":35.70697836,"lon":139.8683262},{"name":"江戸川区社会福祉協議会","province":"東京都","city":"江戸川区","address":"江戸川区松島1-38-1グリーンパレス内","lat":35.70605,"lon":139.86636},{"name":"江戸川区（生活援護第一課）","province":"東京都","city":"江戸川区","address":"江戸川区中央1-3-17","lat":35.70597,"lon":139.86835},{"name":"江戸川区（生活援護第二課）","province":"東京都","city":"江戸川区","address":"江戸川区東小岩6-9-14","lat":35.73381,"lon":139.88773},{"name":"江戸川区（生活援護第三課）","province":"東京都","city":"江戸川区","address":"江戸川区東葛西7-12-6","lat":35.65866,"lon":139.87589},{"name":"江戸川保健所（生活衛生課）","province":"東京都","city":"江戸川区","address":"江戸川区東小岩3-23-3","lat":35.73393,"lon":139.89398},{"name":"江戸川保健所（保健予防課）","province":"東京都","city":"江戸川区","address":"江戸川区中央4-24-19","lat":35.70982,"lon":139.86824},{"name":"中央健康サポートセンター","province":"東京都","city":"江戸川区","address":"江戸川区中央4-24-19","lat":35.70982,"lon":139.86824},{"name":"小岩健康サポートセンター","province":"東京都","city":"江戸川区","address":"江戸川区東小岩3-23-3","lat":35.73393,"lon":139.89398},{"name":"東部健康サポートセンター","province":"東京都","city":"江戸川区","address":"江戸川区瑞江2-5-7","lat":35.69398,"lon":139.89775},{"name":"清新町健康サポートセンター","province":"東京都","city":"江戸川区","address":"江戸川区清新町1-3-11","lat":35.66125,"lon":139.85623},{"name":"葛西健康サポートセンター","province":"東京都","city":"江戸川区","address":"江戸川区中葛西3-10-1","lat":35.66589,"lon":139.86938},{"name":"鹿骨健康サポートセンター","province":"東京都","city":"江戸川区","address":"江戸川区鹿骨1-55-10","lat":35.70947,"lon":139.89064},{"name":"小松川健康サポートセンター","province":"東京都","city":"江戸川区","address":"江戸川区小松川3-6-1","lat":35.69702,"lon":139.84932},{"name":"なぎさ健康サポートセンター","province":"東京都","city":"江戸川区","address":"江戸川区南葛西7-1-27","lat":35.64574,"lon":139.87993},{"name":"江戸川区児童相談所","province":"東京都","city":"江戸川区","address":"江戸川区中央3-4-18","lat":35.71037,"lon":139.8714},{"name":"江戸川区児童相談所（はあとポート）","province":"東京都","city":"江戸川区","address":"江戸川区中央3-4-18","lat":35.71037,"lon":139.8714},{"name":"江戸川区子ども家庭部相談課","province":"東京都","city":"江戸川区","address":"江戸川区中央3-4-18","lat":35.71037,"lon":139.8714},{"name":"くつろぎの家","province":"東京都","city":"江戸川区","address":"江戸川区江戸川2-13","lat":35.685403,"lon":139.905901},{"name":"わんぱく乳児院","province":"東京都","city":"江戸川区","address":"江戸川区篠崎町1-28-16","lat":35.708305,"lon":139.906982},{"name":"江戸川区児童相談所相談課総合相談係","province":"東京都","city":"江戸川区","address":"江戸川区中央3-4-18","lat":35.71037,"lon":139.8714},{"name":"江戸川区社会福祉協議会","province":"東京都","city":"江戸川区","address":"江戸川区松島1-38-1グリーンパレス内","lat":35.70606,"lon":139.86636},{"name":"共育プラザ中央","province":"東京都","city":"江戸川区","address":"江戸川区松島1-38-1グリーンパレス内","lat":35.70606,"lon":139.86636},{"name":"共育プラザ南小岩","province":"東京都","city":"江戸川区","address":"江戸川区南小岩4-5-8","lat":35.72096,"lon":139.88564},{"name":"共育プラザ南篠崎","province":"東京都","city":"江戸川区","address":"江戸川区南篠崎町3-12-8","lat":35.69663,"lon":139.89914},{"name":"清新町健康サポートセンター","province":"東京都","city":"江戸川区","address":"江戸川区清新町1-3-11","lat":35.66126,"lon":139.85623},{"name":"葛西健康サポートセンター","province":"東京都","city":"江戸川区","address":"江戸川区中葛西3-10-1","lat":35.66589,"lon":139.86939},{"name":"くつろぎの家","province":"東京都","city":"江戸川区","address":"江戸川区江戸川2-13","lat":35.68505,"lon":139.90593},{"name":"東京臨海病院","province":"東京都","city":"江戸川区","address":"東京都江戸川区臨海町1丁目4-2","lat":35.65210677,"lon":139.85363487},{"name":"江戸川病院","province":"東京都","city":"江戸川区","address":"東京都江戸川区東小岩2丁目24-18","lat":35.72860723,"lon":139.89289248},{"name":"瑞江葬儀所","province":"東京都","city":"江戸川区","address":"東京都江戸川区春江町3丁目26-1","lat":35.694788,"lon":139.89013556},{"name":"＊?人権・男女共同参画センター","province":"東京都","city":"江戸川区","address":"江戸川区瑞江2-9-15","lat":35.694897,"lon":139.895833},{"name":"宇喜田公園","province":"東京都","city":"江戸川区","address":"東京都江戸川区北葛西3丁目","lat":35.67537632,"lon":139.86113068},{"name":"江戸川区（生活援護第一課）","province":"東京都","city":"江戸川区","address":"江戸川区中央1-3-17","lat":35.705892,"lon":139.868446},{"name":"江戸川区（生活援護第二課）","province":"東京都","city":"江戸川区","address":"江戸川区東小岩6-9-14","lat":35.733879,"lon":139.888095},{"name":"江戸川区（生活援護第三課）","province":"東京都","city":"江戸川区","address":"江戸川区東葛西7-12-6","lat":35.658671,"lon":139.875819},{"name":"葛西警察署","province":"東京都","city":"江戸川区","address":"江戸川区東葛西6-39-1","lat":35.6615,"lon":139.8796},{"name":"小岩警察署","province":"東京都","city":"江戸川区","address":"江戸川区東小岩6-9-17","lat":35.73386,"lon":139.8876},{"name":"小松川警察署","province":"東京都","city":"江戸川区","address":"江戸川区松島1-19-22","lat":35.70257,"lon":139.8638},{"name":"江戸川消防署","province":"東京都","city":"江戸川区","address":"江戸川区中央2-9-13","lat":35.70607,"lon":139.8725},{"name":"葛西消防署","province":"東京都","city":"江戸川区","address":"江戸川区中葛西1-29-1","lat":35.66946,"lon":139.8693},{"name":"小岩消防署","province":"東京都","city":"江戸川区","address":"江戸川区鹿骨2-42-11","lat":35.70864,"lon":139.8949},{"name":"アルフレッサ（株）江戸川医薬品センター","province":"東京都","city":"江戸川区","address":"江戸川区平井7-5-32","lat":35.71645,"lon":139.8356},{"name":"都立篠崎公園","province":"東京都","city":"江戸川区","address":"江戸川区篠崎1-26","lat":35.70838,"lon":139.9056},{"name":"都立葛西臨海公園","province":"東京都","city":"江戸川区","address":"江戸川区臨海町6-2","lat":35.64164,"lon":139.8652},{"name":"江戸川清掃工場","province":"東京都","city":"江戸川区","address":"江戸川区江戸川2-10番地","lat":35.68561,"lon":139.9043},{"name":"葛西臨海公園第２駐車場","province":"東京都","city":"江戸川区","address":"江戸川区臨海町6-2","lat":35.64164,"lon":139.8652},{"name":"葛西臨海公園多目的広場","province":"東京都","city":"江戸川区","address":"江戸川区臨海町6-2","lat":35.64164,"lon":139.8652},{"name":"江戸川区臨海球技場第一","province":"東京都","city":"江戸川区","address":"江戸川区臨海町1-1-2","lat":35.64901,"lon":139.8507},{"name":"都立篠崎公園野球場（第２面）","province":"東京都","city":"江戸川区","address":"江戸川区上篠崎1-25先","lat":35.71633,"lon":139.9011},{"name":"江戸川清掃工場","province":"東京都","city":"江戸川区","address":"江戸川区江戸川2-10","lat":35.685192,"lon":139.904114},{"name":"共育プラザ一之江","province":"東京都","city":"江戸川区","address":"江戸川区一之江3-13-7","lat":35.689768,"lon":139.884256},{"name":"共育プラザ平井","province":"東京都","city":"江戸川区","address":"江戸川区平井7-21-6","lat":35.714593,"lon":139.840134},{"name":"共育プラザ小岩","province":"東京都","city":"江戸川区","address":"江戸川区北小岩2-14-17","lat":35.740158,"lon":139.884893},{"name":"共育プラザ南小岩","province":"東京都","city":"江戸川区","address":"江戸川区南小岩4-5-8","lat":35.720925,"lon":139.885652},{"name":"共育プラザ南篠崎","province":"東京都","city":"江戸川区","address":"江戸川区南篠崎町3-12-8","lat":35.696777,"lon":139.899063},{"name":"共育プラザ葛西","province":"東京都","city":"江戸川区","address":"江戸川区宇喜田町175","lat":35.673385,"lon":139.860928},{"name":"にっこり相談室","province":"東京都","city":"江戸川区","address":"江戸川区東小岩3-17-19-1","lat":35.731677,"lon":139.892892},{"name":"もぐらの家","province":"東京都","city":"江戸川区","address":"江戸川区春江町3-21-6","lat":35.69336,"lon":139.888819},{"name":"一之江あゆみの園","province":"東京都","city":"江戸川区","address":"江戸川区西一之江3-12-13","lat":35.693214,"lon":139.87604},{"name":"江戸川区子ども家庭支援センター","province":"東京都","city":"江戸川区","address":"江戸川区瑞江2-9-15","lat":35.694852,"lon":139.895996},{"name":"カヌー・スラロームセンター","province":"東京都","city":"江戸川区","address":"東京都江戸川区臨海町6丁目1-1","lat":35.643447,"lon":139.855166},{"name":"カヌー・スラロームセンター","province":"東京都","city":"江戸川区","address":"東京都江戸川区臨海町6丁目1-1","lat":35.643472,"lon":139.855203},{"name":"カヌー・スラロームセンター","province":"東京都","city":"江戸川区","address":"東京都江戸川区臨海町6丁目1-1","lat":35.643465,"lon":139.855265},{"name":"カヌー・スラロームセンター","province":"東京都","city":"江戸川区","address":"東京都江戸川区臨海町6丁目1-1","lat":35.64347,"lon":139.855172},{"name":"カヌー・スラロームセンター","province":"東京都","city":"江戸川区","address":"東京都江戸川区臨海町6丁目1-1","lat":35.643381,"lon":139.85517},{"name":"カヌー・スラロームセンター","province":"東京都","city":"江戸川区","address":"東京都江戸川区臨海町6丁目1-1","lat":35.643592,"lon":139.855207},{"name":"カヌー・スラロームセンター","province":"東京都","city":"江戸川区","address":"東京都江戸川区臨海町6丁目1-1","lat":35.643437,"lon":139.855304},{"name":"カヌー・スラロームセンター","province":"東京都","city":"江戸川区","address":"東京都江戸川区臨海町6丁目1","lat":35.643434,"lon":139.855345},{"name":"カヌー・スラロームセンター","province":"東京都","city":"江戸川区","address":"東京都江戸川区臨海町6丁目1","lat":35.643434,"lon":139.855331},{"name":"城東職業能力開発センター江戸川校","province":"東京都","city":"江戸川区","address":"東京都江戸川区中央2丁目31-27","lat":35.706681,"lon":139.874953},{"name":"篠崎公園","province":"東京都","city":"江戸川区","address":"東京都江戸川区上篠崎1丁目25","lat":35.715528,"lon":139.895835},{"name":"篠崎公園","province":"東京都","city":"江戸川区","address":"東京都江戸川区上篠崎1丁目25","lat":35.714053,"lon":139.896914},{"name":"篠崎公園","province":"東京都","city":"江戸川区","address":"東京都江戸川区上篠崎1丁目25","lat":35.71604,"lon":139.899822},{"name":"篠崎公園","province":"東京都","city":"江戸川区","address":"東京都江戸川区上篠崎1丁目25","lat":35.714584,"lon":139.899601},{"name":"篠崎公園","province":"東京都","city":"江戸川区","address":"東京都江戸川区上篠崎1丁目25","lat":35.716807,"lon":139.898621},{"name":"篠崎公園","province":"東京都","city":"江戸川区","address":"東京都江戸川区篠崎町8丁目5","lat":35.705165,"lon":139.897657},{"name":"篠崎公園","province":"東京都","city":"江戸川区","address":"東京都江戸川区上篠崎4丁目5","lat":35.708243,"lon":139.895821},{"name":"葛西臨海公園","province":"東京都","city":"江戸川区","address":"東京都江戸川区臨海町6丁目2","lat":35.642037,"lon":139.860568},{"name":"葛西臨海公園","province":"東京都","city":"江戸川区","address":"東京都江戸川区臨海町6丁目3-10","lat":35.642527,"lon":139.866887},{"name":"葛西臨海公園","province":"東京都","city":"江戸川区","address":"東京都江戸川区臨海町6丁目2","lat":35.644263,"lon":139.860993},{"name":"葛西臨海公園","province":"東京都","city":"江戸川区","address":"東京都江戸川区臨海町6丁目2","lat":35.643758,"lon":139.860548},{"name":"葛西臨海公園","province":"東京都","city":"江戸川区","address":"東京都江戸川区臨海町6丁目2","lat":35.641428,"lon":139.853684},{"name":"葛西臨海公園","province":"東京都","city":"江戸川区","address":"東京都江戸川区臨海町6丁目2","lat":35.644663,"lon":139.857169},{"name":"葛西臨海公園","province":"東京都","city":"江戸川区","address":"東京都江戸川区臨海町6丁目2","lat":35.642793,"lon":139.860858},{"name":"葛西臨海公園","province":"東京都","city":"江戸川区","address":"東京都江戸川区臨海町6丁目2","lat":35.639774,"lon":139.865676},{"name":"葛西臨海公園","province":"東京都","city":"江戸川区","address":"東京都江戸川区臨海町6丁目2-1","lat":35.64187,"lon":139.86036},{"name":"葛西臨海公園","province":"東京都","city":"江戸川区","address":"東京都江戸川区臨海町6丁目2","lat":35.63901,"lon":139.860825},{"name":"葛西臨海公園","province":"東京都","city":"江戸川区","address":"東京都江戸川区臨海町6丁目2","lat":35.644011,"lon":139.857566},{"name":"葛西臨海公園","province":"東京都","city":"江戸川区","address":"東京都江戸川区臨海町6丁目2","lat":35.64058,"lon":139.859564},{"name":"大島小松川公園","province":"東京都","city":"江戸川区","address":"東京都江戸川区小松川1丁目4","lat":35.689455,"lon":139.849747},{"name":"大島小松川公園","province":"東京都","city":"江戸川区","address":"東京都江戸川区小松川1丁目7","lat":35.69262,"lon":139.852458},{"name":"大島小松川公園","province":"東京都","city":"江戸川区","address":"東京都江戸川区小松川1丁目7","lat":35.693296,"lon":139.84979},{"name":"大島小松川公園","province":"東京都","city":"江戸川区","address":"東京都江戸川区小松川1丁目7","lat":35.691353,"lon":139.850236},{"name":"大島小松川公園","province":"東京都","city":"江戸川区","address":"東京都江戸川区小松川1丁目1","lat":35.686266,"lon":139.848117},{"name":"大島小松川公園","province":"東京都","city":"江戸川区","address":"東京都江戸川区小松川1丁目2","lat":35.687563,"lon":139.849317},{"name":"宇喜田公園","province":"東京都","city":"江戸川区","address":"東京都江戸川区北葛西3丁目4","lat":35.673422,"lon":139.858853},{"name":"宇喜田公園","province":"東京都","city":"江戸川区","address":"東京都江戸川区北葛西3丁目9","lat":35.674712,"lon":139.860394},{"name":"宇喜田公園","province":"東京都","city":"江戸川区","address":"東京都江戸川区北葛西3丁目4","lat":35.671971,"lon":139.859978},{"name":"瑞江葬儀所","province":"東京都","city":"江戸川区","address":"東京都江戸川区春江町3丁目26-1","lat":35.694886,"lon":139.890068},{"name":"瑞江葬儀所","province":"東京都","city":"江戸川区","address":"東京都江戸川区春江町3丁目26","lat":35.69536,"lon":139.889688},{"name":"葛西臨海水族園","province":"東京都","city":"江戸川区","address":"東京都江戸川区臨海町6丁目2","lat":35.640771,"lon":139.861379},{"name":"葛西臨海水族園","province":"東京都","city":"江戸川区","address":"東京都江戸川区臨海町6丁目2","lat":35.639856,"lon":139.86165},{"name":"葛西臨海水族園","province":"東京都","city":"江戸川区","address":"東京都江戸川区臨海町6丁目2","lat":35.642229,"lon":139.860922},{"name":"葛西臨海水族園","province":"東京都","city":"江戸川区","address":"東京都江戸川区臨海町6丁目2-3","lat":35.640318,"lon":139.862424},{"name":"葛西臨海水族園","province":"東京都","city":"江戸川区","address":"東京都江戸川区臨海町6丁目2-3","lat":35.639813,"lon":139.862169},{"name":"葛西海浜公園","province":"東京都","city":"江戸川区","address":"東京都江戸川区臨海町6丁目","lat":35.638302,"lon":139.856665},{"name":"葛西海浜公園","province":"東京都","city":"江戸川区","address":"東京都江戸川区臨海町6丁目2","lat":35.640737,"lon":139.855408},{"name":"都営新宿線東大島駅","province":"東京都","city":"江戸川区","address":"東京都江戸川区小松川1丁目3","lat":35.689368,"lon":139.848723},{"name":"都営新宿線船堀駅","province":"東京都","city":"江戸川区","address":"東京都江戸川区船堀3丁目6","lat":35.683823,"lon":139.864327},{"name":"都営新宿線一之江駅","province":"東京都","city":"江戸川区","address":"東京都江戸川区一之江7丁目36","lat":35.685887,"lon":139.88207},{"name":"都営新宿線瑞江駅","province":"東京都","city":"江戸川区","address":"東京都江戸川区瑞江2丁目5-16","lat":35.693843,"lon":139.898147},{"name":"都営新宿線篠崎駅","province":"東京都","city":"江戸川区","address":"東京都江戸川区篠崎町7丁目27-1","lat":35.706077,"lon":139.903912},{"name":"東京都水道局江戸川営業所","province":"東京都","city":"江戸川区","address":"東京都江戸川区松江5丁目4-12","lat":35.687733,"lon":139.866043},{"name":"松島ｺﾐｭﾆﾃｨ会館","province":"東京都","city":"江戸川区","address":"東京都江戸川区松島4丁目25-6","lat":35.711165,"lon":139.858132},{"name":"江戸川区役所本庁舎","province":"東京都","city":"江戸川区","address":"東京都江戸川区中央1丁目4-1","lat":35.707079,"lon":139.86814},{"name":"江戸川区役所本庁舎","province":"東京都","city":"江戸川区","address":"東京都江戸川区中央1丁目4-1","lat":35.706648,"lon":139.868734},{"name":"江戸川区役所本庁舎","province":"東京都","city":"江戸川区","address":"東京都江戸川区中央1丁目4-1","lat":35.706993,"lon":139.868795},{"name":"江戸川区役所第二庁舎","province":"東京都","city":"江戸川区","address":"東京都江戸川区中央1丁目10-5","lat":35.70766,"lon":139.869278},{"name":"江戸川区役所第三庁舎","province":"東京都","city":"江戸川区","address":"東京都江戸川区中央1丁目5-3","lat":35.707674,"lon":139.868028},{"name":"江戸川区役所分庁舎","province":"東京都","city":"江戸川区","address":"東京都江戸川区中央1丁目3-17","lat":35.70591,"lon":139.868595},{"name":"松江コミュニティ会館","province":"東京都","city":"江戸川区","address":"東京都江戸川区松江7丁目5-12","lat":35.691128,"lon":139.872854},{"name":"一之江コミュニティ会館","province":"東京都","city":"江戸川区","address":"東京都江戸川区一之江2丁目6-15","lat":35.694701,"lon":139.883319},{"name":"松江区民プラザ","province":"東京都","city":"江戸川区","address":"東京都江戸川区松江2丁目1-10","lat":35.69679,"lon":139.871196},{"name":"松江区民プラザ","province":"東京都","city":"江戸川区","address":"東京都江戸川区松江2丁目1-10","lat":35.696906,"lon":139.871159},{"name":"小松川区民館","province":"東京都","city":"江戸川区","address":"東京都江戸川区平井4丁目1-1","lat":35.702932,"lon":139.848171},{"name":"平井コミュニティ会館","province":"東京都","city":"江戸川区","address":"東京都江戸川区平井4丁目18-10","lat":35.705608,"lon":139.848179},{"name":"中平井コミュニティ会館","province":"東京都","city":"江戸川区","address":"東京都江戸川区平井7丁目1-6","lat":35.71185,"lon":139.839728},{"name":"江戸川区立葛西区民館・葛西健康サポートセンター","province":"東京都","city":"江戸川区","address":"東京都江戸川区中葛西3丁目10-1","lat":35.665979,"lon":139.869685},{"name":"江戸川区立葛西区民館・葛西健康サポートセンター","province":"東京都","city":"江戸川区","address":"東京都江戸川区中葛西3丁目10-1","lat":35.665874,"lon":139.86932},{"name":"江戸川区立葛西区民館・葛西健康サポートセンター","province":"東京都","city":"江戸川区","address":"東京都江戸川区中葛西3丁目10-1","lat":35.665827,"lon":139.869466},{"name":"船堀コミュニティ会館","province":"東京都","city":"江戸川区","address":"東京都江戸川区船堀1丁目3-1","lat":35.686343,"lon":139.862365},{"name":"二之江コミュニティ会館","province":"東京都","city":"江戸川区","address":"東京都江戸川区江戸川6丁目46","lat":35.676988,"lon":139.880804},{"name":"南葛西会館","province":"東京都","city":"江戸川区","address":"東京都江戸川区南葛西6丁目8-9","lat":35.6468,"lon":139.875984},{"name":"新田コミュニティ会館","province":"東京都","city":"江戸川区","address":"東京都江戸川区中葛西7丁目17-1","lat":35.654593,"lon":139.866433},{"name":"清新町コミュニティ会館","province":"東京都","city":"江戸川区","address":"東京都江戸川区清新町1丁目2-2","lat":35.658747,"lon":139.856022},{"name":"臨海町コミュニティ会館","province":"東京都","city":"江戸川区","address":"東京都江戸川区臨海町2丁目2-9","lat":35.652804,"lon":139.859933},{"name":"東葛西コミュニティ会館","province":"東京都","city":"江戸川区","address":"東京都江戸川区東葛西8丁目22-1","lat":35.654886,"lon":139.879746},{"name":"長島桑川コミュニティ会館","province":"東京都","city":"江戸川区","address":"東京都江戸川区東葛西5丁目31-18","lat":35.665835,"lon":139.877844},{"name":"江戸川区小岩区民館","province":"東京都","city":"江戸川区","address":"東京都江戸川区東小岩6丁目9-14","lat":35.733857,"lon":139.887928},{"name":"江戸川区西小岩コミュニティ会館","province":"東京都","city":"江戸川区","address":"東京都江戸川区西小岩4丁目3-22","lat":35.737164,"lon":139.880163},{"name":"江戸川区北小岩コミュニティ会館","province":"東京都","city":"江戸川区","address":"東京都江戸川区北小岩6丁目35-17","lat":35.742247,"lon":139.886869},{"name":"江戸川区南小岩コミュニティ会館","province":"東京都","city":"江戸川区","address":"東京都江戸川区南小岩7丁目17-10","lat":35.730571,"lon":139.881917},{"name":"江戸川区上一色コミュニティセンター","province":"東京都","city":"江戸川区","address":"東京都江戸川区上一色2丁目6-10","lat":35.725578,"lon":139.872374},{"name":"東部区民館","province":"東京都","city":"江戸川区","address":"東京都江戸川区東瑞江1丁目17-1","lat":35.689746,"lon":139.899705},{"name":"東部区民館","province":"東京都","city":"江戸川区","address":"東京都江戸川区東瑞江1丁目17-1","lat":35.690059,"lon":139.899492},{"name":"東部区民館","province":"東京都","city":"江戸川区","address":"東京都江戸川区東瑞江1丁目17-1","lat":35.689884,"lon":139.899473},{"name":"瑞江コミュニティ会館","province":"東京都","city":"江戸川区","address":"東京都江戸川区西瑞江3丁目18-1","lat":35.686819,"lon":139.890994},{"name":"江戸川コミュニティ会館","province":"東京都","city":"江戸川区","address":"東京都江戸川区江戸川2丁目33-9","lat":35.686779,"lon":139.903116},{"name":"鹿骨区民館","province":"東京都","city":"江戸川区","address":"東京都江戸川区鹿骨1丁目54-2","lat":35.709487,"lon":139.889835},{"name":"篠崎コミュニティ会館","province":"東京都","city":"江戸川区","address":"東京都江戸川区上篠崎4丁目21-8","lat":35.708013,"lon":139.901201},{"name":"江戸川区新川さくら館","province":"東京都","city":"江戸川区","address":"東京都江戸川区船堀7丁目15-12","lat":35.675457,"lon":139.869313},{"name":"行船公園","province":"東京都","city":"江戸川区","address":"東京都江戸川区北葛西3丁目2","lat":35.671542,"lon":139.858492},{"name":"江戸川保健所","province":"東京都","city":"江戸川区","address":"東京都江戸川区中央4丁目24-19","lat":35.709589,"lon":139.868285},{"name":"江戸川保健所","province":"東京都","city":"江戸川区","address":"東京都江戸川区中央4丁目24-19","lat":35.709599,"lon":139.868265},{"name":"江戸川区小岩健康サポートセンター","province":"東京都","city":"江戸川区","address":"東京都江戸川区東小岩3丁目23-3","lat":35.733742,"lon":139.893762},{"name":"江戸川区清新町健康サポートセンター","province":"東京都","city":"江戸川区","address":"東京都江戸川区清新町1丁目3-11","lat":35.66291,"lon":139.855709},{"name":"江戸川区鹿骨健康サポートセンター","province":"東京都","city":"江戸川区","address":"東京都江戸川区鹿骨1丁目55-10","lat":35.7097,"lon":139.890462},{"name":"江戸川区小松川健康サポートセンター","province":"東京都","city":"江戸川区","address":"東京都江戸川区小松川3丁目6-1","lat":35.696267,"lon":139.848669},{"name":"江戸川区なぎさ健康サポートセンター","province":"東京都","city":"江戸川区","address":"東京都江戸川区南葛西7丁目1","lat":35.645591,"lon":139.881519},{"name":"江戸川区立中央図書館","province":"東京都","city":"江戸川区","address":"東京都江戸川区中央3丁目1-3","lat":35.710798,"lon":139.869992},{"name":"江戸川区立中央図書館","province":"東京都","city":"江戸川区","address":"東京都江戸川区中央3丁目1-3","lat":35.710422,"lon":139.869858},{"name":"江戸川区立中央図書館","province":"東京都","city":"江戸川区","address":"東京都江戸川区中央3丁目1-3","lat":35.710424,"lon":139.86982},{"name":"江戸川区立中央図書館","province":"東京都","city":"江戸川区","address":"東京都江戸川区中央3丁目1-3","lat":35.710481,"lon":139.86982},{"name":"江戸川区立小岩図書館","province":"東京都","city":"江戸川区","address":"東京都江戸川区東小岩3丁目6-9","lat":35.731364,"lon":139.890637},{"name":"江戸川区立葛西図書館","province":"東京都","city":"江戸川区","address":"東京都江戸川区江戸川6丁目24-1","lat":35.675554,"lon":139.870789},{"name":"江戸川区立西葛西図書館","province":"東京都","city":"江戸川区","address":"東京都江戸川区西葛西5丁目10-47","lat":35.664825,"lon":139.862844},{"name":"江戸川区立東部図書館","province":"東京都","city":"江戸川区","address":"東京都江戸川区江戸川2丁目26-1","lat":35.684173,"lon":139.899891},{"name":"江戸川区総合文化センター","province":"東京都","city":"江戸川区","address":"東京都江戸川区中央4丁目14-1","lat":35.711241,"lon":139.868625},{"name":"グリーンパレス（江戸川区民センター）","province":"東京都","city":"江戸川区","address":"東京都江戸川区松島1丁目38-1","lat":35.706228,"lon":139.866383},{"name":"グリーンパレス（江戸川区民センター）","province":"東京都","city":"江戸川区","address":"東京都江戸川区松島1丁目38-1","lat":35.705723,"lon":139.866233},{"name":"グリーンパレス（江戸川区民センター）","province":"東京都","city":"江戸川区","address":"東京都江戸川区松島1丁目38-1","lat":35.706158,"lon":139.866378},{"name":"篠崎文化プラザ","province":"東京都","city":"江戸川区","address":"東京都江戸川区篠崎町7丁目20-19","lat":35.705355,"lon":139.903172},{"name":"小松川さくらホール","province":"東京都","city":"江戸川区","address":"東京都江戸川区小松川3丁目6-3","lat":35.696545,"lon":139.848903},{"name":"小松川さくらホール","province":"東京都","city":"江戸川区","address":"東京都江戸川区小松川3丁目6-3","lat":35.696554,"lon":139.848792},{"name":"江戸川区小岩アーバンプラザ","province":"東京都","city":"江戸川区","address":"東京都江戸川区北小岩1丁目17-1","lat":35.735891,"lon":139.892468},{"name":"江戸川区小岩アーバンプラザ","province":"東京都","city":"江戸川区","address":"東京都江戸川区北小岩1丁目17-1","lat":35.735863,"lon":139.892267},{"name":"東部フレンドホール","province":"東京都","city":"江戸川区","address":"東京都江戸川区瑞江2丁目5-7","lat":35.693845,"lon":139.897614},{"name":"東部フレンドホール","province":"東京都","city":"江戸川区","address":"東京都江戸川区瑞江2丁目5-7","lat":35.694074,"lon":139.897806},{"name":"江戸川区文化共育部健全育成課共育プラザ葛西","province":"東京都","city":"江戸川区","address":"東京都江戸川区宇喜田町175","lat":35.673321,"lon":139.861144},{"name":"江戸川区立共育プラザ一之江","province":"東京都","city":"江戸川区","address":"東京都江戸川区一之江3丁目13-7","lat":35.689843,"lon":139.884361},{"name":"江戸川区立 共育プラザ南篠崎","province":"東京都","city":"江戸川区","address":"東京都江戸川区南篠崎町3丁目12-8","lat":35.696809,"lon":139.899104},{"name":"江戸川区立 共育プラザ南篠崎","province":"東京都","city":"江戸川区","address":"東京都江戸川区南篠崎町3丁目12-8","lat":35.696769,"lon":139.899041},{"name":"江戸川区子ども未来館","province":"東京都","city":"江戸川区","address":"東京都江戸川区篠崎町3丁目12-10","lat":35.70565,"lon":139.912838},{"name":"江戸川区子ども未来館","province":"東京都","city":"江戸川区","address":"東京都江戸川区篠崎町3丁目12-10","lat":35.705717,"lon":139.91287},{"name":"江戸川区総合区民ホール","province":"東京都","city":"江戸川区","address":"東京都江戸川区船堀4丁目1-1","lat":35.684015,"lon":139.865406},{"name":"江戸川区総合区民ホール","province":"東京都","city":"江戸川区","address":"東京都江戸川区船堀4丁目1-1","lat":35.68447,"lon":139.864356},{"name":"江戸川区総合区民ホール","province":"東京都","city":"江戸川区","address":"東京都江戸川区船堀4丁目1-1","lat":35.684519,"lon":139.864876},{"name":"江戸川区総合区民ホール","province":"東京都","city":"江戸川区","address":"東京都江戸川区船堀4丁目1-1","lat":35.684475,"lon":139.864929},{"name":"江戸川区総合区民ホール","province":"東京都","city":"江戸川区","address":"東京都江戸川区船堀4丁目1-1","lat":35.684595,"lon":139.864908},{"name":"江戸川区総合区民ホール","province":"東京都","city":"江戸川区","address":"東京都江戸川区船堀4丁目1-1","lat":35.684304,"lon":139.864719},{"name":"江戸川区総合区民ホール","province":"東京都","city":"江戸川区","address":"東京都江戸川区船堀4丁目1-1","lat":35.684446,"lon":139.864323},{"name":"江戸川区総合文化センター","province":"東京都","city":"江戸川区","address":"東京都江戸川区中央4丁目14-1","lat":35.710709,"lon":139.868136},{"name":"平井公園","province":"東京都","city":"江戸川区","address":"東京都江戸川区平井2丁目16","lat":35.702625,"lon":139.844457},{"name":"小松川千本桜","province":"東京都","city":"江戸川区","address":"東京都江戸川区小松川2丁目","lat":35.69806,"lon":139.854083},{"name":"本一色さくら公園","province":"東京都","city":"江戸川区","address":"東京都江戸川区本一色3丁目25","lat":35.719809,"lon":139.871191},{"name":"松島もみじひろば","province":"東京都","city":"江戸川区","address":"東京都江戸川区松島3丁目20","lat":35.710241,"lon":139.860975},{"name":"大杉一丁目公園","province":"東京都","city":"江戸川区","address":"東京都江戸川区大杉1丁目11","lat":35.703028,"lon":139.878538},{"name":"中央三丁目公園","province":"東京都","city":"江戸川区","address":"東京都江戸川区中央3丁目8","lat":35.712211,"lon":139.872499},{"name":"五北さくら公園","province":"東京都","city":"江戸川区","address":"東京都江戸川区大杉4丁目22","lat":35.708926,"lon":139.881709},{"name":"大杉五丁目児童遊園","province":"東京都","city":"江戸川区","address":"東京都江戸川区大杉5丁目12","lat":35.711842,"lon":139.876238},{"name":"五分一児童遊園","province":"東京都","city":"江戸川区","address":"東京都江戸川区松島1丁目9","lat":35.704274,"lon":139.86326},{"name":"本一色児童遊園","province":"東京都","city":"江戸川区","address":"東京都江戸川区本一色2丁目9","lat":35.717976,"lon":139.871549},{"name":"西一之江さくら公園","province":"東京都","city":"江戸川区","address":"東京都江戸川区西一之江1丁目6","lat":35.701356,"lon":139.87671},{"name":"東小松川スポーツ公園","province":"東京都","city":"江戸川区","address":"東京都江戸川区東小松川4丁目48","lat":35.687939,"lon":139.86573},{"name":"東小松川スポーツ公園","province":"東京都","city":"江戸川区","address":"東京都江戸川区東小松川4丁目48","lat":35.687975,"lon":139.865748},{"name":"一之江ひだまり公園","province":"東京都","city":"江戸川区","address":"東京都江戸川区一之江7丁目69","lat":35.684408,"lon":139.878516},{"name":"一之江ゆりのき公園","province":"東京都","city":"江戸川区","address":"東京都江戸川区一之江8丁目11","lat":35.684467,"lon":139.883633},{"name":"一之江しいのき公園","province":"東京都","city":"江戸川区","address":"東京都江戸川区一之江7丁目7","lat":35.684827,"lon":139.876748},{"name":"一之江しいのき公園","province":"東京都","city":"江戸川区","address":"東京都江戸川区一之江7丁目7","lat":35.684821,"lon":139.876788},{"name":"小松川境川親水公園","province":"東京都","city":"江戸川区","address":"東京都江戸川区東小松川1丁目1","lat":35.699362,"lon":139.865898},{"name":"小松川境川親水公園","province":"東京都","city":"江戸川区","address":"東京都江戸川区東小松川2丁目5","lat":35.697515,"lon":139.863784},{"name":"中央森林公園","province":"東京都","city":"江戸川区","address":"東京都江戸川区中央4丁目18","lat":35.7139,"lon":139.870113},{"name":"文化センター前公園（小松川境川親水公園）","province":"東京都","city":"江戸川区","address":"東京都江戸川区中央4丁目23","lat":35.710963,"lon":139.868891},{"name":"一之江境川親水公園","province":"東京都","city":"江戸川区","address":"東京都江戸川区一之江6丁目17","lat":35.687994,"lon":139.876546},{"name":"一之江境川親水公園","province":"東京都","city":"江戸川区","address":"東京都江戸川区一之江6丁目17","lat":35.68798,"lon":139.876545},{"name":"二之江さくら公園","province":"東京都","city":"江戸川区","address":"東京都江戸川区二之江町","lat":35.682633,"lon":139.87204},{"name":"二之江さくら公園","province":"東京都","city":"江戸川区","address":"東京都江戸川区二之江町","lat":35.682604,"lon":139.872093},{"name":"一之江抹香亭","province":"東京都","city":"江戸川区","address":"東京都江戸川区一之江5丁目13-16","lat":35.697013,"lon":139.881288},{"name":"西瑞江五丁目公園","province":"東京都","city":"江戸川区","address":"東京都江戸川区西瑞江5丁目","lat":35.679877,"lon":139.878886},{"name":"西瑞江五丁目公園","province":"東京都","city":"江戸川区","address":"東京都江戸川区西瑞江5丁目","lat":35.679887,"lon":139.878891},{"name":"春江五丁目公園","province":"東京都","city":"江戸川区","address":"東京都江戸川区春江町5丁目","lat":35.682108,"lon":139.875089},{"name":"春江五丁目公園","province":"東京都","city":"江戸川区","address":"東京都江戸川区春江町5丁目","lat":35.682124,"lon":139.875091},{"name":"二之江ひまわり公園","province":"東京都","city":"江戸川区","address":"東京都江戸川区春江町5丁目","lat":35.677388,"lon":139.874843},{"name":"くまの公園","province":"東京都","city":"江戸川区","address":"東京都江戸川区江戸川5丁目","lat":35.676285,"lon":139.883382},{"name":"新川口児童遊園","province":"東京都","city":"江戸川区","address":"東京都江戸川区江戸川5丁目","lat":35.672631,"lon":139.882821},{"name":"春江町五丁目南公園","province":"東京都","city":"江戸川区","address":"東京都江戸川区春江町5丁目","lat":35.679062,"lon":139.874637},{"name":"宇喜田第一公園","province":"東京都","city":"江戸川区","address":"東京都江戸川区宇喜田町","lat":35.677839,"lon":139.86459},{"name":"長島香取児童遊園","province":"東京都","city":"江戸川区","address":"東京都江戸川区東葛西2丁目34-20","lat":35.668389,"lon":139.880891},{"name":"なぎさ和楽公園","province":"東京都","city":"江戸川区","address":"東京都江戸川区西葛西8丁目1","lat":35.654823,"lon":139.859753},{"name":"虹の広場（総合レクリエーション公園）","province":"東京都","city":"江戸川区","address":"東京都江戸川区西葛西7丁目2","lat":35.660397,"lon":139.857564},{"name":"新田の森（総合レクリエーション公園）","province":"東京都","city":"江戸川区","address":"東京都江戸川区西葛西8丁目14","lat":35.65721,"lon":139.860972},{"name":"葛西防災公園（総合レクリエーション公園）","province":"東京都","city":"江戸川区","address":"東京都江戸川区西葛西8丁目17","lat":35.656679,"lon":139.862958},{"name":"新田はらっぱ公園（総合レクリエーション公園）","province":"東京都","city":"江戸川区","address":"東京都江戸川区中葛西7丁目1","lat":35.654658,"lon":139.86397},{"name":"新田はらっぱ公園（総合レクリエーション公園）","province":"東京都","city":"江戸川区","address":"東京都江戸川区中葛西7丁目1","lat":35.654665,"lon":139.864},{"name":"中葛西おひさま公園","province":"東京都","city":"江戸川区","address":"東京都江戸川区中葛西8丁目6","lat":35.657409,"lon":139.869563},{"name":"富士公園（総合レクリエーション公園）","province":"東京都","city":"江戸川区","address":"東京都江戸川区南葛西6丁目23","lat":35.648802,"lon":139.879493},{"name":"なぎさ公園（総合レクリエーション公園）","province":"東京都","city":"江戸川区","address":"東京都江戸川区南葛西7丁目3","lat":35.649329,"lon":139.883033},{"name":"なぎさ公園（総合レクリエーション公園）","province":"東京都","city":"江戸川区","address":"東京都江戸川区南葛西7丁目3","lat":35.647761,"lon":139.882161},{"name":"フラワーガーデン（総合レクリエーション公園）","province":"東京都","city":"江戸川区","address":"東京都江戸川区南葛西4丁目9","lat":35.650857,"lon":139.872621},{"name":"フラワーガーデン（総合レクリエーション公園）","province":"東京都","city":"江戸川区","address":"東京都江戸川区南葛西4丁目15","lat":35.650424,"lon":139.874704},{"name":"東葛西スポーツ公園","province":"東京都","city":"江戸川区","address":"東京都江戸川区東葛西9丁目2","lat":35.650807,"lon":139.881374},{"name":"左近川くろまつひろば","province":"東京都","city":"江戸川区","address":"東京都江戸川区東葛西8丁目31","lat":35.652496,"lon":139.87826},{"name":"仲町公園","province":"東京都","city":"江戸川区","address":"東京都江戸川区東葛西6丁目12","lat":35.660851,"lon":139.875788},{"name":"東葛西けやき公園","province":"東京都","city":"江戸川区","address":"東京都江戸川区東葛西6丁目32","lat":35.661442,"lon":139.878637},{"name":"臨海町二丁目児童遊園","province":"東京都","city":"江戸川区","address":"東京都江戸川区臨海町2丁目2","lat":35.651998,"lon":139.861369},{"name":"新左近川駐車場（新左近川親水公園）","province":"東京都","city":"江戸川区","address":"東京都江戸川区臨海町3丁目","lat":35.65362,"lon":139.865353},{"name":"新左近川デイキャンプ場（新左近川親水公園）","province":"東京都","city":"江戸川区","address":"東京都江戸川区臨海町2丁目","lat":35.653567,"lon":139.860042},{"name":"わかくさ公園","province":"東京都","city":"江戸川区","address":"東京都江戸川区清新町1丁目4","lat":35.66102,"lon":139.851633},{"name":"さざなみ公園","province":"東京都","city":"江戸川区","address":"東京都江戸川区清新町2丁目8","lat":35.658261,"lon":139.855981},{"name":"新長島川親水公園","province":"東京都","city":"江戸川区","address":"東京都江戸川区清新町2丁目10","lat":35.654905,"lon":139.858807},{"name":"行船公園","province":"東京都","city":"江戸川区","address":"東京都江戸川区北葛西3丁目2","lat":35.671717,"lon":139.857611},{"name":"古川親水公園","province":"東京都","city":"江戸川区","address":"東京都江戸川区江戸川6丁目","lat":35.677757,"lon":139.88308},{"name":"行船公園","province":"東京都","city":"江戸川区","address":"東京都江戸川区北葛西3丁目2","lat":35.672234,"lon":139.859192},{"name":"西小岩公園","province":"東京都","city":"江戸川区","address":"東京都江戸川区西小岩4丁目13","lat":35.73716,"lon":139.88116},{"name":"かるがもひろば","province":"東京都","city":"江戸川区","address":"東京都江戸川区南小岩7丁目16","lat":35.730598,"lon":139.882244},{"name":"南小岩三丁目児童遊園","province":"東京都","city":"江戸川区","address":"東京都江戸川区南小岩3丁目15","lat":35.725853,"lon":139.886911},{"name":"南小岩七丁目南児童遊園","province":"東京都","city":"江戸川区","address":"東京都江戸川区南小岩7丁目1","lat":35.725987,"lon":139.88388},{"name":"鹿骨あさがお公園","province":"東京都","city":"江戸川区","address":"東京都江戸川区鹿骨6丁目8","lat":35.714383,"lon":139.884005},{"name":"鹿骨あさがお公園","province":"東京都","city":"江戸川区","address":"東京都江戸川区鹿骨6丁目8","lat":35.714378,"lon":139.883969},{"name":"篠崎二丁目公園","province":"東京都","city":"江戸川区","address":"東京都江戸川区篠崎町2丁目15","lat":35.707378,"lon":139.905619},{"name":"篠崎なごみ公園","province":"東京都","city":"江戸川区","address":"東京都江戸川区篠崎町7丁目5","lat":35.706193,"lon":139.899944},{"name":"西篠崎さくら公園","province":"東京都","city":"江戸川区","address":"東京都江戸川区西篠崎2丁目6","lat":35.710797,"lon":139.895063},{"name":"西篠崎さくら公園","province":"東京都","city":"江戸川区","address":"東京都江戸川区西篠崎2丁目6","lat":35.710823,"lon":139.895055},{"name":"中図師さくら公園","province":"東京都","city":"江戸川区","address":"東京都江戸川区篠崎町2丁目42","lat":35.706119,"lon":139.908424},{"name":"椿ひがし公園","province":"東京都","city":"江戸川区","address":"東京都江戸川区瑞江3丁目22","lat":35.695502,"lon":139.892604},{"name":"瑞穂の里公園","province":"東京都","city":"江戸川区","address":"東京都江戸川区東瑞江3丁目43","lat":35.690837,"lon":139.895855},{"name":"みずえの森公園","province":"東京都","city":"江戸川区","address":"東京都江戸川区瑞江4丁目29","lat":35.693816,"lon":139.893204},{"name":"東部フレンド公園","province":"東京都","city":"江戸川区","address":"東京都江戸川区南篠崎町3丁目8","lat":35.69486,"lon":139.898219},{"name":"江戸川一丁目公園","province":"東京都","city":"江戸川区","address":"東京都江戸川区江戸川1丁目30","lat":35.689039,"lon":139.907111},{"name":"東部公園","province":"東京都","city":"江戸川区","address":"東京都江戸川区東瑞江1丁目18","lat":35.689593,"lon":139.898975},{"name":"南篠崎さくら公園","province":"東京都","city":"江戸川区","address":"東京都江戸川区南篠崎町2丁目47","lat":35.691932,"lon":139.904568},{"name":"下鎌田へび土手公園","province":"東京都","city":"江戸川区","address":"東京都江戸川区東瑞江1丁目38","lat":35.691626,"lon":139.900598},{"name":"みずえ中央公園","province":"東京都","city":"江戸川区","address":"東京都江戸川区瑞江2丁目40","lat":35.697307,"lon":139.89588},{"name":"江戸川一丁目東公園","province":"東京都","city":"江戸川区","address":"東京都江戸川区江戸川1丁目6","lat":35.686581,"lon":139.906162},{"name":"江戸川一丁目東公園","province":"東京都","city":"江戸川区","address":"東京都江戸川区江戸川1丁目6","lat":35.686563,"lon":139.90621},{"name":"江戸川中央公園","province":"東京都","city":"江戸川区","address":"東京都江戸川区江戸川1丁目9","lat":35.687552,"lon":139.904385},{"name":"江戸川中央公園","province":"東京都","city":"江戸川区","address":"東京都江戸川区江戸川1丁目9","lat":35.687568,"lon":139.904398},{"name":"下鎌田東公園","province":"東京都","city":"江戸川区","address":"東京都江戸川区江戸川2丁目28","lat":35.685289,"lon":139.901057},{"name":"下鎌田東公園","province":"東京都","city":"江戸川区","address":"東京都江戸川区江戸川2丁目28","lat":35.68531,"lon":139.901073},{"name":"前野公園","province":"東京都","city":"江戸川区","address":"東京都江戸川区東篠崎2丁目1","lat":35.687547,"lon":139.90905},{"name":"江戸川一丁目第二児童遊園","province":"東京都","city":"江戸川区","address":"東京都江戸川区江戸川1丁目42","lat":35.689207,"lon":139.909064},{"name":"中篠崎公園","province":"東京都","city":"江戸川区","address":"東京都江戸川区篠崎町3丁目12","lat":35.705907,"lon":139.913075},{"name":"篠崎五丁目公園","province":"東京都","city":"江戸川区","address":"東京都江戸川区篠崎町5丁目13","lat":35.703318,"lon":139.908362},{"name":"南篠崎児童遊園","province":"東京都","city":"江戸川区","address":"東京都江戸川区南篠崎町5丁目5","lat":35.690812,"lon":139.90951},{"name":"篠崎第四広場","province":"東京都","city":"江戸川区","address":"東京都江戸川区篠崎町6丁目5","lat":35.702843,"lon":139.904472},{"name":"篠崎緑地","province":"東京都","city":"江戸川区","address":"東京都江戸川区篠崎町3丁目","lat":35.705667,"lon":139.91451},{"name":"篠崎仲町公園","province":"東京都","city":"江戸川区","address":"東京都江戸川区篠崎町2丁目21","lat":35.705171,"lon":139.90679},{"name":"下篠崎ふれあい公園","province":"東京都","city":"江戸川区","address":"東京都江戸川区篠崎町4丁目15","lat":35.698659,"lon":139.910217},{"name":"瑞江すずかぜ公園","province":"東京都","city":"江戸川区","address":"東京都江戸川区春江町3丁目3","lat":35.690359,"lon":139.887909},{"name":"くじゃく児童遊園","province":"東京都","city":"江戸川区","address":"東京都江戸川区平井6丁目21","lat":35.708912,"lon":139.841022},{"name":"つばめ児童遊園","province":"東京都","city":"江戸川区","address":"東京都江戸川区平井5丁目32","lat":35.708903,"lon":139.843649},{"name":"ファミリースポーツ広場（総合レクリエーション公園）","province":"東京都","city":"江戸川区","address":"東京都江戸川区南葛西3丁目23","lat":35.650767,"lon":139.870931},{"name":"逆井公園","province":"東京都","city":"江戸川区","address":"東京都江戸川区平井1丁目24","lat":35.703323,"lon":139.850058},{"name":"小岩緑地","province":"東京都","city":"江戸川区","address":"東京都江戸川区北小岩4丁目","lat":35.738726,"lon":139.897609},{"name":"松江三丁目児童遊園","province":"東京都","city":"江戸川区","address":"東京都江戸川区松江3丁目8","lat":35.695215,"lon":139.868589},{"name":"中川児童遊園","province":"東京都","city":"江戸川区","address":"東京都江戸川区平井6丁目77","lat":35.715083,"lon":139.842388},{"name":"長島東公園","province":"東京都","city":"江戸川区","address":"東京都江戸川区東葛西5丁目47","lat":35.665017,"lon":139.880608},{"name":"平井運動公園","province":"東京都","city":"江戸川区","address":"東京都江戸川区平井6丁目","lat":35.713321,"lon":139.845123},{"name":"平井三丁目南公園","province":"東京都","city":"江戸川区","address":"東京都江戸川区平井3丁目4","lat":35.703109,"lon":139.841608},{"name":"新左近川親水公園","province":"東京都","city":"江戸川区","address":"東京都江戸川区臨海町1丁目","lat":35.653718,"lon":139.85551},{"name":"新左近川親水公園カヌー場","province":"東京都","city":"江戸川区","address":"東京都江戸川区臨海町2丁目","lat":35.653896,"lon":139.859293},{"name":"新川休養公園","province":"東京都","city":"江戸川区","address":"東京都江戸川区北葛西1丁目21","lat":35.680568,"lon":139.860858},{"name":"東小松川東公園","province":"東京都","city":"江戸川区","address":"東京都江戸川区東小松川2丁目11","lat":35.698027,"lon":139.867508},{"name":"東部交通公園","province":"東京都","city":"江戸川区","address":"東京都江戸川区江戸川2丁目28","lat":35.683951,"lon":139.900952},{"name":"春江ゆりのきひろば","province":"東京都","city":"江戸川区","address":"東京都江戸川区春江町5丁目","lat":35.679294,"lon":139.873071},{"name":"篠崎本郷公園","province":"東京都","city":"江戸川区","address":"東京都江戸川区篠崎町1丁目32-23","lat":35.708511,"lon":139.907855},{"name":"中央一丁目東公園","province":"東京都","city":"江戸川区","address":"東京都江戸川区中央1丁目26","lat":35.706448,"lon":139.870723},{"name":"古川親水公園","province":"東京都","city":"江戸川区","address":"東京都江戸川区江戸川6丁目","lat":35.675188,"lon":139.874728},{"name":"古川親水公園","province":"東京都","city":"江戸川区","address":"東京都江戸川区江戸川6丁目","lat":35.675156,"lon":139.874699},{"name":"東篠崎公園","province":"東京都","city":"江戸川区","address":"東京都江戸川区東篠崎1丁目7","lat":35.698151,"lon":139.916088},{"name":"かぶとむし児童遊園","province":"東京都","city":"江戸川区","address":"東京都江戸川区西小松川町","lat":35.699124,"lon":139.863027},{"name":"えどがわ金魚公園","province":"東京都","city":"江戸川区","address":"東京都江戸川区春江町5丁目","lat":35.677151,"lon":139.871647},{"name":"江戸川区総合体育館","province":"東京都","city":"江戸川区","address":"東京都江戸川区松本1丁目35-1","lat":35.717655,"lon":139.876534},{"name":"公衆手洗所（京成小岩駅前）","province":"東京都","city":"江戸川区","address":"東京都江戸川区北小岩6丁目12","lat":35.742236,"lon":139.883878},{"name":"公衆手洗所（三角）","province":"東京都","city":"江戸川区","address":"東京都江戸川区江戸川6丁目","lat":35.675401,"lon":139.87105},{"name":"公衆手洗所（松江）","province":"東京都","city":"江戸川区","address":"東京都江戸川区松江1丁目16","lat":35.696985,"lon":139.870054},{"name":"公衆手洗所（新川親水河川）","province":"東京都","city":"江戸川区","address":"東京都江戸川区宇喜田町","lat":35.679321,"lon":139.863482},{"name":"公衆手洗所（新川西水門広場）","province":"東京都","city":"江戸川区","address":"東京都江戸川区北葛西1丁目","lat":35.682171,"lon":139.856768},{"name":"公衆手洗所（清新町第一）","province":"東京都","city":"江戸川区","address":"東京都江戸川区清新町1丁目3","lat":35.661438,"lon":139.85657},{"name":"公衆手洗所（清新町第二）","province":"東京都","city":"江戸川区","address":"東京都江戸川区清新町1丁目2","lat":35.658715,"lon":139.857411},{"name":"公衆手洗所（清新町北緑地）","province":"東京都","city":"江戸川区","address":"東京都江戸川区清新町1丁目5","lat":35.664629,"lon":139.852448},{"name":"公衆手洗所（中川新橋北）","province":"東京都","city":"江戸川区","address":"東京都江戸川区平井2丁目2","lat":35.698567,"lon":139.845624},{"name":"公衆手洗所（臨海町）","province":"東京都","city":"江戸川区","address":"東京都江戸川区臨海町1丁目2","lat":35.650655,"lon":139.856358},{"name":"駅前広場手洗所（一之江駅前西口）","province":"東京都","city":"江戸川区","address":"東京都江戸川区一之江7丁目36","lat":35.685521,"lon":139.881917},{"name":"駅前広場手洗所（一之江駅前東口）","province":"東京都","city":"江戸川区","address":"東京都江戸川区一之江8丁目14","lat":35.685933,"lon":139.882777},{"name":"駅前広場手洗所（葛西駅東口）","province":"東京都","city":"江戸川区","address":"東京都江戸川区東葛西6丁目3","lat":35.663334,"lon":139.873859},{"name":"駅前広場手洗所（篠崎駅前）","province":"東京都","city":"江戸川区","address":"東京都江戸川区篠崎町7丁目27","lat":35.705691,"lon":139.904089},{"name":"駅前広場手洗所（小岩駅前）","province":"東京都","city":"江戸川区","address":"東京都江戸川区南小岩7丁目24","lat":35.733164,"lon":139.881991},{"name":"駅前広場手洗所（瑞江駅前）","province":"東京都","city":"江戸川区","address":"東京都江戸川区瑞江2丁目2-1","lat":35.692656,"lon":139.897655},{"name":"駅前広場手洗所（西葛西駅前）","province":"東京都","city":"江戸川区","address":"東京都江戸川区西葛西5丁目1","lat":35.664773,"lon":139.85911},{"name":"駅前広場手洗所（船堀駅前）","province":"東京都","city":"江戸川区","address":"東京都江戸川区船堀3丁目6","lat":35.683555,"lon":139.864358},{"name":"駅前広場手洗所（東大島駅前）","province":"東京都","city":"江戸川区","address":"東京都江戸川区小松川1丁目4","lat":35.689458,"lon":139.849733},{"name":"駅前広場手洗所（平井駅前）","province":"東京都","city":"江戸川区","address":"東京都江戸川区平井5丁目18","lat":35.706995,"lon":139.842058},{"name":"公衆手洗所（興農親水緑道）","province":"東京都","city":"江戸川区","address":"東京都江戸川区北篠崎1丁目9","lat":35.721623,"lon":139.896046},{"name":"葛西駅西口手洗所","province":"東京都","city":"江戸川区","address":"東京都江戸川区中葛西5丁目43","lat":35.663469,"lon":139.872494},{"name":"公衆手洗所（松江橋）","province":"東京都","city":"江戸川区","address":"東京都江戸川区東小松川1丁目1","lat":35.699427,"lon":139.865685},{"name":"小岩テニスコート","province":"東京都","city":"江戸川区","address":"東京都江戸川区北小岩6丁目43","lat":35.746519,"lon":139.887009},{"name":"江戸川区総合体育館","province":"東京都","city":"江戸川区","address":"東京都江戸川区松本1丁目35-1","lat":35.717435,"lon":139.876629},{"name":"江戸川区スポーツランド","province":"東京都","city":"江戸川区","address":"東京都江戸川区東篠崎1丁目8-1","lat":35.698642,"lon":139.916953},{"name":"江戸川区総合体育館","province":"東京都","city":"江戸川区","address":"東京都江戸川区松本1丁目35-1","lat":35.717261,"lon":139.876553},{"name":"江戸川区スポーツランド","province":"東京都","city":"江戸川区","address":"東京都江戸川区東篠崎1丁目8-1","lat":35.69874,"lon":139.917314},{"name":"江戸川区スポーツセンター","province":"東京都","city":"江戸川区","address":"東京都江戸川区西葛西4丁目2-20","lat":35.667857,"lon":139.862478},{"name":"江戸川区スポーツセンター","province":"東京都","city":"江戸川区","address":"東京都江戸川区西葛西4丁目2-20","lat":35.667726,"lon":139.862398},{"name":"江戸川区球場","province":"東京都","city":"江戸川区","address":"東京都江戸川区西葛西7丁目2-1","lat":35.662244,"lon":139.857797},{"name":"江戸川区球場","province":"東京都","city":"江戸川区","address":"東京都江戸川区西葛西7丁目2","lat":35.661846,"lon":139.857077},{"name":"江戸川区臨海球技場","province":"東京都","city":"江戸川区","address":"東京都江戸川区臨海町1丁目1","lat":35.649259,"lon":139.855673},{"name":"江戸川区陸上競技場","province":"東京都","city":"江戸川区","address":"東京都江戸川区清新町2丁目1-1","lat":35.655791,"lon":139.853005},{"name":"江戸川区陸上競技場","province":"東京都","city":"江戸川区","address":"東京都江戸川区清新町2丁目1-1","lat":35.655791,"lon":139.852757},{"name":"水辺のスポーツガーデン","province":"東京都","city":"江戸川区","address":"東京都江戸川区東篠崎2丁目","lat":35.690806,"lon":139.912062},{"name":"水辺のスポーツガーデン","province":"東京都","city":"江戸川区","address":"東京都江戸川区東篠崎2丁目","lat":35.692677,"lon":139.914077},{"name":"人権・男女共同参画推進センター","province":"東京都","city":"江戸川区","address":"東京都江戸川区瑞江2丁目9","lat":35.694868,"lon":139.895941},{"name":"中央くすのきカルチャーセンター","province":"東京都","city":"江戸川区","address":"東京都江戸川区西小松川町34-1","lat":35.700904,"lon":139.864265},{"name":"小岩くすのきカルチャーセンター","province":"東京都","city":"江戸川区","address":"東京都江戸川区東小岩2丁目6-22","lat":35.72765,"lon":139.892258},{"name":"葛西くすのきカルチャーセンター","province":"東京都","city":"江戸川区","address":"東京都江戸川区宇喜田町191","lat":35.673549,"lon":139.861857},{"name":"ホテルシーサイド江戸川","province":"東京都","city":"江戸川区","address":"東京都江戸川区臨海町6丁目2-2","lat":35.642955,"lon":139.859407},{"name":"江戸川区児童相談所","province":"東京都","city":"江戸川区","address":"東京都江戸川区中央3丁目4-18","lat":35.709989,"lon":139.871561},{"name":"江戸川区児童相談所","province":"東京都","city":"江戸川区","address":"東京都江戸川区中央3丁目4","lat":35.710193,"lon":139.871621},{"name":"江戸川区児童相談所","province":"東京都","city":"江戸川区","address":"東京都江戸川区中央3丁目4-18","lat":35.710023,"lon":139.871478},{"name":"谷河内テニスコート","province":"東京都","city":"江戸川区","address":"東京都江戸川区谷河内2丁目9","lat":35.701055,"lon":139.899308},{"name":"西葛西テニスコート","province":"東京都","city":"江戸川区","address":"東京都江戸川区西葛西8丁目17-1","lat":35.655467,"lon":139.863205},{"name":"江戸川保健所（生活衛生課）","province":"東京都","city":"江戸川区","address":"東京都江戸川区東小岩3丁目23-3","lat":35.73387864,"lon":139.89399229},{"name":"江戸川保健所（保健予防課）","province":"東京都","city":"江戸川区","address":"東京都江戸川区中央4丁目24-19","lat":35.70962253,"lon":139.86826222},{"name":"中央健康サポートセンター","province":"東京都","city":"江戸川区","address":"東京都江戸川区中央4丁目24-19","lat":35.70962253,"lon":139.86826222},{"name":"小岩健康サポートセンター","province":"東京都","city":"江戸川区","address":"東京都江戸川区東小岩3丁目23-3","lat":35.73387864,"lon":139.89399229},{"name":"東部健康サポートセンター","province":"東京都","city":"江戸川区","address":"東京都江戸川区瑞江2丁目5-7","lat":35.69401926,"lon":139.8976433},{"name":"清新町健康サポートセンター","province":"東京都","city":"江戸川区","address":"東京都江戸川区清新町1丁目3-11","lat":35.66289717,"lon":139.85577317},{"name":"葛西健康サポートセンター","province":"東京都","city":"江戸川区","address":"東京都江戸川区中葛西3丁目10-1","lat":35.66592511,"lon":139.86958022},{"name":"鹿骨健康サポートセンター","province":"東京都","city":"江戸川区","address":"東京都江戸川区鹿骨1丁目55-10","lat":35.70972765,"lon":139.89058766},{"name":"小松川健康サポートセンター","province":"東京都","city":"江戸川区","address":"東京都江戸川区小松川3丁目6-1","lat":35.69629809,"lon":139.84861738},{"name":"なぎさ健康サポートセンター","province":"東京都","city":"江戸川区","address":"東京都江戸川区南葛西7丁目1-27","lat":35.64563335,"lon":139.88129956},{"name":"わんぱく乳児院","province":"東京都","city":"江戸川区","address":"江戸川区篠崎町1-28-16","lat":35.70831,"lon":139.90698},{"name":"江戸川つむぎの家","province":"東京都","city":"江戸川区","address":"江戸川区江戸川2-38-20","lat":35.6852,"lon":139.89879},{"name":"共育プラザ一之江","province":"東京都","city":"江戸川区","address":"江戸川区一之江3-13-7","lat":35.68967,"lon":139.88434},{"name":"共育プラザ中央","province":"東京都","city":"江戸川区","address":"江戸川区松島1-38-1グリーンパレス内","lat":35.70605,"lon":139.86636},{"name":"共育プラザ平井","province":"東京都","city":"江戸川区","address":"江戸川区平井7-21-6","lat":35.71465,"lon":139.84042},{"name":"共育プラザ小岩","province":"東京都","city":"江戸川区","address":"江戸川区北小岩2-14-17","lat":35.73995,"lon":139.88454},{"name":"共育プラザ南小岩","province":"東京都","city":"江戸川区","address":"江戸川区南小岩4-5-8","lat":35.72095,"lon":139.88564},{"name":"共育プラザ南篠崎","province":"東京都","city":"江戸川区","address":"江戸川区南篠崎町3-12-8","lat":35.69662,"lon":139.89914},{"name":"共育プラザ葛西","province":"東京都","city":"江戸川区","address":"江戸川区宇喜田町175","lat":35.67343,"lon":139.8615},{"name":"えどがわ","province":"東京都","city":"江戸川区","address":"東京都江戸川区","lat":35.70697836,"lon":139.8683262},{"name":"L'espoir","province":"東京都","city":"江戸川区","address":"東京都江戸川区","lat":35.70697836,"lon":139.8683262},{"name":"江戸川区（生活援護第一課）","province":"東京都","city":"江戸川区","address":"江戸川区中央1-3-17","lat":35.70597,"lon":139.86835},{"name":"江戸川区（生活援護第二課）","province":"東京都","city":"江戸川区","address":"江戸川区東小岩6-9-14","lat":35.73381,"lon":139.88773},{"name":"江戸川区（生活援護第三課）","province":"東京都","city":"江戸川区","address":"江戸川区東葛西7-12-6","lat":35.65866,"lon":139.87589},{"name":"江戸川保健所（生活衛生課）","province":"東京都","city":"江戸川区","address":"江戸川区東小岩3-23-3","lat":35.73393,"lon":139.89398},{"name":"江戸川保健所（保健予防課）","province":"東京都","city":"江戸川区","address":"江戸川区中央4-24-19","lat":35.70982,"lon":139.86824},{"name":"中央健康サポートセンター","province":"東京都","city":"江戸川区","address":"江戸川区中央4-24-19","lat":35.70982,"lon":139.86824},{"name":"小岩健康サポートセンター","province":"東京都","city":"江戸川区","address":"江戸川区東小岩3-23-3","lat":35.73393,"lon":139.89398},{"name":"東部健康サポートセンター","province":"東京都","city":"江戸川区","address":"江戸川区瑞江2-5-7","lat":35.69398,"lon":139.89775},{"name":"清新町健康サポートセンター","province":"東京都","city":"江戸川区","address":"江戸川区清新町1-3-11","lat":35.66125,"lon":139.85623},{"name":"葛西健康サポートセンター","province":"東京都","city":"江戸川区","address":"江戸川区中葛西3-10-1","lat":35.66589,"lon":139.86938},{"name":"鹿骨健康サポートセンター","province":"東京都","city":"江戸川区","address":"江戸川区鹿骨1-55-10","lat":35.70947,"lon":139.89064},{"name":"小松川健康サポートセンター","province":"東京都","city":"江戸川区","address":"江戸川区小松川3-6-1","lat":35.69702,"lon":139.84932},{"name":"なぎさ健康サポートセンター","province":"東京都","city":"江戸川区","address":"江戸川区南葛西7-1-27","lat":35.64574,"lon":139.87993},{"name":"江戸川区児童相談所","province":"東京都","city":"江戸川区","address":"江戸川区中央3-4-18","lat":35.71037,"lon":139.8714},{"name":"江戸川区児童相談所（はあとポート）","province":"東京都","city":"江戸川区","address":"江戸川区中央3-4-18","lat":35.71037,"lon":139.8714},{"name":"江戸川区子ども家庭部相談課","province":"東京都","city":"江戸川区","address":"江戸川区中央3-4-18","lat":35.71037,"lon":139.8714},{"name":"くつろぎの家","province":"東京都","city":"江戸川区","address":"江戸川区江戸川2-13","lat":35.685403,"lon":139.905901},{"name":"わんぱく乳児院","province":"東京都","city":"江戸川区","address":"江戸川区篠崎町1-28-16","lat":35.708305,"lon":139.906982},{"name":"江戸川区児童相談所相談課総合相談係","province":"東京都","city":"江戸川区","address":"江戸川区中央3-4-18","lat":35.71037,"lon":139.8714},{"name":"共育プラザ中央","province":"東京都","city":"江戸川区","address":"江戸川区松島1-38-1グリーンパレス内","lat":35.70606,"lon":139.86636},{"name":"共育プラザ南小岩","province":"東京都","city":"江戸川区","address":"江戸川区南小岩4-5-8","lat":35.72096,"lon":139.88564},{"name":"共育プラザ南篠崎","province":"東京都","city":"江戸川区","address":"江戸川区南篠崎町3-12-8","lat":35.69663,"lon":139.89914},{"name":"清新町健康サポートセンター","province":"東京都","city":"江戸川区","address":"江戸川区清新町1-3-11","lat":35.66126,"lon":139.85623},{"name":"葛西健康サポートセンター","province":"東京都","city":"江戸川区","address":"江戸川区中葛西3-10-1","lat":35.66589,"lon":139.86939},{"name":"くつろぎの家","province":"東京都","city":"江戸川区","address":"江戸川区江戸川2-13","lat":35.68505,"lon":139.90593},{"name":"＊?人権・男女共同参画センター","province":"東京都","city":"江戸川区","address":"江戸川区瑞江2-9-15","lat":35.694897,"lon":139.895833},{"name":"宇喜田公園","province":"東京都","city":"江戸川区","address":"東京都江戸川区北葛西3丁目","lat":35.67537632,"lon":139.86113068},{"name":"江戸川区（生活援護第一課）","province":"東京都","city":"江戸川区","address":"江戸川区中央1-3-17","lat":35.705892,"lon":139.868446},{"name":"江戸川区（生活援護第二課）","province":"東京都","city":"江戸川区","address":"江戸川区東小岩6-9-14","lat":35.733879,"lon":139.888095},{"name":"江戸川区（生活援護第三課）","province":"東京都","city":"江戸川区","address":"江戸川区東葛西7-12-6","lat":35.658671,"lon":139.875819},{"name":"葛西警察署","province":"東京都","city":"江戸川区","address":"江戸川区東葛西6-39-1","lat":35.6615,"lon":139.8796},{"name":"小岩警察署","province":"東京都","city":"江戸川区","address":"江戸川区東小岩6-9-17","lat":35.73386,"lon":139.8876},{"name":"小松川警察署","province":"東京都","city":"江戸川区","address":"江戸川区松島1-19-22","lat":35.70257,"lon":139.8638},{"name":"江戸川消防署","province":"東京都","city":"江戸川区","address":"江戸川区中央2-9-13","lat":35.70607,"lon":139.8725},{"name":"葛西消防署","province":"東京都","city":"江戸川区","address":"江戸川区中葛西1-29-1","lat":35.66946,"lon":139.8693},{"name":"小岩消防署","province":"東京都","city":"江戸川区","address":"江戸川区鹿骨2-42-11","lat":35.70864,"lon":139.8949},{"name":"都立篠崎公園","province":"東京都","city":"江戸川区","address":"江戸川区篠崎1-26","lat":35.70838,"lon":139.9056},{"name":"都立葛西臨海公園","province":"東京都","city":"江戸川区","address":"江戸川区臨海町6-2","lat":35.64164,"lon":139.8652},{"name":"江戸川清掃工場","province":"東京都","city":"江戸川区","address":"江戸川区江戸川2-10番地","lat":35.68561,"lon":139.9043},{"name":"葛西臨海公園第２駐車場","province":"東京都","city":"江戸川区","address":"江戸川区臨海町6-2","lat":35.64164,"lon":139.8652},{"name":"葛西臨海公園多目的広場","province":"東京都","city":"江戸川区","address":"江戸川区臨海町6-2","lat":35.64164,"lon":139.8652},{"name":"江戸川区臨海球技場第一","province":"東京都","city":"江戸川区","address":"江戸川区臨海町1-1-2","lat":35.64901,"lon":139.8507},{"name":"都立篠崎公園野球場（第２面）","province":"東京都","city":"江戸川区","address":"江戸川区上篠崎1-25先","lat":35.71633,"lon":139.9011},{"name":"共育プラザ一之江","province":"東京都","city":"江戸川区","address":"江戸川区一之江3-13-7","lat":35.689768,"lon":139.884256},{"name":"共育プラザ平井","province":"東京都","city":"江戸川区","address":"江戸川区平井7-21-6","lat":35.714593,"lon":139.840134},{"name":"共育プラザ小岩","province":"東京都","city":"江戸川区","address":"江戸川区北小岩2-14-17","lat":35.740158,"lon":139.884893},{"name":"共育プラザ南小岩","province":"東京都","city":"江戸川区","address":"江戸川区南小岩4-5-8","lat":35.720925,"lon":139.885652},{"name":"共育プラザ南篠崎","province":"東京都","city":"江戸川区","address":"江戸川区南篠崎町3-12-8","lat":35.696777,"lon":139.899063},{"name":"共育プラザ葛西","province":"東京都","city":"江戸川区","address":"江戸川区宇喜田町175","lat":35.673385,"lon":139.860928},{"name":"にっこり相談室","province":"東京都","city":"江戸川区","address":"江戸川区東小岩3-17-19-1","lat":35.731677,"lon":139.892892},{"name":"もぐらの家","province":"東京都","city":"江戸川区","address":"江戸川区春江町3-21-6","lat":35.69336,"lon":139.888819},{"name":"一之江あゆみの園","province":"東京都","city":"江戸川区","address":"江戸川区西一之江3-12-13","lat":35.693214,"lon":139.87604},{"name":"わんぱく乳児院","province":"東京都","city":"江戸川区","address":"江戸川区篠崎町1-28-16","lat":35.70831,"lon":139.90698},{"name":"江戸川つむぎの家","province":"東京都","city":"江戸川区","address":"江戸川区江戸川2-38-20","lat":35.6852,"lon":139.89879},{"name":"共育プラザ一之江","province":"東京都","city":"江戸川区","address":"江戸川区一之江3-13-7","lat":35.68967,"lon":139.88434},{"name":"共育プラザ中央","province":"東京都","city":"江戸川区","address":"江戸川区松島1-38-1グリーンパレス内","lat":35.70605,"lon":139.86636},{"name":"共育プラザ平井","province":"東京都","city":"江戸川区","address":"江戸川区平井7-21-6","lat":35.71465,"lon":139.84042},{"name":"共育プラザ小岩","province":"東京都","city":"江戸川区","address":"江戸川区北小岩2-14-17","lat":35.73995,"lon":139.88454},{"name":"共育プラザ南小岩","province":"東京都","city":"江戸川区","address":"江戸川区南小岩4-5-8","lat":35.72095,"lon":139.88564},{"name":"共育プラザ南篠崎","province":"東京都","city":"江戸川区","address":"江戸川区南篠崎町3-12-8","lat":35.69662,"lon":139.89914},{"name":"共育プラザ葛西","province":"東京都","city":"江戸川区","address":"江戸川区宇喜田町175","lat":35.67343,"lon":139.8615},{"name":"えどがわ","province":"東京都","city":"江戸川区","address":"東京都江戸川区","lat":35.70697836,"lon":139.8683262},{"name":"L'espoir","province":"東京都","city":"江戸川区","address":"東京都江戸川区","lat":35.70697836,"lon":139.8683262},{"name":"江戸川区（生活援護第一課）","province":"東京都","city":"江戸川区","address":"江戸川区中央1-3-17","lat":35.70597,"lon":139.86835},{"name":"江戸川区（生活援護第二課）","province":"東京都","city":"江戸川区","address":"江戸川区東小岩6-9-14","lat":35.73381,"lon":139.88773},{"name":"江戸川区（生活援護第三課）","province":"東京都","city":"江戸川区","address":"江戸川区東葛西7-12-6","lat":35.65866,"lon":139.87589},{"name":"江戸川区児童相談所","province":"東京都","city":"江戸川区","address":"江戸川区中央3-4-18","lat":35.71037,"lon":139.8714},{"name":"くつろぎの家","province":"東京都","city":"江戸川区","address":"江戸川区江戸川2-13","lat":35.685403,"lon":139.905901},{"name":"わんぱく乳児院","province":"東京都","city":"江戸川区","address":"江戸川区篠崎町1-28-16","lat":35.708305,"lon":139.906982},{"name":"共育プラザ中央","province":"東京都","city":"江戸川区","address":"江戸川区松島1-38-1グリーンパレス内","lat":35.70606,"lon":139.86636},{"name":"共育プラザ南小岩","province":"東京都","city":"江戸川区","address":"江戸川区南小岩4-5-8","lat":35.72096,"lon":139.88564},{"name":"共育プラザ南篠崎","province":"東京都","city":"江戸川区","address":"江戸川区南篠崎町3-12-8","lat":35.69663,"lon":139.89914},{"name":"くつろぎの家","province":"東京都","city":"江戸川区","address":"江戸川区江戸川2-13","lat":35.68505,"lon":139.90593},{"name":"＊?人権・男女共同参画センター","province":"東京都","city":"江戸川区","address":"江戸川区瑞江2-9-15","lat":35.694897,"lon":139.895833},{"name":"宇喜田公園","province":"東京都","city":"江戸川区","address":"東京都江戸川区北葛西3丁目","lat":35.67537632,"lon":139.86113068},{"name":"江戸川区（生活援護第一課）","province":"東京都","city":"江戸川区","address":"江戸川区中央1-3-17","lat":35.705892,"lon":139.868446},{"name":"江戸川区（生活援護第二課）","province":"東京都","city":"江戸川区","address":"江戸川区東小岩6-9-14","lat":35.733879,"lon":139.888095},{"name":"江戸川区（生活援護第三課）","province":"東京都","city":"江戸川区","address":"江戸川区東葛西7-12-6","lat":35.658671,"lon":139.875819},{"name":"にっこり相談室","province":"東京都","city":"江戸川区","address":"江戸川区東小岩3-17-19-1","lat":35.731677,"lon":139.892892},{"name":"もぐらの家","province":"東京都","city":"江戸川区","address":"江戸川区春江町3-21-6","lat":35.69336,"lon":139.888819},{"name":"一之江あゆみの園","province":"東京都","city":"江戸川区","address":"江戸川区西一之江3-12-13","lat":35.693214,"lon":139.87604},{"name":"わんぱく乳児院","province":"東京都","city":"江戸川区","address":"江戸川区篠崎町1-28-16","lat":35.70831,"lon":139.90698},{"name":"江戸川つむぎの家","province":"東京都","city":"江戸川区","address":"江戸川区江戸川2-38-20","lat":35.6852,"lon":139.89879},{"name":"えどがわ","province":"東京都","city":"江戸川区","address":"東京都江戸川区","lat":35.70697836,"lon":139.8683262},{"name":"L'espoir","province":"東京都","city":"江戸川区","address":"東京都江戸川区","lat":35.70697836,"lon":139.8683262},{"name":"江戸川区（生活援護第一課）","province":"東京都","city":"江戸川区","address":"江戸川区中央1-3-17","lat":35.70597,"lon":139.86835},{"name":"江戸川区（生活援護第二課）","province":"東京都","city":"江戸川区","address":"江戸川区東小岩6-9-14","lat":35.73381,"lon":139.88773},{"name":"江戸川区（生活援護第三課）","province":"東京都","city":"江戸川区","address":"江戸川区東葛西7-12-6","lat":35.65866,"lon":139.87589},{"name":"江戸川区児童相談所","province":"東京都","city":"江戸川区","address":"江戸川区中央3-4-18","lat":35.71037,"lon":139.8714},{"name":"くつろぎの家","province":"東京都","city":"江戸川区","address":"江戸川区江戸川2-13","lat":35.685403,"lon":139.905901},{"name":"わんぱく乳児院","province":"東京都","city":"江戸川区","address":"江戸川区篠崎町1-28-16","lat":35.708305,"lon":139.906982},{"name":"くつろぎの家","province":"東京都","city":"江戸川区","address":"江戸川区江戸川2-13","lat":35.68505,"lon":139.90593},{"name":"＊?人権・男女共同参画センター","province":"東京都","city":"江戸川区","address":"江戸川区瑞江2-9-15","lat":35.694897,"lon":139.895833},{"name":"江戸川区（生活援護第一課）","province":"東京都","city":"江戸川区","address":"江戸川区中央1-3-17","lat":35.705892,"lon":139.868446},{"name":"江戸川区（生活援護第二課）","province":"東京都","city":"江戸川区","address":"江戸川区東小岩6-9-14","lat":35.733879,"lon":139.888095},{"name":"江戸川区（生活援護第三課）","province":"東京都","city":"江戸川区","address":"江戸川区東葛西7-12-6","lat":35.658671,"lon":139.875819},{"name":"にっこり相談室","province":"東京都","city":"江戸川区","address":"江戸川区東小岩3-17-19-1","lat":35.731677,"lon":139.892892},{"name":"もぐらの家","province":"東京都","city":"江戸川区","address":"江戸川区春江町3-21-6","lat":35.69336,"lon":139.888819},{"name":"一之江あゆみの園","province":"東京都","city":"江戸川区","address":"江戸川区西一之江3-12-13","lat":35.693214,"lon":139.87604},{"name":"わんぱく乳児院","province":"東京都","city":"江戸川区","address":"江戸川区篠崎町1-28-16","lat":35.70831,"lon":139.90698},{"name":"江戸川つむぎの家","province":"東京都","city":"江戸川区","address":"江戸川区江戸川2-38-20","lat":35.6852,"lon":139.89879},{"name":"えどがわ","province":"東京都","city":"江戸川区","address":"東京都江戸川区","lat":35.70697836,"lon":139.8683262},{"name":"L'espoir","province":"東京都","city":"江戸川区","address":"東京都江戸川区","lat":35.70697836,"lon":139.8683262},{"name":"江戸川区（生活援護第一課）","province":"東京都","city":"江戸川区","address":"江戸川区中央1-3-17","lat":35.70597,"lon":139.86835},{"name":"江戸川区（生活援護第二課）","province":"東京都","city":"江戸川区","address":"江戸川区東小岩6-9-14","lat":35.73381,"lon":139.88773},{"name":"江戸川区（生活援護第三課）","province":"東京都","city":"江戸川区","address":"江戸川区東葛西7-12-6","lat":35.65866,"lon":139.87589},{"name":"江戸川区児童相談所","province":"東京都","city":"江戸川区","address":"江戸川区中央3-4-18","lat":35.71037,"lon":139.8714},{"name":"くつろぎの家","province":"東京都","city":"江戸川区","address":"江戸川区江戸川2-13","lat":35.685403,"lon":139.905901},{"name":"わんぱく乳児院","province":"東京都","city":"江戸川区","address":"江戸川区篠崎町1-28-16","lat":35.708305,"lon":139.906982},{"name":"くつろぎの家","province":"東京都","city":"江戸川区","address":"江戸川区江戸川2-13","lat":35.68505,"lon":139.90593},{"name":"＊?人権・男女共同参画センター","province":"東京都","city":"江戸川区","address":"江戸川区瑞江2-9-15","lat":35.694897,"lon":139.895833},{"name":"江戸川区（生活援護第一課）","province":"東京都","city":"江戸川区","address":"江戸川区中央1-3-17","lat":35.705892,"lon":139.868446},{"name":"江戸川区（生活援護第二課）","province":"東京都","city":"江戸川区","address":"江戸川区東小岩6-9-14","lat":35.733879,"lon":139.888095},{"name":"江戸川区（生活援護第三課）","province":"東京都","city":"江戸川区","address":"江戸川区東葛西7-12-6","lat":35.658671,"lon":139.875819},{"name":"にっこり相談室","province":"東京都","city":"江戸川区","address":"江戸川区東小岩3-17-19-1","lat":35.731677,"lon":139.892892},{"name":"もぐらの家","province":"東京都","city":"江戸川区","address":"江戸川区春江町3-21-6","lat":35.69336,"lon":139.888819},{"name":"一之江あゆみの園","province":"東京都","city":"江戸川区","address":"江戸川区西一之江3-12-13","lat":35.693214,"lon":139.87604},{"name":"わんぱく乳児院","province":"東京都","city":"江戸川区","address":"江戸川区篠崎町1-28-16","lat":35.70831,"lon":139.90698},{"name":"江戸川つむぎの家","province":"東京都","city":"江戸川区","address":"江戸川区江戸川2-38-20","lat":35.6852,"lon":139.89879},{"name":"えどがわ","province":"東京都","city":"江戸川区","address":"東京都江戸川区","lat":35.70697836,"lon":139.8683262},{"name":"L'espoir","province":"東京都","city":"江戸川区","address":"東京都江戸川区","lat":35.70697836,"lon":139.8683262},{"name":"江戸川区（生活援護第一課）","province":"東京都","city":"江戸川区","address":"江戸川区中央1-3-17","lat":35.70597,"lon":139.86835},{"name":"江戸川区（生活援護第二課）","province":"東京都","city":"江戸川区","address":"江戸川区東小岩6-9-14","lat":35.73381,"lon":139.88773},{"name":"江戸川区（生活援護第三課）","province":"東京都","city":"江戸川区","address":"江戸川区東葛西7-12-6","lat":35.65866,"lon":139.87589},{"name":"江戸川区児童相談所","province":"東京都","city":"江戸川区","address":"江戸川区中央3-4-18","lat":35.71037,"lon":139.8714},{"name":"くつろぎの家","province":"東京都","city":"江戸川区","address":"江戸川区江戸川2-13","lat":35.685403,"lon":139.905901},{"name":"わんぱく乳児院","province":"東京都","city":"江戸川区","address":"江戸川区篠崎町1-28-16","lat":35.708305,"lon":139.906982},{"name":"くつろぎの家","province":"東京都","city":"江戸川区","address":"江戸川区江戸川2-13","lat":35.68505,"lon":139.90593},{"name":"江戸川区（生活援護第一課）","province":"東京都","city":"江戸川区","address":"江戸川区中央1-3-17","lat":35.705892,"lon":139.868446},{"name":"江戸川区（生活援護第二課）","province":"東京都","city":"江戸川区","address":"江戸川区東小岩6-9-14","lat":35.733879,"lon":139.888095},{"name":"江戸川区（生活援護第三課）","province":"東京都","city":"江戸川区","address":"江戸川区東葛西7-12-6","lat":35.658671,"lon":139.875819},{"name":"にっこり相談室","province":"東京都","city":"江戸川区","address":"江戸川区東小岩3-17-19-1","lat":35.731677,"lon":139.892892},{"name":"もぐらの家","province":"東京都","city":"江戸川区","address":"江戸川区春江町3-21-6","lat":35.69336,"lon":139.888819},{"name":"一之江あゆみの園","province":"東京都","city":"江戸川区","address":"江戸川区西一之江3-12-13","lat":35.693214,"lon":139.87604},{"name":"わんぱく乳児院","province":"東京都","city":"江戸川区","address":"江戸川区篠崎町1-28-16","lat":35.70831,"lon":139.90698},{"name":"江戸川つむぎの家","province":"東京都","city":"江戸川区","address":"江戸川区江戸川2-38-20","lat":35.6852,"lon":139.89879},{"name":"えどがわ","province":"東京都","city":"江戸川区","address":"東京都江戸川区","lat":35.70697836,"lon":139.8683262},{"name":"L'espoir","province":"東京都","city":"江戸川区","address":"東京都江戸川区","lat":35.70697836,"lon":139.8683262},{"name":"江戸川区（生活援護第一課）","province":"東京都","city":"江戸川区","address":"江戸川区中央1-3-17","lat":35.70597,"lon":139.86835},{"name":"江戸川区（生活援護第二課）","province":"東京都","city":"江戸川区","address":"江戸川区東小岩6-9-14","lat":35.73381,"lon":139.88773},{"name":"江戸川区（生活援護第三課）","province":"東京都","city":"江戸川区","address":"江戸川区東葛西7-12-6","lat":35.65866,"lon":139.87589},{"name":"江戸川区児童相談所","province":"東京都","city":"江戸川区","address":"江戸川区中央3-4-18","lat":35.71037,"lon":139.8714},{"name":"くつろぎの家","province":"東京都","city":"江戸川区","address":"江戸川区江戸川2-13","lat":35.685403,"lon":139.905901},{"name":"わんぱく乳児院","province":"東京都","city":"江戸川区","address":"江戸川区篠崎町1-28-16","lat":35.708305,"lon":139.906982},{"name":"くつろぎの家","province":"東京都","city":"江戸川区","address":"江戸川区江戸川2-13","lat":35.68505,"lon":139.90593},{"name":"江戸川区（生活援護第一課）","province":"東京都","city":"江戸川区","address":"江戸川区中央1-3-17","lat":35.705892,"lon":139.868446},{"name":"江戸川区（生活援護第二課）","province":"東京都","city":"江戸川区","address":"江戸川区東小岩6-9-14","lat":35.733879,"lon":139.888095},{"name":"江戸川区（生活援護第三課）","province":"東京都","city":"江戸川区","address":"江戸川区東葛西7-12-6","lat":35.658671,"lon":139.875819},{"name":"もぐらの家","province":"東京都","city":"江戸川区","address":"江戸川区春江町3-21-6","lat":35.69336,"lon":139.888819},{"name":"一之江あゆみの園","province":"東京都","city":"江戸川区","address":"江戸川区西一之江3-12-13","lat":35.693214,"lon":139.87604},{"name":"江戸川つむぎの家","province":"東京都","city":"江戸川区","address":"江戸川区江戸川2-38-20","lat":35.6852,"lon":139.89879},{"name":"江戸川区（生活援護第一課）","province":"東京都","city":"江戸川区","address":"江戸川区中央1-3-17","lat":35.70597,"lon":139.86835},{"name":"江戸川区（生活援護第二課）","province":"東京都","city":"江戸川区","address":"江戸川区東小岩6-9-14","lat":35.73381,"lon":139.88773},{"name":"江戸川区（生活援護第三課）","province":"東京都","city":"江戸川区","address":"江戸川区東葛西7-12-6","lat":35.65866,"lon":139.87589},{"name":"江戸川区児童相談所","province":"東京都","city":"江戸川区","address":"江戸川区中央3-4-18","lat":35.71037,"lon":139.8714},{"name":"くつろぎの家","province":"東京都","city":"江戸川区","address":"江戸川区江戸川2-13","lat":35.685403,"lon":139.905901},{"name":"くつろぎの家","province":"東京都","city":"江戸川区","address":"江戸川区江戸川2-13","lat":35.68505,"lon":139.90593},{"name":"江戸川区（生活援護第一課）","province":"東京都","city":"江戸川区","address":"江戸川区中央1-3-17","lat":35.705892,"lon":139.868446},{"name":"江戸川区（生活援護第二課）","province":"東京都","city":"江戸川区","address":"江戸川区東小岩6-9-14","lat":35.733879,"lon":139.888095},{"name":"江戸川区（生活援護第三課）","province":"東京都","city":"江戸川区","address":"江戸川区東葛西7-12-6","lat":35.658671,"lon":139.875819},{"name":"もぐらの家","province":"東京都","city":"江戸川区","address":"江戸川区春江町3-21-6","lat":35.69336,"lon":139.888819},{"name":"一之江あゆみの園","province":"東京都","city":"江戸川区","address":"江戸川区西一之江3-12-13","lat":35.693214,"lon":139.87604},{"name":"江戸川つむぎの家","province":"東京都","city":"江戸川区","address":"江戸川区江戸川2-38-20","lat":35.6852,"lon":139.89879},{"name":"江戸川区（生活援護第一課）","province":"東京都","city":"江戸川区","address":"江戸川区中央1-3-17","lat":35.70597,"lon":139.86835},{"name":"江戸川区（生活援護第二課）","province":"東京都","city":"江戸川区","address":"江戸川区東小岩6-9-14","lat":35.73381,"lon":139.88773},{"name":"江戸川区（生活援護第三課）","province":"東京都","city":"江戸川区","address":"江戸川区東葛西7-12-6","lat":35.65866,"lon":139.87589},{"name":"江戸川区児童相談所","province":"東京都","city":"江戸川区","address":"江戸川区中央3-4-18","lat":35.71037,"lon":139.8714},{"name":"くつろぎの家","province":"東京都","city":"江戸川区","address":"江戸川区江戸川2-13","lat":35.685403,"lon":139.905901},{"name":"くつろぎの家","province":"東京都","city":"江戸川区","address":"江戸川区江戸川2-13","lat":35.68505,"lon":139.90593},{"name":"江戸川区（生活援護第一課）","province":"東京都","city":"江戸川区","address":"江戸川区中央1-3-17","lat":35.705892,"lon":139.868446},{"name":"江戸川区（生活援護第二課）","province":"東京都","city":"江戸川区","address":"江戸川区東小岩6-9-14","lat":35.733879,"lon":139.888095},{"name":"江戸川区（生活援護第三課）","province":"東京都","city":"江戸川区","address":"江戸川区東葛西7-12-6","lat":35.658671,"lon":139.875819},{"name":"もぐらの家","province":"東京都","city":"江戸川区","address":"江戸川区春江町3-21-6","lat":35.69336,"lon":139.888819},{"name":"一之江あゆみの園","province":"東京都","city":"江戸川区","address":"江戸川区西一之江3-12-13","lat":35.693214,"lon":139.87604},{"name":"江戸川つむぎの家","province":"東京都","city":"江戸川区","address":"江戸川区江戸川2-38-20","lat":35.6852,"lon":139.89879},{"name":"江戸川区（生活援護第一課）","province":"東京都","city":"江戸川区","address":"江戸川区中央1-3-17","lat":35.70597,"lon":139.86835},{"name":"江戸川区（生活援護第二課）","province":"東京都","city":"江戸川区","address":"江戸川区東小岩6-9-14","lat":35.73381,"lon":139.88773},{"name":"江戸川区（生活援護第三課）","province":"東京都","city":"江戸川区","address":"江戸川区東葛西7-12-6","lat":35.65866,"lon":139.87589},{"name":"江戸川区児童相談所","province":"東京都","city":"江戸川区","address":"江戸川区中央3-4-18","lat":35.71037,"lon":139.8714},{"name":"くつろぎの家","province":"東京都","city":"江戸川区","address":"江戸川区江戸川2-13","lat":35.685403,"lon":139.905901},{"name":"くつろぎの家","province":"東京都","city":"江戸川区","address":"江戸川区江戸川2-13","lat":35.68505,"lon":139.90593},{"name":"江戸川区（生活援護第一課）","province":"東京都","city":"江戸川区","address":"江戸川区中央1-3-17","lat":35.705892,"lon":139.868446},{"name":"江戸川区（生活援護第二課）","province":"東京都","city":"江戸川区","address":"江戸川区東小岩6-9-14","lat":35.733879,"lon":139.888095},{"name":"江戸川区（生活援護第三課）","province":"東京都","city":"江戸川区","address":"江戸川区東葛西7-12-6","lat":35.658671,"lon":139.875819},{"name":"もぐらの家","province":"東京都","city":"江戸川区","address":"江戸川区春江町3-21-6","lat":35.69336,"lon":139.888819},{"name":"一之江あゆみの園","province":"東京都","city":"江戸川区","address":"江戸川区西一之江3-12-13","lat":35.693214,"lon":139.87604},{"name":"江戸川つむぎの家","province":"東京都","city":"江戸川区","address":"江戸川区江戸川2-38-20","lat":35.6852,"lon":139.89879},{"name":"江戸川区（生活援護第一課）","province":"東京都","city":"江戸川区","address":"江戸川区中央1-3-17","lat":35.70597,"lon":139.86835},{"name":"江戸川区（生活援護第二課）","province":"東京都","city":"江戸川区","address":"江戸川区東小岩6-9-14","lat":35.73381,"lon":139.88773},{"name":"江戸川区（生活援護第三課）","province":"東京都","city":"江戸川区","address":"江戸川区東葛西7-12-6","lat":35.65866,"lon":139.87589},{"name":"江戸川区児童相談所","province":"東京都","city":"江戸川区","address":"江戸川区中央3-4-18","lat":35.71037,"lon":139.8714},{"name":"くつろぎの家","province":"東京都","city":"江戸川区","address":"江戸川区江戸川2-13","lat":35.685403,"lon":139.905901},{"name":"くつろぎの家","province":"東京都","city":"江戸川区","address":"江戸川区江戸川2-13","lat":35.68505,"lon":139.90593},{"name":"江戸川区（生活援護第一課）","province":"東京都","city":"江戸川区","address":"江戸川区中央1-3-17","lat":35.705892,"lon":139.868446},{"name":"江戸川区（生活援護第二課）","province":"東京都","city":"江戸川区","address":"江戸川区東小岩6-9-14","lat":35.733879,"lon":139.888095},{"name":"江戸川区（生活援護第三課）","province":"東京都","city":"江戸川区","address":"江戸川区東葛西7-12-6","lat":35.658671,"lon":139.875819},{"name":"もぐらの家","province":"東京都","city":"江戸川区","address":"江戸川区春江町3-21-6","lat":35.69336,"lon":139.888819},{"name":"一之江あゆみの園","province":"東京都","city":"江戸川区","address":"江戸川区西一之江3-12-13","lat":35.693214,"lon":139.87604},{"name":"江戸川つむぎの家","province":"東京都","city":"江戸川区","address":"江戸川区江戸川2-38-20","lat":35.6852,"lon":139.89879},{"name":"江戸川区（生活援護第一課）","province":"東京都","city":"江戸川区","address":"江戸川区中央1-3-17","lat":35.70597,"lon":139.86835},{"name":"江戸川区（生活援護第二課）","province":"東京都","city":"江戸川区","address":"江戸川区東小岩6-9-14","lat":35.73381,"lon":139.88773},{"name":"江戸川区（生活援護第三課）","province":"東京都","city":"江戸川区","address":"江戸川区東葛西7-12-6","lat":35.65866,"lon":139.87589},{"name":"江戸川区児童相談所","province":"東京都","city":"江戸川区","address":"江戸川区中央3-4-18","lat":35.71037,"lon":139.8714},{"name":"くつろぎの家","province":"東京都","city":"江戸川区","address":"江戸川区江戸川2-13","lat":35.685403,"lon":139.905901},{"name":"くつろぎの家","province":"東京都","city":"江戸川区","address":"江戸川区江戸川2-13","lat":35.68505,"lon":139.90593},{"name":"江戸川区（生活援護第一課）","province":"東京都","city":"江戸川区","address":"江戸川区中央1-3-17","lat":35.705892,"lon":139.868446},{"name":"江戸川区（生活援護第二課）","province":"東京都","city":"江戸川区","address":"江戸川区東小岩6-9-14","lat":35.733879,"lon":139.888095},{"name":"江戸川区（生活援護第三課）","province":"東京都","city":"江戸川区","address":"江戸川区東葛西7-12-6","lat":35.658671,"lon":139.875819},{"name":"もぐらの家","province":"東京都","city":"江戸川区","address":"江戸川区春江町3-21-6","lat":35.69336,"lon":139.888819},{"name":"一之江あゆみの園","province":"東京都","city":"江戸川区","address":"江戸川区西一之江3-12-13","lat":35.693214,"lon":139.87604},{"name":"江戸川つむぎの家","province":"東京都","city":"江戸川区","address":"江戸川区江戸川2-38-20","lat":35.6852,"lon":139.89879},{"name":"江戸川区（生活援護第一課）","province":"東京都","city":"江戸川区","address":"江戸川区中央1-3-17","lat":35.70597,"lon":139.86835},{"name":"江戸川区（生活援護第二課）","province":"東京都","city":"江戸川区","address":"江戸川区東小岩6-9-14","lat":35.73381,"lon":139.88773},{"name":"江戸川区（生活援護第三課）","province":"東京都","city":"江戸川区","address":"江戸川区東葛西7-12-6","lat":35.65866,"lon":139.87589},{"name":"江戸川区児童相談所","province":"東京都","city":"江戸川区","address":"江戸川区中央3-4-18","lat":35.71037,"lon":139.8714},{"name":"くつろぎの家","province":"東京都","city":"江戸川区","address":"江戸川区江戸川2-13","lat":35.685403,"lon":139.905901},{"name":"くつろぎの家","province":"東京都","city":"江戸川区","address":"江戸川区江戸川2-13","lat":35.68505,"lon":139.90593},{"name":"江戸川区（生活援護第一課）","province":"東京都","city":"江戸川区","address":"江戸川区中央1-3-17","lat":35.705892,"lon":139.868446},{"name":"江戸川区（生活援護第二課）","province":"東京都","city":"江戸川区","address":"江戸川区東小岩6-9-14","lat":35.733879,"lon":139.888095},{"name":"江戸川区（生活援護第三課）","province":"東京都","city":"江戸川区","address":"江戸川区東葛西7-12-6","lat":35.658671,"lon":139.875819},{"name":"もぐらの家","province":"東京都","city":"江戸川区","address":"江戸川区春江町3-21-6","lat":35.69336,"lon":139.888819},{"name":"一之江あゆみの園","province":"東京都","city":"江戸川区","address":"江戸川区西一之江3-12-13","lat":35.693214,"lon":139.87604},{"name":"江戸川つむぎの家","province":"東京都","city":"江戸川区","address":"江戸川区江戸川2-38-20","lat":35.6852,"lon":139.89879},{"name":"江戸川区（生活援護第一課）","province":"東京都","city":"江戸川区","address":"江戸川区中央1-3-17","lat":35.70597,"lon":139.86835},{"name":"江戸川区（生活援護第二課）","province":"東京都","city":"江戸川区","address":"江戸川区東小岩6-9-14","lat":35.73381,"lon":139.88773},{"name":"江戸川区（生活援護第三課）","province":"東京都","city":"江戸川区","address":"江戸川区東葛西7-12-6","lat":35.65866,"lon":139.87589},{"name":"江戸川区児童相談所","province":"東京都","city":"江戸川区","address":"江戸川区中央3-4-18","lat":35.71037,"lon":139.8714},{"name":"くつろぎの家","province":"東京都","city":"江戸川区","address":"江戸川区江戸川2-13","lat":35.685403,"lon":139.905901},{"name":"くつろぎの家","province":"東京都","city":"江戸川区","address":"江戸川区江戸川2-13","lat":35.68505,"lon":139.90593},{"name":"江戸川区（生活援護第一課）","province":"東京都","city":"江戸川区","address":"江戸川区中央1-3-17","lat":35.705892,"lon":139.868446},{"name":"江戸川区（生活援護第二課）","province":"東京都","city":"江戸川区","address":"江戸川区東小岩6-9-14","lat":35.733879,"lon":139.888095},{"name":"江戸川区（生活援護第三課）","province":"東京都","city":"江戸川区","address":"江戸川区東葛西7-12-6","lat":35.658671,"lon":139.875819},{"name":"もぐらの家","province":"東京都","city":"江戸川区","address":"江戸川区春江町3-21-6","lat":35.69336,"lon":139.888819},{"name":"一之江あゆみの園","province":"東京都","city":"江戸川区","address":"江戸川区西一之江3-12-13","lat":35.693214,"lon":139.87604},{"name":"江戸川つむぎの家","province":"東京都","city":"江戸川区","address":"江戸川区江戸川2-38-20","lat":35.6852,"lon":139.89879},{"name":"江戸川区（生活援護第一課）","province":"東京都","city":"江戸川区","address":"江戸川区中央1-3-17","lat":35.70597,"lon":139.86835},{"name":"江戸川区（生活援護第二課）","province":"東京都","city":"江戸川区","address":"江戸川区東小岩6-9-14","lat":35.73381,"lon":139.88773},{"name":"江戸川区（生活援護第三課）","province":"東京都","city":"江戸川区","address":"江戸川区東葛西7-12-6","lat":35.65866,"lon":139.87589},{"name":"江戸川区児童相談所","province":"東京都","city":"江戸川区","address":"江戸川区中央3-4-18","lat":35.71037,"lon":139.8714},{"name":"くつろぎの家","province":"東京都","city":"江戸川区","address":"江戸川区江戸川2-13","lat":35.685403,"lon":139.905901},{"name":"くつろぎの家","province":"東京都","city":"江戸川区","address":"江戸川区江戸川2-13","lat":35.68505,"lon":139.90593},{"name":"江戸川区（生活援護第一課）","province":"東京都","city":"江戸川区","address":"江戸川区中央1-3-17","lat":35.705892,"lon":139.868446},{"name":"江戸川区（生活援護第二課）","province":"東京都","city":"江戸川区","address":"江戸川区東小岩6-9-14","lat":35.733879,"lon":139.888095},{"name":"江戸川区（生活援護第三課）","province":"東京都","city":"江戸川区","address":"江戸川区東葛西7-12-6","lat":35.658671,"lon":139.875819},{"name":"もぐらの家","province":"東京都","city":"江戸川区","address":"江戸川区春江町3-21-6","lat":35.69336,"lon":139.888819},{"name":"一之江あゆみの園","province":"東京都","city":"江戸川区","address":"江戸川区西一之江3-12-13","lat":35.693214,"lon":139.87604},{"name":"江戸川つむぎの家","province":"東京都","city":"江戸川区","address":"江戸川区江戸川2-38-20","lat":35.6852,"lon":139.89879},{"name":"江戸川区（生活援護第一課）","province":"東京都","city":"江戸川区","address":"江戸川区中央1-3-17","lat":35.70597,"lon":139.86835},{"name":"江戸川区（生活援護第二課）","province":"東京都","city":"江戸川区","address":"江戸川区東小岩6-9-14","lat":35.73381,"lon":139.88773},{"name":"江戸川区（生活援護第三課）","province":"東京都","city":"江戸川区","address":"江戸川区東葛西7-12-6","lat":35.65866,"lon":139.87589},{"name":"江戸川区児童相談所","province":"東京都","city":"江戸川区","address":"江戸川区中央3-4-18","lat":35.71037,"lon":139.8714},{"name":"くつろぎの家","province":"東京都","city":"江戸川区","address":"江戸川区江戸川2-13","lat":35.685403,"lon":139.905901},{"name":"くつろぎの家","province":"東京都","city":"江戸川区","address":"江戸川区江戸川2-13","lat":35.68505,"lon":139.90593},{"name":"江戸川区（生活援護第一課）","province":"東京都","city":"江戸川区","address":"江戸川区中央1-3-17","lat":35.705892,"lon":139.868446},{"name":"江戸川区（生活援護第二課）","province":"東京都","city":"江戸川区","address":"江戸川区東小岩6-9-14","lat":35.733879,"lon":139.888095},{"name":"江戸川区（生活援護第三課）","province":"東京都","city":"江戸川区","address":"江戸川区東葛西7-12-6","lat":35.658671,"lon":139.875819},{"name":"もぐらの家","province":"東京都","city":"江戸川区","address":"江戸川区春江町3-21-6","lat":35.69336,"lon":139.888819},{"name":"一之江あゆみの園","province":"東京都","city":"江戸川区","address":"江戸川区西一之江3-12-13","lat":35.693214,"lon":139.87604},{"name":"江戸川つむぎの家","province":"東京都","city":"江戸川区","address":"江戸川区江戸川2-38-20","lat":35.6852,"lon":139.89879},{"name":"江戸川区（生活援護第一課）","province":"東京都","city":"江戸川区","address":"江戸川区中央1-3-17","lat":35.70597,"lon":139.86835},{"name":"江戸川区（生活援護第二課）","province":"東京都","city":"江戸川区","address":"江戸川区東小岩6-9-14","lat":35.73381,"lon":139.88773},{"name":"江戸川区（生活援護第三課）","province":"東京都","city":"江戸川区","address":"江戸川区東葛西7-12-6","lat":35.65866,"lon":139.87589},{"name":"江戸川区児童相談所","province":"東京都","city":"江戸川区","address":"江戸川区中央3-4-18","lat":35.71037,"lon":139.8714},{"name":"くつろぎの家","province":"東京都","city":"江戸川区","address":"江戸川区江戸川2-13","lat":35.685403,"lon":139.905901},{"name":"くつろぎの家","province":"東京都","city":"江戸川区","address":"江戸川区江戸川2-13","lat":35.68505,"lon":139.90593},{"name":"江戸川区（生活援護第一課）","province":"東京都","city":"江戸川区","address":"江戸川区中央1-3-17","lat":35.705892,"lon":139.868446},{"name":"江戸川区（生活援護第二課）","province":"東京都","city":"江戸川区","address":"江戸川区東小岩6-9-14","lat":35.733879,"lon":139.888095},{"name":"江戸川区（生活援護第三課）","province":"東京都","city":"江戸川区","address":"江戸川区東葛西7-12-6","lat":35.658671,"lon":139.875819},{"name":"もぐらの家","province":"東京都","city":"江戸川区","address":"江戸川区春江町3-21-6","lat":35.69336,"lon":139.888819},{"name":"一之江あゆみの園","province":"東京都","city":"江戸川区","address":"江戸川区西一之江3-12-13","lat":35.693214,"lon":139.87604},{"name":"江戸川つむぎの家","province":"東京都","city":"江戸川区","address":"江戸川区江戸川2-38-20","lat":35.6852,"lon":139.89879},{"name":"江戸川区（生活援護第一課）","province":"東京都","city":"江戸川区","address":"江戸川区中央1-3-17","lat":35.70597,"lon":139.86835},{"name":"江戸川区（生活援護第二課）","province":"東京都","city":"江戸川区","address":"江戸川区東小岩6-9-14","lat":35.73381,"lon":139.88773},{"name":"江戸川区（生活援護第三課）","province":"東京都","city":"江戸川区","address":"江戸川区東葛西7-12-6","lat":35.65866,"lon":139.87589},{"name":"江戸川区児童相談所","province":"東京都","city":"江戸川区","address":"江戸川区中央3-4-18","lat":35.71037,"lon":139.8714},{"name":"くつろぎの家","province":"東京都","city":"江戸川区","address":"江戸川区江戸川2-13","lat":35.685403,"lon":139.905901},{"name":"くつろぎの家","province":"東京都","city":"江戸川区","address":"江戸川区江戸川2-13","lat":35.68505,"lon":139.90593},{"name":"江戸川区（生活援護第一課）","province":"東京都","city":"江戸川区","address":"江戸川区中央1-3-17","lat":35.705892,"lon":139.868446},{"name":"江戸川区（生活援護第二課）","province":"東京都","city":"江戸川区","address":"江戸川区東小岩6-9-14","lat":35.733879,"lon":139.888095},{"name":"江戸川区（生活援護第三課）","province":"東京都","city":"江戸川区","address":"江戸川区東葛西7-12-6","lat":35.658671,"lon":139.875819},{"name":"もぐらの家","province":"東京都","city":"江戸川区","address":"江戸川区春江町3-21-6","lat":35.69336,"lon":139.888819},{"name":"一之江あゆみの園","province":"東京都","city":"江戸川区","address":"江戸川区西一之江3-12-13","lat":35.693214,"lon":139.87604},{"name":"江戸川つむぎの家","province":"東京都","city":"江戸川区","address":"江戸川区江戸川2-38-20","lat":35.6852,"lon":139.89879},{"name":"江戸川区（生活援護第一課）","province":"東京都","city":"江戸川区","address":"江戸川区中央1-3-17","lat":35.70597,"lon":139.86835},{"name":"江戸川区（生活援護第二課）","province":"東京都","city":"江戸川区","address":"江戸川区東小岩6-9-14","lat":35.73381,"lon":139.88773},{"name":"江戸川区（生活援護第三課）","province":"東京都","city":"江戸川区","address":"江戸川区東葛西7-12-6","lat":35.65866,"lon":139.87589},{"name":"江戸川区児童相談所","province":"東京都","city":"江戸川区","address":"江戸川区中央3-4-18","lat":35.71037,"lon":139.8714},{"name":"くつろぎの家","province":"東京都","city":"江戸川区","address":"江戸川区江戸川2-13","lat":35.685403,"lon":139.905901},{"name":"くつろぎの家","province":"東京都","city":"江戸川区","address":"江戸川区江戸川2-13","lat":35.68505,"lon":139.90593},{"name":"江戸川区（生活援護第一課）","province":"東京都","city":"江戸川区","address":"江戸川区中央1-3-17","lat":35.705892,"lon":139.868446},{"name":"江戸川区（生活援護第二課）","province":"東京都","city":"江戸川区","address":"江戸川区東小岩6-9-14","lat":35.733879,"lon":139.888095},{"name":"江戸川区（生活援護第三課）","province":"東京都","city":"江戸川区","address":"江戸川区東葛西7-12-6","lat":35.658671,"lon":139.875819},{"name":"もぐらの家","province":"東京都","city":"江戸川区","address":"江戸川区春江町3-21-6","lat":35.69336,"lon":139.888819},{"name":"一之江あゆみの園","province":"東京都","city":"江戸川区","address":"江戸川区西一之江3-12-13","lat":35.693214,"lon":139.87604},{"name":"江戸川つむぎの家","province":"東京都","city":"江戸川区","address":"江戸川区江戸川2-38-20","lat":35.6852,"lon":139.89879},{"name":"江戸川区（生活援護第一課）","province":"東京都","city":"江戸川区","address":"江戸川区中央1-3-17","lat":35.70597,"lon":139.86835},{"name":"江戸川区（生活援護第二課）","province":"東京都","city":"江戸川区","address":"江戸川区東小岩6-9-14","lat":35.73381,"lon":139.88773},{"name":"江戸川区（生活援護第三課）","province":"東京都","city":"江戸川区","address":"江戸川区東葛西7-12-6","lat":35.65866,"lon":139.87589},{"name":"江戸川区児童相談所","province":"東京都","city":"江戸川区","address":"江戸川区中央3-4-18","lat":35.71037,"lon":139.8714},{"name":"くつろぎの家","province":"東京都","city":"江戸川区","address":"江戸川区江戸川2-13","lat":35.685403,"lon":139.905901},{"name":"くつろぎの家","province":"東京都","city":"江戸川区","address":"江戸川区江戸川2-13","lat":35.68505,"lon":139.90593},{"name":"江戸川区（生活援護第一課）","province":"東京都","city":"江戸川区","address":"江戸川区中央1-3-17","lat":35.705892,"lon":139.868446},{"name":"江戸川区（生活援護第二課）","province":"東京都","city":"江戸川区","address":"江戸川区東小岩6-9-14","lat":35.733879,"lon":139.888095},{"name":"江戸川区（生活援護第三課）","province":"東京都","city":"江戸川区","address":"江戸川区東葛西7-12-6","lat":35.658671,"lon":139.875819},{"name":"もぐらの家","province":"東京都","city":"江戸川区","address":"江戸川区春江町3-21-6","lat":35.69336,"lon":139.888819},{"name":"一之江あゆみの園","province":"東京都","city":"江戸川区","address":"江戸川区西一之江3-12-13","lat":35.693214,"lon":139.87604},{"name":"江戸川つむぎの家","province":"東京都","city":"江戸川区","address":"江戸川区江戸川2-38-20","lat":35.6852,"lon":139.89879},{"name":"江戸川区（生活援護第一課）","province":"東京都","city":"江戸川区","address":"江戸川区中央1-3-17","lat":35.70597,"lon":139.86835},{"name":"江戸川区（生活援護第二課）","province":"東京都","city":"江戸川区","address":"江戸川区東小岩6-9-14","lat":35.73381,"lon":139.88773},{"name":"江戸川区（生活援護第三課）","province":"東京都","city":"江戸川区","address":"江戸川区東葛西7-12-6","lat":35.65866,"lon":139.87589},{"name":"江戸川区児童相談所","province":"東京都","city":"江戸川区","address":"江戸川区中央3-4-18","lat":35.71037,"lon":139.8714},{"name":"くつろぎの家","province":"東京都","city":"江戸川区","address":"江戸川区江戸川2-13","lat":35.685403,"lon":139.905901},{"name":"くつろぎの家","province":"東京都","city":"江戸川区","address":"江戸川区江戸川2-13","lat":35.68505,"lon":139.90593},{"name":"江戸川区（生活援護第一課）","province":"東京都","city":"江戸川区","address":"江戸川区中央1-3-17","lat":35.705892,"lon":139.868446},{"name":"江戸川区（生活援護第二課）","province":"東京都","city":"江戸川区","address":"江戸川区東小岩6-9-14","lat":35.733879,"lon":139.888095},{"name":"江戸川区（生活援護第三課）","province":"東京都","city":"江戸川区","address":"江戸川区東葛西7-12-6","lat":35.658671,"lon":139.875819},{"name":"もぐらの家","province":"東京都","city":"江戸川区","address":"江戸川区春江町3-21-6","lat":35.69336,"lon":139.888819},{"name":"一之江あゆみの園","province":"東京都","city":"江戸川区","address":"江戸川区西一之江3-12-13","lat":35.693214,"lon":139.87604},{"name":"江戸川つむぎの家","province":"東京都","city":"江戸川区","address":"江戸川区江戸川2-38-20","lat":35.6852,"lon":139.89879},{"name":"江戸川区（生活援護第一課）","province":"東京都","city":"江戸川区","address":"江戸川区中央1-3-17","lat":35.70597,"lon":139.86835},{"name":"江戸川区（生活援護第二課）","province":"東京都","city":"江戸川区","address":"江戸川区東小岩6-9-14","lat":35.73381,"lon":139.88773},{"name":"江戸川区（生活援護第三課）","province":"東京都","city":"江戸川区","address":"江戸川区東葛西7-12-6","lat":35.65866,"lon":139.87589},{"name":"江戸川区児童相談所","province":"東京都","city":"江戸川区","address":"江戸川区中央3-4-18","lat":35.71037,"lon":139.8714},{"name":"くつろぎの家","province":"東京都","city":"江戸川区","address":"江戸川区江戸川2-13","lat":35.685403,"lon":139.905901},{"name":"くつろぎの家","province":"東京都","city":"江戸川区","address":"江戸川区江戸川2-13","lat":35.68505,"lon":139.90593},{"name":"江戸川区（生活援護第一課）","province":"東京都","city":"江戸川区","address":"江戸川区中央1-3-17","lat":35.705892,"lon":139.868446},{"name":"江戸川区（生活援護第二課）","province":"東京都","city":"江戸川区","address":"江戸川区東小岩6-9-14","lat":35.733879,"lon":139.888095},{"name":"江戸川区（生活援護第三課）","province":"東京都","city":"江戸川区","address":"江戸川区東葛西7-12-6","lat":35.658671,"lon":139.875819},{"name":"もぐらの家","province":"東京都","city":"江戸川区","address":"江戸川区春江町3-21-6","lat":35.69336,"lon":139.888819},{"name":"一之江あゆみの園","province":"東京都","city":"江戸川区","address":"江戸川区西一之江3-12-13","lat":35.693214,"lon":139.87604},{"name":"江戸川つむぎの家","province":"東京都","city":"江戸川区","address":"江戸川区江戸川2-38-20","lat":35.6852,"lon":139.89879},{"name":"江戸川区（生活援護第一課）","province":"東京都","city":"江戸川区","address":"江戸川区中央1-3-17","lat":35.70597,"lon":139.86835},{"name":"江戸川区（生活援護第二課）","province":"東京都","city":"江戸川区","address":"江戸川区東小岩6-9-14","lat":35.73381,"lon":139.88773},{"name":"江戸川区（生活援護第三課）","province":"東京都","city":"江戸川区","address":"江戸川区東葛西7-12-6","lat":35.65866,"lon":139.87589},{"name":"江戸川区児童相談所","province":"東京都","city":"江戸川区","address":"江戸川区中央3-4-18","lat":35.71037,"lon":139.8714},{"name":"くつろぎの家","province":"東京都","city":"江戸川区","address":"江戸川区江戸川2-13","lat":35.685403,"lon":139.905901},{"name":"くつろぎの家","province":"東京都","city":"江戸川区","address":"江戸川区江戸川2-13","lat":35.68505,"lon":139.90593},{"name":"江戸川区（生活援護第一課）","province":"東京都","city":"江戸川区","address":"江戸川区中央1-3-17","lat":35.705892,"lon":139.868446},{"name":"江戸川区（生活援護第二課）","province":"東京都","city":"江戸川区","address":"江戸川区東小岩6-9-14","lat":35.733879,"lon":139.888095},{"name":"江戸川区（生活援護第三課）","province":"東京都","city":"江戸川区","address":"江戸川区東葛西7-12-6","lat":35.658671,"lon":139.875819},{"name":"もぐらの家","province":"東京都","city":"江戸川区","address":"江戸川区春江町3-21-6","lat":35.69336,"lon":139.888819},{"name":"一之江あゆみの園","province":"東京都","city":"江戸川区","address":"江戸川区西一之江3-12-13","lat":35.693214,"lon":139.87604},{"name":"江戸川つむぎの家","province":"東京都","city":"江戸川区","address":"江戸川区江戸川2-38-20","lat":35.6852,"lon":139.89879},{"name":"江戸川区（生活援護第一課）","province":"東京都","city":"江戸川区","address":"江戸川区中央1-3-17","lat":35.70597,"lon":139.86835},{"name":"江戸川区（生活援護第二課）","province":"東京都","city":"江戸川区","address":"江戸川区東小岩6-9-14","lat":35.73381,"lon":139.88773},{"name":"江戸川区（生活援護第三課）","province":"東京都","city":"江戸川区","address":"江戸川区東葛西7-12-6","lat":35.65866,"lon":139.87589},{"name":"江戸川区児童相談所","province":"東京都","city":"江戸川区","address":"江戸川区中央3-4-18","lat":35.71037,"lon":139.8714},{"name":"くつろぎの家","province":"東京都","city":"江戸川区","address":"江戸川区江戸川2-13","lat":35.685403,"lon":139.905901},{"name":"くつろぎの家","province":"東京都","city":"江戸川区","address":"江戸川区江戸川2-13","lat":35.68505,"lon":139.90593},{"name":"江戸川区（生活援護第一課）","province":"東京都","city":"江戸川区","address":"江戸川区中央1-3-17","lat":35.705892,"lon":139.868446},{"name":"江戸川区（生活援護第二課）","province":"東京都","city":"江戸川区","address":"江戸川区東小岩6-9-14","lat":35.733879,"lon":139.888095},{"name":"江戸川区（生活援護第三課）","province":"東京都","city":"江戸川区","address":"江戸川区東葛西7-12-6","lat":35.658671,"lon":139.875819},{"name":"もぐらの家","province":"東京都","city":"江戸川区","address":"江戸川区春江町3-21-6","lat":35.69336,"lon":139.888819},{"name":"一之江あゆみの園","province":"東京都","city":"江戸川区","address":"江戸川区西一之江3-12-13","lat":35.693214,"lon":139.87604},{"name":"江戸川つむぎの家","province":"東京都","city":"江戸川区","address":"江戸川区江戸川2-38-20","lat":35.6852,"lon":139.89879},{"name":"江戸川区（生活援護第一課）","province":"東京都","city":"江戸川区","address":"江戸川区中央1-3-17","lat":35.70597,"lon":139.86835},{"name":"江戸川区（生活援護第二課）","province":"東京都","city":"江戸川区","address":"江戸川区東小岩6-9-14","lat":35.73381,"lon":139.88773},{"name":"江戸川区（生活援護第三課）","province":"東京都","city":"江戸川区","address":"江戸川区東葛西7-12-6","lat":35.65866,"lon":139.87589},{"name":"江戸川区児童相談所","province":"東京都","city":"江戸川区","address":"江戸川区中央3-4-18","lat":35.71037,"lon":139.8714},{"name":"くつろぎの家","province":"東京都","city":"江戸川区","address":"江戸川区江戸川2-13","lat":35.685403,"lon":139.905901},{"name":"くつろぎの家","province":"東京都","city":"江戸川区","address":"江戸川区江戸川2-13","lat":35.68505,"lon":139.90593},{"name":"江戸川区（生活援護第一課）","province":"東京都","city":"江戸川区","address":"江戸川区中央1-3-17","lat":35.705892,"lon":139.868446},{"name":"江戸川区（生活援護第二課）","province":"東京都","city":"江戸川区","address":"江戸川区東小岩6-9-14","lat":35.733879,"lon":139.888095},{"name":"江戸川区（生活援護第三課）","province":"東京都","city":"江戸川区","address":"江戸川区東葛西7-12-6","lat":35.658671,"lon":139.875819},{"name":"もぐらの家","province":"東京都","city":"江戸川区","address":"江戸川区春江町3-21-6","lat":35.69336,"lon":139.888819},{"name":"一之江あゆみの園","province":"東京都","city":"江戸川区","address":"江戸川区西一之江3-12-13","lat":35.693214,"lon":139.87604},{"name":"江戸川つむぎの家","province":"東京都","city":"江戸川区","address":"江戸川区江戸川2-38-20","lat":35.6852,"lon":139.89879},{"name":"江戸川区（生活援護第一課）","province":"東京都","city":"江戸川区","address":"江戸川区中央1-3-17","lat":35.70597,"lon":139.86835},{"name":"江戸川区（生活援護第二課）","province":"東京都","city":"江戸川区","address":"江戸川区東小岩6-9-14","lat":35.73381,"lon":139.88773},{"name":"江戸川区（生活援護第三課）","province":"東京都","city":"江戸川区","address":"江戸川区東葛西7-12-6","lat":35.65866,"lon":139.87589},{"name":"江戸川区児童相談所","province":"東京都","city":"江戸川区","address":"江戸川区中央3-4-18","lat":35.71037,"lon":139.8714},{"name":"くつろぎの家","province":"東京都","city":"江戸川区","address":"江戸川区江戸川2-13","lat":35.685403,"lon":139.905901},{"name":"くつろぎの家","province":"東京都","city":"江戸川区","address":"江戸川区江戸川2-13","lat":35.68505,"lon":139.90593},{"name":"江戸川区（生活援護第一課）","province":"東京都","city":"江戸川区","address":"江戸川区中央1-3-17","lat":35.705892,"lon":139.868446},{"name":"江戸川区（生活援護第二課）","province":"東京都","city":"江戸川区","address":"江戸川区東小岩6-9-14","lat":35.733879,"lon":139.888095},{"name":"江戸川区（生活援護第三課）","province":"東京都","city":"江戸川区","address":"江戸川区東葛西7-12-6","lat":35.658671,"lon":139.875819},{"name":"もぐらの家","province":"東京都","city":"江戸川区","address":"江戸川区春江町3-21-6","lat":35.69336,"lon":139.888819},{"name":"一之江あゆみの園","province":"東京都","city":"江戸川区","address":"江戸川区西一之江3-12-13","lat":35.693214,"lon":139.87604},{"name":"江戸川つむぎの家","province":"東京都","city":"江戸川区","address":"江戸川区江戸川2-38-20","lat":35.6852,"lon":139.89879},{"name":"江戸川区（生活援護第一課）","province":"東京都","city":"江戸川区","address":"江戸川区中央1-3-17","lat":35.70597,"lon":139.86835},{"name":"江戸川区（生活援護第二課）","province":"東京都","city":"江戸川区","address":"江戸川区東小岩6-9-14","lat":35.73381,"lon":139.88773},{"name":"江戸川区（生活援護第三課）","province":"東京都","city":"江戸川区","address":"江戸川区東葛西7-12-6","lat":35.65866,"lon":139.87589},{"name":"江戸川区児童相談所","province":"東京都","city":"江戸川区","address":"江戸川区中央3-4-18","lat":35.71037,"lon":139.8714},{"name":"くつろぎの家","province":"東京都","city":"江戸川区","address":"江戸川区江戸川2-13","lat":35.685403,"lon":139.905901},{"name":"くつろぎの家","province":"東京都","city":"江戸川区","address":"江戸川区江戸川2-13","lat":35.68505,"lon":139.90593},{"name":"江戸川区（生活援護第一課）","province":"東京都","city":"江戸川区","address":"江戸川区中央1-3-17","lat":35.705892,"lon":139.868446},{"name":"江戸川区（生活援護第二課）","province":"東京都","city":"江戸川区","address":"江戸川区東小岩6-9-14","lat":35.733879,"lon":139.888095},{"name":"江戸川区（生活援護第三課）","province":"東京都","city":"江戸川区","address":"江戸川区東葛西7-12-6","lat":35.658671,"lon":139.875819},{"name":"もぐらの家","province":"東京都","city":"江戸川区","address":"江戸川区春江町3-21-6","lat":35.69336,"lon":139.888819},{"name":"一之江あゆみの園","province":"東京都","city":"江戸川区","address":"江戸川区西一之江3-12-13","lat":35.693214,"lon":139.87604},{"name":"江戸川つむぎの家","province":"東京都","city":"江戸川区","address":"江戸川区江戸川2-38-20","lat":35.6852,"lon":139.89879},{"name":"江戸川区（生活援護第一課）","province":"東京都","city":"江戸川区","address":"江戸川区中央1-3-17","lat":35.70597,"lon":139.86835},{"name":"江戸川区（生活援護第二課）","province":"東京都","city":"江戸川区","address":"江戸川区東小岩6-9-14","lat":35.73381,"lon":139.88773},{"name":"江戸川区（生活援護第三課）","province":"東京都","city":"江戸川区","address":"江戸川区東葛西7-12-6","lat":35.65866,"lon":139.87589},{"name":"江戸川区児童相談所","province":"東京都","city":"江戸川区","address":"江戸川区中央3-4-18","lat":35.71037,"lon":139.8714},{"name":"くつろぎの家","province":"東京都","city":"江戸川区","address":"江戸川区江戸川2-13","lat":35.685403,"lon":139.905901},{"name":"くつろぎの家","province":"東京都","city":"江戸川区","address":"江戸川区江戸川2-13","lat":35.68505,"lon":139.90593},{"name":"江戸川区（生活援護第一課）","province":"東京都","city":"江戸川区","address":"江戸川区中央1-3-17","lat":35.705892,"lon":139.868446},{"name":"江戸川区（生活援護第二課）","province":"東京都","city":"江戸川区","address":"江戸川区東小岩6-9-14","lat":35.733879,"lon":139.888095},{"name":"江戸川区（生活援護第三課）","province":"東京都","city":"江戸川区","address":"江戸川区東葛西7-12-6","lat":35.658671,"lon":139.875819},{"name":"もぐらの家","province":"東京都","city":"江戸川区","address":"江戸川区春江町3-21-6","lat":35.69336,"lon":139.888819},{"name":"一之江あゆみの園","province":"東京都","city":"江戸川区","address":"江戸川区西一之江3-12-13","lat":35.693214,"lon":139.87604},{"name":"江戸川つむぎの家","province":"東京都","city":"江戸川区","address":"江戸川区江戸川2-38-20","lat":35.6852,"lon":139.89879},{"name":"江戸川区（生活援護第一課）","province":"東京都","city":"江戸川区","address":"江戸川区中央1-3-17","lat":35.70597,"lon":139.86835},{"name":"江戸川区（生活援護第二課）","province":"東京都","city":"江戸川区","address":"江戸川区東小岩6-9-14","lat":35.73381,"lon":139.88773},{"name":"江戸川区（生活援護第三課）","province":"東京都","city":"江戸川区","address":"江戸川区東葛西7-12-6","lat":35.65866,"lon":139.87589},{"name":"江戸川区児童相談所","province":"東京都","city":"江戸川区","address":"江戸川区中央3-4-18","lat":35.71037,"lon":139.8714},{"name":"くつろぎの家","province":"東京都","city":"江戸川区","address":"江戸川区江戸川2-13","lat":35.685403,"lon":139.905901},{"name":"くつろぎの家","province":"東京都","city":"江戸川区","address":"江戸川区江戸川2-13","lat":35.68505,"lon":139.90593},{"name":"江戸川区（生活援護第一課）","province":"東京都","city":"江戸川区","address":"江戸川区中央1-3-17","lat":35.705892,"lon":139.868446},{"name":"江戸川区（生活援護第二課）","province":"東京都","city":"江戸川区","address":"江戸川区東小岩6-9-14","lat":35.733879,"lon":139.888095},{"name":"江戸川区（生活援護第三課）","province":"東京都","city":"江戸川区","address":"江戸川区東葛西7-12-6","lat":35.658671,"lon":139.875819},{"name":"もぐらの家","province":"東京都","city":"江戸川区","address":"江戸川区春江町3-21-6","lat":35.69336,"lon":139.888819},{"name":"一之江あゆみの園","province":"東京都","city":"江戸川区","address":"江戸川区西一之江3-12-13","lat":35.693214,"lon":139.87604},{"name":"江戸川つむぎの家","province":"東京都","city":"江戸川区","address":"江戸川区江戸川2-38-20","lat":35.6852,"lon":139.89879},{"name":"江戸川区（生活援護第一課）","province":"東京都","city":"江戸川区","address":"江戸川区中央1-3-17","lat":35.70597,"lon":139.86835},{"name":"江戸川区（生活援護第二課）","province":"東京都","city":"江戸川区","address":"江戸川区東小岩6-9-14","lat":35.73381,"lon":139.88773},{"name":"江戸川区（生活援護第三課）","province":"東京都","city":"江戸川区","address":"江戸川区東葛西7-12-6","lat":35.65866,"lon":139.87589},{"name":"江戸川区児童相談所","province":"東京都","city":"江戸川区","address":"江戸川区中央3-4-18","lat":35.71037,"lon":139.8714},{"name":"くつろぎの家","province":"東京都","city":"江戸川区","address":"江戸川区江戸川2-13","lat":35.685403,"lon":139.905901},{"name":"くつろぎの家","province":"東京都","city":"江戸川区","address":"江戸川区江戸川2-13","lat":35.68505,"lon":139.90593},{"name":"江戸川区（生活援護第一課）","province":"東京都","city":"江戸川区","address":"江戸川区中央1-3-17","lat":35.705892,"lon":139.868446},{"name":"江戸川区（生活援護第二課）","province":"東京都","city":"江戸川区","address":"江戸川区東小岩6-9-14","lat":35.733879,"lon":139.888095},{"name":"江戸川区（生活援護第三課）","province":"東京都","city":"江戸川区","address":"江戸川区東葛西7-12-6","lat":35.658671,"lon":139.875819},{"name":"もぐらの家","province":"東京都","city":"江戸川区","address":"江戸川区春江町3-21-6","lat":35.69336,"lon":139.888819},{"name":"一之江あゆみの園","province":"東京都","city":"江戸川区","address":"江戸川区西一之江3-12-13","lat":35.693214,"lon":139.87604},{"name":"江戸川つむぎの家","province":"東京都","city":"江戸川区","address":"江戸川区江戸川2-38-20","lat":35.6852,"lon":139.89879},{"name":"江戸川区（生活援護第一課）","province":"東京都","city":"江戸川区","address":"江戸川区中央1-3-17","lat":35.70597,"lon":139.86835},{"name":"江戸川区（生活援護第二課）","province":"東京都","city":"江戸川区","address":"江戸川区東小岩6-9-14","lat":35.73381,"lon":139.88773},{"name":"江戸川区（生活援護第三課）","province":"東京都","city":"江戸川区","address":"江戸川区東葛西7-12-6","lat":35.65866,"lon":139.87589},{"name":"江戸川区児童相談所","province":"東京都","city":"江戸川区","address":"江戸川区中央3-4-18","lat":35.71037,"lon":139.8714},{"name":"くつろぎの家","province":"東京都","city":"江戸川区","address":"江戸川区江戸川2-13","lat":35.685403,"lon":139.905901},{"name":"くつろぎの家","province":"東京都","city":"江戸川区","address":"江戸川区江戸川2-13","lat":35.68505,"lon":139.90593},{"name":"江戸川区（生活援護第一課）","province":"東京都","city":"江戸川区","address":"江戸川区中央1-3-17","lat":35.705892,"lon":139.868446},{"name":"江戸川区（生活援護第二課）","province":"東京都","city":"江戸川区","address":"江戸川区東小岩6-9-14","lat":35.733879,"lon":139.888095},{"name":"江戸川区（生活援護第三課）","province":"東京都","city":"江戸川区","address":"江戸川区東葛西7-12-6","lat":35.658671,"lon":139.875819},{"name":"もぐらの家","province":"東京都","city":"江戸川区","address":"江戸川区春江町3-21-6","lat":35.69336,"lon":139.888819},{"name":"一之江あゆみの園","province":"東京都","city":"江戸川区","address":"江戸川区西一之江3-12-13","lat":35.693214,"lon":139.87604},{"name":"江戸川つむぎの家","province":"東京都","city":"江戸川区","address":"江戸川区江戸川2-38-20","lat":35.6852,"lon":139.89879},{"name":"江戸川区（生活援護第一課）","province":"東京都","city":"江戸川区","address":"江戸川区中央1-3-17","lat":35.70597,"lon":139.86835},{"name":"江戸川区（生活援護第二課）","province":"東京都","city":"江戸川区","address":"江戸川区東小岩6-9-14","lat":35.73381,"lon":139.88773},{"name":"江戸川区（生活援護第三課）","province":"東京都","city":"江戸川区","address":"江戸川区東葛西7-12-6","lat":35.65866,"lon":139.87589},{"name":"江戸川区児童相談所","province":"東京都","city":"江戸川区","address":"江戸川区中央3-4-18","lat":35.71037,"lon":139.8714},{"name":"くつろぎの家","province":"東京都","city":"江戸川区","address":"江戸川区江戸川2-13","lat":35.685403,"lon":139.905901},{"name":"くつろぎの家","province":"東京都","city":"江戸川区","address":"江戸川区江戸川2-13","lat":35.68505,"lon":139.90593},{"name":"江戸川区（生活援護第一課）","province":"東京都","city":"江戸川区","address":"江戸川区中央1-3-17","lat":35.705892,"lon":139.868446},{"name":"江戸川区（生活援護第二課）","province":"東京都","city":"江戸川区","address":"江戸川区東小岩6-9-14","lat":35.733879,"lon":139.888095},{"name":"江戸川区（生活援護第三課）","province":"東京都","city":"江戸川区","address":"江戸川区東葛西7-12-6","lat":35.658671,"lon":139.875819},{"name":"もぐらの家","province":"東京都","city":"江戸川区","address":"江戸川区春江町3-21-6","lat":35.69336,"lon":139.888819},{"name":"一之江あゆみの園","province":"東京都","city":"江戸川区","address":"江戸川区西一之江3-12-13","lat":35.693214,"lon":139.87604},{"name":"江戸川つむぎの家","province":"東京都","city":"江戸川区","address":"江戸川区江戸川2-38-20","lat":35.6852,"lon":139.89879},{"name":"江戸川区（生活援護第一課）","province":"東京都","city":"江戸川区","address":"江戸川区中央1-3-17","lat":35.70597,"lon":139.86835},{"name":"江戸川区（生活援護第二課）","province":"東京都","city":"江戸川区","address":"江戸川区東小岩6-9-14","lat":35.73381,"lon":139.88773},{"name":"江戸川区（生活援護第三課）","province":"東京都","city":"江戸川区","address":"江戸川区東葛西7-12-6","lat":35.65866,"lon":139.87589},{"name":"江戸川区児童相談所","province":"東京都","city":"江戸川区","address":"江戸川区中央3-4-18","lat":35.71037,"lon":139.8714},{"name":"くつろぎの家","province":"東京都","city":"江戸川区","address":"江戸川区江戸川2-13","lat":35.685403,"lon":139.905901},{"name":"くつろぎの家","province":"東京都","city":"江戸川区","address":"江戸川区江戸川2-13","lat":35.68505,"lon":139.90593},{"name":"江戸川区（生活援護第一課）","province":"東京都","city":"江戸川区","address":"江戸川区中央1-3-17","lat":35.705892,"lon":139.868446},{"name":"江戸川区（生活援護第二課）","province":"東京都","city":"江戸川区","address":"江戸川区東小岩6-9-14","lat":35.733879,"lon":139.888095},{"name":"江戸川区（生活援護第三課）","province":"東京都","city":"江戸川区","address":"江戸川区東葛西7-12-6","lat":35.658671,"lon":139.875819},{"name":"もぐらの家","province":"東京都","city":"江戸川区","address":"江戸川区春江町3-21-6","lat":35.69336,"lon":139.888819},{"name":"一之江あゆみの園","province":"東京都","city":"江戸川区","address":"江戸川区西一之江3-12-13","lat":35.693214,"lon":139.87604},{"name":"江戸川つむぎの家","province":"東京都","city":"江戸川区","address":"江戸川区江戸川2-38-20","lat":35.6852,"lon":139.89879},{"name":"江戸川区（生活援護第一課）","province":"東京都","city":"江戸川区","address":"江戸川区中央1-3-17","lat":35.70597,"lon":139.86835},{"name":"江戸川区（生活援護第二課）","province":"東京都","city":"江戸川区","address":"江戸川区東小岩6-9-14","lat":35.73381,"lon":139.88773},{"name":"江戸川区（生活援護第三課）","province":"東京都","city":"江戸川区","address":"江戸川区東葛西7-12-6","lat":35.65866,"lon":139.87589},{"name":"江戸川区児童相談所","province":"東京都","city":"江戸川区","address":"江戸川区中央3-4-18","lat":35.71037,"lon":139.8714},{"name":"くつろぎの家","province":"東京都","city":"江戸川区","address":"江戸川区江戸川2-13","lat":35.685403,"lon":139.905901},{"name":"くつろぎの家","province":"東京都","city":"江戸川区","address":"江戸川区江戸川2-13","lat":35.68505,"lon":139.90593},{"name":"江戸川区（生活援護第一課）","province":"東京都","city":"江戸川区","address":"江戸川区中央1-3-17","lat":35.705892,"lon":139.868446},{"name":"江戸川区（生活援護第二課）","province":"東京都","city":"江戸川区","address":"江戸川区東小岩6-9-14","lat":35.733879,"lon":139.888095},{"name":"江戸川区（生活援護第三課）","province":"東京都","city":"江戸川区","address":"江戸川区東葛西7-12-6","lat":35.658671,"lon":139.875819},{"name":"もぐらの家","province":"東京都","city":"江戸川区","address":"江戸川区春江町3-21-6","lat":35.69336,"lon":139.888819},{"name":"一之江あゆみの園","province":"東京都","city":"江戸川区","address":"江戸川区西一之江3-12-13","lat":35.693214,"lon":139.87604},{"name":"江戸川つむぎの家","province":"東京都","city":"江戸川区","address":"江戸川区江戸川2-38-20","lat":35.6852,"lon":139.89879},{"name":"江戸川区（生活援護第一課）","province":"東京都","city":"江戸川区","address":"江戸川区中央1-3-17","lat":35.70597,"lon":139.86835},{"name":"江戸川区（生活援護第二課）","province":"東京都","city":"江戸川区","address":"江戸川区東小岩6-9-14","lat":35.73381,"lon":139.88773},{"name":"江戸川区（生活援護第三課）","province":"東京都","city":"江戸川区","address":"江戸川区東葛西7-12-6","lat":35.65866,"lon":139.87589},{"name":"江戸川区児童相談所","province":"東京都","city":"江戸川区","address":"江戸川区中央3-4-18","lat":35.71037,"lon":139.8714},{"name":"くつろぎの家","province":"東京都","city":"江戸川区","address":"江戸川区江戸川2-13","lat":35.685403,"lon":139.905901},{"name":"くつろぎの家","province":"東京都","city":"江戸川区","address":"江戸川区江戸川2-13","lat":35.68505,"lon":139.90593},{"name":"江戸川区（生活援護第一課）","province":"東京都","city":"江戸川区","address":"江戸川区中央1-3-17","lat":35.705892,"lon":139.868446},{"name":"江戸川区（生活援護第二課）","province":"東京都","city":"江戸川区","address":"江戸川区東小岩6-9-14","lat":35.733879,"lon":139.888095},{"name":"江戸川区（生活援護第三課）","province":"東京都","city":"江戸川区","address":"江戸川区東葛西7-12-6","lat":35.658671,"lon":139.875819},{"name":"もぐらの家","province":"東京都","city":"江戸川区","address":"江戸川区春江町3-21-6","lat":35.69336,"lon":139.888819},{"name":"一之江あゆみの園","province":"東京都","city":"江戸川区","address":"江戸川区西一之江3-12-13","lat":35.693214,"lon":139.87604},{"name":"江戸川つむぎの家","province":"東京都","city":"江戸川区","address":"江戸川区江戸川2-38-20","lat":35.6852,"lon":139.89879},{"name":"江戸川区（生活援護第一課）","province":"東京都","city":"江戸川区","address":"江戸川区中央1-3-17","lat":35.70597,"lon":139.86835},{"name":"江戸川区（生活援護第二課）","province":"東京都","city":"江戸川区","address":"江戸川区東小岩6-9-14","lat":35.73381,"lon":139.88773},{"name":"江戸川区（生活援護第三課）","province":"東京都","city":"江戸川区","address":"江戸川区東葛西7-12-6","lat":35.65866,"lon":139.87589},{"name":"江戸川区児童相談所","province":"東京都","city":"江戸川区","address":"江戸川区中央3-4-18","lat":35.71037,"lon":139.8714},{"name":"くつろぎの家","province":"東京都","city":"江戸川区","address":"江戸川区江戸川2-13","lat":35.685403,"lon":139.905901},{"name":"くつろぎの家","province":"東京都","city":"江戸川区","address":"江戸川区江戸川2-13","lat":35.68505,"lon":139.90593},{"name":"江戸川区（生活援護第一課）","province":"東京都","city":"江戸川区","address":"江戸川区中央1-3-17","lat":35.705892,"lon":139.868446},{"name":"江戸川区（生活援護第二課）","province":"東京都","city":"江戸川区","address":"江戸川区東小岩6-9-14","lat":35.733879,"lon":139.888095},{"name":"江戸川区（生活援護第三課）","province":"東京都","city":"江戸川区","address":"江戸川区東葛西7-12-6","lat":35.658671,"lon":139.875819},{"name":"もぐらの家","province":"東京都","city":"江戸川区","address":"江戸川区春江町3-21-6","lat":35.69336,"lon":139.888819},{"name":"一之江あゆみの園","province":"東京都","city":"江戸川区","address":"江戸川区西一之江3-12-13","lat":35.693214,"lon":139.87604},{"name":"江戸川つむぎの家","province":"東京都","city":"江戸川区","address":"江戸川区江戸川2-38-20","lat":35.6852,"lon":139.89879},{"name":"江戸川区（生活援護第一課）","province":"東京都","city":"江戸川区","address":"江戸川区中央1-3-17","lat":35.70597,"lon":139.86835},{"name":"江戸川区（生活援護第二課）","province":"東京都","city":"江戸川区","address":"江戸川区東小岩6-9-14","lat":35.73381,"lon":139.88773},{"name":"江戸川区（生活援護第三課）","province":"東京都","city":"江戸川区","address":"江戸川区東葛西7-12-6","lat":35.65866,"lon":139.87589},{"name":"江戸川区児童相談所","province":"東京都","city":"江戸川区","address":"江戸川区中央3-4-18","lat":35.71037,"lon":139.8714},{"name":"くつろぎの家","province":"東京都","city":"江戸川区","address":"江戸川区江戸川2-13","lat":35.685403,"lon":139.905901},{"name":"くつろぎの家","province":"東京都","city":"江戸川区","address":"江戸川区江戸川2-13","lat":35.68505,"lon":139.90593},{"name":"江戸川区（生活援護第一課）","province":"東京都","city":"江戸川区","address":"江戸川区中央1-3-17","lat":35.705892,"lon":139.868446},{"name":"江戸川区（生活援護第二課）","province":"東京都","city":"江戸川区","address":"江戸川区東小岩6-9-14","lat":35.733879,"lon":139.888095},{"name":"江戸川区（生活援護第三課）","province":"東京都","city":"江戸川区","address":"江戸川区東葛西7-12-6","lat":35.658671,"lon":139.875819},{"name":"もぐらの家","province":"東京都","city":"江戸川区","address":"江戸川区春江町3-21-6","lat":35.69336,"lon":139.888819},{"name":"一之江あゆみの園","province":"東京都","city":"江戸川区","address":"江戸川区西一之江3-12-13","lat":35.693214,"lon":139.87604},{"name":"江戸川つむぎの家","province":"東京都","city":"江戸川区","address":"江戸川区江戸川2-38-20","lat":35.6852,"lon":139.89879},{"name":"江戸川区（生活援護第一課）","province":"東京都","city":"江戸川区","address":"江戸川区中央1-3-17","lat":35.70597,"lon":139.86835},{"name":"江戸川区（生活援護第二課）","province":"東京都","city":"江戸川区","address":"江戸川区東小岩6-9-14","lat":35.73381,"lon":139.88773},{"name":"江戸川区（生活援護第三課）","province":"東京都","city":"江戸川区","address":"江戸川区東葛西7-12-6","lat":35.65866,"lon":139.87589},{"name":"江戸川区児童相談所","province":"東京都","city":"江戸川区","address":"江戸川区中央3-4-18","lat":35.71037,"lon":139.8714},{"name":"くつろぎの家","province":"東京都","city":"江戸川区","address":"江戸川区江戸川2-13","lat":35.685403,"lon":139.905901},{"name":"くつろぎの家","province":"東京都","city":"江戸川区","address":"江戸川区江戸川2-13","lat":35.68505,"lon":139.90593},{"name":"江戸川区（生活援護第一課）","province":"東京都","city":"江戸川区","address":"江戸川区中央1-3-17","lat":35.705892,"lon":139.868446},{"name":"江戸川区（生活援護第二課）","province":"東京都","city":"江戸川区","address":"江戸川区東小岩6-9-14","lat":35.733879,"lon":139.888095},{"name":"江戸川区（生活援護第三課）","province":"東京都","city":"江戸川区","address":"江戸川区東葛西7-12-6","lat":35.658671,"lon":139.875819},{"name":"もぐらの家","province":"東京都","city":"江戸川区","address":"江戸川区春江町3-21-6","lat":35.69336,"lon":139.888819},{"name":"一之江あゆみの園","province":"東京都","city":"江戸川区","address":"江戸川区西一之江3-12-13","lat":35.693214,"lon":139.87604},{"name":"江戸川つむぎの家","province":"東京都","city":"江戸川区","address":"江戸川区江戸川2-38-20","lat":35.6852,"lon":139.89879},{"name":"江戸川区（生活援護第一課）","province":"東京都","city":"江戸川区","address":"江戸川区中央1-3-17","lat":35.70597,"lon":139.86835},{"name":"江戸川区（生活援護第二課）","province":"東京都","city":"江戸川区","address":"江戸川区東小岩6-9-14","lat":35.73381,"lon":139.88773},{"name":"江戸川区（生活援護第三課）","province":"東京都","city":"江戸川区","address":"江戸川区東葛西7-12-6","lat":35.65866,"lon":139.87589},{"name":"江戸川区児童相談所","province":"東京都","city":"江戸川区","address":"江戸川区中央3-4-18","lat":35.71037,"lon":139.8714},{"name":"くつろぎの家","province":"東京都","city":"江戸川区","address":"江戸川区江戸川2-13","lat":35.685403,"lon":139.905901},{"name":"くつろぎの家","province":"東京都","city":"江戸川区","address":"江戸川区江戸川2-13","lat":35.68505,"lon":139.90593},{"name":"江戸川区（生活援護第一課）","province":"東京都","city":"江戸川区","address":"江戸川区中央1-3-17","lat":35.705892,"lon":139.868446},{"name":"江戸川区（生活援護第二課）","province":"東京都","city":"江戸川区","address":"江戸川区東小岩6-9-14","lat":35.733879,"lon":139.888095},{"name":"江戸川区（生活援護第三課）","province":"東京都","city":"江戸川区","address":"江戸川区東葛西7-12-6","lat":35.658671,"lon":139.875819},{"name":"もぐらの家","province":"東京都","city":"江戸川区","address":"江戸川区春江町3-21-6","lat":35.69336,"lon":139.888819},{"name":"一之江あゆみの園","province":"東京都","city":"江戸川区","address":"江戸川区西一之江3-12-13","lat":35.693214,"lon":139.87604},{"name":"江戸川つむぎの家","province":"東京都","city":"江戸川区","address":"江戸川区江戸川2-38-20","lat":35.6852,"lon":139.89879},{"name":"江戸川区（生活援護第一課）","province":"東京都","city":"江戸川区","address":"江戸川区中央1-3-17","lat":35.70597,"lon":139.86835},{"name":"江戸川区（生活援護第二課）","province":"東京都","city":"江戸川区","address":"江戸川区東小岩6-9-14","lat":35.73381,"lon":139.88773},{"name":"江戸川区（生活援護第三課）","province":"東京都","city":"江戸川区","address":"江戸川区東葛西7-12-6","lat":35.65866,"lon":139.87589},{"name":"江戸川区児童相談所","province":"東京都","city":"江戸川区","address":"江戸川区中央3-4-18","lat":35.71037,"lon":139.8714},{"name":"くつろぎの家","province":"東京都","city":"江戸川区","address":"江戸川区江戸川2-13","lat":35.685403,"lon":139.905901},{"name":"くつろぎの家","province":"東京都","city":"江戸川区","address":"江戸川区江戸川2-13","lat":35.68505,"lon":139.90593},{"name":"江戸川区（生活援護第一課）","province":"東京都","city":"江戸川区","address":"江戸川区中央1-3-17","lat":35.705892,"lon":139.868446},{"name":"江戸川区（生活援護第二課）","province":"東京都","city":"江戸川区","address":"江戸川区東小岩6-9-14","lat":35.733879,"lon":139.888095},{"name":"江戸川区（生活援護第三課）","province":"東京都","city":"江戸川区","address":"江戸川区東葛西7-12-6","lat":35.658671,"lon":139.875819},{"name":"もぐらの家","province":"東京都","city":"江戸川区","address":"江戸川区春江町3-21-6","lat":35.69336,"lon":139.888819},{"name":"一之江あゆみの園","province":"東京都","city":"江戸川区","address":"江戸川区西一之江3-12-13","lat":35.693214,"lon":139.87604},{"name":"江戸川つむぎの家","province":"東京都","city":"江戸川区","address":"江戸川区江戸川2-38-20","lat":35.6852,"lon":139.89879},{"name":"江戸川区（生活援護第一課）","province":"東京都","city":"江戸川区","address":"江戸川区中央1-3-17","lat":35.70597,"lon":139.86835},{"name":"江戸川区（生活援護第二課）","province":"東京都","city":"江戸川区","address":"江戸川区東小岩6-9-14","lat":35.73381,"lon":139.88773},{"name":"江戸川区（生活援護第三課）","province":"東京都","city":"江戸川区","address":"江戸川区東葛西7-12-6","lat":35.65866,"lon":139.87589},{"name":"江戸川区児童相談所","province":"東京都","city":"江戸川区","address":"江戸川区中央3-4-18","lat":35.71037,"lon":139.8714},{"name":"くつろぎの家","province":"東京都","city":"江戸川区","address":"江戸川区江戸川2-13","lat":35.685403,"lon":139.905901},{"name":"くつろぎの家","province":"東京都","city":"江戸川区","address":"江戸川区江戸川2-13","lat":35.68505,"lon":139.90593},{"name":"江戸川区（生活援護第一課）","province":"東京都","city":"江戸川区","address":"江戸川区中央1-3-17","lat":35.705892,"lon":139.868446},{"name":"江戸川区（生活援護第二課）","province":"東京都","city":"江戸川区","address":"江戸川区東小岩6-9-14","lat":35.733879,"lon":139.888095},{"name":"江戸川区（生活援護第三課）","province":"東京都","city":"江戸川区","address":"江戸川区東葛西7-12-6","lat":35.658671,"lon":139.875819},{"name":"もぐらの家","province":"東京都","city":"江戸川区","address":"江戸川区春江町3-21-6","lat":35.69336,"lon":139.888819},{"name":"一之江あゆみの園","province":"東京都","city":"江戸川区","address":"江戸川区西一之江3-12-13","lat":35.693214,"lon":139.87604},{"name":"江戸川つむぎの家","province":"東京都","city":"江戸川区","address":"江戸川区江戸川2-38-20","lat":35.6852,"lon":139.89879},{"name":"江戸川区（生活援護第一課）","province":"東京都","city":"江戸川区","address":"江戸川区中央1-3-17","lat":35.70597,"lon":139.86835},{"name":"江戸川区（生活援護第二課）","province":"東京都","city":"江戸川区","address":"江戸川区東小岩6-9-14","lat":35.73381,"lon":139.88773},{"name":"江戸川区（生活援護第三課）","province":"東京都","city":"江戸川区","address":"江戸川区東葛西7-12-6","lat":35.65866,"lon":139.87589},{"name":"江戸川区児童相談所","province":"東京都","city":"江戸川区","address":"江戸川区中央3-4-18","lat":35.71037,"lon":139.8714},{"name":"くつろぎの家","province":"東京都","city":"江戸川区","address":"江戸川区江戸川2-13","lat":35.685403,"lon":139.905901},{"name":"くつろぎの家","province":"東京都","city":"江戸川区","address":"江戸川区江戸川2-13","lat":35.68505,"lon":139.90593},{"name":"江戸川区（生活援護第一課）","province":"東京都","city":"江戸川区","address":"江戸川区中央1-3-17","lat":35.705892,"lon":139.868446},{"name":"江戸川区（生活援護第二課）","province":"東京都","city":"江戸川区","address":"江戸川区東小岩6-9-14","lat":35.733879,"lon":139.888095},{"name":"江戸川区（生活援護第三課）","province":"東京都","city":"江戸川区","address":"江戸川区東葛西7-12-6","lat":35.658671,"lon":139.875819},{"name":"もぐらの家","province":"東京都","city":"江戸川区","address":"江戸川区春江町3-21-6","lat":35.69336,"lon":139.888819},{"name":"一之江あゆみの園","province":"東京都","city":"江戸川区","address":"江戸川区西一之江3-12-13","lat":35.693214,"lon":139.87604},{"name":"江戸川つむぎの家","province":"東京都","city":"江戸川区","address":"江戸川区江戸川2-38-20","lat":35.6852,"lon":139.89879},{"name":"江戸川区（生活援護第一課）","province":"東京都","city":"江戸川区","address":"江戸川区中央1-3-17","lat":35.70597,"lon":139.86835},{"name":"江戸川区（生活援護第二課）","province":"東京都","city":"江戸川区","address":"江戸川区東小岩6-9-14","lat":35.73381,"lon":139.88773},{"name":"江戸川区（生活援護第三課）","province":"東京都","city":"江戸川区","address":"江戸川区東葛西7-12-6","lat":35.65866,"lon":139.87589},{"name":"江戸川区児童相談所","province":"東京都","city":"江戸川区","address":"江戸川区中央3-4-18","lat":35.71037,"lon":139.8714},{"name":"くつろぎの家","province":"東京都","city":"江戸川区","address":"江戸川区江戸川2-13","lat":35.685403,"lon":139.905901},{"name":"くつろぎの家","province":"東京都","city":"江戸川区","address":"江戸川区江戸川2-13","lat":35.68505,"lon":139.90593},{"name":"江戸川区（生活援護第一課）","province":"東京都","city":"江戸川区","address":"江戸川区中央1-3-17","lat":35.705892,"lon":139.868446},{"name":"江戸川区（生活援護第二課）","province":"東京都","city":"江戸川区","address":"江戸川区東小岩6-9-14","lat":35.733879,"lon":139.888095},{"name":"江戸川区（生活援護第三課）","province":"東京都","city":"江戸川区","address":"江戸川区東葛西7-12-6","lat":35.658671,"lon":139.875819},{"name":"もぐらの家","province":"東京都","city":"江戸川区","address":"江戸川区春江町3-21-6","lat":35.69336,"lon":139.888819},{"name":"一之江あゆみの園","province":"東京都","city":"江戸川区","address":"江戸川区西一之江3-12-13","lat":35.693214,"lon":139.87604},{"name":"江戸川つむぎの家","province":"東京都","city":"江戸川区","address":"江戸川区江戸川2-38-20","lat":35.6852,"lon":139.89879},{"name":"江戸川区（生活援護第一課）","province":"東京都","city":"江戸川区","address":"江戸川区中央1-3-17","lat":35.70597,"lon":139.86835},{"name":"江戸川区（生活援護第二課）","province":"東京都","city":"江戸川区","address":"江戸川区東小岩6-9-14","lat":35.73381,"lon":139.88773},{"name":"江戸川区（生活援護第三課）","province":"東京都","city":"江戸川区","address":"江戸川区東葛西7-12-6","lat":35.65866,"lon":139.87589},{"name":"江戸川区児童相談所","province":"東京都","city":"江戸川区","address":"江戸川区中央3-4-18","lat":35.71037,"lon":139.8714},{"name":"くつろぎの家","province":"東京都","city":"江戸川区","address":"江戸川区江戸川2-13","lat":35.685403,"lon":139.905901},{"name":"くつろぎの家","province":"東京都","city":"江戸川区","address":"江戸川区江戸川2-13","lat":35.68505,"lon":139.90593},{"name":"江戸川区（生活援護第一課）","province":"東京都","city":"江戸川区","address":"江戸川区中央1-3-17","lat":35.705892,"lon":139.868446},{"name":"江戸川区（生活援護第二課）","province":"東京都","city":"江戸川区","address":"江戸川区東小岩6-9-14","lat":35.733879,"lon":139.888095},{"name":"江戸川区（生活援護第三課）","province":"東京都","city":"江戸川区","address":"江戸川区東葛西7-12-6","lat":35.658671,"lon":139.875819},{"name":"もぐらの家","province":"東京都","city":"江戸川区","address":"江戸川区春江町3-21-6","lat":35.69336,"lon":139.888819},{"name":"一之江あゆみの園","province":"東京都","city":"江戸川区","address":"江戸川区西一之江3-12-13","lat":35.693214,"lon":139.87604},{"name":"江戸川つむぎの家","province":"東京都","city":"江戸川区","address":"江戸川区江戸川2-38-20","lat":35.6852,"lon":139.89879},{"name":"江戸川区（生活援護第一課）","province":"東京都","city":"江戸川区","address":"江戸川区中央1-3-17","lat":35.70597,"lon":139.86835},{"name":"江戸川区（生活援護第二課）","province":"東京都","city":"江戸川区","address":"江戸川区東小岩6-9-14","lat":35.73381,"lon":139.88773},{"name":"江戸川区（生活援護第三課）","province":"東京都","city":"江戸川区","address":"江戸川区東葛西7-12-6","lat":35.65866,"lon":139.87589},{"name":"江戸川区児童相談所","province":"東京都","city":"江戸川区","address":"江戸川区中央3-4-18","lat":35.71037,"lon":139.8714},{"name":"くつろぎの家","province":"東京都","city":"江戸川区","address":"江戸川区江戸川2-13","lat":35.685403,"lon":139.905901},{"name":"くつろぎの家","province":"東京都","city":"江戸川区","address":"江戸川区江戸川2-13","lat":35.68505,"lon":139.90593},{"name":"江戸川区（生活援護第一課）","province":"東京都","city":"江戸川区","address":"江戸川区中央1-3-17","lat":35.705892,"lon":139.868446},{"name":"江戸川区（生活援護第二課）","province":"東京都","city":"江戸川区","address":"江戸川区東小岩6-9-14","lat":35.733879,"lon":139.888095},{"name":"江戸川区（生活援護第三課）","province":"東京都","city":"江戸川区","address":"江戸川区東葛西7-12-6","lat":35.658671,"lon":139.875819},{"name":"もぐらの家","province":"東京都","city":"江戸川区","address":"江戸川区春江町3-21-6","lat":35.69336,"lon":139.888819},{"name":"一之江あゆみの園","province":"東京都","city":"江戸川区","address":"江戸川区西一之江3-12-13","lat":35.693214,"lon":139.87604},{"name":"江戸川つむぎの家","province":"東京都","city":"江戸川区","address":"江戸川区江戸川2-38-20","lat":35.6852,"lon":139.89879},{"name":"江戸川区（生活援護第一課）","province":"東京都","city":"江戸川区","address":"江戸川区中央1-3-17","lat":35.70597,"lon":139.86835},{"name":"江戸川区（生活援護第二課）","province":"東京都","city":"江戸川区","address":"江戸川区東小岩6-9-14","lat":35.73381,"lon":139.88773},{"name":"江戸川区（生活援護第三課）","province":"東京都","city":"江戸川区","address":"江戸川区東葛西7-12-6","lat":35.65866,"lon":139.87589},{"name":"江戸川区児童相談所","province":"東京都","city":"江戸川区","address":"江戸川区中央3-4-18","lat":35.71037,"lon":139.8714},{"name":"くつろぎの家","province":"東京都","city":"江戸川区","address":"江戸川区江戸川2-13","lat":35.685403,"lon":139.905901},{"name":"くつろぎの家","province":"東京都","city":"江戸川区","address":"江戸川区江戸川2-13","lat":35.68505,"lon":139.90593},{"name":"江戸川区（生活援護第一課）","province":"東京都","city":"江戸川区","address":"江戸川区中央1-3-17","lat":35.705892,"lon":139.868446},{"name":"江戸川区（生活援護第二課）","province":"東京都","city":"江戸川区","address":"江戸川区東小岩6-9-14","lat":35.733879,"lon":139.888095},{"name":"江戸川区（生活援護第三課）","province":"東京都","city":"江戸川区","address":"江戸川区東葛西7-12-6","lat":35.658671,"lon":139.875819},{"name":"もぐらの家","province":"東京都","city":"江戸川区","address":"江戸川区春江町3-21-6","lat":35.69336,"lon":139.888819},{"name":"一之江あゆみの園","province":"東京都","city":"江戸川区","address":"江戸川区西一之江3-12-13","lat":35.693214,"lon":139.87604},{"name":"江戸川つむぎの家","province":"東京都","city":"江戸川区","address":"江戸川区江戸川2-38-20","lat":35.6852,"lon":139.89879},{"name":"江戸川区（生活援護第一課）","province":"東京都","city":"江戸川区","address":"江戸川区中央1-3-17","lat":35.70597,"lon":139.86835},{"name":"江戸川区（生活援護第二課）","province":"東京都","city":"江戸川区","address":"江戸川区東小岩6-9-14","lat":35.73381,"lon":139.88773},{"name":"江戸川区（生活援護第三課）","province":"東京都","city":"江戸川区","address":"江戸川区東葛西7-12-6","lat":35.65866,"lon":139.87589},{"name":"江戸川区児童相談所","province":"東京都","city":"江戸川区","address":"江戸川区中央3-4-18","lat":35.71037,"lon":139.8714},{"name":"くつろぎの家","province":"東京都","city":"江戸川区","address":"江戸川区江戸川2-13","lat":35.685403,"lon":139.905901},{"name":"くつろぎの家","province":"東京都","city":"江戸川区","address":"江戸川区江戸川2-13","lat":35.68505,"lon":139.90593},{"name":"江戸川区（生活援護第一課）","province":"東京都","city":"江戸川区","address":"江戸川区中央1-3-17","lat":35.705892,"lon":139.868446},{"name":"江戸川区（生活援護第二課）","province":"東京都","city":"江戸川区","address":"江戸川区東小岩6-9-14","lat":35.733879,"lon":139.888095},{"name":"江戸川区（生活援護第三課）","province":"東京都","city":"江戸川区","address":"江戸川区東葛西7-12-6","lat":35.658671,"lon":139.875819},{"name":"もぐらの家","province":"東京都","city":"江戸川区","address":"江戸川区春江町3-21-6","lat":35.69336,"lon":139.888819},{"name":"一之江あゆみの園","province":"東京都","city":"江戸川区","address":"江戸川区西一之江3-12-13","lat":35.693214,"lon":139.87604},{"name":"江戸川つむぎの家","province":"東京都","city":"江戸川区","address":"江戸川区江戸川2-38-20","lat":35.6852,"lon":139.89879},{"name":"江戸川区（生活援護第一課）","province":"東京都","city":"江戸川区","address":"江戸川区中央1-3-17","lat":35.70597,"lon":139.86835},{"name":"江戸川区（生活援護第二課）","province":"東京都","city":"江戸川区","address":"江戸川区東小岩6-9-14","lat":35.73381,"lon":139.88773},{"name":"江戸川区（生活援護第三課）","province":"東京都","city":"江戸川区","address":"江戸川区東葛西7-12-6","lat":35.65866,"lon":139.87589},{"name":"江戸川区児童相談所","province":"東京都","city":"江戸川区","address":"江戸川区中央3-4-18","lat":35.71037,"lon":139.8714},{"name":"くつろぎの家","province":"東京都","city":"江戸川区","address":"江戸川区江戸川2-13","lat":35.685403,"lon":139.905901},{"name":"くつろぎの家","province":"東京都","city":"江戸川区","address":"江戸川区江戸川2-13","lat":35.68505,"lon":139.90593},{"name":"江戸川区（生活援護第一課）","province":"東京都","city":"江戸川区","address":"江戸川区中央1-3-17","lat":35.705892,"lon":139.868446},{"name":"江戸川区（生活援護第二課）","province":"東京都","city":"江戸川区","address":"江戸川区東小岩6-9-14","lat":35.733879,"lon":139.888095},{"name":"江戸川区（生活援護第三課）","province":"東京都","city":"江戸川区","address":"江戸川区東葛西7-12-6","lat":35.658671,"lon":139.875819},{"name":"もぐらの家","province":"東京都","city":"江戸川区","address":"江戸川区春江町3-21-6","lat":35.69336,"lon":139.888819},{"name":"一之江あゆみの園","province":"東京都","city":"江戸川区","address":"江戸川区西一之江3-12-13","lat":35.693214,"lon":139.87604},{"name":"江戸川つむぎの家","province":"東京都","city":"江戸川区","address":"江戸川区江戸川2-38-20","lat":35.6852,"lon":139.89879},{"name":"江戸川区（生活援護第一課）","province":"東京都","city":"江戸川区","address":"江戸川区中央1-3-17","lat":35.70597,"lon":139.86835},{"name":"江戸川区（生活援護第二課）","province":"東京都","city":"江戸川区","address":"江戸川区東小岩6-9-14","lat":35.73381,"lon":139.88773},{"name":"江戸川区（生活援護第三課）","province":"東京都","city":"江戸川区","address":"江戸川区東葛西7-12-6","lat":35.65866,"lon":139.87589},{"name":"江戸川区児童相談所","province":"東京都","city":"江戸川区","address":"江戸川区中央3-4-18","lat":35.71037,"lon":139.8714},{"name":"くつろぎの家","province":"東京都","city":"江戸川区","address":"江戸川区江戸川2-13","lat":35.685403,"lon":139.905901},{"name":"くつろぎの家","province":"東京都","city":"江戸川区","address":"江戸川区江戸川2-13","lat":35.68505,"lon":139.90593},{"name":"江戸川区（生活援護第一課）","province":"東京都","city":"江戸川区","address":"江戸川区中央1-3-17","lat":35.705892,"lon":139.868446},{"name":"江戸川区（生活援護第二課）","province":"東京都","city":"江戸川区","address":"江戸川区東小岩6-9-14","lat":35.733879,"lon":139.888095},{"name":"江戸川区（生活援護第三課）","province":"東京都","city":"江戸川区","address":"江戸川区東葛西7-12-6","lat":35.658671,"lon":139.875819},{"name":"もぐらの家","province":"東京都","city":"江戸川区","address":"江戸川区春江町3-21-6","lat":35.69336,"lon":139.888819},{"name":"一之江あゆみの園","province":"東京都","city":"江戸川区","address":"江戸川区西一之江3-12-13","lat":35.693214,"lon":139.87604},{"name":"江戸川つむぎの家","province":"東京都","city":"江戸川区","address":"江戸川区江戸川2-38-20","lat":35.6852,"lon":139.89879},{"name":"江戸川区（生活援護第一課）","province":"東京都","city":"江戸川区","address":"江戸川区中央1-3-17","lat":35.70597,"lon":139.86835},{"name":"江戸川区（生活援護第二課）","province":"東京都","city":"江戸川区","address":"江戸川区東小岩6-9-14","lat":35.73381,"lon":139.88773},{"name":"江戸川区（生活援護第三課）","province":"東京都","city":"江戸川区","address":"江戸川区東葛西7-12-6","lat":35.65866,"lon":139.87589},{"name":"江戸川区児童相談所","province":"東京都","city":"江戸川区","address":"江戸川区中央3-4-18","lat":35.71037,"lon":139.8714},{"name":"くつろぎの家","province":"東京都","city":"江戸川区","address":"江戸川区江戸川2-13","lat":35.685403,"lon":139.905901},{"name":"くつろぎの家","province":"東京都","city":"江戸川区","address":"江戸川区江戸川2-13","lat":35.68505,"lon":139.90593},{"name":"江戸川区（生活援護第一課）","province":"東京都","city":"江戸川区","address":"江戸川区中央1-3-17","lat":35.705892,"lon":139.868446},{"name":"江戸川区（生活援護第二課）","province":"東京都","city":"江戸川区","address":"江戸川区東小岩6-9-14","lat":35.733879,"lon":139.888095},{"name":"江戸川区（生活援護第三課）","province":"東京都","city":"江戸川区","address":"江戸川区東葛西7-12-6","lat":35.658671,"lon":139.875819},{"name":"もぐらの家","province":"東京都","city":"江戸川区","address":"江戸川区春江町3-21-6","lat":35.69336,"lon":139.888819},{"name":"一之江あゆみの園","province":"東京都","city":"江戸川区","address":"江戸川区西一之江3-12-13","lat":35.693214,"lon":139.87604},{"name":"江戸川つむぎの家","province":"東京都","city":"江戸川区","address":"江戸川区江戸川2-38-20","lat":35.6852,"lon":139.89879},{"name":"江戸川区（生活援護第一課）","province":"東京都","city":"江戸川区","address":"江戸川区中央1-3-17","lat":35.70597,"lon":139.86835},{"name":"江戸川区（生活援護第二課）","province":"東京都","city":"江戸川区","address":"江戸川区東小岩6-9-14","lat":35.73381,"lon":139.88773},{"name":"江戸川区（生活援護第三課）","province":"東京都","city":"江戸川区","address":"江戸川区東葛西7-12-6","lat":35.65866,"lon":139.87589},{"name":"江戸川区児童相談所","province":"東京都","city":"江戸川区","address":"江戸川区中央3-4-18","lat":35.71037,"lon":139.8714},{"name":"くつろぎの家","province":"東京都","city":"江戸川区","address":"江戸川区江戸川2-13","lat":35.685403,"lon":139.905901},{"name":"くつろぎの家","province":"東京都","city":"江戸川区","address":"江戸川区江戸川2-13","lat":35.68505,"lon":139.90593},{"name":"江戸川区（生活援護第一課）","province":"東京都","city":"江戸川区","address":"江戸川区中央1-3-17","lat":35.705892,"lon":139.868446},{"name":"江戸川区（生活援護第二課）","province":"東京都","city":"江戸川区","address":"江戸川区東小岩6-9-14","lat":35.733879,"lon":139.888095},{"name":"江戸川区（生活援護第三課）","province":"東京都","city":"江戸川区","address":"江戸川区東葛西7-12-6","lat":35.658671,"lon":139.875819},{"name":"もぐらの家","province":"東京都","city":"江戸川区","address":"江戸川区春江町3-21-6","lat":35.69336,"lon":139.888819},{"name":"一之江あゆみの園","province":"東京都","city":"江戸川区","address":"江戸川区西一之江3-12-13","lat":35.693214,"lon":139.87604},{"name":"江戸川つむぎの家","province":"東京都","city":"江戸川区","address":"江戸川区江戸川2-38-20","lat":35.6852,"lon":139.89879},{"name":"江戸川区（生活援護第一課）","province":"東京都","city":"江戸川区","address":"江戸川区中央1-3-17","lat":35.70597,"lon":139.86835},{"name":"江戸川区（生活援護第二課）","province":"東京都","city":"江戸川区","address":"江戸川区東小岩6-9-14","lat":35.73381,"lon":139.88773},{"name":"江戸川区（生活援護第三課）","province":"東京都","city":"江戸川区","address":"江戸川区東葛西7-12-6","lat":35.65866,"lon":139.87589},{"name":"江戸川区児童相談所","province":"東京都","city":"江戸川区","address":"江戸川区中央3-4-18","lat":35.71037,"lon":139.8714},{"name":"くつろぎの家","province":"東京都","city":"江戸川区","address":"江戸川区江戸川2-13","lat":35.685403,"lon":139.905901},{"name":"くつろぎの家","province":"東京都","city":"江戸川区","address":"江戸川区江戸川2-13","lat":35.68505,"lon":139.90593},{"name":"江戸川区（生活援護第一課）","province":"東京都","city":"江戸川区","address":"江戸川区中央1-3-17","lat":35.705892,"lon":139.868446},{"name":"江戸川区（生活援護第二課）","province":"東京都","city":"江戸川区","address":"江戸川区東小岩6-9-14","lat":35.733879,"lon":139.888095},{"name":"江戸川区（生活援護第三課）","province":"東京都","city":"江戸川区","address":"江戸川区東葛西7-12-6","lat":35.658671,"lon":139.875819},{"name":"もぐらの家","province":"東京都","city":"江戸川区","address":"江戸川区春江町3-21-6","lat":35.69336,"lon":139.888819},{"name":"一之江あゆみの園","province":"東京都","city":"江戸川区","address":"江戸川区西一之江3-12-13","lat":35.693214,"lon":139.87604},{"name":"江戸川つむぎの家","province":"東京都","city":"江戸川区","address":"江戸川区江戸川2-38-20","lat":35.6852,"lon":139.89879},{"name":"江戸川区（生活援護第一課）","province":"東京都","city":"江戸川区","address":"江戸川区中央1-3-17","lat":35.70597,"lon":139.86835},{"name":"江戸川区（生活援護第二課）","province":"東京都","city":"江戸川区","address":"江戸川区東小岩6-9-14","lat":35.73381,"lon":139.88773},{"name":"江戸川区（生活援護第三課）","province":"東京都","city":"江戸川区","address":"江戸川区東葛西7-12-6","lat":35.65866,"lon":139.87589},{"name":"江戸川区児童相談所","province":"東京都","city":"江戸川区","address":"江戸川区中央3-4-18","lat":35.71037,"lon":139.8714},{"name":"くつろぎの家","province":"東京都","city":"江戸川区","address":"江戸川区江戸川2-13","lat":35.685403,"lon":139.905901},{"name":"くつろぎの家","province":"東京都","city":"江戸川区","address":"江戸川区江戸川2-13","lat":35.68505,"lon":139.90593},{"name":"江戸川区（生活援護第一課）","province":"東京都","city":"江戸川区","address":"江戸川区中央1-3-17","lat":35.705892,"lon":139.868446},{"name":"江戸川区（生活援護第二課）","province":"東京都","city":"江戸川区","address":"江戸川区東小岩6-9-14","lat":35.733879,"lon":139.888095},{"name":"江戸川区（生活援護第三課）","province":"東京都","city":"江戸川区","address":"江戸川区東葛西7-12-6","lat":35.658671,"lon":139.875819},{"name":"もぐらの家","province":"東京都","city":"江戸川区","address":"江戸川区春江町3-21-6","lat":35.69336,"lon":139.888819},{"name":"一之江あゆみの園","province":"東京都","city":"江戸川区","address":"江戸川区西一之江3-12-13","lat":35.693214,"lon":139.87604},{"name":"江戸川つむぎの家","province":"東京都","city":"江戸川区","address":"江戸川区江戸川2-38-20","lat":35.6852,"lon":139.89879},{"name":"江戸川区（生活援護第一課）","province":"東京都","city":"江戸川区","address":"江戸川区中央1-3-17","lat":35.70597,"lon":139.86835},{"name":"江戸川区（生活援護第二課）","province":"東京都","city":"江戸川区","address":"江戸川区東小岩6-9-14","lat":35.73381,"lon":139.88773},{"name":"江戸川区（生活援護第三課）","province":"東京都","city":"江戸川区","address":"江戸川区東葛西7-12-6","lat":35.65866,"lon":139.87589},{"name":"江戸川区児童相談所","province":"東京都","city":"江戸川区","address":"江戸川区中央3-4-18","lat":35.71037,"lon":139.8714},{"name":"くつろぎの家","province":"東京都","city":"江戸川区","address":"江戸川区江戸川2-13","lat":35.685403,"lon":139.905901},{"name":"くつろぎの家","province":"東京都","city":"江戸川区","address":"江戸川区江戸川2-13","lat":35.68505,"lon":139.90593},{"name":"江戸川区（生活援護第一課）","province":"東京都","city":"江戸川区","address":"江戸川区中央1-3-17","lat":35.705892,"lon":139.868446},{"name":"江戸川区（生活援護第二課）","province":"東京都","city":"江戸川区","address":"江戸川区東小岩6-9-14","lat":35.733879,"lon":139.888095},{"name":"江戸川区（生活援護第三課）","province":"東京都","city":"江戸川区","address":"江戸川区東葛西7-12-6","lat":35.658671,"lon":139.875819},{"name":"もぐらの家","province":"東京都","city":"江戸川区","address":"江戸川区春江町3-21-6","lat":35.69336,"lon":139.888819},{"name":"一之江あゆみの園","province":"東京都","city":"江戸川区","address":"江戸川区西一之江3-12-13","lat":35.693214,"lon":139.87604},{"name":"江戸川つむぎの家","province":"東京都","city":"江戸川区","address":"江戸川区江戸川2-38-20","lat":35.6852,"lon":139.89879},{"name":"江戸川区（生活援護第一課）","province":"東京都","city":"江戸川区","address":"江戸川区中央1-3-17","lat":35.70597,"lon":139.86835},{"name":"江戸川区（生活援護第二課）","province":"東京都","city":"江戸川区","address":"江戸川区東小岩6-9-14","lat":35.73381,"lon":139.88773},{"name":"江戸川区（生活援護第三課）","province":"東京都","city":"江戸川区","address":"江戸川区東葛西7-12-6","lat":35.65866,"lon":139.87589},{"name":"江戸川区児童相談所","province":"東京都","city":"江戸川区","address":"江戸川区中央3-4-18","lat":35.71037,"lon":139.8714},{"name":"くつろぎの家","province":"東京都","city":"江戸川区","address":"江戸川区江戸川2-13","lat":35.685403,"lon":139.905901},{"name":"くつろぎの家","province":"東京都","city":"江戸川区","address":"江戸川区江戸川2-13","lat":35.68505,"lon":139.90593},{"name":"江戸川区（生活援護第一課）","province":"東京都","city":"江戸川区","address":"江戸川区中央1-3-17","lat":35.705892,"lon":139.868446},{"name":"江戸川区（生活援護第二課）","province":"東京都","city":"江戸川区","address":"江戸川区東小岩6-9-14","lat":35.733879,"lon":139.888095},{"name":"江戸川区（生活援護第三課）","province":"東京都","city":"江戸川区","address":"江戸川区東葛西7-12-6","lat":35.658671,"lon":139.875819}]}