{"keyword":"宿泊","data":[{"name":"サンビレッジ東小岩","province":"東京都","city":"江戸川区","address":"江戸川区東小岩3-7-7","lat":35.732134,"lon":139.891304},{"name":"サンビレッジ平井","province":"東京都","city":"江戸川区","address":"東京都江戸川区","lat":35.70697836,"lon":139.8683262},{"name":"一之江荘","province":"東京都","city":"江戸川区","address":"東京都江戸川区","lat":35.70697836,"lon":139.8683262},{"name":"西葛西荘","province":"東京都","city":"江戸川区","address":"江戸川区西葛西2-20-2","lat":35.666455,"lon":139.854126},{"name":"サンビレッジ南小岩","province":"東京都","city":"江戸川区","address":"江戸川区南小岩7-29-16第二山喜ビル","lat":35.731837,"lon":139.884071},{"name":"瑞江荘","province":"東京都","city":"江戸川区","address":"江戸川区西瑞江3-17-17","lat":35.686575,"lon":139.891644},{"name":"船堀荘","province":"東京都","city":"江戸川区","address":"江戸川区船堀3-2-22","lat":35.681576,"lon":139.862969},{"name":"葛西荘","province":"東京都","city":"江戸川区","address":"江戸川区東葛西7-13-17","lat":35.659187,"lon":139.876002},{"name":"瑞江荘","province":"東京都","city":"江戸川区","address":"江戸川区西瑞江3-17-17","lat":35.68668,"lon":139.89177},{"name":"サンビレッジ東小岩","province":"東京都","city":"江戸川区","address":"江戸川区東小岩3-7-7","lat":35.73197,"lon":139.89142},{"name":"サンビレッジ南小岩","province":"東京都","city":"江戸川区","address":"江戸川区南小岩7-29-16第二山喜ビル","lat":35.73183,"lon":139.88391},{"name":"葛西荘","province":"東京都","city":"江戸川区","address":"江戸川区東葛西7-13-17","lat":35.65934,"lon":139.87631},{"name":"西葛西荘","province":"東京都","city":"江戸川区","address":"江戸川区西葛西2-20-2","lat":35.66657,"lon":139.85443},{"name":"船堀荘","province":"東京都","city":"江戸川区","address":"江戸川区船堀3-2-22","lat":35.6821,"lon":139.86316}]}