{"keyword":"戸数","data":[{"name":"江戸川区社会福祉協議会","province":"東京都","city":"江戸川区","address":"江戸川区松島1-38-1グリーンパレス新館1階","lat":35.705756,"lon":139.866229},{"name":"江戸川区","province":"東京都","city":"江戸川区","address":"江戸川区中央1-4-1","lat":35.70667362,"lon":139.8686922},{"name":"（株）安井","province":"東京都","city":"江戸川区","address":"東京都江戸川区大杉5丁目1-4","lat":35.70770436,"lon":139.87729174},{"name":"（有）山金葬祭","province":"東京都","city":"江戸川区","address":"東京都江戸川区東小松川1丁目8-12","lat":35.70290924,"lon":139.86776815},{"name":"（株）鹿倉商店","province":"東京都","city":"江戸川区","address":"東京都江戸川区平井6丁目2-22","lat":35.70529155,"lon":139.83795951},{"name":"（有）船堀祭典","province":"東京都","city":"江戸川区","address":"東京都江戸川区船堀7丁目11-21","lat":35.67725705,"lon":139.86950487},{"name":"（株）東京葬祭","province":"東京都","city":"江戸川区","address":"東京都江戸川区南小岩5丁目4-16","lat":35.72458542,"lon":139.87939371},{"name":"（株）宮崎","province":"東京都","city":"江戸川区","address":"東京都江戸川区南小岩7丁目1-22","lat":35.72621035,"lon":139.88417377},{"name":"（有）首代","province":"東京都","city":"江戸川区","address":"東京都江戸川区鹿骨4丁目15-9","lat":35.71585672,"lon":139.88914313},{"name":"江戸川区社会福祉協議会","province":"東京都","city":"江戸川区","address":"江戸川区松島1-38-1グリーンパレス内","lat":35.70605,"lon":139.86636},{"name":"江戸川区社会福祉協議会","province":"東京都","city":"江戸川区","address":"江戸川区松島1-38-1グリーンパレス内","lat":35.70606,"lon":139.86636},{"name":"東京臨海病院","province":"東京都","city":"江戸川区","address":"東京都江戸川区臨海町1丁目4-2","lat":35.65210677,"lon":139.85363487},{"name":"江戸川病院","province":"東京都","city":"江戸川区","address":"東京都江戸川区東小岩2丁目24-18","lat":35.72860723,"lon":139.89289248},{"name":"瑞江葬儀所","province":"東京都","city":"江戸川区","address":"東京都江戸川区春江町3丁目26-1","lat":35.694788,"lon":139.89013556},{"name":"西瑞江給水所","province":"東京都","city":"江戸川区","address":"東京都江戸川区東瑞江1丁目26-2","lat":35.69135275,"lon":139.89810175},{"name":"葛西給水所","province":"東京都","city":"江戸川区","address":"東京都江戸川区北葛西3丁目9","lat":35.67359591,"lon":139.85917535},{"name":"都立篠崎公園","province":"東京都","city":"江戸川区","address":"東京都江戸川区上篠崎1丁目25","lat":35.7146518,"lon":139.89798133},{"name":"区立宇喜田中央公園","province":"東京都","city":"江戸川区","address":"東京都江戸川区北葛西4丁目15","lat":35.67038268,"lon":139.86439164},{"name":"区立小岩公園","province":"東京都","city":"江戸川区","address":"東京都江戸川区北小岩6丁目43","lat":35.74601851,"lon":139.8865981},{"name":"都立大島小松川公園","province":"東京都","city":"江戸川区","address":"東京都江戸川区小松川1丁目7","lat":35.69216816,"lon":139.85200056},{"name":"都立葛西南高等学校","province":"東京都","city":"江戸川区","address":"東京都江戸川区南葛西1丁目11-1","lat":35.65367379,"lon":139.87079175},{"name":"西瑞江給水所（注５）","province":"東京都","city":"江戸川区","address":"東京都江戸川区東瑞江1丁目26-2","lat":35.69135275,"lon":139.89810175},{"name":"都立葛西臨海公園第２駐車場","province":"東京都","city":"江戸川区","address":"東京都江戸川区臨海町6丁目2","lat":35.64164166,"lon":139.86520384},{"name":"都立葛西臨海公園多目的広場","province":"東京都","city":"江戸川区","address":"東京都江戸川区臨海町6丁目2","lat":35.64164166,"lon":139.86520384},{"name":"都立葛西海浜公園人口なぎさ","province":"東京都","city":"江戸川区","address":"東京都江戸川区臨海町6丁目","lat":35.6462852,"lon":139.85139641},{"name":"都立大島小松川公園（自由の広場）","province":"東京都","city":"江戸川区","address":"東京都江戸川区小松川1丁目7","lat":35.69216816,"lon":139.85200056},{"name":"江戸川区臨海球技場第二","province":"東京都","city":"江戸川区","address":"東京都江戸川区臨海町6丁目1","lat":35.64490485,"lon":139.85315466},{"name":"江戸川区球場","province":"東京都","city":"江戸川区","address":"東京都江戸川区北小岩4丁目38","lat":35.73930002,"lon":139.89605594},{"name":"江戸川区立篠崎緑地１９号地・１０号地","province":"東京都","city":"江戸川区","address":"東京都江戸川区篠崎町1丁目26","lat":35.70838102,"lon":139.90561435},{"name":"都立篠崎公園野球場（第２面）","province":"東京都","city":"江戸川区","address":"東京都江戸川区上篠崎1丁目25","lat":35.7146518,"lon":139.89798133},{"name":"区営河川敷広場","province":"東京都","city":"江戸川区","address":"東京都江戸川区上篠崎1丁目","lat":35.71365485,"lon":139.90170055},{"name":"区営河川敷グラウンド","province":"東京都","city":"江戸川区","address":"東京都江戸川区上篠崎3丁目","lat":35.71301614,"lon":139.8983508},{"name":"鹿骨スポーツ広場","province":"東京都","city":"江戸川区","address":"東京都江戸川区上篠崎4丁目5","lat":35.70850907,"lon":139.8962289},{"name":"北小岩４丁目グラウンド","province":"東京都","city":"江戸川区","address":"東京都江戸川区北小岩4丁目","lat":35.73853903,"lon":139.8951338},{"name":"江戸川区選挙管理委員会","province":"東京都","city":"江戸川区","address":"江戸川区中央1-4-1","lat":35.707031,"lon":139.868218},{"name":"城東職業能力開発センター江戸川校","province":"東京都","city":"江戸川区","address":"東京都江戸川区中央2丁目31-27","lat":35.70692643,"lon":139.87508919},{"name":"葛西市場","province":"東京都","city":"江戸川区","address":"東京都江戸川区臨海町3丁目4-1","lat":35.64921017,"lon":139.86351753},{"name":"江戸川高等学校","province":"東京都","city":"江戸川区","address":"東京都江戸川区松島2丁目38-1","lat":35.70868342,"lon":139.865621},{"name":"葛西南高等学校","province":"東京都","city":"江戸川区","address":"東京都江戸川区南葛西1丁目11-1","lat":35.65367379,"lon":139.87079175},{"name":"小松川高等学校","province":"東京都","city":"江戸川区","address":"東京都江戸川区平井1丁目27-10","lat":35.70266933,"lon":139.85134779},{"name":"篠崎高等学校","province":"東京都","city":"江戸川区","address":"東京都江戸川区東篠崎1丁目10-1","lat":35.70047624,"lon":139.91601672},{"name":"葛西工業高等学校","province":"東京都","city":"江戸川区","address":"東京都江戸川区一之江7丁目68-1","lat":35.68361274,"lon":139.87887044},{"name":"小岩高等学校","province":"東京都","city":"江戸川区","address":"東京都江戸川区本一色3丁目10-1","lat":35.7213742,"lon":139.86892265},{"name":"紅葉川高等学校","province":"東京都","city":"江戸川区","address":"東京都江戸川区臨海町2丁目1-1","lat":35.65276793,"lon":139.85881221},{"name":"アルフレッサ（株）江戸川医薬品センター","province":"東京都","city":"江戸川区","address":"江戸川区平井7-5-32","lat":35.71645,"lon":139.8356},{"name":"東日本電信電話（株）葛西ビル","province":"東京都","city":"江戸川区","address":"江戸川区北葛西4-1-43","lat":35.67024,"lon":139.8598},{"name":"江戸川清掃工場","province":"東京都","city":"江戸川区","address":"江戸川区江戸川2-10","lat":35.685192,"lon":139.904114},{"name":"江戸川区社会福祉協議会","province":"東京都","city":"江戸川区","address":"江戸川区松島1-38-1グリーンパレス新館1階","lat":35.705756,"lon":139.866229},{"name":"江戸川区社会福祉協議会","province":"東京都","city":"江戸川区","address":"江戸川区松島1-38-1グリーンパレス内","lat":35.70605,"lon":139.86636},{"name":"江戸川区社会福祉協議会","province":"東京都","city":"江戸川区","address":"江戸川区松島1-38-1グリーンパレス内","lat":35.70606,"lon":139.86636},{"name":"東京臨海病院","province":"東京都","city":"江戸川区","address":"東京都江戸川区臨海町1丁目4-2","lat":35.65210677,"lon":139.85363487},{"name":"江戸川病院","province":"東京都","city":"江戸川区","address":"東京都江戸川区東小岩2丁目24-18","lat":35.72860723,"lon":139.89289248},{"name":"瑞江葬儀所","province":"東京都","city":"江戸川区","address":"東京都江戸川区春江町3丁目26-1","lat":35.694788,"lon":139.89013556},{"name":"西瑞江給水所","province":"東京都","city":"江戸川区","address":"東京都江戸川区東瑞江1丁目26-2","lat":35.69135275,"lon":139.89810175},{"name":"葛西給水所","province":"東京都","city":"江戸川区","address":"東京都江戸川区北葛西3丁目9","lat":35.67359591,"lon":139.85917535},{"name":"都立篠崎公園","province":"東京都","city":"江戸川区","address":"東京都江戸川区上篠崎1丁目25","lat":35.7146518,"lon":139.89798133},{"name":"区立宇喜田中央公園","province":"東京都","city":"江戸川区","address":"東京都江戸川区北葛西4丁目15","lat":35.67038268,"lon":139.86439164},{"name":"区立小岩公園","province":"東京都","city":"江戸川区","address":"東京都江戸川区北小岩6丁目43","lat":35.74601851,"lon":139.8865981},{"name":"都立大島小松川公園","province":"東京都","city":"江戸川区","address":"東京都江戸川区小松川1丁目7","lat":35.69216816,"lon":139.85200056},{"name":"都立葛西南高等学校","province":"東京都","city":"江戸川区","address":"東京都江戸川区南葛西1丁目11-1","lat":35.65367379,"lon":139.87079175},{"name":"西瑞江給水所（注５）","province":"東京都","city":"江戸川区","address":"東京都江戸川区東瑞江1丁目26-2","lat":35.69135275,"lon":139.89810175},{"name":"都立葛西臨海公園第２駐車場","province":"東京都","city":"江戸川区","address":"東京都江戸川区臨海町6丁目2","lat":35.64164166,"lon":139.86520384},{"name":"都立葛西臨海公園多目的広場","province":"東京都","city":"江戸川区","address":"東京都江戸川区臨海町6丁目2","lat":35.64164166,"lon":139.86520384},{"name":"都立葛西海浜公園人口なぎさ","province":"東京都","city":"江戸川区","address":"東京都江戸川区臨海町6丁目","lat":35.6462852,"lon":139.85139641},{"name":"都立大島小松川公園（自由の広場）","province":"東京都","city":"江戸川区","address":"東京都江戸川区小松川1丁目7","lat":35.69216816,"lon":139.85200056},{"name":"江戸川区臨海球技場第二","province":"東京都","city":"江戸川区","address":"東京都江戸川区臨海町6丁目1","lat":35.64490485,"lon":139.85315466},{"name":"江戸川区球場","province":"東京都","city":"江戸川区","address":"東京都江戸川区北小岩4丁目38","lat":35.73930002,"lon":139.89605594},{"name":"江戸川区立篠崎緑地１９号地・１０号地","province":"東京都","city":"江戸川区","address":"東京都江戸川区篠崎町1丁目26","lat":35.70838102,"lon":139.90561435},{"name":"都立篠崎公園野球場（第２面）","province":"東京都","city":"江戸川区","address":"東京都江戸川区上篠崎1丁目25","lat":35.7146518,"lon":139.89798133},{"name":"区営河川敷広場","province":"東京都","city":"江戸川区","address":"東京都江戸川区上篠崎1丁目","lat":35.71365485,"lon":139.90170055},{"name":"区営河川敷グラウンド","province":"東京都","city":"江戸川区","address":"東京都江戸川区上篠崎3丁目","lat":35.71301614,"lon":139.8983508},{"name":"鹿骨スポーツ広場","province":"東京都","city":"江戸川区","address":"東京都江戸川区上篠崎4丁目5","lat":35.70850907,"lon":139.8962289},{"name":"北小岩４丁目グラウンド","province":"東京都","city":"江戸川区","address":"東京都江戸川区北小岩4丁目","lat":35.73853903,"lon":139.8951338},{"name":"城東職業能力開発センター江戸川校","province":"東京都","city":"江戸川区","address":"東京都江戸川区中央2丁目31-27","lat":35.70692643,"lon":139.87508919},{"name":"葛西市場","province":"東京都","city":"江戸川区","address":"東京都江戸川区臨海町3丁目4-1","lat":35.64921017,"lon":139.86351753},{"name":"江戸川高等学校","province":"東京都","city":"江戸川区","address":"東京都江戸川区松島2丁目38-1","lat":35.70868342,"lon":139.865621},{"name":"葛西南高等学校","province":"東京都","city":"江戸川区","address":"東京都江戸川区南葛西1丁目11-1","lat":35.65367379,"lon":139.87079175},{"name":"小松川高等学校","province":"東京都","city":"江戸川区","address":"東京都江戸川区平井1丁目27-10","lat":35.70266933,"lon":139.85134779},{"name":"篠崎高等学校","province":"東京都","city":"江戸川区","address":"東京都江戸川区東篠崎1丁目10-1","lat":35.70047624,"lon":139.91601672},{"name":"葛西工業高等学校","province":"東京都","city":"江戸川区","address":"東京都江戸川区一之江7丁目68-1","lat":35.68361274,"lon":139.87887044},{"name":"小岩高等学校","province":"東京都","city":"江戸川区","address":"東京都江戸川区本一色3丁目10-1","lat":35.7213742,"lon":139.86892265},{"name":"紅葉川高等学校","province":"東京都","city":"江戸川区","address":"東京都江戸川区臨海町2丁目1-1","lat":35.65276793,"lon":139.85881221},{"name":"アルフレッサ（株）江戸川医薬品センター","province":"東京都","city":"江戸川区","address":"江戸川区平井7-5-32","lat":35.71645,"lon":139.8356},{"name":"東日本電信電話（株）葛西ビル","province":"東京都","city":"江戸川区","address":"江戸川区北葛西4-1-43","lat":35.67024,"lon":139.8598},{"name":"江戸川清掃工場","province":"東京都","city":"江戸川区","address":"江戸川区江戸川2-10","lat":35.685192,"lon":139.904114},{"name":"東京臨海病院","province":"東京都","city":"江戸川区","address":"東京都江戸川区臨海町1丁目4-2","lat":35.65210677,"lon":139.85363487},{"name":"江戸川病院","province":"東京都","city":"江戸川区","address":"東京都江戸川区東小岩2丁目24-18","lat":35.72860723,"lon":139.89289248},{"name":"城東職業能力開発センター江戸川校","province":"東京都","city":"江戸川区","address":"東京都江戸川区中央2丁目31-27","lat":35.70692643,"lon":139.87508919},{"name":"葛西市場","province":"東京都","city":"江戸川区","address":"東京都江戸川区臨海町3丁目4-1","lat":35.64921017,"lon":139.86351753},{"name":"江戸川高等学校","province":"東京都","city":"江戸川区","address":"東京都江戸川区松島2丁目38-1","lat":35.70868342,"lon":139.865621},{"name":"葛西南高等学校","province":"東京都","city":"江戸川区","address":"東京都江戸川区南葛西1丁目11-1","lat":35.65367379,"lon":139.87079175},{"name":"小松川高等学校","province":"東京都","city":"江戸川区","address":"東京都江戸川区平井1丁目27-10","lat":35.70266933,"lon":139.85134779},{"name":"篠崎高等学校","province":"東京都","city":"江戸川区","address":"東京都江戸川区東篠崎1丁目10-1","lat":35.70047624,"lon":139.91601672},{"name":"葛西工業高等学校","province":"東京都","city":"江戸川区","address":"東京都江戸川区一之江7丁目68-1","lat":35.68361274,"lon":139.87887044},{"name":"小岩高等学校","province":"東京都","city":"江戸川区","address":"東京都江戸川区本一色3丁目10-1","lat":35.7213742,"lon":139.86892265},{"name":"紅葉川高等学校","province":"東京都","city":"江戸川区","address":"東京都江戸川区臨海町2丁目1-1","lat":35.65276793,"lon":139.85881221},{"name":"東京臨海病院","province":"東京都","city":"江戸川区","address":"東京都江戸川区臨海町1丁目4-2","lat":35.65210677,"lon":139.85363487},{"name":"江戸川病院","province":"東京都","city":"江戸川区","address":"東京都江戸川区東小岩2丁目24-18","lat":35.72860723,"lon":139.89289248},{"name":"城東職業能力開発センター江戸川校","province":"東京都","city":"江戸川区","address":"東京都江戸川区中央2丁目31-27","lat":35.70692643,"lon":139.87508919},{"name":"葛西市場","province":"東京都","city":"江戸川区","address":"東京都江戸川区臨海町3丁目4-1","lat":35.64921017,"lon":139.86351753},{"name":"江戸川高等学校","province":"東京都","city":"江戸川区","address":"東京都江戸川区松島2丁目38-1","lat":35.70868342,"lon":139.865621},{"name":"葛西南高等学校","province":"東京都","city":"江戸川区","address":"東京都江戸川区南葛西1丁目11-1","lat":35.65367379,"lon":139.87079175},{"name":"小松川高等学校","province":"東京都","city":"江戸川区","address":"東京都江戸川区平井1丁目27-10","lat":35.70266933,"lon":139.85134779},{"name":"篠崎高等学校","province":"東京都","city":"江戸川区","address":"東京都江戸川区東篠崎1丁目10-1","lat":35.70047624,"lon":139.91601672},{"name":"葛西工業高等学校","province":"東京都","city":"江戸川区","address":"東京都江戸川区一之江7丁目68-1","lat":35.68361274,"lon":139.87887044},{"name":"小岩高等学校","province":"東京都","city":"江戸川区","address":"東京都江戸川区本一色3丁目10-1","lat":35.7213742,"lon":139.86892265},{"name":"紅葉川高等学校","province":"東京都","city":"江戸川区","address":"東京都江戸川区臨海町2丁目1-1","lat":35.65276793,"lon":139.85881221}]}