{"keyword":"放課後","data":[{"name":"ファーストドリーム新堀","province":"東京都","city":"江戸川区","address":"江戸川区新堀1-9-18","lat":35.704909,"lon":139.885891},{"name":"たいよう　児童デイサービス瑞江","province":"東京都","city":"江戸川区","address":"江戸川区瑞江2丁目24番8号シェアヴィ瑞江1階","lat":35.696858,"lon":139.898101},{"name":"ＤＲＥＡＭ　ＫＩＤＳ　ＣＬＵＢ","province":"東京都","city":"江戸川区","address":"江戸川区瑞江1-56-4","lat":35.6979,"lon":139.895674},{"name":"スマートキッズプラス瑞江","province":"東京都","city":"江戸川区","address":"江戸川区東瑞江3-55-18","lat":35.690136,"lon":139.897413},{"name":"スタジオｐｌｕｓ＋瑞江教室","province":"東京都","city":"江戸川区","address":"江戸川区東瑞江3-41-6UHRビル201号室","lat":35.691533,"lon":139.895141},{"name":"コアンティ","province":"東京都","city":"江戸川区","address":"江戸川区大杉1-23-16","lat":35.707668,"lon":139.876003},{"name":"ハッピーテラス一之江教室","province":"東京都","city":"江戸川区","address":"江戸川区一之江8-17-17PRIMOND2階","lat":35.686477,"lon":139.883587},{"name":"ＧＲＩＰ　キッズ　一之江校","province":"東京都","city":"江戸川区","address":"江戸川区一之江7-30-6カーサクレセール102号","lat":35.688612,"lon":139.880734},{"name":"スマートキッズプラス船堀","province":"東京都","city":"江戸川区","address":"江戸川区松江4-12-7山種小松川ビル2階","lat":35.695566,"lon":139.871507},{"name":"ＪＮＣ松江","province":"東京都","city":"江戸川区","address":"江戸川区松江4-13-6","lat":35.695341,"lon":139.871804},{"name":"こいわステップ","province":"東京都","city":"江戸川区","address":"江戸川区松島4-46-16","lat":35.713666,"lon":139.860235},{"name":"こいわステップ第２","province":"東京都","city":"江戸川区","address":"江戸川区松島1-20-21-1階・2階","lat":35.702684,"lon":139.864627},{"name":"広伸会　江戸川教室","province":"東京都","city":"江戸川区","address":"江戸川区松島3-46-10-102","lat":35.709844,"lon":139.865904},{"name":"児童デイサービスばんびーの","province":"東京都","city":"江戸川区","address":"江戸川区東小松川2-31-6レジデンシャル五洋103","lat":35.695924,"lon":139.867557},{"name":"スマートキッズプラス平井","province":"東京都","city":"江戸川区","address":"江戸川区平井5-24-8リバースポイント2F号室","lat":35.707627,"lon":139.843634},{"name":"放課後デイサービス　キッズピース平井","province":"東京都","city":"江戸川区","address":"江戸川区平井6丁目14番10号にしきビル2階","lat":35.706952,"lon":139.839993},{"name":"コラゾン平井","province":"東京都","city":"江戸川区","address":"江戸川区平井4-8-14高橋ビル1階","lat":35.705683,"lon":139.844915},{"name":"ファーストドリーム上一色","province":"東京都","city":"江戸川区","address":"江戸川区上一色1-4-17","lat":35.723682,"lon":139.870867},{"name":"にじ北小岩","province":"東京都","city":"江戸川区","address":"江戸川区北小岩6-11-4ホテルスカイコート小岩101","lat":35.742933,"lon":139.883426},{"name":"児童デイあみりあ北","province":"東京都","city":"江戸川区","address":"江戸川区北小岩1-15-2","lat":35.736653,"lon":139.891159},{"name":"放課後等デイサービス　あんず　江戸川","province":"東京都","city":"江戸川区","address":"江戸川区東小岩1-9-9長寿メディカルセンター202","lat":35.72363,"lon":139.889785},{"name":"児童デイあみりあ","province":"東京都","city":"江戸川区","address":"江戸川区南小岩4-10-11","lat":35.723697,"lon":139.882485},{"name":"児童デイサービス　生活塾みずならの木　南小岩","province":"東京都","city":"江戸川区","address":"江戸川区南小岩7-37-18クレドハイツ小岩102号室","lat":35.728482,"lon":139.88584},{"name":"オレンジスクール　小岩教室","province":"東京都","city":"江戸川区","address":"江戸川区西小岩2-20-16","lat":35.734106,"lon":139.877921},{"name":"児童デイサービス　ばんびーのしのざき","province":"東京都","city":"江戸川区","address":"江戸川区篠崎町一丁目7番2号","lat":35.708728,"lon":139.903928},{"name":"スマートキッズプラス南篠崎","province":"東京都","city":"江戸川区","address":"江戸川区南篠崎町2-16-1第5ストークマンション1階","lat":35.692661,"lon":139.900468},{"name":"スマートキッズプラス南篠崎第二","province":"東京都","city":"江戸川区","address":"江戸川区南篠崎町三丁目24番7号島村事務所1階","lat":35.694619,"lon":139.900365},{"name":"ファーストドリーム瑞江","province":"東京都","city":"江戸川区","address":"江戸川区南篠崎町2-9-2","lat":35.692103,"lon":139.900165},{"name":"ファーストドリーム南篠崎","province":"東京都","city":"江戸川区","address":"江戸川区南篠崎町2-9-2","lat":35.692103,"lon":139.900165},{"name":"おおぞら・子どもデイセンター","province":"東京都","city":"江戸川区","address":"江戸川区東松本2-17-15","lat":35.722189,"lon":139.881002},{"name":"児童デイサービス「ぷくぷく」","province":"東京都","city":"江戸川区","address":"江戸川区鹿骨3-12-17ロンジェヴィテえどがわ1階","lat":35.71386,"lon":139.891749},{"name":"ククルの実","province":"東京都","city":"江戸川区","address":"江戸川区鹿骨一丁目59番12号鹿骨センターハイツ101","lat":35.710089,"lon":139.890013},{"name":"キッズランド","province":"東京都","city":"江戸川区","address":"江戸川区鹿骨5-29-1山田貸事務所1階","lat":35.716026,"lon":139.885299},{"name":"わくわくＧＡＴＥ江戸川","province":"東京都","city":"江戸川区","address":"江戸川区江戸川3-50-20","lat":35.682775,"lon":139.889058},{"name":"スマートキッズジュニア船掘","province":"東京都","city":"江戸川区","address":"江戸川区北葛西4-5-7","lat":35.673785,"lon":139.863233},{"name":"スマートキッズプラス北葛西","province":"東京都","city":"江戸川区","address":"江戸川区北葛西四丁目22-11号YSビル1階","lat":35.670694,"lon":139.866486},{"name":"たいよう　児童デイサービス船堀","province":"東京都","city":"江戸川区","address":"江戸川区北葛西一丁目21番18号リカーハイツ1階","lat":35.680342,"lon":139.861197},{"name":"放課後等デイサービス　キッズピース西葛西","province":"東京都","city":"江戸川区","address":"江戸川区北葛西4-13-30佐藤ビル1階","lat":35.669683,"lon":139.861589},{"name":"日本重症心身障害児支援協会　多機能型ステーション　望","province":"東京都","city":"江戸川区","address":"江戸川区中葛西5-4-4","lat":35.662948,"lon":139.865281},{"name":"ハッピーテラス葛西教室","province":"東京都","city":"江戸川区","address":"江戸川区中葛西3-16-17パネフリアドビル2階","lat":35.664395,"lon":139.869447},{"name":"ふるーる","province":"東京都","city":"江戸川区","address":"江戸川区東葛西6-48-18","lat":35.661951,"lon":139.880754},{"name":"ふるーるの森","province":"東京都","city":"江戸川区","address":"江戸川区東葛西5-2-2ゾンネンハイム葛西","lat":35.665075,"lon":139.873577},{"name":"スマートキッズプラス葛西","province":"東京都","city":"江戸川区","address":"江戸川区東葛西6-4-3第3ロイヤルシラコビル301","lat":35.663337,"lon":139.874097},{"name":"ひまわり学習教室","province":"東京都","city":"江戸川区","address":"江戸川区東葛西6-1-5","lat":35.661098,"lon":139.873255},{"name":"ハッピーテラス東葛西教室","province":"東京都","city":"江戸川区","address":"江戸川区東葛西5-13-13フローラル東葛西II203号","lat":35.663773,"lon":139.874899},{"name":"くすのき放課後等デイサービス葛西","province":"東京都","city":"江戸川区","address":"江戸川区南葛西1-10-6A-YU1階","lat":35.654446,"lon":139.870772},{"name":"くすのき放課後等デイサービス葛西南","province":"東京都","city":"江戸川区","address":"江戸川区南葛西3-24-4小林久商店貸事務所1階","lat":35.649074,"lon":139.871531},{"name":"スマートキッズプラス西葛西","province":"東京都","city":"江戸川区","address":"江戸川区西葛西6-22-16","lat":35.663867,"lon":139.862731},{"name":"ハッピーテラス西葛西","province":"東京都","city":"江戸川区","address":"江戸川区西葛西7-3-10BKN西葛西5階","lat":35.662017,"lon":139.859542},{"name":"パオパオくらぶ","province":"東京都","city":"江戸川区","address":"江戸川区船堀1-1-2","lat":35.685364,"lon":139.860461},{"name":"児童デイサービス南風","province":"東京都","city":"江戸川区","address":"江戸川区船堀2-18-5","lat":35.682342,"lon":139.86035},{"name":"児童デイサービス　ばんびーのふなぼり","province":"東京都","city":"江戸川区","address":"江戸川区船堀1-8-19-0002号","lat":35.683784,"lon":139.86338}]}