{"keyword":"構築","data":[{"name":"小松川橋西詰","province":"東京都","city":"江戸川区","address":"東京都江戸川区小松川4丁目52-3","lat":35.69975868,"lon":139.85051171},{"name":"八蔵橋","province":"東京都","city":"江戸川区","address":"東京都江戸川区中央1丁目6-3","lat":35.70827538,"lon":139.86776791},{"name":"松江西","province":"東京都","city":"江戸川区","address":"東京都江戸川区松江1丁目1-1","lat":35.69857377,"lon":139.86812381},{"name":"江戸川区役所前","province":"東京都","city":"江戸川区","address":"東京都江戸川区中央1丁目3-7","lat":35.70626449,"lon":139.86799296},{"name":"平井駅出口","province":"東京都","city":"江戸川区","address":"東京都江戸川区平井5丁目17-5","lat":35.70734687,"lon":139.84092033},{"name":"今井橋","province":"東京都","city":"江戸川区","address":"東京都江戸川区江戸川4丁目4","lat":35.68198045,"lon":139.88870854},{"name":"瑞江大橋西詰","province":"東京都","city":"江戸川区","address":"東京都江戸川区一之江8丁目18-14","lat":35.68547148,"lon":139.88430872},{"name":"環七一之江陸橋下","province":"東京都","city":"江戸川区","address":"東京都江戸川区一之江4丁目1-22","lat":35.68773221,"lon":139.88240325},{"name":"瑞江大橋","province":"東京都","city":"江戸川区","address":"東京都江戸川区西瑞江4丁目1-1","lat":35.68521045,"lon":139.8850559},{"name":"瑞江駅前","province":"東京都","city":"江戸川区","address":"東京都江戸川区瑞江2丁目3-1","lat":35.69285544,"lon":139.89814055},{"name":"平井駅北口第二","province":"東京都","city":"江戸川区","address":"東京都江戸川区平井5丁目23-1","lat":35.70704133,"lon":139.84262855},{"name":"平井駅南口","province":"東京都","city":"江戸川区","address":"東京都江戸川区平井4丁目11-6","lat":35.7063386,"lon":139.84345076},{"name":"平井駅南口第二","province":"東京都","city":"江戸川区","address":"東京都江戸川区平井4丁目10-4","lat":35.70595251,"lon":139.8441285},{"name":"環七一之江三丁目","province":"東京都","city":"江戸川区","address":"東京都江戸川区一之江4丁目14","lat":35.69097915,"lon":139.88233366},{"name":"柴又新道口","province":"東京都","city":"江戸川区","address":"東京都江戸川区北小岩2丁目1-17","lat":35.73635886,"lon":139.88481789},{"name":"菅原橋","province":"東京都","city":"江戸川区","address":"東京都江戸川区本一色2丁目1-9","lat":35.71608067,"lon":139.8739057},{"name":"篠崎コミュニティ会館入口","province":"東京都","city":"江戸川区","address":"東京都江戸川区上篠崎4丁目19","lat":35.70914768,"lon":139.90088687},{"name":"六軒島第二","province":"東京都","city":"江戸川区","address":"東京都江戸川区西小岩2丁目20-16","lat":35.73411472,"lon":139.87790459},{"name":"船堀小学校前","province":"東京都","city":"江戸川区","address":"東京都江戸川区船堀2丁目22-22","lat":35.68271987,"lon":139.86232762},{"name":"江戸川五丁目","province":"東京都","city":"江戸川区","address":"東京都江戸川区江戸川5丁目22","lat":35.67398887,"lon":139.88162334},{"name":"船堀駅","province":"東京都","city":"江戸川区","address":"東京都江戸川区船堀1丁目6-11","lat":35.68483914,"lon":139.86387187},{"name":"新船堀大橋東詰","province":"東京都","city":"江戸川区","address":"東京都江戸川区船堀1丁目4-13","lat":35.68619736,"lon":139.86473009},{"name":"中葛西二丁目","province":"東京都","city":"江戸川区","address":"東京都江戸川区中葛西2丁目16-6","lat":35.67234696,"lon":139.87588779},{"name":"新田通り宇喜田町","province":"東京都","city":"江戸川区","address":"東京都江戸川区西葛西5丁目8-14","lat":35.66810781,"lon":139.8610059},{"name":"第四葛西小学校前","province":"東京都","city":"江戸川区","address":"東京都江戸川区中葛西8丁目9-5","lat":35.65952589,"lon":139.87046094},{"name":"西葛西六丁目","province":"東京都","city":"江戸川区","address":"東京都江戸川区西葛西6丁目28-14","lat":35.66195034,"lon":139.86385307},{"name":"西葛西六丁目第三","province":"東京都","city":"江戸川区","address":"東京都江戸川区西葛西6丁目12-1","lat":35.66269451,"lon":139.85903403},{"name":"西葛西駅北","province":"東京都","city":"江戸川区","address":"東京都江戸川区西葛西5丁目1-1","lat":35.66529419,"lon":139.85911727},{"name":"葛西駅前第二","province":"東京都","city":"江戸川区","address":"東京都江戸川区中葛西5丁目42-8","lat":35.66278395,"lon":139.87273838},{"name":"中葛西三丁目","province":"東京都","city":"江戸川区","address":"東京都江戸川区中葛西3丁目36-8","lat":35.66543088,"lon":139.87287995},{"name":"葛西駅前","province":"東京都","city":"江戸川区","address":"東京都江戸川区中葛西3丁目37-16","lat":35.66394771,"lon":139.87279389},{"name":"なぎさ団地前","province":"東京都","city":"江戸川区","address":"東京都江戸川区南葛西6丁目15","lat":35.64704146,"lon":139.87910524},{"name":"レクリエーション公園","province":"東京都","city":"江戸川区","address":"東京都江戸川区南葛西3丁目23","lat":35.65069078,"lon":139.87071689},{"name":"葛西中学校北","province":"東京都","city":"江戸川区","address":"東京都江戸川区中葛西1丁目42-19","lat":35.67294659,"lon":139.87170481},{"name":"西葛西児童遊園前","province":"東京都","city":"江戸川区","address":"東京都江戸川区西葛西6丁目11","lat":35.66281668,"lon":139.85787023},{"name":"船堀駅前","province":"東京都","city":"江戸川区","address":"東京都江戸川区船堀3丁目6","lat":35.68362821,"lon":139.86435796},{"name":"清新第一小学校東","province":"東京都","city":"江戸川区","address":"東京都江戸川区清新町1丁目3-6","lat":35.66189452,"lon":139.85587597},{"name":"都住船堀四丁目東","province":"東京都","city":"江戸川区","address":"東京都江戸川区松江5丁目19-1","lat":35.68547268,"lon":139.86795478},{"name":"葛西臨海公園駅東","province":"東京都","city":"江戸川区","address":"東京都江戸川区臨海町6丁目3-8","lat":35.6430054,"lon":139.86559541},{"name":"葛西第七小学校前","province":"東京都","city":"江戸川区","address":"東京都江戸川区西葛西7丁目2","lat":35.66149462,"lon":139.85758696},{"name":"環七東葛西七丁目","province":"東京都","city":"江戸川区","address":"東京都江戸川区東葛西7丁目2-5","lat":35.65992597,"lon":139.873369},{"name":"葛西臨海水族園","province":"東京都","city":"江戸川区","address":"江戸川区臨海町6-2-3","lat":35.6400947,"lon":139.8621658},{"name":"西瑞江給水所","province":"東京都","city":"江戸川区","address":"東京都江戸川区東瑞江1丁目26-2","lat":35.69135275,"lon":139.89810175},{"name":"葛西給水所","province":"東京都","city":"江戸川区","address":"東京都江戸川区北葛西3丁目9","lat":35.67359591,"lon":139.85917535},{"name":"都立篠崎公園","province":"東京都","city":"江戸川区","address":"東京都江戸川区上篠崎1丁目25","lat":35.7146518,"lon":139.89798133},{"name":"区立宇喜田中央公園","province":"東京都","city":"江戸川区","address":"東京都江戸川区北葛西4丁目15","lat":35.67038268,"lon":139.86439164},{"name":"区立小岩公園","province":"東京都","city":"江戸川区","address":"東京都江戸川区北小岩6丁目43","lat":35.74601851,"lon":139.8865981},{"name":"都立大島小松川公園","province":"東京都","city":"江戸川区","address":"東京都江戸川区小松川1丁目7","lat":35.69216816,"lon":139.85200056},{"name":"都立葛西南高等学校","province":"東京都","city":"江戸川区","address":"東京都江戸川区南葛西1丁目11-1","lat":35.65367379,"lon":139.87079175},{"name":"西瑞江給水所（注５）","province":"東京都","city":"江戸川区","address":"東京都江戸川区東瑞江1丁目26-2","lat":35.69135275,"lon":139.89810175},{"name":"上篠崎","province":"東京都","city":"江戸川区","address":"東京都江戸川区上篠崎2丁目27","lat":35.71283558,"lon":139.90618361},{"name":"葛西臨海公園","province":"東京都","city":"江戸川区","address":"東京都江戸川区臨海町6丁目","lat":35.6462852,"lon":139.85139641},{"name":"一之江橋","province":"東京都","city":"江戸川区","address":"東京都江戸川区新堀1丁目1","lat":35.70258678,"lon":139.88574945},{"name":"小松川","province":"東京都","city":"江戸川区","address":"東京都江戸川区小松川1丁目","lat":35.68984346,"lon":139.84946741},{"name":"新今井橋","province":"東京都","city":"江戸川区","address":"東京都江戸川区江戸川4丁目","lat":35.68234427,"lon":139.88820301},{"name":"平井","province":"東京都","city":"江戸川区","address":"東京都江戸川区平井6丁目71","lat":35.71365739,"lon":139.84385591},{"name":"なぎさ公園","province":"東京都","city":"江戸川区","address":"東京都江戸川区南葛西7丁目3","lat":35.64875249,"lon":139.88177994},{"name":"今井交通公園","province":"東京都","city":"江戸川区","address":"東京都江戸川区中葛西4丁目9","lat":35.66799142,"lon":139.86705815},{"name":"スポーツランド","province":"東京都","city":"江戸川区","address":"東京都江戸川区東篠崎1丁目8","lat":35.69783207,"lon":139.91731117},{"name":"ポニーランド","province":"東京都","city":"江戸川区","address":"東京都江戸川区南篠崎町3丁目23","lat":35.69480527,"lon":139.90019585},{"name":"篠崎公園","province":"東京都","city":"江戸川区","address":"東京都江戸川区上篠崎1丁目25","lat":35.7146518,"lon":139.89798133},{"name":"小岩菖蒲園","province":"東京都","city":"江戸川区","address":"東京都江戸川区北小岩4丁目37","lat":35.73856957,"lon":139.89622538},{"name":"葛西警察署","province":"東京都","city":"江戸川区","address":"江戸川区東葛西6-39-1","lat":35.6615,"lon":139.8796},{"name":"小岩警察署","province":"東京都","city":"江戸川区","address":"江戸川区東小岩6-9-17","lat":35.73386,"lon":139.8876},{"name":"小松川警察署","province":"東京都","city":"江戸川区","address":"江戸川区松島1-19-22","lat":35.70257,"lon":139.8638},{"name":"江戸川消防署","province":"東京都","city":"江戸川区","address":"江戸川区中央2-9-13","lat":35.70607,"lon":139.8725},{"name":"葛西消防署","province":"東京都","city":"江戸川区","address":"江戸川区中葛西1-29-1","lat":35.66946,"lon":139.8693},{"name":"小岩消防署","province":"東京都","city":"江戸川区","address":"江戸川区鹿骨2-42-11","lat":35.70864,"lon":139.8949},{"name":"アルフレッサ（株）江戸川医薬品センター","province":"東京都","city":"江戸川区","address":"江戸川区平井7-5-32","lat":35.71645,"lon":139.8356},{"name":"都立篠崎公園","province":"東京都","city":"江戸川区","address":"江戸川区篠崎1-26","lat":35.70838,"lon":139.9056},{"name":"都立葛西臨海公園","province":"東京都","city":"江戸川区","address":"江戸川区臨海町6-2","lat":35.64164,"lon":139.8652},{"name":"江戸川清掃工場","province":"東京都","city":"江戸川区","address":"江戸川区江戸川2-10番地","lat":35.68561,"lon":139.9043},{"name":"葛西臨海公園第２駐車場","province":"東京都","city":"江戸川区","address":"江戸川区臨海町6-2","lat":35.64164,"lon":139.8652},{"name":"葛西臨海公園多目的広場","province":"東京都","city":"江戸川区","address":"江戸川区臨海町6-2","lat":35.64164,"lon":139.8652},{"name":"江戸川区臨海球技場第一","province":"東京都","city":"江戸川区","address":"江戸川区臨海町1-1-2","lat":35.64901,"lon":139.8507},{"name":"都立篠崎公園野球場（第２面）","province":"東京都","city":"江戸川区","address":"江戸川区上篠崎1-25先","lat":35.71633,"lon":139.9011},{"name":"上篠崎","province":"東京都","city":"江戸川区","address":"東京都江戸川区上篠崎2丁目27","lat":35.71283558,"lon":139.90618361},{"name":"一之江橋","province":"東京都","city":"江戸川区","address":"東京都江戸川区新堀1丁目1","lat":35.70258678,"lon":139.88574945},{"name":"平井","province":"東京都","city":"江戸川区","address":"東京都江戸川区平井6丁目71","lat":35.71365739,"lon":139.84385591},{"name":"なぎさ公園","province":"東京都","city":"江戸川区","address":"東京都江戸川区南葛西7丁目3","lat":35.64875249,"lon":139.88177994},{"name":"今井交通公園","province":"東京都","city":"江戸川区","address":"東京都江戸川区中葛西4丁目9","lat":35.66799142,"lon":139.86705815},{"name":"スポーツランド","province":"東京都","city":"江戸川区","address":"東京都江戸川区東篠崎1丁目8","lat":35.69783207,"lon":139.91731117},{"name":"ポニーランド","province":"東京都","city":"江戸川区","address":"東京都江戸川区篠崎町3丁目23","lat":35.70440913,"lon":139.91392782},{"name":"篠崎公園","province":"東京都","city":"江戸川区","address":"東京都江戸川区上篠崎1丁目25","lat":35.7146518,"lon":139.89798133},{"name":"小岩菖蒲園","province":"東京都","city":"江戸川区","address":"東京都江戸川区北小岩4丁目37","lat":35.73856957,"lon":139.89622538},{"name":"小松川橋西詰","province":"東京都","city":"江戸川区","address":"東京都江戸川区小松川4丁目52-3","lat":35.69975868,"lon":139.85051171},{"name":"八蔵橋","province":"東京都","city":"江戸川区","address":"東京都江戸川区中央1丁目6-3","lat":35.70827538,"lon":139.86776791},{"name":"松江西","province":"東京都","city":"江戸川区","address":"東京都江戸川区松江1丁目1-1","lat":35.69857377,"lon":139.86812381},{"name":"江戸川区役所前","province":"東京都","city":"江戸川区","address":"東京都江戸川区中央1丁目3-7","lat":35.70626449,"lon":139.86799296},{"name":"平井駅出口","province":"東京都","city":"江戸川区","address":"東京都江戸川区平井5丁目17-5","lat":35.70734687,"lon":139.84092033},{"name":"今井橋","province":"東京都","city":"江戸川区","address":"東京都江戸川区江戸川4丁目4","lat":35.68198045,"lon":139.88870854},{"name":"瑞江大橋西詰","province":"東京都","city":"江戸川区","address":"東京都江戸川区一之江8丁目18-14","lat":35.68547148,"lon":139.88430872},{"name":"環七一之江陸橋下","province":"東京都","city":"江戸川区","address":"東京都江戸川区一之江4丁目1-22","lat":35.68773221,"lon":139.88240325},{"name":"瑞江大橋","province":"東京都","city":"江戸川区","address":"東京都江戸川区西瑞江4丁目1-1","lat":35.68521045,"lon":139.8850559},{"name":"瑞江駅前","province":"東京都","city":"江戸川区","address":"東京都江戸川区瑞江2丁目3-1","lat":35.69285544,"lon":139.89814055},{"name":"平井駅北口第二","province":"東京都","city":"江戸川区","address":"東京都江戸川区平井5丁目23-1","lat":35.70704133,"lon":139.84262855},{"name":"平井駅南口","province":"東京都","city":"江戸川区","address":"東京都江戸川区平井4丁目11-6","lat":35.7063386,"lon":139.84345076},{"name":"平井駅南口第二","province":"東京都","city":"江戸川区","address":"東京都江戸川区平井4丁目10-4","lat":35.70595251,"lon":139.8441285},{"name":"環七一之江三丁目","province":"東京都","city":"江戸川区","address":"東京都江戸川区一之江4丁目14","lat":35.69097915,"lon":139.88233366},{"name":"柴又新道口","province":"東京都","city":"江戸川区","address":"東京都江戸川区北小岩2丁目1-17","lat":35.73635886,"lon":139.88481789},{"name":"菅原橋","province":"東京都","city":"江戸川区","address":"東京都江戸川区本一色2丁目1-9","lat":35.71608067,"lon":139.8739057},{"name":"篠崎コミュニティ会館入口","province":"東京都","city":"江戸川区","address":"東京都江戸川区上篠崎4丁目19","lat":35.70914768,"lon":139.90088687},{"name":"六軒島第二","province":"東京都","city":"江戸川区","address":"東京都江戸川区西小岩2丁目20-16","lat":35.73411472,"lon":139.87790459},{"name":"船堀小学校前","province":"東京都","city":"江戸川区","address":"東京都江戸川区船堀2丁目22-22","lat":35.68271987,"lon":139.86232762},{"name":"江戸川五丁目","province":"東京都","city":"江戸川区","address":"東京都江戸川区江戸川5丁目22","lat":35.67398887,"lon":139.88162334},{"name":"船堀駅","province":"東京都","city":"江戸川区","address":"東京都江戸川区船堀1丁目6-11","lat":35.68483914,"lon":139.86387187},{"name":"新船堀大橋東詰","province":"東京都","city":"江戸川区","address":"東京都江戸川区船堀1丁目4-13","lat":35.68619736,"lon":139.86473009},{"name":"中葛西二丁目","province":"東京都","city":"江戸川区","address":"東京都江戸川区中葛西2丁目16-6","lat":35.67234696,"lon":139.87588779},{"name":"新田通り宇喜田町","province":"東京都","city":"江戸川区","address":"東京都江戸川区西葛西5丁目8-14","lat":35.66810781,"lon":139.8610059},{"name":"第四葛西小学校前","province":"東京都","city":"江戸川区","address":"東京都江戸川区中葛西8丁目9-5","lat":35.65952589,"lon":139.87046094},{"name":"西葛西六丁目","province":"東京都","city":"江戸川区","address":"東京都江戸川区西葛西6丁目28-14","lat":35.66195034,"lon":139.86385307},{"name":"西葛西六丁目第三","province":"東京都","city":"江戸川区","address":"東京都江戸川区西葛西6丁目12-1","lat":35.66269451,"lon":139.85903403},{"name":"西葛西駅北","province":"東京都","city":"江戸川区","address":"東京都江戸川区西葛西5丁目1-1","lat":35.66529419,"lon":139.85911727},{"name":"葛西駅前第二","province":"東京都","city":"江戸川区","address":"東京都江戸川区中葛西5丁目42-8","lat":35.66278395,"lon":139.87273838},{"name":"中葛西三丁目","province":"東京都","city":"江戸川区","address":"東京都江戸川区中葛西3丁目36-8","lat":35.66543088,"lon":139.87287995},{"name":"葛西駅前","province":"東京都","city":"江戸川区","address":"東京都江戸川区中葛西3丁目37-16","lat":35.66394771,"lon":139.87279389},{"name":"なぎさ団地前","province":"東京都","city":"江戸川区","address":"東京都江戸川区南葛西6丁目15","lat":35.64704146,"lon":139.87910524},{"name":"レクリエーション公園","province":"東京都","city":"江戸川区","address":"東京都江戸川区南葛西3丁目23","lat":35.65069078,"lon":139.87071689},{"name":"葛西中学校北","province":"東京都","city":"江戸川区","address":"東京都江戸川区中葛西1丁目42-19","lat":35.67294659,"lon":139.87170481},{"name":"西葛西児童遊園前","province":"東京都","city":"江戸川区","address":"東京都江戸川区西葛西6丁目11","lat":35.66281668,"lon":139.85787023},{"name":"船堀駅前","province":"東京都","city":"江戸川区","address":"東京都江戸川区船堀3丁目6","lat":35.68362821,"lon":139.86435796},{"name":"清新第一小学校東","province":"東京都","city":"江戸川区","address":"東京都江戸川区清新町1丁目3-6","lat":35.66189452,"lon":139.85587597},{"name":"都住船堀四丁目東","province":"東京都","city":"江戸川区","address":"東京都江戸川区松江5丁目19-1","lat":35.68547268,"lon":139.86795478},{"name":"葛西臨海公園駅東","province":"東京都","city":"江戸川区","address":"東京都江戸川区臨海町6丁目3-8","lat":35.6430054,"lon":139.86559541},{"name":"葛西第七小学校前","province":"東京都","city":"江戸川区","address":"東京都江戸川区西葛西7丁目2","lat":35.66149462,"lon":139.85758696},{"name":"環七東葛西七丁目","province":"東京都","city":"江戸川区","address":"東京都江戸川区東葛西7丁目2-5","lat":35.65992597,"lon":139.873369},{"name":"葛西臨海水族園","province":"東京都","city":"江戸川区","address":"江戸川区臨海町6-2-3","lat":35.6400947,"lon":139.8621658},{"name":"西瑞江給水所","province":"東京都","city":"江戸川区","address":"東京都江戸川区東瑞江1丁目26-2","lat":35.69135275,"lon":139.89810175},{"name":"葛西給水所","province":"東京都","city":"江戸川区","address":"東京都江戸川区北葛西3丁目9","lat":35.67359591,"lon":139.85917535},{"name":"都立篠崎公園","province":"東京都","city":"江戸川区","address":"東京都江戸川区上篠崎1丁目25","lat":35.7146518,"lon":139.89798133},{"name":"区立宇喜田中央公園","province":"東京都","city":"江戸川区","address":"東京都江戸川区北葛西4丁目15","lat":35.67038268,"lon":139.86439164},{"name":"区立小岩公園","province":"東京都","city":"江戸川区","address":"東京都江戸川区北小岩6丁目43","lat":35.74601851,"lon":139.8865981},{"name":"都立大島小松川公園","province":"東京都","city":"江戸川区","address":"東京都江戸川区小松川1丁目7","lat":35.69216816,"lon":139.85200056},{"name":"都立葛西南高等学校","province":"東京都","city":"江戸川区","address":"東京都江戸川区南葛西1丁目11-1","lat":35.65367379,"lon":139.87079175},{"name":"西瑞江給水所（注５）","province":"東京都","city":"江戸川区","address":"東京都江戸川区東瑞江1丁目26-2","lat":35.69135275,"lon":139.89810175},{"name":"上篠崎","province":"東京都","city":"江戸川区","address":"東京都江戸川区上篠崎2丁目27","lat":35.71283558,"lon":139.90618361},{"name":"葛西臨海公園","province":"東京都","city":"江戸川区","address":"東京都江戸川区臨海町6丁目","lat":35.6462852,"lon":139.85139641},{"name":"一之江橋","province":"東京都","city":"江戸川区","address":"東京都江戸川区新堀1丁目1","lat":35.70258678,"lon":139.88574945},{"name":"小松川","province":"東京都","city":"江戸川区","address":"東京都江戸川区小松川1丁目","lat":35.68984346,"lon":139.84946741},{"name":"新今井橋","province":"東京都","city":"江戸川区","address":"東京都江戸川区江戸川4丁目","lat":35.68234427,"lon":139.88820301},{"name":"平井","province":"東京都","city":"江戸川区","address":"東京都江戸川区平井6丁目71","lat":35.71365739,"lon":139.84385591},{"name":"なぎさ公園","province":"東京都","city":"江戸川区","address":"東京都江戸川区南葛西7丁目3","lat":35.64875249,"lon":139.88177994},{"name":"今井交通公園","province":"東京都","city":"江戸川区","address":"東京都江戸川区中葛西4丁目9","lat":35.66799142,"lon":139.86705815},{"name":"スポーツランド","province":"東京都","city":"江戸川区","address":"東京都江戸川区東篠崎1丁目8","lat":35.69783207,"lon":139.91731117},{"name":"ポニーランド","province":"東京都","city":"江戸川区","address":"東京都江戸川区南篠崎町3丁目23","lat":35.69480527,"lon":139.90019585},{"name":"篠崎公園","province":"東京都","city":"江戸川区","address":"東京都江戸川区上篠崎1丁目25","lat":35.7146518,"lon":139.89798133},{"name":"小岩菖蒲園","province":"東京都","city":"江戸川区","address":"東京都江戸川区北小岩4丁目37","lat":35.73856957,"lon":139.89622538},{"name":"葛西警察署","province":"東京都","city":"江戸川区","address":"江戸川区東葛西6-39-1","lat":35.6615,"lon":139.8796},{"name":"小岩警察署","province":"東京都","city":"江戸川区","address":"江戸川区東小岩6-9-17","lat":35.73386,"lon":139.8876},{"name":"小松川警察署","province":"東京都","city":"江戸川区","address":"江戸川区松島1-19-22","lat":35.70257,"lon":139.8638},{"name":"江戸川消防署","province":"東京都","city":"江戸川区","address":"江戸川区中央2-9-13","lat":35.70607,"lon":139.8725},{"name":"葛西消防署","province":"東京都","city":"江戸川区","address":"江戸川区中葛西1-29-1","lat":35.66946,"lon":139.8693},{"name":"小岩消防署","province":"東京都","city":"江戸川区","address":"江戸川区鹿骨2-42-11","lat":35.70864,"lon":139.8949},{"name":"アルフレッサ（株）江戸川医薬品センター","province":"東京都","city":"江戸川区","address":"江戸川区平井7-5-32","lat":35.71645,"lon":139.8356},{"name":"上篠崎","province":"東京都","city":"江戸川区","address":"東京都江戸川区上篠崎2丁目27","lat":35.71283558,"lon":139.90618361},{"name":"一之江橋","province":"東京都","city":"江戸川区","address":"東京都江戸川区新堀1丁目1","lat":35.70258678,"lon":139.88574945},{"name":"平井","province":"東京都","city":"江戸川区","address":"東京都江戸川区平井6丁目71","lat":35.71365739,"lon":139.84385591},{"name":"なぎさ公園","province":"東京都","city":"江戸川区","address":"東京都江戸川区南葛西7丁目3","lat":35.64875249,"lon":139.88177994},{"name":"今井交通公園","province":"東京都","city":"江戸川区","address":"東京都江戸川区中葛西4丁目9","lat":35.66799142,"lon":139.86705815},{"name":"スポーツランド","province":"東京都","city":"江戸川区","address":"東京都江戸川区東篠崎1丁目8","lat":35.69783207,"lon":139.91731117},{"name":"ポニーランド","province":"東京都","city":"江戸川区","address":"東京都江戸川区篠崎町3丁目23","lat":35.70440913,"lon":139.91392782},{"name":"篠崎公園","province":"東京都","city":"江戸川区","address":"東京都江戸川区上篠崎1丁目25","lat":35.7146518,"lon":139.89798133},{"name":"小岩菖蒲園","province":"東京都","city":"江戸川区","address":"東京都江戸川区北小岩4丁目37","lat":35.73856957,"lon":139.89622538},{"name":"小松川橋西詰","province":"東京都","city":"江戸川区","address":"東京都江戸川区小松川4丁目52-3","lat":35.69975868,"lon":139.85051171},{"name":"八蔵橋","province":"東京都","city":"江戸川区","address":"東京都江戸川区中央1丁目6-3","lat":35.70827538,"lon":139.86776791},{"name":"松江西","province":"東京都","city":"江戸川区","address":"東京都江戸川区松江1丁目1-1","lat":35.69857377,"lon":139.86812381},{"name":"江戸川区役所前","province":"東京都","city":"江戸川区","address":"東京都江戸川区中央1丁目3-7","lat":35.70626449,"lon":139.86799296},{"name":"平井駅出口","province":"東京都","city":"江戸川区","address":"東京都江戸川区平井5丁目17-5","lat":35.70734687,"lon":139.84092033},{"name":"今井橋","province":"東京都","city":"江戸川区","address":"東京都江戸川区江戸川4丁目4","lat":35.68198045,"lon":139.88870854},{"name":"瑞江大橋西詰","province":"東京都","city":"江戸川区","address":"東京都江戸川区一之江8丁目18-14","lat":35.68547148,"lon":139.88430872},{"name":"環七一之江陸橋下","province":"東京都","city":"江戸川区","address":"東京都江戸川区一之江4丁目1-22","lat":35.68773221,"lon":139.88240325},{"name":"瑞江大橋","province":"東京都","city":"江戸川区","address":"東京都江戸川区西瑞江4丁目1-1","lat":35.68521045,"lon":139.8850559},{"name":"瑞江駅前","province":"東京都","city":"江戸川区","address":"東京都江戸川区瑞江2丁目3-1","lat":35.69285544,"lon":139.89814055},{"name":"平井駅北口第二","province":"東京都","city":"江戸川区","address":"東京都江戸川区平井5丁目23-1","lat":35.70704133,"lon":139.84262855},{"name":"平井駅南口","province":"東京都","city":"江戸川区","address":"東京都江戸川区平井4丁目11-6","lat":35.7063386,"lon":139.84345076},{"name":"平井駅南口第二","province":"東京都","city":"江戸川区","address":"東京都江戸川区平井4丁目10-4","lat":35.70595251,"lon":139.8441285},{"name":"環七一之江三丁目","province":"東京都","city":"江戸川区","address":"東京都江戸川区一之江4丁目14","lat":35.69097915,"lon":139.88233366},{"name":"柴又新道口","province":"東京都","city":"江戸川区","address":"東京都江戸川区北小岩2丁目1-17","lat":35.73635886,"lon":139.88481789},{"name":"菅原橋","province":"東京都","city":"江戸川区","address":"東京都江戸川区本一色2丁目1-9","lat":35.71608067,"lon":139.8739057},{"name":"篠崎コミュニティ会館入口","province":"東京都","city":"江戸川区","address":"東京都江戸川区上篠崎4丁目19","lat":35.70914768,"lon":139.90088687},{"name":"六軒島第二","province":"東京都","city":"江戸川区","address":"東京都江戸川区西小岩2丁目20-16","lat":35.73411472,"lon":139.87790459},{"name":"船堀小学校前","province":"東京都","city":"江戸川区","address":"東京都江戸川区船堀2丁目22-22","lat":35.68271987,"lon":139.86232762},{"name":"江戸川五丁目","province":"東京都","city":"江戸川区","address":"東京都江戸川区江戸川5丁目22","lat":35.67398887,"lon":139.88162334},{"name":"船堀駅","province":"東京都","city":"江戸川区","address":"東京都江戸川区船堀1丁目6-11","lat":35.68483914,"lon":139.86387187},{"name":"新船堀大橋東詰","province":"東京都","city":"江戸川区","address":"東京都江戸川区船堀1丁目4-13","lat":35.68619736,"lon":139.86473009},{"name":"中葛西二丁目","province":"東京都","city":"江戸川区","address":"東京都江戸川区中葛西2丁目16-6","lat":35.67234696,"lon":139.87588779},{"name":"新田通り宇喜田町","province":"東京都","city":"江戸川区","address":"東京都江戸川区西葛西5丁目8-14","lat":35.66810781,"lon":139.8610059},{"name":"第四葛西小学校前","province":"東京都","city":"江戸川区","address":"東京都江戸川区中葛西8丁目9-5","lat":35.65952589,"lon":139.87046094},{"name":"西葛西六丁目","province":"東京都","city":"江戸川区","address":"東京都江戸川区西葛西6丁目28-14","lat":35.66195034,"lon":139.86385307},{"name":"西葛西六丁目第三","province":"東京都","city":"江戸川区","address":"東京都江戸川区西葛西6丁目12-1","lat":35.66269451,"lon":139.85903403},{"name":"西葛西駅北","province":"東京都","city":"江戸川区","address":"東京都江戸川区西葛西5丁目1-1","lat":35.66529419,"lon":139.85911727},{"name":"葛西駅前第二","province":"東京都","city":"江戸川区","address":"東京都江戸川区中葛西5丁目42-8","lat":35.66278395,"lon":139.87273838},{"name":"中葛西三丁目","province":"東京都","city":"江戸川区","address":"東京都江戸川区中葛西3丁目36-8","lat":35.66543088,"lon":139.87287995},{"name":"葛西駅前","province":"東京都","city":"江戸川区","address":"東京都江戸川区中葛西3丁目37-16","lat":35.66394771,"lon":139.87279389},{"name":"なぎさ団地前","province":"東京都","city":"江戸川区","address":"東京都江戸川区南葛西6丁目15","lat":35.64704146,"lon":139.87910524},{"name":"レクリエーション公園","province":"東京都","city":"江戸川区","address":"東京都江戸川区南葛西3丁目23","lat":35.65069078,"lon":139.87071689},{"name":"葛西中学校北","province":"東京都","city":"江戸川区","address":"東京都江戸川区中葛西1丁目42-19","lat":35.67294659,"lon":139.87170481},{"name":"西葛西児童遊園前","province":"東京都","city":"江戸川区","address":"東京都江戸川区西葛西6丁目11","lat":35.66281668,"lon":139.85787023},{"name":"船堀駅前","province":"東京都","city":"江戸川区","address":"東京都江戸川区船堀3丁目6","lat":35.68362821,"lon":139.86435796},{"name":"清新第一小学校東","province":"東京都","city":"江戸川区","address":"東京都江戸川区清新町1丁目3-6","lat":35.66189452,"lon":139.85587597},{"name":"都住船堀四丁目東","province":"東京都","city":"江戸川区","address":"東京都江戸川区松江5丁目19-1","lat":35.68547268,"lon":139.86795478},{"name":"葛西臨海公園駅東","province":"東京都","city":"江戸川区","address":"東京都江戸川区臨海町6丁目3-8","lat":35.6430054,"lon":139.86559541},{"name":"葛西第七小学校前","province":"東京都","city":"江戸川区","address":"東京都江戸川区西葛西7丁目2","lat":35.66149462,"lon":139.85758696},{"name":"環七東葛西七丁目","province":"東京都","city":"江戸川区","address":"東京都江戸川区東葛西7丁目2-5","lat":35.65992597,"lon":139.873369},{"name":"葛西臨海水族園","province":"東京都","city":"江戸川区","address":"江戸川区臨海町6-2-3","lat":35.6400947,"lon":139.8621658},{"name":"西瑞江給水所","province":"東京都","city":"江戸川区","address":"東京都江戸川区東瑞江1丁目26-2","lat":35.69135275,"lon":139.89810175},{"name":"葛西給水所","province":"東京都","city":"江戸川区","address":"東京都江戸川区北葛西3丁目9","lat":35.67359591,"lon":139.85917535},{"name":"都立篠崎公園","province":"東京都","city":"江戸川区","address":"東京都江戸川区上篠崎1丁目25","lat":35.7146518,"lon":139.89798133},{"name":"区立宇喜田中央公園","province":"東京都","city":"江戸川区","address":"東京都江戸川区北葛西4丁目15","lat":35.67038268,"lon":139.86439164},{"name":"区立小岩公園","province":"東京都","city":"江戸川区","address":"東京都江戸川区北小岩6丁目43","lat":35.74601851,"lon":139.8865981},{"name":"都立大島小松川公園","province":"東京都","city":"江戸川区","address":"東京都江戸川区小松川1丁目7","lat":35.69216816,"lon":139.85200056},{"name":"都立葛西南高等学校","province":"東京都","city":"江戸川区","address":"東京都江戸川区南葛西1丁目11-1","lat":35.65367379,"lon":139.87079175},{"name":"西瑞江給水所（注５）","province":"東京都","city":"江戸川区","address":"東京都江戸川区東瑞江1丁目26-2","lat":35.69135275,"lon":139.89810175},{"name":"上篠崎","province":"東京都","city":"江戸川区","address":"東京都江戸川区上篠崎2丁目27","lat":35.71283558,"lon":139.90618361},{"name":"葛西臨海公園","province":"東京都","city":"江戸川区","address":"東京都江戸川区臨海町6丁目","lat":35.6462852,"lon":139.85139641},{"name":"一之江橋","province":"東京都","city":"江戸川区","address":"東京都江戸川区新堀1丁目1","lat":35.70258678,"lon":139.88574945},{"name":"小松川","province":"東京都","city":"江戸川区","address":"東京都江戸川区小松川1丁目","lat":35.68984346,"lon":139.84946741},{"name":"新今井橋","province":"東京都","city":"江戸川区","address":"東京都江戸川区江戸川4丁目","lat":35.68234427,"lon":139.88820301},{"name":"平井","province":"東京都","city":"江戸川区","address":"東京都江戸川区平井6丁目71","lat":35.71365739,"lon":139.84385591},{"name":"なぎさ公園","province":"東京都","city":"江戸川区","address":"東京都江戸川区南葛西7丁目3","lat":35.64875249,"lon":139.88177994},{"name":"今井交通公園","province":"東京都","city":"江戸川区","address":"東京都江戸川区中葛西4丁目9","lat":35.66799142,"lon":139.86705815},{"name":"スポーツランド","province":"東京都","city":"江戸川区","address":"東京都江戸川区東篠崎1丁目8","lat":35.69783207,"lon":139.91731117},{"name":"ポニーランド","province":"東京都","city":"江戸川区","address":"東京都江戸川区南篠崎町3丁目23","lat":35.69480527,"lon":139.90019585},{"name":"篠崎公園","province":"東京都","city":"江戸川区","address":"東京都江戸川区上篠崎1丁目25","lat":35.7146518,"lon":139.89798133},{"name":"小岩菖蒲園","province":"東京都","city":"江戸川区","address":"東京都江戸川区北小岩4丁目37","lat":35.73856957,"lon":139.89622538},{"name":"葛西警察署","province":"東京都","city":"江戸川区","address":"江戸川区東葛西6-39-1","lat":35.6615,"lon":139.8796},{"name":"小岩警察署","province":"東京都","city":"江戸川区","address":"江戸川区東小岩6-9-17","lat":35.73386,"lon":139.8876},{"name":"小松川警察署","province":"東京都","city":"江戸川区","address":"江戸川区松島1-19-22","lat":35.70257,"lon":139.8638},{"name":"江戸川消防署","province":"東京都","city":"江戸川区","address":"江戸川区中央2-9-13","lat":35.70607,"lon":139.8725},{"name":"葛西消防署","province":"東京都","city":"江戸川区","address":"江戸川区中葛西1-29-1","lat":35.66946,"lon":139.8693},{"name":"小岩消防署","province":"東京都","city":"江戸川区","address":"江戸川区鹿骨2-42-11","lat":35.70864,"lon":139.8949},{"name":"アルフレッサ（株）江戸川医薬品センター","province":"東京都","city":"江戸川区","address":"江戸川区平井7-5-32","lat":35.71645,"lon":139.8356},{"name":"上篠崎","province":"東京都","city":"江戸川区","address":"東京都江戸川区上篠崎2丁目27","lat":35.71283558,"lon":139.90618361},{"name":"一之江橋","province":"東京都","city":"江戸川区","address":"東京都江戸川区新堀1丁目1","lat":35.70258678,"lon":139.88574945},{"name":"平井","province":"東京都","city":"江戸川区","address":"東京都江戸川区平井6丁目71","lat":35.71365739,"lon":139.84385591},{"name":"なぎさ公園","province":"東京都","city":"江戸川区","address":"東京都江戸川区南葛西7丁目3","lat":35.64875249,"lon":139.88177994},{"name":"今井交通公園","province":"東京都","city":"江戸川区","address":"東京都江戸川区中葛西4丁目9","lat":35.66799142,"lon":139.86705815},{"name":"スポーツランド","province":"東京都","city":"江戸川区","address":"東京都江戸川区東篠崎1丁目8","lat":35.69783207,"lon":139.91731117},{"name":"ポニーランド","province":"東京都","city":"江戸川区","address":"東京都江戸川区篠崎町3丁目23","lat":35.70440913,"lon":139.91392782},{"name":"篠崎公園","province":"東京都","city":"江戸川区","address":"東京都江戸川区上篠崎1丁目25","lat":35.7146518,"lon":139.89798133},{"name":"小岩菖蒲園","province":"東京都","city":"江戸川区","address":"東京都江戸川区北小岩4丁目37","lat":35.73856957,"lon":139.89622538},{"name":"小松川橋西詰","province":"東京都","city":"江戸川区","address":"東京都江戸川区小松川4丁目52-3","lat":35.69975868,"lon":139.85051171},{"name":"八蔵橋","province":"東京都","city":"江戸川区","address":"東京都江戸川区中央1丁目6-3","lat":35.70827538,"lon":139.86776791},{"name":"松江西","province":"東京都","city":"江戸川区","address":"東京都江戸川区松江1丁目1-1","lat":35.69857377,"lon":139.86812381},{"name":"江戸川区役所前","province":"東京都","city":"江戸川区","address":"東京都江戸川区中央1丁目3-7","lat":35.70626449,"lon":139.86799296},{"name":"平井駅出口","province":"東京都","city":"江戸川区","address":"東京都江戸川区平井5丁目17-5","lat":35.70734687,"lon":139.84092033},{"name":"今井橋","province":"東京都","city":"江戸川区","address":"東京都江戸川区江戸川4丁目4","lat":35.68198045,"lon":139.88870854},{"name":"瑞江大橋西詰","province":"東京都","city":"江戸川区","address":"東京都江戸川区一之江8丁目18-14","lat":35.68547148,"lon":139.88430872},{"name":"環七一之江陸橋下","province":"東京都","city":"江戸川区","address":"東京都江戸川区一之江4丁目1-22","lat":35.68773221,"lon":139.88240325},{"name":"瑞江大橋","province":"東京都","city":"江戸川区","address":"東京都江戸川区西瑞江4丁目1-1","lat":35.68521045,"lon":139.8850559},{"name":"瑞江駅前","province":"東京都","city":"江戸川区","address":"東京都江戸川区瑞江2丁目3-1","lat":35.69285544,"lon":139.89814055},{"name":"平井駅北口第二","province":"東京都","city":"江戸川区","address":"東京都江戸川区平井5丁目23-1","lat":35.70704133,"lon":139.84262855},{"name":"平井駅南口","province":"東京都","city":"江戸川区","address":"東京都江戸川区平井4丁目11-6","lat":35.7063386,"lon":139.84345076},{"name":"平井駅南口第二","province":"東京都","city":"江戸川区","address":"東京都江戸川区平井4丁目10-4","lat":35.70595251,"lon":139.8441285},{"name":"環七一之江三丁目","province":"東京都","city":"江戸川区","address":"東京都江戸川区一之江4丁目14","lat":35.69097915,"lon":139.88233366},{"name":"柴又新道口","province":"東京都","city":"江戸川区","address":"東京都江戸川区北小岩2丁目1-17","lat":35.73635886,"lon":139.88481789},{"name":"菅原橋","province":"東京都","city":"江戸川区","address":"東京都江戸川区本一色2丁目1-9","lat":35.71608067,"lon":139.8739057},{"name":"篠崎コミュニティ会館入口","province":"東京都","city":"江戸川区","address":"東京都江戸川区上篠崎4丁目19","lat":35.70914768,"lon":139.90088687},{"name":"六軒島第二","province":"東京都","city":"江戸川区","address":"東京都江戸川区西小岩2丁目20-16","lat":35.73411472,"lon":139.87790459},{"name":"船堀小学校前","province":"東京都","city":"江戸川区","address":"東京都江戸川区船堀2丁目22-22","lat":35.68271987,"lon":139.86232762},{"name":"江戸川五丁目","province":"東京都","city":"江戸川区","address":"東京都江戸川区江戸川5丁目22","lat":35.67398887,"lon":139.88162334},{"name":"船堀駅","province":"東京都","city":"江戸川区","address":"東京都江戸川区船堀1丁目6-11","lat":35.68483914,"lon":139.86387187},{"name":"新船堀大橋東詰","province":"東京都","city":"江戸川区","address":"東京都江戸川区船堀1丁目4-13","lat":35.68619736,"lon":139.86473009},{"name":"中葛西二丁目","province":"東京都","city":"江戸川区","address":"東京都江戸川区中葛西2丁目16-6","lat":35.67234696,"lon":139.87588779},{"name":"新田通り宇喜田町","province":"東京都","city":"江戸川区","address":"東京都江戸川区西葛西5丁目8-14","lat":35.66810781,"lon":139.8610059},{"name":"第四葛西小学校前","province":"東京都","city":"江戸川区","address":"東京都江戸川区中葛西8丁目9-5","lat":35.65952589,"lon":139.87046094},{"name":"西葛西六丁目","province":"東京都","city":"江戸川区","address":"東京都江戸川区西葛西6丁目28-14","lat":35.66195034,"lon":139.86385307},{"name":"西葛西六丁目第三","province":"東京都","city":"江戸川区","address":"東京都江戸川区西葛西6丁目12-1","lat":35.66269451,"lon":139.85903403},{"name":"西葛西駅北","province":"東京都","city":"江戸川区","address":"東京都江戸川区西葛西5丁目1-1","lat":35.66529419,"lon":139.85911727},{"name":"葛西駅前第二","province":"東京都","city":"江戸川区","address":"東京都江戸川区中葛西5丁目42-8","lat":35.66278395,"lon":139.87273838},{"name":"中葛西三丁目","province":"東京都","city":"江戸川区","address":"東京都江戸川区中葛西3丁目36-8","lat":35.66543088,"lon":139.87287995},{"name":"葛西駅前","province":"東京都","city":"江戸川区","address":"東京都江戸川区中葛西3丁目37-16","lat":35.66394771,"lon":139.87279389},{"name":"なぎさ団地前","province":"東京都","city":"江戸川区","address":"東京都江戸川区南葛西6丁目15","lat":35.64704146,"lon":139.87910524},{"name":"レクリエーション公園","province":"東京都","city":"江戸川区","address":"東京都江戸川区南葛西3丁目23","lat":35.65069078,"lon":139.87071689},{"name":"葛西中学校北","province":"東京都","city":"江戸川区","address":"東京都江戸川区中葛西1丁目42-19","lat":35.67294659,"lon":139.87170481},{"name":"西葛西児童遊園前","province":"東京都","city":"江戸川区","address":"東京都江戸川区西葛西6丁目11","lat":35.66281668,"lon":139.85787023},{"name":"船堀駅前","province":"東京都","city":"江戸川区","address":"東京都江戸川区船堀3丁目6","lat":35.68362821,"lon":139.86435796},{"name":"清新第一小学校東","province":"東京都","city":"江戸川区","address":"東京都江戸川区清新町1丁目3-6","lat":35.66189452,"lon":139.85587597},{"name":"都住船堀四丁目東","province":"東京都","city":"江戸川区","address":"東京都江戸川区松江5丁目19-1","lat":35.68547268,"lon":139.86795478},{"name":"葛西臨海公園駅東","province":"東京都","city":"江戸川区","address":"東京都江戸川区臨海町6丁目3-8","lat":35.6430054,"lon":139.86559541},{"name":"葛西第七小学校前","province":"東京都","city":"江戸川区","address":"東京都江戸川区西葛西7丁目2","lat":35.66149462,"lon":139.85758696},{"name":"環七東葛西七丁目","province":"東京都","city":"江戸川区","address":"東京都江戸川区東葛西7丁目2-5","lat":35.65992597,"lon":139.873369},{"name":"葛西臨海水族園","province":"東京都","city":"江戸川区","address":"江戸川区臨海町6-2-3","lat":35.6400947,"lon":139.8621658},{"name":"西瑞江給水所","province":"東京都","city":"江戸川区","address":"東京都江戸川区東瑞江1丁目26-2","lat":35.69135275,"lon":139.89810175},{"name":"葛西給水所","province":"東京都","city":"江戸川区","address":"東京都江戸川区北葛西3丁目9","lat":35.67359591,"lon":139.85917535},{"name":"都立篠崎公園","province":"東京都","city":"江戸川区","address":"東京都江戸川区上篠崎1丁目25","lat":35.7146518,"lon":139.89798133},{"name":"区立宇喜田中央公園","province":"東京都","city":"江戸川区","address":"東京都江戸川区北葛西4丁目15","lat":35.67038268,"lon":139.86439164},{"name":"区立小岩公園","province":"東京都","city":"江戸川区","address":"東京都江戸川区北小岩6丁目43","lat":35.74601851,"lon":139.8865981},{"name":"都立大島小松川公園","province":"東京都","city":"江戸川区","address":"東京都江戸川区小松川1丁目7","lat":35.69216816,"lon":139.85200056},{"name":"都立葛西南高等学校","province":"東京都","city":"江戸川区","address":"東京都江戸川区南葛西1丁目11-1","lat":35.65367379,"lon":139.87079175},{"name":"西瑞江給水所（注５）","province":"東京都","city":"江戸川区","address":"東京都江戸川区東瑞江1丁目26-2","lat":35.69135275,"lon":139.89810175},{"name":"上篠崎","province":"東京都","city":"江戸川区","address":"東京都江戸川区上篠崎2丁目27","lat":35.71283558,"lon":139.90618361},{"name":"葛西臨海公園","province":"東京都","city":"江戸川区","address":"東京都江戸川区臨海町6丁目","lat":35.6462852,"lon":139.85139641},{"name":"一之江橋","province":"東京都","city":"江戸川区","address":"東京都江戸川区新堀1丁目1","lat":35.70258678,"lon":139.88574945},{"name":"小松川","province":"東京都","city":"江戸川区","address":"東京都江戸川区小松川1丁目","lat":35.68984346,"lon":139.84946741},{"name":"新今井橋","province":"東京都","city":"江戸川区","address":"東京都江戸川区江戸川4丁目","lat":35.68234427,"lon":139.88820301},{"name":"平井","province":"東京都","city":"江戸川区","address":"東京都江戸川区平井6丁目71","lat":35.71365739,"lon":139.84385591},{"name":"なぎさ公園","province":"東京都","city":"江戸川区","address":"東京都江戸川区南葛西7丁目3","lat":35.64875249,"lon":139.88177994},{"name":"今井交通公園","province":"東京都","city":"江戸川区","address":"東京都江戸川区中葛西4丁目9","lat":35.66799142,"lon":139.86705815},{"name":"スポーツランド","province":"東京都","city":"江戸川区","address":"東京都江戸川区東篠崎1丁目8","lat":35.69783207,"lon":139.91731117},{"name":"ポニーランド","province":"東京都","city":"江戸川区","address":"東京都江戸川区南篠崎町3丁目23","lat":35.69480527,"lon":139.90019585},{"name":"篠崎公園","province":"東京都","city":"江戸川区","address":"東京都江戸川区上篠崎1丁目25","lat":35.7146518,"lon":139.89798133},{"name":"小岩菖蒲園","province":"東京都","city":"江戸川区","address":"東京都江戸川区北小岩4丁目37","lat":35.73856957,"lon":139.89622538},{"name":"葛西警察署","province":"東京都","city":"江戸川区","address":"江戸川区東葛西6-39-1","lat":35.6615,"lon":139.8796},{"name":"小岩警察署","province":"東京都","city":"江戸川区","address":"江戸川区東小岩6-9-17","lat":35.73386,"lon":139.8876},{"name":"小松川警察署","province":"東京都","city":"江戸川区","address":"江戸川区松島1-19-22","lat":35.70257,"lon":139.8638},{"name":"江戸川消防署","province":"東京都","city":"江戸川区","address":"江戸川区中央2-9-13","lat":35.70607,"lon":139.8725},{"name":"葛西消防署","province":"東京都","city":"江戸川区","address":"江戸川区中葛西1-29-1","lat":35.66946,"lon":139.8693},{"name":"小岩消防署","province":"東京都","city":"江戸川区","address":"江戸川区鹿骨2-42-11","lat":35.70864,"lon":139.8949},{"name":"アルフレッサ（株）江戸川医薬品センター","province":"東京都","city":"江戸川区","address":"江戸川区平井7-5-32","lat":35.71645,"lon":139.8356},{"name":"上篠崎","province":"東京都","city":"江戸川区","address":"東京都江戸川区上篠崎2丁目27","lat":35.71283558,"lon":139.90618361},{"name":"一之江橋","province":"東京都","city":"江戸川区","address":"東京都江戸川区新堀1丁目1","lat":35.70258678,"lon":139.88574945},{"name":"平井","province":"東京都","city":"江戸川区","address":"東京都江戸川区平井6丁目71","lat":35.71365739,"lon":139.84385591},{"name":"なぎさ公園","province":"東京都","city":"江戸川区","address":"東京都江戸川区南葛西7丁目3","lat":35.64875249,"lon":139.88177994},{"name":"今井交通公園","province":"東京都","city":"江戸川区","address":"東京都江戸川区中葛西4丁目9","lat":35.66799142,"lon":139.86705815},{"name":"スポーツランド","province":"東京都","city":"江戸川区","address":"東京都江戸川区東篠崎1丁目8","lat":35.69783207,"lon":139.91731117},{"name":"ポニーランド","province":"東京都","city":"江戸川区","address":"東京都江戸川区篠崎町3丁目23","lat":35.70440913,"lon":139.91392782},{"name":"篠崎公園","province":"東京都","city":"江戸川区","address":"東京都江戸川区上篠崎1丁目25","lat":35.7146518,"lon":139.89798133},{"name":"小岩菖蒲園","province":"東京都","city":"江戸川区","address":"東京都江戸川区北小岩4丁目37","lat":35.73856957,"lon":139.89622538},{"name":"小松川橋西詰","province":"東京都","city":"江戸川区","address":"東京都江戸川区小松川4丁目52-3","lat":35.69975868,"lon":139.85051171},{"name":"八蔵橋","province":"東京都","city":"江戸川区","address":"東京都江戸川区中央1丁目6-3","lat":35.70827538,"lon":139.86776791},{"name":"松江西","province":"東京都","city":"江戸川区","address":"東京都江戸川区松江1丁目1-1","lat":35.69857377,"lon":139.86812381},{"name":"江戸川区役所前","province":"東京都","city":"江戸川区","address":"東京都江戸川区中央1丁目3-7","lat":35.70626449,"lon":139.86799296},{"name":"平井駅出口","province":"東京都","city":"江戸川区","address":"東京都江戸川区平井5丁目17-5","lat":35.70734687,"lon":139.84092033},{"name":"今井橋","province":"東京都","city":"江戸川区","address":"東京都江戸川区江戸川4丁目4","lat":35.68198045,"lon":139.88870854},{"name":"瑞江大橋西詰","province":"東京都","city":"江戸川区","address":"東京都江戸川区一之江8丁目18-14","lat":35.68547148,"lon":139.88430872},{"name":"環七一之江陸橋下","province":"東京都","city":"江戸川区","address":"東京都江戸川区一之江4丁目1-22","lat":35.68773221,"lon":139.88240325},{"name":"瑞江大橋","province":"東京都","city":"江戸川区","address":"東京都江戸川区西瑞江4丁目1-1","lat":35.68521045,"lon":139.8850559},{"name":"瑞江駅前","province":"東京都","city":"江戸川区","address":"東京都江戸川区瑞江2丁目3-1","lat":35.69285544,"lon":139.89814055},{"name":"平井駅北口第二","province":"東京都","city":"江戸川区","address":"東京都江戸川区平井5丁目23-1","lat":35.70704133,"lon":139.84262855},{"name":"平井駅南口","province":"東京都","city":"江戸川区","address":"東京都江戸川区平井4丁目11-6","lat":35.7063386,"lon":139.84345076},{"name":"平井駅南口第二","province":"東京都","city":"江戸川区","address":"東京都江戸川区平井4丁目10-4","lat":35.70595251,"lon":139.8441285},{"name":"環七一之江三丁目","province":"東京都","city":"江戸川区","address":"東京都江戸川区一之江4丁目14","lat":35.69097915,"lon":139.88233366},{"name":"柴又新道口","province":"東京都","city":"江戸川区","address":"東京都江戸川区北小岩2丁目1-17","lat":35.73635886,"lon":139.88481789},{"name":"菅原橋","province":"東京都","city":"江戸川区","address":"東京都江戸川区本一色2丁目1-9","lat":35.71608067,"lon":139.8739057},{"name":"篠崎コミュニティ会館入口","province":"東京都","city":"江戸川区","address":"東京都江戸川区上篠崎4丁目19","lat":35.70914768,"lon":139.90088687},{"name":"六軒島第二","province":"東京都","city":"江戸川区","address":"東京都江戸川区西小岩2丁目20-16","lat":35.73411472,"lon":139.87790459},{"name":"船堀小学校前","province":"東京都","city":"江戸川区","address":"東京都江戸川区船堀2丁目22-22","lat":35.68271987,"lon":139.86232762},{"name":"江戸川五丁目","province":"東京都","city":"江戸川区","address":"東京都江戸川区江戸川5丁目22","lat":35.67398887,"lon":139.88162334},{"name":"船堀駅","province":"東京都","city":"江戸川区","address":"東京都江戸川区船堀1丁目6-11","lat":35.68483914,"lon":139.86387187},{"name":"新船堀大橋東詰","province":"東京都","city":"江戸川区","address":"東京都江戸川区船堀1丁目4-13","lat":35.68619736,"lon":139.86473009},{"name":"中葛西二丁目","province":"東京都","city":"江戸川区","address":"東京都江戸川区中葛西2丁目16-6","lat":35.67234696,"lon":139.87588779},{"name":"新田通り宇喜田町","province":"東京都","city":"江戸川区","address":"東京都江戸川区西葛西5丁目8-14","lat":35.66810781,"lon":139.8610059},{"name":"第四葛西小学校前","province":"東京都","city":"江戸川区","address":"東京都江戸川区中葛西8丁目9-5","lat":35.65952589,"lon":139.87046094},{"name":"西葛西六丁目","province":"東京都","city":"江戸川区","address":"東京都江戸川区西葛西6丁目28-14","lat":35.66195034,"lon":139.86385307},{"name":"西葛西六丁目第三","province":"東京都","city":"江戸川区","address":"東京都江戸川区西葛西6丁目12-1","lat":35.66269451,"lon":139.85903403},{"name":"西葛西駅北","province":"東京都","city":"江戸川区","address":"東京都江戸川区西葛西5丁目1-1","lat":35.66529419,"lon":139.85911727},{"name":"葛西駅前第二","province":"東京都","city":"江戸川区","address":"東京都江戸川区中葛西5丁目42-8","lat":35.66278395,"lon":139.87273838},{"name":"中葛西三丁目","province":"東京都","city":"江戸川区","address":"東京都江戸川区中葛西3丁目36-8","lat":35.66543088,"lon":139.87287995},{"name":"葛西駅前","province":"東京都","city":"江戸川区","address":"東京都江戸川区中葛西3丁目37-16","lat":35.66394771,"lon":139.87279389},{"name":"なぎさ団地前","province":"東京都","city":"江戸川区","address":"東京都江戸川区南葛西6丁目15","lat":35.64704146,"lon":139.87910524},{"name":"レクリエーション公園","province":"東京都","city":"江戸川区","address":"東京都江戸川区南葛西3丁目23","lat":35.65069078,"lon":139.87071689},{"name":"葛西中学校北","province":"東京都","city":"江戸川区","address":"東京都江戸川区中葛西1丁目42-19","lat":35.67294659,"lon":139.87170481},{"name":"西葛西児童遊園前","province":"東京都","city":"江戸川区","address":"東京都江戸川区西葛西6丁目11","lat":35.66281668,"lon":139.85787023},{"name":"船堀駅前","province":"東京都","city":"江戸川区","address":"東京都江戸川区船堀3丁目6","lat":35.68362821,"lon":139.86435796},{"name":"清新第一小学校東","province":"東京都","city":"江戸川区","address":"東京都江戸川区清新町1丁目3-6","lat":35.66189452,"lon":139.85587597},{"name":"都住船堀四丁目東","province":"東京都","city":"江戸川区","address":"東京都江戸川区松江5丁目19-1","lat":35.68547268,"lon":139.86795478},{"name":"葛西臨海公園駅東","province":"東京都","city":"江戸川区","address":"東京都江戸川区臨海町6丁目3-8","lat":35.6430054,"lon":139.86559541},{"name":"葛西第七小学校前","province":"東京都","city":"江戸川区","address":"東京都江戸川区西葛西7丁目2","lat":35.66149462,"lon":139.85758696},{"name":"環七東葛西七丁目","province":"東京都","city":"江戸川区","address":"東京都江戸川区東葛西7丁目2-5","lat":35.65992597,"lon":139.873369},{"name":"葛西臨海水族園","province":"東京都","city":"江戸川区","address":"江戸川区臨海町6-2-3","lat":35.6400947,"lon":139.8621658},{"name":"西瑞江給水所","province":"東京都","city":"江戸川区","address":"東京都江戸川区東瑞江1丁目26-2","lat":35.69135275,"lon":139.89810175},{"name":"葛西給水所","province":"東京都","city":"江戸川区","address":"東京都江戸川区北葛西3丁目9","lat":35.67359591,"lon":139.85917535},{"name":"都立篠崎公園","province":"東京都","city":"江戸川区","address":"東京都江戸川区上篠崎1丁目25","lat":35.7146518,"lon":139.89798133},{"name":"区立宇喜田中央公園","province":"東京都","city":"江戸川区","address":"東京都江戸川区北葛西4丁目15","lat":35.67038268,"lon":139.86439164},{"name":"区立小岩公園","province":"東京都","city":"江戸川区","address":"東京都江戸川区北小岩6丁目43","lat":35.74601851,"lon":139.8865981},{"name":"都立大島小松川公園","province":"東京都","city":"江戸川区","address":"東京都江戸川区小松川1丁目7","lat":35.69216816,"lon":139.85200056},{"name":"都立葛西南高等学校","province":"東京都","city":"江戸川区","address":"東京都江戸川区南葛西1丁目11-1","lat":35.65367379,"lon":139.87079175},{"name":"西瑞江給水所（注５）","province":"東京都","city":"江戸川区","address":"東京都江戸川区東瑞江1丁目26-2","lat":35.69135275,"lon":139.89810175},{"name":"上篠崎","province":"東京都","city":"江戸川区","address":"東京都江戸川区上篠崎2丁目27","lat":35.71283558,"lon":139.90618361},{"name":"葛西臨海公園","province":"東京都","city":"江戸川区","address":"東京都江戸川区臨海町6丁目","lat":35.6462852,"lon":139.85139641},{"name":"一之江橋","province":"東京都","city":"江戸川区","address":"東京都江戸川区新堀1丁目1","lat":35.70258678,"lon":139.88574945},{"name":"小松川","province":"東京都","city":"江戸川区","address":"東京都江戸川区小松川1丁目","lat":35.68984346,"lon":139.84946741},{"name":"新今井橋","province":"東京都","city":"江戸川区","address":"東京都江戸川区江戸川4丁目","lat":35.68234427,"lon":139.88820301},{"name":"平井","province":"東京都","city":"江戸川区","address":"東京都江戸川区平井6丁目71","lat":35.71365739,"lon":139.84385591},{"name":"なぎさ公園","province":"東京都","city":"江戸川区","address":"東京都江戸川区南葛西7丁目3","lat":35.64875249,"lon":139.88177994},{"name":"今井交通公園","province":"東京都","city":"江戸川区","address":"東京都江戸川区中葛西4丁目9","lat":35.66799142,"lon":139.86705815},{"name":"スポーツランド","province":"東京都","city":"江戸川区","address":"東京都江戸川区東篠崎1丁目8","lat":35.69783207,"lon":139.91731117},{"name":"ポニーランド","province":"東京都","city":"江戸川区","address":"東京都江戸川区南篠崎町3丁目23","lat":35.69480527,"lon":139.90019585},{"name":"篠崎公園","province":"東京都","city":"江戸川区","address":"東京都江戸川区上篠崎1丁目25","lat":35.7146518,"lon":139.89798133},{"name":"小岩菖蒲園","province":"東京都","city":"江戸川区","address":"東京都江戸川区北小岩4丁目37","lat":35.73856957,"lon":139.89622538},{"name":"葛西警察署","province":"東京都","city":"江戸川区","address":"江戸川区東葛西6-39-1","lat":35.6615,"lon":139.8796},{"name":"小岩警察署","province":"東京都","city":"江戸川区","address":"江戸川区東小岩6-9-17","lat":35.73386,"lon":139.8876},{"name":"小松川警察署","province":"東京都","city":"江戸川区","address":"江戸川区松島1-19-22","lat":35.70257,"lon":139.8638},{"name":"江戸川消防署","province":"東京都","city":"江戸川区","address":"江戸川区中央2-9-13","lat":35.70607,"lon":139.8725},{"name":"葛西消防署","province":"東京都","city":"江戸川区","address":"江戸川区中葛西1-29-1","lat":35.66946,"lon":139.8693},{"name":"小岩消防署","province":"東京都","city":"江戸川区","address":"江戸川区鹿骨2-42-11","lat":35.70864,"lon":139.8949},{"name":"アルフレッサ（株）江戸川医薬品センター","province":"東京都","city":"江戸川区","address":"江戸川区平井7-5-32","lat":35.71645,"lon":139.8356},{"name":"上篠崎","province":"東京都","city":"江戸川区","address":"東京都江戸川区上篠崎2丁目27","lat":35.71283558,"lon":139.90618361},{"name":"一之江橋","province":"東京都","city":"江戸川区","address":"東京都江戸川区新堀1丁目1","lat":35.70258678,"lon":139.88574945},{"name":"平井","province":"東京都","city":"江戸川区","address":"東京都江戸川区平井6丁目71","lat":35.71365739,"lon":139.84385591},{"name":"なぎさ公園","province":"東京都","city":"江戸川区","address":"東京都江戸川区南葛西7丁目3","lat":35.64875249,"lon":139.88177994},{"name":"今井交通公園","province":"東京都","city":"江戸川区","address":"東京都江戸川区中葛西4丁目9","lat":35.66799142,"lon":139.86705815},{"name":"スポーツランド","province":"東京都","city":"江戸川区","address":"東京都江戸川区東篠崎1丁目8","lat":35.69783207,"lon":139.91731117},{"name":"ポニーランド","province":"東京都","city":"江戸川区","address":"東京都江戸川区篠崎町3丁目23","lat":35.70440913,"lon":139.91392782},{"name":"篠崎公園","province":"東京都","city":"江戸川区","address":"東京都江戸川区上篠崎1丁目25","lat":35.7146518,"lon":139.89798133},{"name":"小岩菖蒲園","province":"東京都","city":"江戸川区","address":"東京都江戸川区北小岩4丁目37","lat":35.73856957,"lon":139.89622538},{"name":"小松川橋西詰","province":"東京都","city":"江戸川区","address":"東京都江戸川区小松川4丁目52-3","lat":35.69975868,"lon":139.85051171},{"name":"八蔵橋","province":"東京都","city":"江戸川区","address":"東京都江戸川区中央1丁目6-3","lat":35.70827538,"lon":139.86776791},{"name":"松江西","province":"東京都","city":"江戸川区","address":"東京都江戸川区松江1丁目1-1","lat":35.69857377,"lon":139.86812381},{"name":"江戸川区役所前","province":"東京都","city":"江戸川区","address":"東京都江戸川区中央1丁目3-7","lat":35.70626449,"lon":139.86799296},{"name":"平井駅出口","province":"東京都","city":"江戸川区","address":"東京都江戸川区平井5丁目17-5","lat":35.70734687,"lon":139.84092033},{"name":"今井橋","province":"東京都","city":"江戸川区","address":"東京都江戸川区江戸川4丁目4","lat":35.68198045,"lon":139.88870854},{"name":"瑞江大橋西詰","province":"東京都","city":"江戸川区","address":"東京都江戸川区一之江8丁目18-14","lat":35.68547148,"lon":139.88430872},{"name":"環七一之江陸橋下","province":"東京都","city":"江戸川区","address":"東京都江戸川区一之江4丁目1-22","lat":35.68773221,"lon":139.88240325},{"name":"瑞江大橋","province":"東京都","city":"江戸川区","address":"東京都江戸川区西瑞江4丁目1-1","lat":35.68521045,"lon":139.8850559},{"name":"瑞江駅前","province":"東京都","city":"江戸川区","address":"東京都江戸川区瑞江2丁目3-1","lat":35.69285544,"lon":139.89814055},{"name":"平井駅北口第二","province":"東京都","city":"江戸川区","address":"東京都江戸川区平井5丁目23-1","lat":35.70704133,"lon":139.84262855},{"name":"平井駅南口","province":"東京都","city":"江戸川区","address":"東京都江戸川区平井4丁目11-6","lat":35.7063386,"lon":139.84345076},{"name":"平井駅南口第二","province":"東京都","city":"江戸川区","address":"東京都江戸川区平井4丁目10-4","lat":35.70595251,"lon":139.8441285},{"name":"環七一之江三丁目","province":"東京都","city":"江戸川区","address":"東京都江戸川区一之江4丁目14","lat":35.69097915,"lon":139.88233366},{"name":"柴又新道口","province":"東京都","city":"江戸川区","address":"東京都江戸川区北小岩2丁目1-17","lat":35.73635886,"lon":139.88481789},{"name":"菅原橋","province":"東京都","city":"江戸川区","address":"東京都江戸川区本一色2丁目1-9","lat":35.71608067,"lon":139.8739057},{"name":"篠崎コミュニティ会館入口","province":"東京都","city":"江戸川区","address":"東京都江戸川区上篠崎4丁目19","lat":35.70914768,"lon":139.90088687},{"name":"六軒島第二","province":"東京都","city":"江戸川区","address":"東京都江戸川区西小岩2丁目20-16","lat":35.73411472,"lon":139.87790459},{"name":"船堀小学校前","province":"東京都","city":"江戸川区","address":"東京都江戸川区船堀2丁目22-22","lat":35.68271987,"lon":139.86232762},{"name":"江戸川五丁目","province":"東京都","city":"江戸川区","address":"東京都江戸川区江戸川5丁目22","lat":35.67398887,"lon":139.88162334},{"name":"船堀駅","province":"東京都","city":"江戸川区","address":"東京都江戸川区船堀1丁目6-11","lat":35.68483914,"lon":139.86387187},{"name":"新船堀大橋東詰","province":"東京都","city":"江戸川区","address":"東京都江戸川区船堀1丁目4-13","lat":35.68619736,"lon":139.86473009},{"name":"中葛西二丁目","province":"東京都","city":"江戸川区","address":"東京都江戸川区中葛西2丁目16-6","lat":35.67234696,"lon":139.87588779},{"name":"新田通り宇喜田町","province":"東京都","city":"江戸川区","address":"東京都江戸川区西葛西5丁目8-14","lat":35.66810781,"lon":139.8610059},{"name":"第四葛西小学校前","province":"東京都","city":"江戸川区","address":"東京都江戸川区中葛西8丁目9-5","lat":35.65952589,"lon":139.87046094},{"name":"西葛西六丁目","province":"東京都","city":"江戸川区","address":"東京都江戸川区西葛西6丁目28-14","lat":35.66195034,"lon":139.86385307},{"name":"西葛西六丁目第三","province":"東京都","city":"江戸川区","address":"東京都江戸川区西葛西6丁目12-1","lat":35.66269451,"lon":139.85903403},{"name":"西葛西駅北","province":"東京都","city":"江戸川区","address":"東京都江戸川区西葛西5丁目1-1","lat":35.66529419,"lon":139.85911727},{"name":"葛西駅前第二","province":"東京都","city":"江戸川区","address":"東京都江戸川区中葛西5丁目42-8","lat":35.66278395,"lon":139.87273838},{"name":"中葛西三丁目","province":"東京都","city":"江戸川区","address":"東京都江戸川区中葛西3丁目36-8","lat":35.66543088,"lon":139.87287995},{"name":"葛西駅前","province":"東京都","city":"江戸川区","address":"東京都江戸川区中葛西3丁目37-16","lat":35.66394771,"lon":139.87279389},{"name":"なぎさ団地前","province":"東京都","city":"江戸川区","address":"東京都江戸川区南葛西6丁目15","lat":35.64704146,"lon":139.87910524},{"name":"レクリエーション公園","province":"東京都","city":"江戸川区","address":"東京都江戸川区南葛西3丁目23","lat":35.65069078,"lon":139.87071689},{"name":"葛西中学校北","province":"東京都","city":"江戸川区","address":"東京都江戸川区中葛西1丁目42-19","lat":35.67294659,"lon":139.87170481},{"name":"西葛西児童遊園前","province":"東京都","city":"江戸川区","address":"東京都江戸川区西葛西6丁目11","lat":35.66281668,"lon":139.85787023},{"name":"船堀駅前","province":"東京都","city":"江戸川区","address":"東京都江戸川区船堀3丁目6","lat":35.68362821,"lon":139.86435796},{"name":"清新第一小学校東","province":"東京都","city":"江戸川区","address":"東京都江戸川区清新町1丁目3-6","lat":35.66189452,"lon":139.85587597},{"name":"都住船堀四丁目東","province":"東京都","city":"江戸川区","address":"東京都江戸川区松江5丁目19-1","lat":35.68547268,"lon":139.86795478},{"name":"葛西臨海公園駅東","province":"東京都","city":"江戸川区","address":"東京都江戸川区臨海町6丁目3-8","lat":35.6430054,"lon":139.86559541},{"name":"葛西第七小学校前","province":"東京都","city":"江戸川区","address":"東京都江戸川区西葛西7丁目2","lat":35.66149462,"lon":139.85758696},{"name":"環七東葛西七丁目","province":"東京都","city":"江戸川区","address":"東京都江戸川区東葛西7丁目2-5","lat":35.65992597,"lon":139.873369},{"name":"葛西臨海水族園","province":"東京都","city":"江戸川区","address":"江戸川区臨海町6-2-3","lat":35.6400947,"lon":139.8621658},{"name":"西瑞江給水所","province":"東京都","city":"江戸川区","address":"東京都江戸川区東瑞江1丁目26-2","lat":35.69135275,"lon":139.89810175},{"name":"葛西給水所","province":"東京都","city":"江戸川区","address":"東京都江戸川区北葛西3丁目9","lat":35.67359591,"lon":139.85917535},{"name":"都立篠崎公園","province":"東京都","city":"江戸川区","address":"東京都江戸川区上篠崎1丁目25","lat":35.7146518,"lon":139.89798133},{"name":"区立宇喜田中央公園","province":"東京都","city":"江戸川区","address":"東京都江戸川区北葛西4丁目15","lat":35.67038268,"lon":139.86439164},{"name":"区立小岩公園","province":"東京都","city":"江戸川区","address":"東京都江戸川区北小岩6丁目43","lat":35.74601851,"lon":139.8865981},{"name":"都立大島小松川公園","province":"東京都","city":"江戸川区","address":"東京都江戸川区小松川1丁目7","lat":35.69216816,"lon":139.85200056},{"name":"都立葛西南高等学校","province":"東京都","city":"江戸川区","address":"東京都江戸川区南葛西1丁目11-1","lat":35.65367379,"lon":139.87079175},{"name":"西瑞江給水所（注５）","province":"東京都","city":"江戸川区","address":"東京都江戸川区東瑞江1丁目26-2","lat":35.69135275,"lon":139.89810175},{"name":"上篠崎","province":"東京都","city":"江戸川区","address":"東京都江戸川区上篠崎2丁目27","lat":35.71283558,"lon":139.90618361},{"name":"葛西臨海公園","province":"東京都","city":"江戸川区","address":"東京都江戸川区臨海町6丁目","lat":35.6462852,"lon":139.85139641},{"name":"一之江橋","province":"東京都","city":"江戸川区","address":"東京都江戸川区新堀1丁目1","lat":35.70258678,"lon":139.88574945},{"name":"小松川","province":"東京都","city":"江戸川区","address":"東京都江戸川区小松川1丁目","lat":35.68984346,"lon":139.84946741},{"name":"新今井橋","province":"東京都","city":"江戸川区","address":"東京都江戸川区江戸川4丁目","lat":35.68234427,"lon":139.88820301},{"name":"平井","province":"東京都","city":"江戸川区","address":"東京都江戸川区平井6丁目71","lat":35.71365739,"lon":139.84385591},{"name":"なぎさ公園","province":"東京都","city":"江戸川区","address":"東京都江戸川区南葛西7丁目3","lat":35.64875249,"lon":139.88177994},{"name":"今井交通公園","province":"東京都","city":"江戸川区","address":"東京都江戸川区中葛西4丁目9","lat":35.66799142,"lon":139.86705815},{"name":"スポーツランド","province":"東京都","city":"江戸川区","address":"東京都江戸川区東篠崎1丁目8","lat":35.69783207,"lon":139.91731117},{"name":"ポニーランド","province":"東京都","city":"江戸川区","address":"東京都江戸川区南篠崎町3丁目23","lat":35.69480527,"lon":139.90019585},{"name":"篠崎公園","province":"東京都","city":"江戸川区","address":"東京都江戸川区上篠崎1丁目25","lat":35.7146518,"lon":139.89798133},{"name":"小岩菖蒲園","province":"東京都","city":"江戸川区","address":"東京都江戸川区北小岩4丁目37","lat":35.73856957,"lon":139.89622538},{"name":"葛西警察署","province":"東京都","city":"江戸川区","address":"江戸川区東葛西6-39-1","lat":35.6615,"lon":139.8796},{"name":"小岩警察署","province":"東京都","city":"江戸川区","address":"江戸川区東小岩6-9-17","lat":35.73386,"lon":139.8876},{"name":"小松川警察署","province":"東京都","city":"江戸川区","address":"江戸川区松島1-19-22","lat":35.70257,"lon":139.8638},{"name":"江戸川消防署","province":"東京都","city":"江戸川区","address":"江戸川区中央2-9-13","lat":35.70607,"lon":139.8725},{"name":"葛西消防署","province":"東京都","city":"江戸川区","address":"江戸川区中葛西1-29-1","lat":35.66946,"lon":139.8693},{"name":"小岩消防署","province":"東京都","city":"江戸川区","address":"江戸川区鹿骨2-42-11","lat":35.70864,"lon":139.8949},{"name":"アルフレッサ（株）江戸川医薬品センター","province":"東京都","city":"江戸川区","address":"江戸川区平井7-5-32","lat":35.71645,"lon":139.8356},{"name":"上篠崎","province":"東京都","city":"江戸川区","address":"東京都江戸川区上篠崎2丁目27","lat":35.71283558,"lon":139.90618361},{"name":"一之江橋","province":"東京都","city":"江戸川区","address":"東京都江戸川区新堀1丁目1","lat":35.70258678,"lon":139.88574945},{"name":"平井","province":"東京都","city":"江戸川区","address":"東京都江戸川区平井6丁目71","lat":35.71365739,"lon":139.84385591},{"name":"なぎさ公園","province":"東京都","city":"江戸川区","address":"東京都江戸川区南葛西7丁目3","lat":35.64875249,"lon":139.88177994},{"name":"今井交通公園","province":"東京都","city":"江戸川区","address":"東京都江戸川区中葛西4丁目9","lat":35.66799142,"lon":139.86705815},{"name":"スポーツランド","province":"東京都","city":"江戸川区","address":"東京都江戸川区東篠崎1丁目8","lat":35.69783207,"lon":139.91731117},{"name":"ポニーランド","province":"東京都","city":"江戸川区","address":"東京都江戸川区篠崎町3丁目23","lat":35.70440913,"lon":139.91392782},{"name":"篠崎公園","province":"東京都","city":"江戸川区","address":"東京都江戸川区上篠崎1丁目25","lat":35.7146518,"lon":139.89798133},{"name":"小岩菖蒲園","province":"東京都","city":"江戸川区","address":"東京都江戸川区北小岩4丁目37","lat":35.73856957,"lon":139.89622538},{"name":"小松川橋西詰","province":"東京都","city":"江戸川区","address":"東京都江戸川区小松川4丁目52-3","lat":35.69975868,"lon":139.85051171},{"name":"八蔵橋","province":"東京都","city":"江戸川区","address":"東京都江戸川区中央1丁目6-3","lat":35.70827538,"lon":139.86776791},{"name":"松江西","province":"東京都","city":"江戸川区","address":"東京都江戸川区松江1丁目1-1","lat":35.69857377,"lon":139.86812381},{"name":"江戸川区役所前","province":"東京都","city":"江戸川区","address":"東京都江戸川区中央1丁目3-7","lat":35.70626449,"lon":139.86799296},{"name":"平井駅出口","province":"東京都","city":"江戸川区","address":"東京都江戸川区平井5丁目17-5","lat":35.70734687,"lon":139.84092033},{"name":"今井橋","province":"東京都","city":"江戸川区","address":"東京都江戸川区江戸川4丁目4","lat":35.68198045,"lon":139.88870854},{"name":"瑞江大橋西詰","province":"東京都","city":"江戸川区","address":"東京都江戸川区一之江8丁目18-14","lat":35.68547148,"lon":139.88430872},{"name":"環七一之江陸橋下","province":"東京都","city":"江戸川区","address":"東京都江戸川区一之江4丁目1-22","lat":35.68773221,"lon":139.88240325},{"name":"瑞江大橋","province":"東京都","city":"江戸川区","address":"東京都江戸川区西瑞江4丁目1-1","lat":35.68521045,"lon":139.8850559},{"name":"瑞江駅前","province":"東京都","city":"江戸川区","address":"東京都江戸川区瑞江2丁目3-1","lat":35.69285544,"lon":139.89814055},{"name":"平井駅北口第二","province":"東京都","city":"江戸川区","address":"東京都江戸川区平井5丁目23-1","lat":35.70704133,"lon":139.84262855},{"name":"平井駅南口","province":"東京都","city":"江戸川区","address":"東京都江戸川区平井4丁目11-6","lat":35.7063386,"lon":139.84345076},{"name":"平井駅南口第二","province":"東京都","city":"江戸川区","address":"東京都江戸川区平井4丁目10-4","lat":35.70595251,"lon":139.8441285},{"name":"環七一之江三丁目","province":"東京都","city":"江戸川区","address":"東京都江戸川区一之江4丁目14","lat":35.69097915,"lon":139.88233366},{"name":"柴又新道口","province":"東京都","city":"江戸川区","address":"東京都江戸川区北小岩2丁目1-17","lat":35.73635886,"lon":139.88481789},{"name":"菅原橋","province":"東京都","city":"江戸川区","address":"東京都江戸川区本一色2丁目1-9","lat":35.71608067,"lon":139.8739057},{"name":"篠崎コミュニティ会館入口","province":"東京都","city":"江戸川区","address":"東京都江戸川区上篠崎4丁目19","lat":35.70914768,"lon":139.90088687},{"name":"六軒島第二","province":"東京都","city":"江戸川区","address":"東京都江戸川区西小岩2丁目20-16","lat":35.73411472,"lon":139.87790459},{"name":"船堀小学校前","province":"東京都","city":"江戸川区","address":"東京都江戸川区船堀2丁目22-22","lat":35.68271987,"lon":139.86232762},{"name":"江戸川五丁目","province":"東京都","city":"江戸川区","address":"東京都江戸川区江戸川5丁目22","lat":35.67398887,"lon":139.88162334},{"name":"船堀駅","province":"東京都","city":"江戸川区","address":"東京都江戸川区船堀1丁目6-11","lat":35.68483914,"lon":139.86387187},{"name":"新船堀大橋東詰","province":"東京都","city":"江戸川区","address":"東京都江戸川区船堀1丁目4-13","lat":35.68619736,"lon":139.86473009},{"name":"中葛西二丁目","province":"東京都","city":"江戸川区","address":"東京都江戸川区中葛西2丁目16-6","lat":35.67234696,"lon":139.87588779},{"name":"新田通り宇喜田町","province":"東京都","city":"江戸川区","address":"東京都江戸川区西葛西5丁目8-14","lat":35.66810781,"lon":139.8610059},{"name":"第四葛西小学校前","province":"東京都","city":"江戸川区","address":"東京都江戸川区中葛西8丁目9-5","lat":35.65952589,"lon":139.87046094},{"name":"西葛西六丁目","province":"東京都","city":"江戸川区","address":"東京都江戸川区西葛西6丁目28-14","lat":35.66195034,"lon":139.86385307},{"name":"西葛西六丁目第三","province":"東京都","city":"江戸川区","address":"東京都江戸川区西葛西6丁目12-1","lat":35.66269451,"lon":139.85903403},{"name":"西葛西駅北","province":"東京都","city":"江戸川区","address":"東京都江戸川区西葛西5丁目1-1","lat":35.66529419,"lon":139.85911727},{"name":"葛西駅前第二","province":"東京都","city":"江戸川区","address":"東京都江戸川区中葛西5丁目42-8","lat":35.66278395,"lon":139.87273838},{"name":"中葛西三丁目","province":"東京都","city":"江戸川区","address":"東京都江戸川区中葛西3丁目36-8","lat":35.66543088,"lon":139.87287995},{"name":"葛西駅前","province":"東京都","city":"江戸川区","address":"東京都江戸川区中葛西3丁目37-16","lat":35.66394771,"lon":139.87279389},{"name":"なぎさ団地前","province":"東京都","city":"江戸川区","address":"東京都江戸川区南葛西6丁目15","lat":35.64704146,"lon":139.87910524},{"name":"レクリエーション公園","province":"東京都","city":"江戸川区","address":"東京都江戸川区南葛西3丁目23","lat":35.65069078,"lon":139.87071689},{"name":"葛西中学校北","province":"東京都","city":"江戸川区","address":"東京都江戸川区中葛西1丁目42-19","lat":35.67294659,"lon":139.87170481},{"name":"西葛西児童遊園前","province":"東京都","city":"江戸川区","address":"東京都江戸川区西葛西6丁目11","lat":35.66281668,"lon":139.85787023},{"name":"船堀駅前","province":"東京都","city":"江戸川区","address":"東京都江戸川区船堀3丁目6","lat":35.68362821,"lon":139.86435796},{"name":"清新第一小学校東","province":"東京都","city":"江戸川区","address":"東京都江戸川区清新町1丁目3-6","lat":35.66189452,"lon":139.85587597},{"name":"都住船堀四丁目東","province":"東京都","city":"江戸川区","address":"東京都江戸川区松江5丁目19-1","lat":35.68547268,"lon":139.86795478},{"name":"葛西臨海公園駅東","province":"東京都","city":"江戸川区","address":"東京都江戸川区臨海町6丁目3-8","lat":35.6430054,"lon":139.86559541},{"name":"葛西第七小学校前","province":"東京都","city":"江戸川区","address":"東京都江戸川区西葛西7丁目2","lat":35.66149462,"lon":139.85758696},{"name":"環七東葛西七丁目","province":"東京都","city":"江戸川区","address":"東京都江戸川区東葛西7丁目2-5","lat":35.65992597,"lon":139.873369},{"name":"葛西臨海水族園","province":"東京都","city":"江戸川区","address":"江戸川区臨海町6-2-3","lat":35.6400947,"lon":139.8621658},{"name":"西瑞江給水所","province":"東京都","city":"江戸川区","address":"東京都江戸川区東瑞江1丁目26-2","lat":35.69135275,"lon":139.89810175},{"name":"葛西給水所","province":"東京都","city":"江戸川区","address":"東京都江戸川区北葛西3丁目9","lat":35.67359591,"lon":139.85917535},{"name":"都立篠崎公園","province":"東京都","city":"江戸川区","address":"東京都江戸川区上篠崎1丁目25","lat":35.7146518,"lon":139.89798133},{"name":"区立宇喜田中央公園","province":"東京都","city":"江戸川区","address":"東京都江戸川区北葛西4丁目15","lat":35.67038268,"lon":139.86439164},{"name":"区立小岩公園","province":"東京都","city":"江戸川区","address":"東京都江戸川区北小岩6丁目43","lat":35.74601851,"lon":139.8865981},{"name":"都立大島小松川公園","province":"東京都","city":"江戸川区","address":"東京都江戸川区小松川1丁目7","lat":35.69216816,"lon":139.85200056},{"name":"都立葛西南高等学校","province":"東京都","city":"江戸川区","address":"東京都江戸川区南葛西1丁目11-1","lat":35.65367379,"lon":139.87079175},{"name":"西瑞江給水所（注５）","province":"東京都","city":"江戸川区","address":"東京都江戸川区東瑞江1丁目26-2","lat":35.69135275,"lon":139.89810175},{"name":"上篠崎","province":"東京都","city":"江戸川区","address":"東京都江戸川区上篠崎2丁目27","lat":35.71283558,"lon":139.90618361},{"name":"葛西臨海公園","province":"東京都","city":"江戸川区","address":"東京都江戸川区臨海町6丁目","lat":35.6462852,"lon":139.85139641},{"name":"一之江橋","province":"東京都","city":"江戸川区","address":"東京都江戸川区新堀1丁目1","lat":35.70258678,"lon":139.88574945},{"name":"小松川","province":"東京都","city":"江戸川区","address":"東京都江戸川区小松川1丁目","lat":35.68984346,"lon":139.84946741},{"name":"新今井橋","province":"東京都","city":"江戸川区","address":"東京都江戸川区江戸川4丁目","lat":35.68234427,"lon":139.88820301},{"name":"平井","province":"東京都","city":"江戸川区","address":"東京都江戸川区平井6丁目71","lat":35.71365739,"lon":139.84385591},{"name":"なぎさ公園","province":"東京都","city":"江戸川区","address":"東京都江戸川区南葛西7丁目3","lat":35.64875249,"lon":139.88177994},{"name":"今井交通公園","province":"東京都","city":"江戸川区","address":"東京都江戸川区中葛西4丁目9","lat":35.66799142,"lon":139.86705815},{"name":"スポーツランド","province":"東京都","city":"江戸川区","address":"東京都江戸川区東篠崎1丁目8","lat":35.69783207,"lon":139.91731117},{"name":"ポニーランド","province":"東京都","city":"江戸川区","address":"東京都江戸川区南篠崎町3丁目23","lat":35.69480527,"lon":139.90019585},{"name":"篠崎公園","province":"東京都","city":"江戸川区","address":"東京都江戸川区上篠崎1丁目25","lat":35.7146518,"lon":139.89798133},{"name":"小岩菖蒲園","province":"東京都","city":"江戸川区","address":"東京都江戸川区北小岩4丁目37","lat":35.73856957,"lon":139.89622538},{"name":"葛西警察署","province":"東京都","city":"江戸川区","address":"江戸川区東葛西6-39-1","lat":35.6615,"lon":139.8796},{"name":"小岩警察署","province":"東京都","city":"江戸川区","address":"江戸川区東小岩6-9-17","lat":35.73386,"lon":139.8876},{"name":"小松川警察署","province":"東京都","city":"江戸川区","address":"江戸川区松島1-19-22","lat":35.70257,"lon":139.8638},{"name":"江戸川消防署","province":"東京都","city":"江戸川区","address":"江戸川区中央2-9-13","lat":35.70607,"lon":139.8725},{"name":"葛西消防署","province":"東京都","city":"江戸川区","address":"江戸川区中葛西1-29-1","lat":35.66946,"lon":139.8693},{"name":"小岩消防署","province":"東京都","city":"江戸川区","address":"江戸川区鹿骨2-42-11","lat":35.70864,"lon":139.8949},{"name":"アルフレッサ（株）江戸川医薬品センター","province":"東京都","city":"江戸川区","address":"江戸川区平井7-5-32","lat":35.71645,"lon":139.8356},{"name":"上篠崎","province":"東京都","city":"江戸川区","address":"東京都江戸川区上篠崎2丁目27","lat":35.71283558,"lon":139.90618361},{"name":"一之江橋","province":"東京都","city":"江戸川区","address":"東京都江戸川区新堀1丁目1","lat":35.70258678,"lon":139.88574945},{"name":"平井","province":"東京都","city":"江戸川区","address":"東京都江戸川区平井6丁目71","lat":35.71365739,"lon":139.84385591},{"name":"なぎさ公園","province":"東京都","city":"江戸川区","address":"東京都江戸川区南葛西7丁目3","lat":35.64875249,"lon":139.88177994},{"name":"今井交通公園","province":"東京都","city":"江戸川区","address":"東京都江戸川区中葛西4丁目9","lat":35.66799142,"lon":139.86705815},{"name":"スポーツランド","province":"東京都","city":"江戸川区","address":"東京都江戸川区東篠崎1丁目8","lat":35.69783207,"lon":139.91731117},{"name":"ポニーランド","province":"東京都","city":"江戸川区","address":"東京都江戸川区篠崎町3丁目23","lat":35.70440913,"lon":139.91392782},{"name":"篠崎公園","province":"東京都","city":"江戸川区","address":"東京都江戸川区上篠崎1丁目25","lat":35.7146518,"lon":139.89798133},{"name":"小岩菖蒲園","province":"東京都","city":"江戸川区","address":"東京都江戸川区北小岩4丁目37","lat":35.73856957,"lon":139.89622538},{"name":"小松川橋西詰","province":"東京都","city":"江戸川区","address":"東京都江戸川区小松川4丁目52-3","lat":35.69975868,"lon":139.85051171},{"name":"八蔵橋","province":"東京都","city":"江戸川区","address":"東京都江戸川区中央1丁目6-3","lat":35.70827538,"lon":139.86776791},{"name":"松江西","province":"東京都","city":"江戸川区","address":"東京都江戸川区松江1丁目1-1","lat":35.69857377,"lon":139.86812381},{"name":"江戸川区役所前","province":"東京都","city":"江戸川区","address":"東京都江戸川区中央1丁目3-7","lat":35.70626449,"lon":139.86799296},{"name":"平井駅出口","province":"東京都","city":"江戸川区","address":"東京都江戸川区平井5丁目17-5","lat":35.70734687,"lon":139.84092033},{"name":"今井橋","province":"東京都","city":"江戸川区","address":"東京都江戸川区江戸川4丁目4","lat":35.68198045,"lon":139.88870854},{"name":"瑞江大橋西詰","province":"東京都","city":"江戸川区","address":"東京都江戸川区一之江8丁目18-14","lat":35.68547148,"lon":139.88430872},{"name":"環七一之江陸橋下","province":"東京都","city":"江戸川区","address":"東京都江戸川区一之江4丁目1-22","lat":35.68773221,"lon":139.88240325},{"name":"瑞江大橋","province":"東京都","city":"江戸川区","address":"東京都江戸川区西瑞江4丁目1-1","lat":35.68521045,"lon":139.8850559},{"name":"瑞江駅前","province":"東京都","city":"江戸川区","address":"東京都江戸川区瑞江2丁目3-1","lat":35.69285544,"lon":139.89814055},{"name":"平井駅北口第二","province":"東京都","city":"江戸川区","address":"東京都江戸川区平井5丁目23-1","lat":35.70704133,"lon":139.84262855},{"name":"平井駅南口","province":"東京都","city":"江戸川区","address":"東京都江戸川区平井4丁目11-6","lat":35.7063386,"lon":139.84345076},{"name":"平井駅南口第二","province":"東京都","city":"江戸川区","address":"東京都江戸川区平井4丁目10-4","lat":35.70595251,"lon":139.8441285},{"name":"環七一之江三丁目","province":"東京都","city":"江戸川区","address":"東京都江戸川区一之江4丁目14","lat":35.69097915,"lon":139.88233366},{"name":"柴又新道口","province":"東京都","city":"江戸川区","address":"東京都江戸川区北小岩2丁目1-17","lat":35.73635886,"lon":139.88481789},{"name":"菅原橋","province":"東京都","city":"江戸川区","address":"東京都江戸川区本一色2丁目1-9","lat":35.71608067,"lon":139.8739057},{"name":"篠崎コミュニティ会館入口","province":"東京都","city":"江戸川区","address":"東京都江戸川区上篠崎4丁目19","lat":35.70914768,"lon":139.90088687},{"name":"六軒島第二","province":"東京都","city":"江戸川区","address":"東京都江戸川区西小岩2丁目20-16","lat":35.73411472,"lon":139.87790459},{"name":"船堀小学校前","province":"東京都","city":"江戸川区","address":"東京都江戸川区船堀2丁目22-22","lat":35.68271987,"lon":139.86232762},{"name":"江戸川五丁目","province":"東京都","city":"江戸川区","address":"東京都江戸川区江戸川5丁目22","lat":35.67398887,"lon":139.88162334},{"name":"船堀駅","province":"東京都","city":"江戸川区","address":"東京都江戸川区船堀1丁目6-11","lat":35.68483914,"lon":139.86387187},{"name":"新船堀大橋東詰","province":"東京都","city":"江戸川区","address":"東京都江戸川区船堀1丁目4-13","lat":35.68619736,"lon":139.86473009},{"name":"中葛西二丁目","province":"東京都","city":"江戸川区","address":"東京都江戸川区中葛西2丁目16-6","lat":35.67234696,"lon":139.87588779},{"name":"新田通り宇喜田町","province":"東京都","city":"江戸川区","address":"東京都江戸川区西葛西5丁目8-14","lat":35.66810781,"lon":139.8610059},{"name":"第四葛西小学校前","province":"東京都","city":"江戸川区","address":"東京都江戸川区中葛西8丁目9-5","lat":35.65952589,"lon":139.87046094},{"name":"西葛西六丁目","province":"東京都","city":"江戸川区","address":"東京都江戸川区西葛西6丁目28-14","lat":35.66195034,"lon":139.86385307},{"name":"西葛西六丁目第三","province":"東京都","city":"江戸川区","address":"東京都江戸川区西葛西6丁目12-1","lat":35.66269451,"lon":139.85903403},{"name":"西葛西駅北","province":"東京都","city":"江戸川区","address":"東京都江戸川区西葛西5丁目1-1","lat":35.66529419,"lon":139.85911727},{"name":"葛西駅前第二","province":"東京都","city":"江戸川区","address":"東京都江戸川区中葛西5丁目42-8","lat":35.66278395,"lon":139.87273838},{"name":"中葛西三丁目","province":"東京都","city":"江戸川区","address":"東京都江戸川区中葛西3丁目36-8","lat":35.66543088,"lon":139.87287995},{"name":"葛西駅前","province":"東京都","city":"江戸川区","address":"東京都江戸川区中葛西3丁目37-16","lat":35.66394771,"lon":139.87279389},{"name":"なぎさ団地前","province":"東京都","city":"江戸川区","address":"東京都江戸川区南葛西6丁目15","lat":35.64704146,"lon":139.87910524},{"name":"レクリエーション公園","province":"東京都","city":"江戸川区","address":"東京都江戸川区南葛西3丁目23","lat":35.65069078,"lon":139.87071689},{"name":"葛西中学校北","province":"東京都","city":"江戸川区","address":"東京都江戸川区中葛西1丁目42-19","lat":35.67294659,"lon":139.87170481},{"name":"西葛西児童遊園前","province":"東京都","city":"江戸川区","address":"東京都江戸川区西葛西6丁目11","lat":35.66281668,"lon":139.85787023},{"name":"船堀駅前","province":"東京都","city":"江戸川区","address":"東京都江戸川区船堀3丁目6","lat":35.68362821,"lon":139.86435796},{"name":"清新第一小学校東","province":"東京都","city":"江戸川区","address":"東京都江戸川区清新町1丁目3-6","lat":35.66189452,"lon":139.85587597},{"name":"都住船堀四丁目東","province":"東京都","city":"江戸川区","address":"東京都江戸川区松江5丁目19-1","lat":35.68547268,"lon":139.86795478},{"name":"葛西臨海公園駅東","province":"東京都","city":"江戸川区","address":"東京都江戸川区臨海町6丁目3-8","lat":35.6430054,"lon":139.86559541},{"name":"葛西第七小学校前","province":"東京都","city":"江戸川区","address":"東京都江戸川区西葛西7丁目2","lat":35.66149462,"lon":139.85758696},{"name":"環七東葛西七丁目","province":"東京都","city":"江戸川区","address":"東京都江戸川区東葛西7丁目2-5","lat":35.65992597,"lon":139.873369},{"name":"葛西臨海水族園","province":"東京都","city":"江戸川区","address":"江戸川区臨海町6-2-3","lat":35.6400947,"lon":139.8621658},{"name":"西瑞江給水所","province":"東京都","city":"江戸川区","address":"東京都江戸川区東瑞江1丁目26-2","lat":35.69135275,"lon":139.89810175},{"name":"葛西給水所","province":"東京都","city":"江戸川区","address":"東京都江戸川区北葛西3丁目9","lat":35.67359591,"lon":139.85917535},{"name":"都立篠崎公園","province":"東京都","city":"江戸川区","address":"東京都江戸川区上篠崎1丁目25","lat":35.7146518,"lon":139.89798133},{"name":"区立宇喜田中央公園","province":"東京都","city":"江戸川区","address":"東京都江戸川区北葛西4丁目15","lat":35.67038268,"lon":139.86439164},{"name":"区立小岩公園","province":"東京都","city":"江戸川区","address":"東京都江戸川区北小岩6丁目43","lat":35.74601851,"lon":139.8865981},{"name":"都立大島小松川公園","province":"東京都","city":"江戸川区","address":"東京都江戸川区小松川1丁目7","lat":35.69216816,"lon":139.85200056},{"name":"都立葛西南高等学校","province":"東京都","city":"江戸川区","address":"東京都江戸川区南葛西1丁目11-1","lat":35.65367379,"lon":139.87079175},{"name":"西瑞江給水所（注５）","province":"東京都","city":"江戸川区","address":"東京都江戸川区東瑞江1丁目26-2","lat":35.69135275,"lon":139.89810175},{"name":"上篠崎","province":"東京都","city":"江戸川区","address":"東京都江戸川区上篠崎2丁目27","lat":35.71283558,"lon":139.90618361},{"name":"葛西臨海公園","province":"東京都","city":"江戸川区","address":"東京都江戸川区臨海町6丁目","lat":35.6462852,"lon":139.85139641},{"name":"一之江橋","province":"東京都","city":"江戸川区","address":"東京都江戸川区新堀1丁目1","lat":35.70258678,"lon":139.88574945},{"name":"小松川","province":"東京都","city":"江戸川区","address":"東京都江戸川区小松川1丁目","lat":35.68984346,"lon":139.84946741},{"name":"新今井橋","province":"東京都","city":"江戸川区","address":"東京都江戸川区江戸川4丁目","lat":35.68234427,"lon":139.88820301},{"name":"平井","province":"東京都","city":"江戸川区","address":"東京都江戸川区平井6丁目71","lat":35.71365739,"lon":139.84385591},{"name":"なぎさ公園","province":"東京都","city":"江戸川区","address":"東京都江戸川区南葛西7丁目3","lat":35.64875249,"lon":139.88177994},{"name":"今井交通公園","province":"東京都","city":"江戸川区","address":"東京都江戸川区中葛西4丁目9","lat":35.66799142,"lon":139.86705815},{"name":"スポーツランド","province":"東京都","city":"江戸川区","address":"東京都江戸川区東篠崎1丁目8","lat":35.69783207,"lon":139.91731117},{"name":"ポニーランド","province":"東京都","city":"江戸川区","address":"東京都江戸川区南篠崎町3丁目23","lat":35.69480527,"lon":139.90019585},{"name":"篠崎公園","province":"東京都","city":"江戸川区","address":"東京都江戸川区上篠崎1丁目25","lat":35.7146518,"lon":139.89798133},{"name":"小岩菖蒲園","province":"東京都","city":"江戸川区","address":"東京都江戸川区北小岩4丁目37","lat":35.73856957,"lon":139.89622538},{"name":"葛西警察署","province":"東京都","city":"江戸川区","address":"江戸川区東葛西6-39-1","lat":35.6615,"lon":139.8796},{"name":"小岩警察署","province":"東京都","city":"江戸川区","address":"江戸川区東小岩6-9-17","lat":35.73386,"lon":139.8876},{"name":"小松川警察署","province":"東京都","city":"江戸川区","address":"江戸川区松島1-19-22","lat":35.70257,"lon":139.8638},{"name":"江戸川消防署","province":"東京都","city":"江戸川区","address":"江戸川区中央2-9-13","lat":35.70607,"lon":139.8725},{"name":"葛西消防署","province":"東京都","city":"江戸川区","address":"江戸川区中葛西1-29-1","lat":35.66946,"lon":139.8693},{"name":"小岩消防署","province":"東京都","city":"江戸川区","address":"江戸川区鹿骨2-42-11","lat":35.70864,"lon":139.8949},{"name":"アルフレッサ（株）江戸川医薬品センター","province":"東京都","city":"江戸川区","address":"江戸川区平井7-5-32","lat":35.71645,"lon":139.8356},{"name":"上篠崎","province":"東京都","city":"江戸川区","address":"東京都江戸川区上篠崎2丁目27","lat":35.71283558,"lon":139.90618361},{"name":"一之江橋","province":"東京都","city":"江戸川区","address":"東京都江戸川区新堀1丁目1","lat":35.70258678,"lon":139.88574945},{"name":"平井","province":"東京都","city":"江戸川区","address":"東京都江戸川区平井6丁目71","lat":35.71365739,"lon":139.84385591},{"name":"なぎさ公園","province":"東京都","city":"江戸川区","address":"東京都江戸川区南葛西7丁目3","lat":35.64875249,"lon":139.88177994},{"name":"今井交通公園","province":"東京都","city":"江戸川区","address":"東京都江戸川区中葛西4丁目9","lat":35.66799142,"lon":139.86705815},{"name":"スポーツランド","province":"東京都","city":"江戸川区","address":"東京都江戸川区東篠崎1丁目8","lat":35.69783207,"lon":139.91731117},{"name":"ポニーランド","province":"東京都","city":"江戸川区","address":"東京都江戸川区篠崎町3丁目23","lat":35.70440913,"lon":139.91392782},{"name":"篠崎公園","province":"東京都","city":"江戸川区","address":"東京都江戸川区上篠崎1丁目25","lat":35.7146518,"lon":139.89798133},{"name":"小岩菖蒲園","province":"東京都","city":"江戸川区","address":"東京都江戸川区北小岩4丁目37","lat":35.73856957,"lon":139.89622538},{"name":"小松川橋西詰","province":"東京都","city":"江戸川区","address":"東京都江戸川区小松川4丁目52-3","lat":35.69975868,"lon":139.85051171},{"name":"八蔵橋","province":"東京都","city":"江戸川区","address":"東京都江戸川区中央1丁目6-3","lat":35.70827538,"lon":139.86776791},{"name":"松江西","province":"東京都","city":"江戸川区","address":"東京都江戸川区松江1丁目1-1","lat":35.69857377,"lon":139.86812381},{"name":"江戸川区役所前","province":"東京都","city":"江戸川区","address":"東京都江戸川区中央1丁目3-7","lat":35.70626449,"lon":139.86799296},{"name":"平井駅出口","province":"東京都","city":"江戸川区","address":"東京都江戸川区平井5丁目17-5","lat":35.70734687,"lon":139.84092033},{"name":"今井橋","province":"東京都","city":"江戸川区","address":"東京都江戸川区江戸川4丁目4","lat":35.68198045,"lon":139.88870854},{"name":"瑞江大橋西詰","province":"東京都","city":"江戸川区","address":"東京都江戸川区一之江8丁目18-14","lat":35.68547148,"lon":139.88430872},{"name":"環七一之江陸橋下","province":"東京都","city":"江戸川区","address":"東京都江戸川区一之江4丁目1-22","lat":35.68773221,"lon":139.88240325},{"name":"瑞江大橋","province":"東京都","city":"江戸川区","address":"東京都江戸川区西瑞江4丁目1-1","lat":35.68521045,"lon":139.8850559},{"name":"瑞江駅前","province":"東京都","city":"江戸川区","address":"東京都江戸川区瑞江2丁目3-1","lat":35.69285544,"lon":139.89814055},{"name":"平井駅北口第二","province":"東京都","city":"江戸川区","address":"東京都江戸川区平井5丁目23-1","lat":35.70704133,"lon":139.84262855},{"name":"平井駅南口","province":"東京都","city":"江戸川区","address":"東京都江戸川区平井4丁目11-6","lat":35.7063386,"lon":139.84345076},{"name":"平井駅南口第二","province":"東京都","city":"江戸川区","address":"東京都江戸川区平井4丁目10-4","lat":35.70595251,"lon":139.8441285},{"name":"環七一之江三丁目","province":"東京都","city":"江戸川区","address":"東京都江戸川区一之江4丁目14","lat":35.69097915,"lon":139.88233366},{"name":"柴又新道口","province":"東京都","city":"江戸川区","address":"東京都江戸川区北小岩2丁目1-17","lat":35.73635886,"lon":139.88481789},{"name":"菅原橋","province":"東京都","city":"江戸川区","address":"東京都江戸川区本一色2丁目1-9","lat":35.71608067,"lon":139.8739057},{"name":"篠崎コミュニティ会館入口","province":"東京都","city":"江戸川区","address":"東京都江戸川区上篠崎4丁目19","lat":35.70914768,"lon":139.90088687},{"name":"六軒島第二","province":"東京都","city":"江戸川区","address":"東京都江戸川区西小岩2丁目20-16","lat":35.73411472,"lon":139.87790459},{"name":"船堀小学校前","province":"東京都","city":"江戸川区","address":"東京都江戸川区船堀2丁目22-22","lat":35.68271987,"lon":139.86232762},{"name":"江戸川五丁目","province":"東京都","city":"江戸川区","address":"東京都江戸川区江戸川5丁目22","lat":35.67398887,"lon":139.88162334},{"name":"船堀駅","province":"東京都","city":"江戸川区","address":"東京都江戸川区船堀1丁目6-11","lat":35.68483914,"lon":139.86387187},{"name":"新船堀大橋東詰","province":"東京都","city":"江戸川区","address":"東京都江戸川区船堀1丁目4-13","lat":35.68619736,"lon":139.86473009},{"name":"中葛西二丁目","province":"東京都","city":"江戸川区","address":"東京都江戸川区中葛西2丁目16-6","lat":35.67234696,"lon":139.87588779},{"name":"新田通り宇喜田町","province":"東京都","city":"江戸川区","address":"東京都江戸川区西葛西5丁目8-14","lat":35.66810781,"lon":139.8610059},{"name":"第四葛西小学校前","province":"東京都","city":"江戸川区","address":"東京都江戸川区中葛西8丁目9-5","lat":35.65952589,"lon":139.87046094},{"name":"西葛西六丁目","province":"東京都","city":"江戸川区","address":"東京都江戸川区西葛西6丁目28-14","lat":35.66195034,"lon":139.86385307},{"name":"西葛西六丁目第三","province":"東京都","city":"江戸川区","address":"東京都江戸川区西葛西6丁目12-1","lat":35.66269451,"lon":139.85903403},{"name":"西葛西駅北","province":"東京都","city":"江戸川区","address":"東京都江戸川区西葛西5丁目1-1","lat":35.66529419,"lon":139.85911727},{"name":"葛西駅前第二","province":"東京都","city":"江戸川区","address":"東京都江戸川区中葛西5丁目42-8","lat":35.66278395,"lon":139.87273838},{"name":"中葛西三丁目","province":"東京都","city":"江戸川区","address":"東京都江戸川区中葛西3丁目36-8","lat":35.66543088,"lon":139.87287995},{"name":"葛西駅前","province":"東京都","city":"江戸川区","address":"東京都江戸川区中葛西3丁目37-16","lat":35.66394771,"lon":139.87279389},{"name":"なぎさ団地前","province":"東京都","city":"江戸川区","address":"東京都江戸川区南葛西6丁目15","lat":35.64704146,"lon":139.87910524},{"name":"レクリエーション公園","province":"東京都","city":"江戸川区","address":"東京都江戸川区南葛西3丁目23","lat":35.65069078,"lon":139.87071689},{"name":"葛西中学校北","province":"東京都","city":"江戸川区","address":"東京都江戸川区中葛西1丁目42-19","lat":35.67294659,"lon":139.87170481},{"name":"西葛西児童遊園前","province":"東京都","city":"江戸川区","address":"東京都江戸川区西葛西6丁目11","lat":35.66281668,"lon":139.85787023},{"name":"船堀駅前","province":"東京都","city":"江戸川区","address":"東京都江戸川区船堀3丁目6","lat":35.68362821,"lon":139.86435796},{"name":"清新第一小学校東","province":"東京都","city":"江戸川区","address":"東京都江戸川区清新町1丁目3-6","lat":35.66189452,"lon":139.85587597},{"name":"都住船堀四丁目東","province":"東京都","city":"江戸川区","address":"東京都江戸川区松江5丁目19-1","lat":35.68547268,"lon":139.86795478},{"name":"葛西臨海公園駅東","province":"東京都","city":"江戸川区","address":"東京都江戸川区臨海町6丁目3-8","lat":35.6430054,"lon":139.86559541},{"name":"葛西第七小学校前","province":"東京都","city":"江戸川区","address":"東京都江戸川区西葛西7丁目2","lat":35.66149462,"lon":139.85758696},{"name":"環七東葛西七丁目","province":"東京都","city":"江戸川区","address":"東京都江戸川区東葛西7丁目2-5","lat":35.65992597,"lon":139.873369},{"name":"葛西臨海水族園","province":"東京都","city":"江戸川区","address":"江戸川区臨海町6-2-3","lat":35.6400947,"lon":139.8621658},{"name":"西瑞江給水所","province":"東京都","city":"江戸川区","address":"東京都江戸川区東瑞江1丁目26-2","lat":35.69135275,"lon":139.89810175},{"name":"葛西給水所","province":"東京都","city":"江戸川区","address":"東京都江戸川区北葛西3丁目9","lat":35.67359591,"lon":139.85917535},{"name":"都立篠崎公園","province":"東京都","city":"江戸川区","address":"東京都江戸川区上篠崎1丁目25","lat":35.7146518,"lon":139.89798133},{"name":"区立宇喜田中央公園","province":"東京都","city":"江戸川区","address":"東京都江戸川区北葛西4丁目15","lat":35.67038268,"lon":139.86439164},{"name":"区立小岩公園","province":"東京都","city":"江戸川区","address":"東京都江戸川区北小岩6丁目43","lat":35.74601851,"lon":139.8865981},{"name":"都立大島小松川公園","province":"東京都","city":"江戸川区","address":"東京都江戸川区小松川1丁目7","lat":35.69216816,"lon":139.85200056},{"name":"都立葛西南高等学校","province":"東京都","city":"江戸川区","address":"東京都江戸川区南葛西1丁目11-1","lat":35.65367379,"lon":139.87079175},{"name":"西瑞江給水所（注５）","province":"東京都","city":"江戸川区","address":"東京都江戸川区東瑞江1丁目26-2","lat":35.69135275,"lon":139.89810175},{"name":"上篠崎","province":"東京都","city":"江戸川区","address":"東京都江戸川区上篠崎2丁目27","lat":35.71283558,"lon":139.90618361},{"name":"葛西臨海公園","province":"東京都","city":"江戸川区","address":"東京都江戸川区臨海町6丁目","lat":35.6462852,"lon":139.85139641},{"name":"一之江橋","province":"東京都","city":"江戸川区","address":"東京都江戸川区新堀1丁目1","lat":35.70258678,"lon":139.88574945},{"name":"小松川","province":"東京都","city":"江戸川区","address":"東京都江戸川区小松川1丁目","lat":35.68984346,"lon":139.84946741},{"name":"新今井橋","province":"東京都","city":"江戸川区","address":"東京都江戸川区江戸川4丁目","lat":35.68234427,"lon":139.88820301},{"name":"平井","province":"東京都","city":"江戸川区","address":"東京都江戸川区平井6丁目71","lat":35.71365739,"lon":139.84385591},{"name":"なぎさ公園","province":"東京都","city":"江戸川区","address":"東京都江戸川区南葛西7丁目3","lat":35.64875249,"lon":139.88177994},{"name":"今井交通公園","province":"東京都","city":"江戸川区","address":"東京都江戸川区中葛西4丁目9","lat":35.66799142,"lon":139.86705815},{"name":"スポーツランド","province":"東京都","city":"江戸川区","address":"東京都江戸川区東篠崎1丁目8","lat":35.69783207,"lon":139.91731117},{"name":"ポニーランド","province":"東京都","city":"江戸川区","address":"東京都江戸川区南篠崎町3丁目23","lat":35.69480527,"lon":139.90019585},{"name":"篠崎公園","province":"東京都","city":"江戸川区","address":"東京都江戸川区上篠崎1丁目25","lat":35.7146518,"lon":139.89798133},{"name":"小岩菖蒲園","province":"東京都","city":"江戸川区","address":"東京都江戸川区北小岩4丁目37","lat":35.73856957,"lon":139.89622538},{"name":"葛西警察署","province":"東京都","city":"江戸川区","address":"江戸川区東葛西6-39-1","lat":35.6615,"lon":139.8796},{"name":"小岩警察署","province":"東京都","city":"江戸川区","address":"江戸川区東小岩6-9-17","lat":35.73386,"lon":139.8876},{"name":"小松川警察署","province":"東京都","city":"江戸川区","address":"江戸川区松島1-19-22","lat":35.70257,"lon":139.8638},{"name":"江戸川消防署","province":"東京都","city":"江戸川区","address":"江戸川区中央2-9-13","lat":35.70607,"lon":139.8725},{"name":"葛西消防署","province":"東京都","city":"江戸川区","address":"江戸川区中葛西1-29-1","lat":35.66946,"lon":139.8693},{"name":"小岩消防署","province":"東京都","city":"江戸川区","address":"江戸川区鹿骨2-42-11","lat":35.70864,"lon":139.8949},{"name":"アルフレッサ（株）江戸川医薬品センター","province":"東京都","city":"江戸川区","address":"江戸川区平井7-5-32","lat":35.71645,"lon":139.8356},{"name":"上篠崎","province":"東京都","city":"江戸川区","address":"東京都江戸川区上篠崎2丁目27","lat":35.71283558,"lon":139.90618361},{"name":"一之江橋","province":"東京都","city":"江戸川区","address":"東京都江戸川区新堀1丁目1","lat":35.70258678,"lon":139.88574945},{"name":"平井","province":"東京都","city":"江戸川区","address":"東京都江戸川区平井6丁目71","lat":35.71365739,"lon":139.84385591},{"name":"なぎさ公園","province":"東京都","city":"江戸川区","address":"東京都江戸川区南葛西7丁目3","lat":35.64875249,"lon":139.88177994},{"name":"今井交通公園","province":"東京都","city":"江戸川区","address":"東京都江戸川区中葛西4丁目9","lat":35.66799142,"lon":139.86705815},{"name":"スポーツランド","province":"東京都","city":"江戸川区","address":"東京都江戸川区東篠崎1丁目8","lat":35.69783207,"lon":139.91731117},{"name":"ポニーランド","province":"東京都","city":"江戸川区","address":"東京都江戸川区篠崎町3丁目23","lat":35.70440913,"lon":139.91392782},{"name":"篠崎公園","province":"東京都","city":"江戸川区","address":"東京都江戸川区上篠崎1丁目25","lat":35.7146518,"lon":139.89798133},{"name":"小岩菖蒲園","province":"東京都","city":"江戸川区","address":"東京都江戸川区北小岩4丁目37","lat":35.73856957,"lon":139.89622538},{"name":"小松川橋西詰","province":"東京都","city":"江戸川区","address":"東京都江戸川区小松川4丁目52-3","lat":35.69975868,"lon":139.85051171},{"name":"八蔵橋","province":"東京都","city":"江戸川区","address":"東京都江戸川区中央1丁目6-3","lat":35.70827538,"lon":139.86776791},{"name":"松江西","province":"東京都","city":"江戸川区","address":"東京都江戸川区松江1丁目1-1","lat":35.69857377,"lon":139.86812381},{"name":"江戸川区役所前","province":"東京都","city":"江戸川区","address":"東京都江戸川区中央1丁目3-7","lat":35.70626449,"lon":139.86799296},{"name":"平井駅出口","province":"東京都","city":"江戸川区","address":"東京都江戸川区平井5丁目17-5","lat":35.70734687,"lon":139.84092033},{"name":"今井橋","province":"東京都","city":"江戸川区","address":"東京都江戸川区江戸川4丁目4","lat":35.68198045,"lon":139.88870854},{"name":"瑞江大橋西詰","province":"東京都","city":"江戸川区","address":"東京都江戸川区一之江8丁目18-14","lat":35.68547148,"lon":139.88430872},{"name":"環七一之江陸橋下","province":"東京都","city":"江戸川区","address":"東京都江戸川区一之江4丁目1-22","lat":35.68773221,"lon":139.88240325},{"name":"瑞江大橋","province":"東京都","city":"江戸川区","address":"東京都江戸川区西瑞江4丁目1-1","lat":35.68521045,"lon":139.8850559},{"name":"瑞江駅前","province":"東京都","city":"江戸川区","address":"東京都江戸川区瑞江2丁目3-1","lat":35.69285544,"lon":139.89814055},{"name":"平井駅北口第二","province":"東京都","city":"江戸川区","address":"東京都江戸川区平井5丁目23-1","lat":35.70704133,"lon":139.84262855},{"name":"平井駅南口","province":"東京都","city":"江戸川区","address":"東京都江戸川区平井4丁目11-6","lat":35.7063386,"lon":139.84345076},{"name":"平井駅南口第二","province":"東京都","city":"江戸川区","address":"東京都江戸川区平井4丁目10-4","lat":35.70595251,"lon":139.8441285},{"name":"環七一之江三丁目","province":"東京都","city":"江戸川区","address":"東京都江戸川区一之江4丁目14","lat":35.69097915,"lon":139.88233366},{"name":"柴又新道口","province":"東京都","city":"江戸川区","address":"東京都江戸川区北小岩2丁目1-17","lat":35.73635886,"lon":139.88481789},{"name":"菅原橋","province":"東京都","city":"江戸川区","address":"東京都江戸川区本一色2丁目1-9","lat":35.71608067,"lon":139.8739057},{"name":"篠崎コミュニティ会館入口","province":"東京都","city":"江戸川区","address":"東京都江戸川区上篠崎4丁目19","lat":35.70914768,"lon":139.90088687},{"name":"六軒島第二","province":"東京都","city":"江戸川区","address":"東京都江戸川区西小岩2丁目20-16","lat":35.73411472,"lon":139.87790459},{"name":"船堀小学校前","province":"東京都","city":"江戸川区","address":"東京都江戸川区船堀2丁目22-22","lat":35.68271987,"lon":139.86232762},{"name":"江戸川五丁目","province":"東京都","city":"江戸川区","address":"東京都江戸川区江戸川5丁目22","lat":35.67398887,"lon":139.88162334},{"name":"船堀駅","province":"東京都","city":"江戸川区","address":"東京都江戸川区船堀1丁目6-11","lat":35.68483914,"lon":139.86387187},{"name":"新船堀大橋東詰","province":"東京都","city":"江戸川区","address":"東京都江戸川区船堀1丁目4-13","lat":35.68619736,"lon":139.86473009},{"name":"中葛西二丁目","province":"東京都","city":"江戸川区","address":"東京都江戸川区中葛西2丁目16-6","lat":35.67234696,"lon":139.87588779},{"name":"新田通り宇喜田町","province":"東京都","city":"江戸川区","address":"東京都江戸川区西葛西5丁目8-14","lat":35.66810781,"lon":139.8610059},{"name":"第四葛西小学校前","province":"東京都","city":"江戸川区","address":"東京都江戸川区中葛西8丁目9-5","lat":35.65952589,"lon":139.87046094},{"name":"西葛西六丁目","province":"東京都","city":"江戸川区","address":"東京都江戸川区西葛西6丁目28-14","lat":35.66195034,"lon":139.86385307},{"name":"西葛西六丁目第三","province":"東京都","city":"江戸川区","address":"東京都江戸川区西葛西6丁目12-1","lat":35.66269451,"lon":139.85903403},{"name":"西葛西駅北","province":"東京都","city":"江戸川区","address":"東京都江戸川区西葛西5丁目1-1","lat":35.66529419,"lon":139.85911727},{"name":"葛西駅前第二","province":"東京都","city":"江戸川区","address":"東京都江戸川区中葛西5丁目42-8","lat":35.66278395,"lon":139.87273838},{"name":"中葛西三丁目","province":"東京都","city":"江戸川区","address":"東京都江戸川区中葛西3丁目36-8","lat":35.66543088,"lon":139.87287995},{"name":"葛西駅前","province":"東京都","city":"江戸川区","address":"東京都江戸川区中葛西3丁目37-16","lat":35.66394771,"lon":139.87279389},{"name":"なぎさ団地前","province":"東京都","city":"江戸川区","address":"東京都江戸川区南葛西6丁目15","lat":35.64704146,"lon":139.87910524},{"name":"レクリエーション公園","province":"東京都","city":"江戸川区","address":"東京都江戸川区南葛西3丁目23","lat":35.65069078,"lon":139.87071689},{"name":"葛西中学校北","province":"東京都","city":"江戸川区","address":"東京都江戸川区中葛西1丁目42-19","lat":35.67294659,"lon":139.87170481},{"name":"西葛西児童遊園前","province":"東京都","city":"江戸川区","address":"東京都江戸川区西葛西6丁目11","lat":35.66281668,"lon":139.85787023},{"name":"船堀駅前","province":"東京都","city":"江戸川区","address":"東京都江戸川区船堀3丁目6","lat":35.68362821,"lon":139.86435796},{"name":"清新第一小学校東","province":"東京都","city":"江戸川区","address":"東京都江戸川区清新町1丁目3-6","lat":35.66189452,"lon":139.85587597},{"name":"都住船堀四丁目東","province":"東京都","city":"江戸川区","address":"東京都江戸川区松江5丁目19-1","lat":35.68547268,"lon":139.86795478},{"name":"葛西臨海公園駅東","province":"東京都","city":"江戸川区","address":"東京都江戸川区臨海町6丁目3-8","lat":35.6430054,"lon":139.86559541},{"name":"葛西第七小学校前","province":"東京都","city":"江戸川区","address":"東京都江戸川区西葛西7丁目2","lat":35.66149462,"lon":139.85758696},{"name":"環七東葛西七丁目","province":"東京都","city":"江戸川区","address":"東京都江戸川区東葛西7丁目2-5","lat":35.65992597,"lon":139.873369},{"name":"葛西臨海水族園","province":"東京都","city":"江戸川区","address":"江戸川区臨海町6-2-3","lat":35.6400947,"lon":139.8621658},{"name":"西瑞江給水所","province":"東京都","city":"江戸川区","address":"東京都江戸川区東瑞江1丁目26-2","lat":35.69135275,"lon":139.89810175},{"name":"葛西給水所","province":"東京都","city":"江戸川区","address":"東京都江戸川区北葛西3丁目9","lat":35.67359591,"lon":139.85917535},{"name":"都立篠崎公園","province":"東京都","city":"江戸川区","address":"東京都江戸川区上篠崎1丁目25","lat":35.7146518,"lon":139.89798133},{"name":"区立宇喜田中央公園","province":"東京都","city":"江戸川区","address":"東京都江戸川区北葛西4丁目15","lat":35.67038268,"lon":139.86439164},{"name":"区立小岩公園","province":"東京都","city":"江戸川区","address":"東京都江戸川区北小岩6丁目43","lat":35.74601851,"lon":139.8865981},{"name":"都立大島小松川公園","province":"東京都","city":"江戸川区","address":"東京都江戸川区小松川1丁目7","lat":35.69216816,"lon":139.85200056},{"name":"都立葛西南高等学校","province":"東京都","city":"江戸川区","address":"東京都江戸川区南葛西1丁目11-1","lat":35.65367379,"lon":139.87079175},{"name":"西瑞江給水所（注５）","province":"東京都","city":"江戸川区","address":"東京都江戸川区東瑞江1丁目26-2","lat":35.69135275,"lon":139.89810175},{"name":"上篠崎","province":"東京都","city":"江戸川区","address":"東京都江戸川区上篠崎2丁目27","lat":35.71283558,"lon":139.90618361},{"name":"葛西臨海公園","province":"東京都","city":"江戸川区","address":"東京都江戸川区臨海町6丁目","lat":35.6462852,"lon":139.85139641},{"name":"一之江橋","province":"東京都","city":"江戸川区","address":"東京都江戸川区新堀1丁目1","lat":35.70258678,"lon":139.88574945},{"name":"小松川","province":"東京都","city":"江戸川区","address":"東京都江戸川区小松川1丁目","lat":35.68984346,"lon":139.84946741},{"name":"新今井橋","province":"東京都","city":"江戸川区","address":"東京都江戸川区江戸川4丁目","lat":35.68234427,"lon":139.88820301},{"name":"平井","province":"東京都","city":"江戸川区","address":"東京都江戸川区平井6丁目71","lat":35.71365739,"lon":139.84385591},{"name":"なぎさ公園","province":"東京都","city":"江戸川区","address":"東京都江戸川区南葛西7丁目3","lat":35.64875249,"lon":139.88177994},{"name":"今井交通公園","province":"東京都","city":"江戸川区","address":"東京都江戸川区中葛西4丁目9","lat":35.66799142,"lon":139.86705815},{"name":"スポーツランド","province":"東京都","city":"江戸川区","address":"東京都江戸川区東篠崎1丁目8","lat":35.69783207,"lon":139.91731117},{"name":"ポニーランド","province":"東京都","city":"江戸川区","address":"東京都江戸川区南篠崎町3丁目23","lat":35.69480527,"lon":139.90019585},{"name":"篠崎公園","province":"東京都","city":"江戸川区","address":"東京都江戸川区上篠崎1丁目25","lat":35.7146518,"lon":139.89798133},{"name":"小岩菖蒲園","province":"東京都","city":"江戸川区","address":"東京都江戸川区北小岩4丁目37","lat":35.73856957,"lon":139.89622538},{"name":"葛西警察署","province":"東京都","city":"江戸川区","address":"江戸川区東葛西6-39-1","lat":35.6615,"lon":139.8796},{"name":"小岩警察署","province":"東京都","city":"江戸川区","address":"江戸川区東小岩6-9-17","lat":35.73386,"lon":139.8876},{"name":"小松川警察署","province":"東京都","city":"江戸川区","address":"江戸川区松島1-19-22","lat":35.70257,"lon":139.8638},{"name":"江戸川消防署","province":"東京都","city":"江戸川区","address":"江戸川区中央2-9-13","lat":35.70607,"lon":139.8725},{"name":"葛西消防署","province":"東京都","city":"江戸川区","address":"江戸川区中葛西1-29-1","lat":35.66946,"lon":139.8693},{"name":"小岩消防署","province":"東京都","city":"江戸川区","address":"江戸川区鹿骨2-42-11","lat":35.70864,"lon":139.8949},{"name":"アルフレッサ（株）江戸川医薬品センター","province":"東京都","city":"江戸川区","address":"江戸川区平井7-5-32","lat":35.71645,"lon":139.8356},{"name":"上篠崎","province":"東京都","city":"江戸川区","address":"東京都江戸川区上篠崎2丁目27","lat":35.71283558,"lon":139.90618361},{"name":"一之江橋","province":"東京都","city":"江戸川区","address":"東京都江戸川区新堀1丁目1","lat":35.70258678,"lon":139.88574945},{"name":"平井","province":"東京都","city":"江戸川区","address":"東京都江戸川区平井6丁目71","lat":35.71365739,"lon":139.84385591},{"name":"なぎさ公園","province":"東京都","city":"江戸川区","address":"東京都江戸川区南葛西7丁目3","lat":35.64875249,"lon":139.88177994},{"name":"今井交通公園","province":"東京都","city":"江戸川区","address":"東京都江戸川区中葛西4丁目9","lat":35.66799142,"lon":139.86705815},{"name":"スポーツランド","province":"東京都","city":"江戸川区","address":"東京都江戸川区東篠崎1丁目8","lat":35.69783207,"lon":139.91731117},{"name":"ポニーランド","province":"東京都","city":"江戸川区","address":"東京都江戸川区篠崎町3丁目23","lat":35.70440913,"lon":139.91392782},{"name":"篠崎公園","province":"東京都","city":"江戸川区","address":"東京都江戸川区上篠崎1丁目25","lat":35.7146518,"lon":139.89798133},{"name":"小岩菖蒲園","province":"東京都","city":"江戸川区","address":"東京都江戸川区北小岩4丁目37","lat":35.73856957,"lon":139.89622538},{"name":"小松川橋西詰","province":"東京都","city":"江戸川区","address":"東京都江戸川区小松川4丁目52-3","lat":35.69975868,"lon":139.85051171},{"name":"八蔵橋","province":"東京都","city":"江戸川区","address":"東京都江戸川区中央1丁目6-3","lat":35.70827538,"lon":139.86776791},{"name":"松江西","province":"東京都","city":"江戸川区","address":"東京都江戸川区松江1丁目1-1","lat":35.69857377,"lon":139.86812381},{"name":"江戸川区役所前","province":"東京都","city":"江戸川区","address":"東京都江戸川区中央1丁目3-7","lat":35.70626449,"lon":139.86799296},{"name":"平井駅出口","province":"東京都","city":"江戸川区","address":"東京都江戸川区平井5丁目17-5","lat":35.70734687,"lon":139.84092033},{"name":"今井橋","province":"東京都","city":"江戸川区","address":"東京都江戸川区江戸川4丁目4","lat":35.68198045,"lon":139.88870854},{"name":"瑞江大橋西詰","province":"東京都","city":"江戸川区","address":"東京都江戸川区一之江8丁目18-14","lat":35.68547148,"lon":139.88430872},{"name":"環七一之江陸橋下","province":"東京都","city":"江戸川区","address":"東京都江戸川区一之江4丁目1-22","lat":35.68773221,"lon":139.88240325},{"name":"瑞江大橋","province":"東京都","city":"江戸川区","address":"東京都江戸川区西瑞江4丁目1-1","lat":35.68521045,"lon":139.8850559},{"name":"瑞江駅前","province":"東京都","city":"江戸川区","address":"東京都江戸川区瑞江2丁目3-1","lat":35.69285544,"lon":139.89814055},{"name":"平井駅北口第二","province":"東京都","city":"江戸川区","address":"東京都江戸川区平井5丁目23-1","lat":35.70704133,"lon":139.84262855},{"name":"平井駅南口","province":"東京都","city":"江戸川区","address":"東京都江戸川区平井4丁目11-6","lat":35.7063386,"lon":139.84345076},{"name":"平井駅南口第二","province":"東京都","city":"江戸川区","address":"東京都江戸川区平井4丁目10-4","lat":35.70595251,"lon":139.8441285},{"name":"環七一之江三丁目","province":"東京都","city":"江戸川区","address":"東京都江戸川区一之江4丁目14","lat":35.69097915,"lon":139.88233366},{"name":"柴又新道口","province":"東京都","city":"江戸川区","address":"東京都江戸川区北小岩2丁目1-17","lat":35.73635886,"lon":139.88481789},{"name":"菅原橋","province":"東京都","city":"江戸川区","address":"東京都江戸川区本一色2丁目1-9","lat":35.71608067,"lon":139.8739057},{"name":"篠崎コミュニティ会館入口","province":"東京都","city":"江戸川区","address":"東京都江戸川区上篠崎4丁目19","lat":35.70914768,"lon":139.90088687},{"name":"六軒島第二","province":"東京都","city":"江戸川区","address":"東京都江戸川区西小岩2丁目20-16","lat":35.73411472,"lon":139.87790459},{"name":"船堀小学校前","province":"東京都","city":"江戸川区","address":"東京都江戸川区船堀2丁目22-22","lat":35.68271987,"lon":139.86232762},{"name":"江戸川五丁目","province":"東京都","city":"江戸川区","address":"東京都江戸川区江戸川5丁目22","lat":35.67398887,"lon":139.88162334},{"name":"船堀駅","province":"東京都","city":"江戸川区","address":"東京都江戸川区船堀1丁目6-11","lat":35.68483914,"lon":139.86387187},{"name":"新船堀大橋東詰","province":"東京都","city":"江戸川区","address":"東京都江戸川区船堀1丁目4-13","lat":35.68619736,"lon":139.86473009},{"name":"中葛西二丁目","province":"東京都","city":"江戸川区","address":"東京都江戸川区中葛西2丁目16-6","lat":35.67234696,"lon":139.87588779},{"name":"新田通り宇喜田町","province":"東京都","city":"江戸川区","address":"東京都江戸川区西葛西5丁目8-14","lat":35.66810781,"lon":139.8610059},{"name":"第四葛西小学校前","province":"東京都","city":"江戸川区","address":"東京都江戸川区中葛西8丁目9-5","lat":35.65952589,"lon":139.87046094},{"name":"西葛西六丁目","province":"東京都","city":"江戸川区","address":"東京都江戸川区西葛西6丁目28-14","lat":35.66195034,"lon":139.86385307},{"name":"西葛西六丁目第三","province":"東京都","city":"江戸川区","address":"東京都江戸川区西葛西6丁目12-1","lat":35.66269451,"lon":139.85903403},{"name":"西葛西駅北","province":"東京都","city":"江戸川区","address":"東京都江戸川区西葛西5丁目1-1","lat":35.66529419,"lon":139.85911727},{"name":"葛西駅前第二","province":"東京都","city":"江戸川区","address":"東京都江戸川区中葛西5丁目42-8","lat":35.66278395,"lon":139.87273838},{"name":"中葛西三丁目","province":"東京都","city":"江戸川区","address":"東京都江戸川区中葛西3丁目36-8","lat":35.66543088,"lon":139.87287995},{"name":"葛西駅前","province":"東京都","city":"江戸川区","address":"東京都江戸川区中葛西3丁目37-16","lat":35.66394771,"lon":139.87279389},{"name":"なぎさ団地前","province":"東京都","city":"江戸川区","address":"東京都江戸川区南葛西6丁目15","lat":35.64704146,"lon":139.87910524},{"name":"レクリエーション公園","province":"東京都","city":"江戸川区","address":"東京都江戸川区南葛西3丁目23","lat":35.65069078,"lon":139.87071689},{"name":"葛西中学校北","province":"東京都","city":"江戸川区","address":"東京都江戸川区中葛西1丁目42-19","lat":35.67294659,"lon":139.87170481},{"name":"西葛西児童遊園前","province":"東京都","city":"江戸川区","address":"東京都江戸川区西葛西6丁目11","lat":35.66281668,"lon":139.85787023},{"name":"船堀駅前","province":"東京都","city":"江戸川区","address":"東京都江戸川区船堀3丁目6","lat":35.68362821,"lon":139.86435796},{"name":"清新第一小学校東","province":"東京都","city":"江戸川区","address":"東京都江戸川区清新町1丁目3-6","lat":35.66189452,"lon":139.85587597},{"name":"都住船堀四丁目東","province":"東京都","city":"江戸川区","address":"東京都江戸川区松江5丁目19-1","lat":35.68547268,"lon":139.86795478},{"name":"葛西臨海公園駅東","province":"東京都","city":"江戸川区","address":"東京都江戸川区臨海町6丁目3-8","lat":35.6430054,"lon":139.86559541},{"name":"葛西第七小学校前","province":"東京都","city":"江戸川区","address":"東京都江戸川区西葛西7丁目2","lat":35.66149462,"lon":139.85758696},{"name":"環七東葛西七丁目","province":"東京都","city":"江戸川区","address":"東京都江戸川区東葛西7丁目2-5","lat":35.65992597,"lon":139.873369},{"name":"葛西臨海水族園","province":"東京都","city":"江戸川区","address":"江戸川区臨海町6-2-3","lat":35.6400947,"lon":139.8621658},{"name":"西瑞江給水所","province":"東京都","city":"江戸川区","address":"東京都江戸川区東瑞江1丁目26-2","lat":35.69135275,"lon":139.89810175},{"name":"葛西給水所","province":"東京都","city":"江戸川区","address":"東京都江戸川区北葛西3丁目9","lat":35.67359591,"lon":139.85917535},{"name":"都立篠崎公園","province":"東京都","city":"江戸川区","address":"東京都江戸川区上篠崎1丁目25","lat":35.7146518,"lon":139.89798133},{"name":"区立宇喜田中央公園","province":"東京都","city":"江戸川区","address":"東京都江戸川区北葛西4丁目15","lat":35.67038268,"lon":139.86439164},{"name":"区立小岩公園","province":"東京都","city":"江戸川区","address":"東京都江戸川区北小岩6丁目43","lat":35.74601851,"lon":139.8865981},{"name":"都立大島小松川公園","province":"東京都","city":"江戸川区","address":"東京都江戸川区小松川1丁目7","lat":35.69216816,"lon":139.85200056},{"name":"都立葛西南高等学校","province":"東京都","city":"江戸川区","address":"東京都江戸川区南葛西1丁目11-1","lat":35.65367379,"lon":139.87079175},{"name":"西瑞江給水所（注５）","province":"東京都","city":"江戸川区","address":"東京都江戸川区東瑞江1丁目26-2","lat":35.69135275,"lon":139.89810175},{"name":"上篠崎","province":"東京都","city":"江戸川区","address":"東京都江戸川区上篠崎2丁目27","lat":35.71283558,"lon":139.90618361},{"name":"葛西臨海公園","province":"東京都","city":"江戸川区","address":"東京都江戸川区臨海町6丁目","lat":35.6462852,"lon":139.85139641},{"name":"一之江橋","province":"東京都","city":"江戸川区","address":"東京都江戸川区新堀1丁目1","lat":35.70258678,"lon":139.88574945},{"name":"小松川","province":"東京都","city":"江戸川区","address":"東京都江戸川区小松川1丁目","lat":35.68984346,"lon":139.84946741},{"name":"新今井橋","province":"東京都","city":"江戸川区","address":"東京都江戸川区江戸川4丁目","lat":35.68234427,"lon":139.88820301},{"name":"平井","province":"東京都","city":"江戸川区","address":"東京都江戸川区平井6丁目71","lat":35.71365739,"lon":139.84385591},{"name":"なぎさ公園","province":"東京都","city":"江戸川区","address":"東京都江戸川区南葛西7丁目3","lat":35.64875249,"lon":139.88177994},{"name":"今井交通公園","province":"東京都","city":"江戸川区","address":"東京都江戸川区中葛西4丁目9","lat":35.66799142,"lon":139.86705815},{"name":"スポーツランド","province":"東京都","city":"江戸川区","address":"東京都江戸川区東篠崎1丁目8","lat":35.69783207,"lon":139.91731117},{"name":"ポニーランド","province":"東京都","city":"江戸川区","address":"東京都江戸川区南篠崎町3丁目23","lat":35.69480527,"lon":139.90019585},{"name":"篠崎公園","province":"東京都","city":"江戸川区","address":"東京都江戸川区上篠崎1丁目25","lat":35.7146518,"lon":139.89798133},{"name":"小岩菖蒲園","province":"東京都","city":"江戸川区","address":"東京都江戸川区北小岩4丁目37","lat":35.73856957,"lon":139.89622538},{"name":"葛西警察署","province":"東京都","city":"江戸川区","address":"江戸川区東葛西6-39-1","lat":35.6615,"lon":139.8796},{"name":"小岩警察署","province":"東京都","city":"江戸川区","address":"江戸川区東小岩6-9-17","lat":35.73386,"lon":139.8876},{"name":"小松川警察署","province":"東京都","city":"江戸川区","address":"江戸川区松島1-19-22","lat":35.70257,"lon":139.8638},{"name":"江戸川消防署","province":"東京都","city":"江戸川区","address":"江戸川区中央2-9-13","lat":35.70607,"lon":139.8725},{"name":"葛西消防署","province":"東京都","city":"江戸川区","address":"江戸川区中葛西1-29-1","lat":35.66946,"lon":139.8693},{"name":"小岩消防署","province":"東京都","city":"江戸川区","address":"江戸川区鹿骨2-42-11","lat":35.70864,"lon":139.8949},{"name":"アルフレッサ（株）江戸川医薬品センター","province":"東京都","city":"江戸川区","address":"江戸川区平井7-5-32","lat":35.71645,"lon":139.8356},{"name":"上篠崎","province":"東京都","city":"江戸川区","address":"東京都江戸川区上篠崎2丁目27","lat":35.71283558,"lon":139.90618361},{"name":"一之江橋","province":"東京都","city":"江戸川区","address":"東京都江戸川区新堀1丁目1","lat":35.70258678,"lon":139.88574945},{"name":"平井","province":"東京都","city":"江戸川区","address":"東京都江戸川区平井6丁目71","lat":35.71365739,"lon":139.84385591},{"name":"なぎさ公園","province":"東京都","city":"江戸川区","address":"東京都江戸川区南葛西7丁目3","lat":35.64875249,"lon":139.88177994},{"name":"今井交通公園","province":"東京都","city":"江戸川区","address":"東京都江戸川区中葛西4丁目9","lat":35.66799142,"lon":139.86705815},{"name":"スポーツランド","province":"東京都","city":"江戸川区","address":"東京都江戸川区東篠崎1丁目8","lat":35.69783207,"lon":139.91731117},{"name":"ポニーランド","province":"東京都","city":"江戸川区","address":"東京都江戸川区篠崎町3丁目23","lat":35.70440913,"lon":139.91392782},{"name":"篠崎公園","province":"東京都","city":"江戸川区","address":"東京都江戸川区上篠崎1丁目25","lat":35.7146518,"lon":139.89798133},{"name":"小岩菖蒲園","province":"東京都","city":"江戸川区","address":"東京都江戸川区北小岩4丁目37","lat":35.73856957,"lon":139.89622538},{"name":"小松川橋西詰","province":"東京都","city":"江戸川区","address":"東京都江戸川区小松川4丁目52-3","lat":35.69975868,"lon":139.85051171},{"name":"八蔵橋","province":"東京都","city":"江戸川区","address":"東京都江戸川区中央1丁目6-3","lat":35.70827538,"lon":139.86776791},{"name":"松江西","province":"東京都","city":"江戸川区","address":"東京都江戸川区松江1丁目1-1","lat":35.69857377,"lon":139.86812381},{"name":"江戸川区役所前","province":"東京都","city":"江戸川区","address":"東京都江戸川区中央1丁目3-7","lat":35.70626449,"lon":139.86799296},{"name":"平井駅出口","province":"東京都","city":"江戸川区","address":"東京都江戸川区平井5丁目17-5","lat":35.70734687,"lon":139.84092033},{"name":"今井橋","province":"東京都","city":"江戸川区","address":"東京都江戸川区江戸川4丁目4","lat":35.68198045,"lon":139.88870854},{"name":"瑞江大橋西詰","province":"東京都","city":"江戸川区","address":"東京都江戸川区一之江8丁目18-14","lat":35.68547148,"lon":139.88430872},{"name":"環七一之江陸橋下","province":"東京都","city":"江戸川区","address":"東京都江戸川区一之江4丁目1-22","lat":35.68773221,"lon":139.88240325},{"name":"瑞江大橋","province":"東京都","city":"江戸川区","address":"東京都江戸川区西瑞江4丁目1-1","lat":35.68521045,"lon":139.8850559},{"name":"瑞江駅前","province":"東京都","city":"江戸川区","address":"東京都江戸川区瑞江2丁目3-1","lat":35.69285544,"lon":139.89814055},{"name":"平井駅北口第二","province":"東京都","city":"江戸川区","address":"東京都江戸川区平井5丁目23-1","lat":35.70704133,"lon":139.84262855},{"name":"平井駅南口","province":"東京都","city":"江戸川区","address":"東京都江戸川区平井4丁目11-6","lat":35.7063386,"lon":139.84345076},{"name":"平井駅南口第二","province":"東京都","city":"江戸川区","address":"東京都江戸川区平井4丁目10-4","lat":35.70595251,"lon":139.8441285},{"name":"環七一之江三丁目","province":"東京都","city":"江戸川区","address":"東京都江戸川区一之江4丁目14","lat":35.69097915,"lon":139.88233366},{"name":"柴又新道口","province":"東京都","city":"江戸川区","address":"東京都江戸川区北小岩2丁目1-17","lat":35.73635886,"lon":139.88481789},{"name":"菅原橋","province":"東京都","city":"江戸川区","address":"東京都江戸川区本一色2丁目1-9","lat":35.71608067,"lon":139.8739057},{"name":"篠崎コミュニティ会館入口","province":"東京都","city":"江戸川区","address":"東京都江戸川区上篠崎4丁目19","lat":35.70914768,"lon":139.90088687},{"name":"六軒島第二","province":"東京都","city":"江戸川区","address":"東京都江戸川区西小岩2丁目20-16","lat":35.73411472,"lon":139.87790459},{"name":"船堀小学校前","province":"東京都","city":"江戸川区","address":"東京都江戸川区船堀2丁目22-22","lat":35.68271987,"lon":139.86232762},{"name":"江戸川五丁目","province":"東京都","city":"江戸川区","address":"東京都江戸川区江戸川5丁目22","lat":35.67398887,"lon":139.88162334},{"name":"船堀駅","province":"東京都","city":"江戸川区","address":"東京都江戸川区船堀1丁目6-11","lat":35.68483914,"lon":139.86387187},{"name":"新船堀大橋東詰","province":"東京都","city":"江戸川区","address":"東京都江戸川区船堀1丁目4-13","lat":35.68619736,"lon":139.86473009},{"name":"中葛西二丁目","province":"東京都","city":"江戸川区","address":"東京都江戸川区中葛西2丁目16-6","lat":35.67234696,"lon":139.87588779},{"name":"新田通り宇喜田町","province":"東京都","city":"江戸川区","address":"東京都江戸川区西葛西5丁目8-14","lat":35.66810781,"lon":139.8610059},{"name":"第四葛西小学校前","province":"東京都","city":"江戸川区","address":"東京都江戸川区中葛西8丁目9-5","lat":35.65952589,"lon":139.87046094},{"name":"西葛西六丁目","province":"東京都","city":"江戸川区","address":"東京都江戸川区西葛西6丁目28-14","lat":35.66195034,"lon":139.86385307},{"name":"西葛西六丁目第三","province":"東京都","city":"江戸川区","address":"東京都江戸川区西葛西6丁目12-1","lat":35.66269451,"lon":139.85903403},{"name":"西葛西駅北","province":"東京都","city":"江戸川区","address":"東京都江戸川区西葛西5丁目1-1","lat":35.66529419,"lon":139.85911727},{"name":"葛西駅前第二","province":"東京都","city":"江戸川区","address":"東京都江戸川区中葛西5丁目42-8","lat":35.66278395,"lon":139.87273838},{"name":"中葛西三丁目","province":"東京都","city":"江戸川区","address":"東京都江戸川区中葛西3丁目36-8","lat":35.66543088,"lon":139.87287995},{"name":"葛西駅前","province":"東京都","city":"江戸川区","address":"東京都江戸川区中葛西3丁目37-16","lat":35.66394771,"lon":139.87279389},{"name":"なぎさ団地前","province":"東京都","city":"江戸川区","address":"東京都江戸川区南葛西6丁目15","lat":35.64704146,"lon":139.87910524},{"name":"レクリエーション公園","province":"東京都","city":"江戸川区","address":"東京都江戸川区南葛西3丁目23","lat":35.65069078,"lon":139.87071689},{"name":"葛西中学校北","province":"東京都","city":"江戸川区","address":"東京都江戸川区中葛西1丁目42-19","lat":35.67294659,"lon":139.87170481},{"name":"西葛西児童遊園前","province":"東京都","city":"江戸川区","address":"東京都江戸川区西葛西6丁目11","lat":35.66281668,"lon":139.85787023},{"name":"船堀駅前","province":"東京都","city":"江戸川区","address":"東京都江戸川区船堀3丁目6","lat":35.68362821,"lon":139.86435796},{"name":"清新第一小学校東","province":"東京都","city":"江戸川区","address":"東京都江戸川区清新町1丁目3-6","lat":35.66189452,"lon":139.85587597},{"name":"都住船堀四丁目東","province":"東京都","city":"江戸川区","address":"東京都江戸川区松江5丁目19-1","lat":35.68547268,"lon":139.86795478},{"name":"葛西臨海公園駅東","province":"東京都","city":"江戸川区","address":"東京都江戸川区臨海町6丁目3-8","lat":35.6430054,"lon":139.86559541},{"name":"葛西第七小学校前","province":"東京都","city":"江戸川区","address":"東京都江戸川区西葛西7丁目2","lat":35.66149462,"lon":139.85758696},{"name":"環七東葛西七丁目","province":"東京都","city":"江戸川区","address":"東京都江戸川区東葛西7丁目2-5","lat":35.65992597,"lon":139.873369},{"name":"葛西臨海水族園","province":"東京都","city":"江戸川区","address":"江戸川区臨海町6-2-3","lat":35.6400947,"lon":139.8621658},{"name":"西瑞江給水所","province":"東京都","city":"江戸川区","address":"東京都江戸川区東瑞江1丁目26-2","lat":35.69135275,"lon":139.89810175},{"name":"葛西給水所","province":"東京都","city":"江戸川区","address":"東京都江戸川区北葛西3丁目9","lat":35.67359591,"lon":139.85917535},{"name":"都立篠崎公園","province":"東京都","city":"江戸川区","address":"東京都江戸川区上篠崎1丁目25","lat":35.7146518,"lon":139.89798133},{"name":"区立宇喜田中央公園","province":"東京都","city":"江戸川区","address":"東京都江戸川区北葛西4丁目15","lat":35.67038268,"lon":139.86439164},{"name":"区立小岩公園","province":"東京都","city":"江戸川区","address":"東京都江戸川区北小岩6丁目43","lat":35.74601851,"lon":139.8865981},{"name":"都立大島小松川公園","province":"東京都","city":"江戸川区","address":"東京都江戸川区小松川1丁目7","lat":35.69216816,"lon":139.85200056},{"name":"都立葛西南高等学校","province":"東京都","city":"江戸川区","address":"東京都江戸川区南葛西1丁目11-1","lat":35.65367379,"lon":139.87079175},{"name":"西瑞江給水所（注５）","province":"東京都","city":"江戸川区","address":"東京都江戸川区東瑞江1丁目26-2","lat":35.69135275,"lon":139.89810175},{"name":"上篠崎","province":"東京都","city":"江戸川区","address":"東京都江戸川区上篠崎2丁目27","lat":35.71283558,"lon":139.90618361},{"name":"葛西臨海公園","province":"東京都","city":"江戸川区","address":"東京都江戸川区臨海町6丁目","lat":35.6462852,"lon":139.85139641},{"name":"一之江橋","province":"東京都","city":"江戸川区","address":"東京都江戸川区新堀1丁目1","lat":35.70258678,"lon":139.88574945},{"name":"小松川","province":"東京都","city":"江戸川区","address":"東京都江戸川区小松川1丁目","lat":35.68984346,"lon":139.84946741},{"name":"新今井橋","province":"東京都","city":"江戸川区","address":"東京都江戸川区江戸川4丁目","lat":35.68234427,"lon":139.88820301},{"name":"平井","province":"東京都","city":"江戸川区","address":"東京都江戸川区平井6丁目71","lat":35.71365739,"lon":139.84385591},{"name":"なぎさ公園","province":"東京都","city":"江戸川区","address":"東京都江戸川区南葛西7丁目3","lat":35.64875249,"lon":139.88177994},{"name":"今井交通公園","province":"東京都","city":"江戸川区","address":"東京都江戸川区中葛西4丁目9","lat":35.66799142,"lon":139.86705815},{"name":"スポーツランド","province":"東京都","city":"江戸川区","address":"東京都江戸川区東篠崎1丁目8","lat":35.69783207,"lon":139.91731117},{"name":"ポニーランド","province":"東京都","city":"江戸川区","address":"東京都江戸川区南篠崎町3丁目23","lat":35.69480527,"lon":139.90019585},{"name":"篠崎公園","province":"東京都","city":"江戸川区","address":"東京都江戸川区上篠崎1丁目25","lat":35.7146518,"lon":139.89798133},{"name":"小岩菖蒲園","province":"東京都","city":"江戸川区","address":"東京都江戸川区北小岩4丁目37","lat":35.73856957,"lon":139.89622538},{"name":"葛西警察署","province":"東京都","city":"江戸川区","address":"江戸川区東葛西6-39-1","lat":35.6615,"lon":139.8796},{"name":"小岩警察署","province":"東京都","city":"江戸川区","address":"江戸川区東小岩6-9-17","lat":35.73386,"lon":139.8876},{"name":"小松川警察署","province":"東京都","city":"江戸川区","address":"江戸川区松島1-19-22","lat":35.70257,"lon":139.8638},{"name":"江戸川消防署","province":"東京都","city":"江戸川区","address":"江戸川区中央2-9-13","lat":35.70607,"lon":139.8725},{"name":"葛西消防署","province":"東京都","city":"江戸川区","address":"江戸川区中葛西1-29-1","lat":35.66946,"lon":139.8693},{"name":"小岩消防署","province":"東京都","city":"江戸川区","address":"江戸川区鹿骨2-42-11","lat":35.70864,"lon":139.8949},{"name":"アルフレッサ（株）江戸川医薬品センター","province":"東京都","city":"江戸川区","address":"江戸川区平井7-5-32","lat":35.71645,"lon":139.8356},{"name":"上篠崎","province":"東京都","city":"江戸川区","address":"東京都江戸川区上篠崎2丁目27","lat":35.71283558,"lon":139.90618361},{"name":"一之江橋","province":"東京都","city":"江戸川区","address":"東京都江戸川区新堀1丁目1","lat":35.70258678,"lon":139.88574945},{"name":"平井","province":"東京都","city":"江戸川区","address":"東京都江戸川区平井6丁目71","lat":35.71365739,"lon":139.84385591},{"name":"なぎさ公園","province":"東京都","city":"江戸川区","address":"東京都江戸川区南葛西7丁目3","lat":35.64875249,"lon":139.88177994},{"name":"今井交通公園","province":"東京都","city":"江戸川区","address":"東京都江戸川区中葛西4丁目9","lat":35.66799142,"lon":139.86705815},{"name":"スポーツランド","province":"東京都","city":"江戸川区","address":"東京都江戸川区東篠崎1丁目8","lat":35.69783207,"lon":139.91731117},{"name":"ポニーランド","province":"東京都","city":"江戸川区","address":"東京都江戸川区篠崎町3丁目23","lat":35.70440913,"lon":139.91392782},{"name":"篠崎公園","province":"東京都","city":"江戸川区","address":"東京都江戸川区上篠崎1丁目25","lat":35.7146518,"lon":139.89798133},{"name":"小岩菖蒲園","province":"東京都","city":"江戸川区","address":"東京都江戸川区北小岩4丁目37","lat":35.73856957,"lon":139.89622538},{"name":"小松川橋西詰","province":"東京都","city":"江戸川区","address":"東京都江戸川区小松川4丁目52-3","lat":35.69975868,"lon":139.85051171},{"name":"八蔵橋","province":"東京都","city":"江戸川区","address":"東京都江戸川区中央1丁目6-3","lat":35.70827538,"lon":139.86776791},{"name":"松江西","province":"東京都","city":"江戸川区","address":"東京都江戸川区松江1丁目1-1","lat":35.69857377,"lon":139.86812381},{"name":"江戸川区役所前","province":"東京都","city":"江戸川区","address":"東京都江戸川区中央1丁目3-7","lat":35.70626449,"lon":139.86799296},{"name":"平井駅出口","province":"東京都","city":"江戸川区","address":"東京都江戸川区平井5丁目17-5","lat":35.70734687,"lon":139.84092033},{"name":"今井橋","province":"東京都","city":"江戸川区","address":"東京都江戸川区江戸川4丁目4","lat":35.68198045,"lon":139.88870854},{"name":"瑞江大橋西詰","province":"東京都","city":"江戸川区","address":"東京都江戸川区一之江8丁目18-14","lat":35.68547148,"lon":139.88430872},{"name":"環七一之江陸橋下","province":"東京都","city":"江戸川区","address":"東京都江戸川区一之江4丁目1-22","lat":35.68773221,"lon":139.88240325},{"name":"瑞江大橋","province":"東京都","city":"江戸川区","address":"東京都江戸川区西瑞江4丁目1-1","lat":35.68521045,"lon":139.8850559},{"name":"瑞江駅前","province":"東京都","city":"江戸川区","address":"東京都江戸川区瑞江2丁目3-1","lat":35.69285544,"lon":139.89814055},{"name":"平井駅北口第二","province":"東京都","city":"江戸川区","address":"東京都江戸川区平井5丁目23-1","lat":35.70704133,"lon":139.84262855},{"name":"平井駅南口","province":"東京都","city":"江戸川区","address":"東京都江戸川区平井4丁目11-6","lat":35.7063386,"lon":139.84345076},{"name":"平井駅南口第二","province":"東京都","city":"江戸川区","address":"東京都江戸川区平井4丁目10-4","lat":35.70595251,"lon":139.8441285},{"name":"環七一之江三丁目","province":"東京都","city":"江戸川区","address":"東京都江戸川区一之江4丁目14","lat":35.69097915,"lon":139.88233366},{"name":"柴又新道口","province":"東京都","city":"江戸川区","address":"東京都江戸川区北小岩2丁目1-17","lat":35.73635886,"lon":139.88481789},{"name":"菅原橋","province":"東京都","city":"江戸川区","address":"東京都江戸川区本一色2丁目1-9","lat":35.71608067,"lon":139.8739057},{"name":"篠崎コミュニティ会館入口","province":"東京都","city":"江戸川区","address":"東京都江戸川区上篠崎4丁目19","lat":35.70914768,"lon":139.90088687},{"name":"六軒島第二","province":"東京都","city":"江戸川区","address":"東京都江戸川区西小岩2丁目20-16","lat":35.73411472,"lon":139.87790459},{"name":"船堀小学校前","province":"東京都","city":"江戸川区","address":"東京都江戸川区船堀2丁目22-22","lat":35.68271987,"lon":139.86232762},{"name":"江戸川五丁目","province":"東京都","city":"江戸川区","address":"東京都江戸川区江戸川5丁目22","lat":35.67398887,"lon":139.88162334},{"name":"船堀駅","province":"東京都","city":"江戸川区","address":"東京都江戸川区船堀1丁目6-11","lat":35.68483914,"lon":139.86387187},{"name":"新船堀大橋東詰","province":"東京都","city":"江戸川区","address":"東京都江戸川区船堀1丁目4-13","lat":35.68619736,"lon":139.86473009},{"name":"中葛西二丁目","province":"東京都","city":"江戸川区","address":"東京都江戸川区中葛西2丁目16-6","lat":35.67234696,"lon":139.87588779},{"name":"新田通り宇喜田町","province":"東京都","city":"江戸川区","address":"東京都江戸川区西葛西5丁目8-14","lat":35.66810781,"lon":139.8610059},{"name":"第四葛西小学校前","province":"東京都","city":"江戸川区","address":"東京都江戸川区中葛西8丁目9-5","lat":35.65952589,"lon":139.87046094},{"name":"西葛西六丁目","province":"東京都","city":"江戸川区","address":"東京都江戸川区西葛西6丁目28-14","lat":35.66195034,"lon":139.86385307},{"name":"西葛西六丁目第三","province":"東京都","city":"江戸川区","address":"東京都江戸川区西葛西6丁目12-1","lat":35.66269451,"lon":139.85903403},{"name":"西葛西駅北","province":"東京都","city":"江戸川区","address":"東京都江戸川区西葛西5丁目1-1","lat":35.66529419,"lon":139.85911727},{"name":"葛西駅前第二","province":"東京都","city":"江戸川区","address":"東京都江戸川区中葛西5丁目42-8","lat":35.66278395,"lon":139.87273838},{"name":"中葛西三丁目","province":"東京都","city":"江戸川区","address":"東京都江戸川区中葛西3丁目36-8","lat":35.66543088,"lon":139.87287995},{"name":"葛西駅前","province":"東京都","city":"江戸川区","address":"東京都江戸川区中葛西3丁目37-16","lat":35.66394771,"lon":139.87279389},{"name":"なぎさ団地前","province":"東京都","city":"江戸川区","address":"東京都江戸川区南葛西6丁目15","lat":35.64704146,"lon":139.87910524},{"name":"レクリエーション公園","province":"東京都","city":"江戸川区","address":"東京都江戸川区南葛西3丁目23","lat":35.65069078,"lon":139.87071689},{"name":"葛西中学校北","province":"東京都","city":"江戸川区","address":"東京都江戸川区中葛西1丁目42-19","lat":35.67294659,"lon":139.87170481},{"name":"西葛西児童遊園前","province":"東京都","city":"江戸川区","address":"東京都江戸川区西葛西6丁目11","lat":35.66281668,"lon":139.85787023},{"name":"船堀駅前","province":"東京都","city":"江戸川区","address":"東京都江戸川区船堀3丁目6","lat":35.68362821,"lon":139.86435796},{"name":"清新第一小学校東","province":"東京都","city":"江戸川区","address":"東京都江戸川区清新町1丁目3-6","lat":35.66189452,"lon":139.85587597},{"name":"都住船堀四丁目東","province":"東京都","city":"江戸川区","address":"東京都江戸川区松江5丁目19-1","lat":35.68547268,"lon":139.86795478},{"name":"葛西臨海公園駅東","province":"東京都","city":"江戸川区","address":"東京都江戸川区臨海町6丁目3-8","lat":35.6430054,"lon":139.86559541},{"name":"葛西第七小学校前","province":"東京都","city":"江戸川区","address":"東京都江戸川区西葛西7丁目2","lat":35.66149462,"lon":139.85758696},{"name":"環七東葛西七丁目","province":"東京都","city":"江戸川区","address":"東京都江戸川区東葛西7丁目2-5","lat":35.65992597,"lon":139.873369},{"name":"葛西臨海水族園","province":"東京都","city":"江戸川区","address":"江戸川区臨海町6-2-3","lat":35.6400947,"lon":139.8621658},{"name":"西瑞江給水所","province":"東京都","city":"江戸川区","address":"東京都江戸川区東瑞江1丁目26-2","lat":35.69135275,"lon":139.89810175},{"name":"葛西給水所","province":"東京都","city":"江戸川区","address":"東京都江戸川区北葛西3丁目9","lat":35.67359591,"lon":139.85917535},{"name":"都立篠崎公園","province":"東京都","city":"江戸川区","address":"東京都江戸川区上篠崎1丁目25","lat":35.7146518,"lon":139.89798133},{"name":"区立宇喜田中央公園","province":"東京都","city":"江戸川区","address":"東京都江戸川区北葛西4丁目15","lat":35.67038268,"lon":139.86439164},{"name":"区立小岩公園","province":"東京都","city":"江戸川区","address":"東京都江戸川区北小岩6丁目43","lat":35.74601851,"lon":139.8865981},{"name":"都立大島小松川公園","province":"東京都","city":"江戸川区","address":"東京都江戸川区小松川1丁目7","lat":35.69216816,"lon":139.85200056},{"name":"都立葛西南高等学校","province":"東京都","city":"江戸川区","address":"東京都江戸川区南葛西1丁目11-1","lat":35.65367379,"lon":139.87079175},{"name":"西瑞江給水所（注５）","province":"東京都","city":"江戸川区","address":"東京都江戸川区東瑞江1丁目26-2","lat":35.69135275,"lon":139.89810175},{"name":"上篠崎","province":"東京都","city":"江戸川区","address":"東京都江戸川区上篠崎2丁目27","lat":35.71283558,"lon":139.90618361},{"name":"葛西臨海公園","province":"東京都","city":"江戸川区","address":"東京都江戸川区臨海町6丁目","lat":35.6462852,"lon":139.85139641},{"name":"一之江橋","province":"東京都","city":"江戸川区","address":"東京都江戸川区新堀1丁目1","lat":35.70258678,"lon":139.88574945},{"name":"小松川","province":"東京都","city":"江戸川区","address":"東京都江戸川区小松川1丁目","lat":35.68984346,"lon":139.84946741},{"name":"新今井橋","province":"東京都","city":"江戸川区","address":"東京都江戸川区江戸川4丁目","lat":35.68234427,"lon":139.88820301},{"name":"平井","province":"東京都","city":"江戸川区","address":"東京都江戸川区平井6丁目71","lat":35.71365739,"lon":139.84385591},{"name":"なぎさ公園","province":"東京都","city":"江戸川区","address":"東京都江戸川区南葛西7丁目3","lat":35.64875249,"lon":139.88177994},{"name":"今井交通公園","province":"東京都","city":"江戸川区","address":"東京都江戸川区中葛西4丁目9","lat":35.66799142,"lon":139.86705815},{"name":"スポーツランド","province":"東京都","city":"江戸川区","address":"東京都江戸川区東篠崎1丁目8","lat":35.69783207,"lon":139.91731117},{"name":"ポニーランド","province":"東京都","city":"江戸川区","address":"東京都江戸川区南篠崎町3丁目23","lat":35.69480527,"lon":139.90019585},{"name":"篠崎公園","province":"東京都","city":"江戸川区","address":"東京都江戸川区上篠崎1丁目25","lat":35.7146518,"lon":139.89798133},{"name":"小岩菖蒲園","province":"東京都","city":"江戸川区","address":"東京都江戸川区北小岩4丁目37","lat":35.73856957,"lon":139.89622538},{"name":"葛西警察署","province":"東京都","city":"江戸川区","address":"江戸川区東葛西6-39-1","lat":35.6615,"lon":139.8796},{"name":"小岩警察署","province":"東京都","city":"江戸川区","address":"江戸川区東小岩6-9-17","lat":35.73386,"lon":139.8876},{"name":"小松川警察署","province":"東京都","city":"江戸川区","address":"江戸川区松島1-19-22","lat":35.70257,"lon":139.8638},{"name":"江戸川消防署","province":"東京都","city":"江戸川区","address":"江戸川区中央2-9-13","lat":35.70607,"lon":139.8725},{"name":"葛西消防署","province":"東京都","city":"江戸川区","address":"江戸川区中葛西1-29-1","lat":35.66946,"lon":139.8693},{"name":"小岩消防署","province":"東京都","city":"江戸川区","address":"江戸川区鹿骨2-42-11","lat":35.70864,"lon":139.8949},{"name":"アルフレッサ（株）江戸川医薬品センター","province":"東京都","city":"江戸川区","address":"江戸川区平井7-5-32","lat":35.71645,"lon":139.8356},{"name":"上篠崎","province":"東京都","city":"江戸川区","address":"東京都江戸川区上篠崎2丁目27","lat":35.71283558,"lon":139.90618361},{"name":"一之江橋","province":"東京都","city":"江戸川区","address":"東京都江戸川区新堀1丁目1","lat":35.70258678,"lon":139.88574945},{"name":"平井","province":"東京都","city":"江戸川区","address":"東京都江戸川区平井6丁目71","lat":35.71365739,"lon":139.84385591},{"name":"なぎさ公園","province":"東京都","city":"江戸川区","address":"東京都江戸川区南葛西7丁目3","lat":35.64875249,"lon":139.88177994},{"name":"今井交通公園","province":"東京都","city":"江戸川区","address":"東京都江戸川区中葛西4丁目9","lat":35.66799142,"lon":139.86705815},{"name":"スポーツランド","province":"東京都","city":"江戸川区","address":"東京都江戸川区東篠崎1丁目8","lat":35.69783207,"lon":139.91731117},{"name":"ポニーランド","province":"東京都","city":"江戸川区","address":"東京都江戸川区篠崎町3丁目23","lat":35.70440913,"lon":139.91392782},{"name":"篠崎公園","province":"東京都","city":"江戸川区","address":"東京都江戸川区上篠崎1丁目25","lat":35.7146518,"lon":139.89798133},{"name":"小岩菖蒲園","province":"東京都","city":"江戸川区","address":"東京都江戸川区北小岩4丁目37","lat":35.73856957,"lon":139.89622538}]}