{"keyword":"水上","data":[{"name":"上篠崎","province":"東京都","city":"江戸川区","address":"東京都江戸川区上篠崎2丁目27","lat":35.71283558,"lon":139.90618361},{"name":"葛西臨海公園","province":"東京都","city":"江戸川区","address":"東京都江戸川区臨海町6丁目","lat":35.6462852,"lon":139.85139641},{"name":"一之江橋","province":"東京都","city":"江戸川区","address":"東京都江戸川区新堀1丁目1","lat":35.70258678,"lon":139.88574945},{"name":"小松川","province":"東京都","city":"江戸川区","address":"東京都江戸川区小松川1丁目","lat":35.68984346,"lon":139.84946741},{"name":"新今井橋","province":"東京都","city":"江戸川区","address":"東京都江戸川区江戸川4丁目","lat":35.68234427,"lon":139.88820301},{"name":"平井","province":"東京都","city":"江戸川区","address":"東京都江戸川区平井6丁目71","lat":35.71365739,"lon":139.84385591},{"name":"なぎさ公園","province":"東京都","city":"江戸川区","address":"東京都江戸川区南葛西7丁目3","lat":35.64875249,"lon":139.88177994},{"name":"今井交通公園","province":"東京都","city":"江戸川区","address":"東京都江戸川区中葛西4丁目9","lat":35.66799142,"lon":139.86705815},{"name":"スポーツランド","province":"東京都","city":"江戸川区","address":"東京都江戸川区東篠崎1丁目8","lat":35.69783207,"lon":139.91731117},{"name":"ポニーランド","province":"東京都","city":"江戸川区","address":"東京都江戸川区南篠崎町3丁目23","lat":35.69480527,"lon":139.90019585},{"name":"篠崎公園","province":"東京都","city":"江戸川区","address":"東京都江戸川区上篠崎1丁目25","lat":35.7146518,"lon":139.89798133},{"name":"小岩菖蒲園","province":"東京都","city":"江戸川区","address":"東京都江戸川区北小岩4丁目37","lat":35.73856957,"lon":139.89622538},{"name":"上篠崎","province":"東京都","city":"江戸川区","address":"東京都江戸川区上篠崎2丁目27","lat":35.71283558,"lon":139.90618361},{"name":"一之江橋","province":"東京都","city":"江戸川区","address":"東京都江戸川区新堀1丁目1","lat":35.70258678,"lon":139.88574945},{"name":"平井","province":"東京都","city":"江戸川区","address":"東京都江戸川区平井6丁目71","lat":35.71365739,"lon":139.84385591},{"name":"なぎさ公園","province":"東京都","city":"江戸川区","address":"東京都江戸川区南葛西7丁目3","lat":35.64875249,"lon":139.88177994},{"name":"今井交通公園","province":"東京都","city":"江戸川区","address":"東京都江戸川区中葛西4丁目9","lat":35.66799142,"lon":139.86705815},{"name":"スポーツランド","province":"東京都","city":"江戸川区","address":"東京都江戸川区東篠崎1丁目8","lat":35.69783207,"lon":139.91731117},{"name":"ポニーランド","province":"東京都","city":"江戸川区","address":"東京都江戸川区篠崎町3丁目23","lat":35.70440913,"lon":139.91392782},{"name":"篠崎公園","province":"東京都","city":"江戸川区","address":"東京都江戸川区上篠崎1丁目25","lat":35.7146518,"lon":139.89798133},{"name":"小岩菖蒲園","province":"東京都","city":"江戸川区","address":"東京都江戸川区北小岩4丁目37","lat":35.73856957,"lon":139.89622538}]}