{"keyword":"自転車","data":[{"name":"一之江駅西口駐輪場","province":"東京都","city":"江戸川区","address":"東京都江戸川区一之江7丁目36","lat":35.68578505,"lon":139.8815812},{"name":"一之江駅北口駐輪場","province":"東京都","city":"江戸川区","address":"東京都江戸川区一之江3丁目5-17","lat":35.68757401,"lon":139.88355036},{"name":"一之江駅東口駐輪場","province":"東京都","city":"江戸川区","address":"東京都江戸川区一之江8丁目14-1","lat":35.68602407,"lon":139.88303104},{"name":"平井駅北口駐輪場","province":"東京都","city":"江戸川区","address":"東京都江戸川区平井5丁目18-8","lat":35.70704688,"lon":139.84208971},{"name":"平井駅東駐輪場","province":"東京都","city":"江戸川区","address":"東京都江戸川区平井5丁目23","lat":35.70712465,"lon":139.84265911},{"name":"平井駅南口駐輪場","province":"東京都","city":"江戸川区","address":"東京都江戸川区平井3丁目30-1","lat":35.70627751,"lon":139.84249249},{"name":"船堀駅中央駐輪場","province":"東京都","city":"江戸川区","address":"東京都江戸川区船堀4丁目1-21","lat":35.68368382,"lon":139.86529676},{"name":"西葛西駅南口駐輪場","province":"東京都","city":"江戸川区","address":"東京都江戸川区西葛西6丁目15-1","lat":35.66407213,"lon":139.85941451},{"name":"西葛西駅北口駐輪場","province":"東京都","city":"江戸川区","address":"東京都江戸川区西葛西5丁目6-1","lat":35.66482483,"lon":139.85987556},{"name":"葛西臨海公園駅西駐輪場","province":"東京都","city":"江戸川区","address":"東京都江戸川区臨海町6丁目3-3","lat":35.64514109,"lon":139.85957636},{"name":"小岩駅東駐輪場","province":"東京都","city":"江戸川区","address":"東京都江戸川区南小岩8丁目16-9","lat":35.73475909,"lon":139.88469016},{"name":"小岩駅西2号駐輪場","province":"東京都","city":"江戸川区","address":"東京都江戸川区南小岩6丁目16-8","lat":35.73102066,"lon":139.87863797},{"name":"小岩駅西3号駐輪場","province":"東京都","city":"江戸川区","address":"東京都江戸川区南小岩6丁目16-1","lat":35.73072625,"lon":139.87817136},{"name":"瑞江駅南口駐輪場","province":"東京都","city":"江戸川区","address":"東京都江戸川区瑞江2丁目2-1","lat":35.69319986,"lon":139.89785444},{"name":"瑞江駅北駐輪場","province":"東京都","city":"江戸川区","address":"東京都江戸川区瑞江2丁目13-11","lat":35.69415259,"lon":139.89668226},{"name":"篠崎駅東駐輪場","province":"東京都","city":"江戸川区","address":"東京都江戸川区篠崎町2丁目15-2","lat":35.70692026,"lon":139.905095},{"name":"篠崎駅西口駐輪場","province":"東京都","city":"江戸川区","address":"東京都江戸川区篠崎町7丁目20-19","lat":35.70537076,"lon":139.90281744},{"name":"東大島駅駐輪場","province":"東京都","city":"江戸川区","address":"東京都江戸川区小松川1丁目5-2","lat":35.68900471,"lon":139.8502646},{"name":"京成小岩駅東駐輪場","province":"東京都","city":"江戸川区","address":"東京都江戸川区北小岩5丁目2","lat":35.74147198,"lon":139.88583714},{"name":"京成小岩駅南駐輪場","province":"東京都","city":"江戸川区","address":"東京都江戸川区北小岩2丁目8","lat":35.74281625,"lon":139.88242623},{"name":"京成小岩駅北駐輪場","province":"東京都","city":"江戸川区","address":"東京都江戸川区北小岩6丁目11-4","lat":35.74293567,"lon":139.88341227},{"name":"京成小岩駅南2号駐輪場","province":"東京都","city":"江戸川区","address":"東京都江戸川区北小岩2丁目9-2","lat":35.74181362,"lon":139.88363173},{"name":"瑞江駅南2号駐輪場","province":"東京都","city":"江戸川区","address":"東京都江戸川区東瑞江1丁目26-17","lat":35.69231103,"lon":139.89780728},{"name":"瑞江駅東1号駐輪場","province":"東京都","city":"江戸川区","address":"東京都江戸川区東瑞江2丁目3-6","lat":35.68527536,"lon":139.89676887},{"name":"瑞江駅東4号駐輪場","province":"東京都","city":"江戸川区","address":"東京都江戸川区南篠崎町3丁目6-7","lat":35.69463586,"lon":139.89869041}]}