{"keyword":"認可","data":[{"name":"Gakkenほいくえん瑞江","province":"東京都","city":"江戸川区","address":"江戸川区瑞江1-28-9","lat":35.69963,"lon":139.89767},{"name":"松島おひさま保育園","province":"東京都","city":"江戸川区","address":"江戸川区松島2-30-17","lat":35.7081936,"lon":139.8637662},{"name":"クオリスキッズ南小岩保育園","province":"東京都","city":"江戸川区","address":"江戸川区南小岩5-16-13","lat":35.72734913,"lon":139.8809376},{"name":"キッズガーデン南小岩","province":"東京都","city":"江戸川区","address":"江戸川区南小岩6-31-10-3F","lat":35.73237902,"lon":139.8812353},{"name":"AIAI NURSERY 西小岩","province":"東京都","city":"江戸川区","address":"江戸川区西小岩2-10-7","lat":35.7341,"lon":139.87421},{"name":"Gakkenほいくえん篠崎","province":"東京都","city":"江戸川区","address":"江戸川区鹿骨2-29-10","lat":35.70554,"lon":139.89508},{"name":"中葛西おひさま保育園","province":"東京都","city":"江戸川区","address":"江戸川区中葛西6-17-15","lat":35.66058756,"lon":139.8682446},{"name":"AIAI NURSERY 東葛西","province":"東京都","city":"江戸川区","address":"江戸川区東葛西7-20-15","lat":35.65788,"lon":139.87724},{"name":"Ｇａｋｋｅｎほいくえん瑞江","province":"東京都","city":"江戸川区","address":"江戸川区瑞江1-28-9","lat":35.69963,"lon":139.89767},{"name":"松島おひさま保育園","province":"東京都","city":"江戸川区","address":"江戸川区松島2-30-17","lat":35.70788,"lon":139.86301},{"name":"東小岩わんぱく保育園","province":"東京都","city":"江戸川区","address":"江戸川区東小岩1-7-4","lat":35.72197,"lon":139.89035},{"name":"クオリスキッズ南小岩保育園","province":"東京都","city":"江戸川区","address":"江戸川区南小岩5-16-13","lat":35.72661,"lon":139.88048},{"name":"篠崎わんぱく保育園","province":"東京都","city":"江戸川区","address":"江戸川区篠崎町2-19-21","lat":35.70563,"lon":139.90584},{"name":"Ｇａｋｋｅｎほいくえん篠崎","province":"東京都","city":"江戸川区","address":"江戸川区鹿骨2-29-10","lat":35.70554,"lon":139.89508},{"name":"中葛西おひさま保育園","province":"東京都","city":"江戸川区","address":"江戸川区中葛西6-17-15","lat":35.66025,"lon":139.868},{"name":"船堀わんぱく保育園","province":"東京都","city":"江戸川区","address":"江戸川区船堀5-11-15","lat":35.68097,"lon":139.87035},{"name":"ココファン・ナーサリー瑞江","province":"東京都","city":"江戸川区","address":"江戸川区瑞江1-28-9","lat":35.69963,"lon":139.89767},{"name":"若葉インターナショナルナーサリー","province":"東京都","city":"江戸川区","address":"江戸川区瑞江3-30-13","lat":35.69438,"lon":139.89709},{"name":"江戸川二丁目保育園","province":"東京都","city":"江戸川区","address":"江戸川区江戸川2-31","lat":35.68449,"lon":139.90097},{"name":"江戸川保育園","province":"東京都","city":"江戸川区","address":"江戸川区江戸川1-46","lat":35.68827,"lon":139.90305},{"name":"みどりの郷保育園","province":"東京都","city":"江戸川区","address":"江戸川区江戸川2-15-22","lat":35.68462,"lon":139.90283},{"name":"若葉インターナショナル幼保園瑞江園","province":"東京都","city":"江戸川区","address":"江戸川区東瑞江3-55-21-101","lat":35.694638,"lon":139.910515},{"name":"あい・あい保育園西小岩園","province":"東京都","city":"江戸川区","address":"江戸川区西小岩2-10-7","lat":35.70563,"lon":139.90584},{"name":"篠崎わんぱく保育園","province":"東京都","city":"江戸川区","address":"江戸川区篠崎町2-19-21","lat":35.7037,"lon":139.90273},{"name":"さくらさくみらい篠崎","province":"東京都","city":"江戸川区","address":"江戸川区篠崎町7-13-18","lat":35.70272,"lon":139.9032},{"name":"篠崎ちとせ保育園","province":"東京都","city":"江戸川区","address":"江戸川区篠崎町6-4-20","lat":35.69664,"lon":139.91451},{"name":"南篠崎おひさま保育園","province":"東京都","city":"江戸川区","address":"江戸川区南篠崎5-13-40","lat":35.694931,"lon":139.91061},{"name":"ココファン・ナーサリー篠崎","province":"東京都","city":"江戸川区","address":"江戸川区鹿骨2-29-10","lat":35.70554,"lon":139.89508},{"name":"グローバルキッズ宇喜田町園","province":"東京都","city":"江戸川区","address":"江戸川区宇喜田町1279","lat":35.674889,"lon":139.862532},{"name":"ココロラボインターナショナル平井3丁目","province":"東京都","city":"江戸川区","address":"江戸川区平井3-13-11","lat":35.70379,"lon":139.84164},{"name":"あい・あい保育園西小岩園","province":"東京都","city":"江戸川区","address":"江戸川区西小岩2-10-7","lat":35.7341,"lon":139.87421},{"name":"あい・あい保育園東葛西園","province":"東京都","city":"江戸川区","address":"江戸川区東葛西7-20-15","lat":35.65788,"lon":139.87724},{"name":"春江第二保育園","province":"東京都","city":"江戸川区","address":"江戸川区春江町2-4-2","lat":35.70025,"lon":139.88669},{"name":"ココファン・ナーサリー瑞江","province":"東京都","city":"江戸川区","address":"江戸川区瑞江1-28-9","lat":35.69963,"lon":139.89768},{"name":"南松島保育園","province":"東京都","city":"江戸川区","address":"江戸川区松島1-19-15","lat":35.7028,"lon":139.8635},{"name":"小松川おひさま保育園","province":"東京都","city":"江戸川区","address":"江戸川区小松川1-2-2-116","lat":35.68807,"lon":139.84895},{"name":"松本おひさま保育園","province":"東京都","city":"江戸川区","address":"江戸川区松本1-9-3","lat":35.7138,"lon":139.87708},{"name":"ベルカント保育園","province":"東京都","city":"江戸川区","address":"江戸川区東小岩4-4-2","lat":35.72557,"lon":139.88915},{"name":"南小岩保育園","province":"東京都","city":"江戸川区","address":"江戸川区南小岩4-5-8","lat":35.72096,"lon":139.88564},{"name":"南篠崎保育園","province":"東京都","city":"江戸川区","address":"江戸川区南篠崎町3-12-8","lat":35.69663,"lon":139.89914},{"name":"グローバルキッズ宇喜田町園","province":"東京都","city":"江戸川区","address":"江戸川区宇喜田町1279","lat":35.67631,"lon":139.86321},{"name":"アスク東葛西保育園","province":"東京都","city":"江戸川区","address":"江戸川区東葛西6-28-6","lat":35.66008,"lon":139.87647},{"name":"キッズラボ東葛西園","province":"東京都","city":"江戸川区","address":"江戸川区東葛西9-3-14","lat":35.65336,"lon":139.88069},{"name":"堀江第三保育園","province":"東京都","city":"江戸川区","address":"江戸川区南葛西7-2-5","lat":35.64702,"lon":139.88001},{"name":"グローバルキッズ南葛西園","province":"東京都","city":"江戸川区","address":"江戸川区南葛西6-19-131階","lat":35.64776,"lon":139.87711},{"name":"清新第一保育園","province":"東京都","city":"江戸川区","address":"江戸川区清新町1-3-2-103","lat":35.66126,"lon":139.85623},{"name":"ソラスト船堀保育園","province":"東京都","city":"江戸川区","address":"江戸川区船堀3-15-151F","lat":35.68078,"lon":139.86589},{"name":"若葉インターナショナル幼保園瑞江園","province":"東京都","city":"江戸川区","address":"江戸川区東瑞江3-55-21-101","lat":35.69016,"lon":139.89732},{"name":"みのりのわかば保育園","province":"東京都","city":"江戸川区","address":"江戸川区東小松川3-24-16","lat":35.69702,"lon":139.84932},{"name":"平井第二保育園","province":"東京都","city":"江戸川区","address":"江戸川区平井6-1-23-101","lat":35.70799,"lon":139.84041}]}