{"keyword":"財団","data":[{"name":"H1T西葛西","province":"東京都","city":"江戸川区","address":"東京都江戸川区西葛西6丁目8-10","lat":35.66439706,"lon":139.85854512},{"name":"東京電力（株）小松川電柱置場","province":"東京都","city":"江戸川区","address":"江戸川区松江5-14-1","lat":35.68697,"lon":139.8698},{"name":"H1T西葛西","province":"東京都","city":"江戸川区","address":"東京都江戸川区西葛西6丁目8-10","lat":35.66439706,"lon":139.85854512},{"name":"東京電力（株）小松川電柱置場","province":"東京都","city":"江戸川区","address":"江戸川区松江5-14-1","lat":35.68697,"lon":139.8698},{"name":"H1T西葛西","province":"東京都","city":"江戸川区","address":"東京都江戸川区西葛西6丁目8-10","lat":35.66439706,"lon":139.85854512},{"name":"東京電力（株）小松川電柱置場","province":"東京都","city":"江戸川区","address":"江戸川区松江5-14-1","lat":35.68697,"lon":139.8698},{"name":"H1T西葛西","province":"東京都","city":"江戸川区","address":"東京都江戸川区西葛西6丁目8-10","lat":35.66439706,"lon":139.85854512},{"name":"東京電力（株）小松川電柱置場","province":"東京都","city":"江戸川区","address":"江戸川区松江5-14-1","lat":35.68697,"lon":139.8698},{"name":"東京電力（株）小松川電柱置場","province":"東京都","city":"江戸川区","address":"江戸川区松江5-14-1","lat":35.68697,"lon":139.8698},{"name":"東京電力（株）小松川電柱置場","province":"東京都","city":"江戸川区","address":"江戸川区松江5-14-1","lat":35.68697,"lon":139.8698},{"name":"東京電力（株）小松川電柱置場","province":"東京都","city":"江戸川区","address":"江戸川区松江5-14-1","lat":35.68697,"lon":139.8698},{"name":"東京電力（株）小松川電柱置場","province":"東京都","city":"江戸川区","address":"江戸川区松江5-14-1","lat":35.68697,"lon":139.8698},{"name":"東京電力（株）小松川電柱置場","province":"東京都","city":"江戸川区","address":"江戸川区松江5-14-1","lat":35.68697,"lon":139.8698},{"name":"東京電力（株）小松川電柱置場","province":"東京都","city":"江戸川区","address":"江戸川区松江5-14-1","lat":35.68697,"lon":139.8698},{"name":"東京電力（株）小松川電柱置場","province":"東京都","city":"江戸川区","address":"江戸川区松江5-14-1","lat":35.68697,"lon":139.8698},{"name":"東京電力（株）小松川電柱置場","province":"東京都","city":"江戸川区","address":"江戸川区松江5-14-1","lat":35.68697,"lon":139.8698},{"name":"東京電力（株）小松川電柱置場","province":"東京都","city":"江戸川区","address":"江戸川区松江5-14-1","lat":35.68697,"lon":139.8698},{"name":"東京電力（株）小松川電柱置場","province":"東京都","city":"江戸川区","address":"江戸川区松江5-14-1","lat":35.68697,"lon":139.8698},{"name":"東京電力（株）小松川電柱置場","province":"東京都","city":"江戸川区","address":"江戸川区松江5-14-1","lat":35.68697,"lon":139.8698},{"name":"東京電力（株）小松川電柱置場","province":"東京都","city":"江戸川区","address":"江戸川区松江5-14-1","lat":35.68697,"lon":139.8698},{"name":"東京電力（株）小松川電柱置場","province":"東京都","city":"江戸川区","address":"江戸川区松江5-14-1","lat":35.68697,"lon":139.8698},{"name":"東京電力（株）小松川電柱置場","province":"東京都","city":"江戸川区","address":"江戸川区松江5-14-1","lat":35.68697,"lon":139.8698},{"name":"東京電力（株）小松川電柱置場","province":"東京都","city":"江戸川区","address":"江戸川区松江5-14-1","lat":35.68697,"lon":139.8698},{"name":"東京電力（株）小松川電柱置場","province":"東京都","city":"江戸川区","address":"江戸川区松江5-14-1","lat":35.68697,"lon":139.8698},{"name":"東京電力（株）小松川電柱置場","province":"東京都","city":"江戸川区","address":"江戸川区松江5-14-1","lat":35.68697,"lon":139.8698},{"name":"東京電力（株）小松川電柱置場","province":"東京都","city":"江戸川区","address":"江戸川区松江5-14-1","lat":35.68697,"lon":139.8698},{"name":"東京電力（株）小松川電柱置場","province":"東京都","city":"江戸川区","address":"江戸川区松江5-14-1","lat":35.68697,"lon":139.8698},{"name":"東京電力（株）小松川電柱置場","province":"東京都","city":"江戸川区","address":"江戸川区松江5-14-1","lat":35.68697,"lon":139.8698},{"name":"東京電力（株）小松川電柱置場","province":"東京都","city":"江戸川区","address":"江戸川区松江5-14-1","lat":35.68697,"lon":139.8698},{"name":"東京電力（株）小松川電柱置場","province":"東京都","city":"江戸川区","address":"江戸川区松江5-14-1","lat":35.68697,"lon":139.8698},{"name":"東京電力（株）小松川電柱置場","province":"東京都","city":"江戸川区","address":"江戸川区松江5-14-1","lat":35.68697,"lon":139.8698},{"name":"東京電力（株）小松川電柱置場","province":"東京都","city":"江戸川区","address":"江戸川区松江5-14-1","lat":35.68697,"lon":139.8698},{"name":"東京電力（株）小松川電柱置場","province":"東京都","city":"江戸川区","address":"江戸川区松江5-14-1","lat":35.68697,"lon":139.8698},{"name":"東京電力（株）小松川電柱置場","province":"東京都","city":"江戸川区","address":"江戸川区松江5-14-1","lat":35.68697,"lon":139.8698},{"name":"東京電力（株）小松川電柱置場","province":"東京都","city":"江戸川区","address":"江戸川区松江5-14-1","lat":35.68697,"lon":139.8698}]}