{"keyword":"重傷","data":[{"name":"都立葛西臨海公園第２駐車場","province":"東京都","city":"江戸川区","address":"東京都江戸川区臨海町6丁目2","lat":35.64164166,"lon":139.86520384},{"name":"都立葛西臨海公園多目的広場","province":"東京都","city":"江戸川区","address":"東京都江戸川区臨海町6丁目2","lat":35.64164166,"lon":139.86520384},{"name":"都立葛西海浜公園人口なぎさ","province":"東京都","city":"江戸川区","address":"東京都江戸川区臨海町6丁目","lat":35.6462852,"lon":139.85139641},{"name":"都立大島小松川公園（自由の広場）","province":"東京都","city":"江戸川区","address":"東京都江戸川区小松川1丁目7","lat":35.69216816,"lon":139.85200056},{"name":"江戸川区臨海球技場第二","province":"東京都","city":"江戸川区","address":"東京都江戸川区臨海町6丁目1","lat":35.64490485,"lon":139.85315466},{"name":"江戸川区球場","province":"東京都","city":"江戸川区","address":"東京都江戸川区北小岩4丁目38","lat":35.73930002,"lon":139.89605594},{"name":"江戸川区立篠崎緑地１９号地・１０号地","province":"東京都","city":"江戸川区","address":"東京都江戸川区篠崎町1丁目26","lat":35.70838102,"lon":139.90561435},{"name":"都立篠崎公園野球場（第２面）","province":"東京都","city":"江戸川区","address":"東京都江戸川区上篠崎1丁目25","lat":35.7146518,"lon":139.89798133},{"name":"区営河川敷広場","province":"東京都","city":"江戸川区","address":"東京都江戸川区上篠崎1丁目","lat":35.71365485,"lon":139.90170055},{"name":"区営河川敷グラウンド","province":"東京都","city":"江戸川区","address":"東京都江戸川区上篠崎3丁目","lat":35.71301614,"lon":139.8983508},{"name":"鹿骨スポーツ広場","province":"東京都","city":"江戸川区","address":"東京都江戸川区上篠崎4丁目5","lat":35.70850907,"lon":139.8962289},{"name":"北小岩４丁目グラウンド","province":"東京都","city":"江戸川区","address":"東京都江戸川区北小岩4丁目","lat":35.73853903,"lon":139.8951338},{"name":"城東職業能力開発センター江戸川校","province":"東京都","city":"江戸川区","address":"東京都江戸川区中央2丁目31-27","lat":35.70692643,"lon":139.87508919},{"name":"葛西市場","province":"東京都","city":"江戸川区","address":"東京都江戸川区臨海町3丁目4-1","lat":35.64921017,"lon":139.86351753},{"name":"江戸川高等学校","province":"東京都","city":"江戸川区","address":"東京都江戸川区松島2丁目38-1","lat":35.70868342,"lon":139.865621},{"name":"葛西南高等学校","province":"東京都","city":"江戸川区","address":"東京都江戸川区南葛西1丁目11-1","lat":35.65367379,"lon":139.87079175},{"name":"小松川高等学校","province":"東京都","city":"江戸川区","address":"東京都江戸川区平井1丁目27-10","lat":35.70266933,"lon":139.85134779},{"name":"篠崎高等学校","province":"東京都","city":"江戸川区","address":"東京都江戸川区東篠崎1丁目10-1","lat":35.70047624,"lon":139.91601672},{"name":"葛西工業高等学校","province":"東京都","city":"江戸川区","address":"東京都江戸川区一之江7丁目68-1","lat":35.68361274,"lon":139.87887044},{"name":"小岩高等学校","province":"東京都","city":"江戸川区","address":"東京都江戸川区本一色3丁目10-1","lat":35.7213742,"lon":139.86892265},{"name":"紅葉川高等学校","province":"東京都","city":"江戸川区","address":"東京都江戸川区臨海町2丁目1-1","lat":35.65276793,"lon":139.85881221},{"name":"都立葛西臨海公園第２駐車場","province":"東京都","city":"江戸川区","address":"東京都江戸川区臨海町6丁目2","lat":35.64164166,"lon":139.86520384},{"name":"都立葛西臨海公園多目的広場","province":"東京都","city":"江戸川区","address":"東京都江戸川区臨海町6丁目2","lat":35.64164166,"lon":139.86520384},{"name":"都立葛西海浜公園人口なぎさ","province":"東京都","city":"江戸川区","address":"東京都江戸川区臨海町6丁目","lat":35.6462852,"lon":139.85139641},{"name":"都立大島小松川公園（自由の広場）","province":"東京都","city":"江戸川区","address":"東京都江戸川区小松川1丁目7","lat":35.69216816,"lon":139.85200056},{"name":"江戸川区臨海球技場第二","province":"東京都","city":"江戸川区","address":"東京都江戸川区臨海町6丁目1","lat":35.64490485,"lon":139.85315466},{"name":"江戸川区球場","province":"東京都","city":"江戸川区","address":"東京都江戸川区北小岩4丁目38","lat":35.73930002,"lon":139.89605594},{"name":"江戸川区立篠崎緑地１９号地・１０号地","province":"東京都","city":"江戸川区","address":"東京都江戸川区篠崎町1丁目26","lat":35.70838102,"lon":139.90561435},{"name":"都立篠崎公園野球場（第２面）","province":"東京都","city":"江戸川区","address":"東京都江戸川区上篠崎1丁目25","lat":35.7146518,"lon":139.89798133},{"name":"区営河川敷広場","province":"東京都","city":"江戸川区","address":"東京都江戸川区上篠崎1丁目","lat":35.71365485,"lon":139.90170055},{"name":"区営河川敷グラウンド","province":"東京都","city":"江戸川区","address":"東京都江戸川区上篠崎3丁目","lat":35.71301614,"lon":139.8983508},{"name":"鹿骨スポーツ広場","province":"東京都","city":"江戸川区","address":"東京都江戸川区上篠崎4丁目5","lat":35.70850907,"lon":139.8962289},{"name":"北小岩４丁目グラウンド","province":"東京都","city":"江戸川区","address":"東京都江戸川区北小岩4丁目","lat":35.73853903,"lon":139.8951338},{"name":"城東職業能力開発センター江戸川校","province":"東京都","city":"江戸川区","address":"東京都江戸川区中央2丁目31-27","lat":35.70692643,"lon":139.87508919},{"name":"葛西市場","province":"東京都","city":"江戸川区","address":"東京都江戸川区臨海町3丁目4-1","lat":35.64921017,"lon":139.86351753},{"name":"江戸川高等学校","province":"東京都","city":"江戸川区","address":"東京都江戸川区松島2丁目38-1","lat":35.70868342,"lon":139.865621},{"name":"葛西南高等学校","province":"東京都","city":"江戸川区","address":"東京都江戸川区南葛西1丁目11-1","lat":35.65367379,"lon":139.87079175},{"name":"小松川高等学校","province":"東京都","city":"江戸川区","address":"東京都江戸川区平井1丁目27-10","lat":35.70266933,"lon":139.85134779},{"name":"篠崎高等学校","province":"東京都","city":"江戸川区","address":"東京都江戸川区東篠崎1丁目10-1","lat":35.70047624,"lon":139.91601672},{"name":"葛西工業高等学校","province":"東京都","city":"江戸川区","address":"東京都江戸川区一之江7丁目68-1","lat":35.68361274,"lon":139.87887044},{"name":"小岩高等学校","province":"東京都","city":"江戸川区","address":"東京都江戸川区本一色3丁目10-1","lat":35.7213742,"lon":139.86892265},{"name":"紅葉川高等学校","province":"東京都","city":"江戸川区","address":"東京都江戸川区臨海町2丁目1-1","lat":35.65276793,"lon":139.85881221},{"name":"都立葛西臨海公園第２駐車場","province":"東京都","city":"江戸川区","address":"東京都江戸川区臨海町6丁目2","lat":35.64164166,"lon":139.86520384},{"name":"都立葛西臨海公園多目的広場","province":"東京都","city":"江戸川区","address":"東京都江戸川区臨海町6丁目2","lat":35.64164166,"lon":139.86520384},{"name":"都立葛西海浜公園人口なぎさ","province":"東京都","city":"江戸川区","address":"東京都江戸川区臨海町6丁目","lat":35.6462852,"lon":139.85139641},{"name":"都立大島小松川公園（自由の広場）","province":"東京都","city":"江戸川区","address":"東京都江戸川区小松川1丁目7","lat":35.69216816,"lon":139.85200056},{"name":"江戸川区臨海球技場第二","province":"東京都","city":"江戸川区","address":"東京都江戸川区臨海町6丁目1","lat":35.64490485,"lon":139.85315466},{"name":"江戸川区球場","province":"東京都","city":"江戸川区","address":"東京都江戸川区北小岩4丁目38","lat":35.73930002,"lon":139.89605594},{"name":"江戸川区立篠崎緑地１９号地・１０号地","province":"東京都","city":"江戸川区","address":"東京都江戸川区篠崎町1丁目26","lat":35.70838102,"lon":139.90561435},{"name":"都立篠崎公園野球場（第２面）","province":"東京都","city":"江戸川区","address":"東京都江戸川区上篠崎1丁目25","lat":35.7146518,"lon":139.89798133},{"name":"区営河川敷広場","province":"東京都","city":"江戸川区","address":"東京都江戸川区上篠崎1丁目","lat":35.71365485,"lon":139.90170055},{"name":"区営河川敷グラウンド","province":"東京都","city":"江戸川区","address":"東京都江戸川区上篠崎3丁目","lat":35.71301614,"lon":139.8983508},{"name":"鹿骨スポーツ広場","province":"東京都","city":"江戸川区","address":"東京都江戸川区上篠崎4丁目5","lat":35.70850907,"lon":139.8962289},{"name":"北小岩４丁目グラウンド","province":"東京都","city":"江戸川区","address":"東京都江戸川区北小岩4丁目","lat":35.73853903,"lon":139.8951338},{"name":"城東職業能力開発センター江戸川校","province":"東京都","city":"江戸川区","address":"東京都江戸川区中央2丁目31-27","lat":35.70692643,"lon":139.87508919},{"name":"葛西市場","province":"東京都","city":"江戸川区","address":"東京都江戸川区臨海町3丁目4-1","lat":35.64921017,"lon":139.86351753},{"name":"江戸川高等学校","province":"東京都","city":"江戸川区","address":"東京都江戸川区松島2丁目38-1","lat":35.70868342,"lon":139.865621},{"name":"葛西南高等学校","province":"東京都","city":"江戸川区","address":"東京都江戸川区南葛西1丁目11-1","lat":35.65367379,"lon":139.87079175},{"name":"小松川高等学校","province":"東京都","city":"江戸川区","address":"東京都江戸川区平井1丁目27-10","lat":35.70266933,"lon":139.85134779},{"name":"篠崎高等学校","province":"東京都","city":"江戸川区","address":"東京都江戸川区東篠崎1丁目10-1","lat":35.70047624,"lon":139.91601672},{"name":"葛西工業高等学校","province":"東京都","city":"江戸川区","address":"東京都江戸川区一之江7丁目68-1","lat":35.68361274,"lon":139.87887044},{"name":"小岩高等学校","province":"東京都","city":"江戸川区","address":"東京都江戸川区本一色3丁目10-1","lat":35.7213742,"lon":139.86892265},{"name":"紅葉川高等学校","province":"東京都","city":"江戸川区","address":"東京都江戸川区臨海町2丁目1-1","lat":35.65276793,"lon":139.85881221},{"name":"都立葛西臨海公園第２駐車場","province":"東京都","city":"江戸川区","address":"東京都江戸川区臨海町6丁目2","lat":35.64164166,"lon":139.86520384},{"name":"都立葛西臨海公園多目的広場","province":"東京都","city":"江戸川区","address":"東京都江戸川区臨海町6丁目2","lat":35.64164166,"lon":139.86520384},{"name":"都立葛西海浜公園人口なぎさ","province":"東京都","city":"江戸川区","address":"東京都江戸川区臨海町6丁目","lat":35.6462852,"lon":139.85139641},{"name":"都立大島小松川公園（自由の広場）","province":"東京都","city":"江戸川区","address":"東京都江戸川区小松川1丁目7","lat":35.69216816,"lon":139.85200056},{"name":"江戸川区臨海球技場第二","province":"東京都","city":"江戸川区","address":"東京都江戸川区臨海町6丁目1","lat":35.64490485,"lon":139.85315466},{"name":"江戸川区球場","province":"東京都","city":"江戸川区","address":"東京都江戸川区北小岩4丁目38","lat":35.73930002,"lon":139.89605594},{"name":"江戸川区立篠崎緑地１９号地・１０号地","province":"東京都","city":"江戸川区","address":"東京都江戸川区篠崎町1丁目26","lat":35.70838102,"lon":139.90561435},{"name":"都立篠崎公園野球場（第２面）","province":"東京都","city":"江戸川区","address":"東京都江戸川区上篠崎1丁目25","lat":35.7146518,"lon":139.89798133},{"name":"区営河川敷広場","province":"東京都","city":"江戸川区","address":"東京都江戸川区上篠崎1丁目","lat":35.71365485,"lon":139.90170055},{"name":"区営河川敷グラウンド","province":"東京都","city":"江戸川区","address":"東京都江戸川区上篠崎3丁目","lat":35.71301614,"lon":139.8983508},{"name":"鹿骨スポーツ広場","province":"東京都","city":"江戸川区","address":"東京都江戸川区上篠崎4丁目5","lat":35.70850907,"lon":139.8962289},{"name":"北小岩４丁目グラウンド","province":"東京都","city":"江戸川区","address":"東京都江戸川区北小岩4丁目","lat":35.73853903,"lon":139.8951338},{"name":"城東職業能力開発センター江戸川校","province":"東京都","city":"江戸川区","address":"東京都江戸川区中央2丁目31-27","lat":35.70692643,"lon":139.87508919},{"name":"葛西市場","province":"東京都","city":"江戸川区","address":"東京都江戸川区臨海町3丁目4-1","lat":35.64921017,"lon":139.86351753},{"name":"江戸川高等学校","province":"東京都","city":"江戸川区","address":"東京都江戸川区松島2丁目38-1","lat":35.70868342,"lon":139.865621},{"name":"葛西南高等学校","province":"東京都","city":"江戸川区","address":"東京都江戸川区南葛西1丁目11-1","lat":35.65367379,"lon":139.87079175},{"name":"小松川高等学校","province":"東京都","city":"江戸川区","address":"東京都江戸川区平井1丁目27-10","lat":35.70266933,"lon":139.85134779},{"name":"篠崎高等学校","province":"東京都","city":"江戸川区","address":"東京都江戸川区東篠崎1丁目10-1","lat":35.70047624,"lon":139.91601672},{"name":"葛西工業高等学校","province":"東京都","city":"江戸川区","address":"東京都江戸川区一之江7丁目68-1","lat":35.68361274,"lon":139.87887044},{"name":"小岩高等学校","province":"東京都","city":"江戸川区","address":"東京都江戸川区本一色3丁目10-1","lat":35.7213742,"lon":139.86892265},{"name":"紅葉川高等学校","province":"東京都","city":"江戸川区","address":"東京都江戸川区臨海町2丁目1-1","lat":35.65276793,"lon":139.85881221},{"name":"都立葛西臨海公園第２駐車場","province":"東京都","city":"江戸川区","address":"東京都江戸川区臨海町6丁目2","lat":35.64164166,"lon":139.86520384},{"name":"都立葛西臨海公園多目的広場","province":"東京都","city":"江戸川区","address":"東京都江戸川区臨海町6丁目2","lat":35.64164166,"lon":139.86520384},{"name":"都立葛西海浜公園人口なぎさ","province":"東京都","city":"江戸川区","address":"東京都江戸川区臨海町6丁目","lat":35.6462852,"lon":139.85139641},{"name":"都立大島小松川公園（自由の広場）","province":"東京都","city":"江戸川区","address":"東京都江戸川区小松川1丁目7","lat":35.69216816,"lon":139.85200056},{"name":"江戸川区臨海球技場第二","province":"東京都","city":"江戸川区","address":"東京都江戸川区臨海町6丁目1","lat":35.64490485,"lon":139.85315466},{"name":"江戸川区球場","province":"東京都","city":"江戸川区","address":"東京都江戸川区北小岩4丁目38","lat":35.73930002,"lon":139.89605594},{"name":"江戸川区立篠崎緑地１９号地・１０号地","province":"東京都","city":"江戸川区","address":"東京都江戸川区篠崎町1丁目26","lat":35.70838102,"lon":139.90561435},{"name":"都立篠崎公園野球場（第２面）","province":"東京都","city":"江戸川区","address":"東京都江戸川区上篠崎1丁目25","lat":35.7146518,"lon":139.89798133},{"name":"区営河川敷広場","province":"東京都","city":"江戸川区","address":"東京都江戸川区上篠崎1丁目","lat":35.71365485,"lon":139.90170055},{"name":"区営河川敷グラウンド","province":"東京都","city":"江戸川区","address":"東京都江戸川区上篠崎3丁目","lat":35.71301614,"lon":139.8983508},{"name":"鹿骨スポーツ広場","province":"東京都","city":"江戸川区","address":"東京都江戸川区上篠崎4丁目5","lat":35.70850907,"lon":139.8962289},{"name":"北小岩４丁目グラウンド","province":"東京都","city":"江戸川区","address":"東京都江戸川区北小岩4丁目","lat":35.73853903,"lon":139.8951338},{"name":"城東職業能力開発センター江戸川校","province":"東京都","city":"江戸川区","address":"東京都江戸川区中央2丁目31-27","lat":35.70692643,"lon":139.87508919},{"name":"葛西市場","province":"東京都","city":"江戸川区","address":"東京都江戸川区臨海町3丁目4-1","lat":35.64921017,"lon":139.86351753},{"name":"江戸川高等学校","province":"東京都","city":"江戸川区","address":"東京都江戸川区松島2丁目38-1","lat":35.70868342,"lon":139.865621},{"name":"葛西南高等学校","province":"東京都","city":"江戸川区","address":"東京都江戸川区南葛西1丁目11-1","lat":35.65367379,"lon":139.87079175},{"name":"小松川高等学校","province":"東京都","city":"江戸川区","address":"東京都江戸川区平井1丁目27-10","lat":35.70266933,"lon":139.85134779},{"name":"篠崎高等学校","province":"東京都","city":"江戸川区","address":"東京都江戸川区東篠崎1丁目10-1","lat":35.70047624,"lon":139.91601672},{"name":"葛西工業高等学校","province":"東京都","city":"江戸川区","address":"東京都江戸川区一之江7丁目68-1","lat":35.68361274,"lon":139.87887044},{"name":"小岩高等学校","province":"東京都","city":"江戸川区","address":"東京都江戸川区本一色3丁目10-1","lat":35.7213742,"lon":139.86892265},{"name":"紅葉川高等学校","province":"東京都","city":"江戸川区","address":"東京都江戸川区臨海町2丁目1-1","lat":35.65276793,"lon":139.85881221},{"name":"都立葛西臨海公園第２駐車場","province":"東京都","city":"江戸川区","address":"東京都江戸川区臨海町6丁目2","lat":35.64164166,"lon":139.86520384},{"name":"都立葛西臨海公園多目的広場","province":"東京都","city":"江戸川区","address":"東京都江戸川区臨海町6丁目2","lat":35.64164166,"lon":139.86520384},{"name":"都立葛西海浜公園人口なぎさ","province":"東京都","city":"江戸川区","address":"東京都江戸川区臨海町6丁目","lat":35.6462852,"lon":139.85139641},{"name":"都立大島小松川公園（自由の広場）","province":"東京都","city":"江戸川区","address":"東京都江戸川区小松川1丁目7","lat":35.69216816,"lon":139.85200056},{"name":"江戸川区臨海球技場第二","province":"東京都","city":"江戸川区","address":"東京都江戸川区臨海町6丁目1","lat":35.64490485,"lon":139.85315466},{"name":"江戸川区球場","province":"東京都","city":"江戸川区","address":"東京都江戸川区北小岩4丁目38","lat":35.73930002,"lon":139.89605594},{"name":"江戸川区立篠崎緑地１９号地・１０号地","province":"東京都","city":"江戸川区","address":"東京都江戸川区篠崎町1丁目26","lat":35.70838102,"lon":139.90561435},{"name":"都立篠崎公園野球場（第２面）","province":"東京都","city":"江戸川区","address":"東京都江戸川区上篠崎1丁目25","lat":35.7146518,"lon":139.89798133},{"name":"区営河川敷広場","province":"東京都","city":"江戸川区","address":"東京都江戸川区上篠崎1丁目","lat":35.71365485,"lon":139.90170055},{"name":"区営河川敷グラウンド","province":"東京都","city":"江戸川区","address":"東京都江戸川区上篠崎3丁目","lat":35.71301614,"lon":139.8983508},{"name":"鹿骨スポーツ広場","province":"東京都","city":"江戸川区","address":"東京都江戸川区上篠崎4丁目5","lat":35.70850907,"lon":139.8962289},{"name":"北小岩４丁目グラウンド","province":"東京都","city":"江戸川区","address":"東京都江戸川区北小岩4丁目","lat":35.73853903,"lon":139.8951338},{"name":"城東職業能力開発センター江戸川校","province":"東京都","city":"江戸川区","address":"東京都江戸川区中央2丁目31-27","lat":35.70692643,"lon":139.87508919},{"name":"葛西市場","province":"東京都","city":"江戸川区","address":"東京都江戸川区臨海町3丁目4-1","lat":35.64921017,"lon":139.86351753},{"name":"江戸川高等学校","province":"東京都","city":"江戸川区","address":"東京都江戸川区松島2丁目38-1","lat":35.70868342,"lon":139.865621},{"name":"葛西南高等学校","province":"東京都","city":"江戸川区","address":"東京都江戸川区南葛西1丁目11-1","lat":35.65367379,"lon":139.87079175},{"name":"小松川高等学校","province":"東京都","city":"江戸川区","address":"東京都江戸川区平井1丁目27-10","lat":35.70266933,"lon":139.85134779},{"name":"篠崎高等学校","province":"東京都","city":"江戸川区","address":"東京都江戸川区東篠崎1丁目10-1","lat":35.70047624,"lon":139.91601672},{"name":"葛西工業高等学校","province":"東京都","city":"江戸川区","address":"東京都江戸川区一之江7丁目68-1","lat":35.68361274,"lon":139.87887044},{"name":"小岩高等学校","province":"東京都","city":"江戸川区","address":"東京都江戸川区本一色3丁目10-1","lat":35.7213742,"lon":139.86892265},{"name":"紅葉川高等学校","province":"東京都","city":"江戸川区","address":"東京都江戸川区臨海町2丁目1-1","lat":35.65276793,"lon":139.85881221},{"name":"都立葛西臨海公園第２駐車場","province":"東京都","city":"江戸川区","address":"東京都江戸川区臨海町6丁目2","lat":35.64164166,"lon":139.86520384},{"name":"都立葛西臨海公園多目的広場","province":"東京都","city":"江戸川区","address":"東京都江戸川区臨海町6丁目2","lat":35.64164166,"lon":139.86520384},{"name":"都立葛西海浜公園人口なぎさ","province":"東京都","city":"江戸川区","address":"東京都江戸川区臨海町6丁目","lat":35.6462852,"lon":139.85139641},{"name":"都立大島小松川公園（自由の広場）","province":"東京都","city":"江戸川区","address":"東京都江戸川区小松川1丁目7","lat":35.69216816,"lon":139.85200056},{"name":"江戸川区臨海球技場第二","province":"東京都","city":"江戸川区","address":"東京都江戸川区臨海町6丁目1","lat":35.64490485,"lon":139.85315466},{"name":"江戸川区球場","province":"東京都","city":"江戸川区","address":"東京都江戸川区北小岩4丁目38","lat":35.73930002,"lon":139.89605594},{"name":"江戸川区立篠崎緑地１９号地・１０号地","province":"東京都","city":"江戸川区","address":"東京都江戸川区篠崎町1丁目26","lat":35.70838102,"lon":139.90561435},{"name":"都立篠崎公園野球場（第２面）","province":"東京都","city":"江戸川区","address":"東京都江戸川区上篠崎1丁目25","lat":35.7146518,"lon":139.89798133},{"name":"区営河川敷広場","province":"東京都","city":"江戸川区","address":"東京都江戸川区上篠崎1丁目","lat":35.71365485,"lon":139.90170055},{"name":"区営河川敷グラウンド","province":"東京都","city":"江戸川区","address":"東京都江戸川区上篠崎3丁目","lat":35.71301614,"lon":139.8983508},{"name":"鹿骨スポーツ広場","province":"東京都","city":"江戸川区","address":"東京都江戸川区上篠崎4丁目5","lat":35.70850907,"lon":139.8962289},{"name":"北小岩４丁目グラウンド","province":"東京都","city":"江戸川区","address":"東京都江戸川区北小岩4丁目","lat":35.73853903,"lon":139.8951338},{"name":"都立葛西臨海公園第２駐車場","province":"東京都","city":"江戸川区","address":"東京都江戸川区臨海町6丁目2","lat":35.64164166,"lon":139.86520384},{"name":"都立葛西臨海公園多目的広場","province":"東京都","city":"江戸川区","address":"東京都江戸川区臨海町6丁目2","lat":35.64164166,"lon":139.86520384},{"name":"都立葛西海浜公園人口なぎさ","province":"東京都","city":"江戸川区","address":"東京都江戸川区臨海町6丁目","lat":35.6462852,"lon":139.85139641},{"name":"都立大島小松川公園（自由の広場）","province":"東京都","city":"江戸川区","address":"東京都江戸川区小松川1丁目7","lat":35.69216816,"lon":139.85200056},{"name":"江戸川区臨海球技場第二","province":"東京都","city":"江戸川区","address":"東京都江戸川区臨海町6丁目1","lat":35.64490485,"lon":139.85315466},{"name":"江戸川区球場","province":"東京都","city":"江戸川区","address":"東京都江戸川区北小岩4丁目38","lat":35.73930002,"lon":139.89605594},{"name":"江戸川区立篠崎緑地１９号地・１０号地","province":"東京都","city":"江戸川区","address":"東京都江戸川区篠崎町1丁目26","lat":35.70838102,"lon":139.90561435},{"name":"都立篠崎公園野球場（第２面）","province":"東京都","city":"江戸川区","address":"東京都江戸川区上篠崎1丁目25","lat":35.7146518,"lon":139.89798133},{"name":"区営河川敷広場","province":"東京都","city":"江戸川区","address":"東京都江戸川区上篠崎1丁目","lat":35.71365485,"lon":139.90170055},{"name":"区営河川敷グラウンド","province":"東京都","city":"江戸川区","address":"東京都江戸川区上篠崎3丁目","lat":35.71301614,"lon":139.8983508},{"name":"鹿骨スポーツ広場","province":"東京都","city":"江戸川区","address":"東京都江戸川区上篠崎4丁目5","lat":35.70850907,"lon":139.8962289},{"name":"北小岩４丁目グラウンド","province":"東京都","city":"江戸川区","address":"東京都江戸川区北小岩4丁目","lat":35.73853903,"lon":139.8951338},{"name":"都立葛西臨海公園第２駐車場","province":"東京都","city":"江戸川区","address":"東京都江戸川区臨海町6丁目2","lat":35.64164166,"lon":139.86520384},{"name":"都立葛西臨海公園多目的広場","province":"東京都","city":"江戸川区","address":"東京都江戸川区臨海町6丁目2","lat":35.64164166,"lon":139.86520384},{"name":"都立葛西海浜公園人口なぎさ","province":"東京都","city":"江戸川区","address":"東京都江戸川区臨海町6丁目","lat":35.6462852,"lon":139.85139641},{"name":"都立大島小松川公園（自由の広場）","province":"東京都","city":"江戸川区","address":"東京都江戸川区小松川1丁目7","lat":35.69216816,"lon":139.85200056},{"name":"江戸川区臨海球技場第二","province":"東京都","city":"江戸川区","address":"東京都江戸川区臨海町6丁目1","lat":35.64490485,"lon":139.85315466},{"name":"江戸川区球場","province":"東京都","city":"江戸川区","address":"東京都江戸川区北小岩4丁目38","lat":35.73930002,"lon":139.89605594},{"name":"江戸川区立篠崎緑地１９号地・１０号地","province":"東京都","city":"江戸川区","address":"東京都江戸川区篠崎町1丁目26","lat":35.70838102,"lon":139.90561435},{"name":"都立篠崎公園野球場（第２面）","province":"東京都","city":"江戸川区","address":"東京都江戸川区上篠崎1丁目25","lat":35.7146518,"lon":139.89798133},{"name":"区営河川敷広場","province":"東京都","city":"江戸川区","address":"東京都江戸川区上篠崎1丁目","lat":35.71365485,"lon":139.90170055},{"name":"区営河川敷グラウンド","province":"東京都","city":"江戸川区","address":"東京都江戸川区上篠崎3丁目","lat":35.71301614,"lon":139.8983508},{"name":"鹿骨スポーツ広場","province":"東京都","city":"江戸川区","address":"東京都江戸川区上篠崎4丁目5","lat":35.70850907,"lon":139.8962289},{"name":"北小岩４丁目グラウンド","province":"東京都","city":"江戸川区","address":"東京都江戸川区北小岩4丁目","lat":35.73853903,"lon":139.8951338},{"name":"都立葛西臨海公園第２駐車場","province":"東京都","city":"江戸川区","address":"東京都江戸川区臨海町6丁目2","lat":35.64164166,"lon":139.86520384},{"name":"都立葛西臨海公園多目的広場","province":"東京都","city":"江戸川区","address":"東京都江戸川区臨海町6丁目2","lat":35.64164166,"lon":139.86520384},{"name":"都立葛西海浜公園人口なぎさ","province":"東京都","city":"江戸川区","address":"東京都江戸川区臨海町6丁目","lat":35.6462852,"lon":139.85139641},{"name":"都立大島小松川公園（自由の広場）","province":"東京都","city":"江戸川区","address":"東京都江戸川区小松川1丁目7","lat":35.69216816,"lon":139.85200056},{"name":"江戸川区臨海球技場第二","province":"東京都","city":"江戸川区","address":"東京都江戸川区臨海町6丁目1","lat":35.64490485,"lon":139.85315466},{"name":"江戸川区球場","province":"東京都","city":"江戸川区","address":"東京都江戸川区北小岩4丁目38","lat":35.73930002,"lon":139.89605594},{"name":"江戸川区立篠崎緑地１９号地・１０号地","province":"東京都","city":"江戸川区","address":"東京都江戸川区篠崎町1丁目26","lat":35.70838102,"lon":139.90561435},{"name":"都立篠崎公園野球場（第２面）","province":"東京都","city":"江戸川区","address":"東京都江戸川区上篠崎1丁目25","lat":35.7146518,"lon":139.89798133},{"name":"区営河川敷広場","province":"東京都","city":"江戸川区","address":"東京都江戸川区上篠崎1丁目","lat":35.71365485,"lon":139.90170055},{"name":"区営河川敷グラウンド","province":"東京都","city":"江戸川区","address":"東京都江戸川区上篠崎3丁目","lat":35.71301614,"lon":139.8983508},{"name":"鹿骨スポーツ広場","province":"東京都","city":"江戸川区","address":"東京都江戸川区上篠崎4丁目5","lat":35.70850907,"lon":139.8962289},{"name":"北小岩４丁目グラウンド","province":"東京都","city":"江戸川区","address":"東京都江戸川区北小岩4丁目","lat":35.73853903,"lon":139.8951338},{"name":"都立葛西臨海公園第２駐車場","province":"東京都","city":"江戸川区","address":"東京都江戸川区臨海町6丁目2","lat":35.64164166,"lon":139.86520384},{"name":"都立葛西臨海公園多目的広場","province":"東京都","city":"江戸川区","address":"東京都江戸川区臨海町6丁目2","lat":35.64164166,"lon":139.86520384},{"name":"都立葛西海浜公園人口なぎさ","province":"東京都","city":"江戸川区","address":"東京都江戸川区臨海町6丁目","lat":35.6462852,"lon":139.85139641},{"name":"都立大島小松川公園（自由の広場）","province":"東京都","city":"江戸川区","address":"東京都江戸川区小松川1丁目7","lat":35.69216816,"lon":139.85200056},{"name":"江戸川区臨海球技場第二","province":"東京都","city":"江戸川区","address":"東京都江戸川区臨海町6丁目1","lat":35.64490485,"lon":139.85315466},{"name":"江戸川区球場","province":"東京都","city":"江戸川区","address":"東京都江戸川区北小岩4丁目38","lat":35.73930002,"lon":139.89605594},{"name":"江戸川区立篠崎緑地１９号地・１０号地","province":"東京都","city":"江戸川区","address":"東京都江戸川区篠崎町1丁目26","lat":35.70838102,"lon":139.90561435},{"name":"都立篠崎公園野球場（第２面）","province":"東京都","city":"江戸川区","address":"東京都江戸川区上篠崎1丁目25","lat":35.7146518,"lon":139.89798133},{"name":"区営河川敷広場","province":"東京都","city":"江戸川区","address":"東京都江戸川区上篠崎1丁目","lat":35.71365485,"lon":139.90170055},{"name":"区営河川敷グラウンド","province":"東京都","city":"江戸川区","address":"東京都江戸川区上篠崎3丁目","lat":35.71301614,"lon":139.8983508},{"name":"鹿骨スポーツ広場","province":"東京都","city":"江戸川区","address":"東京都江戸川区上篠崎4丁目5","lat":35.70850907,"lon":139.8962289},{"name":"北小岩４丁目グラウンド","province":"東京都","city":"江戸川区","address":"東京都江戸川区北小岩4丁目","lat":35.73853903,"lon":139.8951338},{"name":"都立葛西臨海公園第２駐車場","province":"東京都","city":"江戸川区","address":"東京都江戸川区臨海町6丁目2","lat":35.64164166,"lon":139.86520384},{"name":"都立葛西臨海公園多目的広場","province":"東京都","city":"江戸川区","address":"東京都江戸川区臨海町6丁目2","lat":35.64164166,"lon":139.86520384},{"name":"都立葛西海浜公園人口なぎさ","province":"東京都","city":"江戸川区","address":"東京都江戸川区臨海町6丁目","lat":35.6462852,"lon":139.85139641},{"name":"都立大島小松川公園（自由の広場）","province":"東京都","city":"江戸川区","address":"東京都江戸川区小松川1丁目7","lat":35.69216816,"lon":139.85200056},{"name":"江戸川区臨海球技場第二","province":"東京都","city":"江戸川区","address":"東京都江戸川区臨海町6丁目1","lat":35.64490485,"lon":139.85315466},{"name":"江戸川区球場","province":"東京都","city":"江戸川区","address":"東京都江戸川区北小岩4丁目38","lat":35.73930002,"lon":139.89605594},{"name":"江戸川区立篠崎緑地１９号地・１０号地","province":"東京都","city":"江戸川区","address":"東京都江戸川区篠崎町1丁目26","lat":35.70838102,"lon":139.90561435},{"name":"都立篠崎公園野球場（第２面）","province":"東京都","city":"江戸川区","address":"東京都江戸川区上篠崎1丁目25","lat":35.7146518,"lon":139.89798133},{"name":"区営河川敷広場","province":"東京都","city":"江戸川区","address":"東京都江戸川区上篠崎1丁目","lat":35.71365485,"lon":139.90170055},{"name":"区営河川敷グラウンド","province":"東京都","city":"江戸川区","address":"東京都江戸川区上篠崎3丁目","lat":35.71301614,"lon":139.8983508},{"name":"鹿骨スポーツ広場","province":"東京都","city":"江戸川区","address":"東京都江戸川区上篠崎4丁目5","lat":35.70850907,"lon":139.8962289},{"name":"北小岩４丁目グラウンド","province":"東京都","city":"江戸川区","address":"東京都江戸川区北小岩4丁目","lat":35.73853903,"lon":139.8951338},{"name":"都立葛西臨海公園第２駐車場","province":"東京都","city":"江戸川区","address":"東京都江戸川区臨海町6丁目2","lat":35.64164166,"lon":139.86520384},{"name":"都立葛西臨海公園多目的広場","province":"東京都","city":"江戸川区","address":"東京都江戸川区臨海町6丁目2","lat":35.64164166,"lon":139.86520384},{"name":"都立葛西海浜公園人口なぎさ","province":"東京都","city":"江戸川区","address":"東京都江戸川区臨海町6丁目","lat":35.6462852,"lon":139.85139641},{"name":"都立大島小松川公園（自由の広場）","province":"東京都","city":"江戸川区","address":"東京都江戸川区小松川1丁目7","lat":35.69216816,"lon":139.85200056},{"name":"江戸川区臨海球技場第二","province":"東京都","city":"江戸川区","address":"東京都江戸川区臨海町6丁目1","lat":35.64490485,"lon":139.85315466},{"name":"江戸川区球場","province":"東京都","city":"江戸川区","address":"東京都江戸川区北小岩4丁目38","lat":35.73930002,"lon":139.89605594},{"name":"江戸川区立篠崎緑地１９号地・１０号地","province":"東京都","city":"江戸川区","address":"東京都江戸川区篠崎町1丁目26","lat":35.70838102,"lon":139.90561435},{"name":"都立篠崎公園野球場（第２面）","province":"東京都","city":"江戸川区","address":"東京都江戸川区上篠崎1丁目25","lat":35.7146518,"lon":139.89798133},{"name":"区営河川敷広場","province":"東京都","city":"江戸川区","address":"東京都江戸川区上篠崎1丁目","lat":35.71365485,"lon":139.90170055},{"name":"区営河川敷グラウンド","province":"東京都","city":"江戸川区","address":"東京都江戸川区上篠崎3丁目","lat":35.71301614,"lon":139.8983508},{"name":"鹿骨スポーツ広場","province":"東京都","city":"江戸川区","address":"東京都江戸川区上篠崎4丁目5","lat":35.70850907,"lon":139.8962289},{"name":"北小岩４丁目グラウンド","province":"東京都","city":"江戸川区","address":"東京都江戸川区北小岩4丁目","lat":35.73853903,"lon":139.8951338}]}