{"keyword":"館","data":[{"name":"共育プラザ一之江","province":"東京都","city":"江戸川区","address":"江戸川区一之江3-13-7","lat":35.689768,"lon":139.884256},{"name":"共育プラザ平井","province":"東京都","city":"江戸川区","address":"江戸川区平井7-21-6","lat":35.714593,"lon":139.840134},{"name":"共育プラザ小岩","province":"東京都","city":"江戸川区","address":"江戸川区北小岩2-14-17","lat":35.740158,"lon":139.884893},{"name":"共育プラザ南小岩","province":"東京都","city":"江戸川区","address":"江戸川区南小岩4-5-8","lat":35.720925,"lon":139.885652},{"name":"共育プラザ南篠崎","province":"東京都","city":"江戸川区","address":"江戸川区南篠崎町3-12-8","lat":35.696777,"lon":139.899063},{"name":"共育プラザ葛西","province":"東京都","city":"江戸川区","address":"江戸川区宇喜田町175","lat":35.673385,"lon":139.860928},{"name":"江戸川区立中央図書館","province":"東京都","city":"江戸川区","address":"東京都江戸川区中央3丁目1-3","lat":35.71058648,"lon":139.86976474},{"name":"江戸川区立小岩図書館","province":"東京都","city":"江戸川区","address":"東京都江戸川区東小岩3丁目6-9","lat":35.73129292,"lon":139.89051482},{"name":"江戸川区立松江図書館","province":"東京都","city":"江戸川区","address":"東京都江戸川区松江2丁目1-10","lat":35.69693823,"lon":139.87107344},{"name":"江戸川区立小松川図書館","province":"東京都","city":"江戸川区","address":"東京都江戸川区平井1丁目11-26","lat":35.70149175,"lon":139.85097835},{"name":"江戸川区立篠崎図書館","province":"東京都","city":"江戸川区","address":"東京都江戸川区篠崎町7丁目20-19","lat":35.70537076,"lon":139.90281744},{"name":"江戸川区立葛西図書館","province":"東京都","city":"江戸川区","address":"東京都江戸川区江戸川6丁目24-1","lat":35.67554899,"lon":139.87083259},{"name":"江戸川区立西葛西図書館","province":"東京都","city":"江戸川区","address":"東京都江戸川区西葛西5丁目10-47","lat":35.66485273,"lon":139.86291418},{"name":"江戸川区立東葛西図書館","province":"東京都","city":"江戸川区","address":"東京都江戸川区東葛西8丁目22-1","lat":35.6548379,"lon":139.87969652},{"name":"江戸川区立東部図書館","province":"東京都","city":"江戸川区","address":"東京都江戸川区江戸川2丁目26-1","lat":35.68401157,"lon":139.90007422},{"name":"江戸川区立篠崎子ども図書館","province":"東京都","city":"江戸川区","address":"東京都江戸川区篠崎町3丁目12-10","lat":35.7057534,"lon":139.91280563},{"name":"江戸川区立鹿骨コミュニティ図書館","province":"東京都","city":"江戸川区","address":"東京都江戸川区鹿骨1丁目54-2","lat":35.70951096,"lon":139.88986829},{"name":"江戸川区立清新町コミュニティ図書館","province":"東京都","city":"江戸川区","address":"東京都江戸川区清新町1丁目2-2","lat":35.65887822,"lon":139.85598997},{"name":"共育プラザ一之江","province":"東京都","city":"江戸川区","address":"江戸川区一之江3-13-7","lat":35.68967,"lon":139.88434},{"name":"共育プラザ中央","province":"東京都","city":"江戸川区","address":"江戸川区松島1-38-1グリーンパレス内","lat":35.70605,"lon":139.86636},{"name":"共育プラザ平井","province":"東京都","city":"江戸川区","address":"江戸川区平井7-21-6","lat":35.71465,"lon":139.84042},{"name":"共育プラザ小岩","province":"東京都","city":"江戸川区","address":"江戸川区北小岩2-14-17","lat":35.73995,"lon":139.88454},{"name":"共育プラザ南小岩","province":"東京都","city":"江戸川区","address":"江戸川区南小岩4-5-8","lat":35.72095,"lon":139.88564},{"name":"共育プラザ南篠崎","province":"東京都","city":"江戸川区","address":"江戸川区南篠崎町3-12-8","lat":35.69662,"lon":139.89914},{"name":"共育プラザ葛西","province":"東京都","city":"江戸川区","address":"江戸川区宇喜田町175","lat":35.67343,"lon":139.8615},{"name":"共育プラザ中央","province":"東京都","city":"江戸川区","address":"江戸川区松島1-38-1グリーンパレス内","lat":35.70606,"lon":139.86636},{"name":"共育プラザ南小岩","province":"東京都","city":"江戸川区","address":"江戸川区南小岩4-5-8","lat":35.72096,"lon":139.88564},{"name":"共育プラザ南篠崎","province":"東京都","city":"江戸川区","address":"江戸川区南篠崎町3-12-8","lat":35.69663,"lon":139.89914},{"name":"＊?中央図書館","province":"東京都","city":"江戸川区","address":"江戸川区中央3-1-3","lat":35.710543,"lon":139.869755},{"name":"＊?小岩図書館","province":"東京都","city":"江戸川区","address":"江戸川区東小岩3-6-9","lat":35.731285,"lon":139.890507},{"name":"＊?松江図書館","province":"東京都","city":"江戸川区","address":"江戸川区松江2-1-10松江区民プラザ゙内","lat":35.696903,"lon":139.871068},{"name":"＊?小松川図書館","province":"東京都","city":"江戸川区","address":"江戸川区平井1-11-26","lat":35.70149,"lon":139.850902},{"name":"＊?篠崎図書館","province":"東京都","city":"江戸川区","address":"江戸川区篠崎町7-20-19篠崎文化プラザ゙内","lat":35.705429,"lon":139.902971},{"name":"＊?葛西図書館","province":"東京都","city":"江戸川区","address":"江戸川区江戸川6-24-1","lat":35.675543,"lon":139.870847},{"name":"＊?西葛西図書館","province":"東京都","city":"江戸川区","address":"江戸川区西葛西5-10-47","lat":35.664834,"lon":139.862896},{"name":"＊?東葛西図書館","province":"東京都","city":"江戸川区","address":"江戸川区東葛西8-22-1","lat":35.654826,"lon":139.879604},{"name":"＊?東部図書館","province":"東京都","city":"江戸川区","address":"江戸川区江戸川2-35-6","lat":35.684078,"lon":139.900066},{"name":"＊?篠崎子ども図書館","province":"東京都","city":"江戸川区","address":"江戸川区篠崎町3-12-10","lat":35.705748,"lon":139.912819},{"name":"＊?鹿骨コミュニティ図書館","province":"東京都","city":"江戸川区","address":"江戸川区鹿骨1-54-2","lat":35.709506,"lon":139.889719},{"name":"＊?清新町コミュニティ図書館","province":"東京都","city":"江戸川区","address":"江戸川区清新町1-2-2","lat":35.658765,"lon":139.856031}]}