{"keyword":"東西","data":[{"name":"東西(鶯谷駅経由・日医大回りルート)13千駄木駅","province":"東京都","city":"文京区","address":"東京都文京区千駄木3丁目37","lat":35.72519273,"lon":139.7631852},{"name":"東西(鶯谷駅経由・日医大回りルート)12谷中銀座・よみせ通り","province":"東京都","city":"文京区","address":"東京都文京区千駄木3丁目40","lat":35.72657268,"lon":139.7645051},{"name":"東西(鶯谷駅経由・日医大回りルート)11特養ホーム谷中入口","province":"東京都","city":"台東区","address":"東京都台東区谷中2丁目18-6","lat":35.72448263,"lon":139.7643961},{"name":"東西(鶯谷駅経由・日医大回りルート)10三崎坂上","province":"東京都","city":"台東区","address":"東京都台東区谷中4丁目2","lat":35.72371308,"lon":139.767275},{"name":"東西(鶯谷駅経由・日医大回りルート)18池之端四丁目","province":"東京都","city":"台東区","address":"東京都台東区池之端4丁目15","lat":35.7184636,"lon":139.768685},{"name":"東西(鶯谷駅経由・日医大回りルート)19鴎外旧居跡","province":"東京都","city":"台東区","address":"東京都台東区上野公園9","lat":35.71605386,"lon":139.769795},{"name":"東西(鶯谷駅経由・日医大回りルート)9谷中霊園入口","province":"東京都","city":"台東区","address":"東京都台東区谷中6丁目2","lat":35.72301326,"lon":139.7698149},{"name":"東西(鶯谷駅経由・日医大回りルート)6-1谷中(旧吉田屋酒店前)","province":"東京都","city":"台東区","address":"東京都台東区上野桜木1丁目11","lat":35.72104517,"lon":139.7710062},{"name":"東西(鶯谷駅経由・日医大回りルート)22京成上野駅","province":"東京都","city":"台東区","address":"東京都台東区上野4丁目10","lat":35.71099445,"lon":139.773975},{"name":"東西(鶯谷駅経由・日医大回りルート)2上野駅入谷口","province":"東京都","city":"台東区","address":"東京都台東区上野7丁目1","lat":35.71453793,"lon":139.7785316},{"name":"東西(鶯谷駅経由・日医大回りルート)23台東区役所","province":"東京都","city":"台東区","address":"東京都台東区東上野4丁目5","lat":35.71247445,"lon":139.7796546},{"name":"東西(鶯谷駅経由・日医大回りルート)1台東区役所","province":"東京都","city":"台東区","address":"東京都台東区東上野4丁目5","lat":35.71247445,"lon":139.7796846},{"name":"東西(鶯谷駅経由・日医大回りルート)38永寿総合病院東","province":"東京都","city":"台東区","address":"東京都台東区東上野2丁目23","lat":35.70969473,"lon":139.7802647},{"name":"東西(鶯谷駅経由・日医大回りルート)36小島社会教育館","province":"東京都","city":"台東区","address":"東京都台東区鳥越1丁目22","lat":35.70377136,"lon":139.7815641},{"name":"東西(鶯谷駅経由・日医大回りルート)37新御徒町駅","province":"東京都","city":"台東区","address":"東京都台東区東上野1丁目1-14","lat":35.707387,"lon":139.7818568},{"name":"東西(鶯谷駅経由・日医大回りルート)35三筋二丁目（台東デザイナーズビレッジ）","province":"東京都","city":"台東区","address":"東京都台東区三筋2丁目9","lat":35.70611518,"lon":139.7849855},{"name":"東西(鶯谷駅経由・日医大回りルート)25北上野二丁目","province":"東京都","city":"台東区","address":"東京都台東区北上野2丁目1","lat":35.71525433,"lon":139.7851941},{"name":"東西(鶯谷駅経由・日医大回りルート)26松が谷","province":"東京都","city":"台東区","address":"東京都台東区松が谷3丁目3","lat":35.7147744,"lon":139.7876239},{"name":"東西(鶯谷駅経由・日医大回りルート)34南部区民事務所","province":"東京都","city":"台東区","address":"東京都台東区寿1丁目10","lat":35.70735513,"lon":139.7889944},{"name":"東西(鶯谷駅経由・日医大回りルート)27西浅草三丁目","province":"東京都","city":"台東区","address":"東京都台東区西浅草3丁目3","lat":35.71403452,"lon":139.7914236},{"name":"東西(鶯谷駅経由・日医大回りルート)28つくばエクスプレス浅草駅","province":"東京都","city":"台東区","address":"東京都台東区浅草1丁目43","lat":35.71357457,"lon":139.7924936},{"name":"東西(鶯谷駅経由・日医大回りルート)33浅草消防署","province":"東京都","city":"台東区","address":"東京都台東区駒形1丁目5","lat":35.70718521,"lon":139.793674},{"name":"東西(鶯谷駅経由・日医大回りルート)29雷門通り","province":"東京都","city":"台東区","address":"東京都台東区浅草1丁目5","lat":35.71122482,"lon":139.7943336},{"name":"東西(鶯谷駅経由・日医大回りルート)32都営浅草駅","province":"東京都","city":"台東区","address":"東京都台東区駒形1丁目11","lat":35.70893505,"lon":139.7949338},{"name":"東西(鶯谷駅経由・日医大回りルート)31雷門前","province":"東京都","city":"台東区","address":"東京都台東区雷門2丁目18","lat":35.71055491,"lon":139.7963335},{"name":"東西(鶯谷駅経由・日医大回りルート)30浅草駅","province":"東京都","city":"台東区","address":"東京都台東区花川戸1丁目4","lat":35.71156483,"lon":139.7982831},{"name":"東西(上野公園経由・三崎坂往復ルート)13千駄木駅","province":"東京都","city":"文京区","address":"東京都文京区千駄木3丁目37","lat":35.72519273,"lon":139.7631852},{"name":"東西(上野公園経由・三崎坂往復ルート)12谷中銀座・よみせ通り","province":"東京都","city":"文京区","address":"東京都文京区千駄木3丁目40","lat":35.72657268,"lon":139.7645051},{"name":"東西(上野公園経由・三崎坂往復ルート)11特養ホーム谷中入口","province":"東京都","city":"台東区","address":"東京都台東区谷中2丁目18","lat":35.72443289,"lon":139.7647951},{"name":"東西(上野公園経由・三崎坂往復ルート)14谷中小学校","province":"東京都","city":"台東区","address":"東京都台東区谷中5丁目4","lat":35.72407297,"lon":139.7658551},{"name":"東西(上野公園経由・三崎坂往復ルート)10三崎坂上","province":"東京都","city":"台東区","address":"東京都台東区谷中4丁目2","lat":35.72371308,"lon":139.767275},{"name":"東西(上野公園経由・三崎坂往復ルート)15三崎坂上","province":"東京都","city":"台東区","address":"東京都台東区谷中5丁目4","lat":35.7237231,"lon":139.767685},{"name":"東西(上野公園経由・三崎坂往復ルート)18池之端四丁目","province":"東京都","city":"台東区","address":"東京都台東区池之端4丁目15","lat":35.7184636,"lon":139.768685},{"name":"東西(上野公園経由・三崎坂往復ルート)7谷中清水町公園","province":"東京都","city":"台東区","address":"東京都台東区池之端4丁目26","lat":35.7200335,"lon":139.7696349},{"name":"東西(上野公園経由・三崎坂往復ルート)16谷中霊園入口","province":"東京都","city":"台東区","address":"東京都台東区谷中7丁目4","lat":35.72332323,"lon":139.7696349},{"name":"東西(上野公園経由・三崎坂往復ルート)19鴎外旧居跡","province":"東京都","city":"台東区","address":"東京都台東区上野公園9","lat":35.71605386,"lon":139.769795},{"name":"東西(上野公園経由・三崎坂往復ルート)9谷中霊園入口","province":"東京都","city":"台東区","address":"東京都台東区谷中6丁目2","lat":35.72301326,"lon":139.7698149},{"name":"東西(上野公園経由・三崎坂往復ルート)8旧吉田屋酒店","province":"東京都","city":"台東区","address":"東京都台東区谷中6丁目1","lat":35.72107346,"lon":139.7706549},{"name":"東西(上野公園経由・三崎坂往復ルート)17旧吉田屋酒店","province":"東京都","city":"台東区","address":"東京都台東区上野桜木1丁目10","lat":35.72103347,"lon":139.7706949},{"name":"東西(上野公園経由・三崎坂往復ルート)6上野桜木会館","province":"東京都","city":"台東区","address":"東京都台東区上野公園11","lat":35.71981358,"lon":139.7709289},{"name":"東西(上野公園経由・三崎坂往復ルート)4旧東京音楽学校奏楽堂","province":"東京都","city":"台東区","address":"東京都台東区上野公園8","lat":35.71836179,"lon":139.7736267},{"name":"東西(上野公園経由・三崎坂往復ルート)22京成上野駅","province":"東京都","city":"台東区","address":"東京都台東区上野4丁目10","lat":35.71099445,"lon":139.773975},{"name":"東西(上野公園経由・三崎坂往復ルート)5寛永寺","province":"東京都","city":"台東区","address":"東京都台東区上野公園12","lat":35.7206786,"lon":139.7740136},{"name":"東西(上野公園経由・三崎坂往復ルート)3東京国立博物館","province":"東京都","city":"台東区","address":"東京都台東区上野公園8","lat":35.71708196,"lon":139.7761916},{"name":"東西(上野公園経由・三崎坂往復ルート)2上野駅入谷口","province":"東京都","city":"台東区","address":"東京都台東区上野7丁目1","lat":35.71453793,"lon":139.7785316},{"name":"東西(上野公園経由・三崎坂往復ルート)23台東区役所","province":"東京都","city":"台東区","address":"東京都台東区東上野4丁目5","lat":35.71247445,"lon":139.7796546},{"name":"東西(上野公園経由・三崎坂往復ルート)1台東区役所","province":"東京都","city":"台東区","address":"東京都台東区東上野4丁目5","lat":35.71247445,"lon":139.7796846},{"name":"東西(上野公園経由・三崎坂往復ルート)38永寿総合病院東","province":"東京都","city":"台東区","address":"東京都台東区東上野2丁目23","lat":35.70969473,"lon":139.7802647},{"name":"東西(上野公園経由・三崎坂往復ルート)36小島社会教育館","province":"東京都","city":"台東区","address":"東京都台東区鳥越1丁目22","lat":35.70377136,"lon":139.7815641},{"name":"東西(上野公園経由・三崎坂往復ルート)37新御徒町駅","province":"東京都","city":"台東区","address":"東京都台東区東上野1丁目1-14","lat":35.707387,"lon":139.7818568},{"name":"東西(上野公園経由・三崎坂往復ルート)35三筋二丁目（台東デザイナーズビレッジ）","province":"東京都","city":"台東区","address":"東京都台東区小島2丁目8","lat":35.7061116,"lon":139.7848381},{"name":"東西(上野公園経由・三崎坂往復ルート)25北上野二丁目","province":"東京都","city":"台東区","address":"東京都台東区北上野2丁目1","lat":35.71525433,"lon":139.7851941},{"name":"東西(上野公園経由・三崎坂往復ルート)26松が谷","province":"東京都","city":"台東区","address":"東京都台東区松が谷3丁目3","lat":35.7147744,"lon":139.7876239},{"name":"東西(上野公園経由・三崎坂往復ルート)34南部区民事務所","province":"東京都","city":"台東区","address":"東京都台東区寿1丁目9","lat":35.7073678,"lon":139.7896262},{"name":"東西(上野公園経由・三崎坂往復ルート)27西浅草三丁目","province":"東京都","city":"台東区","address":"東京都台東区西浅草3丁目3","lat":35.71403452,"lon":139.7914236},{"name":"東西(上野公園経由・三崎坂往復ルート)28つくばエクスプレス浅草駅","province":"東京都","city":"台東区","address":"東京都台東区浅草1丁目43","lat":35.71357457,"lon":139.7924936},{"name":"東西(上野公園経由・三崎坂往復ルート)33浅草消防署","province":"東京都","city":"台東区","address":"東京都台東区駒形1丁目5","lat":35.70718521,"lon":139.793674},{"name":"東西(上野公園経由・三崎坂往復ルート)29雷門通り","province":"東京都","city":"台東区","address":"東京都台東区浅草1丁目5","lat":35.71122482,"lon":139.7943336},{"name":"東西(上野公園経由・三崎坂往復ルート)32都営浅草駅","province":"東京都","city":"台東区","address":"東京都台東区駒形1丁目11","lat":35.70893505,"lon":139.7949338},{"name":"東西(上野公園経由・三崎坂往復ルート)31雷門前","province":"東京都","city":"台東区","address":"東京都台東区雷門2丁目18","lat":35.71055491,"lon":139.7963335},{"name":"東西(上野公園経由・三崎坂往復ルート)30浅草駅","province":"東京都","city":"台東区","address":"東京都台東区花川戸1丁目4","lat":35.71156483,"lon":139.7982831},{"name":"東西(鶯谷駅経由・日医大回りルート)3-1上野郵便局","province":"東京都","city":"台東区","address":"東京都台東区下谷1丁目5","lat":35.71895399,"lon":139.7805318},{"name":"東西(鶯谷駅経由・日医大回りルート)4-1下谷二丁目(鶯谷駅南)","province":"東京都","city":"台東区","address":"東京都台東区根岸1丁目1","lat":35.72075332,"lon":139.7811155},{"name":"東西(鶯谷駅経由・日医大回りルート)5-1上野桜木","province":"東京都","city":"台東区","address":"東京都台東区上野桜木1丁目14-20","lat":35.72230868,"lon":139.7740634},{"name":"東西(鶯谷駅経由・日医大回りルート)14-1日本医科大学付属病院下","province":"東京都","city":"文京区","address":"東京都文京区根津2丁目37","lat":35.72097345,"lon":139.7623266},{"name":"東西(鶯谷駅経由・日医大回りルート)15-1根津駅前","province":"東京都","city":"文京区","address":"東京都文京区根津2丁目19","lat":35.71810966,"lon":139.7653779},{"name":"東西(鶯谷駅経由・日医大回りルート)20上野動物園池之端門前","province":"東京都","city":"台東区","address":"東京都台東区上野公園3","lat":35.71467832,"lon":139.7679182},{"name":"東西(鶯谷駅経由・日医大回りルート)21水上音楽堂前","province":"東京都","city":"台東区","address":"東京都台東区上野公園2","lat":35.70948799,"lon":139.770632},{"name":"東西(鶯谷駅経由・日医大回りルート)24上野駅入谷口","province":"東京都","city":"台東区","address":"東京都台東区上野7丁目1","lat":35.71453957,"lon":139.778549},{"name":"東西(上野公園経由・三崎坂往復ルート)20上野動物園池之端門前","province":"東京都","city":"台東区","address":"東京都台東区池之端2丁目9","lat":35.71465809,"lon":139.7678516},{"name":"東西(上野公園経由・三崎坂往復ルート)21水上音楽堂前","province":"東京都","city":"台東区","address":"東京都台東区上野公園2","lat":35.70947296,"lon":139.7706372},{"name":"東西(上野公園経由・三崎坂往復ルート)24上野駅入谷口","province":"東京都","city":"台東区","address":"東京都台東区上野7丁目8","lat":35.71452454,"lon":139.7785543}]}