{"keyword":"保護","data":[{"name":"あそか病院","province":"東京都","city":"江東区","address":"江東区住吉1-18-1","lat":35.68999,"lon":139.8121},{"name":"児玉経堂病院","province":"東京都","city":"世田谷区","address":"世田谷区経堂2-5-21","lat":35.65253,"lon":139.63538},{"name":"有隣病院","province":"東京都","city":"世田谷区","address":"世田谷区船橋2-15-38","lat":35.65112,"lon":139.61884},{"name":"中野江古田病院","province":"東京都","city":"中野区","address":"中野区江古田4-19-9","lat":35.72716,"lon":139.66299},{"name":"江戸川病院","province":"東京都","city":"江戸川区","address":"江戸川区東小岩2-24-18","lat":35.72804,"lon":139.89319},{"name":"昭島病院","province":"東京都","city":"昭島市","address":"昭島市中神町1260","lat":35.70815,"lon":139.38135},{"name":"多摩済生病院","province":"東京都","city":"小平市","address":"小平市美園町3-11-1","lat":35.74085,"lon":139.48953},{"name":"清瀬リハビリテーション病院","province":"東京都","city":"清瀬市","address":"清瀬市竹丘3-3-33","lat":35.76885,"lon":139.50259},{"name":"ベトレヘムの園病院","province":"東京都","city":"清瀬市","address":"清瀬市梅園3-14-72","lat":35.77177,"lon":139.50096},{"name":"桜ヶ丘記念病院","province":"東京都","city":"多摩市","address":"多摩市連光寺1-1-1","lat":35.64739,"lon":139.45787},{"name":"昭島病院","province":"東京都","city":"昭島市","address":"昭島市中神町1260","lat":35.70919,"lon":139.38268},{"name":"桜ケ丘記念病院","province":"東京都","city":"多摩市","address":"多摩市連光寺1-1-1","lat":35.64739,"lon":139.45787}]}