{"keyword":"支援","data":[{"name":"中央区立知的障害者生活支援施設レインボーハウス明石","province":"東京都","city":"中央区","address":"中央区明石町1-6","lat":35.669292,"lon":139.776716},{"name":"新橋はつらつ太陽","province":"東京都","city":"港区","address":"港区新橋6-19-2","lat":35.661192,"lon":139.753738},{"name":"シャロームみなみ風","province":"東京都","city":"新宿区","address":"新宿区弁天町32-6","lat":35.704142,"lon":139.727269},{"name":"障害者支援施設新宿けやき園","province":"東京都","city":"新宿区","address":"新宿区百人町4-5-1","lat":35.708158,"lon":139.698107},{"name":"リアン文京","province":"東京都","city":"文京区","address":"文京区小日向2-16-15","lat":35.710581,"lon":139.734582},{"name":"障害者支援施設浅草ほうらい","province":"東京都","city":"台東区","address":"台東区清川2-14-7","lat":35.72717,"lon":139.801304},{"name":"かもめ園","province":"東京都","city":"品川区","address":"品川区八潮5-1ー1","lat":35.604996,"lon":139.752395},{"name":"品川区立かがやき園","province":"東京都","city":"品川区","address":"品川区西大井6-2ー14","lat":35.600916,"lon":139.71534},{"name":"目黒恵風寮","province":"東京都","city":"目黒区","address":"目黒区大橋2-19-1","lat":35.654997,"lon":139.682533},{"name":"アミ－クス東糀谷","province":"東京都","city":"大田区","address":"大田区東糀谷6-4-17","lat":35.559236,"lon":139.751018},{"name":"いずみえん","province":"東京都","city":"大田区","address":"大田区矢口3-1-5","lat":35.561142,"lon":139.696103},{"name":"友愛園","province":"東京都","city":"世田谷区","address":"世田谷区砧3-9-11","lat":35.63575,"lon":139.613559},{"name":"渋谷区障害者福祉センターはぁとぴあ原宿","province":"東京都","city":"渋谷区","address":"渋谷区神宮前3-18-37","lat":35.671407,"lon":139.709527},{"name":"日本赤十字社総合福祉センター障害者支援施設レクロス広尾","province":"東京都","city":"渋谷区","address":"渋谷区広尾4-1-23","lat":35.654481,"lon":139.718944},{"name":"メイプルガーデン","province":"東京都","city":"中野区","address":"中野区中野5-26-18","lat":35.708729,"lon":139.668879},{"name":"障害者支援施設　江古田の森","province":"東京都","city":"中野区","address":"中野区江古田3-14-19","lat":35.729629,"lon":139.665368},{"name":"障害者支援施設　マイルドハート高円寺","province":"東京都","city":"杉並区","address":"杉並区高円寺北1-28-1","lat":35.709012,"lon":139.657789},{"name":"杉並育成園すだちの里すぎなみ","province":"東京都","city":"杉並区","address":"杉並区今川2-14ー12","lat":35.718062,"lon":139.609034},{"name":"いけぶくろ茜の里","province":"東京都","city":"豊島区","address":"豊島区池袋4-15ー10","lat":35.739802,"lon":139.707719},{"name":"雑司谷","province":"東京都","city":"豊島区","address":"豊島区南池袋3-7-8","lat":35.723498,"lon":139.712358},{"name":"東京聴覚障害者支援センター","province":"東京都","city":"板橋区","address":"板橋区志村2-19-5","lat":35.775286,"lon":139.687852},{"name":"イクトスマイム","province":"東京都","city":"板橋区","address":"板橋区桜川2-28-12","lat":35.760284,"lon":139.676873},{"name":"やすらぎの杜","province":"東京都","city":"練馬区","address":"練馬区関町北5-7-10","lat":35.731907,"lon":139.571717},{"name":"大泉障害者支援ホーム","province":"東京都","city":"練馬区","address":"練馬区大泉学園町9-4-2","lat":35.775805,"lon":139.594589},{"name":"練馬福祉園","province":"東京都","city":"練馬区","address":"練馬区大泉学園町9-4-1","lat":35.77608,"lon":139.593464},{"name":"旭出生産福祉園","province":"東京都","city":"練馬区","address":"練馬区東大泉7-21-32","lat":35.741195,"lon":139.577016},{"name":"東京高次脳機能障害者支援ホーム","province":"東京都","city":"練馬区","address":"練馬区西大泉5-36-2","lat":35.760131,"lon":139.565128},{"name":"障害者支援施設　土支田創生苑","province":"東京都","city":"練馬区","address":"練馬区土支田3-4-20","lat":35.759583,"lon":139.609865},{"name":"希望の苑","province":"東京都","city":"足立区","address":"足立区竹の塚7-19-9","lat":35.800822,"lon":139.795945},{"name":"竹の塚あかしあの杜","province":"東京都","city":"足立区","address":"足立区竹の塚7-19-11","lat":35.800991,"lon":139.796284},{"name":"かえで","province":"東京都","city":"足立区","address":"足立区皿沼2-8-8","lat":35.790458,"lon":139.768189},{"name":"もぐらの家","province":"東京都","city":"江戸川区","address":"江戸川区春江町3-21-6","lat":35.69336,"lon":139.888819},{"name":"一之江あゆみの園","province":"東京都","city":"江戸川区","address":"江戸川区西一之江3-12-13","lat":35.693214,"lon":139.87604},{"name":"とぶき育成園","province":"東京都","city":"八王子市","address":"八王子市戸吹町1636-1","lat":35.703931,"lon":139.288598},{"name":"愛幸","province":"東京都","city":"八王子市","address":"八王子市中野町2632","lat":35.680999,"lon":139.323493},{"name":"八王子平和の家","province":"東京都","city":"八王子市","address":"八王子市美山町279","lat":35.699982,"lon":139.234168},{"name":"八王子美山学園","province":"東京都","city":"八王子市","address":"八王子市美山町767番地の2","lat":35.68923,"lon":139.2469},{"name":"東京都八王子福祉園","province":"東京都","city":"八王子市","address":"八王子市西寺方町76","lat":35.673745,"lon":139.264126},{"name":"恩方育成園","province":"東京都","city":"八王子市","address":"八王子市下恩方町2794-1","lat":35.664172,"lon":139.240976},{"name":"精華","province":"東京都","city":"八王子市","address":"八王子市鑓水428","lat":35.622306,"lon":139.342163},{"name":"はばたきの郷　八王子自立ホーム","province":"東京都","city":"八王子市","address":"八王子市千人町4-14-15","lat":35.654193,"lon":139.307256},{"name":"八王子療護園","province":"東京都","city":"八王子市","address":"八王子市館町2837","lat":35.627827,"lon":139.283935},{"name":"武蔵立川学園","province":"東京都","city":"立川市","address":"立川市西砂町4-75-4","lat":35.735968,"lon":139.356369},{"name":"大沢にじの里","province":"東京都","city":"三鷹市","address":"三鷹市大沢1-6-3","lat":35.670777,"lon":139.541422},{"name":"友愛学園成人部","province":"東京都","city":"青梅市","address":"青梅市成木2-130-2","lat":35.832507,"lon":139.271746},{"name":"青梅学園","province":"東京都","city":"青梅市","address":"青梅市新町1-8-2","lat":35.786022,"lon":139.297739},{"name":"たましろの郷","province":"東京都","city":"青梅市","address":"青梅市長淵5-1420-2","lat":35.768106,"lon":139.258123},{"name":"花の里","province":"東京都","city":"青梅市","address":"青梅市長淵5-1080-2","lat":35.769306,"lon":139.260343},{"name":"障害者支援施設みずき","province":"東京都","city":"府中市","address":"府中市朝日町3-17-5","lat":35.667511,"lon":139.522454},{"name":"調布市知的障害者援護施設なごみ","province":"東京都","city":"調布市","address":"調布市西町290-4","lat":35.668166,"lon":139.523932},{"name":"調布福祉園","province":"東京都","city":"調布市","address":"調布市西町290-3","lat":35.667548,"lon":139.525696},{"name":"町田荘","province":"東京都","city":"町田市","address":"町田市図師町2987","lat":35.589581,"lon":139.435067},{"name":"町田福祉園","province":"東京都","city":"町田市","address":"町田市図師町971番地2","lat":35.581013,"lon":139.413164},{"name":"つるかわ学園","province":"東京都","city":"町田市","address":"町田市真光寺町186","lat":35.602128,"lon":139.45894},{"name":"曙光園","province":"東京都","city":"小平市","address":"小平市小川町1-590","lat":35.725399,"lon":139.444864},{"name":"澄水園","province":"東京都","city":"小平市","address":"小平市小川町1-485","lat":35.727651,"lon":139.440373},{"name":"日野療護園","province":"東京都","city":"日野市","address":"日野市落川245-1","lat":35.661651,"lon":139.430623},{"name":"東京都七生福祉園","province":"東京都","city":"日野市","address":"日野市程久保843","lat":35.650113,"lon":139.415645},{"name":"多摩療護園","province":"東京都","city":"日野市","address":"日野市程久保872-1","lat":35.651401,"lon":139.415328},{"name":"指定障害者支援施設　光の家栄光園","province":"東京都","city":"日野市","address":"日野市旭が丘1-17-17","lat":35.656652,"lon":139.372803},{"name":"指定障害者支援施設光の家新生園","province":"東京都","city":"日野市","address":"日野市旭が丘1-17-17","lat":35.656652,"lon":139.372803},{"name":"さやま園","province":"東京都","city":"東村山市","address":"東村山市富士見町2-7-13","lat":35.740334,"lon":139.454216},{"name":"滝乃川学園成人部","province":"東京都","city":"国立市","address":"国立市谷保6312","lat":35.680959,"lon":139.429501},{"name":"わかばの家","province":"東京都","city":"国立市","address":"国立市谷保3140","lat":35.676701,"lon":139.428187},{"name":"福生学園","province":"東京都","city":"福生市","address":"福生市大字熊川字武蔵野1600-2","lat":35.72499,"lon":139.350929},{"name":"清瀬作業所","province":"東京都","city":"清瀬市","address":"清瀬市松山2-18-2","lat":35.774134,"lon":139.511501},{"name":"清瀬療護園","province":"東京都","city":"清瀬市","address":"清瀬市竹丘3-1-72","lat":35.764535,"lon":139.504321},{"name":"東京都清瀬喜望園","province":"東京都","city":"清瀬市","address":"清瀬市竹丘3-1-72","lat":35.764535,"lon":139.504321},{"name":"ライフパートナーこぶし","province":"東京都","city":"東久留米市","address":"東久留米市氷川台2-31-19","lat":35.768602,"lon":139.531183},{"name":"福生第二学園","province":"東京都","city":"武蔵村山市","address":"武蔵村山市三ツ藤2-34-1","lat":35.752636,"lon":139.376733},{"name":"啓光学園","province":"東京都","city":"多摩市","address":"多摩市和田1717","lat":35.650244,"lon":139.435565},{"name":"パサージュいなぎ","province":"東京都","city":"稲城市","address":"稲城市坂浜1951番地の5","lat":35.629845,"lon":139.470016},{"name":"金木星の郷","province":"東京都","city":"あきる野市","address":"あきる野市三内489番地1","lat":35.737127,"lon":139.229241},{"name":"楽","province":"東京都","city":"あきる野市","address":"あきる野市上代継84-6","lat":35.730411,"lon":139.27824},{"name":"たんぽぽ","province":"東京都","city":"西東京市","address":"西東京市向台町3-1-11","lat":35.721808,"lon":139.538659},{"name":"瑞学園","province":"東京都","city":"西多摩郡瑞穂町","address":"西多摩郡瑞穂町箱根ケ崎武蔵野940","lat":35.791876,"lon":139.332068},{"name":"日の出太陽の家","province":"東京都","city":"西多摩郡日の出町","address":"西多摩郡日の出町大久野5107番地","lat":35.765432,"lon":139.226709},{"name":"山の子の家","province":"東京都","city":"西多摩郡日の出町","address":"西多摩郡日の出町大久野8025-11","lat":35.757324,"lon":139.253049},{"name":"日の出舎","province":"東京都","city":"西多摩郡日の出町","address":"西多摩郡日の出町平井3030","lat":35.748197,"lon":139.258566},{"name":"日の出福祉園","province":"東京都","city":"西多摩郡日の出町","address":"西多摩郡日の出町平井376","lat":35.732969,"lon":139.281372},{"name":"東京多摩学園","province":"東京都","city":"西多摩郡奥多摩町","address":"西多摩郡奥多摩町海沢431","lat":35.798595,"lon":139.116377},{"name":"大島藤倉学園","province":"東京都","city":"大島町","address":"大島町元町字馬の背128","lat":34.763757,"lon":139.360686},{"name":"大島恵の園","province":"東京都","city":"大島町","address":"大島町差木地1","lat":34.690608,"lon":139.420234},{"name":"第２大島恵の園","province":"東京都","city":"大島町","address":"大島町差木地1","lat":34.690608,"lon":139.420234},{"name":"東京都千葉福祉園","province":"千葉県","city":"袖ヶ浦市","address":"千葉県袖ケ浦市代宿8","lat":35.445692,"lon":140.038872}]}