{"keyword":"公民","data":[{"name":"＊?府中市立白糸台文化センター(複合施設）","province":"東京都","city":"府中市","address":"府中市白糸台1-60","lat":35.667081,"lon":139.506149},{"name":"＊?府中市立西府文化センター(複合施設）","province":"東京都","city":"府中市","address":"府中市西府町1-10","lat":35.670886,"lon":139.45627},{"name":"＊?府中市立中央文化センター(複合施設）","province":"広島県","city":"府中市","address":"府中市府中町2-25","lat":35.675781,"lon":139.482217},{"name":"＊?府中市立紅葉丘文化センター(複合施設）","province":"東京都","city":"府中市","address":"府中市紅葉丘2-1","lat":35.676533,"lon":139.509245},{"name":"＊?府中市立是政文化センター(複合施設）","province":"東京都","city":"府中市","address":"府中市是政2-20","lat":35.660891,"lon":139.495318},{"name":"＊?府中市立新町文化センター(複合施設）","province":"東京都","city":"府中市","address":"府中市新町1-66","lat":35.687183,"lon":139.489386},{"name":"＊?府中市立住吉文化センター(複合施設）","province":"東京都","city":"府中市","address":"府中市住吉町1-61","lat":35.660297,"lon":139.460272},{"name":"＊?府中市立四谷文化センター(複合施設）","province":"東京都","city":"府中市","address":"府中市四谷2-75","lat":35.665294,"lon":139.445637},{"name":"＊?府中市立片町文化センター(複合施設）","province":"東京都","city":"府中市","address":"府中市片町2-17","lat":35.670275,"lon":139.469377},{"name":"＊?府中市立押立文化センター(複合施設）","province":"東京都","city":"府中市","address":"府中市押立町5-4","lat":35.653691,"lon":139.517813},{"name":"＊?府中市立武蔵台文化センター(複合施設）","province":"東京都","city":"府中市","address":"府中市武蔵台2-2","lat":35.688581,"lon":139.461425},{"name":"＊?昭島市公民館","province":"東京都","city":"昭島市","address":"昭島市つつじが丘3-7-7","lat":35.713459,"lon":139.366171},{"name":"＊?東部公民館","province":"東京都","city":"調布市","address":"調布市若葉町1-29-21","lat":35.658248,"lon":139.582821},{"name":"＊?西部公民館","province":"東京都","city":"調布市","address":"調布市上石原3-21-6","lat":35.652956,"lon":139.522212},{"name":"＊?北部公民館","province":"東京都","city":"調布市","address":"調布市柴崎2-5-18","lat":35.661597,"lon":139.562758},{"name":"＊?まちだ中央公民館","province":"東京都","city":"町田市","address":"町田市原町田6-8-1","lat":35.542976,"lon":139.447259},{"name":"＊?小金井市公民館貫井南分館","province":"東京都","city":"小金井市","address":"小金井市貫井南町4-3-23","lat":35.693655,"lon":139.493719},{"name":"＊?小金井市公民館","province":"東京都","city":"小金井市","address":"小金井市本町2-15-11","lat":35.705443,"lon":139.510607},{"name":"＊?小金井市公民館東分館","province":"東京都","city":"小金井市","address":"小金井市東町1-39-1","lat":35.69399,"lon":139.526627},{"name":"＊?小金井市公民館緑分館","province":"東京都","city":"小金井市","address":"小金井市緑町3-3-23","lat":35.709554,"lon":139.516375},{"name":"＊?小金井市公民館貫井北分館","province":"東京都","city":"小金井市","address":"小金井市貫井北町1-11-12","lat":35.702323,"lon":139.49769},{"name":"＊?小平市立上水南公民館","province":"東京都","city":"小平市","address":"小平市上水南町1-27-1","lat":35.713091,"lon":139.483708},{"name":"＊?小平市中央公民館","province":"東京都","city":"小平市","address":"小平市小川町2-1325","lat":35.727774,"lon":139.476668},{"name":"＊?小平市立仲町公民館","province":"東京都","city":"小平市","address":"小平市仲町521","lat":35.730156,"lon":139.484916},{"name":"＊?小平市立津田公民館","province":"東京都","city":"小平市","address":"小平市津田町3-11-1","lat":35.72077,"lon":139.470078},{"name":"＊?小平市立大沼公民館","province":"東京都","city":"小平市","address":"小平市大沼町7-1-17","lat":35.735394,"lon":139.497223},{"name":"＊?小平市立小川西町公民館","province":"東京都","city":"小平市","address":"小平市小川西町4-10-13","lat":35.735126,"lon":139.461798},{"name":"＊?小平市立小川公民館","province":"東京都","city":"小平市","address":"小平市小川町1-1012","lat":35.725787,"lon":139.459263},{"name":"＊?小平市立上宿公民館","province":"東京都","city":"小平市","address":"小平市小川町1-308","lat":35.731629,"lon":139.443796},{"name":"＊?小平市立花小金井南公民館","province":"東京都","city":"小平市","address":"小平市花小金井南町2-12-6","lat":35.724354,"lon":139.516113},{"name":"＊?小平市立花小金井北公民館","province":"東京都","city":"小平市","address":"小平市花小金井5-41-3","lat":35.734251,"lon":139.510261},{"name":"＊?小平市立鈴木公民館","province":"東京都","city":"小平市","address":"小平市鈴木町2-772","lat":35.722005,"lon":139.507369},{"name":"＊?日野市中央公民館","province":"東京都","city":"日野市","address":"日野市日野本町7-5-23","lat":35.67924,"lon":139.399963},{"name":"＊?東村山市立秋津公民館","province":"東京都","city":"東村山市","address":"東村山市秋津町2-17-10","lat":35.771075,"lon":139.486541},{"name":"＊?東村山市立廻田公民館","province":"東京都","city":"東村山市","address":"東村山市廻田町4-19-1","lat":35.759625,"lon":139.452116},{"name":"＊?東村山市立萩山公民館","province":"東京都","city":"東村山市","address":"東村山市萩山町2-13-1","lat":35.742249,"lon":139.477739},{"name":"＊?東村山市立中央公民館","province":"東京都","city":"東村山市","address":"東村山市本町2-33-2","lat":35.759786,"lon":139.466884},{"name":"＊?東村山市立富士見公民館","province":"東京都","city":"東村山市","address":"東村山市富士見町5-4-51","lat":35.746635,"lon":139.462877},{"name":"＊?本多公民館","province":"東京都","city":"国分寺市","address":"国分寺市本多1-7-1","lat":35.705284,"lon":139.48249},{"name":"＊?並木公民館","province":"東京都","city":"国分寺市","address":"国分寺市並木町2-12-3","lat":35.715834,"lon":139.45322},{"name":"＊?恋ケ窪公民館","province":"東京都","city":"国分寺市","address":"国分寺市西恋ヶ窪4-12-8","lat":35.707761,"lon":139.464256},{"name":"＊?もとまち公民館","province":"東京都","city":"国分寺市","address":"国分寺市東元町2-3-13","lat":35.692093,"lon":139.48307},{"name":"＊?光公民館","province":"東京都","city":"国分寺市","address":"国分寺市光町3-13-19","lat":35.70781,"lon":139.443193},{"name":"＊?国立市公民館","province":"東京都","city":"国立市","address":"国立市中1-15-1","lat":35.696893,"lon":139.4435},{"name":"＊?福生市公民館","province":"東京都","city":"福生市","address":"福生市福生2455","lat":35.733906,"lon":139.337829},{"name":"＊?福生市公民館松林分館","province":"東京都","city":"福生市","address":"福生市武蔵野台1-15-1","lat":35.746445,"lon":139.332546},{"name":"＊?福生市公民館白梅分館","province":"東京都","city":"福生市","address":"福生市熊川559-1","lat":35.724133,"lon":139.337724},{"name":"＊?狛江市立西河原公民館","province":"東京都","city":"狛江市","address":"狛江市元和泉2-35-1","lat":35.633318,"lon":139.567745},{"name":"＊?狛江市立中央公民館","province":"東京都","city":"狛江市","address":"狛江市和泉本町1-1-5","lat":35.634887,"lon":139.578748},{"name":"＊?中央公民館","province":"東京都","city":"東大和市","address":"東大和市中央3-926","lat":35.744629,"lon":139.426497},{"name":"＊?南街公民館","province":"東京都","city":"東大和市","address":"東大和市南街5-32","lat":35.73718,"lon":139.431539},{"name":"＊?狭山公民館","province":"東京都","city":"東大和市","address":"東大和市狭山3-1344-1","lat":35.755845,"lon":139.437658},{"name":"＊?蔵敷公民館","province":"東京都","city":"東大和市","address":"東大和市蔵敷2-337","lat":35.754241,"lon":139.41623},{"name":"＊?上北台公民館","province":"東京都","city":"東大和市","address":"東大和市上北台2-865-9","lat":35.742872,"lon":139.414729},{"name":"＊?公民館","province":"東京都","city":"武蔵村山市","address":"武蔵村山市大南2-78-1","lat":35.739893,"lon":139.401866},{"name":"＊?公民館中久保分館","province":"東京都","city":"武蔵村山市","address":"武蔵村山市本町2-77-1","lat":35.754543,"lon":139.382963},{"name":"＊?多摩市立永山公民館","province":"東京都","city":"多摩市","address":"多摩市永山1-5ベルブ永山内","lat":35.62826,"lon":139.448429},{"name":"＊?多摩市立関戸公民館","province":"東京都","city":"多摩市","address":"多摩市関戸4-72","lat":35.649664,"lon":139.447052},{"name":"＊?稲城市立中央公民館","province":"東京都","city":"稲城市","address":"稲城市東長沼2111","lat":35.638078,"lon":139.503749},{"name":"＊?稲城市立第二公民館","province":"東京都","city":"稲城市","address":"稲城市矢野口1780","lat":35.634853,"lon":139.518966},{"name":"＊?稲城市立第三公民館","province":"東京都","city":"稲城市","address":"稲城市平尾1-20-5","lat":35.613117,"lon":139.492461},{"name":"＊?稲城市立第四公民館","province":"東京都","city":"稲城市","address":"稲城市東長沼271","lat":35.645914,"lon":139.505366},{"name":"＊?稲城市立城山公民館","province":"東京都","city":"稲城市","address":"稲城市向陽台6-7","lat":35.641555,"lon":139.493851},{"name":"＊?中央公民館","province":"東京都","city":"あきる野市","address":"あきる野市二宮683","lat":35.730184,"lon":139.302297},{"name":"＊?西東京市芝久保公民館","province":"東京都","city":"西東京市","address":"西東京市芝久保町5-4-48","lat":35.73269,"lon":139.528134},{"name":"＊?西東京市ひばりが丘公民館","province":"東京都","city":"西東京市","address":"西東京市ひばりが丘2-3-4","lat":35.747361,"lon":139.540589},{"name":"＊?西東京市保谷駅前公民館","province":"東京都","city":"西東京市","address":"西東京市東町3-14-30ステア5階","lat":35.748152,"lon":139.567268},{"name":"＊?西東京市谷戸公民館","province":"東京都","city":"西東京市","address":"西東京市谷戸町1-17-2","lat":35.741248,"lon":139.54395},{"name":"＊?西東京市田無公民館","province":"東京都","city":"西東京市","address":"西東京市南町5-6-11","lat":35.726018,"lon":139.537789},{"name":"＊?西東京市柳沢公民館","province":"東京都","city":"西東京市","address":"西東京市柳沢1-15-1","lat":35.728384,"lon":139.553957},{"name":"＊?泉津公民館","province":"東京都","city":"大島町","address":"大島町泉津字川之原15番","lat":34.783281,"lon":139.412804},{"name":"＊?北の山公民館","province":"東京都","city":"大島町","address":"大島町元町字佐吾右衛門野地7番4","lat":34.776968,"lon":139.36096},{"name":"＊?野増公民館","province":"東京都","city":"大島町","address":"大島町野増5番地","lat":34.728885,"lon":139.353623},{"name":"三宅村公民館","province":"東京都","city":"三宅村","address":"三宅村坪田3007","lat":34.059851,"lon":139.548087},{"name":"＊?大賀郷公民館","province":"東京都","city":"八丈町","address":"八丈町大賀郷3060","lat":33.106882,"lon":139.78391},{"name":"＊?三根公民館","province":"東京都","city":"八丈町","address":"八丈町三根347","lat":33.118899,"lon":139.802367},{"name":"＊?中之郷公民館","province":"東京都","city":"八丈町","address":"八丈町中之郷2613","lat":33.066162,"lon":139.813217},{"name":"＊?樫立公民館","province":"東京都","city":"八丈町","address":"八丈町樫立2027","lat":33.071548,"lon":139.79611},{"name":"＊?末吉公民館","province":"東京都","city":"八丈町","address":"八丈町末吉633","lat":33.082277,"lon":139.852189}]}