{"keyword":"八王子","data":[{"name":"八王子市姫木平自然の家","province":"長野県","city":"小県郡長和町","address":"長野県小県郡長和町大門3515-29","lat":36.2206,"lon":138.250427},{"name":"川口図書館","province":"東京都","city":"八王子市","address":"八王子市川口町3838","lat":35.686192,"lon":139.299438},{"name":"生涯学習センター図書館","province":"東京都","city":"八王子市","address":"八王子市東町5-6","lat":35.658562,"lon":139.339798},{"name":"中央図書館","province":"東京都","city":"八王子市","address":"八王子市千人町3-3-6","lat":35.657448,"lon":139.310745},{"name":"由井市民センターみなみ野図書館","province":"東京都","city":"八王子市","address":"八王子市みなみ野1-7-1片柳学園第3学生会館2階","lat":35.632492,"lon":139.327103},{"name":"北野市民センター図書館","province":"東京都","city":"八王子市","address":"八王子市北野町545-3きたのタウンビル7階","lat":35.64563,"lon":139.354843},{"name":"南大沢図書館","province":"東京都","city":"八王子市","address":"八王子市南大沢2-27","lat":35.611881,"lon":139.379471},{"name":"恩方市民センター図書館","province":"東京都","city":"八王子市","address":"八王子市西寺方町260-4恩方市民センター内","lat":35.674686,"lon":139.267746},{"name":"八王子市郷土資料館","province":"東京都","city":"八王子市","address":"八王子市上野町33","lat":35.655827,"lon":139.326447},{"name":"コニカミノルタサイエンスドーム(八王子市こども科学館)","province":"東京都","city":"八王子市","address":"八王子市大横町9-13","lat":35.665127,"lon":139.328033},{"name":"八王子市生涯学習センター","province":"東京都","city":"八王子市","address":"八王子市東町5-6クリエイトホール内","lat":35.658562,"lon":139.339798},{"name":"八王子市生涯学習センター川口分館","province":"東京都","city":"八王子市","address":"八王子市川口町3838","lat":35.686192,"lon":139.299438},{"name":"八王子市生涯学習センター南大沢分館","province":"東京都","city":"八王子市","address":"八王子市南大沢2-27","lat":35.611881,"lon":139.379471},{"name":"八王子城跡ガイダンス施設","province":"東京都","city":"八王子市","address":"八王子市元八王子町3-2664-2","lat":35.657169,"lon":139.260193},{"name":"八王子市絹の道資料館","province":"東京都","city":"八王子市","address":"八王子市鑓水989-2","lat":35.618607,"lon":139.355835}]}