{"keyword":"公園","data":[{"name":"下宿運動公園","province":"東京都","city":"清瀬市","address":"東京都清瀬市下宿2丁目524-1","lat":35.79763995,"lon":139.53343242},{"name":"清瀬内山運動公園","province":"東京都","city":"清瀬市","address":"東京都清瀬市下宿3丁目1375","lat":35.80428092,"lon":139.54147328},{"name":"中清戸けやき公園","province":"東京都","city":"清瀬市","address":"東京都清瀬市中清戸4丁目847","lat":35.78570808,"lon":139.52890228},{"name":"台田運動公園","province":"東京都","city":"清瀬市","address":"東京都清瀬市下宿1丁目1","lat":35.79541799,"lon":139.53235479},{"name":"旭が丘九小学び舎公園","province":"東京都","city":"清瀬市","address":"東京都清瀬市旭が丘3丁目343-19","lat":35.79685403,"lon":139.53850423},{"name":"中清戸下組稲荷児童遊園","province":"東京都","city":"清瀬市","address":"東京都清瀬市中清戸5丁目88","lat":35.77747041,"lon":139.53537377},{"name":"中里山戸児童遊園","province":"東京都","city":"清瀬市","address":"東京都清瀬市中里3丁目77-19","lat":35.78251668,"lon":139.5223918},{"name":"中里東\n児童遊園","province":"東京都","city":"清瀬市","address":"東京都清瀬市中里5丁目576-18","lat":35.78648849,"lon":139.52674418},{"name":"野塩坂下児童遊園","province":"東京都","city":"清瀬市","address":"東京都清瀬市野塩2丁目383","lat":35.78107465,"lon":139.49868002},{"name":"市営中里第一住宅内児童遊園","province":"東京都","city":"清瀬市","address":"東京都清瀬市中里2丁目1602","lat":35.78093882,"lon":139.51027626},{"name":"市営中里第三住宅内児童遊園","province":"東京都","city":"清瀬市","address":"東京都清瀬市中里2丁目1385-17","lat":35.78224429,"lon":139.51345096},{"name":"市営野塩柳原住宅内児童遊園","province":"東京都","city":"清瀬市","address":"東京都清瀬市野塩3丁目50","lat":35.77723086,"lon":139.50610999},{"name":"中里広場","province":"東京都","city":"清瀬市","address":"東京都清瀬市中里1丁目739-10","lat":35.77789484,"lon":139.51328155},{"name":"下宿台田ポケットパーク","province":"東京都","city":"清瀬市","address":"東京都清瀬市下宿1丁目200-22","lat":35.79384045,"lon":139.5337241},{"name":"市営中里第四住宅内ポケットパーク","province":"東京都","city":"清瀬市","address":"東京都清瀬市中里3丁目1058","lat":35.78249992,"lon":139.51811165},{"name":"野塩前原ポケットパーク","province":"東京都","city":"清瀬市","address":"東京都清瀬市野塩4丁目88-15","lat":35.77582544,"lon":139.50450737},{"name":"下清戸北浦西ポケットパーク","province":"東京都","city":"清瀬市","address":"東京都清瀬市下清戸2丁目581-1","lat":35.78582482,"lon":139.53270746},{"name":"中里四中東児童遊園","province":"東京都","city":"清瀬市","address":"東京都清瀬市中里1丁目1628-35","lat":35.77969175,"lon":139.50999295},{"name":"玉姫公園","province":"","city":"","address":"清川2-13-18","lat":35.72719388,"lon":139.8025726},{"name":"堤児童公園","province":"","city":"","address":"日本堤2-23-11","lat":35.72825278,"lon":139.7968617},{"name":"田原公園","province":"","city":"","address":"雷門1-5-15","lat":35.70966495,"lon":139.7930938},{"name":"富士公園","province":"","city":"","address":"浅草4-47-2","lat":35.71863426,"lon":139.7977228},{"name":"金竜公園","province":"","city":"","address":"西浅草3-25-7","lat":35.71681425,"lon":139.7898336},{"name":"小島公園","province":"","city":"","address":"小島2-9-4","lat":35.70567523,"lon":139.7838948},{"name":"金杉公園","province":"","city":"","address":"下谷3-5-12","lat":35.72410363,"lon":139.7857637},{"name":"御徒町公園","province":"","city":"","address":"台東4-13-3","lat":35.70636499,"lon":139.7772151},{"name":"花川戸公園","province":"","city":"","address":"花川戸1-14-15・花川戸2-5-6・花川戸2-4-3","lat":35.71421468,"lon":139.7994129},{"name":"山伏公園","province":"","city":"","address":"北上野2-9-7","lat":35.71653419,"lon":139.7835741},{"name":"鶯谷公園","province":"","city":"","address":"根岸1-3-17","lat":35.72105372,"lon":139.7795342},{"name":"精華公園","province":"","city":"","address":"蔵前4-15-9","lat":35.70380549,"lon":139.7892847},{"name":"石浜公園","province":"","city":"","address":"清川1-14-21","lat":35.72483437,"lon":139.8040128},{"name":"西町公園","province":"","city":"","address":"東上野2-23-3","lat":35.70928476,"lon":139.7797048},{"name":"千束公園","province":"","city":"","address":"浅草4-24-7","lat":35.71875412,"lon":139.7937331},{"name":"東盛公園","province":"","city":"","address":"三ノ輪1-23-2","lat":35.72821296,"lon":139.7929324},{"name":"柳北公園","province":"","city":"","address":"浅草橋5-1-35","lat":35.69983581,"lon":139.7822353},{"name":"松葉公園","province":"","city":"","address":"松が谷1-12-6","lat":35.71208464,"lon":139.7875941},{"name":"今戸公園","province":"","city":"","address":"今戸2-24-1","lat":35.72135504,"lon":139.8063828},{"name":"清川公園","province":"","city":"","address":"清川2-22-4","lat":35.72717404,"lon":139.8035327},{"name":"岡倉天心記念公園","province":"","city":"","address":"谷中5-7-10","lat":35.72629281,"lon":139.766525},{"name":"谷中清水町公園","province":"","city":"","address":"谷中1-1-32","lat":35.72032347,"lon":139.7694149},{"name":"根岸公園","province":"","city":"","address":"根岸4-16-23","lat":35.72554353,"lon":139.7854537},{"name":"花園公園","province":"","city":"","address":"千束3-20-7","lat":35.72214372,"lon":139.7929529},{"name":"妙亀塚公園","province":"","city":"","address":"橋場1-28-3、同1-29-6","lat":35.72535454,"lon":139.8055329},{"name":"吉原公園","province":"","city":"","address":"千束4-40-6","lat":35.72486332,"lon":139.7953723},{"name":"一葉記念公園","province":"","city":"","address":"竜泉3-19-1","lat":35.72550331,"lon":139.7925727},{"name":"京町公園","province":"","city":"","address":"千束3-26-18","lat":35.7221937,"lon":139.7947427},{"name":"日本堤公園","province":"","city":"","address":"東浅草2-27-1","lat":35.72392368,"lon":139.7985524},{"name":"大正公園","province":"","city":"","address":"入谷2-23-11","lat":35.72103385,"lon":139.7880635},{"name":"入谷南公園","province":"","city":"","address":"松が谷3-23-7、北上野2-13地先","lat":35.71707418,"lon":139.7860139},{"name":"上根岸公園","province":"","city":"","address":"根岸3-9-6","lat":35.72324355,"lon":139.7789742},{"name":"待乳山聖天公園","province":"","city":"","address":"浅草7-4-9","lat":35.71723477,"lon":139.8026226},{"name":"竹町公園","province":"","city":"","address":"台東4-21-3","lat":35.70570514,"lon":139.780355},{"name":"蔵前公園","province":"","city":"","address":"蔵前2-1-10","lat":35.70261565,"lon":139.7921646},{"name":"駒形公園","province":"","city":"","address":"雷門2-2-3","lat":35.70900507,"lon":139.7965936},{"name":"橋場公園","province":"","city":"","address":"橋場2-19-7","lat":35.72777458,"lon":139.8071632},{"name":"松が谷公園","province":"","city":"","address":"松が谷4-15-12","lat":35.71837407,"lon":139.7863138},{"name":"天王寺公園","province":"","city":"","address":"谷中7-15-5","lat":35.72732296,"lon":139.7707447},{"name":"弁天院公園","province":"","city":"","address":"竜泉1-15-2","lat":35.72324366,"lon":139.7877534},{"name":"千草公園","province":"","city":"","address":"浅草5-58-7","lat":35.72197372,"lon":139.7966425},{"name":"西浅草川村公園","province":"","city":"","address":"西浅草2-21-12","lat":35.71384451,"lon":139.7894638},{"name":"菊屋橋公園","province":"","city":"","address":"元浅草3-20-6","lat":35.70874496,"lon":139.7868544},{"name":"金曽木公園","province":"","city":"","address":"根岸4-16-14","lat":35.72566356,"lon":139.7844438},{"name":"浅草橋公園","province":"","city":"","address":"浅草橋1-1-15","lat":35.69612629,"lon":139.7853155},{"name":"御蔵前公園","province":"","city":"","address":"蔵前1-4-8","lat":35.70039588,"lon":139.789355},{"name":"済美公園","province":"","city":"","address":"寿1-4-1","lat":35.70667521,"lon":139.7900043},{"name":"松が谷梅園公園","province":"","city":"","address":"松が谷4-5-1","lat":35.7171042,"lon":139.7877737},{"name":"吉野公園","province":"","city":"","address":"今戸1-11-7","lat":35.72064457,"lon":139.8020227},{"name":"山谷堀公園","province":"","city":"","address":"東浅草2-7地先から浅草7-11-12まで","lat":35.72110431,"lon":139.8004127},{"name":"上野恩賜公園","province":"","city":"","address":"上野恩賜公園管理所・上野公園5-20","lat":35.71590401,"lon":139.7737248},{"name":"旧岩崎邸庭園","province":"","city":"","address":"旧岩崎邸庭園管理所・池之端1-3-45","lat":35.7094644,"lon":139.7678953},{"name":"秋葉原練塀公園","province":"","city":"","address":"秋葉原4-1","lat":35.70193073,"lon":139.7741673},{"name":"東部公園緑地事務所","province":"","city":"","address":"上野公園7-47","lat":35.71494416,"lon":139.7764047},{"name":"上野恩賜公園管理所","province":"","city":"","address":"上野公園5-20","lat":35.71403418,"lon":139.7742448},{"name":"公園管理事務所","province":"東京都","city":"台東区","address":"台東区花川戸2丁目","lat":35.71473095,"lon":139.8021082},{"name":"隅田公園休憩所","province":"東京都","city":"台東区","address":"台東区花川戸1丁目","lat":35.71299752,"lon":139.8003144},{"name":"便所シ","province":"山口県","city":"山陽小野田市","address":"山口県山陽小野田市小野田（大字）浜河内","lat":33.95065706,"lon":131.17760427},{"name":"便所シ","province":"福島県","city":"相馬郡新地町","address":"福島県相馬郡新地町今泉浜畑（字）","lat":37.853335,"lon":140.9444284},{"name":"便所シ","province":"長崎県","city":"五島市","address":"長崎県五島市岐宿町岐宿","lat":32.75393572,"lon":128.75981154},{"name":"炊事舎","province":"長崎県","city":"五島市","address":"長崎県五島市岐宿町岐宿","lat":32.75393572,"lon":128.75981154},{"name":"火たき場","province":"長崎県","city":"五島市","address":"長崎県五島市岐宿町岐宿","lat":32.75393572,"lon":128.75981154},{"name":"休憩舎","province":"長崎県","city":"五島市","address":"長崎県五島市岐宿町岐宿","lat":32.75393572,"lon":128.75981154},{"name":"駐車場","province":"長崎県","city":"五島市","address":"長崎県五島市岐宿町岐宿","lat":32.75393572,"lon":128.75981154},{"name":"休憩所","province":"長崎県","city":"五島市","address":"長崎県五島市岐宿町岐宿","lat":32.75393572,"lon":128.75981154},{"name":"便所","province":"長崎県","city":"五島市","address":"長崎県五島市岐宿町岐宿","lat":32.75393572,"lon":128.75981154},{"name":"遊具施設","province":"長崎県","city":"五島市","address":"長崎県五島市岐宿町岐宿","lat":32.75393572,"lon":128.75981154},{"name":"擬木柵","province":"長崎県","city":"五島市","address":"長崎県五島市岐宿町岐宿","lat":32.75393572,"lon":128.75981154},{"name":"便所","province":"福岡県","city":"糟屋郡粕屋町","address":"福岡県糟屋郡粕屋町仲原","lat":33.61004179,"lon":130.46596842},{"name":"四阿","province":"福岡県","city":"糟屋郡粕屋町","address":"福岡県糟屋郡粕屋町仲原","lat":33.61004179,"lon":130.46596842},{"name":"パーゴラ","province":"福岡県","city":"糟屋郡粕屋町","address":"福岡県糟屋郡粕屋町仲原","lat":33.61004179,"lon":130.46596842},{"name":"テントシェルター","province":"福岡県","city":"糟屋郡粕屋町","address":"福岡県糟屋郡粕屋町仲原","lat":33.61004179,"lon":130.46596842},{"name":"便所","province":"三重県","city":"三重郡菰野町","address":"三重県三重郡菰野町初若の郷","lat":35.01141542,"lon":136.50219387},{"name":"便所","province":"香川県","city":"観音寺市","address":"香川県観音寺市豊浜町和田浜","lat":34.07444137,"lon":133.63808649},{"name":"便所シ","province":"高知県","city":"南国市","address":"高知県南国市前浜","lat":33.53551225,"lon":133.66735222},{"name":"便所","province":"山梨県","city":"甲斐市","address":"山梨県甲斐市志田間々下","lat":35.6850806,"lon":138.48151833},{"name":"便所","province":"熊本県","city":"天草郡苓北町","address":"熊本県天草郡苓北町上津深江釜の下","lat":32.52106388,"lon":130.07716296},{"name":"休憩所","province":"長崎県","city":"長崎市","address":"長崎県長崎市大浦町","lat":32.73753915,"lon":129.87155632},{"name":"便所","province":"長崎県","city":"長崎市","address":"長崎県長崎市大浦町","lat":32.73753915,"lon":129.87155632},{"name":"炊事舎","province":"長崎県","city":"長崎市","address":"長崎県長崎市大浦町","lat":32.73753915,"lon":129.87155632},{"name":"便所","province":"長崎県","city":"西海市","address":"長崎県西海市西海町中浦北郷","lat":33.01538677,"lon":129.65350315},{"name":"便所","province":"北海道","city":"古宇郡泊村","address":"北海道古宇郡泊村","lat":43.06335445,"lon":140.49886191},{"name":"便所","province":"群馬県","city":"甘楽郡甘楽町","address":"群馬県甘楽郡甘楽町天引（大字）","lat":36.24748099,"lon":138.95021282},{"name":"休憩舎","province":"滋賀県","city":"長浜市","address":"滋賀県長浜市","lat":35.38081428,"lon":136.27872445},{"name":"便所シ","province":"滋賀県","city":"長浜市","address":"滋賀県長浜市","lat":35.38081428,"lon":136.27872445},{"name":"炊事舎","province":"滋賀県","city":"長浜市","address":"滋賀県長浜市","lat":35.38081428,"lon":136.27872445},{"name":"便所シ","province":"茨城県","city":"鉾田市","address":"茨城県鉾田市沢尻","lat":36.24289631,"lon":140.55831841},{"name":"炊事舎","province":"茨城県","city":"鉾田市","address":"茨城県鉾田市沢尻","lat":36.24289631,"lon":140.55831841},{"name":"休憩舎","province":"茨城県","city":"鉾田市","address":"茨城県鉾田市沢尻","lat":36.24289631,"lon":140.55831841},{"name":"便所","province":"東京都","city":"神津島村","address":"東京都神津島村天上山（字）","lat":34.22114257,"lon":139.15756865},{"name":"本所松坂町公園","province":"東京都","city":"墨田区","address":"墨田区両国三丁目13番9号","lat":35.693326,"lon":139.794298},{"name":"両国公園","province":"東京都","city":"墨田区","address":"墨田区両国四丁目25番3号","lat":35.693679,"lon":139.79594},{"name":"千歳公園","province":"東京都","city":"墨田区","address":"墨田区千歳二丁目2番1号","lat":35.690564,"lon":139.795173},{"name":"菊川公園","province":"東京都","city":"墨田区","address":"墨田区立川四丁目12番21号","lat":35.691169,"lon":139.807618},{"name":"中和公園","province":"東京都","city":"墨田区","address":"墨田区菊川一丁目18番25号","lat":35.689561,"lon":139.802629},{"name":"江東橋公園","province":"東京都","city":"墨田区","address":"墨田区江東橋二丁目4番11号","lat":35.693905,"lon":139.811609},{"name":"竪川第一公園","province":"東京都","city":"墨田区","address":"墨田区江東橋四丁目1番3号","lat":35.693382,"lon":139.817097},{"name":"錦糸堀公園","province":"東京都","city":"墨田区","address":"墨田区江東橋四丁目17番1号","lat":35.694722,"lon":139.816378},{"name":"竪川親水公園","province":"東京都","city":"墨田区","address":"墨田区江東橋一丁目・二丁目・四丁目・五丁目地先","lat":35.693247,"lon":139.818256},{"name":"旧安田庭園","province":"東京都","city":"墨田区","address":"墨田区横網一丁目12番1号","lat":35.698379,"lon":139.793698},{"name":"緑町公園","province":"東京都","city":"墨田区","address":"墨田区亀沢二丁目7番7号","lat":35.696685,"lon":139.800438},{"name":"日進公園","province":"東京都","city":"墨田区","address":"墨田区亀沢三丁目24番3号","lat":35.698671,"lon":139.804249},{"name":"若宮公園","province":"東京都","city":"墨田区","address":"墨田区本所二丁目2番19号","lat":35.702531,"lon":139.801492},{"name":"横川公園","province":"東京都","city":"墨田区","address":"墨田区東駒形四丁目18番21号","lat":35.706711,"lon":139.806366},{"name":"吾妻橋公園","province":"東京都","city":"墨田区","address":"墨田区吾妻橋一丁目12番1号","lat":35.708917,"lon":139.798896},{"name":"大横川親水公園","province":"東京都","city":"墨田区","address":"墨田区吾妻橋三丁目、業平一丁目、東駒形四丁目、横川一丁目、本所四丁目、太平一丁目、石原四丁目、錦糸一丁目、亀沢四丁目、江東橋一丁目、緑四丁目地先","lat":35.700523,"lon":139.808396},{"name":"錦糸公園","province":"東京都","city":"墨田区","address":"墨田区錦糸四丁目15番1号","lat":35.698989,"lon":139.816464},{"name":"横川東公園","province":"東京都","city":"墨田区","address":"墨田区横川五丁目2番8号","lat":35.703117,"lon":139.817744},{"name":"横川さんかく公園","province":"東京都","city":"墨田区","address":"墨田区横川五丁目9番31号","lat":35.705694,"lon":139.8178},{"name":"おしなり公園","province":"東京都","city":"墨田区","address":"墨田区押上一丁目、業平一丁目・二丁目・三丁目地先","lat":35.709586,"lon":139.811781},{"name":"業平公園","province":"東京都","city":"墨田区","address":"墨田区業平二丁目3番2号","lat":35.70636,"lon":139.812358},{"name":"隅田公園","province":"東京都","city":"墨田区","address":"墨田区向島一丁目、二丁目、五丁目地先","lat":35.71224,"lon":139.80374},{"name":"銅像堀公園","province":"東京都","city":"墨田区","address":"墨田区向島五丁目9番1号","lat":35.721152,"lon":139.809952},{"name":"ふじのき公園","province":"東京都","city":"墨田区","address":"墨田区東向島二丁目7番5号","lat":35.717469,"lon":139.815332},{"name":"東向島ふじ公園","province":"東京都","city":"墨田区","address":"墨田区東向島二丁目46番7号","lat":35.720198,"lon":139.818583},{"name":"長寿庭園","province":"東京都","city":"墨田区","address":"墨田区東向島四丁目8番20号","lat":35.727144,"lon":139.815418},{"name":"東向島北公園","province":"東京都","city":"墨田区","address":"墨田区東向島四丁目12番19号","lat":35.725772,"lon":139.815912},{"name":"さつき公園","province":"東京都","city":"墨田区","address":"墨田区東向島六丁目19番12号","lat":35.722476,"lon":139.820369},{"name":"なつめ公園","province":"東京都","city":"墨田区","address":"墨田区東向島六丁目40番2号","lat":35.724509,"lon":139.822016},{"name":"隅田川緑道公園","province":"東京都","city":"墨田区","address":"墨田区横網一丁目・二丁目、本所一丁目、東駒形一丁目、吾妻橋一丁目、堤通一丁目地先","lat":35.700997,"lon":139.794326},{"name":"堤通公園","province":"東京都","city":"墨田区","address":"墨田区堤通一丁目8番1号","lat":35.723815,"lon":139.810731},{"name":"梅若公園","province":"東京都","city":"墨田区","address":"墨田区堤通二丁目6番10号","lat":35.733816,"lon":139.816201},{"name":"白鬚公園","province":"東京都","city":"墨田区","address":"墨田区墨田一丁目4番42号","lat":35.728033,"lon":139.815434},{"name":"荒川四ツ木橋緑地","province":"東京都","city":"墨田区","address":"墨田区墨田四丁目・五丁目、東墨田二丁目・三丁目、八広六丁目地先","lat":35.729329,"lon":139.829071},{"name":"つばき公園","province":"東京都","city":"墨田区","address":"墨田区墨田五丁目33番9号","lat":35.73763,"lon":139.820268},{"name":"押上公園","province":"東京都","city":"墨田区","address":"墨田区押上一丁目47番8号","lat":35.709261,"lon":139.817285},{"name":"ひきふねどんぐり公園","province":"東京都","city":"墨田区","address":"墨田区京島一丁目7番3号","lat":35.716663,"lon":139.818945},{"name":"曳舟なごみ公園","province":"東京都","city":"墨田区","address":"墨田区京島一丁目8番2号","lat":35.716087,"lon":139.817982},{"name":"京島西公園","province":"東京都","city":"墨田区","address":"墨田区京島一丁目22番3号","lat":35.715786,"lon":139.818905},{"name":"曳舟さくら公園","province":"東京都","city":"墨田区","address":"墨田区京島一丁目40番1号","lat":35.718896,"lon":139.820171},{"name":"京島南公園","province":"東京都","city":"墨田区","address":"墨田区京島二丁目20番17号","lat":35.713064,"lon":139.822156},{"name":"原公園","province":"東京都","city":"墨田区","address":"墨田区京島三丁目44番14号","lat":35.713024,"lon":139.82325},{"name":"あずま百樹園","province":"東京都","city":"墨田区","address":"墨田区文花一丁目19番4号","lat":35.710219,"lon":139.82406},{"name":"文花公園","province":"東京都","city":"墨田区","address":"墨田区文花一丁目27番5号","lat":35.708817,"lon":139.821743},{"name":"文花宮前橋公園","province":"東京都","city":"墨田区","address":"墨田区文花一丁目32番11号","lat":35.708917,"lon":139.824248},{"name":"緑と花の学習園","province":"東京都","city":"墨田区","address":"墨田区文花二丁目12番17号","lat":35.709202,"lon":139.825364},{"name":"ひいらぎ公園","province":"東京都","city":"墨田区","address":"墨田区八広一丁目16番11号","lat":35.720115,"lon":139.822333},{"name":"みわさと公園","province":"東京都","city":"墨田区","address":"墨田区八広一丁目38番13号","lat":35.721182,"lon":139.825216},{"name":"舟原公園","province":"東京都","city":"墨田区","address":"墨田区八広二丁目43番16号","lat":35.715368,"lon":139.826734},{"name":"八広中央公園","province":"東京都","city":"墨田区","address":"墨田区八広三丁目13番19号","lat":35.719442,"lon":139.827188},{"name":"八広あずま公園","province":"東京都","city":"墨田区","address":"墨田区八広四丁目19番14号","lat":35.723691,"lon":139.828244},{"name":"八広公園","province":"東京都","city":"墨田区","address":"墨田区八広五丁目10番14号","lat":35.725491,"lon":139.824774},{"name":"吾嬬西公園","province":"東京都","city":"墨田区","address":"墨田区八広六丁目53番16号","lat":35.724305,"lon":139.830557},{"name":"立花公園","province":"東京都","city":"墨田区","address":"墨田区立花一丁目27番5号","lat":35.704766,"lon":139.828631},{"name":"東あずま公園","province":"東京都","city":"墨田区","address":"墨田区立花二丁目32番12号","lat":35.708131,"lon":139.830594},{"name":"旧中川水辺公園","province":"東京都","city":"墨田区","address":"墨田区東墨田一丁目・三丁目、立花三丁目・五丁目・六丁目地先","lat":35.711816,"lon":139.835961},{"name":"福寿公園","province":"東京都","city":"墨田区","address":"墨田区立花三丁目24番3号","lat":35.707787,"lon":139.834612},{"name":"たちばな仲よし公園","province":"東京都","city":"墨田区","address":"墨田区立花五丁目19番2号","lat":35.712645,"lon":139.830149},{"name":"中川公園","province":"東京都","city":"墨田区","address":"墨田区立花五丁目38番3号","lat":35.712097,"lon":139.831994},{"name":"立花いこい公園","province":"東京都","city":"墨田区","address":"墨田区立花六丁目8番34号","lat":35.711343,"lon":139.835969},{"name":"平井橋第二公園","province":"東京都","city":"墨田区","address":"墨田区立花六丁目8番44号","lat":35.710378,"lon":139.836152},{"name":"平井橋第一公園","province":"東京都","city":"墨田区","address":"墨田区立花六丁目8番55号","lat":35.710738,"lon":139.834381},{"name":"立花大正民家園","province":"東京都","city":"墨田区","address":"墨田区立花六丁目13番17号","lat":35.709738,"lon":139.838236},{"name":"新平井橋公園","province":"東京都","city":"墨田区","address":"墨田区東墨田一丁目6番2号","lat":35.71589,"lon":139.830557},{"name":"東墨田第一公園","province":"東京都","city":"墨田区","address":"墨田区東墨田二丁目1番16号","lat":35.718782,"lon":139.830138},{"name":"東墨田二丁目公園","province":"東京都","city":"墨田区","address":"墨田区東墨田二丁目12番10号","lat":35.721247,"lon":139.832734},{"name":"きねがわ公園","province":"東京都","city":"墨田区","address":"墨田区東墨田二丁目25番8号","lat":35.72408,"lon":139.832941},{"name":"東墨田公園","province":"東京都","city":"墨田区","address":"墨田区東墨田三丁目4番14号","lat":35.719793,"lon":139.834934},{"name":"東公園","province":"東京都","city":"墨田区","address":"墨田区東墨田三丁目12番19号","lat":35.720838,"lon":139.835685},{"name":"東墨田東公園","province":"東京都","city":"墨田区","address":"墨田区東墨田三丁目19番2号","lat":35.718382,"lon":139.83753},{"name":"都立東白鬚公園","province":"東京都","city":"墨田区","address":"墨田区堤通二丁目2番1号","lat":35.733284,"lon":139.814479},{"name":"都立向島百花園","province":"東京都","city":"墨田区","address":"墨田区東向島三丁目18番3号","lat":35.724257,"lon":139.815542},{"name":"都立横網町公園","province":"東京都","city":"墨田区","address":"墨田区横網二丁目3番25号","lat":35.699373,"lon":139.796391}]}