{"keyword":"財団","data":[{"name":"若葉台駅","province":"神奈川県","city":"川崎市麻生区","address":"神奈川県川崎市麻生区黒川609","lat":35.619278,"lon":139.4725},{"name":"NewWork新百合ヶ丘","province":"神奈川県","city":"川崎市麻生区","address":"神奈川県川崎市麻生区上麻生1丁目5-1","lat":35.60261632,"lon":139.50862734},{"name":"若葉台駅","province":"神奈川県","city":"川崎市麻生区","address":"神奈川県川崎市麻生区黒川609","lat":35.619278,"lon":139.4725},{"name":"NewWork新百合ヶ丘","province":"神奈川県","city":"川崎市麻生区","address":"神奈川県川崎市麻生区上麻生1丁目5-1","lat":35.60261632,"lon":139.50862734},{"name":"若葉台駅","province":"神奈川県","city":"川崎市麻生区","address":"神奈川県川崎市麻生区黒川609","lat":35.619278,"lon":139.4725},{"name":"NewWork新百合ヶ丘","province":"神奈川県","city":"川崎市麻生区","address":"神奈川県川崎市麻生区上麻生1丁目5-1","lat":35.60261632,"lon":139.50862734},{"name":"若葉台駅","province":"神奈川県","city":"川崎市麻生区","address":"神奈川県川崎市麻生区黒川609","lat":35.619278,"lon":139.4725},{"name":"NewWork新百合ヶ丘","province":"神奈川県","city":"川崎市麻生区","address":"神奈川県川崎市麻生区上麻生1丁目5-1","lat":35.60261632,"lon":139.50862734},{"name":"若葉台駅","province":"神奈川県","city":"川崎市麻生区","address":"神奈川県川崎市麻生区黒川609","lat":35.619278,"lon":139.4725},{"name":"若葉台駅","province":"神奈川県","city":"川崎市麻生区","address":"神奈川県川崎市麻生区黒川609","lat":35.619278,"lon":139.4725},{"name":"若葉台駅","province":"神奈川県","city":"川崎市麻生区","address":"神奈川県川崎市麻生区黒川609","lat":35.619278,"lon":139.4725},{"name":"若葉台駅","province":"神奈川県","city":"川崎市麻生区","address":"神奈川県川崎市麻生区黒川609","lat":35.619278,"lon":139.4725},{"name":"若葉台駅","province":"神奈川県","city":"川崎市麻生区","address":"神奈川県川崎市麻生区黒川609","lat":35.619278,"lon":139.4725},{"name":"若葉台駅","province":"神奈川県","city":"川崎市麻生区","address":"神奈川県川崎市麻生区黒川609","lat":35.619278,"lon":139.4725},{"name":"若葉台駅","province":"神奈川県","city":"川崎市麻生区","address":"神奈川県川崎市麻生区黒川609","lat":35.619278,"lon":139.4725},{"name":"若葉台駅","province":"神奈川県","city":"川崎市麻生区","address":"神奈川県川崎市麻生区黒川609","lat":35.619278,"lon":139.4725},{"name":"若葉台駅","province":"神奈川県","city":"川崎市麻生区","address":"神奈川県川崎市麻生区黒川609","lat":35.619278,"lon":139.4725},{"name":"若葉台駅","province":"神奈川県","city":"川崎市麻生区","address":"神奈川県川崎市麻生区黒川609","lat":35.619278,"lon":139.4725},{"name":"若葉台駅","province":"神奈川県","city":"川崎市麻生区","address":"神奈川県川崎市麻生区黒川609","lat":35.619278,"lon":139.4725},{"name":"若葉台駅","province":"神奈川県","city":"川崎市麻生区","address":"神奈川県川崎市麻生区黒川609","lat":35.619278,"lon":139.4725},{"name":"若葉台駅","province":"神奈川県","city":"川崎市麻生区","address":"神奈川県川崎市麻生区黒川609","lat":35.619278,"lon":139.4725},{"name":"若葉台駅","province":"神奈川県","city":"川崎市麻生区","address":"神奈川県川崎市麻生区黒川609","lat":35.619278,"lon":139.4725},{"name":"若葉台駅","province":"神奈川県","city":"川崎市麻生区","address":"神奈川県川崎市麻生区黒川609","lat":35.619278,"lon":139.4725},{"name":"若葉台駅","province":"神奈川県","city":"川崎市麻生区","address":"神奈川県川崎市麻生区黒川609","lat":35.619278,"lon":139.4725},{"name":"若葉台駅","province":"神奈川県","city":"川崎市麻生区","address":"神奈川県川崎市麻生区黒川609","lat":35.619278,"lon":139.4725},{"name":"若葉台駅","province":"神奈川県","city":"川崎市麻生区","address":"神奈川県川崎市麻生区黒川609","lat":35.619278,"lon":139.4725},{"name":"若葉台駅","province":"神奈川県","city":"川崎市麻生区","address":"神奈川県川崎市麻生区黒川609","lat":35.619278,"lon":139.4725},{"name":"若葉台駅","province":"神奈川県","city":"川崎市麻生区","address":"神奈川県川崎市麻生区黒川609","lat":35.619278,"lon":139.4725},{"name":"若葉台駅","province":"神奈川県","city":"川崎市麻生区","address":"神奈川県川崎市麻生区黒川609","lat":35.619278,"lon":139.4725},{"name":"若葉台駅","province":"神奈川県","city":"川崎市麻生区","address":"神奈川県川崎市麻生区黒川609","lat":35.619278,"lon":139.4725},{"name":"若葉台駅","province":"神奈川県","city":"川崎市麻生区","address":"神奈川県川崎市麻生区黒川609","lat":35.619278,"lon":139.4725},{"name":"若葉台駅","province":"神奈川県","city":"川崎市麻生区","address":"神奈川県川崎市麻生区黒川609","lat":35.619278,"lon":139.4725},{"name":"若葉台駅","province":"神奈川県","city":"川崎市麻生区","address":"神奈川県川崎市麻生区黒川609","lat":35.619278,"lon":139.4725},{"name":"若葉台駅","province":"神奈川県","city":"川崎市麻生区","address":"神奈川県川崎市麻生区黒川609","lat":35.619278,"lon":139.4725},{"name":"若葉台駅","province":"神奈川県","city":"川崎市麻生区","address":"神奈川県川崎市麻生区黒川609","lat":35.619278,"lon":139.4725}]}