{"keyword":"会館","data":[{"name":"勤労福祉会館","province":"東京都","city":"練馬区","address":"練馬区東大泉5-40-36","lat":35.7482275,"lon":139.5873725},{"name":"厚生文化会館","province":"東京都","city":"練馬区","address":"練馬区練馬4-2-3","lat":35.7402171,"lon":139.6502558},{"name":"＊?月島社会教育会館","province":"東京都","city":"中央区","address":"中央区月島4-1-1月島区民センター内","lat":35.662043,"lon":139.782269},{"name":"＊?月島社会教育会館晴海分館アートはるみ","province":"東京都","city":"中央区","address":"中央区晴海1-4-1月島第三小学校等複合施設内","lat":35.659003,"lon":139.785775},{"name":"＊?築地社会教育会館","province":"東京都","city":"中央区","address":"中央区築地4-15-1","lat":35.666501,"lon":139.768069},{"name":"＊?日本橋社会教育会館","province":"東京都","city":"中央区","address":"中央区日本橋人形町1-1-17日本橋小学校等複合施設内","lat":35.684764,"lon":139.781493},{"name":"＊?アカデミー湯島","province":"東京都","city":"文京区","address":"文京区湯島2-28-14","lat":35.706527,"lon":139.766528},{"name":"＊?アカデミー向丘","province":"東京都","city":"文京区","address":"文京区向丘2-5-7","lat":35.71854,"lon":139.75872},{"name":"＊?アカデミー茗台","province":"東京都","city":"文京区","address":"文京区春日2-9-5","lat":35.713485,"lon":139.741207},{"name":"＊?アカデミー千石","province":"東京都","city":"文京区","address":"文京区千石1-25-3","lat":35.727541,"lon":139.743701},{"name":"＊?アカデミー音羽","province":"東京都","city":"文京区","address":"文京区大塚5-40-15","lat":35.720042,"lon":139.725634},{"name":"＊?アカデミー文京","province":"東京都","city":"文京区","address":"文京区春日1-16-21","lat":35.707941,"lon":139.752662},{"name":"＊?社会教育センター","province":"東京都","city":"台東区","address":"台東区東上野6-16-8","lat":35.713648,"lon":139.783675},{"name":"＊?小島社会教育館","province":"東京都","city":"台東区","address":"台東区小島1-5-2","lat":35.704078,"lon":139.781655},{"name":"＊?今戸社会教育館","province":"東京都","city":"台東区","address":"台東区今戸2-26-12","lat":35.721972,"lon":139.807471},{"name":"＊?千束社会教育館","province":"東京都","city":"台東区","address":"台東区浅草4-24-13","lat":35.719384,"lon":139.794022},{"name":"＊?根岸社会教育館","province":"東京都","city":"台東区","address":"台東区根岸5-18-13","lat":35.729237,"lon":139.790461},{"name":"＊?東品川文化センター","province":"東京都","city":"品川区","address":"品川区東品川3-32-10","lat":35.612942,"lon":139.750578},{"name":"＊?五反田文化センター","province":"東京都","city":"品川区","address":"品川区西五反田6-5-1","lat":35.622538,"lon":139.716574},{"name":"＊?南大井文化センター","province":"東京都","city":"品川区","address":"品川区南大井1-12-6","lat":35.596306,"lon":139.737561},{"name":"＊?荏原文化センター","province":"東京都","city":"品川区","address":"品川区中延1-9-15","lat":35.612166,"lon":139.710676},{"name":"＊?旗の台文化センター","province":"東京都","city":"品川区","address":"品川区旗の台5-19-5","lat":35.60383,"lon":139.700445},{"name":"＊?目黒区民センター社会教育館","province":"東京都","city":"目黒区","address":"目黒区目黒2-4-36","lat":35.635733,"lon":139.708242},{"name":"＊?緑が丘文化会館","province":"東京都","city":"目黒区","address":"目黒区緑が丘2-14-23","lat":35.609353,"lon":139.673304},{"name":"＊?東山社会教育館","province":"東京都","city":"目黒区","address":"目黒区東山3-24-2","lat":35.647958,"lon":139.685394},{"name":"＊?目黒本町社会教育館","province":"東京都","city":"目黒区","address":"目黒区目黒本町2-1-20","lat":35.625238,"lon":139.695228},{"name":"＊?中央町社会教育館","province":"東京都","city":"目黒区","address":"目黒区中央町2-4-18","lat":35.632029,"lon":139.692371},{"name":"＊?幡ヶ谷社会教育館","province":"東京都","city":"渋谷区","address":"渋谷区幡ヶ谷2-50-2","lat":35.679924,"lon":139.67731},{"name":"＊?恵比寿社会教育館","province":"東京都","city":"渋谷区","address":"渋谷区恵比寿2ー27ー18","lat":35.645323,"lon":139.719616},{"name":"＊?長谷戸社会教育館","province":"東京都","city":"渋谷区","address":"渋谷区恵比寿西1ー23ー4","lat":35.647069,"lon":139.706565},{"name":"＊?千駄ヶ谷社会教育館","province":"東京都","city":"渋谷区","address":"渋谷区千駄ヶ谷1-6-5","lat":35.678101,"lon":139.709962},{"name":"＊?上原社会教育館","province":"東京都","city":"渋谷区","address":"渋谷区上原3-13-8","lat":35.666503,"lon":139.678587},{"name":"＊?社会教育センター","province":"東京都","city":"杉並区","address":"杉並区梅里1-22-32","lat":35.697015,"lon":139.654103},{"name":"＊?赤羽文化センター","province":"東京都","city":"北区","address":"北区赤羽西1-6-1-301","lat":35.777897,"lon":139.719388},{"name":"＊?中央公園文化センター","province":"東京都","city":"北区","address":"北区十条台1-2-1","lat":35.753145,"lon":139.727279},{"name":"＊?滝野川文化センター","province":"東京都","city":"北区","address":"北区西ヶ原1-23-3","lat":35.743446,"lon":139.747565},{"name":"＊?佐野地域学習センター","province":"東京都","city":"足立区","address":"足立区佐野2-43-5","lat":35.788137,"lon":139.840248},{"name":"＊?東和地域学習センター","province":"東京都","city":"足立区","address":"足立区東和3-12-9","lat":35.771113,"lon":139.839576},{"name":"＊?花畑地域学習センター","province":"東京都","city":"足立区","address":"足立区花畑4-16-8","lat":35.802827,"lon":139.807458},{"name":"＊?竹の塚地域学習センター","province":"東京都","city":"足立区","address":"足立区竹の塚2-25-17","lat":35.792631,"lon":139.794598},{"name":"＊?梅田地域学習センター","province":"東京都","city":"足立区","address":"足立区梅田7-33-1","lat":35.770641,"lon":139.798287},{"name":"＊?中央本町地域学習センター","province":"東京都","city":"足立区","address":"足立区中央本町3-15-1","lat":35.77225,"lon":139.809721},{"name":"＊?舎人地域学習センター","province":"東京都","city":"足立区","address":"足立区舎人1-3-26","lat":35.806068,"lon":139.773204},{"name":"＊?伊興地域学習センター","province":"東京都","city":"足立区","address":"足立区伊興2-4-22","lat":35.791207,"lon":139.780993},{"name":"＊?鹿浜地域学習センター","province":"東京都","city":"足立区","address":"足立区鹿浜6-8-1","lat":35.783972,"lon":139.758271},{"name":"＊?保塚地域学習センター","province":"東京都","city":"足立区","address":"足立区保塚町7-16","lat":35.786689,"lon":139.816103},{"name":"＊?興本地域学習センター","province":"東京都","city":"足立区","address":"足立区興野1-18-38","lat":35.768306,"lon":139.782379},{"name":"＊?江北地域学習センター","province":"東京都","city":"足立区","address":"足立区江北3-39-4","lat":35.775872,"lon":139.760074},{"name":"＊?新田地域学習センター","province":"東京都","city":"足立区","address":"足立区新田2-2-2","lat":35.771499,"lon":139.738115},{"name":"＊?武蔵野市民会館","province":"東京都","city":"武蔵野市","address":"武蔵野市境2-3-7","lat":35.705321,"lon":139.543332},{"name":"菊川分室","province":"東京都","city":"墨田区","address":"東京都墨田区菊川3丁目21-6","lat":35.68994,"lon":139.80762828},{"name":"柳島集会室","province":"東京都","city":"墨田区","address":"東京都墨田区横川5丁目2-17","lat":35.70357974,"lon":139.81667621},{"name":"立川集会所","province":"東京都","city":"墨田区","address":"東京都墨田区立川1丁目5-2","lat":35.69046226,"lon":139.79950201},{"name":"寺島集会所","province":"東京都","city":"墨田区","address":"東京都墨田区東向島1丁目23-10","lat":35.72018834,"lon":139.81260395},{"name":"千歳集会所","province":"東京都","city":"墨田区","address":"東京都墨田区千歳2丁目2-5","lat":35.69071222,"lon":139.79524684},{"name":"八広中央集会所","province":"東京都","city":"墨田区","address":"東京都墨田区八広3丁目14-5","lat":35.7191104,"lon":139.82683791},{"name":"東あずま公園集会所","province":"東京都","city":"墨田区","address":"東京都墨田区立花2丁目32-12","lat":35.70834973,"lon":139.83030736},{"name":"東駒形集会所","province":"東京都","city":"墨田区","address":"東京都墨田区東駒形4丁目14-1","lat":35.70547984,"lon":139.80774036},{"name":"曳舟集会所","province":"東京都","city":"墨田区","address":"東京都墨田区東向島2丁目17-14","lat":35.71838566,"lon":139.81561446},{"name":"押上集会所","province":"東京都","city":"墨田区","address":"東京都墨田区押上1丁目47-6","lat":35.70928024,"lon":139.81755021},{"name":"八広一丁目集会所","province":"東京都","city":"墨田区","address":"東京都墨田区八広1丁目19-14","lat":35.718808,"lon":139.82292739},{"name":"梅若橋集会所","province":"東京都","city":"墨田区","address":"東京都墨田区堤通2丁目9-1","lat":35.73539223,"lon":139.81675295},{"name":"東墨田うめぞの集会所","province":"東京都","city":"墨田区","address":"東京都墨田区東墨田3丁目19-1","lat":35.7184487,"lon":139.83768103},{"name":"横川集会所","province":"東京都","city":"墨田区","address":"東京都墨田区横川5丁目9-1","lat":35.70517431,"lon":139.81750923},{"name":"江東橋集会所","province":"東京都","city":"墨田区","address":"東京都墨田区江東橋5丁目16-15","lat":35.6926285,"lon":139.81078593},{"name":"一寺言問集会所","province":"東京都","city":"墨田区","address":"東京都墨田区東向島1丁目20-6","lat":35.72067722,"lon":139.81388712},{"name":"立花児童館","province":"東京都","city":"墨田区","address":"東京都墨田区立花1丁目27-9","lat":35.70555246,"lon":139.82881617},{"name":"みどりｺﾐｭﾆﾃｨｾﾝﾀｰ集会室","province":"東京都","city":"墨田区","address":"東京都墨田区緑3丁目7-3","lat":35.69361455,"lon":139.8032676},{"name":"業平三丁目集会所","province":"東京都","city":"墨田区","address":"東京都墨田区業平3丁目2-5","lat":35.70634375,"lon":139.8130676},{"name":"立花四丁目集会所","province":"東京都","city":"墨田区","address":"東京都墨田区立花4丁目8-10","lat":35.71069969,"lon":139.83086822},{"name":"京島第一集会所","province":"東京都","city":"墨田区","address":"東京都墨田区京島3丁目3-6","lat":35.71515563,"lon":139.82138862},{"name":"京島第二集会所","province":"東京都","city":"墨田区","address":"東京都墨田区京島3丁目52-8","lat":35.71478047,"lon":139.82434659},{"name":"なりひら神明橋集会所","province":"東京都","city":"墨田区","address":"東京都墨田区業平5丁目6-2","lat":35.70709118,"lon":139.81802555},{"name":"太平四丁目集会所","province":"大分県","city":"大分市","address":"大分県大分市南太平寺4丁目1-4","lat":33.21992613,"lon":131.6024758}]}