{"keyword":"清掃","data":[{"name":"環境ふれあい館ひまわり","province":"","city":"","address":"蔵前4丁目14番6号","lat":35.70391548,"lon":139.7896746},{"name":"リサイクルショップ","province":"","city":"","address":"蔵前4丁目14番6号","lat":35.70381549,"lon":139.7896546},{"name":"台東清掃事務所","province":"","city":"","address":"今戸1丁目6番26号","lat":35.71763485,"lon":139.8036326},{"name":"清川清掃車庫","province":"","city":"","address":"清川2丁目24番26号","lat":35.72812412,"lon":139.8046229},{"name":"谷原清掃事業所","province":"東京都","city":"練馬区","address":"練馬区谷原5-5-11","lat":35.75172043,"lon":139.6113238},{"name":"練馬清掃事務所","province":"東京都","city":"練馬区","address":"練馬区豊玉上2-22-15","lat":35.73704419,"lon":139.6600978},{"name":"石神井清掃事務所","province":"東京都","city":"練馬区","address":"練馬区上石神井3-34-25","lat":35.73119168,"lon":139.5902028},{"name":"すみだ清掃事務所","province":"東京都","city":"墨田区","address":"東京都墨田区業平5丁目6-2","lat":35.70709118,"lon":139.81802555},{"name":"すみだ清掃事務所分室","province":"東京都","city":"墨田区","address":"東京都墨田区東向島5丁目9-11","lat":35.72612413,"lon":139.82068068},{"name":"すみだ清掃事務所亀沢待機所","province":"東京都","city":"墨田区","address":"東京都墨田区亀沢1丁目8-3","lat":35.69728358,"lon":139.7975762},{"name":"すみだ清掃事務所業平待機所","province":"東京都","city":"墨田区","address":"東京都墨田区東駒形4丁目15-15","lat":35.70842405,"lon":139.80752325},{"name":"向島ストックヤード","province":"東京都","city":"墨田区","address":"東京都墨田区向島5丁目9-1","lat":35.7218326,"lon":139.81005447},{"name":"錦糸ストックヤード","province":"東京都","city":"墨田区","address":"東京都墨田区錦糸4丁目16-18","lat":35.6989803,"lon":139.81896791},{"name":"立川リサイクルストックヤード","province":"東京都","city":"墨田区","address":"東京都墨田区立川2丁目9-5","lat":35.69130379,"lon":139.80078775},{"name":"墨田清掃工場","province":"東京都","city":"墨田区","address":"東京都墨田区東墨田1丁目10-23","lat":35.7174879,"lon":139.83172056}]}