{"keyword":"児童","data":[{"name":"バツト博士記念ホーム","province":"東京都","city":"町田市","address":"町田市下小山田町2745-1","lat":35.59523,"lon":139.4099},{"name":"あけの星学園","province":"東京都","city":"新宿区","address":"新宿区中落合1-7-1","lat":35.717259,"lon":139.690727},{"name":"品川景徳学園","province":"東京都","city":"品川区","address":"品川区旗の台5-25-19","lat":35.602892,"lon":139.700936},{"name":"目黒若葉寮","province":"東京都","city":"目黒区","address":"目黒区大橋2-19-1","lat":35.654997,"lon":139.682533},{"name":"救世軍機恵子寮","province":"東京都","city":"大田区","address":"大田区上池台4-12-10","lat":35.598467,"lon":139.699808},{"name":"聖フランシスコ子供寮","province":"東京都","city":"大田区","address":"大田区久が原4-2-1","lat":35.582955,"lon":139.693801},{"name":"東京育成園","province":"東京都","city":"世田谷区","address":"世田谷区上馬4-12-3","lat":35.63569,"lon":139.662374},{"name":"福音寮","province":"東京都","city":"世田谷区","address":"世田谷区上北沢3-1-19","lat":35.666199,"lon":139.62699},{"name":"広尾フレンズ","province":"東京都","city":"渋谷区","address":"渋谷区広尾4-2-12","lat":35.655159,"lon":139.722279},{"name":"若草寮","province":"東京都","city":"渋谷区","address":"渋谷区幡ヶ谷3-4-9","lat":35.679938,"lon":139.675566},{"name":"愛児の家","province":"東京都","city":"中野区","address":"中野区鷺宮3-2-13","lat":35.723241,"lon":139.643467},{"name":"聖友学園","province":"東京都","city":"杉並区","address":"杉並区阿佐谷北3-28-19","lat":35.711122,"lon":139.633382},{"name":"救世軍世光寮","province":"東京都","city":"杉並区","address":"杉並区和田2-21-1","lat":35.689964,"lon":139.659295},{"name":"カリタスの園小百合の寮","province":"東京都","city":"杉並区","address":"杉並区井草4-19-28","lat":35.728098,"lon":139.613394},{"name":"東京家庭学校","province":"東京都","city":"杉並区","address":"杉並区高井戸東2-3-4","lat":35.677351,"lon":139.615888},{"name":"杉並学園","province":"東京都","city":"杉並区","address":"杉並区宮前3-10-8","lat":35.695229,"lon":139.604432},{"name":"星美ホーム","province":"東京都","city":"北区","address":"北区赤羽台4-2-14","lat":35.784216,"lon":139.714653},{"name":"まつば園","province":"東京都","city":"板橋区","address":"板橋区氷川町27-2","lat":35.753742,"lon":139.704733},{"name":"西台こども館","province":"東京都","city":"板橋区","address":"板橋区西台1-27-10","lat":35.774924,"lon":139.671993},{"name":"マハヤナ学園撫子園","province":"東京都","city":"板橋区","address":"板橋区前野町5-7-10","lat":35.770022,"lon":139.685875},{"name":"錦華学院","province":"東京都","city":"練馬区","address":"練馬区小竹町1-60-8","lat":35.738601,"lon":139.673194},{"name":"東京都石神井学園","province":"東京都","city":"練馬区","address":"練馬区石神井台3-35-23","lat":35.741623,"lon":139.58876},{"name":"クリスマス・ヴィレッジ","province":"東京都","city":"足立区","address":"足立区西新井本町4-13-16","lat":35.773008,"lon":139.778561},{"name":"暁星学園","province":"東京都","city":"足立区","address":"足立区扇1-12-20","lat":35.761268,"lon":139.774137},{"name":"東京愛育苑向島学園","province":"東京都","city":"葛飾区","address":"葛飾区水元3-13-8","lat":35.782555,"lon":139.863901},{"name":"共生会希望の家","province":"東京都","city":"葛飾区","address":"葛飾区青戸4-14-15","lat":35.751943,"lon":139.850242},{"name":"今良学舎","province":"東京都","city":"八王子市","address":"八王子市暁町3-23-18","lat":35.676788,"lon":139.338661},{"name":"武蔵野児童学園","province":"東京都","city":"八王子市","address":"八王子市元八王子町2-1326","lat":35.662732,"lon":139.282159},{"name":"エスオーエスこどもの村","province":"東京都","city":"八王子市","address":"八王子市裏高尾町991","lat":35.639108,"lon":139.253054},{"name":"こどものうち八栄寮","province":"東京都","city":"八王子市","address":"八王子市館町2232-1","lat":35.630301,"lon":139.305635},{"name":"至誠学園","province":"東京都","city":"立川市","address":"立川市錦町6-26-15","lat":35.684573,"lon":139.418182},{"name":"至誠大地の家","province":"東京都","city":"立川市","address":"立川市錦町6-26-17","lat":35.684547,"lon":139.417463},{"name":"赤十字子供の家","province":"東京都","city":"武蔵野市","address":"武蔵野市境南町1-26-27","lat":35.697783,"lon":139.54676},{"name":"のぞみの家","province":"東京都","city":"武蔵野市","address":"武蔵野市境南町5-6-21","lat":35.697344,"lon":139.538138},{"name":"朝陽学園","province":"東京都","city":"三鷹市","address":"三鷹市大沢2-4-1","lat":35.678254,"lon":139.537136},{"name":"今井城学園","province":"東京都","city":"青梅市","address":"青梅市今井2-1207-8","lat":35.803528,"lon":139.314056},{"name":"東京恵明学園児童部","province":"東京都","city":"青梅市","address":"青梅市友田町2-714-1","lat":35.768499,"lon":139.294081},{"name":"砂町友愛園養護部","province":"東京都","city":"青梅市","address":"青梅市沢井1-506","lat":35.809659,"lon":139.20204},{"name":"双葉園","province":"東京都","city":"昭島市","address":"昭島市中神町1260","lat":35.709385,"lon":139.382215},{"name":"調布学園","province":"東京都","city":"調布市","address":"調布市富士見町3-18-1","lat":35.662217,"lon":139.540061},{"name":"第二調布学園","province":"東京都","city":"調布市","address":"調布市富士見町3-18-1","lat":35.662217,"lon":139.540061},{"name":"二葉学園","province":"東京都","city":"調布市","address":"調布市上石原2-17-7","lat":35.655357,"lon":139.525941},{"name":"精舎児童学園","province":"東京都","city":"町田市","address":"町田市木曽東3-6-1","lat":35.561251,"lon":139.426894},{"name":"バツト博士記念ホーム","province":"東京都","city":"町田市","address":"町田市下小山田町2745-1","lat":35.595111,"lon":139.409389},{"name":"二葉むさしが丘学園","province":"東京都","city":"小平市","address":"小平市鈴木町1-62-1","lat":35.72757,"lon":139.492463},{"name":"東京サレジオ学園","province":"東京都","city":"小平市","address":"小平市上水南町4-7-1","lat":35.709005,"lon":139.490464},{"name":"至誠大空の家","province":"東京都","city":"日野市","address":"日野市万願寺1-14-2","lat":35.675651,"lon":139.420627},{"name":"生長の家神の国寮","province":"東京都","city":"国立市","address":"国立市富士見台2-39-1","lat":35.687409,"lon":139.443896},{"name":"れんげ学園","province":"東京都","city":"東大和市","address":"東大和市芋窪5-1161-3","lat":35.749134,"lon":139.41346},{"name":"子供の家","province":"東京都","city":"清瀬市","address":"清瀬市松山3-12-17","lat":35.76651,"lon":139.514053},{"name":"ベトレヘム学園","province":"東京都","city":"清瀬市","address":"清瀬市梅園3-14-23","lat":35.770518,"lon":139.501347},{"name":"東京都小山児童学園","province":"東京都","city":"東久留米市","address":"東久留米市野火止2-22-26","lat":35.764102,"lon":139.515887},{"name":"聖ヨゼフホーム","province":"東京都","city":"西東京市","address":"西東京市保谷町4-12-7","lat":35.730946,"lon":139.546625},{"name":"東京都八街学園","province":"千葉県","city":"八街市","address":"千葉県八街市八街に151","lat":35.66595,"lon":140.325201},{"name":"東京都船形学園","province":"千葉県","city":"館山市","address":"千葉県館山市船形1377","lat":35.030714,"lon":139.839256},{"name":"東京都勝山学園","province":"千葉県","city":"安房郡鋸南町","address":"千葉県安房郡鋸南町下佐久間1469","lat":35.107351,"lon":139.841506},{"name":"東京都片瀬学園","province":"神奈川県","city":"藤沢市","address":"神奈川県藤沢市片瀬4-9-38","lat":35.315956,"lon":139.482739},{"name":"広尾フレンズ","province":"東京都","city":"渋谷区","address":"渋谷区広尾4-2-12","lat":35.65539,"lon":139.72239},{"name":"武蔵野児童学園","province":"東京都","city":"八王子市","address":"八王子市元八王子町2-1326","lat":35.66126,"lon":139.2829},{"name":"調布学園","province":"東京都","city":"調布市","address":"調布市富士見町3-18-1","lat":35.66229,"lon":139.54057},{"name":"第二調布学園","province":"東京都","city":"調布市","address":"調布市富士見町3-18-1","lat":35.66229,"lon":139.54057},{"name":"小島児童遊園","province":"","city":"","address":"三筋1-9-1","lat":35.70323549,"lon":139.784645},{"name":"三筋児童遊園","province":"","city":"","address":"蔵前4-18-7","lat":35.7045454,"lon":139.7881347},{"name":"谷中児童遊園","province":"","city":"","address":"谷中3-17-3・同3-18-15","lat":35.72942242,"lon":139.764945},{"name":"清島児童遊園","province":"","city":"","address":"東上野6-16-3","lat":35.71336446,"lon":139.7834443},{"name":"黒門児童遊園","province":"","city":"","address":"上野1-19-3","lat":35.70650485,"lon":139.7721953},{"name":"竹町児童遊園","province":"","city":"","address":"台東2-24-11","lat":35.70331533,"lon":139.7786052},{"name":"北上野児童遊園","province":"","city":"","address":"北上野1-1-14先","lat":35.71582423,"lon":139.7827342},{"name":"寿三丁目児童遊園","province":"","city":"","address":"寿3-20-2","lat":35.70778513,"lon":139.7919041},{"name":"左衛門町児童遊園","province":"","city":"","address":"浅草橋1-3-8","lat":35.69683615,"lon":139.7828555},{"name":"東上野児童遊園","province":"","city":"","address":"東上野5-23-7","lat":35.71498429,"lon":139.7822143},{"name":"中根岸児童遊園","province":"","city":"","address":"根岸3-16-10","lat":35.72355366,"lon":139.7833539},{"name":"七倉児童遊園","province":"","city":"","address":"池之端2-5-47","lat":35.71492382,"lon":139.7663752},{"name":"三ノ輪児童遊園","province":"","city":"","address":"三ノ輪2-5-5","lat":35.72944293,"lon":139.7932324},{"name":"向柳原児童遊園","province":"","city":"","address":"浅草橋2-23-5","lat":35.70034581,"lon":139.7844452},{"name":"池之端児童遊園","province":"","city":"","address":"池之端2-9-8","lat":35.7156038,"lon":139.7674352},{"name":"新坂本児童遊園","province":"","city":"","address":"北上野2-19-8","lat":35.7178441,"lon":139.784584},{"name":"広徳児童遊園","province":"","city":"","address":"東上野4-5-1","lat":35.71247448,"lon":139.7806645},{"name":"竜泉児童遊園","province":"","city":"","address":"竜泉1-20-15","lat":35.72370357,"lon":139.7906231},{"name":"小島二丁目児童遊園","province":"","city":"","address":"小島2-20-5","lat":35.70675507,"lon":139.7820748},{"name":"三筋二丁目児童遊園","province":"","city":"","address":"三筋2-16-8","lat":35.70583526,"lon":139.7871146},{"name":"芋坂児童遊園","province":"","city":"","address":"谷中7-12-6","lat":35.72587317,"lon":139.7729546},{"name":"根岸二丁目児童遊園","province":"","city":"","address":"根岸2-9-5、根岸2-8-13","lat":35.7250633,"lon":139.7751745},{"name":"寿児童遊園","province":"","city":"","address":"寿3-16-18","lat":35.70724519,"lon":139.7930641},{"name":"初音児童遊園","province":"","city":"","address":"谷中3-6-5・同3-7-1","lat":35.72563281,"lon":139.7654451},{"name":"両国橋児童遊園","province":"","city":"","address":"両国一丁目11番2号","lat":35.693953,"lon":139.7899},{"name":"両国第一児童遊園","province":"","city":"","address":"両国四丁目36番16号","lat":35.695132,"lon":139.795394},{"name":"六間堀児童遊園","province":"","city":"","address":"千歳三丁目1番1号","lat":35.688637,"lon":139.796763},{"name":"緑児童遊園","province":"","city":"","address":"緑一丁目1番17号","lat":35.692528,"lon":139.800381},{"name":"とちのき児童遊園","province":"","city":"","address":"緑二丁目8番12号","lat":35.693351,"lon":139.801293},{"name":"どんぐり児童遊園","province":"","city":"","address":"緑三丁目12番9号","lat":35.694587,"lon":139.804787},{"name":"きくはな児童遊園","province":"","city":"","address":"緑四丁目2番4号","lat":35.692975,"lon":139.808664},{"name":"立川第二児童遊園（愛称名：安兵衛公園）","province":"","city":"","address":"立川三丁目15番6号","lat":35.691967,"lon":139.803926},{"name":"菊一児童遊園","province":"","city":"","address":"菊川一丁目1番17号","lat":35.688337,"lon":139.800636},{"name":"菊川橋児童遊園","province":"","city":"","address":"菊川三丁目13番2号","lat":35.688705,"lon":139.809121},{"name":"さざんか児童遊園","province":"","city":"","address":"江東橋一丁目1番4号","lat":35.69303,"lon":139.809232},{"name":"亀沢第一児童遊園","province":"","city":"","address":"亀沢二丁目13番7号","lat":35.697868,"lon":139.801936},{"name":"つくし児童遊園","province":"","city":"","address":"亀沢三丁目4番8号","lat":35.696409,"lon":139.804603},{"name":"ささのは児童遊園","province":"","city":"","address":"亀沢四丁目18番8号","lat":35.698541,"lon":139.808307},{"name":"法恩寺橋児童遊園","province":"","city":"","address":"石原四丁目28番2号","lat":35.70096,"lon":139.808103},{"name":"本四三ツ目児童遊園","province":"","city":"","address":"本所四丁目1番4号","lat":35.702802,"lon":139.805043},{"name":"もみじばし児童遊園","province":"","city":"","address":"本所四丁目8番6号","lat":35.70311,"lon":139.807934},{"name":"こまどり児童遊園","province":"","city":"","address":"東駒形一丁目2番11号","lat":35.706545,"lon":139.797428},{"name":"かしわ児童遊園","province":"","city":"","address":"東駒形二丁目8番2号","lat":35.705981,"lon":139.801065},{"name":"しいのき児童遊園","province":"","city":"","address":"吾妻橋三丁目9番4号","lat":35.709596,"lon":139.804887},{"name":"あかしや児童遊園","province":"","city":"","address":"太平四丁目23番3号","lat":35.702134,"lon":139.818239},{"name":"横川橋児童遊園","province":"","city":"","address":"横川一丁目1番1号","lat":35.703914,"lon":139.808504},{"name":"横川南児童遊園","province":"","city":"","address":"横川三丁目6番3号","lat":35.703461,"lon":139.813942},{"name":"横川北児童遊園","province":"","city":"","address":"横川三丁目12番13号","lat":35.705172,"lon":139.813639},{"name":"柳島児童遊園","province":"","city":"","address":"横川五丁目10番13号","lat":35.704926,"lon":139.816472},{"name":"くるみ児童遊園","province":"","city":"","address":"業平五丁目1番1号","lat":35.706277,"lon":139.816297},{"name":"小梅児童遊園","province":"","city":"","address":"向島一丁目33番3号","lat":35.710428,"lon":139.80815},{"name":"請地児童遊園","province":"","city":"","address":"向島四丁目12番11号","lat":35.717125,"lon":139.813419},{"name":"さくらんぼ児童遊園","province":"","city":"","address":"向島五丁目38番7号","lat":35.718057,"lon":139.8128},{"name":"露伴児童遊園","province":"","city":"","address":"東向島一丁目7番11号","lat":35.721824,"lon":139.813065},{"name":"あすなろ児童遊園","province":"","city":"","address":"東向島一丁目34番5号","lat":35.720111,"lon":139.81524},{"name":"曳舟児童遊園","province":"","city":"","address":"東向島二丁目25番7号","lat":35.718995,"lon":139.816513},{"name":"くすのき児童遊園","province":"","city":"","address":"東向島四丁目28番8号","lat":35.723747,"lon":139.818713},{"name":"こでまり児童遊園","province":"","city":"","address":"東向島五丁目24番1号","lat":35.727679,"lon":139.82188},{"name":"すずかけ児童遊園","province":"","city":"","address":"東向島五丁目39番8号","lat":35.728687,"lon":139.824544},{"name":"やまぶき児童遊園","province":"","city":"","address":"東向島六丁目60番6号","lat":35.72736,"lon":139.824363},{"name":"さくら児童遊園","province":"","city":"","address":"堤通一丁目18番20号","lat":35.726006,"lon":139.81214},{"name":"白鬚児童遊園","province":"","city":"","address":"墨田一丁目4番9号","lat":35.729841,"lon":139.814054},{"name":"境児童遊園","province":"","city":"","address":"墨田一丁目13番3号","lat":35.728515,"lon":139.817765},{"name":"こぶし児童遊園","province":"","city":"","address":"墨田二丁目14番3号","lat":35.732434,"lon":139.816963},{"name":"墨田第三児童遊園","province":"","city":"","address":"墨田二丁目17番6号","lat":35.73142,"lon":139.816183},{"name":"墨田第六児童遊園","province":"","city":"","address":"墨田二丁目20番15号","lat":35.730558,"lon":139.817032},{"name":"墨田二丁目児童遊園","province":"","city":"","address":"墨田二丁目42番4号","lat":35.732196,"lon":139.818871},{"name":"隅田西児童遊園","province":"","city":"","address":"墨田三丁目31番2号","lat":35.732448,"lon":139.820063},{"name":"かつら児童遊園","province":"","city":"","address":"墨田三丁目36番13号","lat":35.73143,"lon":139.820727},{"name":"隅田第二児童遊園","province":"","city":"","address":"墨田四丁目8番14号","lat":35.732757,"lon":139.821737},{"name":"隅田児童遊園","province":"","city":"","address":"墨田四丁目23番12号","lat":35.732304,"lon":139.82333},{"name":"隅田東第二児童遊園","province":"","city":"","address":"墨田四丁目34番20号","lat":35.732859,"lon":139.824162},{"name":"隅田東児童遊園","province":"","city":"","address":"墨田四丁目52番12号","lat":35.729561,"lon":139.825222},{"name":"中之郷児童遊園","province":"","city":"","address":"押上二丁目12番1号","lat":35.712248,"lon":139.812224},{"name":"押上第一児童遊園","province":"","city":"","address":"押上三丁目48番1号","lat":35.711693,"lon":139.820093},{"name":"押上第二児童遊園","province":"","city":"","address":"押上三丁目57番3号","lat":35.711885,"lon":139.821308},{"name":"とらばし児童遊園","province":"","city":"","address":"京島一丁目21番9号","lat":35.715148,"lon":139.819723},{"name":"からたち児童遊園","province":"","city":"","address":"京島三丁目10番19号","lat":35.716595,"lon":139.822611},{"name":"宮元児童遊園","province":"","city":"","address":"文花二丁目7番4号","lat":35.709415,"lon":139.826707},{"name":"けやき児童遊園","province":"","city":"","address":"八広一丁目7番4号","lat":35.721345,"lon":139.822059},{"name":"長浦児童遊園","province":"","city":"","address":"八広一丁目8番18号","lat":35.72154,"lon":139.823176},{"name":"八広一丁目児童遊園","province":"","city":"","address":"八広一丁目19番14号","lat":35.718934,"lon":139.822918},{"name":"あおぎり児童遊園","province":"","city":"","address":"八広四丁目11番6号","lat":35.722583,"lon":139.827061},{"name":"八広つるかめ児童遊園","province":"","city":"","address":"八広四丁目28番6号","lat":35.724338,"lon":139.829222},{"name":"ごあずま児童遊園","province":"","city":"","address":"八広四丁目36番24号","lat":35.722741,"lon":139.829548},{"name":"八広第一児童遊園","province":"","city":"","address":"八広五丁目7番6号","lat":35.724196,"lon":139.823938},{"name":"八広第二児童遊園","province":"","city":"","address":"八広五丁目7番18号","lat":35.723753,"lon":139.824516},{"name":"八広六西児童遊園","province":"","city":"","address":"八広六丁目13番1号","lat":35.728458,"lon":139.827397},{"name":"あづま児童遊園","province":"","city":"","address":"立花一丁目2番3号","lat":35.705334,"lon":139.826812},{"name":"香取児童遊園","province":"","city":"","address":"立花一丁目25番6号","lat":35.704674,"lon":139.832145},{"name":"六軒児童遊園","province":"","city":"","address":"立花三丁目18番12号","lat":35.706159,"lon":139.834182},{"name":"たちばな児童遊園","province":"","city":"","address":"立花三丁目21番16号","lat":35.706887,"lon":139.834263},{"name":"立花第一児童遊園","province":"","city":"","address":"立花四丁目9番6号","lat":35.710198,"lon":139.831573},{"name":"立花六丁目児童遊園","province":"","city":"","address":"立花六丁目14番5号","lat":35.710206,"lon":139.837889},{"name":"あじさい児童遊園","province":"","city":"","address":"東墨田三丁目12番10号","lat":35.721593,"lon":139.835269}]}