{"keyword":"行政","data":[{"name":"東京体育館","province":"東京都","city":"渋谷区","address":"東京都渋谷区","lat":35.66368489,"lon":139.69770072},{"name":"駒沢オリンピック公園総合運動場専用駐車場","province":"東京都","city":"世田谷区","address":"東京都世田谷区","lat":35.64657462,"lon":139.65324952},{"name":"東京都障害者総合スポーツセンター","province":"大阪府","city":"大阪市北区","address":"大阪府大阪市北区","lat":34.70536386,"lon":135.51002813},{"name":"東京都多摩障害者スポーツセンター","province":"東京都","city":"国立市","address":"東京都国立市","lat":35.68388439,"lon":139.44138288},{"name":"武蔵野の森総合スポーツ施設敷地","province":"東京都","city":"調布市","address":"東京都調布市","lat":35.65071619,"lon":139.54099257},{"name":"旧調布基地跡地整備関連事業用地","province":"東京都","city":"調布市","address":"東京都調布市","lat":35.65071619,"lon":139.54099257},{"name":"調布基地跡地整備関連事業用地","province":"東京都","city":"調布市","address":"東京都調布市","lat":35.65071619,"lon":139.54099257},{"name":"駒沢オリンピック公園陸上競技場","province":"東京都","city":"世田谷区","address":"東京都世田谷区","lat":35.64657462,"lon":139.65324952},{"name":"駒沢オリンピック公園屋内球技場","province":"東京都","city":"世田谷区","address":"東京都世田谷区","lat":35.64657462,"lon":139.65324952},{"name":"駒沢オリンピック公園体育館","province":"東京都","city":"世田谷区","address":"東京都世田谷区","lat":35.64657462,"lon":139.65324952},{"name":"駒沢オリンピック公園第二球技場","province":"東京都","city":"世田谷区","address":"東京都世田谷区","lat":35.64657462,"lon":139.65324952},{"name":"駒沢オリンピック公園弓道場","province":"東京都","city":"世田谷区","address":"東京都世田谷区","lat":35.64657462,"lon":139.65324952},{"name":"駒沢オリンピック公園弓道場的場","province":"東京都","city":"世田谷区","address":"東京都世田谷区","lat":35.64657462,"lon":139.65324952},{"name":"駒沢オリンピック公園水泳場","province":"東京都","city":"世田谷区","address":"東京都世田谷区","lat":35.64657462,"lon":139.65324952},{"name":"駒沢オリンピック公園管制塔ほか附属施設等5件","province":"東京都","city":"世田谷区","address":"東京都世田谷区","lat":35.64657462,"lon":139.65324952},{"name":"東京武道館","province":"東京都","city":"足立区","address":"東京都足立区","lat":35.77563344,"lon":139.80450083},{"name":"東京辰巳国際水泳場","province":"東京都","city":"江東区","address":"東京都江東区","lat":35.67307835,"lon":139.8169681},{"name":"有明テニスの森公園有明コロシアム","province":"東京都","city":"江東区","address":"東京都江東区","lat":35.67307835,"lon":139.8169681},{"name":"有明テニスの森公園クラブハウスほか附属施設等14件","province":"東京都","city":"江東区","address":"東京都江東区","lat":35.67307835,"lon":139.8169681},{"name":"若洲海浜公園ヨット訓練所艇庫ほか2件","province":"東京都","city":"江東区","address":"東京都江東区","lat":35.67307835,"lon":139.8169681},{"name":"障害者総合スポーツセンター洋弓場","province":"大阪府","city":"大阪市北区","address":"大阪府大阪市北区","lat":34.70536386,"lon":135.51002813},{"name":"東京都多摩障害者スポーツセンター宿泊棟","province":"東京都","city":"国立市","address":"東京都国立市","lat":35.68388439,"lon":139.44138288},{"name":"調布庁舎","province":"東京都","city":"調布市","address":"東京都調布市","lat":35.65071619,"lon":139.54099257},{"name":"駒沢オリンピック公園陸上競技場トラックフィールド","province":"東京都","city":"世田谷区","address":"東京都世田谷区","lat":35.64657462,"lon":139.65324952},{"name":"駒沢オリンピック公園第一球技場","province":"東京都","city":"世田谷区","address":"東京都世田谷区","lat":35.64657462,"lon":139.65324952},{"name":"駒沢オリンピック公園第二球技場フィールド","province":"東京都","city":"世田谷区","address":"東京都世田谷区","lat":35.64657462,"lon":139.65324952},{"name":"駒沢オリンピック公園総合運動場テニスコート（砂入り人工芝）","province":"東京都","city":"世田谷区","address":"東京都世田谷区","lat":35.64657462,"lon":139.65324952},{"name":"駒沢オリンピック公園補助競技場","province":"東京都","city":"世田谷区","address":"東京都世田谷区","lat":35.64657462,"lon":139.65324952},{"name":"駒沢オリンピック公園軟式野球場グランド","province":"東京都","city":"世田谷区","address":"東京都世田谷区","lat":35.64657462,"lon":139.65324952},{"name":"駒沢オリンピック公園硬式野球場グランド","province":"東京都","city":"世田谷区","address":"東京都世田谷区","lat":35.64657462,"lon":139.65324952},{"name":"有明テニスの森公園駐車場","province":"東京都","city":"江東区","address":"東京都江東区","lat":35.67307835,"lon":139.8169681},{"name":"有明テニスの森公園砂入り人工芝（テニスコート）","province":"東京都","city":"江東区","address":"東京都江東区","lat":35.67307835,"lon":139.8169681},{"name":"若洲海浜公園ヨット訓練所ボートヤード","province":"東京都","city":"江東区","address":"東京都江東区","lat":35.67307835,"lon":139.8169681},{"name":"障害者総合スポーツセンター運動場","province":"大阪府","city":"大阪市北区","address":"大阪府大阪市北区","lat":34.70536386,"lon":135.51002813},{"name":"障害者総合スポーツセンター庭球場","province":"大阪府","city":"大阪市北区","address":"大阪府大阪市北区","lat":34.70536386,"lon":135.51002813},{"name":"若洲海浜公園ヨット訓練所浮桟橋","province":"東京都","city":"江東区","address":"東京都江東区","lat":35.67307835,"lon":139.8169681}]}