{"keyword":"男女","data":[{"name":"H1T本八幡北口","province":"千葉県","city":"市川市","address":"千葉県市川市八幡3丁目6-1","lat":35.72217229,"lon":139.92581814},{"name":"京成電鉄（株）","province":"千葉県","city":"市川市","address":"市川市八幡3-3-1","lat":35.72359,"lon":139.9277},{"name":"H1T本八幡北口","province":"千葉県","city":"市川市","address":"千葉県市川市八幡3丁目6-1","lat":35.72217229,"lon":139.92581814},{"name":"京成電鉄（株）","province":"千葉県","city":"市川市","address":"市川市八幡3-3-1","lat":35.72359,"lon":139.9277},{"name":"H1T本八幡北口","province":"千葉県","city":"市川市","address":"千葉県市川市八幡3丁目6-1","lat":35.72217229,"lon":139.92581814},{"name":"京成電鉄（株）","province":"千葉県","city":"市川市","address":"市川市八幡3-3-1","lat":35.72359,"lon":139.9277},{"name":"H1T本八幡北口","province":"千葉県","city":"市川市","address":"千葉県市川市八幡3丁目6-1","lat":35.72217229,"lon":139.92581814},{"name":"H1T本八幡北口","province":"千葉県","city":"市川市","address":"千葉県市川市八幡3丁目6-1","lat":35.72217229,"lon":139.92581814},{"name":"H1T本八幡北口","province":"千葉県","city":"市川市","address":"千葉県市川市八幡3丁目6-1","lat":35.72217229,"lon":139.92581814},{"name":"H1T本八幡北口","province":"千葉県","city":"市川市","address":"千葉県市川市八幡3丁目6-1","lat":35.72217229,"lon":139.92581814},{"name":"H1T本八幡北口","province":"千葉県","city":"市川市","address":"千葉県市川市八幡3丁目6-1","lat":35.72217229,"lon":139.92581814},{"name":"H1T本八幡北口","province":"千葉県","city":"市川市","address":"千葉県市川市八幡3丁目6-1","lat":35.72217229,"lon":139.92581814},{"name":"H1T本八幡北口","province":"千葉県","city":"市川市","address":"千葉県市川市八幡3丁目6-1","lat":35.72217229,"lon":139.92581814},{"name":"H1T本八幡北口","province":"千葉県","city":"市川市","address":"千葉県市川市八幡3丁目6-1","lat":35.72217229,"lon":139.92581814},{"name":"H1T本八幡北口","province":"千葉県","city":"市川市","address":"千葉県市川市八幡3丁目6-1","lat":35.72217229,"lon":139.92581814},{"name":"H1T本八幡北口","province":"千葉県","city":"市川市","address":"千葉県市川市八幡3丁目6-1","lat":35.72217229,"lon":139.92581814},{"name":"H1T本八幡北口","province":"千葉県","city":"市川市","address":"千葉県市川市八幡3丁目6-1","lat":35.72217229,"lon":139.92581814},{"name":"H1T本八幡北口","province":"千葉県","city":"市川市","address":"千葉県市川市八幡3丁目6-1","lat":35.72217229,"lon":139.92581814},{"name":"H1T本八幡北口","province":"千葉県","city":"市川市","address":"千葉県市川市八幡3丁目6-1","lat":35.72217229,"lon":139.92581814},{"name":"H1T本八幡北口","province":"千葉県","city":"市川市","address":"千葉県市川市八幡3丁目6-1","lat":35.72217229,"lon":139.92581814},{"name":"H1T本八幡北口","province":"千葉県","city":"市川市","address":"千葉県市川市八幡3丁目6-1","lat":35.72217229,"lon":139.92581814},{"name":"H1T本八幡北口","province":"千葉県","city":"市川市","address":"千葉県市川市八幡3丁目6-1","lat":35.72217229,"lon":139.92581814},{"name":"H1T本八幡北口","province":"千葉県","city":"市川市","address":"千葉県市川市八幡3丁目6-1","lat":35.72217229,"lon":139.92581814},{"name":"H1T本八幡北口","province":"千葉県","city":"市川市","address":"千葉県市川市八幡3丁目6-1","lat":35.72217229,"lon":139.92581814},{"name":"H1T本八幡北口","province":"千葉県","city":"市川市","address":"千葉県市川市八幡3丁目6-1","lat":35.72217229,"lon":139.92581814},{"name":"H1T本八幡北口","province":"千葉県","city":"市川市","address":"千葉県市川市八幡3丁目6-1","lat":35.72217229,"lon":139.92581814}]}