{"keyword":"商品","data":[{"name":"小笠原村社会福祉協議会","province":"東京都","city":"小笠原村","address":"小笠原村父島字奥村小笠原村地域福祉センター内","lat":27.099685,"lon":142.199972},{"name":"小笠原村子ども家庭支援センター","province":"東京都","city":"小笠原村","address":"小笠原村父島字西町小笠原村役場内","lat":27.094271,"lon":142.192063},{"name":"東京都小笠原支庁母島出張所","province":"東京都","city":"小笠原村","address":"東京都小笠原村母島","lat":26.640013,"lon":142.161585},{"name":"大神山公園","province":"東京都","city":"小笠原村","address":"東京都小笠原村父島","lat":27.093929,"lon":142.193059},{"name":"大神山公園","province":"東京都","city":"小笠原村","address":"東京都小笠原村父島","lat":27.098068,"lon":142.197212},{"name":"脇浜なぎさ公園","province":"東京都","city":"小笠原村","address":"東京都小笠原村母島","lat":26.636944,"lon":142.15673},{"name":"二見漁港","province":"東京都","city":"小笠原村","address":"東京都小笠原村父島","lat":27.097648,"lon":142.202829},{"name":"小笠原ビジターセンター","province":"東京都","city":"小笠原村","address":"東京都小笠原村父島","lat":27.093198,"lon":142.191788},{"name":"奥村運動場ゲートボール場トイレ","province":"東京都","city":"小笠原村","address":"東京都小笠原村父島","lat":27.100075,"lon":142.201275},{"name":"小笠原村社会福祉協議会","province":"東京都","city":"小笠原村","address":"小笠原村父島字奥村小笠原村地域福祉センター内","lat":27.07124,"lon":142.20961},{"name":"小笠原支庁","province":"東京都","city":"小笠原村","address":"小笠原村父島字西町","lat":27.07124,"lon":142.20961},{"name":"小笠原村子ども家庭支援センター","province":"東京都","city":"小笠原村","address":"小笠原村父島字西町小笠原村役場内","lat":27.07124,"lon":142.20961},{"name":"小笠原村父島火葬場","province":"東京都","city":"小笠原村","address":"東京都小笠原村父島洲崎（字）","lat":27.07007957,"lon":142.19205502},{"name":"小笠原村母島火葬場","province":"東京都","city":"小笠原村","address":"東京都小笠原村母島評議平（字）","lat":26.63510151,"lon":142.16354967},{"name":"大神山公園","province":"東京都","city":"小笠原村","address":"東京都小笠原村父島","lat":27.09474387,"lon":142.19321537},{"name":"小笠原支庁","province":"東京都","city":"小笠原村","address":"小笠原村父島字西町","lat":27.094011,"lon":142.191663},{"name":"小笠原支庁","province":"東京都","city":"小笠原村","address":"小笠原村父島字西町","lat":27.095637,"lon":142.191206},{"name":"小笠原村子ども家庭支援センター","province":"東京都","city":"小笠原村","address":"小笠原村父島字西町小笠原村役場内","lat":27.094271,"lon":142.192063},{"name":"東京都小笠原支庁母島出張所","province":"東京都","city":"小笠原村","address":"東京都小笠原村母島","lat":26.640013,"lon":142.161585},{"name":"大神山公園","province":"東京都","city":"小笠原村","address":"東京都小笠原村父島","lat":27.093929,"lon":142.193059},{"name":"大神山公園","province":"東京都","city":"小笠原村","address":"東京都小笠原村父島","lat":27.098068,"lon":142.197212},{"name":"脇浜なぎさ公園","province":"東京都","city":"小笠原村","address":"東京都小笠原村母島","lat":26.636944,"lon":142.15673},{"name":"二見漁港","province":"東京都","city":"小笠原村","address":"東京都小笠原村父島","lat":27.097648,"lon":142.202829},{"name":"小笠原ビジターセンター","province":"東京都","city":"小笠原村","address":"東京都小笠原村父島","lat":27.093198,"lon":142.191788},{"name":"奥村運動場ゲートボール場トイレ","province":"東京都","city":"小笠原村","address":"東京都小笠原村父島","lat":27.100075,"lon":142.201275},{"name":"小笠原支庁","province":"東京都","city":"小笠原村","address":"小笠原村父島字西町","lat":27.07124,"lon":142.20961},{"name":"小笠原村子ども家庭支援センター","province":"東京都","city":"小笠原村","address":"小笠原村父島字西町小笠原村役場内","lat":27.07124,"lon":142.20961},{"name":"大神山公園","province":"東京都","city":"小笠原村","address":"東京都小笠原村父島","lat":27.09474387,"lon":142.19321537},{"name":"小笠原支庁","province":"東京都","city":"小笠原村","address":"小笠原村父島字西町","lat":27.094011,"lon":142.191663},{"name":"小笠原支庁","province":"東京都","city":"小笠原村","address":"小笠原村父島字西町","lat":27.095637,"lon":142.191206},{"name":"小笠原支庁","province":"東京都","city":"小笠原村","address":"小笠原村父島字西町","lat":27.07124,"lon":142.20961},{"name":"大神山公園","province":"東京都","city":"小笠原村","address":"東京都小笠原村父島","lat":27.09474387,"lon":142.19321537},{"name":"小笠原支庁","province":"東京都","city":"小笠原村","address":"小笠原村父島字西町","lat":27.094011,"lon":142.191663},{"name":"小笠原支庁","province":"東京都","city":"小笠原村","address":"小笠原村父島字西町","lat":27.095637,"lon":142.191206},{"name":"小笠原支庁","province":"東京都","city":"小笠原村","address":"小笠原村父島字西町","lat":27.07124,"lon":142.20961},{"name":"小笠原支庁","province":"東京都","city":"小笠原村","address":"小笠原村父島字西町","lat":27.094011,"lon":142.191663},{"name":"小笠原支庁","province":"東京都","city":"小笠原村","address":"小笠原村父島字西町","lat":27.095637,"lon":142.191206},{"name":"小笠原支庁","province":"東京都","city":"小笠原村","address":"小笠原村父島字西町","lat":27.07124,"lon":142.20961},{"name":"小笠原支庁","province":"東京都","city":"小笠原村","address":"小笠原村父島字西町","lat":27.094011,"lon":142.191663},{"name":"小笠原支庁","province":"東京都","city":"小笠原村","address":"小笠原村父島字西町","lat":27.095637,"lon":142.191206},{"name":"小笠原支庁","province":"東京都","city":"小笠原村","address":"小笠原村父島字西町","lat":27.07124,"lon":142.20961},{"name":"小笠原支庁","province":"東京都","city":"小笠原村","address":"小笠原村父島字西町","lat":27.094011,"lon":142.191663},{"name":"小笠原支庁","province":"東京都","city":"小笠原村","address":"小笠原村父島字西町","lat":27.095637,"lon":142.191206},{"name":"小笠原支庁","province":"東京都","city":"小笠原村","address":"小笠原村父島字西町","lat":27.07124,"lon":142.20961},{"name":"小笠原支庁","province":"東京都","city":"小笠原村","address":"小笠原村父島字西町","lat":27.094011,"lon":142.191663},{"name":"小笠原支庁","province":"東京都","city":"小笠原村","address":"小笠原村父島字西町","lat":27.095637,"lon":142.191206},{"name":"小笠原支庁","province":"東京都","city":"小笠原村","address":"小笠原村父島字西町","lat":27.07124,"lon":142.20961},{"name":"小笠原支庁","province":"東京都","city":"小笠原村","address":"小笠原村父島字西町","lat":27.094011,"lon":142.191663},{"name":"小笠原支庁","province":"東京都","city":"小笠原村","address":"小笠原村父島字西町","lat":27.095637,"lon":142.191206},{"name":"小笠原支庁","province":"東京都","city":"小笠原村","address":"小笠原村父島字西町","lat":27.07124,"lon":142.20961},{"name":"小笠原支庁","province":"東京都","city":"小笠原村","address":"小笠原村父島字西町","lat":27.094011,"lon":142.191663},{"name":"小笠原支庁","province":"東京都","city":"小笠原村","address":"小笠原村父島字西町","lat":27.095637,"lon":142.191206},{"name":"小笠原支庁","province":"東京都","city":"小笠原村","address":"小笠原村父島字西町","lat":27.07124,"lon":142.20961},{"name":"小笠原支庁","province":"東京都","city":"小笠原村","address":"小笠原村父島字西町","lat":27.094011,"lon":142.191663},{"name":"小笠原支庁","province":"東京都","city":"小笠原村","address":"小笠原村父島字西町","lat":27.095637,"lon":142.191206},{"name":"小笠原支庁","province":"東京都","city":"小笠原村","address":"小笠原村父島字西町","lat":27.07124,"lon":142.20961},{"name":"小笠原支庁","province":"東京都","city":"小笠原村","address":"小笠原村父島字西町","lat":27.094011,"lon":142.191663},{"name":"小笠原支庁","province":"東京都","city":"小笠原村","address":"小笠原村父島字西町","lat":27.095637,"lon":142.191206},{"name":"小笠原支庁","province":"東京都","city":"小笠原村","address":"小笠原村父島字西町","lat":27.07124,"lon":142.20961},{"name":"小笠原支庁","province":"東京都","city":"小笠原村","address":"小笠原村父島字西町","lat":27.094011,"lon":142.191663},{"name":"小笠原支庁","province":"東京都","city":"小笠原村","address":"小笠原村父島字西町","lat":27.095637,"lon":142.191206},{"name":"小笠原支庁","province":"東京都","city":"小笠原村","address":"小笠原村父島字西町","lat":27.07124,"lon":142.20961},{"name":"小笠原支庁","province":"東京都","city":"小笠原村","address":"小笠原村父島字西町","lat":27.094011,"lon":142.191663},{"name":"小笠原支庁","province":"東京都","city":"小笠原村","address":"小笠原村父島字西町","lat":27.095637,"lon":142.191206},{"name":"小笠原支庁","province":"東京都","city":"小笠原村","address":"小笠原村父島字西町","lat":27.07124,"lon":142.20961},{"name":"小笠原支庁","province":"東京都","city":"小笠原村","address":"小笠原村父島字西町","lat":27.094011,"lon":142.191663},{"name":"小笠原支庁","province":"東京都","city":"小笠原村","address":"小笠原村父島字西町","lat":27.095637,"lon":142.191206},{"name":"小笠原支庁","province":"東京都","city":"小笠原村","address":"小笠原村父島字西町","lat":27.07124,"lon":142.20961},{"name":"小笠原支庁","province":"東京都","city":"小笠原村","address":"小笠原村父島字西町","lat":27.094011,"lon":142.191663},{"name":"小笠原支庁","province":"東京都","city":"小笠原村","address":"小笠原村父島字西町","lat":27.095637,"lon":142.191206},{"name":"小笠原支庁","province":"東京都","city":"小笠原村","address":"小笠原村父島字西町","lat":27.07124,"lon":142.20961},{"name":"小笠原支庁","province":"東京都","city":"小笠原村","address":"小笠原村父島字西町","lat":27.094011,"lon":142.191663},{"name":"小笠原支庁","province":"東京都","city":"小笠原村","address":"小笠原村父島字西町","lat":27.095637,"lon":142.191206},{"name":"小笠原支庁","province":"東京都","city":"小笠原村","address":"小笠原村父島字西町","lat":27.07124,"lon":142.20961},{"name":"小笠原支庁","province":"東京都","city":"小笠原村","address":"小笠原村父島字西町","lat":27.094011,"lon":142.191663},{"name":"小笠原支庁","province":"東京都","city":"小笠原村","address":"小笠原村父島字西町","lat":27.095637,"lon":142.191206},{"name":"小笠原支庁","province":"東京都","city":"小笠原村","address":"小笠原村父島字西町","lat":27.07124,"lon":142.20961},{"name":"小笠原支庁","province":"東京都","city":"小笠原村","address":"小笠原村父島字西町","lat":27.094011,"lon":142.191663},{"name":"小笠原支庁","province":"東京都","city":"小笠原村","address":"小笠原村父島字西町","lat":27.095637,"lon":142.191206},{"name":"小笠原支庁","province":"東京都","city":"小笠原村","address":"小笠原村父島字西町","lat":27.07124,"lon":142.20961},{"name":"小笠原支庁","province":"東京都","city":"小笠原村","address":"小笠原村父島字西町","lat":27.094011,"lon":142.191663},{"name":"小笠原支庁","province":"東京都","city":"小笠原村","address":"小笠原村父島字西町","lat":27.095637,"lon":142.191206},{"name":"小笠原支庁","province":"東京都","city":"小笠原村","address":"小笠原村父島字西町","lat":27.07124,"lon":142.20961},{"name":"小笠原支庁","province":"東京都","city":"小笠原村","address":"小笠原村父島字西町","lat":27.094011,"lon":142.191663},{"name":"小笠原支庁","province":"東京都","city":"小笠原村","address":"小笠原村父島字西町","lat":27.095637,"lon":142.191206},{"name":"小笠原支庁","province":"東京都","city":"小笠原村","address":"小笠原村父島字西町","lat":27.07124,"lon":142.20961},{"name":"小笠原支庁","province":"東京都","city":"小笠原村","address":"小笠原村父島字西町","lat":27.094011,"lon":142.191663},{"name":"小笠原支庁","province":"東京都","city":"小笠原村","address":"小笠原村父島字西町","lat":27.095637,"lon":142.191206},{"name":"小笠原支庁","province":"東京都","city":"小笠原村","address":"小笠原村父島字西町","lat":27.07124,"lon":142.20961},{"name":"小笠原支庁","province":"東京都","city":"小笠原村","address":"小笠原村父島字西町","lat":27.094011,"lon":142.191663},{"name":"小笠原支庁","province":"東京都","city":"小笠原村","address":"小笠原村父島字西町","lat":27.095637,"lon":142.191206},{"name":"小笠原支庁","province":"東京都","city":"小笠原村","address":"小笠原村父島字西町","lat":27.07124,"lon":142.20961},{"name":"小笠原支庁","province":"東京都","city":"小笠原村","address":"小笠原村父島字西町","lat":27.094011,"lon":142.191663},{"name":"小笠原支庁","province":"東京都","city":"小笠原村","address":"小笠原村父島字西町","lat":27.095637,"lon":142.191206},{"name":"小笠原支庁","province":"東京都","city":"小笠原村","address":"小笠原村父島字西町","lat":27.07124,"lon":142.20961},{"name":"小笠原支庁","province":"東京都","city":"小笠原村","address":"小笠原村父島字西町","lat":27.094011,"lon":142.191663},{"name":"小笠原支庁","province":"東京都","city":"小笠原村","address":"小笠原村父島字西町","lat":27.095637,"lon":142.191206},{"name":"小笠原支庁","province":"東京都","city":"小笠原村","address":"小笠原村父島字西町","lat":27.07124,"lon":142.20961},{"name":"小笠原支庁","province":"東京都","city":"小笠原村","address":"小笠原村父島字西町","lat":27.094011,"lon":142.191663},{"name":"小笠原支庁","province":"東京都","city":"小笠原村","address":"小笠原村父島字西町","lat":27.095637,"lon":142.191206},{"name":"小笠原支庁","province":"東京都","city":"小笠原村","address":"小笠原村父島字西町","lat":27.07124,"lon":142.20961},{"name":"小笠原支庁","province":"東京都","city":"小笠原村","address":"小笠原村父島字西町","lat":27.094011,"lon":142.191663},{"name":"小笠原支庁","province":"東京都","city":"小笠原村","address":"小笠原村父島字西町","lat":27.095637,"lon":142.191206},{"name":"小笠原支庁","province":"東京都","city":"小笠原村","address":"小笠原村父島字西町","lat":27.07124,"lon":142.20961},{"name":"小笠原支庁","province":"東京都","city":"小笠原村","address":"小笠原村父島字西町","lat":27.094011,"lon":142.191663},{"name":"小笠原支庁","province":"東京都","city":"小笠原村","address":"小笠原村父島字西町","lat":27.095637,"lon":142.191206},{"name":"小笠原支庁","province":"東京都","city":"小笠原村","address":"小笠原村父島字西町","lat":27.07124,"lon":142.20961},{"name":"小笠原支庁","province":"東京都","city":"小笠原村","address":"小笠原村父島字西町","lat":27.094011,"lon":142.191663},{"name":"小笠原支庁","province":"東京都","city":"小笠原村","address":"小笠原村父島字西町","lat":27.095637,"lon":142.191206},{"name":"小笠原支庁","province":"東京都","city":"小笠原村","address":"小笠原村父島字西町","lat":27.07124,"lon":142.20961},{"name":"小笠原支庁","province":"東京都","city":"小笠原村","address":"小笠原村父島字西町","lat":27.094011,"lon":142.191663},{"name":"小笠原支庁","province":"東京都","city":"小笠原村","address":"小笠原村父島字西町","lat":27.095637,"lon":142.191206},{"name":"小笠原支庁","province":"東京都","city":"小笠原村","address":"小笠原村父島字西町","lat":27.07124,"lon":142.20961},{"name":"小笠原支庁","province":"東京都","city":"小笠原村","address":"小笠原村父島字西町","lat":27.094011,"lon":142.191663},{"name":"小笠原支庁","province":"東京都","city":"小笠原村","address":"小笠原村父島字西町","lat":27.095637,"lon":142.191206},{"name":"小笠原支庁","province":"東京都","city":"小笠原村","address":"小笠原村父島字西町","lat":27.07124,"lon":142.20961},{"name":"小笠原支庁","province":"東京都","city":"小笠原村","address":"小笠原村父島字西町","lat":27.094011,"lon":142.191663},{"name":"小笠原支庁","province":"東京都","city":"小笠原村","address":"小笠原村父島字西町","lat":27.095637,"lon":142.191206},{"name":"小笠原支庁","province":"東京都","city":"小笠原村","address":"小笠原村父島字西町","lat":27.07124,"lon":142.20961},{"name":"小笠原支庁","province":"東京都","city":"小笠原村","address":"小笠原村父島字西町","lat":27.094011,"lon":142.191663},{"name":"小笠原支庁","province":"東京都","city":"小笠原村","address":"小笠原村父島字西町","lat":27.095637,"lon":142.191206},{"name":"小笠原支庁","province":"東京都","city":"小笠原村","address":"小笠原村父島字西町","lat":27.07124,"lon":142.20961},{"name":"小笠原支庁","province":"東京都","city":"小笠原村","address":"小笠原村父島字西町","lat":27.094011,"lon":142.191663},{"name":"小笠原支庁","province":"東京都","city":"小笠原村","address":"小笠原村父島字西町","lat":27.095637,"lon":142.191206},{"name":"小笠原支庁","province":"東京都","city":"小笠原村","address":"小笠原村父島字西町","lat":27.07124,"lon":142.20961},{"name":"小笠原支庁","province":"東京都","city":"小笠原村","address":"小笠原村父島字西町","lat":27.094011,"lon":142.191663},{"name":"小笠原支庁","province":"東京都","city":"小笠原村","address":"小笠原村父島字西町","lat":27.095637,"lon":142.191206},{"name":"小笠原支庁","province":"東京都","city":"小笠原村","address":"小笠原村父島字西町","lat":27.07124,"lon":142.20961},{"name":"小笠原支庁","province":"東京都","city":"小笠原村","address":"小笠原村父島字西町","lat":27.094011,"lon":142.191663},{"name":"小笠原支庁","province":"東京都","city":"小笠原村","address":"小笠原村父島字西町","lat":27.095637,"lon":142.191206},{"name":"小笠原支庁","province":"東京都","city":"小笠原村","address":"小笠原村父島字西町","lat":27.07124,"lon":142.20961},{"name":"小笠原支庁","province":"東京都","city":"小笠原村","address":"小笠原村父島字西町","lat":27.094011,"lon":142.191663},{"name":"小笠原支庁","province":"東京都","city":"小笠原村","address":"小笠原村父島字西町","lat":27.095637,"lon":142.191206},{"name":"小笠原支庁","province":"東京都","city":"小笠原村","address":"小笠原村父島字西町","lat":27.07124,"lon":142.20961},{"name":"小笠原支庁","province":"東京都","city":"小笠原村","address":"小笠原村父島字西町","lat":27.094011,"lon":142.191663},{"name":"小笠原支庁","province":"東京都","city":"小笠原村","address":"小笠原村父島字西町","lat":27.095637,"lon":142.191206},{"name":"小笠原支庁","province":"東京都","city":"小笠原村","address":"小笠原村父島字西町","lat":27.07124,"lon":142.20961},{"name":"小笠原支庁","province":"東京都","city":"小笠原村","address":"小笠原村父島字西町","lat":27.094011,"lon":142.191663},{"name":"小笠原支庁","province":"東京都","city":"小笠原村","address":"小笠原村父島字西町","lat":27.095637,"lon":142.191206},{"name":"小笠原支庁","province":"東京都","city":"小笠原村","address":"小笠原村父島字西町","lat":27.07124,"lon":142.20961},{"name":"小笠原支庁","province":"東京都","city":"小笠原村","address":"小笠原村父島字西町","lat":27.094011,"lon":142.191663},{"name":"小笠原支庁","province":"東京都","city":"小笠原村","address":"小笠原村父島字西町","lat":27.095637,"lon":142.191206},{"name":"小笠原支庁","province":"東京都","city":"小笠原村","address":"小笠原村父島字西町","lat":27.07124,"lon":142.20961},{"name":"小笠原支庁","province":"東京都","city":"小笠原村","address":"小笠原村父島字西町","lat":27.094011,"lon":142.191663},{"name":"小笠原支庁","province":"東京都","city":"小笠原村","address":"小笠原村父島字西町","lat":27.095637,"lon":142.191206},{"name":"小笠原支庁","province":"東京都","city":"小笠原村","address":"小笠原村父島字西町","lat":27.07124,"lon":142.20961},{"name":"小笠原支庁","province":"東京都","city":"小笠原村","address":"小笠原村父島字西町","lat":27.094011,"lon":142.191663},{"name":"小笠原支庁","province":"東京都","city":"小笠原村","address":"小笠原村父島字西町","lat":27.095637,"lon":142.191206},{"name":"小笠原支庁","province":"東京都","city":"小笠原村","address":"小笠原村父島字西町","lat":27.07124,"lon":142.20961},{"name":"小笠原支庁","province":"東京都","city":"小笠原村","address":"小笠原村父島字西町","lat":27.094011,"lon":142.191663},{"name":"小笠原支庁","province":"東京都","city":"小笠原村","address":"小笠原村父島字西町","lat":27.095637,"lon":142.191206},{"name":"小笠原支庁","province":"東京都","city":"小笠原村","address":"小笠原村父島字西町","lat":27.07124,"lon":142.20961},{"name":"小笠原支庁","province":"東京都","city":"小笠原村","address":"小笠原村父島字西町","lat":27.094011,"lon":142.191663},{"name":"小笠原支庁","province":"東京都","city":"小笠原村","address":"小笠原村父島字西町","lat":27.095637,"lon":142.191206},{"name":"小笠原支庁","province":"東京都","city":"小笠原村","address":"小笠原村父島字西町","lat":27.07124,"lon":142.20961},{"name":"小笠原支庁","province":"東京都","city":"小笠原村","address":"小笠原村父島字西町","lat":27.094011,"lon":142.191663},{"name":"小笠原支庁","province":"東京都","city":"小笠原村","address":"小笠原村父島字西町","lat":27.095637,"lon":142.191206},{"name":"小笠原支庁","province":"東京都","city":"小笠原村","address":"小笠原村父島字西町","lat":27.07124,"lon":142.20961},{"name":"小笠原支庁","province":"東京都","city":"小笠原村","address":"小笠原村父島字西町","lat":27.094011,"lon":142.191663},{"name":"小笠原支庁","province":"東京都","city":"小笠原村","address":"小笠原村父島字西町","lat":27.095637,"lon":142.191206},{"name":"小笠原支庁","province":"東京都","city":"小笠原村","address":"小笠原村父島字西町","lat":27.07124,"lon":142.20961},{"name":"小笠原支庁","province":"東京都","city":"小笠原村","address":"小笠原村父島字西町","lat":27.094011,"lon":142.191663},{"name":"小笠原支庁","province":"東京都","city":"小笠原村","address":"小笠原村父島字西町","lat":27.095637,"lon":142.191206},{"name":"小笠原支庁","province":"東京都","city":"小笠原村","address":"小笠原村父島字西町","lat":27.07124,"lon":142.20961},{"name":"小笠原支庁","province":"東京都","city":"小笠原村","address":"小笠原村父島字西町","lat":27.094011,"lon":142.191663},{"name":"小笠原支庁","province":"東京都","city":"小笠原村","address":"小笠原村父島字西町","lat":27.095637,"lon":142.191206},{"name":"小笠原支庁","province":"東京都","city":"小笠原村","address":"小笠原村父島字西町","lat":27.07124,"lon":142.20961},{"name":"小笠原支庁","province":"東京都","city":"小笠原村","address":"小笠原村父島字西町","lat":27.094011,"lon":142.191663},{"name":"小笠原支庁","province":"東京都","city":"小笠原村","address":"小笠原村父島字西町","lat":27.095637,"lon":142.191206},{"name":"小笠原支庁","province":"東京都","city":"小笠原村","address":"小笠原村父島字西町","lat":27.07124,"lon":142.20961},{"name":"小笠原支庁","province":"東京都","city":"小笠原村","address":"小笠原村父島字西町","lat":27.094011,"lon":142.191663},{"name":"小笠原支庁","province":"東京都","city":"小笠原村","address":"小笠原村父島字西町","lat":27.095637,"lon":142.191206},{"name":"小笠原支庁","province":"東京都","city":"小笠原村","address":"小笠原村父島字西町","lat":27.07124,"lon":142.20961},{"name":"小笠原支庁","province":"東京都","city":"小笠原村","address":"小笠原村父島字西町","lat":27.094011,"lon":142.191663},{"name":"小笠原支庁","province":"東京都","city":"小笠原村","address":"小笠原村父島字西町","lat":27.095637,"lon":142.191206},{"name":"小笠原支庁","province":"東京都","city":"小笠原村","address":"小笠原村父島字西町","lat":27.07124,"lon":142.20961},{"name":"小笠原支庁","province":"東京都","city":"小笠原村","address":"小笠原村父島字西町","lat":27.094011,"lon":142.191663},{"name":"小笠原支庁","province":"東京都","city":"小笠原村","address":"小笠原村父島字西町","lat":27.095637,"lon":142.191206},{"name":"小笠原支庁","province":"東京都","city":"小笠原村","address":"小笠原村父島字西町","lat":27.07124,"lon":142.20961},{"name":"小笠原支庁","province":"東京都","city":"小笠原村","address":"小笠原村父島字西町","lat":27.094011,"lon":142.191663},{"name":"小笠原支庁","province":"東京都","city":"小笠原村","address":"小笠原村父島字西町","lat":27.095637,"lon":142.191206},{"name":"小笠原支庁","province":"東京都","city":"小笠原村","address":"小笠原村父島字西町","lat":27.07124,"lon":142.20961},{"name":"小笠原支庁","province":"東京都","city":"小笠原村","address":"小笠原村父島字西町","lat":27.094011,"lon":142.191663},{"name":"小笠原支庁","province":"東京都","city":"小笠原村","address":"小笠原村父島字西町","lat":27.095637,"lon":142.191206},{"name":"小笠原支庁","province":"東京都","city":"小笠原村","address":"小笠原村父島字西町","lat":27.07124,"lon":142.20961},{"name":"小笠原支庁","province":"東京都","city":"小笠原村","address":"小笠原村父島字西町","lat":27.094011,"lon":142.191663},{"name":"小笠原支庁","province":"東京都","city":"小笠原村","address":"小笠原村父島字西町","lat":27.095637,"lon":142.191206},{"name":"小笠原支庁","province":"東京都","city":"小笠原村","address":"小笠原村父島字西町","lat":27.07124,"lon":142.20961},{"name":"小笠原支庁","province":"東京都","city":"小笠原村","address":"小笠原村父島字西町","lat":27.094011,"lon":142.191663},{"name":"小笠原支庁","province":"東京都","city":"小笠原村","address":"小笠原村父島字西町","lat":27.095637,"lon":142.191206}]}