{"keyword":"店","data":[{"name":"小笠原村社会福祉協議会","province":"東京都","city":"小笠原村","address":"小笠原村父島字奥村小笠原村地域福祉センター内","lat":27.099685,"lon":142.199972},{"name":"小笠原村社会福祉協議会","province":"東京都","city":"小笠原村","address":"小笠原村父島字奥村小笠原村地域福祉センター内","lat":27.07124,"lon":142.20961},{"name":"小笠原ユースホステル","province":"東京都","city":"小笠原村","address":"小笠原村父島字西町46-12","lat":27.0898161,"lon":142.1948021},{"name":"アンナビーチ母島ユースホステル","province":"東京都","city":"小笠原村","address":"小笠原村母島字静沢26-2","lat":26.63711919,"lon":142.1572378},{"name":"小笠原村社会福祉協議会","province":"東京都","city":"小笠原村","address":"小笠原村父島字奥村小笠原村地域福祉センター内","lat":27.099685,"lon":142.199972},{"name":"小笠原村社会福祉協議会","province":"東京都","city":"小笠原村","address":"小笠原村父島字奥村小笠原村地域福祉センター内","lat":27.07124,"lon":142.20961},{"name":"小笠原ユースホステル","province":"東京都","city":"小笠原村","address":"小笠原村父島字西町46-12","lat":27.0898161,"lon":142.1948021},{"name":"アンナビーチ母島ユースホステル","province":"東京都","city":"小笠原村","address":"小笠原村母島字静沢26-2","lat":26.63711919,"lon":142.1572378},{"name":"小笠原村社会福祉協議会","province":"東京都","city":"小笠原村","address":"小笠原村父島字奥村小笠原村地域福祉センター内","lat":27.099685,"lon":142.199972},{"name":"小笠原村社会福祉協議会","province":"東京都","city":"小笠原村","address":"小笠原村父島字奥村小笠原村地域福祉センター内","lat":27.07124,"lon":142.20961},{"name":"小笠原ユースホステル","province":"東京都","city":"小笠原村","address":"小笠原村父島字西町46-12","lat":27.0898161,"lon":142.1948021},{"name":"アンナビーチ母島ユースホステル","province":"東京都","city":"小笠原村","address":"小笠原村母島字静沢26-2","lat":26.63711919,"lon":142.1572378},{"name":"小笠原村社会福祉協議会","province":"東京都","city":"小笠原村","address":"小笠原村父島字奥村小笠原村地域福祉センター内","lat":27.099685,"lon":142.199972},{"name":"小笠原村社会福祉協議会","province":"東京都","city":"小笠原村","address":"小笠原村父島字奥村小笠原村地域福祉センター内","lat":27.07124,"lon":142.20961},{"name":"小笠原ユースホステル","province":"東京都","city":"小笠原村","address":"小笠原村父島字西町46-12","lat":27.0898161,"lon":142.1948021},{"name":"アンナビーチ母島ユースホステル","province":"東京都","city":"小笠原村","address":"小笠原村母島字静沢26-2","lat":26.63711919,"lon":142.1572378},{"name":"小笠原村社会福祉協議会","province":"東京都","city":"小笠原村","address":"小笠原村父島字奥村小笠原村地域福祉センター内","lat":27.099685,"lon":142.199972},{"name":"小笠原村社会福祉協議会","province":"東京都","city":"小笠原村","address":"小笠原村父島字奥村小笠原村地域福祉センター内","lat":27.07124,"lon":142.20961},{"name":"小笠原ユースホステル","province":"東京都","city":"小笠原村","address":"小笠原村父島字西町46-12","lat":27.0898161,"lon":142.1948021},{"name":"アンナビーチ母島ユースホステル","province":"東京都","city":"小笠原村","address":"小笠原村母島字静沢26-2","lat":26.63711919,"lon":142.1572378},{"name":"小笠原村社会福祉協議会","province":"東京都","city":"小笠原村","address":"小笠原村父島字奥村小笠原村地域福祉センター内","lat":27.099685,"lon":142.199972},{"name":"小笠原村社会福祉協議会","province":"東京都","city":"小笠原村","address":"小笠原村父島字奥村小笠原村地域福祉センター内","lat":27.07124,"lon":142.20961},{"name":"小笠原ユースホステル","province":"東京都","city":"小笠原村","address":"小笠原村父島字西町46-12","lat":27.0898161,"lon":142.1948021},{"name":"アンナビーチ母島ユースホステル","province":"東京都","city":"小笠原村","address":"小笠原村母島字静沢26-2","lat":26.63711919,"lon":142.1572378},{"name":"小笠原村社会福祉協議会","province":"東京都","city":"小笠原村","address":"小笠原村父島字奥村小笠原村地域福祉センター内","lat":27.099685,"lon":142.199972},{"name":"小笠原村社会福祉協議会","province":"東京都","city":"小笠原村","address":"小笠原村父島字奥村小笠原村地域福祉センター内","lat":27.07124,"lon":142.20961},{"name":"小笠原ユースホステル","province":"東京都","city":"小笠原村","address":"小笠原村父島字西町46-12","lat":27.0898161,"lon":142.1948021},{"name":"アンナビーチ母島ユースホステル","province":"東京都","city":"小笠原村","address":"小笠原村母島字静沢26-2","lat":26.63711919,"lon":142.1572378},{"name":"小笠原村社会福祉協議会","province":"東京都","city":"小笠原村","address":"小笠原村父島字奥村小笠原村地域福祉センター内","lat":27.099685,"lon":142.199972},{"name":"小笠原村社会福祉協議会","province":"東京都","city":"小笠原村","address":"小笠原村父島字奥村小笠原村地域福祉センター内","lat":27.07124,"lon":142.20961},{"name":"小笠原ユースホステル","province":"東京都","city":"小笠原村","address":"小笠原村父島字西町46-12","lat":27.0898161,"lon":142.1948021},{"name":"アンナビーチ母島ユースホステル","province":"東京都","city":"小笠原村","address":"小笠原村母島字静沢26-2","lat":26.63711919,"lon":142.1572378},{"name":"小笠原村社会福祉協議会","province":"東京都","city":"小笠原村","address":"小笠原村父島字奥村小笠原村地域福祉センター内","lat":27.099685,"lon":142.199972},{"name":"小笠原村社会福祉協議会","province":"東京都","city":"小笠原村","address":"小笠原村父島字奥村小笠原村地域福祉センター内","lat":27.07124,"lon":142.20961},{"name":"小笠原ユースホステル","province":"東京都","city":"小笠原村","address":"小笠原村父島字西町46-12","lat":27.0898161,"lon":142.1948021},{"name":"アンナビーチ母島ユースホステル","province":"東京都","city":"小笠原村","address":"小笠原村母島字静沢26-2","lat":26.63711919,"lon":142.1572378},{"name":"小笠原村社会福祉協議会","province":"東京都","city":"小笠原村","address":"小笠原村父島字奥村小笠原村地域福祉センター内","lat":27.099685,"lon":142.199972},{"name":"小笠原村社会福祉協議会","province":"東京都","city":"小笠原村","address":"小笠原村父島字奥村小笠原村地域福祉センター内","lat":27.07124,"lon":142.20961},{"name":"小笠原ユースホステル","province":"東京都","city":"小笠原村","address":"小笠原村父島字西町46-12","lat":27.0898161,"lon":142.1948021},{"name":"アンナビーチ母島ユースホステル","province":"東京都","city":"小笠原村","address":"小笠原村母島字静沢26-2","lat":26.63711919,"lon":142.1572378},{"name":"小笠原村社会福祉協議会","province":"東京都","city":"小笠原村","address":"小笠原村父島字奥村小笠原村地域福祉センター内","lat":27.099685,"lon":142.199972},{"name":"小笠原村社会福祉協議会","province":"東京都","city":"小笠原村","address":"小笠原村父島字奥村小笠原村地域福祉センター内","lat":27.07124,"lon":142.20961},{"name":"小笠原ユースホステル","province":"東京都","city":"小笠原村","address":"小笠原村父島字西町46-12","lat":27.0898161,"lon":142.1948021},{"name":"アンナビーチ母島ユースホステル","province":"東京都","city":"小笠原村","address":"小笠原村母島字静沢26-2","lat":26.63711919,"lon":142.1572378},{"name":"小笠原村社会福祉協議会","province":"東京都","city":"小笠原村","address":"小笠原村父島字奥村小笠原村地域福祉センター内","lat":27.099685,"lon":142.199972},{"name":"小笠原村社会福祉協議会","province":"東京都","city":"小笠原村","address":"小笠原村父島字奥村小笠原村地域福祉センター内","lat":27.07124,"lon":142.20961},{"name":"小笠原ユースホステル","province":"東京都","city":"小笠原村","address":"小笠原村父島字西町46-12","lat":27.0898161,"lon":142.1948021},{"name":"アンナビーチ母島ユースホステル","province":"東京都","city":"小笠原村","address":"小笠原村母島字静沢26-2","lat":26.63711919,"lon":142.1572378},{"name":"小笠原村社会福祉協議会","province":"東京都","city":"小笠原村","address":"小笠原村父島字奥村小笠原村地域福祉センター内","lat":27.099685,"lon":142.199972},{"name":"小笠原村社会福祉協議会","province":"東京都","city":"小笠原村","address":"小笠原村父島字奥村小笠原村地域福祉センター内","lat":27.07124,"lon":142.20961},{"name":"小笠原ユースホステル","province":"東京都","city":"小笠原村","address":"小笠原村父島字西町46-12","lat":27.0898161,"lon":142.1948021},{"name":"アンナビーチ母島ユースホステル","province":"東京都","city":"小笠原村","address":"小笠原村母島字静沢26-2","lat":26.63711919,"lon":142.1572378},{"name":"小笠原村社会福祉協議会","province":"東京都","city":"小笠原村","address":"小笠原村父島字奥村小笠原村地域福祉センター内","lat":27.099685,"lon":142.199972},{"name":"小笠原村社会福祉協議会","province":"東京都","city":"小笠原村","address":"小笠原村父島字奥村小笠原村地域福祉センター内","lat":27.07124,"lon":142.20961},{"name":"小笠原ユースホステル","province":"東京都","city":"小笠原村","address":"小笠原村父島字西町46-12","lat":27.0898161,"lon":142.1948021},{"name":"アンナビーチ母島ユースホステル","province":"東京都","city":"小笠原村","address":"小笠原村母島字静沢26-2","lat":26.63711919,"lon":142.1572378},{"name":"小笠原村社会福祉協議会","province":"東京都","city":"小笠原村","address":"小笠原村父島字奥村小笠原村地域福祉センター内","lat":27.099685,"lon":142.199972},{"name":"小笠原村社会福祉協議会","province":"東京都","city":"小笠原村","address":"小笠原村父島字奥村小笠原村地域福祉センター内","lat":27.07124,"lon":142.20961},{"name":"小笠原ユースホステル","province":"東京都","city":"小笠原村","address":"小笠原村父島字西町46-12","lat":27.0898161,"lon":142.1948021},{"name":"アンナビーチ母島ユースホステル","province":"東京都","city":"小笠原村","address":"小笠原村母島字静沢26-2","lat":26.63711919,"lon":142.1572378},{"name":"小笠原村社会福祉協議会","province":"東京都","city":"小笠原村","address":"小笠原村父島字奥村小笠原村地域福祉センター内","lat":27.099685,"lon":142.199972},{"name":"小笠原村社会福祉協議会","province":"東京都","city":"小笠原村","address":"小笠原村父島字奥村小笠原村地域福祉センター内","lat":27.07124,"lon":142.20961},{"name":"小笠原ユースホステル","province":"東京都","city":"小笠原村","address":"小笠原村父島字西町46-12","lat":27.0898161,"lon":142.1948021},{"name":"アンナビーチ母島ユースホステル","province":"東京都","city":"小笠原村","address":"小笠原村母島字静沢26-2","lat":26.63711919,"lon":142.1572378},{"name":"小笠原村社会福祉協議会","province":"東京都","city":"小笠原村","address":"小笠原村父島字奥村小笠原村地域福祉センター内","lat":27.099685,"lon":142.199972},{"name":"小笠原村社会福祉協議会","province":"東京都","city":"小笠原村","address":"小笠原村父島字奥村小笠原村地域福祉センター内","lat":27.07124,"lon":142.20961},{"name":"小笠原ユースホステル","province":"東京都","city":"小笠原村","address":"小笠原村父島字西町46-12","lat":27.0898161,"lon":142.1948021},{"name":"アンナビーチ母島ユースホステル","province":"東京都","city":"小笠原村","address":"小笠原村母島字静沢26-2","lat":26.63711919,"lon":142.1572378},{"name":"小笠原村社会福祉協議会","province":"東京都","city":"小笠原村","address":"小笠原村父島字奥村小笠原村地域福祉センター内","lat":27.099685,"lon":142.199972},{"name":"小笠原村社会福祉協議会","province":"東京都","city":"小笠原村","address":"小笠原村父島字奥村小笠原村地域福祉センター内","lat":27.07124,"lon":142.20961},{"name":"小笠原ユースホステル","province":"東京都","city":"小笠原村","address":"小笠原村父島字西町46-12","lat":27.0898161,"lon":142.1948021},{"name":"アンナビーチ母島ユースホステル","province":"東京都","city":"小笠原村","address":"小笠原村母島字静沢26-2","lat":26.63711919,"lon":142.1572378},{"name":"小笠原村社会福祉協議会","province":"東京都","city":"小笠原村","address":"小笠原村父島字奥村小笠原村地域福祉センター内","lat":27.099685,"lon":142.199972},{"name":"小笠原村社会福祉協議会","province":"東京都","city":"小笠原村","address":"小笠原村父島字奥村小笠原村地域福祉センター内","lat":27.07124,"lon":142.20961},{"name":"小笠原ユースホステル","province":"東京都","city":"小笠原村","address":"小笠原村父島字西町46-12","lat":27.0898161,"lon":142.1948021},{"name":"アンナビーチ母島ユースホステル","province":"東京都","city":"小笠原村","address":"小笠原村母島字静沢26-2","lat":26.63711919,"lon":142.1572378},{"name":"小笠原村社会福祉協議会","province":"東京都","city":"小笠原村","address":"小笠原村父島字奥村小笠原村地域福祉センター内","lat":27.099685,"lon":142.199972},{"name":"小笠原村社会福祉協議会","province":"東京都","city":"小笠原村","address":"小笠原村父島字奥村小笠原村地域福祉センター内","lat":27.07124,"lon":142.20961},{"name":"小笠原ユースホステル","province":"東京都","city":"小笠原村","address":"小笠原村父島字西町46-12","lat":27.0898161,"lon":142.1948021},{"name":"アンナビーチ母島ユースホステル","province":"東京都","city":"小笠原村","address":"小笠原村母島字静沢26-2","lat":26.63711919,"lon":142.1572378},{"name":"小笠原村社会福祉協議会","province":"東京都","city":"小笠原村","address":"小笠原村父島字奥村小笠原村地域福祉センター内","lat":27.099685,"lon":142.199972},{"name":"小笠原村社会福祉協議会","province":"東京都","city":"小笠原村","address":"小笠原村父島字奥村小笠原村地域福祉センター内","lat":27.07124,"lon":142.20961},{"name":"小笠原ユースホステル","province":"東京都","city":"小笠原村","address":"小笠原村父島字西町46-12","lat":27.0898161,"lon":142.1948021},{"name":"アンナビーチ母島ユースホステル","province":"東京都","city":"小笠原村","address":"小笠原村母島字静沢26-2","lat":26.63711919,"lon":142.1572378},{"name":"小笠原村社会福祉協議会","province":"東京都","city":"小笠原村","address":"小笠原村父島字奥村小笠原村地域福祉センター内","lat":27.099685,"lon":142.199972},{"name":"小笠原村社会福祉協議会","province":"東京都","city":"小笠原村","address":"小笠原村父島字奥村小笠原村地域福祉センター内","lat":27.07124,"lon":142.20961},{"name":"小笠原ユースホステル","province":"東京都","city":"小笠原村","address":"小笠原村父島字西町46-12","lat":27.0898161,"lon":142.1948021},{"name":"アンナビーチ母島ユースホステル","province":"東京都","city":"小笠原村","address":"小笠原村母島字静沢26-2","lat":26.63711919,"lon":142.1572378},{"name":"小笠原村社会福祉協議会","province":"東京都","city":"小笠原村","address":"小笠原村父島字奥村小笠原村地域福祉センター内","lat":27.099685,"lon":142.199972},{"name":"小笠原村社会福祉協議会","province":"東京都","city":"小笠原村","address":"小笠原村父島字奥村小笠原村地域福祉センター内","lat":27.07124,"lon":142.20961},{"name":"小笠原ユースホステル","province":"東京都","city":"小笠原村","address":"小笠原村父島字西町46-12","lat":27.0898161,"lon":142.1948021},{"name":"アンナビーチ母島ユースホステル","province":"東京都","city":"小笠原村","address":"小笠原村母島字静沢26-2","lat":26.63711919,"lon":142.1572378},{"name":"小笠原村社会福祉協議会","province":"東京都","city":"小笠原村","address":"小笠原村父島字奥村小笠原村地域福祉センター内","lat":27.099685,"lon":142.199972},{"name":"小笠原村社会福祉協議会","province":"東京都","city":"小笠原村","address":"小笠原村父島字奥村小笠原村地域福祉センター内","lat":27.07124,"lon":142.20961},{"name":"小笠原ユースホステル","province":"東京都","city":"小笠原村","address":"小笠原村父島字西町46-12","lat":27.0898161,"lon":142.1948021},{"name":"アンナビーチ母島ユースホステル","province":"東京都","city":"小笠原村","address":"小笠原村母島字静沢26-2","lat":26.63711919,"lon":142.1572378},{"name":"小笠原村社会福祉協議会","province":"東京都","city":"小笠原村","address":"小笠原村父島字奥村小笠原村地域福祉センター内","lat":27.099685,"lon":142.199972},{"name":"小笠原村社会福祉協議会","province":"東京都","city":"小笠原村","address":"小笠原村父島字奥村小笠原村地域福祉センター内","lat":27.07124,"lon":142.20961},{"name":"小笠原ユースホステル","province":"東京都","city":"小笠原村","address":"小笠原村父島字西町46-12","lat":27.0898161,"lon":142.1948021},{"name":"アンナビーチ母島ユースホステル","province":"東京都","city":"小笠原村","address":"小笠原村母島字静沢26-2","lat":26.63711919,"lon":142.1572378},{"name":"小笠原村社会福祉協議会","province":"東京都","city":"小笠原村","address":"小笠原村父島字奥村小笠原村地域福祉センター内","lat":27.099685,"lon":142.199972},{"name":"小笠原村社会福祉協議会","province":"東京都","city":"小笠原村","address":"小笠原村父島字奥村小笠原村地域福祉センター内","lat":27.07124,"lon":142.20961},{"name":"小笠原ユースホステル","province":"東京都","city":"小笠原村","address":"小笠原村父島字西町46-12","lat":27.0898161,"lon":142.1948021},{"name":"アンナビーチ母島ユースホステル","province":"東京都","city":"小笠原村","address":"小笠原村母島字静沢26-2","lat":26.63711919,"lon":142.1572378},{"name":"小笠原村社会福祉協議会","province":"東京都","city":"小笠原村","address":"小笠原村父島字奥村小笠原村地域福祉センター内","lat":27.099685,"lon":142.199972},{"name":"小笠原村社会福祉協議会","province":"東京都","city":"小笠原村","address":"小笠原村父島字奥村小笠原村地域福祉センター内","lat":27.07124,"lon":142.20961},{"name":"小笠原ユースホステル","province":"東京都","city":"小笠原村","address":"小笠原村父島字西町46-12","lat":27.0898161,"lon":142.1948021},{"name":"アンナビーチ母島ユースホステル","province":"東京都","city":"小笠原村","address":"小笠原村母島字静沢26-2","lat":26.63711919,"lon":142.1572378},{"name":"小笠原村社会福祉協議会","province":"東京都","city":"小笠原村","address":"小笠原村父島字奥村小笠原村地域福祉センター内","lat":27.099685,"lon":142.199972},{"name":"小笠原村社会福祉協議会","province":"東京都","city":"小笠原村","address":"小笠原村父島字奥村小笠原村地域福祉センター内","lat":27.07124,"lon":142.20961},{"name":"小笠原ユースホステル","province":"東京都","city":"小笠原村","address":"小笠原村父島字西町46-12","lat":27.0898161,"lon":142.1948021},{"name":"アンナビーチ母島ユースホステル","province":"東京都","city":"小笠原村","address":"小笠原村母島字静沢26-2","lat":26.63711919,"lon":142.1572378},{"name":"小笠原村社会福祉協議会","province":"東京都","city":"小笠原村","address":"小笠原村父島字奥村小笠原村地域福祉センター内","lat":27.099685,"lon":142.199972},{"name":"小笠原村社会福祉協議会","province":"東京都","city":"小笠原村","address":"小笠原村父島字奥村小笠原村地域福祉センター内","lat":27.07124,"lon":142.20961},{"name":"小笠原ユースホステル","province":"東京都","city":"小笠原村","address":"小笠原村父島字西町46-12","lat":27.0898161,"lon":142.1948021},{"name":"アンナビーチ母島ユースホステル","province":"東京都","city":"小笠原村","address":"小笠原村母島字静沢26-2","lat":26.63711919,"lon":142.1572378},{"name":"小笠原村社会福祉協議会","province":"東京都","city":"小笠原村","address":"小笠原村父島字奥村小笠原村地域福祉センター内","lat":27.099685,"lon":142.199972},{"name":"小笠原村社会福祉協議会","province":"東京都","city":"小笠原村","address":"小笠原村父島字奥村小笠原村地域福祉センター内","lat":27.07124,"lon":142.20961},{"name":"小笠原ユースホステル","province":"東京都","city":"小笠原村","address":"小笠原村父島字西町46-12","lat":27.0898161,"lon":142.1948021},{"name":"アンナビーチ母島ユースホステル","province":"東京都","city":"小笠原村","address":"小笠原村母島字静沢26-2","lat":26.63711919,"lon":142.1572378},{"name":"小笠原村社会福祉協議会","province":"東京都","city":"小笠原村","address":"小笠原村父島字奥村小笠原村地域福祉センター内","lat":27.099685,"lon":142.199972},{"name":"小笠原村社会福祉協議会","province":"東京都","city":"小笠原村","address":"小笠原村父島字奥村小笠原村地域福祉センター内","lat":27.07124,"lon":142.20961},{"name":"小笠原ユースホステル","province":"東京都","city":"小笠原村","address":"小笠原村父島字西町46-12","lat":27.0898161,"lon":142.1948021},{"name":"アンナビーチ母島ユースホステル","province":"東京都","city":"小笠原村","address":"小笠原村母島字静沢26-2","lat":26.63711919,"lon":142.1572378},{"name":"小笠原村社会福祉協議会","province":"東京都","city":"小笠原村","address":"小笠原村父島字奥村小笠原村地域福祉センター内","lat":27.099685,"lon":142.199972},{"name":"小笠原村社会福祉協議会","province":"東京都","city":"小笠原村","address":"小笠原村父島字奥村小笠原村地域福祉センター内","lat":27.07124,"lon":142.20961},{"name":"小笠原ユースホステル","province":"東京都","city":"小笠原村","address":"小笠原村父島字西町46-12","lat":27.0898161,"lon":142.1948021},{"name":"アンナビーチ母島ユースホステル","province":"東京都","city":"小笠原村","address":"小笠原村母島字静沢26-2","lat":26.63711919,"lon":142.1572378},{"name":"小笠原村社会福祉協議会","province":"東京都","city":"小笠原村","address":"小笠原村父島字奥村小笠原村地域福祉センター内","lat":27.099685,"lon":142.199972},{"name":"小笠原村社会福祉協議会","province":"東京都","city":"小笠原村","address":"小笠原村父島字奥村小笠原村地域福祉センター内","lat":27.07124,"lon":142.20961},{"name":"小笠原ユースホステル","province":"東京都","city":"小笠原村","address":"小笠原村父島字西町46-12","lat":27.0898161,"lon":142.1948021},{"name":"アンナビーチ母島ユースホステル","province":"東京都","city":"小笠原村","address":"小笠原村母島字静沢26-2","lat":26.63711919,"lon":142.1572378},{"name":"小笠原村社会福祉協議会","province":"東京都","city":"小笠原村","address":"小笠原村父島字奥村小笠原村地域福祉センター内","lat":27.099685,"lon":142.199972},{"name":"小笠原村社会福祉協議会","province":"東京都","city":"小笠原村","address":"小笠原村父島字奥村小笠原村地域福祉センター内","lat":27.07124,"lon":142.20961},{"name":"小笠原ユースホステル","province":"東京都","city":"小笠原村","address":"小笠原村父島字西町46-12","lat":27.0898161,"lon":142.1948021},{"name":"アンナビーチ母島ユースホステル","province":"東京都","city":"小笠原村","address":"小笠原村母島字静沢26-2","lat":26.63711919,"lon":142.1572378},{"name":"小笠原村社会福祉協議会","province":"東京都","city":"小笠原村","address":"小笠原村父島字奥村小笠原村地域福祉センター内","lat":27.099685,"lon":142.199972},{"name":"小笠原村社会福祉協議会","province":"東京都","city":"小笠原村","address":"小笠原村父島字奥村小笠原村地域福祉センター内","lat":27.07124,"lon":142.20961},{"name":"小笠原ユースホステル","province":"東京都","city":"小笠原村","address":"小笠原村父島字西町46-12","lat":27.0898161,"lon":142.1948021},{"name":"アンナビーチ母島ユースホステル","province":"東京都","city":"小笠原村","address":"小笠原村母島字静沢26-2","lat":26.63711919,"lon":142.1572378},{"name":"小笠原村社会福祉協議会","province":"東京都","city":"小笠原村","address":"小笠原村父島字奥村小笠原村地域福祉センター内","lat":27.099685,"lon":142.199972},{"name":"小笠原村社会福祉協議会","province":"東京都","city":"小笠原村","address":"小笠原村父島字奥村小笠原村地域福祉センター内","lat":27.07124,"lon":142.20961},{"name":"小笠原ユースホステル","province":"東京都","city":"小笠原村","address":"小笠原村父島字西町46-12","lat":27.0898161,"lon":142.1948021},{"name":"アンナビーチ母島ユースホステル","province":"東京都","city":"小笠原村","address":"小笠原村母島字静沢26-2","lat":26.63711919,"lon":142.1572378},{"name":"小笠原村社会福祉協議会","province":"東京都","city":"小笠原村","address":"小笠原村父島字奥村小笠原村地域福祉センター内","lat":27.099685,"lon":142.199972},{"name":"小笠原村社会福祉協議会","province":"東京都","city":"小笠原村","address":"小笠原村父島字奥村小笠原村地域福祉センター内","lat":27.07124,"lon":142.20961},{"name":"小笠原ユースホステル","province":"東京都","city":"小笠原村","address":"小笠原村父島字西町46-12","lat":27.0898161,"lon":142.1948021},{"name":"アンナビーチ母島ユースホステル","province":"東京都","city":"小笠原村","address":"小笠原村母島字静沢26-2","lat":26.63711919,"lon":142.1572378},{"name":"小笠原村社会福祉協議会","province":"東京都","city":"小笠原村","address":"小笠原村父島字奥村小笠原村地域福祉センター内","lat":27.099685,"lon":142.199972},{"name":"小笠原村社会福祉協議会","province":"東京都","city":"小笠原村","address":"小笠原村父島字奥村小笠原村地域福祉センター内","lat":27.07124,"lon":142.20961},{"name":"小笠原ユースホステル","province":"東京都","city":"小笠原村","address":"小笠原村父島字西町46-12","lat":27.0898161,"lon":142.1948021},{"name":"アンナビーチ母島ユースホステル","province":"東京都","city":"小笠原村","address":"小笠原村母島字静沢26-2","lat":26.63711919,"lon":142.1572378},{"name":"小笠原村社会福祉協議会","province":"東京都","city":"小笠原村","address":"小笠原村父島字奥村小笠原村地域福祉センター内","lat":27.099685,"lon":142.199972},{"name":"小笠原村社会福祉協議会","province":"東京都","city":"小笠原村","address":"小笠原村父島字奥村小笠原村地域福祉センター内","lat":27.07124,"lon":142.20961},{"name":"小笠原ユースホステル","province":"東京都","city":"小笠原村","address":"小笠原村父島字西町46-12","lat":27.0898161,"lon":142.1948021},{"name":"アンナビーチ母島ユースホステル","province":"東京都","city":"小笠原村","address":"小笠原村母島字静沢26-2","lat":26.63711919,"lon":142.1572378},{"name":"小笠原村社会福祉協議会","province":"東京都","city":"小笠原村","address":"小笠原村父島字奥村小笠原村地域福祉センター内","lat":27.099685,"lon":142.199972},{"name":"小笠原村社会福祉協議会","province":"東京都","city":"小笠原村","address":"小笠原村父島字奥村小笠原村地域福祉センター内","lat":27.07124,"lon":142.20961},{"name":"小笠原ユースホステル","province":"東京都","city":"小笠原村","address":"小笠原村父島字西町46-12","lat":27.0898161,"lon":142.1948021},{"name":"アンナビーチ母島ユースホステル","province":"東京都","city":"小笠原村","address":"小笠原村母島字静沢26-2","lat":26.63711919,"lon":142.1572378},{"name":"小笠原村社会福祉協議会","province":"東京都","city":"小笠原村","address":"小笠原村父島字奥村小笠原村地域福祉センター内","lat":27.099685,"lon":142.199972},{"name":"小笠原村社会福祉協議会","province":"東京都","city":"小笠原村","address":"小笠原村父島字奥村小笠原村地域福祉センター内","lat":27.07124,"lon":142.20961},{"name":"小笠原ユースホステル","province":"東京都","city":"小笠原村","address":"小笠原村父島字西町46-12","lat":27.0898161,"lon":142.1948021},{"name":"アンナビーチ母島ユースホステル","province":"東京都","city":"小笠原村","address":"小笠原村母島字静沢26-2","lat":26.63711919,"lon":142.1572378},{"name":"小笠原村社会福祉協議会","province":"東京都","city":"小笠原村","address":"小笠原村父島字奥村小笠原村地域福祉センター内","lat":27.099685,"lon":142.199972},{"name":"小笠原村社会福祉協議会","province":"東京都","city":"小笠原村","address":"小笠原村父島字奥村小笠原村地域福祉センター内","lat":27.07124,"lon":142.20961},{"name":"小笠原ユースホステル","province":"東京都","city":"小笠原村","address":"小笠原村父島字西町46-12","lat":27.0898161,"lon":142.1948021},{"name":"アンナビーチ母島ユースホステル","province":"東京都","city":"小笠原村","address":"小笠原村母島字静沢26-2","lat":26.63711919,"lon":142.1572378},{"name":"小笠原村社会福祉協議会","province":"東京都","city":"小笠原村","address":"小笠原村父島字奥村小笠原村地域福祉センター内","lat":27.099685,"lon":142.199972},{"name":"小笠原村社会福祉協議会","province":"東京都","city":"小笠原村","address":"小笠原村父島字奥村小笠原村地域福祉センター内","lat":27.07124,"lon":142.20961},{"name":"小笠原ユースホステル","province":"東京都","city":"小笠原村","address":"小笠原村父島字西町46-12","lat":27.0898161,"lon":142.1948021},{"name":"アンナビーチ母島ユースホステル","province":"東京都","city":"小笠原村","address":"小笠原村母島字静沢26-2","lat":26.63711919,"lon":142.1572378},{"name":"小笠原村社会福祉協議会","province":"東京都","city":"小笠原村","address":"小笠原村父島字奥村小笠原村地域福祉センター内","lat":27.099685,"lon":142.199972},{"name":"小笠原村社会福祉協議会","province":"東京都","city":"小笠原村","address":"小笠原村父島字奥村小笠原村地域福祉センター内","lat":27.07124,"lon":142.20961},{"name":"小笠原ユースホステル","province":"東京都","city":"小笠原村","address":"小笠原村父島字西町46-12","lat":27.0898161,"lon":142.1948021},{"name":"アンナビーチ母島ユースホステル","province":"東京都","city":"小笠原村","address":"小笠原村母島字静沢26-2","lat":26.63711919,"lon":142.1572378},{"name":"小笠原村社会福祉協議会","province":"東京都","city":"小笠原村","address":"小笠原村父島字奥村小笠原村地域福祉センター内","lat":27.099685,"lon":142.199972},{"name":"小笠原村社会福祉協議会","province":"東京都","city":"小笠原村","address":"小笠原村父島字奥村小笠原村地域福祉センター内","lat":27.07124,"lon":142.20961},{"name":"小笠原ユースホステル","province":"東京都","city":"小笠原村","address":"小笠原村父島字西町46-12","lat":27.0898161,"lon":142.1948021},{"name":"アンナビーチ母島ユースホステル","province":"東京都","city":"小笠原村","address":"小笠原村母島字静沢26-2","lat":26.63711919,"lon":142.1572378},{"name":"小笠原村社会福祉協議会","province":"東京都","city":"小笠原村","address":"小笠原村父島字奥村小笠原村地域福祉センター内","lat":27.099685,"lon":142.199972},{"name":"小笠原村社会福祉協議会","province":"東京都","city":"小笠原村","address":"小笠原村父島字奥村小笠原村地域福祉センター内","lat":27.07124,"lon":142.20961},{"name":"小笠原ユースホステル","province":"東京都","city":"小笠原村","address":"小笠原村父島字西町46-12","lat":27.0898161,"lon":142.1948021},{"name":"アンナビーチ母島ユースホステル","province":"東京都","city":"小笠原村","address":"小笠原村母島字静沢26-2","lat":26.63711919,"lon":142.1572378},{"name":"小笠原村社会福祉協議会","province":"東京都","city":"小笠原村","address":"小笠原村父島字奥村小笠原村地域福祉センター内","lat":27.099685,"lon":142.199972},{"name":"小笠原村社会福祉協議会","province":"東京都","city":"小笠原村","address":"小笠原村父島字奥村小笠原村地域福祉センター内","lat":27.07124,"lon":142.20961},{"name":"小笠原ユースホステル","province":"東京都","city":"小笠原村","address":"小笠原村父島字西町46-12","lat":27.0898161,"lon":142.1948021},{"name":"アンナビーチ母島ユースホステル","province":"東京都","city":"小笠原村","address":"小笠原村母島字静沢26-2","lat":26.63711919,"lon":142.1572378},{"name":"小笠原村社会福祉協議会","province":"東京都","city":"小笠原村","address":"小笠原村父島字奥村小笠原村地域福祉センター内","lat":27.099685,"lon":142.199972},{"name":"小笠原村社会福祉協議会","province":"東京都","city":"小笠原村","address":"小笠原村父島字奥村小笠原村地域福祉センター内","lat":27.07124,"lon":142.20961},{"name":"小笠原ユースホステル","province":"東京都","city":"小笠原村","address":"小笠原村父島字西町46-12","lat":27.0898161,"lon":142.1948021},{"name":"アンナビーチ母島ユースホステル","province":"東京都","city":"小笠原村","address":"小笠原村母島字静沢26-2","lat":26.63711919,"lon":142.1572378}]}