{"keyword":"戸数","data":[{"name":"小笠原村社会福祉協議会","province":"東京都","city":"小笠原村","address":"小笠原村父島字奥村小笠原村地域福祉センター内","lat":27.099685,"lon":142.199972},{"name":"小笠原村社会福祉協議会","province":"東京都","city":"小笠原村","address":"小笠原村父島字奥村小笠原村地域福祉センター内","lat":27.07124,"lon":142.20961},{"name":"小笠原村地域包括支援センター","province":"東京都","city":"小笠原村","address":"小笠原村父島字西町","lat":27.071243,"lon":142.20961},{"name":"小笠原村村民課福祉係","province":"東京都","city":"小笠原村","address":"小笠原村父島字西町","lat":27.071243,"lon":142.20961},{"name":"小笠原村父島火葬場","province":"東京都","city":"小笠原村","address":"東京都小笠原村父島洲崎（字）","lat":27.07007957,"lon":142.19205502},{"name":"小笠原村母島火葬場","province":"東京都","city":"小笠原村","address":"東京都小笠原村母島評議平（字）","lat":26.63510151,"lon":142.16354967},{"name":"母島臨時ヘリポート","province":"東京都","city":"小笠原村","address":"東京都小笠原村","lat":27.09435777,"lon":142.19190714},{"name":"小笠原村役場","province":"東京都","city":"小笠原村","address":"東京都小笠原村父島字西町","lat":27.094271,"lon":142.191871},{"name":"小笠原村社会福祉協議会","province":"東京都","city":"小笠原村","address":"小笠原村父島字奥村小笠原村地域福祉センター内","lat":27.099685,"lon":142.199972},{"name":"小笠原村社会福祉協議会","province":"東京都","city":"小笠原村","address":"小笠原村父島字奥村小笠原村地域福祉センター内","lat":27.07124,"lon":142.20961},{"name":"小笠原村地域包括支援センター","province":"東京都","city":"小笠原村","address":"小笠原村父島字西町","lat":27.071243,"lon":142.20961},{"name":"小笠原村村民課福祉係","province":"東京都","city":"小笠原村","address":"小笠原村父島字西町","lat":27.071243,"lon":142.20961},{"name":"小笠原村父島火葬場","province":"東京都","city":"小笠原村","address":"東京都小笠原村父島洲崎（字）","lat":27.07007957,"lon":142.19205502},{"name":"小笠原村母島火葬場","province":"東京都","city":"小笠原村","address":"東京都小笠原村母島評議平（字）","lat":26.63510151,"lon":142.16354967},{"name":"母島臨時ヘリポート","province":"東京都","city":"小笠原村","address":"東京都小笠原村","lat":27.09435777,"lon":142.19190714},{"name":"小笠原村地域包括支援センター","province":"東京都","city":"小笠原村","address":"小笠原村父島字西町","lat":27.071243,"lon":142.20961},{"name":"小笠原村村民課福祉係","province":"東京都","city":"小笠原村","address":"小笠原村父島字西町","lat":27.071243,"lon":142.20961},{"name":"小笠原村地域包括支援センター","province":"東京都","city":"小笠原村","address":"小笠原村父島字西町","lat":27.071243,"lon":142.20961},{"name":"小笠原村村民課福祉係","province":"東京都","city":"小笠原村","address":"小笠原村父島字西町","lat":27.071243,"lon":142.20961},{"name":"小笠原村地域包括支援センター","province":"東京都","city":"小笠原村","address":"小笠原村父島字西町","lat":27.071243,"lon":142.20961},{"name":"小笠原村村民課福祉係","province":"東京都","city":"小笠原村","address":"小笠原村父島字西町","lat":27.071243,"lon":142.20961},{"name":"小笠原村地域包括支援センター","province":"東京都","city":"小笠原村","address":"小笠原村父島字西町","lat":27.071243,"lon":142.20961},{"name":"小笠原村村民課福祉係","province":"東京都","city":"小笠原村","address":"小笠原村父島字西町","lat":27.071243,"lon":142.20961},{"name":"小笠原村地域包括支援センター","province":"東京都","city":"小笠原村","address":"小笠原村父島字西町","lat":27.071243,"lon":142.20961},{"name":"小笠原村村民課福祉係","province":"東京都","city":"小笠原村","address":"小笠原村父島字西町","lat":27.071243,"lon":142.20961},{"name":"小笠原村地域包括支援センター","province":"東京都","city":"小笠原村","address":"小笠原村父島字西町","lat":27.071243,"lon":142.20961},{"name":"小笠原村村民課福祉係","province":"東京都","city":"小笠原村","address":"小笠原村父島字西町","lat":27.071243,"lon":142.20961},{"name":"小笠原村地域包括支援センター","province":"東京都","city":"小笠原村","address":"小笠原村父島字西町","lat":27.071243,"lon":142.20961},{"name":"小笠原村村民課福祉係","province":"東京都","city":"小笠原村","address":"小笠原村父島字西町","lat":27.071243,"lon":142.20961},{"name":"小笠原村地域包括支援センター","province":"東京都","city":"小笠原村","address":"小笠原村父島字西町","lat":27.071243,"lon":142.20961},{"name":"小笠原村村民課福祉係","province":"東京都","city":"小笠原村","address":"小笠原村父島字西町","lat":27.071243,"lon":142.20961},{"name":"小笠原村地域包括支援センター","province":"東京都","city":"小笠原村","address":"小笠原村父島字西町","lat":27.071243,"lon":142.20961},{"name":"小笠原村村民課福祉係","province":"東京都","city":"小笠原村","address":"小笠原村父島字西町","lat":27.071243,"lon":142.20961},{"name":"小笠原村地域包括支援センター","province":"東京都","city":"小笠原村","address":"小笠原村父島字西町","lat":27.071243,"lon":142.20961},{"name":"小笠原村村民課福祉係","province":"東京都","city":"小笠原村","address":"小笠原村父島字西町","lat":27.071243,"lon":142.20961},{"name":"小笠原村地域包括支援センター","province":"東京都","city":"小笠原村","address":"小笠原村父島字西町","lat":27.071243,"lon":142.20961},{"name":"小笠原村村民課福祉係","province":"東京都","city":"小笠原村","address":"小笠原村父島字西町","lat":27.071243,"lon":142.20961},{"name":"小笠原村地域包括支援センター","province":"東京都","city":"小笠原村","address":"小笠原村父島字西町","lat":27.071243,"lon":142.20961},{"name":"小笠原村村民課福祉係","province":"東京都","city":"小笠原村","address":"小笠原村父島字西町","lat":27.071243,"lon":142.20961},{"name":"小笠原村地域包括支援センター","province":"東京都","city":"小笠原村","address":"小笠原村父島字西町","lat":27.071243,"lon":142.20961},{"name":"小笠原村村民課福祉係","province":"東京都","city":"小笠原村","address":"小笠原村父島字西町","lat":27.071243,"lon":142.20961},{"name":"小笠原村地域包括支援センター","province":"東京都","city":"小笠原村","address":"小笠原村父島字西町","lat":27.071243,"lon":142.20961},{"name":"小笠原村村民課福祉係","province":"東京都","city":"小笠原村","address":"小笠原村父島字西町","lat":27.071243,"lon":142.20961},{"name":"小笠原村地域包括支援センター","province":"東京都","city":"小笠原村","address":"小笠原村父島字西町","lat":27.071243,"lon":142.20961},{"name":"小笠原村村民課福祉係","province":"東京都","city":"小笠原村","address":"小笠原村父島字西町","lat":27.071243,"lon":142.20961},{"name":"小笠原村地域包括支援センター","province":"東京都","city":"小笠原村","address":"小笠原村父島字西町","lat":27.071243,"lon":142.20961},{"name":"小笠原村村民課福祉係","province":"東京都","city":"小笠原村","address":"小笠原村父島字西町","lat":27.071243,"lon":142.20961},{"name":"小笠原村地域包括支援センター","province":"東京都","city":"小笠原村","address":"小笠原村父島字西町","lat":27.071243,"lon":142.20961},{"name":"小笠原村村民課福祉係","province":"東京都","city":"小笠原村","address":"小笠原村父島字西町","lat":27.071243,"lon":142.20961},{"name":"小笠原村地域包括支援センター","province":"東京都","city":"小笠原村","address":"小笠原村父島字西町","lat":27.071243,"lon":142.20961},{"name":"小笠原村村民課福祉係","province":"東京都","city":"小笠原村","address":"小笠原村父島字西町","lat":27.071243,"lon":142.20961},{"name":"小笠原村地域包括支援センター","province":"東京都","city":"小笠原村","address":"小笠原村父島字西町","lat":27.071243,"lon":142.20961},{"name":"小笠原村村民課福祉係","province":"東京都","city":"小笠原村","address":"小笠原村父島字西町","lat":27.071243,"lon":142.20961}]}