{"keyword":"男女","data":[{"name":"父島保育園","province":"東京都","city":"小笠原村","address":"小笠原村父島字奥村","lat":27.097933,"lon":142.203417},{"name":"島しょ保健所小笠原出張所","province":"東京都","city":"小笠原村","address":"小笠原村父島字清瀬","lat":27.100335,"lon":142.194743},{"name":"東京都小笠原支庁母島出張所","province":"東京都","city":"小笠原村","address":"東京都小笠原村母島","lat":26.640013,"lon":142.161585},{"name":"大神山公園","province":"東京都","city":"小笠原村","address":"東京都小笠原村父島","lat":27.093929,"lon":142.193059},{"name":"大神山公園","province":"東京都","city":"小笠原村","address":"東京都小笠原村父島","lat":27.098068,"lon":142.197212},{"name":"脇浜なぎさ公園","province":"東京都","city":"小笠原村","address":"東京都小笠原村母島","lat":26.636944,"lon":142.15673},{"name":"二見漁港","province":"東京都","city":"小笠原村","address":"東京都小笠原村父島","lat":27.097648,"lon":142.202829},{"name":"小笠原ビジターセンター","province":"東京都","city":"小笠原村","address":"東京都小笠原村父島","lat":27.093198,"lon":142.191788},{"name":"奥村運動場ゲートボール場トイレ","province":"東京都","city":"小笠原村","address":"東京都小笠原村父島","lat":27.100075,"lon":142.201275},{"name":"父島図書館","province":"東京都","city":"小笠原村","address":"東京都小笠原村父島奥村（字）","lat":27.09793264,"lon":142.20341731},{"name":"母島図書館","province":"東京都","city":"小笠原村","address":"東京都小笠原村母島元地（字）","lat":26.63986489,"lon":142.16160526},{"name":"父島保育園","province":"東京都","city":"小笠原村","address":"小笠原村父島字奥村","lat":27.07124,"lon":142.20961},{"name":"小笠原支庁","province":"東京都","city":"小笠原村","address":"小笠原村父島字西町","lat":27.07124,"lon":142.20961},{"name":"島しょ保健所小笠原出張所","province":"東京都","city":"小笠原村","address":"小笠原村父島字清瀬","lat":27.07124,"lon":142.20961},{"name":"小笠原村地域包括支援センター","province":"東京都","city":"小笠原村","address":"小笠原村父島字西町","lat":27.071243,"lon":142.20961},{"name":"小笠原村村民課福祉係","province":"東京都","city":"小笠原村","address":"小笠原村父島字西町","lat":27.071243,"lon":142.20961},{"name":"小笠原村父島火葬場","province":"東京都","city":"小笠原村","address":"東京都小笠原村父島洲崎（字）","lat":27.07007957,"lon":142.19205502},{"name":"小笠原村母島火葬場","province":"東京都","city":"小笠原村","address":"東京都小笠原村母島評議平（字）","lat":26.63510151,"lon":142.16354967},{"name":"母島臨時ヘリポート","province":"東京都","city":"小笠原村","address":"東京都小笠原村","lat":27.09435777,"lon":142.19190714},{"name":"小笠原ユースホステル","province":"東京都","city":"小笠原村","address":"小笠原村父島字西町46-12","lat":27.0898161,"lon":142.1948021},{"name":"アンナビーチ母島ユースホステル","province":"東京都","city":"小笠原村","address":"小笠原村母島字静沢26-2","lat":26.63711919,"lon":142.1572378},{"name":"＊?ロース記念館","province":"東京都","city":"小笠原村","address":"小笠原村母島字元地","lat":26.642533,"lon":142.160481},{"name":"父島クリーンセンター","province":"東京都","city":"小笠原村","address":"東京都小笠原村父島","lat":27.071243,"lon":142.20961},{"name":"大神山公園","province":"東京都","city":"小笠原村","address":"東京都小笠原村父島","lat":27.09474387,"lon":142.19321537},{"name":"丸山トンネル","province":"東京都","city":"小笠原村","address":"東京都小笠原村","lat":27.09435777,"lon":142.19190714},{"name":"長崎トンネル","province":"東京都","city":"小笠原村","address":"東京都小笠原村","lat":27.09435777,"lon":142.19190714},{"name":"第一トンネル","province":"東京都","city":"小笠原村","address":"東京都小笠原村","lat":27.09435777,"lon":142.19190714},{"name":"第三トンネル","province":"東京都","city":"小笠原村","address":"東京都小笠原村","lat":27.09435777,"lon":142.19190714},{"name":"第四トンネル","province":"東京都","city":"小笠原村","address":"東京都小笠原村","lat":27.09435777,"lon":142.19190714},{"name":"第五トンネル","province":"東京都","city":"小笠原村","address":"東京都小笠原村","lat":27.09435777,"lon":142.19190714},{"name":"小笠原支庁","province":"東京都","city":"小笠原村","address":"小笠原村父島字西町","lat":27.094011,"lon":142.191663},{"name":"小笠原支庁","province":"東京都","city":"小笠原村","address":"小笠原村父島字西町","lat":27.095637,"lon":142.191206},{"name":"父島図書館","province":"東京都","city":"小笠原村","address":"東京都小笠原村父島奥村（字）","lat":27.09793264,"lon":142.20341731},{"name":"母島図書館","province":"東京都","city":"小笠原村","address":"東京都小笠原村母島元地（字）","lat":26.63986489,"lon":142.16160526},{"name":"小笠原支庁","province":"東京都","city":"小笠原村","address":"小笠原村父島字西町","lat":27.07124,"lon":142.20961},{"name":"小笠原村地域包括支援センター","province":"東京都","city":"小笠原村","address":"小笠原村父島字西町","lat":27.071243,"lon":142.20961},{"name":"小笠原村村民課福祉係","province":"東京都","city":"小笠原村","address":"小笠原村父島字西町","lat":27.071243,"lon":142.20961},{"name":"小笠原ユースホステル","province":"東京都","city":"小笠原村","address":"小笠原村父島字西町46-12","lat":27.0898161,"lon":142.1948021},{"name":"アンナビーチ母島ユースホステル","province":"東京都","city":"小笠原村","address":"小笠原村母島字静沢26-2","lat":26.63711919,"lon":142.1572378},{"name":"＊?ロース記念館","province":"東京都","city":"小笠原村","address":"小笠原村母島字元地","lat":26.642533,"lon":142.160481},{"name":"父島クリーンセンター","province":"東京都","city":"小笠原村","address":"東京都小笠原村父島","lat":27.071243,"lon":142.20961},{"name":"大神山公園","province":"東京都","city":"小笠原村","address":"東京都小笠原村父島","lat":27.09474387,"lon":142.19321537},{"name":"丸山トンネル","province":"東京都","city":"小笠原村","address":"東京都小笠原村","lat":27.09435777,"lon":142.19190714},{"name":"長崎トンネル","province":"東京都","city":"小笠原村","address":"東京都小笠原村","lat":27.09435777,"lon":142.19190714},{"name":"第一トンネル","province":"東京都","city":"小笠原村","address":"東京都小笠原村","lat":27.09435777,"lon":142.19190714},{"name":"第三トンネル","province":"東京都","city":"小笠原村","address":"東京都小笠原村","lat":27.09435777,"lon":142.19190714},{"name":"第四トンネル","province":"東京都","city":"小笠原村","address":"東京都小笠原村","lat":27.09435777,"lon":142.19190714},{"name":"第五トンネル","province":"東京都","city":"小笠原村","address":"東京都小笠原村","lat":27.09435777,"lon":142.19190714},{"name":"小笠原支庁","province":"東京都","city":"小笠原村","address":"小笠原村父島字西町","lat":27.094011,"lon":142.191663},{"name":"小笠原支庁","province":"東京都","city":"小笠原村","address":"小笠原村父島字西町","lat":27.095637,"lon":142.191206},{"name":"父島図書館","province":"東京都","city":"小笠原村","address":"東京都小笠原村父島奥村（字）","lat":27.09793264,"lon":142.20341731},{"name":"母島図書館","province":"東京都","city":"小笠原村","address":"東京都小笠原村母島元地（字）","lat":26.63986489,"lon":142.16160526},{"name":"小笠原村地域包括支援センター","province":"東京都","city":"小笠原村","address":"小笠原村父島字西町","lat":27.071243,"lon":142.20961},{"name":"小笠原村村民課福祉係","province":"東京都","city":"小笠原村","address":"小笠原村父島字西町","lat":27.071243,"lon":142.20961},{"name":"小笠原ユースホステル","province":"東京都","city":"小笠原村","address":"小笠原村父島字西町46-12","lat":27.0898161,"lon":142.1948021},{"name":"アンナビーチ母島ユースホステル","province":"東京都","city":"小笠原村","address":"小笠原村母島字静沢26-2","lat":26.63711919,"lon":142.1572378},{"name":"＊?ロース記念館","province":"東京都","city":"小笠原村","address":"小笠原村母島字元地","lat":26.642533,"lon":142.160481},{"name":"父島クリーンセンター","province":"東京都","city":"小笠原村","address":"東京都小笠原村父島","lat":27.071243,"lon":142.20961},{"name":"丸山トンネル","province":"東京都","city":"小笠原村","address":"東京都小笠原村","lat":27.09435777,"lon":142.19190714},{"name":"長崎トンネル","province":"東京都","city":"小笠原村","address":"東京都小笠原村","lat":27.09435777,"lon":142.19190714},{"name":"第一トンネル","province":"東京都","city":"小笠原村","address":"東京都小笠原村","lat":27.09435777,"lon":142.19190714},{"name":"第三トンネル","province":"東京都","city":"小笠原村","address":"東京都小笠原村","lat":27.09435777,"lon":142.19190714},{"name":"第四トンネル","province":"東京都","city":"小笠原村","address":"東京都小笠原村","lat":27.09435777,"lon":142.19190714},{"name":"第五トンネル","province":"東京都","city":"小笠原村","address":"東京都小笠原村","lat":27.09435777,"lon":142.19190714},{"name":"父島図書館","province":"東京都","city":"小笠原村","address":"東京都小笠原村父島奥村（字）","lat":27.09793264,"lon":142.20341731},{"name":"母島図書館","province":"東京都","city":"小笠原村","address":"東京都小笠原村母島元地（字）","lat":26.63986489,"lon":142.16160526},{"name":"小笠原ユースホステル","province":"東京都","city":"小笠原村","address":"小笠原村父島字西町46-12","lat":27.0898161,"lon":142.1948021},{"name":"アンナビーチ母島ユースホステル","province":"東京都","city":"小笠原村","address":"小笠原村母島字静沢26-2","lat":26.63711919,"lon":142.1572378},{"name":"＊?ロース記念館","province":"東京都","city":"小笠原村","address":"小笠原村母島字元地","lat":26.642533,"lon":142.160481},{"name":"父島クリーンセンター","province":"東京都","city":"小笠原村","address":"東京都小笠原村父島","lat":27.071243,"lon":142.20961},{"name":"丸山トンネル","province":"東京都","city":"小笠原村","address":"東京都小笠原村","lat":27.09435777,"lon":142.19190714},{"name":"長崎トンネル","province":"東京都","city":"小笠原村","address":"東京都小笠原村","lat":27.09435777,"lon":142.19190714},{"name":"第一トンネル","province":"東京都","city":"小笠原村","address":"東京都小笠原村","lat":27.09435777,"lon":142.19190714},{"name":"第三トンネル","province":"東京都","city":"小笠原村","address":"東京都小笠原村","lat":27.09435777,"lon":142.19190714},{"name":"第四トンネル","province":"東京都","city":"小笠原村","address":"東京都小笠原村","lat":27.09435777,"lon":142.19190714},{"name":"第五トンネル","province":"東京都","city":"小笠原村","address":"東京都小笠原村","lat":27.09435777,"lon":142.19190714},{"name":"父島図書館","province":"東京都","city":"小笠原村","address":"東京都小笠原村父島奥村（字）","lat":27.09793264,"lon":142.20341731},{"name":"母島図書館","province":"東京都","city":"小笠原村","address":"東京都小笠原村母島元地（字）","lat":26.63986489,"lon":142.16160526},{"name":"小笠原ユースホステル","province":"東京都","city":"小笠原村","address":"小笠原村父島字西町46-12","lat":27.0898161,"lon":142.1948021},{"name":"アンナビーチ母島ユースホステル","province":"東京都","city":"小笠原村","address":"小笠原村母島字静沢26-2","lat":26.63711919,"lon":142.1572378},{"name":"＊?ロース記念館","province":"東京都","city":"小笠原村","address":"小笠原村母島字元地","lat":26.642533,"lon":142.160481},{"name":"父島クリーンセンター","province":"東京都","city":"小笠原村","address":"東京都小笠原村父島","lat":27.071243,"lon":142.20961},{"name":"丸山トンネル","province":"東京都","city":"小笠原村","address":"東京都小笠原村","lat":27.09435777,"lon":142.19190714},{"name":"長崎トンネル","province":"東京都","city":"小笠原村","address":"東京都小笠原村","lat":27.09435777,"lon":142.19190714},{"name":"第一トンネル","province":"東京都","city":"小笠原村","address":"東京都小笠原村","lat":27.09435777,"lon":142.19190714},{"name":"第三トンネル","province":"東京都","city":"小笠原村","address":"東京都小笠原村","lat":27.09435777,"lon":142.19190714},{"name":"第四トンネル","province":"東京都","city":"小笠原村","address":"東京都小笠原村","lat":27.09435777,"lon":142.19190714},{"name":"第五トンネル","province":"東京都","city":"小笠原村","address":"東京都小笠原村","lat":27.09435777,"lon":142.19190714},{"name":"小笠原ユースホステル","province":"東京都","city":"小笠原村","address":"小笠原村父島字西町46-12","lat":27.0898161,"lon":142.1948021},{"name":"アンナビーチ母島ユースホステル","province":"東京都","city":"小笠原村","address":"小笠原村母島字静沢26-2","lat":26.63711919,"lon":142.1572378},{"name":"＊?ロース記念館","province":"東京都","city":"小笠原村","address":"小笠原村母島字元地","lat":26.642533,"lon":142.160481},{"name":"父島クリーンセンター","province":"東京都","city":"小笠原村","address":"東京都小笠原村父島","lat":27.071243,"lon":142.20961},{"name":"丸山トンネル","province":"東京都","city":"小笠原村","address":"東京都小笠原村","lat":27.09435777,"lon":142.19190714},{"name":"長崎トンネル","province":"東京都","city":"小笠原村","address":"東京都小笠原村","lat":27.09435777,"lon":142.19190714},{"name":"第一トンネル","province":"東京都","city":"小笠原村","address":"東京都小笠原村","lat":27.09435777,"lon":142.19190714},{"name":"第三トンネル","province":"東京都","city":"小笠原村","address":"東京都小笠原村","lat":27.09435777,"lon":142.19190714},{"name":"第四トンネル","province":"東京都","city":"小笠原村","address":"東京都小笠原村","lat":27.09435777,"lon":142.19190714},{"name":"第五トンネル","province":"東京都","city":"小笠原村","address":"東京都小笠原村","lat":27.09435777,"lon":142.19190714},{"name":"小笠原ユースホステル","province":"東京都","city":"小笠原村","address":"小笠原村父島字西町46-12","lat":27.0898161,"lon":142.1948021},{"name":"アンナビーチ母島ユースホステル","province":"東京都","city":"小笠原村","address":"小笠原村母島字静沢26-2","lat":26.63711919,"lon":142.1572378},{"name":"父島クリーンセンター","province":"東京都","city":"小笠原村","address":"東京都小笠原村父島","lat":27.071243,"lon":142.20961},{"name":"丸山トンネル","province":"東京都","city":"小笠原村","address":"東京都小笠原村","lat":27.09435777,"lon":142.19190714},{"name":"長崎トンネル","province":"東京都","city":"小笠原村","address":"東京都小笠原村","lat":27.09435777,"lon":142.19190714},{"name":"第一トンネル","province":"東京都","city":"小笠原村","address":"東京都小笠原村","lat":27.09435777,"lon":142.19190714},{"name":"第三トンネル","province":"東京都","city":"小笠原村","address":"東京都小笠原村","lat":27.09435777,"lon":142.19190714},{"name":"第四トンネル","province":"東京都","city":"小笠原村","address":"東京都小笠原村","lat":27.09435777,"lon":142.19190714},{"name":"第五トンネル","province":"東京都","city":"小笠原村","address":"東京都小笠原村","lat":27.09435777,"lon":142.19190714},{"name":"小笠原ユースホステル","province":"東京都","city":"小笠原村","address":"小笠原村父島字西町46-12","lat":27.0898161,"lon":142.1948021},{"name":"アンナビーチ母島ユースホステル","province":"東京都","city":"小笠原村","address":"小笠原村母島字静沢26-2","lat":26.63711919,"lon":142.1572378},{"name":"父島クリーンセンター","province":"東京都","city":"小笠原村","address":"東京都小笠原村父島","lat":27.071243,"lon":142.20961},{"name":"丸山トンネル","province":"東京都","city":"小笠原村","address":"東京都小笠原村","lat":27.09435777,"lon":142.19190714},{"name":"長崎トンネル","province":"東京都","city":"小笠原村","address":"東京都小笠原村","lat":27.09435777,"lon":142.19190714},{"name":"第一トンネル","province":"東京都","city":"小笠原村","address":"東京都小笠原村","lat":27.09435777,"lon":142.19190714},{"name":"第三トンネル","province":"東京都","city":"小笠原村","address":"東京都小笠原村","lat":27.09435777,"lon":142.19190714},{"name":"第四トンネル","province":"東京都","city":"小笠原村","address":"東京都小笠原村","lat":27.09435777,"lon":142.19190714},{"name":"第五トンネル","province":"東京都","city":"小笠原村","address":"東京都小笠原村","lat":27.09435777,"lon":142.19190714},{"name":"小笠原ユースホステル","province":"東京都","city":"小笠原村","address":"小笠原村父島字西町46-12","lat":27.0898161,"lon":142.1948021},{"name":"アンナビーチ母島ユースホステル","province":"東京都","city":"小笠原村","address":"小笠原村母島字静沢26-2","lat":26.63711919,"lon":142.1572378},{"name":"父島クリーンセンター","province":"東京都","city":"小笠原村","address":"東京都小笠原村父島","lat":27.071243,"lon":142.20961},{"name":"丸山トンネル","province":"東京都","city":"小笠原村","address":"東京都小笠原村","lat":27.09435777,"lon":142.19190714},{"name":"長崎トンネル","province":"東京都","city":"小笠原村","address":"東京都小笠原村","lat":27.09435777,"lon":142.19190714},{"name":"第一トンネル","province":"東京都","city":"小笠原村","address":"東京都小笠原村","lat":27.09435777,"lon":142.19190714},{"name":"第三トンネル","province":"東京都","city":"小笠原村","address":"東京都小笠原村","lat":27.09435777,"lon":142.19190714},{"name":"第四トンネル","province":"東京都","city":"小笠原村","address":"東京都小笠原村","lat":27.09435777,"lon":142.19190714},{"name":"第五トンネル","province":"東京都","city":"小笠原村","address":"東京都小笠原村","lat":27.09435777,"lon":142.19190714},{"name":"父島クリーンセンター","province":"東京都","city":"小笠原村","address":"東京都小笠原村父島","lat":27.071243,"lon":142.20961},{"name":"丸山トンネル","province":"東京都","city":"小笠原村","address":"東京都小笠原村","lat":27.09435777,"lon":142.19190714},{"name":"長崎トンネル","province":"東京都","city":"小笠原村","address":"東京都小笠原村","lat":27.09435777,"lon":142.19190714},{"name":"第一トンネル","province":"東京都","city":"小笠原村","address":"東京都小笠原村","lat":27.09435777,"lon":142.19190714},{"name":"第三トンネル","province":"東京都","city":"小笠原村","address":"東京都小笠原村","lat":27.09435777,"lon":142.19190714},{"name":"第四トンネル","province":"東京都","city":"小笠原村","address":"東京都小笠原村","lat":27.09435777,"lon":142.19190714},{"name":"第五トンネル","province":"東京都","city":"小笠原村","address":"東京都小笠原村","lat":27.09435777,"lon":142.19190714},{"name":"父島クリーンセンター","province":"東京都","city":"小笠原村","address":"東京都小笠原村父島","lat":27.071243,"lon":142.20961},{"name":"父島クリーンセンター","province":"東京都","city":"小笠原村","address":"東京都小笠原村父島","lat":27.071243,"lon":142.20961},{"name":"父島クリーンセンター","province":"東京都","city":"小笠原村","address":"東京都小笠原村父島","lat":27.071243,"lon":142.20961},{"name":"父島クリーンセンター","province":"東京都","city":"小笠原村","address":"東京都小笠原村父島","lat":27.071243,"lon":142.20961},{"name":"父島クリーンセンター","province":"東京都","city":"小笠原村","address":"東京都小笠原村父島","lat":27.071243,"lon":142.20961},{"name":"父島クリーンセンター","province":"東京都","city":"小笠原村","address":"東京都小笠原村父島","lat":27.071243,"lon":142.20961},{"name":"父島クリーンセンター","province":"東京都","city":"小笠原村","address":"東京都小笠原村父島","lat":27.071243,"lon":142.20961},{"name":"父島クリーンセンター","province":"東京都","city":"小笠原村","address":"東京都小笠原村父島","lat":27.071243,"lon":142.20961},{"name":"父島クリーンセンター","province":"東京都","city":"小笠原村","address":"東京都小笠原村父島","lat":27.071243,"lon":142.20961},{"name":"父島クリーンセンター","province":"東京都","city":"小笠原村","address":"東京都小笠原村父島","lat":27.071243,"lon":142.20961},{"name":"父島クリーンセンター","province":"東京都","city":"小笠原村","address":"東京都小笠原村父島","lat":27.071243,"lon":142.20961},{"name":"父島クリーンセンター","province":"東京都","city":"小笠原村","address":"東京都小笠原村父島","lat":27.071243,"lon":142.20961},{"name":"父島クリーンセンター","province":"東京都","city":"小笠原村","address":"東京都小笠原村父島","lat":27.071243,"lon":142.20961},{"name":"父島クリーンセンター","province":"東京都","city":"小笠原村","address":"東京都小笠原村父島","lat":27.071243,"lon":142.20961},{"name":"父島クリーンセンター","province":"東京都","city":"小笠原村","address":"東京都小笠原村父島","lat":27.071243,"lon":142.20961},{"name":"父島クリーンセンター","province":"東京都","city":"小笠原村","address":"東京都小笠原村父島","lat":27.071243,"lon":142.20961},{"name":"父島クリーンセンター","province":"東京都","city":"小笠原村","address":"東京都小笠原村父島","lat":27.071243,"lon":142.20961},{"name":"父島クリーンセンター","province":"東京都","city":"小笠原村","address":"東京都小笠原村父島","lat":27.071243,"lon":142.20961},{"name":"父島クリーンセンター","province":"東京都","city":"小笠原村","address":"東京都小笠原村父島","lat":27.071243,"lon":142.20961},{"name":"父島クリーンセンター","province":"東京都","city":"小笠原村","address":"東京都小笠原村父島","lat":27.071243,"lon":142.20961},{"name":"父島クリーンセンター","province":"東京都","city":"小笠原村","address":"東京都小笠原村父島","lat":27.071243,"lon":142.20961},{"name":"父島クリーンセンター","province":"東京都","city":"小笠原村","address":"東京都小笠原村父島","lat":27.071243,"lon":142.20961},{"name":"父島クリーンセンター","province":"東京都","city":"小笠原村","address":"東京都小笠原村父島","lat":27.071243,"lon":142.20961},{"name":"父島クリーンセンター","province":"東京都","city":"小笠原村","address":"東京都小笠原村父島","lat":27.071243,"lon":142.20961},{"name":"父島クリーンセンター","province":"東京都","city":"小笠原村","address":"東京都小笠原村父島","lat":27.071243,"lon":142.20961},{"name":"父島クリーンセンター","province":"東京都","city":"小笠原村","address":"東京都小笠原村父島","lat":27.071243,"lon":142.20961}]}