{"keyword":"週","data":[{"name":"小笠原村社会福祉協議会","province":"東京都","city":"小笠原村","address":"小笠原村父島字奥村小笠原村地域福祉センター内","lat":27.099685,"lon":142.199972},{"name":"父島図書館","province":"東京都","city":"小笠原村","address":"東京都小笠原村父島奥村（字）","lat":27.09793264,"lon":142.20341731},{"name":"母島図書館","province":"東京都","city":"小笠原村","address":"東京都小笠原村母島元地（字）","lat":26.63986489,"lon":142.16160526},{"name":"小笠原村社会福祉協議会","province":"東京都","city":"小笠原村","address":"小笠原村父島字奥村小笠原村地域福祉センター内","lat":27.07124,"lon":142.20961},{"name":"小笠原村父島火葬場","province":"東京都","city":"小笠原村","address":"東京都小笠原村父島洲崎（字）","lat":27.07007957,"lon":142.19205502},{"name":"小笠原村母島火葬場","province":"東京都","city":"小笠原村","address":"東京都小笠原村母島評議平（字）","lat":26.63510151,"lon":142.16354967},{"name":"母島臨時ヘリポート","province":"東京都","city":"小笠原村","address":"東京都小笠原村","lat":27.09435777,"lon":142.19190714},{"name":"大神山公園","province":"東京都","city":"小笠原村","address":"東京都小笠原村父島","lat":27.09474387,"lon":142.19321537},{"name":"小笠原村社会福祉協議会","province":"東京都","city":"小笠原村","address":"小笠原村父島字奥村小笠原村地域福祉センター内","lat":27.099685,"lon":142.199972},{"name":"父島図書館","province":"東京都","city":"小笠原村","address":"東京都小笠原村父島奥村（字）","lat":27.09793264,"lon":142.20341731},{"name":"母島図書館","province":"東京都","city":"小笠原村","address":"東京都小笠原村母島元地（字）","lat":26.63986489,"lon":142.16160526},{"name":"小笠原村社会福祉協議会","province":"東京都","city":"小笠原村","address":"小笠原村父島字奥村小笠原村地域福祉センター内","lat":27.07124,"lon":142.20961},{"name":"小笠原村父島火葬場","province":"東京都","city":"小笠原村","address":"東京都小笠原村父島洲崎（字）","lat":27.07007957,"lon":142.19205502},{"name":"小笠原村母島火葬場","province":"東京都","city":"小笠原村","address":"東京都小笠原村母島評議平（字）","lat":26.63510151,"lon":142.16354967},{"name":"大神山公園","province":"東京都","city":"小笠原村","address":"東京都小笠原村父島","lat":27.09474387,"lon":142.19321537},{"name":"小笠原村社会福祉協議会","province":"東京都","city":"小笠原村","address":"小笠原村父島字奥村小笠原村地域福祉センター内","lat":27.099685,"lon":142.199972},{"name":"父島図書館","province":"東京都","city":"小笠原村","address":"東京都小笠原村父島奥村（字）","lat":27.09793264,"lon":142.20341731},{"name":"母島図書館","province":"東京都","city":"小笠原村","address":"東京都小笠原村母島元地（字）","lat":26.63986489,"lon":142.16160526},{"name":"小笠原村社会福祉協議会","province":"東京都","city":"小笠原村","address":"小笠原村父島字奥村小笠原村地域福祉センター内","lat":27.07124,"lon":142.20961},{"name":"大神山公園","province":"東京都","city":"小笠原村","address":"東京都小笠原村父島","lat":27.09474387,"lon":142.19321537},{"name":"小笠原村社会福祉協議会","province":"東京都","city":"小笠原村","address":"小笠原村父島字奥村小笠原村地域福祉センター内","lat":27.099685,"lon":142.199972},{"name":"父島図書館","province":"東京都","city":"小笠原村","address":"東京都小笠原村父島奥村（字）","lat":27.09793264,"lon":142.20341731},{"name":"母島図書館","province":"東京都","city":"小笠原村","address":"東京都小笠原村母島元地（字）","lat":26.63986489,"lon":142.16160526},{"name":"小笠原村社会福祉協議会","province":"東京都","city":"小笠原村","address":"小笠原村父島字奥村小笠原村地域福祉センター内","lat":27.07124,"lon":142.20961},{"name":"大神山公園","province":"東京都","city":"小笠原村","address":"東京都小笠原村父島","lat":27.09474387,"lon":142.19321537},{"name":"父島図書館","province":"東京都","city":"小笠原村","address":"東京都小笠原村父島奥村（字）","lat":27.09793264,"lon":142.20341731},{"name":"母島図書館","province":"東京都","city":"小笠原村","address":"東京都小笠原村母島元地（字）","lat":26.63986489,"lon":142.16160526},{"name":"大神山公園","province":"東京都","city":"小笠原村","address":"東京都小笠原村父島","lat":27.09474387,"lon":142.19321537},{"name":"父島図書館","province":"東京都","city":"小笠原村","address":"東京都小笠原村父島奥村（字）","lat":27.09793264,"lon":142.20341731},{"name":"母島図書館","province":"東京都","city":"小笠原村","address":"東京都小笠原村母島元地（字）","lat":26.63986489,"lon":142.16160526},{"name":"大神山公園","province":"東京都","city":"小笠原村","address":"東京都小笠原村父島","lat":27.09474387,"lon":142.19321537},{"name":"父島図書館","province":"東京都","city":"小笠原村","address":"東京都小笠原村父島奥村（字）","lat":27.09793264,"lon":142.20341731},{"name":"母島図書館","province":"東京都","city":"小笠原村","address":"東京都小笠原村母島元地（字）","lat":26.63986489,"lon":142.16160526},{"name":"大神山公園","province":"東京都","city":"小笠原村","address":"東京都小笠原村父島","lat":27.09474387,"lon":142.19321537},{"name":"父島図書館","province":"東京都","city":"小笠原村","address":"東京都小笠原村父島奥村（字）","lat":27.09793264,"lon":142.20341731},{"name":"母島図書館","province":"東京都","city":"小笠原村","address":"東京都小笠原村母島元地（字）","lat":26.63986489,"lon":142.16160526},{"name":"大神山公園","province":"東京都","city":"小笠原村","address":"東京都小笠原村父島","lat":27.09474387,"lon":142.19321537},{"name":"父島図書館","province":"東京都","city":"小笠原村","address":"東京都小笠原村父島奥村（字）","lat":27.09793264,"lon":142.20341731},{"name":"母島図書館","province":"東京都","city":"小笠原村","address":"東京都小笠原村母島元地（字）","lat":26.63986489,"lon":142.16160526},{"name":"大神山公園","province":"東京都","city":"小笠原村","address":"東京都小笠原村父島","lat":27.09474387,"lon":142.19321537},{"name":"父島図書館","province":"東京都","city":"小笠原村","address":"東京都小笠原村父島奥村（字）","lat":27.09793264,"lon":142.20341731},{"name":"母島図書館","province":"東京都","city":"小笠原村","address":"東京都小笠原村母島元地（字）","lat":26.63986489,"lon":142.16160526},{"name":"大神山公園","province":"東京都","city":"小笠原村","address":"東京都小笠原村父島","lat":27.09474387,"lon":142.19321537},{"name":"父島図書館","province":"東京都","city":"小笠原村","address":"東京都小笠原村父島奥村（字）","lat":27.09793264,"lon":142.20341731},{"name":"母島図書館","province":"東京都","city":"小笠原村","address":"東京都小笠原村母島元地（字）","lat":26.63986489,"lon":142.16160526},{"name":"大神山公園","province":"東京都","city":"小笠原村","address":"東京都小笠原村父島","lat":27.09474387,"lon":142.19321537},{"name":"父島図書館","province":"東京都","city":"小笠原村","address":"東京都小笠原村父島奥村（字）","lat":27.09793264,"lon":142.20341731},{"name":"母島図書館","province":"東京都","city":"小笠原村","address":"東京都小笠原村母島元地（字）","lat":26.63986489,"lon":142.16160526},{"name":"大神山公園","province":"東京都","city":"小笠原村","address":"東京都小笠原村父島","lat":27.09474387,"lon":142.19321537},{"name":"父島図書館","province":"東京都","city":"小笠原村","address":"東京都小笠原村父島奥村（字）","lat":27.09793264,"lon":142.20341731},{"name":"母島図書館","province":"東京都","city":"小笠原村","address":"東京都小笠原村母島元地（字）","lat":26.63986489,"lon":142.16160526},{"name":"大神山公園","province":"東京都","city":"小笠原村","address":"東京都小笠原村父島","lat":27.09474387,"lon":142.19321537},{"name":"父島図書館","province":"東京都","city":"小笠原村","address":"東京都小笠原村父島奥村（字）","lat":27.09793264,"lon":142.20341731},{"name":"母島図書館","province":"東京都","city":"小笠原村","address":"東京都小笠原村母島元地（字）","lat":26.63986489,"lon":142.16160526},{"name":"大神山公園","province":"東京都","city":"小笠原村","address":"東京都小笠原村父島","lat":27.09474387,"lon":142.19321537},{"name":"父島図書館","province":"東京都","city":"小笠原村","address":"東京都小笠原村父島奥村（字）","lat":27.09793264,"lon":142.20341731},{"name":"母島図書館","province":"東京都","city":"小笠原村","address":"東京都小笠原村母島元地（字）","lat":26.63986489,"lon":142.16160526},{"name":"大神山公園","province":"東京都","city":"小笠原村","address":"東京都小笠原村父島","lat":27.09474387,"lon":142.19321537},{"name":"父島図書館","province":"東京都","city":"小笠原村","address":"東京都小笠原村父島奥村（字）","lat":27.09793264,"lon":142.20341731},{"name":"母島図書館","province":"東京都","city":"小笠原村","address":"東京都小笠原村母島元地（字）","lat":26.63986489,"lon":142.16160526},{"name":"大神山公園","province":"東京都","city":"小笠原村","address":"東京都小笠原村父島","lat":27.09474387,"lon":142.19321537},{"name":"父島図書館","province":"東京都","city":"小笠原村","address":"東京都小笠原村父島奥村（字）","lat":27.09793264,"lon":142.20341731},{"name":"母島図書館","province":"東京都","city":"小笠原村","address":"東京都小笠原村母島元地（字）","lat":26.63986489,"lon":142.16160526},{"name":"大神山公園","province":"東京都","city":"小笠原村","address":"東京都小笠原村父島","lat":27.09474387,"lon":142.19321537},{"name":"父島図書館","province":"東京都","city":"小笠原村","address":"東京都小笠原村父島奥村（字）","lat":27.09793264,"lon":142.20341731},{"name":"母島図書館","province":"東京都","city":"小笠原村","address":"東京都小笠原村母島元地（字）","lat":26.63986489,"lon":142.16160526},{"name":"大神山公園","province":"東京都","city":"小笠原村","address":"東京都小笠原村父島","lat":27.09474387,"lon":142.19321537},{"name":"父島図書館","province":"東京都","city":"小笠原村","address":"東京都小笠原村父島奥村（字）","lat":27.09793264,"lon":142.20341731},{"name":"母島図書館","province":"東京都","city":"小笠原村","address":"東京都小笠原村母島元地（字）","lat":26.63986489,"lon":142.16160526},{"name":"大神山公園","province":"東京都","city":"小笠原村","address":"東京都小笠原村父島","lat":27.09474387,"lon":142.19321537},{"name":"父島図書館","province":"東京都","city":"小笠原村","address":"東京都小笠原村父島奥村（字）","lat":27.09793264,"lon":142.20341731},{"name":"母島図書館","province":"東京都","city":"小笠原村","address":"東京都小笠原村母島元地（字）","lat":26.63986489,"lon":142.16160526},{"name":"大神山公園","province":"東京都","city":"小笠原村","address":"東京都小笠原村父島","lat":27.09474387,"lon":142.19321537},{"name":"父島図書館","province":"東京都","city":"小笠原村","address":"東京都小笠原村父島奥村（字）","lat":27.09793264,"lon":142.20341731},{"name":"母島図書館","province":"東京都","city":"小笠原村","address":"東京都小笠原村母島元地（字）","lat":26.63986489,"lon":142.16160526},{"name":"大神山公園","province":"東京都","city":"小笠原村","address":"東京都小笠原村父島","lat":27.09474387,"lon":142.19321537},{"name":"父島図書館","province":"東京都","city":"小笠原村","address":"東京都小笠原村父島奥村（字）","lat":27.09793264,"lon":142.20341731},{"name":"母島図書館","province":"東京都","city":"小笠原村","address":"東京都小笠原村母島元地（字）","lat":26.63986489,"lon":142.16160526},{"name":"大神山公園","province":"東京都","city":"小笠原村","address":"東京都小笠原村父島","lat":27.09474387,"lon":142.19321537},{"name":"父島図書館","province":"東京都","city":"小笠原村","address":"東京都小笠原村父島奥村（字）","lat":27.09793264,"lon":142.20341731},{"name":"母島図書館","province":"東京都","city":"小笠原村","address":"東京都小笠原村母島元地（字）","lat":26.63986489,"lon":142.16160526},{"name":"大神山公園","province":"東京都","city":"小笠原村","address":"東京都小笠原村父島","lat":27.09474387,"lon":142.19321537},{"name":"父島図書館","province":"東京都","city":"小笠原村","address":"東京都小笠原村父島奥村（字）","lat":27.09793264,"lon":142.20341731},{"name":"母島図書館","province":"東京都","city":"小笠原村","address":"東京都小笠原村母島元地（字）","lat":26.63986489,"lon":142.16160526},{"name":"父島図書館","province":"東京都","city":"小笠原村","address":"東京都小笠原村父島奥村（字）","lat":27.09793264,"lon":142.20341731},{"name":"母島図書館","province":"東京都","city":"小笠原村","address":"東京都小笠原村母島元地（字）","lat":26.63986489,"lon":142.16160526},{"name":"父島図書館","province":"東京都","city":"小笠原村","address":"東京都小笠原村父島奥村（字）","lat":27.09793264,"lon":142.20341731},{"name":"母島図書館","province":"東京都","city":"小笠原村","address":"東京都小笠原村母島元地（字）","lat":26.63986489,"lon":142.16160526},{"name":"父島図書館","province":"東京都","city":"小笠原村","address":"東京都小笠原村父島奥村（字）","lat":27.09793264,"lon":142.20341731},{"name":"母島図書館","province":"東京都","city":"小笠原村","address":"東京都小笠原村母島元地（字）","lat":26.63986489,"lon":142.16160526},{"name":"父島図書館","province":"東京都","city":"小笠原村","address":"東京都小笠原村父島奥村（字）","lat":27.09793264,"lon":142.20341731},{"name":"母島図書館","province":"東京都","city":"小笠原村","address":"東京都小笠原村母島元地（字）","lat":26.63986489,"lon":142.16160526},{"name":"父島図書館","province":"東京都","city":"小笠原村","address":"東京都小笠原村父島奥村（字）","lat":27.09793264,"lon":142.20341731},{"name":"母島図書館","province":"東京都","city":"小笠原村","address":"東京都小笠原村母島元地（字）","lat":26.63986489,"lon":142.16160526},{"name":"父島図書館","province":"東京都","city":"小笠原村","address":"東京都小笠原村父島奥村（字）","lat":27.09793264,"lon":142.20341731},{"name":"母島図書館","province":"東京都","city":"小笠原村","address":"東京都小笠原村母島元地（字）","lat":26.63986489,"lon":142.16160526},{"name":"父島図書館","province":"東京都","city":"小笠原村","address":"東京都小笠原村父島奥村（字）","lat":27.09793264,"lon":142.20341731},{"name":"母島図書館","province":"東京都","city":"小笠原村","address":"東京都小笠原村母島元地（字）","lat":26.63986489,"lon":142.16160526},{"name":"父島図書館","province":"東京都","city":"小笠原村","address":"東京都小笠原村父島奥村（字）","lat":27.09793264,"lon":142.20341731},{"name":"母島図書館","province":"東京都","city":"小笠原村","address":"東京都小笠原村母島元地（字）","lat":26.63986489,"lon":142.16160526},{"name":"父島図書館","province":"東京都","city":"小笠原村","address":"東京都小笠原村父島奥村（字）","lat":27.09793264,"lon":142.20341731},{"name":"母島図書館","province":"東京都","city":"小笠原村","address":"東京都小笠原村母島元地（字）","lat":26.63986489,"lon":142.16160526},{"name":"父島図書館","province":"東京都","city":"小笠原村","address":"東京都小笠原村父島奥村（字）","lat":27.09793264,"lon":142.20341731},{"name":"母島図書館","province":"東京都","city":"小笠原村","address":"東京都小笠原村母島元地（字）","lat":26.63986489,"lon":142.16160526},{"name":"父島図書館","province":"東京都","city":"小笠原村","address":"東京都小笠原村父島奥村（字）","lat":27.09793264,"lon":142.20341731},{"name":"母島図書館","province":"東京都","city":"小笠原村","address":"東京都小笠原村母島元地（字）","lat":26.63986489,"lon":142.16160526},{"name":"父島図書館","province":"東京都","city":"小笠原村","address":"東京都小笠原村父島奥村（字）","lat":27.09793264,"lon":142.20341731},{"name":"母島図書館","province":"東京都","city":"小笠原村","address":"東京都小笠原村母島元地（字）","lat":26.63986489,"lon":142.16160526},{"name":"父島図書館","province":"東京都","city":"小笠原村","address":"東京都小笠原村父島奥村（字）","lat":27.09793264,"lon":142.20341731},{"name":"母島図書館","province":"東京都","city":"小笠原村","address":"東京都小笠原村母島元地（字）","lat":26.63986489,"lon":142.16160526},{"name":"父島図書館","province":"東京都","city":"小笠原村","address":"東京都小笠原村父島奥村（字）","lat":27.09793264,"lon":142.20341731},{"name":"母島図書館","province":"東京都","city":"小笠原村","address":"東京都小笠原村母島元地（字）","lat":26.63986489,"lon":142.16160526},{"name":"父島図書館","province":"東京都","city":"小笠原村","address":"東京都小笠原村父島奥村（字）","lat":27.09793264,"lon":142.20341731},{"name":"母島図書館","province":"東京都","city":"小笠原村","address":"東京都小笠原村母島元地（字）","lat":26.63986489,"lon":142.16160526},{"name":"父島図書館","province":"東京都","city":"小笠原村","address":"東京都小笠原村父島奥村（字）","lat":27.09793264,"lon":142.20341731},{"name":"母島図書館","province":"東京都","city":"小笠原村","address":"東京都小笠原村母島元地（字）","lat":26.63986489,"lon":142.16160526},{"name":"父島図書館","province":"東京都","city":"小笠原村","address":"東京都小笠原村父島奥村（字）","lat":27.09793264,"lon":142.20341731},{"name":"母島図書館","province":"東京都","city":"小笠原村","address":"東京都小笠原村母島元地（字）","lat":26.63986489,"lon":142.16160526},{"name":"父島図書館","province":"東京都","city":"小笠原村","address":"東京都小笠原村父島奥村（字）","lat":27.09793264,"lon":142.20341731},{"name":"母島図書館","province":"東京都","city":"小笠原村","address":"東京都小笠原村母島元地（字）","lat":26.63986489,"lon":142.16160526},{"name":"父島図書館","province":"東京都","city":"小笠原村","address":"東京都小笠原村父島奥村（字）","lat":27.09793264,"lon":142.20341731},{"name":"母島図書館","province":"東京都","city":"小笠原村","address":"東京都小笠原村母島元地（字）","lat":26.63986489,"lon":142.16160526},{"name":"父島図書館","province":"東京都","city":"小笠原村","address":"東京都小笠原村父島奥村（字）","lat":27.09793264,"lon":142.20341731},{"name":"母島図書館","province":"東京都","city":"小笠原村","address":"東京都小笠原村母島元地（字）","lat":26.63986489,"lon":142.16160526},{"name":"父島図書館","province":"東京都","city":"小笠原村","address":"東京都小笠原村父島奥村（字）","lat":27.09793264,"lon":142.20341731},{"name":"母島図書館","province":"東京都","city":"小笠原村","address":"東京都小笠原村母島元地（字）","lat":26.63986489,"lon":142.16160526},{"name":"父島図書館","province":"東京都","city":"小笠原村","address":"東京都小笠原村父島奥村（字）","lat":27.09793264,"lon":142.20341731},{"name":"母島図書館","province":"東京都","city":"小笠原村","address":"東京都小笠原村母島元地（字）","lat":26.63986489,"lon":142.16160526},{"name":"父島図書館","province":"東京都","city":"小笠原村","address":"東京都小笠原村父島奥村（字）","lat":27.09793264,"lon":142.20341731},{"name":"母島図書館","province":"東京都","city":"小笠原村","address":"東京都小笠原村母島元地（字）","lat":26.63986489,"lon":142.16160526},{"name":"父島図書館","province":"東京都","city":"小笠原村","address":"東京都小笠原村父島奥村（字）","lat":27.09793264,"lon":142.20341731},{"name":"母島図書館","province":"東京都","city":"小笠原村","address":"東京都小笠原村母島元地（字）","lat":26.63986489,"lon":142.16160526},{"name":"父島図書館","province":"東京都","city":"小笠原村","address":"東京都小笠原村父島奥村（字）","lat":27.09793264,"lon":142.20341731},{"name":"母島図書館","province":"東京都","city":"小笠原村","address":"東京都小笠原村母島元地（字）","lat":26.63986489,"lon":142.16160526},{"name":"父島図書館","province":"東京都","city":"小笠原村","address":"東京都小笠原村父島奥村（字）","lat":27.09793264,"lon":142.20341731},{"name":"母島図書館","province":"東京都","city":"小笠原村","address":"東京都小笠原村母島元地（字）","lat":26.63986489,"lon":142.16160526},{"name":"父島図書館","province":"東京都","city":"小笠原村","address":"東京都小笠原村父島奥村（字）","lat":27.09793264,"lon":142.20341731},{"name":"母島図書館","province":"東京都","city":"小笠原村","address":"東京都小笠原村母島元地（字）","lat":26.63986489,"lon":142.16160526},{"name":"父島図書館","province":"東京都","city":"小笠原村","address":"東京都小笠原村父島奥村（字）","lat":27.09793264,"lon":142.20341731},{"name":"母島図書館","province":"東京都","city":"小笠原村","address":"東京都小笠原村母島元地（字）","lat":26.63986489,"lon":142.16160526}]}