{"keyword":"番号","data":[{"name":"千代田区","province":"東京都","city":"千代田区","address":"千代田区九段南1-2-1","lat":35.6940028,"lon":139.7536339},{"name":"中央区","province":"東京都","city":"中央区","address":"中央区築地1-1-1","lat":35.6706506,"lon":139.7718614},{"name":"港区","province":"東京都","city":"港区","address":"港区芝公園1-5-25","lat":35.6580153,"lon":139.7515964},{"name":"新宿区","province":"東京都","city":"新宿区","address":"新宿区歌舞伎町1-4-1","lat":35.69389,"lon":139.7034633},{"name":"文京区","province":"東京都","city":"文京区","address":"文京区春日1-16-21","lat":35.7079511,"lon":139.7524308},{"name":"台東区","province":"東京都","city":"台東区","address":"台東区東上野4-5-6","lat":35.7126069,"lon":139.7799844},{"name":"墨田区","province":"東京都","city":"墨田区","address":"墨田区吾妻橋1-23-20","lat":35.7107242,"lon":139.8014967},{"name":"江東区","province":"東京都","city":"江東区","address":"江東区東陽4-11-28","lat":35.6728103,"lon":139.8172242},{"name":"品川区","province":"東京都","city":"品川区","address":"品川区広町2-1-36","lat":35.6088372,"lon":139.7302417},{"name":"目黒区","province":"東京都","city":"目黒区","address":"目黒区上目黒2-19-15","lat":35.6412631,"lon":139.6985906},{"name":"大田区","province":"東京都","city":"大田区","address":"大田区蒲田5-13-14","lat":35.5615214,"lon":139.71611},{"name":"世田谷区","province":"東京都","city":"世田谷区","address":"世田谷区世田谷4-21-27","lat":35.6459694,"lon":139.6527697},{"name":"渋谷区","province":"東京都","city":"渋谷区","address":"渋谷区宇田川町1-1","lat":35.6639604,"lon":139.6980822},{"name":"中野区","province":"東京都","city":"中野区","address":"中野区中野4-8-1","lat":35.7072875,"lon":139.6638103},{"name":"杉並区","province":"東京都","city":"杉並区","address":"杉並区阿佐谷南1-15-1","lat":35.6998933,"lon":139.6363628},{"name":"豊島区","province":"東京都","city":"豊島区","address":"豊島区東池袋1-18-1","lat":35.73241337,"lon":139.715538},{"name":"北　区","province":"東京都","city":"北区","address":"北区王子本町1-15-22","lat":35.7531792,"lon":139.7339833},{"name":"荒川区","province":"東京都","city":"荒川区","address":"荒川区荒川2-2-3","lat":35.7360828,"lon":139.7833717},{"name":"板橋区","province":"東京都","city":"板橋区","address":"板橋区板橋2-66-1","lat":35.7509203,"lon":139.7091992},{"name":"練馬区","province":"東京都","city":"練馬区","address":"練馬区豊玉北6-12-1","lat":35.7355733,"lon":139.6516714},{"name":"足立区","province":"東京都","city":"足立区","address":"足立区中央本町1-17-1","lat":35.7748922,"lon":139.8045844},{"name":"葛飾区","province":"東京都","city":"葛飾区","address":"葛飾区立石5-13-1","lat":35.7429858,"lon":139.8474075},{"name":"江戸川区","province":"東京都","city":"江戸川区","address":"江戸川区中央1-4-1","lat":35.70667362,"lon":139.8686922},{"name":"八王子市","province":"東京都","city":"八王子市","address":"八王子市元本郷町3-24-1","lat":35.66657,"lon":139.316075},{"name":"立川市","province":"東京都","city":"立川市","address":"立川市泉町1156-9","lat":35.7140031,"lon":139.4078319},{"name":"武蔵野市","province":"東京都","city":"武蔵野市","address":"武蔵野市緑町2-2-28","lat":35.7178369,"lon":139.5659378},{"name":"三鷹市","province":"東京都","city":"三鷹市","address":"三鷹市野崎1-1-1","lat":35.68255956,"lon":139.5608228},{"name":"青梅市","province":"東京都","city":"青梅市","address":"青梅市東青梅1-11-1","lat":35.7878569,"lon":139.2758353},{"name":"府中市","province":"東京都","city":"府中市","address":"府中市宮西町2-24","lat":35.6690708,"lon":139.4772781},{"name":"昭島市","province":"東京都","city":"昭島市","address":"昭島市田中町1-17-1","lat":35.7057553,"lon":139.3536094},{"name":"調布市","province":"東京都","city":"調布市","address":"調布市小島町2-35-1","lat":35.6506283,"lon":139.5406825},{"name":"町田市","province":"東京都","city":"町田市","address":"町田市森野2-2-22","lat":35.5465589,"lon":139.4385269},{"name":"小金井市","province":"東京都","city":"小金井市","address":"小金井市本町6-6-3","lat":35.6994789,"lon":139.5029889},{"name":"小平市","province":"東京都","city":"小平市","address":"小平市小川町2-1333","lat":35.7284081,"lon":139.4779089},{"name":"日野市","province":"東京都","city":"日野市","address":"日野市神明1-12-1","lat":35.6705042,"lon":139.3955122},{"name":"東村山市","province":"東京都","city":"東村山市","address":"東村山市本町1-2-3","lat":35.7546244,"lon":139.4684836},{"name":"国分寺市","province":"東京都","city":"国分寺市","address":"国分寺市戸倉1-6-1","lat":35.7110208,"lon":139.4626078},{"name":"国立市","province":"東京都","city":"国立市","address":"国立市富士見台2-47-1","lat":35.6839125,"lon":139.4413664},{"name":"福生市","province":"東京都","city":"福生市","address":"福生市本町5","lat":35.7384839,"lon":139.3268683},{"name":"狛江市","province":"東京都","city":"狛江市","address":"狛江市和泉本町1-1-5","lat":35.6349142,"lon":139.5787353},{"name":"東大和市","province":"東京都","city":"東大和市","address":"東大和市中央3-930","lat":35.7447136,"lon":139.4270378},{"name":"清瀬市","province":"東京都","city":"清瀬市","address":"清瀬市中里5-842","lat":35.7860525,"lon":139.5263525},{"name":"東久留米市","province":"東京都","city":"東久留米市","address":"東久留米市本町3-3-1","lat":35.7579922,"lon":139.5296725},{"name":"武蔵村山市","province":"東京都","city":"武蔵村山市","address":"武蔵村山市本町1-1-1","lat":35.7549058,"lon":139.3874214},{"name":"多摩市","province":"東京都","city":"多摩市","address":"多摩市関戸6-12-1","lat":35.6377597,"lon":139.44689},{"name":"稲城市","province":"東京都","city":"稲城市","address":"稲城市東長沼2111","lat":35.63796,"lon":139.5042697},{"name":"羽村市","province":"東京都","city":"羽村市","address":"羽村市緑ヶ丘5-2-1","lat":35.7677658,"lon":139.3105383},{"name":"あきる野市","province":"東京都","city":"あきる野市","address":"あきる野市二宮350","lat":35.7291144,"lon":139.2935111},{"name":"西東京市","province":"東京都","city":"西東京市","address":"西東京市南町5-6-13","lat":35.7254989,"lon":139.5381592},{"name":"東京都建設局道路管理部　管理課指導担当","province":"東京都","city":"新宿区","address":"新宿区西新宿2-8-1","lat":35.6891847,"lon":139.6916481}]}