{"keyword":"行","data":[{"name":"青山公園","province":"東京都","city":"港区","address":"東京都港区六本木7丁目","lat":35.66430216,"lon":139.72949788},{"name":"赤塚公園","province":"東京都","city":"板橋区","address":"東京都板橋区高島平3丁目","lat":35.78697227,"lon":139.65815202},{"name":"井の頭恩賜公園","province":"東京都","city":"武蔵野市","address":"東京都武蔵野市御殿山1丁目","lat":35.7024494,"lon":139.57595665},{"name":"上野恩賜公園","province":"東京都","city":"台東区","address":"東京都台東区上野公園","lat":35.7181228,"lon":139.77786167},{"name":"宇喜田公園","province":"東京都","city":"江戸川区","address":"東京都江戸川区北葛西3丁目","lat":35.67537632,"lon":139.86113068},{"name":"浮間公園","province":"東京都","city":"板橋区","address":"東京都板橋区舟渡2丁目","lat":35.79576361,"lon":139.68796851},{"name":"大泉中央公園","province":"東京都","city":"練馬区","address":"東京都練馬区大泉学園町9丁目","lat":35.77746838,"lon":139.59096141},{"name":"大神山公園","province":"東京都","city":"小笠原村","address":"東京都小笠原村父島","lat":27.09474387,"lon":142.19321537},{"name":"大島小松川公園","province":"東京都","city":"江東区","address":"東京都江東区大島9丁目","lat":35.69317076,"lon":139.84506485},{"name":"大戸緑地?","province":"東京都","city":"町田市","address":"東京都町田市相原町","lat":35.61045709,"lon":139.32745076},{"name":"尾久の原公園","province":"東京都","city":"荒川区","address":"東京都荒川区東尾久7丁目","lat":35.75213275,"lon":139.77513791},{"name":"小山内裏公園","province":"東京都","city":"町田市","address":"東京都町田市小山ヶ丘4丁目","lat":35.60768028,"lon":139.35214598},{"name":"小山田緑地","province":"東京都","city":"町田市","address":"東京都町田市下小山田町","lat":35.59351652,"lon":139.40952508}]}