{"keyword":"基地","data":[{"name":"京浜トラックターミナル","province":"東京都","city":"大田区","address":"東京都大田区平和島2丁目1-1","lat":35.58746451,"lon":139.74376358},{"name":"板橋トラックターミナル","province":"東京都","city":"板橋区","address":"東京都板橋区高島平6丁目1-1","lat":35.79228232,"lon":139.64660566},{"name":"足立トラックターミナル","province":"東京都","city":"足立区","address":"東京都足立区入谷6丁目1-1","lat":35.79902128,"lon":139.7665504},{"name":"葛西トラックターミナル","province":"東京都","city":"江戸川区","address":"東京都江戸川区臨海町4丁目3-1","lat":35.64589396,"lon":139.86608413},{"name":"大井食品ふ頭","province":"東京都","city":"大田区","address":"東京都大田区東海5丁目","lat":35.59230672,"lon":139.77290296},{"name":"芝浦ふ頭","province":"東京都","city":"港区","address":"東京都港区海岸3丁目","lat":35.64538548,"lon":139.75711002},{"name":"辰巳ふ頭","province":"東京都","city":"江東区","address":"東京都江東区辰巳3丁目","lat":35.64358463,"lon":139.81926852},{"name":"１０号地その１多目的ふ頭","province":"東京都","city":"江東区","address":"東京都江東区有明3丁目","lat":35.63159354,"lon":139.78818561},{"name":"品川ふ頭","province":"東京都","city":"港区","address":"東京都港区港南5丁目","lat":35.62511297,"lon":139.75680258},{"name":"大井コンテナふ頭","province":"東京都","city":"品川区","address":"東京都品川区八潮2丁目","lat":35.59506725,"lon":139.76759209},{"name":"晴海ふ頭","province":"東京都","city":"中央区","address":"東京都中央区晴海2丁目","lat":35.6549074,"lon":139.78393517},{"name":"竹芝ふ頭","province":"東京都","city":"港区","address":"東京都港区海岸1丁目","lat":35.65311254,"lon":139.76222323},{"name":"１０号地ふ頭（フェリーふ頭含む）","province":"東京都","city":"江東区","address":"東京都江東区有明4丁目","lat":35.62489723,"lon":139.78831375},{"name":"青海コンテナふ頭","province":"東京都","city":"江東区","address":"東京都江東区青海2丁目","lat":35.61733141,"lon":139.78018715},{"name":"１５号地ふ頭","province":"東京都","city":"江東区","address":"東京都江東区若洲","lat":35.62564563,"lon":139.83287114},{"name":"日の出ふ頭","province":"東京都","city":"港区","address":"東京都港区海岸2丁目","lat":35.65130158,"lon":139.76054565},{"name":"東京国際空港（羽田飛行場）","province":"東京都","city":"大田区","address":"東京都大田区羽田空港","lat":35.55306458,"lon":139.75430976},{"name":"東京へリポート","province":"東京都","city":"江東区","address":"東京都江東区新木場4丁目","lat":35.63819696,"lon":139.83789509},{"name":"品川ふ頭","province":"東京都","city":"港区","address":"東京都港区港南5丁目","lat":35.62511297,"lon":139.75680258},{"name":"品川ふ頭","province":"東京都","city":"品川区","address":"東京都品川区東品川5丁目","lat":35.62216053,"lon":139.75607776},{"name":"東京空港事務所","province":"東京都","city":"大田区","address":"東京都大田区羽田空港3丁目3-1","lat":35.55367361,"lon":139.78221286},{"name":"東京都調布飛行場","province":"東京都","city":"調布市","address":"東京都調布市西町290-3","lat":35.66754795,"lon":139.52569635},{"name":"東京都東京へリポート","province":"東京都","city":"江東区","address":"東京都江東区新木場4丁目7-28","lat":35.63601945,"lon":139.83727026},{"name":"品川自動車営業所","province":"東京都","city":"品川区","address":"東京都品川区北品川1丁目5-12","lat":35.62329323,"lon":139.74073729},{"name":"渋谷自動車営業所","province":"東京都","city":"渋谷区","address":"東京都渋谷区東2丁目25-36","lat":35.65310297,"lon":139.70793916},{"name":"小滝橋自動車営業所","province":"東京都","city":"中野区","address":"東京都中野区東中野5丁目30-2","lat":35.71036835,"lon":139.6935159},{"name":"早稲田自動車営業所","province":"東京都","city":"新宿区","address":"東京都新宿区西早稲田1丁目9-23","lat":35.71076351,"lon":139.72072463},{"name":"巣鴨自動車営業所","province":"東京都","city":"豊島区","address":"東京都豊島区巣鴨2丁目9-8","lat":35.73489175,"lon":139.73797779},{"name":"北自動車営業所","province":"東京都","city":"北区","address":"東京都北区神谷3丁目10-6","lat":35.77498417,"lon":139.73411814},{"name":"千住自動車営業所","province":"東京都","city":"足立区","address":"東京都足立区梅田2丁目3-11","lat":35.76548737,"lon":139.80257925},{"name":"南千住自動車営業所","province":"東京都","city":"荒川区","address":"東京都荒川区南千住2丁目33-1","lat":35.73093565,"lon":139.79789534},{"name":"江東自動車営業所","province":"東京都","city":"墨田区","address":"東京都墨田区江東橋4丁目30-10","lat":35.69657791,"lon":139.81804585},{"name":"深川自動車営業所","province":"東京都","city":"江東区","address":"東京都江東区東雲2丁目7-41","lat":35.64384805,"lon":139.80266718},{"name":"東京都トラック総合会館","province":"東京都","city":"新宿区","address":"東京都新宿区四谷3丁目1-8","lat":35.68777442,"lon":139.72233092},{"name":"（一社）東京都トラック協会緊急輸送センター","province":"東京都","city":"江戸川区","address":"東京都江戸川区臨海町3丁目1-1","lat":35.651971,"lon":139.86463677}]}