{"keyword":"男女","data":[{"name":"NewWork横浜鶴屋町","province":"神奈川県","city":"横浜市神奈川区","address":"神奈川県横浜市神奈川区鶴屋町2丁目17","lat":35.46823768,"lon":139.62222911},{"name":"NewWork横浜鶴屋町","province":"神奈川県","city":"横浜市神奈川区","address":"神奈川県横浜市神奈川区鶴屋町2丁目17","lat":35.46823768,"lon":139.62222911},{"name":"NewWork横浜鶴屋町","province":"神奈川県","city":"横浜市神奈川区","address":"神奈川県横浜市神奈川区鶴屋町2丁目17","lat":35.46823768,"lon":139.62222911},{"name":"NewWork横浜鶴屋町","province":"神奈川県","city":"横浜市神奈川区","address":"神奈川県横浜市神奈川区鶴屋町2丁目17","lat":35.46823768,"lon":139.62222911},{"name":"NewWork横浜鶴屋町","province":"神奈川県","city":"横浜市神奈川区","address":"神奈川県横浜市神奈川区鶴屋町2丁目17","lat":35.46823768,"lon":139.62222911},{"name":"NewWork横浜鶴屋町","province":"神奈川県","city":"横浜市神奈川区","address":"神奈川県横浜市神奈川区鶴屋町2丁目17","lat":35.46823768,"lon":139.62222911},{"name":"NewWork横浜鶴屋町","province":"神奈川県","city":"横浜市神奈川区","address":"神奈川県横浜市神奈川区鶴屋町2丁目17","lat":35.46823768,"lon":139.62222911},{"name":"NewWork横浜鶴屋町","province":"神奈川県","city":"横浜市神奈川区","address":"神奈川県横浜市神奈川区鶴屋町2丁目17","lat":35.46823768,"lon":139.62222911},{"name":"NewWork横浜鶴屋町","province":"神奈川県","city":"横浜市神奈川区","address":"神奈川県横浜市神奈川区鶴屋町2丁目17","lat":35.46823768,"lon":139.62222911},{"name":"NewWork横浜鶴屋町","province":"神奈川県","city":"横浜市神奈川区","address":"神奈川県横浜市神奈川区鶴屋町2丁目17","lat":35.46823768,"lon":139.62222911},{"name":"NewWork横浜鶴屋町","province":"神奈川県","city":"横浜市神奈川区","address":"神奈川県横浜市神奈川区鶴屋町2丁目17","lat":35.46823768,"lon":139.62222911},{"name":"NewWork横浜鶴屋町","province":"神奈川県","city":"横浜市神奈川区","address":"神奈川県横浜市神奈川区鶴屋町2丁目17","lat":35.46823768,"lon":139.62222911},{"name":"NewWork横浜鶴屋町","province":"神奈川県","city":"横浜市神奈川区","address":"神奈川県横浜市神奈川区鶴屋町2丁目17","lat":35.46823768,"lon":139.62222911},{"name":"NewWork横浜鶴屋町","province":"神奈川県","city":"横浜市神奈川区","address":"神奈川県横浜市神奈川区鶴屋町2丁目17","lat":35.46823768,"lon":139.62222911},{"name":"NewWork横浜鶴屋町","province":"神奈川県","city":"横浜市神奈川区","address":"神奈川県横浜市神奈川区鶴屋町2丁目17","lat":35.46823768,"lon":139.62222911},{"name":"NewWork横浜鶴屋町","province":"神奈川県","city":"横浜市神奈川区","address":"神奈川県横浜市神奈川区鶴屋町2丁目17","lat":35.46823768,"lon":139.62222911},{"name":"NewWork横浜鶴屋町","province":"神奈川県","city":"横浜市神奈川区","address":"神奈川県横浜市神奈川区鶴屋町2丁目17","lat":35.46823768,"lon":139.62222911},{"name":"NewWork横浜鶴屋町","province":"神奈川県","city":"横浜市神奈川区","address":"神奈川県横浜市神奈川区鶴屋町2丁目17","lat":35.46823768,"lon":139.62222911},{"name":"NewWork横浜鶴屋町","province":"神奈川県","city":"横浜市神奈川区","address":"神奈川県横浜市神奈川区鶴屋町2丁目17","lat":35.46823768,"lon":139.62222911},{"name":"NewWork横浜鶴屋町","province":"神奈川県","city":"横浜市神奈川区","address":"神奈川県横浜市神奈川区鶴屋町2丁目17","lat":35.46823768,"lon":139.62222911},{"name":"NewWork横浜鶴屋町","province":"神奈川県","city":"横浜市神奈川区","address":"神奈川県横浜市神奈川区鶴屋町2丁目17","lat":35.46823768,"lon":139.62222911},{"name":"NewWork横浜鶴屋町","province":"神奈川県","city":"横浜市神奈川区","address":"神奈川県横浜市神奈川区鶴屋町2丁目17","lat":35.46823768,"lon":139.62222911},{"name":"NewWork横浜鶴屋町","province":"神奈川県","city":"横浜市神奈川区","address":"神奈川県横浜市神奈川区鶴屋町2丁目17","lat":35.46823768,"lon":139.62222911}]}