行,電話番号,名称,住所,郵便番号,関連ホームページ,緯度,経度
1,03-3969-3721,板橋東清掃事務所,板橋区東坂下2-20-9,1740042,http://www.city.itabashi.tokyo.jp/c_sections/e-seiso/,35.78780844,139.6852439
2,03-3936-7441,板橋西清掃事務所,板橋区徳丸1-16-1,1750083,http://www.city.itabashi.tokyo.jp/c_sections/w-seiso/,35.76920113,139.6666615
3,03-3966-9401,志村清掃事業所,板橋区東坂下2-7-16,1740042,,35.78541632,139.6894598
4,03-3579-1178,南部公園事務所,板橋区板橋3-50-1,1730004,http://www.city.itabashi.tokyo.jp/c_sections/midori/index.html,35.75373603,139.7133999
5,03-5398-7333,北部公園事務所,板橋区高島平8-24-1,1750082,http://www.city.itabashi.tokyo.jp/c_sections/midori/index.html,35.79146998,139.6613288
6,03-3935-2652,西台粗大ごみセンター,板橋区西台2-39-11,1750045,,35.78118566,139.6657931
