{"keyword":"医薬","data":[{"name":"中仙川児童公園","province":"福岡県","city":"北九州市八幡西区","address":"福岡県北九州市八幡西区中の原2丁目8-14","lat":33.83069865,"lon":130.75090301},{"name":"中原さつき児童遊園","province":"福岡県","city":"北九州市八幡西区","address":"福岡県北九州市八幡西区中の原3丁目1-26","lat":33.83340111,"lon":130.75038075},{"name":"中原高架下児童遊園","province":"福岡県","city":"北九州市八幡西区","address":"福岡県北九州市八幡西区中の原3丁目3-1","lat":33.83297615,"lon":130.7501169},{"name":"中原一丁目５番緑地","province":"福岡県","city":"北九州市八幡西区","address":"福岡県北九州市八幡西区中の原1丁目5-4","lat":33.8319652,"lon":130.7525556},{"name":"中原三丁目９番緑地（Ｌガーデン）","province":"福岡県","city":"北九州市八幡西区","address":"福岡県北九州市八幡西区中の原3丁目9-22","lat":33.83288724,"lon":130.7486587},{"name":"中仙川児童公園","province":"福岡県","city":"北九州市八幡西区","address":"福岡県北九州市八幡西区中の原2丁目8-14","lat":33.83069865,"lon":130.75090301},{"name":"中原さつき児童遊園","province":"福岡県","city":"北九州市八幡西区","address":"福岡県北九州市八幡西区中の原3丁目1-26","lat":33.83340111,"lon":130.75038075},{"name":"中原高架下児童遊園","province":"福岡県","city":"北九州市八幡西区","address":"福岡県北九州市八幡西区中の原3丁目3-1","lat":33.83297615,"lon":130.7501169},{"name":"中原一丁目５番緑地","province":"福岡県","city":"北九州市八幡西区","address":"福岡県北九州市八幡西区中の原1丁目5-4","lat":33.8319652,"lon":130.7525556},{"name":"中原三丁目９番緑地（Ｌガーデン）","province":"福岡県","city":"北九州市八幡西区","address":"福岡県北九州市八幡西区中の原3丁目9-22","lat":33.83288724,"lon":130.7486587},{"name":"中仙川児童公園","province":"福岡県","city":"北九州市八幡西区","address":"福岡県北九州市八幡西区中の原2丁目8-14","lat":33.83069865,"lon":130.75090301},{"name":"中原さつき児童遊園","province":"福岡県","city":"北九州市八幡西区","address":"福岡県北九州市八幡西区中の原3丁目1-26","lat":33.83340111,"lon":130.75038075},{"name":"中原高架下児童遊園","province":"福岡県","city":"北九州市八幡西区","address":"福岡県北九州市八幡西区中の原3丁目3-1","lat":33.83297615,"lon":130.7501169},{"name":"中原一丁目５番緑地","province":"福岡県","city":"北九州市八幡西区","address":"福岡県北九州市八幡西区中の原1丁目5-4","lat":33.8319652,"lon":130.7525556},{"name":"中原三丁目９番緑地（Ｌガーデン）","province":"福岡県","city":"北九州市八幡西区","address":"福岡県北九州市八幡西区中の原3丁目9-22","lat":33.83288724,"lon":130.7486587},{"name":"中仙川児童公園","province":"福岡県","city":"北九州市八幡西区","address":"福岡県北九州市八幡西区中の原2丁目8-14","lat":33.83069865,"lon":130.75090301},{"name":"中原さつき児童遊園","province":"福岡県","city":"北九州市八幡西区","address":"福岡県北九州市八幡西区中の原3丁目1-26","lat":33.83340111,"lon":130.75038075},{"name":"中原高架下児童遊園","province":"福岡県","city":"北九州市八幡西区","address":"福岡県北九州市八幡西区中の原3丁目3-1","lat":33.83297615,"lon":130.7501169},{"name":"中原一丁目５番緑地","province":"福岡県","city":"北九州市八幡西区","address":"福岡県北九州市八幡西区中の原1丁目5-4","lat":33.8319652,"lon":130.7525556},{"name":"中原三丁目９番緑地（Ｌガーデン）","province":"福岡県","city":"北九州市八幡西区","address":"福岡県北九州市八幡西区中の原3丁目9-22","lat":33.83288724,"lon":130.7486587},{"name":"中仙川児童公園","province":"福岡県","city":"北九州市八幡西区","address":"福岡県北九州市八幡西区中の原2丁目8-14","lat":33.83069865,"lon":130.75090301},{"name":"中原さつき児童遊園","province":"福岡県","city":"北九州市八幡西区","address":"福岡県北九州市八幡西区中の原3丁目1-26","lat":33.83340111,"lon":130.75038075},{"name":"中原高架下児童遊園","province":"福岡県","city":"北九州市八幡西区","address":"福岡県北九州市八幡西区中の原3丁目3-1","lat":33.83297615,"lon":130.7501169},{"name":"中原一丁目５番緑地","province":"福岡県","city":"北九州市八幡西区","address":"福岡県北九州市八幡西区中の原1丁目5-4","lat":33.8319652,"lon":130.7525556},{"name":"中原三丁目９番緑地（Ｌガーデン）","province":"福岡県","city":"北九州市八幡西区","address":"福岡県北九州市八幡西区中の原3丁目9-22","lat":33.83288724,"lon":130.7486587},{"name":"中仙川児童公園","province":"福岡県","city":"北九州市八幡西区","address":"福岡県北九州市八幡西区中の原2丁目8-14","lat":33.83069865,"lon":130.75090301},{"name":"中原さつき児童遊園","province":"福岡県","city":"北九州市八幡西区","address":"福岡県北九州市八幡西区中の原3丁目1-26","lat":33.83340111,"lon":130.75038075},{"name":"中原高架下児童遊園","province":"福岡県","city":"北九州市八幡西区","address":"福岡県北九州市八幡西区中の原3丁目3-1","lat":33.83297615,"lon":130.7501169},{"name":"中原一丁目５番緑地","province":"福岡県","city":"北九州市八幡西区","address":"福岡県北九州市八幡西区中の原1丁目5-4","lat":33.8319652,"lon":130.7525556},{"name":"中原三丁目９番緑地（Ｌガーデン）","province":"福岡県","city":"北九州市八幡西区","address":"福岡県北九州市八幡西区中の原3丁目9-22","lat":33.83288724,"lon":130.7486587},{"name":"中仙川児童公園","province":"福岡県","city":"北九州市八幡西区","address":"福岡県北九州市八幡西区中の原2丁目8-14","lat":33.83069865,"lon":130.75090301},{"name":"中原さつき児童遊園","province":"福岡県","city":"北九州市八幡西区","address":"福岡県北九州市八幡西区中の原3丁目1-26","lat":33.83340111,"lon":130.75038075},{"name":"中原高架下児童遊園","province":"福岡県","city":"北九州市八幡西区","address":"福岡県北九州市八幡西区中の原3丁目3-1","lat":33.83297615,"lon":130.7501169},{"name":"中原一丁目５番緑地","province":"福岡県","city":"北九州市八幡西区","address":"福岡県北九州市八幡西区中の原1丁目5-4","lat":33.8319652,"lon":130.7525556},{"name":"中原三丁目９番緑地（Ｌガーデン）","province":"福岡県","city":"北九州市八幡西区","address":"福岡県北九州市八幡西区中の原3丁目9-22","lat":33.83288724,"lon":130.7486587},{"name":"中仙川児童公園","province":"福岡県","city":"北九州市八幡西区","address":"福岡県北九州市八幡西区中の原2丁目8-14","lat":33.83069865,"lon":130.75090301},{"name":"中原さつき児童遊園","province":"福岡県","city":"北九州市八幡西区","address":"福岡県北九州市八幡西区中の原3丁目1-26","lat":33.83340111,"lon":130.75038075},{"name":"中原高架下児童遊園","province":"福岡県","city":"北九州市八幡西区","address":"福岡県北九州市八幡西区中の原3丁目3-1","lat":33.83297615,"lon":130.7501169},{"name":"中原一丁目５番緑地","province":"福岡県","city":"北九州市八幡西区","address":"福岡県北九州市八幡西区中の原1丁目5-4","lat":33.8319652,"lon":130.7525556},{"name":"中原三丁目９番緑地（Ｌガーデン）","province":"福岡県","city":"北九州市八幡西区","address":"福岡県北九州市八幡西区中の原3丁目9-22","lat":33.83288724,"lon":130.7486587},{"name":"中仙川児童公園","province":"福岡県","city":"北九州市八幡西区","address":"福岡県北九州市八幡西区中の原2丁目8-14","lat":33.83069865,"lon":130.75090301},{"name":"中原さつき児童遊園","province":"福岡県","city":"北九州市八幡西区","address":"福岡県北九州市八幡西区中の原3丁目1-26","lat":33.83340111,"lon":130.75038075},{"name":"中原高架下児童遊園","province":"福岡県","city":"北九州市八幡西区","address":"福岡県北九州市八幡西区中の原3丁目3-1","lat":33.83297615,"lon":130.7501169},{"name":"中原一丁目５番緑地","province":"福岡県","city":"北九州市八幡西区","address":"福岡県北九州市八幡西区中の原1丁目5-4","lat":33.8319652,"lon":130.7525556},{"name":"中原三丁目９番緑地（Ｌガーデン）","province":"福岡県","city":"北九州市八幡西区","address":"福岡県北九州市八幡西区中の原3丁目9-22","lat":33.83288724,"lon":130.7486587},{"name":"中仙川児童公園","province":"福岡県","city":"北九州市八幡西区","address":"福岡県北九州市八幡西区中の原2丁目8-14","lat":33.83069865,"lon":130.75090301},{"name":"中原さつき児童遊園","province":"福岡県","city":"北九州市八幡西区","address":"福岡県北九州市八幡西区中の原3丁目1-26","lat":33.83340111,"lon":130.75038075},{"name":"中原高架下児童遊園","province":"福岡県","city":"北九州市八幡西区","address":"福岡県北九州市八幡西区中の原3丁目3-1","lat":33.83297615,"lon":130.7501169},{"name":"中原一丁目５番緑地","province":"福岡県","city":"北九州市八幡西区","address":"福岡県北九州市八幡西区中の原1丁目5-4","lat":33.8319652,"lon":130.7525556},{"name":"中原三丁目９番緑地（Ｌガーデン）","province":"福岡県","city":"北九州市八幡西区","address":"福岡県北九州市八幡西区中の原3丁目9-22","lat":33.83288724,"lon":130.7486587},{"name":"中仙川児童公園","province":"福岡県","city":"北九州市八幡西区","address":"福岡県北九州市八幡西区中の原2丁目8-14","lat":33.83069865,"lon":130.75090301},{"name":"中原さつき児童遊園","province":"福岡県","city":"北九州市八幡西区","address":"福岡県北九州市八幡西区中の原3丁目1-26","lat":33.83340111,"lon":130.75038075},{"name":"中原高架下児童遊園","province":"福岡県","city":"北九州市八幡西区","address":"福岡県北九州市八幡西区中の原3丁目3-1","lat":33.83297615,"lon":130.7501169},{"name":"中原一丁目５番緑地","province":"福岡県","city":"北九州市八幡西区","address":"福岡県北九州市八幡西区中の原1丁目5-4","lat":33.8319652,"lon":130.7525556},{"name":"中原三丁目９番緑地（Ｌガーデン）","province":"福岡県","city":"北九州市八幡西区","address":"福岡県北九州市八幡西区中の原3丁目9-22","lat":33.83288724,"lon":130.7486587},{"name":"中仙川児童公園","province":"福岡県","city":"北九州市八幡西区","address":"福岡県北九州市八幡西区中の原2丁目8-14","lat":33.83069865,"lon":130.75090301},{"name":"中原さつき児童遊園","province":"福岡県","city":"北九州市八幡西区","address":"福岡県北九州市八幡西区中の原3丁目1-26","lat":33.83340111,"lon":130.75038075},{"name":"中原高架下児童遊園","province":"福岡県","city":"北九州市八幡西区","address":"福岡県北九州市八幡西区中の原3丁目3-1","lat":33.83297615,"lon":130.7501169},{"name":"中原一丁目５番緑地","province":"福岡県","city":"北九州市八幡西区","address":"福岡県北九州市八幡西区中の原1丁目5-4","lat":33.8319652,"lon":130.7525556},{"name":"中原三丁目９番緑地（Ｌガーデン）","province":"福岡県","city":"北九州市八幡西区","address":"福岡県北九州市八幡西区中の原3丁目9-22","lat":33.83288724,"lon":130.7486587},{"name":"中仙川児童公園","province":"福岡県","city":"北九州市八幡西区","address":"福岡県北九州市八幡西区中の原2丁目8-14","lat":33.83069865,"lon":130.75090301},{"name":"中原さつき児童遊園","province":"福岡県","city":"北九州市八幡西区","address":"福岡県北九州市八幡西区中の原3丁目1-26","lat":33.83340111,"lon":130.75038075},{"name":"中原高架下児童遊園","province":"福岡県","city":"北九州市八幡西区","address":"福岡県北九州市八幡西区中の原3丁目3-1","lat":33.83297615,"lon":130.7501169},{"name":"中原一丁目５番緑地","province":"福岡県","city":"北九州市八幡西区","address":"福岡県北九州市八幡西区中の原1丁目5-4","lat":33.8319652,"lon":130.7525556},{"name":"中原三丁目９番緑地（Ｌガーデン）","province":"福岡県","city":"北九州市八幡西区","address":"福岡県北九州市八幡西区中の原3丁目9-22","lat":33.83288724,"lon":130.7486587},{"name":"中仙川児童公園","province":"福岡県","city":"北九州市八幡西区","address":"福岡県北九州市八幡西区中の原2丁目8-14","lat":33.83069865,"lon":130.75090301},{"name":"中原さつき児童遊園","province":"福岡県","city":"北九州市八幡西区","address":"福岡県北九州市八幡西区中の原3丁目1-26","lat":33.83340111,"lon":130.75038075},{"name":"中原高架下児童遊園","province":"福岡県","city":"北九州市八幡西区","address":"福岡県北九州市八幡西区中の原3丁目3-1","lat":33.83297615,"lon":130.7501169},{"name":"中原一丁目５番緑地","province":"福岡県","city":"北九州市八幡西区","address":"福岡県北九州市八幡西区中の原1丁目5-4","lat":33.8319652,"lon":130.7525556},{"name":"中原三丁目９番緑地（Ｌガーデン）","province":"福岡県","city":"北九州市八幡西区","address":"福岡県北九州市八幡西区中の原3丁目9-22","lat":33.83288724,"lon":130.7486587},{"name":"中仙川児童公園","province":"福岡県","city":"北九州市八幡西区","address":"福岡県北九州市八幡西区中の原2丁目8-14","lat":33.83069865,"lon":130.75090301},{"name":"中原さつき児童遊園","province":"福岡県","city":"北九州市八幡西区","address":"福岡県北九州市八幡西区中の原3丁目1-26","lat":33.83340111,"lon":130.75038075},{"name":"中原高架下児童遊園","province":"福岡県","city":"北九州市八幡西区","address":"福岡県北九州市八幡西区中の原3丁目3-1","lat":33.83297615,"lon":130.7501169},{"name":"中原一丁目５番緑地","province":"福岡県","city":"北九州市八幡西区","address":"福岡県北九州市八幡西区中の原1丁目5-4","lat":33.8319652,"lon":130.7525556},{"name":"中原三丁目９番緑地（Ｌガーデン）","province":"福岡県","city":"北九州市八幡西区","address":"福岡県北九州市八幡西区中の原3丁目9-22","lat":33.83288724,"lon":130.7486587},{"name":"中仙川児童公園","province":"福岡県","city":"北九州市八幡西区","address":"福岡県北九州市八幡西区中の原2丁目8-14","lat":33.83069865,"lon":130.75090301},{"name":"中原さつき児童遊園","province":"福岡県","city":"北九州市八幡西区","address":"福岡県北九州市八幡西区中の原3丁目1-26","lat":33.83340111,"lon":130.75038075},{"name":"中原高架下児童遊園","province":"福岡県","city":"北九州市八幡西区","address":"福岡県北九州市八幡西区中の原3丁目3-1","lat":33.83297615,"lon":130.7501169},{"name":"中原一丁目５番緑地","province":"福岡県","city":"北九州市八幡西区","address":"福岡県北九州市八幡西区中の原1丁目5-4","lat":33.8319652,"lon":130.7525556},{"name":"中原三丁目９番緑地（Ｌガーデン）","province":"福岡県","city":"北九州市八幡西区","address":"福岡県北九州市八幡西区中の原3丁目9-22","lat":33.83288724,"lon":130.7486587},{"name":"中仙川児童公園","province":"福岡県","city":"北九州市八幡西区","address":"福岡県北九州市八幡西区中の原2丁目8-14","lat":33.83069865,"lon":130.75090301},{"name":"中原さつき児童遊園","province":"福岡県","city":"北九州市八幡西区","address":"福岡県北九州市八幡西区中の原3丁目1-26","lat":33.83340111,"lon":130.75038075},{"name":"中原高架下児童遊園","province":"福岡県","city":"北九州市八幡西区","address":"福岡県北九州市八幡西区中の原3丁目3-1","lat":33.83297615,"lon":130.7501169},{"name":"中原一丁目５番緑地","province":"福岡県","city":"北九州市八幡西区","address":"福岡県北九州市八幡西区中の原1丁目5-4","lat":33.8319652,"lon":130.7525556},{"name":"中原三丁目９番緑地（Ｌガーデン）","province":"福岡県","city":"北九州市八幡西区","address":"福岡県北九州市八幡西区中の原3丁目9-22","lat":33.83288724,"lon":130.7486587},{"name":"中仙川児童公園","province":"福岡県","city":"北九州市八幡西区","address":"福岡県北九州市八幡西区中の原2丁目8-14","lat":33.83069865,"lon":130.75090301},{"name":"中原さつき児童遊園","province":"福岡県","city":"北九州市八幡西区","address":"福岡県北九州市八幡西区中の原3丁目1-26","lat":33.83340111,"lon":130.75038075},{"name":"中原高架下児童遊園","province":"福岡県","city":"北九州市八幡西区","address":"福岡県北九州市八幡西区中の原3丁目3-1","lat":33.83297615,"lon":130.7501169},{"name":"中原一丁目５番緑地","province":"福岡県","city":"北九州市八幡西区","address":"福岡県北九州市八幡西区中の原1丁目5-4","lat":33.8319652,"lon":130.7525556},{"name":"中原三丁目９番緑地（Ｌガーデン）","province":"福岡県","city":"北九州市八幡西区","address":"福岡県北九州市八幡西区中の原3丁目9-22","lat":33.83288724,"lon":130.7486587},{"name":"中仙川児童公園","province":"福岡県","city":"北九州市八幡西区","address":"福岡県北九州市八幡西区中の原2丁目8-14","lat":33.83069865,"lon":130.75090301},{"name":"中原さつき児童遊園","province":"福岡県","city":"北九州市八幡西区","address":"福岡県北九州市八幡西区中の原3丁目1-26","lat":33.83340111,"lon":130.75038075},{"name":"中原高架下児童遊園","province":"福岡県","city":"北九州市八幡西区","address":"福岡県北九州市八幡西区中の原3丁目3-1","lat":33.83297615,"lon":130.7501169},{"name":"中原一丁目５番緑地","province":"福岡県","city":"北九州市八幡西区","address":"福岡県北九州市八幡西区中の原1丁目5-4","lat":33.8319652,"lon":130.7525556},{"name":"中原三丁目９番緑地（Ｌガーデン）","province":"福岡県","city":"北九州市八幡西区","address":"福岡県北九州市八幡西区中の原3丁目9-22","lat":33.83288724,"lon":130.7486587},{"name":"中仙川児童公園","province":"福岡県","city":"北九州市八幡西区","address":"福岡県北九州市八幡西区中の原2丁目8-14","lat":33.83069865,"lon":130.75090301},{"name":"中原さつき児童遊園","province":"福岡県","city":"北九州市八幡西区","address":"福岡県北九州市八幡西区中の原3丁目1-26","lat":33.83340111,"lon":130.75038075},{"name":"中原高架下児童遊園","province":"福岡県","city":"北九州市八幡西区","address":"福岡県北九州市八幡西区中の原3丁目3-1","lat":33.83297615,"lon":130.7501169},{"name":"中原一丁目５番緑地","province":"福岡県","city":"北九州市八幡西区","address":"福岡県北九州市八幡西区中の原1丁目5-4","lat":33.8319652,"lon":130.7525556},{"name":"中原三丁目９番緑地（Ｌガーデン）","province":"福岡県","city":"北九州市八幡西区","address":"福岡県北九州市八幡西区中の原3丁目9-22","lat":33.83288724,"lon":130.7486587},{"name":"中仙川児童公園","province":"福岡県","city":"北九州市八幡西区","address":"福岡県北九州市八幡西区中の原2丁目8-14","lat":33.83069865,"lon":130.75090301},{"name":"中原さつき児童遊園","province":"福岡県","city":"北九州市八幡西区","address":"福岡県北九州市八幡西区中の原3丁目1-26","lat":33.83340111,"lon":130.75038075},{"name":"中原高架下児童遊園","province":"福岡県","city":"北九州市八幡西区","address":"福岡県北九州市八幡西区中の原3丁目3-1","lat":33.83297615,"lon":130.7501169},{"name":"中原一丁目５番緑地","province":"福岡県","city":"北九州市八幡西区","address":"福岡県北九州市八幡西区中の原1丁目5-4","lat":33.8319652,"lon":130.7525556},{"name":"中原三丁目９番緑地（Ｌガーデン）","province":"福岡県","city":"北九州市八幡西区","address":"福岡県北九州市八幡西区中の原3丁目9-22","lat":33.83288724,"lon":130.7486587},{"name":"中仙川児童公園","province":"福岡県","city":"北九州市八幡西区","address":"福岡県北九州市八幡西区中の原2丁目8-14","lat":33.83069865,"lon":130.75090301},{"name":"中原さつき児童遊園","province":"福岡県","city":"北九州市八幡西区","address":"福岡県北九州市八幡西区中の原3丁目1-26","lat":33.83340111,"lon":130.75038075},{"name":"中原高架下児童遊園","province":"福岡県","city":"北九州市八幡西区","address":"福岡県北九州市八幡西区中の原3丁目3-1","lat":33.83297615,"lon":130.7501169},{"name":"中原一丁目５番緑地","province":"福岡県","city":"北九州市八幡西区","address":"福岡県北九州市八幡西区中の原1丁目5-4","lat":33.8319652,"lon":130.7525556},{"name":"中原三丁目９番緑地（Ｌガーデン）","province":"福岡県","city":"北九州市八幡西区","address":"福岡県北九州市八幡西区中の原3丁目9-22","lat":33.83288724,"lon":130.7486587},{"name":"中仙川児童公園","province":"福岡県","city":"北九州市八幡西区","address":"福岡県北九州市八幡西区中の原2丁目8-14","lat":33.83069865,"lon":130.75090301},{"name":"中原さつき児童遊園","province":"福岡県","city":"北九州市八幡西区","address":"福岡県北九州市八幡西区中の原3丁目1-26","lat":33.83340111,"lon":130.75038075},{"name":"中原高架下児童遊園","province":"福岡県","city":"北九州市八幡西区","address":"福岡県北九州市八幡西区中の原3丁目3-1","lat":33.83297615,"lon":130.7501169},{"name":"中原一丁目５番緑地","province":"福岡県","city":"北九州市八幡西区","address":"福岡県北九州市八幡西区中の原1丁目5-4","lat":33.8319652,"lon":130.7525556},{"name":"中原三丁目９番緑地（Ｌガーデン）","province":"福岡県","city":"北九州市八幡西区","address":"福岡県北九州市八幡西区中の原3丁目9-22","lat":33.83288724,"lon":130.7486587},{"name":"中仙川児童公園","province":"福岡県","city":"北九州市八幡西区","address":"福岡県北九州市八幡西区中の原2丁目8-14","lat":33.83069865,"lon":130.75090301},{"name":"中原さつき児童遊園","province":"福岡県","city":"北九州市八幡西区","address":"福岡県北九州市八幡西区中の原3丁目1-26","lat":33.83340111,"lon":130.75038075},{"name":"中原高架下児童遊園","province":"福岡県","city":"北九州市八幡西区","address":"福岡県北九州市八幡西区中の原3丁目3-1","lat":33.83297615,"lon":130.7501169},{"name":"中原一丁目５番緑地","province":"福岡県","city":"北九州市八幡西区","address":"福岡県北九州市八幡西区中の原1丁目5-4","lat":33.8319652,"lon":130.7525556},{"name":"中原三丁目９番緑地（Ｌガーデン）","province":"福岡県","city":"北九州市八幡西区","address":"福岡県北九州市八幡西区中の原3丁目9-22","lat":33.83288724,"lon":130.7486587},{"name":"中仙川児童公園","province":"福岡県","city":"北九州市八幡西区","address":"福岡県北九州市八幡西区中の原2丁目8-14","lat":33.83069865,"lon":130.75090301},{"name":"中原さつき児童遊園","province":"福岡県","city":"北九州市八幡西区","address":"福岡県北九州市八幡西区中の原3丁目1-26","lat":33.83340111,"lon":130.75038075},{"name":"中原高架下児童遊園","province":"福岡県","city":"北九州市八幡西区","address":"福岡県北九州市八幡西区中の原3丁目3-1","lat":33.83297615,"lon":130.7501169},{"name":"中原一丁目５番緑地","province":"福岡県","city":"北九州市八幡西区","address":"福岡県北九州市八幡西区中の原1丁目5-4","lat":33.8319652,"lon":130.7525556},{"name":"中原三丁目９番緑地（Ｌガーデン）","province":"福岡県","city":"北九州市八幡西区","address":"福岡県北九州市八幡西区中の原3丁目9-22","lat":33.83288724,"lon":130.7486587},{"name":"中仙川児童公園","province":"福岡県","city":"北九州市八幡西区","address":"福岡県北九州市八幡西区中の原2丁目8-14","lat":33.83069865,"lon":130.75090301},{"name":"中原さつき児童遊園","province":"福岡県","city":"北九州市八幡西区","address":"福岡県北九州市八幡西区中の原3丁目1-26","lat":33.83340111,"lon":130.75038075},{"name":"中原高架下児童遊園","province":"福岡県","city":"北九州市八幡西区","address":"福岡県北九州市八幡西区中の原3丁目3-1","lat":33.83297615,"lon":130.7501169},{"name":"中原一丁目５番緑地","province":"福岡県","city":"北九州市八幡西区","address":"福岡県北九州市八幡西区中の原1丁目5-4","lat":33.8319652,"lon":130.7525556},{"name":"中原三丁目９番緑地（Ｌガーデン）","province":"福岡県","city":"北九州市八幡西区","address":"福岡県北九州市八幡西区中の原3丁目9-22","lat":33.83288724,"lon":130.7486587},{"name":"中仙川児童公園","province":"福岡県","city":"北九州市八幡西区","address":"福岡県北九州市八幡西区中の原2丁目8-14","lat":33.83069865,"lon":130.75090301},{"name":"中原さつき児童遊園","province":"福岡県","city":"北九州市八幡西区","address":"福岡県北九州市八幡西区中の原3丁目1-26","lat":33.83340111,"lon":130.75038075},{"name":"中原高架下児童遊園","province":"福岡県","city":"北九州市八幡西区","address":"福岡県北九州市八幡西区中の原3丁目3-1","lat":33.83297615,"lon":130.7501169},{"name":"中原一丁目５番緑地","province":"福岡県","city":"北九州市八幡西区","address":"福岡県北九州市八幡西区中の原1丁目5-4","lat":33.8319652,"lon":130.7525556},{"name":"中原三丁目９番緑地（Ｌガーデン）","province":"福岡県","city":"北九州市八幡西区","address":"福岡県北九州市八幡西区中の原3丁目9-22","lat":33.83288724,"lon":130.7486587},{"name":"中仙川児童公園","province":"福岡県","city":"北九州市八幡西区","address":"福岡県北九州市八幡西区中の原2丁目8-14","lat":33.83069865,"lon":130.75090301},{"name":"中原さつき児童遊園","province":"福岡県","city":"北九州市八幡西区","address":"福岡県北九州市八幡西区中の原3丁目1-26","lat":33.83340111,"lon":130.75038075},{"name":"中原高架下児童遊園","province":"福岡県","city":"北九州市八幡西区","address":"福岡県北九州市八幡西区中の原3丁目3-1","lat":33.83297615,"lon":130.7501169},{"name":"中原一丁目５番緑地","province":"福岡県","city":"北九州市八幡西区","address":"福岡県北九州市八幡西区中の原1丁目5-4","lat":33.8319652,"lon":130.7525556},{"name":"中原三丁目９番緑地（Ｌガーデン）","province":"福岡県","city":"北九州市八幡西区","address":"福岡県北九州市八幡西区中の原3丁目9-22","lat":33.83288724,"lon":130.7486587},{"name":"中仙川児童公園","province":"福岡県","city":"北九州市八幡西区","address":"福岡県北九州市八幡西区中の原2丁目8-14","lat":33.83069865,"lon":130.75090301},{"name":"中原さつき児童遊園","province":"福岡県","city":"北九州市八幡西区","address":"福岡県北九州市八幡西区中の原3丁目1-26","lat":33.83340111,"lon":130.75038075},{"name":"中原高架下児童遊園","province":"福岡県","city":"北九州市八幡西区","address":"福岡県北九州市八幡西区中の原3丁目3-1","lat":33.83297615,"lon":130.7501169},{"name":"中原一丁目５番緑地","province":"福岡県","city":"北九州市八幡西区","address":"福岡県北九州市八幡西区中の原1丁目5-4","lat":33.8319652,"lon":130.7525556},{"name":"中原三丁目９番緑地（Ｌガーデン）","province":"福岡県","city":"北九州市八幡西区","address":"福岡県北九州市八幡西区中の原3丁目9-22","lat":33.83288724,"lon":130.7486587},{"name":"中仙川児童公園","province":"福岡県","city":"北九州市八幡西区","address":"福岡県北九州市八幡西区中の原2丁目8-14","lat":33.83069865,"lon":130.75090301},{"name":"中原さつき児童遊園","province":"福岡県","city":"北九州市八幡西区","address":"福岡県北九州市八幡西区中の原3丁目1-26","lat":33.83340111,"lon":130.75038075},{"name":"中原高架下児童遊園","province":"福岡県","city":"北九州市八幡西区","address":"福岡県北九州市八幡西区中の原3丁目3-1","lat":33.83297615,"lon":130.7501169},{"name":"中原一丁目５番緑地","province":"福岡県","city":"北九州市八幡西区","address":"福岡県北九州市八幡西区中の原1丁目5-4","lat":33.8319652,"lon":130.7525556},{"name":"中原三丁目９番緑地（Ｌガーデン）","province":"福岡県","city":"北九州市八幡西区","address":"福岡県北九州市八幡西区中の原3丁目9-22","lat":33.83288724,"lon":130.7486587},{"name":"中仙川児童公園","province":"福岡県","city":"北九州市八幡西区","address":"福岡県北九州市八幡西区中の原2丁目8-14","lat":33.83069865,"lon":130.75090301},{"name":"中原さつき児童遊園","province":"福岡県","city":"北九州市八幡西区","address":"福岡県北九州市八幡西区中の原3丁目1-26","lat":33.83340111,"lon":130.75038075},{"name":"中原高架下児童遊園","province":"福岡県","city":"北九州市八幡西区","address":"福岡県北九州市八幡西区中の原3丁目3-1","lat":33.83297615,"lon":130.7501169},{"name":"中原一丁目５番緑地","province":"福岡県","city":"北九州市八幡西区","address":"福岡県北九州市八幡西区中の原1丁目5-4","lat":33.8319652,"lon":130.7525556},{"name":"中原三丁目９番緑地（Ｌガーデン）","province":"福岡県","city":"北九州市八幡西区","address":"福岡県北九州市八幡西区中の原3丁目9-22","lat":33.83288724,"lon":130.7486587},{"name":"中仙川児童公園","province":"福岡県","city":"北九州市八幡西区","address":"福岡県北九州市八幡西区中の原2丁目8-14","lat":33.83069865,"lon":130.75090301},{"name":"中原さつき児童遊園","province":"福岡県","city":"北九州市八幡西区","address":"福岡県北九州市八幡西区中の原3丁目1-26","lat":33.83340111,"lon":130.75038075},{"name":"中原高架下児童遊園","province":"福岡県","city":"北九州市八幡西区","address":"福岡県北九州市八幡西区中の原3丁目3-1","lat":33.83297615,"lon":130.7501169},{"name":"中原一丁目５番緑地","province":"福岡県","city":"北九州市八幡西区","address":"福岡県北九州市八幡西区中の原1丁目5-4","lat":33.8319652,"lon":130.7525556},{"name":"中原三丁目９番緑地（Ｌガーデン）","province":"福岡県","city":"北九州市八幡西区","address":"福岡県北九州市八幡西区中の原3丁目9-22","lat":33.83288724,"lon":130.7486587},{"name":"中仙川児童公園","province":"福岡県","city":"北九州市八幡西区","address":"福岡県北九州市八幡西区中の原2丁目8-14","lat":33.83069865,"lon":130.75090301},{"name":"中原さつき児童遊園","province":"福岡県","city":"北九州市八幡西区","address":"福岡県北九州市八幡西区中の原3丁目1-26","lat":33.83340111,"lon":130.75038075},{"name":"中原高架下児童遊園","province":"福岡県","city":"北九州市八幡西区","address":"福岡県北九州市八幡西区中の原3丁目3-1","lat":33.83297615,"lon":130.7501169},{"name":"中原一丁目５番緑地","province":"福岡県","city":"北九州市八幡西区","address":"福岡県北九州市八幡西区中の原1丁目5-4","lat":33.8319652,"lon":130.7525556},{"name":"中原三丁目９番緑地（Ｌガーデン）","province":"福岡県","city":"北九州市八幡西区","address":"福岡県北九州市八幡西区中の原3丁目9-22","lat":33.83288724,"lon":130.7486587},{"name":"中仙川児童公園","province":"福岡県","city":"北九州市八幡西区","address":"福岡県北九州市八幡西区中の原2丁目8-14","lat":33.83069865,"lon":130.75090301},{"name":"中原さつき児童遊園","province":"福岡県","city":"北九州市八幡西区","address":"福岡県北九州市八幡西区中の原3丁目1-26","lat":33.83340111,"lon":130.75038075},{"name":"中原高架下児童遊園","province":"福岡県","city":"北九州市八幡西区","address":"福岡県北九州市八幡西区中の原3丁目3-1","lat":33.83297615,"lon":130.7501169},{"name":"中原一丁目５番緑地","province":"福岡県","city":"北九州市八幡西区","address":"福岡県北九州市八幡西区中の原1丁目5-4","lat":33.8319652,"lon":130.7525556},{"name":"中原三丁目９番緑地（Ｌガーデン）","province":"福岡県","city":"北九州市八幡西区","address":"福岡県北九州市八幡西区中の原3丁目9-22","lat":33.83288724,"lon":130.7486587},{"name":"中仙川児童公園","province":"福岡県","city":"北九州市八幡西区","address":"福岡県北九州市八幡西区中の原2丁目8-14","lat":33.83069865,"lon":130.75090301},{"name":"中原さつき児童遊園","province":"福岡県","city":"北九州市八幡西区","address":"福岡県北九州市八幡西区中の原3丁目1-26","lat":33.83340111,"lon":130.75038075},{"name":"中原高架下児童遊園","province":"福岡県","city":"北九州市八幡西区","address":"福岡県北九州市八幡西区中の原3丁目3-1","lat":33.83297615,"lon":130.7501169},{"name":"中原一丁目５番緑地","province":"福岡県","city":"北九州市八幡西区","address":"福岡県北九州市八幡西区中の原1丁目5-4","lat":33.8319652,"lon":130.7525556},{"name":"中原三丁目９番緑地（Ｌガーデン）","province":"福岡県","city":"北九州市八幡西区","address":"福岡県北九州市八幡西区中の原3丁目9-22","lat":33.83288724,"lon":130.7486587},{"name":"中仙川児童公園","province":"福岡県","city":"北九州市八幡西区","address":"福岡県北九州市八幡西区中の原2丁目8-14","lat":33.83069865,"lon":130.75090301},{"name":"中原さつき児童遊園","province":"福岡県","city":"北九州市八幡西区","address":"福岡県北九州市八幡西区中の原3丁目1-26","lat":33.83340111,"lon":130.75038075},{"name":"中原高架下児童遊園","province":"福岡県","city":"北九州市八幡西区","address":"福岡県北九州市八幡西区中の原3丁目3-1","lat":33.83297615,"lon":130.7501169},{"name":"中原一丁目５番緑地","province":"福岡県","city":"北九州市八幡西区","address":"福岡県北九州市八幡西区中の原1丁目5-4","lat":33.8319652,"lon":130.7525556},{"name":"中原三丁目９番緑地（Ｌガーデン）","province":"福岡県","city":"北九州市八幡西区","address":"福岡県北九州市八幡西区中の原3丁目9-22","lat":33.83288724,"lon":130.7486587},{"name":"中仙川児童公園","province":"福岡県","city":"北九州市八幡西区","address":"福岡県北九州市八幡西区中の原2丁目8-14","lat":33.83069865,"lon":130.75090301},{"name":"中原さつき児童遊園","province":"福岡県","city":"北九州市八幡西区","address":"福岡県北九州市八幡西区中の原3丁目1-26","lat":33.83340111,"lon":130.75038075},{"name":"中原高架下児童遊園","province":"福岡県","city":"北九州市八幡西区","address":"福岡県北九州市八幡西区中の原3丁目3-1","lat":33.83297615,"lon":130.7501169},{"name":"中原一丁目５番緑地","province":"福岡県","city":"北九州市八幡西区","address":"福岡県北九州市八幡西区中の原1丁目5-4","lat":33.8319652,"lon":130.7525556},{"name":"中原三丁目９番緑地（Ｌガーデン）","province":"福岡県","city":"北九州市八幡西区","address":"福岡県北九州市八幡西区中の原3丁目9-22","lat":33.83288724,"lon":130.7486587},{"name":"中仙川児童公園","province":"福岡県","city":"北九州市八幡西区","address":"福岡県北九州市八幡西区中の原2丁目8-14","lat":33.83069865,"lon":130.75090301},{"name":"中原さつき児童遊園","province":"福岡県","city":"北九州市八幡西区","address":"福岡県北九州市八幡西区中の原3丁目1-26","lat":33.83340111,"lon":130.75038075},{"name":"中原高架下児童遊園","province":"福岡県","city":"北九州市八幡西区","address":"福岡県北九州市八幡西区中の原3丁目3-1","lat":33.83297615,"lon":130.7501169},{"name":"中原一丁目５番緑地","province":"福岡県","city":"北九州市八幡西区","address":"福岡県北九州市八幡西区中の原1丁目5-4","lat":33.8319652,"lon":130.7525556},{"name":"中原三丁目９番緑地（Ｌガーデン）","province":"福岡県","city":"北九州市八幡西区","address":"福岡県北九州市八幡西区中の原3丁目9-22","lat":33.83288724,"lon":130.7486587},{"name":"中仙川児童公園","province":"福岡県","city":"北九州市八幡西区","address":"福岡県北九州市八幡西区中の原2丁目8-14","lat":33.83069865,"lon":130.75090301},{"name":"中原さつき児童遊園","province":"福岡県","city":"北九州市八幡西区","address":"福岡県北九州市八幡西区中の原3丁目1-26","lat":33.83340111,"lon":130.75038075},{"name":"中原高架下児童遊園","province":"福岡県","city":"北九州市八幡西区","address":"福岡県北九州市八幡西区中の原3丁目3-1","lat":33.83297615,"lon":130.7501169},{"name":"中原一丁目５番緑地","province":"福岡県","city":"北九州市八幡西区","address":"福岡県北九州市八幡西区中の原1丁目5-4","lat":33.8319652,"lon":130.7525556},{"name":"中原三丁目９番緑地（Ｌガーデン）","province":"福岡県","city":"北九州市八幡西区","address":"福岡県北九州市八幡西区中の原3丁目9-22","lat":33.83288724,"lon":130.7486587},{"name":"中仙川児童公園","province":"福岡県","city":"北九州市八幡西区","address":"福岡県北九州市八幡西区中の原2丁目8-14","lat":33.83069865,"lon":130.75090301},{"name":"中原さつき児童遊園","province":"福岡県","city":"北九州市八幡西区","address":"福岡県北九州市八幡西区中の原3丁目1-26","lat":33.83340111,"lon":130.75038075},{"name":"中原高架下児童遊園","province":"福岡県","city":"北九州市八幡西区","address":"福岡県北九州市八幡西区中の原3丁目3-1","lat":33.83297615,"lon":130.7501169},{"name":"中原一丁目５番緑地","province":"福岡県","city":"北九州市八幡西区","address":"福岡県北九州市八幡西区中の原1丁目5-4","lat":33.8319652,"lon":130.7525556},{"name":"中原三丁目９番緑地（Ｌガーデン）","province":"福岡県","city":"北九州市八幡西区","address":"福岡県北九州市八幡西区中の原3丁目9-22","lat":33.83288724,"lon":130.7486587},{"name":"中仙川児童公園","province":"福岡県","city":"北九州市八幡西区","address":"福岡県北九州市八幡西区中の原2丁目8-14","lat":33.83069865,"lon":130.75090301},{"name":"中原さつき児童遊園","province":"福岡県","city":"北九州市八幡西区","address":"福岡県北九州市八幡西区中の原3丁目1-26","lat":33.83340111,"lon":130.75038075},{"name":"中原高架下児童遊園","province":"福岡県","city":"北九州市八幡西区","address":"福岡県北九州市八幡西区中の原3丁目3-1","lat":33.83297615,"lon":130.7501169},{"name":"中原一丁目５番緑地","province":"福岡県","city":"北九州市八幡西区","address":"福岡県北九州市八幡西区中の原1丁目5-4","lat":33.8319652,"lon":130.7525556},{"name":"中原三丁目９番緑地（Ｌガーデン）","province":"福岡県","city":"北九州市八幡西区","address":"福岡県北九州市八幡西区中の原3丁目9-22","lat":33.83288724,"lon":130.7486587},{"name":"中仙川児童公園","province":"福岡県","city":"北九州市八幡西区","address":"福岡県北九州市八幡西区中の原2丁目8-14","lat":33.83069865,"lon":130.75090301},{"name":"中原さつき児童遊園","province":"福岡県","city":"北九州市八幡西区","address":"福岡県北九州市八幡西区中の原3丁目1-26","lat":33.83340111,"lon":130.75038075},{"name":"中原高架下児童遊園","province":"福岡県","city":"北九州市八幡西区","address":"福岡県北九州市八幡西区中の原3丁目3-1","lat":33.83297615,"lon":130.7501169},{"name":"中原一丁目５番緑地","province":"福岡県","city":"北九州市八幡西区","address":"福岡県北九州市八幡西区中の原1丁目5-4","lat":33.8319652,"lon":130.7525556},{"name":"中原三丁目９番緑地（Ｌガーデン）","province":"福岡県","city":"北九州市八幡西区","address":"福岡県北九州市八幡西区中の原3丁目9-22","lat":33.83288724,"lon":130.7486587},{"name":"中仙川児童公園","province":"福岡県","city":"北九州市八幡西区","address":"福岡県北九州市八幡西区中の原2丁目8-14","lat":33.83069865,"lon":130.75090301},{"name":"中原さつき児童遊園","province":"福岡県","city":"北九州市八幡西区","address":"福岡県北九州市八幡西区中の原3丁目1-26","lat":33.83340111,"lon":130.75038075},{"name":"中原高架下児童遊園","province":"福岡県","city":"北九州市八幡西区","address":"福岡県北九州市八幡西区中の原3丁目3-1","lat":33.83297615,"lon":130.7501169},{"name":"中原一丁目５番緑地","province":"福岡県","city":"北九州市八幡西区","address":"福岡県北九州市八幡西区中の原1丁目5-4","lat":33.8319652,"lon":130.7525556},{"name":"中原三丁目９番緑地（Ｌガーデン）","province":"福岡県","city":"北九州市八幡西区","address":"福岡県北九州市八幡西区中の原3丁目9-22","lat":33.83288724,"lon":130.7486587},{"name":"中仙川児童公園","province":"福岡県","city":"北九州市八幡西区","address":"福岡県北九州市八幡西区中の原2丁目8-14","lat":33.83069865,"lon":130.75090301},{"name":"中原さつき児童遊園","province":"福岡県","city":"北九州市八幡西区","address":"福岡県北九州市八幡西区中の原3丁目1-26","lat":33.83340111,"lon":130.75038075},{"name":"中原高架下児童遊園","province":"福岡県","city":"北九州市八幡西区","address":"福岡県北九州市八幡西区中の原3丁目3-1","lat":33.83297615,"lon":130.7501169},{"name":"中原一丁目５番緑地","province":"福岡県","city":"北九州市八幡西区","address":"福岡県北九州市八幡西区中の原1丁目5-4","lat":33.8319652,"lon":130.7525556},{"name":"中原三丁目９番緑地（Ｌガーデン）","province":"福岡県","city":"北九州市八幡西区","address":"福岡県北九州市八幡西区中の原3丁目9-22","lat":33.83288724,"lon":130.7486587},{"name":"中仙川児童公園","province":"福岡県","city":"北九州市八幡西区","address":"福岡県北九州市八幡西区中の原2丁目8-14","lat":33.83069865,"lon":130.75090301},{"name":"中原さつき児童遊園","province":"福岡県","city":"北九州市八幡西区","address":"福岡県北九州市八幡西区中の原3丁目1-26","lat":33.83340111,"lon":130.75038075},{"name":"中原高架下児童遊園","province":"福岡県","city":"北九州市八幡西区","address":"福岡県北九州市八幡西区中の原3丁目3-1","lat":33.83297615,"lon":130.7501169},{"name":"中原一丁目５番緑地","province":"福岡県","city":"北九州市八幡西区","address":"福岡県北九州市八幡西区中の原1丁目5-4","lat":33.8319652,"lon":130.7525556},{"name":"中原三丁目９番緑地（Ｌガーデン）","province":"福岡県","city":"北九州市八幡西区","address":"福岡県北九州市八幡西区中の原3丁目9-22","lat":33.83288724,"lon":130.7486587},{"name":"中仙川児童公園","province":"福岡県","city":"北九州市八幡西区","address":"福岡県北九州市八幡西区中の原2丁目8-14","lat":33.83069865,"lon":130.75090301},{"name":"中原さつき児童遊園","province":"福岡県","city":"北九州市八幡西区","address":"福岡県北九州市八幡西区中の原3丁目1-26","lat":33.83340111,"lon":130.75038075},{"name":"中原高架下児童遊園","province":"福岡県","city":"北九州市八幡西区","address":"福岡県北九州市八幡西区中の原3丁目3-1","lat":33.83297615,"lon":130.7501169},{"name":"中原一丁目５番緑地","province":"福岡県","city":"北九州市八幡西区","address":"福岡県北九州市八幡西区中の原1丁目5-4","lat":33.8319652,"lon":130.7525556},{"name":"中原三丁目９番緑地（Ｌガーデン）","province":"福岡県","city":"北九州市八幡西区","address":"福岡県北九州市八幡西区中の原3丁目9-22","lat":33.83288724,"lon":130.7486587},{"name":"中仙川児童公園","province":"福岡県","city":"北九州市八幡西区","address":"福岡県北九州市八幡西区中の原2丁目8-14","lat":33.83069865,"lon":130.75090301},{"name":"中原さつき児童遊園","province":"福岡県","city":"北九州市八幡西区","address":"福岡県北九州市八幡西区中の原3丁目1-26","lat":33.83340111,"lon":130.75038075},{"name":"中原高架下児童遊園","province":"福岡県","city":"北九州市八幡西区","address":"福岡県北九州市八幡西区中の原3丁目3-1","lat":33.83297615,"lon":130.7501169},{"name":"中原一丁目５番緑地","province":"福岡県","city":"北九州市八幡西区","address":"福岡県北九州市八幡西区中の原1丁目5-4","lat":33.8319652,"lon":130.7525556},{"name":"中原三丁目９番緑地（Ｌガーデン）","province":"福岡県","city":"北九州市八幡西区","address":"福岡県北九州市八幡西区中の原3丁目9-22","lat":33.83288724,"lon":130.7486587}]}