{"keyword":"灰","data":[{"name":"江戸川清掃工場","province":"東京都","city":"江戸川区","address":"江戸川区江戸川2-10","lat":35.685192,"lon":139.904114},{"name":"破砕ごみ処理施設","province":"東京都","city":"江東区","address":"江東区青海3丁目地先","lat":35.608994,"lon":139.784851},{"name":"戸吹清掃工場","province":"東京都","city":"八王子市","address":"八王子市戸吹町1916","lat":35.700718,"lon":139.292725},{"name":"北野清掃工場","province":"東京都","city":"八王子市","address":"八王子市北野町596-3","lat":35.655785,"lon":139.351822},{"name":"武蔵野市クリーンセンター","province":"東京都","city":"武蔵野市","address":"武蔵野市緑町3-1-5","lat":35.719227,"lon":139.566376},{"name":"三鷹市環境センター","province":"東京都","city":"三鷹市","address":"三鷹市新川1-6-1","lat":35.671501,"lon":139.577942},{"name":"町田リサイクル文化センター","province":"東京都","city":"町田市","address":"町田市下小山田町3160","lat":35.587688,"lon":139.412216},{"name":"奥多摩町クリーンセンター","province":"東京都","city":"西多摩郡奥多摩町","address":"奥多摩町海沢850-1","lat":35.787006,"lon":139.124954},{"name":"ごみ焼却施設","province":"東京都","city":"小平市","address":"小平市中島町2-1","lat":35.729443,"lon":139.427826},{"name":"高尾清掃センター","province":"東京都","city":"あきる野市","address":"あきる野市高尾521","lat":35.717209,"lon":139.239532},{"name":"多摩清掃工場","province":"東京都","city":"多摩市","address":"多摩市唐木田2-1-1","lat":35.612419,"lon":139.409958},{"name":"大島町野増清掃工場","province":"東京都","city":"大島町","address":"大島町野増字クヅアラ638-1","lat":34.715286,"lon":139.357788},{"name":"新島村ごみ焼却場","province":"東京都","city":"新島村","address":"新島村字檜山417","lat":34.377769,"lon":139.253525},{"name":"品川Ｒ・Ｃセンター","province":"東京都","city":"品川区","address":"品川区八潮3-2-11","lat":35.591099,"lon":139.756607},{"name":"エアポートクリーンセンター","province":"東京都","city":"大田区","address":"大田区羽田空港3-6-6","lat":35.54332,"lon":139.792267},{"name":"東京たまエコセメント化施設","province":"東京都","city":"西多摩郡日の出町","address":"日の出町大字大久野7642","lat":35.763477,"lon":139.249741}]}