{"category":"wireless","data":[{"name":"東京北医療センター","province":"東京都","city":"北区","address":"東京都北区赤羽台4丁目17-56","lat":35.78387391,"lon":139.71141424},{"name":"区立桐ヶ丘中央公園","province":"東京都","city":"北区","address":"東京都北区桐ケ丘1丁目8","lat":35.77854405,"lon":139.70742859},{"name":"区立滝野川公園","province":"東京都","city":"北区","address":"東京都北区西ケ原2丁目1","lat":35.74541006,"lon":139.74448791},{"name":"区立北運動公園","province":"東京都","city":"北区","address":"東京都北区神谷2丁目47-6","lat":35.77383973,"lon":139.72797147},{"name":"北とぴあ","province":"東京都","city":"北区","address":"東京都北区王子1-11-1","lat":35.754891,"lon":139.736675},{"name":"赤羽観光PRコーナー","province":"東京都","city":"北区","address":"東京都北区赤羽1-67-62","lat":35.779175,"lon":139.720283},{"name":"北区保健所","province":"東京都","city":"北区","address":"東京都北区東十条2丁目7-3","lat":35.76302725,"lon":139.73054116},{"name":"東京都障害者総合スポーツセンター","province":"東京都","city":"北区","address":"東京都北区十条台1丁目2-2","lat":35.75376426,"lon":139.72398652},{"name":"中央・城北職業能力開発センター赤羽校","province":"東京都","city":"北区","address":"東京都北区西が丘3丁目7-8","lat":35.76595692,"lon":139.71080655},{"name":"赤羽商業高等学校","province":"東京都","city":"北区","address":"東京都北区西が丘3丁目14-20","lat":35.76984251,"lon":139.70938429},{"name":"王子総合高等学校","province":"東京都","city":"北区","address":"東京都北区滝野川3丁目54-7","lat":35.74729847,"lon":139.7308001},{"name":"飛鳥高等学校","province":"東京都","city":"北区","address":"東京都北区王子6丁目8-8","lat":35.76160544,"lon":139.73947656},{"name":"桐ヶ丘高等学校","province":"東京都","city":"北区","address":"東京都北区赤羽北3丁目5-22","lat":35.7814825,"lon":139.70672302},{"name":"岩淵緊急用船着場","province":"東京都","city":"北区","address":"東京都北区志茂5丁目","lat":35.78393271,"lon":139.72875445},{"name":"岩淵","province":"東京都","city":"北区","address":"東京都北区志茂5丁目","lat":35.78393271,"lon":139.72875445},{"name":"豊島","province":"東京都","city":"北区","address":"東京都北区豊島5丁目","lat":35.76601912,"lon":139.74959212},{"name":"北赤羽","province":"東京都","city":"北区","address":"東京都北区浮間1丁目","lat":35.78863696,"lon":139.70479799},{"name":"北区本庁舎","province":"東京都","city":"北区","address":"東京都北区王子本町1丁目15-22","lat":35.75280347,"lon":139.73349965},{"name":"北区防災センター","province":"東京都","city":"北区","address":"東京都北区西ケ原2丁目1-6","lat":35.74548783,"lon":139.74511007}]}