{"keyword":"スモッグ","data":[{"name":"旧古河庭園","province":"東京都","city":"北区","address":"東京都北区西ヶ原一丁目","lat":35.743102,"lon":139.746698},{"name":"北区立中央公園野球場","province":"東京都","city":"北区","address":"東京都北区十条台1丁目2-1","lat":35.75320885,"lon":139.72756124},{"name":"北区立十条富士見中学校校庭","province":"東京都","city":"北区","address":"東京都北区十条台1丁目9-33","lat":35.75717496,"lon":139.72321144},{"name":"荒川下流岩淵場外","province":"東京都","city":"北区","address":"東京都北区志茂4丁目19-1","lat":35.78343288,"lon":139.73218195},{"name":"北区立北運動公園","province":"東京都","city":"北区","address":"東京都北区神谷2丁目47-6","lat":35.77383973,"lon":139.72797147},{"name":"北区立赤羽スポーツの森公園","province":"東京都","city":"北区","address":"東京都北区赤羽西5丁目2","lat":35.77326984,"lon":139.71003689},{"name":"北区立赤羽自然観察公園","province":"東京都","city":"北区","address":"東京都北区赤羽西5丁目2-34","lat":35.77431419,"lon":139.71157561},{"name":"新河岸東公園・浮間子どもスポーツ広場","province":"東京都","city":"北区","address":"東京都北区浮間4丁目27-1","lat":35.78904234,"lon":139.69236003},{"name":"豊島五丁目遊び場","province":"東京都","city":"北区","address":"東京都北区豊島5丁目6-1","lat":35.76470834,"lon":139.75516113},{"name":"国立西が丘サッカー場","province":"東京都","city":"北区","address":"東京都北区西が丘3丁目15","lat":35.76766219,"lon":139.70831224},{"name":"荒川下流岩淵場外","province":"東京都","city":"北区","address":"東京都北区志茂4丁目19-1","lat":35.78343288,"lon":139.73218195},{"name":"(株)たかまる商店","province":"東京都","city":"北区","address":"北区赤羽西2-2-3","lat":35.772114,"lon":139.721542},{"name":"(有)鰐渕商事","province":"東京都","city":"北区","address":"北区上中里1-41-10","lat":35.744671,"lon":139.746902},{"name":"(株)シマムラ","province":"東京都","city":"北区","address":"北区昭和町1-1-8","lat":35.745796,"lon":139.756653},{"name":"(株)伊久美商店","province":"東京都","city":"北区","address":"北区滝野川7-48-11","lat":35.741234,"lon":139.724579},{"name":"豊商産業(有)","province":"東京都","city":"北区","address":"北区浮間4-12-5","lat":35.789169,"lon":139.696594},{"name":"(有)篠原商店","province":"東京都","city":"北区","address":"北区滝野川5-53-3","lat":35.749634,"lon":139.725876},{"name":"柄澤秀保","province":"東京都","city":"北区","address":"北区西ケ原3-20-14","lat":35.744976,"lon":139.74176},{"name":"(有)佐々木商店","province":"東京都","city":"北区","address":"北区王子4-4-5","lat":35.761272,"lon":139.733612},{"name":"(株)桂紙業  本社","province":"東京都","city":"北区","address":"北区桐ケ丘1-20-12","lat":35.777943,"lon":139.703766},{"name":"(株)宏文社","province":"東京都","city":"北区","address":"北区豊島1-14-7","lat":35.75843,"lon":139.73967},{"name":"北とぴあ","province":"東京都","city":"北区","address":"東京都北区王子1-11-1","lat":35.754891,"lon":139.736675},{"name":"赤羽観光PRコーナー","province":"東京都","city":"北区","address":"東京都北区赤羽1-67-62","lat":35.779175,"lon":139.720283},{"name":"旧古河庭園","province":"東京都","city":"北区","address":"東京都北区西ヶ原一丁目","lat":35.743102,"lon":139.746698},{"name":"(株)たかまる商店","province":"東京都","city":"北区","address":"北区赤羽西2-2-3","lat":35.772114,"lon":139.721542},{"name":"(有)鰐渕商事","province":"東京都","city":"北区","address":"北区上中里1-41-10","lat":35.744671,"lon":139.746902},{"name":"(株)シマムラ","province":"東京都","city":"北区","address":"北区昭和町1-1-8","lat":35.745796,"lon":139.756653},{"name":"(株)伊久美商店","province":"東京都","city":"北区","address":"北区滝野川7-48-11","lat":35.741234,"lon":139.724579},{"name":"豊商産業(有)","province":"東京都","city":"北区","address":"北区浮間4-12-5","lat":35.789169,"lon":139.696594},{"name":"(有)篠原商店","province":"東京都","city":"北区","address":"北区滝野川5-53-3","lat":35.749634,"lon":139.725876},{"name":"柄澤秀保","province":"東京都","city":"北区","address":"北区西ケ原3-20-14","lat":35.744976,"lon":139.74176},{"name":"(有)佐々木商店","province":"東京都","city":"北区","address":"北区王子4-4-5","lat":35.761272,"lon":139.733612},{"name":"(株)桂紙業  本社","province":"東京都","city":"北区","address":"北区桐ケ丘1-20-12","lat":35.777943,"lon":139.703766},{"name":"(株)宏文社","province":"東京都","city":"北区","address":"北区豊島1-14-7","lat":35.75843,"lon":139.73967},{"name":"北とぴあ","province":"東京都","city":"北区","address":"東京都北区王子1-11-1","lat":35.754891,"lon":139.736675},{"name":"赤羽観光PRコーナー","province":"東京都","city":"北区","address":"東京都北区赤羽1-67-62","lat":35.779175,"lon":139.720283},{"name":"旧古河庭園","province":"東京都","city":"北区","address":"東京都北区西ヶ原一丁目","lat":35.743102,"lon":139.746698},{"name":"(株)たかまる商店","province":"東京都","city":"北区","address":"北区赤羽西2-2-3","lat":35.772114,"lon":139.721542},{"name":"(有)鰐渕商事","province":"東京都","city":"北区","address":"北区上中里1-41-10","lat":35.744671,"lon":139.746902},{"name":"(株)シマムラ","province":"東京都","city":"北区","address":"北区昭和町1-1-8","lat":35.745796,"lon":139.756653},{"name":"(株)伊久美商店","province":"東京都","city":"北区","address":"北区滝野川7-48-11","lat":35.741234,"lon":139.724579},{"name":"豊商産業(有)","province":"東京都","city":"北区","address":"北区浮間4-12-5","lat":35.789169,"lon":139.696594},{"name":"(有)篠原商店","province":"東京都","city":"北区","address":"北区滝野川5-53-3","lat":35.749634,"lon":139.725876},{"name":"柄澤秀保","province":"東京都","city":"北区","address":"北区西ケ原3-20-14","lat":35.744976,"lon":139.74176},{"name":"(有)佐々木商店","province":"東京都","city":"北区","address":"北区王子4-4-5","lat":35.761272,"lon":139.733612},{"name":"(株)桂紙業  本社","province":"東京都","city":"北区","address":"北区桐ケ丘1-20-12","lat":35.777943,"lon":139.703766},{"name":"(株)宏文社","province":"東京都","city":"北区","address":"北区豊島1-14-7","lat":35.75843,"lon":139.73967},{"name":"北とぴあ","province":"東京都","city":"北区","address":"東京都北区王子1-11-1","lat":35.754891,"lon":139.736675},{"name":"赤羽観光PRコーナー","province":"東京都","city":"北区","address":"東京都北区赤羽1-67-62","lat":35.779175,"lon":139.720283},{"name":"旧古河庭園","province":"東京都","city":"北区","address":"東京都北区西ヶ原一丁目","lat":35.743102,"lon":139.746698},{"name":"(株)たかまる商店","province":"東京都","city":"北区","address":"北区赤羽西2-2-3","lat":35.772114,"lon":139.721542},{"name":"(有)鰐渕商事","province":"東京都","city":"北区","address":"北区上中里1-41-10","lat":35.744671,"lon":139.746902},{"name":"(株)シマムラ","province":"東京都","city":"北区","address":"北区昭和町1-1-8","lat":35.745796,"lon":139.756653},{"name":"(株)伊久美商店","province":"東京都","city":"北区","address":"北区滝野川7-48-11","lat":35.741234,"lon":139.724579},{"name":"豊商産業(有)","province":"東京都","city":"北区","address":"北区浮間4-12-5","lat":35.789169,"lon":139.696594},{"name":"(有)篠原商店","province":"東京都","city":"北区","address":"北区滝野川5-53-3","lat":35.749634,"lon":139.725876},{"name":"柄澤秀保","province":"東京都","city":"北区","address":"北区西ケ原3-20-14","lat":35.744976,"lon":139.74176},{"name":"(有)佐々木商店","province":"東京都","city":"北区","address":"北区王子4-4-5","lat":35.761272,"lon":139.733612},{"name":"(株)桂紙業  本社","province":"東京都","city":"北区","address":"北区桐ケ丘1-20-12","lat":35.777943,"lon":139.703766},{"name":"(株)宏文社","province":"東京都","city":"北区","address":"北区豊島1-14-7","lat":35.75843,"lon":139.73967},{"name":"北とぴあ","province":"東京都","city":"北区","address":"東京都北区王子1-11-1","lat":35.754891,"lon":139.736675},{"name":"赤羽観光PRコーナー","province":"東京都","city":"北区","address":"東京都北区赤羽1-67-62","lat":35.779175,"lon":139.720283},{"name":"旧古河庭園","province":"東京都","city":"北区","address":"東京都北区西ヶ原一丁目","lat":35.743102,"lon":139.746698},{"name":"(株)たかまる商店","province":"東京都","city":"北区","address":"北区赤羽西2-2-3","lat":35.772114,"lon":139.721542},{"name":"(有)鰐渕商事","province":"東京都","city":"北区","address":"北区上中里1-41-10","lat":35.744671,"lon":139.746902},{"name":"(株)シマムラ","province":"東京都","city":"北区","address":"北区昭和町1-1-8","lat":35.745796,"lon":139.756653},{"name":"(株)伊久美商店","province":"東京都","city":"北区","address":"北区滝野川7-48-11","lat":35.741234,"lon":139.724579},{"name":"豊商産業(有)","province":"東京都","city":"北区","address":"北区浮間4-12-5","lat":35.789169,"lon":139.696594},{"name":"(有)篠原商店","province":"東京都","city":"北区","address":"北区滝野川5-53-3","lat":35.749634,"lon":139.725876},{"name":"柄澤秀保","province":"東京都","city":"北区","address":"北区西ケ原3-20-14","lat":35.744976,"lon":139.74176},{"name":"(有)佐々木商店","province":"東京都","city":"北区","address":"北区王子4-4-5","lat":35.761272,"lon":139.733612},{"name":"(株)桂紙業  本社","province":"東京都","city":"北区","address":"北区桐ケ丘1-20-12","lat":35.777943,"lon":139.703766},{"name":"(株)宏文社","province":"東京都","city":"北区","address":"北区豊島1-14-7","lat":35.75843,"lon":139.73967},{"name":"北とぴあ","province":"東京都","city":"北区","address":"東京都北区王子1-11-1","lat":35.754891,"lon":139.736675},{"name":"赤羽観光PRコーナー","province":"東京都","city":"北区","address":"東京都北区赤羽1-67-62","lat":35.779175,"lon":139.720283},{"name":"旧古河庭園","province":"東京都","city":"北区","address":"東京都北区西ヶ原一丁目","lat":35.743102,"lon":139.746698},{"name":"(株)たかまる商店","province":"東京都","city":"北区","address":"北区赤羽西2-2-3","lat":35.772114,"lon":139.721542},{"name":"(有)鰐渕商事","province":"東京都","city":"北区","address":"北区上中里1-41-10","lat":35.744671,"lon":139.746902},{"name":"(株)シマムラ","province":"東京都","city":"北区","address":"北区昭和町1-1-8","lat":35.745796,"lon":139.756653},{"name":"(株)伊久美商店","province":"東京都","city":"北区","address":"北区滝野川7-48-11","lat":35.741234,"lon":139.724579},{"name":"豊商産業(有)","province":"東京都","city":"北区","address":"北区浮間4-12-5","lat":35.789169,"lon":139.696594},{"name":"(有)篠原商店","province":"東京都","city":"北区","address":"北区滝野川5-53-3","lat":35.749634,"lon":139.725876},{"name":"柄澤秀保","province":"東京都","city":"北区","address":"北区西ケ原3-20-14","lat":35.744976,"lon":139.74176},{"name":"(有)佐々木商店","province":"東京都","city":"北区","address":"北区王子4-4-5","lat":35.761272,"lon":139.733612},{"name":"(株)桂紙業  本社","province":"東京都","city":"北区","address":"北区桐ケ丘1-20-12","lat":35.777943,"lon":139.703766},{"name":"(株)宏文社","province":"東京都","city":"北区","address":"北区豊島1-14-7","lat":35.75843,"lon":139.73967},{"name":"北とぴあ","province":"東京都","city":"北区","address":"東京都北区王子1-11-1","lat":35.754891,"lon":139.736675},{"name":"赤羽観光PRコーナー","province":"東京都","city":"北区","address":"東京都北区赤羽1-67-62","lat":35.779175,"lon":139.720283},{"name":"旧古河庭園","province":"東京都","city":"北区","address":"東京都北区西ヶ原一丁目","lat":35.743102,"lon":139.746698},{"name":"(株)たかまる商店","province":"東京都","city":"北区","address":"北区赤羽西2-2-3","lat":35.772114,"lon":139.721542},{"name":"(有)鰐渕商事","province":"東京都","city":"北区","address":"北区上中里1-41-10","lat":35.744671,"lon":139.746902},{"name":"(株)シマムラ","province":"東京都","city":"北区","address":"北区昭和町1-1-8","lat":35.745796,"lon":139.756653},{"name":"(株)伊久美商店","province":"東京都","city":"北区","address":"北区滝野川7-48-11","lat":35.741234,"lon":139.724579},{"name":"豊商産業(有)","province":"東京都","city":"北区","address":"北区浮間4-12-5","lat":35.789169,"lon":139.696594},{"name":"(有)篠原商店","province":"東京都","city":"北区","address":"北区滝野川5-53-3","lat":35.749634,"lon":139.725876},{"name":"柄澤秀保","province":"東京都","city":"北区","address":"北区西ケ原3-20-14","lat":35.744976,"lon":139.74176},{"name":"(有)佐々木商店","province":"東京都","city":"北区","address":"北区王子4-4-5","lat":35.761272,"lon":139.733612},{"name":"(株)桂紙業  本社","province":"東京都","city":"北区","address":"北区桐ケ丘1-20-12","lat":35.777943,"lon":139.703766},{"name":"(株)宏文社","province":"東京都","city":"北区","address":"北区豊島1-14-7","lat":35.75843,"lon":139.73967},{"name":"北とぴあ","province":"東京都","city":"北区","address":"東京都北区王子1-11-1","lat":35.754891,"lon":139.736675},{"name":"赤羽観光PRコーナー","province":"東京都","city":"北区","address":"東京都北区赤羽1-67-62","lat":35.779175,"lon":139.720283},{"name":"旧古河庭園","province":"東京都","city":"北区","address":"東京都北区西ヶ原一丁目","lat":35.743102,"lon":139.746698},{"name":"(株)たかまる商店","province":"東京都","city":"北区","address":"北区赤羽西2-2-3","lat":35.772114,"lon":139.721542},{"name":"(有)鰐渕商事","province":"東京都","city":"北区","address":"北区上中里1-41-10","lat":35.744671,"lon":139.746902},{"name":"(株)シマムラ","province":"東京都","city":"北区","address":"北区昭和町1-1-8","lat":35.745796,"lon":139.756653},{"name":"(株)伊久美商店","province":"東京都","city":"北区","address":"北区滝野川7-48-11","lat":35.741234,"lon":139.724579},{"name":"豊商産業(有)","province":"東京都","city":"北区","address":"北区浮間4-12-5","lat":35.789169,"lon":139.696594},{"name":"(有)篠原商店","province":"東京都","city":"北区","address":"北区滝野川5-53-3","lat":35.749634,"lon":139.725876},{"name":"柄澤秀保","province":"東京都","city":"北区","address":"北区西ケ原3-20-14","lat":35.744976,"lon":139.74176},{"name":"(有)佐々木商店","province":"東京都","city":"北区","address":"北区王子4-4-5","lat":35.761272,"lon":139.733612},{"name":"(株)桂紙業  本社","province":"東京都","city":"北区","address":"北区桐ケ丘1-20-12","lat":35.777943,"lon":139.703766},{"name":"(株)宏文社","province":"東京都","city":"北区","address":"北区豊島1-14-7","lat":35.75843,"lon":139.73967},{"name":"北とぴあ","province":"東京都","city":"北区","address":"東京都北区王子1-11-1","lat":35.754891,"lon":139.736675},{"name":"赤羽観光PRコーナー","province":"東京都","city":"北区","address":"東京都北区赤羽1-67-62","lat":35.779175,"lon":139.720283},{"name":"旧古河庭園","province":"東京都","city":"北区","address":"東京都北区西ヶ原一丁目","lat":35.743102,"lon":139.746698},{"name":"(株)たかまる商店","province":"東京都","city":"北区","address":"北区赤羽西2-2-3","lat":35.772114,"lon":139.721542},{"name":"(有)鰐渕商事","province":"東京都","city":"北区","address":"北区上中里1-41-10","lat":35.744671,"lon":139.746902},{"name":"(株)シマムラ","province":"東京都","city":"北区","address":"北区昭和町1-1-8","lat":35.745796,"lon":139.756653},{"name":"(株)伊久美商店","province":"東京都","city":"北区","address":"北区滝野川7-48-11","lat":35.741234,"lon":139.724579},{"name":"豊商産業(有)","province":"東京都","city":"北区","address":"北区浮間4-12-5","lat":35.789169,"lon":139.696594},{"name":"(有)篠原商店","province":"東京都","city":"北区","address":"北区滝野川5-53-3","lat":35.749634,"lon":139.725876},{"name":"柄澤秀保","province":"東京都","city":"北区","address":"北区西ケ原3-20-14","lat":35.744976,"lon":139.74176},{"name":"(有)佐々木商店","province":"東京都","city":"北区","address":"北区王子4-4-5","lat":35.761272,"lon":139.733612},{"name":"(株)桂紙業  本社","province":"東京都","city":"北区","address":"北区桐ケ丘1-20-12","lat":35.777943,"lon":139.703766},{"name":"(株)宏文社","province":"東京都","city":"北区","address":"北区豊島1-14-7","lat":35.75843,"lon":139.73967},{"name":"北とぴあ","province":"東京都","city":"北区","address":"東京都北区王子1-11-1","lat":35.754891,"lon":139.736675},{"name":"赤羽観光PRコーナー","province":"東京都","city":"北区","address":"東京都北区赤羽1-67-62","lat":35.779175,"lon":139.720283},{"name":"旧古河庭園","province":"東京都","city":"北区","address":"東京都北区西ヶ原一丁目","lat":35.743102,"lon":139.746698},{"name":"(株)たかまる商店","province":"東京都","city":"北区","address":"北区赤羽西2-2-3","lat":35.772114,"lon":139.721542},{"name":"(有)鰐渕商事","province":"東京都","city":"北区","address":"北区上中里1-41-10","lat":35.744671,"lon":139.746902},{"name":"(株)シマムラ","province":"東京都","city":"北区","address":"北区昭和町1-1-8","lat":35.745796,"lon":139.756653},{"name":"(株)伊久美商店","province":"東京都","city":"北区","address":"北区滝野川7-48-11","lat":35.741234,"lon":139.724579},{"name":"豊商産業(有)","province":"東京都","city":"北区","address":"北区浮間4-12-5","lat":35.789169,"lon":139.696594},{"name":"(有)篠原商店","province":"東京都","city":"北区","address":"北区滝野川5-53-3","lat":35.749634,"lon":139.725876},{"name":"柄澤秀保","province":"東京都","city":"北区","address":"北区西ケ原3-20-14","lat":35.744976,"lon":139.74176},{"name":"(有)佐々木商店","province":"東京都","city":"北区","address":"北区王子4-4-5","lat":35.761272,"lon":139.733612},{"name":"(株)桂紙業  本社","province":"東京都","city":"北区","address":"北区桐ケ丘1-20-12","lat":35.777943,"lon":139.703766},{"name":"(株)宏文社","province":"東京都","city":"北区","address":"北区豊島1-14-7","lat":35.75843,"lon":139.73967},{"name":"北とぴあ","province":"東京都","city":"北区","address":"東京都北区王子1-11-1","lat":35.754891,"lon":139.736675},{"name":"赤羽観光PRコーナー","province":"東京都","city":"北区","address":"東京都北区赤羽1-67-62","lat":35.779175,"lon":139.720283},{"name":"旧古河庭園","province":"東京都","city":"北区","address":"東京都北区西ヶ原一丁目","lat":35.743102,"lon":139.746698},{"name":"(株)たかまる商店","province":"東京都","city":"北区","address":"北区赤羽西2-2-3","lat":35.772114,"lon":139.721542},{"name":"(有)鰐渕商事","province":"東京都","city":"北区","address":"北区上中里1-41-10","lat":35.744671,"lon":139.746902},{"name":"(株)シマムラ","province":"東京都","city":"北区","address":"北区昭和町1-1-8","lat":35.745796,"lon":139.756653},{"name":"(株)伊久美商店","province":"東京都","city":"北区","address":"北区滝野川7-48-11","lat":35.741234,"lon":139.724579},{"name":"豊商産業(有)","province":"東京都","city":"北区","address":"北区浮間4-12-5","lat":35.789169,"lon":139.696594},{"name":"(有)篠原商店","province":"東京都","city":"北区","address":"北区滝野川5-53-3","lat":35.749634,"lon":139.725876},{"name":"柄澤秀保","province":"東京都","city":"北区","address":"北区西ケ原3-20-14","lat":35.744976,"lon":139.74176},{"name":"(有)佐々木商店","province":"東京都","city":"北区","address":"北区王子4-4-5","lat":35.761272,"lon":139.733612},{"name":"(株)桂紙業  本社","province":"東京都","city":"北区","address":"北区桐ケ丘1-20-12","lat":35.777943,"lon":139.703766},{"name":"(株)宏文社","province":"東京都","city":"北区","address":"北区豊島1-14-7","lat":35.75843,"lon":139.73967},{"name":"北とぴあ","province":"東京都","city":"北区","address":"東京都北区王子1-11-1","lat":35.754891,"lon":139.736675},{"name":"赤羽観光PRコーナー","province":"東京都","city":"北区","address":"東京都北区赤羽1-67-62","lat":35.779175,"lon":139.720283},{"name":"旧古河庭園","province":"東京都","city":"北区","address":"東京都北区西ヶ原一丁目","lat":35.743102,"lon":139.746698},{"name":"(株)たかまる商店","province":"東京都","city":"北区","address":"北区赤羽西2-2-3","lat":35.772114,"lon":139.721542},{"name":"(有)鰐渕商事","province":"東京都","city":"北区","address":"北区上中里1-41-10","lat":35.744671,"lon":139.746902},{"name":"(株)シマムラ","province":"東京都","city":"北区","address":"北区昭和町1-1-8","lat":35.745796,"lon":139.756653},{"name":"(株)伊久美商店","province":"東京都","city":"北区","address":"北区滝野川7-48-11","lat":35.741234,"lon":139.724579},{"name":"豊商産業(有)","province":"東京都","city":"北区","address":"北区浮間4-12-5","lat":35.789169,"lon":139.696594},{"name":"(有)篠原商店","province":"東京都","city":"北区","address":"北区滝野川5-53-3","lat":35.749634,"lon":139.725876},{"name":"柄澤秀保","province":"東京都","city":"北区","address":"北区西ケ原3-20-14","lat":35.744976,"lon":139.74176},{"name":"(有)佐々木商店","province":"東京都","city":"北区","address":"北区王子4-4-5","lat":35.761272,"lon":139.733612},{"name":"(株)桂紙業  本社","province":"東京都","city":"北区","address":"北区桐ケ丘1-20-12","lat":35.777943,"lon":139.703766},{"name":"(株)宏文社","province":"東京都","city":"北区","address":"北区豊島1-14-7","lat":35.75843,"lon":139.73967},{"name":"北とぴあ","province":"東京都","city":"北区","address":"東京都北区王子1-11-1","lat":35.754891,"lon":139.736675},{"name":"赤羽観光PRコーナー","province":"東京都","city":"北区","address":"東京都北区赤羽1-67-62","lat":35.779175,"lon":139.720283},{"name":"旧古河庭園","province":"東京都","city":"北区","address":"東京都北区西ヶ原一丁目","lat":35.743102,"lon":139.746698},{"name":"(株)たかまる商店","province":"東京都","city":"北区","address":"北区赤羽西2-2-3","lat":35.772114,"lon":139.721542},{"name":"(有)鰐渕商事","province":"東京都","city":"北区","address":"北区上中里1-41-10","lat":35.744671,"lon":139.746902},{"name":"(株)シマムラ","province":"東京都","city":"北区","address":"北区昭和町1-1-8","lat":35.745796,"lon":139.756653},{"name":"(株)伊久美商店","province":"東京都","city":"北区","address":"北区滝野川7-48-11","lat":35.741234,"lon":139.724579},{"name":"豊商産業(有)","province":"東京都","city":"北区","address":"北区浮間4-12-5","lat":35.789169,"lon":139.696594},{"name":"(有)篠原商店","province":"東京都","city":"北区","address":"北区滝野川5-53-3","lat":35.749634,"lon":139.725876},{"name":"柄澤秀保","province":"東京都","city":"北区","address":"北区西ケ原3-20-14","lat":35.744976,"lon":139.74176},{"name":"(有)佐々木商店","province":"東京都","city":"北区","address":"北区王子4-4-5","lat":35.761272,"lon":139.733612},{"name":"(株)桂紙業  本社","province":"東京都","city":"北区","address":"北区桐ケ丘1-20-12","lat":35.777943,"lon":139.703766},{"name":"(株)宏文社","province":"東京都","city":"北区","address":"北区豊島1-14-7","lat":35.75843,"lon":139.73967},{"name":"北とぴあ","province":"東京都","city":"北区","address":"東京都北区王子1-11-1","lat":35.754891,"lon":139.736675},{"name":"赤羽観光PRコーナー","province":"東京都","city":"北区","address":"東京都北区赤羽1-67-62","lat":35.779175,"lon":139.720283},{"name":"旧古河庭園","province":"東京都","city":"北区","address":"東京都北区西ヶ原一丁目","lat":35.743102,"lon":139.746698},{"name":"(株)たかまる商店","province":"東京都","city":"北区","address":"北区赤羽西2-2-3","lat":35.772114,"lon":139.721542},{"name":"(有)鰐渕商事","province":"東京都","city":"北区","address":"北区上中里1-41-10","lat":35.744671,"lon":139.746902},{"name":"(株)シマムラ","province":"東京都","city":"北区","address":"北区昭和町1-1-8","lat":35.745796,"lon":139.756653},{"name":"(株)伊久美商店","province":"東京都","city":"北区","address":"北区滝野川7-48-11","lat":35.741234,"lon":139.724579},{"name":"豊商産業(有)","province":"東京都","city":"北区","address":"北区浮間4-12-5","lat":35.789169,"lon":139.696594},{"name":"(有)篠原商店","province":"東京都","city":"北区","address":"北区滝野川5-53-3","lat":35.749634,"lon":139.725876},{"name":"柄澤秀保","province":"東京都","city":"北区","address":"北区西ケ原3-20-14","lat":35.744976,"lon":139.74176},{"name":"(有)佐々木商店","province":"東京都","city":"北区","address":"北区王子4-4-5","lat":35.761272,"lon":139.733612},{"name":"(株)桂紙業  本社","province":"東京都","city":"北区","address":"北区桐ケ丘1-20-12","lat":35.777943,"lon":139.703766},{"name":"(株)宏文社","province":"東京都","city":"北区","address":"北区豊島1-14-7","lat":35.75843,"lon":139.73967},{"name":"北とぴあ","province":"東京都","city":"北区","address":"東京都北区王子1-11-1","lat":35.754891,"lon":139.736675},{"name":"赤羽観光PRコーナー","province":"東京都","city":"北区","address":"東京都北区赤羽1-67-62","lat":35.779175,"lon":139.720283},{"name":"旧古河庭園","province":"東京都","city":"北区","address":"東京都北区西ヶ原一丁目","lat":35.743102,"lon":139.746698},{"name":"(株)たかまる商店","province":"東京都","city":"北区","address":"北区赤羽西2-2-3","lat":35.772114,"lon":139.721542},{"name":"(有)鰐渕商事","province":"東京都","city":"北区","address":"北区上中里1-41-10","lat":35.744671,"lon":139.746902},{"name":"(株)シマムラ","province":"東京都","city":"北区","address":"北区昭和町1-1-8","lat":35.745796,"lon":139.756653},{"name":"(株)伊久美商店","province":"東京都","city":"北区","address":"北区滝野川7-48-11","lat":35.741234,"lon":139.724579},{"name":"豊商産業(有)","province":"東京都","city":"北区","address":"北区浮間4-12-5","lat":35.789169,"lon":139.696594},{"name":"(有)篠原商店","province":"東京都","city":"北区","address":"北区滝野川5-53-3","lat":35.749634,"lon":139.725876},{"name":"柄澤秀保","province":"東京都","city":"北区","address":"北区西ケ原3-20-14","lat":35.744976,"lon":139.74176},{"name":"(有)佐々木商店","province":"東京都","city":"北区","address":"北区王子4-4-5","lat":35.761272,"lon":139.733612},{"name":"(株)桂紙業  本社","province":"東京都","city":"北区","address":"北区桐ケ丘1-20-12","lat":35.777943,"lon":139.703766},{"name":"(株)宏文社","province":"東京都","city":"北区","address":"北区豊島1-14-7","lat":35.75843,"lon":139.73967},{"name":"北とぴあ","province":"東京都","city":"北区","address":"東京都北区王子1-11-1","lat":35.754891,"lon":139.736675},{"name":"赤羽観光PRコーナー","province":"東京都","city":"北区","address":"東京都北区赤羽1-67-62","lat":35.779175,"lon":139.720283},{"name":"旧古河庭園","province":"東京都","city":"北区","address":"東京都北区西ヶ原一丁目","lat":35.743102,"lon":139.746698},{"name":"(株)たかまる商店","province":"東京都","city":"北区","address":"北区赤羽西2-2-3","lat":35.772114,"lon":139.721542},{"name":"(有)鰐渕商事","province":"東京都","city":"北区","address":"北区上中里1-41-10","lat":35.744671,"lon":139.746902},{"name":"(株)シマムラ","province":"東京都","city":"北区","address":"北区昭和町1-1-8","lat":35.745796,"lon":139.756653},{"name":"(株)伊久美商店","province":"東京都","city":"北区","address":"北区滝野川7-48-11","lat":35.741234,"lon":139.724579},{"name":"豊商産業(有)","province":"東京都","city":"北区","address":"北区浮間4-12-5","lat":35.789169,"lon":139.696594},{"name":"(有)篠原商店","province":"東京都","city":"北区","address":"北区滝野川5-53-3","lat":35.749634,"lon":139.725876},{"name":"柄澤秀保","province":"東京都","city":"北区","address":"北区西ケ原3-20-14","lat":35.744976,"lon":139.74176},{"name":"(有)佐々木商店","province":"東京都","city":"北区","address":"北区王子4-4-5","lat":35.761272,"lon":139.733612},{"name":"(株)桂紙業  本社","province":"東京都","city":"北区","address":"北区桐ケ丘1-20-12","lat":35.777943,"lon":139.703766},{"name":"(株)宏文社","province":"東京都","city":"北区","address":"北区豊島1-14-7","lat":35.75843,"lon":139.73967},{"name":"北とぴあ","province":"東京都","city":"北区","address":"東京都北区王子1-11-1","lat":35.754891,"lon":139.736675},{"name":"赤羽観光PRコーナー","province":"東京都","city":"北区","address":"東京都北区赤羽1-67-62","lat":35.779175,"lon":139.720283},{"name":"旧古河庭園","province":"東京都","city":"北区","address":"東京都北区西ヶ原一丁目","lat":35.743102,"lon":139.746698},{"name":"(株)たかまる商店","province":"東京都","city":"北区","address":"北区赤羽西2-2-3","lat":35.772114,"lon":139.721542},{"name":"(有)鰐渕商事","province":"東京都","city":"北区","address":"北区上中里1-41-10","lat":35.744671,"lon":139.746902},{"name":"(株)シマムラ","province":"東京都","city":"北区","address":"北区昭和町1-1-8","lat":35.745796,"lon":139.756653},{"name":"(株)伊久美商店","province":"東京都","city":"北区","address":"北区滝野川7-48-11","lat":35.741234,"lon":139.724579},{"name":"豊商産業(有)","province":"東京都","city":"北区","address":"北区浮間4-12-5","lat":35.789169,"lon":139.696594},{"name":"(有)篠原商店","province":"東京都","city":"北区","address":"北区滝野川5-53-3","lat":35.749634,"lon":139.725876},{"name":"柄澤秀保","province":"東京都","city":"北区","address":"北区西ケ原3-20-14","lat":35.744976,"lon":139.74176},{"name":"(有)佐々木商店","province":"東京都","city":"北区","address":"北区王子4-4-5","lat":35.761272,"lon":139.733612},{"name":"(株)桂紙業  本社","province":"東京都","city":"北区","address":"北区桐ケ丘1-20-12","lat":35.777943,"lon":139.703766},{"name":"(株)宏文社","province":"東京都","city":"北区","address":"北区豊島1-14-7","lat":35.75843,"lon":139.73967},{"name":"北とぴあ","province":"東京都","city":"北区","address":"東京都北区王子1-11-1","lat":35.754891,"lon":139.736675},{"name":"赤羽観光PRコーナー","province":"東京都","city":"北区","address":"東京都北区赤羽1-67-62","lat":35.779175,"lon":139.720283},{"name":"旧古河庭園","province":"東京都","city":"北区","address":"東京都北区西ヶ原一丁目","lat":35.743102,"lon":139.746698},{"name":"(株)たかまる商店","province":"東京都","city":"北区","address":"北区赤羽西2-2-3","lat":35.772114,"lon":139.721542},{"name":"(有)鰐渕商事","province":"東京都","city":"北区","address":"北区上中里1-41-10","lat":35.744671,"lon":139.746902},{"name":"(株)シマムラ","province":"東京都","city":"北区","address":"北区昭和町1-1-8","lat":35.745796,"lon":139.756653},{"name":"(株)伊久美商店","province":"東京都","city":"北区","address":"北区滝野川7-48-11","lat":35.741234,"lon":139.724579},{"name":"豊商産業(有)","province":"東京都","city":"北区","address":"北区浮間4-12-5","lat":35.789169,"lon":139.696594},{"name":"(有)篠原商店","province":"東京都","city":"北区","address":"北区滝野川5-53-3","lat":35.749634,"lon":139.725876},{"name":"柄澤秀保","province":"東京都","city":"北区","address":"北区西ケ原3-20-14","lat":35.744976,"lon":139.74176},{"name":"(有)佐々木商店","province":"東京都","city":"北区","address":"北区王子4-4-5","lat":35.761272,"lon":139.733612},{"name":"(株)桂紙業  本社","province":"東京都","city":"北区","address":"北区桐ケ丘1-20-12","lat":35.777943,"lon":139.703766},{"name":"(株)宏文社","province":"東京都","city":"北区","address":"北区豊島1-14-7","lat":35.75843,"lon":139.73967},{"name":"北とぴあ","province":"東京都","city":"北区","address":"東京都北区王子1-11-1","lat":35.754891,"lon":139.736675},{"name":"赤羽観光PRコーナー","province":"東京都","city":"北区","address":"東京都北区赤羽1-67-62","lat":35.779175,"lon":139.720283},{"name":"旧古河庭園","province":"東京都","city":"北区","address":"東京都北区西ヶ原一丁目","lat":35.743102,"lon":139.746698},{"name":"(株)たかまる商店","province":"東京都","city":"北区","address":"北区赤羽西2-2-3","lat":35.772114,"lon":139.721542},{"name":"(有)鰐渕商事","province":"東京都","city":"北区","address":"北区上中里1-41-10","lat":35.744671,"lon":139.746902},{"name":"(株)シマムラ","province":"東京都","city":"北区","address":"北区昭和町1-1-8","lat":35.745796,"lon":139.756653},{"name":"(株)伊久美商店","province":"東京都","city":"北区","address":"北区滝野川7-48-11","lat":35.741234,"lon":139.724579},{"name":"豊商産業(有)","province":"東京都","city":"北区","address":"北区浮間4-12-5","lat":35.789169,"lon":139.696594},{"name":"(有)篠原商店","province":"東京都","city":"北区","address":"北区滝野川5-53-3","lat":35.749634,"lon":139.725876},{"name":"柄澤秀保","province":"東京都","city":"北区","address":"北区西ケ原3-20-14","lat":35.744976,"lon":139.74176},{"name":"(有)佐々木商店","province":"東京都","city":"北区","address":"北区王子4-4-5","lat":35.761272,"lon":139.733612},{"name":"(株)桂紙業  本社","province":"東京都","city":"北区","address":"北区桐ケ丘1-20-12","lat":35.777943,"lon":139.703766},{"name":"(株)宏文社","province":"東京都","city":"北区","address":"北区豊島1-14-7","lat":35.75843,"lon":139.73967},{"name":"北とぴあ","province":"東京都","city":"北区","address":"東京都北区王子1-11-1","lat":35.754891,"lon":139.736675},{"name":"赤羽観光PRコーナー","province":"東京都","city":"北区","address":"東京都北区赤羽1-67-62","lat":35.779175,"lon":139.720283},{"name":"旧古河庭園","province":"東京都","city":"北区","address":"東京都北区西ヶ原一丁目","lat":35.743102,"lon":139.746698},{"name":"(株)たかまる商店","province":"東京都","city":"北区","address":"北区赤羽西2-2-3","lat":35.772114,"lon":139.721542},{"name":"(有)鰐渕商事","province":"東京都","city":"北区","address":"北区上中里1-41-10","lat":35.744671,"lon":139.746902},{"name":"(株)シマムラ","province":"東京都","city":"北区","address":"北区昭和町1-1-8","lat":35.745796,"lon":139.756653},{"name":"(株)伊久美商店","province":"東京都","city":"北区","address":"北区滝野川7-48-11","lat":35.741234,"lon":139.724579},{"name":"豊商産業(有)","province":"東京都","city":"北区","address":"北区浮間4-12-5","lat":35.789169,"lon":139.696594},{"name":"(有)篠原商店","province":"東京都","city":"北区","address":"北区滝野川5-53-3","lat":35.749634,"lon":139.725876},{"name":"柄澤秀保","province":"東京都","city":"北区","address":"北区西ケ原3-20-14","lat":35.744976,"lon":139.74176},{"name":"(有)佐々木商店","province":"東京都","city":"北区","address":"北区王子4-4-5","lat":35.761272,"lon":139.733612},{"name":"(株)桂紙業  本社","province":"東京都","city":"北区","address":"北区桐ケ丘1-20-12","lat":35.777943,"lon":139.703766},{"name":"(株)宏文社","province":"東京都","city":"北区","address":"北区豊島1-14-7","lat":35.75843,"lon":139.73967},{"name":"北とぴあ","province":"東京都","city":"北区","address":"東京都北区王子1-11-1","lat":35.754891,"lon":139.736675},{"name":"赤羽観光PRコーナー","province":"東京都","city":"北区","address":"東京都北区赤羽1-67-62","lat":35.779175,"lon":139.720283},{"name":"旧古河庭園","province":"東京都","city":"北区","address":"東京都北区西ヶ原一丁目","lat":35.743102,"lon":139.746698},{"name":"(株)たかまる商店","province":"東京都","city":"北区","address":"北区赤羽西2-2-3","lat":35.772114,"lon":139.721542},{"name":"(有)鰐渕商事","province":"東京都","city":"北区","address":"北区上中里1-41-10","lat":35.744671,"lon":139.746902},{"name":"(株)シマムラ","province":"東京都","city":"北区","address":"北区昭和町1-1-8","lat":35.745796,"lon":139.756653},{"name":"(株)伊久美商店","province":"東京都","city":"北区","address":"北区滝野川7-48-11","lat":35.741234,"lon":139.724579},{"name":"豊商産業(有)","province":"東京都","city":"北区","address":"北区浮間4-12-5","lat":35.789169,"lon":139.696594},{"name":"(有)篠原商店","province":"東京都","city":"北区","address":"北区滝野川5-53-3","lat":35.749634,"lon":139.725876},{"name":"柄澤秀保","province":"東京都","city":"北区","address":"北区西ケ原3-20-14","lat":35.744976,"lon":139.74176},{"name":"(有)佐々木商店","province":"東京都","city":"北区","address":"北区王子4-4-5","lat":35.761272,"lon":139.733612},{"name":"(株)桂紙業  本社","province":"東京都","city":"北区","address":"北区桐ケ丘1-20-12","lat":35.777943,"lon":139.703766},{"name":"(株)宏文社","province":"東京都","city":"北区","address":"北区豊島1-14-7","lat":35.75843,"lon":139.73967},{"name":"北とぴあ","province":"東京都","city":"北区","address":"東京都北区王子1-11-1","lat":35.754891,"lon":139.736675},{"name":"赤羽観光PRコーナー","province":"東京都","city":"北区","address":"東京都北区赤羽1-67-62","lat":35.779175,"lon":139.720283},{"name":"旧古河庭園","province":"東京都","city":"北区","address":"東京都北区西ヶ原一丁目","lat":35.743102,"lon":139.746698},{"name":"(株)たかまる商店","province":"東京都","city":"北区","address":"北区赤羽西2-2-3","lat":35.772114,"lon":139.721542},{"name":"(有)鰐渕商事","province":"東京都","city":"北区","address":"北区上中里1-41-10","lat":35.744671,"lon":139.746902},{"name":"(株)シマムラ","province":"東京都","city":"北区","address":"北区昭和町1-1-8","lat":35.745796,"lon":139.756653},{"name":"(株)伊久美商店","province":"東京都","city":"北区","address":"北区滝野川7-48-11","lat":35.741234,"lon":139.724579},{"name":"豊商産業(有)","province":"東京都","city":"北区","address":"北区浮間4-12-5","lat":35.789169,"lon":139.696594},{"name":"(有)篠原商店","province":"東京都","city":"北区","address":"北区滝野川5-53-3","lat":35.749634,"lon":139.725876},{"name":"柄澤秀保","province":"東京都","city":"北区","address":"北区西ケ原3-20-14","lat":35.744976,"lon":139.74176},{"name":"(有)佐々木商店","province":"東京都","city":"北区","address":"北区王子4-4-5","lat":35.761272,"lon":139.733612},{"name":"(株)桂紙業  本社","province":"東京都","city":"北区","address":"北区桐ケ丘1-20-12","lat":35.777943,"lon":139.703766},{"name":"(株)宏文社","province":"東京都","city":"北区","address":"北区豊島1-14-7","lat":35.75843,"lon":139.73967},{"name":"北とぴあ","province":"東京都","city":"北区","address":"東京都北区王子1-11-1","lat":35.754891,"lon":139.736675},{"name":"赤羽観光PRコーナー","province":"東京都","city":"北区","address":"東京都北区赤羽1-67-62","lat":35.779175,"lon":139.720283},{"name":"旧古河庭園","province":"東京都","city":"北区","address":"東京都北区西ヶ原一丁目","lat":35.743102,"lon":139.746698},{"name":"(株)たかまる商店","province":"東京都","city":"北区","address":"北区赤羽西2-2-3","lat":35.772114,"lon":139.721542},{"name":"(有)鰐渕商事","province":"東京都","city":"北区","address":"北区上中里1-41-10","lat":35.744671,"lon":139.746902},{"name":"(株)シマムラ","province":"東京都","city":"北区","address":"北区昭和町1-1-8","lat":35.745796,"lon":139.756653},{"name":"(株)伊久美商店","province":"東京都","city":"北区","address":"北区滝野川7-48-11","lat":35.741234,"lon":139.724579},{"name":"豊商産業(有)","province":"東京都","city":"北区","address":"北区浮間4-12-5","lat":35.789169,"lon":139.696594},{"name":"(有)篠原商店","province":"東京都","city":"北区","address":"北区滝野川5-53-3","lat":35.749634,"lon":139.725876},{"name":"柄澤秀保","province":"東京都","city":"北区","address":"北区西ケ原3-20-14","lat":35.744976,"lon":139.74176},{"name":"(有)佐々木商店","province":"東京都","city":"北区","address":"北区王子4-4-5","lat":35.761272,"lon":139.733612},{"name":"(株)桂紙業  本社","province":"東京都","city":"北区","address":"北区桐ケ丘1-20-12","lat":35.777943,"lon":139.703766},{"name":"(株)宏文社","province":"東京都","city":"北区","address":"北区豊島1-14-7","lat":35.75843,"lon":139.73967},{"name":"北とぴあ","province":"東京都","city":"北区","address":"東京都北区王子1-11-1","lat":35.754891,"lon":139.736675},{"name":"赤羽観光PRコーナー","province":"東京都","city":"北区","address":"東京都北区赤羽1-67-62","lat":35.779175,"lon":139.720283},{"name":"旧古河庭園","province":"東京都","city":"北区","address":"東京都北区西ヶ原一丁目","lat":35.743102,"lon":139.746698},{"name":"(株)たかまる商店","province":"東京都","city":"北区","address":"北区赤羽西2-2-3","lat":35.772114,"lon":139.721542},{"name":"(有)鰐渕商事","province":"東京都","city":"北区","address":"北区上中里1-41-10","lat":35.744671,"lon":139.746902},{"name":"(株)シマムラ","province":"東京都","city":"北区","address":"北区昭和町1-1-8","lat":35.745796,"lon":139.756653},{"name":"(株)伊久美商店","province":"東京都","city":"北区","address":"北区滝野川7-48-11","lat":35.741234,"lon":139.724579},{"name":"豊商産業(有)","province":"東京都","city":"北区","address":"北区浮間4-12-5","lat":35.789169,"lon":139.696594},{"name":"(有)篠原商店","province":"東京都","city":"北区","address":"北区滝野川5-53-3","lat":35.749634,"lon":139.725876},{"name":"柄澤秀保","province":"東京都","city":"北区","address":"北区西ケ原3-20-14","lat":35.744976,"lon":139.74176},{"name":"(有)佐々木商店","province":"東京都","city":"北区","address":"北区王子4-4-5","lat":35.761272,"lon":139.733612},{"name":"(株)桂紙業  本社","province":"東京都","city":"北区","address":"北区桐ケ丘1-20-12","lat":35.777943,"lon":139.703766},{"name":"(株)宏文社","province":"東京都","city":"北区","address":"北区豊島1-14-7","lat":35.75843,"lon":139.73967},{"name":"北とぴあ","province":"東京都","city":"北区","address":"東京都北区王子1-11-1","lat":35.754891,"lon":139.736675},{"name":"赤羽観光PRコーナー","province":"東京都","city":"北区","address":"東京都北区赤羽1-67-62","lat":35.779175,"lon":139.720283},{"name":"旧古河庭園","province":"東京都","city":"北区","address":"東京都北区西ヶ原一丁目","lat":35.743102,"lon":139.746698},{"name":"(株)たかまる商店","province":"東京都","city":"北区","address":"北区赤羽西2-2-3","lat":35.772114,"lon":139.721542},{"name":"(有)鰐渕商事","province":"東京都","city":"北区","address":"北区上中里1-41-10","lat":35.744671,"lon":139.746902},{"name":"(株)シマムラ","province":"東京都","city":"北区","address":"北区昭和町1-1-8","lat":35.745796,"lon":139.756653},{"name":"(株)伊久美商店","province":"東京都","city":"北区","address":"北区滝野川7-48-11","lat":35.741234,"lon":139.724579},{"name":"豊商産業(有)","province":"東京都","city":"北区","address":"北区浮間4-12-5","lat":35.789169,"lon":139.696594},{"name":"(有)篠原商店","province":"東京都","city":"北区","address":"北区滝野川5-53-3","lat":35.749634,"lon":139.725876},{"name":"柄澤秀保","province":"東京都","city":"北区","address":"北区西ケ原3-20-14","lat":35.744976,"lon":139.74176},{"name":"(有)佐々木商店","province":"東京都","city":"北区","address":"北区王子4-4-5","lat":35.761272,"lon":139.733612},{"name":"(株)桂紙業  本社","province":"東京都","city":"北区","address":"北区桐ケ丘1-20-12","lat":35.777943,"lon":139.703766},{"name":"(株)宏文社","province":"東京都","city":"北区","address":"北区豊島1-14-7","lat":35.75843,"lon":139.73967},{"name":"北とぴあ","province":"東京都","city":"北区","address":"東京都北区王子1-11-1","lat":35.754891,"lon":139.736675},{"name":"赤羽観光PRコーナー","province":"東京都","city":"北区","address":"東京都北区赤羽1-67-62","lat":35.779175,"lon":139.720283},{"name":"旧古河庭園","province":"東京都","city":"北区","address":"東京都北区西ヶ原一丁目","lat":35.743102,"lon":139.746698},{"name":"(株)たかまる商店","province":"東京都","city":"北区","address":"北区赤羽西2-2-3","lat":35.772114,"lon":139.721542},{"name":"(有)鰐渕商事","province":"東京都","city":"北区","address":"北区上中里1-41-10","lat":35.744671,"lon":139.746902},{"name":"(株)シマムラ","province":"東京都","city":"北区","address":"北区昭和町1-1-8","lat":35.745796,"lon":139.756653},{"name":"(株)伊久美商店","province":"東京都","city":"北区","address":"北区滝野川7-48-11","lat":35.741234,"lon":139.724579},{"name":"豊商産業(有)","province":"東京都","city":"北区","address":"北区浮間4-12-5","lat":35.789169,"lon":139.696594},{"name":"(有)篠原商店","province":"東京都","city":"北区","address":"北区滝野川5-53-3","lat":35.749634,"lon":139.725876},{"name":"柄澤秀保","province":"東京都","city":"北区","address":"北区西ケ原3-20-14","lat":35.744976,"lon":139.74176},{"name":"(有)佐々木商店","province":"東京都","city":"北区","address":"北区王子4-4-5","lat":35.761272,"lon":139.733612},{"name":"(株)桂紙業  本社","province":"東京都","city":"北区","address":"北区桐ケ丘1-20-12","lat":35.777943,"lon":139.703766},{"name":"(株)宏文社","province":"東京都","city":"北区","address":"北区豊島1-14-7","lat":35.75843,"lon":139.73967},{"name":"北とぴあ","province":"東京都","city":"北区","address":"東京都北区王子1-11-1","lat":35.754891,"lon":139.736675},{"name":"赤羽観光PRコーナー","province":"東京都","city":"北区","address":"東京都北区赤羽1-67-62","lat":35.779175,"lon":139.720283},{"name":"旧古河庭園","province":"東京都","city":"北区","address":"東京都北区西ヶ原一丁目","lat":35.743102,"lon":139.746698},{"name":"(株)たかまる商店","province":"東京都","city":"北区","address":"北区赤羽西2-2-3","lat":35.772114,"lon":139.721542},{"name":"(有)鰐渕商事","province":"東京都","city":"北区","address":"北区上中里1-41-10","lat":35.744671,"lon":139.746902},{"name":"(株)シマムラ","province":"東京都","city":"北区","address":"北区昭和町1-1-8","lat":35.745796,"lon":139.756653},{"name":"(株)伊久美商店","province":"東京都","city":"北区","address":"北区滝野川7-48-11","lat":35.741234,"lon":139.724579},{"name":"豊商産業(有)","province":"東京都","city":"北区","address":"北区浮間4-12-5","lat":35.789169,"lon":139.696594},{"name":"(有)篠原商店","province":"東京都","city":"北区","address":"北区滝野川5-53-3","lat":35.749634,"lon":139.725876},{"name":"柄澤秀保","province":"東京都","city":"北区","address":"北区西ケ原3-20-14","lat":35.744976,"lon":139.74176},{"name":"(有)佐々木商店","province":"東京都","city":"北区","address":"北区王子4-4-5","lat":35.761272,"lon":139.733612},{"name":"(株)桂紙業  本社","province":"東京都","city":"北区","address":"北区桐ケ丘1-20-12","lat":35.777943,"lon":139.703766},{"name":"(株)宏文社","province":"東京都","city":"北区","address":"北区豊島1-14-7","lat":35.75843,"lon":139.73967},{"name":"北とぴあ","province":"東京都","city":"北区","address":"東京都北区王子1-11-1","lat":35.754891,"lon":139.736675},{"name":"赤羽観光PRコーナー","province":"東京都","city":"北区","address":"東京都北区赤羽1-67-62","lat":35.779175,"lon":139.720283},{"name":"旧古河庭園","province":"東京都","city":"北区","address":"東京都北区西ヶ原一丁目","lat":35.743102,"lon":139.746698},{"name":"(株)たかまる商店","province":"東京都","city":"北区","address":"北区赤羽西2-2-3","lat":35.772114,"lon":139.721542},{"name":"(有)鰐渕商事","province":"東京都","city":"北区","address":"北区上中里1-41-10","lat":35.744671,"lon":139.746902},{"name":"(株)シマムラ","province":"東京都","city":"北区","address":"北区昭和町1-1-8","lat":35.745796,"lon":139.756653},{"name":"(株)伊久美商店","province":"東京都","city":"北区","address":"北区滝野川7-48-11","lat":35.741234,"lon":139.724579},{"name":"豊商産業(有)","province":"東京都","city":"北区","address":"北区浮間4-12-5","lat":35.789169,"lon":139.696594},{"name":"(有)篠原商店","province":"東京都","city":"北区","address":"北区滝野川5-53-3","lat":35.749634,"lon":139.725876},{"name":"柄澤秀保","province":"東京都","city":"北区","address":"北区西ケ原3-20-14","lat":35.744976,"lon":139.74176},{"name":"(有)佐々木商店","province":"東京都","city":"北区","address":"北区王子4-4-5","lat":35.761272,"lon":139.733612},{"name":"(株)桂紙業  本社","province":"東京都","city":"北区","address":"北区桐ケ丘1-20-12","lat":35.777943,"lon":139.703766},{"name":"(株)宏文社","province":"東京都","city":"北区","address":"北区豊島1-14-7","lat":35.75843,"lon":139.73967},{"name":"北とぴあ","province":"東京都","city":"北区","address":"東京都北区王子1-11-1","lat":35.754891,"lon":139.736675},{"name":"赤羽観光PRコーナー","province":"東京都","city":"北区","address":"東京都北区赤羽1-67-62","lat":35.779175,"lon":139.720283},{"name":"旧古河庭園","province":"東京都","city":"北区","address":"東京都北区西ヶ原一丁目","lat":35.743102,"lon":139.746698},{"name":"(株)たかまる商店","province":"東京都","city":"北区","address":"北区赤羽西2-2-3","lat":35.772114,"lon":139.721542},{"name":"(有)鰐渕商事","province":"東京都","city":"北区","address":"北区上中里1-41-10","lat":35.744671,"lon":139.746902},{"name":"(株)シマムラ","province":"東京都","city":"北区","address":"北区昭和町1-1-8","lat":35.745796,"lon":139.756653},{"name":"(株)伊久美商店","province":"東京都","city":"北区","address":"北区滝野川7-48-11","lat":35.741234,"lon":139.724579},{"name":"豊商産業(有)","province":"東京都","city":"北区","address":"北区浮間4-12-5","lat":35.789169,"lon":139.696594},{"name":"(有)篠原商店","province":"東京都","city":"北区","address":"北区滝野川5-53-3","lat":35.749634,"lon":139.725876},{"name":"柄澤秀保","province":"東京都","city":"北区","address":"北区西ケ原3-20-14","lat":35.744976,"lon":139.74176},{"name":"(有)佐々木商店","province":"東京都","city":"北区","address":"北区王子4-4-5","lat":35.761272,"lon":139.733612},{"name":"(株)桂紙業  本社","province":"東京都","city":"北区","address":"北区桐ケ丘1-20-12","lat":35.777943,"lon":139.703766},{"name":"(株)宏文社","province":"東京都","city":"北区","address":"北区豊島1-14-7","lat":35.75843,"lon":139.73967},{"name":"北とぴあ","province":"東京都","city":"北区","address":"東京都北区王子1-11-1","lat":35.754891,"lon":139.736675},{"name":"赤羽観光PRコーナー","province":"東京都","city":"北区","address":"東京都北区赤羽1-67-62","lat":35.779175,"lon":139.720283},{"name":"旧古河庭園","province":"東京都","city":"北区","address":"東京都北区西ヶ原一丁目","lat":35.743102,"lon":139.746698},{"name":"(株)たかまる商店","province":"東京都","city":"北区","address":"北区赤羽西2-2-3","lat":35.772114,"lon":139.721542},{"name":"(有)鰐渕商事","province":"東京都","city":"北区","address":"北区上中里1-41-10","lat":35.744671,"lon":139.746902},{"name":"(株)シマムラ","province":"東京都","city":"北区","address":"北区昭和町1-1-8","lat":35.745796,"lon":139.756653},{"name":"(株)伊久美商店","province":"東京都","city":"北区","address":"北区滝野川7-48-11","lat":35.741234,"lon":139.724579},{"name":"豊商産業(有)","province":"東京都","city":"北区","address":"北区浮間4-12-5","lat":35.789169,"lon":139.696594},{"name":"(有)篠原商店","province":"東京都","city":"北区","address":"北区滝野川5-53-3","lat":35.749634,"lon":139.725876},{"name":"柄澤秀保","province":"東京都","city":"北区","address":"北区西ケ原3-20-14","lat":35.744976,"lon":139.74176},{"name":"(有)佐々木商店","province":"東京都","city":"北区","address":"北区王子4-4-5","lat":35.761272,"lon":139.733612},{"name":"(株)桂紙業  本社","province":"東京都","city":"北区","address":"北区桐ケ丘1-20-12","lat":35.777943,"lon":139.703766},{"name":"(株)宏文社","province":"東京都","city":"北区","address":"北区豊島1-14-7","lat":35.75843,"lon":139.73967},{"name":"北とぴあ","province":"東京都","city":"北区","address":"東京都北区王子1-11-1","lat":35.754891,"lon":139.736675},{"name":"赤羽観光PRコーナー","province":"東京都","city":"北区","address":"東京都北区赤羽1-67-62","lat":35.779175,"lon":139.720283},{"name":"旧古河庭園","province":"東京都","city":"北区","address":"東京都北区西ヶ原一丁目","lat":35.743102,"lon":139.746698},{"name":"(株)たかまる商店","province":"東京都","city":"北区","address":"北区赤羽西2-2-3","lat":35.772114,"lon":139.721542},{"name":"(有)鰐渕商事","province":"東京都","city":"北区","address":"北区上中里1-41-10","lat":35.744671,"lon":139.746902},{"name":"(株)シマムラ","province":"東京都","city":"北区","address":"北区昭和町1-1-8","lat":35.745796,"lon":139.756653},{"name":"(株)伊久美商店","province":"東京都","city":"北区","address":"北区滝野川7-48-11","lat":35.741234,"lon":139.724579},{"name":"豊商産業(有)","province":"東京都","city":"北区","address":"北区浮間4-12-5","lat":35.789169,"lon":139.696594},{"name":"(有)篠原商店","province":"東京都","city":"北区","address":"北区滝野川5-53-3","lat":35.749634,"lon":139.725876},{"name":"柄澤秀保","province":"東京都","city":"北区","address":"北区西ケ原3-20-14","lat":35.744976,"lon":139.74176},{"name":"(有)佐々木商店","province":"東京都","city":"北区","address":"北区王子4-4-5","lat":35.761272,"lon":139.733612},{"name":"(株)桂紙業  本社","province":"東京都","city":"北区","address":"北区桐ケ丘1-20-12","lat":35.777943,"lon":139.703766},{"name":"(株)宏文社","province":"東京都","city":"北区","address":"北区豊島1-14-7","lat":35.75843,"lon":139.73967},{"name":"北とぴあ","province":"東京都","city":"北区","address":"東京都北区王子1-11-1","lat":35.754891,"lon":139.736675},{"name":"赤羽観光PRコーナー","province":"東京都","city":"北区","address":"東京都北区赤羽1-67-62","lat":35.779175,"lon":139.720283},{"name":"旧古河庭園","province":"東京都","city":"北区","address":"東京都北区西ヶ原一丁目","lat":35.743102,"lon":139.746698},{"name":"(株)たかまる商店","province":"東京都","city":"北区","address":"北区赤羽西2-2-3","lat":35.772114,"lon":139.721542},{"name":"(有)鰐渕商事","province":"東京都","city":"北区","address":"北区上中里1-41-10","lat":35.744671,"lon":139.746902},{"name":"(株)シマムラ","province":"東京都","city":"北区","address":"北区昭和町1-1-8","lat":35.745796,"lon":139.756653},{"name":"(株)伊久美商店","province":"東京都","city":"北区","address":"北区滝野川7-48-11","lat":35.741234,"lon":139.724579},{"name":"豊商産業(有)","province":"東京都","city":"北区","address":"北区浮間4-12-5","lat":35.789169,"lon":139.696594},{"name":"(有)篠原商店","province":"東京都","city":"北区","address":"北区滝野川5-53-3","lat":35.749634,"lon":139.725876},{"name":"柄澤秀保","province":"東京都","city":"北区","address":"北区西ケ原3-20-14","lat":35.744976,"lon":139.74176},{"name":"(有)佐々木商店","province":"東京都","city":"北区","address":"北区王子4-4-5","lat":35.761272,"lon":139.733612},{"name":"(株)桂紙業  本社","province":"東京都","city":"北区","address":"北区桐ケ丘1-20-12","lat":35.777943,"lon":139.703766},{"name":"(株)宏文社","province":"東京都","city":"北区","address":"北区豊島1-14-7","lat":35.75843,"lon":139.73967},{"name":"北とぴあ","province":"東京都","city":"北区","address":"東京都北区王子1-11-1","lat":35.754891,"lon":139.736675},{"name":"赤羽観光PRコーナー","province":"東京都","city":"北区","address":"東京都北区赤羽1-67-62","lat":35.779175,"lon":139.720283},{"name":"旧古河庭園","province":"東京都","city":"北区","address":"東京都北区西ヶ原一丁目","lat":35.743102,"lon":139.746698},{"name":"(株)たかまる商店","province":"東京都","city":"北区","address":"北区赤羽西2-2-3","lat":35.772114,"lon":139.721542},{"name":"(有)鰐渕商事","province":"東京都","city":"北区","address":"北区上中里1-41-10","lat":35.744671,"lon":139.746902},{"name":"(株)シマムラ","province":"東京都","city":"北区","address":"北区昭和町1-1-8","lat":35.745796,"lon":139.756653},{"name":"(株)伊久美商店","province":"東京都","city":"北区","address":"北区滝野川7-48-11","lat":35.741234,"lon":139.724579},{"name":"豊商産業(有)","province":"東京都","city":"北区","address":"北区浮間4-12-5","lat":35.789169,"lon":139.696594},{"name":"(有)篠原商店","province":"東京都","city":"北区","address":"北区滝野川5-53-3","lat":35.749634,"lon":139.725876},{"name":"柄澤秀保","province":"東京都","city":"北区","address":"北区西ケ原3-20-14","lat":35.744976,"lon":139.74176},{"name":"(有)佐々木商店","province":"東京都","city":"北区","address":"北区王子4-4-5","lat":35.761272,"lon":139.733612},{"name":"(株)桂紙業  本社","province":"東京都","city":"北区","address":"北区桐ケ丘1-20-12","lat":35.777943,"lon":139.703766},{"name":"(株)宏文社","province":"東京都","city":"北区","address":"北区豊島1-14-7","lat":35.75843,"lon":139.73967},{"name":"北とぴあ","province":"東京都","city":"北区","address":"東京都北区王子1-11-1","lat":35.754891,"lon":139.736675},{"name":"赤羽観光PRコーナー","province":"東京都","city":"北区","address":"東京都北区赤羽1-67-62","lat":35.779175,"lon":139.720283},{"name":"旧古河庭園","province":"東京都","city":"北区","address":"東京都北区西ヶ原一丁目","lat":35.743102,"lon":139.746698},{"name":"(株)たかまる商店","province":"東京都","city":"北区","address":"北区赤羽西2-2-3","lat":35.772114,"lon":139.721542},{"name":"(有)鰐渕商事","province":"東京都","city":"北区","address":"北区上中里1-41-10","lat":35.744671,"lon":139.746902},{"name":"(株)シマムラ","province":"東京都","city":"北区","address":"北区昭和町1-1-8","lat":35.745796,"lon":139.756653},{"name":"(株)伊久美商店","province":"東京都","city":"北区","address":"北区滝野川7-48-11","lat":35.741234,"lon":139.724579},{"name":"豊商産業(有)","province":"東京都","city":"北区","address":"北区浮間4-12-5","lat":35.789169,"lon":139.696594},{"name":"(有)篠原商店","province":"東京都","city":"北区","address":"北区滝野川5-53-3","lat":35.749634,"lon":139.725876},{"name":"柄澤秀保","province":"東京都","city":"北区","address":"北区西ケ原3-20-14","lat":35.744976,"lon":139.74176},{"name":"(有)佐々木商店","province":"東京都","city":"北区","address":"北区王子4-4-5","lat":35.761272,"lon":139.733612},{"name":"(株)桂紙業  本社","province":"東京都","city":"北区","address":"北区桐ケ丘1-20-12","lat":35.777943,"lon":139.703766},{"name":"(株)宏文社","province":"東京都","city":"北区","address":"北区豊島1-14-7","lat":35.75843,"lon":139.73967},{"name":"北とぴあ","province":"東京都","city":"北区","address":"東京都北区王子1-11-1","lat":35.754891,"lon":139.736675},{"name":"赤羽観光PRコーナー","province":"東京都","city":"北区","address":"東京都北区赤羽1-67-62","lat":35.779175,"lon":139.720283},{"name":"旧古河庭園","province":"東京都","city":"北区","address":"東京都北区西ヶ原一丁目","lat":35.743102,"lon":139.746698},{"name":"(株)たかまる商店","province":"東京都","city":"北区","address":"北区赤羽西2-2-3","lat":35.772114,"lon":139.721542},{"name":"(有)鰐渕商事","province":"東京都","city":"北区","address":"北区上中里1-41-10","lat":35.744671,"lon":139.746902},{"name":"(株)シマムラ","province":"東京都","city":"北区","address":"北区昭和町1-1-8","lat":35.745796,"lon":139.756653},{"name":"(株)伊久美商店","province":"東京都","city":"北区","address":"北区滝野川7-48-11","lat":35.741234,"lon":139.724579},{"name":"豊商産業(有)","province":"東京都","city":"北区","address":"北区浮間4-12-5","lat":35.789169,"lon":139.696594},{"name":"(有)篠原商店","province":"東京都","city":"北区","address":"北区滝野川5-53-3","lat":35.749634,"lon":139.725876},{"name":"柄澤秀保","province":"東京都","city":"北区","address":"北区西ケ原3-20-14","lat":35.744976,"lon":139.74176},{"name":"(有)佐々木商店","province":"東京都","city":"北区","address":"北区王子4-4-5","lat":35.761272,"lon":139.733612},{"name":"(株)桂紙業  本社","province":"東京都","city":"北区","address":"北区桐ケ丘1-20-12","lat":35.777943,"lon":139.703766},{"name":"(株)宏文社","province":"東京都","city":"北区","address":"北区豊島1-14-7","lat":35.75843,"lon":139.73967},{"name":"北とぴあ","province":"東京都","city":"北区","address":"東京都北区王子1-11-1","lat":35.754891,"lon":139.736675},{"name":"赤羽観光PRコーナー","province":"東京都","city":"北区","address":"東京都北区赤羽1-67-62","lat":35.779175,"lon":139.720283},{"name":"旧古河庭園","province":"東京都","city":"北区","address":"東京都北区西ヶ原一丁目","lat":35.743102,"lon":139.746698},{"name":"(株)たかまる商店","province":"東京都","city":"北区","address":"北区赤羽西2-2-3","lat":35.772114,"lon":139.721542},{"name":"(有)鰐渕商事","province":"東京都","city":"北区","address":"北区上中里1-41-10","lat":35.744671,"lon":139.746902},{"name":"(株)シマムラ","province":"東京都","city":"北区","address":"北区昭和町1-1-8","lat":35.745796,"lon":139.756653},{"name":"(株)伊久美商店","province":"東京都","city":"北区","address":"北区滝野川7-48-11","lat":35.741234,"lon":139.724579},{"name":"豊商産業(有)","province":"東京都","city":"北区","address":"北区浮間4-12-5","lat":35.789169,"lon":139.696594},{"name":"(有)篠原商店","province":"東京都","city":"北区","address":"北区滝野川5-53-3","lat":35.749634,"lon":139.725876},{"name":"柄澤秀保","province":"東京都","city":"北区","address":"北区西ケ原3-20-14","lat":35.744976,"lon":139.74176},{"name":"(有)佐々木商店","province":"東京都","city":"北区","address":"北区王子4-4-5","lat":35.761272,"lon":139.733612},{"name":"(株)桂紙業  本社","province":"東京都","city":"北区","address":"北区桐ケ丘1-20-12","lat":35.777943,"lon":139.703766},{"name":"(株)宏文社","province":"東京都","city":"北区","address":"北区豊島1-14-7","lat":35.75843,"lon":139.73967},{"name":"北とぴあ","province":"東京都","city":"北区","address":"東京都北区王子1-11-1","lat":35.754891,"lon":139.736675},{"name":"赤羽観光PRコーナー","province":"東京都","city":"北区","address":"東京都北区赤羽1-67-62","lat":35.779175,"lon":139.720283},{"name":"旧古河庭園","province":"東京都","city":"北区","address":"東京都北区西ヶ原一丁目","lat":35.743102,"lon":139.746698},{"name":"(株)たかまる商店","province":"東京都","city":"北区","address":"北区赤羽西2-2-3","lat":35.772114,"lon":139.721542},{"name":"(有)鰐渕商事","province":"東京都","city":"北区","address":"北区上中里1-41-10","lat":35.744671,"lon":139.746902},{"name":"(株)シマムラ","province":"東京都","city":"北区","address":"北区昭和町1-1-8","lat":35.745796,"lon":139.756653},{"name":"(株)伊久美商店","province":"東京都","city":"北区","address":"北区滝野川7-48-11","lat":35.741234,"lon":139.724579},{"name":"豊商産業(有)","province":"東京都","city":"北区","address":"北区浮間4-12-5","lat":35.789169,"lon":139.696594},{"name":"(有)篠原商店","province":"東京都","city":"北区","address":"北区滝野川5-53-3","lat":35.749634,"lon":139.725876},{"name":"柄澤秀保","province":"東京都","city":"北区","address":"北区西ケ原3-20-14","lat":35.744976,"lon":139.74176},{"name":"(有)佐々木商店","province":"東京都","city":"北区","address":"北区王子4-4-5","lat":35.761272,"lon":139.733612},{"name":"(株)桂紙業  本社","province":"東京都","city":"北区","address":"北区桐ケ丘1-20-12","lat":35.777943,"lon":139.703766},{"name":"(株)宏文社","province":"東京都","city":"北区","address":"北区豊島1-14-7","lat":35.75843,"lon":139.73967},{"name":"北とぴあ","province":"東京都","city":"北区","address":"東京都北区王子1-11-1","lat":35.754891,"lon":139.736675},{"name":"赤羽観光PRコーナー","province":"東京都","city":"北区","address":"東京都北区赤羽1-67-62","lat":35.779175,"lon":139.720283},{"name":"旧古河庭園","province":"東京都","city":"北区","address":"東京都北区西ヶ原一丁目","lat":35.743102,"lon":139.746698},{"name":"(株)たかまる商店","province":"東京都","city":"北区","address":"北区赤羽西2-2-3","lat":35.772114,"lon":139.721542},{"name":"(有)鰐渕商事","province":"東京都","city":"北区","address":"北区上中里1-41-10","lat":35.744671,"lon":139.746902},{"name":"(株)シマムラ","province":"東京都","city":"北区","address":"北区昭和町1-1-8","lat":35.745796,"lon":139.756653},{"name":"(株)伊久美商店","province":"東京都","city":"北区","address":"北区滝野川7-48-11","lat":35.741234,"lon":139.724579},{"name":"豊商産業(有)","province":"東京都","city":"北区","address":"北区浮間4-12-5","lat":35.789169,"lon":139.696594},{"name":"(有)篠原商店","province":"東京都","city":"北区","address":"北区滝野川5-53-3","lat":35.749634,"lon":139.725876},{"name":"柄澤秀保","province":"東京都","city":"北区","address":"北区西ケ原3-20-14","lat":35.744976,"lon":139.74176},{"name":"(有)佐々木商店","province":"東京都","city":"北区","address":"北区王子4-4-5","lat":35.761272,"lon":139.733612},{"name":"(株)桂紙業  本社","province":"東京都","city":"北区","address":"北区桐ケ丘1-20-12","lat":35.777943,"lon":139.703766},{"name":"(株)宏文社","province":"東京都","city":"北区","address":"北区豊島1-14-7","lat":35.75843,"lon":139.73967},{"name":"北とぴあ","province":"東京都","city":"北区","address":"東京都北区王子1-11-1","lat":35.754891,"lon":139.736675},{"name":"赤羽観光PRコーナー","province":"東京都","city":"北区","address":"東京都北区赤羽1-67-62","lat":35.779175,"lon":139.720283},{"name":"旧古河庭園","province":"東京都","city":"北区","address":"東京都北区西ヶ原一丁目","lat":35.743102,"lon":139.746698},{"name":"(株)たかまる商店","province":"東京都","city":"北区","address":"北区赤羽西2-2-3","lat":35.772114,"lon":139.721542},{"name":"(有)鰐渕商事","province":"東京都","city":"北区","address":"北区上中里1-41-10","lat":35.744671,"lon":139.746902},{"name":"(株)シマムラ","province":"東京都","city":"北区","address":"北区昭和町1-1-8","lat":35.745796,"lon":139.756653},{"name":"(株)伊久美商店","province":"東京都","city":"北区","address":"北区滝野川7-48-11","lat":35.741234,"lon":139.724579},{"name":"豊商産業(有)","province":"東京都","city":"北区","address":"北区浮間4-12-5","lat":35.789169,"lon":139.696594},{"name":"(有)篠原商店","province":"東京都","city":"北区","address":"北区滝野川5-53-3","lat":35.749634,"lon":139.725876},{"name":"柄澤秀保","province":"東京都","city":"北区","address":"北区西ケ原3-20-14","lat":35.744976,"lon":139.74176},{"name":"(有)佐々木商店","province":"東京都","city":"北区","address":"北区王子4-4-5","lat":35.761272,"lon":139.733612},{"name":"(株)桂紙業  本社","province":"東京都","city":"北区","address":"北区桐ケ丘1-20-12","lat":35.777943,"lon":139.703766},{"name":"(株)宏文社","province":"東京都","city":"北区","address":"北区豊島1-14-7","lat":35.75843,"lon":139.73967},{"name":"北とぴあ","province":"東京都","city":"北区","address":"東京都北区王子1-11-1","lat":35.754891,"lon":139.736675},{"name":"赤羽観光PRコーナー","province":"東京都","city":"北区","address":"東京都北区赤羽1-67-62","lat":35.779175,"lon":139.720283},{"name":"旧古河庭園","province":"東京都","city":"北区","address":"東京都北区西ヶ原一丁目","lat":35.743102,"lon":139.746698},{"name":"(株)たかまる商店","province":"東京都","city":"北区","address":"北区赤羽西2-2-3","lat":35.772114,"lon":139.721542},{"name":"(有)鰐渕商事","province":"東京都","city":"北区","address":"北区上中里1-41-10","lat":35.744671,"lon":139.746902},{"name":"(株)シマムラ","province":"東京都","city":"北区","address":"北区昭和町1-1-8","lat":35.745796,"lon":139.756653},{"name":"(株)伊久美商店","province":"東京都","city":"北区","address":"北区滝野川7-48-11","lat":35.741234,"lon":139.724579},{"name":"豊商産業(有)","province":"東京都","city":"北区","address":"北区浮間4-12-5","lat":35.789169,"lon":139.696594},{"name":"(有)篠原商店","province":"東京都","city":"北区","address":"北区滝野川5-53-3","lat":35.749634,"lon":139.725876},{"name":"柄澤秀保","province":"東京都","city":"北区","address":"北区西ケ原3-20-14","lat":35.744976,"lon":139.74176},{"name":"(有)佐々木商店","province":"東京都","city":"北区","address":"北区王子4-4-5","lat":35.761272,"lon":139.733612},{"name":"(株)桂紙業  本社","province":"東京都","city":"北区","address":"北区桐ケ丘1-20-12","lat":35.777943,"lon":139.703766},{"name":"(株)宏文社","province":"東京都","city":"北区","address":"北区豊島1-14-7","lat":35.75843,"lon":139.73967},{"name":"北とぴあ","province":"東京都","city":"北区","address":"東京都北区王子1-11-1","lat":35.754891,"lon":139.736675},{"name":"赤羽観光PRコーナー","province":"東京都","city":"北区","address":"東京都北区赤羽1-67-62","lat":35.779175,"lon":139.720283},{"name":"旧古河庭園","province":"東京都","city":"北区","address":"東京都北区西ヶ原一丁目","lat":35.743102,"lon":139.746698},{"name":"(株)たかまる商店","province":"東京都","city":"北区","address":"北区赤羽西2-2-3","lat":35.772114,"lon":139.721542},{"name":"(有)鰐渕商事","province":"東京都","city":"北区","address":"北区上中里1-41-10","lat":35.744671,"lon":139.746902},{"name":"(株)シマムラ","province":"東京都","city":"北区","address":"北区昭和町1-1-8","lat":35.745796,"lon":139.756653},{"name":"(株)伊久美商店","province":"東京都","city":"北区","address":"北区滝野川7-48-11","lat":35.741234,"lon":139.724579},{"name":"豊商産業(有)","province":"東京都","city":"北区","address":"北区浮間4-12-5","lat":35.789169,"lon":139.696594},{"name":"(有)篠原商店","province":"東京都","city":"北区","address":"北区滝野川5-53-3","lat":35.749634,"lon":139.725876},{"name":"柄澤秀保","province":"東京都","city":"北区","address":"北区西ケ原3-20-14","lat":35.744976,"lon":139.74176},{"name":"(有)佐々木商店","province":"東京都","city":"北区","address":"北区王子4-4-5","lat":35.761272,"lon":139.733612},{"name":"(株)桂紙業  本社","province":"東京都","city":"北区","address":"北区桐ケ丘1-20-12","lat":35.777943,"lon":139.703766},{"name":"(株)宏文社","province":"東京都","city":"北区","address":"北区豊島1-14-7","lat":35.75843,"lon":139.73967},{"name":"北とぴあ","province":"東京都","city":"北区","address":"東京都北区王子1-11-1","lat":35.754891,"lon":139.736675},{"name":"赤羽観光PRコーナー","province":"東京都","city":"北区","address":"東京都北区赤羽1-67-62","lat":35.779175,"lon":139.720283},{"name":"旧古河庭園","province":"東京都","city":"北区","address":"東京都北区西ヶ原一丁目","lat":35.743102,"lon":139.746698},{"name":"(株)たかまる商店","province":"東京都","city":"北区","address":"北区赤羽西2-2-3","lat":35.772114,"lon":139.721542},{"name":"(有)鰐渕商事","province":"東京都","city":"北区","address":"北区上中里1-41-10","lat":35.744671,"lon":139.746902},{"name":"(株)シマムラ","province":"東京都","city":"北区","address":"北区昭和町1-1-8","lat":35.745796,"lon":139.756653},{"name":"(株)伊久美商店","province":"東京都","city":"北区","address":"北区滝野川7-48-11","lat":35.741234,"lon":139.724579},{"name":"豊商産業(有)","province":"東京都","city":"北区","address":"北区浮間4-12-5","lat":35.789169,"lon":139.696594},{"name":"(有)篠原商店","province":"東京都","city":"北区","address":"北区滝野川5-53-3","lat":35.749634,"lon":139.725876},{"name":"柄澤秀保","province":"東京都","city":"北区","address":"北区西ケ原3-20-14","lat":35.744976,"lon":139.74176},{"name":"(有)佐々木商店","province":"東京都","city":"北区","address":"北区王子4-4-5","lat":35.761272,"lon":139.733612},{"name":"(株)桂紙業  本社","province":"東京都","city":"北区","address":"北区桐ケ丘1-20-12","lat":35.777943,"lon":139.703766},{"name":"(株)宏文社","province":"東京都","city":"北区","address":"北区豊島1-14-7","lat":35.75843,"lon":139.73967},{"name":"北とぴあ","province":"東京都","city":"北区","address":"東京都北区王子1-11-1","lat":35.754891,"lon":139.736675},{"name":"赤羽観光PRコーナー","province":"東京都","city":"北区","address":"東京都北区赤羽1-67-62","lat":35.779175,"lon":139.720283},{"name":"旧古河庭園","province":"東京都","city":"北区","address":"東京都北区西ヶ原一丁目","lat":35.743102,"lon":139.746698},{"name":"(株)たかまる商店","province":"東京都","city":"北区","address":"北区赤羽西2-2-3","lat":35.772114,"lon":139.721542},{"name":"(有)鰐渕商事","province":"東京都","city":"北区","address":"北区上中里1-41-10","lat":35.744671,"lon":139.746902},{"name":"(株)シマムラ","province":"東京都","city":"北区","address":"北区昭和町1-1-8","lat":35.745796,"lon":139.756653},{"name":"(株)伊久美商店","province":"東京都","city":"北区","address":"北区滝野川7-48-11","lat":35.741234,"lon":139.724579},{"name":"豊商産業(有)","province":"東京都","city":"北区","address":"北区浮間4-12-5","lat":35.789169,"lon":139.696594},{"name":"(有)篠原商店","province":"東京都","city":"北区","address":"北区滝野川5-53-3","lat":35.749634,"lon":139.725876},{"name":"柄澤秀保","province":"東京都","city":"北区","address":"北区西ケ原3-20-14","lat":35.744976,"lon":139.74176},{"name":"(有)佐々木商店","province":"東京都","city":"北区","address":"北区王子4-4-5","lat":35.761272,"lon":139.733612},{"name":"(株)桂紙業  本社","province":"東京都","city":"北区","address":"北区桐ケ丘1-20-12","lat":35.777943,"lon":139.703766},{"name":"(株)宏文社","province":"東京都","city":"北区","address":"北区豊島1-14-7","lat":35.75843,"lon":139.73967},{"name":"北とぴあ","province":"東京都","city":"北区","address":"東京都北区王子1-11-1","lat":35.754891,"lon":139.736675},{"name":"赤羽観光PRコーナー","province":"東京都","city":"北区","address":"東京都北区赤羽1-67-62","lat":35.779175,"lon":139.720283},{"name":"旧古河庭園","province":"東京都","city":"北区","address":"東京都北区西ヶ原一丁目","lat":35.743102,"lon":139.746698},{"name":"(株)たかまる商店","province":"東京都","city":"北区","address":"北区赤羽西2-2-3","lat":35.772114,"lon":139.721542},{"name":"(有)鰐渕商事","province":"東京都","city":"北区","address":"北区上中里1-41-10","lat":35.744671,"lon":139.746902},{"name":"(株)シマムラ","province":"東京都","city":"北区","address":"北区昭和町1-1-8","lat":35.745796,"lon":139.756653},{"name":"(株)伊久美商店","province":"東京都","city":"北区","address":"北区滝野川7-48-11","lat":35.741234,"lon":139.724579},{"name":"豊商産業(有)","province":"東京都","city":"北区","address":"北区浮間4-12-5","lat":35.789169,"lon":139.696594},{"name":"(有)篠原商店","province":"東京都","city":"北区","address":"北区滝野川5-53-3","lat":35.749634,"lon":139.725876},{"name":"柄澤秀保","province":"東京都","city":"北区","address":"北区西ケ原3-20-14","lat":35.744976,"lon":139.74176},{"name":"(有)佐々木商店","province":"東京都","city":"北区","address":"北区王子4-4-5","lat":35.761272,"lon":139.733612},{"name":"(株)桂紙業  本社","province":"東京都","city":"北区","address":"北区桐ケ丘1-20-12","lat":35.777943,"lon":139.703766},{"name":"(株)宏文社","province":"東京都","city":"北区","address":"北区豊島1-14-7","lat":35.75843,"lon":139.73967},{"name":"北とぴあ","province":"東京都","city":"北区","address":"東京都北区王子1-11-1","lat":35.754891,"lon":139.736675},{"name":"赤羽観光PRコーナー","province":"東京都","city":"北区","address":"東京都北区赤羽1-67-62","lat":35.779175,"lon":139.720283},{"name":"旧古河庭園","province":"東京都","city":"北区","address":"東京都北区西ヶ原一丁目","lat":35.743102,"lon":139.746698},{"name":"(株)たかまる商店","province":"東京都","city":"北区","address":"北区赤羽西2-2-3","lat":35.772114,"lon":139.721542},{"name":"(有)鰐渕商事","province":"東京都","city":"北区","address":"北区上中里1-41-10","lat":35.744671,"lon":139.746902},{"name":"(株)シマムラ","province":"東京都","city":"北区","address":"北区昭和町1-1-8","lat":35.745796,"lon":139.756653},{"name":"(株)伊久美商店","province":"東京都","city":"北区","address":"北区滝野川7-48-11","lat":35.741234,"lon":139.724579},{"name":"豊商産業(有)","province":"東京都","city":"北区","address":"北区浮間4-12-5","lat":35.789169,"lon":139.696594},{"name":"(有)篠原商店","province":"東京都","city":"北区","address":"北区滝野川5-53-3","lat":35.749634,"lon":139.725876},{"name":"柄澤秀保","province":"東京都","city":"北区","address":"北区西ケ原3-20-14","lat":35.744976,"lon":139.74176},{"name":"(有)佐々木商店","province":"東京都","city":"北区","address":"北区王子4-4-5","lat":35.761272,"lon":139.733612},{"name":"(株)桂紙業  本社","province":"東京都","city":"北区","address":"北区桐ケ丘1-20-12","lat":35.777943,"lon":139.703766},{"name":"(株)宏文社","province":"東京都","city":"北区","address":"北区豊島1-14-7","lat":35.75843,"lon":139.73967},{"name":"北とぴあ","province":"東京都","city":"北区","address":"東京都北区王子1-11-1","lat":35.754891,"lon":139.736675},{"name":"赤羽観光PRコーナー","province":"東京都","city":"北区","address":"東京都北区赤羽1-67-62","lat":35.779175,"lon":139.720283},{"name":"旧古河庭園","province":"東京都","city":"北区","address":"東京都北区西ヶ原一丁目","lat":35.743102,"lon":139.746698},{"name":"(株)たかまる商店","province":"東京都","city":"北区","address":"北区赤羽西2-2-3","lat":35.772114,"lon":139.721542},{"name":"(有)鰐渕商事","province":"東京都","city":"北区","address":"北区上中里1-41-10","lat":35.744671,"lon":139.746902},{"name":"(株)シマムラ","province":"東京都","city":"北区","address":"北区昭和町1-1-8","lat":35.745796,"lon":139.756653},{"name":"(株)伊久美商店","province":"東京都","city":"北区","address":"北区滝野川7-48-11","lat":35.741234,"lon":139.724579},{"name":"豊商産業(有)","province":"東京都","city":"北区","address":"北区浮間4-12-5","lat":35.789169,"lon":139.696594},{"name":"(有)篠原商店","province":"東京都","city":"北区","address":"北区滝野川5-53-3","lat":35.749634,"lon":139.725876},{"name":"柄澤秀保","province":"東京都","city":"北区","address":"北区西ケ原3-20-14","lat":35.744976,"lon":139.74176},{"name":"(有)佐々木商店","province":"東京都","city":"北区","address":"北区王子4-4-5","lat":35.761272,"lon":139.733612},{"name":"(株)桂紙業  本社","province":"東京都","city":"北区","address":"北区桐ケ丘1-20-12","lat":35.777943,"lon":139.703766},{"name":"(株)宏文社","province":"東京都","city":"北区","address":"北区豊島1-14-7","lat":35.75843,"lon":139.73967},{"name":"北とぴあ","province":"東京都","city":"北区","address":"東京都北区王子1-11-1","lat":35.754891,"lon":139.736675},{"name":"赤羽観光PRコーナー","province":"東京都","city":"北区","address":"東京都北区赤羽1-67-62","lat":35.779175,"lon":139.720283}]}