{"keyword":"一覧","data":[{"name":"北区役所第一庁舎","province":"東京都","city":"北区","address":"東京都北区王子本町1丁目15-22","lat":35.75280347,"lon":139.73349965},{"name":"北区役所第二庁舎","province":"東京都","city":"北区","address":"東京都北区王子本町1丁目2-11","lat":35.75267852,"lon":139.73490788},{"name":"総合スポーツセンター\"","province":"東京都","city":"北区","address":"東京都北区十条台1丁目2-2","lat":35.75376426,"lon":139.72398652},{"name":"十条台小学校温水プール","province":"東京都","city":"北区","address":"東京都北区中十条1丁目5-6","lat":35.75867219,"lon":139.73040246},{"name":"北都税事務所","province":"東京都","city":"北区","address":"東京都北区中十条1丁目7-8","lat":35.75822221,"lon":139.72918591}]}