{"keyword":"伐採","data":[{"name":"東京北医療センター","province":"東京都","city":"北区","address":"東京都北区赤羽台4丁目17-56","lat":35.78387391,"lon":139.71141424},{"name":"北区立中央公園野球場","province":"東京都","city":"北区","address":"東京都北区十条台1丁目2-1","lat":35.75320885,"lon":139.72756124},{"name":"北区立十条富士見中学校校庭","province":"東京都","city":"北区","address":"東京都北区十条台1丁目9-33","lat":35.75717496,"lon":139.72321144},{"name":"荒川下流岩淵場外","province":"東京都","city":"北区","address":"東京都北区志茂4丁目19-1","lat":35.78343288,"lon":139.73218195},{"name":"北区立北運動公園","province":"東京都","city":"北区","address":"東京都北区神谷2丁目47-6","lat":35.77383973,"lon":139.72797147},{"name":"北区立赤羽スポーツの森公園","province":"東京都","city":"北区","address":"東京都北区赤羽西5丁目2","lat":35.77326984,"lon":139.71003689},{"name":"北区立赤羽自然観察公園","province":"東京都","city":"北区","address":"東京都北区赤羽西5丁目2-34","lat":35.77431419,"lon":139.71157561},{"name":"新河岸東公園・浮間子どもスポーツ広場","province":"東京都","city":"北区","address":"東京都北区浮間4丁目27-1","lat":35.78904234,"lon":139.69236003},{"name":"豊島五丁目遊び場","province":"東京都","city":"北区","address":"東京都北区豊島5丁目6-1","lat":35.76470834,"lon":139.75516113},{"name":"国立西が丘サッカー場","province":"東京都","city":"北区","address":"東京都北区西が丘3丁目15","lat":35.76766219,"lon":139.70831224},{"name":"荒川下流岩淵場外","province":"東京都","city":"北区","address":"東京都北区志茂4丁目19-1","lat":35.78343288,"lon":139.73218195},{"name":"岩淵緊急用船着場","province":"東京都","city":"北区","address":"東京都北区志茂5丁目","lat":35.78393271,"lon":139.72875445},{"name":"岩淵","province":"東京都","city":"北区","address":"東京都北区志茂5丁目","lat":35.78393271,"lon":139.72875445},{"name":"豊島","province":"東京都","city":"北区","address":"東京都北区豊島5丁目","lat":35.76601912,"lon":139.74959212},{"name":"北赤羽","province":"東京都","city":"北区","address":"東京都北区浮間1丁目","lat":35.78863696,"lon":139.70479799},{"name":"東京北医療センター","province":"東京都","city":"北区","address":"東京都北区赤羽台4丁目17-56","lat":35.78387391,"lon":139.71141424},{"name":"北区立中央公園野球場","province":"東京都","city":"北区","address":"東京都北区十条台1丁目2-1","lat":35.75320885,"lon":139.72756124},{"name":"北区立十条富士見中学校校庭","province":"東京都","city":"北区","address":"東京都北区十条台1丁目9-33","lat":35.75717496,"lon":139.72321144},{"name":"荒川下流岩淵場外","province":"東京都","city":"北区","address":"東京都北区志茂4丁目19-1","lat":35.78343288,"lon":139.73218195},{"name":"北区立北運動公園","province":"東京都","city":"北区","address":"東京都北区神谷2丁目47-6","lat":35.77383973,"lon":139.72797147},{"name":"北区立赤羽スポーツの森公園","province":"東京都","city":"北区","address":"東京都北区赤羽西5丁目2","lat":35.77326984,"lon":139.71003689},{"name":"北区立赤羽自然観察公園","province":"東京都","city":"北区","address":"東京都北区赤羽西5丁目2-34","lat":35.77431419,"lon":139.71157561},{"name":"新河岸東公園・浮間子どもスポーツ広場","province":"東京都","city":"北区","address":"東京都北区浮間4丁目27-1","lat":35.78904234,"lon":139.69236003},{"name":"豊島五丁目遊び場","province":"東京都","city":"北区","address":"東京都北区豊島5丁目6-1","lat":35.76470834,"lon":139.75516113},{"name":"国立西が丘サッカー場","province":"東京都","city":"北区","address":"東京都北区西が丘3丁目15","lat":35.76766219,"lon":139.70831224},{"name":"荒川下流岩淵場外","province":"東京都","city":"北区","address":"東京都北区志茂4丁目19-1","lat":35.78343288,"lon":139.73218195},{"name":"岩淵緊急用船着場","province":"東京都","city":"北区","address":"東京都北区志茂5丁目","lat":35.78393271,"lon":139.72875445},{"name":"岩淵","province":"東京都","city":"北区","address":"東京都北区志茂5丁目","lat":35.78393271,"lon":139.72875445},{"name":"豊島","province":"東京都","city":"北区","address":"東京都北区豊島5丁目","lat":35.76601912,"lon":139.74959212},{"name":"北赤羽","province":"東京都","city":"北区","address":"東京都北区浮間1丁目","lat":35.78863696,"lon":139.70479799},{"name":"東京北医療センター","province":"東京都","city":"北区","address":"東京都北区赤羽台4丁目17-56","lat":35.78387391,"lon":139.71141424},{"name":"北区立中央公園野球場","province":"東京都","city":"北区","address":"東京都北区十条台1丁目2-1","lat":35.75320885,"lon":139.72756124},{"name":"北区立十条富士見中学校校庭","province":"東京都","city":"北区","address":"東京都北区十条台1丁目9-33","lat":35.75717496,"lon":139.72321144},{"name":"荒川下流岩淵場外","province":"東京都","city":"北区","address":"東京都北区志茂4丁目19-1","lat":35.78343288,"lon":139.73218195},{"name":"北区立北運動公園","province":"東京都","city":"北区","address":"東京都北区神谷2丁目47-6","lat":35.77383973,"lon":139.72797147},{"name":"北区立赤羽スポーツの森公園","province":"東京都","city":"北区","address":"東京都北区赤羽西5丁目2","lat":35.77326984,"lon":139.71003689},{"name":"北区立赤羽自然観察公園","province":"東京都","city":"北区","address":"東京都北区赤羽西5丁目2-34","lat":35.77431419,"lon":139.71157561},{"name":"新河岸東公園・浮間子どもスポーツ広場","province":"東京都","city":"北区","address":"東京都北区浮間4丁目27-1","lat":35.78904234,"lon":139.69236003},{"name":"豊島五丁目遊び場","province":"東京都","city":"北区","address":"東京都北区豊島5丁目6-1","lat":35.76470834,"lon":139.75516113},{"name":"国立西が丘サッカー場","province":"東京都","city":"北区","address":"東京都北区西が丘3丁目15","lat":35.76766219,"lon":139.70831224},{"name":"荒川下流岩淵場外","province":"東京都","city":"北区","address":"東京都北区志茂4丁目19-1","lat":35.78343288,"lon":139.73218195},{"name":"岩淵緊急用船着場","province":"東京都","city":"北区","address":"東京都北区志茂5丁目","lat":35.78393271,"lon":139.72875445},{"name":"岩淵","province":"東京都","city":"北区","address":"東京都北区志茂5丁目","lat":35.78393271,"lon":139.72875445},{"name":"豊島","province":"東京都","city":"北区","address":"東京都北区豊島5丁目","lat":35.76601912,"lon":139.74959212},{"name":"北赤羽","province":"東京都","city":"北区","address":"東京都北区浮間1丁目","lat":35.78863696,"lon":139.70479799},{"name":"東京北医療センター","province":"東京都","city":"北区","address":"東京都北区赤羽台4丁目17-56","lat":35.78387391,"lon":139.71141424},{"name":"岩淵緊急用船着場","province":"東京都","city":"北区","address":"東京都北区志茂5丁目","lat":35.78393271,"lon":139.72875445},{"name":"岩淵","province":"東京都","city":"北区","address":"東京都北区志茂5丁目","lat":35.78393271,"lon":139.72875445},{"name":"豊島","province":"東京都","city":"北区","address":"東京都北区豊島5丁目","lat":35.76601912,"lon":139.74959212},{"name":"北赤羽","province":"東京都","city":"北区","address":"東京都北区浮間1丁目","lat":35.78863696,"lon":139.70479799},{"name":"東京北医療センター","province":"東京都","city":"北区","address":"東京都北区赤羽台4丁目17-56","lat":35.78387391,"lon":139.71141424},{"name":"岩淵緊急用船着場","province":"東京都","city":"北区","address":"東京都北区志茂5丁目","lat":35.78393271,"lon":139.72875445},{"name":"岩淵","province":"東京都","city":"北区","address":"東京都北区志茂5丁目","lat":35.78393271,"lon":139.72875445},{"name":"豊島","province":"東京都","city":"北区","address":"東京都北区豊島5丁目","lat":35.76601912,"lon":139.74959212},{"name":"北赤羽","province":"東京都","city":"北区","address":"東京都北区浮間1丁目","lat":35.78863696,"lon":139.70479799},{"name":"東京北医療センター","province":"東京都","city":"北区","address":"東京都北区赤羽台4丁目17-56","lat":35.78387391,"lon":139.71141424},{"name":"岩淵緊急用船着場","province":"東京都","city":"北区","address":"東京都北区志茂5丁目","lat":35.78393271,"lon":139.72875445},{"name":"岩淵","province":"東京都","city":"北区","address":"東京都北区志茂5丁目","lat":35.78393271,"lon":139.72875445},{"name":"豊島","province":"東京都","city":"北区","address":"東京都北区豊島5丁目","lat":35.76601912,"lon":139.74959212},{"name":"北赤羽","province":"東京都","city":"北区","address":"東京都北区浮間1丁目","lat":35.78863696,"lon":139.70479799},{"name":"東京北医療センター","province":"東京都","city":"北区","address":"東京都北区赤羽台4丁目17-56","lat":35.78387391,"lon":139.71141424},{"name":"岩淵緊急用船着場","province":"東京都","city":"北区","address":"東京都北区志茂5丁目","lat":35.78393271,"lon":139.72875445},{"name":"岩淵","province":"東京都","city":"北区","address":"東京都北区志茂5丁目","lat":35.78393271,"lon":139.72875445},{"name":"豊島","province":"東京都","city":"北区","address":"東京都北区豊島5丁目","lat":35.76601912,"lon":139.74959212},{"name":"北赤羽","province":"東京都","city":"北区","address":"東京都北区浮間1丁目","lat":35.78863696,"lon":139.70479799},{"name":"東京北医療センター","province":"東京都","city":"北区","address":"東京都北区赤羽台4丁目17-56","lat":35.78387391,"lon":139.71141424},{"name":"岩淵緊急用船着場","province":"東京都","city":"北区","address":"東京都北区志茂5丁目","lat":35.78393271,"lon":139.72875445},{"name":"岩淵","province":"東京都","city":"北区","address":"東京都北区志茂5丁目","lat":35.78393271,"lon":139.72875445},{"name":"豊島","province":"東京都","city":"北区","address":"東京都北区豊島5丁目","lat":35.76601912,"lon":139.74959212},{"name":"北赤羽","province":"東京都","city":"北区","address":"東京都北区浮間1丁目","lat":35.78863696,"lon":139.70479799},{"name":"東京北医療センター","province":"東京都","city":"北区","address":"東京都北区赤羽台4丁目17-56","lat":35.78387391,"lon":139.71141424},{"name":"岩淵緊急用船着場","province":"東京都","city":"北区","address":"東京都北区志茂5丁目","lat":35.78393271,"lon":139.72875445},{"name":"岩淵","province":"東京都","city":"北区","address":"東京都北区志茂5丁目","lat":35.78393271,"lon":139.72875445},{"name":"豊島","province":"東京都","city":"北区","address":"東京都北区豊島5丁目","lat":35.76601912,"lon":139.74959212},{"name":"北赤羽","province":"東京都","city":"北区","address":"東京都北区浮間1丁目","lat":35.78863696,"lon":139.70479799},{"name":"東京北医療センター","province":"東京都","city":"北区","address":"東京都北区赤羽台4丁目17-56","lat":35.78387391,"lon":139.71141424},{"name":"岩淵緊急用船着場","province":"東京都","city":"北区","address":"東京都北区志茂5丁目","lat":35.78393271,"lon":139.72875445},{"name":"岩淵","province":"東京都","city":"北区","address":"東京都北区志茂5丁目","lat":35.78393271,"lon":139.72875445},{"name":"豊島","province":"東京都","city":"北区","address":"東京都北区豊島5丁目","lat":35.76601912,"lon":139.74959212},{"name":"北赤羽","province":"東京都","city":"北区","address":"東京都北区浮間1丁目","lat":35.78863696,"lon":139.70479799},{"name":"東京北医療センター","province":"東京都","city":"北区","address":"東京都北区赤羽台4丁目17-56","lat":35.78387391,"lon":139.71141424},{"name":"岩淵緊急用船着場","province":"東京都","city":"北区","address":"東京都北区志茂5丁目","lat":35.78393271,"lon":139.72875445},{"name":"岩淵","province":"東京都","city":"北区","address":"東京都北区志茂5丁目","lat":35.78393271,"lon":139.72875445},{"name":"豊島","province":"東京都","city":"北区","address":"東京都北区豊島5丁目","lat":35.76601912,"lon":139.74959212},{"name":"北赤羽","province":"東京都","city":"北区","address":"東京都北区浮間1丁目","lat":35.78863696,"lon":139.70479799},{"name":"東京北医療センター","province":"東京都","city":"北区","address":"東京都北区赤羽台4丁目17-56","lat":35.78387391,"lon":139.71141424},{"name":"岩淵緊急用船着場","province":"東京都","city":"北区","address":"東京都北区志茂5丁目","lat":35.78393271,"lon":139.72875445},{"name":"岩淵","province":"東京都","city":"北区","address":"東京都北区志茂5丁目","lat":35.78393271,"lon":139.72875445},{"name":"豊島","province":"東京都","city":"北区","address":"東京都北区豊島5丁目","lat":35.76601912,"lon":139.74959212},{"name":"北赤羽","province":"東京都","city":"北区","address":"東京都北区浮間1丁目","lat":35.78863696,"lon":139.70479799},{"name":"東京北医療センター","province":"東京都","city":"北区","address":"東京都北区赤羽台4丁目17-56","lat":35.78387391,"lon":139.71141424},{"name":"岩淵緊急用船着場","province":"東京都","city":"北区","address":"東京都北区志茂5丁目","lat":35.78393271,"lon":139.72875445},{"name":"岩淵","province":"東京都","city":"北区","address":"東京都北区志茂5丁目","lat":35.78393271,"lon":139.72875445},{"name":"豊島","province":"東京都","city":"北区","address":"東京都北区豊島5丁目","lat":35.76601912,"lon":139.74959212},{"name":"北赤羽","province":"東京都","city":"北区","address":"東京都北区浮間1丁目","lat":35.78863696,"lon":139.70479799},{"name":"東京北医療センター","province":"東京都","city":"北区","address":"東京都北区赤羽台4丁目17-56","lat":35.78387391,"lon":139.71141424},{"name":"岩淵緊急用船着場","province":"東京都","city":"北区","address":"東京都北区志茂5丁目","lat":35.78393271,"lon":139.72875445},{"name":"岩淵","province":"東京都","city":"北区","address":"東京都北区志茂5丁目","lat":35.78393271,"lon":139.72875445},{"name":"豊島","province":"東京都","city":"北区","address":"東京都北区豊島5丁目","lat":35.76601912,"lon":139.74959212},{"name":"北赤羽","province":"東京都","city":"北区","address":"東京都北区浮間1丁目","lat":35.78863696,"lon":139.70479799},{"name":"東京北医療センター","province":"東京都","city":"北区","address":"東京都北区赤羽台4丁目17-56","lat":35.78387391,"lon":139.71141424},{"name":"岩淵緊急用船着場","province":"東京都","city":"北区","address":"東京都北区志茂5丁目","lat":35.78393271,"lon":139.72875445},{"name":"岩淵","province":"東京都","city":"北区","address":"東京都北区志茂5丁目","lat":35.78393271,"lon":139.72875445},{"name":"豊島","province":"東京都","city":"北区","address":"東京都北区豊島5丁目","lat":35.76601912,"lon":139.74959212},{"name":"北赤羽","province":"東京都","city":"北区","address":"東京都北区浮間1丁目","lat":35.78863696,"lon":139.70479799},{"name":"東京北医療センター","province":"東京都","city":"北区","address":"東京都北区赤羽台4丁目17-56","lat":35.78387391,"lon":139.71141424},{"name":"岩淵緊急用船着場","province":"東京都","city":"北区","address":"東京都北区志茂5丁目","lat":35.78393271,"lon":139.72875445},{"name":"岩淵","province":"東京都","city":"北区","address":"東京都北区志茂5丁目","lat":35.78393271,"lon":139.72875445},{"name":"豊島","province":"東京都","city":"北区","address":"東京都北区豊島5丁目","lat":35.76601912,"lon":139.74959212},{"name":"北赤羽","province":"東京都","city":"北区","address":"東京都北区浮間1丁目","lat":35.78863696,"lon":139.70479799},{"name":"東京北医療センター","province":"東京都","city":"北区","address":"東京都北区赤羽台4丁目17-56","lat":35.78387391,"lon":139.71141424},{"name":"岩淵緊急用船着場","province":"東京都","city":"北区","address":"東京都北区志茂5丁目","lat":35.78393271,"lon":139.72875445},{"name":"岩淵","province":"東京都","city":"北区","address":"東京都北区志茂5丁目","lat":35.78393271,"lon":139.72875445},{"name":"豊島","province":"東京都","city":"北区","address":"東京都北区豊島5丁目","lat":35.76601912,"lon":139.74959212},{"name":"北赤羽","province":"東京都","city":"北区","address":"東京都北区浮間1丁目","lat":35.78863696,"lon":139.70479799},{"name":"東京北医療センター","province":"東京都","city":"北区","address":"東京都北区赤羽台4丁目17-56","lat":35.78387391,"lon":139.71141424},{"name":"岩淵緊急用船着場","province":"東京都","city":"北区","address":"東京都北区志茂5丁目","lat":35.78393271,"lon":139.72875445},{"name":"岩淵","province":"東京都","city":"北区","address":"東京都北区志茂5丁目","lat":35.78393271,"lon":139.72875445},{"name":"豊島","province":"東京都","city":"北区","address":"東京都北区豊島5丁目","lat":35.76601912,"lon":139.74959212},{"name":"北赤羽","province":"東京都","city":"北区","address":"東京都北区浮間1丁目","lat":35.78863696,"lon":139.70479799},{"name":"東京北医療センター","province":"東京都","city":"北区","address":"東京都北区赤羽台4丁目17-56","lat":35.78387391,"lon":139.71141424},{"name":"岩淵緊急用船着場","province":"東京都","city":"北区","address":"東京都北区志茂5丁目","lat":35.78393271,"lon":139.72875445},{"name":"岩淵","province":"東京都","city":"北区","address":"東京都北区志茂5丁目","lat":35.78393271,"lon":139.72875445},{"name":"豊島","province":"東京都","city":"北区","address":"東京都北区豊島5丁目","lat":35.76601912,"lon":139.74959212},{"name":"北赤羽","province":"東京都","city":"北区","address":"東京都北区浮間1丁目","lat":35.78863696,"lon":139.70479799},{"name":"東京北医療センター","province":"東京都","city":"北区","address":"東京都北区赤羽台4丁目17-56","lat":35.78387391,"lon":139.71141424},{"name":"岩淵緊急用船着場","province":"東京都","city":"北区","address":"東京都北区志茂5丁目","lat":35.78393271,"lon":139.72875445},{"name":"岩淵","province":"東京都","city":"北区","address":"東京都北区志茂5丁目","lat":35.78393271,"lon":139.72875445},{"name":"豊島","province":"東京都","city":"北区","address":"東京都北区豊島5丁目","lat":35.76601912,"lon":139.74959212},{"name":"北赤羽","province":"東京都","city":"北区","address":"東京都北区浮間1丁目","lat":35.78863696,"lon":139.70479799},{"name":"東京北医療センター","province":"東京都","city":"北区","address":"東京都北区赤羽台4丁目17-56","lat":35.78387391,"lon":139.71141424},{"name":"岩淵緊急用船着場","province":"東京都","city":"北区","address":"東京都北区志茂5丁目","lat":35.78393271,"lon":139.72875445},{"name":"岩淵","province":"東京都","city":"北区","address":"東京都北区志茂5丁目","lat":35.78393271,"lon":139.72875445},{"name":"豊島","province":"東京都","city":"北区","address":"東京都北区豊島5丁目","lat":35.76601912,"lon":139.74959212},{"name":"北赤羽","province":"東京都","city":"北区","address":"東京都北区浮間1丁目","lat":35.78863696,"lon":139.70479799},{"name":"東京北医療センター","province":"東京都","city":"北区","address":"東京都北区赤羽台4丁目17-56","lat":35.78387391,"lon":139.71141424},{"name":"岩淵緊急用船着場","province":"東京都","city":"北区","address":"東京都北区志茂5丁目","lat":35.78393271,"lon":139.72875445},{"name":"岩淵","province":"東京都","city":"北区","address":"東京都北区志茂5丁目","lat":35.78393271,"lon":139.72875445},{"name":"豊島","province":"東京都","city":"北区","address":"東京都北区豊島5丁目","lat":35.76601912,"lon":139.74959212},{"name":"北赤羽","province":"東京都","city":"北区","address":"東京都北区浮間1丁目","lat":35.78863696,"lon":139.70479799},{"name":"東京北医療センター","province":"東京都","city":"北区","address":"東京都北区赤羽台4丁目17-56","lat":35.78387391,"lon":139.71141424},{"name":"東京北医療センター","province":"東京都","city":"北区","address":"東京都北区赤羽台4丁目17-56","lat":35.78387391,"lon":139.71141424},{"name":"東京北医療センター","province":"東京都","city":"北区","address":"東京都北区赤羽台4丁目17-56","lat":35.78387391,"lon":139.71141424},{"name":"東京北医療センター","province":"東京都","city":"北区","address":"東京都北区赤羽台4丁目17-56","lat":35.78387391,"lon":139.71141424},{"name":"東京北医療センター","province":"東京都","city":"北区","address":"東京都北区赤羽台4丁目17-56","lat":35.78387391,"lon":139.71141424},{"name":"東京北医療センター","province":"東京都","city":"北区","address":"東京都北区赤羽台4丁目17-56","lat":35.78387391,"lon":139.71141424},{"name":"東京北医療センター","province":"東京都","city":"北区","address":"東京都北区赤羽台4丁目17-56","lat":35.78387391,"lon":139.71141424},{"name":"東京北医療センター","province":"東京都","city":"北区","address":"東京都北区赤羽台4丁目17-56","lat":35.78387391,"lon":139.71141424},{"name":"東京北医療センター","province":"東京都","city":"北区","address":"東京都北区赤羽台4丁目17-56","lat":35.78387391,"lon":139.71141424},{"name":"東京北医療センター","province":"東京都","city":"北区","address":"東京都北区赤羽台4丁目17-56","lat":35.78387391,"lon":139.71141424},{"name":"東京北医療センター","province":"東京都","city":"北区","address":"東京都北区赤羽台4丁目17-56","lat":35.78387391,"lon":139.71141424},{"name":"東京北医療センター","province":"東京都","city":"北区","address":"東京都北区赤羽台4丁目17-56","lat":35.78387391,"lon":139.71141424},{"name":"東京北医療センター","province":"東京都","city":"北区","address":"東京都北区赤羽台4丁目17-56","lat":35.78387391,"lon":139.71141424}]}