{"keyword":"保育","data":[{"name":"東十条保育園","province":"東京都","city":"北区","address":"北区東十条3-2-14","lat":35.765196,"lon":139.728563},{"name":"東十条東保育園","province":"東京都","city":"北区","address":"北区東十条3-10-1","lat":35.766344,"lon":139.732771},{"name":"キッズタウン東十条保育園","province":"東京都","city":"北区","address":"北区東十条3-18-40","lat":35.76363,"lon":139.7284},{"name":"うぃず東十条保育園","province":"東京都","city":"北区","address":"北区東十条5-8-16","lat":35.768421,"lon":139.7269},{"name":"王子保育園","province":"東京都","city":"北区","address":"北区王子6-1-15","lat":35.761261,"lon":139.739152},{"name":"王子北保育園","province":"東京都","city":"北区","address":"北区王子3-23-7-113","lat":35.762419,"lon":139.738504},{"name":"桜田保育園","province":"東京都","city":"北区","address":"北区王子5-2-1-101","lat":35.763508,"lon":139.735821},{"name":"桜田北保育園","province":"東京都","city":"北区","address":"北区王子5-2-3-101","lat":35.765866,"lon":139.734213},{"name":"桜田つぼみ保育園","province":"東京都","city":"北区","address":"北区王子5-2-12","lat":35.763641,"lon":139.735099},{"name":"王子隣保館保育園","province":"東京都","city":"北区","address":"北区王子2-19-21","lat":35.758572,"lon":139.736677},{"name":"豊川保育園","province":"東京都","city":"北区","address":"北区王子6-4-10","lat":35.761256,"lon":139.742104},{"name":"ポピンズナーサリースクール王子","province":"東京都","city":"北区","address":"北区王子1-23-5ドラゴンスクエアビル4F","lat":35.755273,"lon":139.739757},{"name":"にじいろ保育園王子","province":"東京都","city":"北区","address":"北区王子5-1-40","lat":35.765594,"lon":139.731774},{"name":"ベネッセ　王子神谷保育園","province":"東京都","city":"北区","address":"北区王子5-1-70","lat":35.765877,"lon":139.731958},{"name":"あい保育園王子","province":"東京都","city":"北区","address":"北区王子1-27-8","lat":35.755706,"lon":139.740721},{"name":"としま　みつばち保育園","province":"東京都","city":"北区","address":"北区王子6-7-3","lat":35.762647,"lon":139.741607},{"name":"豊島保育園","province":"東京都","city":"北区","address":"北区豊島7-17-8","lat":35.764866,"lon":139.744198},{"name":"豊島東保育園","province":"東京都","city":"北区","address":"北区豊島5-6-12-101","lat":35.765083,"lon":139.754783},{"name":"豊島北保育園","province":"東京都","city":"北区","address":"北区豊島5-4-3-101","lat":35.766511,"lon":139.750295},{"name":"豊島つぼみ保育園","province":"東京都","city":"北区","address":"北区豊島3-10-23","lat":35.760975,"lon":139.742593},{"name":"クラブ保育園","province":"東京都","city":"北区","address":"北区豊島3-4-15","lat":35.760211,"lon":139.744135},{"name":"ふくし保育園","province":"東京都","city":"北区","address":"北区豊島2-20-5","lat":35.759542,"lon":139.746268},{"name":"キッズガーデン北区豊島","province":"東京都","city":"北区","address":"北区豊島4-12-1","lat":35.761992,"lon":139.747695},{"name":"堀船南保育園","province":"東京都","city":"北区","address":"北区堀船2-22-1-101","lat":35.755156,"lon":139.745701},{"name":"木の実保育園","province":"東京都","city":"北区","address":"北区堀船3-23-6","lat":35.753462,"lon":139.748096},{"name":"グローバルキッズ王子園","province":"東京都","city":"北区","address":"北区堀船1-1-2","lat":35.751793,"lon":139.739658},{"name":"栄町保育園","province":"東京都","city":"北区","address":"北区栄町33-3","lat":35.749998,"lon":139.742305},{"name":"にじいろ保育園田端新町","province":"東京都","city":"北区","address":"北区田端新町2-31-2","lat":35.740901,"lon":139.768034},{"name":"東田端保育園","province":"東京都","city":"北区","address":"北区東田端2-13-2-101","lat":35.742231,"lon":139.760937},{"name":"さくら保育園","province":"東京都","city":"北区","address":"北区東田端2-7-13","lat":35.740817,"lon":139.762804},{"name":"田端保育園","province":"東京都","city":"北区","address":"北区田端3-24-14","lat":35.736717,"lon":139.75611},{"name":"ポピンズナーサリースクール田端","province":"東京都","city":"北区","address":"北区田端6-1-1田端ASUKAタワー2F","lat":35.738134,"lon":139.759354},{"name":"田端聖華保育園","province":"東京都","city":"北区","address":"北区田端1-22-7","lat":35.737281,"lon":139.760959},{"name":"中里保育園","province":"東京都","city":"北区","address":"北区中里3-11-18","lat":35.74075,"lon":139.75316},{"name":"まごころ会保育園","province":"東京都","city":"北区","address":"北区上中里2-37-2","lat":35.747399,"lon":139.746999},{"name":"王子本町保育園","province":"東京都","city":"北区","address":"北区王子本町3-3-3-101","lat":35.753956,"lon":139.728525},{"name":"滝野川保育園","province":"東京都","city":"北区","address":"北区滝野川3-46-2","lat":35.748487,"lon":139.727173},{"name":"滝野川北保育園","province":"東京都","city":"北区","address":"北区滝野川3-79-1-101","lat":35.751451,"lon":139.728517},{"name":"滝野川西保育園","province":"東京都","city":"北区","address":"北区滝野川6-84-12","lat":35.746707,"lon":139.72159},{"name":"宮元保育園","province":"東京都","city":"北区","address":"北区滝野川3-77-8","lat":35.749929,"lon":139.726978},{"name":"はとぽっぽ保育園","province":"東京都","city":"北区","address":"北区滝野川6-21-19","lat":35.745379,"lon":139.725503},{"name":"うぃず滝野川保育園","province":"東京都","city":"北区","address":"北区滝野川6-9-4","lat":35.742313,"lon":139.725831},{"name":"音無つぼみ保育園","province":"東京都","city":"北区","address":"北区滝野川2-52-9","lat":35.751198,"lon":139.732844},{"name":"西ヶ原保育園","province":"東京都","city":"北区","address":"北区西ヶ原4-44-10","lat":35.74484,"lon":139.734078},{"name":"西ケ原東保育園","province":"東京都","city":"北区","address":"北区西ヶ原3-19-11","lat":35.744727,"lon":139.741819},{"name":"西ケ原南保育園","province":"東京都","city":"北区","address":"北区西ケ原4-51-28","lat":35.742968,"lon":139.734492},{"name":"聖母の騎士保育園","province":"東京都","city":"北区","address":"北区中十条1-28-13","lat":35.760372,"lon":139.726594},{"name":"グローバルキッズ　コトニア赤羽園","province":"東京都","city":"北区","address":"北区中十条4-17-1","lat":35.771023,"lon":139.722344},{"name":"清水坂つぼみ保育園","province":"東京都","city":"北区","address":"北区中十条4-16-27","lat":35.770123,"lon":139.722486},{"name":"上十条保育園","province":"東京都","city":"北区","address":"北区上十条3-24-8","lat":35.762058,"lon":139.717995},{"name":"上十条南保育園","province":"東京都","city":"北区","address":"北区上十条3-3-20","lat":35.760283,"lon":139.718648},{"name":"あおば保育園　西が丘","province":"東京都","city":"北区","address":"北区上十条5-12-8","lat":35.764341,"lon":139.714834},{"name":"志茂保育園","province":"東京都","city":"北区","address":"北区志茂3-41-5","lat":35.779622,"lon":139.735629},{"name":"志茂南保育園","province":"東京都","city":"北区","address":"北区志茂1-4-4","lat":35.775437,"lon":139.730293},{"name":"志茂北保育園","province":"東京都","city":"北区","address":"北区志茂5-21-2-101","lat":35.783547,"lon":139.730368},{"name":"つちっこ保育園","province":"東京都","city":"北区","address":"北区志茂3-11-6","lat":35.776723,"lon":139.733535},{"name":"神谷保育園","province":"東京都","city":"北区","address":"北区神谷2-36-8","lat":35.772132,"lon":139.726786},{"name":"神谷北つぼみ保育園","province":"東京都","city":"北区","address":"北区神谷2-42-4","lat":35.772984,"lon":139.727447},{"name":"赤羽保育園","province":"東京都","city":"北区","address":"北区赤羽南1-16-2-101","lat":35.777003,"lon":139.725844},{"name":"岩淵保育園","province":"東京都","city":"北区","address":"北区赤羽3-23-7","lat":35.784674,"lon":139.720263},{"name":"ぽけっとランド赤羽保育園","province":"東京都","city":"北区","address":"北区赤羽2-57-9","lat":35.782013,"lon":139.724255},{"name":"浮間保育園","province":"東京都","city":"北区","address":"北区浮間1-9-3-101","lat":35.790553,"lon":139.702965},{"name":"浮間東保育園","province":"東京都","city":"北区","address":"北区浮間3-34-1-101","lat":35.789362,"lon":139.699559},{"name":"キッズタウンうきま保育園","province":"東京都","city":"北区","address":"北区浮間5-13-1","lat":35.78474,"lon":139.692446},{"name":"キッズタウンうきま夜間保育園","province":"東京都","city":"北区","address":"北区浮間5-13-1","lat":35.78474,"lon":139.692446},{"name":"明日香保育園","province":"東京都","city":"北区","address":"北区浮間4-1-3","lat":35.790073,"lon":139.698318},{"name":"浮間さくら草保育園","province":"東京都","city":"北区","address":"北区浮間1-1-2","lat":35.788045,"lon":139.705281},{"name":"アスクうきま保育園","province":"東京都","city":"北区","address":"北区浮間4-14-9","lat":35.790317,"lon":139.696265},{"name":"うきまさくらさくほいくえん","province":"東京都","city":"北区","address":"北区浮間2-23-17","lat":35.792484,"lon":139.695826},{"name":"赤羽北保育園","province":"東京都","city":"北区","address":"北区赤羽北1-5-5","lat":35.785796,"lon":139.715208},{"name":"袋保育園","province":"東京都","city":"北区","address":"北区赤羽北2-15-2-101","lat":35.783154,"lon":139.704718},{"name":"赤羽北のぞみ保育園","province":"東京都","city":"北区","address":"北区赤羽北3-6-10","lat":35.782627,"lon":139.707017},{"name":"北赤羽せせらぎ保育園","province":"東京都","city":"北区","address":"北区赤羽北2-14-13","lat":35.785107,"lon":139.706451},{"name":"赤羽台保育園","province":"東京都","city":"北区","address":"北区赤羽台1-4-11-105","lat":35.777722,"lon":139.716819},{"name":"法善寺保育園","province":"東京都","city":"北区","address":"北区赤羽台3-24-2","lat":35.778853,"lon":139.713031},{"name":"ＬＩＦＥ　ＳＣＨＯＯＬ　こどもの森","province":"東京都","city":"北区","address":"北区赤羽台1-1-12","lat":35.779541,"lon":139.717953},{"name":"桐ケ丘保育園","province":"東京都","city":"北区","address":"北区桐ヶ丘1-3-9-101","lat":35.777311,"lon":139.711026},{"name":"日の基保育園","province":"東京都","city":"北区","address":"北区桐ヶ丘1-21-41","lat":35.776172,"lon":139.704796},{"name":"赤羽西保育園","province":"東京都","city":"北区","address":"北区赤羽西4-42-9","lat":35.773084,"lon":139.714048},{"name":"桐ヶ丘南保育園","province":"東京都","city":"北区","address":"北区赤羽西5-5-7-101","lat":35.775328,"lon":139.709798},{"name":"フレーベル西が丘みらい園","province":"東京都","city":"北区","address":"北区赤羽西6-2-20","lat":35.77117,"lon":139.707704},{"name":"西が丘保育園","province":"東京都","city":"北区","address":"北区西が丘2-4-1","lat":35.766482,"lon":139.714098},{"name":"テーオーシー保育園","province":"東京都","city":"北区","address":"北区西が丘3-16-15","lat":35.767509,"lon":139.706715}]}