{"keyword":"再生","data":[{"name":"(株)たかまる商店","province":"東京都","city":"北区","address":"北区赤羽西2-2-3","lat":35.772114,"lon":139.721542},{"name":"(有)鰐渕商事","province":"東京都","city":"北区","address":"北区上中里1-41-10","lat":35.744671,"lon":139.746902},{"name":"(株)シマムラ","province":"東京都","city":"北区","address":"北区昭和町1-1-8","lat":35.745796,"lon":139.756653},{"name":"(株)伊久美商店","province":"東京都","city":"北区","address":"北区滝野川7-48-11","lat":35.741234,"lon":139.724579},{"name":"豊商産業(有)","province":"東京都","city":"北区","address":"北区浮間4-12-5","lat":35.789169,"lon":139.696594},{"name":"(有)篠原商店","province":"東京都","city":"北区","address":"北区滝野川5-53-3","lat":35.749634,"lon":139.725876},{"name":"柄澤秀保","province":"東京都","city":"北区","address":"北区西ケ原3-20-14","lat":35.744976,"lon":139.74176},{"name":"(有)佐々木商店","province":"東京都","city":"北区","address":"北区王子4-4-5","lat":35.761272,"lon":139.733612},{"name":"(株)桂紙業  本社","province":"東京都","city":"北区","address":"北区桐ケ丘1-20-12","lat":35.777943,"lon":139.703766},{"name":"(株)宏文社","province":"東京都","city":"北区","address":"北区豊島1-14-7","lat":35.75843,"lon":139.73967}]}