{"keyword":"初動","data":[{"name":"北区保健所","province":"東京都","city":"北区","address":"東京都北区東十条2丁目7-3","lat":35.76302725,"lon":139.73054116},{"name":"陸上自衛隊十条駐屯地","province":"東京都","city":"北区","address":"北区十条台1-5-70","lat":35.757358,"lon":139.726442},{"name":"第ニ自動車警ら隊","province":"東京都","city":"北区","address":"北区滝野川7-49-10","lat":35.74058,"lon":139.7239},{"name":"第十方面交通機動隊","province":"東京都","city":"北区","address":"北区西が丘3-4-7","lat":35.76512,"lon":139.712},{"name":"第十方面本部","province":"東京都","city":"北区","address":"北区西が丘3-4-7","lat":35.76512,"lon":139.712},{"name":"赤羽警察署","province":"東京都","city":"北区","address":"北区神谷3-10-1","lat":35.77435,"lon":139.7338},{"name":"王子警察署","province":"東京都","city":"北区","address":"北区王子3-22-22","lat":35.75931,"lon":139.7381},{"name":"滝野川警察署","province":"東京都","city":"北区","address":"北区西ヶ原2-4-1","lat":35.74714,"lon":139.7416},{"name":"第五方面訓練場","province":"東京都","city":"北区","address":"北区西ヶ原2-1","lat":35.74541,"lon":139.7445},{"name":"赤羽消防署","province":"東京都","city":"北区","address":"北区赤羽南1-10-4","lat":35.77776,"lon":139.7231},{"name":"王子消防署","province":"東京都","city":"北区","address":"北区王子4-28-1","lat":35.76318,"lon":139.7368},{"name":"滝野川消防署","province":"東京都","city":"北区","address":"北区西ヶ原2-1-1","lat":35.74468,"lon":139.7449},{"name":"北区","province":"東京都","city":"北区","address":"北区王子2-3-1","lat":35.75816,"lon":139.7341},{"name":"イワキ（株）","province":"東京都","city":"北区","address":"北区豊島7-30-17","lat":35.76654,"lon":139.7447}]}