{"keyword":"区","data":[{"name":"北区保健所（生活衛生課）","province":"東京都","city":"北区","address":"北区東十条2-7-3","lat":35.763111,"lon":139.730513},{"name":"北区保健所（保健予防課）","province":"東京都","city":"北区","address":"北区東十条2-7-3","lat":35.763111,"lon":139.730513},{"name":"王子健康支援センター","province":"東京都","city":"北区","address":"北区東十条2-7-3北区保健所1階","lat":35.763111,"lon":139.730513},{"name":"赤羽健康支援センター","province":"東京都","city":"北区","address":"北区赤羽南1-13-1赤羽会館6階","lat":35.777728,"lon":139.723755},{"name":"滝野川福祉保健センター","province":"東京都","city":"北区","address":"北区西ケ原1-19-12","lat":35.74278,"lon":139.747571},{"name":"北区保健所（生活衛生課）","province":"東京都","city":"北区","address":"東京都北区東十条2丁目7-3","lat":35.76302725,"lon":139.73054116},{"name":"北区保健所（保健予防課）","province":"東京都","city":"北区","address":"東京都北区東十条2丁目7-3","lat":35.76302725,"lon":139.73054116},{"name":"王子健康支援センター","province":"東京都","city":"北区","address":"東京都北区東十条2丁目7-3","lat":35.76302725,"lon":139.73054116},{"name":"赤羽健康支援センター","province":"東京都","city":"北区","address":"東京都北区赤羽南1丁目13-1","lat":35.77772801,"lon":139.72374944},{"name":"滝野川健康支援センター","province":"東京都","city":"北区","address":"東京都北区西ケ原1丁目19-12","lat":35.74277991,"lon":139.74757667},{"name":"北区保健所（生活衛生課）","province":"東京都","city":"北区","address":"北区東十条2-7-3","lat":35.76303,"lon":139.73059},{"name":"北区保健所（保健予防課）","province":"東京都","city":"北区","address":"北区東十条2-7-3","lat":35.76303,"lon":139.73059},{"name":"王子健康支援センター","province":"東京都","city":"北区","address":"北区東十条2-7-3","lat":35.76303,"lon":139.73059},{"name":"赤羽健康支援センター","province":"東京都","city":"北区","address":"北区赤羽南1-13-1赤羽会館6階","lat":35.77772,"lon":139.72371},{"name":"滝野川健康支援センター","province":"東京都","city":"北区","address":"北区西ケ原1-19-12","lat":35.74276,"lon":139.74791},{"name":"王子健康支援センター","province":"東京都","city":"北区","address":"北区赤羽南1-13-1赤羽会館6階","lat":35.77772,"lon":139.72371}]}