{"keyword":"子ども","data":[{"name":"北都税事務所","province":"東京都","city":"北区","address":"東京都北区中十条1丁目7-8","lat":35.758247,"lon":139.729056},{"name":"東京都障害者総合スポーツセンター","province":"東京都","city":"北区","address":"東京都北区十条台1丁目2-2","lat":35.753722,"lon":139.724016},{"name":"東京都障害者総合スポーツセンター","province":"東京都","city":"北区","address":"東京都北区十条台1丁目2-2","lat":35.753781,"lon":139.72393},{"name":"東京都障害者総合スポーツセンター","province":"東京都","city":"北区","address":"東京都北区十条台1丁目2-2","lat":35.753669,"lon":139.724052},{"name":"東京都障害者総合スポーツセンター","province":"東京都","city":"北区","address":"東京都北区十条台1丁目2-2","lat":35.753783,"lon":139.723976},{"name":"東京都障害者総合スポーツセンター","province":"東京都","city":"北区","address":"東京都北区十条台1丁目2-2","lat":35.75378,"lon":139.723953},{"name":"東京都障害者総合スポーツセンター","province":"東京都","city":"北区","address":"東京都北区十条台1丁目2-2","lat":35.75374,"lon":139.723975},{"name":"東京都障害者総合スポーツセンター","province":"東京都","city":"北区","address":"東京都北区十条台1丁目2-2","lat":35.753802,"lon":139.723865},{"name":"東京都立北療育医療センター","province":"東京都","city":"北区","address":"東京都北区十条台1丁目2-3","lat":35.753864,"lon":139.723279},{"name":"東京都立北療育医療センター","province":"東京都","city":"北区","address":"東京都北区十条台1丁目2-3","lat":35.754122,"lon":139.72285},{"name":"東京都立北療育医療センター","province":"東京都","city":"北区","address":"東京都北区十条台1丁目2-3","lat":35.754578,"lon":139.722969},{"name":"東京都立北療育医療センター","province":"東京都","city":"北区","address":"東京都北区十条台1丁目2-3","lat":35.754519,"lon":139.722976},{"name":"東京都立北療育医療センター","province":"東京都","city":"北区","address":"東京都北区十条台1丁目2-3","lat":35.754129,"lon":139.722999},{"name":"浮間公園","province":"東京都","city":"北区","address":"東京都北区浮間2丁目31","lat":35.793531,"lon":139.694206},{"name":"浮間公園","province":"東京都","city":"北区","address":"東京都北区浮間2丁目31","lat":35.791443,"lon":139.693414},{"name":"旧古河庭園","province":"東京都","city":"北区","address":"東京都北区西ケ原1丁目27","lat":35.742862,"lon":139.746816},{"name":"東京都水道局北営業所","province":"東京都","city":"北区","address":"東京都北区赤羽台3丁目3-21","lat":35.780821,"lon":139.717333},{"name":"赤羽消防署","province":"東京都","city":"北区","address":"東京都北区赤羽南1丁目10-4","lat":35.777748,"lon":139.723098},{"name":"赤羽消防署　志茂出張所","province":"東京都","city":"北区","address":"東京都北区神谷3丁目11-22","lat":35.77522,"lon":139.732699},{"name":"東京都北区立元気ぷらざ","province":"東京都","city":"北区","address":"東京都北区志茂1丁目2","lat":35.775448,"lon":139.731353},{"name":"東京都北区役所第一庁舎","province":"東京都","city":"北区","address":"東京都北区王子本町1丁目15-22","lat":35.752857,"lon":139.733372},{"name":"北区役所第三庁舎","province":"東京都","city":"北区","address":"東京都北区王子本町1丁目4-14","lat":35.752454,"lon":139.733876},{"name":"東京都北区役所第二庁舎","province":"東京都","city":"北区","address":"東京都北区王子本町1丁目2","lat":35.752656,"lon":139.735163},{"name":"東京都北区役所第五庁舎","province":"東京都","city":"北区","address":"東京都北区王子本町1丁目16-8","lat":35.752956,"lon":139.734655},{"name":"東京都北区役所別館","province":"東京都","city":"北区","address":"東京都北区王子本町1丁目11-9","lat":35.752948,"lon":139.732907},{"name":"東京都北区役所滝野川分庁舎","province":"東京都","city":"北区","address":"東京都北区滝野川2丁目52-10","lat":35.751592,"lon":139.732904},{"name":"赤羽区民事務所","province":"東京都","city":"北区","address":"東京都北区赤羽1丁目1-26","lat":35.776071,"lon":139.722187},{"name":"スペースゆう（北区男女共同参画活動拠点施設）","province":"東京都","city":"北区","address":"東京都北区王子1丁目11-1","lat":35.754834,"lon":139.736508},{"name":"十条台ふれあい館","province":"東京都","city":"北区","address":"東京都北区中十条1丁目2","lat":35.757353,"lon":139.729642},{"name":"北区立王子区民センター","province":"東京都","city":"北区","address":"東京都北区豊島1丁目14-12","lat":35.758535,"lon":139.73974},{"name":"東十条区民センター","province":"東京都","city":"北区","address":"東京都北区東十条3丁目2-14","lat":35.765093,"lon":139.728521},{"name":"豊島区民センター","province":"東京都","city":"北区","address":"東京都北区豊島3丁目27-22","lat":35.760409,"lon":139.747815},{"name":"滝野川西区民センター","province":"東京都","city":"北区","address":"東京都北区滝野川6丁目21-25","lat":35.745678,"lon":139.72587},{"name":"滝野川西区民センター","province":"東京都","city":"北区","address":"東京都北区滝野川6丁目21-25","lat":35.745629,"lon":139.725828},{"name":"滝野川西区民センター","province":"東京都","city":"北区","address":"東京都北区滝野川6丁目21-25","lat":35.745584,"lon":139.726053},{"name":"滝野川西区民センター","province":"東京都","city":"北区","address":"東京都北区滝野川6丁目21-25","lat":35.745567,"lon":139.726024},{"name":"滝野川西区民センター","province":"東京都","city":"北区","address":"東京都北区滝野川6丁目21-25","lat":35.745546,"lon":139.726012},{"name":"滝野川東ふれあい館","province":"東京都","city":"北区","address":"東京都北区滝野川1丁目46","lat":35.74683,"lon":139.734151},{"name":"北区田端ふれあい館","province":"東京都","city":"北区","address":"東京都北区田端3丁目16-2","lat":35.73445,"lon":139.756937},{"name":"赤羽北区民センター","province":"東京都","city":"北区","address":"東京都北区赤羽北2丁目25-8","lat":35.785737,"lon":139.707182},{"name":"神谷ふれあい館","province":"東京都","city":"北区","address":"東京都北区神谷3丁目35-17","lat":35.771341,"lon":139.731091},{"name":"北区立上十条ふれあい館","province":"東京都","city":"北区","address":"東京都北区上十条3丁目3","lat":35.760358,"lon":139.718552},{"name":"東京都北区立岸町ふれあい館","province":"東京都","city":"北区","address":"東京都北区岸町1丁目6-17","lat":35.755073,"lon":139.734795},{"name":"東京都北区立東田端ふれあい館","province":"東京都","city":"北区","address":"東京都北区東田端2丁目20-51","lat":35.7396,"lon":139.761557},{"name":"北区立堀船ふれあい館","province":"東京都","city":"北区","address":"東京都北区堀船3丁目7-12","lat":35.755474,"lon":139.748069},{"name":"志茂ふれあい館","province":"東京都","city":"北区","address":"東京都北区志茂1丁目34","lat":35.77702,"lon":139.732097},{"name":"北区西が丘ふれあい館","province":"東京都","city":"北区","address":"東京都北区西が丘1丁目47-15","lat":35.768974,"lon":139.711265},{"name":"昭和町区民センター","province":"東京都","city":"北区","address":"東京都北区昭和町3丁目10-7","lat":35.749467,"lon":139.751373},{"name":"昭和町区民センター","province":"東京都","city":"北区","address":"東京都北区昭和町3丁目10-7","lat":35.749472,"lon":139.751344},{"name":"東京都北区立元気ぷらざ","province":"東京都","city":"北区","address":"東京都北区志茂1丁目2","lat":35.775447,"lon":139.731259},{"name":"北区立中央図書館","province":"東京都","city":"北区","address":"東京都北区十条台1丁目2-5","lat":35.756278,"lon":139.729086},{"name":"北区立中央図書館","province":"東京都","city":"北区","address":"東京都北区十条台1丁目2-5","lat":35.756278,"lon":139.729019},{"name":"みどりと環境の情報館（エコベルデ）","province":"東京都","city":"北区","address":"東京都北区豊島5丁目6","lat":35.764525,"lon":139.755078},{"name":"赤羽北図書館","province":"東京都","city":"北区","address":"東京都北区赤羽北1丁目18-1","lat":35.787143,"lon":139.712449},{"name":"東田端図書館","province":"東京都","city":"北区","address":"東京都北区田端新町2丁目14-15","lat":35.740519,"lon":139.764856},{"name":"赤羽西図書館","province":"東京都","city":"北区","address":"東京都北区赤羽西5丁目7-5","lat":35.77544,"lon":139.710477},{"name":"北区防災センター","province":"東京都","city":"北区","address":"東京都北区西ケ原2丁目1-6","lat":35.745119,"lon":139.744698},{"name":"赤羽エコー広場館","province":"東京都","city":"北区","address":"東京都北区赤羽1丁目67","lat":35.779261,"lon":139.720186},{"name":"富士見橋エコー広場館","province":"東京都","city":"北区","address":"東京都北区田端5丁目16","lat":35.740241,"lon":139.755498},{"name":"滝野川三丁目公園","province":"東京都","city":"北区","address":"東京都北区滝野川3丁目52","lat":35.747979,"lon":139.72929},{"name":"東京都北区立中央公園文化センター","province":"東京都","city":"北区","address":"東京都北区十条台1丁目2-1","lat":35.75316,"lon":139.727173},{"name":"東京都北区立赤羽文化センター","province":"東京都","city":"北区","address":"東京都北区赤羽西1丁目6-1","lat":35.777831,"lon":139.719563},{"name":"北区飛鳥山博物館","province":"東京都","city":"北区","address":"東京都北区西ケ原2丁目16","lat":35.749657,"lon":139.739388},{"name":"北区飛鳥山博物館","province":"東京都","city":"北区","address":"東京都北区王子1丁目1-3","lat":35.749495,"lon":139.739066},{"name":"北区飛鳥山博物館","province":"東京都","city":"北区","address":"東京都北区王子1丁目1-3","lat":35.749521,"lon":139.739051},{"name":"北区ふるさと農家体験館","province":"東京都","city":"北区","address":"東京都北区赤羽西5丁目2-34","lat":35.7743,"lon":139.711583},{"name":"東京都北区北とぴあ","province":"東京都","city":"北区","address":"東京都北区王子1丁目11","lat":35.75514,"lon":139.736245},{"name":"東京都北区北とぴあ","province":"東京都","city":"北区","address":"東京都北区王子1丁目11-1","lat":35.755056,"lon":139.736578},{"name":"東京都北区赤羽会館","province":"東京都","city":"北区","address":"東京都北区赤羽南1丁目13-1","lat":35.777808,"lon":139.723825},{"name":"東京都北区滝野川会館","province":"東京都","city":"北区","address":"東京都北区西ケ原1丁目23-3","lat":35.743239,"lon":139.747621},{"name":"中央公園","province":"東京都","city":"北区","address":"東京都北区十条台1丁目2","lat":35.75433,"lon":139.726328},{"name":"中央公園","province":"東京都","city":"北区","address":"東京都北区十条台1丁目2","lat":35.753066,"lon":139.725589},{"name":"中央公園","province":"東京都","city":"北区","address":"東京都北区十条台1丁目2","lat":35.757453,"lon":139.729171},{"name":"中央公園","province":"東京都","city":"北区","address":"東京都北区十条台1丁目2","lat":35.754523,"lon":139.724961},{"name":"中央公園","province":"東京都","city":"北区","address":"東京都北区十条台1丁目2","lat":35.754482,"lon":139.727833},{"name":"北赤羽駅高架下児童遊園","province":"東京都","city":"北区","address":"東京都北区浮間3丁目1","lat":35.787428,"lon":139.705069},{"name":"浮間一丁目緑地","province":"東京都","city":"北区","address":"東京都北区浮間1丁目8","lat":35.790085,"lon":139.70181},{"name":"浮間北公園","province":"東京都","city":"北区","address":"東京都北区浮間1丁目11","lat":35.790752,"lon":139.702242},{"name":"袋町公園","province":"東京都","city":"北区","address":"東京都北区赤羽北3丁目11","lat":35.782313,"lon":139.704347},{"name":"赤羽緑道公園","province":"東京都","city":"北区","address":"東京都北区赤羽台3丁目17","lat":35.780626,"lon":139.71289},{"name":"赤羽緑道公園","province":"東京都","city":"北区","address":"東京都北区赤羽西5丁目7","lat":35.7763,"lon":139.711558},{"name":"赤羽台四丁目公園","province":"東京都","city":"北区","address":"東京都北区赤羽台4丁目17","lat":35.7851,"lon":139.712306},{"name":"桐ケ丘中央公園（南）","province":"東京都","city":"北区","address":"東京都北区桐ケ丘1丁目8","lat":35.777296,"lon":139.707827},{"name":"稲付公園","province":"東京都","city":"北区","address":"東京都北区赤羽西3丁目19","lat":35.769579,"lon":139.718332},{"name":"赤羽公園","province":"東京都","city":"北区","address":"東京都北区赤羽南1丁目14","lat":35.777354,"lon":139.724178},{"name":"赤羽公園","province":"東京都","city":"北区","address":"東京都北区赤羽南1丁目14","lat":35.777998,"lon":139.725402},{"name":"赤羽三丁目公園","province":"東京都","city":"北区","address":"東京都北区赤羽3丁目23","lat":35.784801,"lon":139.720472},{"name":"志茂町公園","province":"東京都","city":"北区","address":"東京都北区志茂1丁目5","lat":35.775228,"lon":139.729716},{"name":"赤羽南二丁目児童遊園","province":"東京都","city":"北区","address":"東京都北区赤羽南2丁目9","lat":35.77314,"lon":139.722491},{"name":"北運動公園","province":"東京都","city":"北区","address":"東京都北区神谷2丁目47","lat":35.773975,"lon":139.728078},{"name":"清水坂公園","province":"東京都","city":"北区","address":"東京都北区十条仲原4丁目2","lat":35.769078,"lon":139.721036},{"name":"赤羽自然観察公園","province":"東京都","city":"北区","address":"東京都北区赤羽西5丁目2","lat":35.773373,"lon":139.709819},{"name":"赤羽自然観察公園","province":"東京都","city":"北区","address":"東京都北区赤羽西5丁目2","lat":35.77339,"lon":139.709865},{"name":"赤羽自然観察公園","province":"東京都","city":"北区","address":"東京都北区赤羽西5丁目2","lat":35.774262,"lon":139.712432},{"name":"豊島四丁目児童遊園","province":"東京都","city":"北区","address":"東京都北区豊島4丁目17","lat":35.762399,"lon":139.749732},{"name":"豊島公園","province":"東京都","city":"北区","address":"東京都北区豊島2丁目26","lat":35.759122,"lon":139.74231},{"name":"豊島五・六丁目公園","province":"東京都","city":"北区","address":"東京都北区豊島6丁目11","lat":35.766224,"lon":139.747812},{"name":"豊島七丁目北児童遊園","province":"東京都","city":"北区","address":"東京都北区豊島7丁目24","lat":35.765209,"lon":139.742962},{"name":"豊島馬場遺跡公園","province":"東京都","city":"北区","address":"東京都北区豊島8丁目27","lat":35.767284,"lon":139.740209},{"name":"王子五丁目公園","province":"東京都","city":"北区","address":"東京都北区王子5丁目17","lat":35.766034,"lon":139.737083},{"name":"神谷堀公園","province":"東京都","city":"北区","address":"東京都北区王子5丁目28","lat":35.767759,"lon":139.737365},{"name":"荒川岩淵関緑地","province":"東京都","city":"北区","address":"東京都北区志茂5丁目","lat":35.787356,"lon":139.726817},{"name":"新荒川大橋緑地","province":"東京都","city":"北区","address":"東京都北区赤羽3丁目","lat":35.788689,"lon":139.720314},{"name":"赤羽台さくら並木公園","province":"東京都","city":"北区","address":"東京都北区赤羽台4丁目17","lat":35.782698,"lon":139.711663},{"name":"赤羽スポーツの森公園","province":"東京都","city":"北区","address":"東京都北区赤羽西5丁目2","lat":35.771764,"lon":139.710057},{"name":"赤羽スポーツの森公園","province":"東京都","city":"北区","address":"東京都北区赤羽西5丁目2","lat":35.772745,"lon":139.710057},{"name":"西が丘一丁目児童遊園","province":"東京都","city":"北区","address":"東京都北区西が丘1丁目44","lat":35.770347,"lon":139.711074},{"name":"志茂ゆりの木公園","province":"東京都","city":"北区","address":"東京都北区志茂5丁目18","lat":35.783872,"lon":139.732065},{"name":"志茂三丁目小柳川公園","province":"東京都","city":"北区","address":"東京都北区志茂3丁目26","lat":35.779062,"lon":139.734424},{"name":"志茂四わかば児童遊園","province":"東京都","city":"北区","address":"東京都北区志茂4丁目31","lat":35.781947,"lon":139.734351},{"name":"十条公園","province":"東京都","city":"北区","address":"東京都北区十条台2丁目5","lat":35.75849,"lon":139.71947},{"name":"王子本町公園","province":"東京都","city":"北区","address":"東京都北区王子本町2丁目29","lat":35.753799,"lon":139.731099},{"name":"東王子公園","province":"東京都","city":"北区","address":"東京都北区堀船2丁目19","lat":35.754552,"lon":139.743815},{"name":"王子五丁目児童遊園","province":"東京都","city":"北区","address":"東京都北区王子5丁目2","lat":35.76546,"lon":139.734464},{"name":"堀船一丁目公園","province":"東京都","city":"北区","address":"東京都北区堀船1丁目15","lat":35.753902,"lon":139.743531},{"name":"堀船公園","province":"東京都","city":"北区","address":"東京都北区堀船2丁目10","lat":35.753876,"lon":139.745565},{"name":"堀船第二公園","province":"東京都","city":"北区","address":"東京都北区堀船2丁目27","lat":35.757086,"lon":139.746869},{"name":"白山堀公園","province":"東京都","city":"北区","address":"東京都北区堀船4丁目2","lat":35.754212,"lon":139.750341},{"name":"音無こぶし緑地","province":"東京都","city":"北区","address":"東京都北区滝野川4丁目29","lat":35.751164,"lon":139.723925},{"name":"北谷端公園","province":"東京都","city":"北区","address":"東京都北区滝野川7丁目14","lat":35.743747,"lon":139.721393},{"name":"南谷端公園","province":"東京都","city":"北区","address":"東京都北区滝野川7丁目42","lat":35.742204,"lon":139.723003},{"name":"東中里公園","province":"東京都","city":"北区","address":"東京都北区中里1丁目12","lat":35.736964,"lon":139.751649},{"name":"西中里公園","province":"東京都","city":"北区","address":"東京都北区中里2丁目15","lat":35.739418,"lon":139.749319},{"name":"田端台公園","province":"東京都","city":"北区","address":"東京都北区田端1丁目28","lat":35.734848,"lon":139.763975},{"name":"東田端公園","province":"東京都","city":"北区","address":"東京都北区東田端2丁目5","lat":35.74031,"lon":139.763232},{"name":"田端新町南むつみ公園","province":"東京都","city":"北区","address":"東京都北区田端新町1丁目5","lat":35.737288,"lon":139.767539},{"name":"十条野鳥の森緑地","province":"東京都","city":"北区","address":"東京都北区上十条1丁目22","lat":35.759871,"lon":139.724888},{"name":"柳田公園","province":"東京都","city":"北区","address":"東京都北区王子1丁目20","lat":35.755977,"lon":139.739074},{"name":"王子駅前公園","province":"東京都","city":"北区","address":"東京都北区王子1丁目7","lat":35.754074,"lon":139.738432},{"name":"飛鳥山公園","province":"東京都","city":"北区","address":"東京都北区王子1丁目1","lat":35.750349,"lon":139.738562},{"name":"飛鳥山公園","province":"東京都","city":"北区","address":"東京都北区王子1丁目1","lat":35.750607,"lon":139.739323},{"name":"飛鳥山公園","province":"東京都","city":"北区","address":"東京都北区西ケ原2丁目16","lat":35.749581,"lon":139.740134},{"name":"飛鳥山公園","province":"東京都","city":"北区","address":"東京都北区王子1丁目1","lat":35.751467,"lon":139.737186},{"name":"音無親水公園","province":"東京都","city":"北区","address":"東京都北区王子本町1丁目2","lat":35.752202,"lon":139.735495},{"name":"上中里二丁目広場","province":"東京都","city":"北区","address":"東京都北区上中里2丁目2","lat":35.744637,"lon":139.754348},{"name":"滝野川公園","province":"東京都","city":"北区","address":"東京都北区西ケ原2丁目1","lat":35.745924,"lon":139.744343},{"name":"田端新町公園","province":"東京都","city":"北区","address":"東京都北区田端新町1丁目22","lat":35.738144,"lon":139.768758},{"name":"王子四丁目公園","province":"東京都","city":"北区","address":"東京都北区王子4丁目5","lat":35.761201,"lon":139.732898},{"name":"醸造試験所跡地公園","province":"東京都","city":"北区","address":"東京都北区滝野川2丁目6","lat":35.750918,"lon":139.735529},{"name":"あすか緑地","province":"東京都","city":"北区","address":"東京都北区豊島2丁目4","lat":35.7568,"lon":139.742638},{"name":"栄町ふれあい公園","province":"東京都","city":"北区","address":"東京都北区栄町32","lat":35.749712,"lon":139.742781},{"name":"西ケ原みんなの公園","province":"東京都","city":"北区","address":"東京都北区西ケ原4丁目51","lat":35.741245,"lon":139.736847},{"name":"西ケ原みんなの公園","province":"東京都","city":"北区","address":"東京都北区西ケ原4丁目51","lat":35.742646,"lon":139.736411},{"name":"昭和町ふれあい児童遊園","province":"東京都","city":"北区","address":"東京都北区昭和町1丁目5","lat":35.746384,"lon":139.757221},{"name":"北園児童遊園","province":"東京都","city":"北区","address":"東京都北区赤羽北3丁目6","lat":35.782817,"lon":139.707161},{"name":"豊島四丁目リバーサイド公園","province":"東京都","city":"北区","address":"東京都北区豊島4丁目18","lat":35.761998,"lon":139.751463},{"name":"田端二丁目児童遊園","province":"東京都","city":"北区","address":"東京都北区田端2丁目6","lat":35.734673,"lon":139.759015},{"name":"赤羽台けやき公園","province":"東京都","city":"北区","address":"東京都北区赤羽台1丁目6","lat":35.778523,"lon":139.713815},{"name":"赤羽台けやき公園","province":"東京都","city":"北区","address":"東京都北区赤羽台1丁目6","lat":35.778686,"lon":139.714999},{"name":"王子六丁目公園","province":"東京都","city":"北区","address":"東京都北区王子6丁目2","lat":35.759454,"lon":139.740839},{"name":"浮間子どもスポーツ広場","province":"東京都","city":"北区","address":"東京都北区浮間4丁目27-1","lat":35.78946,"lon":139.691646},{"name":"田端駅前公衆便所","province":"東京都","city":"北区","address":"東京都北区東田端1丁目17-1","lat":35.738115,"lon":139.760874},{"name":"東十条駅北口公衆便所","province":"東京都","city":"北区","address":"東京都北区東十条4丁目15","lat":35.765431,"lon":139.726541},{"name":"尾久駅前公衆便所","province":"東京都","city":"北区","address":"東京都北区昭和町1丁目2","lat":35.746747,"lon":139.754872},{"name":"新田端大橋下公衆便所","province":"東京都","city":"北区","address":"東京都北区東田端1丁目17","lat":35.739099,"lon":139.76203},{"name":"北赤羽駅前公衆便所","province":"東京都","city":"北区","address":"東京都北区赤羽北2丁目32","lat":35.785662,"lon":139.708136},{"name":"上中里駅前公衆便所","province":"東京都","city":"北区","address":"東京都北区上中里1丁目47","lat":35.74636,"lon":139.747229},{"name":"王子五丁目公衆便所","province":"東京都","city":"北区","address":"東京都北区王子5丁目2","lat":35.765543,"lon":139.73548},{"name":"板橋駅前公衆便所","province":"東京都","city":"北区","address":"東京都北区滝野川7丁目2","lat":35.745368,"lon":139.720365},{"name":"東京都北区立障害者福祉センター","province":"東京都","city":"北区","address":"東京都北区中十条1丁目2-18","lat":35.757662,"lon":139.729502},{"name":"東京都北区立障害者福祉センター","province":"東京都","city":"北区","address":"東京都北区中十条1丁目2-18","lat":35.75762,"lon":139.72951},{"name":"東京都北区立障害者福祉センター","province":"東京都","city":"北区","address":"東京都北区中十条1丁目2-18","lat":35.757824,"lon":139.729725},{"name":"滝野川体育館","province":"東京都","city":"北区","address":"東京都北区西ケ原2丁目1-6","lat":35.745559,"lon":139.745499},{"name":"北運動場","province":"東京都","city":"北区","address":"東京都北区神谷2丁目47","lat":35.77481,"lon":139.729247},{"name":"新荒川大橋野球場","province":"東京都","city":"北区","address":"東京都北区赤羽3丁目","lat":35.788783,"lon":139.720745},{"name":"パノラマプール十条台","province":"東京都","city":"北区","address":"東京都北区岸町2丁目3","lat":35.758714,"lon":139.730965},{"name":"赤羽スポーツの森公園競技場","province":"東京都","city":"北区","address":"東京都北区赤羽西5丁目2","lat":35.772246,"lon":139.709178},{"name":"浮間舟渡庭球場","province":"東京都","city":"北区","address":"東京都北区浮間4丁目27","lat":35.790736,"lon":139.691728},{"name":"赤羽体育館","province":"東京都","city":"北区","address":"東京都北区志茂3丁目46","lat":35.775381,"lon":139.736108},{"name":"赤羽体育館","province":"東京都","city":"北区","address":"東京都北区志茂3丁目46","lat":35.77552,"lon":139.735917},{"name":"赤羽体育館","province":"東京都","city":"北区","address":"東京都北区志茂3丁目46","lat":35.775467,"lon":139.736123},{"name":"赤羽体育館","province":"東京都","city":"北区","address":"東京都北区志茂3丁目46","lat":35.775464,"lon":139.73617},{"name":"浮間中学校複合施設","province":"東京都","city":"北区","address":"東京都北区浮間4丁目29-32","lat":35.790371,"lon":139.693616},{"name":"滝野川東児童館","province":"東京都","city":"北区","address":"東京都北区滝野川1丁目47","lat":35.747031,"lon":139.734515},{"name":"赤羽児童館","province":"東京都","city":"北区","address":"東京都北区赤羽南1丁目16-2","lat":35.777199,"lon":139.725733},{"name":"豊島児童館","province":"東京都","city":"北区","address":"東京都北区豊島7丁目15","lat":35.764518,"lon":139.744884},{"name":"桐ケ丘児童館","province":"東京都","city":"北区","address":"東京都北区桐ケ丘1丁目8","lat":35.778616,"lon":139.707325},{"name":"滝野川西児童館","province":"東京都","city":"北区","address":"東京都北区滝野川6丁目21","lat":35.74571,"lon":139.726324},{"name":"王子東児童館","province":"東京都","city":"北区","address":"東京都北区王子6丁目3","lat":35.759326,"lon":139.740933},{"name":"神谷子どもセンター","province":"東京都","city":"北区","address":"東京都北区神谷3丁目35-17","lat":35.771356,"lon":139.731063},{"name":"志茂子ども交流館","province":"東京都","city":"北区","address":"東京都北区志茂5丁目18","lat":35.783504,"lon":139.731739},{"name":"北区立生きがい活動センター","province":"東京都","city":"北区","address":"東京都北区王子5丁目2-5","lat":35.764657,"lon":139.733015},{"name":"ネスト赤羽","province":"東京都","city":"北区","address":"東京都北区赤羽1丁目59-9","lat":35.78288,"lon":139.720114},{"name":"豊島五丁目グリーンスポーツ広場","province":"東京都","city":"北区","address":"東京都北区豊島5丁目","lat":35.764989,"lon":139.758051},{"name":"宮城ゆうゆう公園","province":"東京都","city":"北区","address":"東京都北区豊島5丁目","lat":35.764956,"lon":139.757335},{"name":"北区立中央公園野球場","province":"東京都","city":"北区","address":"東京都北区十条台1丁目2-1","lat":35.75320885,"lon":139.72756124},{"name":"北区立十条富士見中学校校庭","province":"東京都","city":"北区","address":"東京都北区十条台1丁目9-33","lat":35.75717496,"lon":139.72321144},{"name":"荒川下流岩淵場外","province":"東京都","city":"北区","address":"東京都北区志茂4丁目19-1","lat":35.78343288,"lon":139.73218195},{"name":"北区立北運動公園","province":"東京都","city":"北区","address":"東京都北区神谷2丁目47-6","lat":35.77383973,"lon":139.72797147},{"name":"北区立赤羽スポーツの森公園","province":"東京都","city":"北区","address":"東京都北区赤羽西5丁目2","lat":35.77326984,"lon":139.71003689},{"name":"北区立赤羽自然観察公園","province":"東京都","city":"北区","address":"東京都北区赤羽西5丁目2-34","lat":35.77431419,"lon":139.71157561},{"name":"新河岸東公園・浮間子どもスポーツ広場","province":"東京都","city":"北区","address":"東京都北区浮間4丁目27-1","lat":35.78904234,"lon":139.69236003},{"name":"豊島五丁目遊び場","province":"東京都","city":"北区","address":"東京都北区豊島5丁目6-1","lat":35.76470834,"lon":139.75516113},{"name":"国立西が丘サッカー場","province":"東京都","city":"北区","address":"東京都北区西が丘3丁目15","lat":35.76766219,"lon":139.70831224},{"name":"荒川下流岩淵場外","province":"東京都","city":"北区","address":"東京都北区志茂4丁目19-1","lat":35.78343288,"lon":139.73218195},{"name":"岩淵緊急用船着場","province":"東京都","city":"北区","address":"東京都北区志茂5丁目","lat":35.78393271,"lon":139.72875445},{"name":"岩淵","province":"東京都","city":"北区","address":"東京都北区志茂5丁目","lat":35.78393271,"lon":139.72875445},{"name":"豊島","province":"東京都","city":"北区","address":"東京都北区豊島5丁目","lat":35.76601912,"lon":139.74959212},{"name":"北赤羽","province":"東京都","city":"北区","address":"東京都北区浮間1丁目","lat":35.78863696,"lon":139.70479799},{"name":"北区本庁舎","province":"東京都","city":"北区","address":"東京都北区王子本町1丁目15-22","lat":35.75280347,"lon":139.73349965},{"name":"北区防災センター","province":"東京都","city":"北区","address":"東京都北区西ケ原2丁目1-6","lat":35.74548783,"lon":139.74511007},{"name":"荒川下流河川事務所","province":"東京都","city":"北区","address":"北区志茂5-41-1","lat":35.78559,"lon":139.7301},{"name":"北区","province":"東京都","city":"北区","address":"北区王子2-3-1","lat":35.75816,"lon":139.7341},{"name":"イワキ（株）","province":"東京都","city":"北区","address":"北区豊島7-30-17","lat":35.76654,"lon":139.7447},{"name":"※北区本庁舎","province":"東京都","city":"北区","address":"東京都北区王子本町1丁目15-22","lat":35.75280347,"lon":139.73349965},{"name":"田端駅","province":"東京都","city":"北区","address":"東京都北区東田端1丁目17-1","lat":35.7379979,"lon":139.76093988},{"name":"赤羽駅","province":"東京都","city":"北区","address":"東京都北区赤羽1丁目1-1","lat":35.77859724,"lon":139.72067745},{"name":"北都税事務所","province":"東京都","city":"北区","address":"東京都北区中十条1丁目7-8","lat":35.758247,"lon":139.729056},{"name":"東京都障害者総合スポーツセンター","province":"東京都","city":"北区","address":"東京都北区十条台1丁目2-2","lat":35.753722,"lon":139.724016},{"name":"東京都障害者総合スポーツセンター","province":"東京都","city":"北区","address":"東京都北区十条台1丁目2-2","lat":35.753781,"lon":139.72393},{"name":"東京都障害者総合スポーツセンター","province":"東京都","city":"北区","address":"東京都北区十条台1丁目2-2","lat":35.753669,"lon":139.724052},{"name":"東京都障害者総合スポーツセンター","province":"東京都","city":"北区","address":"東京都北区十条台1丁目2-2","lat":35.753783,"lon":139.723976},{"name":"東京都障害者総合スポーツセンター","province":"東京都","city":"北区","address":"東京都北区十条台1丁目2-2","lat":35.75378,"lon":139.723953},{"name":"東京都障害者総合スポーツセンター","province":"東京都","city":"北区","address":"東京都北区十条台1丁目2-2","lat":35.75374,"lon":139.723975},{"name":"東京都障害者総合スポーツセンター","province":"東京都","city":"北区","address":"東京都北区十条台1丁目2-2","lat":35.753802,"lon":139.723865},{"name":"東京都立北療育医療センター","province":"東京都","city":"北区","address":"東京都北区十条台1丁目2-3","lat":35.753864,"lon":139.723279},{"name":"東京都立北療育医療センター","province":"東京都","city":"北区","address":"東京都北区十条台1丁目2-3","lat":35.754122,"lon":139.72285},{"name":"東京都立北療育医療センター","province":"東京都","city":"北区","address":"東京都北区十条台1丁目2-3","lat":35.754578,"lon":139.722969},{"name":"東京都立北療育医療センター","province":"東京都","city":"北区","address":"東京都北区十条台1丁目2-3","lat":35.754519,"lon":139.722976},{"name":"東京都立北療育医療センター","province":"東京都","city":"北区","address":"東京都北区十条台1丁目2-3","lat":35.754129,"lon":139.722999},{"name":"浮間公園","province":"東京都","city":"北区","address":"東京都北区浮間2丁目31","lat":35.793531,"lon":139.694206},{"name":"浮間公園","province":"東京都","city":"北区","address":"東京都北区浮間2丁目31","lat":35.791443,"lon":139.693414},{"name":"旧古河庭園","province":"東京都","city":"北区","address":"東京都北区西ケ原1丁目27","lat":35.742862,"lon":139.746816},{"name":"東京都水道局北営業所","province":"東京都","city":"北区","address":"東京都北区赤羽台3丁目3-21","lat":35.780821,"lon":139.717333},{"name":"赤羽消防署","province":"東京都","city":"北区","address":"東京都北区赤羽南1丁目10-4","lat":35.777748,"lon":139.723098},{"name":"赤羽消防署　志茂出張所","province":"東京都","city":"北区","address":"東京都北区神谷3丁目11-22","lat":35.77522,"lon":139.732699},{"name":"東京都北区立元気ぷらざ","province":"東京都","city":"北区","address":"東京都北区志茂1丁目2","lat":35.775448,"lon":139.731353},{"name":"東京都北区役所第一庁舎","province":"東京都","city":"北区","address":"東京都北区王子本町1丁目15-22","lat":35.752857,"lon":139.733372},{"name":"北区役所第三庁舎","province":"東京都","city":"北区","address":"東京都北区王子本町1丁目4-14","lat":35.752454,"lon":139.733876},{"name":"東京都北区役所第二庁舎","province":"東京都","city":"北区","address":"東京都北区王子本町1丁目2","lat":35.752656,"lon":139.735163},{"name":"東京都北区役所第五庁舎","province":"東京都","city":"北区","address":"東京都北区王子本町1丁目16-8","lat":35.752956,"lon":139.734655},{"name":"東京都北区役所別館","province":"東京都","city":"北区","address":"東京都北区王子本町1丁目11-9","lat":35.752948,"lon":139.732907},{"name":"東京都北区役所滝野川分庁舎","province":"東京都","city":"北区","address":"東京都北区滝野川2丁目52-10","lat":35.751592,"lon":139.732904},{"name":"赤羽区民事務所","province":"東京都","city":"北区","address":"東京都北区赤羽1丁目1-26","lat":35.776071,"lon":139.722187},{"name":"スペースゆう（北区男女共同参画活動拠点施設）","province":"東京都","city":"北区","address":"東京都北区王子1丁目11-1","lat":35.754834,"lon":139.736508},{"name":"十条台ふれあい館","province":"東京都","city":"北区","address":"東京都北区中十条1丁目2","lat":35.757353,"lon":139.729642},{"name":"北区立王子区民センター","province":"東京都","city":"北区","address":"東京都北区豊島1丁目14-12","lat":35.758535,"lon":139.73974},{"name":"東十条区民センター","province":"東京都","city":"北区","address":"東京都北区東十条3丁目2-14","lat":35.765093,"lon":139.728521},{"name":"豊島区民センター","province":"東京都","city":"北区","address":"東京都北区豊島3丁目27-22","lat":35.760409,"lon":139.747815},{"name":"滝野川西区民センター","province":"東京都","city":"北区","address":"東京都北区滝野川6丁目21-25","lat":35.745678,"lon":139.72587},{"name":"滝野川西区民センター","province":"東京都","city":"北区","address":"東京都北区滝野川6丁目21-25","lat":35.745629,"lon":139.725828},{"name":"滝野川西区民センター","province":"東京都","city":"北区","address":"東京都北区滝野川6丁目21-25","lat":35.745584,"lon":139.726053},{"name":"滝野川西区民センター","province":"東京都","city":"北区","address":"東京都北区滝野川6丁目21-25","lat":35.745567,"lon":139.726024},{"name":"滝野川西区民センター","province":"東京都","city":"北区","address":"東京都北区滝野川6丁目21-25","lat":35.745546,"lon":139.726012},{"name":"滝野川東ふれあい館","province":"東京都","city":"北区","address":"東京都北区滝野川1丁目46","lat":35.74683,"lon":139.734151},{"name":"北区田端ふれあい館","province":"東京都","city":"北区","address":"東京都北区田端3丁目16-2","lat":35.73445,"lon":139.756937},{"name":"赤羽北区民センター","province":"東京都","city":"北区","address":"東京都北区赤羽北2丁目25-8","lat":35.785737,"lon":139.707182},{"name":"神谷ふれあい館","province":"東京都","city":"北区","address":"東京都北区神谷3丁目35-17","lat":35.771341,"lon":139.731091},{"name":"北区立上十条ふれあい館","province":"東京都","city":"北区","address":"東京都北区上十条3丁目3","lat":35.760358,"lon":139.718552},{"name":"東京都北区立岸町ふれあい館","province":"東京都","city":"北区","address":"東京都北区岸町1丁目6-17","lat":35.755073,"lon":139.734795},{"name":"東京都北区立東田端ふれあい館","province":"東京都","city":"北区","address":"東京都北区東田端2丁目20-51","lat":35.7396,"lon":139.761557},{"name":"北区立堀船ふれあい館","province":"東京都","city":"北区","address":"東京都北区堀船3丁目7-12","lat":35.755474,"lon":139.748069},{"name":"志茂ふれあい館","province":"東京都","city":"北区","address":"東京都北区志茂1丁目34","lat":35.77702,"lon":139.732097},{"name":"北区西が丘ふれあい館","province":"東京都","city":"北区","address":"東京都北区西が丘1丁目47-15","lat":35.768974,"lon":139.711265},{"name":"昭和町区民センター","province":"東京都","city":"北区","address":"東京都北区昭和町3丁目10-7","lat":35.749467,"lon":139.751373},{"name":"昭和町区民センター","province":"東京都","city":"北区","address":"東京都北区昭和町3丁目10-7","lat":35.749472,"lon":139.751344},{"name":"東京都北区立元気ぷらざ","province":"東京都","city":"北区","address":"東京都北区志茂1丁目2","lat":35.775447,"lon":139.731259},{"name":"北区立中央図書館","province":"東京都","city":"北区","address":"東京都北区十条台1丁目2-5","lat":35.756278,"lon":139.729086},{"name":"北区立中央図書館","province":"東京都","city":"北区","address":"東京都北区十条台1丁目2-5","lat":35.756278,"lon":139.729019},{"name":"みどりと環境の情報館（エコベルデ）","province":"東京都","city":"北区","address":"東京都北区豊島5丁目6","lat":35.764525,"lon":139.755078},{"name":"赤羽北図書館","province":"東京都","city":"北区","address":"東京都北区赤羽北1丁目18-1","lat":35.787143,"lon":139.712449},{"name":"東田端図書館","province":"東京都","city":"北区","address":"東京都北区田端新町2丁目14-15","lat":35.740519,"lon":139.764856},{"name":"赤羽西図書館","province":"東京都","city":"北区","address":"東京都北区赤羽西5丁目7-5","lat":35.77544,"lon":139.710477},{"name":"北区防災センター","province":"東京都","city":"北区","address":"東京都北区西ケ原2丁目1-6","lat":35.745119,"lon":139.744698},{"name":"赤羽エコー広場館","province":"東京都","city":"北区","address":"東京都北区赤羽1丁目67","lat":35.779261,"lon":139.720186},{"name":"富士見橋エコー広場館","province":"東京都","city":"北区","address":"東京都北区田端5丁目16","lat":35.740241,"lon":139.755498},{"name":"滝野川三丁目公園","province":"東京都","city":"北区","address":"東京都北区滝野川3丁目52","lat":35.747979,"lon":139.72929},{"name":"東京都北区立中央公園文化センター","province":"東京都","city":"北区","address":"東京都北区十条台1丁目2-1","lat":35.75316,"lon":139.727173},{"name":"東京都北区立赤羽文化センター","province":"東京都","city":"北区","address":"東京都北区赤羽西1丁目6-1","lat":35.777831,"lon":139.719563},{"name":"北区飛鳥山博物館","province":"東京都","city":"北区","address":"東京都北区西ケ原2丁目16","lat":35.749657,"lon":139.739388},{"name":"北区飛鳥山博物館","province":"東京都","city":"北区","address":"東京都北区王子1丁目1-3","lat":35.749495,"lon":139.739066},{"name":"北区飛鳥山博物館","province":"東京都","city":"北区","address":"東京都北区王子1丁目1-3","lat":35.749521,"lon":139.739051},{"name":"北区ふるさと農家体験館","province":"東京都","city":"北区","address":"東京都北区赤羽西5丁目2-34","lat":35.7743,"lon":139.711583},{"name":"東京都北区北とぴあ","province":"東京都","city":"北区","address":"東京都北区王子1丁目11","lat":35.75514,"lon":139.736245},{"name":"東京都北区北とぴあ","province":"東京都","city":"北区","address":"東京都北区王子1丁目11-1","lat":35.755056,"lon":139.736578},{"name":"東京都北区赤羽会館","province":"東京都","city":"北区","address":"東京都北区赤羽南1丁目13-1","lat":35.777808,"lon":139.723825},{"name":"東京都北区滝野川会館","province":"東京都","city":"北区","address":"東京都北区西ケ原1丁目23-3","lat":35.743239,"lon":139.747621},{"name":"中央公園","province":"東京都","city":"北区","address":"東京都北区十条台1丁目2","lat":35.75433,"lon":139.726328},{"name":"中央公園","province":"東京都","city":"北区","address":"東京都北区十条台1丁目2","lat":35.753066,"lon":139.725589},{"name":"中央公園","province":"東京都","city":"北区","address":"東京都北区十条台1丁目2","lat":35.757453,"lon":139.729171},{"name":"中央公園","province":"東京都","city":"北区","address":"東京都北区十条台1丁目2","lat":35.754523,"lon":139.724961},{"name":"中央公園","province":"東京都","city":"北区","address":"東京都北区十条台1丁目2","lat":35.754482,"lon":139.727833},{"name":"北赤羽駅高架下児童遊園","province":"東京都","city":"北区","address":"東京都北区浮間3丁目1","lat":35.787428,"lon":139.705069},{"name":"浮間一丁目緑地","province":"東京都","city":"北区","address":"東京都北区浮間1丁目8","lat":35.790085,"lon":139.70181},{"name":"浮間北公園","province":"東京都","city":"北区","address":"東京都北区浮間1丁目11","lat":35.790752,"lon":139.702242},{"name":"袋町公園","province":"東京都","city":"北区","address":"東京都北区赤羽北3丁目11","lat":35.782313,"lon":139.704347},{"name":"赤羽緑道公園","province":"東京都","city":"北区","address":"東京都北区赤羽台3丁目17","lat":35.780626,"lon":139.71289},{"name":"赤羽緑道公園","province":"東京都","city":"北区","address":"東京都北区赤羽西5丁目7","lat":35.7763,"lon":139.711558},{"name":"赤羽台四丁目公園","province":"東京都","city":"北区","address":"東京都北区赤羽台4丁目17","lat":35.7851,"lon":139.712306},{"name":"桐ケ丘中央公園（南）","province":"東京都","city":"北区","address":"東京都北区桐ケ丘1丁目8","lat":35.777296,"lon":139.707827},{"name":"稲付公園","province":"東京都","city":"北区","address":"東京都北区赤羽西3丁目19","lat":35.769579,"lon":139.718332},{"name":"赤羽公園","province":"東京都","city":"北区","address":"東京都北区赤羽南1丁目14","lat":35.777354,"lon":139.724178},{"name":"赤羽公園","province":"東京都","city":"北区","address":"東京都北区赤羽南1丁目14","lat":35.777998,"lon":139.725402},{"name":"赤羽三丁目公園","province":"東京都","city":"北区","address":"東京都北区赤羽3丁目23","lat":35.784801,"lon":139.720472},{"name":"志茂町公園","province":"東京都","city":"北区","address":"東京都北区志茂1丁目5","lat":35.775228,"lon":139.729716},{"name":"赤羽南二丁目児童遊園","province":"東京都","city":"北区","address":"東京都北区赤羽南2丁目9","lat":35.77314,"lon":139.722491},{"name":"北運動公園","province":"東京都","city":"北区","address":"東京都北区神谷2丁目47","lat":35.773975,"lon":139.728078},{"name":"清水坂公園","province":"東京都","city":"北区","address":"東京都北区十条仲原4丁目2","lat":35.769078,"lon":139.721036},{"name":"赤羽自然観察公園","province":"東京都","city":"北区","address":"東京都北区赤羽西5丁目2","lat":35.773373,"lon":139.709819},{"name":"赤羽自然観察公園","province":"東京都","city":"北区","address":"東京都北区赤羽西5丁目2","lat":35.77339,"lon":139.709865},{"name":"赤羽自然観察公園","province":"東京都","city":"北区","address":"東京都北区赤羽西5丁目2","lat":35.774262,"lon":139.712432},{"name":"豊島四丁目児童遊園","province":"東京都","city":"北区","address":"東京都北区豊島4丁目17","lat":35.762399,"lon":139.749732},{"name":"豊島公園","province":"東京都","city":"北区","address":"東京都北区豊島2丁目26","lat":35.759122,"lon":139.74231},{"name":"豊島五・六丁目公園","province":"東京都","city":"北区","address":"東京都北区豊島6丁目11","lat":35.766224,"lon":139.747812},{"name":"豊島七丁目北児童遊園","province":"東京都","city":"北区","address":"東京都北区豊島7丁目24","lat":35.765209,"lon":139.742962},{"name":"豊島馬場遺跡公園","province":"東京都","city":"北区","address":"東京都北区豊島8丁目27","lat":35.767284,"lon":139.740209},{"name":"王子五丁目公園","province":"東京都","city":"北区","address":"東京都北区王子5丁目17","lat":35.766034,"lon":139.737083},{"name":"神谷堀公園","province":"東京都","city":"北区","address":"東京都北区王子5丁目28","lat":35.767759,"lon":139.737365},{"name":"荒川岩淵関緑地","province":"東京都","city":"北区","address":"東京都北区志茂5丁目","lat":35.787356,"lon":139.726817},{"name":"新荒川大橋緑地","province":"東京都","city":"北区","address":"東京都北区赤羽3丁目","lat":35.788689,"lon":139.720314},{"name":"赤羽台さくら並木公園","province":"東京都","city":"北区","address":"東京都北区赤羽台4丁目17","lat":35.782698,"lon":139.711663},{"name":"赤羽スポーツの森公園","province":"東京都","city":"北区","address":"東京都北区赤羽西5丁目2","lat":35.771764,"lon":139.710057},{"name":"赤羽スポーツの森公園","province":"東京都","city":"北区","address":"東京都北区赤羽西5丁目2","lat":35.772745,"lon":139.710057},{"name":"西が丘一丁目児童遊園","province":"東京都","city":"北区","address":"東京都北区西が丘1丁目44","lat":35.770347,"lon":139.711074},{"name":"志茂ゆりの木公園","province":"東京都","city":"北区","address":"東京都北区志茂5丁目18","lat":35.783872,"lon":139.732065},{"name":"志茂三丁目小柳川公園","province":"東京都","city":"北区","address":"東京都北区志茂3丁目26","lat":35.779062,"lon":139.734424},{"name":"志茂四わかば児童遊園","province":"東京都","city":"北区","address":"東京都北区志茂4丁目31","lat":35.781947,"lon":139.734351},{"name":"十条公園","province":"東京都","city":"北区","address":"東京都北区十条台2丁目5","lat":35.75849,"lon":139.71947},{"name":"王子本町公園","province":"東京都","city":"北区","address":"東京都北区王子本町2丁目29","lat":35.753799,"lon":139.731099},{"name":"東王子公園","province":"東京都","city":"北区","address":"東京都北区堀船2丁目19","lat":35.754552,"lon":139.743815},{"name":"王子五丁目児童遊園","province":"東京都","city":"北区","address":"東京都北区王子5丁目2","lat":35.76546,"lon":139.734464},{"name":"堀船一丁目公園","province":"東京都","city":"北区","address":"東京都北区堀船1丁目15","lat":35.753902,"lon":139.743531},{"name":"堀船公園","province":"東京都","city":"北区","address":"東京都北区堀船2丁目10","lat":35.753876,"lon":139.745565},{"name":"堀船第二公園","province":"東京都","city":"北区","address":"東京都北区堀船2丁目27","lat":35.757086,"lon":139.746869},{"name":"白山堀公園","province":"東京都","city":"北区","address":"東京都北区堀船4丁目2","lat":35.754212,"lon":139.750341},{"name":"音無こぶし緑地","province":"東京都","city":"北区","address":"東京都北区滝野川4丁目29","lat":35.751164,"lon":139.723925},{"name":"北谷端公園","province":"東京都","city":"北区","address":"東京都北区滝野川7丁目14","lat":35.743747,"lon":139.721393},{"name":"南谷端公園","province":"東京都","city":"北区","address":"東京都北区滝野川7丁目42","lat":35.742204,"lon":139.723003},{"name":"東中里公園","province":"東京都","city":"北区","address":"東京都北区中里1丁目12","lat":35.736964,"lon":139.751649},{"name":"西中里公園","province":"東京都","city":"北区","address":"東京都北区中里2丁目15","lat":35.739418,"lon":139.749319},{"name":"田端台公園","province":"東京都","city":"北区","address":"東京都北区田端1丁目28","lat":35.734848,"lon":139.763975},{"name":"東田端公園","province":"東京都","city":"北区","address":"東京都北区東田端2丁目5","lat":35.74031,"lon":139.763232},{"name":"田端新町南むつみ公園","province":"東京都","city":"北区","address":"東京都北区田端新町1丁目5","lat":35.737288,"lon":139.767539},{"name":"十条野鳥の森緑地","province":"東京都","city":"北区","address":"東京都北区上十条1丁目22","lat":35.759871,"lon":139.724888},{"name":"柳田公園","province":"東京都","city":"北区","address":"東京都北区王子1丁目20","lat":35.755977,"lon":139.739074},{"name":"王子駅前公園","province":"東京都","city":"北区","address":"東京都北区王子1丁目7","lat":35.754074,"lon":139.738432},{"name":"飛鳥山公園","province":"東京都","city":"北区","address":"東京都北区王子1丁目1","lat":35.750349,"lon":139.738562},{"name":"飛鳥山公園","province":"東京都","city":"北区","address":"東京都北区王子1丁目1","lat":35.750607,"lon":139.739323},{"name":"飛鳥山公園","province":"東京都","city":"北区","address":"東京都北区西ケ原2丁目16","lat":35.749581,"lon":139.740134},{"name":"飛鳥山公園","province":"東京都","city":"北区","address":"東京都北区王子1丁目1","lat":35.751467,"lon":139.737186},{"name":"音無親水公園","province":"東京都","city":"北区","address":"東京都北区王子本町1丁目2","lat":35.752202,"lon":139.735495},{"name":"上中里二丁目広場","province":"東京都","city":"北区","address":"東京都北区上中里2丁目2","lat":35.744637,"lon":139.754348},{"name":"滝野川公園","province":"東京都","city":"北区","address":"東京都北区西ケ原2丁目1","lat":35.745924,"lon":139.744343},{"name":"田端新町公園","province":"東京都","city":"北区","address":"東京都北区田端新町1丁目22","lat":35.738144,"lon":139.768758},{"name":"王子四丁目公園","province":"東京都","city":"北区","address":"東京都北区王子4丁目5","lat":35.761201,"lon":139.732898},{"name":"醸造試験所跡地公園","province":"東京都","city":"北区","address":"東京都北区滝野川2丁目6","lat":35.750918,"lon":139.735529},{"name":"あすか緑地","province":"東京都","city":"北区","address":"東京都北区豊島2丁目4","lat":35.7568,"lon":139.742638},{"name":"栄町ふれあい公園","province":"東京都","city":"北区","address":"東京都北区栄町32","lat":35.749712,"lon":139.742781},{"name":"西ケ原みんなの公園","province":"東京都","city":"北区","address":"東京都北区西ケ原4丁目51","lat":35.741245,"lon":139.736847},{"name":"西ケ原みんなの公園","province":"東京都","city":"北区","address":"東京都北区西ケ原4丁目51","lat":35.742646,"lon":139.736411},{"name":"昭和町ふれあい児童遊園","province":"東京都","city":"北区","address":"東京都北区昭和町1丁目5","lat":35.746384,"lon":139.757221},{"name":"北園児童遊園","province":"東京都","city":"北区","address":"東京都北区赤羽北3丁目6","lat":35.782817,"lon":139.707161},{"name":"豊島四丁目リバーサイド公園","province":"東京都","city":"北区","address":"東京都北区豊島4丁目18","lat":35.761998,"lon":139.751463},{"name":"田端二丁目児童遊園","province":"東京都","city":"北区","address":"東京都北区田端2丁目6","lat":35.734673,"lon":139.759015},{"name":"赤羽台けやき公園","province":"東京都","city":"北区","address":"東京都北区赤羽台1丁目6","lat":35.778523,"lon":139.713815},{"name":"赤羽台けやき公園","province":"東京都","city":"北区","address":"東京都北区赤羽台1丁目6","lat":35.778686,"lon":139.714999},{"name":"王子六丁目公園","province":"東京都","city":"北区","address":"東京都北区王子6丁目2","lat":35.759454,"lon":139.740839},{"name":"浮間子どもスポーツ広場","province":"東京都","city":"北区","address":"東京都北区浮間4丁目27-1","lat":35.78946,"lon":139.691646},{"name":"田端駅前公衆便所","province":"東京都","city":"北区","address":"東京都北区東田端1丁目17-1","lat":35.738115,"lon":139.760874},{"name":"東十条駅北口公衆便所","province":"東京都","city":"北区","address":"東京都北区東十条4丁目15","lat":35.765431,"lon":139.726541},{"name":"尾久駅前公衆便所","province":"東京都","city":"北区","address":"東京都北区昭和町1丁目2","lat":35.746747,"lon":139.754872},{"name":"新田端大橋下公衆便所","province":"東京都","city":"北区","address":"東京都北区東田端1丁目17","lat":35.739099,"lon":139.76203},{"name":"北赤羽駅前公衆便所","province":"東京都","city":"北区","address":"東京都北区赤羽北2丁目32","lat":35.785662,"lon":139.708136},{"name":"上中里駅前公衆便所","province":"東京都","city":"北区","address":"東京都北区上中里1丁目47","lat":35.74636,"lon":139.747229},{"name":"王子五丁目公衆便所","province":"東京都","city":"北区","address":"東京都北区王子5丁目2","lat":35.765543,"lon":139.73548},{"name":"板橋駅前公衆便所","province":"東京都","city":"北区","address":"東京都北区滝野川7丁目2","lat":35.745368,"lon":139.720365},{"name":"東京都北区立障害者福祉センター","province":"東京都","city":"北区","address":"東京都北区中十条1丁目2-18","lat":35.757662,"lon":139.729502},{"name":"東京都北区立障害者福祉センター","province":"東京都","city":"北区","address":"東京都北区中十条1丁目2-18","lat":35.75762,"lon":139.72951},{"name":"東京都北区立障害者福祉センター","province":"東京都","city":"北区","address":"東京都北区中十条1丁目2-18","lat":35.757824,"lon":139.729725},{"name":"滝野川体育館","province":"東京都","city":"北区","address":"東京都北区西ケ原2丁目1-6","lat":35.745559,"lon":139.745499},{"name":"北運動場","province":"東京都","city":"北区","address":"東京都北区神谷2丁目47","lat":35.77481,"lon":139.729247},{"name":"新荒川大橋野球場","province":"東京都","city":"北区","address":"東京都北区赤羽3丁目","lat":35.788783,"lon":139.720745},{"name":"パノラマプール十条台","province":"東京都","city":"北区","address":"東京都北区岸町2丁目3","lat":35.758714,"lon":139.730965},{"name":"赤羽スポーツの森公園競技場","province":"東京都","city":"北区","address":"東京都北区赤羽西5丁目2","lat":35.772246,"lon":139.709178},{"name":"浮間舟渡庭球場","province":"東京都","city":"北区","address":"東京都北区浮間4丁目27","lat":35.790736,"lon":139.691728},{"name":"赤羽体育館","province":"東京都","city":"北区","address":"東京都北区志茂3丁目46","lat":35.775381,"lon":139.736108},{"name":"赤羽体育館","province":"東京都","city":"北区","address":"東京都北区志茂3丁目46","lat":35.77552,"lon":139.735917},{"name":"赤羽体育館","province":"東京都","city":"北区","address":"東京都北区志茂3丁目46","lat":35.775467,"lon":139.736123},{"name":"赤羽体育館","province":"東京都","city":"北区","address":"東京都北区志茂3丁目46","lat":35.775464,"lon":139.73617},{"name":"浮間中学校複合施設","province":"東京都","city":"北区","address":"東京都北区浮間4丁目29-32","lat":35.790371,"lon":139.693616},{"name":"滝野川東児童館","province":"東京都","city":"北区","address":"東京都北区滝野川1丁目47","lat":35.747031,"lon":139.734515},{"name":"赤羽児童館","province":"東京都","city":"北区","address":"東京都北区赤羽南1丁目16-2","lat":35.777199,"lon":139.725733},{"name":"豊島児童館","province":"東京都","city":"北区","address":"東京都北区豊島7丁目15","lat":35.764518,"lon":139.744884},{"name":"桐ケ丘児童館","province":"東京都","city":"北区","address":"東京都北区桐ケ丘1丁目8","lat":35.778616,"lon":139.707325},{"name":"滝野川西児童館","province":"東京都","city":"北区","address":"東京都北区滝野川6丁目21","lat":35.74571,"lon":139.726324},{"name":"王子東児童館","province":"東京都","city":"北区","address":"東京都北区王子6丁目3","lat":35.759326,"lon":139.740933},{"name":"神谷子どもセンター","province":"東京都","city":"北区","address":"東京都北区神谷3丁目35-17","lat":35.771356,"lon":139.731063},{"name":"志茂子ども交流館","province":"東京都","city":"北区","address":"東京都北区志茂5丁目18","lat":35.783504,"lon":139.731739},{"name":"北区立生きがい活動センター","province":"東京都","city":"北区","address":"東京都北区王子5丁目2-5","lat":35.764657,"lon":139.733015},{"name":"ネスト赤羽","province":"東京都","city":"北区","address":"東京都北区赤羽1丁目59-9","lat":35.78288,"lon":139.720114},{"name":"豊島五丁目グリーンスポーツ広場","province":"東京都","city":"北区","address":"東京都北区豊島5丁目","lat":35.764989,"lon":139.758051},{"name":"宮城ゆうゆう公園","province":"東京都","city":"北区","address":"東京都北区豊島5丁目","lat":35.764956,"lon":139.757335},{"name":"北都税事務所","province":"東京都","city":"北区","address":"東京都北区中十条1丁目7-8","lat":35.758247,"lon":139.729056},{"name":"東京都障害者総合スポーツセンター","province":"東京都","city":"北区","address":"東京都北区十条台1丁目2-2","lat":35.753722,"lon":139.724016},{"name":"東京都障害者総合スポーツセンター","province":"東京都","city":"北区","address":"東京都北区十条台1丁目2-2","lat":35.753781,"lon":139.72393},{"name":"東京都障害者総合スポーツセンター","province":"東京都","city":"北区","address":"東京都北区十条台1丁目2-2","lat":35.753669,"lon":139.724052},{"name":"東京都障害者総合スポーツセンター","province":"東京都","city":"北区","address":"東京都北区十条台1丁目2-2","lat":35.753783,"lon":139.723976},{"name":"東京都障害者総合スポーツセンター","province":"東京都","city":"北区","address":"東京都北区十条台1丁目2-2","lat":35.75378,"lon":139.723953},{"name":"東京都障害者総合スポーツセンター","province":"東京都","city":"北区","address":"東京都北区十条台1丁目2-2","lat":35.75374,"lon":139.723975},{"name":"東京都障害者総合スポーツセンター","province":"東京都","city":"北区","address":"東京都北区十条台1丁目2-2","lat":35.753802,"lon":139.723865},{"name":"東京都立北療育医療センター","province":"東京都","city":"北区","address":"東京都北区十条台1丁目2-3","lat":35.753864,"lon":139.723279},{"name":"東京都立北療育医療センター","province":"東京都","city":"北区","address":"東京都北区十条台1丁目2-3","lat":35.754122,"lon":139.72285},{"name":"東京都立北療育医療センター","province":"東京都","city":"北区","address":"東京都北区十条台1丁目2-3","lat":35.754578,"lon":139.722969},{"name":"東京都立北療育医療センター","province":"東京都","city":"北区","address":"東京都北区十条台1丁目2-3","lat":35.754519,"lon":139.722976},{"name":"東京都立北療育医療センター","province":"東京都","city":"北区","address":"東京都北区十条台1丁目2-3","lat":35.754129,"lon":139.722999},{"name":"浮間公園","province":"東京都","city":"北区","address":"東京都北区浮間2丁目31","lat":35.793531,"lon":139.694206},{"name":"浮間公園","province":"東京都","city":"北区","address":"東京都北区浮間2丁目31","lat":35.791443,"lon":139.693414},{"name":"旧古河庭園","province":"東京都","city":"北区","address":"東京都北区西ケ原1丁目27","lat":35.742862,"lon":139.746816},{"name":"東京都水道局北営業所","province":"東京都","city":"北区","address":"東京都北区赤羽台3丁目3-21","lat":35.780821,"lon":139.717333},{"name":"赤羽消防署","province":"東京都","city":"北区","address":"東京都北区赤羽南1丁目10-4","lat":35.777748,"lon":139.723098},{"name":"赤羽消防署　志茂出張所","province":"東京都","city":"北区","address":"東京都北区神谷3丁目11-22","lat":35.77522,"lon":139.732699},{"name":"東京都北区立元気ぷらざ","province":"東京都","city":"北区","address":"東京都北区志茂1丁目2","lat":35.775448,"lon":139.731353},{"name":"東京都北区役所第一庁舎","province":"東京都","city":"北区","address":"東京都北区王子本町1丁目15-22","lat":35.752857,"lon":139.733372},{"name":"北区役所第三庁舎","province":"東京都","city":"北区","address":"東京都北区王子本町1丁目4-14","lat":35.752454,"lon":139.733876},{"name":"東京都北区役所第二庁舎","province":"東京都","city":"北区","address":"東京都北区王子本町1丁目2","lat":35.752656,"lon":139.735163},{"name":"東京都北区役所第五庁舎","province":"東京都","city":"北区","address":"東京都北区王子本町1丁目16-8","lat":35.752956,"lon":139.734655},{"name":"東京都北区役所別館","province":"東京都","city":"北区","address":"東京都北区王子本町1丁目11-9","lat":35.752948,"lon":139.732907},{"name":"東京都北区役所滝野川分庁舎","province":"東京都","city":"北区","address":"東京都北区滝野川2丁目52-10","lat":35.751592,"lon":139.732904},{"name":"赤羽区民事務所","province":"東京都","city":"北区","address":"東京都北区赤羽1丁目1-26","lat":35.776071,"lon":139.722187},{"name":"スペースゆう（北区男女共同参画活動拠点施設）","province":"東京都","city":"北区","address":"東京都北区王子1丁目11-1","lat":35.754834,"lon":139.736508},{"name":"十条台ふれあい館","province":"東京都","city":"北区","address":"東京都北区中十条1丁目2","lat":35.757353,"lon":139.729642},{"name":"北区立王子区民センター","province":"東京都","city":"北区","address":"東京都北区豊島1丁目14-12","lat":35.758535,"lon":139.73974},{"name":"東十条区民センター","province":"東京都","city":"北区","address":"東京都北区東十条3丁目2-14","lat":35.765093,"lon":139.728521},{"name":"豊島区民センター","province":"東京都","city":"北区","address":"東京都北区豊島3丁目27-22","lat":35.760409,"lon":139.747815},{"name":"滝野川西区民センター","province":"東京都","city":"北区","address":"東京都北区滝野川6丁目21-25","lat":35.745678,"lon":139.72587},{"name":"滝野川西区民センター","province":"東京都","city":"北区","address":"東京都北区滝野川6丁目21-25","lat":35.745629,"lon":139.725828},{"name":"滝野川西区民センター","province":"東京都","city":"北区","address":"東京都北区滝野川6丁目21-25","lat":35.745584,"lon":139.726053},{"name":"滝野川西区民センター","province":"東京都","city":"北区","address":"東京都北区滝野川6丁目21-25","lat":35.745567,"lon":139.726024},{"name":"滝野川西区民センター","province":"東京都","city":"北区","address":"東京都北区滝野川6丁目21-25","lat":35.745546,"lon":139.726012},{"name":"滝野川東ふれあい館","province":"東京都","city":"北区","address":"東京都北区滝野川1丁目46","lat":35.74683,"lon":139.734151},{"name":"北区田端ふれあい館","province":"東京都","city":"北区","address":"東京都北区田端3丁目16-2","lat":35.73445,"lon":139.756937},{"name":"赤羽北区民センター","province":"東京都","city":"北区","address":"東京都北区赤羽北2丁目25-8","lat":35.785737,"lon":139.707182},{"name":"神谷ふれあい館","province":"東京都","city":"北区","address":"東京都北区神谷3丁目35-17","lat":35.771341,"lon":139.731091},{"name":"北区立上十条ふれあい館","province":"東京都","city":"北区","address":"東京都北区上十条3丁目3","lat":35.760358,"lon":139.718552},{"name":"東京都北区立岸町ふれあい館","province":"東京都","city":"北区","address":"東京都北区岸町1丁目6-17","lat":35.755073,"lon":139.734795},{"name":"東京都北区立東田端ふれあい館","province":"東京都","city":"北区","address":"東京都北区東田端2丁目20-51","lat":35.7396,"lon":139.761557},{"name":"北区立堀船ふれあい館","province":"東京都","city":"北区","address":"東京都北区堀船3丁目7-12","lat":35.755474,"lon":139.748069},{"name":"志茂ふれあい館","province":"東京都","city":"北区","address":"東京都北区志茂1丁目34","lat":35.77702,"lon":139.732097},{"name":"北区西が丘ふれあい館","province":"東京都","city":"北区","address":"東京都北区西が丘1丁目47-15","lat":35.768974,"lon":139.711265},{"name":"昭和町区民センター","province":"東京都","city":"北区","address":"東京都北区昭和町3丁目10-7","lat":35.749467,"lon":139.751373},{"name":"昭和町区民センター","province":"東京都","city":"北区","address":"東京都北区昭和町3丁目10-7","lat":35.749472,"lon":139.751344},{"name":"東京都北区立元気ぷらざ","province":"東京都","city":"北区","address":"東京都北区志茂1丁目2","lat":35.775447,"lon":139.731259},{"name":"北区立中央図書館","province":"東京都","city":"北区","address":"東京都北区十条台1丁目2-5","lat":35.756278,"lon":139.729086},{"name":"北区立中央図書館","province":"東京都","city":"北区","address":"東京都北区十条台1丁目2-5","lat":35.756278,"lon":139.729019},{"name":"みどりと環境の情報館（エコベルデ）","province":"東京都","city":"北区","address":"東京都北区豊島5丁目6","lat":35.764525,"lon":139.755078},{"name":"赤羽北図書館","province":"東京都","city":"北区","address":"東京都北区赤羽北1丁目18-1","lat":35.787143,"lon":139.712449},{"name":"東田端図書館","province":"東京都","city":"北区","address":"東京都北区田端新町2丁目14-15","lat":35.740519,"lon":139.764856},{"name":"赤羽西図書館","province":"東京都","city":"北区","address":"東京都北区赤羽西5丁目7-5","lat":35.77544,"lon":139.710477},{"name":"北区防災センター","province":"東京都","city":"北区","address":"東京都北区西ケ原2丁目1-6","lat":35.745119,"lon":139.744698},{"name":"赤羽エコー広場館","province":"東京都","city":"北区","address":"東京都北区赤羽1丁目67","lat":35.779261,"lon":139.720186},{"name":"富士見橋エコー広場館","province":"東京都","city":"北区","address":"東京都北区田端5丁目16","lat":35.740241,"lon":139.755498},{"name":"滝野川三丁目公園","province":"東京都","city":"北区","address":"東京都北区滝野川3丁目52","lat":35.747979,"lon":139.72929},{"name":"東京都北区立中央公園文化センター","province":"東京都","city":"北区","address":"東京都北区十条台1丁目2-1","lat":35.75316,"lon":139.727173},{"name":"東京都北区立赤羽文化センター","province":"東京都","city":"北区","address":"東京都北区赤羽西1丁目6-1","lat":35.777831,"lon":139.719563},{"name":"北区飛鳥山博物館","province":"東京都","city":"北区","address":"東京都北区西ケ原2丁目16","lat":35.749657,"lon":139.739388},{"name":"北区飛鳥山博物館","province":"東京都","city":"北区","address":"東京都北区王子1丁目1-3","lat":35.749495,"lon":139.739066},{"name":"北区飛鳥山博物館","province":"東京都","city":"北区","address":"東京都北区王子1丁目1-3","lat":35.749521,"lon":139.739051},{"name":"北区ふるさと農家体験館","province":"東京都","city":"北区","address":"東京都北区赤羽西5丁目2-34","lat":35.7743,"lon":139.711583},{"name":"東京都北区北とぴあ","province":"東京都","city":"北区","address":"東京都北区王子1丁目11","lat":35.75514,"lon":139.736245},{"name":"東京都北区北とぴあ","province":"東京都","city":"北区","address":"東京都北区王子1丁目11-1","lat":35.755056,"lon":139.736578},{"name":"東京都北区赤羽会館","province":"東京都","city":"北区","address":"東京都北区赤羽南1丁目13-1","lat":35.777808,"lon":139.723825},{"name":"東京都北区滝野川会館","province":"東京都","city":"北区","address":"東京都北区西ケ原1丁目23-3","lat":35.743239,"lon":139.747621},{"name":"中央公園","province":"東京都","city":"北区","address":"東京都北区十条台1丁目2","lat":35.75433,"lon":139.726328},{"name":"中央公園","province":"東京都","city":"北区","address":"東京都北区十条台1丁目2","lat":35.753066,"lon":139.725589},{"name":"中央公園","province":"東京都","city":"北区","address":"東京都北区十条台1丁目2","lat":35.757453,"lon":139.729171},{"name":"中央公園","province":"東京都","city":"北区","address":"東京都北区十条台1丁目2","lat":35.754523,"lon":139.724961},{"name":"中央公園","province":"東京都","city":"北区","address":"東京都北区十条台1丁目2","lat":35.754482,"lon":139.727833},{"name":"北赤羽駅高架下児童遊園","province":"東京都","city":"北区","address":"東京都北区浮間3丁目1","lat":35.787428,"lon":139.705069},{"name":"浮間一丁目緑地","province":"東京都","city":"北区","address":"東京都北区浮間1丁目8","lat":35.790085,"lon":139.70181},{"name":"浮間北公園","province":"東京都","city":"北区","address":"東京都北区浮間1丁目11","lat":35.790752,"lon":139.702242},{"name":"袋町公園","province":"東京都","city":"北区","address":"東京都北区赤羽北3丁目11","lat":35.782313,"lon":139.704347},{"name":"赤羽緑道公園","province":"東京都","city":"北区","address":"東京都北区赤羽台3丁目17","lat":35.780626,"lon":139.71289},{"name":"赤羽緑道公園","province":"東京都","city":"北区","address":"東京都北区赤羽西5丁目7","lat":35.7763,"lon":139.711558},{"name":"赤羽台四丁目公園","province":"東京都","city":"北区","address":"東京都北区赤羽台4丁目17","lat":35.7851,"lon":139.712306},{"name":"桐ケ丘中央公園（南）","province":"東京都","city":"北区","address":"東京都北区桐ケ丘1丁目8","lat":35.777296,"lon":139.707827},{"name":"稲付公園","province":"東京都","city":"北区","address":"東京都北区赤羽西3丁目19","lat":35.769579,"lon":139.718332},{"name":"赤羽公園","province":"東京都","city":"北区","address":"東京都北区赤羽南1丁目14","lat":35.777354,"lon":139.724178},{"name":"赤羽公園","province":"東京都","city":"北区","address":"東京都北区赤羽南1丁目14","lat":35.777998,"lon":139.725402},{"name":"赤羽三丁目公園","province":"東京都","city":"北区","address":"東京都北区赤羽3丁目23","lat":35.784801,"lon":139.720472},{"name":"志茂町公園","province":"東京都","city":"北区","address":"東京都北区志茂1丁目5","lat":35.775228,"lon":139.729716},{"name":"赤羽南二丁目児童遊園","province":"東京都","city":"北区","address":"東京都北区赤羽南2丁目9","lat":35.77314,"lon":139.722491},{"name":"北運動公園","province":"東京都","city":"北区","address":"東京都北区神谷2丁目47","lat":35.773975,"lon":139.728078},{"name":"清水坂公園","province":"東京都","city":"北区","address":"東京都北区十条仲原4丁目2","lat":35.769078,"lon":139.721036},{"name":"赤羽自然観察公園","province":"東京都","city":"北区","address":"東京都北区赤羽西5丁目2","lat":35.773373,"lon":139.709819},{"name":"赤羽自然観察公園","province":"東京都","city":"北区","address":"東京都北区赤羽西5丁目2","lat":35.77339,"lon":139.709865},{"name":"赤羽自然観察公園","province":"東京都","city":"北区","address":"東京都北区赤羽西5丁目2","lat":35.774262,"lon":139.712432},{"name":"豊島四丁目児童遊園","province":"東京都","city":"北区","address":"東京都北区豊島4丁目17","lat":35.762399,"lon":139.749732},{"name":"豊島公園","province":"東京都","city":"北区","address":"東京都北区豊島2丁目26","lat":35.759122,"lon":139.74231},{"name":"豊島五・六丁目公園","province":"東京都","city":"北区","address":"東京都北区豊島6丁目11","lat":35.766224,"lon":139.747812},{"name":"豊島七丁目北児童遊園","province":"東京都","city":"北区","address":"東京都北区豊島7丁目24","lat":35.765209,"lon":139.742962},{"name":"豊島馬場遺跡公園","province":"東京都","city":"北区","address":"東京都北区豊島8丁目27","lat":35.767284,"lon":139.740209},{"name":"王子五丁目公園","province":"東京都","city":"北区","address":"東京都北区王子5丁目17","lat":35.766034,"lon":139.737083},{"name":"神谷堀公園","province":"東京都","city":"北区","address":"東京都北区王子5丁目28","lat":35.767759,"lon":139.737365},{"name":"荒川岩淵関緑地","province":"東京都","city":"北区","address":"東京都北区志茂5丁目","lat":35.787356,"lon":139.726817},{"name":"新荒川大橋緑地","province":"東京都","city":"北区","address":"東京都北区赤羽3丁目","lat":35.788689,"lon":139.720314},{"name":"赤羽台さくら並木公園","province":"東京都","city":"北区","address":"東京都北区赤羽台4丁目17","lat":35.782698,"lon":139.711663},{"name":"赤羽スポーツの森公園","province":"東京都","city":"北区","address":"東京都北区赤羽西5丁目2","lat":35.771764,"lon":139.710057},{"name":"赤羽スポーツの森公園","province":"東京都","city":"北区","address":"東京都北区赤羽西5丁目2","lat":35.772745,"lon":139.710057},{"name":"西が丘一丁目児童遊園","province":"東京都","city":"北区","address":"東京都北区西が丘1丁目44","lat":35.770347,"lon":139.711074},{"name":"志茂ゆりの木公園","province":"東京都","city":"北区","address":"東京都北区志茂5丁目18","lat":35.783872,"lon":139.732065},{"name":"志茂三丁目小柳川公園","province":"東京都","city":"北区","address":"東京都北区志茂3丁目26","lat":35.779062,"lon":139.734424},{"name":"志茂四わかば児童遊園","province":"東京都","city":"北区","address":"東京都北区志茂4丁目31","lat":35.781947,"lon":139.734351},{"name":"十条公園","province":"東京都","city":"北区","address":"東京都北区十条台2丁目5","lat":35.75849,"lon":139.71947},{"name":"王子本町公園","province":"東京都","city":"北区","address":"東京都北区王子本町2丁目29","lat":35.753799,"lon":139.731099},{"name":"東王子公園","province":"東京都","city":"北区","address":"東京都北区堀船2丁目19","lat":35.754552,"lon":139.743815},{"name":"王子五丁目児童遊園","province":"東京都","city":"北区","address":"東京都北区王子5丁目2","lat":35.76546,"lon":139.734464},{"name":"堀船一丁目公園","province":"東京都","city":"北区","address":"東京都北区堀船1丁目15","lat":35.753902,"lon":139.743531},{"name":"堀船公園","province":"東京都","city":"北区","address":"東京都北区堀船2丁目10","lat":35.753876,"lon":139.745565},{"name":"堀船第二公園","province":"東京都","city":"北区","address":"東京都北区堀船2丁目27","lat":35.757086,"lon":139.746869},{"name":"白山堀公園","province":"東京都","city":"北区","address":"東京都北区堀船4丁目2","lat":35.754212,"lon":139.750341},{"name":"音無こぶし緑地","province":"東京都","city":"北区","address":"東京都北区滝野川4丁目29","lat":35.751164,"lon":139.723925},{"name":"北谷端公園","province":"東京都","city":"北区","address":"東京都北区滝野川7丁目14","lat":35.743747,"lon":139.721393},{"name":"南谷端公園","province":"東京都","city":"北区","address":"東京都北区滝野川7丁目42","lat":35.742204,"lon":139.723003},{"name":"東中里公園","province":"東京都","city":"北区","address":"東京都北区中里1丁目12","lat":35.736964,"lon":139.751649},{"name":"西中里公園","province":"東京都","city":"北区","address":"東京都北区中里2丁目15","lat":35.739418,"lon":139.749319},{"name":"田端台公園","province":"東京都","city":"北区","address":"東京都北区田端1丁目28","lat":35.734848,"lon":139.763975},{"name":"東田端公園","province":"東京都","city":"北区","address":"東京都北区東田端2丁目5","lat":35.74031,"lon":139.763232},{"name":"田端新町南むつみ公園","province":"東京都","city":"北区","address":"東京都北区田端新町1丁目5","lat":35.737288,"lon":139.767539},{"name":"十条野鳥の森緑地","province":"東京都","city":"北区","address":"東京都北区上十条1丁目22","lat":35.759871,"lon":139.724888},{"name":"柳田公園","province":"東京都","city":"北区","address":"東京都北区王子1丁目20","lat":35.755977,"lon":139.739074},{"name":"王子駅前公園","province":"東京都","city":"北区","address":"東京都北区王子1丁目7","lat":35.754074,"lon":139.738432},{"name":"飛鳥山公園","province":"東京都","city":"北区","address":"東京都北区王子1丁目1","lat":35.750349,"lon":139.738562},{"name":"飛鳥山公園","province":"東京都","city":"北区","address":"東京都北区王子1丁目1","lat":35.750607,"lon":139.739323},{"name":"飛鳥山公園","province":"東京都","city":"北区","address":"東京都北区西ケ原2丁目16","lat":35.749581,"lon":139.740134},{"name":"飛鳥山公園","province":"東京都","city":"北区","address":"東京都北区王子1丁目1","lat":35.751467,"lon":139.737186},{"name":"音無親水公園","province":"東京都","city":"北区","address":"東京都北区王子本町1丁目2","lat":35.752202,"lon":139.735495},{"name":"上中里二丁目広場","province":"東京都","city":"北区","address":"東京都北区上中里2丁目2","lat":35.744637,"lon":139.754348},{"name":"滝野川公園","province":"東京都","city":"北区","address":"東京都北区西ケ原2丁目1","lat":35.745924,"lon":139.744343},{"name":"田端新町公園","province":"東京都","city":"北区","address":"東京都北区田端新町1丁目22","lat":35.738144,"lon":139.768758},{"name":"王子四丁目公園","province":"東京都","city":"北区","address":"東京都北区王子4丁目5","lat":35.761201,"lon":139.732898},{"name":"醸造試験所跡地公園","province":"東京都","city":"北区","address":"東京都北区滝野川2丁目6","lat":35.750918,"lon":139.735529},{"name":"あすか緑地","province":"東京都","city":"北区","address":"東京都北区豊島2丁目4","lat":35.7568,"lon":139.742638},{"name":"栄町ふれあい公園","province":"東京都","city":"北区","address":"東京都北区栄町32","lat":35.749712,"lon":139.742781},{"name":"西ケ原みんなの公園","province":"東京都","city":"北区","address":"東京都北区西ケ原4丁目51","lat":35.741245,"lon":139.736847},{"name":"西ケ原みんなの公園","province":"東京都","city":"北区","address":"東京都北区西ケ原4丁目51","lat":35.742646,"lon":139.736411},{"name":"昭和町ふれあい児童遊園","province":"東京都","city":"北区","address":"東京都北区昭和町1丁目5","lat":35.746384,"lon":139.757221},{"name":"北園児童遊園","province":"東京都","city":"北区","address":"東京都北区赤羽北3丁目6","lat":35.782817,"lon":139.707161},{"name":"豊島四丁目リバーサイド公園","province":"東京都","city":"北区","address":"東京都北区豊島4丁目18","lat":35.761998,"lon":139.751463},{"name":"田端二丁目児童遊園","province":"東京都","city":"北区","address":"東京都北区田端2丁目6","lat":35.734673,"lon":139.759015},{"name":"赤羽台けやき公園","province":"東京都","city":"北区","address":"東京都北区赤羽台1丁目6","lat":35.778523,"lon":139.713815},{"name":"赤羽台けやき公園","province":"東京都","city":"北区","address":"東京都北区赤羽台1丁目6","lat":35.778686,"lon":139.714999},{"name":"王子六丁目公園","province":"東京都","city":"北区","address":"東京都北区王子6丁目2","lat":35.759454,"lon":139.740839},{"name":"浮間子どもスポーツ広場","province":"東京都","city":"北区","address":"東京都北区浮間4丁目27-1","lat":35.78946,"lon":139.691646},{"name":"田端駅前公衆便所","province":"東京都","city":"北区","address":"東京都北区東田端1丁目17-1","lat":35.738115,"lon":139.760874},{"name":"東十条駅北口公衆便所","province":"東京都","city":"北区","address":"東京都北区東十条4丁目15","lat":35.765431,"lon":139.726541},{"name":"尾久駅前公衆便所","province":"東京都","city":"北区","address":"東京都北区昭和町1丁目2","lat":35.746747,"lon":139.754872},{"name":"新田端大橋下公衆便所","province":"東京都","city":"北区","address":"東京都北区東田端1丁目17","lat":35.739099,"lon":139.76203},{"name":"北赤羽駅前公衆便所","province":"東京都","city":"北区","address":"東京都北区赤羽北2丁目32","lat":35.785662,"lon":139.708136},{"name":"上中里駅前公衆便所","province":"東京都","city":"北区","address":"東京都北区上中里1丁目47","lat":35.74636,"lon":139.747229},{"name":"王子五丁目公衆便所","province":"東京都","city":"北区","address":"東京都北区王子5丁目2","lat":35.765543,"lon":139.73548},{"name":"板橋駅前公衆便所","province":"東京都","city":"北区","address":"東京都北区滝野川7丁目2","lat":35.745368,"lon":139.720365},{"name":"東京都北区立障害者福祉センター","province":"東京都","city":"北区","address":"東京都北区中十条1丁目2-18","lat":35.757662,"lon":139.729502},{"name":"東京都北区立障害者福祉センター","province":"東京都","city":"北区","address":"東京都北区中十条1丁目2-18","lat":35.75762,"lon":139.72951},{"name":"東京都北区立障害者福祉センター","province":"東京都","city":"北区","address":"東京都北区中十条1丁目2-18","lat":35.757824,"lon":139.729725},{"name":"滝野川体育館","province":"東京都","city":"北区","address":"東京都北区西ケ原2丁目1-6","lat":35.745559,"lon":139.745499},{"name":"北運動場","province":"東京都","city":"北区","address":"東京都北区神谷2丁目47","lat":35.77481,"lon":139.729247},{"name":"新荒川大橋野球場","province":"東京都","city":"北区","address":"東京都北区赤羽3丁目","lat":35.788783,"lon":139.720745},{"name":"パノラマプール十条台","province":"東京都","city":"北区","address":"東京都北区岸町2丁目3","lat":35.758714,"lon":139.730965},{"name":"赤羽スポーツの森公園競技場","province":"東京都","city":"北区","address":"東京都北区赤羽西5丁目2","lat":35.772246,"lon":139.709178},{"name":"浮間舟渡庭球場","province":"東京都","city":"北区","address":"東京都北区浮間4丁目27","lat":35.790736,"lon":139.691728},{"name":"赤羽体育館","province":"東京都","city":"北区","address":"東京都北区志茂3丁目46","lat":35.775381,"lon":139.736108},{"name":"赤羽体育館","province":"東京都","city":"北区","address":"東京都北区志茂3丁目46","lat":35.77552,"lon":139.735917},{"name":"赤羽体育館","province":"東京都","city":"北区","address":"東京都北区志茂3丁目46","lat":35.775467,"lon":139.736123},{"name":"赤羽体育館","province":"東京都","city":"北区","address":"東京都北区志茂3丁目46","lat":35.775464,"lon":139.73617},{"name":"浮間中学校複合施設","province":"東京都","city":"北区","address":"東京都北区浮間4丁目29-32","lat":35.790371,"lon":139.693616},{"name":"滝野川東児童館","province":"東京都","city":"北区","address":"東京都北区滝野川1丁目47","lat":35.747031,"lon":139.734515},{"name":"赤羽児童館","province":"東京都","city":"北区","address":"東京都北区赤羽南1丁目16-2","lat":35.777199,"lon":139.725733},{"name":"豊島児童館","province":"東京都","city":"北区","address":"東京都北区豊島7丁目15","lat":35.764518,"lon":139.744884},{"name":"桐ケ丘児童館","province":"東京都","city":"北区","address":"東京都北区桐ケ丘1丁目8","lat":35.778616,"lon":139.707325},{"name":"滝野川西児童館","province":"東京都","city":"北区","address":"東京都北区滝野川6丁目21","lat":35.74571,"lon":139.726324},{"name":"王子東児童館","province":"東京都","city":"北区","address":"東京都北区王子6丁目3","lat":35.759326,"lon":139.740933},{"name":"神谷子どもセンター","province":"東京都","city":"北区","address":"東京都北区神谷3丁目35-17","lat":35.771356,"lon":139.731063},{"name":"志茂子ども交流館","province":"東京都","city":"北区","address":"東京都北区志茂5丁目18","lat":35.783504,"lon":139.731739},{"name":"北区立生きがい活動センター","province":"東京都","city":"北区","address":"東京都北区王子5丁目2-5","lat":35.764657,"lon":139.733015},{"name":"ネスト赤羽","province":"東京都","city":"北区","address":"東京都北区赤羽1丁目59-9","lat":35.78288,"lon":139.720114},{"name":"豊島五丁目グリーンスポーツ広場","province":"東京都","city":"北区","address":"東京都北区豊島5丁目","lat":35.764989,"lon":139.758051},{"name":"宮城ゆうゆう公園","province":"東京都","city":"北区","address":"東京都北区豊島5丁目","lat":35.764956,"lon":139.757335},{"name":"北都税事務所","province":"東京都","city":"北区","address":"東京都北区中十条1丁目7-8","lat":35.758247,"lon":139.729056},{"name":"東京都障害者総合スポーツセンター","province":"東京都","city":"北区","address":"東京都北区十条台1丁目2-2","lat":35.753722,"lon":139.724016},{"name":"東京都障害者総合スポーツセンター","province":"東京都","city":"北区","address":"東京都北区十条台1丁目2-2","lat":35.753781,"lon":139.72393},{"name":"東京都障害者総合スポーツセンター","province":"東京都","city":"北区","address":"東京都北区十条台1丁目2-2","lat":35.753669,"lon":139.724052},{"name":"東京都障害者総合スポーツセンター","province":"東京都","city":"北区","address":"東京都北区十条台1丁目2-2","lat":35.753783,"lon":139.723976},{"name":"東京都障害者総合スポーツセンター","province":"東京都","city":"北区","address":"東京都北区十条台1丁目2-2","lat":35.75378,"lon":139.723953},{"name":"東京都障害者総合スポーツセンター","province":"東京都","city":"北区","address":"東京都北区十条台1丁目2-2","lat":35.75374,"lon":139.723975},{"name":"東京都障害者総合スポーツセンター","province":"東京都","city":"北区","address":"東京都北区十条台1丁目2-2","lat":35.753802,"lon":139.723865},{"name":"東京都立北療育医療センター","province":"東京都","city":"北区","address":"東京都北区十条台1丁目2-3","lat":35.753864,"lon":139.723279},{"name":"東京都立北療育医療センター","province":"東京都","city":"北区","address":"東京都北区十条台1丁目2-3","lat":35.754122,"lon":139.72285},{"name":"東京都立北療育医療センター","province":"東京都","city":"北区","address":"東京都北区十条台1丁目2-3","lat":35.754578,"lon":139.722969},{"name":"東京都立北療育医療センター","province":"東京都","city":"北区","address":"東京都北区十条台1丁目2-3","lat":35.754519,"lon":139.722976},{"name":"東京都立北療育医療センター","province":"東京都","city":"北区","address":"東京都北区十条台1丁目2-3","lat":35.754129,"lon":139.722999},{"name":"浮間公園","province":"東京都","city":"北区","address":"東京都北区浮間2丁目31","lat":35.793531,"lon":139.694206},{"name":"浮間公園","province":"東京都","city":"北区","address":"東京都北区浮間2丁目31","lat":35.791443,"lon":139.693414},{"name":"旧古河庭園","province":"東京都","city":"北区","address":"東京都北区西ケ原1丁目27","lat":35.742862,"lon":139.746816},{"name":"東京都水道局北営業所","province":"東京都","city":"北区","address":"東京都北区赤羽台3丁目3-21","lat":35.780821,"lon":139.717333},{"name":"赤羽消防署","province":"東京都","city":"北区","address":"東京都北区赤羽南1丁目10-4","lat":35.777748,"lon":139.723098},{"name":"赤羽消防署　志茂出張所","province":"東京都","city":"北区","address":"東京都北区神谷3丁目11-22","lat":35.77522,"lon":139.732699},{"name":"東京都北区立元気ぷらざ","province":"東京都","city":"北区","address":"東京都北区志茂1丁目2","lat":35.775448,"lon":139.731353},{"name":"東京都北区役所第一庁舎","province":"東京都","city":"北区","address":"東京都北区王子本町1丁目15-22","lat":35.752857,"lon":139.733372},{"name":"北区役所第三庁舎","province":"東京都","city":"北区","address":"東京都北区王子本町1丁目4-14","lat":35.752454,"lon":139.733876},{"name":"東京都北区役所第二庁舎","province":"東京都","city":"北区","address":"東京都北区王子本町1丁目2","lat":35.752656,"lon":139.735163},{"name":"東京都北区役所第五庁舎","province":"東京都","city":"北区","address":"東京都北区王子本町1丁目16-8","lat":35.752956,"lon":139.734655},{"name":"東京都北区役所別館","province":"東京都","city":"北区","address":"東京都北区王子本町1丁目11-9","lat":35.752948,"lon":139.732907},{"name":"東京都北区役所滝野川分庁舎","province":"東京都","city":"北区","address":"東京都北区滝野川2丁目52-10","lat":35.751592,"lon":139.732904},{"name":"赤羽区民事務所","province":"東京都","city":"北区","address":"東京都北区赤羽1丁目1-26","lat":35.776071,"lon":139.722187},{"name":"スペースゆう（北区男女共同参画活動拠点施設）","province":"東京都","city":"北区","address":"東京都北区王子1丁目11-1","lat":35.754834,"lon":139.736508},{"name":"十条台ふれあい館","province":"東京都","city":"北区","address":"東京都北区中十条1丁目2","lat":35.757353,"lon":139.729642},{"name":"北区立王子区民センター","province":"東京都","city":"北区","address":"東京都北区豊島1丁目14-12","lat":35.758535,"lon":139.73974},{"name":"東十条区民センター","province":"東京都","city":"北区","address":"東京都北区東十条3丁目2-14","lat":35.765093,"lon":139.728521},{"name":"豊島区民センター","province":"東京都","city":"北区","address":"東京都北区豊島3丁目27-22","lat":35.760409,"lon":139.747815},{"name":"滝野川西区民センター","province":"東京都","city":"北区","address":"東京都北区滝野川6丁目21-25","lat":35.745678,"lon":139.72587},{"name":"滝野川西区民センター","province":"東京都","city":"北区","address":"東京都北区滝野川6丁目21-25","lat":35.745629,"lon":139.725828},{"name":"滝野川西区民センター","province":"東京都","city":"北区","address":"東京都北区滝野川6丁目21-25","lat":35.745584,"lon":139.726053},{"name":"滝野川西区民センター","province":"東京都","city":"北区","address":"東京都北区滝野川6丁目21-25","lat":35.745567,"lon":139.726024},{"name":"滝野川西区民センター","province":"東京都","city":"北区","address":"東京都北区滝野川6丁目21-25","lat":35.745546,"lon":139.726012},{"name":"滝野川東ふれあい館","province":"東京都","city":"北区","address":"東京都北区滝野川1丁目46","lat":35.74683,"lon":139.734151},{"name":"北区田端ふれあい館","province":"東京都","city":"北区","address":"東京都北区田端3丁目16-2","lat":35.73445,"lon":139.756937},{"name":"赤羽北区民センター","province":"東京都","city":"北区","address":"東京都北区赤羽北2丁目25-8","lat":35.785737,"lon":139.707182},{"name":"神谷ふれあい館","province":"東京都","city":"北区","address":"東京都北区神谷3丁目35-17","lat":35.771341,"lon":139.731091},{"name":"北区立上十条ふれあい館","province":"東京都","city":"北区","address":"東京都北区上十条3丁目3","lat":35.760358,"lon":139.718552},{"name":"東京都北区立岸町ふれあい館","province":"東京都","city":"北区","address":"東京都北区岸町1丁目6-17","lat":35.755073,"lon":139.734795},{"name":"東京都北区立東田端ふれあい館","province":"東京都","city":"北区","address":"東京都北区東田端2丁目20-51","lat":35.7396,"lon":139.761557},{"name":"北区立堀船ふれあい館","province":"東京都","city":"北区","address":"東京都北区堀船3丁目7-12","lat":35.755474,"lon":139.748069},{"name":"志茂ふれあい館","province":"東京都","city":"北区","address":"東京都北区志茂1丁目34","lat":35.77702,"lon":139.732097},{"name":"北区西が丘ふれあい館","province":"東京都","city":"北区","address":"東京都北区西が丘1丁目47-15","lat":35.768974,"lon":139.711265},{"name":"昭和町区民センター","province":"東京都","city":"北区","address":"東京都北区昭和町3丁目10-7","lat":35.749467,"lon":139.751373},{"name":"昭和町区民センター","province":"東京都","city":"北区","address":"東京都北区昭和町3丁目10-7","lat":35.749472,"lon":139.751344},{"name":"東京都北区立元気ぷらざ","province":"東京都","city":"北区","address":"東京都北区志茂1丁目2","lat":35.775447,"lon":139.731259},{"name":"北区立中央図書館","province":"東京都","city":"北区","address":"東京都北区十条台1丁目2-5","lat":35.756278,"lon":139.729086},{"name":"北区立中央図書館","province":"東京都","city":"北区","address":"東京都北区十条台1丁目2-5","lat":35.756278,"lon":139.729019},{"name":"みどりと環境の情報館（エコベルデ）","province":"東京都","city":"北区","address":"東京都北区豊島5丁目6","lat":35.764525,"lon":139.755078},{"name":"赤羽北図書館","province":"東京都","city":"北区","address":"東京都北区赤羽北1丁目18-1","lat":35.787143,"lon":139.712449},{"name":"東田端図書館","province":"東京都","city":"北区","address":"東京都北区田端新町2丁目14-15","lat":35.740519,"lon":139.764856},{"name":"赤羽西図書館","province":"東京都","city":"北区","address":"東京都北区赤羽西5丁目7-5","lat":35.77544,"lon":139.710477},{"name":"北区防災センター","province":"東京都","city":"北区","address":"東京都北区西ケ原2丁目1-6","lat":35.745119,"lon":139.744698},{"name":"赤羽エコー広場館","province":"東京都","city":"北区","address":"東京都北区赤羽1丁目67","lat":35.779261,"lon":139.720186},{"name":"富士見橋エコー広場館","province":"東京都","city":"北区","address":"東京都北区田端5丁目16","lat":35.740241,"lon":139.755498},{"name":"滝野川三丁目公園","province":"東京都","city":"北区","address":"東京都北区滝野川3丁目52","lat":35.747979,"lon":139.72929},{"name":"東京都北区立中央公園文化センター","province":"東京都","city":"北区","address":"東京都北区十条台1丁目2-1","lat":35.75316,"lon":139.727173},{"name":"東京都北区立赤羽文化センター","province":"東京都","city":"北区","address":"東京都北区赤羽西1丁目6-1","lat":35.777831,"lon":139.719563},{"name":"北区飛鳥山博物館","province":"東京都","city":"北区","address":"東京都北区西ケ原2丁目16","lat":35.749657,"lon":139.739388},{"name":"北区飛鳥山博物館","province":"東京都","city":"北区","address":"東京都北区王子1丁目1-3","lat":35.749495,"lon":139.739066},{"name":"北区飛鳥山博物館","province":"東京都","city":"北区","address":"東京都北区王子1丁目1-3","lat":35.749521,"lon":139.739051},{"name":"北区ふるさと農家体験館","province":"東京都","city":"北区","address":"東京都北区赤羽西5丁目2-34","lat":35.7743,"lon":139.711583},{"name":"東京都北区北とぴあ","province":"東京都","city":"北区","address":"東京都北区王子1丁目11","lat":35.75514,"lon":139.736245},{"name":"東京都北区北とぴあ","province":"東京都","city":"北区","address":"東京都北区王子1丁目11-1","lat":35.755056,"lon":139.736578},{"name":"東京都北区赤羽会館","province":"東京都","city":"北区","address":"東京都北区赤羽南1丁目13-1","lat":35.777808,"lon":139.723825},{"name":"東京都北区滝野川会館","province":"東京都","city":"北区","address":"東京都北区西ケ原1丁目23-3","lat":35.743239,"lon":139.747621},{"name":"中央公園","province":"東京都","city":"北区","address":"東京都北区十条台1丁目2","lat":35.75433,"lon":139.726328},{"name":"中央公園","province":"東京都","city":"北区","address":"東京都北区十条台1丁目2","lat":35.753066,"lon":139.725589},{"name":"中央公園","province":"東京都","city":"北区","address":"東京都北区十条台1丁目2","lat":35.757453,"lon":139.729171},{"name":"中央公園","province":"東京都","city":"北区","address":"東京都北区十条台1丁目2","lat":35.754523,"lon":139.724961},{"name":"中央公園","province":"東京都","city":"北区","address":"東京都北区十条台1丁目2","lat":35.754482,"lon":139.727833},{"name":"北赤羽駅高架下児童遊園","province":"東京都","city":"北区","address":"東京都北区浮間3丁目1","lat":35.787428,"lon":139.705069},{"name":"浮間一丁目緑地","province":"東京都","city":"北区","address":"東京都北区浮間1丁目8","lat":35.790085,"lon":139.70181},{"name":"浮間北公園","province":"東京都","city":"北区","address":"東京都北区浮間1丁目11","lat":35.790752,"lon":139.702242},{"name":"袋町公園","province":"東京都","city":"北区","address":"東京都北区赤羽北3丁目11","lat":35.782313,"lon":139.704347},{"name":"赤羽緑道公園","province":"東京都","city":"北区","address":"東京都北区赤羽台3丁目17","lat":35.780626,"lon":139.71289},{"name":"赤羽緑道公園","province":"東京都","city":"北区","address":"東京都北区赤羽西5丁目7","lat":35.7763,"lon":139.711558},{"name":"赤羽台四丁目公園","province":"東京都","city":"北区","address":"東京都北区赤羽台4丁目17","lat":35.7851,"lon":139.712306},{"name":"桐ケ丘中央公園（南）","province":"東京都","city":"北区","address":"東京都北区桐ケ丘1丁目8","lat":35.777296,"lon":139.707827},{"name":"稲付公園","province":"東京都","city":"北区","address":"東京都北区赤羽西3丁目19","lat":35.769579,"lon":139.718332},{"name":"赤羽公園","province":"東京都","city":"北区","address":"東京都北区赤羽南1丁目14","lat":35.777354,"lon":139.724178},{"name":"赤羽公園","province":"東京都","city":"北区","address":"東京都北区赤羽南1丁目14","lat":35.777998,"lon":139.725402},{"name":"赤羽三丁目公園","province":"東京都","city":"北区","address":"東京都北区赤羽3丁目23","lat":35.784801,"lon":139.720472},{"name":"志茂町公園","province":"東京都","city":"北区","address":"東京都北区志茂1丁目5","lat":35.775228,"lon":139.729716},{"name":"赤羽南二丁目児童遊園","province":"東京都","city":"北区","address":"東京都北区赤羽南2丁目9","lat":35.77314,"lon":139.722491},{"name":"北運動公園","province":"東京都","city":"北区","address":"東京都北区神谷2丁目47","lat":35.773975,"lon":139.728078},{"name":"清水坂公園","province":"東京都","city":"北区","address":"東京都北区十条仲原4丁目2","lat":35.769078,"lon":139.721036},{"name":"赤羽自然観察公園","province":"東京都","city":"北区","address":"東京都北区赤羽西5丁目2","lat":35.773373,"lon":139.709819},{"name":"赤羽自然観察公園","province":"東京都","city":"北区","address":"東京都北区赤羽西5丁目2","lat":35.77339,"lon":139.709865},{"name":"赤羽自然観察公園","province":"東京都","city":"北区","address":"東京都北区赤羽西5丁目2","lat":35.774262,"lon":139.712432},{"name":"豊島四丁目児童遊園","province":"東京都","city":"北区","address":"東京都北区豊島4丁目17","lat":35.762399,"lon":139.749732},{"name":"豊島公園","province":"東京都","city":"北区","address":"東京都北区豊島2丁目26","lat":35.759122,"lon":139.74231},{"name":"豊島五・六丁目公園","province":"東京都","city":"北区","address":"東京都北区豊島6丁目11","lat":35.766224,"lon":139.747812},{"name":"豊島七丁目北児童遊園","province":"東京都","city":"北区","address":"東京都北区豊島7丁目24","lat":35.765209,"lon":139.742962},{"name":"豊島馬場遺跡公園","province":"東京都","city":"北区","address":"東京都北区豊島8丁目27","lat":35.767284,"lon":139.740209},{"name":"王子五丁目公園","province":"東京都","city":"北区","address":"東京都北区王子5丁目17","lat":35.766034,"lon":139.737083},{"name":"神谷堀公園","province":"東京都","city":"北区","address":"東京都北区王子5丁目28","lat":35.767759,"lon":139.737365},{"name":"荒川岩淵関緑地","province":"東京都","city":"北区","address":"東京都北区志茂5丁目","lat":35.787356,"lon":139.726817},{"name":"新荒川大橋緑地","province":"東京都","city":"北区","address":"東京都北区赤羽3丁目","lat":35.788689,"lon":139.720314},{"name":"赤羽台さくら並木公園","province":"東京都","city":"北区","address":"東京都北区赤羽台4丁目17","lat":35.782698,"lon":139.711663},{"name":"赤羽スポーツの森公園","province":"東京都","city":"北区","address":"東京都北区赤羽西5丁目2","lat":35.771764,"lon":139.710057},{"name":"赤羽スポーツの森公園","province":"東京都","city":"北区","address":"東京都北区赤羽西5丁目2","lat":35.772745,"lon":139.710057},{"name":"西が丘一丁目児童遊園","province":"東京都","city":"北区","address":"東京都北区西が丘1丁目44","lat":35.770347,"lon":139.711074},{"name":"志茂ゆりの木公園","province":"東京都","city":"北区","address":"東京都北区志茂5丁目18","lat":35.783872,"lon":139.732065},{"name":"志茂三丁目小柳川公園","province":"東京都","city":"北区","address":"東京都北区志茂3丁目26","lat":35.779062,"lon":139.734424},{"name":"志茂四わかば児童遊園","province":"東京都","city":"北区","address":"東京都北区志茂4丁目31","lat":35.781947,"lon":139.734351},{"name":"十条公園","province":"東京都","city":"北区","address":"東京都北区十条台2丁目5","lat":35.75849,"lon":139.71947},{"name":"王子本町公園","province":"東京都","city":"北区","address":"東京都北区王子本町2丁目29","lat":35.753799,"lon":139.731099},{"name":"東王子公園","province":"東京都","city":"北区","address":"東京都北区堀船2丁目19","lat":35.754552,"lon":139.743815},{"name":"王子五丁目児童遊園","province":"東京都","city":"北区","address":"東京都北区王子5丁目2","lat":35.76546,"lon":139.734464},{"name":"堀船一丁目公園","province":"東京都","city":"北区","address":"東京都北区堀船1丁目15","lat":35.753902,"lon":139.743531},{"name":"堀船公園","province":"東京都","city":"北区","address":"東京都北区堀船2丁目10","lat":35.753876,"lon":139.745565},{"name":"堀船第二公園","province":"東京都","city":"北区","address":"東京都北区堀船2丁目27","lat":35.757086,"lon":139.746869},{"name":"白山堀公園","province":"東京都","city":"北区","address":"東京都北区堀船4丁目2","lat":35.754212,"lon":139.750341},{"name":"音無こぶし緑地","province":"東京都","city":"北区","address":"東京都北区滝野川4丁目29","lat":35.751164,"lon":139.723925},{"name":"北谷端公園","province":"東京都","city":"北区","address":"東京都北区滝野川7丁目14","lat":35.743747,"lon":139.721393},{"name":"南谷端公園","province":"東京都","city":"北区","address":"東京都北区滝野川7丁目42","lat":35.742204,"lon":139.723003},{"name":"東中里公園","province":"東京都","city":"北区","address":"東京都北区中里1丁目12","lat":35.736964,"lon":139.751649},{"name":"西中里公園","province":"東京都","city":"北区","address":"東京都北区中里2丁目15","lat":35.739418,"lon":139.749319},{"name":"田端台公園","province":"東京都","city":"北区","address":"東京都北区田端1丁目28","lat":35.734848,"lon":139.763975},{"name":"東田端公園","province":"東京都","city":"北区","address":"東京都北区東田端2丁目5","lat":35.74031,"lon":139.763232},{"name":"田端新町南むつみ公園","province":"東京都","city":"北区","address":"東京都北区田端新町1丁目5","lat":35.737288,"lon":139.767539},{"name":"十条野鳥の森緑地","province":"東京都","city":"北区","address":"東京都北区上十条1丁目22","lat":35.759871,"lon":139.724888},{"name":"柳田公園","province":"東京都","city":"北区","address":"東京都北区王子1丁目20","lat":35.755977,"lon":139.739074},{"name":"王子駅前公園","province":"東京都","city":"北区","address":"東京都北区王子1丁目7","lat":35.754074,"lon":139.738432},{"name":"飛鳥山公園","province":"東京都","city":"北区","address":"東京都北区王子1丁目1","lat":35.750349,"lon":139.738562},{"name":"飛鳥山公園","province":"東京都","city":"北区","address":"東京都北区王子1丁目1","lat":35.750607,"lon":139.739323},{"name":"飛鳥山公園","province":"東京都","city":"北区","address":"東京都北区西ケ原2丁目16","lat":35.749581,"lon":139.740134},{"name":"飛鳥山公園","province":"東京都","city":"北区","address":"東京都北区王子1丁目1","lat":35.751467,"lon":139.737186},{"name":"音無親水公園","province":"東京都","city":"北区","address":"東京都北区王子本町1丁目2","lat":35.752202,"lon":139.735495},{"name":"上中里二丁目広場","province":"東京都","city":"北区","address":"東京都北区上中里2丁目2","lat":35.744637,"lon":139.754348},{"name":"滝野川公園","province":"東京都","city":"北区","address":"東京都北区西ケ原2丁目1","lat":35.745924,"lon":139.744343},{"name":"田端新町公園","province":"東京都","city":"北区","address":"東京都北区田端新町1丁目22","lat":35.738144,"lon":139.768758},{"name":"王子四丁目公園","province":"東京都","city":"北区","address":"東京都北区王子4丁目5","lat":35.761201,"lon":139.732898},{"name":"醸造試験所跡地公園","province":"東京都","city":"北区","address":"東京都北区滝野川2丁目6","lat":35.750918,"lon":139.735529},{"name":"あすか緑地","province":"東京都","city":"北区","address":"東京都北区豊島2丁目4","lat":35.7568,"lon":139.742638},{"name":"栄町ふれあい公園","province":"東京都","city":"北区","address":"東京都北区栄町32","lat":35.749712,"lon":139.742781},{"name":"西ケ原みんなの公園","province":"東京都","city":"北区","address":"東京都北区西ケ原4丁目51","lat":35.741245,"lon":139.736847},{"name":"西ケ原みんなの公園","province":"東京都","city":"北区","address":"東京都北区西ケ原4丁目51","lat":35.742646,"lon":139.736411},{"name":"昭和町ふれあい児童遊園","province":"東京都","city":"北区","address":"東京都北区昭和町1丁目5","lat":35.746384,"lon":139.757221},{"name":"北園児童遊園","province":"東京都","city":"北区","address":"東京都北区赤羽北3丁目6","lat":35.782817,"lon":139.707161},{"name":"豊島四丁目リバーサイド公園","province":"東京都","city":"北区","address":"東京都北区豊島4丁目18","lat":35.761998,"lon":139.751463},{"name":"田端二丁目児童遊園","province":"東京都","city":"北区","address":"東京都北区田端2丁目6","lat":35.734673,"lon":139.759015},{"name":"赤羽台けやき公園","province":"東京都","city":"北区","address":"東京都北区赤羽台1丁目6","lat":35.778523,"lon":139.713815},{"name":"赤羽台けやき公園","province":"東京都","city":"北区","address":"東京都北区赤羽台1丁目6","lat":35.778686,"lon":139.714999},{"name":"王子六丁目公園","province":"東京都","city":"北区","address":"東京都北区王子6丁目2","lat":35.759454,"lon":139.740839},{"name":"浮間子どもスポーツ広場","province":"東京都","city":"北区","address":"東京都北区浮間4丁目27-1","lat":35.78946,"lon":139.691646},{"name":"田端駅前公衆便所","province":"東京都","city":"北区","address":"東京都北区東田端1丁目17-1","lat":35.738115,"lon":139.760874},{"name":"東十条駅北口公衆便所","province":"東京都","city":"北区","address":"東京都北区東十条4丁目15","lat":35.765431,"lon":139.726541},{"name":"尾久駅前公衆便所","province":"東京都","city":"北区","address":"東京都北区昭和町1丁目2","lat":35.746747,"lon":139.754872},{"name":"新田端大橋下公衆便所","province":"東京都","city":"北区","address":"東京都北区東田端1丁目17","lat":35.739099,"lon":139.76203},{"name":"北赤羽駅前公衆便所","province":"東京都","city":"北区","address":"東京都北区赤羽北2丁目32","lat":35.785662,"lon":139.708136},{"name":"上中里駅前公衆便所","province":"東京都","city":"北区","address":"東京都北区上中里1丁目47","lat":35.74636,"lon":139.747229},{"name":"王子五丁目公衆便所","province":"東京都","city":"北区","address":"東京都北区王子5丁目2","lat":35.765543,"lon":139.73548},{"name":"板橋駅前公衆便所","province":"東京都","city":"北区","address":"東京都北区滝野川7丁目2","lat":35.745368,"lon":139.720365},{"name":"東京都北区立障害者福祉センター","province":"東京都","city":"北区","address":"東京都北区中十条1丁目2-18","lat":35.757662,"lon":139.729502},{"name":"東京都北区立障害者福祉センター","province":"東京都","city":"北区","address":"東京都北区中十条1丁目2-18","lat":35.75762,"lon":139.72951},{"name":"東京都北区立障害者福祉センター","province":"東京都","city":"北区","address":"東京都北区中十条1丁目2-18","lat":35.757824,"lon":139.729725},{"name":"滝野川体育館","province":"東京都","city":"北区","address":"東京都北区西ケ原2丁目1-6","lat":35.745559,"lon":139.745499},{"name":"北運動場","province":"東京都","city":"北区","address":"東京都北区神谷2丁目47","lat":35.77481,"lon":139.729247},{"name":"新荒川大橋野球場","province":"東京都","city":"北区","address":"東京都北区赤羽3丁目","lat":35.788783,"lon":139.720745},{"name":"パノラマプール十条台","province":"東京都","city":"北区","address":"東京都北区岸町2丁目3","lat":35.758714,"lon":139.730965},{"name":"赤羽スポーツの森公園競技場","province":"東京都","city":"北区","address":"東京都北区赤羽西5丁目2","lat":35.772246,"lon":139.709178},{"name":"浮間舟渡庭球場","province":"東京都","city":"北区","address":"東京都北区浮間4丁目27","lat":35.790736,"lon":139.691728},{"name":"赤羽体育館","province":"東京都","city":"北区","address":"東京都北区志茂3丁目46","lat":35.775381,"lon":139.736108},{"name":"赤羽体育館","province":"東京都","city":"北区","address":"東京都北区志茂3丁目46","lat":35.77552,"lon":139.735917},{"name":"赤羽体育館","province":"東京都","city":"北区","address":"東京都北区志茂3丁目46","lat":35.775467,"lon":139.736123},{"name":"赤羽体育館","province":"東京都","city":"北区","address":"東京都北区志茂3丁目46","lat":35.775464,"lon":139.73617},{"name":"浮間中学校複合施設","province":"東京都","city":"北区","address":"東京都北区浮間4丁目29-32","lat":35.790371,"lon":139.693616},{"name":"滝野川東児童館","province":"東京都","city":"北区","address":"東京都北区滝野川1丁目47","lat":35.747031,"lon":139.734515},{"name":"赤羽児童館","province":"東京都","city":"北区","address":"東京都北区赤羽南1丁目16-2","lat":35.777199,"lon":139.725733},{"name":"豊島児童館","province":"東京都","city":"北区","address":"東京都北区豊島7丁目15","lat":35.764518,"lon":139.744884},{"name":"桐ケ丘児童館","province":"東京都","city":"北区","address":"東京都北区桐ケ丘1丁目8","lat":35.778616,"lon":139.707325},{"name":"滝野川西児童館","province":"東京都","city":"北区","address":"東京都北区滝野川6丁目21","lat":35.74571,"lon":139.726324},{"name":"王子東児童館","province":"東京都","city":"北区","address":"東京都北区王子6丁目3","lat":35.759326,"lon":139.740933},{"name":"神谷子どもセンター","province":"東京都","city":"北区","address":"東京都北区神谷3丁目35-17","lat":35.771356,"lon":139.731063},{"name":"志茂子ども交流館","province":"東京都","city":"北区","address":"東京都北区志茂5丁目18","lat":35.783504,"lon":139.731739},{"name":"北区立生きがい活動センター","province":"東京都","city":"北区","address":"東京都北区王子5丁目2-5","lat":35.764657,"lon":139.733015},{"name":"ネスト赤羽","province":"東京都","city":"北区","address":"東京都北区赤羽1丁目59-9","lat":35.78288,"lon":139.720114},{"name":"豊島五丁目グリーンスポーツ広場","province":"東京都","city":"北区","address":"東京都北区豊島5丁目","lat":35.764989,"lon":139.758051},{"name":"宮城ゆうゆう公園","province":"東京都","city":"北区","address":"東京都北区豊島5丁目","lat":35.764956,"lon":139.757335}]}