{"keyword":"戸数","data":[{"name":"北区社会福祉協議会","province":"東京都","city":"北区","address":"北区岸町1-6-17","lat":35.755034,"lon":139.734886},{"name":"北　区","province":"東京都","city":"北区","address":"北区王子本町1-15-22","lat":35.7531792,"lon":139.7339833},{"name":"北区社会福祉協議会","province":"東京都","city":"北区","address":"北区岸町1-6-17","lat":35.75476,"lon":139.735},{"name":"北区社会福祉協議会","province":"東京都","city":"北区","address":"北区岸町1-6-17","lat":35.75477,"lon":139.735},{"name":"東京北医療センター","province":"東京都","city":"北区","address":"東京都北区赤羽台4丁目17-56","lat":35.78387391,"lon":139.71141424},{"name":"区立桐ヶ丘中央公園","province":"東京都","city":"北区","address":"東京都北区桐ケ丘1丁目8","lat":35.77854405,"lon":139.70742859},{"name":"区立滝野川公園","province":"東京都","city":"北区","address":"東京都北区西ケ原2丁目1","lat":35.74541006,"lon":139.74448791},{"name":"区立北運動公園","province":"東京都","city":"北区","address":"東京都北区神谷2丁目47-6","lat":35.77383973,"lon":139.72797147},{"name":"北区立中央公園野球場","province":"東京都","city":"北区","address":"東京都北区十条台1丁目2-1","lat":35.75320885,"lon":139.72756124},{"name":"北区立十条富士見中学校校庭","province":"東京都","city":"北区","address":"東京都北区十条台1丁目9-33","lat":35.75717496,"lon":139.72321144},{"name":"荒川下流岩淵場外","province":"東京都","city":"北区","address":"東京都北区志茂4丁目19-1","lat":35.78343288,"lon":139.73218195},{"name":"北区立北運動公園","province":"東京都","city":"北区","address":"東京都北区神谷2丁目47-6","lat":35.77383973,"lon":139.72797147},{"name":"北区立赤羽スポーツの森公園","province":"東京都","city":"北区","address":"東京都北区赤羽西5丁目2","lat":35.77326984,"lon":139.71003689},{"name":"北区立赤羽自然観察公園","province":"東京都","city":"北区","address":"東京都北区赤羽西5丁目2-34","lat":35.77431419,"lon":139.71157561},{"name":"新河岸東公園・浮間子どもスポーツ広場","province":"東京都","city":"北区","address":"東京都北区浮間4丁目27-1","lat":35.78904234,"lon":139.69236003},{"name":"豊島五丁目遊び場","province":"東京都","city":"北区","address":"東京都北区豊島5丁目6-1","lat":35.76470834,"lon":139.75516113},{"name":"国立西が丘サッカー場","province":"東京都","city":"北区","address":"東京都北区西が丘3丁目15","lat":35.76766219,"lon":139.70831224},{"name":"荒川下流岩淵場外","province":"東京都","city":"北区","address":"東京都北区志茂4丁目19-1","lat":35.78343288,"lon":139.73218195},{"name":"北区選挙管理委員会","province":"東京都","city":"北区","address":"北区滝野川2-52-10","lat":35.751473,"lon":139.733254},{"name":"北とぴあ","province":"東京都","city":"北区","address":"東京都北区王子1-11-1","lat":35.754891,"lon":139.736675},{"name":"赤羽観光PRコーナー","province":"東京都","city":"北区","address":"東京都北区赤羽1-67-62","lat":35.779175,"lon":139.720283},{"name":"東京都障害者総合スポーツセンター","province":"東京都","city":"北区","address":"東京都北区十条台1-2-2","lat":35.753452,"lon":139.728302},{"name":"東京都障害者総合スポーツセンター","province":"東京都","city":"北区","address":"東京都北区十条台1丁目2-2","lat":35.75376426,"lon":139.72398652},{"name":"中央・城北職業能力開発センター赤羽校","province":"東京都","city":"北区","address":"東京都北区西が丘3丁目7-8","lat":35.76595692,"lon":139.71080655},{"name":"赤羽商業高等学校","province":"東京都","city":"北区","address":"東京都北区西が丘3丁目14-20","lat":35.76984251,"lon":139.70938429},{"name":"王子総合高等学校","province":"東京都","city":"北区","address":"東京都北区滝野川3丁目54-7","lat":35.74729847,"lon":139.7308001},{"name":"飛鳥高等学校","province":"東京都","city":"北区","address":"東京都北区王子6丁目8-8","lat":35.76160544,"lon":139.73947656},{"name":"桐ヶ丘高等学校","province":"東京都","city":"北区","address":"東京都北区赤羽北3丁目5-22","lat":35.7814825,"lon":139.70672302},{"name":"荒川下流河川事務所","province":"東京都","city":"北区","address":"北区志茂5-41-1","lat":35.78559,"lon":139.7301},{"name":"北区","province":"東京都","city":"北区","address":"北区王子2-3-1","lat":35.75816,"lon":139.7341},{"name":"イワキ（株）","province":"東京都","city":"北区","address":"北区豊島7-30-17","lat":35.76654,"lon":139.7447},{"name":"ソフトバンクテレコム（株）新田端ビル","province":"東京都","city":"北区","address":"北区田端6-2-8","lat":35.73911,"lon":139.7589},{"name":"北区社会福祉協議会","province":"東京都","city":"北区","address":"北区岸町1-6-17","lat":35.755034,"lon":139.734886},{"name":"北区社会福祉協議会","province":"東京都","city":"北区","address":"北区岸町1-6-17","lat":35.75476,"lon":139.735},{"name":"北区社会福祉協議会","province":"東京都","city":"北区","address":"北区岸町1-6-17","lat":35.75477,"lon":139.735},{"name":"東京北医療センター","province":"東京都","city":"北区","address":"東京都北区赤羽台4丁目17-56","lat":35.78387391,"lon":139.71141424},{"name":"区立桐ヶ丘中央公園","province":"東京都","city":"北区","address":"東京都北区桐ケ丘1丁目8","lat":35.77854405,"lon":139.70742859},{"name":"区立滝野川公園","province":"東京都","city":"北区","address":"東京都北区西ケ原2丁目1","lat":35.74541006,"lon":139.74448791},{"name":"区立北運動公園","province":"東京都","city":"北区","address":"東京都北区神谷2丁目47-6","lat":35.77383973,"lon":139.72797147},{"name":"北区立中央公園野球場","province":"東京都","city":"北区","address":"東京都北区十条台1丁目2-1","lat":35.75320885,"lon":139.72756124},{"name":"北区立十条富士見中学校校庭","province":"東京都","city":"北区","address":"東京都北区十条台1丁目9-33","lat":35.75717496,"lon":139.72321144},{"name":"荒川下流岩淵場外","province":"東京都","city":"北区","address":"東京都北区志茂4丁目19-1","lat":35.78343288,"lon":139.73218195},{"name":"北区立北運動公園","province":"東京都","city":"北区","address":"東京都北区神谷2丁目47-6","lat":35.77383973,"lon":139.72797147},{"name":"北区立赤羽スポーツの森公園","province":"東京都","city":"北区","address":"東京都北区赤羽西5丁目2","lat":35.77326984,"lon":139.71003689},{"name":"北区立赤羽自然観察公園","province":"東京都","city":"北区","address":"東京都北区赤羽西5丁目2-34","lat":35.77431419,"lon":139.71157561},{"name":"新河岸東公園・浮間子どもスポーツ広場","province":"東京都","city":"北区","address":"東京都北区浮間4丁目27-1","lat":35.78904234,"lon":139.69236003},{"name":"豊島五丁目遊び場","province":"東京都","city":"北区","address":"東京都北区豊島5丁目6-1","lat":35.76470834,"lon":139.75516113},{"name":"国立西が丘サッカー場","province":"東京都","city":"北区","address":"東京都北区西が丘3丁目15","lat":35.76766219,"lon":139.70831224},{"name":"荒川下流岩淵場外","province":"東京都","city":"北区","address":"東京都北区志茂4丁目19-1","lat":35.78343288,"lon":139.73218195},{"name":"北とぴあ","province":"東京都","city":"北区","address":"東京都北区王子1-11-1","lat":35.754891,"lon":139.736675},{"name":"赤羽観光PRコーナー","province":"東京都","city":"北区","address":"東京都北区赤羽1-67-62","lat":35.779175,"lon":139.720283},{"name":"東京都障害者総合スポーツセンター","province":"東京都","city":"北区","address":"東京都北区十条台1-2-2","lat":35.753452,"lon":139.728302},{"name":"東京都障害者総合スポーツセンター","province":"東京都","city":"北区","address":"東京都北区十条台1丁目2-2","lat":35.75376426,"lon":139.72398652},{"name":"中央・城北職業能力開発センター赤羽校","province":"東京都","city":"北区","address":"東京都北区西が丘3丁目7-8","lat":35.76595692,"lon":139.71080655},{"name":"赤羽商業高等学校","province":"東京都","city":"北区","address":"東京都北区西が丘3丁目14-20","lat":35.76984251,"lon":139.70938429},{"name":"王子総合高等学校","province":"東京都","city":"北区","address":"東京都北区滝野川3丁目54-7","lat":35.74729847,"lon":139.7308001},{"name":"飛鳥高等学校","province":"東京都","city":"北区","address":"東京都北区王子6丁目8-8","lat":35.76160544,"lon":139.73947656},{"name":"桐ヶ丘高等学校","province":"東京都","city":"北区","address":"東京都北区赤羽北3丁目5-22","lat":35.7814825,"lon":139.70672302},{"name":"荒川下流河川事務所","province":"東京都","city":"北区","address":"北区志茂5-41-1","lat":35.78559,"lon":139.7301},{"name":"北区","province":"東京都","city":"北区","address":"北区王子2-3-1","lat":35.75816,"lon":139.7341},{"name":"イワキ（株）","province":"東京都","city":"北区","address":"北区豊島7-30-17","lat":35.76654,"lon":139.7447},{"name":"ソフトバンクテレコム（株）新田端ビル","province":"東京都","city":"北区","address":"北区田端6-2-8","lat":35.73911,"lon":139.7589},{"name":"東京北医療センター","province":"東京都","city":"北区","address":"東京都北区赤羽台4丁目17-56","lat":35.78387391,"lon":139.71141424},{"name":"北とぴあ","province":"東京都","city":"北区","address":"東京都北区王子1-11-1","lat":35.754891,"lon":139.736675},{"name":"赤羽観光PRコーナー","province":"東京都","city":"北区","address":"東京都北区赤羽1-67-62","lat":35.779175,"lon":139.720283},{"name":"東京都障害者総合スポーツセンター","province":"東京都","city":"北区","address":"東京都北区十条台1丁目2-2","lat":35.75376426,"lon":139.72398652},{"name":"中央・城北職業能力開発センター赤羽校","province":"東京都","city":"北区","address":"東京都北区西が丘3丁目7-8","lat":35.76595692,"lon":139.71080655},{"name":"赤羽商業高等学校","province":"東京都","city":"北区","address":"東京都北区西が丘3丁目14-20","lat":35.76984251,"lon":139.70938429},{"name":"王子総合高等学校","province":"東京都","city":"北区","address":"東京都北区滝野川3丁目54-7","lat":35.74729847,"lon":139.7308001},{"name":"飛鳥高等学校","province":"東京都","city":"北区","address":"東京都北区王子6丁目8-8","lat":35.76160544,"lon":139.73947656},{"name":"桐ヶ丘高等学校","province":"東京都","city":"北区","address":"東京都北区赤羽北3丁目5-22","lat":35.7814825,"lon":139.70672302},{"name":"東京北医療センター","province":"東京都","city":"北区","address":"東京都北区赤羽台4丁目17-56","lat":35.78387391,"lon":139.71141424},{"name":"北とぴあ","province":"東京都","city":"北区","address":"東京都北区王子1-11-1","lat":35.754891,"lon":139.736675},{"name":"赤羽観光PRコーナー","province":"東京都","city":"北区","address":"東京都北区赤羽1-67-62","lat":35.779175,"lon":139.720283},{"name":"東京都障害者総合スポーツセンター","province":"東京都","city":"北区","address":"東京都北区十条台1丁目2-2","lat":35.75376426,"lon":139.72398652},{"name":"中央・城北職業能力開発センター赤羽校","province":"東京都","city":"北区","address":"東京都北区西が丘3丁目7-8","lat":35.76595692,"lon":139.71080655},{"name":"赤羽商業高等学校","province":"東京都","city":"北区","address":"東京都北区西が丘3丁目14-20","lat":35.76984251,"lon":139.70938429},{"name":"王子総合高等学校","province":"東京都","city":"北区","address":"東京都北区滝野川3丁目54-7","lat":35.74729847,"lon":139.7308001},{"name":"飛鳥高等学校","province":"東京都","city":"北区","address":"東京都北区王子6丁目8-8","lat":35.76160544,"lon":139.73947656},{"name":"桐ヶ丘高等学校","province":"東京都","city":"北区","address":"東京都北区赤羽北3丁目5-22","lat":35.7814825,"lon":139.70672302},{"name":"北とぴあ","province":"東京都","city":"北区","address":"東京都北区王子1-11-1","lat":35.754891,"lon":139.736675},{"name":"赤羽観光PRコーナー","province":"東京都","city":"北区","address":"東京都北区赤羽1-67-62","lat":35.779175,"lon":139.720283},{"name":"北とぴあ","province":"東京都","city":"北区","address":"東京都北区王子1-11-1","lat":35.754891,"lon":139.736675},{"name":"赤羽観光PRコーナー","province":"東京都","city":"北区","address":"東京都北区赤羽1-67-62","lat":35.779175,"lon":139.720283},{"name":"北とぴあ","province":"東京都","city":"北区","address":"東京都北区王子1-11-1","lat":35.754891,"lon":139.736675},{"name":"赤羽観光PRコーナー","province":"東京都","city":"北区","address":"東京都北区赤羽1-67-62","lat":35.779175,"lon":139.720283},{"name":"北とぴあ","province":"東京都","city":"北区","address":"東京都北区王子1-11-1","lat":35.754891,"lon":139.736675},{"name":"赤羽観光PRコーナー","province":"東京都","city":"北区","address":"東京都北区赤羽1-67-62","lat":35.779175,"lon":139.720283}]}