{"keyword":"放課後","data":[{"name":"つみき第３","province":"東京都","city":"北区","address":"北区王子4-24-12-301","lat":35.76158,"lon":139.737196},{"name":"つみき第５","province":"東京都","city":"北区","address":"北区豊島1-17-4-100","lat":35.758939,"lon":139.73871},{"name":"放課後等デイサービス　あんプラス","province":"東京都","city":"北区","address":"北区栄町50-3","lat":35.751298,"lon":139.746207},{"name":"こどもプラス１","province":"東京都","city":"北区","address":"北区田端新町3-34-1","lat":35.742334,"lon":139.764337},{"name":"つみき第２","province":"東京都","city":"北区","address":"北区王子本町1-19-1","lat":35.753856,"lon":139.733005},{"name":"放課後デイサービス勉強レストランそうなんだ！！","province":"東京都","city":"北区","address":"北区滝野川1-68-7早稲田ビル2階","lat":35.748068,"lon":139.733955},{"name":"このこのリーフ　滝野川","province":"東京都","city":"北区","address":"北区滝野川五丁目41番3号","lat":35.748126,"lon":139.723126},{"name":"このこのリーフ滝野川　第２","province":"東京都","city":"北区","address":"北区滝野川7-20-1笹岡ビル1階","lat":35.742496,"lon":139.720329},{"name":"飛鳥晴山苑　放課後等デイサービスさくら","province":"東京都","city":"北区","address":"北区西ケ原4-51-1","lat":35.74141,"lon":139.735978},{"name":"スキップランド　西ヶ原","province":"東京都","city":"北区","address":"北区西ケ原四丁目2番19号","lat":35.742396,"lon":139.739591},{"name":"つみき第６","province":"東京都","city":"北区","address":"北区西ケ原3-54-8-101","lat":35.744193,"lon":139.737508},{"name":"つみき第１","province":"東京都","city":"北区","address":"北区上十条1-19-6","lat":35.759352,"lon":139.723289},{"name":"放課後等デイサービス　ぴーす","province":"東京都","city":"北区","address":"北区上十条5-4-1サンタケビル1階","lat":35.764799,"lon":139.717381},{"name":"スキップランド　神谷","province":"東京都","city":"北区","address":"北区神谷二丁目23番15号","lat":35.771257,"lon":139.728288},{"name":"特定非営利活動法人クレセール心の相談室","province":"東京都","city":"北区","address":"北区赤羽1-41-5ATエミネンス2階201号室","lat":35.781599,"lon":139.719725},{"name":"第２特定非営利活動法人クレセール心の相談室","province":"東京都","city":"北区","address":"北区赤羽2-69-4ヴェルメゾン赤羽1階","lat":35.782555,"lon":139.722752},{"name":"児童デイサービス　まぁる","province":"東京都","city":"北区","address":"北区浮間四丁目32番20号松岡ビル2階","lat":35.791195,"lon":139.691607},{"name":"つみき第４","province":"東京都","city":"北区","address":"北区浮間4-5-5-101","lat":35.789051,"lon":139.697532},{"name":"放課後等デイサービスしらゆり　あそぼーよ　みんなで","province":"東京都","city":"北区","address":"北区赤羽北3丁目21番20-102号","lat":35.779105,"lon":139.705468}]}