{"keyword":"月間","data":[{"name":"つみき第３","province":"東京都","city":"北区","address":"北区王子4-24-12-301","lat":35.76158,"lon":139.737196},{"name":"つみき第５","province":"東京都","city":"北区","address":"北区豊島1-17-4-100","lat":35.758939,"lon":139.73871},{"name":"放課後等デイサービス　あんプラス","province":"東京都","city":"北区","address":"北区栄町50-3","lat":35.751298,"lon":139.746207},{"name":"こどもプラス１","province":"東京都","city":"北区","address":"北区田端新町3-34-1","lat":35.742334,"lon":139.764337},{"name":"つみき第２","province":"東京都","city":"北区","address":"北区王子本町1-19-1","lat":35.753856,"lon":139.733005},{"name":"放課後デイサービス勉強レストランそうなんだ！！","province":"東京都","city":"北区","address":"北区滝野川1-68-7早稲田ビル2階","lat":35.748068,"lon":139.733955},{"name":"このこのリーフ　滝野川","province":"東京都","city":"北区","address":"北区滝野川五丁目41番3号","lat":35.748126,"lon":139.723126},{"name":"このこのリーフ滝野川　第２","province":"東京都","city":"北区","address":"北区滝野川7-20-1笹岡ビル1階","lat":35.742496,"lon":139.720329},{"name":"飛鳥晴山苑　放課後等デイサービスさくら","province":"東京都","city":"北区","address":"北区西ケ原4-51-1","lat":35.74141,"lon":139.735978},{"name":"スキップランド　西ヶ原","province":"東京都","city":"北区","address":"北区西ケ原四丁目2番19号","lat":35.742396,"lon":139.739591},{"name":"つみき第６","province":"東京都","city":"北区","address":"北区西ケ原3-54-8-101","lat":35.744193,"lon":139.737508},{"name":"つみき第１","province":"東京都","city":"北区","address":"北区上十条1-19-6","lat":35.759352,"lon":139.723289},{"name":"放課後等デイサービス　ぴーす","province":"東京都","city":"北区","address":"北区上十条5-4-1サンタケビル1階","lat":35.764799,"lon":139.717381},{"name":"スキップランド　神谷","province":"東京都","city":"北区","address":"北区神谷二丁目23番15号","lat":35.771257,"lon":139.728288},{"name":"特定非営利活動法人クレセール心の相談室","province":"東京都","city":"北区","address":"北区赤羽1-41-5ATエミネンス2階201号室","lat":35.781599,"lon":139.719725},{"name":"第２特定非営利活動法人クレセール心の相談室","province":"東京都","city":"北区","address":"北区赤羽2-69-4ヴェルメゾン赤羽1階","lat":35.782555,"lon":139.722752},{"name":"児童デイサービス　まぁる","province":"東京都","city":"北区","address":"北区浮間四丁目32番20号松岡ビル2階","lat":35.791195,"lon":139.691607},{"name":"つみき第４","province":"東京都","city":"北区","address":"北区浮間4-5-5-101","lat":35.789051,"lon":139.697532},{"name":"放課後等デイサービスしらゆり　あそぼーよ　みんなで","province":"東京都","city":"北区","address":"北区赤羽北3丁目21番20-102号","lat":35.779105,"lon":139.705468},{"name":"北区子ども家庭支援センター","province":"東京都","city":"北区","address":"北区王子2-7-34","lat":35.757611,"lon":139.736033},{"name":"やじろべえ","province":"東京都","city":"北区","address":"北区赤羽北1-7-23","lat":35.78582,"lon":139.71375},{"name":"北区子ども家庭支援センター","province":"東京都","city":"北区","address":"北区王子6-7-3旧清至中学校別棟","lat":35.7632,"lon":139.74117},{"name":"北区子ども家庭支援センター","province":"東京都","city":"北区","address":"北区王子6-7-3旧清至中学校別棟","lat":35.762653,"lon":139.740387},{"name":"やじろべえ","province":"東京都","city":"北区","address":"北区赤羽北1-7-23","lat":35.785835,"lon":139.714308},{"name":"田端新町三丁目","province":"東京都","city":"北区","address":"東京都北区田端新町3丁目13-7","lat":35.74264464,"lon":139.76250344},{"name":"田端新町一丁目","province":"東京都","city":"北区","address":"東京都北区田端新町2丁目8-8","lat":35.73920376,"lon":139.7681311},{"name":"尾久駅前","province":"東京都","city":"北区","address":"東京都北区昭和町1丁目3-9","lat":35.74713812,"lon":139.75500649},{"name":"飛鳥山","province":"東京都","city":"北区","address":"東京都北区王子1丁目1","lat":35.75116487,"lon":139.73812432},{"name":"滝野川五丁目","province":"東京都","city":"北区","address":"東京都北区滝野川5丁目15-5","lat":35.74665676,"lon":139.72529504},{"name":"北谷端公園入口","province":"東京都","city":"北区","address":"東京都北区滝野川7丁目22","lat":35.74348204,"lon":139.72142883},{"name":"西ヶ原四丁目","province":"東京都","city":"北区","address":"東京都北区西ケ原4丁目47-4","lat":35.74463215,"lon":139.73313612},{"name":"平塚神社前","province":"東京都","city":"北区","address":"東京都北区西ケ原1丁目26-6","lat":35.74408523,"lon":139.74568787},{"name":"谷端市場通り","province":"東京都","city":"北区","address":"東京都北区滝野川7丁目30-7","lat":35.7430321,"lon":139.72174271},{"name":"西ヶ原三丁目","province":"東京都","city":"北区","address":"東京都北区西ケ原3丁目57-17","lat":35.74387401,"lon":139.73850793},{"name":"中里町","province":"東京都","city":"北区","address":"東京都北区中里2丁目5-5","lat":35.73821117,"lon":139.74966284},{"name":"童橋下","province":"東京都","city":"北区","address":"東京都北区田端2丁目7-28","lat":35.73526199,"lon":139.75910398},{"name":"板橋駅東口","province":"東京都","city":"北区","address":"東京都北区滝野川7丁目8-10","lat":35.74542624,"lon":139.72070659},{"name":"田端操駅前","province":"東京都","city":"北区","address":"東京都北区東田端2丁目2-1","lat":35.74018654,"lon":139.76124531},{"name":"田端銀座通り","province":"東京都","city":"北区","address":"東京都北区田端4丁目3-1","lat":35.73592826,"lon":139.75251552},{"name":"聖学院前","province":"東京都","city":"北区","address":"東京都北区中里3丁目12-2","lat":35.74138588,"lon":139.75187921},{"name":"滝野川一丁目三差路","province":"東京都","city":"北区","address":"東京都北区滝野川1丁目48-8","lat":35.74749853,"lon":139.73474976},{"name":"田端駅前","province":"東京都","city":"北区","address":"東京都北区田端1丁目21-8","lat":35.73790898,"lon":139.76033991},{"name":"滝野川六丁目","province":"東京都","city":"北区","address":"東京都北区滝野川5丁目40-1","lat":35.74777882,"lon":139.72353958},{"name":"飛鳥山公園前","province":"東京都","city":"北区","address":"東京都北区王子1丁目1","lat":35.75116487,"lon":139.73812432},{"name":"南谷端公園前南","province":"東京都","city":"北区","address":"東京都北区滝野川7丁目38-1","lat":35.74150452,"lon":139.72320376},{"name":"南谷端公園前北","province":"東京都","city":"北区","address":"東京都北区滝野川7丁目32-14","lat":35.74217943,"lon":139.72234548},{"name":"東田端一丁目","province":"東京都","city":"北区","address":"東京都北区東田端1丁目8-11","lat":35.73815916,"lon":139.76359806},{"name":"紅葉小学校前","province":"東京都","city":"北区","address":"東京都北区滝野川3丁目72-1","lat":35.750998,"lon":139.72840293},{"name":"田端大曲陸橋下","province":"東京都","city":"北区","address":"東京都北区東田端1丁目13-10","lat":35.73918951,"lon":139.76240641},{"name":"滝野川病院前","province":"東京都","city":"北区","address":"東京都北区滝野川3丁目66-10","lat":35.75048144,"lon":139.73043334},{"name":"駒込駅東","province":"東京都","city":"北区","address":"東京都北区中里2丁目16-3","lat":35.73899988,"lon":139.74836011},{"name":"田端高台交番前","province":"東京都","city":"北区","address":"東京都北区田端6丁目3-1","lat":35.73836715,"lon":139.75850111},{"name":"板橋駅東口第二","province":"東京都","city":"北区","address":"東京都北区滝野川7丁目3-1","lat":35.74516515,"lon":139.72017608},{"name":"中里ガード下第一","province":"東京都","city":"北区","address":"東京都北区中里2丁目6-1","lat":35.73811676,"lon":139.7502128},{"name":"中里ガード下第二","province":"東京都","city":"北区","address":"東京都北区中里1丁目7-5","lat":35.73755572,"lon":139.75018505},{"name":"滝野川小学校前","province":"東京都","city":"北区","address":"東京都北区西ケ原1丁目19-14","lat":35.74275215,"lon":139.74795164},{"name":"田端新町二丁目東","province":"東京都","city":"北区","address":"東京都北区田端新町2丁目24-5","lat":35.7407729,"lon":139.76651164},{"name":"東田端郵便局南","province":"東京都","city":"北区","address":"東京都北区東田端2丁目20-68","lat":35.74000875,"lon":139.76072035},{"name":"上中里駅前","province":"東京都","city":"北区","address":"東京都北区上中里1丁目47-34","lat":35.74627945,"lon":139.74657659},{"name":"田端新橋東","province":"東京都","city":"北区","address":"東京都北区東田端2丁目20-68","lat":35.74000875,"lon":139.76072035},{"name":"田端駅前第二","province":"東京都","city":"北区","address":"東京都北区東田端1丁目17","lat":35.73720644,"lon":139.7626565},{"name":"上中里二丁目","province":"東京都","city":"北区","address":"東京都北区上中里2丁目44-1","lat":35.74671276,"lon":139.74712098},{"name":"上中里二丁目第二","province":"東京都","city":"北区","address":"東京都北区上中里2丁目44-1","lat":35.74671276,"lon":139.74712098},{"name":"谷端小学校入口","province":"東京都","city":"北区","address":"東京都北区滝野川7丁目17-12","lat":35.7440986,"lon":139.72030946},{"name":"十条仲原二丁目","province":"東京都","city":"北区","address":"東京都北区十条仲原2丁目8-11","lat":35.76580722,"lon":139.72080851},{"name":"王子駅前","province":"東京都","city":"北区","address":"東京都北区王子1丁目4-12","lat":35.75319521,"lon":139.73808535},{"name":"王子本町","province":"東京都","city":"北区","address":"東京都北区王子本町1丁目18-5","lat":35.75380059,"lon":139.73372183},{"name":"東十条交番前","province":"東京都","city":"北区","address":"東京都北区東十条4丁目5-22","lat":35.76612126,"lon":139.72822454},{"name":"十条中学校入口","province":"東京都","city":"北区","address":"東京都北区上十条1丁目4-16","lat":35.75881925,"lon":139.72449739},{"name":"王子一丁目","province":"東京都","city":"北区","address":"東京都北区王子1丁目16-1","lat":35.75454505,"lon":139.73754369},{"name":"上十条四丁目","province":"東京都","city":"北区","address":"東京都北区上十条3丁目14-6","lat":35.76202698,"lon":139.7155591},{"name":"王子二丁目","province":"東京都","city":"北区","address":"東京都北区王子2丁目13-6","lat":35.75628929,"lon":139.73716865},{"name":"王子小公園前","province":"東京都","city":"北区","address":"東京都北区王子1丁目6-5","lat":35.75450899,"lon":139.73943518},{"name":"王子一丁目第二","province":"東京都","city":"北区","address":"東京都北区王子本町1丁目13-7","lat":35.75349227,"lon":139.73271358},{"name":"王子本町二丁目","province":"東京都","city":"北区","address":"東京都北区王子本町2丁目9-13","lat":35.75629469,"lon":139.73078863},{"name":"王子本町二丁目第二","province":"東京都","city":"北区","address":"東京都北区王子本町2丁目9-8","lat":35.75672797,"lon":139.73052475},{"name":"上十条二丁目","province":"東京都","city":"北区","address":"東京都北区上十条2丁目12-10","lat":35.75986348,"lon":139.72078098},{"name":"王子児童会館前","province":"東京都","city":"北区","address":"東京都北区豊島1丁目18-14","lat":35.75883353,"lon":139.73987386},{"name":"北都税事務所前","province":"東京都","city":"北区","address":"東京都北区十条台1丁目4-12","lat":35.7578889,"lon":139.72856653},{"name":"王子本町郵便局前","province":"東京都","city":"北区","address":"東京都北区王子本町1丁目1-10","lat":35.75283962,"lon":139.73542449},{"name":"王子保健所前","province":"東京都","city":"北区","address":"東京都北区東十条1丁目22-6","lat":35.76274118,"lon":139.73066894},{"name":"王子本町二丁目南","province":"東京都","city":"北区","address":"東京都北区王子本町2丁目16-15","lat":35.75524205,"lon":139.73158028},{"name":"北とぴあ前","province":"東京都","city":"北区","address":"東京都北区王子1丁目10","lat":35.75392844,"lon":139.73718818},{"name":"北特別支援学校前","province":"東京都","city":"北区","address":"東京都北区十条台1丁目2-3","lat":35.75403643,"lon":139.72307825},{"name":"東十条出張所前","province":"東京都","city":"北区","address":"東京都北区東十条3丁目3-1","lat":35.76462704,"lon":139.72977726},{"name":"南橋第二","province":"東京都","city":"北区","address":"東京都北区中十条1丁目5-6","lat":35.75867219,"lon":139.73040246},{"name":"志茂五丁目","province":"東京都","city":"北区","address":"東京都北区岩淵町1-2","lat":35.78298835,"lon":139.72646299},{"name":"赤羽北二丁目","province":"東京都","city":"北区","address":"東京都北区赤羽北2丁目8-1","lat":35.78519031,"lon":139.70796726},{"name":"浮間一丁目","province":"東京都","city":"北区","address":"東京都北区浮間1丁目1-12","lat":35.78852864,"lon":139.70419803},{"name":"赤羽西六丁目","province":"東京都","city":"北区","address":"東京都北区桐ケ丘1丁目22","lat":35.7755944,"lon":139.70503166},{"name":"赤羽一丁目","province":"東京都","city":"北区","address":"東京都北区赤羽2丁目16-3","lat":35.77940273,"lon":139.72271338},{"name":"赤羽南二丁目","province":"東京都","city":"北区","address":"東京都北区赤羽南2丁目8-21","lat":35.77412292,"lon":139.72378847},{"name":"浮間小学校前第一","province":"東京都","city":"北区","address":"東京都北区浮間3丁目13-15","lat":35.78704271,"lon":139.70014003},{"name":"浮間小学校前第二","province":"東京都","city":"北区","address":"東京都北区浮間3丁目4-27","lat":35.78595677,"lon":139.70060113},{"name":"赤羽北公団住宅前","province":"東京都","city":"北区","address":"東京都北区赤羽北2丁目22-5","lat":35.78518194,"lon":139.70556189},{"name":"西が丘サッカー場","province":"東京都","city":"北区","address":"東京都北区赤羽西6丁目1-4","lat":35.77044515,"lon":139.7077233},{"name":"赤羽北三丁目","province":"東京都","city":"北区","address":"東京都北区赤羽3丁目25-5","lat":35.78552108,"lon":139.71968297},{"name":"浮間橋南詰","province":"東京都","city":"北区","address":"東京都北区赤羽北2丁目26","lat":35.78593464,"lon":139.70772004},{"name":"志茂交番横","province":"東京都","city":"北区","address":"東京都北区赤羽南1丁目15-20","lat":35.77757252,"lon":139.72590483},{"name":"赤羽南一丁目","province":"東京都","city":"北区","address":"東京都北区赤羽南1丁目5-12","lat":35.77665867,"lon":139.72276068},{"name":"赤羽岩淵駅前","province":"東京都","city":"北区","address":"東京都北区岩淵町34-1","lat":35.78361313,"lon":139.72228833},{"name":"国立スポーツ科学センター","province":"東京都","city":"北区","address":"東京都北区西が丘3丁目12","lat":35.76718453,"lon":139.71039821},{"name":"浮間第二団地前","province":"東京都","city":"北区","address":"東京都北区浮間3丁目1-18","lat":35.78692331,"lon":139.70187601},{"name":"赤羽消防署前","province":"東京都","city":"北区","address":"東京都北区赤羽2丁目1-7","lat":35.77810016,"lon":139.7230106},{"name":"赤羽三丁目","province":"東京都","city":"北区","address":"東京都北区赤羽1丁目62-10","lat":35.78261877,"lon":139.71962192},{"name":"姥ヶ橋","province":"東京都","city":"北区","address":"東京都北区西が丘2丁目8-3","lat":35.7637767,"lon":139.71336476},{"name":"赤羽保健所前","province":"東京都","city":"北区","address":"東京都北区赤羽台3丁目17-57","lat":35.7794357,"lon":139.71157267},{"name":"赤羽駅西口","province":"東京都","city":"北区","address":"東京都北区赤羽西1丁目39-18","lat":35.77922765,"lon":139.71926367},{"name":"桐ヶ丘郵便局前","province":"東京都","city":"北区","address":"東京都北区桐ケ丘2丁目7-27","lat":35.77936339,"lon":139.70765911},{"name":"西が丘サッカー場北","province":"東京都","city":"北区","address":"東京都北区赤羽西6丁目37-2","lat":35.76975354,"lon":139.70635398},{"name":"赤羽西五丁目","province":"東京都","city":"北区","address":"東京都北区赤羽西5丁目2","lat":35.77326984,"lon":139.71003689},{"name":"西ヶ丘サッカー場前","province":"東京都","city":"北区","address":"東京都北区西が丘3丁目15-1","lat":35.76735389,"lon":139.70811227},{"name":"赤羽諏訪神社前","province":"東京都","city":"北区","address":"東京都北区赤羽北3丁目3-20","lat":35.78350724,"lon":139.70908944},{"name":"第三岩淵小学校前","province":"東京都","city":"北区","address":"東京都北区西が丘1丁目12-14","lat":35.77112581,"lon":139.7141644},{"name":"赤羽駅東口第二","province":"東京都","city":"北区","address":"東京都北区赤羽1丁目13-2","lat":35.77933048,"lon":139.7213996},{"name":"浮間舟渡駅前","province":"東京都","city":"北区","address":"東京都北区浮間2丁目31","lat":35.79145589,"lon":139.69327656},{"name":"赤羽台四丁目","province":"東京都","city":"北区","address":"東京都北区赤羽台4丁目1","lat":35.78300198,"lon":139.71712212},{"name":"赤羽西一丁目東","province":"東京都","city":"北区","address":"東京都北区赤羽西1丁目6","lat":35.77772508,"lon":139.71860266},{"name":"赤羽西六丁目東","province":"東京都","city":"北区","address":"東京都北区桐ケ丘1丁目22-1","lat":35.77541109,"lon":139.70518998},{"name":"西が丘サッカー場裏","province":"東京都","city":"北区","address":"東京都北区西が丘3丁目15","lat":35.76766219,"lon":139.70831224},{"name":"北赤羽駅入口","province":"東京都","city":"北区","address":"東京都北区赤羽南2丁目7-7","lat":35.77297582,"lon":139.72270249},{"name":"赤羽駅西口第二","province":"東京都","city":"北区","address":"東京都北区赤羽1丁目67","lat":35.78099123,"lon":139.7185387},{"name":"赤羽南二丁目西","province":"東京都","city":"北区","address":"東京都北区赤羽南2丁目9-62","lat":35.77325355,"lon":139.72241362},{"name":"赤羽駅南ガード下","province":"東京都","city":"北区","address":"東京都北区赤羽1丁目1-26","lat":35.77603652,"lon":139.72217464},{"name":"東京北医療センター","province":"東京都","city":"北区","address":"東京都北区赤羽台4丁目17-56","lat":35.78387391,"lon":139.71141424},{"name":"区立桐ヶ丘中央公園","province":"東京都","city":"北区","address":"東京都北区桐ケ丘1丁目8","lat":35.77854405,"lon":139.70742859},{"name":"区立滝野川公園","province":"東京都","city":"北区","address":"東京都北区西ケ原2丁目1","lat":35.74541006,"lon":139.74448791},{"name":"区立北運動公園","province":"東京都","city":"北区","address":"東京都北区神谷2丁目47-6","lat":35.77383973,"lon":139.72797147},{"name":"北区立中央公園野球場","province":"東京都","city":"北区","address":"東京都北区十条台1丁目2-1","lat":35.75320885,"lon":139.72756124},{"name":"北区立十条富士見中学校校庭","province":"東京都","city":"北区","address":"東京都北区十条台1丁目9-33","lat":35.75717496,"lon":139.72321144},{"name":"荒川下流岩淵場外","province":"東京都","city":"北区","address":"東京都北区志茂4丁目19-1","lat":35.78343288,"lon":139.73218195},{"name":"北区立北運動公園","province":"東京都","city":"北区","address":"東京都北区神谷2丁目47-6","lat":35.77383973,"lon":139.72797147},{"name":"北区立赤羽スポーツの森公園","province":"東京都","city":"北区","address":"東京都北区赤羽西5丁目2","lat":35.77326984,"lon":139.71003689},{"name":"北区立赤羽自然観察公園","province":"東京都","city":"北区","address":"東京都北区赤羽西5丁目2-34","lat":35.77431419,"lon":139.71157561},{"name":"新河岸東公園・浮間子どもスポーツ広場","province":"東京都","city":"北区","address":"東京都北区浮間4丁目27-1","lat":35.78904234,"lon":139.69236003},{"name":"豊島五丁目遊び場","province":"東京都","city":"北区","address":"東京都北区豊島5丁目6-1","lat":35.76470834,"lon":139.75516113},{"name":"国立西が丘サッカー場","province":"東京都","city":"北区","address":"東京都北区西が丘3丁目15","lat":35.76766219,"lon":139.70831224},{"name":"荒川下流岩淵場外","province":"東京都","city":"北区","address":"東京都北区志茂4丁目19-1","lat":35.78343288,"lon":139.73218195},{"name":"北区保健所","province":"東京都","city":"北区","address":"東京都北区東十条2丁目7-3","lat":35.76302725,"lon":139.73054116},{"name":"東京都障害者総合スポーツセンター","province":"東京都","city":"北区","address":"東京都北区十条台1丁目2-2","lat":35.75376426,"lon":139.72398652},{"name":"中央・城北職業能力開発センター赤羽校","province":"東京都","city":"北区","address":"東京都北区西が丘3丁目7-8","lat":35.76595692,"lon":139.71080655},{"name":"赤羽商業高等学校","province":"東京都","city":"北区","address":"東京都北区西が丘3丁目14-20","lat":35.76984251,"lon":139.70938429},{"name":"王子総合高等学校","province":"東京都","city":"北区","address":"東京都北区滝野川3丁目54-7","lat":35.74729847,"lon":139.7308001},{"name":"飛鳥高等学校","province":"東京都","city":"北区","address":"東京都北区王子6丁目8-8","lat":35.76160544,"lon":139.73947656},{"name":"桐ヶ丘高等学校","province":"東京都","city":"北区","address":"東京都北区赤羽北3丁目5-22","lat":35.7814825,"lon":139.70672302},{"name":"岩淵緊急用船着場","province":"東京都","city":"北区","address":"東京都北区志茂5丁目","lat":35.78393271,"lon":139.72875445},{"name":"岩淵","province":"東京都","city":"北区","address":"東京都北区志茂5丁目","lat":35.78393271,"lon":139.72875445},{"name":"豊島","province":"東京都","city":"北区","address":"東京都北区豊島5丁目","lat":35.76601912,"lon":139.74959212},{"name":"北赤羽","province":"東京都","city":"北区","address":"東京都北区浮間1丁目","lat":35.78863696,"lon":139.70479799},{"name":"北区本庁舎","province":"東京都","city":"北区","address":"東京都北区王子本町1丁目15-22","lat":35.75280347,"lon":139.73349965},{"name":"北区防災センター","province":"東京都","city":"北区","address":"東京都北区西ケ原2丁目1-6","lat":35.74548783,"lon":139.74511007},{"name":"北区本庁舎","province":"東京都","city":"北区","address":"北区王子1-15-22","lat":35.75318,"lon":139.734},{"name":"荒川下流河川事務所","province":"東京都","city":"北区","address":"北区志茂5-41-1","lat":35.78559,"lon":139.7301},{"name":"陸上自衛隊十条駐屯地","province":"東京都","city":"北区","address":"北区十条台1-5-70","lat":35.757358,"lon":139.726442},{"name":"第ニ自動車警ら隊","province":"東京都","city":"北区","address":"北区滝野川7-49-10","lat":35.74058,"lon":139.7239},{"name":"第十方面交通機動隊","province":"東京都","city":"北区","address":"北区西が丘3-4-7","lat":35.76512,"lon":139.712},{"name":"第十方面本部","province":"東京都","city":"北区","address":"北区西が丘3-4-7","lat":35.76512,"lon":139.712},{"name":"赤羽警察署","province":"東京都","city":"北区","address":"北区神谷3-10-1","lat":35.77435,"lon":139.7338},{"name":"王子警察署","province":"東京都","city":"北区","address":"北区王子3-22-22","lat":35.75931,"lon":139.7381},{"name":"滝野川警察署","province":"東京都","city":"北区","address":"北区西ヶ原2-4-1","lat":35.74714,"lon":139.7416},{"name":"第五方面訓練場","province":"東京都","city":"北区","address":"北区西ヶ原2-1","lat":35.74541,"lon":139.7445},{"name":"赤羽消防署","province":"東京都","city":"北区","address":"北区赤羽南1-10-4","lat":35.77776,"lon":139.7231},{"name":"王子消防署","province":"東京都","city":"北区","address":"北区王子4-28-1","lat":35.76318,"lon":139.7368},{"name":"滝野川消防署","province":"東京都","city":"北区","address":"北区西ヶ原2-1-1","lat":35.74468,"lon":139.7449},{"name":"北区","province":"東京都","city":"北区","address":"北区王子2-3-1","lat":35.75816,"lon":139.7341},{"name":"イワキ（株）","province":"東京都","city":"北区","address":"北区豊島7-30-17","lat":35.76654,"lon":139.7447},{"name":"北清掃工場","province":"東京都","city":"北区","address":"北区志茂1-2-36","lat":35.77584,"lon":139.732},{"name":"神谷","province":"東京都","city":"北区","address":"北区神谷1町目3番地先","lat":35.76857,"lon":139.7366},{"name":"ソフトバンクテレコム（株）新田端ビル","province":"東京都","city":"北区","address":"北区田端6-2-8","lat":35.73911,"lon":139.7589},{"name":"東京ガス（株）北部支店","province":"東京都","city":"北区","address":"北区滝野川5-42","lat":35.74919,"lon":139.7229},{"name":"西部第二下水道事務所","province":"東京都","city":"北区","address":"東京都北区浮間4丁目27-1","lat":35.78904234,"lon":139.69236003},{"name":"※北区本庁舎","province":"東京都","city":"北区","address":"東京都北区王子本町1丁目15-22","lat":35.75280347,"lon":139.73349965},{"name":"田端駅","province":"東京都","city":"北区","address":"東京都北区東田端1丁目17-1","lat":35.7379979,"lon":139.76093988},{"name":"赤羽駅","province":"東京都","city":"北区","address":"東京都北区赤羽1丁目1-1","lat":35.77859724,"lon":139.72067745},{"name":"北自動車営業所","province":"東京都","city":"北区","address":"東京都北区神谷3丁目10-6","lat":35.77498417,"lon":139.73411814},{"name":"つみき第３","province":"東京都","city":"北区","address":"北区王子4-24-12-301","lat":35.76158,"lon":139.737196},{"name":"つみき第５","province":"東京都","city":"北区","address":"北区豊島1-17-4-100","lat":35.758939,"lon":139.73871},{"name":"放課後等デイサービス　あんプラス","province":"東京都","city":"北区","address":"北区栄町50-3","lat":35.751298,"lon":139.746207},{"name":"こどもプラス１","province":"東京都","city":"北区","address":"北区田端新町3-34-1","lat":35.742334,"lon":139.764337},{"name":"つみき第２","province":"東京都","city":"北区","address":"北区王子本町1-19-1","lat":35.753856,"lon":139.733005},{"name":"放課後デイサービス勉強レストランそうなんだ！！","province":"東京都","city":"北区","address":"北区滝野川1-68-7早稲田ビル2階","lat":35.748068,"lon":139.733955},{"name":"このこのリーフ　滝野川","province":"東京都","city":"北区","address":"北区滝野川五丁目41番3号","lat":35.748126,"lon":139.723126},{"name":"このこのリーフ滝野川　第２","province":"東京都","city":"北区","address":"北区滝野川7-20-1笹岡ビル1階","lat":35.742496,"lon":139.720329},{"name":"飛鳥晴山苑　放課後等デイサービスさくら","province":"東京都","city":"北区","address":"北区西ケ原4-51-1","lat":35.74141,"lon":139.735978},{"name":"スキップランド　西ヶ原","province":"東京都","city":"北区","address":"北区西ケ原四丁目2番19号","lat":35.742396,"lon":139.739591},{"name":"つみき第６","province":"東京都","city":"北区","address":"北区西ケ原3-54-8-101","lat":35.744193,"lon":139.737508},{"name":"つみき第１","province":"東京都","city":"北区","address":"北区上十条1-19-6","lat":35.759352,"lon":139.723289},{"name":"放課後等デイサービス　ぴーす","province":"東京都","city":"北区","address":"北区上十条5-4-1サンタケビル1階","lat":35.764799,"lon":139.717381},{"name":"スキップランド　神谷","province":"東京都","city":"北区","address":"北区神谷二丁目23番15号","lat":35.771257,"lon":139.728288},{"name":"特定非営利活動法人クレセール心の相談室","province":"東京都","city":"北区","address":"北区赤羽1-41-5ATエミネンス2階201号室","lat":35.781599,"lon":139.719725},{"name":"第２特定非営利活動法人クレセール心の相談室","province":"東京都","city":"北区","address":"北区赤羽2-69-4ヴェルメゾン赤羽1階","lat":35.782555,"lon":139.722752},{"name":"児童デイサービス　まぁる","province":"東京都","city":"北区","address":"北区浮間四丁目32番20号松岡ビル2階","lat":35.791195,"lon":139.691607},{"name":"つみき第４","province":"東京都","city":"北区","address":"北区浮間4-5-5-101","lat":35.789051,"lon":139.697532},{"name":"放課後等デイサービスしらゆり　あそぼーよ　みんなで","province":"東京都","city":"北区","address":"北区赤羽北3丁目21番20-102号","lat":35.779105,"lon":139.705468},{"name":"北区子ども家庭支援センター","province":"東京都","city":"北区","address":"北区王子2-7-34","lat":35.757611,"lon":139.736033},{"name":"やじろべえ","province":"東京都","city":"北区","address":"北区赤羽北1-7-23","lat":35.78582,"lon":139.71375},{"name":"北区子ども家庭支援センター","province":"東京都","city":"北区","address":"北区王子6-7-3旧清至中学校別棟","lat":35.7632,"lon":139.74117},{"name":"北区子ども家庭支援センター","province":"東京都","city":"北区","address":"北区王子6-7-3旧清至中学校別棟","lat":35.762653,"lon":139.740387},{"name":"やじろべえ","province":"東京都","city":"北区","address":"北区赤羽北1-7-23","lat":35.785835,"lon":139.714308},{"name":"田端新町三丁目","province":"東京都","city":"北区","address":"東京都北区田端新町3丁目13-7","lat":35.74264464,"lon":139.76250344},{"name":"田端新町一丁目","province":"東京都","city":"北区","address":"東京都北区田端新町2丁目8-8","lat":35.73920376,"lon":139.7681311},{"name":"尾久駅前","province":"東京都","city":"北区","address":"東京都北区昭和町1丁目3-9","lat":35.74713812,"lon":139.75500649},{"name":"飛鳥山","province":"東京都","city":"北区","address":"東京都北区王子1丁目1","lat":35.75116487,"lon":139.73812432},{"name":"滝野川五丁目","province":"東京都","city":"北区","address":"東京都北区滝野川5丁目15-5","lat":35.74665676,"lon":139.72529504},{"name":"北谷端公園入口","province":"東京都","city":"北区","address":"東京都北区滝野川7丁目22","lat":35.74348204,"lon":139.72142883},{"name":"西ヶ原四丁目","province":"東京都","city":"北区","address":"東京都北区西ケ原4丁目47-4","lat":35.74463215,"lon":139.73313612},{"name":"平塚神社前","province":"東京都","city":"北区","address":"東京都北区西ケ原1丁目26-6","lat":35.74408523,"lon":139.74568787},{"name":"谷端市場通り","province":"東京都","city":"北区","address":"東京都北区滝野川7丁目30-7","lat":35.7430321,"lon":139.72174271},{"name":"西ヶ原三丁目","province":"東京都","city":"北区","address":"東京都北区西ケ原3丁目57-17","lat":35.74387401,"lon":139.73850793},{"name":"中里町","province":"東京都","city":"北区","address":"東京都北区中里2丁目5-5","lat":35.73821117,"lon":139.74966284},{"name":"童橋下","province":"東京都","city":"北区","address":"東京都北区田端2丁目7-28","lat":35.73526199,"lon":139.75910398},{"name":"板橋駅東口","province":"東京都","city":"北区","address":"東京都北区滝野川7丁目8-10","lat":35.74542624,"lon":139.72070659},{"name":"田端操駅前","province":"東京都","city":"北区","address":"東京都北区東田端2丁目2-1","lat":35.74018654,"lon":139.76124531},{"name":"田端銀座通り","province":"東京都","city":"北区","address":"東京都北区田端4丁目3-1","lat":35.73592826,"lon":139.75251552},{"name":"聖学院前","province":"東京都","city":"北区","address":"東京都北区中里3丁目12-2","lat":35.74138588,"lon":139.75187921},{"name":"滝野川一丁目三差路","province":"東京都","city":"北区","address":"東京都北区滝野川1丁目48-8","lat":35.74749853,"lon":139.73474976},{"name":"田端駅前","province":"東京都","city":"北区","address":"東京都北区田端1丁目21-8","lat":35.73790898,"lon":139.76033991},{"name":"滝野川六丁目","province":"東京都","city":"北区","address":"東京都北区滝野川5丁目40-1","lat":35.74777882,"lon":139.72353958},{"name":"飛鳥山公園前","province":"東京都","city":"北区","address":"東京都北区王子1丁目1","lat":35.75116487,"lon":139.73812432},{"name":"南谷端公園前南","province":"東京都","city":"北区","address":"東京都北区滝野川7丁目38-1","lat":35.74150452,"lon":139.72320376},{"name":"南谷端公園前北","province":"東京都","city":"北区","address":"東京都北区滝野川7丁目32-14","lat":35.74217943,"lon":139.72234548},{"name":"東田端一丁目","province":"東京都","city":"北区","address":"東京都北区東田端1丁目8-11","lat":35.73815916,"lon":139.76359806},{"name":"紅葉小学校前","province":"東京都","city":"北区","address":"東京都北区滝野川3丁目72-1","lat":35.750998,"lon":139.72840293},{"name":"田端大曲陸橋下","province":"東京都","city":"北区","address":"東京都北区東田端1丁目13-10","lat":35.73918951,"lon":139.76240641},{"name":"滝野川病院前","province":"東京都","city":"北区","address":"東京都北区滝野川3丁目66-10","lat":35.75048144,"lon":139.73043334},{"name":"駒込駅東","province":"東京都","city":"北区","address":"東京都北区中里2丁目16-3","lat":35.73899988,"lon":139.74836011},{"name":"田端高台交番前","province":"東京都","city":"北区","address":"東京都北区田端6丁目3-1","lat":35.73836715,"lon":139.75850111},{"name":"板橋駅東口第二","province":"東京都","city":"北区","address":"東京都北区滝野川7丁目3-1","lat":35.74516515,"lon":139.72017608},{"name":"中里ガード下第一","province":"東京都","city":"北区","address":"東京都北区中里2丁目6-1","lat":35.73811676,"lon":139.7502128},{"name":"中里ガード下第二","province":"東京都","city":"北区","address":"東京都北区中里1丁目7-5","lat":35.73755572,"lon":139.75018505},{"name":"滝野川小学校前","province":"東京都","city":"北区","address":"東京都北区西ケ原1丁目19-14","lat":35.74275215,"lon":139.74795164},{"name":"田端新町二丁目東","province":"東京都","city":"北区","address":"東京都北区田端新町2丁目24-5","lat":35.7407729,"lon":139.76651164},{"name":"東田端郵便局南","province":"東京都","city":"北区","address":"東京都北区東田端2丁目20-68","lat":35.74000875,"lon":139.76072035},{"name":"上中里駅前","province":"東京都","city":"北区","address":"東京都北区上中里1丁目47-34","lat":35.74627945,"lon":139.74657659},{"name":"田端新橋東","province":"東京都","city":"北区","address":"東京都北区東田端2丁目20-68","lat":35.74000875,"lon":139.76072035},{"name":"田端駅前第二","province":"東京都","city":"北区","address":"東京都北区東田端1丁目17","lat":35.73720644,"lon":139.7626565},{"name":"上中里二丁目","province":"東京都","city":"北区","address":"東京都北区上中里2丁目44-1","lat":35.74671276,"lon":139.74712098},{"name":"上中里二丁目第二","province":"東京都","city":"北区","address":"東京都北区上中里2丁目44-1","lat":35.74671276,"lon":139.74712098},{"name":"谷端小学校入口","province":"東京都","city":"北区","address":"東京都北区滝野川7丁目17-12","lat":35.7440986,"lon":139.72030946},{"name":"十条仲原二丁目","province":"東京都","city":"北区","address":"東京都北区十条仲原2丁目8-11","lat":35.76580722,"lon":139.72080851},{"name":"王子駅前","province":"東京都","city":"北区","address":"東京都北区王子1丁目4-12","lat":35.75319521,"lon":139.73808535},{"name":"王子本町","province":"東京都","city":"北区","address":"東京都北区王子本町1丁目18-5","lat":35.75380059,"lon":139.73372183},{"name":"東十条交番前","province":"東京都","city":"北区","address":"東京都北区東十条4丁目5-22","lat":35.76612126,"lon":139.72822454},{"name":"十条中学校入口","province":"東京都","city":"北区","address":"東京都北区上十条1丁目4-16","lat":35.75881925,"lon":139.72449739},{"name":"王子一丁目","province":"東京都","city":"北区","address":"東京都北区王子1丁目16-1","lat":35.75454505,"lon":139.73754369},{"name":"上十条四丁目","province":"東京都","city":"北区","address":"東京都北区上十条3丁目14-6","lat":35.76202698,"lon":139.7155591},{"name":"王子二丁目","province":"東京都","city":"北区","address":"東京都北区王子2丁目13-6","lat":35.75628929,"lon":139.73716865},{"name":"王子小公園前","province":"東京都","city":"北区","address":"東京都北区王子1丁目6-5","lat":35.75450899,"lon":139.73943518},{"name":"王子一丁目第二","province":"東京都","city":"北区","address":"東京都北区王子本町1丁目13-7","lat":35.75349227,"lon":139.73271358},{"name":"王子本町二丁目","province":"東京都","city":"北区","address":"東京都北区王子本町2丁目9-13","lat":35.75629469,"lon":139.73078863},{"name":"王子本町二丁目第二","province":"東京都","city":"北区","address":"東京都北区王子本町2丁目9-8","lat":35.75672797,"lon":139.73052475},{"name":"上十条二丁目","province":"東京都","city":"北区","address":"東京都北区上十条2丁目12-10","lat":35.75986348,"lon":139.72078098},{"name":"王子児童会館前","province":"東京都","city":"北区","address":"東京都北区豊島1丁目18-14","lat":35.75883353,"lon":139.73987386},{"name":"北都税事務所前","province":"東京都","city":"北区","address":"東京都北区十条台1丁目4-12","lat":35.7578889,"lon":139.72856653},{"name":"王子本町郵便局前","province":"東京都","city":"北区","address":"東京都北区王子本町1丁目1-10","lat":35.75283962,"lon":139.73542449},{"name":"王子保健所前","province":"東京都","city":"北区","address":"東京都北区東十条1丁目22-6","lat":35.76274118,"lon":139.73066894},{"name":"王子本町二丁目南","province":"東京都","city":"北区","address":"東京都北区王子本町2丁目16-15","lat":35.75524205,"lon":139.73158028},{"name":"北とぴあ前","province":"東京都","city":"北区","address":"東京都北区王子1丁目10","lat":35.75392844,"lon":139.73718818},{"name":"北特別支援学校前","province":"東京都","city":"北区","address":"東京都北区十条台1丁目2-3","lat":35.75403643,"lon":139.72307825},{"name":"東十条出張所前","province":"東京都","city":"北区","address":"東京都北区東十条3丁目3-1","lat":35.76462704,"lon":139.72977726},{"name":"南橋第二","province":"東京都","city":"北区","address":"東京都北区中十条1丁目5-6","lat":35.75867219,"lon":139.73040246},{"name":"志茂五丁目","province":"東京都","city":"北区","address":"東京都北区岩淵町1-2","lat":35.78298835,"lon":139.72646299},{"name":"赤羽北二丁目","province":"東京都","city":"北区","address":"東京都北区赤羽北2丁目8-1","lat":35.78519031,"lon":139.70796726},{"name":"浮間一丁目","province":"東京都","city":"北区","address":"東京都北区浮間1丁目1-12","lat":35.78852864,"lon":139.70419803},{"name":"赤羽西六丁目","province":"東京都","city":"北区","address":"東京都北区桐ケ丘1丁目22","lat":35.7755944,"lon":139.70503166},{"name":"赤羽一丁目","province":"東京都","city":"北区","address":"東京都北区赤羽2丁目16-3","lat":35.77940273,"lon":139.72271338},{"name":"赤羽南二丁目","province":"東京都","city":"北区","address":"東京都北区赤羽南2丁目8-21","lat":35.77412292,"lon":139.72378847},{"name":"浮間小学校前第一","province":"東京都","city":"北区","address":"東京都北区浮間3丁目13-15","lat":35.78704271,"lon":139.70014003},{"name":"浮間小学校前第二","province":"東京都","city":"北区","address":"東京都北区浮間3丁目4-27","lat":35.78595677,"lon":139.70060113},{"name":"赤羽北公団住宅前","province":"東京都","city":"北区","address":"東京都北区赤羽北2丁目22-5","lat":35.78518194,"lon":139.70556189},{"name":"西が丘サッカー場","province":"東京都","city":"北区","address":"東京都北区赤羽西6丁目1-4","lat":35.77044515,"lon":139.7077233},{"name":"赤羽北三丁目","province":"東京都","city":"北区","address":"東京都北区赤羽3丁目25-5","lat":35.78552108,"lon":139.71968297},{"name":"浮間橋南詰","province":"東京都","city":"北区","address":"東京都北区赤羽北2丁目26","lat":35.78593464,"lon":139.70772004},{"name":"志茂交番横","province":"東京都","city":"北区","address":"東京都北区赤羽南1丁目15-20","lat":35.77757252,"lon":139.72590483},{"name":"赤羽南一丁目","province":"東京都","city":"北区","address":"東京都北区赤羽南1丁目5-12","lat":35.77665867,"lon":139.72276068},{"name":"赤羽岩淵駅前","province":"東京都","city":"北区","address":"東京都北区岩淵町34-1","lat":35.78361313,"lon":139.72228833},{"name":"国立スポーツ科学センター","province":"東京都","city":"北区","address":"東京都北区西が丘3丁目12","lat":35.76718453,"lon":139.71039821},{"name":"浮間第二団地前","province":"東京都","city":"北区","address":"東京都北区浮間3丁目1-18","lat":35.78692331,"lon":139.70187601},{"name":"赤羽消防署前","province":"東京都","city":"北区","address":"東京都北区赤羽2丁目1-7","lat":35.77810016,"lon":139.7230106},{"name":"赤羽三丁目","province":"東京都","city":"北区","address":"東京都北区赤羽1丁目62-10","lat":35.78261877,"lon":139.71962192},{"name":"姥ヶ橋","province":"東京都","city":"北区","address":"東京都北区西が丘2丁目8-3","lat":35.7637767,"lon":139.71336476},{"name":"赤羽保健所前","province":"東京都","city":"北区","address":"東京都北区赤羽台3丁目17-57","lat":35.7794357,"lon":139.71157267},{"name":"赤羽駅西口","province":"東京都","city":"北区","address":"東京都北区赤羽西1丁目39-18","lat":35.77922765,"lon":139.71926367},{"name":"桐ヶ丘郵便局前","province":"東京都","city":"北区","address":"東京都北区桐ケ丘2丁目7-27","lat":35.77936339,"lon":139.70765911},{"name":"西が丘サッカー場北","province":"東京都","city":"北区","address":"東京都北区赤羽西6丁目37-2","lat":35.76975354,"lon":139.70635398},{"name":"赤羽西五丁目","province":"東京都","city":"北区","address":"東京都北区赤羽西5丁目2","lat":35.77326984,"lon":139.71003689},{"name":"西ヶ丘サッカー場前","province":"東京都","city":"北区","address":"東京都北区西が丘3丁目15-1","lat":35.76735389,"lon":139.70811227},{"name":"赤羽諏訪神社前","province":"東京都","city":"北区","address":"東京都北区赤羽北3丁目3-20","lat":35.78350724,"lon":139.70908944},{"name":"第三岩淵小学校前","province":"東京都","city":"北区","address":"東京都北区西が丘1丁目12-14","lat":35.77112581,"lon":139.7141644},{"name":"赤羽駅東口第二","province":"東京都","city":"北区","address":"東京都北区赤羽1丁目13-2","lat":35.77933048,"lon":139.7213996},{"name":"浮間舟渡駅前","province":"東京都","city":"北区","address":"東京都北区浮間2丁目31","lat":35.79145589,"lon":139.69327656},{"name":"赤羽台四丁目","province":"東京都","city":"北区","address":"東京都北区赤羽台4丁目1","lat":35.78300198,"lon":139.71712212},{"name":"赤羽西一丁目東","province":"東京都","city":"北区","address":"東京都北区赤羽西1丁目6","lat":35.77772508,"lon":139.71860266},{"name":"赤羽西六丁目東","province":"東京都","city":"北区","address":"東京都北区桐ケ丘1丁目22-1","lat":35.77541109,"lon":139.70518998},{"name":"西が丘サッカー場裏","province":"東京都","city":"北区","address":"東京都北区西が丘3丁目15","lat":35.76766219,"lon":139.70831224},{"name":"北赤羽駅入口","province":"東京都","city":"北区","address":"東京都北区赤羽南2丁目7-7","lat":35.77297582,"lon":139.72270249},{"name":"赤羽駅西口第二","province":"東京都","city":"北区","address":"東京都北区赤羽1丁目67","lat":35.78099123,"lon":139.7185387},{"name":"赤羽南二丁目西","province":"東京都","city":"北区","address":"東京都北区赤羽南2丁目9-62","lat":35.77325355,"lon":139.72241362},{"name":"赤羽駅南ガード下","province":"東京都","city":"北区","address":"東京都北区赤羽1丁目1-26","lat":35.77603652,"lon":139.72217464},{"name":"東京北医療センター","province":"東京都","city":"北区","address":"東京都北区赤羽台4丁目17-56","lat":35.78387391,"lon":139.71141424},{"name":"区立桐ヶ丘中央公園","province":"東京都","city":"北区","address":"東京都北区桐ケ丘1丁目8","lat":35.77854405,"lon":139.70742859},{"name":"区立滝野川公園","province":"東京都","city":"北区","address":"東京都北区西ケ原2丁目1","lat":35.74541006,"lon":139.74448791},{"name":"区立北運動公園","province":"東京都","city":"北区","address":"東京都北区神谷2丁目47-6","lat":35.77383973,"lon":139.72797147},{"name":"北区立中央公園野球場","province":"東京都","city":"北区","address":"東京都北区十条台1丁目2-1","lat":35.75320885,"lon":139.72756124},{"name":"北区立十条富士見中学校校庭","province":"東京都","city":"北区","address":"東京都北区十条台1丁目9-33","lat":35.75717496,"lon":139.72321144},{"name":"荒川下流岩淵場外","province":"東京都","city":"北区","address":"東京都北区志茂4丁目19-1","lat":35.78343288,"lon":139.73218195},{"name":"北区立北運動公園","province":"東京都","city":"北区","address":"東京都北区神谷2丁目47-6","lat":35.77383973,"lon":139.72797147},{"name":"北区立赤羽スポーツの森公園","province":"東京都","city":"北区","address":"東京都北区赤羽西5丁目2","lat":35.77326984,"lon":139.71003689},{"name":"北区立赤羽自然観察公園","province":"東京都","city":"北区","address":"東京都北区赤羽西5丁目2-34","lat":35.77431419,"lon":139.71157561},{"name":"新河岸東公園・浮間子どもスポーツ広場","province":"東京都","city":"北区","address":"東京都北区浮間4丁目27-1","lat":35.78904234,"lon":139.69236003},{"name":"豊島五丁目遊び場","province":"東京都","city":"北区","address":"東京都北区豊島5丁目6-1","lat":35.76470834,"lon":139.75516113},{"name":"国立西が丘サッカー場","province":"東京都","city":"北区","address":"東京都北区西が丘3丁目15","lat":35.76766219,"lon":139.70831224},{"name":"荒川下流岩淵場外","province":"東京都","city":"北区","address":"東京都北区志茂4丁目19-1","lat":35.78343288,"lon":139.73218195},{"name":"東京都障害者総合スポーツセンター","province":"東京都","city":"北区","address":"東京都北区十条台1丁目2-2","lat":35.75376426,"lon":139.72398652},{"name":"中央・城北職業能力開発センター赤羽校","province":"東京都","city":"北区","address":"東京都北区西が丘3丁目7-8","lat":35.76595692,"lon":139.71080655},{"name":"赤羽商業高等学校","province":"東京都","city":"北区","address":"東京都北区西が丘3丁目14-20","lat":35.76984251,"lon":139.70938429},{"name":"王子総合高等学校","province":"東京都","city":"北区","address":"東京都北区滝野川3丁目54-7","lat":35.74729847,"lon":139.7308001},{"name":"飛鳥高等学校","province":"東京都","city":"北区","address":"東京都北区王子6丁目8-8","lat":35.76160544,"lon":139.73947656},{"name":"桐ヶ丘高等学校","province":"東京都","city":"北区","address":"東京都北区赤羽北3丁目5-22","lat":35.7814825,"lon":139.70672302},{"name":"つみき第３","province":"東京都","city":"北区","address":"北区王子4-24-12-301","lat":35.76158,"lon":139.737196},{"name":"つみき第５","province":"東京都","city":"北区","address":"北区豊島1-17-4-100","lat":35.758939,"lon":139.73871},{"name":"放課後等デイサービス　あんプラス","province":"東京都","city":"北区","address":"北区栄町50-3","lat":35.751298,"lon":139.746207},{"name":"こどもプラス１","province":"東京都","city":"北区","address":"北区田端新町3-34-1","lat":35.742334,"lon":139.764337},{"name":"つみき第２","province":"東京都","city":"北区","address":"北区王子本町1-19-1","lat":35.753856,"lon":139.733005},{"name":"放課後デイサービス勉強レストランそうなんだ！！","province":"東京都","city":"北区","address":"北区滝野川1-68-7早稲田ビル2階","lat":35.748068,"lon":139.733955},{"name":"このこのリーフ　滝野川","province":"東京都","city":"北区","address":"北区滝野川五丁目41番3号","lat":35.748126,"lon":139.723126},{"name":"このこのリーフ滝野川　第２","province":"東京都","city":"北区","address":"北区滝野川7-20-1笹岡ビル1階","lat":35.742496,"lon":139.720329},{"name":"飛鳥晴山苑　放課後等デイサービスさくら","province":"東京都","city":"北区","address":"北区西ケ原4-51-1","lat":35.74141,"lon":139.735978},{"name":"スキップランド　西ヶ原","province":"東京都","city":"北区","address":"北区西ケ原四丁目2番19号","lat":35.742396,"lon":139.739591},{"name":"つみき第６","province":"東京都","city":"北区","address":"北区西ケ原3-54-8-101","lat":35.744193,"lon":139.737508},{"name":"つみき第１","province":"東京都","city":"北区","address":"北区上十条1-19-6","lat":35.759352,"lon":139.723289},{"name":"放課後等デイサービス　ぴーす","province":"東京都","city":"北区","address":"北区上十条5-4-1サンタケビル1階","lat":35.764799,"lon":139.717381},{"name":"スキップランド　神谷","province":"東京都","city":"北区","address":"北区神谷二丁目23番15号","lat":35.771257,"lon":139.728288},{"name":"特定非営利活動法人クレセール心の相談室","province":"東京都","city":"北区","address":"北区赤羽1-41-5ATエミネンス2階201号室","lat":35.781599,"lon":139.719725},{"name":"第２特定非営利活動法人クレセール心の相談室","province":"東京都","city":"北区","address":"北区赤羽2-69-4ヴェルメゾン赤羽1階","lat":35.782555,"lon":139.722752},{"name":"児童デイサービス　まぁる","province":"東京都","city":"北区","address":"北区浮間四丁目32番20号松岡ビル2階","lat":35.791195,"lon":139.691607},{"name":"つみき第４","province":"東京都","city":"北区","address":"北区浮間4-5-5-101","lat":35.789051,"lon":139.697532},{"name":"放課後等デイサービスしらゆり　あそぼーよ　みんなで","province":"東京都","city":"北区","address":"北区赤羽北3丁目21番20-102号","lat":35.779105,"lon":139.705468},{"name":"北区子ども家庭支援センター","province":"東京都","city":"北区","address":"北区王子2-7-34","lat":35.757611,"lon":139.736033},{"name":"やじろべえ","province":"東京都","city":"北区","address":"北区赤羽北1-7-23","lat":35.78582,"lon":139.71375},{"name":"北区子ども家庭支援センター","province":"東京都","city":"北区","address":"北区王子6-7-3旧清至中学校別棟","lat":35.7632,"lon":139.74117},{"name":"北区子ども家庭支援センター","province":"東京都","city":"北区","address":"北区王子6-7-3旧清至中学校別棟","lat":35.762653,"lon":139.740387},{"name":"やじろべえ","province":"東京都","city":"北区","address":"北区赤羽北1-7-23","lat":35.785835,"lon":139.714308},{"name":"田端新町三丁目","province":"東京都","city":"北区","address":"東京都北区田端新町3丁目13-7","lat":35.74264464,"lon":139.76250344},{"name":"田端新町一丁目","province":"東京都","city":"北区","address":"東京都北区田端新町2丁目8-8","lat":35.73920376,"lon":139.7681311},{"name":"尾久駅前","province":"東京都","city":"北区","address":"東京都北区昭和町1丁目3-9","lat":35.74713812,"lon":139.75500649},{"name":"飛鳥山","province":"東京都","city":"北区","address":"東京都北区王子1丁目1","lat":35.75116487,"lon":139.73812432},{"name":"滝野川五丁目","province":"東京都","city":"北区","address":"東京都北区滝野川5丁目15-5","lat":35.74665676,"lon":139.72529504},{"name":"北谷端公園入口","province":"東京都","city":"北区","address":"東京都北区滝野川7丁目22","lat":35.74348204,"lon":139.72142883},{"name":"西ヶ原四丁目","province":"東京都","city":"北区","address":"東京都北区西ケ原4丁目47-4","lat":35.74463215,"lon":139.73313612},{"name":"平塚神社前","province":"東京都","city":"北区","address":"東京都北区西ケ原1丁目26-6","lat":35.74408523,"lon":139.74568787},{"name":"谷端市場通り","province":"東京都","city":"北区","address":"東京都北区滝野川7丁目30-7","lat":35.7430321,"lon":139.72174271},{"name":"西ヶ原三丁目","province":"東京都","city":"北区","address":"東京都北区西ケ原3丁目57-17","lat":35.74387401,"lon":139.73850793},{"name":"中里町","province":"東京都","city":"北区","address":"東京都北区中里2丁目5-5","lat":35.73821117,"lon":139.74966284},{"name":"童橋下","province":"東京都","city":"北区","address":"東京都北区田端2丁目7-28","lat":35.73526199,"lon":139.75910398},{"name":"板橋駅東口","province":"東京都","city":"北区","address":"東京都北区滝野川7丁目8-10","lat":35.74542624,"lon":139.72070659},{"name":"田端操駅前","province":"東京都","city":"北区","address":"東京都北区東田端2丁目2-1","lat":35.74018654,"lon":139.76124531},{"name":"田端銀座通り","province":"東京都","city":"北区","address":"東京都北区田端4丁目3-1","lat":35.73592826,"lon":139.75251552},{"name":"聖学院前","province":"東京都","city":"北区","address":"東京都北区中里3丁目12-2","lat":35.74138588,"lon":139.75187921},{"name":"滝野川一丁目三差路","province":"東京都","city":"北区","address":"東京都北区滝野川1丁目48-8","lat":35.74749853,"lon":139.73474976},{"name":"田端駅前","province":"東京都","city":"北区","address":"東京都北区田端1丁目21-8","lat":35.73790898,"lon":139.76033991},{"name":"滝野川六丁目","province":"東京都","city":"北区","address":"東京都北区滝野川5丁目40-1","lat":35.74777882,"lon":139.72353958},{"name":"飛鳥山公園前","province":"東京都","city":"北区","address":"東京都北区王子1丁目1","lat":35.75116487,"lon":139.73812432},{"name":"南谷端公園前南","province":"東京都","city":"北区","address":"東京都北区滝野川7丁目38-1","lat":35.74150452,"lon":139.72320376},{"name":"南谷端公園前北","province":"東京都","city":"北区","address":"東京都北区滝野川7丁目32-14","lat":35.74217943,"lon":139.72234548},{"name":"東田端一丁目","province":"東京都","city":"北区","address":"東京都北区東田端1丁目8-11","lat":35.73815916,"lon":139.76359806},{"name":"紅葉小学校前","province":"東京都","city":"北区","address":"東京都北区滝野川3丁目72-1","lat":35.750998,"lon":139.72840293},{"name":"田端大曲陸橋下","province":"東京都","city":"北区","address":"東京都北区東田端1丁目13-10","lat":35.73918951,"lon":139.76240641},{"name":"滝野川病院前","province":"東京都","city":"北区","address":"東京都北区滝野川3丁目66-10","lat":35.75048144,"lon":139.73043334},{"name":"駒込駅東","province":"東京都","city":"北区","address":"東京都北区中里2丁目16-3","lat":35.73899988,"lon":139.74836011},{"name":"田端高台交番前","province":"東京都","city":"北区","address":"東京都北区田端6丁目3-1","lat":35.73836715,"lon":139.75850111},{"name":"板橋駅東口第二","province":"東京都","city":"北区","address":"東京都北区滝野川7丁目3-1","lat":35.74516515,"lon":139.72017608},{"name":"中里ガード下第一","province":"東京都","city":"北区","address":"東京都北区中里2丁目6-1","lat":35.73811676,"lon":139.7502128},{"name":"中里ガード下第二","province":"東京都","city":"北区","address":"東京都北区中里1丁目7-5","lat":35.73755572,"lon":139.75018505},{"name":"滝野川小学校前","province":"東京都","city":"北区","address":"東京都北区西ケ原1丁目19-14","lat":35.74275215,"lon":139.74795164},{"name":"田端新町二丁目東","province":"東京都","city":"北区","address":"東京都北区田端新町2丁目24-5","lat":35.7407729,"lon":139.76651164},{"name":"東田端郵便局南","province":"東京都","city":"北区","address":"東京都北区東田端2丁目20-68","lat":35.74000875,"lon":139.76072035},{"name":"上中里駅前","province":"東京都","city":"北区","address":"東京都北区上中里1丁目47-34","lat":35.74627945,"lon":139.74657659},{"name":"田端新橋東","province":"東京都","city":"北区","address":"東京都北区東田端2丁目20-68","lat":35.74000875,"lon":139.76072035},{"name":"田端駅前第二","province":"東京都","city":"北区","address":"東京都北区東田端1丁目17","lat":35.73720644,"lon":139.7626565},{"name":"上中里二丁目","province":"東京都","city":"北区","address":"東京都北区上中里2丁目44-1","lat":35.74671276,"lon":139.74712098},{"name":"上中里二丁目第二","province":"東京都","city":"北区","address":"東京都北区上中里2丁目44-1","lat":35.74671276,"lon":139.74712098},{"name":"谷端小学校入口","province":"東京都","city":"北区","address":"東京都北区滝野川7丁目17-12","lat":35.7440986,"lon":139.72030946},{"name":"十条仲原二丁目","province":"東京都","city":"北区","address":"東京都北区十条仲原2丁目8-11","lat":35.76580722,"lon":139.72080851},{"name":"王子駅前","province":"東京都","city":"北区","address":"東京都北区王子1丁目4-12","lat":35.75319521,"lon":139.73808535},{"name":"王子本町","province":"東京都","city":"北区","address":"東京都北区王子本町1丁目18-5","lat":35.75380059,"lon":139.73372183},{"name":"東十条交番前","province":"東京都","city":"北区","address":"東京都北区東十条4丁目5-22","lat":35.76612126,"lon":139.72822454},{"name":"十条中学校入口","province":"東京都","city":"北区","address":"東京都北区上十条1丁目4-16","lat":35.75881925,"lon":139.72449739},{"name":"王子一丁目","province":"東京都","city":"北区","address":"東京都北区王子1丁目16-1","lat":35.75454505,"lon":139.73754369},{"name":"上十条四丁目","province":"東京都","city":"北区","address":"東京都北区上十条3丁目14-6","lat":35.76202698,"lon":139.7155591},{"name":"王子二丁目","province":"東京都","city":"北区","address":"東京都北区王子2丁目13-6","lat":35.75628929,"lon":139.73716865},{"name":"王子小公園前","province":"東京都","city":"北区","address":"東京都北区王子1丁目6-5","lat":35.75450899,"lon":139.73943518},{"name":"王子一丁目第二","province":"東京都","city":"北区","address":"東京都北区王子本町1丁目13-7","lat":35.75349227,"lon":139.73271358},{"name":"王子本町二丁目","province":"東京都","city":"北区","address":"東京都北区王子本町2丁目9-13","lat":35.75629469,"lon":139.73078863},{"name":"王子本町二丁目第二","province":"東京都","city":"北区","address":"東京都北区王子本町2丁目9-8","lat":35.75672797,"lon":139.73052475},{"name":"上十条二丁目","province":"東京都","city":"北区","address":"東京都北区上十条2丁目12-10","lat":35.75986348,"lon":139.72078098},{"name":"王子児童会館前","province":"東京都","city":"北区","address":"東京都北区豊島1丁目18-14","lat":35.75883353,"lon":139.73987386},{"name":"北都税事務所前","province":"東京都","city":"北区","address":"東京都北区十条台1丁目4-12","lat":35.7578889,"lon":139.72856653},{"name":"王子本町郵便局前","province":"東京都","city":"北区","address":"東京都北区王子本町1丁目1-10","lat":35.75283962,"lon":139.73542449},{"name":"王子保健所前","province":"東京都","city":"北区","address":"東京都北区東十条1丁目22-6","lat":35.76274118,"lon":139.73066894},{"name":"王子本町二丁目南","province":"東京都","city":"北区","address":"東京都北区王子本町2丁目16-15","lat":35.75524205,"lon":139.73158028},{"name":"北とぴあ前","province":"東京都","city":"北区","address":"東京都北区王子1丁目10","lat":35.75392844,"lon":139.73718818},{"name":"北特別支援学校前","province":"東京都","city":"北区","address":"東京都北区十条台1丁目2-3","lat":35.75403643,"lon":139.72307825},{"name":"東十条出張所前","province":"東京都","city":"北区","address":"東京都北区東十条3丁目3-1","lat":35.76462704,"lon":139.72977726},{"name":"南橋第二","province":"東京都","city":"北区","address":"東京都北区中十条1丁目5-6","lat":35.75867219,"lon":139.73040246},{"name":"志茂五丁目","province":"東京都","city":"北区","address":"東京都北区岩淵町1-2","lat":35.78298835,"lon":139.72646299},{"name":"赤羽北二丁目","province":"東京都","city":"北区","address":"東京都北区赤羽北2丁目8-1","lat":35.78519031,"lon":139.70796726},{"name":"浮間一丁目","province":"東京都","city":"北区","address":"東京都北区浮間1丁目1-12","lat":35.78852864,"lon":139.70419803},{"name":"赤羽西六丁目","province":"東京都","city":"北区","address":"東京都北区桐ケ丘1丁目22","lat":35.7755944,"lon":139.70503166},{"name":"赤羽一丁目","province":"東京都","city":"北区","address":"東京都北区赤羽2丁目16-3","lat":35.77940273,"lon":139.72271338},{"name":"赤羽南二丁目","province":"東京都","city":"北区","address":"東京都北区赤羽南2丁目8-21","lat":35.77412292,"lon":139.72378847},{"name":"浮間小学校前第一","province":"東京都","city":"北区","address":"東京都北区浮間3丁目13-15","lat":35.78704271,"lon":139.70014003},{"name":"浮間小学校前第二","province":"東京都","city":"北区","address":"東京都北区浮間3丁目4-27","lat":35.78595677,"lon":139.70060113},{"name":"赤羽北公団住宅前","province":"東京都","city":"北区","address":"東京都北区赤羽北2丁目22-5","lat":35.78518194,"lon":139.70556189},{"name":"西が丘サッカー場","province":"東京都","city":"北区","address":"東京都北区赤羽西6丁目1-4","lat":35.77044515,"lon":139.7077233},{"name":"赤羽北三丁目","province":"東京都","city":"北区","address":"東京都北区赤羽3丁目25-5","lat":35.78552108,"lon":139.71968297},{"name":"浮間橋南詰","province":"東京都","city":"北区","address":"東京都北区赤羽北2丁目26","lat":35.78593464,"lon":139.70772004},{"name":"志茂交番横","province":"東京都","city":"北区","address":"東京都北区赤羽南1丁目15-20","lat":35.77757252,"lon":139.72590483},{"name":"赤羽南一丁目","province":"東京都","city":"北区","address":"東京都北区赤羽南1丁目5-12","lat":35.77665867,"lon":139.72276068},{"name":"赤羽岩淵駅前","province":"東京都","city":"北区","address":"東京都北区岩淵町34-1","lat":35.78361313,"lon":139.72228833},{"name":"国立スポーツ科学センター","province":"東京都","city":"北区","address":"東京都北区西が丘3丁目12","lat":35.76718453,"lon":139.71039821},{"name":"浮間第二団地前","province":"東京都","city":"北区","address":"東京都北区浮間3丁目1-18","lat":35.78692331,"lon":139.70187601},{"name":"赤羽消防署前","province":"東京都","city":"北区","address":"東京都北区赤羽2丁目1-7","lat":35.77810016,"lon":139.7230106},{"name":"赤羽三丁目","province":"東京都","city":"北区","address":"東京都北区赤羽1丁目62-10","lat":35.78261877,"lon":139.71962192},{"name":"姥ヶ橋","province":"東京都","city":"北区","address":"東京都北区西が丘2丁目8-3","lat":35.7637767,"lon":139.71336476},{"name":"赤羽保健所前","province":"東京都","city":"北区","address":"東京都北区赤羽台3丁目17-57","lat":35.7794357,"lon":139.71157267},{"name":"赤羽駅西口","province":"東京都","city":"北区","address":"東京都北区赤羽西1丁目39-18","lat":35.77922765,"lon":139.71926367},{"name":"桐ヶ丘郵便局前","province":"東京都","city":"北区","address":"東京都北区桐ケ丘2丁目7-27","lat":35.77936339,"lon":139.70765911},{"name":"西が丘サッカー場北","province":"東京都","city":"北区","address":"東京都北区赤羽西6丁目37-2","lat":35.76975354,"lon":139.70635398},{"name":"赤羽西五丁目","province":"東京都","city":"北区","address":"東京都北区赤羽西5丁目2","lat":35.77326984,"lon":139.71003689},{"name":"西ヶ丘サッカー場前","province":"東京都","city":"北区","address":"東京都北区西が丘3丁目15-1","lat":35.76735389,"lon":139.70811227},{"name":"赤羽諏訪神社前","province":"東京都","city":"北区","address":"東京都北区赤羽北3丁目3-20","lat":35.78350724,"lon":139.70908944},{"name":"第三岩淵小学校前","province":"東京都","city":"北区","address":"東京都北区西が丘1丁目12-14","lat":35.77112581,"lon":139.7141644},{"name":"赤羽駅東口第二","province":"東京都","city":"北区","address":"東京都北区赤羽1丁目13-2","lat":35.77933048,"lon":139.7213996},{"name":"浮間舟渡駅前","province":"東京都","city":"北区","address":"東京都北区浮間2丁目31","lat":35.79145589,"lon":139.69327656},{"name":"赤羽台四丁目","province":"東京都","city":"北区","address":"東京都北区赤羽台4丁目1","lat":35.78300198,"lon":139.71712212},{"name":"赤羽西一丁目東","province":"東京都","city":"北区","address":"東京都北区赤羽西1丁目6","lat":35.77772508,"lon":139.71860266},{"name":"赤羽西六丁目東","province":"東京都","city":"北区","address":"東京都北区桐ケ丘1丁目22-1","lat":35.77541109,"lon":139.70518998},{"name":"西が丘サッカー場裏","province":"東京都","city":"北区","address":"東京都北区西が丘3丁目15","lat":35.76766219,"lon":139.70831224},{"name":"北赤羽駅入口","province":"東京都","city":"北区","address":"東京都北区赤羽南2丁目7-7","lat":35.77297582,"lon":139.72270249},{"name":"赤羽駅西口第二","province":"東京都","city":"北区","address":"東京都北区赤羽1丁目67","lat":35.78099123,"lon":139.7185387},{"name":"赤羽南二丁目西","province":"東京都","city":"北区","address":"東京都北区赤羽南2丁目9-62","lat":35.77325355,"lon":139.72241362},{"name":"赤羽駅南ガード下","province":"東京都","city":"北区","address":"東京都北区赤羽1丁目1-26","lat":35.77603652,"lon":139.72217464},{"name":"東京北医療センター","province":"東京都","city":"北区","address":"東京都北区赤羽台4丁目17-56","lat":35.78387391,"lon":139.71141424},{"name":"区立桐ヶ丘中央公園","province":"東京都","city":"北区","address":"東京都北区桐ケ丘1丁目8","lat":35.77854405,"lon":139.70742859},{"name":"区立滝野川公園","province":"東京都","city":"北区","address":"東京都北区西ケ原2丁目1","lat":35.74541006,"lon":139.74448791},{"name":"区立北運動公園","province":"東京都","city":"北区","address":"東京都北区神谷2丁目47-6","lat":35.77383973,"lon":139.72797147},{"name":"北区立中央公園野球場","province":"東京都","city":"北区","address":"東京都北区十条台1丁目2-1","lat":35.75320885,"lon":139.72756124},{"name":"北区立十条富士見中学校校庭","province":"東京都","city":"北区","address":"東京都北区十条台1丁目9-33","lat":35.75717496,"lon":139.72321144},{"name":"荒川下流岩淵場外","province":"東京都","city":"北区","address":"東京都北区志茂4丁目19-1","lat":35.78343288,"lon":139.73218195},{"name":"北区立北運動公園","province":"東京都","city":"北区","address":"東京都北区神谷2丁目47-6","lat":35.77383973,"lon":139.72797147},{"name":"北区立赤羽スポーツの森公園","province":"東京都","city":"北区","address":"東京都北区赤羽西5丁目2","lat":35.77326984,"lon":139.71003689},{"name":"北区立赤羽自然観察公園","province":"東京都","city":"北区","address":"東京都北区赤羽西5丁目2-34","lat":35.77431419,"lon":139.71157561},{"name":"新河岸東公園・浮間子どもスポーツ広場","province":"東京都","city":"北区","address":"東京都北区浮間4丁目27-1","lat":35.78904234,"lon":139.69236003},{"name":"豊島五丁目遊び場","province":"東京都","city":"北区","address":"東京都北区豊島5丁目6-1","lat":35.76470834,"lon":139.75516113},{"name":"国立西が丘サッカー場","province":"東京都","city":"北区","address":"東京都北区西が丘3丁目15","lat":35.76766219,"lon":139.70831224},{"name":"荒川下流岩淵場外","province":"東京都","city":"北区","address":"東京都北区志茂4丁目19-1","lat":35.78343288,"lon":139.73218195},{"name":"東京都障害者総合スポーツセンター","province":"東京都","city":"北区","address":"東京都北区十条台1丁目2-2","lat":35.75376426,"lon":139.72398652},{"name":"中央・城北職業能力開発センター赤羽校","province":"東京都","city":"北区","address":"東京都北区西が丘3丁目7-8","lat":35.76595692,"lon":139.71080655},{"name":"赤羽商業高等学校","province":"東京都","city":"北区","address":"東京都北区西が丘3丁目14-20","lat":35.76984251,"lon":139.70938429},{"name":"王子総合高等学校","province":"東京都","city":"北区","address":"東京都北区滝野川3丁目54-7","lat":35.74729847,"lon":139.7308001},{"name":"飛鳥高等学校","province":"東京都","city":"北区","address":"東京都北区王子6丁目8-8","lat":35.76160544,"lon":139.73947656},{"name":"桐ヶ丘高等学校","province":"東京都","city":"北区","address":"東京都北区赤羽北3丁目5-22","lat":35.7814825,"lon":139.70672302},{"name":"つみき第３","province":"東京都","city":"北区","address":"北区王子4-24-12-301","lat":35.76158,"lon":139.737196},{"name":"つみき第５","province":"東京都","city":"北区","address":"北区豊島1-17-4-100","lat":35.758939,"lon":139.73871},{"name":"放課後等デイサービス　あんプラス","province":"東京都","city":"北区","address":"北区栄町50-3","lat":35.751298,"lon":139.746207},{"name":"こどもプラス１","province":"東京都","city":"北区","address":"北区田端新町3-34-1","lat":35.742334,"lon":139.764337},{"name":"つみき第２","province":"東京都","city":"北区","address":"北区王子本町1-19-1","lat":35.753856,"lon":139.733005},{"name":"放課後デイサービス勉強レストランそうなんだ！！","province":"東京都","city":"北区","address":"北区滝野川1-68-7早稲田ビル2階","lat":35.748068,"lon":139.733955},{"name":"このこのリーフ　滝野川","province":"東京都","city":"北区","address":"北区滝野川五丁目41番3号","lat":35.748126,"lon":139.723126},{"name":"このこのリーフ滝野川　第２","province":"東京都","city":"北区","address":"北区滝野川7-20-1笹岡ビル1階","lat":35.742496,"lon":139.720329},{"name":"飛鳥晴山苑　放課後等デイサービスさくら","province":"東京都","city":"北区","address":"北区西ケ原4-51-1","lat":35.74141,"lon":139.735978},{"name":"スキップランド　西ヶ原","province":"東京都","city":"北区","address":"北区西ケ原四丁目2番19号","lat":35.742396,"lon":139.739591},{"name":"つみき第６","province":"東京都","city":"北区","address":"北区西ケ原3-54-8-101","lat":35.744193,"lon":139.737508},{"name":"つみき第１","province":"東京都","city":"北区","address":"北区上十条1-19-6","lat":35.759352,"lon":139.723289},{"name":"放課後等デイサービス　ぴーす","province":"東京都","city":"北区","address":"北区上十条5-4-1サンタケビル1階","lat":35.764799,"lon":139.717381},{"name":"スキップランド　神谷","province":"東京都","city":"北区","address":"北区神谷二丁目23番15号","lat":35.771257,"lon":139.728288},{"name":"特定非営利活動法人クレセール心の相談室","province":"東京都","city":"北区","address":"北区赤羽1-41-5ATエミネンス2階201号室","lat":35.781599,"lon":139.719725},{"name":"第２特定非営利活動法人クレセール心の相談室","province":"東京都","city":"北区","address":"北区赤羽2-69-4ヴェルメゾン赤羽1階","lat":35.782555,"lon":139.722752},{"name":"児童デイサービス　まぁる","province":"東京都","city":"北区","address":"北区浮間四丁目32番20号松岡ビル2階","lat":35.791195,"lon":139.691607},{"name":"つみき第４","province":"東京都","city":"北区","address":"北区浮間4-5-5-101","lat":35.789051,"lon":139.697532},{"name":"放課後等デイサービスしらゆり　あそぼーよ　みんなで","province":"東京都","city":"北区","address":"北区赤羽北3丁目21番20-102号","lat":35.779105,"lon":139.705468},{"name":"北区子ども家庭支援センター","province":"東京都","city":"北区","address":"北区王子2-7-34","lat":35.757611,"lon":139.736033},{"name":"やじろべえ","province":"東京都","city":"北区","address":"北区赤羽北1-7-23","lat":35.78582,"lon":139.71375},{"name":"北区子ども家庭支援センター","province":"東京都","city":"北区","address":"北区王子6-7-3旧清至中学校別棟","lat":35.7632,"lon":139.74117},{"name":"北区子ども家庭支援センター","province":"東京都","city":"北区","address":"北区王子6-7-3旧清至中学校別棟","lat":35.762653,"lon":139.740387},{"name":"やじろべえ","province":"東京都","city":"北区","address":"北区赤羽北1-7-23","lat":35.785835,"lon":139.714308},{"name":"北区立中央公園野球場","province":"東京都","city":"北区","address":"東京都北区十条台1丁目2-1","lat":35.75320885,"lon":139.72756124},{"name":"北区立十条富士見中学校校庭","province":"東京都","city":"北区","address":"東京都北区十条台1丁目9-33","lat":35.75717496,"lon":139.72321144},{"name":"荒川下流岩淵場外","province":"東京都","city":"北区","address":"東京都北区志茂4丁目19-1","lat":35.78343288,"lon":139.73218195},{"name":"北区立北運動公園","province":"東京都","city":"北区","address":"東京都北区神谷2丁目47-6","lat":35.77383973,"lon":139.72797147},{"name":"北区立赤羽スポーツの森公園","province":"東京都","city":"北区","address":"東京都北区赤羽西5丁目2","lat":35.77326984,"lon":139.71003689},{"name":"北区立赤羽自然観察公園","province":"東京都","city":"北区","address":"東京都北区赤羽西5丁目2-34","lat":35.77431419,"lon":139.71157561},{"name":"新河岸東公園・浮間子どもスポーツ広場","province":"東京都","city":"北区","address":"東京都北区浮間4丁目27-1","lat":35.78904234,"lon":139.69236003},{"name":"豊島五丁目遊び場","province":"東京都","city":"北区","address":"東京都北区豊島5丁目6-1","lat":35.76470834,"lon":139.75516113},{"name":"国立西が丘サッカー場","province":"東京都","city":"北区","address":"東京都北区西が丘3丁目15","lat":35.76766219,"lon":139.70831224},{"name":"荒川下流岩淵場外","province":"東京都","city":"北区","address":"東京都北区志茂4丁目19-1","lat":35.78343288,"lon":139.73218195},{"name":"東京都障害者総合スポーツセンター","province":"東京都","city":"北区","address":"東京都北区十条台1丁目2-2","lat":35.75376426,"lon":139.72398652},{"name":"中央・城北職業能力開発センター赤羽校","province":"東京都","city":"北区","address":"東京都北区西が丘3丁目7-8","lat":35.76595692,"lon":139.71080655},{"name":"赤羽商業高等学校","province":"東京都","city":"北区","address":"東京都北区西が丘3丁目14-20","lat":35.76984251,"lon":139.70938429},{"name":"王子総合高等学校","province":"東京都","city":"北区","address":"東京都北区滝野川3丁目54-7","lat":35.74729847,"lon":139.7308001},{"name":"飛鳥高等学校","province":"東京都","city":"北区","address":"東京都北区王子6丁目8-8","lat":35.76160544,"lon":139.73947656},{"name":"桐ヶ丘高等学校","province":"東京都","city":"北区","address":"東京都北区赤羽北3丁目5-22","lat":35.7814825,"lon":139.70672302},{"name":"つみき第３","province":"東京都","city":"北区","address":"北区王子4-24-12-301","lat":35.76158,"lon":139.737196},{"name":"つみき第５","province":"東京都","city":"北区","address":"北区豊島1-17-4-100","lat":35.758939,"lon":139.73871},{"name":"放課後等デイサービス　あんプラス","province":"東京都","city":"北区","address":"北区栄町50-3","lat":35.751298,"lon":139.746207},{"name":"こどもプラス１","province":"東京都","city":"北区","address":"北区田端新町3-34-1","lat":35.742334,"lon":139.764337},{"name":"つみき第２","province":"東京都","city":"北区","address":"北区王子本町1-19-1","lat":35.753856,"lon":139.733005},{"name":"放課後デイサービス勉強レストランそうなんだ！！","province":"東京都","city":"北区","address":"北区滝野川1-68-7早稲田ビル2階","lat":35.748068,"lon":139.733955},{"name":"このこのリーフ　滝野川","province":"東京都","city":"北区","address":"北区滝野川五丁目41番3号","lat":35.748126,"lon":139.723126},{"name":"このこのリーフ滝野川　第２","province":"東京都","city":"北区","address":"北区滝野川7-20-1笹岡ビル1階","lat":35.742496,"lon":139.720329},{"name":"飛鳥晴山苑　放課後等デイサービスさくら","province":"東京都","city":"北区","address":"北区西ケ原4-51-1","lat":35.74141,"lon":139.735978},{"name":"スキップランド　西ヶ原","province":"東京都","city":"北区","address":"北区西ケ原四丁目2番19号","lat":35.742396,"lon":139.739591},{"name":"つみき第６","province":"東京都","city":"北区","address":"北区西ケ原3-54-8-101","lat":35.744193,"lon":139.737508},{"name":"つみき第１","province":"東京都","city":"北区","address":"北区上十条1-19-6","lat":35.759352,"lon":139.723289},{"name":"放課後等デイサービス　ぴーす","province":"東京都","city":"北区","address":"北区上十条5-4-1サンタケビル1階","lat":35.764799,"lon":139.717381},{"name":"スキップランド　神谷","province":"東京都","city":"北区","address":"北区神谷二丁目23番15号","lat":35.771257,"lon":139.728288},{"name":"特定非営利活動法人クレセール心の相談室","province":"東京都","city":"北区","address":"北区赤羽1-41-5ATエミネンス2階201号室","lat":35.781599,"lon":139.719725},{"name":"第２特定非営利活動法人クレセール心の相談室","province":"東京都","city":"北区","address":"北区赤羽2-69-4ヴェルメゾン赤羽1階","lat":35.782555,"lon":139.722752},{"name":"児童デイサービス　まぁる","province":"東京都","city":"北区","address":"北区浮間四丁目32番20号松岡ビル2階","lat":35.791195,"lon":139.691607},{"name":"つみき第４","province":"東京都","city":"北区","address":"北区浮間4-5-5-101","lat":35.789051,"lon":139.697532},{"name":"放課後等デイサービスしらゆり　あそぼーよ　みんなで","province":"東京都","city":"北区","address":"北区赤羽北3丁目21番20-102号","lat":35.779105,"lon":139.705468},{"name":"北区子ども家庭支援センター","province":"東京都","city":"北区","address":"北区王子2-7-34","lat":35.757611,"lon":139.736033},{"name":"やじろべえ","province":"東京都","city":"北区","address":"北区赤羽北1-7-23","lat":35.78582,"lon":139.71375},{"name":"北区子ども家庭支援センター","province":"東京都","city":"北区","address":"北区王子6-7-3旧清至中学校別棟","lat":35.7632,"lon":139.74117},{"name":"北区子ども家庭支援センター","province":"東京都","city":"北区","address":"北区王子6-7-3旧清至中学校別棟","lat":35.762653,"lon":139.740387},{"name":"やじろべえ","province":"東京都","city":"北区","address":"北区赤羽北1-7-23","lat":35.785835,"lon":139.714308},{"name":"東京都障害者総合スポーツセンター","province":"東京都","city":"北区","address":"東京都北区十条台1丁目2-2","lat":35.75376426,"lon":139.72398652},{"name":"中央・城北職業能力開発センター赤羽校","province":"東京都","city":"北区","address":"東京都北区西が丘3丁目7-8","lat":35.76595692,"lon":139.71080655},{"name":"赤羽商業高等学校","province":"東京都","city":"北区","address":"東京都北区西が丘3丁目14-20","lat":35.76984251,"lon":139.70938429},{"name":"王子総合高等学校","province":"東京都","city":"北区","address":"東京都北区滝野川3丁目54-7","lat":35.74729847,"lon":139.7308001},{"name":"飛鳥高等学校","province":"東京都","city":"北区","address":"東京都北区王子6丁目8-8","lat":35.76160544,"lon":139.73947656},{"name":"桐ヶ丘高等学校","province":"東京都","city":"北区","address":"東京都北区赤羽北3丁目5-22","lat":35.7814825,"lon":139.70672302},{"name":"つみき第３","province":"東京都","city":"北区","address":"北区王子4-24-12-301","lat":35.76158,"lon":139.737196},{"name":"つみき第５","province":"東京都","city":"北区","address":"北区豊島1-17-4-100","lat":35.758939,"lon":139.73871},{"name":"放課後等デイサービス　あんプラス","province":"東京都","city":"北区","address":"北区栄町50-3","lat":35.751298,"lon":139.746207},{"name":"こどもプラス１","province":"東京都","city":"北区","address":"北区田端新町3-34-1","lat":35.742334,"lon":139.764337},{"name":"つみき第２","province":"東京都","city":"北区","address":"北区王子本町1-19-1","lat":35.753856,"lon":139.733005},{"name":"放課後デイサービス勉強レストランそうなんだ！！","province":"東京都","city":"北区","address":"北区滝野川1-68-7早稲田ビル2階","lat":35.748068,"lon":139.733955},{"name":"このこのリーフ　滝野川","province":"東京都","city":"北区","address":"北区滝野川五丁目41番3号","lat":35.748126,"lon":139.723126},{"name":"このこのリーフ滝野川　第２","province":"東京都","city":"北区","address":"北区滝野川7-20-1笹岡ビル1階","lat":35.742496,"lon":139.720329},{"name":"飛鳥晴山苑　放課後等デイサービスさくら","province":"東京都","city":"北区","address":"北区西ケ原4-51-1","lat":35.74141,"lon":139.735978},{"name":"スキップランド　西ヶ原","province":"東京都","city":"北区","address":"北区西ケ原四丁目2番19号","lat":35.742396,"lon":139.739591},{"name":"つみき第６","province":"東京都","city":"北区","address":"北区西ケ原3-54-8-101","lat":35.744193,"lon":139.737508},{"name":"つみき第１","province":"東京都","city":"北区","address":"北区上十条1-19-6","lat":35.759352,"lon":139.723289},{"name":"放課後等デイサービス　ぴーす","province":"東京都","city":"北区","address":"北区上十条5-4-1サンタケビル1階","lat":35.764799,"lon":139.717381},{"name":"スキップランド　神谷","province":"東京都","city":"北区","address":"北区神谷二丁目23番15号","lat":35.771257,"lon":139.728288},{"name":"特定非営利活動法人クレセール心の相談室","province":"東京都","city":"北区","address":"北区赤羽1-41-5ATエミネンス2階201号室","lat":35.781599,"lon":139.719725},{"name":"第２特定非営利活動法人クレセール心の相談室","province":"東京都","city":"北区","address":"北区赤羽2-69-4ヴェルメゾン赤羽1階","lat":35.782555,"lon":139.722752},{"name":"児童デイサービス　まぁる","province":"東京都","city":"北区","address":"北区浮間四丁目32番20号松岡ビル2階","lat":35.791195,"lon":139.691607},{"name":"つみき第４","province":"東京都","city":"北区","address":"北区浮間4-5-5-101","lat":35.789051,"lon":139.697532},{"name":"放課後等デイサービスしらゆり　あそぼーよ　みんなで","province":"東京都","city":"北区","address":"北区赤羽北3丁目21番20-102号","lat":35.779105,"lon":139.705468},{"name":"北区子ども家庭支援センター","province":"東京都","city":"北区","address":"北区王子2-7-34","lat":35.757611,"lon":139.736033},{"name":"やじろべえ","province":"東京都","city":"北区","address":"北区赤羽北1-7-23","lat":35.78582,"lon":139.71375},{"name":"北区子ども家庭支援センター","province":"東京都","city":"北区","address":"北区王子6-7-3旧清至中学校別棟","lat":35.7632,"lon":139.74117},{"name":"北区子ども家庭支援センター","province":"東京都","city":"北区","address":"北区王子6-7-3旧清至中学校別棟","lat":35.762653,"lon":139.740387},{"name":"やじろべえ","province":"東京都","city":"北区","address":"北区赤羽北1-7-23","lat":35.785835,"lon":139.714308},{"name":"東京都障害者総合スポーツセンター","province":"東京都","city":"北区","address":"東京都北区十条台1丁目2-2","lat":35.75376426,"lon":139.72398652},{"name":"中央・城北職業能力開発センター赤羽校","province":"東京都","city":"北区","address":"東京都北区西が丘3丁目7-8","lat":35.76595692,"lon":139.71080655},{"name":"赤羽商業高等学校","province":"東京都","city":"北区","address":"東京都北区西が丘3丁目14-20","lat":35.76984251,"lon":139.70938429},{"name":"王子総合高等学校","province":"東京都","city":"北区","address":"東京都北区滝野川3丁目54-7","lat":35.74729847,"lon":139.7308001},{"name":"飛鳥高等学校","province":"東京都","city":"北区","address":"東京都北区王子6丁目8-8","lat":35.76160544,"lon":139.73947656},{"name":"桐ヶ丘高等学校","province":"東京都","city":"北区","address":"東京都北区赤羽北3丁目5-22","lat":35.7814825,"lon":139.70672302},{"name":"つみき第３","province":"東京都","city":"北区","address":"北区王子4-24-12-301","lat":35.76158,"lon":139.737196},{"name":"つみき第５","province":"東京都","city":"北区","address":"北区豊島1-17-4-100","lat":35.758939,"lon":139.73871},{"name":"放課後等デイサービス　あんプラス","province":"東京都","city":"北区","address":"北区栄町50-3","lat":35.751298,"lon":139.746207},{"name":"こどもプラス１","province":"東京都","city":"北区","address":"北区田端新町3-34-1","lat":35.742334,"lon":139.764337},{"name":"つみき第２","province":"東京都","city":"北区","address":"北区王子本町1-19-1","lat":35.753856,"lon":139.733005},{"name":"放課後デイサービス勉強レストランそうなんだ！！","province":"東京都","city":"北区","address":"北区滝野川1-68-7早稲田ビル2階","lat":35.748068,"lon":139.733955},{"name":"このこのリーフ　滝野川","province":"東京都","city":"北区","address":"北区滝野川五丁目41番3号","lat":35.748126,"lon":139.723126},{"name":"このこのリーフ滝野川　第２","province":"東京都","city":"北区","address":"北区滝野川7-20-1笹岡ビル1階","lat":35.742496,"lon":139.720329},{"name":"飛鳥晴山苑　放課後等デイサービスさくら","province":"東京都","city":"北区","address":"北区西ケ原4-51-1","lat":35.74141,"lon":139.735978},{"name":"スキップランド　西ヶ原","province":"東京都","city":"北区","address":"北区西ケ原四丁目2番19号","lat":35.742396,"lon":139.739591},{"name":"つみき第６","province":"東京都","city":"北区","address":"北区西ケ原3-54-8-101","lat":35.744193,"lon":139.737508},{"name":"つみき第１","province":"東京都","city":"北区","address":"北区上十条1-19-6","lat":35.759352,"lon":139.723289},{"name":"放課後等デイサービス　ぴーす","province":"東京都","city":"北区","address":"北区上十条5-4-1サンタケビル1階","lat":35.764799,"lon":139.717381},{"name":"スキップランド　神谷","province":"東京都","city":"北区","address":"北区神谷二丁目23番15号","lat":35.771257,"lon":139.728288},{"name":"特定非営利活動法人クレセール心の相談室","province":"東京都","city":"北区","address":"北区赤羽1-41-5ATエミネンス2階201号室","lat":35.781599,"lon":139.719725},{"name":"第２特定非営利活動法人クレセール心の相談室","province":"東京都","city":"北区","address":"北区赤羽2-69-4ヴェルメゾン赤羽1階","lat":35.782555,"lon":139.722752},{"name":"児童デイサービス　まぁる","province":"東京都","city":"北区","address":"北区浮間四丁目32番20号松岡ビル2階","lat":35.791195,"lon":139.691607},{"name":"つみき第４","province":"東京都","city":"北区","address":"北区浮間4-5-5-101","lat":35.789051,"lon":139.697532},{"name":"放課後等デイサービスしらゆり　あそぼーよ　みんなで","province":"東京都","city":"北区","address":"北区赤羽北3丁目21番20-102号","lat":35.779105,"lon":139.705468},{"name":"北区子ども家庭支援センター","province":"東京都","city":"北区","address":"北区王子2-7-34","lat":35.757611,"lon":139.736033},{"name":"やじろべえ","province":"東京都","city":"北区","address":"北区赤羽北1-7-23","lat":35.78582,"lon":139.71375},{"name":"北区子ども家庭支援センター","province":"東京都","city":"北区","address":"北区王子6-7-3旧清至中学校別棟","lat":35.7632,"lon":139.74117},{"name":"北区子ども家庭支援センター","province":"東京都","city":"北区","address":"北区王子6-7-3旧清至中学校別棟","lat":35.762653,"lon":139.740387},{"name":"やじろべえ","province":"東京都","city":"北区","address":"北区赤羽北1-7-23","lat":35.785835,"lon":139.714308},{"name":"東京都障害者総合スポーツセンター","province":"東京都","city":"北区","address":"東京都北区十条台1丁目2-2","lat":35.75376426,"lon":139.72398652},{"name":"中央・城北職業能力開発センター赤羽校","province":"東京都","city":"北区","address":"東京都北区西が丘3丁目7-8","lat":35.76595692,"lon":139.71080655},{"name":"赤羽商業高等学校","province":"東京都","city":"北区","address":"東京都北区西が丘3丁目14-20","lat":35.76984251,"lon":139.70938429},{"name":"王子総合高等学校","province":"東京都","city":"北区","address":"東京都北区滝野川3丁目54-7","lat":35.74729847,"lon":139.7308001},{"name":"飛鳥高等学校","province":"東京都","city":"北区","address":"東京都北区王子6丁目8-8","lat":35.76160544,"lon":139.73947656},{"name":"桐ヶ丘高等学校","province":"東京都","city":"北区","address":"東京都北区赤羽北3丁目5-22","lat":35.7814825,"lon":139.70672302},{"name":"つみき第３","province":"東京都","city":"北区","address":"北区王子4-24-12-301","lat":35.76158,"lon":139.737196},{"name":"つみき第５","province":"東京都","city":"北区","address":"北区豊島1-17-4-100","lat":35.758939,"lon":139.73871},{"name":"放課後等デイサービス　あんプラス","province":"東京都","city":"北区","address":"北区栄町50-3","lat":35.751298,"lon":139.746207},{"name":"こどもプラス１","province":"東京都","city":"北区","address":"北区田端新町3-34-1","lat":35.742334,"lon":139.764337},{"name":"つみき第２","province":"東京都","city":"北区","address":"北区王子本町1-19-1","lat":35.753856,"lon":139.733005},{"name":"放課後デイサービス勉強レストランそうなんだ！！","province":"東京都","city":"北区","address":"北区滝野川1-68-7早稲田ビル2階","lat":35.748068,"lon":139.733955},{"name":"このこのリーフ　滝野川","province":"東京都","city":"北区","address":"北区滝野川五丁目41番3号","lat":35.748126,"lon":139.723126},{"name":"このこのリーフ滝野川　第２","province":"東京都","city":"北区","address":"北区滝野川7-20-1笹岡ビル1階","lat":35.742496,"lon":139.720329},{"name":"飛鳥晴山苑　放課後等デイサービスさくら","province":"東京都","city":"北区","address":"北区西ケ原4-51-1","lat":35.74141,"lon":139.735978},{"name":"スキップランド　西ヶ原","province":"東京都","city":"北区","address":"北区西ケ原四丁目2番19号","lat":35.742396,"lon":139.739591},{"name":"つみき第６","province":"東京都","city":"北区","address":"北区西ケ原3-54-8-101","lat":35.744193,"lon":139.737508},{"name":"つみき第１","province":"東京都","city":"北区","address":"北区上十条1-19-6","lat":35.759352,"lon":139.723289},{"name":"放課後等デイサービス　ぴーす","province":"東京都","city":"北区","address":"北区上十条5-4-1サンタケビル1階","lat":35.764799,"lon":139.717381},{"name":"スキップランド　神谷","province":"東京都","city":"北区","address":"北区神谷二丁目23番15号","lat":35.771257,"lon":139.728288},{"name":"特定非営利活動法人クレセール心の相談室","province":"東京都","city":"北区","address":"北区赤羽1-41-5ATエミネンス2階201号室","lat":35.781599,"lon":139.719725},{"name":"第２特定非営利活動法人クレセール心の相談室","province":"東京都","city":"北区","address":"北区赤羽2-69-4ヴェルメゾン赤羽1階","lat":35.782555,"lon":139.722752},{"name":"児童デイサービス　まぁる","province":"東京都","city":"北区","address":"北区浮間四丁目32番20号松岡ビル2階","lat":35.791195,"lon":139.691607},{"name":"つみき第４","province":"東京都","city":"北区","address":"北区浮間4-5-5-101","lat":35.789051,"lon":139.697532},{"name":"放課後等デイサービスしらゆり　あそぼーよ　みんなで","province":"東京都","city":"北区","address":"北区赤羽北3丁目21番20-102号","lat":35.779105,"lon":139.705468},{"name":"北区子ども家庭支援センター","province":"東京都","city":"北区","address":"北区王子2-7-34","lat":35.757611,"lon":139.736033},{"name":"やじろべえ","province":"東京都","city":"北区","address":"北区赤羽北1-7-23","lat":35.78582,"lon":139.71375},{"name":"北区子ども家庭支援センター","province":"東京都","city":"北区","address":"北区王子6-7-3旧清至中学校別棟","lat":35.7632,"lon":139.74117},{"name":"北区子ども家庭支援センター","province":"東京都","city":"北区","address":"北区王子6-7-3旧清至中学校別棟","lat":35.762653,"lon":139.740387},{"name":"やじろべえ","province":"東京都","city":"北区","address":"北区赤羽北1-7-23","lat":35.785835,"lon":139.714308},{"name":"東京都障害者総合スポーツセンター","province":"東京都","city":"北区","address":"東京都北区十条台1丁目2-2","lat":35.75376426,"lon":139.72398652},{"name":"中央・城北職業能力開発センター赤羽校","province":"東京都","city":"北区","address":"東京都北区西が丘3丁目7-8","lat":35.76595692,"lon":139.71080655},{"name":"赤羽商業高等学校","province":"東京都","city":"北区","address":"東京都北区西が丘3丁目14-20","lat":35.76984251,"lon":139.70938429},{"name":"王子総合高等学校","province":"東京都","city":"北区","address":"東京都北区滝野川3丁目54-7","lat":35.74729847,"lon":139.7308001},{"name":"飛鳥高等学校","province":"東京都","city":"北区","address":"東京都北区王子6丁目8-8","lat":35.76160544,"lon":139.73947656},{"name":"桐ヶ丘高等学校","province":"東京都","city":"北区","address":"東京都北区赤羽北3丁目5-22","lat":35.7814825,"lon":139.70672302},{"name":"つみき第３","province":"東京都","city":"北区","address":"北区王子4-24-12-301","lat":35.76158,"lon":139.737196},{"name":"つみき第５","province":"東京都","city":"北区","address":"北区豊島1-17-4-100","lat":35.758939,"lon":139.73871},{"name":"放課後等デイサービス　あんプラス","province":"東京都","city":"北区","address":"北区栄町50-3","lat":35.751298,"lon":139.746207},{"name":"こどもプラス１","province":"東京都","city":"北区","address":"北区田端新町3-34-1","lat":35.742334,"lon":139.764337},{"name":"つみき第２","province":"東京都","city":"北区","address":"北区王子本町1-19-1","lat":35.753856,"lon":139.733005},{"name":"放課後デイサービス勉強レストランそうなんだ！！","province":"東京都","city":"北区","address":"北区滝野川1-68-7早稲田ビル2階","lat":35.748068,"lon":139.733955},{"name":"このこのリーフ　滝野川","province":"東京都","city":"北区","address":"北区滝野川五丁目41番3号","lat":35.748126,"lon":139.723126},{"name":"このこのリーフ滝野川　第２","province":"東京都","city":"北区","address":"北区滝野川7-20-1笹岡ビル1階","lat":35.742496,"lon":139.720329},{"name":"飛鳥晴山苑　放課後等デイサービスさくら","province":"東京都","city":"北区","address":"北区西ケ原4-51-1","lat":35.74141,"lon":139.735978},{"name":"スキップランド　西ヶ原","province":"東京都","city":"北区","address":"北区西ケ原四丁目2番19号","lat":35.742396,"lon":139.739591},{"name":"つみき第６","province":"東京都","city":"北区","address":"北区西ケ原3-54-8-101","lat":35.744193,"lon":139.737508},{"name":"つみき第１","province":"東京都","city":"北区","address":"北区上十条1-19-6","lat":35.759352,"lon":139.723289},{"name":"放課後等デイサービス　ぴーす","province":"東京都","city":"北区","address":"北区上十条5-4-1サンタケビル1階","lat":35.764799,"lon":139.717381},{"name":"スキップランド　神谷","province":"東京都","city":"北区","address":"北区神谷二丁目23番15号","lat":35.771257,"lon":139.728288},{"name":"特定非営利活動法人クレセール心の相談室","province":"東京都","city":"北区","address":"北区赤羽1-41-5ATエミネンス2階201号室","lat":35.781599,"lon":139.719725},{"name":"第２特定非営利活動法人クレセール心の相談室","province":"東京都","city":"北区","address":"北区赤羽2-69-4ヴェルメゾン赤羽1階","lat":35.782555,"lon":139.722752},{"name":"児童デイサービス　まぁる","province":"東京都","city":"北区","address":"北区浮間四丁目32番20号松岡ビル2階","lat":35.791195,"lon":139.691607},{"name":"つみき第４","province":"東京都","city":"北区","address":"北区浮間4-5-5-101","lat":35.789051,"lon":139.697532},{"name":"放課後等デイサービスしらゆり　あそぼーよ　みんなで","province":"東京都","city":"北区","address":"北区赤羽北3丁目21番20-102号","lat":35.779105,"lon":139.705468},{"name":"北区子ども家庭支援センター","province":"東京都","city":"北区","address":"北区王子2-7-34","lat":35.757611,"lon":139.736033},{"name":"やじろべえ","province":"東京都","city":"北区","address":"北区赤羽北1-7-23","lat":35.78582,"lon":139.71375},{"name":"北区子ども家庭支援センター","province":"東京都","city":"北区","address":"北区王子6-7-3旧清至中学校別棟","lat":35.7632,"lon":139.74117},{"name":"北区子ども家庭支援センター","province":"東京都","city":"北区","address":"北区王子6-7-3旧清至中学校別棟","lat":35.762653,"lon":139.740387},{"name":"やじろべえ","province":"東京都","city":"北区","address":"北区赤羽北1-7-23","lat":35.785835,"lon":139.714308},{"name":"東京都障害者総合スポーツセンター","province":"東京都","city":"北区","address":"東京都北区十条台1丁目2-2","lat":35.75376426,"lon":139.72398652},{"name":"中央・城北職業能力開発センター赤羽校","province":"東京都","city":"北区","address":"東京都北区西が丘3丁目7-8","lat":35.76595692,"lon":139.71080655},{"name":"赤羽商業高等学校","province":"東京都","city":"北区","address":"東京都北区西が丘3丁目14-20","lat":35.76984251,"lon":139.70938429},{"name":"王子総合高等学校","province":"東京都","city":"北区","address":"東京都北区滝野川3丁目54-7","lat":35.74729847,"lon":139.7308001},{"name":"飛鳥高等学校","province":"東京都","city":"北区","address":"東京都北区王子6丁目8-8","lat":35.76160544,"lon":139.73947656},{"name":"桐ヶ丘高等学校","province":"東京都","city":"北区","address":"東京都北区赤羽北3丁目5-22","lat":35.7814825,"lon":139.70672302},{"name":"つみき第３","province":"東京都","city":"北区","address":"北区王子4-24-12-301","lat":35.76158,"lon":139.737196},{"name":"つみき第５","province":"東京都","city":"北区","address":"北区豊島1-17-4-100","lat":35.758939,"lon":139.73871},{"name":"放課後等デイサービス　あんプラス","province":"東京都","city":"北区","address":"北区栄町50-3","lat":35.751298,"lon":139.746207},{"name":"こどもプラス１","province":"東京都","city":"北区","address":"北区田端新町3-34-1","lat":35.742334,"lon":139.764337},{"name":"つみき第２","province":"東京都","city":"北区","address":"北区王子本町1-19-1","lat":35.753856,"lon":139.733005},{"name":"放課後デイサービス勉強レストランそうなんだ！！","province":"東京都","city":"北区","address":"北区滝野川1-68-7早稲田ビル2階","lat":35.748068,"lon":139.733955},{"name":"このこのリーフ　滝野川","province":"東京都","city":"北区","address":"北区滝野川五丁目41番3号","lat":35.748126,"lon":139.723126},{"name":"このこのリーフ滝野川　第２","province":"東京都","city":"北区","address":"北区滝野川7-20-1笹岡ビル1階","lat":35.742496,"lon":139.720329},{"name":"飛鳥晴山苑　放課後等デイサービスさくら","province":"東京都","city":"北区","address":"北区西ケ原4-51-1","lat":35.74141,"lon":139.735978},{"name":"スキップランド　西ヶ原","province":"東京都","city":"北区","address":"北区西ケ原四丁目2番19号","lat":35.742396,"lon":139.739591},{"name":"つみき第６","province":"東京都","city":"北区","address":"北区西ケ原3-54-8-101","lat":35.744193,"lon":139.737508},{"name":"つみき第１","province":"東京都","city":"北区","address":"北区上十条1-19-6","lat":35.759352,"lon":139.723289},{"name":"放課後等デイサービス　ぴーす","province":"東京都","city":"北区","address":"北区上十条5-4-1サンタケビル1階","lat":35.764799,"lon":139.717381},{"name":"スキップランド　神谷","province":"東京都","city":"北区","address":"北区神谷二丁目23番15号","lat":35.771257,"lon":139.728288},{"name":"特定非営利活動法人クレセール心の相談室","province":"東京都","city":"北区","address":"北区赤羽1-41-5ATエミネンス2階201号室","lat":35.781599,"lon":139.719725},{"name":"第２特定非営利活動法人クレセール心の相談室","province":"東京都","city":"北区","address":"北区赤羽2-69-4ヴェルメゾン赤羽1階","lat":35.782555,"lon":139.722752},{"name":"児童デイサービス　まぁる","province":"東京都","city":"北区","address":"北区浮間四丁目32番20号松岡ビル2階","lat":35.791195,"lon":139.691607},{"name":"つみき第４","province":"東京都","city":"北区","address":"北区浮間4-5-5-101","lat":35.789051,"lon":139.697532},{"name":"放課後等デイサービスしらゆり　あそぼーよ　みんなで","province":"東京都","city":"北区","address":"北区赤羽北3丁目21番20-102号","lat":35.779105,"lon":139.705468},{"name":"北区子ども家庭支援センター","province":"東京都","city":"北区","address":"北区王子2-7-34","lat":35.757611,"lon":139.736033},{"name":"やじろべえ","province":"東京都","city":"北区","address":"北区赤羽北1-7-23","lat":35.78582,"lon":139.71375},{"name":"北区子ども家庭支援センター","province":"東京都","city":"北区","address":"北区王子6-7-3旧清至中学校別棟","lat":35.7632,"lon":139.74117},{"name":"北区子ども家庭支援センター","province":"東京都","city":"北区","address":"北区王子6-7-3旧清至中学校別棟","lat":35.762653,"lon":139.740387},{"name":"やじろべえ","province":"東京都","city":"北区","address":"北区赤羽北1-7-23","lat":35.785835,"lon":139.714308},{"name":"東京都障害者総合スポーツセンター","province":"東京都","city":"北区","address":"東京都北区十条台1丁目2-2","lat":35.75376426,"lon":139.72398652},{"name":"中央・城北職業能力開発センター赤羽校","province":"東京都","city":"北区","address":"東京都北区西が丘3丁目7-8","lat":35.76595692,"lon":139.71080655},{"name":"赤羽商業高等学校","province":"東京都","city":"北区","address":"東京都北区西が丘3丁目14-20","lat":35.76984251,"lon":139.70938429},{"name":"王子総合高等学校","province":"東京都","city":"北区","address":"東京都北区滝野川3丁目54-7","lat":35.74729847,"lon":139.7308001},{"name":"飛鳥高等学校","province":"東京都","city":"北区","address":"東京都北区王子6丁目8-8","lat":35.76160544,"lon":139.73947656},{"name":"桐ヶ丘高等学校","province":"東京都","city":"北区","address":"東京都北区赤羽北3丁目5-22","lat":35.7814825,"lon":139.70672302},{"name":"つみき第３","province":"東京都","city":"北区","address":"北区王子4-24-12-301","lat":35.76158,"lon":139.737196},{"name":"つみき第５","province":"東京都","city":"北区","address":"北区豊島1-17-4-100","lat":35.758939,"lon":139.73871},{"name":"放課後等デイサービス　あんプラス","province":"東京都","city":"北区","address":"北区栄町50-3","lat":35.751298,"lon":139.746207},{"name":"こどもプラス１","province":"東京都","city":"北区","address":"北区田端新町3-34-1","lat":35.742334,"lon":139.764337},{"name":"つみき第２","province":"東京都","city":"北区","address":"北区王子本町1-19-1","lat":35.753856,"lon":139.733005},{"name":"放課後デイサービス勉強レストランそうなんだ！！","province":"東京都","city":"北区","address":"北区滝野川1-68-7早稲田ビル2階","lat":35.748068,"lon":139.733955},{"name":"このこのリーフ　滝野川","province":"東京都","city":"北区","address":"北区滝野川五丁目41番3号","lat":35.748126,"lon":139.723126},{"name":"このこのリーフ滝野川　第２","province":"東京都","city":"北区","address":"北区滝野川7-20-1笹岡ビル1階","lat":35.742496,"lon":139.720329},{"name":"飛鳥晴山苑　放課後等デイサービスさくら","province":"東京都","city":"北区","address":"北区西ケ原4-51-1","lat":35.74141,"lon":139.735978},{"name":"スキップランド　西ヶ原","province":"東京都","city":"北区","address":"北区西ケ原四丁目2番19号","lat":35.742396,"lon":139.739591},{"name":"つみき第６","province":"東京都","city":"北区","address":"北区西ケ原3-54-8-101","lat":35.744193,"lon":139.737508},{"name":"つみき第１","province":"東京都","city":"北区","address":"北区上十条1-19-6","lat":35.759352,"lon":139.723289},{"name":"放課後等デイサービス　ぴーす","province":"東京都","city":"北区","address":"北区上十条5-4-1サンタケビル1階","lat":35.764799,"lon":139.717381},{"name":"スキップランド　神谷","province":"東京都","city":"北区","address":"北区神谷二丁目23番15号","lat":35.771257,"lon":139.728288},{"name":"特定非営利活動法人クレセール心の相談室","province":"東京都","city":"北区","address":"北区赤羽1-41-5ATエミネンス2階201号室","lat":35.781599,"lon":139.719725},{"name":"第２特定非営利活動法人クレセール心の相談室","province":"東京都","city":"北区","address":"北区赤羽2-69-4ヴェルメゾン赤羽1階","lat":35.782555,"lon":139.722752},{"name":"児童デイサービス　まぁる","province":"東京都","city":"北区","address":"北区浮間四丁目32番20号松岡ビル2階","lat":35.791195,"lon":139.691607},{"name":"つみき第４","province":"東京都","city":"北区","address":"北区浮間4-5-5-101","lat":35.789051,"lon":139.697532},{"name":"放課後等デイサービスしらゆり　あそぼーよ　みんなで","province":"東京都","city":"北区","address":"北区赤羽北3丁目21番20-102号","lat":35.779105,"lon":139.705468},{"name":"北区子ども家庭支援センター","province":"東京都","city":"北区","address":"北区王子2-7-34","lat":35.757611,"lon":139.736033},{"name":"やじろべえ","province":"東京都","city":"北区","address":"北区赤羽北1-7-23","lat":35.78582,"lon":139.71375},{"name":"北区子ども家庭支援センター","province":"東京都","city":"北区","address":"北区王子6-7-3旧清至中学校別棟","lat":35.7632,"lon":139.74117},{"name":"北区子ども家庭支援センター","province":"東京都","city":"北区","address":"北区王子6-7-3旧清至中学校別棟","lat":35.762653,"lon":139.740387},{"name":"やじろべえ","province":"東京都","city":"北区","address":"北区赤羽北1-7-23","lat":35.785835,"lon":139.714308},{"name":"東京都障害者総合スポーツセンター","province":"東京都","city":"北区","address":"東京都北区十条台1丁目2-2","lat":35.75376426,"lon":139.72398652},{"name":"中央・城北職業能力開発センター赤羽校","province":"東京都","city":"北区","address":"東京都北区西が丘3丁目7-8","lat":35.76595692,"lon":139.71080655},{"name":"赤羽商業高等学校","province":"東京都","city":"北区","address":"東京都北区西が丘3丁目14-20","lat":35.76984251,"lon":139.70938429},{"name":"王子総合高等学校","province":"東京都","city":"北区","address":"東京都北区滝野川3丁目54-7","lat":35.74729847,"lon":139.7308001},{"name":"飛鳥高等学校","province":"東京都","city":"北区","address":"東京都北区王子6丁目8-8","lat":35.76160544,"lon":139.73947656},{"name":"桐ヶ丘高等学校","province":"東京都","city":"北区","address":"東京都北区赤羽北3丁目5-22","lat":35.7814825,"lon":139.70672302},{"name":"つみき第３","province":"東京都","city":"北区","address":"北区王子4-24-12-301","lat":35.76158,"lon":139.737196},{"name":"つみき第５","province":"東京都","city":"北区","address":"北区豊島1-17-4-100","lat":35.758939,"lon":139.73871},{"name":"放課後等デイサービス　あんプラス","province":"東京都","city":"北区","address":"北区栄町50-3","lat":35.751298,"lon":139.746207},{"name":"こどもプラス１","province":"東京都","city":"北区","address":"北区田端新町3-34-1","lat":35.742334,"lon":139.764337},{"name":"つみき第２","province":"東京都","city":"北区","address":"北区王子本町1-19-1","lat":35.753856,"lon":139.733005},{"name":"放課後デイサービス勉強レストランそうなんだ！！","province":"東京都","city":"北区","address":"北区滝野川1-68-7早稲田ビル2階","lat":35.748068,"lon":139.733955},{"name":"このこのリーフ　滝野川","province":"東京都","city":"北区","address":"北区滝野川五丁目41番3号","lat":35.748126,"lon":139.723126},{"name":"このこのリーフ滝野川　第２","province":"東京都","city":"北区","address":"北区滝野川7-20-1笹岡ビル1階","lat":35.742496,"lon":139.720329},{"name":"飛鳥晴山苑　放課後等デイサービスさくら","province":"東京都","city":"北区","address":"北区西ケ原4-51-1","lat":35.74141,"lon":139.735978},{"name":"スキップランド　西ヶ原","province":"東京都","city":"北区","address":"北区西ケ原四丁目2番19号","lat":35.742396,"lon":139.739591},{"name":"つみき第６","province":"東京都","city":"北区","address":"北区西ケ原3-54-8-101","lat":35.744193,"lon":139.737508},{"name":"つみき第１","province":"東京都","city":"北区","address":"北区上十条1-19-6","lat":35.759352,"lon":139.723289},{"name":"放課後等デイサービス　ぴーす","province":"東京都","city":"北区","address":"北区上十条5-4-1サンタケビル1階","lat":35.764799,"lon":139.717381},{"name":"スキップランド　神谷","province":"東京都","city":"北区","address":"北区神谷二丁目23番15号","lat":35.771257,"lon":139.728288},{"name":"特定非営利活動法人クレセール心の相談室","province":"東京都","city":"北区","address":"北区赤羽1-41-5ATエミネンス2階201号室","lat":35.781599,"lon":139.719725},{"name":"第２特定非営利活動法人クレセール心の相談室","province":"東京都","city":"北区","address":"北区赤羽2-69-4ヴェルメゾン赤羽1階","lat":35.782555,"lon":139.722752},{"name":"児童デイサービス　まぁる","province":"東京都","city":"北区","address":"北区浮間四丁目32番20号松岡ビル2階","lat":35.791195,"lon":139.691607},{"name":"つみき第４","province":"東京都","city":"北区","address":"北区浮間4-5-5-101","lat":35.789051,"lon":139.697532},{"name":"放課後等デイサービスしらゆり　あそぼーよ　みんなで","province":"東京都","city":"北区","address":"北区赤羽北3丁目21番20-102号","lat":35.779105,"lon":139.705468},{"name":"北区子ども家庭支援センター","province":"東京都","city":"北区","address":"北区王子2-7-34","lat":35.757611,"lon":139.736033},{"name":"やじろべえ","province":"東京都","city":"北区","address":"北区赤羽北1-7-23","lat":35.78582,"lon":139.71375},{"name":"北区子ども家庭支援センター","province":"東京都","city":"北区","address":"北区王子6-7-3旧清至中学校別棟","lat":35.7632,"lon":139.74117},{"name":"北区子ども家庭支援センター","province":"東京都","city":"北区","address":"北区王子6-7-3旧清至中学校別棟","lat":35.762653,"lon":139.740387},{"name":"やじろべえ","province":"東京都","city":"北区","address":"北区赤羽北1-7-23","lat":35.785835,"lon":139.714308},{"name":"東京都障害者総合スポーツセンター","province":"東京都","city":"北区","address":"東京都北区十条台1丁目2-2","lat":35.75376426,"lon":139.72398652},{"name":"中央・城北職業能力開発センター赤羽校","province":"東京都","city":"北区","address":"東京都北区西が丘3丁目7-8","lat":35.76595692,"lon":139.71080655},{"name":"赤羽商業高等学校","province":"東京都","city":"北区","address":"東京都北区西が丘3丁目14-20","lat":35.76984251,"lon":139.70938429},{"name":"王子総合高等学校","province":"東京都","city":"北区","address":"東京都北区滝野川3丁目54-7","lat":35.74729847,"lon":139.7308001},{"name":"飛鳥高等学校","province":"東京都","city":"北区","address":"東京都北区王子6丁目8-8","lat":35.76160544,"lon":139.73947656},{"name":"桐ヶ丘高等学校","province":"東京都","city":"北区","address":"東京都北区赤羽北3丁目5-22","lat":35.7814825,"lon":139.70672302},{"name":"つみき第３","province":"東京都","city":"北区","address":"北区王子4-24-12-301","lat":35.76158,"lon":139.737196},{"name":"つみき第５","province":"東京都","city":"北区","address":"北区豊島1-17-4-100","lat":35.758939,"lon":139.73871},{"name":"放課後等デイサービス　あんプラス","province":"東京都","city":"北区","address":"北区栄町50-3","lat":35.751298,"lon":139.746207},{"name":"こどもプラス１","province":"東京都","city":"北区","address":"北区田端新町3-34-1","lat":35.742334,"lon":139.764337},{"name":"つみき第２","province":"東京都","city":"北区","address":"北区王子本町1-19-1","lat":35.753856,"lon":139.733005},{"name":"放課後デイサービス勉強レストランそうなんだ！！","province":"東京都","city":"北区","address":"北区滝野川1-68-7早稲田ビル2階","lat":35.748068,"lon":139.733955},{"name":"このこのリーフ　滝野川","province":"東京都","city":"北区","address":"北区滝野川五丁目41番3号","lat":35.748126,"lon":139.723126},{"name":"このこのリーフ滝野川　第２","province":"東京都","city":"北区","address":"北区滝野川7-20-1笹岡ビル1階","lat":35.742496,"lon":139.720329},{"name":"飛鳥晴山苑　放課後等デイサービスさくら","province":"東京都","city":"北区","address":"北区西ケ原4-51-1","lat":35.74141,"lon":139.735978},{"name":"スキップランド　西ヶ原","province":"東京都","city":"北区","address":"北区西ケ原四丁目2番19号","lat":35.742396,"lon":139.739591},{"name":"つみき第６","province":"東京都","city":"北区","address":"北区西ケ原3-54-8-101","lat":35.744193,"lon":139.737508},{"name":"つみき第１","province":"東京都","city":"北区","address":"北区上十条1-19-6","lat":35.759352,"lon":139.723289},{"name":"放課後等デイサービス　ぴーす","province":"東京都","city":"北区","address":"北区上十条5-4-1サンタケビル1階","lat":35.764799,"lon":139.717381},{"name":"スキップランド　神谷","province":"東京都","city":"北区","address":"北区神谷二丁目23番15号","lat":35.771257,"lon":139.728288},{"name":"特定非営利活動法人クレセール心の相談室","province":"東京都","city":"北区","address":"北区赤羽1-41-5ATエミネンス2階201号室","lat":35.781599,"lon":139.719725},{"name":"第２特定非営利活動法人クレセール心の相談室","province":"東京都","city":"北区","address":"北区赤羽2-69-4ヴェルメゾン赤羽1階","lat":35.782555,"lon":139.722752},{"name":"児童デイサービス　まぁる","province":"東京都","city":"北区","address":"北区浮間四丁目32番20号松岡ビル2階","lat":35.791195,"lon":139.691607},{"name":"つみき第４","province":"東京都","city":"北区","address":"北区浮間4-5-5-101","lat":35.789051,"lon":139.697532},{"name":"放課後等デイサービスしらゆり　あそぼーよ　みんなで","province":"東京都","city":"北区","address":"北区赤羽北3丁目21番20-102号","lat":35.779105,"lon":139.705468},{"name":"北区子ども家庭支援センター","province":"東京都","city":"北区","address":"北区王子2-7-34","lat":35.757611,"lon":139.736033},{"name":"やじろべえ","province":"東京都","city":"北区","address":"北区赤羽北1-7-23","lat":35.78582,"lon":139.71375},{"name":"北区子ども家庭支援センター","province":"東京都","city":"北区","address":"北区王子6-7-3旧清至中学校別棟","lat":35.7632,"lon":139.74117},{"name":"北区子ども家庭支援センター","province":"東京都","city":"北区","address":"北区王子6-7-3旧清至中学校別棟","lat":35.762653,"lon":139.740387},{"name":"やじろべえ","province":"東京都","city":"北区","address":"北区赤羽北1-7-23","lat":35.785835,"lon":139.714308},{"name":"東京都障害者総合スポーツセンター","province":"東京都","city":"北区","address":"東京都北区十条台1丁目2-2","lat":35.75376426,"lon":139.72398652},{"name":"中央・城北職業能力開発センター赤羽校","province":"東京都","city":"北区","address":"東京都北区西が丘3丁目7-8","lat":35.76595692,"lon":139.71080655},{"name":"赤羽商業高等学校","province":"東京都","city":"北区","address":"東京都北区西が丘3丁目14-20","lat":35.76984251,"lon":139.70938429},{"name":"王子総合高等学校","province":"東京都","city":"北区","address":"東京都北区滝野川3丁目54-7","lat":35.74729847,"lon":139.7308001},{"name":"飛鳥高等学校","province":"東京都","city":"北区","address":"東京都北区王子6丁目8-8","lat":35.76160544,"lon":139.73947656},{"name":"桐ヶ丘高等学校","province":"東京都","city":"北区","address":"東京都北区赤羽北3丁目5-22","lat":35.7814825,"lon":139.70672302},{"name":"つみき第３","province":"東京都","city":"北区","address":"北区王子4-24-12-301","lat":35.76158,"lon":139.737196},{"name":"つみき第５","province":"東京都","city":"北区","address":"北区豊島1-17-4-100","lat":35.758939,"lon":139.73871},{"name":"放課後等デイサービス　あんプラス","province":"東京都","city":"北区","address":"北区栄町50-3","lat":35.751298,"lon":139.746207},{"name":"こどもプラス１","province":"東京都","city":"北区","address":"北区田端新町3-34-1","lat":35.742334,"lon":139.764337},{"name":"つみき第２","province":"東京都","city":"北区","address":"北区王子本町1-19-1","lat":35.753856,"lon":139.733005},{"name":"放課後デイサービス勉強レストランそうなんだ！！","province":"東京都","city":"北区","address":"北区滝野川1-68-7早稲田ビル2階","lat":35.748068,"lon":139.733955},{"name":"このこのリーフ　滝野川","province":"東京都","city":"北区","address":"北区滝野川五丁目41番3号","lat":35.748126,"lon":139.723126},{"name":"このこのリーフ滝野川　第２","province":"東京都","city":"北区","address":"北区滝野川7-20-1笹岡ビル1階","lat":35.742496,"lon":139.720329},{"name":"飛鳥晴山苑　放課後等デイサービスさくら","province":"東京都","city":"北区","address":"北区西ケ原4-51-1","lat":35.74141,"lon":139.735978},{"name":"スキップランド　西ヶ原","province":"東京都","city":"北区","address":"北区西ケ原四丁目2番19号","lat":35.742396,"lon":139.739591},{"name":"つみき第６","province":"東京都","city":"北区","address":"北区西ケ原3-54-8-101","lat":35.744193,"lon":139.737508},{"name":"つみき第１","province":"東京都","city":"北区","address":"北区上十条1-19-6","lat":35.759352,"lon":139.723289},{"name":"放課後等デイサービス　ぴーす","province":"東京都","city":"北区","address":"北区上十条5-4-1サンタケビル1階","lat":35.764799,"lon":139.717381},{"name":"スキップランド　神谷","province":"東京都","city":"北区","address":"北区神谷二丁目23番15号","lat":35.771257,"lon":139.728288},{"name":"特定非営利活動法人クレセール心の相談室","province":"東京都","city":"北区","address":"北区赤羽1-41-5ATエミネンス2階201号室","lat":35.781599,"lon":139.719725},{"name":"第２特定非営利活動法人クレセール心の相談室","province":"東京都","city":"北区","address":"北区赤羽2-69-4ヴェルメゾン赤羽1階","lat":35.782555,"lon":139.722752},{"name":"児童デイサービス　まぁる","province":"東京都","city":"北区","address":"北区浮間四丁目32番20号松岡ビル2階","lat":35.791195,"lon":139.691607},{"name":"つみき第４","province":"東京都","city":"北区","address":"北区浮間4-5-5-101","lat":35.789051,"lon":139.697532},{"name":"放課後等デイサービスしらゆり　あそぼーよ　みんなで","province":"東京都","city":"北区","address":"北区赤羽北3丁目21番20-102号","lat":35.779105,"lon":139.705468},{"name":"北区子ども家庭支援センター","province":"東京都","city":"北区","address":"北区王子2-7-34","lat":35.757611,"lon":139.736033},{"name":"やじろべえ","province":"東京都","city":"北区","address":"北区赤羽北1-7-23","lat":35.78582,"lon":139.71375},{"name":"北区子ども家庭支援センター","province":"東京都","city":"北区","address":"北区王子6-7-3旧清至中学校別棟","lat":35.7632,"lon":139.74117},{"name":"北区子ども家庭支援センター","province":"東京都","city":"北区","address":"北区王子6-7-3旧清至中学校別棟","lat":35.762653,"lon":139.740387},{"name":"やじろべえ","province":"東京都","city":"北区","address":"北区赤羽北1-7-23","lat":35.785835,"lon":139.714308},{"name":"東京都障害者総合スポーツセンター","province":"東京都","city":"北区","address":"東京都北区十条台1丁目2-2","lat":35.75376426,"lon":139.72398652},{"name":"中央・城北職業能力開発センター赤羽校","province":"東京都","city":"北区","address":"東京都北区西が丘3丁目7-8","lat":35.76595692,"lon":139.71080655},{"name":"赤羽商業高等学校","province":"東京都","city":"北区","address":"東京都北区西が丘3丁目14-20","lat":35.76984251,"lon":139.70938429},{"name":"王子総合高等学校","province":"東京都","city":"北区","address":"東京都北区滝野川3丁目54-7","lat":35.74729847,"lon":139.7308001},{"name":"飛鳥高等学校","province":"東京都","city":"北区","address":"東京都北区王子6丁目8-8","lat":35.76160544,"lon":139.73947656},{"name":"桐ヶ丘高等学校","province":"東京都","city":"北区","address":"東京都北区赤羽北3丁目5-22","lat":35.7814825,"lon":139.70672302},{"name":"つみき第３","province":"東京都","city":"北区","address":"北区王子4-24-12-301","lat":35.76158,"lon":139.737196},{"name":"つみき第５","province":"東京都","city":"北区","address":"北区豊島1-17-4-100","lat":35.758939,"lon":139.73871},{"name":"放課後等デイサービス　あんプラス","province":"東京都","city":"北区","address":"北区栄町50-3","lat":35.751298,"lon":139.746207},{"name":"こどもプラス１","province":"東京都","city":"北区","address":"北区田端新町3-34-1","lat":35.742334,"lon":139.764337},{"name":"つみき第２","province":"東京都","city":"北区","address":"北区王子本町1-19-1","lat":35.753856,"lon":139.733005},{"name":"放課後デイサービス勉強レストランそうなんだ！！","province":"東京都","city":"北区","address":"北区滝野川1-68-7早稲田ビル2階","lat":35.748068,"lon":139.733955},{"name":"このこのリーフ　滝野川","province":"東京都","city":"北区","address":"北区滝野川五丁目41番3号","lat":35.748126,"lon":139.723126},{"name":"このこのリーフ滝野川　第２","province":"東京都","city":"北区","address":"北区滝野川7-20-1笹岡ビル1階","lat":35.742496,"lon":139.720329},{"name":"飛鳥晴山苑　放課後等デイサービスさくら","province":"東京都","city":"北区","address":"北区西ケ原4-51-1","lat":35.74141,"lon":139.735978},{"name":"スキップランド　西ヶ原","province":"東京都","city":"北区","address":"北区西ケ原四丁目2番19号","lat":35.742396,"lon":139.739591},{"name":"つみき第６","province":"東京都","city":"北区","address":"北区西ケ原3-54-8-101","lat":35.744193,"lon":139.737508},{"name":"つみき第１","province":"東京都","city":"北区","address":"北区上十条1-19-6","lat":35.759352,"lon":139.723289},{"name":"放課後等デイサービス　ぴーす","province":"東京都","city":"北区","address":"北区上十条5-4-1サンタケビル1階","lat":35.764799,"lon":139.717381},{"name":"スキップランド　神谷","province":"東京都","city":"北区","address":"北区神谷二丁目23番15号","lat":35.771257,"lon":139.728288},{"name":"特定非営利活動法人クレセール心の相談室","province":"東京都","city":"北区","address":"北区赤羽1-41-5ATエミネンス2階201号室","lat":35.781599,"lon":139.719725},{"name":"第２特定非営利活動法人クレセール心の相談室","province":"東京都","city":"北区","address":"北区赤羽2-69-4ヴェルメゾン赤羽1階","lat":35.782555,"lon":139.722752},{"name":"児童デイサービス　まぁる","province":"東京都","city":"北区","address":"北区浮間四丁目32番20号松岡ビル2階","lat":35.791195,"lon":139.691607},{"name":"つみき第４","province":"東京都","city":"北区","address":"北区浮間4-5-5-101","lat":35.789051,"lon":139.697532},{"name":"放課後等デイサービスしらゆり　あそぼーよ　みんなで","province":"東京都","city":"北区","address":"北区赤羽北3丁目21番20-102号","lat":35.779105,"lon":139.705468},{"name":"北区子ども家庭支援センター","province":"東京都","city":"北区","address":"北区王子2-7-34","lat":35.757611,"lon":139.736033},{"name":"やじろべえ","province":"東京都","city":"北区","address":"北区赤羽北1-7-23","lat":35.78582,"lon":139.71375},{"name":"北区子ども家庭支援センター","province":"東京都","city":"北区","address":"北区王子6-7-3旧清至中学校別棟","lat":35.7632,"lon":139.74117},{"name":"北区子ども家庭支援センター","province":"東京都","city":"北区","address":"北区王子6-7-3旧清至中学校別棟","lat":35.762653,"lon":139.740387},{"name":"やじろべえ","province":"東京都","city":"北区","address":"北区赤羽北1-7-23","lat":35.785835,"lon":139.714308},{"name":"東京都障害者総合スポーツセンター","province":"東京都","city":"北区","address":"東京都北区十条台1丁目2-2","lat":35.75376426,"lon":139.72398652},{"name":"中央・城北職業能力開発センター赤羽校","province":"東京都","city":"北区","address":"東京都北区西が丘3丁目7-8","lat":35.76595692,"lon":139.71080655},{"name":"赤羽商業高等学校","province":"東京都","city":"北区","address":"東京都北区西が丘3丁目14-20","lat":35.76984251,"lon":139.70938429},{"name":"王子総合高等学校","province":"東京都","city":"北区","address":"東京都北区滝野川3丁目54-7","lat":35.74729847,"lon":139.7308001},{"name":"飛鳥高等学校","province":"東京都","city":"北区","address":"東京都北区王子6丁目8-8","lat":35.76160544,"lon":139.73947656},{"name":"桐ヶ丘高等学校","province":"東京都","city":"北区","address":"東京都北区赤羽北3丁目5-22","lat":35.7814825,"lon":139.70672302},{"name":"つみき第３","province":"東京都","city":"北区","address":"北区王子4-24-12-301","lat":35.76158,"lon":139.737196},{"name":"つみき第５","province":"東京都","city":"北区","address":"北区豊島1-17-4-100","lat":35.758939,"lon":139.73871},{"name":"放課後等デイサービス　あんプラス","province":"東京都","city":"北区","address":"北区栄町50-3","lat":35.751298,"lon":139.746207},{"name":"こどもプラス１","province":"東京都","city":"北区","address":"北区田端新町3-34-1","lat":35.742334,"lon":139.764337},{"name":"つみき第２","province":"東京都","city":"北区","address":"北区王子本町1-19-1","lat":35.753856,"lon":139.733005},{"name":"放課後デイサービス勉強レストランそうなんだ！！","province":"東京都","city":"北区","address":"北区滝野川1-68-7早稲田ビル2階","lat":35.748068,"lon":139.733955},{"name":"このこのリーフ　滝野川","province":"東京都","city":"北区","address":"北区滝野川五丁目41番3号","lat":35.748126,"lon":139.723126},{"name":"このこのリーフ滝野川　第２","province":"東京都","city":"北区","address":"北区滝野川7-20-1笹岡ビル1階","lat":35.742496,"lon":139.720329},{"name":"飛鳥晴山苑　放課後等デイサービスさくら","province":"東京都","city":"北区","address":"北区西ケ原4-51-1","lat":35.74141,"lon":139.735978},{"name":"スキップランド　西ヶ原","province":"東京都","city":"北区","address":"北区西ケ原四丁目2番19号","lat":35.742396,"lon":139.739591},{"name":"つみき第６","province":"東京都","city":"北区","address":"北区西ケ原3-54-8-101","lat":35.744193,"lon":139.737508},{"name":"つみき第１","province":"東京都","city":"北区","address":"北区上十条1-19-6","lat":35.759352,"lon":139.723289},{"name":"放課後等デイサービス　ぴーす","province":"東京都","city":"北区","address":"北区上十条5-4-1サンタケビル1階","lat":35.764799,"lon":139.717381},{"name":"スキップランド　神谷","province":"東京都","city":"北区","address":"北区神谷二丁目23番15号","lat":35.771257,"lon":139.728288},{"name":"特定非営利活動法人クレセール心の相談室","province":"東京都","city":"北区","address":"北区赤羽1-41-5ATエミネンス2階201号室","lat":35.781599,"lon":139.719725},{"name":"第２特定非営利活動法人クレセール心の相談室","province":"東京都","city":"北区","address":"北区赤羽2-69-4ヴェルメゾン赤羽1階","lat":35.782555,"lon":139.722752},{"name":"児童デイサービス　まぁる","province":"東京都","city":"北区","address":"北区浮間四丁目32番20号松岡ビル2階","lat":35.791195,"lon":139.691607},{"name":"つみき第４","province":"東京都","city":"北区","address":"北区浮間4-5-5-101","lat":35.789051,"lon":139.697532},{"name":"放課後等デイサービスしらゆり　あそぼーよ　みんなで","province":"東京都","city":"北区","address":"北区赤羽北3丁目21番20-102号","lat":35.779105,"lon":139.705468},{"name":"北区子ども家庭支援センター","province":"東京都","city":"北区","address":"北区王子2-7-34","lat":35.757611,"lon":139.736033},{"name":"やじろべえ","province":"東京都","city":"北区","address":"北区赤羽北1-7-23","lat":35.78582,"lon":139.71375},{"name":"北区子ども家庭支援センター","province":"東京都","city":"北区","address":"北区王子6-7-3旧清至中学校別棟","lat":35.7632,"lon":139.74117},{"name":"北区子ども家庭支援センター","province":"東京都","city":"北区","address":"北区王子6-7-3旧清至中学校別棟","lat":35.762653,"lon":139.740387},{"name":"やじろべえ","province":"東京都","city":"北区","address":"北区赤羽北1-7-23","lat":35.785835,"lon":139.714308},{"name":"東京都障害者総合スポーツセンター","province":"東京都","city":"北区","address":"東京都北区十条台1丁目2-2","lat":35.75376426,"lon":139.72398652},{"name":"中央・城北職業能力開発センター赤羽校","province":"東京都","city":"北区","address":"東京都北区西が丘3丁目7-8","lat":35.76595692,"lon":139.71080655},{"name":"赤羽商業高等学校","province":"東京都","city":"北区","address":"東京都北区西が丘3丁目14-20","lat":35.76984251,"lon":139.70938429},{"name":"王子総合高等学校","province":"東京都","city":"北区","address":"東京都北区滝野川3丁目54-7","lat":35.74729847,"lon":139.7308001},{"name":"飛鳥高等学校","province":"東京都","city":"北区","address":"東京都北区王子6丁目8-8","lat":35.76160544,"lon":139.73947656},{"name":"桐ヶ丘高等学校","province":"東京都","city":"北区","address":"東京都北区赤羽北3丁目5-22","lat":35.7814825,"lon":139.70672302},{"name":"つみき第３","province":"東京都","city":"北区","address":"北区王子4-24-12-301","lat":35.76158,"lon":139.737196},{"name":"つみき第５","province":"東京都","city":"北区","address":"北区豊島1-17-4-100","lat":35.758939,"lon":139.73871},{"name":"放課後等デイサービス　あんプラス","province":"東京都","city":"北区","address":"北区栄町50-3","lat":35.751298,"lon":139.746207},{"name":"こどもプラス１","province":"東京都","city":"北区","address":"北区田端新町3-34-1","lat":35.742334,"lon":139.764337},{"name":"つみき第２","province":"東京都","city":"北区","address":"北区王子本町1-19-1","lat":35.753856,"lon":139.733005},{"name":"放課後デイサービス勉強レストランそうなんだ！！","province":"東京都","city":"北区","address":"北区滝野川1-68-7早稲田ビル2階","lat":35.748068,"lon":139.733955},{"name":"このこのリーフ　滝野川","province":"東京都","city":"北区","address":"北区滝野川五丁目41番3号","lat":35.748126,"lon":139.723126},{"name":"このこのリーフ滝野川　第２","province":"東京都","city":"北区","address":"北区滝野川7-20-1笹岡ビル1階","lat":35.742496,"lon":139.720329},{"name":"飛鳥晴山苑　放課後等デイサービスさくら","province":"東京都","city":"北区","address":"北区西ケ原4-51-1","lat":35.74141,"lon":139.735978},{"name":"スキップランド　西ヶ原","province":"東京都","city":"北区","address":"北区西ケ原四丁目2番19号","lat":35.742396,"lon":139.739591},{"name":"つみき第６","province":"東京都","city":"北区","address":"北区西ケ原3-54-8-101","lat":35.744193,"lon":139.737508},{"name":"つみき第１","province":"東京都","city":"北区","address":"北区上十条1-19-6","lat":35.759352,"lon":139.723289},{"name":"放課後等デイサービス　ぴーす","province":"東京都","city":"北区","address":"北区上十条5-4-1サンタケビル1階","lat":35.764799,"lon":139.717381},{"name":"スキップランド　神谷","province":"東京都","city":"北区","address":"北区神谷二丁目23番15号","lat":35.771257,"lon":139.728288},{"name":"特定非営利活動法人クレセール心の相談室","province":"東京都","city":"北区","address":"北区赤羽1-41-5ATエミネンス2階201号室","lat":35.781599,"lon":139.719725},{"name":"第２特定非営利活動法人クレセール心の相談室","province":"東京都","city":"北区","address":"北区赤羽2-69-4ヴェルメゾン赤羽1階","lat":35.782555,"lon":139.722752},{"name":"児童デイサービス　まぁる","province":"東京都","city":"北区","address":"北区浮間四丁目32番20号松岡ビル2階","lat":35.791195,"lon":139.691607},{"name":"つみき第４","province":"東京都","city":"北区","address":"北区浮間4-5-5-101","lat":35.789051,"lon":139.697532},{"name":"放課後等デイサービスしらゆり　あそぼーよ　みんなで","province":"東京都","city":"北区","address":"北区赤羽北3丁目21番20-102号","lat":35.779105,"lon":139.705468},{"name":"北区子ども家庭支援センター","province":"東京都","city":"北区","address":"北区王子2-7-34","lat":35.757611,"lon":139.736033},{"name":"やじろべえ","province":"東京都","city":"北区","address":"北区赤羽北1-7-23","lat":35.78582,"lon":139.71375},{"name":"北区子ども家庭支援センター","province":"東京都","city":"北区","address":"北区王子6-7-3旧清至中学校別棟","lat":35.7632,"lon":139.74117},{"name":"北区子ども家庭支援センター","province":"東京都","city":"北区","address":"北区王子6-7-3旧清至中学校別棟","lat":35.762653,"lon":139.740387},{"name":"やじろべえ","province":"東京都","city":"北区","address":"北区赤羽北1-7-23","lat":35.785835,"lon":139.714308},{"name":"東京都障害者総合スポーツセンター","province":"東京都","city":"北区","address":"東京都北区十条台1丁目2-2","lat":35.75376426,"lon":139.72398652},{"name":"中央・城北職業能力開発センター赤羽校","province":"東京都","city":"北区","address":"東京都北区西が丘3丁目7-8","lat":35.76595692,"lon":139.71080655},{"name":"赤羽商業高等学校","province":"東京都","city":"北区","address":"東京都北区西が丘3丁目14-20","lat":35.76984251,"lon":139.70938429},{"name":"王子総合高等学校","province":"東京都","city":"北区","address":"東京都北区滝野川3丁目54-7","lat":35.74729847,"lon":139.7308001},{"name":"飛鳥高等学校","province":"東京都","city":"北区","address":"東京都北区王子6丁目8-8","lat":35.76160544,"lon":139.73947656},{"name":"桐ヶ丘高等学校","province":"東京都","city":"北区","address":"東京都北区赤羽北3丁目5-22","lat":35.7814825,"lon":139.70672302},{"name":"つみき第３","province":"東京都","city":"北区","address":"北区王子4-24-12-301","lat":35.76158,"lon":139.737196},{"name":"つみき第５","province":"東京都","city":"北区","address":"北区豊島1-17-4-100","lat":35.758939,"lon":139.73871},{"name":"放課後等デイサービス　あんプラス","province":"東京都","city":"北区","address":"北区栄町50-3","lat":35.751298,"lon":139.746207},{"name":"こどもプラス１","province":"東京都","city":"北区","address":"北区田端新町3-34-1","lat":35.742334,"lon":139.764337},{"name":"つみき第２","province":"東京都","city":"北区","address":"北区王子本町1-19-1","lat":35.753856,"lon":139.733005},{"name":"放課後デイサービス勉強レストランそうなんだ！！","province":"東京都","city":"北区","address":"北区滝野川1-68-7早稲田ビル2階","lat":35.748068,"lon":139.733955},{"name":"このこのリーフ　滝野川","province":"東京都","city":"北区","address":"北区滝野川五丁目41番3号","lat":35.748126,"lon":139.723126},{"name":"このこのリーフ滝野川　第２","province":"東京都","city":"北区","address":"北区滝野川7-20-1笹岡ビル1階","lat":35.742496,"lon":139.720329},{"name":"飛鳥晴山苑　放課後等デイサービスさくら","province":"東京都","city":"北区","address":"北区西ケ原4-51-1","lat":35.74141,"lon":139.735978},{"name":"スキップランド　西ヶ原","province":"東京都","city":"北区","address":"北区西ケ原四丁目2番19号","lat":35.742396,"lon":139.739591},{"name":"つみき第６","province":"東京都","city":"北区","address":"北区西ケ原3-54-8-101","lat":35.744193,"lon":139.737508},{"name":"つみき第１","province":"東京都","city":"北区","address":"北区上十条1-19-6","lat":35.759352,"lon":139.723289},{"name":"放課後等デイサービス　ぴーす","province":"東京都","city":"北区","address":"北区上十条5-4-1サンタケビル1階","lat":35.764799,"lon":139.717381},{"name":"スキップランド　神谷","province":"東京都","city":"北区","address":"北区神谷二丁目23番15号","lat":35.771257,"lon":139.728288},{"name":"特定非営利活動法人クレセール心の相談室","province":"東京都","city":"北区","address":"北区赤羽1-41-5ATエミネンス2階201号室","lat":35.781599,"lon":139.719725},{"name":"第２特定非営利活動法人クレセール心の相談室","province":"東京都","city":"北区","address":"北区赤羽2-69-4ヴェルメゾン赤羽1階","lat":35.782555,"lon":139.722752},{"name":"児童デイサービス　まぁる","province":"東京都","city":"北区","address":"北区浮間四丁目32番20号松岡ビル2階","lat":35.791195,"lon":139.691607},{"name":"つみき第４","province":"東京都","city":"北区","address":"北区浮間4-5-5-101","lat":35.789051,"lon":139.697532},{"name":"放課後等デイサービスしらゆり　あそぼーよ　みんなで","province":"東京都","city":"北区","address":"北区赤羽北3丁目21番20-102号","lat":35.779105,"lon":139.705468},{"name":"北区子ども家庭支援センター","province":"東京都","city":"北区","address":"北区王子2-7-34","lat":35.757611,"lon":139.736033},{"name":"やじろべえ","province":"東京都","city":"北区","address":"北区赤羽北1-7-23","lat":35.78582,"lon":139.71375},{"name":"北区子ども家庭支援センター","province":"東京都","city":"北区","address":"北区王子6-7-3旧清至中学校別棟","lat":35.7632,"lon":139.74117},{"name":"北区子ども家庭支援センター","province":"東京都","city":"北区","address":"北区王子6-7-3旧清至中学校別棟","lat":35.762653,"lon":139.740387},{"name":"やじろべえ","province":"東京都","city":"北区","address":"北区赤羽北1-7-23","lat":35.785835,"lon":139.714308},{"name":"東京都障害者総合スポーツセンター","province":"東京都","city":"北区","address":"東京都北区十条台1丁目2-2","lat":35.75376426,"lon":139.72398652},{"name":"中央・城北職業能力開発センター赤羽校","province":"東京都","city":"北区","address":"東京都北区西が丘3丁目7-8","lat":35.76595692,"lon":139.71080655},{"name":"赤羽商業高等学校","province":"東京都","city":"北区","address":"東京都北区西が丘3丁目14-20","lat":35.76984251,"lon":139.70938429},{"name":"王子総合高等学校","province":"東京都","city":"北区","address":"東京都北区滝野川3丁目54-7","lat":35.74729847,"lon":139.7308001},{"name":"飛鳥高等学校","province":"東京都","city":"北区","address":"東京都北区王子6丁目8-8","lat":35.76160544,"lon":139.73947656},{"name":"桐ヶ丘高等学校","province":"東京都","city":"北区","address":"東京都北区赤羽北3丁目5-22","lat":35.7814825,"lon":139.70672302},{"name":"つみき第３","province":"東京都","city":"北区","address":"北区王子4-24-12-301","lat":35.76158,"lon":139.737196},{"name":"つみき第５","province":"東京都","city":"北区","address":"北区豊島1-17-4-100","lat":35.758939,"lon":139.73871},{"name":"放課後等デイサービス　あんプラス","province":"東京都","city":"北区","address":"北区栄町50-3","lat":35.751298,"lon":139.746207},{"name":"こどもプラス１","province":"東京都","city":"北区","address":"北区田端新町3-34-1","lat":35.742334,"lon":139.764337},{"name":"つみき第２","province":"東京都","city":"北区","address":"北区王子本町1-19-1","lat":35.753856,"lon":139.733005},{"name":"放課後デイサービス勉強レストランそうなんだ！！","province":"東京都","city":"北区","address":"北区滝野川1-68-7早稲田ビル2階","lat":35.748068,"lon":139.733955},{"name":"このこのリーフ　滝野川","province":"東京都","city":"北区","address":"北区滝野川五丁目41番3号","lat":35.748126,"lon":139.723126},{"name":"このこのリーフ滝野川　第２","province":"東京都","city":"北区","address":"北区滝野川7-20-1笹岡ビル1階","lat":35.742496,"lon":139.720329},{"name":"飛鳥晴山苑　放課後等デイサービスさくら","province":"東京都","city":"北区","address":"北区西ケ原4-51-1","lat":35.74141,"lon":139.735978},{"name":"スキップランド　西ヶ原","province":"東京都","city":"北区","address":"北区西ケ原四丁目2番19号","lat":35.742396,"lon":139.739591},{"name":"つみき第６","province":"東京都","city":"北区","address":"北区西ケ原3-54-8-101","lat":35.744193,"lon":139.737508},{"name":"つみき第１","province":"東京都","city":"北区","address":"北区上十条1-19-6","lat":35.759352,"lon":139.723289},{"name":"放課後等デイサービス　ぴーす","province":"東京都","city":"北区","address":"北区上十条5-4-1サンタケビル1階","lat":35.764799,"lon":139.717381},{"name":"スキップランド　神谷","province":"東京都","city":"北区","address":"北区神谷二丁目23番15号","lat":35.771257,"lon":139.728288},{"name":"特定非営利活動法人クレセール心の相談室","province":"東京都","city":"北区","address":"北区赤羽1-41-5ATエミネンス2階201号室","lat":35.781599,"lon":139.719725},{"name":"第２特定非営利活動法人クレセール心の相談室","province":"東京都","city":"北区","address":"北区赤羽2-69-4ヴェルメゾン赤羽1階","lat":35.782555,"lon":139.722752},{"name":"児童デイサービス　まぁる","province":"東京都","city":"北区","address":"北区浮間四丁目32番20号松岡ビル2階","lat":35.791195,"lon":139.691607},{"name":"つみき第４","province":"東京都","city":"北区","address":"北区浮間4-5-5-101","lat":35.789051,"lon":139.697532},{"name":"放課後等デイサービスしらゆり　あそぼーよ　みんなで","province":"東京都","city":"北区","address":"北区赤羽北3丁目21番20-102号","lat":35.779105,"lon":139.705468},{"name":"北区子ども家庭支援センター","province":"東京都","city":"北区","address":"北区王子2-7-34","lat":35.757611,"lon":139.736033},{"name":"やじろべえ","province":"東京都","city":"北区","address":"北区赤羽北1-7-23","lat":35.78582,"lon":139.71375},{"name":"北区子ども家庭支援センター","province":"東京都","city":"北区","address":"北区王子6-7-3旧清至中学校別棟","lat":35.7632,"lon":139.74117},{"name":"北区子ども家庭支援センター","province":"東京都","city":"北区","address":"北区王子6-7-3旧清至中学校別棟","lat":35.762653,"lon":139.740387},{"name":"やじろべえ","province":"東京都","city":"北区","address":"北区赤羽北1-7-23","lat":35.785835,"lon":139.714308},{"name":"つみき第３","province":"東京都","city":"北区","address":"北区王子4-24-12-301","lat":35.76158,"lon":139.737196},{"name":"つみき第５","province":"東京都","city":"北区","address":"北区豊島1-17-4-100","lat":35.758939,"lon":139.73871},{"name":"放課後等デイサービス　あんプラス","province":"東京都","city":"北区","address":"北区栄町50-3","lat":35.751298,"lon":139.746207},{"name":"こどもプラス１","province":"東京都","city":"北区","address":"北区田端新町3-34-1","lat":35.742334,"lon":139.764337},{"name":"つみき第２","province":"東京都","city":"北区","address":"北区王子本町1-19-1","lat":35.753856,"lon":139.733005},{"name":"放課後デイサービス勉強レストランそうなんだ！！","province":"東京都","city":"北区","address":"北区滝野川1-68-7早稲田ビル2階","lat":35.748068,"lon":139.733955},{"name":"このこのリーフ　滝野川","province":"東京都","city":"北区","address":"北区滝野川五丁目41番3号","lat":35.748126,"lon":139.723126},{"name":"このこのリーフ滝野川　第２","province":"東京都","city":"北区","address":"北区滝野川7-20-1笹岡ビル1階","lat":35.742496,"lon":139.720329},{"name":"飛鳥晴山苑　放課後等デイサービスさくら","province":"東京都","city":"北区","address":"北区西ケ原4-51-1","lat":35.74141,"lon":139.735978},{"name":"スキップランド　西ヶ原","province":"東京都","city":"北区","address":"北区西ケ原四丁目2番19号","lat":35.742396,"lon":139.739591},{"name":"つみき第６","province":"東京都","city":"北区","address":"北区西ケ原3-54-8-101","lat":35.744193,"lon":139.737508},{"name":"つみき第１","province":"東京都","city":"北区","address":"北区上十条1-19-6","lat":35.759352,"lon":139.723289},{"name":"放課後等デイサービス　ぴーす","province":"東京都","city":"北区","address":"北区上十条5-4-1サンタケビル1階","lat":35.764799,"lon":139.717381},{"name":"スキップランド　神谷","province":"東京都","city":"北区","address":"北区神谷二丁目23番15号","lat":35.771257,"lon":139.728288},{"name":"特定非営利活動法人クレセール心の相談室","province":"東京都","city":"北区","address":"北区赤羽1-41-5ATエミネンス2階201号室","lat":35.781599,"lon":139.719725},{"name":"第２特定非営利活動法人クレセール心の相談室","province":"東京都","city":"北区","address":"北区赤羽2-69-4ヴェルメゾン赤羽1階","lat":35.782555,"lon":139.722752},{"name":"児童デイサービス　まぁる","province":"東京都","city":"北区","address":"北区浮間四丁目32番20号松岡ビル2階","lat":35.791195,"lon":139.691607},{"name":"つみき第４","province":"東京都","city":"北区","address":"北区浮間4-5-5-101","lat":35.789051,"lon":139.697532},{"name":"放課後等デイサービスしらゆり　あそぼーよ　みんなで","province":"東京都","city":"北区","address":"北区赤羽北3丁目21番20-102号","lat":35.779105,"lon":139.705468},{"name":"北区子ども家庭支援センター","province":"東京都","city":"北区","address":"北区王子2-7-34","lat":35.757611,"lon":139.736033},{"name":"やじろべえ","province":"東京都","city":"北区","address":"北区赤羽北1-7-23","lat":35.78582,"lon":139.71375},{"name":"北区子ども家庭支援センター","province":"東京都","city":"北区","address":"北区王子6-7-3旧清至中学校別棟","lat":35.7632,"lon":139.74117},{"name":"北区子ども家庭支援センター","province":"東京都","city":"北区","address":"北区王子6-7-3旧清至中学校別棟","lat":35.762653,"lon":139.740387},{"name":"やじろべえ","province":"東京都","city":"北区","address":"北区赤羽北1-7-23","lat":35.785835,"lon":139.714308},{"name":"つみき第３","province":"東京都","city":"北区","address":"北区王子4-24-12-301","lat":35.76158,"lon":139.737196},{"name":"つみき第５","province":"東京都","city":"北区","address":"北区豊島1-17-4-100","lat":35.758939,"lon":139.73871},{"name":"放課後等デイサービス　あんプラス","province":"東京都","city":"北区","address":"北区栄町50-3","lat":35.751298,"lon":139.746207},{"name":"こどもプラス１","province":"東京都","city":"北区","address":"北区田端新町3-34-1","lat":35.742334,"lon":139.764337},{"name":"つみき第２","province":"東京都","city":"北区","address":"北区王子本町1-19-1","lat":35.753856,"lon":139.733005},{"name":"放課後デイサービス勉強レストランそうなんだ！！","province":"東京都","city":"北区","address":"北区滝野川1-68-7早稲田ビル2階","lat":35.748068,"lon":139.733955},{"name":"このこのリーフ　滝野川","province":"東京都","city":"北区","address":"北区滝野川五丁目41番3号","lat":35.748126,"lon":139.723126},{"name":"このこのリーフ滝野川　第２","province":"東京都","city":"北区","address":"北区滝野川7-20-1笹岡ビル1階","lat":35.742496,"lon":139.720329},{"name":"飛鳥晴山苑　放課後等デイサービスさくら","province":"東京都","city":"北区","address":"北区西ケ原4-51-1","lat":35.74141,"lon":139.735978},{"name":"スキップランド　西ヶ原","province":"東京都","city":"北区","address":"北区西ケ原四丁目2番19号","lat":35.742396,"lon":139.739591},{"name":"つみき第６","province":"東京都","city":"北区","address":"北区西ケ原3-54-8-101","lat":35.744193,"lon":139.737508},{"name":"つみき第１","province":"東京都","city":"北区","address":"北区上十条1-19-6","lat":35.759352,"lon":139.723289},{"name":"放課後等デイサービス　ぴーす","province":"東京都","city":"北区","address":"北区上十条5-4-1サンタケビル1階","lat":35.764799,"lon":139.717381},{"name":"スキップランド　神谷","province":"東京都","city":"北区","address":"北区神谷二丁目23番15号","lat":35.771257,"lon":139.728288},{"name":"特定非営利活動法人クレセール心の相談室","province":"東京都","city":"北区","address":"北区赤羽1-41-5ATエミネンス2階201号室","lat":35.781599,"lon":139.719725},{"name":"第２特定非営利活動法人クレセール心の相談室","province":"東京都","city":"北区","address":"北区赤羽2-69-4ヴェルメゾン赤羽1階","lat":35.782555,"lon":139.722752},{"name":"児童デイサービス　まぁる","province":"東京都","city":"北区","address":"北区浮間四丁目32番20号松岡ビル2階","lat":35.791195,"lon":139.691607},{"name":"つみき第４","province":"東京都","city":"北区","address":"北区浮間4-5-5-101","lat":35.789051,"lon":139.697532},{"name":"放課後等デイサービスしらゆり　あそぼーよ　みんなで","province":"東京都","city":"北区","address":"北区赤羽北3丁目21番20-102号","lat":35.779105,"lon":139.705468},{"name":"北区子ども家庭支援センター","province":"東京都","city":"北区","address":"北区王子2-7-34","lat":35.757611,"lon":139.736033},{"name":"やじろべえ","province":"東京都","city":"北区","address":"北区赤羽北1-7-23","lat":35.78582,"lon":139.71375},{"name":"北区子ども家庭支援センター","province":"東京都","city":"北区","address":"北区王子6-7-3旧清至中学校別棟","lat":35.7632,"lon":139.74117},{"name":"北区子ども家庭支援センター","province":"東京都","city":"北区","address":"北区王子6-7-3旧清至中学校別棟","lat":35.762653,"lon":139.740387},{"name":"やじろべえ","province":"東京都","city":"北区","address":"北区赤羽北1-7-23","lat":35.785835,"lon":139.714308},{"name":"つみき第３","province":"東京都","city":"北区","address":"北区王子4-24-12-301","lat":35.76158,"lon":139.737196},{"name":"つみき第５","province":"東京都","city":"北区","address":"北区豊島1-17-4-100","lat":35.758939,"lon":139.73871},{"name":"放課後等デイサービス　あんプラス","province":"東京都","city":"北区","address":"北区栄町50-3","lat":35.751298,"lon":139.746207},{"name":"こどもプラス１","province":"東京都","city":"北区","address":"北区田端新町3-34-1","lat":35.742334,"lon":139.764337},{"name":"つみき第２","province":"東京都","city":"北区","address":"北区王子本町1-19-1","lat":35.753856,"lon":139.733005},{"name":"放課後デイサービス勉強レストランそうなんだ！！","province":"東京都","city":"北区","address":"北区滝野川1-68-7早稲田ビル2階","lat":35.748068,"lon":139.733955},{"name":"このこのリーフ　滝野川","province":"東京都","city":"北区","address":"北区滝野川五丁目41番3号","lat":35.748126,"lon":139.723126},{"name":"このこのリーフ滝野川　第２","province":"東京都","city":"北区","address":"北区滝野川7-20-1笹岡ビル1階","lat":35.742496,"lon":139.720329},{"name":"飛鳥晴山苑　放課後等デイサービスさくら","province":"東京都","city":"北区","address":"北区西ケ原4-51-1","lat":35.74141,"lon":139.735978},{"name":"スキップランド　西ヶ原","province":"東京都","city":"北区","address":"北区西ケ原四丁目2番19号","lat":35.742396,"lon":139.739591},{"name":"つみき第６","province":"東京都","city":"北区","address":"北区西ケ原3-54-8-101","lat":35.744193,"lon":139.737508},{"name":"つみき第１","province":"東京都","city":"北区","address":"北区上十条1-19-6","lat":35.759352,"lon":139.723289},{"name":"放課後等デイサービス　ぴーす","province":"東京都","city":"北区","address":"北区上十条5-4-1サンタケビル1階","lat":35.764799,"lon":139.717381},{"name":"スキップランド　神谷","province":"東京都","city":"北区","address":"北区神谷二丁目23番15号","lat":35.771257,"lon":139.728288},{"name":"特定非営利活動法人クレセール心の相談室","province":"東京都","city":"北区","address":"北区赤羽1-41-5ATエミネンス2階201号室","lat":35.781599,"lon":139.719725},{"name":"第２特定非営利活動法人クレセール心の相談室","province":"東京都","city":"北区","address":"北区赤羽2-69-4ヴェルメゾン赤羽1階","lat":35.782555,"lon":139.722752},{"name":"児童デイサービス　まぁる","province":"東京都","city":"北区","address":"北区浮間四丁目32番20号松岡ビル2階","lat":35.791195,"lon":139.691607},{"name":"つみき第４","province":"東京都","city":"北区","address":"北区浮間4-5-5-101","lat":35.789051,"lon":139.697532},{"name":"放課後等デイサービスしらゆり　あそぼーよ　みんなで","province":"東京都","city":"北区","address":"北区赤羽北3丁目21番20-102号","lat":35.779105,"lon":139.705468},{"name":"北区子ども家庭支援センター","province":"東京都","city":"北区","address":"北区王子2-7-34","lat":35.757611,"lon":139.736033},{"name":"やじろべえ","province":"東京都","city":"北区","address":"北区赤羽北1-7-23","lat":35.78582,"lon":139.71375},{"name":"北区子ども家庭支援センター","province":"東京都","city":"北区","address":"北区王子6-7-3旧清至中学校別棟","lat":35.7632,"lon":139.74117},{"name":"北区子ども家庭支援センター","province":"東京都","city":"北区","address":"北区王子6-7-3旧清至中学校別棟","lat":35.762653,"lon":139.740387},{"name":"やじろべえ","province":"東京都","city":"北区","address":"北区赤羽北1-7-23","lat":35.785835,"lon":139.714308},{"name":"つみき第３","province":"東京都","city":"北区","address":"北区王子4-24-12-301","lat":35.76158,"lon":139.737196},{"name":"つみき第５","province":"東京都","city":"北区","address":"北区豊島1-17-4-100","lat":35.758939,"lon":139.73871},{"name":"放課後等デイサービス　あんプラス","province":"東京都","city":"北区","address":"北区栄町50-3","lat":35.751298,"lon":139.746207},{"name":"こどもプラス１","province":"東京都","city":"北区","address":"北区田端新町3-34-1","lat":35.742334,"lon":139.764337},{"name":"つみき第２","province":"東京都","city":"北区","address":"北区王子本町1-19-1","lat":35.753856,"lon":139.733005},{"name":"放課後デイサービス勉強レストランそうなんだ！！","province":"東京都","city":"北区","address":"北区滝野川1-68-7早稲田ビル2階","lat":35.748068,"lon":139.733955},{"name":"このこのリーフ　滝野川","province":"東京都","city":"北区","address":"北区滝野川五丁目41番3号","lat":35.748126,"lon":139.723126},{"name":"このこのリーフ滝野川　第２","province":"東京都","city":"北区","address":"北区滝野川7-20-1笹岡ビル1階","lat":35.742496,"lon":139.720329},{"name":"飛鳥晴山苑　放課後等デイサービスさくら","province":"東京都","city":"北区","address":"北区西ケ原4-51-1","lat":35.74141,"lon":139.735978},{"name":"スキップランド　西ヶ原","province":"東京都","city":"北区","address":"北区西ケ原四丁目2番19号","lat":35.742396,"lon":139.739591},{"name":"つみき第６","province":"東京都","city":"北区","address":"北区西ケ原3-54-8-101","lat":35.744193,"lon":139.737508},{"name":"つみき第１","province":"東京都","city":"北区","address":"北区上十条1-19-6","lat":35.759352,"lon":139.723289},{"name":"放課後等デイサービス　ぴーす","province":"東京都","city":"北区","address":"北区上十条5-4-1サンタケビル1階","lat":35.764799,"lon":139.717381},{"name":"スキップランド　神谷","province":"東京都","city":"北区","address":"北区神谷二丁目23番15号","lat":35.771257,"lon":139.728288},{"name":"特定非営利活動法人クレセール心の相談室","province":"東京都","city":"北区","address":"北区赤羽1-41-5ATエミネンス2階201号室","lat":35.781599,"lon":139.719725},{"name":"第２特定非営利活動法人クレセール心の相談室","province":"東京都","city":"北区","address":"北区赤羽2-69-4ヴェルメゾン赤羽1階","lat":35.782555,"lon":139.722752},{"name":"児童デイサービス　まぁる","province":"東京都","city":"北区","address":"北区浮間四丁目32番20号松岡ビル2階","lat":35.791195,"lon":139.691607},{"name":"つみき第４","province":"東京都","city":"北区","address":"北区浮間4-5-5-101","lat":35.789051,"lon":139.697532},{"name":"放課後等デイサービスしらゆり　あそぼーよ　みんなで","province":"東京都","city":"北区","address":"北区赤羽北3丁目21番20-102号","lat":35.779105,"lon":139.705468},{"name":"北区子ども家庭支援センター","province":"東京都","city":"北区","address":"北区王子2-7-34","lat":35.757611,"lon":139.736033},{"name":"やじろべえ","province":"東京都","city":"北区","address":"北区赤羽北1-7-23","lat":35.78582,"lon":139.71375},{"name":"北区子ども家庭支援センター","province":"東京都","city":"北区","address":"北区王子6-7-3旧清至中学校別棟","lat":35.7632,"lon":139.74117},{"name":"北区子ども家庭支援センター","province":"東京都","city":"北区","address":"北区王子6-7-3旧清至中学校別棟","lat":35.762653,"lon":139.740387},{"name":"やじろべえ","province":"東京都","city":"北区","address":"北区赤羽北1-7-23","lat":35.785835,"lon":139.714308},{"name":"つみき第３","province":"東京都","city":"北区","address":"北区王子4-24-12-301","lat":35.76158,"lon":139.737196},{"name":"つみき第５","province":"東京都","city":"北区","address":"北区豊島1-17-4-100","lat":35.758939,"lon":139.73871},{"name":"放課後等デイサービス　あんプラス","province":"東京都","city":"北区","address":"北区栄町50-3","lat":35.751298,"lon":139.746207},{"name":"こどもプラス１","province":"東京都","city":"北区","address":"北区田端新町3-34-1","lat":35.742334,"lon":139.764337},{"name":"つみき第２","province":"東京都","city":"北区","address":"北区王子本町1-19-1","lat":35.753856,"lon":139.733005},{"name":"放課後デイサービス勉強レストランそうなんだ！！","province":"東京都","city":"北区","address":"北区滝野川1-68-7早稲田ビル2階","lat":35.748068,"lon":139.733955},{"name":"このこのリーフ　滝野川","province":"東京都","city":"北区","address":"北区滝野川五丁目41番3号","lat":35.748126,"lon":139.723126},{"name":"このこのリーフ滝野川　第２","province":"東京都","city":"北区","address":"北区滝野川7-20-1笹岡ビル1階","lat":35.742496,"lon":139.720329},{"name":"飛鳥晴山苑　放課後等デイサービスさくら","province":"東京都","city":"北区","address":"北区西ケ原4-51-1","lat":35.74141,"lon":139.735978},{"name":"スキップランド　西ヶ原","province":"東京都","city":"北区","address":"北区西ケ原四丁目2番19号","lat":35.742396,"lon":139.739591},{"name":"つみき第６","province":"東京都","city":"北区","address":"北区西ケ原3-54-8-101","lat":35.744193,"lon":139.737508},{"name":"つみき第１","province":"東京都","city":"北区","address":"北区上十条1-19-6","lat":35.759352,"lon":139.723289},{"name":"放課後等デイサービス　ぴーす","province":"東京都","city":"北区","address":"北区上十条5-4-1サンタケビル1階","lat":35.764799,"lon":139.717381},{"name":"スキップランド　神谷","province":"東京都","city":"北区","address":"北区神谷二丁目23番15号","lat":35.771257,"lon":139.728288},{"name":"特定非営利活動法人クレセール心の相談室","province":"東京都","city":"北区","address":"北区赤羽1-41-5ATエミネンス2階201号室","lat":35.781599,"lon":139.719725},{"name":"第２特定非営利活動法人クレセール心の相談室","province":"東京都","city":"北区","address":"北区赤羽2-69-4ヴェルメゾン赤羽1階","lat":35.782555,"lon":139.722752},{"name":"児童デイサービス　まぁる","province":"東京都","city":"北区","address":"北区浮間四丁目32番20号松岡ビル2階","lat":35.791195,"lon":139.691607},{"name":"つみき第４","province":"東京都","city":"北区","address":"北区浮間4-5-5-101","lat":35.789051,"lon":139.697532},{"name":"放課後等デイサービスしらゆり　あそぼーよ　みんなで","province":"東京都","city":"北区","address":"北区赤羽北3丁目21番20-102号","lat":35.779105,"lon":139.705468},{"name":"北区子ども家庭支援センター","province":"東京都","city":"北区","address":"北区王子2-7-34","lat":35.757611,"lon":139.736033},{"name":"やじろべえ","province":"東京都","city":"北区","address":"北区赤羽北1-7-23","lat":35.78582,"lon":139.71375},{"name":"北区子ども家庭支援センター","province":"東京都","city":"北区","address":"北区王子6-7-3旧清至中学校別棟","lat":35.7632,"lon":139.74117},{"name":"北区子ども家庭支援センター","province":"東京都","city":"北区","address":"北区王子6-7-3旧清至中学校別棟","lat":35.762653,"lon":139.740387},{"name":"やじろべえ","province":"東京都","city":"北区","address":"北区赤羽北1-7-23","lat":35.785835,"lon":139.714308},{"name":"つみき第３","province":"東京都","city":"北区","address":"北区王子4-24-12-301","lat":35.76158,"lon":139.737196},{"name":"つみき第５","province":"東京都","city":"北区","address":"北区豊島1-17-4-100","lat":35.758939,"lon":139.73871},{"name":"放課後等デイサービス　あんプラス","province":"東京都","city":"北区","address":"北区栄町50-3","lat":35.751298,"lon":139.746207},{"name":"こどもプラス１","province":"東京都","city":"北区","address":"北区田端新町3-34-1","lat":35.742334,"lon":139.764337},{"name":"つみき第２","province":"東京都","city":"北区","address":"北区王子本町1-19-1","lat":35.753856,"lon":139.733005},{"name":"放課後デイサービス勉強レストランそうなんだ！！","province":"東京都","city":"北区","address":"北区滝野川1-68-7早稲田ビル2階","lat":35.748068,"lon":139.733955},{"name":"このこのリーフ　滝野川","province":"東京都","city":"北区","address":"北区滝野川五丁目41番3号","lat":35.748126,"lon":139.723126},{"name":"このこのリーフ滝野川　第２","province":"東京都","city":"北区","address":"北区滝野川7-20-1笹岡ビル1階","lat":35.742496,"lon":139.720329},{"name":"飛鳥晴山苑　放課後等デイサービスさくら","province":"東京都","city":"北区","address":"北区西ケ原4-51-1","lat":35.74141,"lon":139.735978},{"name":"スキップランド　西ヶ原","province":"東京都","city":"北区","address":"北区西ケ原四丁目2番19号","lat":35.742396,"lon":139.739591},{"name":"つみき第６","province":"東京都","city":"北区","address":"北区西ケ原3-54-8-101","lat":35.744193,"lon":139.737508},{"name":"つみき第１","province":"東京都","city":"北区","address":"北区上十条1-19-6","lat":35.759352,"lon":139.723289},{"name":"放課後等デイサービス　ぴーす","province":"東京都","city":"北区","address":"北区上十条5-4-1サンタケビル1階","lat":35.764799,"lon":139.717381},{"name":"スキップランド　神谷","province":"東京都","city":"北区","address":"北区神谷二丁目23番15号","lat":35.771257,"lon":139.728288},{"name":"特定非営利活動法人クレセール心の相談室","province":"東京都","city":"北区","address":"北区赤羽1-41-5ATエミネンス2階201号室","lat":35.781599,"lon":139.719725},{"name":"第２特定非営利活動法人クレセール心の相談室","province":"東京都","city":"北区","address":"北区赤羽2-69-4ヴェルメゾン赤羽1階","lat":35.782555,"lon":139.722752},{"name":"児童デイサービス　まぁる","province":"東京都","city":"北区","address":"北区浮間四丁目32番20号松岡ビル2階","lat":35.791195,"lon":139.691607},{"name":"つみき第４","province":"東京都","city":"北区","address":"北区浮間4-5-5-101","lat":35.789051,"lon":139.697532},{"name":"放課後等デイサービスしらゆり　あそぼーよ　みんなで","province":"東京都","city":"北区","address":"北区赤羽北3丁目21番20-102号","lat":35.779105,"lon":139.705468},{"name":"北区子ども家庭支援センター","province":"東京都","city":"北区","address":"北区王子2-7-34","lat":35.757611,"lon":139.736033},{"name":"やじろべえ","province":"東京都","city":"北区","address":"北区赤羽北1-7-23","lat":35.78582,"lon":139.71375},{"name":"北区子ども家庭支援センター","province":"東京都","city":"北区","address":"北区王子6-7-3旧清至中学校別棟","lat":35.7632,"lon":139.74117},{"name":"北区子ども家庭支援センター","province":"東京都","city":"北区","address":"北区王子6-7-3旧清至中学校別棟","lat":35.762653,"lon":139.740387},{"name":"やじろべえ","province":"東京都","city":"北区","address":"北区赤羽北1-7-23","lat":35.785835,"lon":139.714308},{"name":"つみき第３","province":"東京都","city":"北区","address":"北区王子4-24-12-301","lat":35.76158,"lon":139.737196},{"name":"つみき第５","province":"東京都","city":"北区","address":"北区豊島1-17-4-100","lat":35.758939,"lon":139.73871},{"name":"放課後等デイサービス　あんプラス","province":"東京都","city":"北区","address":"北区栄町50-3","lat":35.751298,"lon":139.746207},{"name":"こどもプラス１","province":"東京都","city":"北区","address":"北区田端新町3-34-1","lat":35.742334,"lon":139.764337},{"name":"つみき第２","province":"東京都","city":"北区","address":"北区王子本町1-19-1","lat":35.753856,"lon":139.733005},{"name":"放課後デイサービス勉強レストランそうなんだ！！","province":"東京都","city":"北区","address":"北区滝野川1-68-7早稲田ビル2階","lat":35.748068,"lon":139.733955},{"name":"このこのリーフ　滝野川","province":"東京都","city":"北区","address":"北区滝野川五丁目41番3号","lat":35.748126,"lon":139.723126},{"name":"このこのリーフ滝野川　第２","province":"東京都","city":"北区","address":"北区滝野川7-20-1笹岡ビル1階","lat":35.742496,"lon":139.720329},{"name":"飛鳥晴山苑　放課後等デイサービスさくら","province":"東京都","city":"北区","address":"北区西ケ原4-51-1","lat":35.74141,"lon":139.735978},{"name":"スキップランド　西ヶ原","province":"東京都","city":"北区","address":"北区西ケ原四丁目2番19号","lat":35.742396,"lon":139.739591},{"name":"つみき第６","province":"東京都","city":"北区","address":"北区西ケ原3-54-8-101","lat":35.744193,"lon":139.737508},{"name":"つみき第１","province":"東京都","city":"北区","address":"北区上十条1-19-6","lat":35.759352,"lon":139.723289},{"name":"放課後等デイサービス　ぴーす","province":"東京都","city":"北区","address":"北区上十条5-4-1サンタケビル1階","lat":35.764799,"lon":139.717381},{"name":"スキップランド　神谷","province":"東京都","city":"北区","address":"北区神谷二丁目23番15号","lat":35.771257,"lon":139.728288},{"name":"特定非営利活動法人クレセール心の相談室","province":"東京都","city":"北区","address":"北区赤羽1-41-5ATエミネンス2階201号室","lat":35.781599,"lon":139.719725},{"name":"第２特定非営利活動法人クレセール心の相談室","province":"東京都","city":"北区","address":"北区赤羽2-69-4ヴェルメゾン赤羽1階","lat":35.782555,"lon":139.722752},{"name":"児童デイサービス　まぁる","province":"東京都","city":"北区","address":"北区浮間四丁目32番20号松岡ビル2階","lat":35.791195,"lon":139.691607},{"name":"つみき第４","province":"東京都","city":"北区","address":"北区浮間4-5-5-101","lat":35.789051,"lon":139.697532},{"name":"放課後等デイサービスしらゆり　あそぼーよ　みんなで","province":"東京都","city":"北区","address":"北区赤羽北3丁目21番20-102号","lat":35.779105,"lon":139.705468},{"name":"北区子ども家庭支援センター","province":"東京都","city":"北区","address":"北区王子2-7-34","lat":35.757611,"lon":139.736033},{"name":"やじろべえ","province":"東京都","city":"北区","address":"北区赤羽北1-7-23","lat":35.78582,"lon":139.71375},{"name":"北区子ども家庭支援センター","province":"東京都","city":"北区","address":"北区王子6-7-3旧清至中学校別棟","lat":35.7632,"lon":139.74117},{"name":"北区子ども家庭支援センター","province":"東京都","city":"北区","address":"北区王子6-7-3旧清至中学校別棟","lat":35.762653,"lon":139.740387},{"name":"やじろべえ","province":"東京都","city":"北区","address":"北区赤羽北1-7-23","lat":35.785835,"lon":139.714308},{"name":"つみき第３","province":"東京都","city":"北区","address":"北区王子4-24-12-301","lat":35.76158,"lon":139.737196},{"name":"つみき第５","province":"東京都","city":"北区","address":"北区豊島1-17-4-100","lat":35.758939,"lon":139.73871},{"name":"放課後等デイサービス　あんプラス","province":"東京都","city":"北区","address":"北区栄町50-3","lat":35.751298,"lon":139.746207},{"name":"こどもプラス１","province":"東京都","city":"北区","address":"北区田端新町3-34-1","lat":35.742334,"lon":139.764337},{"name":"つみき第２","province":"東京都","city":"北区","address":"北区王子本町1-19-1","lat":35.753856,"lon":139.733005},{"name":"放課後デイサービス勉強レストランそうなんだ！！","province":"東京都","city":"北区","address":"北区滝野川1-68-7早稲田ビル2階","lat":35.748068,"lon":139.733955},{"name":"このこのリーフ　滝野川","province":"東京都","city":"北区","address":"北区滝野川五丁目41番3号","lat":35.748126,"lon":139.723126},{"name":"このこのリーフ滝野川　第２","province":"東京都","city":"北区","address":"北区滝野川7-20-1笹岡ビル1階","lat":35.742496,"lon":139.720329},{"name":"飛鳥晴山苑　放課後等デイサービスさくら","province":"東京都","city":"北区","address":"北区西ケ原4-51-1","lat":35.74141,"lon":139.735978},{"name":"スキップランド　西ヶ原","province":"東京都","city":"北区","address":"北区西ケ原四丁目2番19号","lat":35.742396,"lon":139.739591},{"name":"つみき第６","province":"東京都","city":"北区","address":"北区西ケ原3-54-8-101","lat":35.744193,"lon":139.737508},{"name":"つみき第１","province":"東京都","city":"北区","address":"北区上十条1-19-6","lat":35.759352,"lon":139.723289},{"name":"放課後等デイサービス　ぴーす","province":"東京都","city":"北区","address":"北区上十条5-4-1サンタケビル1階","lat":35.764799,"lon":139.717381},{"name":"スキップランド　神谷","province":"東京都","city":"北区","address":"北区神谷二丁目23番15号","lat":35.771257,"lon":139.728288},{"name":"特定非営利活動法人クレセール心の相談室","province":"東京都","city":"北区","address":"北区赤羽1-41-5ATエミネンス2階201号室","lat":35.781599,"lon":139.719725},{"name":"第２特定非営利活動法人クレセール心の相談室","province":"東京都","city":"北区","address":"北区赤羽2-69-4ヴェルメゾン赤羽1階","lat":35.782555,"lon":139.722752},{"name":"児童デイサービス　まぁる","province":"東京都","city":"北区","address":"北区浮間四丁目32番20号松岡ビル2階","lat":35.791195,"lon":139.691607},{"name":"つみき第４","province":"東京都","city":"北区","address":"北区浮間4-5-5-101","lat":35.789051,"lon":139.697532},{"name":"放課後等デイサービスしらゆり　あそぼーよ　みんなで","province":"東京都","city":"北区","address":"北区赤羽北3丁目21番20-102号","lat":35.779105,"lon":139.705468},{"name":"北区子ども家庭支援センター","province":"東京都","city":"北区","address":"北区王子2-7-34","lat":35.757611,"lon":139.736033},{"name":"やじろべえ","province":"東京都","city":"北区","address":"北区赤羽北1-7-23","lat":35.78582,"lon":139.71375},{"name":"北区子ども家庭支援センター","province":"東京都","city":"北区","address":"北区王子6-7-3旧清至中学校別棟","lat":35.7632,"lon":139.74117},{"name":"北区子ども家庭支援センター","province":"東京都","city":"北区","address":"北区王子6-7-3旧清至中学校別棟","lat":35.762653,"lon":139.740387},{"name":"やじろべえ","province":"東京都","city":"北区","address":"北区赤羽北1-7-23","lat":35.785835,"lon":139.714308},{"name":"つみき第３","province":"東京都","city":"北区","address":"北区王子4-24-12-301","lat":35.76158,"lon":139.737196},{"name":"つみき第５","province":"東京都","city":"北区","address":"北区豊島1-17-4-100","lat":35.758939,"lon":139.73871},{"name":"放課後等デイサービス　あんプラス","province":"東京都","city":"北区","address":"北区栄町50-3","lat":35.751298,"lon":139.746207},{"name":"こどもプラス１","province":"東京都","city":"北区","address":"北区田端新町3-34-1","lat":35.742334,"lon":139.764337},{"name":"つみき第２","province":"東京都","city":"北区","address":"北区王子本町1-19-1","lat":35.753856,"lon":139.733005},{"name":"放課後デイサービス勉強レストランそうなんだ！！","province":"東京都","city":"北区","address":"北区滝野川1-68-7早稲田ビル2階","lat":35.748068,"lon":139.733955},{"name":"このこのリーフ　滝野川","province":"東京都","city":"北区","address":"北区滝野川五丁目41番3号","lat":35.748126,"lon":139.723126},{"name":"このこのリーフ滝野川　第２","province":"東京都","city":"北区","address":"北区滝野川7-20-1笹岡ビル1階","lat":35.742496,"lon":139.720329},{"name":"飛鳥晴山苑　放課後等デイサービスさくら","province":"東京都","city":"北区","address":"北区西ケ原4-51-1","lat":35.74141,"lon":139.735978},{"name":"スキップランド　西ヶ原","province":"東京都","city":"北区","address":"北区西ケ原四丁目2番19号","lat":35.742396,"lon":139.739591},{"name":"つみき第６","province":"東京都","city":"北区","address":"北区西ケ原3-54-8-101","lat":35.744193,"lon":139.737508},{"name":"つみき第１","province":"東京都","city":"北区","address":"北区上十条1-19-6","lat":35.759352,"lon":139.723289},{"name":"放課後等デイサービス　ぴーす","province":"東京都","city":"北区","address":"北区上十条5-4-1サンタケビル1階","lat":35.764799,"lon":139.717381},{"name":"スキップランド　神谷","province":"東京都","city":"北区","address":"北区神谷二丁目23番15号","lat":35.771257,"lon":139.728288},{"name":"特定非営利活動法人クレセール心の相談室","province":"東京都","city":"北区","address":"北区赤羽1-41-5ATエミネンス2階201号室","lat":35.781599,"lon":139.719725},{"name":"第２特定非営利活動法人クレセール心の相談室","province":"東京都","city":"北区","address":"北区赤羽2-69-4ヴェルメゾン赤羽1階","lat":35.782555,"lon":139.722752},{"name":"児童デイサービス　まぁる","province":"東京都","city":"北区","address":"北区浮間四丁目32番20号松岡ビル2階","lat":35.791195,"lon":139.691607},{"name":"つみき第４","province":"東京都","city":"北区","address":"北区浮間4-5-5-101","lat":35.789051,"lon":139.697532},{"name":"放課後等デイサービスしらゆり　あそぼーよ　みんなで","province":"東京都","city":"北区","address":"北区赤羽北3丁目21番20-102号","lat":35.779105,"lon":139.705468},{"name":"北区子ども家庭支援センター","province":"東京都","city":"北区","address":"北区王子2-7-34","lat":35.757611,"lon":139.736033},{"name":"やじろべえ","province":"東京都","city":"北区","address":"北区赤羽北1-7-23","lat":35.78582,"lon":139.71375},{"name":"北区子ども家庭支援センター","province":"東京都","city":"北区","address":"北区王子6-7-3旧清至中学校別棟","lat":35.7632,"lon":139.74117},{"name":"北区子ども家庭支援センター","province":"東京都","city":"北区","address":"北区王子6-7-3旧清至中学校別棟","lat":35.762653,"lon":139.740387},{"name":"やじろべえ","province":"東京都","city":"北区","address":"北区赤羽北1-7-23","lat":35.785835,"lon":139.714308},{"name":"つみき第３","province":"東京都","city":"北区","address":"北区王子4-24-12-301","lat":35.76158,"lon":139.737196},{"name":"つみき第５","province":"東京都","city":"北区","address":"北区豊島1-17-4-100","lat":35.758939,"lon":139.73871},{"name":"放課後等デイサービス　あんプラス","province":"東京都","city":"北区","address":"北区栄町50-3","lat":35.751298,"lon":139.746207},{"name":"こどもプラス１","province":"東京都","city":"北区","address":"北区田端新町3-34-1","lat":35.742334,"lon":139.764337},{"name":"つみき第２","province":"東京都","city":"北区","address":"北区王子本町1-19-1","lat":35.753856,"lon":139.733005},{"name":"放課後デイサービス勉強レストランそうなんだ！！","province":"東京都","city":"北区","address":"北区滝野川1-68-7早稲田ビル2階","lat":35.748068,"lon":139.733955},{"name":"このこのリーフ　滝野川","province":"東京都","city":"北区","address":"北区滝野川五丁目41番3号","lat":35.748126,"lon":139.723126},{"name":"このこのリーフ滝野川　第２","province":"東京都","city":"北区","address":"北区滝野川7-20-1笹岡ビル1階","lat":35.742496,"lon":139.720329},{"name":"飛鳥晴山苑　放課後等デイサービスさくら","province":"東京都","city":"北区","address":"北区西ケ原4-51-1","lat":35.74141,"lon":139.735978},{"name":"スキップランド　西ヶ原","province":"東京都","city":"北区","address":"北区西ケ原四丁目2番19号","lat":35.742396,"lon":139.739591},{"name":"つみき第６","province":"東京都","city":"北区","address":"北区西ケ原3-54-8-101","lat":35.744193,"lon":139.737508},{"name":"つみき第１","province":"東京都","city":"北区","address":"北区上十条1-19-6","lat":35.759352,"lon":139.723289},{"name":"放課後等デイサービス　ぴーす","province":"東京都","city":"北区","address":"北区上十条5-4-1サンタケビル1階","lat":35.764799,"lon":139.717381},{"name":"スキップランド　神谷","province":"東京都","city":"北区","address":"北区神谷二丁目23番15号","lat":35.771257,"lon":139.728288},{"name":"特定非営利活動法人クレセール心の相談室","province":"東京都","city":"北区","address":"北区赤羽1-41-5ATエミネンス2階201号室","lat":35.781599,"lon":139.719725},{"name":"第２特定非営利活動法人クレセール心の相談室","province":"東京都","city":"北区","address":"北区赤羽2-69-4ヴェルメゾン赤羽1階","lat":35.782555,"lon":139.722752},{"name":"児童デイサービス　まぁる","province":"東京都","city":"北区","address":"北区浮間四丁目32番20号松岡ビル2階","lat":35.791195,"lon":139.691607},{"name":"つみき第４","province":"東京都","city":"北区","address":"北区浮間4-5-5-101","lat":35.789051,"lon":139.697532},{"name":"放課後等デイサービスしらゆり　あそぼーよ　みんなで","province":"東京都","city":"北区","address":"北区赤羽北3丁目21番20-102号","lat":35.779105,"lon":139.705468},{"name":"北区子ども家庭支援センター","province":"東京都","city":"北区","address":"北区王子2-7-34","lat":35.757611,"lon":139.736033},{"name":"やじろべえ","province":"東京都","city":"北区","address":"北区赤羽北1-7-23","lat":35.78582,"lon":139.71375},{"name":"北区子ども家庭支援センター","province":"東京都","city":"北区","address":"北区王子6-7-3旧清至中学校別棟","lat":35.7632,"lon":139.74117},{"name":"北区子ども家庭支援センター","province":"東京都","city":"北区","address":"北区王子6-7-3旧清至中学校別棟","lat":35.762653,"lon":139.740387},{"name":"やじろべえ","province":"東京都","city":"北区","address":"北区赤羽北1-7-23","lat":35.785835,"lon":139.714308},{"name":"つみき第３","province":"東京都","city":"北区","address":"北区王子4-24-12-301","lat":35.76158,"lon":139.737196},{"name":"つみき第５","province":"東京都","city":"北区","address":"北区豊島1-17-4-100","lat":35.758939,"lon":139.73871},{"name":"放課後等デイサービス　あんプラス","province":"東京都","city":"北区","address":"北区栄町50-3","lat":35.751298,"lon":139.746207},{"name":"こどもプラス１","province":"東京都","city":"北区","address":"北区田端新町3-34-1","lat":35.742334,"lon":139.764337},{"name":"つみき第２","province":"東京都","city":"北区","address":"北区王子本町1-19-1","lat":35.753856,"lon":139.733005},{"name":"放課後デイサービス勉強レストランそうなんだ！！","province":"東京都","city":"北区","address":"北区滝野川1-68-7早稲田ビル2階","lat":35.748068,"lon":139.733955},{"name":"このこのリーフ　滝野川","province":"東京都","city":"北区","address":"北区滝野川五丁目41番3号","lat":35.748126,"lon":139.723126},{"name":"このこのリーフ滝野川　第２","province":"東京都","city":"北区","address":"北区滝野川7-20-1笹岡ビル1階","lat":35.742496,"lon":139.720329},{"name":"飛鳥晴山苑　放課後等デイサービスさくら","province":"東京都","city":"北区","address":"北区西ケ原4-51-1","lat":35.74141,"lon":139.735978},{"name":"スキップランド　西ヶ原","province":"東京都","city":"北区","address":"北区西ケ原四丁目2番19号","lat":35.742396,"lon":139.739591},{"name":"つみき第６","province":"東京都","city":"北区","address":"北区西ケ原3-54-8-101","lat":35.744193,"lon":139.737508},{"name":"つみき第１","province":"東京都","city":"北区","address":"北区上十条1-19-6","lat":35.759352,"lon":139.723289},{"name":"放課後等デイサービス　ぴーす","province":"東京都","city":"北区","address":"北区上十条5-4-1サンタケビル1階","lat":35.764799,"lon":139.717381},{"name":"スキップランド　神谷","province":"東京都","city":"北区","address":"北区神谷二丁目23番15号","lat":35.771257,"lon":139.728288},{"name":"特定非営利活動法人クレセール心の相談室","province":"東京都","city":"北区","address":"北区赤羽1-41-5ATエミネンス2階201号室","lat":35.781599,"lon":139.719725},{"name":"第２特定非営利活動法人クレセール心の相談室","province":"東京都","city":"北区","address":"北区赤羽2-69-4ヴェルメゾン赤羽1階","lat":35.782555,"lon":139.722752},{"name":"児童デイサービス　まぁる","province":"東京都","city":"北区","address":"北区浮間四丁目32番20号松岡ビル2階","lat":35.791195,"lon":139.691607},{"name":"つみき第４","province":"東京都","city":"北区","address":"北区浮間4-5-5-101","lat":35.789051,"lon":139.697532},{"name":"放課後等デイサービスしらゆり　あそぼーよ　みんなで","province":"東京都","city":"北区","address":"北区赤羽北3丁目21番20-102号","lat":35.779105,"lon":139.705468},{"name":"北区子ども家庭支援センター","province":"東京都","city":"北区","address":"北区王子2-7-34","lat":35.757611,"lon":139.736033},{"name":"やじろべえ","province":"東京都","city":"北区","address":"北区赤羽北1-7-23","lat":35.78582,"lon":139.71375},{"name":"北区子ども家庭支援センター","province":"東京都","city":"北区","address":"北区王子6-7-3旧清至中学校別棟","lat":35.7632,"lon":139.74117},{"name":"北区子ども家庭支援センター","province":"東京都","city":"北区","address":"北区王子6-7-3旧清至中学校別棟","lat":35.762653,"lon":139.740387},{"name":"やじろべえ","province":"東京都","city":"北区","address":"北区赤羽北1-7-23","lat":35.785835,"lon":139.714308},{"name":"つみき第３","province":"東京都","city":"北区","address":"北区王子4-24-12-301","lat":35.76158,"lon":139.737196},{"name":"つみき第５","province":"東京都","city":"北区","address":"北区豊島1-17-4-100","lat":35.758939,"lon":139.73871},{"name":"放課後等デイサービス　あんプラス","province":"東京都","city":"北区","address":"北区栄町50-3","lat":35.751298,"lon":139.746207},{"name":"こどもプラス１","province":"東京都","city":"北区","address":"北区田端新町3-34-1","lat":35.742334,"lon":139.764337},{"name":"つみき第２","province":"東京都","city":"北区","address":"北区王子本町1-19-1","lat":35.753856,"lon":139.733005},{"name":"放課後デイサービス勉強レストランそうなんだ！！","province":"東京都","city":"北区","address":"北区滝野川1-68-7早稲田ビル2階","lat":35.748068,"lon":139.733955},{"name":"このこのリーフ　滝野川","province":"東京都","city":"北区","address":"北区滝野川五丁目41番3号","lat":35.748126,"lon":139.723126},{"name":"このこのリーフ滝野川　第２","province":"東京都","city":"北区","address":"北区滝野川7-20-1笹岡ビル1階","lat":35.742496,"lon":139.720329},{"name":"飛鳥晴山苑　放課後等デイサービスさくら","province":"東京都","city":"北区","address":"北区西ケ原4-51-1","lat":35.74141,"lon":139.735978},{"name":"スキップランド　西ヶ原","province":"東京都","city":"北区","address":"北区西ケ原四丁目2番19号","lat":35.742396,"lon":139.739591},{"name":"つみき第６","province":"東京都","city":"北区","address":"北区西ケ原3-54-8-101","lat":35.744193,"lon":139.737508},{"name":"つみき第１","province":"東京都","city":"北区","address":"北区上十条1-19-6","lat":35.759352,"lon":139.723289},{"name":"放課後等デイサービス　ぴーす","province":"東京都","city":"北区","address":"北区上十条5-4-1サンタケビル1階","lat":35.764799,"lon":139.717381},{"name":"スキップランド　神谷","province":"東京都","city":"北区","address":"北区神谷二丁目23番15号","lat":35.771257,"lon":139.728288},{"name":"特定非営利活動法人クレセール心の相談室","province":"東京都","city":"北区","address":"北区赤羽1-41-5ATエミネンス2階201号室","lat":35.781599,"lon":139.719725},{"name":"第２特定非営利活動法人クレセール心の相談室","province":"東京都","city":"北区","address":"北区赤羽2-69-4ヴェルメゾン赤羽1階","lat":35.782555,"lon":139.722752},{"name":"児童デイサービス　まぁる","province":"東京都","city":"北区","address":"北区浮間四丁目32番20号松岡ビル2階","lat":35.791195,"lon":139.691607},{"name":"つみき第４","province":"東京都","city":"北区","address":"北区浮間4-5-5-101","lat":35.789051,"lon":139.697532},{"name":"放課後等デイサービスしらゆり　あそぼーよ　みんなで","province":"東京都","city":"北区","address":"北区赤羽北3丁目21番20-102号","lat":35.779105,"lon":139.705468},{"name":"北区子ども家庭支援センター","province":"東京都","city":"北区","address":"北区王子2-7-34","lat":35.757611,"lon":139.736033},{"name":"やじろべえ","province":"東京都","city":"北区","address":"北区赤羽北1-7-23","lat":35.78582,"lon":139.71375},{"name":"北区子ども家庭支援センター","province":"東京都","city":"北区","address":"北区王子6-7-3旧清至中学校別棟","lat":35.7632,"lon":139.74117},{"name":"北区子ども家庭支援センター","province":"東京都","city":"北区","address":"北区王子6-7-3旧清至中学校別棟","lat":35.762653,"lon":139.740387},{"name":"やじろべえ","province":"東京都","city":"北区","address":"北区赤羽北1-7-23","lat":35.785835,"lon":139.714308},{"name":"つみき第３","province":"東京都","city":"北区","address":"北区王子4-24-12-301","lat":35.76158,"lon":139.737196},{"name":"つみき第５","province":"東京都","city":"北区","address":"北区豊島1-17-4-100","lat":35.758939,"lon":139.73871},{"name":"放課後等デイサービス　あんプラス","province":"東京都","city":"北区","address":"北区栄町50-3","lat":35.751298,"lon":139.746207},{"name":"こどもプラス１","province":"東京都","city":"北区","address":"北区田端新町3-34-1","lat":35.742334,"lon":139.764337},{"name":"つみき第２","province":"東京都","city":"北区","address":"北区王子本町1-19-1","lat":35.753856,"lon":139.733005},{"name":"放課後デイサービス勉強レストランそうなんだ！！","province":"東京都","city":"北区","address":"北区滝野川1-68-7早稲田ビル2階","lat":35.748068,"lon":139.733955},{"name":"このこのリーフ　滝野川","province":"東京都","city":"北区","address":"北区滝野川五丁目41番3号","lat":35.748126,"lon":139.723126},{"name":"このこのリーフ滝野川　第２","province":"東京都","city":"北区","address":"北区滝野川7-20-1笹岡ビル1階","lat":35.742496,"lon":139.720329},{"name":"飛鳥晴山苑　放課後等デイサービスさくら","province":"東京都","city":"北区","address":"北区西ケ原4-51-1","lat":35.74141,"lon":139.735978},{"name":"スキップランド　西ヶ原","province":"東京都","city":"北区","address":"北区西ケ原四丁目2番19号","lat":35.742396,"lon":139.739591},{"name":"つみき第６","province":"東京都","city":"北区","address":"北区西ケ原3-54-8-101","lat":35.744193,"lon":139.737508},{"name":"つみき第１","province":"東京都","city":"北区","address":"北区上十条1-19-6","lat":35.759352,"lon":139.723289},{"name":"放課後等デイサービス　ぴーす","province":"東京都","city":"北区","address":"北区上十条5-4-1サンタケビル1階","lat":35.764799,"lon":139.717381},{"name":"スキップランド　神谷","province":"東京都","city":"北区","address":"北区神谷二丁目23番15号","lat":35.771257,"lon":139.728288},{"name":"特定非営利活動法人クレセール心の相談室","province":"東京都","city":"北区","address":"北区赤羽1-41-5ATエミネンス2階201号室","lat":35.781599,"lon":139.719725},{"name":"第２特定非営利活動法人クレセール心の相談室","province":"東京都","city":"北区","address":"北区赤羽2-69-4ヴェルメゾン赤羽1階","lat":35.782555,"lon":139.722752},{"name":"児童デイサービス　まぁる","province":"東京都","city":"北区","address":"北区浮間四丁目32番20号松岡ビル2階","lat":35.791195,"lon":139.691607},{"name":"つみき第４","province":"東京都","city":"北区","address":"北区浮間4-5-5-101","lat":35.789051,"lon":139.697532},{"name":"放課後等デイサービスしらゆり　あそぼーよ　みんなで","province":"東京都","city":"北区","address":"北区赤羽北3丁目21番20-102号","lat":35.779105,"lon":139.705468},{"name":"北区子ども家庭支援センター","province":"東京都","city":"北区","address":"北区王子2-7-34","lat":35.757611,"lon":139.736033},{"name":"やじろべえ","province":"東京都","city":"北区","address":"北区赤羽北1-7-23","lat":35.78582,"lon":139.71375},{"name":"北区子ども家庭支援センター","province":"東京都","city":"北区","address":"北区王子6-7-3旧清至中学校別棟","lat":35.7632,"lon":139.74117},{"name":"北区子ども家庭支援センター","province":"東京都","city":"北区","address":"北区王子6-7-3旧清至中学校別棟","lat":35.762653,"lon":139.740387},{"name":"やじろべえ","province":"東京都","city":"北区","address":"北区赤羽北1-7-23","lat":35.785835,"lon":139.714308},{"name":"つみき第３","province":"東京都","city":"北区","address":"北区王子4-24-12-301","lat":35.76158,"lon":139.737196},{"name":"つみき第５","province":"東京都","city":"北区","address":"北区豊島1-17-4-100","lat":35.758939,"lon":139.73871},{"name":"放課後等デイサービス　あんプラス","province":"東京都","city":"北区","address":"北区栄町50-3","lat":35.751298,"lon":139.746207},{"name":"こどもプラス１","province":"東京都","city":"北区","address":"北区田端新町3-34-1","lat":35.742334,"lon":139.764337},{"name":"つみき第２","province":"東京都","city":"北区","address":"北区王子本町1-19-1","lat":35.753856,"lon":139.733005},{"name":"放課後デイサービス勉強レストランそうなんだ！！","province":"東京都","city":"北区","address":"北区滝野川1-68-7早稲田ビル2階","lat":35.748068,"lon":139.733955},{"name":"このこのリーフ　滝野川","province":"東京都","city":"北区","address":"北区滝野川五丁目41番3号","lat":35.748126,"lon":139.723126},{"name":"このこのリーフ滝野川　第２","province":"東京都","city":"北区","address":"北区滝野川7-20-1笹岡ビル1階","lat":35.742496,"lon":139.720329},{"name":"飛鳥晴山苑　放課後等デイサービスさくら","province":"東京都","city":"北区","address":"北区西ケ原4-51-1","lat":35.74141,"lon":139.735978},{"name":"スキップランド　西ヶ原","province":"東京都","city":"北区","address":"北区西ケ原四丁目2番19号","lat":35.742396,"lon":139.739591},{"name":"つみき第６","province":"東京都","city":"北区","address":"北区西ケ原3-54-8-101","lat":35.744193,"lon":139.737508},{"name":"つみき第１","province":"東京都","city":"北区","address":"北区上十条1-19-6","lat":35.759352,"lon":139.723289},{"name":"放課後等デイサービス　ぴーす","province":"東京都","city":"北区","address":"北区上十条5-4-1サンタケビル1階","lat":35.764799,"lon":139.717381},{"name":"スキップランド　神谷","province":"東京都","city":"北区","address":"北区神谷二丁目23番15号","lat":35.771257,"lon":139.728288},{"name":"特定非営利活動法人クレセール心の相談室","province":"東京都","city":"北区","address":"北区赤羽1-41-5ATエミネンス2階201号室","lat":35.781599,"lon":139.719725},{"name":"第２特定非営利活動法人クレセール心の相談室","province":"東京都","city":"北区","address":"北区赤羽2-69-4ヴェルメゾン赤羽1階","lat":35.782555,"lon":139.722752},{"name":"児童デイサービス　まぁる","province":"東京都","city":"北区","address":"北区浮間四丁目32番20号松岡ビル2階","lat":35.791195,"lon":139.691607},{"name":"つみき第４","province":"東京都","city":"北区","address":"北区浮間4-5-5-101","lat":35.789051,"lon":139.697532},{"name":"放課後等デイサービスしらゆり　あそぼーよ　みんなで","province":"東京都","city":"北区","address":"北区赤羽北3丁目21番20-102号","lat":35.779105,"lon":139.705468},{"name":"北区子ども家庭支援センター","province":"東京都","city":"北区","address":"北区王子2-7-34","lat":35.757611,"lon":139.736033},{"name":"やじろべえ","province":"東京都","city":"北区","address":"北区赤羽北1-7-23","lat":35.78582,"lon":139.71375},{"name":"北区子ども家庭支援センター","province":"東京都","city":"北区","address":"北区王子6-7-3旧清至中学校別棟","lat":35.7632,"lon":139.74117},{"name":"北区子ども家庭支援センター","province":"東京都","city":"北区","address":"北区王子6-7-3旧清至中学校別棟","lat":35.762653,"lon":139.740387},{"name":"やじろべえ","province":"東京都","city":"北区","address":"北区赤羽北1-7-23","lat":35.785835,"lon":139.714308},{"name":"つみき第３","province":"東京都","city":"北区","address":"北区王子4-24-12-301","lat":35.76158,"lon":139.737196},{"name":"つみき第５","province":"東京都","city":"北区","address":"北区豊島1-17-4-100","lat":35.758939,"lon":139.73871},{"name":"放課後等デイサービス　あんプラス","province":"東京都","city":"北区","address":"北区栄町50-3","lat":35.751298,"lon":139.746207},{"name":"こどもプラス１","province":"東京都","city":"北区","address":"北区田端新町3-34-1","lat":35.742334,"lon":139.764337},{"name":"つみき第２","province":"東京都","city":"北区","address":"北区王子本町1-19-1","lat":35.753856,"lon":139.733005},{"name":"放課後デイサービス勉強レストランそうなんだ！！","province":"東京都","city":"北区","address":"北区滝野川1-68-7早稲田ビル2階","lat":35.748068,"lon":139.733955},{"name":"このこのリーフ　滝野川","province":"東京都","city":"北区","address":"北区滝野川五丁目41番3号","lat":35.748126,"lon":139.723126},{"name":"このこのリーフ滝野川　第２","province":"東京都","city":"北区","address":"北区滝野川7-20-1笹岡ビル1階","lat":35.742496,"lon":139.720329},{"name":"飛鳥晴山苑　放課後等デイサービスさくら","province":"東京都","city":"北区","address":"北区西ケ原4-51-1","lat":35.74141,"lon":139.735978},{"name":"スキップランド　西ヶ原","province":"東京都","city":"北区","address":"北区西ケ原四丁目2番19号","lat":35.742396,"lon":139.739591},{"name":"つみき第６","province":"東京都","city":"北区","address":"北区西ケ原3-54-8-101","lat":35.744193,"lon":139.737508},{"name":"つみき第１","province":"東京都","city":"北区","address":"北区上十条1-19-6","lat":35.759352,"lon":139.723289},{"name":"放課後等デイサービス　ぴーす","province":"東京都","city":"北区","address":"北区上十条5-4-1サンタケビル1階","lat":35.764799,"lon":139.717381},{"name":"スキップランド　神谷","province":"東京都","city":"北区","address":"北区神谷二丁目23番15号","lat":35.771257,"lon":139.728288},{"name":"特定非営利活動法人クレセール心の相談室","province":"東京都","city":"北区","address":"北区赤羽1-41-5ATエミネンス2階201号室","lat":35.781599,"lon":139.719725},{"name":"第２特定非営利活動法人クレセール心の相談室","province":"東京都","city":"北区","address":"北区赤羽2-69-4ヴェルメゾン赤羽1階","lat":35.782555,"lon":139.722752},{"name":"児童デイサービス　まぁる","province":"東京都","city":"北区","address":"北区浮間四丁目32番20号松岡ビル2階","lat":35.791195,"lon":139.691607},{"name":"つみき第４","province":"東京都","city":"北区","address":"北区浮間4-5-5-101","lat":35.789051,"lon":139.697532},{"name":"放課後等デイサービスしらゆり　あそぼーよ　みんなで","province":"東京都","city":"北区","address":"北区赤羽北3丁目21番20-102号","lat":35.779105,"lon":139.705468},{"name":"北区子ども家庭支援センター","province":"東京都","city":"北区","address":"北区王子2-7-34","lat":35.757611,"lon":139.736033},{"name":"やじろべえ","province":"東京都","city":"北区","address":"北区赤羽北1-7-23","lat":35.78582,"lon":139.71375},{"name":"北区子ども家庭支援センター","province":"東京都","city":"北区","address":"北区王子6-7-3旧清至中学校別棟","lat":35.7632,"lon":139.74117},{"name":"北区子ども家庭支援センター","province":"東京都","city":"北区","address":"北区王子6-7-3旧清至中学校別棟","lat":35.762653,"lon":139.740387},{"name":"やじろべえ","province":"東京都","city":"北区","address":"北区赤羽北1-7-23","lat":35.785835,"lon":139.714308},{"name":"つみき第３","province":"東京都","city":"北区","address":"北区王子4-24-12-301","lat":35.76158,"lon":139.737196},{"name":"つみき第５","province":"東京都","city":"北区","address":"北区豊島1-17-4-100","lat":35.758939,"lon":139.73871},{"name":"放課後等デイサービス　あんプラス","province":"東京都","city":"北区","address":"北区栄町50-3","lat":35.751298,"lon":139.746207},{"name":"こどもプラス１","province":"東京都","city":"北区","address":"北区田端新町3-34-1","lat":35.742334,"lon":139.764337},{"name":"つみき第２","province":"東京都","city":"北区","address":"北区王子本町1-19-1","lat":35.753856,"lon":139.733005},{"name":"放課後デイサービス勉強レストランそうなんだ！！","province":"東京都","city":"北区","address":"北区滝野川1-68-7早稲田ビル2階","lat":35.748068,"lon":139.733955},{"name":"このこのリーフ　滝野川","province":"東京都","city":"北区","address":"北区滝野川五丁目41番3号","lat":35.748126,"lon":139.723126},{"name":"このこのリーフ滝野川　第２","province":"東京都","city":"北区","address":"北区滝野川7-20-1笹岡ビル1階","lat":35.742496,"lon":139.720329},{"name":"飛鳥晴山苑　放課後等デイサービスさくら","province":"東京都","city":"北区","address":"北区西ケ原4-51-1","lat":35.74141,"lon":139.735978},{"name":"スキップランド　西ヶ原","province":"東京都","city":"北区","address":"北区西ケ原四丁目2番19号","lat":35.742396,"lon":139.739591},{"name":"つみき第６","province":"東京都","city":"北区","address":"北区西ケ原3-54-8-101","lat":35.744193,"lon":139.737508},{"name":"つみき第１","province":"東京都","city":"北区","address":"北区上十条1-19-6","lat":35.759352,"lon":139.723289},{"name":"放課後等デイサービス　ぴーす","province":"東京都","city":"北区","address":"北区上十条5-4-1サンタケビル1階","lat":35.764799,"lon":139.717381},{"name":"スキップランド　神谷","province":"東京都","city":"北区","address":"北区神谷二丁目23番15号","lat":35.771257,"lon":139.728288},{"name":"特定非営利活動法人クレセール心の相談室","province":"東京都","city":"北区","address":"北区赤羽1-41-5ATエミネンス2階201号室","lat":35.781599,"lon":139.719725},{"name":"第２特定非営利活動法人クレセール心の相談室","province":"東京都","city":"北区","address":"北区赤羽2-69-4ヴェルメゾン赤羽1階","lat":35.782555,"lon":139.722752},{"name":"児童デイサービス　まぁる","province":"東京都","city":"北区","address":"北区浮間四丁目32番20号松岡ビル2階","lat":35.791195,"lon":139.691607},{"name":"つみき第４","province":"東京都","city":"北区","address":"北区浮間4-5-5-101","lat":35.789051,"lon":139.697532},{"name":"放課後等デイサービスしらゆり　あそぼーよ　みんなで","province":"東京都","city":"北区","address":"北区赤羽北3丁目21番20-102号","lat":35.779105,"lon":139.705468},{"name":"北区子ども家庭支援センター","province":"東京都","city":"北区","address":"北区王子2-7-34","lat":35.757611,"lon":139.736033},{"name":"やじろべえ","province":"東京都","city":"北区","address":"北区赤羽北1-7-23","lat":35.78582,"lon":139.71375},{"name":"北区子ども家庭支援センター","province":"東京都","city":"北区","address":"北区王子6-7-3旧清至中学校別棟","lat":35.7632,"lon":139.74117},{"name":"北区子ども家庭支援センター","province":"東京都","city":"北区","address":"北区王子6-7-3旧清至中学校別棟","lat":35.762653,"lon":139.740387},{"name":"やじろべえ","province":"東京都","city":"北区","address":"北区赤羽北1-7-23","lat":35.785835,"lon":139.714308},{"name":"つみき第３","province":"東京都","city":"北区","address":"北区王子4-24-12-301","lat":35.76158,"lon":139.737196},{"name":"つみき第５","province":"東京都","city":"北区","address":"北区豊島1-17-4-100","lat":35.758939,"lon":139.73871},{"name":"放課後等デイサービス　あんプラス","province":"東京都","city":"北区","address":"北区栄町50-3","lat":35.751298,"lon":139.746207},{"name":"こどもプラス１","province":"東京都","city":"北区","address":"北区田端新町3-34-1","lat":35.742334,"lon":139.764337},{"name":"つみき第２","province":"東京都","city":"北区","address":"北区王子本町1-19-1","lat":35.753856,"lon":139.733005},{"name":"放課後デイサービス勉強レストランそうなんだ！！","province":"東京都","city":"北区","address":"北区滝野川1-68-7早稲田ビル2階","lat":35.748068,"lon":139.733955},{"name":"このこのリーフ　滝野川","province":"東京都","city":"北区","address":"北区滝野川五丁目41番3号","lat":35.748126,"lon":139.723126},{"name":"このこのリーフ滝野川　第２","province":"東京都","city":"北区","address":"北区滝野川7-20-1笹岡ビル1階","lat":35.742496,"lon":139.720329},{"name":"飛鳥晴山苑　放課後等デイサービスさくら","province":"東京都","city":"北区","address":"北区西ケ原4-51-1","lat":35.74141,"lon":139.735978},{"name":"スキップランド　西ヶ原","province":"東京都","city":"北区","address":"北区西ケ原四丁目2番19号","lat":35.742396,"lon":139.739591},{"name":"つみき第６","province":"東京都","city":"北区","address":"北区西ケ原3-54-8-101","lat":35.744193,"lon":139.737508},{"name":"つみき第１","province":"東京都","city":"北区","address":"北区上十条1-19-6","lat":35.759352,"lon":139.723289},{"name":"放課後等デイサービス　ぴーす","province":"東京都","city":"北区","address":"北区上十条5-4-1サンタケビル1階","lat":35.764799,"lon":139.717381},{"name":"スキップランド　神谷","province":"東京都","city":"北区","address":"北区神谷二丁目23番15号","lat":35.771257,"lon":139.728288},{"name":"特定非営利活動法人クレセール心の相談室","province":"東京都","city":"北区","address":"北区赤羽1-41-5ATエミネンス2階201号室","lat":35.781599,"lon":139.719725},{"name":"第２特定非営利活動法人クレセール心の相談室","province":"東京都","city":"北区","address":"北区赤羽2-69-4ヴェルメゾン赤羽1階","lat":35.782555,"lon":139.722752},{"name":"児童デイサービス　まぁる","province":"東京都","city":"北区","address":"北区浮間四丁目32番20号松岡ビル2階","lat":35.791195,"lon":139.691607},{"name":"つみき第４","province":"東京都","city":"北区","address":"北区浮間4-5-5-101","lat":35.789051,"lon":139.697532},{"name":"放課後等デイサービスしらゆり　あそぼーよ　みんなで","province":"東京都","city":"北区","address":"北区赤羽北3丁目21番20-102号","lat":35.779105,"lon":139.705468},{"name":"北区子ども家庭支援センター","province":"東京都","city":"北区","address":"北区王子2-7-34","lat":35.757611,"lon":139.736033},{"name":"やじろべえ","province":"東京都","city":"北区","address":"北区赤羽北1-7-23","lat":35.78582,"lon":139.71375},{"name":"北区子ども家庭支援センター","province":"東京都","city":"北区","address":"北区王子6-7-3旧清至中学校別棟","lat":35.7632,"lon":139.74117},{"name":"北区子ども家庭支援センター","province":"東京都","city":"北区","address":"北区王子6-7-3旧清至中学校別棟","lat":35.762653,"lon":139.740387},{"name":"やじろべえ","province":"東京都","city":"北区","address":"北区赤羽北1-7-23","lat":35.785835,"lon":139.714308},{"name":"つみき第３","province":"東京都","city":"北区","address":"北区王子4-24-12-301","lat":35.76158,"lon":139.737196},{"name":"つみき第５","province":"東京都","city":"北区","address":"北区豊島1-17-4-100","lat":35.758939,"lon":139.73871},{"name":"放課後等デイサービス　あんプラス","province":"東京都","city":"北区","address":"北区栄町50-3","lat":35.751298,"lon":139.746207},{"name":"こどもプラス１","province":"東京都","city":"北区","address":"北区田端新町3-34-1","lat":35.742334,"lon":139.764337},{"name":"つみき第２","province":"東京都","city":"北区","address":"北区王子本町1-19-1","lat":35.753856,"lon":139.733005},{"name":"放課後デイサービス勉強レストランそうなんだ！！","province":"東京都","city":"北区","address":"北区滝野川1-68-7早稲田ビル2階","lat":35.748068,"lon":139.733955},{"name":"このこのリーフ　滝野川","province":"東京都","city":"北区","address":"北区滝野川五丁目41番3号","lat":35.748126,"lon":139.723126},{"name":"このこのリーフ滝野川　第２","province":"東京都","city":"北区","address":"北区滝野川7-20-1笹岡ビル1階","lat":35.742496,"lon":139.720329},{"name":"飛鳥晴山苑　放課後等デイサービスさくら","province":"東京都","city":"北区","address":"北区西ケ原4-51-1","lat":35.74141,"lon":139.735978},{"name":"スキップランド　西ヶ原","province":"東京都","city":"北区","address":"北区西ケ原四丁目2番19号","lat":35.742396,"lon":139.739591},{"name":"つみき第６","province":"東京都","city":"北区","address":"北区西ケ原3-54-8-101","lat":35.744193,"lon":139.737508},{"name":"つみき第１","province":"東京都","city":"北区","address":"北区上十条1-19-6","lat":35.759352,"lon":139.723289},{"name":"放課後等デイサービス　ぴーす","province":"東京都","city":"北区","address":"北区上十条5-4-1サンタケビル1階","lat":35.764799,"lon":139.717381},{"name":"スキップランド　神谷","province":"東京都","city":"北区","address":"北区神谷二丁目23番15号","lat":35.771257,"lon":139.728288},{"name":"特定非営利活動法人クレセール心の相談室","province":"東京都","city":"北区","address":"北区赤羽1-41-5ATエミネンス2階201号室","lat":35.781599,"lon":139.719725},{"name":"第２特定非営利活動法人クレセール心の相談室","province":"東京都","city":"北区","address":"北区赤羽2-69-4ヴェルメゾン赤羽1階","lat":35.782555,"lon":139.722752},{"name":"児童デイサービス　まぁる","province":"東京都","city":"北区","address":"北区浮間四丁目32番20号松岡ビル2階","lat":35.791195,"lon":139.691607},{"name":"つみき第４","province":"東京都","city":"北区","address":"北区浮間4-5-5-101","lat":35.789051,"lon":139.697532},{"name":"放課後等デイサービスしらゆり　あそぼーよ　みんなで","province":"東京都","city":"北区","address":"北区赤羽北3丁目21番20-102号","lat":35.779105,"lon":139.705468},{"name":"北区子ども家庭支援センター","province":"東京都","city":"北区","address":"北区王子2-7-34","lat":35.757611,"lon":139.736033},{"name":"やじろべえ","province":"東京都","city":"北区","address":"北区赤羽北1-7-23","lat":35.78582,"lon":139.71375},{"name":"北区子ども家庭支援センター","province":"東京都","city":"北区","address":"北区王子6-7-3旧清至中学校別棟","lat":35.7632,"lon":139.74117},{"name":"北区子ども家庭支援センター","province":"東京都","city":"北区","address":"北区王子6-7-3旧清至中学校別棟","lat":35.762653,"lon":139.740387},{"name":"やじろべえ","province":"東京都","city":"北区","address":"北区赤羽北1-7-23","lat":35.785835,"lon":139.714308},{"name":"つみき第３","province":"東京都","city":"北区","address":"北区王子4-24-12-301","lat":35.76158,"lon":139.737196},{"name":"つみき第５","province":"東京都","city":"北区","address":"北区豊島1-17-4-100","lat":35.758939,"lon":139.73871},{"name":"放課後等デイサービス　あんプラス","province":"東京都","city":"北区","address":"北区栄町50-3","lat":35.751298,"lon":139.746207},{"name":"こどもプラス１","province":"東京都","city":"北区","address":"北区田端新町3-34-1","lat":35.742334,"lon":139.764337},{"name":"つみき第２","province":"東京都","city":"北区","address":"北区王子本町1-19-1","lat":35.753856,"lon":139.733005},{"name":"放課後デイサービス勉強レストランそうなんだ！！","province":"東京都","city":"北区","address":"北区滝野川1-68-7早稲田ビル2階","lat":35.748068,"lon":139.733955},{"name":"このこのリーフ　滝野川","province":"東京都","city":"北区","address":"北区滝野川五丁目41番3号","lat":35.748126,"lon":139.723126},{"name":"このこのリーフ滝野川　第２","province":"東京都","city":"北区","address":"北区滝野川7-20-1笹岡ビル1階","lat":35.742496,"lon":139.720329},{"name":"飛鳥晴山苑　放課後等デイサービスさくら","province":"東京都","city":"北区","address":"北区西ケ原4-51-1","lat":35.74141,"lon":139.735978},{"name":"スキップランド　西ヶ原","province":"東京都","city":"北区","address":"北区西ケ原四丁目2番19号","lat":35.742396,"lon":139.739591},{"name":"つみき第６","province":"東京都","city":"北区","address":"北区西ケ原3-54-8-101","lat":35.744193,"lon":139.737508},{"name":"つみき第１","province":"東京都","city":"北区","address":"北区上十条1-19-6","lat":35.759352,"lon":139.723289},{"name":"放課後等デイサービス　ぴーす","province":"東京都","city":"北区","address":"北区上十条5-4-1サンタケビル1階","lat":35.764799,"lon":139.717381},{"name":"スキップランド　神谷","province":"東京都","city":"北区","address":"北区神谷二丁目23番15号","lat":35.771257,"lon":139.728288},{"name":"特定非営利活動法人クレセール心の相談室","province":"東京都","city":"北区","address":"北区赤羽1-41-5ATエミネンス2階201号室","lat":35.781599,"lon":139.719725},{"name":"第２特定非営利活動法人クレセール心の相談室","province":"東京都","city":"北区","address":"北区赤羽2-69-4ヴェルメゾン赤羽1階","lat":35.782555,"lon":139.722752},{"name":"児童デイサービス　まぁる","province":"東京都","city":"北区","address":"北区浮間四丁目32番20号松岡ビル2階","lat":35.791195,"lon":139.691607},{"name":"つみき第４","province":"東京都","city":"北区","address":"北区浮間4-5-5-101","lat":35.789051,"lon":139.697532},{"name":"放課後等デイサービスしらゆり　あそぼーよ　みんなで","province":"東京都","city":"北区","address":"北区赤羽北3丁目21番20-102号","lat":35.779105,"lon":139.705468},{"name":"北区子ども家庭支援センター","province":"東京都","city":"北区","address":"北区王子2-7-34","lat":35.757611,"lon":139.736033},{"name":"やじろべえ","province":"東京都","city":"北区","address":"北区赤羽北1-7-23","lat":35.78582,"lon":139.71375},{"name":"北区子ども家庭支援センター","province":"東京都","city":"北区","address":"北区王子6-7-3旧清至中学校別棟","lat":35.7632,"lon":139.74117},{"name":"北区子ども家庭支援センター","province":"東京都","city":"北区","address":"北区王子6-7-3旧清至中学校別棟","lat":35.762653,"lon":139.740387},{"name":"やじろべえ","province":"東京都","city":"北区","address":"北区赤羽北1-7-23","lat":35.785835,"lon":139.714308},{"name":"つみき第３","province":"東京都","city":"北区","address":"北区王子4-24-12-301","lat":35.76158,"lon":139.737196},{"name":"つみき第５","province":"東京都","city":"北区","address":"北区豊島1-17-4-100","lat":35.758939,"lon":139.73871},{"name":"放課後等デイサービス　あんプラス","province":"東京都","city":"北区","address":"北区栄町50-3","lat":35.751298,"lon":139.746207},{"name":"こどもプラス１","province":"東京都","city":"北区","address":"北区田端新町3-34-1","lat":35.742334,"lon":139.764337},{"name":"つみき第２","province":"東京都","city":"北区","address":"北区王子本町1-19-1","lat":35.753856,"lon":139.733005},{"name":"放課後デイサービス勉強レストランそうなんだ！！","province":"東京都","city":"北区","address":"北区滝野川1-68-7早稲田ビル2階","lat":35.748068,"lon":139.733955},{"name":"このこのリーフ　滝野川","province":"東京都","city":"北区","address":"北区滝野川五丁目41番3号","lat":35.748126,"lon":139.723126},{"name":"このこのリーフ滝野川　第２","province":"東京都","city":"北区","address":"北区滝野川7-20-1笹岡ビル1階","lat":35.742496,"lon":139.720329},{"name":"飛鳥晴山苑　放課後等デイサービスさくら","province":"東京都","city":"北区","address":"北区西ケ原4-51-1","lat":35.74141,"lon":139.735978},{"name":"スキップランド　西ヶ原","province":"東京都","city":"北区","address":"北区西ケ原四丁目2番19号","lat":35.742396,"lon":139.739591},{"name":"つみき第６","province":"東京都","city":"北区","address":"北区西ケ原3-54-8-101","lat":35.744193,"lon":139.737508},{"name":"つみき第１","province":"東京都","city":"北区","address":"北区上十条1-19-6","lat":35.759352,"lon":139.723289},{"name":"放課後等デイサービス　ぴーす","province":"東京都","city":"北区","address":"北区上十条5-4-1サンタケビル1階","lat":35.764799,"lon":139.717381},{"name":"スキップランド　神谷","province":"東京都","city":"北区","address":"北区神谷二丁目23番15号","lat":35.771257,"lon":139.728288},{"name":"特定非営利活動法人クレセール心の相談室","province":"東京都","city":"北区","address":"北区赤羽1-41-5ATエミネンス2階201号室","lat":35.781599,"lon":139.719725},{"name":"第２特定非営利活動法人クレセール心の相談室","province":"東京都","city":"北区","address":"北区赤羽2-69-4ヴェルメゾン赤羽1階","lat":35.782555,"lon":139.722752},{"name":"児童デイサービス　まぁる","province":"東京都","city":"北区","address":"北区浮間四丁目32番20号松岡ビル2階","lat":35.791195,"lon":139.691607},{"name":"つみき第４","province":"東京都","city":"北区","address":"北区浮間4-5-5-101","lat":35.789051,"lon":139.697532},{"name":"放課後等デイサービスしらゆり　あそぼーよ　みんなで","province":"東京都","city":"北区","address":"北区赤羽北3丁目21番20-102号","lat":35.779105,"lon":139.705468},{"name":"北区子ども家庭支援センター","province":"東京都","city":"北区","address":"北区王子2-7-34","lat":35.757611,"lon":139.736033},{"name":"やじろべえ","province":"東京都","city":"北区","address":"北区赤羽北1-7-23","lat":35.78582,"lon":139.71375},{"name":"北区子ども家庭支援センター","province":"東京都","city":"北区","address":"北区王子6-7-3旧清至中学校別棟","lat":35.7632,"lon":139.74117},{"name":"北区子ども家庭支援センター","province":"東京都","city":"北区","address":"北区王子6-7-3旧清至中学校別棟","lat":35.762653,"lon":139.740387},{"name":"やじろべえ","province":"東京都","city":"北区","address":"北区赤羽北1-7-23","lat":35.785835,"lon":139.714308},{"name":"つみき第３","province":"東京都","city":"北区","address":"北区王子4-24-12-301","lat":35.76158,"lon":139.737196},{"name":"つみき第５","province":"東京都","city":"北区","address":"北区豊島1-17-4-100","lat":35.758939,"lon":139.73871},{"name":"放課後等デイサービス　あんプラス","province":"東京都","city":"北区","address":"北区栄町50-3","lat":35.751298,"lon":139.746207},{"name":"こどもプラス１","province":"東京都","city":"北区","address":"北区田端新町3-34-1","lat":35.742334,"lon":139.764337},{"name":"つみき第２","province":"東京都","city":"北区","address":"北区王子本町1-19-1","lat":35.753856,"lon":139.733005},{"name":"放課後デイサービス勉強レストランそうなんだ！！","province":"東京都","city":"北区","address":"北区滝野川1-68-7早稲田ビル2階","lat":35.748068,"lon":139.733955},{"name":"このこのリーフ　滝野川","province":"東京都","city":"北区","address":"北区滝野川五丁目41番3号","lat":35.748126,"lon":139.723126},{"name":"このこのリーフ滝野川　第２","province":"東京都","city":"北区","address":"北区滝野川7-20-1笹岡ビル1階","lat":35.742496,"lon":139.720329},{"name":"飛鳥晴山苑　放課後等デイサービスさくら","province":"東京都","city":"北区","address":"北区西ケ原4-51-1","lat":35.74141,"lon":139.735978},{"name":"スキップランド　西ヶ原","province":"東京都","city":"北区","address":"北区西ケ原四丁目2番19号","lat":35.742396,"lon":139.739591},{"name":"つみき第６","province":"東京都","city":"北区","address":"北区西ケ原3-54-8-101","lat":35.744193,"lon":139.737508},{"name":"つみき第１","province":"東京都","city":"北区","address":"北区上十条1-19-6","lat":35.759352,"lon":139.723289},{"name":"放課後等デイサービス　ぴーす","province":"東京都","city":"北区","address":"北区上十条5-4-1サンタケビル1階","lat":35.764799,"lon":139.717381},{"name":"スキップランド　神谷","province":"東京都","city":"北区","address":"北区神谷二丁目23番15号","lat":35.771257,"lon":139.728288},{"name":"特定非営利活動法人クレセール心の相談室","province":"東京都","city":"北区","address":"北区赤羽1-41-5ATエミネンス2階201号室","lat":35.781599,"lon":139.719725},{"name":"第２特定非営利活動法人クレセール心の相談室","province":"東京都","city":"北区","address":"北区赤羽2-69-4ヴェルメゾン赤羽1階","lat":35.782555,"lon":139.722752},{"name":"児童デイサービス　まぁる","province":"東京都","city":"北区","address":"北区浮間四丁目32番20号松岡ビル2階","lat":35.791195,"lon":139.691607},{"name":"つみき第４","province":"東京都","city":"北区","address":"北区浮間4-5-5-101","lat":35.789051,"lon":139.697532},{"name":"放課後等デイサービスしらゆり　あそぼーよ　みんなで","province":"東京都","city":"北区","address":"北区赤羽北3丁目21番20-102号","lat":35.779105,"lon":139.705468},{"name":"北区子ども家庭支援センター","province":"東京都","city":"北区","address":"北区王子2-7-34","lat":35.757611,"lon":139.736033},{"name":"やじろべえ","province":"東京都","city":"北区","address":"北区赤羽北1-7-23","lat":35.78582,"lon":139.71375},{"name":"北区子ども家庭支援センター","province":"東京都","city":"北区","address":"北区王子6-7-3旧清至中学校別棟","lat":35.7632,"lon":139.74117},{"name":"北区子ども家庭支援センター","province":"東京都","city":"北区","address":"北区王子6-7-3旧清至中学校別棟","lat":35.762653,"lon":139.740387},{"name":"やじろべえ","province":"東京都","city":"北区","address":"北区赤羽北1-7-23","lat":35.785835,"lon":139.714308},{"name":"つみき第３","province":"東京都","city":"北区","address":"北区王子4-24-12-301","lat":35.76158,"lon":139.737196},{"name":"つみき第５","province":"東京都","city":"北区","address":"北区豊島1-17-4-100","lat":35.758939,"lon":139.73871},{"name":"放課後等デイサービス　あんプラス","province":"東京都","city":"北区","address":"北区栄町50-3","lat":35.751298,"lon":139.746207},{"name":"こどもプラス１","province":"東京都","city":"北区","address":"北区田端新町3-34-1","lat":35.742334,"lon":139.764337},{"name":"つみき第２","province":"東京都","city":"北区","address":"北区王子本町1-19-1","lat":35.753856,"lon":139.733005},{"name":"放課後デイサービス勉強レストランそうなんだ！！","province":"東京都","city":"北区","address":"北区滝野川1-68-7早稲田ビル2階","lat":35.748068,"lon":139.733955},{"name":"このこのリーフ　滝野川","province":"東京都","city":"北区","address":"北区滝野川五丁目41番3号","lat":35.748126,"lon":139.723126},{"name":"このこのリーフ滝野川　第２","province":"東京都","city":"北区","address":"北区滝野川7-20-1笹岡ビル1階","lat":35.742496,"lon":139.720329},{"name":"飛鳥晴山苑　放課後等デイサービスさくら","province":"東京都","city":"北区","address":"北区西ケ原4-51-1","lat":35.74141,"lon":139.735978},{"name":"スキップランド　西ヶ原","province":"東京都","city":"北区","address":"北区西ケ原四丁目2番19号","lat":35.742396,"lon":139.739591},{"name":"つみき第６","province":"東京都","city":"北区","address":"北区西ケ原3-54-8-101","lat":35.744193,"lon":139.737508},{"name":"つみき第１","province":"東京都","city":"北区","address":"北区上十条1-19-6","lat":35.759352,"lon":139.723289},{"name":"放課後等デイサービス　ぴーす","province":"東京都","city":"北区","address":"北区上十条5-4-1サンタケビル1階","lat":35.764799,"lon":139.717381},{"name":"スキップランド　神谷","province":"東京都","city":"北区","address":"北区神谷二丁目23番15号","lat":35.771257,"lon":139.728288},{"name":"特定非営利活動法人クレセール心の相談室","province":"東京都","city":"北区","address":"北区赤羽1-41-5ATエミネンス2階201号室","lat":35.781599,"lon":139.719725},{"name":"第２特定非営利活動法人クレセール心の相談室","province":"東京都","city":"北区","address":"北区赤羽2-69-4ヴェルメゾン赤羽1階","lat":35.782555,"lon":139.722752},{"name":"児童デイサービス　まぁる","province":"東京都","city":"北区","address":"北区浮間四丁目32番20号松岡ビル2階","lat":35.791195,"lon":139.691607},{"name":"つみき第４","province":"東京都","city":"北区","address":"北区浮間4-5-5-101","lat":35.789051,"lon":139.697532},{"name":"放課後等デイサービスしらゆり　あそぼーよ　みんなで","province":"東京都","city":"北区","address":"北区赤羽北3丁目21番20-102号","lat":35.779105,"lon":139.705468},{"name":"北区子ども家庭支援センター","province":"東京都","city":"北区","address":"北区王子2-7-34","lat":35.757611,"lon":139.736033},{"name":"やじろべえ","province":"東京都","city":"北区","address":"北区赤羽北1-7-23","lat":35.78582,"lon":139.71375},{"name":"北区子ども家庭支援センター","province":"東京都","city":"北区","address":"北区王子6-7-3旧清至中学校別棟","lat":35.7632,"lon":139.74117},{"name":"北区子ども家庭支援センター","province":"東京都","city":"北区","address":"北区王子6-7-3旧清至中学校別棟","lat":35.762653,"lon":139.740387},{"name":"やじろべえ","province":"東京都","city":"北区","address":"北区赤羽北1-7-23","lat":35.785835,"lon":139.714308},{"name":"つみき第３","province":"東京都","city":"北区","address":"北区王子4-24-12-301","lat":35.76158,"lon":139.737196},{"name":"つみき第５","province":"東京都","city":"北区","address":"北区豊島1-17-4-100","lat":35.758939,"lon":139.73871},{"name":"放課後等デイサービス　あんプラス","province":"東京都","city":"北区","address":"北区栄町50-3","lat":35.751298,"lon":139.746207},{"name":"こどもプラス１","province":"東京都","city":"北区","address":"北区田端新町3-34-1","lat":35.742334,"lon":139.764337},{"name":"つみき第２","province":"東京都","city":"北区","address":"北区王子本町1-19-1","lat":35.753856,"lon":139.733005},{"name":"放課後デイサービス勉強レストランそうなんだ！！","province":"東京都","city":"北区","address":"北区滝野川1-68-7早稲田ビル2階","lat":35.748068,"lon":139.733955},{"name":"このこのリーフ　滝野川","province":"東京都","city":"北区","address":"北区滝野川五丁目41番3号","lat":35.748126,"lon":139.723126},{"name":"このこのリーフ滝野川　第２","province":"東京都","city":"北区","address":"北区滝野川7-20-1笹岡ビル1階","lat":35.742496,"lon":139.720329},{"name":"飛鳥晴山苑　放課後等デイサービスさくら","province":"東京都","city":"北区","address":"北区西ケ原4-51-1","lat":35.74141,"lon":139.735978},{"name":"スキップランド　西ヶ原","province":"東京都","city":"北区","address":"北区西ケ原四丁目2番19号","lat":35.742396,"lon":139.739591},{"name":"つみき第６","province":"東京都","city":"北区","address":"北区西ケ原3-54-8-101","lat":35.744193,"lon":139.737508},{"name":"つみき第１","province":"東京都","city":"北区","address":"北区上十条1-19-6","lat":35.759352,"lon":139.723289},{"name":"放課後等デイサービス　ぴーす","province":"東京都","city":"北区","address":"北区上十条5-4-1サンタケビル1階","lat":35.764799,"lon":139.717381},{"name":"スキップランド　神谷","province":"東京都","city":"北区","address":"北区神谷二丁目23番15号","lat":35.771257,"lon":139.728288},{"name":"特定非営利活動法人クレセール心の相談室","province":"東京都","city":"北区","address":"北区赤羽1-41-5ATエミネンス2階201号室","lat":35.781599,"lon":139.719725},{"name":"第２特定非営利活動法人クレセール心の相談室","province":"東京都","city":"北区","address":"北区赤羽2-69-4ヴェルメゾン赤羽1階","lat":35.782555,"lon":139.722752},{"name":"児童デイサービス　まぁる","province":"東京都","city":"北区","address":"北区浮間四丁目32番20号松岡ビル2階","lat":35.791195,"lon":139.691607},{"name":"つみき第４","province":"東京都","city":"北区","address":"北区浮間4-5-5-101","lat":35.789051,"lon":139.697532},{"name":"放課後等デイサービスしらゆり　あそぼーよ　みんなで","province":"東京都","city":"北区","address":"北区赤羽北3丁目21番20-102号","lat":35.779105,"lon":139.705468},{"name":"北区子ども家庭支援センター","province":"東京都","city":"北区","address":"北区王子2-7-34","lat":35.757611,"lon":139.736033},{"name":"やじろべえ","province":"東京都","city":"北区","address":"北区赤羽北1-7-23","lat":35.78582,"lon":139.71375},{"name":"北区子ども家庭支援センター","province":"東京都","city":"北区","address":"北区王子6-7-3旧清至中学校別棟","lat":35.7632,"lon":139.74117},{"name":"北区子ども家庭支援センター","province":"東京都","city":"北区","address":"北区王子6-7-3旧清至中学校別棟","lat":35.762653,"lon":139.740387},{"name":"やじろべえ","province":"東京都","city":"北区","address":"北区赤羽北1-7-23","lat":35.785835,"lon":139.714308},{"name":"つみき第３","province":"東京都","city":"北区","address":"北区王子4-24-12-301","lat":35.76158,"lon":139.737196},{"name":"つみき第５","province":"東京都","city":"北区","address":"北区豊島1-17-4-100","lat":35.758939,"lon":139.73871},{"name":"放課後等デイサービス　あんプラス","province":"東京都","city":"北区","address":"北区栄町50-3","lat":35.751298,"lon":139.746207},{"name":"こどもプラス１","province":"東京都","city":"北区","address":"北区田端新町3-34-1","lat":35.742334,"lon":139.764337},{"name":"つみき第２","province":"東京都","city":"北区","address":"北区王子本町1-19-1","lat":35.753856,"lon":139.733005},{"name":"放課後デイサービス勉強レストランそうなんだ！！","province":"東京都","city":"北区","address":"北区滝野川1-68-7早稲田ビル2階","lat":35.748068,"lon":139.733955},{"name":"このこのリーフ　滝野川","province":"東京都","city":"北区","address":"北区滝野川五丁目41番3号","lat":35.748126,"lon":139.723126},{"name":"このこのリーフ滝野川　第２","province":"東京都","city":"北区","address":"北区滝野川7-20-1笹岡ビル1階","lat":35.742496,"lon":139.720329},{"name":"飛鳥晴山苑　放課後等デイサービスさくら","province":"東京都","city":"北区","address":"北区西ケ原4-51-1","lat":35.74141,"lon":139.735978},{"name":"スキップランド　西ヶ原","province":"東京都","city":"北区","address":"北区西ケ原四丁目2番19号","lat":35.742396,"lon":139.739591},{"name":"つみき第６","province":"東京都","city":"北区","address":"北区西ケ原3-54-8-101","lat":35.744193,"lon":139.737508},{"name":"つみき第１","province":"東京都","city":"北区","address":"北区上十条1-19-6","lat":35.759352,"lon":139.723289},{"name":"放課後等デイサービス　ぴーす","province":"東京都","city":"北区","address":"北区上十条5-4-1サンタケビル1階","lat":35.764799,"lon":139.717381},{"name":"スキップランド　神谷","province":"東京都","city":"北区","address":"北区神谷二丁目23番15号","lat":35.771257,"lon":139.728288},{"name":"特定非営利活動法人クレセール心の相談室","province":"東京都","city":"北区","address":"北区赤羽1-41-5ATエミネンス2階201号室","lat":35.781599,"lon":139.719725},{"name":"第２特定非営利活動法人クレセール心の相談室","province":"東京都","city":"北区","address":"北区赤羽2-69-4ヴェルメゾン赤羽1階","lat":35.782555,"lon":139.722752},{"name":"児童デイサービス　まぁる","province":"東京都","city":"北区","address":"北区浮間四丁目32番20号松岡ビル2階","lat":35.791195,"lon":139.691607},{"name":"つみき第４","province":"東京都","city":"北区","address":"北区浮間4-5-5-101","lat":35.789051,"lon":139.697532},{"name":"放課後等デイサービスしらゆり　あそぼーよ　みんなで","province":"東京都","city":"北区","address":"北区赤羽北3丁目21番20-102号","lat":35.779105,"lon":139.705468},{"name":"北区子ども家庭支援センター","province":"東京都","city":"北区","address":"北区王子2-7-34","lat":35.757611,"lon":139.736033},{"name":"やじろべえ","province":"東京都","city":"北区","address":"北区赤羽北1-7-23","lat":35.78582,"lon":139.71375},{"name":"北区子ども家庭支援センター","province":"東京都","city":"北区","address":"北区王子6-7-3旧清至中学校別棟","lat":35.7632,"lon":139.74117},{"name":"北区子ども家庭支援センター","province":"東京都","city":"北区","address":"北区王子6-7-3旧清至中学校別棟","lat":35.762653,"lon":139.740387},{"name":"やじろべえ","province":"東京都","city":"北区","address":"北区赤羽北1-7-23","lat":35.785835,"lon":139.714308},{"name":"つみき第３","province":"東京都","city":"北区","address":"北区王子4-24-12-301","lat":35.76158,"lon":139.737196},{"name":"つみき第５","province":"東京都","city":"北区","address":"北区豊島1-17-4-100","lat":35.758939,"lon":139.73871},{"name":"放課後等デイサービス　あんプラス","province":"東京都","city":"北区","address":"北区栄町50-3","lat":35.751298,"lon":139.746207},{"name":"こどもプラス１","province":"東京都","city":"北区","address":"北区田端新町3-34-1","lat":35.742334,"lon":139.764337},{"name":"つみき第２","province":"東京都","city":"北区","address":"北区王子本町1-19-1","lat":35.753856,"lon":139.733005},{"name":"放課後デイサービス勉強レストランそうなんだ！！","province":"東京都","city":"北区","address":"北区滝野川1-68-7早稲田ビル2階","lat":35.748068,"lon":139.733955},{"name":"このこのリーフ　滝野川","province":"東京都","city":"北区","address":"北区滝野川五丁目41番3号","lat":35.748126,"lon":139.723126},{"name":"このこのリーフ滝野川　第２","province":"東京都","city":"北区","address":"北区滝野川7-20-1笹岡ビル1階","lat":35.742496,"lon":139.720329},{"name":"飛鳥晴山苑　放課後等デイサービスさくら","province":"東京都","city":"北区","address":"北区西ケ原4-51-1","lat":35.74141,"lon":139.735978},{"name":"スキップランド　西ヶ原","province":"東京都","city":"北区","address":"北区西ケ原四丁目2番19号","lat":35.742396,"lon":139.739591},{"name":"つみき第６","province":"東京都","city":"北区","address":"北区西ケ原3-54-8-101","lat":35.744193,"lon":139.737508},{"name":"つみき第１","province":"東京都","city":"北区","address":"北区上十条1-19-6","lat":35.759352,"lon":139.723289},{"name":"放課後等デイサービス　ぴーす","province":"東京都","city":"北区","address":"北区上十条5-4-1サンタケビル1階","lat":35.764799,"lon":139.717381},{"name":"スキップランド　神谷","province":"東京都","city":"北区","address":"北区神谷二丁目23番15号","lat":35.771257,"lon":139.728288},{"name":"特定非営利活動法人クレセール心の相談室","province":"東京都","city":"北区","address":"北区赤羽1-41-5ATエミネンス2階201号室","lat":35.781599,"lon":139.719725},{"name":"第２特定非営利活動法人クレセール心の相談室","province":"東京都","city":"北区","address":"北区赤羽2-69-4ヴェルメゾン赤羽1階","lat":35.782555,"lon":139.722752},{"name":"児童デイサービス　まぁる","province":"東京都","city":"北区","address":"北区浮間四丁目32番20号松岡ビル2階","lat":35.791195,"lon":139.691607},{"name":"つみき第４","province":"東京都","city":"北区","address":"北区浮間4-5-5-101","lat":35.789051,"lon":139.697532},{"name":"放課後等デイサービスしらゆり　あそぼーよ　みんなで","province":"東京都","city":"北区","address":"北区赤羽北3丁目21番20-102号","lat":35.779105,"lon":139.705468},{"name":"北区子ども家庭支援センター","province":"東京都","city":"北区","address":"北区王子2-7-34","lat":35.757611,"lon":139.736033},{"name":"やじろべえ","province":"東京都","city":"北区","address":"北区赤羽北1-7-23","lat":35.78582,"lon":139.71375},{"name":"北区子ども家庭支援センター","province":"東京都","city":"北区","address":"北区王子6-7-3旧清至中学校別棟","lat":35.7632,"lon":139.74117},{"name":"北区子ども家庭支援センター","province":"東京都","city":"北区","address":"北区王子6-7-3旧清至中学校別棟","lat":35.762653,"lon":139.740387},{"name":"やじろべえ","province":"東京都","city":"北区","address":"北区赤羽北1-7-23","lat":35.785835,"lon":139.714308},{"name":"つみき第３","province":"東京都","city":"北区","address":"北区王子4-24-12-301","lat":35.76158,"lon":139.737196},{"name":"つみき第５","province":"東京都","city":"北区","address":"北区豊島1-17-4-100","lat":35.758939,"lon":139.73871},{"name":"放課後等デイサービス　あんプラス","province":"東京都","city":"北区","address":"北区栄町50-3","lat":35.751298,"lon":139.746207},{"name":"こどもプラス１","province":"東京都","city":"北区","address":"北区田端新町3-34-1","lat":35.742334,"lon":139.764337},{"name":"つみき第２","province":"東京都","city":"北区","address":"北区王子本町1-19-1","lat":35.753856,"lon":139.733005},{"name":"放課後デイサービス勉強レストランそうなんだ！！","province":"東京都","city":"北区","address":"北区滝野川1-68-7早稲田ビル2階","lat":35.748068,"lon":139.733955},{"name":"このこのリーフ　滝野川","province":"東京都","city":"北区","address":"北区滝野川五丁目41番3号","lat":35.748126,"lon":139.723126},{"name":"このこのリーフ滝野川　第２","province":"東京都","city":"北区","address":"北区滝野川7-20-1笹岡ビル1階","lat":35.742496,"lon":139.720329},{"name":"飛鳥晴山苑　放課後等デイサービスさくら","province":"東京都","city":"北区","address":"北区西ケ原4-51-1","lat":35.74141,"lon":139.735978},{"name":"スキップランド　西ヶ原","province":"東京都","city":"北区","address":"北区西ケ原四丁目2番19号","lat":35.742396,"lon":139.739591},{"name":"つみき第６","province":"東京都","city":"北区","address":"北区西ケ原3-54-8-101","lat":35.744193,"lon":139.737508},{"name":"つみき第１","province":"東京都","city":"北区","address":"北区上十条1-19-6","lat":35.759352,"lon":139.723289},{"name":"放課後等デイサービス　ぴーす","province":"東京都","city":"北区","address":"北区上十条5-4-1サンタケビル1階","lat":35.764799,"lon":139.717381},{"name":"スキップランド　神谷","province":"東京都","city":"北区","address":"北区神谷二丁目23番15号","lat":35.771257,"lon":139.728288},{"name":"特定非営利活動法人クレセール心の相談室","province":"東京都","city":"北区","address":"北区赤羽1-41-5ATエミネンス2階201号室","lat":35.781599,"lon":139.719725},{"name":"第２特定非営利活動法人クレセール心の相談室","province":"東京都","city":"北区","address":"北区赤羽2-69-4ヴェルメゾン赤羽1階","lat":35.782555,"lon":139.722752},{"name":"児童デイサービス　まぁる","province":"東京都","city":"北区","address":"北区浮間四丁目32番20号松岡ビル2階","lat":35.791195,"lon":139.691607},{"name":"つみき第４","province":"東京都","city":"北区","address":"北区浮間4-5-5-101","lat":35.789051,"lon":139.697532},{"name":"放課後等デイサービスしらゆり　あそぼーよ　みんなで","province":"東京都","city":"北区","address":"北区赤羽北3丁目21番20-102号","lat":35.779105,"lon":139.705468},{"name":"北区子ども家庭支援センター","province":"東京都","city":"北区","address":"北区王子2-7-34","lat":35.757611,"lon":139.736033},{"name":"やじろべえ","province":"東京都","city":"北区","address":"北区赤羽北1-7-23","lat":35.78582,"lon":139.71375},{"name":"北区子ども家庭支援センター","province":"東京都","city":"北区","address":"北区王子6-7-3旧清至中学校別棟","lat":35.7632,"lon":139.74117},{"name":"北区子ども家庭支援センター","province":"東京都","city":"北区","address":"北区王子6-7-3旧清至中学校別棟","lat":35.762653,"lon":139.740387},{"name":"やじろべえ","province":"東京都","city":"北区","address":"北区赤羽北1-7-23","lat":35.785835,"lon":139.714308},{"name":"つみき第３","province":"東京都","city":"北区","address":"北区王子4-24-12-301","lat":35.76158,"lon":139.737196},{"name":"つみき第５","province":"東京都","city":"北区","address":"北区豊島1-17-4-100","lat":35.758939,"lon":139.73871},{"name":"放課後等デイサービス　あんプラス","province":"東京都","city":"北区","address":"北区栄町50-3","lat":35.751298,"lon":139.746207},{"name":"こどもプラス１","province":"東京都","city":"北区","address":"北区田端新町3-34-1","lat":35.742334,"lon":139.764337},{"name":"つみき第２","province":"東京都","city":"北区","address":"北区王子本町1-19-1","lat":35.753856,"lon":139.733005},{"name":"放課後デイサービス勉強レストランそうなんだ！！","province":"東京都","city":"北区","address":"北区滝野川1-68-7早稲田ビル2階","lat":35.748068,"lon":139.733955},{"name":"このこのリーフ　滝野川","province":"東京都","city":"北区","address":"北区滝野川五丁目41番3号","lat":35.748126,"lon":139.723126},{"name":"このこのリーフ滝野川　第２","province":"東京都","city":"北区","address":"北区滝野川7-20-1笹岡ビル1階","lat":35.742496,"lon":139.720329},{"name":"飛鳥晴山苑　放課後等デイサービスさくら","province":"東京都","city":"北区","address":"北区西ケ原4-51-1","lat":35.74141,"lon":139.735978},{"name":"スキップランド　西ヶ原","province":"東京都","city":"北区","address":"北区西ケ原四丁目2番19号","lat":35.742396,"lon":139.739591},{"name":"つみき第６","province":"東京都","city":"北区","address":"北区西ケ原3-54-8-101","lat":35.744193,"lon":139.737508},{"name":"つみき第１","province":"東京都","city":"北区","address":"北区上十条1-19-6","lat":35.759352,"lon":139.723289},{"name":"放課後等デイサービス　ぴーす","province":"東京都","city":"北区","address":"北区上十条5-4-1サンタケビル1階","lat":35.764799,"lon":139.717381},{"name":"スキップランド　神谷","province":"東京都","city":"北区","address":"北区神谷二丁目23番15号","lat":35.771257,"lon":139.728288},{"name":"特定非営利活動法人クレセール心の相談室","province":"東京都","city":"北区","address":"北区赤羽1-41-5ATエミネンス2階201号室","lat":35.781599,"lon":139.719725},{"name":"第２特定非営利活動法人クレセール心の相談室","province":"東京都","city":"北区","address":"北区赤羽2-69-4ヴェルメゾン赤羽1階","lat":35.782555,"lon":139.722752},{"name":"児童デイサービス　まぁる","province":"東京都","city":"北区","address":"北区浮間四丁目32番20号松岡ビル2階","lat":35.791195,"lon":139.691607},{"name":"つみき第４","province":"東京都","city":"北区","address":"北区浮間4-5-5-101","lat":35.789051,"lon":139.697532},{"name":"放課後等デイサービスしらゆり　あそぼーよ　みんなで","province":"東京都","city":"北区","address":"北区赤羽北3丁目21番20-102号","lat":35.779105,"lon":139.705468},{"name":"北区子ども家庭支援センター","province":"東京都","city":"北区","address":"北区王子2-7-34","lat":35.757611,"lon":139.736033},{"name":"やじろべえ","province":"東京都","city":"北区","address":"北区赤羽北1-7-23","lat":35.78582,"lon":139.71375},{"name":"北区子ども家庭支援センター","province":"東京都","city":"北区","address":"北区王子6-7-3旧清至中学校別棟","lat":35.7632,"lon":139.74117},{"name":"北区子ども家庭支援センター","province":"東京都","city":"北区","address":"北区王子6-7-3旧清至中学校別棟","lat":35.762653,"lon":139.740387},{"name":"やじろべえ","province":"東京都","city":"北区","address":"北区赤羽北1-7-23","lat":35.785835,"lon":139.714308},{"name":"つみき第３","province":"東京都","city":"北区","address":"北区王子4-24-12-301","lat":35.76158,"lon":139.737196},{"name":"つみき第５","province":"東京都","city":"北区","address":"北区豊島1-17-4-100","lat":35.758939,"lon":139.73871},{"name":"放課後等デイサービス　あんプラス","province":"東京都","city":"北区","address":"北区栄町50-3","lat":35.751298,"lon":139.746207},{"name":"こどもプラス１","province":"東京都","city":"北区","address":"北区田端新町3-34-1","lat":35.742334,"lon":139.764337},{"name":"つみき第２","province":"東京都","city":"北区","address":"北区王子本町1-19-1","lat":35.753856,"lon":139.733005},{"name":"放課後デイサービス勉強レストランそうなんだ！！","province":"東京都","city":"北区","address":"北区滝野川1-68-7早稲田ビル2階","lat":35.748068,"lon":139.733955},{"name":"このこのリーフ　滝野川","province":"東京都","city":"北区","address":"北区滝野川五丁目41番3号","lat":35.748126,"lon":139.723126},{"name":"このこのリーフ滝野川　第２","province":"東京都","city":"北区","address":"北区滝野川7-20-1笹岡ビル1階","lat":35.742496,"lon":139.720329},{"name":"飛鳥晴山苑　放課後等デイサービスさくら","province":"東京都","city":"北区","address":"北区西ケ原4-51-1","lat":35.74141,"lon":139.735978},{"name":"スキップランド　西ヶ原","province":"東京都","city":"北区","address":"北区西ケ原四丁目2番19号","lat":35.742396,"lon":139.739591},{"name":"つみき第６","province":"東京都","city":"北区","address":"北区西ケ原3-54-8-101","lat":35.744193,"lon":139.737508},{"name":"つみき第１","province":"東京都","city":"北区","address":"北区上十条1-19-6","lat":35.759352,"lon":139.723289},{"name":"放課後等デイサービス　ぴーす","province":"東京都","city":"北区","address":"北区上十条5-4-1サンタケビル1階","lat":35.764799,"lon":139.717381},{"name":"スキップランド　神谷","province":"東京都","city":"北区","address":"北区神谷二丁目23番15号","lat":35.771257,"lon":139.728288},{"name":"特定非営利活動法人クレセール心の相談室","province":"東京都","city":"北区","address":"北区赤羽1-41-5ATエミネンス2階201号室","lat":35.781599,"lon":139.719725},{"name":"第２特定非営利活動法人クレセール心の相談室","province":"東京都","city":"北区","address":"北区赤羽2-69-4ヴェルメゾン赤羽1階","lat":35.782555,"lon":139.722752},{"name":"児童デイサービス　まぁる","province":"東京都","city":"北区","address":"北区浮間四丁目32番20号松岡ビル2階","lat":35.791195,"lon":139.691607},{"name":"つみき第４","province":"東京都","city":"北区","address":"北区浮間4-5-5-101","lat":35.789051,"lon":139.697532},{"name":"放課後等デイサービスしらゆり　あそぼーよ　みんなで","province":"東京都","city":"北区","address":"北区赤羽北3丁目21番20-102号","lat":35.779105,"lon":139.705468},{"name":"北区子ども家庭支援センター","province":"東京都","city":"北区","address":"北区王子2-7-34","lat":35.757611,"lon":139.736033},{"name":"やじろべえ","province":"東京都","city":"北区","address":"北区赤羽北1-7-23","lat":35.78582,"lon":139.71375},{"name":"北区子ども家庭支援センター","province":"東京都","city":"北区","address":"北区王子6-7-3旧清至中学校別棟","lat":35.7632,"lon":139.74117},{"name":"北区子ども家庭支援センター","province":"東京都","city":"北区","address":"北区王子6-7-3旧清至中学校別棟","lat":35.762653,"lon":139.740387},{"name":"やじろべえ","province":"東京都","city":"北区","address":"北区赤羽北1-7-23","lat":35.785835,"lon":139.714308},{"name":"つみき第３","province":"東京都","city":"北区","address":"北区王子4-24-12-301","lat":35.76158,"lon":139.737196},{"name":"つみき第５","province":"東京都","city":"北区","address":"北区豊島1-17-4-100","lat":35.758939,"lon":139.73871},{"name":"放課後等デイサービス　あんプラス","province":"東京都","city":"北区","address":"北区栄町50-3","lat":35.751298,"lon":139.746207},{"name":"こどもプラス１","province":"東京都","city":"北区","address":"北区田端新町3-34-1","lat":35.742334,"lon":139.764337},{"name":"つみき第２","province":"東京都","city":"北区","address":"北区王子本町1-19-1","lat":35.753856,"lon":139.733005},{"name":"放課後デイサービス勉強レストランそうなんだ！！","province":"東京都","city":"北区","address":"北区滝野川1-68-7早稲田ビル2階","lat":35.748068,"lon":139.733955},{"name":"このこのリーフ　滝野川","province":"東京都","city":"北区","address":"北区滝野川五丁目41番3号","lat":35.748126,"lon":139.723126},{"name":"このこのリーフ滝野川　第２","province":"東京都","city":"北区","address":"北区滝野川7-20-1笹岡ビル1階","lat":35.742496,"lon":139.720329},{"name":"飛鳥晴山苑　放課後等デイサービスさくら","province":"東京都","city":"北区","address":"北区西ケ原4-51-1","lat":35.74141,"lon":139.735978},{"name":"スキップランド　西ヶ原","province":"東京都","city":"北区","address":"北区西ケ原四丁目2番19号","lat":35.742396,"lon":139.739591},{"name":"つみき第６","province":"東京都","city":"北区","address":"北区西ケ原3-54-8-101","lat":35.744193,"lon":139.737508},{"name":"つみき第１","province":"東京都","city":"北区","address":"北区上十条1-19-6","lat":35.759352,"lon":139.723289},{"name":"放課後等デイサービス　ぴーす","province":"東京都","city":"北区","address":"北区上十条5-4-1サンタケビル1階","lat":35.764799,"lon":139.717381},{"name":"スキップランド　神谷","province":"東京都","city":"北区","address":"北区神谷二丁目23番15号","lat":35.771257,"lon":139.728288},{"name":"特定非営利活動法人クレセール心の相談室","province":"東京都","city":"北区","address":"北区赤羽1-41-5ATエミネンス2階201号室","lat":35.781599,"lon":139.719725},{"name":"第２特定非営利活動法人クレセール心の相談室","province":"東京都","city":"北区","address":"北区赤羽2-69-4ヴェルメゾン赤羽1階","lat":35.782555,"lon":139.722752},{"name":"児童デイサービス　まぁる","province":"東京都","city":"北区","address":"北区浮間四丁目32番20号松岡ビル2階","lat":35.791195,"lon":139.691607},{"name":"つみき第４","province":"東京都","city":"北区","address":"北区浮間4-5-5-101","lat":35.789051,"lon":139.697532},{"name":"放課後等デイサービスしらゆり　あそぼーよ　みんなで","province":"東京都","city":"北区","address":"北区赤羽北3丁目21番20-102号","lat":35.779105,"lon":139.705468},{"name":"北区子ども家庭支援センター","province":"東京都","city":"北区","address":"北区王子2-7-34","lat":35.757611,"lon":139.736033},{"name":"やじろべえ","province":"東京都","city":"北区","address":"北区赤羽北1-7-23","lat":35.78582,"lon":139.71375},{"name":"北区子ども家庭支援センター","province":"東京都","city":"北区","address":"北区王子6-7-3旧清至中学校別棟","lat":35.7632,"lon":139.74117},{"name":"北区子ども家庭支援センター","province":"東京都","city":"北区","address":"北区王子6-7-3旧清至中学校別棟","lat":35.762653,"lon":139.740387},{"name":"やじろべえ","province":"東京都","city":"北区","address":"北区赤羽北1-7-23","lat":35.785835,"lon":139.714308},{"name":"つみき第３","province":"東京都","city":"北区","address":"北区王子4-24-12-301","lat":35.76158,"lon":139.737196},{"name":"つみき第５","province":"東京都","city":"北区","address":"北区豊島1-17-4-100","lat":35.758939,"lon":139.73871},{"name":"放課後等デイサービス　あんプラス","province":"東京都","city":"北区","address":"北区栄町50-3","lat":35.751298,"lon":139.746207},{"name":"こどもプラス１","province":"東京都","city":"北区","address":"北区田端新町3-34-1","lat":35.742334,"lon":139.764337},{"name":"つみき第２","province":"東京都","city":"北区","address":"北区王子本町1-19-1","lat":35.753856,"lon":139.733005},{"name":"放課後デイサービス勉強レストランそうなんだ！！","province":"東京都","city":"北区","address":"北区滝野川1-68-7早稲田ビル2階","lat":35.748068,"lon":139.733955},{"name":"このこのリーフ　滝野川","province":"東京都","city":"北区","address":"北区滝野川五丁目41番3号","lat":35.748126,"lon":139.723126},{"name":"このこのリーフ滝野川　第２","province":"東京都","city":"北区","address":"北区滝野川7-20-1笹岡ビル1階","lat":35.742496,"lon":139.720329},{"name":"飛鳥晴山苑　放課後等デイサービスさくら","province":"東京都","city":"北区","address":"北区西ケ原4-51-1","lat":35.74141,"lon":139.735978},{"name":"スキップランド　西ヶ原","province":"東京都","city":"北区","address":"北区西ケ原四丁目2番19号","lat":35.742396,"lon":139.739591},{"name":"つみき第６","province":"東京都","city":"北区","address":"北区西ケ原3-54-8-101","lat":35.744193,"lon":139.737508},{"name":"つみき第１","province":"東京都","city":"北区","address":"北区上十条1-19-6","lat":35.759352,"lon":139.723289},{"name":"放課後等デイサービス　ぴーす","province":"東京都","city":"北区","address":"北区上十条5-4-1サンタケビル1階","lat":35.764799,"lon":139.717381},{"name":"スキップランド　神谷","province":"東京都","city":"北区","address":"北区神谷二丁目23番15号","lat":35.771257,"lon":139.728288},{"name":"特定非営利活動法人クレセール心の相談室","province":"東京都","city":"北区","address":"北区赤羽1-41-5ATエミネンス2階201号室","lat":35.781599,"lon":139.719725},{"name":"第２特定非営利活動法人クレセール心の相談室","province":"東京都","city":"北区","address":"北区赤羽2-69-4ヴェルメゾン赤羽1階","lat":35.782555,"lon":139.722752},{"name":"児童デイサービス　まぁる","province":"東京都","city":"北区","address":"北区浮間四丁目32番20号松岡ビル2階","lat":35.791195,"lon":139.691607},{"name":"つみき第４","province":"東京都","city":"北区","address":"北区浮間4-5-5-101","lat":35.789051,"lon":139.697532},{"name":"放課後等デイサービスしらゆり　あそぼーよ　みんなで","province":"東京都","city":"北区","address":"北区赤羽北3丁目21番20-102号","lat":35.779105,"lon":139.705468},{"name":"北区子ども家庭支援センター","province":"東京都","city":"北区","address":"北区王子2-7-34","lat":35.757611,"lon":139.736033},{"name":"やじろべえ","province":"東京都","city":"北区","address":"北区赤羽北1-7-23","lat":35.78582,"lon":139.71375},{"name":"北区子ども家庭支援センター","province":"東京都","city":"北区","address":"北区王子6-7-3旧清至中学校別棟","lat":35.7632,"lon":139.74117},{"name":"北区子ども家庭支援センター","province":"東京都","city":"北区","address":"北区王子6-7-3旧清至中学校別棟","lat":35.762653,"lon":139.740387},{"name":"やじろべえ","province":"東京都","city":"北区","address":"北区赤羽北1-7-23","lat":35.785835,"lon":139.714308},{"name":"つみき第３","province":"東京都","city":"北区","address":"北区王子4-24-12-301","lat":35.76158,"lon":139.737196},{"name":"つみき第５","province":"東京都","city":"北区","address":"北区豊島1-17-4-100","lat":35.758939,"lon":139.73871},{"name":"放課後等デイサービス　あんプラス","province":"東京都","city":"北区","address":"北区栄町50-3","lat":35.751298,"lon":139.746207},{"name":"こどもプラス１","province":"東京都","city":"北区","address":"北区田端新町3-34-1","lat":35.742334,"lon":139.764337},{"name":"つみき第２","province":"東京都","city":"北区","address":"北区王子本町1-19-1","lat":35.753856,"lon":139.733005},{"name":"放課後デイサービス勉強レストランそうなんだ！！","province":"東京都","city":"北区","address":"北区滝野川1-68-7早稲田ビル2階","lat":35.748068,"lon":139.733955},{"name":"このこのリーフ　滝野川","province":"東京都","city":"北区","address":"北区滝野川五丁目41番3号","lat":35.748126,"lon":139.723126},{"name":"このこのリーフ滝野川　第２","province":"東京都","city":"北区","address":"北区滝野川7-20-1笹岡ビル1階","lat":35.742496,"lon":139.720329},{"name":"飛鳥晴山苑　放課後等デイサービスさくら","province":"東京都","city":"北区","address":"北区西ケ原4-51-1","lat":35.74141,"lon":139.735978},{"name":"スキップランド　西ヶ原","province":"東京都","city":"北区","address":"北区西ケ原四丁目2番19号","lat":35.742396,"lon":139.739591},{"name":"つみき第６","province":"東京都","city":"北区","address":"北区西ケ原3-54-8-101","lat":35.744193,"lon":139.737508},{"name":"つみき第１","province":"東京都","city":"北区","address":"北区上十条1-19-6","lat":35.759352,"lon":139.723289},{"name":"放課後等デイサービス　ぴーす","province":"東京都","city":"北区","address":"北区上十条5-4-1サンタケビル1階","lat":35.764799,"lon":139.717381},{"name":"スキップランド　神谷","province":"東京都","city":"北区","address":"北区神谷二丁目23番15号","lat":35.771257,"lon":139.728288},{"name":"特定非営利活動法人クレセール心の相談室","province":"東京都","city":"北区","address":"北区赤羽1-41-5ATエミネンス2階201号室","lat":35.781599,"lon":139.719725},{"name":"第２特定非営利活動法人クレセール心の相談室","province":"東京都","city":"北区","address":"北区赤羽2-69-4ヴェルメゾン赤羽1階","lat":35.782555,"lon":139.722752},{"name":"児童デイサービス　まぁる","province":"東京都","city":"北区","address":"北区浮間四丁目32番20号松岡ビル2階","lat":35.791195,"lon":139.691607},{"name":"つみき第４","province":"東京都","city":"北区","address":"北区浮間4-5-5-101","lat":35.789051,"lon":139.697532},{"name":"放課後等デイサービスしらゆり　あそぼーよ　みんなで","province":"東京都","city":"北区","address":"北区赤羽北3丁目21番20-102号","lat":35.779105,"lon":139.705468},{"name":"北区子ども家庭支援センター","province":"東京都","city":"北区","address":"北区王子2-7-34","lat":35.757611,"lon":139.736033},{"name":"やじろべえ","province":"東京都","city":"北区","address":"北区赤羽北1-7-23","lat":35.78582,"lon":139.71375},{"name":"北区子ども家庭支援センター","province":"東京都","city":"北区","address":"北区王子6-7-3旧清至中学校別棟","lat":35.7632,"lon":139.74117},{"name":"北区子ども家庭支援センター","province":"東京都","city":"北区","address":"北区王子6-7-3旧清至中学校別棟","lat":35.762653,"lon":139.740387},{"name":"やじろべえ","province":"東京都","city":"北区","address":"北区赤羽北1-7-23","lat":35.785835,"lon":139.714308}]}