{"keyword":"自転車","data":[{"name":"赤羽駅南口第一自転車駐車場","province":"東京都","city":"北区","address":"東京都北区赤羽1丁目1-28","lat":35.77559768,"lon":139.72188579},{"name":"赤羽駅南口第二自転車駐車場","province":"東京都","city":"北区","address":"東京都北区赤羽1丁目1-20","lat":35.77639757,"lon":139.7215719},{"name":"赤羽西側指定自転車置場","province":"東京都","city":"北区","address":"東京都北区赤羽台1丁目2","lat":35.7792248,"lon":139.71693332},{"name":"赤羽公園脇指定自転車置場","province":"東京都","city":"北区","address":"東京都北区赤羽1丁目14","lat":35.77922493,"lon":139.72102741},{"name":"浮間四丁目自転車駐車場","province":"東京都","city":"北区","address":"東京都北区浮間4丁目30-8","lat":35.79066156,"lon":139.69361822},{"name":"浮間三丁目自転車駐車場","province":"東京都","city":"北区","address":"東京都北区浮間3丁目1-47","lat":35.78770655,"lon":139.70477023},{"name":"赤羽北二丁目自転車駐車場","province":"東京都","city":"北区","address":"東京都北区赤羽西2丁目1-10","lat":35.7724342,"lon":139.72183315},{"name":"北赤羽駅赤羽口自転車駐車場","province":"東京都","city":"北区","address":"東京都北区赤羽西2丁目32-20","lat":35.77312846,"lon":139.7186945},{"name":"十条駅西口自転車駐車場","province":"東京都","city":"北区","address":"東京都北区上十条2丁目28","lat":35.75966631,"lon":139.72191701},{"name":"十条駅東口自転車駐車場","province":"東京都","city":"北区","address":"東京都北区上十条1丁目14","lat":35.76062177,"lon":139.72262802},{"name":"十条駅北指定自転車置場","province":"東京都","city":"北区","address":"東京都北区十条仲原1丁目1-5","lat":35.76181884,"lon":139.72196969},{"name":"十条駅南指定自転車置場","province":"東京都","city":"北区","address":"東京都北区上十条1丁目14-8","lat":35.7608273,"lon":139.72256968},{"name":"北谷端公園脇指定自転車置場","province":"東京都","city":"北区","address":"東京都北区滝野川7丁目14","lat":35.7438792,"lon":139.72091219},{"name":"東十条駅南口自転車駐車場","province":"東京都","city":"北区","address":"東京都北区東十条3丁目18-43","lat":35.76312161,"lon":139.72801358},{"name":"東十条駅北口自転車駐車場","province":"東京都","city":"北区","address":"東京都北区東十条4丁目1","lat":35.76556296,"lon":139.72672747},{"name":"王子駅北口自転車駐車場","province":"東京都","city":"北区","address":"東京都北区王子1丁目11-1","lat":35.75498942,"lon":139.73657153},{"name":"音無親水公園自転車駐車場","province":"東京都","city":"北区","address":"東京都北区王子本町1丁目1-12","lat":35.75329515,"lon":139.73592721},{"name":"新田端大橋南自転車駐車場","province":"東京都","city":"北区","address":"東京都北区東田端1丁目17-21","lat":35.73840072,"lon":139.76253699},{"name":"田端駅前自転車駐車場","province":"東京都","city":"北区","address":"東京都北区田端6丁目1-3","lat":35.7384755,"lon":139.75928161},{"name":"駒込駅前指定自転車置場","province":"東京都","city":"北区","address":"東京都北区中里1丁目7","lat":35.73738629,"lon":139.74993785},{"name":"尾久駅前自転車駐車場","province":"東京都","city":"北区","address":"東京都北区昭和町2丁目1-31","lat":35.74699645,"lon":139.7544593},{"name":"赤羽岩淵駅周辺指定自転車置場","province":"東京都","city":"北区","address":"東京都北区岩淵町22-36","lat":35.78585176,"lon":139.72566856},{"name":"志茂駅周辺指定自転車置場","province":"東京都","city":"北区","address":"東京都北区志茂3丁目26","lat":35.77913916,"lon":139.73428465},{"name":"王子神谷駅前自転車駐車場","province":"東京都","city":"北区","address":"東京都北区王子5丁目20-3","lat":35.76606592,"lon":139.73587113},{"name":"王子神谷駅北自転車駐車場","province":"東京都","city":"北区","address":"東京都北区王子5丁目29-4","lat":35.7668075,"lon":139.73575999},{"name":"赤羽駅西口自転車駐車場","province":"東京都","city":"北区","address":"東京都北区赤羽西1丁目7-1","lat":35.77722516,"lon":139.71911652},{"name":"赤羽駅南口第三自転車駐車場","province":"東京都","city":"北区","address":"東京都北区赤羽南2丁目9-43","lat":35.77558936,"lon":139.72223299},{"name":"王子駅明治通り自転車駐車場","province":"東京都","city":"北区","address":"東京都北区王子1丁目6","lat":35.7554034,"lon":139.74180161},{"name":"西ケ原駅前自転車駐車場","province":"東京都","city":"北区","address":"東京都北区西ケ原2丁目3-15","lat":35.74815417,"lon":139.74219077},{"name":"北谷端公園脇自転車駐車場","province":"東京都","city":"北区","address":"東京都北区滝野川7丁目14","lat":35.7438792,"lon":139.72091219},{"name":"赤羽駅南側指定自転車置場","province":"東京都","city":"北区","address":"東京都北区赤羽南1丁目20","lat":35.77650871,"lon":139.72331342},{"name":"赤羽東本通り自転車駐車場","province":"東京都","city":"北区","address":"東京都北区赤羽1丁目7","lat":35.77884169,"lon":139.72206066},{"name":"赤羽駅東口自転車駐車場","province":"東京都","city":"北区","address":"東京都北区赤羽1丁目1","lat":35.77751963,"lon":139.72131076},{"name":"赤羽駅西口駅前自転車駐車場","province":"東京都","city":"北区","address":"東京都北区赤羽西1丁目5-1","lat":35.77740851,"lon":139.72036363}]}