{"keyword":"認可","data":[{"name":"あい保育園王子","province":"東京都","city":"北区","address":"北区王子1-27-8","lat":35.75546,"lon":139.74046},{"name":"Gakkenほいくえん 田端","province":"東京都","city":"北区","address":"北区田端1-12-17","lat":35.73376,"lon":139.75951},{"name":"清水坂つぼみ保育園","province":"東京都","city":"北区","address":"北区中十条4-16-27","lat":35.76979,"lon":139.72247},{"name":"グローバルキッズ志茂第二保育園","province":"東京都","city":"北区","address":"北区志茂3-12-3","lat":35.77708,"lon":139.73386},{"name":"MＩＷＡたばた保育園","province":"東京都","city":"北区","address":"北区田端5-11-8","lat":35.73903,"lon":139.75623},{"name":"ココファン・ナーサリー田端","province":"東京都","city":"北区","address":"北区田端1-12-17","lat":35.73376,"lon":139.75951},{"name":"志茂保育園","province":"東京都","city":"北区","address":"北区志茂4-44-1","lat":35.77999,"lon":139.73538},{"name":"にじいろ保育園志茂","province":"東京都","city":"北区","address":"北区志茂3-41-5","lat":35.77999,"lon":139.73538},{"name":"うきま絆第二","province":"東京都","city":"北区","address":"北区浮間3-1-55河野ビル2階","lat":35.78671,"lon":139.70158},{"name":"クオリスキッズ王子","province":"東京都","city":"北区","address":"北区王子3-10-14","lat":35.75942,"lon":139.73624},{"name":"豊川保育園","province":"東京都","city":"北区","address":"北区王子6-4-10","lat":35.76094,"lon":139.74204},{"name":"ココファン・ナーサリー田端","province":"東京都","city":"北区","address":"北区田端1-12-17","lat":35.73377,"lon":139.75951},{"name":"中里保育園","province":"東京都","city":"北区","address":"北区中里3-11-18","lat":35.74097,"lon":139.75295},{"name":"うぃず滝野川保育園","province":"東京都","city":"北区","address":"北区滝野川6-9-4","lat":35.74242,"lon":139.72582},{"name":"西ケ原保育園","province":"東京都","city":"北区","address":"北区西ケ原4-44-10","lat":35.74484,"lon":139.73406},{"name":"西ケ原南保育園","province":"東京都","city":"北区","address":"北区西ケ原4-51-28","lat":35.74217,"lon":139.73605},{"name":"グローバルキッズ　コトニア赤羽園","province":"東京都","city":"北区","address":"北区中十条4-17-1","lat":35.77119,"lon":139.72228},{"name":"志茂保育園","province":"東京都","city":"北区","address":"北区志茂4-44-1","lat":35.77991,"lon":139.73377},{"name":"赤羽北保育園","province":"東京都","city":"北区","address":"北区赤羽北1-5-5","lat":35.78613,"lon":139.71491},{"name":"北赤羽せせらぎ保育園","province":"東京都","city":"北区","address":"北区赤羽北2-14-13","lat":35.78484,"lon":139.70635},{"name":"桐ケ丘南保育園","province":"東京都","city":"北区","address":"北区赤羽西5-5-7-101","lat":35.77527,"lon":139.70989},{"name":"フレーベル西が丘みらい園","province":"東京都","city":"北区","address":"北区赤羽西6-2-20","lat":35.77126,"lon":139.70754},{"name":"豊島東保育園","province":"東京都","city":"北区","address":"北区豊島5-6-12-101","lat":35.76558,"lon":139.74651},{"name":"たばた絆保育園","province":"東京都","city":"北区","address":"北区田端新町1-8-15-101","lat":35.73812,"lon":139.76642},{"name":"ポピンズナーサリースクール田端","province":"東京都","city":"北区","address":"北区田端6-1-1田端ASUKAタワー2階","lat":35.23727,"lon":136.92764},{"name":"赤羽台保育園","province":"東京都","city":"北区","address":"北区赤羽台1-4-11-105","lat":35.78387,"lon":139.71272},{"name":"桐ケ丘保育園","province":"東京都","city":"北区","address":"北区桐ヶ丘1-3-9-101","lat":35.77633,"lon":139.7083},{"name":"桐ケ丘南保育園","province":"東京都","city":"北区","address":"北区赤羽西5-5-7-101","lat":35.77599,"lon":139.71019}]}