{"keyword":"館","data":[{"name":"東十条東児童館","province":"東京都","city":"北区","address":"北区東十条3-10-1","lat":35.766344,"lon":139.732771},{"name":"王子東児童館","province":"東京都","city":"北区","address":"北区王子6-2-60","lat":35.759436,"lon":139.740824},{"name":"豊島児童館","province":"東京都","city":"北区","address":"北区豊島7-17-1","lat":35.76445,"lon":139.744354},{"name":"豊島東児童館","province":"東京都","city":"北区","address":"北区豊島5-5-9-120","lat":35.766594,"lon":139.753611},{"name":"栄町子どもセンター","province":"東京都","city":"北区","address":"北区栄町33-3","lat":35.749998,"lon":139.742305},{"name":"田端児童館","province":"東京都","city":"北区","address":"北区田端3-24-14","lat":35.736717,"lon":139.75611},{"name":"滝野川北児童館","province":"東京都","city":"北区","address":"北区滝野川3-79-1-201","lat":35.751451,"lon":139.728517},{"name":"滝野川西児童館","province":"東京都","city":"北区","address":"北区滝野川6-21-25","lat":35.745574,"lon":139.725845},{"name":"滝野川東児童館","province":"東京都","city":"北区","address":"北区滝野川1-46-7","lat":35.746932,"lon":139.734075},{"name":"西ケ原子どもセンター","province":"東京都","city":"北区","address":"北区西ケ原1-41-3","lat":35.741744,"lon":139.744638},{"name":"十条台子どもセンター","province":"東京都","city":"北区","address":"北区中十条1-2-18","lat":35.757603,"lon":139.729536},{"name":"八幡山子どもセンター","province":"東京都","city":"北区","address":"北区中十条4-15-7","lat":35.768332,"lon":139.7225},{"name":"志茂子ども交流館","province":"東京都","city":"北区","address":"北区志茂5-18-3","lat":35.783433,"lon":139.731321},{"name":"神谷子どもセンター","province":"東京都","city":"北区","address":"北区神谷3-35-17","lat":35.771368,"lon":139.731082},{"name":"赤羽児童館","province":"東京都","city":"北区","address":"北区赤羽南1-16-1-101","lat":35.776814,"lon":139.725347},{"name":"浮間児童館","province":"東京都","city":"北区","address":"北区浮間1-8-2-101","lat":35.789989,"lon":139.702731},{"name":"赤羽北児童館","province":"東京都","city":"北区","address":"北区赤羽北1-5-5","lat":35.785796,"lon":139.715208},{"name":"袋児童館","province":"東京都","city":"北区","address":"北区赤羽北3-7-2-101","lat":35.782863,"lon":139.705962},{"name":"桐ヶ丘児童館","province":"東京都","city":"北区","address":"北区桐ヶ丘1-16-27-102","lat":35.778202,"lon":139.70659},{"name":"赤羽西五丁目児童館","province":"東京都","city":"北区","address":"北区赤羽西5-7-5","lat":35.775461,"lon":139.710509},{"name":"赤羽西児童館","province":"東京都","city":"北区","address":"北区赤羽西4-42-9","lat":35.773084,"lon":139.714048},{"name":"西が丘児童館","province":"東京都","city":"北区","address":"北区西が丘2-4-1","lat":35.766482,"lon":139.714098},{"name":"東十条東児童館","province":"東京都","city":"北区","address":"北区東十条3-10-1","lat":35.76669,"lon":139.73233},{"name":"王子東児童館","province":"東京都","city":"北区","address":"北区王子6-2-60","lat":35.75999,"lon":139.73972},{"name":"豊島東児童館","province":"東京都","city":"北区","address":"北区豊島5-5-9-120","lat":35.76632,"lon":139.75285},{"name":"豊島児童館","province":"東京都","city":"北区","address":"北区豊島7-17-1","lat":35.7647,"lon":139.74429},{"name":"栄町子どもセンター","province":"東京都","city":"北区","address":"北区栄町33-3","lat":35.74997,"lon":139.74245},{"name":"田端児童館","province":"東京都","city":"北区","address":"北区田端3-24-14","lat":35.73676,"lon":139.75609},{"name":"滝野川東児童館","province":"東京都","city":"北区","address":"北区滝野川1-46-7","lat":35.74681,"lon":139.73413},{"name":"滝野川西児童館","province":"東京都","city":"北区","address":"北区滝野川6-21-25","lat":35.74527,"lon":139.72585},{"name":"西ケ原子どもセンター","province":"東京都","city":"北区","address":"北区西ケ原1-41-3","lat":35.74188,"lon":139.74478},{"name":"十条台子どもセンター","province":"東京都","city":"北区","address":"北区中十条1-2-18","lat":35.75732,"lon":139.72989},{"name":"八幡山子どもセンター","province":"東京都","city":"北区","address":"北区中十条4-15-7","lat":35.76868,"lon":139.72267},{"name":"志茂子ども交流館","province":"東京都","city":"北区","address":"北区志茂5-18-3","lat":35.78361,"lon":139.73161},{"name":"神谷子どもセンター","province":"東京都","city":"北区","address":"北区神谷3-35-17","lat":35.77131,"lon":139.73087},{"name":"赤羽児童館","province":"東京都","city":"北区","address":"北区赤羽南1-16-1-101","lat":35.77691,"lon":139.72562},{"name":"浮間子ども・ティーンズセンター","province":"東京都","city":"北区","address":"北区浮間4ー29ー32","lat":35.7901,"lon":139.69252},{"name":"赤羽北児童館","province":"東京都","city":"北区","address":"北区赤羽北1-5-5","lat":35.78613,"lon":139.7149},{"name":"袋児童館","province":"東京都","city":"北区","address":"北区赤羽北3-7-2-101","lat":35.78275,"lon":139.70621},{"name":"桐ヶ丘児童館","province":"東京都","city":"北区","address":"北区桐ヶ丘1-16-27-102","lat":35.77849,"lon":139.70651},{"name":"赤羽西児童館","province":"東京都","city":"北区","address":"北区赤羽西4-42-9","lat":35.77287,"lon":139.71425},{"name":"西が丘児童館","province":"東京都","city":"北区","address":"北区西が丘2-4-1","lat":35.76656,"lon":139.71413},{"name":"浮間子どもティーンズセンター","province":"東京都","city":"北区","address":"北区浮間4ー29ー32","lat":35.7901,"lon":139.69252},{"name":"滝野川東児童館","province":"東京都","city":"北区","address":"北区滝野川1-46-7","lat":35.74682,"lon":139.73413},{"name":"赤羽北児童館","province":"東京都","city":"北区","address":"北区赤羽北1-5-5","lat":35.78613,"lon":139.71491},{"name":"＊?滝野川西図書館","province":"東京都","city":"北区","address":"北区滝野川6-21-25","lat":35.745623,"lon":139.725914},{"name":"＊?東田端図書館","province":"東京都","city":"北区","address":"北区田端新町2-14-15","lat":35.740577,"lon":139.764817},{"name":"＊?田端図書館","province":"東京都","city":"北区","address":"北区田端3-16-2","lat":35.734411,"lon":139.756855},{"name":"＊?昭和町図書館","province":"東京都","city":"北区","address":"北区昭和町3-10-7","lat":35.749495,"lon":139.751368},{"name":"＊?赤羽図書館","province":"東京都","city":"北区","address":"北区赤羽南1-13-1","lat":35.777712,"lon":139.723724},{"name":"＊?上十条図書館","province":"東京都","city":"北区","address":"北区上十条3-3-9","lat":35.760402,"lon":139.718432},{"name":"＊?赤羽西図書館","province":"東京都","city":"北区","address":"北区赤羽西5-7-5","lat":35.77544,"lon":139.710473},{"name":"＊?赤羽北図書館","province":"東京都","city":"北区","address":"北区赤羽北1-18-1-111","lat":35.787216,"lon":139.71286},{"name":"＊?滝野川図書館","province":"東京都","city":"北区","address":"北区西ヶ原1-23-3","lat":35.743446,"lon":139.747565},{"name":"＊?中央図書館","province":"東京都","city":"北区","address":"北区十条台1-2-5","lat":35.756263,"lon":139.729044},{"name":"＊?豊島図書館","province":"東京都","city":"北区","address":"北区豊島3-27-22","lat":35.760469,"lon":139.747816},{"name":"＊?浮間図書館","province":"東京都","city":"北区","address":"北区浮間1-8-2-102","lat":35.790001,"lon":139.702704},{"name":"＊?神谷図書館","province":"東京都","city":"北区","address":"北区神谷3-35-17","lat":35.771319,"lon":139.731087},{"name":"＊?東十条図書館","province":"東京都","city":"北区","address":"北区東十条3-2-14","lat":35.765189,"lon":139.728595},{"name":"＊?中央図書館分室","province":"東京都","city":"北区","address":"北区豊島1-14-12","lat":35.758446,"lon":139.739729}]}