{"keyword":"宿泊","data":[{"name":"さくら岩本町ハウス","province":"東京都","city":"千代田区","address":"千代田区岩本町2-15-8","lat":35.694708,"lon":139.777757},{"name":"地域生活支援ホームやまぶき舎","province":"東京都","city":"新宿区","address":"新宿区赤城下町53","lat":35.705987,"lon":139.734057},{"name":"救世軍新光館","province":"東京都","city":"新宿区","address":"新宿区赤城下町87","lat":35.705056,"lon":139.735382},{"name":"さくら上落合ハウス","province":"東京都","city":"新宿区","address":"新宿区上落合1-13-2","lat":35.714673,"lon":139.692138},{"name":"いこい","province":"東京都","city":"新宿区","address":"新宿区富久町25-7","lat":35.694935,"lon":139.715117},{"name":"春陽寮","province":"東京都","city":"新宿区","address":"新宿区弁天町42","lat":35.704284,"lon":139.727721},{"name":"ドミトリー落合","province":"東京都","city":"新宿区","address":"新宿区上落合2-28-12","lat":35.711526,"lon":139.6855},{"name":"ＴＥＯＳ北新宿ハウス","province":"東京都","city":"新宿区","address":"新宿区北新宿3-10-2","lat":35.702169,"lon":139.691019},{"name":"ふるさと・日の出館","province":"東京都","city":"台東区","address":"東京都台東区","lat":35.71260667,"lon":139.77999789},{"name":"ふるさと・あさひ館","province":"東京都","city":"台東区","address":"台東区千束4-28-1","lat":35.722631,"lon":139.794935},{"name":"ふるさと・千束館","province":"東京都","city":"台東区","address":"台東区千束3-28-6","lat":35.723192,"lon":139.793446},{"name":"千束荘","province":"東京都","city":"台東区","address":"台東区千束3-23-13","lat":35.72255,"lon":139.793716},{"name":"下谷荘","province":"東京都","city":"台東区","address":"台東区下谷2-16-6","lat":35.722312,"lon":139.784289},{"name":"橋場荘","province":"東京都","city":"台東区","address":"台東区橋場1-17-10","lat":35.724401,"lon":139.805535},{"name":"おおぞら荘","province":"東京都","city":"台東区","address":"台東区日本堤1-17-7","lat":35.726186,"lon":139.799107},{"name":"さくら千束ハウス","province":"東京都","city":"台東区","address":"台東区千束4-34-1","lat":35.724728,"lon":139.796334},{"name":"きぼうのいえ","province":"東京都","city":"台東区","address":"東京都台東区","lat":35.71260667,"lon":139.77999789},{"name":"山友荘","province":"東京都","city":"台東区","address":"台東区清川2-38-2","lat":35.728747,"lon":139.800823},{"name":"コスモスハウスおはな","province":"東京都","city":"台東区","address":"東京都台東区","lat":35.71260667,"lon":139.77999789},{"name":"友愛ホーム","province":"東京都","city":"台東区","address":"台東区清川2-16-3","lat":35.727406,"lon":139.800493},{"name":"やすらぎの家","province":"東京都","city":"台東区","address":"東京都台東区","lat":35.71260667,"lon":139.77999789},{"name":"ＳＴＥＰ－ＵＰ－ＨＯＵＳＥ","province":"東京都","city":"台東区","address":"東京都台東区","lat":35.71260667,"lon":139.77999789},{"name":"グループホーム「ふうせん」","province":"東京都","city":"台東区","address":"東京都台東区","lat":35.71260667,"lon":139.77999789},{"name":"ＴＥＯＳ千束三番館","province":"東京都","city":"台東区","address":"東京都台東区","lat":35.71260667,"lon":139.77999789},{"name":"ＳＷワーク墨田寮","province":"東京都","city":"墨田区","address":"墨田区東墨田2-4-12","lat":35.719988,"lon":139.83264},{"name":"ぽたらか寮","province":"東京都","city":"墨田区","address":"墨田区八広6-1-8","lat":35.728791,"lon":139.825802},{"name":"ふるさと・せせらぎ館","province":"東京都","city":"墨田区","address":"墨田区文花3-19-6","lat":35.711342,"lon":139.827055},{"name":"向島荘","province":"東京都","city":"墨田区","address":"墨田区向島4-12-13","lat":35.716869,"lon":139.813228},{"name":"千歳荘","province":"東京都","city":"墨田区","address":"墨田区千歳2-6-3","lat":35.691082,"lon":139.794258},{"name":"フラワーハイツ","province":"東京都","city":"墨田区","address":"東京都墨田区","lat":35.71040718,"lon":139.80155995},{"name":"さくら向島ハウス","province":"東京都","city":"墨田区","address":"墨田区向島5-14-6","lat":35.718713,"lon":139.811021},{"name":"ふるさと・向島５丁目ハウス","province":"東京都","city":"墨田区","address":"墨田区向島5-13-21","lat":35.719019,"lon":139.81016},{"name":"風待ちハウス","province":"東京都","city":"墨田区","address":"東京都墨田区","lat":35.71040718,"lon":139.80155995},{"name":"あさひ　第３八広寮","province":"東京都","city":"墨田区","address":"墨田区八広3-1-3","lat":35.718752,"lon":139.824988},{"name":"あさひ　宮田記念第３八広寮","province":"東京都","city":"墨田区","address":"墨田区八広3-1-3","lat":35.718752,"lon":139.824988},{"name":"ステップなりひら","province":"東京都","city":"墨田区","address":"墨田区業平2-10-11","lat":35.707494,"lon":139.811629},{"name":"新幸荘","province":"東京都","city":"江東区","address":"東京都江東区","lat":35.67307835,"lon":139.8169681},{"name":"福住荘","province":"東京都","city":"江東区","address":"江東区福住1-14-10","lat":35.674944,"lon":139.793957},{"name":"さくら亀戸ハウス","province":"東京都","city":"江東区","address":"江東区亀戸4-33-5","lat":35.703072,"lon":139.827531},{"name":"さくら第３亀戸ハウス","province":"東京都","city":"江東区","address":"江東区亀戸7-24-1","lat":35.699556,"lon":139.836818},{"name":"さくら第２亀戸ハウス","province":"東京都","city":"江東区","address":"江東区亀戸9-18-10","lat":35.697784,"lon":139.843076},{"name":"江東荘","province":"東京都","city":"江東区","address":"東京都江東区","lat":35.67307835,"lon":139.8169681},{"name":"砂町クラブ","province":"東京都","city":"江東区","address":"江東区北砂4丁目11-22","lat":35.678392,"lon":139.829844},{"name":"戸越荘","province":"東京都","city":"品川区","address":"品川区戸越1-20-12","lat":35.614477,"lon":139.721131},{"name":"五反田荘","province":"東京都","city":"品川区","address":"品川区西五反田8-6-7","lat":35.620546,"lon":139.720281},{"name":"さくら中延ハウス","province":"東京都","city":"品川区","address":"品川区中延4-20-5","lat":35.604431,"lon":139.711535},{"name":"さくら東中延ハウス","province":"東京都","city":"品川区","address":"品川区東中延1-9-5","lat":35.610097,"lon":139.712351},{"name":"東が丘荘","province":"東京都","city":"目黒区","address":"東京都目黒区","lat":35.64141799,"lon":139.69818761},{"name":"柿の木坂荘","province":"東京都","city":"目黒区","address":"目黒区柿の木坂3-3-4","lat":35.627972,"lon":139.675304},{"name":"祐天寺荘","province":"東京都","city":"目黒区","address":"目黒区中央町2-36-11","lat":35.632108,"lon":139.686739},{"name":"カーサ大鳥居","province":"東京都","city":"大田区","address":"大田区本羽田3-13-16","lat":35.548042,"lon":139.736422},{"name":"カーサ雪谷","province":"東京都","city":"大田区","address":"大田区東雪谷3-14-25","lat":35.594873,"lon":139.688973},{"name":"春風寮","province":"東京都","city":"大田区","address":"大田区仲六郷4-2-12","lat":35.54535,"lon":139.709394},{"name":"蒲田荘","province":"東京都","city":"大田区","address":"大田区蒲田本町2-19-4","lat":35.556395,"lon":139.717403},{"name":"大森南荘","province":"東京都","city":"大田区","address":"大田区大森南2-1-26","lat":35.563251,"lon":139.74031},{"name":"Ｌ．Ｃ大森中","province":"東京都","city":"大田区","address":"大田区大森中3-1-5","lat":35.566147,"lon":139.730238},{"name":"Ｌ．Ｃ西蒲田","province":"東京都","city":"大田区","address":"大田区西蒲田4-2-2","lat":35.56973,"lon":139.71805},{"name":"Ｌ．Ｃ西糀谷","province":"東京都","city":"大田区","address":"大田区西糀谷1-4-4","lat":35.560409,"lon":139.730591},{"name":"カインドネス西蒲田","province":"東京都","city":"大田区","address":"大田区西蒲田7-9-15","lat":35.564203,"lon":139.712478},{"name":"さくら下丸子ハウス","province":"東京都","city":"大田区","address":"大田区下丸子1-1-8","lat":35.570494,"lon":139.688328},{"name":"カーサ羽田","province":"東京都","city":"大田区","address":"大田区羽田3-36-4","lat":35.545104,"lon":139.745963},{"name":"カーサ大森","province":"東京都","city":"大田区","address":"大田区山王4-21-61-B","lat":35.586766,"lon":139.720993},{"name":"カーサ糀谷","province":"東京都","city":"大田区","address":"大田区南蒲田3-12-18","lat":35.553366,"lon":139.728811},{"name":"カーサ東六郷","province":"東京都","city":"大田区","address":"大田区東六郷1-10-11","lat":35.552146,"lon":139.721681},{"name":"若林荘","province":"東京都","city":"世田谷区","address":"世田谷区若林5-33-10","lat":35.64878,"lon":139.659666},{"name":"大蔵荘","province":"東京都","city":"世田谷区","address":"世田谷区大蔵6-7-26","lat":35.62566,"lon":139.612121},{"name":"新町荘","province":"東京都","city":"世田谷区","address":"世田谷区新町3-22-10","lat":35.632423,"lon":139.646309},{"name":"中野本町荘","province":"東京都","city":"中野区","address":"中野区本町2-18-12","lat":35.694087,"lon":139.680007},{"name":"野方荘","province":"東京都","city":"中野区","address":"中野区野方2-4-16","lat":35.713903,"lon":139.658841},{"name":"やすらぎの里沼袋寮","province":"東京都","city":"中野区","address":"中野区沼袋4-3-11","lat":35.721358,"lon":139.66099},{"name":"自立援助ホームわかば荘","province":"東京都","city":"中野区","address":"中野区中央2-57-7","lat":35.701244,"lon":139.67659},{"name":"下井草荘","province":"東京都","city":"杉並区","address":"杉並区下井草1-7-15","lat":35.715049,"lon":139.632651},{"name":"本天沼荘","province":"東京都","city":"杉並区","address":"杉並区本天沼2-31-8","lat":35.714522,"lon":139.625194},{"name":"さくら下高井戸ハウス","province":"東京都","city":"杉並区","address":"東京都杉並区","lat":35.69957353,"lon":139.63638522},{"name":"コーポ浜田山","province":"東京都","city":"杉並区","address":"東京都杉並区","lat":35.69957353,"lon":139.63638522},{"name":"東京望みの門","province":"東京都","city":"杉並区","address":"東京都杉並区","lat":35.69957353,"lon":139.63638522},{"name":"ちとせ橋寮","province":"東京都","city":"豊島区","address":"豊島区雑司ヶ谷3-8-16","lat":35.721184,"lon":139.712905},{"name":"ハピーテラス","province":"東京都","city":"豊島区","address":"東京都豊島区","lat":35.72611722,"lon":139.71660773},{"name":"やまて寮","province":"東京都","city":"豊島区","address":"豊島区南池袋4-18-9","lat":35.724704,"lon":139.720416},{"name":"雑司ヶ谷荘","province":"東京都","city":"豊島区","address":"豊島区雑司が谷3-1-3","lat":35.719162,"lon":139.713694},{"name":"長崎荘","province":"東京都","city":"豊島区","address":"豊島区長崎4-35-1","lat":35.731274,"lon":139.685057},{"name":"東池袋荘","province":"東京都","city":"豊島区","address":"豊島区東池袋2-37-11","lat":35.732525,"lon":139.721815},{"name":"さくら千早ハウス","province":"東京都","city":"豊島区","address":"豊島区千早3-31-8","lat":35.734657,"lon":139.688126},{"name":"ライズケア赤羽","province":"東京都","city":"北区","address":"北区赤羽西1-32-7","lat":35.776767,"lon":139.716897},{"name":"やすらぎの里東十条","province":"東京都","city":"北区","address":"北区東十条5-7-6","lat":35.768949,"lon":139.727022},{"name":"アイリス・ハート","province":"大阪府","city":"大阪市北区","address":"大阪府大阪市北区","lat":34.70536386,"lon":135.51002813},{"name":"赤羽荘","province":"大阪府","city":"大阪市北区","address":"大阪府大阪市北区","lat":34.70536386,"lon":135.51002813},{"name":"中里荘","province":"東京都","city":"北区","address":"北区中里2-6-3","lat":35.73827,"lon":139.750254},{"name":"南千住荘","province":"東京都","city":"荒川区","address":"東京都荒川区","lat":35.73614432,"lon":139.78333641},{"name":"町屋荘","province":"東京都","city":"荒川区","address":"荒川区町屋1-30-2","lat":35.745423,"lon":139.785316},{"name":"さくら荒川ハウス","province":"東京都","city":"荒川区","address":"荒川区荒川2-2-2","lat":35.735114,"lon":139.783759},{"name":"シルバービレッジ","province":"東京都","city":"板橋区","address":"板橋区板橋1-47-10","lat":35.74874,"lon":139.718284},{"name":"向原荘","province":"東京都","city":"板橋区","address":"板橋区向原1-20-3","lat":35.743228,"lon":139.685887},{"name":"高島平荘","province":"東京都","city":"板橋区","address":"板橋区高島平1-59-10","lat":35.785823,"lon":139.671534},{"name":"聖家族寮","province":"東京都","city":"練馬区","address":"東京都練馬区","lat":35.73562267,"lon":139.65166011},{"name":"貫井荘","province":"東京都","city":"練馬区","address":"練馬区貫井1-23-6","lat":35.737844,"lon":139.63217},{"name":"大泉荘","province":"東京都","city":"練馬区","address":"練馬区大泉学園町3-3-26","lat":35.763029,"lon":139.587148},{"name":"さくら関町南ハウス","province":"東京都","city":"練馬区","address":"練馬区関町南4-13-5","lat":35.719659,"lon":139.573995},{"name":"綾瀬荘","province":"東京都","city":"足立区","address":"東京都足立区","lat":35.77563344,"lon":139.80450083},{"name":"ＳＷワーク花畑寮","province":"東京都","city":"足立区","address":"足立区南花畑1-18-18","lat":35.789104,"lon":139.826871},{"name":"鹿浜荘","province":"東京都","city":"足立区","address":"足立区鹿浜2-15-9","lat":35.781237,"lon":139.746075},{"name":"本木東町荘","province":"東京都","city":"足立区","address":"足立区本木東町3-7","lat":35.764851,"lon":139.782214},{"name":"さくら西新井ハウス","province":"東京都","city":"足立区","address":"足立区島根3-27-21","lat":35.780585,"lon":139.79314},{"name":"コーポ金町","province":"東京都","city":"葛飾区","address":"葛飾区東水元3-4-5","lat":35.783569,"lon":139.86596},{"name":"青戸荘","province":"東京都","city":"葛飾区","address":"葛飾区青戸8-3-8","lat":35.756184,"lon":139.849678},{"name":"金町荘","province":"東京都","city":"葛飾区","address":"葛飾区東金町5-39-7","lat":35.778655,"lon":139.880353},{"name":"立花荘","province":"東京都","city":"葛飾区","address":"葛飾区高砂2-15-3","lat":35.75006,"lon":139.865708},{"name":"第二立花荘","province":"東京都","city":"葛飾区","address":"葛飾区高砂3-28-7","lat":35.747371,"lon":139.869463},{"name":"第三立花荘","province":"東京都","city":"葛飾区","address":"葛飾区高砂3-28-8","lat":35.747402,"lon":139.86966},{"name":"あさひ　第１西水元寮","province":"東京都","city":"葛飾区","address":"葛飾区水元3-36-1","lat":35.781575,"lon":139.864568},{"name":"あさひ　第一西亀有寮","province":"東京都","city":"葛飾区","address":"葛飾区西亀有2-33-14","lat":35.759861,"lon":139.834716},{"name":"サンビレッジ東小岩","province":"東京都","city":"江戸川区","address":"江戸川区東小岩3-7-7","lat":35.732134,"lon":139.891304},{"name":"サンビレッジ平井","province":"東京都","city":"江戸川区","address":"東京都江戸川区","lat":35.70697836,"lon":139.8683262},{"name":"一之江荘","province":"東京都","city":"江戸川区","address":"東京都江戸川区","lat":35.70697836,"lon":139.8683262},{"name":"西葛西荘","province":"東京都","city":"江戸川区","address":"江戸川区西葛西2-20-2","lat":35.666455,"lon":139.854126},{"name":"サンビレッジ南小岩","province":"東京都","city":"江戸川区","address":"江戸川区南小岩7-29-16第二山喜ビル","lat":35.731837,"lon":139.884071},{"name":"瑞江荘","province":"東京都","city":"江戸川区","address":"江戸川区西瑞江3-17-17","lat":35.686575,"lon":139.891644},{"name":"船堀荘","province":"東京都","city":"江戸川区","address":"江戸川区船堀3-2-22","lat":35.681576,"lon":139.862969},{"name":"葛西荘","province":"東京都","city":"江戸川区","address":"江戸川区東葛西7-13-17","lat":35.659187,"lon":139.876002},{"name":"さくら八王子ハウス","province":"東京都","city":"八王子市","address":"東京都八王子市","lat":35.66634173,"lon":139.31580521},{"name":"さくら第二八王子ハウス","province":"東京都","city":"八王子市","address":"東京都八王子市","lat":35.66634173,"lon":139.31580521},{"name":"八王子荘","province":"東京都","city":"八王子市","address":"八王子市左入町414-1","lat":35.68769,"lon":139.343835},{"name":"すみれハイツ","province":"東京都","city":"八王子市","address":"東京都八王子市","lat":35.66634173,"lon":139.31580521},{"name":"八王子ドゥーム","province":"東京都","city":"八王子市","address":"東京都八王子市","lat":35.66634173,"lon":139.31580521},{"name":"ブランベルセ八王子","province":"東京都","city":"八王子市","address":"八王子市田町3-15","lat":35.666242,"lon":139.336653},{"name":"コーポ立川","province":"東京都","city":"立川市","address":"立川市錦町6-9-8","lat":35.688636,"lon":139.418079},{"name":"コーポ立川錦町","province":"東京都","city":"立川市","address":"立川市錦町6-2-5","lat":35.689736,"lon":139.418421},{"name":"立川第２荘","province":"東京都","city":"立川市","address":"立川市富士見町4-15-14","lat":35.694865,"lon":139.399303},{"name":"コーポ三鷹","province":"東京都","city":"三鷹市","address":"東京都三鷹市","lat":35.68327617,"lon":139.55972268},{"name":"グッドライフ三鷹寮","province":"東京都","city":"三鷹市","address":"三鷹市野崎4-4-23","lat":35.680037,"lon":139.542419},{"name":"三鷹荘","province":"東京都","city":"三鷹市","address":"三鷹市大沢1-1-50","lat":35.678088,"lon":139.542266},{"name":"青梅荘","province":"東京都","city":"青梅市","address":"青梅市千ケ瀬町3-490","lat":35.783393,"lon":139.267617},{"name":"コーポ青梅","province":"東京都","city":"青梅市","address":"東京都青梅市","lat":35.78799021,"lon":139.27579057},{"name":"コーポ府中南","province":"東京都","city":"府中市","address":"府中市日新町4-23-10","lat":35.672286,"lon":139.442467},{"name":"天神荘","province":"東京都","city":"府中市","address":"府中市天神町1-13-42","lat":35.679697,"lon":139.487049},{"name":"府中荘","province":"東京都","city":"府中市","address":"府中市武蔵台2-15-8","lat":35.693153,"lon":139.463536},{"name":"グッドライフ調布寮","province":"東京都","city":"調布市","address":"調布市深大寺東町1-26-5","lat":35.671014,"lon":139.558057},{"name":"飛田給荘","province":"東京都","city":"調布市","address":"東京都調布市","lat":35.65071619,"lon":139.54099257},{"name":"町田荘","province":"東京都","city":"町田市","address":"町田市南成瀬4-19-15","lat":35.538792,"lon":139.477213},{"name":"町田第２荘","province":"東京都","city":"町田市","address":"町田市南成瀬7-6-12","lat":35.534051,"lon":139.480602},{"name":"町田図師荘","province":"東京都","city":"町田市","address":"町田市図師町615-7","lat":35.582199,"lon":139.419452},{"name":"梶野町第二荘","province":"東京都","city":"小金井市","address":"小金井市梶野町2-16-6","lat":35.709284,"lon":139.529938},{"name":"梶野町荘","province":"東京都","city":"小金井市","address":"小金井市梶野町2-16-7","lat":35.709309,"lon":139.529727},{"name":"小金井荘","province":"東京都","city":"小金井市","address":"小金井市梶野町4-10-23","lat":35.707681,"lon":139.526964},{"name":"東小金井荘","province":"東京都","city":"小金井市","address":"小金井市梶野町4-10-24","lat":35.707853,"lon":139.526775},{"name":"さくら東小金井ハウス","province":"東京都","city":"小金井市","address":"小金井市東町4-20-22","lat":35.695605,"lon":139.525273},{"name":"サンハイツ貫井南","province":"東京都","city":"小金井市","address":"小金井市貫井南町4-14-8","lat":35.695223,"lon":139.494797},{"name":"小平荘","province":"東京都","city":"小平市","address":"小平市花小金井8-28-1","lat":35.730833,"lon":139.505728},{"name":"花小金井ハイツ","province":"東京都","city":"小平市","address":"小平市花小金井6-20-3","lat":35.730195,"lon":139.510728},{"name":"旭が丘ハイツ","province":"東京都","city":"日野市","address":"日野市旭が丘2-32-8","lat":35.662457,"lon":139.370651},{"name":"日野第二荘","province":"東京都","city":"日野市","address":"東京都日野市","lat":35.67144843,"lon":139.39486221},{"name":"日野荘","province":"東京都","city":"日野市","address":"日野市宮269-1","lat":35.670832,"lon":139.405481},{"name":"東村山ソーシャルホーム","province":"東京都","city":"東村山市","address":"東村山市本町1-13-51大塚ビル104","lat":35.75433,"lon":139.466156},{"name":"さくら国分寺ハウス","province":"東京都","city":"国分寺市","address":"国分寺市東元町3-30-7","lat":35.696806,"lon":139.476904},{"name":"さくら国立ハウス","province":"東京都","city":"国立市","address":"国立市富士見台3-8-15","lat":35.685923,"lon":139.43753},{"name":"さくら滝山ハウス","province":"東京都","city":"東久留米市","address":"東久留米市滝山7-1-22","lat":35.749565,"lon":139.508844},{"name":"芝久保ハイツ","province":"東京都","city":"西東京市","address":"西東京市芝久保町4-2-9","lat":35.729945,"lon":139.528126},{"name":"イクソス（ひばりが丘）","province":"東京都","city":"西東京市","address":"東京都西東京市","lat":35.72551542,"lon":139.53814504},{"name":"イクソス（ひばりが丘２）","province":"東京都","city":"西東京市","address":"東京都西東京市","lat":35.72551542,"lon":139.53814504},{"name":"Ａｒｋひばりが丘","province":"東京都","city":"西東京市","address":"東京都西東京市","lat":35.72551542,"lon":139.53814504},{"name":"イクソス（ひばりが丘３）","province":"東京都","city":"西東京市","address":"東京都西東京市","lat":35.72551542,"lon":139.53814504},{"name":"女性の家ＨＥＬＰ","province":"大阪府","city":"大阪市中央区","address":"大阪府大阪市中央区","lat":34.68107502,"lon":135.50978711},{"name":"さくら岩本町ハウス","province":"東京都","city":"千代田区","address":"千代田区岩本町2-15-8","lat":35.69454,"lon":139.77789},{"name":"さくら上落合ハウス","province":"東京都","city":"新宿区","address":"新宿区上落合1-13-2","lat":35.71501,"lon":139.69226},{"name":"ドミトリー落合","province":"東京都","city":"新宿区","address":"新宿区上落合2-28-12","lat":35.71146,"lon":139.68573},{"name":"いこい","province":"東京都","city":"新宿区","address":"新宿区富久町25-7","lat":35.69491,"lon":139.71503},{"name":"地域生活支援ホームやまぶき舎","province":"東京都","city":"新宿区","address":"新宿区赤城下町53","lat":35.70583,"lon":139.7341},{"name":"救世軍新光館","province":"東京都","city":"新宿区","address":"新宿区赤城下町87","lat":35.7055,"lon":139.73486},{"name":"春陽寮","province":"東京都","city":"新宿区","address":"新宿区弁天町42","lat":35.70423,"lon":139.7276},{"name":"ＴＥＯＳ北新宿ハウス","province":"東京都","city":"新宿区","address":"新宿区北新宿3-10-2","lat":35.70206,"lon":139.69075},{"name":"下谷荘","province":"東京都","city":"台東区","address":"台東区下谷2-16-6","lat":35.72222,"lon":139.78426},{"name":"おおぞら荘","province":"東京都","city":"台東区","address":"台東区日本堤1-17-7","lat":35.72612,"lon":139.79912},{"name":"山友荘","province":"東京都","city":"台東区","address":"台東区清川2-38-2","lat":35.72885,"lon":139.80061},{"name":"友愛ホーム","province":"東京都","city":"台東区","address":"台東区清川2-16-3","lat":35.72757,"lon":139.80042},{"name":"橋場荘","province":"東京都","city":"台東区","address":"台東区橋場1-17-10","lat":35.72424,"lon":139.80568},{"name":"ふるさと・あさひ館","province":"東京都","city":"台東区","address":"台東区千束4-28-1","lat":35.72276,"lon":139.79457},{"name":"ふるさと・千束館","province":"東京都","city":"台東区","address":"台東区千束3-28-6","lat":35.7232,"lon":139.79366},{"name":"千束荘","province":"東京都","city":"台東区","address":"台東区千束3-23-13","lat":35.72248,"lon":139.79349},{"name":"さくら千束ハウス","province":"東京都","city":"台東区","address":"台東区千束4-34-1","lat":35.72474,"lon":139.79611},{"name":"ステップなりひら","province":"東京都","city":"墨田区","address":"墨田区業平2-10-11","lat":35.70767,"lon":139.81155},{"name":"千歳荘","province":"東京都","city":"墨田区","address":"墨田区千歳2-6-3","lat":35.69098,"lon":139.79436},{"name":"向島荘","province":"東京都","city":"墨田区","address":"墨田区向島4-12-13","lat":35.71723,"lon":139.81325},{"name":"さくら向島ハウス","province":"東京都","city":"墨田区","address":"墨田区向島5-14-6","lat":35.71883,"lon":139.81097},{"name":"ふるさと・向島５丁目ハウス","province":"東京都","city":"墨田区","address":"墨田区向島5-13-21","lat":35.71927,"lon":139.81062},{"name":"ぽたらか寮","province":"東京都","city":"墨田区","address":"墨田区八広6-1-8","lat":35.72862,"lon":139.82535},{"name":"あさひ　第３八広寮","province":"東京都","city":"墨田区","address":"墨田区八広3-1-3","lat":35.71876,"lon":139.82495},{"name":"あさひ　宮田記念第３八広寮","province":"東京都","city":"墨田区","address":"墨田区八広3-1-3","lat":35.71876,"lon":139.82495},{"name":"ふるさと・せせらぎ館","province":"東京都","city":"墨田区","address":"墨田区文花3-19-6","lat":35.71143,"lon":139.82701},{"name":"福住荘","province":"東京都","city":"江東区","address":"江東区福住1-14-10","lat":35.67499,"lon":139.79393},{"name":"さくら亀戸ハウス","province":"東京都","city":"江東区","address":"江東区亀戸4-33-5","lat":35.70295,"lon":139.82738},{"name":"さくら第３亀戸ハウス","province":"東京都","city":"江東区","address":"江東区亀戸7-24-1","lat":35.69941,"lon":139.83678},{"name":"さくら第２亀戸ハウス","province":"東京都","city":"江東区","address":"江東区亀戸9-18-10","lat":35.69769,"lon":139.84254},{"name":"砂町クラブ","province":"東京都","city":"江東区","address":"江東区北砂4-11-22","lat":35.67882,"lon":139.82986},{"name":"五反田荘","province":"東京都","city":"品川区","address":"品川区西五反田8-6-7","lat":35.62095,"lon":139.72078},{"name":"戸越荘","province":"東京都","city":"品川区","address":"品川区戸越1-20-12","lat":35.61462,"lon":139.72147},{"name":"さくら東中延ハウス","province":"東京都","city":"品川区","address":"品川区東中延1-9-5","lat":35.60994,"lon":139.7122},{"name":"さくら中延ハウス","province":"東京都","city":"品川区","address":"品川区中延4-20-5","lat":35.60426,"lon":139.71112},{"name":"柿の木坂荘","province":"東京都","city":"目黒区","address":"目黒区柿の木坂3-3-4","lat":35.6277,"lon":139.67535},{"name":"大森南荘","province":"東京都","city":"大田区","address":"大田区大森南2-1-26","lat":35.56315,"lon":139.74091},{"name":"Ｌ．Ｃ大森中","province":"東京都","city":"大田区","address":"大田区大森中3-1-5","lat":35.56613,"lon":139.73019},{"name":"カーサ大森","province":"東京都","city":"大田区","address":"大田区山王4-21-6コーポカーサグランデ","lat":35.58713,"lon":139.72069},{"name":"Ｌ．Ｃ西糀谷","province":"東京都","city":"大田区","address":"大田区西糀谷1-4-4","lat":35.56016,"lon":139.73024},{"name":"カーサ糀谷","province":"東京都","city":"大田区","address":"大田区南蒲田3-12-18","lat":35.5534,"lon":139.7291},{"name":"カーサ羽田","province":"東京都","city":"大田区","address":"大田区羽田3-36-4","lat":35.54501,"lon":139.74629},{"name":"カーサ大鳥居","province":"東京都","city":"大田区","address":"大田区本羽田3-13-16","lat":35.54794,"lon":139.73654},{"name":"カーサ東六郷","province":"東京都","city":"大田区","address":"大田区東六郷1-10-11","lat":35.55215,"lon":139.72131},{"name":"Ｌ．Ｃ西蒲田","province":"東京都","city":"大田区","address":"大田区西蒲田4-2-2","lat":35.56959,"lon":139.71831},{"name":"蒲田荘","province":"東京都","city":"大田区","address":"大田区蒲田本町2-19-4","lat":35.55631,"lon":139.71729},{"name":"春風寮","province":"東京都","city":"大田区","address":"大田区仲六郷4-2-12","lat":35.54505,"lon":139.70972},{"name":"カーサ雪谷","province":"東京都","city":"大田区","address":"大田区東雪谷3-14-25","lat":35.59449,"lon":139.68898},{"name":"さくら下丸子ハウス","province":"東京都","city":"大田区","address":"大田区下丸子1-1-8","lat":35.57084,"lon":139.68808},{"name":"ＴＥＯＳ新町荘","province":"東京都","city":"世田谷区","address":"世田谷区新町3-22-10","lat":35.63218,"lon":139.64618},{"name":"若林荘","province":"東京都","city":"世田谷区","address":"世田谷区若林5-33-10","lat":35.64896,"lon":139.65982},{"name":"大蔵荘","province":"東京都","city":"世田谷区","address":"世田谷区大蔵6-7-26","lat":35.62563,"lon":139.61195},{"name":"自立援助ホームわかば荘","province":"東京都","city":"中野区","address":"中野区中央2-57-7","lat":35.70135,"lon":139.67661},{"name":"中野本町荘","province":"東京都","city":"中野区","address":"中野区本町2-18-12","lat":35.69412,"lon":139.67995},{"name":"やすらぎの里沼袋寮","province":"東京都","city":"中野区","address":"中野区沼袋4-3-11","lat":35.72112,"lon":139.66138},{"name":"野方荘","province":"東京都","city":"中野区","address":"中野区野方2-4-16","lat":35.7147,"lon":139.65857},{"name":"下井草荘","province":"東京都","city":"杉並区","address":"杉並区下井草1-7-15","lat":35.71508,"lon":139.63242},{"name":"本天沼荘","province":"東京都","city":"杉並区","address":"杉並区本天沼2-31-8","lat":35.71456,"lon":139.62544},{"name":"さくら浜田山ハウス","province":"東京都","city":"杉並区","address":"東京都杉並区","lat":35.69957353,"lon":139.63638522},{"name":"東池袋荘","province":"東京都","city":"豊島区","address":"豊島区東池袋2-37-11","lat":35.73227,"lon":139.72192},{"name":"やまて寮","province":"東京都","city":"豊島区","address":"豊島区南池袋4-18-9","lat":35.72435,"lon":139.72029},{"name":"ちとせ橋寮","province":"東京都","city":"豊島区","address":"豊島区雑司ヶ谷3-8-16","lat":35.72149,"lon":139.71306},{"name":"雑司ヶ谷荘","province":"東京都","city":"豊島区","address":"豊島区雑司が谷3-1-3","lat":35.7195,"lon":139.71396},{"name":"さくら千早ハウス","province":"東京都","city":"豊島区","address":"豊島区千早3-31-8","lat":35.7344,"lon":139.68825},{"name":"長崎荘","province":"東京都","city":"豊島区","address":"豊島区長崎4-35-1","lat":35.73136,"lon":139.68503},{"name":"やすらぎの里東十条","province":"東京都","city":"北区","address":"北区東十条5-7-6","lat":35.76912,"lon":139.72714},{"name":"中里荘","province":"東京都","city":"北区","address":"北区中里2-6-3","lat":35.73836,"lon":139.7505},{"name":"ライズケア赤羽","province":"東京都","city":"北区","address":"北区赤羽西1-32-7","lat":35.77683,"lon":139.71693},{"name":"町屋荘","province":"東京都","city":"荒川区","address":"荒川区町屋1-30-2","lat":35.74571,"lon":139.78526},{"name":"さくら荒川ハウス","province":"東京都","city":"荒川区","address":"荒川区荒川2-2-2","lat":35.73626,"lon":139.78339},{"name":"シルバービレッジ","province":"東京都","city":"板橋区","address":"板橋区板橋1-47-10","lat":35.74858,"lon":139.71838},{"name":"向原荘","province":"東京都","city":"板橋区","address":"板橋区向原1-20-3","lat":35.74322,"lon":139.68579},{"name":"高島平荘","province":"東京都","city":"板橋区","address":"板橋区高島平1-59-10","lat":35.78559,"lon":139.67181},{"name":"貫井荘","province":"東京都","city":"練馬区","address":"練馬区貫井1-23-6","lat":35.73801,"lon":139.63245},{"name":"さくら関町南ハウス","province":"東京都","city":"練馬区","address":"練馬区関町南4-13-5","lat":35.72008,"lon":139.57396},{"name":"大泉荘","province":"東京都","city":"練馬区","address":"練馬区大泉学園町3-3-26","lat":35.7623,"lon":139.58669},{"name":"ＳＷワーク花畑寮","province":"東京都","city":"足立区","address":"足立区南花畑1-18-18","lat":35.78919,"lon":139.82616},{"name":"さくら西新井ハウス","province":"東京都","city":"足立区","address":"足立区島根3-27-21","lat":35.78055,"lon":139.79269},{"name":"本木東町荘","province":"東京都","city":"足立区","address":"足立区本木東町3-7","lat":35.7647,"lon":139.78249},{"name":"鹿浜荘","province":"東京都","city":"足立区","address":"足立区鹿浜2-15-9","lat":35.78111,"lon":139.74611},{"name":"あさひ　第一西亀有寮","province":"東京都","city":"葛飾区","address":"葛飾区西亀有2-33-14","lat":35.75999,"lon":139.83453},{"name":"あさひ　第１西水元寮","province":"東京都","city":"葛飾区","address":"葛飾区水元3-36-1","lat":35.78249,"lon":139.86322},{"name":"さくら金町ハウス","province":"東京都","city":"葛飾区","address":"葛飾区東水元3-4-5","lat":35.78334,"lon":139.86632},{"name":"金町荘","province":"東京都","city":"葛飾区","address":"葛飾区東金町5-39-7","lat":35.77842,"lon":139.88025},{"name":"立花荘","province":"東京都","city":"葛飾区","address":"葛飾区高砂2-15-3","lat":35.74993,"lon":139.86583},{"name":"第二立花荘","province":"東京都","city":"葛飾区","address":"葛飾区高砂3-28-7","lat":35.74727,"lon":139.86949},{"name":"第三立花荘","province":"東京都","city":"葛飾区","address":"葛飾区高砂3-28-8","lat":35.74727,"lon":139.86949},{"name":"青戸荘","province":"東京都","city":"葛飾区","address":"葛飾区青戸8-3-8","lat":35.75608,"lon":139.85005},{"name":"瑞江荘","province":"東京都","city":"江戸川区","address":"江戸川区西瑞江3-17-17","lat":35.68668,"lon":139.89177},{"name":"サンビレッジ東小岩","province":"東京都","city":"江戸川区","address":"江戸川区東小岩3-7-7","lat":35.73197,"lon":139.89142},{"name":"サンビレッジ南小岩","province":"東京都","city":"江戸川区","address":"江戸川区南小岩7-29-16第二山喜ビル","lat":35.73183,"lon":139.88391},{"name":"葛西荘","province":"東京都","city":"江戸川区","address":"江戸川区東葛西7-13-17","lat":35.65934,"lon":139.87631},{"name":"西葛西荘","province":"東京都","city":"江戸川区","address":"江戸川区西葛西2-20-2","lat":35.66657,"lon":139.85443},{"name":"船堀荘","province":"東京都","city":"江戸川区","address":"江戸川区船堀3-2-22","lat":35.6821,"lon":139.86316},{"name":"八王子荘","province":"東京都","city":"八王子市","address":"八王子市左入町414-1","lat":35.68782,"lon":139.34378},{"name":"ブランベルセ八王子","province":"東京都","city":"八王子市","address":"八王子市田町3-15","lat":35.66617,"lon":139.33643},{"name":"立川第２荘","province":"東京都","city":"立川市","address":"立川市富士見町4-15-14","lat":35.69511,"lon":139.39961},{"name":"さくら立川ハウス","province":"東京都","city":"立川市","address":"立川市錦町6-9-8","lat":35.6885,"lon":139.41768},{"name":"さくら立川錦町ハウス","province":"東京都","city":"立川市","address":"立川市錦町6-2-5","lat":35.68947,"lon":139.41811},{"name":"グッドライフ三鷹寮","province":"東京都","city":"三鷹市","address":"三鷹市野崎4-4-23","lat":35.67979,"lon":139.54228},{"name":"三鷹荘","province":"東京都","city":"三鷹市","address":"三鷹市大沢1-1-50","lat":35.67792,"lon":139.54054},{"name":"さくら三鷹ハウス","province":"東京都","city":"三鷹市","address":"東京都三鷹市","lat":35.68327617,"lon":139.55972268},{"name":"青梅荘","province":"東京都","city":"青梅市","address":"青梅市千ケ瀬町3-490","lat":35.78294,"lon":139.26949},{"name":"さくら青梅ハウス","province":"東京都","city":"青梅市","address":"東京都青梅市","lat":35.78799021,"lon":139.27579057},{"name":"さくら府中南ハウス","province":"東京都","city":"府中市","address":"府中市日新町4-23-10","lat":35.67213,"lon":139.44308},{"name":"府中荘","province":"東京都","city":"府中市","address":"府中市武蔵台2-15-8","lat":35.69298,"lon":139.46347},{"name":"天神荘","province":"東京都","city":"府中市","address":"府中市天神町1-13-42","lat":35.67974,"lon":139.48711},{"name":"グッドライフ調布寮","province":"東京都","city":"調布市","address":"調布市深大寺東町1-26-5","lat":35.67124,"lon":139.55788},{"name":"町田荘","province":"東京都","city":"町田市","address":"町田市南成瀬4-19-15","lat":35.53862,"lon":139.47742},{"name":"町田第２荘","province":"東京都","city":"町田市","address":"町田市南成瀬7-6-12","lat":35.5341,"lon":139.48062},{"name":"町田図師荘","province":"東京都","city":"町田市","address":"町田市図師町615-7","lat":35.58226,"lon":139.41943},{"name":"梶野町第二荘","province":"東京都","city":"小金井市","address":"小金井市梶野町2-16-6","lat":35.70932,"lon":139.52924},{"name":"梶野町荘","province":"東京都","city":"小金井市","address":"小金井市梶野町2-16-7","lat":35.70932,"lon":139.52924},{"name":"小金井荘","province":"東京都","city":"小金井市","address":"小金井市梶野町4-10-23","lat":35.70747,"lon":139.52699},{"name":"東小金井荘","province":"東京都","city":"小金井市","address":"小金井市梶野町4-10-24","lat":35.70747,"lon":139.52699},{"name":"さくら東小金井ハウス","province":"東京都","city":"小金井市","address":"小金井市東町4-20-22","lat":35.6959,"lon":139.52505},{"name":"サンハイツ貫井南","province":"東京都","city":"小金井市","address":"小金井市貫井南町4-14-8","lat":35.69549,"lon":139.49466},{"name":"小平荘","province":"東京都","city":"小平市","address":"小平市花小金井8-28-1","lat":35.73142,"lon":139.50586},{"name":"花小金井ハイツ","province":"東京都","city":"小平市","address":"小平市花小金井6-20-3","lat":35.73022,"lon":139.51057},{"name":"日野荘","province":"東京都","city":"日野市","address":"日野市宮269-1","lat":35.67052,"lon":139.40596},{"name":"旭が丘ハイツ","province":"東京都","city":"日野市","address":"日野市旭が丘2-32-8","lat":35.66238,"lon":139.37054},{"name":"ドーミー久米川","province":"東京都","city":"東村山市","address":"東村山市本町1-9-11","lat":35.75204,"lon":139.46751},{"name":"東村山ソーシャルホーム","province":"東京都","city":"東村山市","address":"東村山市本町1-13-51大塚ビル104","lat":35.75448,"lon":139.46622},{"name":"さくら国分寺ハウス","province":"東京都","city":"国分寺市","address":"国分寺市東元町3-30-7","lat":35.69675,"lon":139.47731},{"name":"さくら国立ハウス","province":"東京都","city":"国立市","address":"国立市富士見台3-8-15","lat":35.68604,"lon":139.43806},{"name":"さくら滝山ハウス","province":"東京都","city":"東久留米市","address":"東久留米市滝山7-1-22","lat":35.74975,"lon":139.50836},{"name":"芝久保ハイツ","province":"東京都","city":"西東京市","address":"西東京市芝久保町4-2-9","lat":35.73027,"lon":139.52798},{"name":"東京セントラルユースホステル","province":"東京都","city":"新宿区","address":"新宿区神楽河岸1-1セントラルプラザ18階","lat":35.69758638,"lon":139.7467536},{"name":"東京隅田川ユースホステル","province":"東京都","city":"台東区","address":"台東区柳橋2-21-4","lat":35.69589398,"lon":139.7924579},{"name":"東京上野ユースホステル","province":"東京都","city":"台東区","address":"台東区上野1-13-6東京新潟県人会館4階","lat":35.70318121,"lon":139.7735136},{"name":"ひのはらユースホステル","province":"東京都","city":"西多摩郡檜原村","address":"西多摩郡檜原村7779-10","lat":35.72361966,"lon":139.1520472},{"name":"御嶽ユースホステル","province":"東京都","city":"青梅市","address":"青梅市御岳山57","lat":35.78281769,"lon":139.1545439},{"name":"小笠原ユースホステル","province":"東京都","city":"小笠原村","address":"小笠原村父島字西町46-12","lat":27.0898161,"lon":142.1948021},{"name":"アンナビーチ母島ユースホステル","province":"東京都","city":"小笠原村","address":"小笠原村母島字静沢26-2","lat":26.63711919,"lon":142.1572378}]}