{"keyword":"学童","data":[{"name":"たまむし学童保育所","province":"東京都","city":"小金井市","address":"東京都小金井市東町4丁目25-7","lat":35.69766002,"lon":139.5262946},{"name":"あかね学童保育所","province":"東京都","city":"小金井市","address":"東京都小金井市梶野町5丁目7-33","lat":35.70469252,"lon":139.52384453},{"name":"ほんちょう学童保育所","province":"東京都","city":"小金井市","address":"東京都小金井市本町5丁目4-25","lat":35.70266989,"lon":139.50094372},{"name":"さくらなみ学童保育所","province":"東京都","city":"小金井市","address":"東京都小金井市本町1丁目2-13","lat":35.6987817,"lon":139.51032644},{"name":"さわらび学童保育所","province":"東京都","city":"小金井市","address":"東京都小金井市貫井南町3丁目6-27","lat":35.6997534,"lon":139.49581649},{"name":"たけとんぼ学童保育所","province":"東京都","city":"小金井市","address":"東京都小金井市桜町2丁目3-60","lat":35.70955537,"lon":139.50584303},{"name":"まえはら学童保育所","province":"東京都","city":"小金井市","address":"東京都小金井市前原町3丁目3-16","lat":35.69405146,"lon":139.50281614},{"name":"みどり学童保育所","province":"東京都","city":"小金井市","address":"東京都小金井市緑町4丁目18-25","lat":35.70939186,"lon":139.51806427},{"name":"みなみ学童保育所","province":"東京都","city":"小金井市","address":"東京都小金井市前原町2丁目2-21","lat":35.69216031,"lon":139.51400417},{"name":"本町児童館","province":"東京都","city":"小金井市","address":"東京都小金井市本町5丁目4-25","lat":35.70266989,"lon":139.50094372},{"name":"東児童館","province":"東京都","city":"小金井市","address":"東京都小金井市東町4丁目25-7","lat":35.69766002,"lon":139.5262946},{"name":"貫井南児童館","province":"東京都","city":"小金井市","address":"東京都小金井市貫井南町4丁目3-23","lat":35.69362626,"lon":139.49361692},{"name":"緑児童館","province":"東京都","city":"小金井市","address":"東京都小金井市緑町4丁目18-25","lat":35.70939186,"lon":139.51806427}]}