"区市町村通番","所管地域","名称","ヨミガナ","電話番号","ＦＡＸ番号","郵便番号","住所","緯度","経度","座標系","対応時間帯","特記事項","施設種別／地域包括支援センター","施設種別／ブランチ・サブセンター","施設種別／在宅介護支援センター","施設種別／その他相談窓口","相談内容／高齢者の異変","相談内容／消費者被害のおそれ"
"1","ひばりが丘北、北町、栄町、下保谷","栄町地域包括支援センター","ｻｶｴﾁｮｳﾁｲｷﾎｳｶﾂｼｴﾝｾﾝﾀｰ","042-438-7090","042-439-7234","202-0006","西東京市栄町3-6-2 保谷苑内","35.754917","139.553680","JGD2011","月曜日～土曜日9時～18時","","〇","","","","〇","〇"
"2","東町、中町、富士町","富士町地域包括支援センター","ﾌｼﾞﾏﾁﾁｲｷﾎｳｶﾂｼｴﾝｾﾝﾀｰ","042-451-1203","042-451-1204","202-0014","西東京市富士町1-7-69 高齢者センターきらら内","35.734463","139.559723","JGD2011","月曜日～土曜日9時～18時","","〇","","","","〇","〇"
"3","北原町、泉町、住吉町","泉町地域包括支援センター","ｲｽﾞﾐﾁｮｳﾁｲｷﾎｳｶﾂｼｴﾝｾﾝﾀｰ","042-424-1200","042-425-2662","202-0011","西東京市泉町3-15-28 いずみ内","35.739422","139.554642","JGD2011","月曜日～土曜日9時～18時","","〇","","","","〇","〇"
"4","田無町、保谷町","田無町地域包括支援センター","ﾀﾅｼﾁｮｳﾁｲｷﾎｳｶﾂｼｴﾝｾﾝﾀｰ","042-467-8850","042-467-8870","188-0011","西東京市田無町5-5-12 田無総合福祉センター内","35.731819","139.535995","JGD2011","月曜日～土曜日9時～18時","","〇","","","","〇","〇"
"5","緑町、谷戸町、ひばりが丘","緑町地域包括支援センター","ﾐﾄﾞﾘﾁｮｳﾁｲｷﾎｳｶﾂｼｴﾝｾﾝﾀｰ","042-461-7081","042-461-2720","188-0002","西東京市緑町3-6-1 田無病院内","35.742039","139.540741","JGD2011","月曜日～土曜日9時～18時","","〇","","","","〇","〇"
"6","西原町、芝久保町","西原町地域包括支援センター","ﾆｼﾊﾗﾁｮｳﾁｲｷﾎｳｶﾂｼｴﾝｾﾝﾀｰ","042-451-8844","042-451-1867","188-0004","西東京市西原町4-5-6 西原総合教育施設内","35.735981","139.529129","JGD2011","月曜日～土曜日9時～18時","","〇","","","","〇","〇"
"7","南町、向台町","向台町地域包括支援センター","ﾑｺｳﾀﾞｲﾁｮｳﾁｲｷﾎｳｶﾂｼｴﾝｾﾝﾀｰ","042-468-2340","042-468-2352","188-0013","西東京市向台町2-16-22 フローラ田無内","35.720074","139.526215","JGD2011","月曜日～土曜日9時～18時","","〇","","","","〇","〇"
"8","新町、柳沢、東伏見","新町地域包括支援センター","ｼﾝﾏﾁﾁｲｷﾎｳｶﾂｼｴﾝｾﾝﾀｰ","042-462-1695","042-462-1686","202-0023","西東京市新町1-11-25 緑寿園内","35.717190","139.543716","JGD2011","月曜日～土曜日9時～18時","","〇","","","","〇","〇"
