{"keyword":"園","data":[{"name":"清瀬市立第１保育園","province":"東京都","city":"清瀬市","address":"東京都清瀬市松山3-1-73","lat":35.76854,"lon":139.513793},{"name":"清瀬市立第３保育園","province":"東京都","city":"清瀬市","address":"東京都清瀬市旭が丘3-755-1","lat":35.798149,"lon":139.539049},{"name":"清瀬市立第７保育園","province":"東京都","city":"清瀬市","address":"東京都清瀬市竹丘1-15-11","lat":35.7674773924427,"lon":139.511489487701},{"name":"駅前乳児保育園","province":"東京都","city":"清瀬市","address":"東京都清瀬市元町1-4-17","lat":35.774459,"lon":139.520659},{"name":"清瀬上宮保育園","province":"東京都","city":"清瀬市","address":"東京都清瀬市竹丘3-8-1","lat":35.766485,"lon":139.502184},{"name":"のしお保育園","province":"東京都","city":"清瀬市","address":"東京都清瀬市野塩5-249","lat":35.775625,"lon":139.498258},{"name":"中清戸保育園","province":"東京都","city":"清瀬市","address":"東京都清瀬市下清戸1-21-3","lat":35.7789537,"lon":139.5357242},{"name":"すみれ保育園","province":"東京都","city":"清瀬市","address":"東京都清瀬市中里3-1731-8","lat":35.779377,"lon":139.516684},{"name":"すみれ保育園分園","province":"東京都","city":"清瀬市","address":"東京都清瀬市松山2-2-15","lat":35.76980066,"lon":139.5161346},{"name":"きよせ保育園","province":"東京都","city":"清瀬市","address":"東京都清瀬市上清戸2-5-40","lat":35.779072,"lon":139.520273},{"name":"きよせ保育園分園","province":"東京都","city":"清瀬市","address":"東京都清瀬市上清戸2-6-6","lat":35.780447081307,"lon":139.521775542266},{"name":"せせらぎ保育園","province":"東京都","city":"清瀬市","address":"東京都清瀬市中里1-1704","lat":35.78171,"lon":139.515078},{"name":"清瀬どろんこ\n保育園","province":"東京都","city":"清瀬市","address":"東京都清瀬市松山3-1-24","lat":35.770975,"lon":139.510062},{"name":"のしお一丁目\n保育園","province":"東京都","city":"清瀬市","address":"東京都清瀬市野塩1-322-1","lat":35.7791157707731,"lon":139.499920603149},{"name":"メリーポピンズ\n清瀬ルーム","province":"東京都","city":"清瀬市","address":"東京都清瀬市松山1-40-2","lat":35.7688317238889,"lon":139.517100385597},{"name":"中里どろんこ\n保育園","province":"東京都","city":"清瀬市","address":"東京都清瀬市中里6-25-1","lat":35.770975,"lon":139.510062},{"name":"認定こども園\nひかり","province":"東京都","city":"清瀬市","address":"東京都清瀬市旭が丘2-5-3","lat":35.7956185,"lon":139.5400653},{"name":"ピッコロルーム","province":"東京都","city":"清瀬市","address":"東京都清瀬市元町2-18-10","lat":35.7759150338664,"lon":139.512636716827},{"name":"ゆりかごファースト\nスクール","province":"東京都","city":"清瀬市","address":"東京都清瀬市元町1-8-35","lat":35.7729873,"lon":139.5198868},{"name":"ちゃいるど保育園","province":"東京都","city":"清瀬市","address":"東京都清瀬市上清戸2-5-36","lat":35.7795198,"lon":139.519800499999},{"name":"あいあい\nちびっこルーム","province":"東京都","city":"清瀬市","address":"東京都清瀬市竹丘3-2-61","lat":35.769071,"lon":139.503703099999},{"name":"ちあふるガーデン","province":"東京都","city":"清瀬市","address":"東京都清瀬市中里1-1707-4","lat":35.781976,"lon":139.515618},{"name":"なかよし保育園","province":"東京都","city":"清瀬市","address":"東京都清瀬市竹丘3-1-1","lat":35.7679127262192,"lon":139.50621843338},{"name":"ぴよぴよ保育園","province":"東京都","city":"西多摩郡瑞穂町","address":"東京都西多摩郡瑞穂町大字箱根ケ崎363-1","lat":35.77121,"lon":139.34498},{"name":"石畑保育園","province":"東京都","city":"西多摩郡瑞穂町","address":"東京都西多摩郡瑞穂町大字石畑1837","lat":35.76932,"lon":139.35623},{"name":"狭山保育園","province":"東京都","city":"西多摩郡瑞穂町","address":"東京都西多摩郡瑞穂町大字駒形富士山420","lat":35.78508,"lon":139.35459},{"name":"とのがや保育園","province":"東京都","city":"西多摩郡瑞穂町","address":"東京都西多摩郡瑞穂町大字殿ケ谷892-4","lat":35.76693,"lon":139.36195},{"name":"長岡保育園","province":"東京都","city":"西多摩郡瑞穂町","address":"東京都西多摩郡瑞穂町長岡4-11-14","lat":35.77988,"lon":139.32707},{"name":"東松原保育園","province":"東京都","city":"西多摩郡瑞穂町","address":"東京都西多摩郡瑞穂町箱根ケ崎東松原16-8","lat":35.77445,"lon":139.33934},{"name":"みずほひじり保育園","province":"東京都","city":"西多摩郡瑞穂町","address":"東京都西多摩郡瑞穂町大字箱根ケ崎2515-1","lat":35.77554,"lon":139.35357},{"name":"むさしの保育園","province":"東京都","city":"西多摩郡瑞穂町","address":"東京都西多摩郡瑞穂町むさし野1-5","lat":35.76177,"lon":139.33998},{"name":"愛光あけぼの保育園","province":"東京都","city":"立川市","address":"東京都立川市曙町3-17-22","lat":35.6996,"lon":139.42532},{"name":"愛光第五保育園サンクレール","province":"東京都","city":"立川市","address":"東京都立川市柴崎町3-11-25","lat":35.69676,"lon":139.41081},{"name":"愛光第五保育園","province":"東京都","city":"立川市","address":"東京都立川市富士見町7-23-5","lat":35.69234,"lon":139.39625},{"name":"愛光保育園","province":"東京都","city":"立川市","address":"東京都立川市曙町3-24-22","lat":35.70181,"lon":139.42094},{"name":"愛光みどり保育園","province":"東京都","city":"立川市","address":"東京都立川市緑町7-1","lat":35.70941,"lon":139.41224},{"name":"あおば第二保育園","province":"東京都","city":"立川市","address":"東京都立川市上砂町2-40-5","lat":35.72525,"lon":139.39376},{"name":"あおば保育園","province":"東京都","city":"立川市","address":"東京都立川市幸町4-52-1","lat":35.72606,"lon":139.43016},{"name":"江の島保育園","province":"東京都","city":"立川市","address":"東京都立川市栄町5-20-3","lat":35.715,"lon":139.42654},{"name":"柏保育園","province":"東京都","city":"立川市","address":"東京都立川市柏町3-52-9","lat":35.72446,"lon":139.41079},{"name":"上砂保育園","province":"東京都","city":"立川市","address":"東京都立川市上砂町1-13-1","lat":35.71849,"lon":139.39393},{"name":"きらめきの森保育園","province":"東京都","city":"立川市","address":"東京都立川市上砂町5-85-1","lat":35.73065,"lon":139.38716},{"name":"けやき台さくら保育園","province":"東京都","city":"立川市","address":"東京都立川市若葉町1-13-2","lat":35.71645,"lon":139.43591},{"name":"栄保育園","province":"東京都","city":"立川市","address":"東京都立川市栄町3-33-3","lat":35.70782,"lon":139.42921},{"name":"至誠保育園","province":"東京都","city":"立川市","address":"東京都立川市錦町6-26-13","lat":35.68477,"lon":139.41752},{"name":"柴崎保育園","province":"東京都","city":"立川市","address":"東京都立川市柴崎町1-16-23","lat":35.6923,"lon":139.4071},{"name":"小百合保育園","province":"東京都","city":"立川市","address":"東京都立川市錦町6-6-3-101","lat":35.68727,"lon":139.42016},{"name":"城南ルミナ保育園立川","province":"東京都","city":"立川市","address":"東京都立川市柴崎町2-3-18第二粂川ビル2F","lat":35.6968,"lon":139.41116},{"name":"すくすくワールド","province":"東京都","city":"立川市","address":"東京都立川市曙町2-34-6小杉ビル5階","lat":35.70184,"lon":139.41485},{"name":"諏訪の森保育園","province":"東京都","city":"立川市","address":"東京都立川市柴崎町1-4-4","lat":35.69524,"lon":139.40493},{"name":"西武立川きらり保育園","province":"東京都","city":"立川市","address":"東京都立川市西砂町1-2-127","lat":35.72525,"lon":139.37156},{"name":"たかのみち保育園（さいわい分園）","province":"東京都","city":"立川市","address":"東京都立川市幸町5-111-4","lat":35.72744,"lon":139.42614},{"name":"たかのみち保育園（さかえ分園）","province":"東京都","city":"立川市","address":"東京都立川市栄町6-13-1","lat":35.71686,"lon":139.42283},{"name":"たかのみち保育園","province":"東京都","city":"立川市","address":"東京都立川市幸町6-32-1","lat":35.72793,"lon":139.42608},{"name":"高松保育園","province":"東京都","city":"立川市","address":"東京都立川市高松町1-18-7","lat":35.70856,"lon":139.41674},{"name":"立川たんぽぽ保育園","province":"東京都","city":"立川市","address":"東京都立川市富士見町6-59-1","lat":35.6921,"lon":139.39064},{"name":"立川ひかり保育園","province":"東京都","city":"立川市","address":"東京都立川市一番町2-22-1","lat":35.7268,"lon":139.37986},{"name":"玉川保育園","province":"東京都","city":"立川市","address":"東京都立川市富士見町6-72-1","lat":35.69492,"lon":139.39102},{"name":"つくし保育園","province":"東京都","city":"立川市","address":"東京都立川市栄町3-24-12","lat":35.71085,"lon":139.42637},{"name":"中砂保育園","province":"東京都","city":"立川市","address":"東京都立川市栄町5-38-1","lat":35.71809,"lon":139.42407},{"name":"なすび保育園","province":"東京都","city":"立川市","address":"東京都立川市西砂町6-75-9","lat":35.73477,"lon":139.36808},{"name":"西国立保育園分園","province":"東京都","city":"立川市","address":"東京都立川市羽衣町1-21-11","lat":35.69552,"lon":139.42361},{"name":"西国立保育園","province":"東京都","city":"立川市","address":"東京都立川市羽衣町2-43-4","lat":35.69309,"lon":139.42471},{"name":"西砂保育園","province":"東京都","city":"立川市","address":"東京都立川市西砂町2-63-2","lat":35.72976,"lon":139.36467},{"name":"西立川保育園","province":"東京都","city":"立川市","address":"東京都立川市富士見町1-18-16","lat":35.69949,"lon":139.39668},{"name":"羽衣保育園","province":"東京都","city":"立川市","address":"東京都立川市羽衣町2-51-7","lat":35.69326,"lon":139.42967},{"name":"冨士見保育園","province":"東京都","city":"立川市","address":"東京都立川市富士見町2-26-1","lat":35.69922,"lon":139.4017},{"name":"保育室スマイルエッグス","province":"東京都","city":"立川市","address":"東京都立川市上砂町4-52-1","lat":35.72832,"lon":139.39267},{"name":"ほほえみの森保育園","province":"東京都","city":"立川市","address":"東京都立川市錦町3-1-20","lat":35.69372,"lon":139.41819},{"name":"ぽけっとランド立川保育園","province":"東京都","city":"立川市","address":"東京都立川市曙町2-18-15","lat":35.70046,"lon":139.41651},{"name":"ポピンズナーサリースクール立川","province":"東京都","city":"立川市","address":"東京都立川市柴崎町3-1-1ecute立川4F","lat":35.69732,"lon":139.41323},{"name":"松中保育園","province":"東京都","city":"立川市","address":"東京都立川市一番町5-8-25","lat":35.73283,"lon":139.37492},{"name":"見影橋保育園","province":"東京都","city":"立川市","address":"東京都立川市砂川町3-23-2","lat":35.72737,"lon":139.39871},{"name":"森の子こども園","province":"東京都","city":"立川市","address":"東京都立川市砂川町8-30-7","lat":35.73205,"lon":139.39964},{"name":"れんげ砂川保育園","province":"東京都","city":"立川市","address":"東京都立川市若葉町4-24-31","lat":35.72249,"lon":139.44308},{"name":"わんわん保育園","province":"東京都","city":"立川市","address":"東京都立川市西砂町6-12-4","lat":35.72924,"lon":139.37219},{"name":"清瀬市立第７保育園","province":"東京都","city":"清瀬市","address":"東京都清瀬市竹丘1-15-11","lat":35.76747739,"lon":139.5114895},{"name":"きよせ保育園分園","province":"東京都","city":"清瀬市","address":"東京都清瀬市上清戸2-6-6","lat":35.78044708,"lon":139.5217755},{"name":"ピッコロルーム","province":"東京都","city":"清瀬市","address":"東京都清瀬市元町2-18-10","lat":35.77591503,"lon":139.5126367},{"name":"ちゃいるど保育園","province":"東京都","city":"清瀬市","address":"東京都清瀬市上清戸2-5-36","lat":35.7795198,"lon":139.5198005},{"name":"なかよし保育園","province":"東京都","city":"清瀬市","address":"東京都清瀬市竹丘3-1-1","lat":35.76791273,"lon":139.5062184}]}