{"keyword":"し尿","data":[{"name":"国立市子ども家庭支援センター","province":"東京都","city":"国立市","address":"国立市富士見台3-21-1","lat":35.685859,"lon":139.435872},{"name":"国立市保健センター","province":"東京都","city":"国立市","address":"国立市富士見台3-16-5","lat":35.686095,"lon":139.436547},{"name":"国立市保健センター（分室）","province":"東京都","city":"国立市","address":"国立市富士見台3-21-1","lat":35.685859,"lon":139.435872},{"name":"国立市","province":"東京都","city":"国立市","address":"国立市富士見台2-47-1","lat":35.6839125,"lon":139.4413664},{"name":"東京都多摩障害者スポーツセンター","province":"東京都","city":"国立市","address":"東京都国立市富士見台2丁目1-1","lat":35.686247,"lon":139.446278},{"name":"東京都多摩障害者スポーツセンター","province":"東京都","city":"国立市","address":"東京都国立市富士見台2丁目1-1","lat":35.686764,"lon":139.446677},{"name":"東京都多摩障害者スポーツセンター","province":"東京都","city":"国立市","address":"東京都国立市富士見台2丁目1-1","lat":35.686789,"lon":139.446686},{"name":"東京都多摩障害者スポーツセンター","province":"東京都","city":"国立市","address":"東京都国立市富士見台2丁目1","lat":35.6871,"lon":139.446817},{"name":"東京都多摩障害者スポーツセンター","province":"東京都","city":"国立市","address":"東京都国立市富士見台2丁目1","lat":35.687081,"lon":139.446839},{"name":"東京都多摩障害者スポーツセンター","province":"東京都","city":"国立市","address":"東京都国立市富士見台2丁目1-1","lat":35.686453,"lon":139.44649},{"name":"東京都多摩障害者スポーツセンター","province":"東京都","city":"国立市","address":"東京都国立市富士見台2丁目1","lat":35.687121,"lon":139.44682},{"name":"東京都多摩障害者スポーツセンター","province":"東京都","city":"国立市","address":"東京都国立市富士見台2丁目1","lat":35.68703,"lon":139.446857},{"name":"東京都多摩障害者スポーツセンター","province":"東京都","city":"国立市","address":"東京都国立市富士見台2丁目1","lat":35.687002,"lon":139.446868},{"name":"東京都国立市役所本庁舎","province":"東京都","city":"国立市","address":"東京都国立市富士見台2丁目47-1","lat":35.683961,"lon":139.441276},{"name":"国立市公民館","province":"東京都","city":"国立市","address":"東京都国立市中1丁目15-1","lat":35.696886,"lon":139.443412},{"name":"国立市公民館","province":"東京都","city":"国立市","address":"東京都国立市中1丁目15-1","lat":35.696946,"lon":139.443476},{"name":"国立駅前くにたち・こくぶんじ市民プラザ","province":"東京都","city":"国立市","address":"東京都国立市北1丁目14","lat":35.699414,"lon":139.446903},{"name":"谷保東集会所","province":"東京都","city":"国立市","address":"東京都国立市谷保7丁目17-1","lat":35.673123,"lon":139.450665},{"name":"富士見台一丁目集会所","province":"東京都","city":"国立市","address":"東京都国立市富士見台1丁目8-4","lat":35.683369,"lon":139.448196},{"name":"富士見台二丁目集会所","province":"東京都","city":"国立市","address":"東京都国立市富士見台2丁目32","lat":35.684852,"lon":139.4449},{"name":"南市民プラザ","province":"東京都","city":"国立市","address":"東京都国立市泉2丁目3-2","lat":35.674485,"lon":139.430718},{"name":"北市民プラザ","province":"東京都","city":"国立市","address":"東京都国立市北3丁目1-1","lat":35.699259,"lon":139.432646},{"name":"国立市保健センター","province":"東京都","city":"国立市","address":"東京都国立市富士見台3丁目16-5","lat":35.686132,"lon":139.436594},{"name":"くにたち中央図書館","province":"東京都","city":"国立市","address":"東京都国立市富士見台2丁目34","lat":35.685209,"lon":139.444375},{"name":"くにたち郷土文化館","province":"東京都","city":"国立市","address":"東京都国立市谷保","lat":35.679418,"lon":139.43254},{"name":"城山さとのいえ","province":"東京都","city":"国立市","address":"東京都国立市泉5丁目21-20","lat":35.67842,"lon":139.437141},{"name":"くにたち市民総合体育館","province":"東京都","city":"国立市","address":"東京都国立市富士見台2丁目48-1","lat":35.685267,"lon":139.440377},{"name":"くにたち市民総合体育館","province":"東京都","city":"国立市","address":"東京都国立市富士見台2丁目48-1","lat":35.684794,"lon":139.440536},{"name":"くにたち市民総合体育館","province":"東京都","city":"国立市","address":"東京都国立市富士見台2丁目48-1","lat":35.685075,"lon":139.440286},{"name":"くにたち市民芸術小ホール","province":"東京都","city":"国立市","address":"東京都国立市富士見台2丁目48-1","lat":35.685222,"lon":139.44001},{"name":"南区公会堂","province":"東京都","city":"国立市","address":"東京都国立市泉3丁目29","lat":35.676222,"lon":139.427596},{"name":"谷保第三公園","province":"東京都","city":"国立市","address":"東京都国立市富士見台2丁目34","lat":35.685854,"lon":139.444276},{"name":"谷保第四公園","province":"東京都","city":"国立市","address":"東京都国立市富士見台2丁目49","lat":35.684233,"lon":139.439879},{"name":"矢川上公園","province":"東京都","city":"国立市","address":"東京都国立市富士見台4丁目4","lat":35.687731,"lon":139.432136},{"name":"矢川いこいの広場","province":"東京都","city":"国立市","address":"東京都国立市青柳1丁目18","lat":35.684864,"lon":139.426531},{"name":"北第一公園","province":"東京都","city":"国立市","address":"東京都国立市北3丁目8","lat":35.699888,"lon":139.431331},{"name":"泉第二遊園","province":"東京都","city":"国立市","address":"東京都国立市泉2丁目3","lat":35.673523,"lon":139.431583},{"name":"寺之下親水公園","province":"東京都","city":"国立市","address":"東京都国立市泉4丁目9","lat":35.676521,"lon":139.431772},{"name":"流域下水道処理場広場","province":"東京都","city":"国立市","address":"東京都国立市泉1丁目24","lat":35.673624,"lon":139.434439},{"name":"城山公園","province":"東京都","city":"国立市","address":"東京都国立市泉5丁目21","lat":35.678367,"lon":139.438367},{"name":"くにたち福祉会館","province":"東京都","city":"国立市","address":"東京都国立市富士見台2丁目38-5","lat":35.687558,"lon":139.444551},{"name":"くにたち福祉会館","province":"東京都","city":"国立市","address":"東京都国立市富士見台2丁目38-5","lat":35.687417,"lon":139.444545},{"name":"国立市子ども家庭支援センター（保健センター分室）","province":"東京都","city":"国立市","address":"東京都国立市富士見台3丁目21-1","lat":35.685826,"lon":139.435893},{"name":"国立市西児童館","province":"東京都","city":"国立市","address":"東京都国立市西1丁目12-26","lat":35.69696,"lon":139.433195},{"name":"東福祉館","province":"東京都","city":"国立市","address":"東京都国立市東3丁目18-32","lat":35.691451,"lon":139.454849},{"name":"西福祉館","province":"東京都","city":"国立市","address":"東京都国立市西2丁目17-32","lat":35.693903,"lon":139.432083},{"name":"北福祉館","province":"東京都","city":"国立市","address":"東京都国立市北2丁目19-1","lat":35.700633,"lon":139.437426},{"name":"くにたち立東福祉館","province":"東京都","city":"国立市","address":"東京都国立市北3丁目23-1","lat":35.701017,"lon":139.430281},{"name":"青柳福祉センター","province":"東京都","city":"国立市","address":"東京都国立市青柳2丁目8-60","lat":35.683236,"lon":139.423491},{"name":"中地域防災センター","province":"東京都","city":"国立市","address":"東京都国立市中2丁目10-7","lat":35.692722,"lon":139.439287},{"name":"東地域防災センター","province":"東京都","city":"国立市","address":"東京都国立市東1丁目13","lat":35.697329,"lon":139.450023},{"name":"富士見台地域防災センター","province":"東京都","city":"国立市","address":"東京都国立市富士見台3丁目13-5","lat":35.687846,"lon":139.436762},{"name":"くにたち未来共創拠点矢川プラス","province":"東京都","city":"国立市","address":"東京都国立市富士見台4丁目17","lat":35.6855903,"lon":139.429893},{"name":"くにたち未来共創拠点矢川プラス","province":"東京都","city":"国立市","address":"東京都国立市富士見台4丁目17","lat":35.685562,"lon":139.42999},{"name":"株式会社セレモア","province":"東京都","city":"国立市","address":"東京都国立市谷保5115","lat":35.67971558,"lon":139.446777},{"name":"社会福祉法人東京福祉会","province":"東京都","city":"国立市","address":"東京都国立市谷保892-1","lat":35.67613812,"lon":139.44407181},{"name":"形如式典有限会社","province":"東京都","city":"国立市","address":"東京都国立市谷保6丁目21-28","lat":35.67502432,"lon":139.44278585},{"name":"株式会社セレケア","province":"東京都","city":"国立市","address":"東京都国立市東2丁目12-6","lat":35.69418353,"lon":139.45221211},{"name":"花＊家族葬ワイズワークス","province":"東京都","city":"国立市","address":"東京都国立市東1丁目6-2","lat":35.69758859,"lon":139.4477485},{"name":"セレーザ合同会社","province":"東京都","city":"国立市","address":"東京都国立市東2丁目9-3","lat":35.69432795,"lon":139.45174827},{"name":"（株）セレモア","province":"東京都","city":"国立市","address":"東京都国立市谷保5115","lat":35.67971558,"lon":139.446777},{"name":"国立市保健センター","province":"東京都","city":"国立市","address":"東京都国立市富士見台3丁目16-5","lat":35.68608121,"lon":139.43650545},{"name":"国立市保健センター","province":"東京都","city":"国立市","address":"国立市富士見台3-16-5","lat":35.6862,"lon":139.43675},{"name":"国立市子ども家庭支援センター","province":"東京都","city":"国立市","address":"国立市富士見台2-47-1","lat":35.68438,"lon":139.44151},{"name":"国立市子ども家庭支援センター","province":"東京都","city":"国立市","address":"国立市富士見台3-21-1","lat":35.68588,"lon":139.43515},{"name":"国立市保健センター（分室）","province":"東京都","city":"国立市","address":"国立市富士見台3-21-1","lat":35.685879,"lon":139.43515},{"name":"国立市公民館","province":"東京都","city":"国立市","address":"国立市中1-15-1","lat":35.696854,"lon":139.443359},{"name":"くにたち中央図書館","province":"東京都","city":"国立市","address":"国立市富士見台2-34","lat":35.685696,"lon":139.443497},{"name":"くにたち中央図書館下谷保分室","province":"東京都","city":"国立市","address":"国立市谷保5066","lat":35.679398,"lon":139.44841},{"name":"くにたち中央図書館青柳分室","province":"東京都","city":"国立市","address":"国立市青柳244","lat":35.682404,"lon":139.423279},{"name":"くにたち中央図書館谷保東分室","province":"東京都","city":"国立市","address":"国立市谷保135-1","lat":35.674107,"lon":139.445236},{"name":"くにたち中央図書館東分室","province":"東京都","city":"国立市","address":"国立市東3-18-32","lat":35.691208,"lon":139.454071},{"name":"くにたち中央図書館南市民プラザ分室","province":"東京都","city":"国立市","address":"国立市泉2-3-21号棟1階","lat":35.674431,"lon":139.431137},{"name":"くにたち北市民プラザ図書館","province":"東京都","city":"国立市","address":"国立市北3-1-19号棟1階","lat":35.699455,"lon":139.449249},{"name":"くにたち郷土文化館","province":"東京都","city":"国立市","address":"国立市谷保6231","lat":35.679863,"lon":139.432434},{"name":"くにたち男女平等参画ステーション","province":"東京都","city":"国立市","address":"国立市谷保1705-1","lat":35.674107,"lon":139.445236},{"name":"国立市古民家","province":"東京都","city":"国立市","address":"国立市泉5-21-20","lat":35.678322,"lon":139.437744},{"name":"(株)田邊商店  国立事業所","province":"東京都","city":"国立市","address":"国立市泉4-7-2","lat":35.677849,"lon":139.430054},{"name":"玉川産業(有)","province":"東京都","city":"国立市","address":"国立市泉2-12-12","lat":35.674381,"lon":139.42923},{"name":"(有)柳産業","province":"東京都","city":"国立市","address":"国立市泉1-14-11","lat":35.672302,"lon":139.439758},{"name":"グリーンリサイクル(株)  国立営業所","province":"東京都","city":"国立市","address":"国立市泉3-31-10","lat":35.676041,"lon":139.429016},{"name":"国立市選挙管理委員会","province":"東京都","city":"国立市","address":"国立市富士見台2-47-1","lat":35.683909,"lon":139.44141},{"name":"東京都多摩障害者スポーツセンター","province":"東京都","city":"国立市","address":"東京都国立市","lat":35.68388439,"lon":139.44138288},{"name":"東京都多摩障害者スポーツセンター宿泊棟","province":"東京都","city":"国立市","address":"東京都国立市","lat":35.68388439,"lon":139.44138288},{"name":"国立市本庁舎","province":"東京都","city":"国立市","address":"国立市富士見台2-47-1","lat":35.683913,"lon":139.441366},{"name":"一橋大学グラウンド","province":"東京都","city":"国立市","address":"国立市中2-1","lat":35.69427,"lon":139.4426},{"name":"国立市子ども家庭支援センター","province":"東京都","city":"国立市","address":"国立市富士見台3-21-1","lat":35.685859,"lon":139.435872},{"name":"国立市保健センター","province":"東京都","city":"国立市","address":"国立市富士見台3-16-5","lat":35.686095,"lon":139.436547},{"name":"国立市保健センター（分室）","province":"東京都","city":"国立市","address":"国立市富士見台3-21-1","lat":35.685859,"lon":139.435872},{"name":"国立市","province":"東京都","city":"国立市","address":"国立市富士見台2-47-1","lat":35.6839125,"lon":139.4413664},{"name":"東京都多摩障害者スポーツセンター","province":"東京都","city":"国立市","address":"東京都国立市富士見台2丁目1-1","lat":35.686247,"lon":139.446278},{"name":"東京都多摩障害者スポーツセンター","province":"東京都","city":"国立市","address":"東京都国立市富士見台2丁目1-1","lat":35.686764,"lon":139.446677},{"name":"東京都多摩障害者スポーツセンター","province":"東京都","city":"国立市","address":"東京都国立市富士見台2丁目1-1","lat":35.686789,"lon":139.446686},{"name":"東京都多摩障害者スポーツセンター","province":"東京都","city":"国立市","address":"東京都国立市富士見台2丁目1","lat":35.6871,"lon":139.446817},{"name":"東京都多摩障害者スポーツセンター","province":"東京都","city":"国立市","address":"東京都国立市富士見台2丁目1","lat":35.687081,"lon":139.446839},{"name":"東京都多摩障害者スポーツセンター","province":"東京都","city":"国立市","address":"東京都国立市富士見台2丁目1-1","lat":35.686453,"lon":139.44649},{"name":"東京都多摩障害者スポーツセンター","province":"東京都","city":"国立市","address":"東京都国立市富士見台2丁目1","lat":35.687121,"lon":139.44682},{"name":"東京都多摩障害者スポーツセンター","province":"東京都","city":"国立市","address":"東京都国立市富士見台2丁目1","lat":35.68703,"lon":139.446857},{"name":"東京都多摩障害者スポーツセンター","province":"東京都","city":"国立市","address":"東京都国立市富士見台2丁目1","lat":35.687002,"lon":139.446868},{"name":"東京都国立市役所本庁舎","province":"東京都","city":"国立市","address":"東京都国立市富士見台2丁目47-1","lat":35.683961,"lon":139.441276},{"name":"国立市公民館","province":"東京都","city":"国立市","address":"東京都国立市中1丁目15-1","lat":35.696886,"lon":139.443412},{"name":"国立市公民館","province":"東京都","city":"国立市","address":"東京都国立市中1丁目15-1","lat":35.696946,"lon":139.443476},{"name":"国立駅前くにたち・こくぶんじ市民プラザ","province":"東京都","city":"国立市","address":"東京都国立市北1丁目14","lat":35.699414,"lon":139.446903},{"name":"谷保東集会所","province":"東京都","city":"国立市","address":"東京都国立市谷保7丁目17-1","lat":35.673123,"lon":139.450665},{"name":"富士見台一丁目集会所","province":"東京都","city":"国立市","address":"東京都国立市富士見台1丁目8-4","lat":35.683369,"lon":139.448196},{"name":"富士見台二丁目集会所","province":"東京都","city":"国立市","address":"東京都国立市富士見台2丁目32","lat":35.684852,"lon":139.4449},{"name":"南市民プラザ","province":"東京都","city":"国立市","address":"東京都国立市泉2丁目3-2","lat":35.674485,"lon":139.430718},{"name":"北市民プラザ","province":"東京都","city":"国立市","address":"東京都国立市北3丁目1-1","lat":35.699259,"lon":139.432646},{"name":"国立市保健センター","province":"東京都","city":"国立市","address":"東京都国立市富士見台3丁目16-5","lat":35.686132,"lon":139.436594},{"name":"くにたち中央図書館","province":"東京都","city":"国立市","address":"東京都国立市富士見台2丁目34","lat":35.685209,"lon":139.444375},{"name":"くにたち郷土文化館","province":"東京都","city":"国立市","address":"東京都国立市谷保","lat":35.679418,"lon":139.43254},{"name":"城山さとのいえ","province":"東京都","city":"国立市","address":"東京都国立市泉5丁目21-20","lat":35.67842,"lon":139.437141},{"name":"くにたち市民総合体育館","province":"東京都","city":"国立市","address":"東京都国立市富士見台2丁目48-1","lat":35.685267,"lon":139.440377},{"name":"くにたち市民総合体育館","province":"東京都","city":"国立市","address":"東京都国立市富士見台2丁目48-1","lat":35.684794,"lon":139.440536},{"name":"くにたち市民総合体育館","province":"東京都","city":"国立市","address":"東京都国立市富士見台2丁目48-1","lat":35.685075,"lon":139.440286},{"name":"くにたち市民芸術小ホール","province":"東京都","city":"国立市","address":"東京都国立市富士見台2丁目48-1","lat":35.685222,"lon":139.44001},{"name":"南区公会堂","province":"東京都","city":"国立市","address":"東京都国立市泉3丁目29","lat":35.676222,"lon":139.427596},{"name":"谷保第三公園","province":"東京都","city":"国立市","address":"東京都国立市富士見台2丁目34","lat":35.685854,"lon":139.444276},{"name":"谷保第四公園","province":"東京都","city":"国立市","address":"東京都国立市富士見台2丁目49","lat":35.684233,"lon":139.439879},{"name":"矢川上公園","province":"東京都","city":"国立市","address":"東京都国立市富士見台4丁目4","lat":35.687731,"lon":139.432136},{"name":"矢川いこいの広場","province":"東京都","city":"国立市","address":"東京都国立市青柳1丁目18","lat":35.684864,"lon":139.426531},{"name":"北第一公園","province":"東京都","city":"国立市","address":"東京都国立市北3丁目8","lat":35.699888,"lon":139.431331},{"name":"泉第二遊園","province":"東京都","city":"国立市","address":"東京都国立市泉2丁目3","lat":35.673523,"lon":139.431583},{"name":"寺之下親水公園","province":"東京都","city":"国立市","address":"東京都国立市泉4丁目9","lat":35.676521,"lon":139.431772},{"name":"流域下水道処理場広場","province":"東京都","city":"国立市","address":"東京都国立市泉1丁目24","lat":35.673624,"lon":139.434439},{"name":"城山公園","province":"東京都","city":"国立市","address":"東京都国立市泉5丁目21","lat":35.678367,"lon":139.438367},{"name":"くにたち福祉会館","province":"東京都","city":"国立市","address":"東京都国立市富士見台2丁目38-5","lat":35.687558,"lon":139.444551},{"name":"くにたち福祉会館","province":"東京都","city":"国立市","address":"東京都国立市富士見台2丁目38-5","lat":35.687417,"lon":139.444545},{"name":"国立市子ども家庭支援センター（保健センター分室）","province":"東京都","city":"国立市","address":"東京都国立市富士見台3丁目21-1","lat":35.685826,"lon":139.435893},{"name":"国立市西児童館","province":"東京都","city":"国立市","address":"東京都国立市西1丁目12-26","lat":35.69696,"lon":139.433195},{"name":"東福祉館","province":"東京都","city":"国立市","address":"東京都国立市東3丁目18-32","lat":35.691451,"lon":139.454849},{"name":"西福祉館","province":"東京都","city":"国立市","address":"東京都国立市西2丁目17-32","lat":35.693903,"lon":139.432083},{"name":"北福祉館","province":"東京都","city":"国立市","address":"東京都国立市北2丁目19-1","lat":35.700633,"lon":139.437426},{"name":"くにたち立東福祉館","province":"東京都","city":"国立市","address":"東京都国立市北3丁目23-1","lat":35.701017,"lon":139.430281},{"name":"青柳福祉センター","province":"東京都","city":"国立市","address":"東京都国立市青柳2丁目8-60","lat":35.683236,"lon":139.423491},{"name":"中地域防災センター","province":"東京都","city":"国立市","address":"東京都国立市中2丁目10-7","lat":35.692722,"lon":139.439287},{"name":"東地域防災センター","province":"東京都","city":"国立市","address":"東京都国立市東1丁目13","lat":35.697329,"lon":139.450023},{"name":"富士見台地域防災センター","province":"東京都","city":"国立市","address":"東京都国立市富士見台3丁目13-5","lat":35.687846,"lon":139.436762},{"name":"くにたち未来共創拠点矢川プラス","province":"東京都","city":"国立市","address":"東京都国立市富士見台4丁目17","lat":35.6855903,"lon":139.429893},{"name":"くにたち未来共創拠点矢川プラス","province":"東京都","city":"国立市","address":"東京都国立市富士見台4丁目17","lat":35.685562,"lon":139.42999},{"name":"株式会社セレモア","province":"東京都","city":"国立市","address":"東京都国立市谷保5115","lat":35.67971558,"lon":139.446777},{"name":"社会福祉法人東京福祉会","province":"東京都","city":"国立市","address":"東京都国立市谷保892-1","lat":35.67613812,"lon":139.44407181},{"name":"形如式典有限会社","province":"東京都","city":"国立市","address":"東京都国立市谷保6丁目21-28","lat":35.67502432,"lon":139.44278585},{"name":"株式会社セレケア","province":"東京都","city":"国立市","address":"東京都国立市東2丁目12-6","lat":35.69418353,"lon":139.45221211},{"name":"花＊家族葬ワイズワークス","province":"東京都","city":"国立市","address":"東京都国立市東1丁目6-2","lat":35.69758859,"lon":139.4477485},{"name":"セレーザ合同会社","province":"東京都","city":"国立市","address":"東京都国立市東2丁目9-3","lat":35.69432795,"lon":139.45174827},{"name":"（株）セレモア","province":"東京都","city":"国立市","address":"東京都国立市谷保5115","lat":35.67971558,"lon":139.446777},{"name":"国立市保健センター","province":"東京都","city":"国立市","address":"東京都国立市富士見台3丁目16-5","lat":35.68608121,"lon":139.43650545},{"name":"国立市保健センター","province":"東京都","city":"国立市","address":"国立市富士見台3-16-5","lat":35.6862,"lon":139.43675},{"name":"国立市子ども家庭支援センター","province":"東京都","city":"国立市","address":"国立市富士見台2-47-1","lat":35.68438,"lon":139.44151},{"name":"国立市子ども家庭支援センター","province":"東京都","city":"国立市","address":"国立市富士見台3-21-1","lat":35.68588,"lon":139.43515},{"name":"国立市保健センター（分室）","province":"東京都","city":"国立市","address":"国立市富士見台3-21-1","lat":35.685879,"lon":139.43515},{"name":"(株)田邊商店  国立事業所","province":"東京都","city":"国立市","address":"国立市泉4-7-2","lat":35.677849,"lon":139.430054},{"name":"玉川産業(有)","province":"東京都","city":"国立市","address":"国立市泉2-12-12","lat":35.674381,"lon":139.42923},{"name":"(有)柳産業","province":"東京都","city":"国立市","address":"国立市泉1-14-11","lat":35.672302,"lon":139.439758},{"name":"グリーンリサイクル(株)  国立営業所","province":"東京都","city":"国立市","address":"国立市泉3-31-10","lat":35.676041,"lon":139.429016},{"name":"国立市選挙管理委員会","province":"東京都","city":"国立市","address":"国立市富士見台2-47-1","lat":35.683909,"lon":139.44141},{"name":"国立市子ども家庭支援センター","province":"東京都","city":"国立市","address":"国立市富士見台3-21-1","lat":35.685859,"lon":139.435872},{"name":"国立市保健センター","province":"東京都","city":"国立市","address":"国立市富士見台3-16-5","lat":35.686095,"lon":139.436547},{"name":"国立市保健センター（分室）","province":"東京都","city":"国立市","address":"国立市富士見台3-21-1","lat":35.685859,"lon":139.435872},{"name":"国立市","province":"東京都","city":"国立市","address":"国立市富士見台2-47-1","lat":35.6839125,"lon":139.4413664},{"name":"株式会社セレモア","province":"東京都","city":"国立市","address":"東京都国立市谷保5115","lat":35.67971558,"lon":139.446777},{"name":"社会福祉法人東京福祉会","province":"東京都","city":"国立市","address":"東京都国立市谷保892-1","lat":35.67613812,"lon":139.44407181},{"name":"形如式典有限会社","province":"東京都","city":"国立市","address":"東京都国立市谷保6丁目21-28","lat":35.67502432,"lon":139.44278585},{"name":"株式会社セレケア","province":"東京都","city":"国立市","address":"東京都国立市東2丁目12-6","lat":35.69418353,"lon":139.45221211},{"name":"花＊家族葬ワイズワークス","province":"東京都","city":"国立市","address":"東京都国立市東1丁目6-2","lat":35.69758859,"lon":139.4477485},{"name":"セレーザ合同会社","province":"東京都","city":"国立市","address":"東京都国立市東2丁目9-3","lat":35.69432795,"lon":139.45174827},{"name":"（株）セレモア","province":"東京都","city":"国立市","address":"東京都国立市谷保5115","lat":35.67971558,"lon":139.446777},{"name":"国立市保健センター","province":"東京都","city":"国立市","address":"東京都国立市富士見台3丁目16-5","lat":35.68608121,"lon":139.43650545},{"name":"国立市保健センター","province":"東京都","city":"国立市","address":"国立市富士見台3-16-5","lat":35.6862,"lon":139.43675},{"name":"国立市子ども家庭支援センター","province":"東京都","city":"国立市","address":"国立市富士見台2-47-1","lat":35.68438,"lon":139.44151},{"name":"国立市子ども家庭支援センター","province":"東京都","city":"国立市","address":"国立市富士見台3-21-1","lat":35.68588,"lon":139.43515},{"name":"国立市保健センター（分室）","province":"東京都","city":"国立市","address":"国立市富士見台3-21-1","lat":35.685879,"lon":139.43515},{"name":"(株)田邊商店  国立事業所","province":"東京都","city":"国立市","address":"国立市泉4-7-2","lat":35.677849,"lon":139.430054},{"name":"玉川産業(有)","province":"東京都","city":"国立市","address":"国立市泉2-12-12","lat":35.674381,"lon":139.42923},{"name":"(有)柳産業","province":"東京都","city":"国立市","address":"国立市泉1-14-11","lat":35.672302,"lon":139.439758},{"name":"グリーンリサイクル(株)  国立営業所","province":"東京都","city":"国立市","address":"国立市泉3-31-10","lat":35.676041,"lon":139.429016},{"name":"国立市選挙管理委員会","province":"東京都","city":"国立市","address":"国立市富士見台2-47-1","lat":35.683909,"lon":139.44141},{"name":"国立市保健センター","province":"東京都","city":"国立市","address":"国立市富士見台3-16-5","lat":35.686095,"lon":139.436547},{"name":"国立市保健センター（分室）","province":"東京都","city":"国立市","address":"国立市富士見台3-21-1","lat":35.685859,"lon":139.435872},{"name":"国立市","province":"東京都","city":"国立市","address":"国立市富士見台2-47-1","lat":35.6839125,"lon":139.4413664},{"name":"株式会社セレモア","province":"東京都","city":"国立市","address":"東京都国立市谷保5115","lat":35.67971558,"lon":139.446777},{"name":"社会福祉法人東京福祉会","province":"東京都","city":"国立市","address":"東京都国立市谷保892-1","lat":35.67613812,"lon":139.44407181},{"name":"形如式典有限会社","province":"東京都","city":"国立市","address":"東京都国立市谷保6丁目21-28","lat":35.67502432,"lon":139.44278585},{"name":"株式会社セレケア","province":"東京都","city":"国立市","address":"東京都国立市東2丁目12-6","lat":35.69418353,"lon":139.45221211},{"name":"花＊家族葬ワイズワークス","province":"東京都","city":"国立市","address":"東京都国立市東1丁目6-2","lat":35.69758859,"lon":139.4477485},{"name":"セレーザ合同会社","province":"東京都","city":"国立市","address":"東京都国立市東2丁目9-3","lat":35.69432795,"lon":139.45174827},{"name":"（株）セレモア","province":"東京都","city":"国立市","address":"東京都国立市谷保5115","lat":35.67971558,"lon":139.446777},{"name":"国立市保健センター","province":"東京都","city":"国立市","address":"東京都国立市富士見台3丁目16-5","lat":35.68608121,"lon":139.43650545},{"name":"国立市保健センター","province":"東京都","city":"国立市","address":"国立市富士見台3-16-5","lat":35.6862,"lon":139.43675},{"name":"国立市保健センター（分室）","province":"東京都","city":"国立市","address":"国立市富士見台3-21-1","lat":35.685879,"lon":139.43515},{"name":"(株)田邊商店  国立事業所","province":"東京都","city":"国立市","address":"国立市泉4-7-2","lat":35.677849,"lon":139.430054},{"name":"玉川産業(有)","province":"東京都","city":"国立市","address":"国立市泉2-12-12","lat":35.674381,"lon":139.42923},{"name":"(有)柳産業","province":"東京都","city":"国立市","address":"国立市泉1-14-11","lat":35.672302,"lon":139.439758},{"name":"グリーンリサイクル(株)  国立営業所","province":"東京都","city":"国立市","address":"国立市泉3-31-10","lat":35.676041,"lon":139.429016},{"name":"国立市選挙管理委員会","province":"東京都","city":"国立市","address":"国立市富士見台2-47-1","lat":35.683909,"lon":139.44141},{"name":"国立市保健センター","province":"東京都","city":"国立市","address":"国立市富士見台3-16-5","lat":35.686095,"lon":139.436547},{"name":"国立市保健センター（分室）","province":"東京都","city":"国立市","address":"国立市富士見台3-21-1","lat":35.685859,"lon":139.435872},{"name":"国立市","province":"東京都","city":"国立市","address":"国立市富士見台2-47-1","lat":35.6839125,"lon":139.4413664},{"name":"株式会社セレモア","province":"東京都","city":"国立市","address":"東京都国立市谷保5115","lat":35.67971558,"lon":139.446777},{"name":"社会福祉法人東京福祉会","province":"東京都","city":"国立市","address":"東京都国立市谷保892-1","lat":35.67613812,"lon":139.44407181},{"name":"形如式典有限会社","province":"東京都","city":"国立市","address":"東京都国立市谷保6丁目21-28","lat":35.67502432,"lon":139.44278585},{"name":"株式会社セレケア","province":"東京都","city":"国立市","address":"東京都国立市東2丁目12-6","lat":35.69418353,"lon":139.45221211},{"name":"花＊家族葬ワイズワークス","province":"東京都","city":"国立市","address":"東京都国立市東1丁目6-2","lat":35.69758859,"lon":139.4477485},{"name":"セレーザ合同会社","province":"東京都","city":"国立市","address":"東京都国立市東2丁目9-3","lat":35.69432795,"lon":139.45174827},{"name":"（株）セレモア","province":"東京都","city":"国立市","address":"東京都国立市谷保5115","lat":35.67971558,"lon":139.446777},{"name":"国立市保健センター","province":"東京都","city":"国立市","address":"東京都国立市富士見台3丁目16-5","lat":35.68608121,"lon":139.43650545},{"name":"国立市保健センター","province":"東京都","city":"国立市","address":"国立市富士見台3-16-5","lat":35.6862,"lon":139.43675},{"name":"国立市保健センター（分室）","province":"東京都","city":"国立市","address":"国立市富士見台3-21-1","lat":35.685879,"lon":139.43515},{"name":"(株)田邊商店  国立事業所","province":"東京都","city":"国立市","address":"国立市泉4-7-2","lat":35.677849,"lon":139.430054},{"name":"玉川産業(有)","province":"東京都","city":"国立市","address":"国立市泉2-12-12","lat":35.674381,"lon":139.42923},{"name":"(有)柳産業","province":"東京都","city":"国立市","address":"国立市泉1-14-11","lat":35.672302,"lon":139.439758},{"name":"グリーンリサイクル(株)  国立営業所","province":"東京都","city":"国立市","address":"国立市泉3-31-10","lat":35.676041,"lon":139.429016},{"name":"国立市選挙管理委員会","province":"東京都","city":"国立市","address":"国立市富士見台2-47-1","lat":35.683909,"lon":139.44141},{"name":"国立市保健センター","province":"東京都","city":"国立市","address":"国立市富士見台3-16-5","lat":35.686095,"lon":139.436547},{"name":"国立市保健センター（分室）","province":"東京都","city":"国立市","address":"国立市富士見台3-21-1","lat":35.685859,"lon":139.435872},{"name":"国立市","province":"東京都","city":"国立市","address":"国立市富士見台2-47-1","lat":35.6839125,"lon":139.4413664},{"name":"国立市保健センター","province":"東京都","city":"国立市","address":"東京都国立市富士見台3丁目16-5","lat":35.68608121,"lon":139.43650545},{"name":"国立市保健センター","province":"東京都","city":"国立市","address":"国立市富士見台3-16-5","lat":35.6862,"lon":139.43675},{"name":"国立市保健センター（分室）","province":"東京都","city":"国立市","address":"国立市富士見台3-21-1","lat":35.685879,"lon":139.43515},{"name":"(株)田邊商店  国立事業所","province":"東京都","city":"国立市","address":"国立市泉4-7-2","lat":35.677849,"lon":139.430054},{"name":"玉川産業(有)","province":"東京都","city":"国立市","address":"国立市泉2-12-12","lat":35.674381,"lon":139.42923},{"name":"(有)柳産業","province":"東京都","city":"国立市","address":"国立市泉1-14-11","lat":35.672302,"lon":139.439758},{"name":"グリーンリサイクル(株)  国立営業所","province":"東京都","city":"国立市","address":"国立市泉3-31-10","lat":35.676041,"lon":139.429016},{"name":"国立市選挙管理委員会","province":"東京都","city":"国立市","address":"国立市富士見台2-47-1","lat":35.683909,"lon":139.44141},{"name":"国立市保健センター","province":"東京都","city":"国立市","address":"国立市富士見台3-16-5","lat":35.686095,"lon":139.436547},{"name":"国立市保健センター（分室）","province":"東京都","city":"国立市","address":"国立市富士見台3-21-1","lat":35.685859,"lon":139.435872},{"name":"国立市保健センター","province":"東京都","city":"国立市","address":"東京都国立市富士見台3丁目16-5","lat":35.68608121,"lon":139.43650545},{"name":"国立市保健センター","province":"東京都","city":"国立市","address":"国立市富士見台3-16-5","lat":35.6862,"lon":139.43675},{"name":"国立市保健センター（分室）","province":"東京都","city":"国立市","address":"国立市富士見台3-21-1","lat":35.685879,"lon":139.43515},{"name":"(株)田邊商店  国立事業所","province":"東京都","city":"国立市","address":"国立市泉4-7-2","lat":35.677849,"lon":139.430054},{"name":"玉川産業(有)","province":"東京都","city":"国立市","address":"国立市泉2-12-12","lat":35.674381,"lon":139.42923},{"name":"(有)柳産業","province":"東京都","city":"国立市","address":"国立市泉1-14-11","lat":35.672302,"lon":139.439758},{"name":"グリーンリサイクル(株)  国立営業所","province":"東京都","city":"国立市","address":"国立市泉3-31-10","lat":35.676041,"lon":139.429016},{"name":"国立市選挙管理委員会","province":"東京都","city":"国立市","address":"国立市富士見台2-47-1","lat":35.683909,"lon":139.44141},{"name":"国立市保健センター","province":"東京都","city":"国立市","address":"国立市富士見台3-16-5","lat":35.686095,"lon":139.436547},{"name":"国立市保健センター（分室）","province":"東京都","city":"国立市","address":"国立市富士見台3-21-1","lat":35.685859,"lon":139.435872},{"name":"国立市保健センター","province":"東京都","city":"国立市","address":"東京都国立市富士見台3丁目16-5","lat":35.68608121,"lon":139.43650545},{"name":"国立市保健センター","province":"東京都","city":"国立市","address":"国立市富士見台3-16-5","lat":35.6862,"lon":139.43675},{"name":"国立市保健センター（分室）","province":"東京都","city":"国立市","address":"国立市富士見台3-21-1","lat":35.685879,"lon":139.43515},{"name":"国立市選挙管理委員会","province":"東京都","city":"国立市","address":"国立市富士見台2-47-1","lat":35.683909,"lon":139.44141},{"name":"国立市保健センター","province":"東京都","city":"国立市","address":"国立市富士見台3-16-5","lat":35.686095,"lon":139.436547},{"name":"国立市保健センター（分室）","province":"東京都","city":"国立市","address":"国立市富士見台3-21-1","lat":35.685859,"lon":139.435872},{"name":"国立市保健センター","province":"東京都","city":"国立市","address":"東京都国立市富士見台3丁目16-5","lat":35.68608121,"lon":139.43650545},{"name":"国立市保健センター","province":"東京都","city":"国立市","address":"国立市富士見台3-16-5","lat":35.6862,"lon":139.43675},{"name":"国立市保健センター（分室）","province":"東京都","city":"国立市","address":"国立市富士見台3-21-1","lat":35.685879,"lon":139.43515},{"name":"国立市選挙管理委員会","province":"東京都","city":"国立市","address":"国立市富士見台2-47-1","lat":35.683909,"lon":139.44141},{"name":"国立市保健センター","province":"東京都","city":"国立市","address":"国立市富士見台3-16-5","lat":35.686095,"lon":139.436547},{"name":"国立市保健センター（分室）","province":"東京都","city":"国立市","address":"国立市富士見台3-21-1","lat":35.685859,"lon":139.435872},{"name":"国立市保健センター","province":"東京都","city":"国立市","address":"東京都国立市富士見台3丁目16-5","lat":35.68608121,"lon":139.43650545},{"name":"国立市保健センター","province":"東京都","city":"国立市","address":"国立市富士見台3-16-5","lat":35.6862,"lon":139.43675},{"name":"国立市保健センター（分室）","province":"東京都","city":"国立市","address":"国立市富士見台3-21-1","lat":35.685879,"lon":139.43515},{"name":"国立市選挙管理委員会","province":"東京都","city":"国立市","address":"国立市富士見台2-47-1","lat":35.683909,"lon":139.44141},{"name":"国立市保健センター","province":"東京都","city":"国立市","address":"国立市富士見台3-16-5","lat":35.686095,"lon":139.436547},{"name":"国立市保健センター（分室）","province":"東京都","city":"国立市","address":"国立市富士見台3-21-1","lat":35.685859,"lon":139.435872},{"name":"国立市保健センター","province":"東京都","city":"国立市","address":"東京都国立市富士見台3丁目16-5","lat":35.68608121,"lon":139.43650545},{"name":"国立市保健センター","province":"東京都","city":"国立市","address":"国立市富士見台3-16-5","lat":35.6862,"lon":139.43675},{"name":"国立市保健センター（分室）","province":"東京都","city":"国立市","address":"国立市富士見台3-21-1","lat":35.685879,"lon":139.43515},{"name":"国立市選挙管理委員会","province":"東京都","city":"国立市","address":"国立市富士見台2-47-1","lat":35.683909,"lon":139.44141},{"name":"国立市保健センター","province":"東京都","city":"国立市","address":"国立市富士見台3-16-5","lat":35.686095,"lon":139.436547},{"name":"国立市保健センター（分室）","province":"東京都","city":"国立市","address":"国立市富士見台3-21-1","lat":35.685859,"lon":139.435872},{"name":"国立市保健センター","province":"東京都","city":"国立市","address":"東京都国立市富士見台3丁目16-5","lat":35.68608121,"lon":139.43650545},{"name":"国立市保健センター","province":"東京都","city":"国立市","address":"国立市富士見台3-16-5","lat":35.6862,"lon":139.43675},{"name":"国立市保健センター（分室）","province":"東京都","city":"国立市","address":"国立市富士見台3-21-1","lat":35.685879,"lon":139.43515},{"name":"国立市選挙管理委員会","province":"東京都","city":"国立市","address":"国立市富士見台2-47-1","lat":35.683909,"lon":139.44141},{"name":"国立市保健センター","province":"東京都","city":"国立市","address":"国立市富士見台3-16-5","lat":35.686095,"lon":139.436547},{"name":"国立市保健センター（分室）","province":"東京都","city":"国立市","address":"国立市富士見台3-21-1","lat":35.685859,"lon":139.435872},{"name":"国立市保健センター","province":"東京都","city":"国立市","address":"東京都国立市富士見台3丁目16-5","lat":35.68608121,"lon":139.43650545},{"name":"国立市保健センター","province":"東京都","city":"国立市","address":"国立市富士見台3-16-5","lat":35.6862,"lon":139.43675},{"name":"国立市保健センター（分室）","province":"東京都","city":"国立市","address":"国立市富士見台3-21-1","lat":35.685879,"lon":139.43515},{"name":"国立市選挙管理委員会","province":"東京都","city":"国立市","address":"国立市富士見台2-47-1","lat":35.683909,"lon":139.44141},{"name":"国立市保健センター","province":"東京都","city":"国立市","address":"国立市富士見台3-16-5","lat":35.686095,"lon":139.436547},{"name":"国立市保健センター（分室）","province":"東京都","city":"国立市","address":"国立市富士見台3-21-1","lat":35.685859,"lon":139.435872},{"name":"国立市保健センター","province":"東京都","city":"国立市","address":"東京都国立市富士見台3丁目16-5","lat":35.68608121,"lon":139.43650545},{"name":"国立市保健センター","province":"東京都","city":"国立市","address":"国立市富士見台3-16-5","lat":35.6862,"lon":139.43675},{"name":"国立市保健センター（分室）","province":"東京都","city":"国立市","address":"国立市富士見台3-21-1","lat":35.685879,"lon":139.43515},{"name":"国立市選挙管理委員会","province":"東京都","city":"国立市","address":"国立市富士見台2-47-1","lat":35.683909,"lon":139.44141},{"name":"国立市保健センター","province":"東京都","city":"国立市","address":"国立市富士見台3-16-5","lat":35.686095,"lon":139.436547},{"name":"国立市保健センター（分室）","province":"東京都","city":"国立市","address":"国立市富士見台3-21-1","lat":35.685859,"lon":139.435872},{"name":"国立市保健センター","province":"東京都","city":"国立市","address":"東京都国立市富士見台3丁目16-5","lat":35.68608121,"lon":139.43650545},{"name":"国立市保健センター","province":"東京都","city":"国立市","address":"国立市富士見台3-16-5","lat":35.6862,"lon":139.43675},{"name":"国立市保健センター（分室）","province":"東京都","city":"国立市","address":"国立市富士見台3-21-1","lat":35.685879,"lon":139.43515},{"name":"国立市選挙管理委員会","province":"東京都","city":"国立市","address":"国立市富士見台2-47-1","lat":35.683909,"lon":139.44141},{"name":"国立市保健センター","province":"東京都","city":"国立市","address":"国立市富士見台3-16-5","lat":35.686095,"lon":139.436547},{"name":"国立市保健センター（分室）","province":"東京都","city":"国立市","address":"国立市富士見台3-21-1","lat":35.685859,"lon":139.435872},{"name":"国立市保健センター","province":"東京都","city":"国立市","address":"東京都国立市富士見台3丁目16-5","lat":35.68608121,"lon":139.43650545},{"name":"国立市保健センター","province":"東京都","city":"国立市","address":"国立市富士見台3-16-5","lat":35.6862,"lon":139.43675},{"name":"国立市保健センター（分室）","province":"東京都","city":"国立市","address":"国立市富士見台3-21-1","lat":35.685879,"lon":139.43515},{"name":"国立市選挙管理委員会","province":"東京都","city":"国立市","address":"国立市富士見台2-47-1","lat":35.683909,"lon":139.44141},{"name":"国立市保健センター","province":"東京都","city":"国立市","address":"国立市富士見台3-16-5","lat":35.686095,"lon":139.436547},{"name":"国立市保健センター（分室）","province":"東京都","city":"国立市","address":"国立市富士見台3-21-1","lat":35.685859,"lon":139.435872},{"name":"国立市保健センター","province":"東京都","city":"国立市","address":"東京都国立市富士見台3丁目16-5","lat":35.68608121,"lon":139.43650545},{"name":"国立市保健センター","province":"東京都","city":"国立市","address":"国立市富士見台3-16-5","lat":35.6862,"lon":139.43675},{"name":"国立市保健センター（分室）","province":"東京都","city":"国立市","address":"国立市富士見台3-21-1","lat":35.685879,"lon":139.43515},{"name":"国立市選挙管理委員会","province":"東京都","city":"国立市","address":"国立市富士見台2-47-1","lat":35.683909,"lon":139.44141},{"name":"国立市保健センター","province":"東京都","city":"国立市","address":"国立市富士見台3-16-5","lat":35.686095,"lon":139.436547},{"name":"国立市保健センター（分室）","province":"東京都","city":"国立市","address":"国立市富士見台3-21-1","lat":35.685859,"lon":139.435872},{"name":"国立市保健センター","province":"東京都","city":"国立市","address":"東京都国立市富士見台3丁目16-5","lat":35.68608121,"lon":139.43650545},{"name":"国立市保健センター","province":"東京都","city":"国立市","address":"国立市富士見台3-16-5","lat":35.6862,"lon":139.43675},{"name":"国立市保健センター（分室）","province":"東京都","city":"国立市","address":"国立市富士見台3-21-1","lat":35.685879,"lon":139.43515},{"name":"国立市選挙管理委員会","province":"東京都","city":"国立市","address":"国立市富士見台2-47-1","lat":35.683909,"lon":139.44141},{"name":"国立市保健センター","province":"東京都","city":"国立市","address":"国立市富士見台3-16-5","lat":35.686095,"lon":139.436547},{"name":"国立市保健センター（分室）","province":"東京都","city":"国立市","address":"国立市富士見台3-21-1","lat":35.685859,"lon":139.435872},{"name":"国立市保健センター","province":"東京都","city":"国立市","address":"東京都国立市富士見台3丁目16-5","lat":35.68608121,"lon":139.43650545},{"name":"国立市保健センター","province":"東京都","city":"国立市","address":"国立市富士見台3-16-5","lat":35.6862,"lon":139.43675},{"name":"国立市保健センター（分室）","province":"東京都","city":"国立市","address":"国立市富士見台3-21-1","lat":35.685879,"lon":139.43515},{"name":"国立市選挙管理委員会","province":"東京都","city":"国立市","address":"国立市富士見台2-47-1","lat":35.683909,"lon":139.44141},{"name":"国立市保健センター","province":"東京都","city":"国立市","address":"国立市富士見台3-16-5","lat":35.686095,"lon":139.436547},{"name":"国立市保健センター（分室）","province":"東京都","city":"国立市","address":"国立市富士見台3-21-1","lat":35.685859,"lon":139.435872},{"name":"国立市保健センター","province":"東京都","city":"国立市","address":"東京都国立市富士見台3丁目16-5","lat":35.68608121,"lon":139.43650545},{"name":"国立市保健センター","province":"東京都","city":"国立市","address":"国立市富士見台3-16-5","lat":35.6862,"lon":139.43675},{"name":"国立市保健センター（分室）","province":"東京都","city":"国立市","address":"国立市富士見台3-21-1","lat":35.685879,"lon":139.43515},{"name":"国立市選挙管理委員会","province":"東京都","city":"国立市","address":"国立市富士見台2-47-1","lat":35.683909,"lon":139.44141},{"name":"国立市保健センター","province":"東京都","city":"国立市","address":"国立市富士見台3-16-5","lat":35.686095,"lon":139.436547},{"name":"国立市保健センター（分室）","province":"東京都","city":"国立市","address":"国立市富士見台3-21-1","lat":35.685859,"lon":139.435872},{"name":"国立市保健センター","province":"東京都","city":"国立市","address":"東京都国立市富士見台3丁目16-5","lat":35.68608121,"lon":139.43650545},{"name":"国立市保健センター","province":"東京都","city":"国立市","address":"国立市富士見台3-16-5","lat":35.6862,"lon":139.43675},{"name":"国立市保健センター（分室）","province":"東京都","city":"国立市","address":"国立市富士見台3-21-1","lat":35.685879,"lon":139.43515},{"name":"国立市選挙管理委員会","province":"東京都","city":"国立市","address":"国立市富士見台2-47-1","lat":35.683909,"lon":139.44141},{"name":"国立市保健センター","province":"東京都","city":"国立市","address":"国立市富士見台3-16-5","lat":35.686095,"lon":139.436547},{"name":"国立市保健センター（分室）","province":"東京都","city":"国立市","address":"国立市富士見台3-21-1","lat":35.685859,"lon":139.435872},{"name":"国立市保健センター","province":"東京都","city":"国立市","address":"東京都国立市富士見台3丁目16-5","lat":35.68608121,"lon":139.43650545},{"name":"国立市保健センター","province":"東京都","city":"国立市","address":"国立市富士見台3-16-5","lat":35.6862,"lon":139.43675},{"name":"国立市保健センター（分室）","province":"東京都","city":"国立市","address":"国立市富士見台3-21-1","lat":35.685879,"lon":139.43515},{"name":"国立市選挙管理委員会","province":"東京都","city":"国立市","address":"国立市富士見台2-47-1","lat":35.683909,"lon":139.44141},{"name":"国立市保健センター","province":"東京都","city":"国立市","address":"国立市富士見台3-16-5","lat":35.686095,"lon":139.436547},{"name":"国立市保健センター（分室）","province":"東京都","city":"国立市","address":"国立市富士見台3-21-1","lat":35.685859,"lon":139.435872},{"name":"国立市保健センター","province":"東京都","city":"国立市","address":"東京都国立市富士見台3丁目16-5","lat":35.68608121,"lon":139.43650545},{"name":"国立市保健センター","province":"東京都","city":"国立市","address":"国立市富士見台3-16-5","lat":35.6862,"lon":139.43675},{"name":"国立市保健センター（分室）","province":"東京都","city":"国立市","address":"国立市富士見台3-21-1","lat":35.685879,"lon":139.43515},{"name":"国立市選挙管理委員会","province":"東京都","city":"国立市","address":"国立市富士見台2-47-1","lat":35.683909,"lon":139.44141},{"name":"国立市保健センター","province":"東京都","city":"国立市","address":"国立市富士見台3-16-5","lat":35.686095,"lon":139.436547},{"name":"国立市保健センター（分室）","province":"東京都","city":"国立市","address":"国立市富士見台3-21-1","lat":35.685859,"lon":139.435872},{"name":"国立市保健センター","province":"東京都","city":"国立市","address":"東京都国立市富士見台3丁目16-5","lat":35.68608121,"lon":139.43650545},{"name":"国立市保健センター","province":"東京都","city":"国立市","address":"国立市富士見台3-16-5","lat":35.6862,"lon":139.43675},{"name":"国立市保健センター（分室）","province":"東京都","city":"国立市","address":"国立市富士見台3-21-1","lat":35.685879,"lon":139.43515},{"name":"国立市選挙管理委員会","province":"東京都","city":"国立市","address":"国立市富士見台2-47-1","lat":35.683909,"lon":139.44141},{"name":"国立市保健センター","province":"東京都","city":"国立市","address":"国立市富士見台3-16-5","lat":35.686095,"lon":139.436547},{"name":"国立市保健センター（分室）","province":"東京都","city":"国立市","address":"国立市富士見台3-21-1","lat":35.685859,"lon":139.435872},{"name":"国立市保健センター","province":"東京都","city":"国立市","address":"東京都国立市富士見台3丁目16-5","lat":35.68608121,"lon":139.43650545},{"name":"国立市保健センター","province":"東京都","city":"国立市","address":"国立市富士見台3-16-5","lat":35.6862,"lon":139.43675},{"name":"国立市保健センター（分室）","province":"東京都","city":"国立市","address":"国立市富士見台3-21-1","lat":35.685879,"lon":139.43515},{"name":"国立市選挙管理委員会","province":"東京都","city":"国立市","address":"国立市富士見台2-47-1","lat":35.683909,"lon":139.44141},{"name":"国立市保健センター","province":"東京都","city":"国立市","address":"国立市富士見台3-16-5","lat":35.686095,"lon":139.436547},{"name":"国立市保健センター（分室）","province":"東京都","city":"国立市","address":"国立市富士見台3-21-1","lat":35.685859,"lon":139.435872},{"name":"国立市保健センター","province":"東京都","city":"国立市","address":"東京都国立市富士見台3丁目16-5","lat":35.68608121,"lon":139.43650545},{"name":"国立市保健センター","province":"東京都","city":"国立市","address":"国立市富士見台3-16-5","lat":35.6862,"lon":139.43675},{"name":"国立市保健センター（分室）","province":"東京都","city":"国立市","address":"国立市富士見台3-21-1","lat":35.685879,"lon":139.43515},{"name":"国立市選挙管理委員会","province":"東京都","city":"国立市","address":"国立市富士見台2-47-1","lat":35.683909,"lon":139.44141},{"name":"国立市保健センター","province":"東京都","city":"国立市","address":"国立市富士見台3-16-5","lat":35.686095,"lon":139.436547},{"name":"国立市保健センター（分室）","province":"東京都","city":"国立市","address":"国立市富士見台3-21-1","lat":35.685859,"lon":139.435872},{"name":"国立市保健センター","province":"東京都","city":"国立市","address":"東京都国立市富士見台3丁目16-5","lat":35.68608121,"lon":139.43650545},{"name":"国立市保健センター","province":"東京都","city":"国立市","address":"国立市富士見台3-16-5","lat":35.6862,"lon":139.43675},{"name":"国立市保健センター（分室）","province":"東京都","city":"国立市","address":"国立市富士見台3-21-1","lat":35.685879,"lon":139.43515},{"name":"国立市選挙管理委員会","province":"東京都","city":"国立市","address":"国立市富士見台2-47-1","lat":35.683909,"lon":139.44141},{"name":"国立市保健センター","province":"東京都","city":"国立市","address":"国立市富士見台3-16-5","lat":35.686095,"lon":139.436547},{"name":"国立市保健センター（分室）","province":"東京都","city":"国立市","address":"国立市富士見台3-21-1","lat":35.685859,"lon":139.435872},{"name":"国立市保健センター","province":"東京都","city":"国立市","address":"東京都国立市富士見台3丁目16-5","lat":35.68608121,"lon":139.43650545},{"name":"国立市保健センター","province":"東京都","city":"国立市","address":"国立市富士見台3-16-5","lat":35.6862,"lon":139.43675},{"name":"国立市保健センター（分室）","province":"東京都","city":"国立市","address":"国立市富士見台3-21-1","lat":35.685879,"lon":139.43515},{"name":"国立市選挙管理委員会","province":"東京都","city":"国立市","address":"国立市富士見台2-47-1","lat":35.683909,"lon":139.44141},{"name":"国立市保健センター","province":"東京都","city":"国立市","address":"国立市富士見台3-16-5","lat":35.686095,"lon":139.436547},{"name":"国立市保健センター（分室）","province":"東京都","city":"国立市","address":"国立市富士見台3-21-1","lat":35.685859,"lon":139.435872},{"name":"国立市保健センター","province":"東京都","city":"国立市","address":"東京都国立市富士見台3丁目16-5","lat":35.68608121,"lon":139.43650545},{"name":"国立市保健センター","province":"東京都","city":"国立市","address":"国立市富士見台3-16-5","lat":35.6862,"lon":139.43675},{"name":"国立市保健センター（分室）","province":"東京都","city":"国立市","address":"国立市富士見台3-21-1","lat":35.685879,"lon":139.43515},{"name":"国立市選挙管理委員会","province":"東京都","city":"国立市","address":"国立市富士見台2-47-1","lat":35.683909,"lon":139.44141},{"name":"国立市保健センター","province":"東京都","city":"国立市","address":"国立市富士見台3-16-5","lat":35.686095,"lon":139.436547},{"name":"国立市保健センター（分室）","province":"東京都","city":"国立市","address":"国立市富士見台3-21-1","lat":35.685859,"lon":139.435872},{"name":"国立市保健センター","province":"東京都","city":"国立市","address":"東京都国立市富士見台3丁目16-5","lat":35.68608121,"lon":139.43650545},{"name":"国立市保健センター","province":"東京都","city":"国立市","address":"国立市富士見台3-16-5","lat":35.6862,"lon":139.43675},{"name":"国立市保健センター（分室）","province":"東京都","city":"国立市","address":"国立市富士見台3-21-1","lat":35.685879,"lon":139.43515},{"name":"国立市選挙管理委員会","province":"東京都","city":"国立市","address":"国立市富士見台2-47-1","lat":35.683909,"lon":139.44141},{"name":"国立市保健センター","province":"東京都","city":"国立市","address":"国立市富士見台3-16-5","lat":35.686095,"lon":139.436547},{"name":"国立市保健センター（分室）","province":"東京都","city":"国立市","address":"国立市富士見台3-21-1","lat":35.685859,"lon":139.435872},{"name":"国立市保健センター","province":"東京都","city":"国立市","address":"東京都国立市富士見台3丁目16-5","lat":35.68608121,"lon":139.43650545},{"name":"国立市保健センター","province":"東京都","city":"国立市","address":"国立市富士見台3-16-5","lat":35.6862,"lon":139.43675},{"name":"国立市保健センター（分室）","province":"東京都","city":"国立市","address":"国立市富士見台3-21-1","lat":35.685879,"lon":139.43515},{"name":"国立市選挙管理委員会","province":"東京都","city":"国立市","address":"国立市富士見台2-47-1","lat":35.683909,"lon":139.44141},{"name":"国立市保健センター","province":"東京都","city":"国立市","address":"国立市富士見台3-16-5","lat":35.686095,"lon":139.436547},{"name":"国立市保健センター（分室）","province":"東京都","city":"国立市","address":"国立市富士見台3-21-1","lat":35.685859,"lon":139.435872},{"name":"国立市保健センター","province":"東京都","city":"国立市","address":"東京都国立市富士見台3丁目16-5","lat":35.68608121,"lon":139.43650545},{"name":"国立市保健センター","province":"東京都","city":"国立市","address":"国立市富士見台3-16-5","lat":35.6862,"lon":139.43675},{"name":"国立市保健センター（分室）","province":"東京都","city":"国立市","address":"国立市富士見台3-21-1","lat":35.685879,"lon":139.43515},{"name":"国立市選挙管理委員会","province":"東京都","city":"国立市","address":"国立市富士見台2-47-1","lat":35.683909,"lon":139.44141},{"name":"国立市保健センター","province":"東京都","city":"国立市","address":"国立市富士見台3-16-5","lat":35.686095,"lon":139.436547},{"name":"国立市保健センター（分室）","province":"東京都","city":"国立市","address":"国立市富士見台3-21-1","lat":35.685859,"lon":139.435872},{"name":"国立市保健センター","province":"東京都","city":"国立市","address":"東京都国立市富士見台3丁目16-5","lat":35.68608121,"lon":139.43650545},{"name":"国立市保健センター","province":"東京都","city":"国立市","address":"国立市富士見台3-16-5","lat":35.6862,"lon":139.43675},{"name":"国立市保健センター（分室）","province":"東京都","city":"国立市","address":"国立市富士見台3-21-1","lat":35.685879,"lon":139.43515},{"name":"国立市選挙管理委員会","province":"東京都","city":"国立市","address":"国立市富士見台2-47-1","lat":35.683909,"lon":139.44141},{"name":"国立市保健センター","province":"東京都","city":"国立市","address":"国立市富士見台3-16-5","lat":35.686095,"lon":139.436547},{"name":"国立市保健センター（分室）","province":"東京都","city":"国立市","address":"国立市富士見台3-21-1","lat":35.685859,"lon":139.435872},{"name":"国立市保健センター","province":"東京都","city":"国立市","address":"東京都国立市富士見台3丁目16-5","lat":35.68608121,"lon":139.43650545},{"name":"国立市保健センター","province":"東京都","city":"国立市","address":"国立市富士見台3-16-5","lat":35.6862,"lon":139.43675},{"name":"国立市保健センター（分室）","province":"東京都","city":"国立市","address":"国立市富士見台3-21-1","lat":35.685879,"lon":139.43515},{"name":"国立市選挙管理委員会","province":"東京都","city":"国立市","address":"国立市富士見台2-47-1","lat":35.683909,"lon":139.44141},{"name":"国立市保健センター","province":"東京都","city":"国立市","address":"国立市富士見台3-16-5","lat":35.686095,"lon":139.436547},{"name":"国立市保健センター（分室）","province":"東京都","city":"国立市","address":"国立市富士見台3-21-1","lat":35.685859,"lon":139.435872},{"name":"国立市保健センター","province":"東京都","city":"国立市","address":"東京都国立市富士見台3丁目16-5","lat":35.68608121,"lon":139.43650545},{"name":"国立市保健センター","province":"東京都","city":"国立市","address":"国立市富士見台3-16-5","lat":35.6862,"lon":139.43675},{"name":"国立市保健センター（分室）","province":"東京都","city":"国立市","address":"国立市富士見台3-21-1","lat":35.685879,"lon":139.43515},{"name":"国立市選挙管理委員会","province":"東京都","city":"国立市","address":"国立市富士見台2-47-1","lat":35.683909,"lon":139.44141},{"name":"国立市保健センター","province":"東京都","city":"国立市","address":"国立市富士見台3-16-5","lat":35.686095,"lon":139.436547},{"name":"国立市保健センター（分室）","province":"東京都","city":"国立市","address":"国立市富士見台3-21-1","lat":35.685859,"lon":139.435872},{"name":"国立市保健センター","province":"東京都","city":"国立市","address":"東京都国立市富士見台3丁目16-5","lat":35.68608121,"lon":139.43650545},{"name":"国立市保健センター","province":"東京都","city":"国立市","address":"国立市富士見台3-16-5","lat":35.6862,"lon":139.43675},{"name":"国立市保健センター（分室）","province":"東京都","city":"国立市","address":"国立市富士見台3-21-1","lat":35.685879,"lon":139.43515},{"name":"国立市選挙管理委員会","province":"東京都","city":"国立市","address":"国立市富士見台2-47-1","lat":35.683909,"lon":139.44141},{"name":"国立市保健センター","province":"東京都","city":"国立市","address":"国立市富士見台3-16-5","lat":35.686095,"lon":139.436547},{"name":"国立市保健センター（分室）","province":"東京都","city":"国立市","address":"国立市富士見台3-21-1","lat":35.685859,"lon":139.435872},{"name":"国立市保健センター","province":"東京都","city":"国立市","address":"東京都国立市富士見台3丁目16-5","lat":35.68608121,"lon":139.43650545},{"name":"国立市保健センター","province":"東京都","city":"国立市","address":"国立市富士見台3-16-5","lat":35.6862,"lon":139.43675},{"name":"国立市保健センター（分室）","province":"東京都","city":"国立市","address":"国立市富士見台3-21-1","lat":35.685879,"lon":139.43515},{"name":"国立市選挙管理委員会","province":"東京都","city":"国立市","address":"国立市富士見台2-47-1","lat":35.683909,"lon":139.44141},{"name":"国立市保健センター","province":"東京都","city":"国立市","address":"国立市富士見台3-16-5","lat":35.686095,"lon":139.436547},{"name":"国立市保健センター（分室）","province":"東京都","city":"国立市","address":"国立市富士見台3-21-1","lat":35.685859,"lon":139.435872},{"name":"国立市保健センター","province":"東京都","city":"国立市","address":"東京都国立市富士見台3丁目16-5","lat":35.68608121,"lon":139.43650545},{"name":"国立市保健センター","province":"東京都","city":"国立市","address":"国立市富士見台3-16-5","lat":35.6862,"lon":139.43675},{"name":"国立市保健センター（分室）","province":"東京都","city":"国立市","address":"国立市富士見台3-21-1","lat":35.685879,"lon":139.43515},{"name":"国立市選挙管理委員会","province":"東京都","city":"国立市","address":"国立市富士見台2-47-1","lat":35.683909,"lon":139.44141},{"name":"国立市保健センター","province":"東京都","city":"国立市","address":"国立市富士見台3-16-5","lat":35.686095,"lon":139.436547},{"name":"国立市保健センター（分室）","province":"東京都","city":"国立市","address":"国立市富士見台3-21-1","lat":35.685859,"lon":139.435872},{"name":"国立市保健センター","province":"東京都","city":"国立市","address":"東京都国立市富士見台3丁目16-5","lat":35.68608121,"lon":139.43650545},{"name":"国立市保健センター","province":"東京都","city":"国立市","address":"国立市富士見台3-16-5","lat":35.6862,"lon":139.43675},{"name":"国立市保健センター（分室）","province":"東京都","city":"国立市","address":"国立市富士見台3-21-1","lat":35.685879,"lon":139.43515},{"name":"国立市選挙管理委員会","province":"東京都","city":"国立市","address":"国立市富士見台2-47-1","lat":35.683909,"lon":139.44141},{"name":"国立市保健センター","province":"東京都","city":"国立市","address":"国立市富士見台3-16-5","lat":35.686095,"lon":139.436547},{"name":"国立市保健センター（分室）","province":"東京都","city":"国立市","address":"国立市富士見台3-21-1","lat":35.685859,"lon":139.435872},{"name":"国立市保健センター","province":"東京都","city":"国立市","address":"東京都国立市富士見台3丁目16-5","lat":35.68608121,"lon":139.43650545},{"name":"国立市保健センター","province":"東京都","city":"国立市","address":"国立市富士見台3-16-5","lat":35.6862,"lon":139.43675},{"name":"国立市保健センター（分室）","province":"東京都","city":"国立市","address":"国立市富士見台3-21-1","lat":35.685879,"lon":139.43515},{"name":"国立市選挙管理委員会","province":"東京都","city":"国立市","address":"国立市富士見台2-47-1","lat":35.683909,"lon":139.44141},{"name":"国立市保健センター","province":"東京都","city":"国立市","address":"国立市富士見台3-16-5","lat":35.686095,"lon":139.436547},{"name":"国立市保健センター（分室）","province":"東京都","city":"国立市","address":"国立市富士見台3-21-1","lat":35.685859,"lon":139.435872},{"name":"国立市保健センター","province":"東京都","city":"国立市","address":"東京都国立市富士見台3丁目16-5","lat":35.68608121,"lon":139.43650545},{"name":"国立市保健センター","province":"東京都","city":"国立市","address":"国立市富士見台3-16-5","lat":35.6862,"lon":139.43675},{"name":"国立市保健センター（分室）","province":"東京都","city":"国立市","address":"国立市富士見台3-21-1","lat":35.685879,"lon":139.43515},{"name":"国立市選挙管理委員会","province":"東京都","city":"国立市","address":"国立市富士見台2-47-1","lat":35.683909,"lon":139.44141},{"name":"国立市保健センター","province":"東京都","city":"国立市","address":"国立市富士見台3-16-5","lat":35.686095,"lon":139.436547},{"name":"国立市保健センター（分室）","province":"東京都","city":"国立市","address":"国立市富士見台3-21-1","lat":35.685859,"lon":139.435872},{"name":"国立市保健センター","province":"東京都","city":"国立市","address":"東京都国立市富士見台3丁目16-5","lat":35.68608121,"lon":139.43650545},{"name":"国立市保健センター","province":"東京都","city":"国立市","address":"国立市富士見台3-16-5","lat":35.6862,"lon":139.43675},{"name":"国立市保健センター（分室）","province":"東京都","city":"国立市","address":"国立市富士見台3-21-1","lat":35.685879,"lon":139.43515},{"name":"国立市選挙管理委員会","province":"東京都","city":"国立市","address":"国立市富士見台2-47-1","lat":35.683909,"lon":139.44141},{"name":"国立市保健センター","province":"東京都","city":"国立市","address":"国立市富士見台3-16-5","lat":35.686095,"lon":139.436547},{"name":"国立市保健センター（分室）","province":"東京都","city":"国立市","address":"国立市富士見台3-21-1","lat":35.685859,"lon":139.435872},{"name":"国立市保健センター","province":"東京都","city":"国立市","address":"東京都国立市富士見台3丁目16-5","lat":35.68608121,"lon":139.43650545},{"name":"国立市保健センター","province":"東京都","city":"国立市","address":"国立市富士見台3-16-5","lat":35.6862,"lon":139.43675},{"name":"国立市保健センター（分室）","province":"東京都","city":"国立市","address":"国立市富士見台3-21-1","lat":35.685879,"lon":139.43515},{"name":"国立市選挙管理委員会","province":"東京都","city":"国立市","address":"国立市富士見台2-47-1","lat":35.683909,"lon":139.44141},{"name":"国立市保健センター","province":"東京都","city":"国立市","address":"国立市富士見台3-16-5","lat":35.686095,"lon":139.436547},{"name":"国立市保健センター（分室）","province":"東京都","city":"国立市","address":"国立市富士見台3-21-1","lat":35.685859,"lon":139.435872},{"name":"国立市保健センター","province":"東京都","city":"国立市","address":"東京都国立市富士見台3丁目16-5","lat":35.68608121,"lon":139.43650545},{"name":"国立市保健センター","province":"東京都","city":"国立市","address":"国立市富士見台3-16-5","lat":35.6862,"lon":139.43675},{"name":"国立市保健センター（分室）","province":"東京都","city":"国立市","address":"国立市富士見台3-21-1","lat":35.685879,"lon":139.43515},{"name":"国立市選挙管理委員会","province":"東京都","city":"国立市","address":"国立市富士見台2-47-1","lat":35.683909,"lon":139.44141},{"name":"国立市保健センター","province":"東京都","city":"国立市","address":"国立市富士見台3-16-5","lat":35.686095,"lon":139.436547},{"name":"国立市保健センター（分室）","province":"東京都","city":"国立市","address":"国立市富士見台3-21-1","lat":35.685859,"lon":139.435872},{"name":"国立市保健センター","province":"東京都","city":"国立市","address":"東京都国立市富士見台3丁目16-5","lat":35.68608121,"lon":139.43650545},{"name":"国立市保健センター","province":"東京都","city":"国立市","address":"国立市富士見台3-16-5","lat":35.6862,"lon":139.43675},{"name":"国立市保健センター（分室）","province":"東京都","city":"国立市","address":"国立市富士見台3-21-1","lat":35.685879,"lon":139.43515},{"name":"国立市選挙管理委員会","province":"東京都","city":"国立市","address":"国立市富士見台2-47-1","lat":35.683909,"lon":139.44141},{"name":"国立市保健センター","province":"東京都","city":"国立市","address":"国立市富士見台3-16-5","lat":35.686095,"lon":139.436547},{"name":"国立市保健センター（分室）","province":"東京都","city":"国立市","address":"国立市富士見台3-21-1","lat":35.685859,"lon":139.435872},{"name":"国立市保健センター","province":"東京都","city":"国立市","address":"東京都国立市富士見台3丁目16-5","lat":35.68608121,"lon":139.43650545},{"name":"国立市保健センター","province":"東京都","city":"国立市","address":"国立市富士見台3-16-5","lat":35.6862,"lon":139.43675},{"name":"国立市保健センター（分室）","province":"東京都","city":"国立市","address":"国立市富士見台3-21-1","lat":35.685879,"lon":139.43515},{"name":"国立市選挙管理委員会","province":"東京都","city":"国立市","address":"国立市富士見台2-47-1","lat":35.683909,"lon":139.44141},{"name":"国立市保健センター","province":"東京都","city":"国立市","address":"国立市富士見台3-16-5","lat":35.686095,"lon":139.436547},{"name":"国立市保健センター（分室）","province":"東京都","city":"国立市","address":"国立市富士見台3-21-1","lat":35.685859,"lon":139.435872},{"name":"国立市保健センター","province":"東京都","city":"国立市","address":"東京都国立市富士見台3丁目16-5","lat":35.68608121,"lon":139.43650545},{"name":"国立市保健センター","province":"東京都","city":"国立市","address":"国立市富士見台3-16-5","lat":35.6862,"lon":139.43675},{"name":"国立市保健センター（分室）","province":"東京都","city":"国立市","address":"国立市富士見台3-21-1","lat":35.685879,"lon":139.43515},{"name":"国立市選挙管理委員会","province":"東京都","city":"国立市","address":"国立市富士見台2-47-1","lat":35.683909,"lon":139.44141},{"name":"国立市保健センター","province":"東京都","city":"国立市","address":"国立市富士見台3-16-5","lat":35.686095,"lon":139.436547},{"name":"国立市保健センター（分室）","province":"東京都","city":"国立市","address":"国立市富士見台3-21-1","lat":35.685859,"lon":139.435872},{"name":"国立市保健センター","province":"東京都","city":"国立市","address":"東京都国立市富士見台3丁目16-5","lat":35.68608121,"lon":139.43650545},{"name":"国立市保健センター","province":"東京都","city":"国立市","address":"国立市富士見台3-16-5","lat":35.6862,"lon":139.43675},{"name":"国立市保健センター（分室）","province":"東京都","city":"国立市","address":"国立市富士見台3-21-1","lat":35.685879,"lon":139.43515},{"name":"国立市選挙管理委員会","province":"東京都","city":"国立市","address":"国立市富士見台2-47-1","lat":35.683909,"lon":139.44141},{"name":"国立市保健センター","province":"東京都","city":"国立市","address":"国立市富士見台3-16-5","lat":35.686095,"lon":139.436547},{"name":"国立市保健センター（分室）","province":"東京都","city":"国立市","address":"国立市富士見台3-21-1","lat":35.685859,"lon":139.435872},{"name":"国立市保健センター","province":"東京都","city":"国立市","address":"東京都国立市富士見台3丁目16-5","lat":35.68608121,"lon":139.43650545},{"name":"国立市保健センター","province":"東京都","city":"国立市","address":"国立市富士見台3-16-5","lat":35.6862,"lon":139.43675},{"name":"国立市保健センター（分室）","province":"東京都","city":"国立市","address":"国立市富士見台3-21-1","lat":35.685879,"lon":139.43515},{"name":"国立市選挙管理委員会","province":"東京都","city":"国立市","address":"国立市富士見台2-47-1","lat":35.683909,"lon":139.44141},{"name":"国立市保健センター","province":"東京都","city":"国立市","address":"国立市富士見台3-16-5","lat":35.686095,"lon":139.436547},{"name":"国立市保健センター（分室）","province":"東京都","city":"国立市","address":"国立市富士見台3-21-1","lat":35.685859,"lon":139.435872},{"name":"国立市保健センター","province":"東京都","city":"国立市","address":"東京都国立市富士見台3丁目16-5","lat":35.68608121,"lon":139.43650545},{"name":"国立市保健センター","province":"東京都","city":"国立市","address":"国立市富士見台3-16-5","lat":35.6862,"lon":139.43675},{"name":"国立市保健センター（分室）","province":"東京都","city":"国立市","address":"国立市富士見台3-21-1","lat":35.685879,"lon":139.43515},{"name":"国立市保健センター","province":"東京都","city":"国立市","address":"国立市富士見台3-16-5","lat":35.686095,"lon":139.436547},{"name":"国立市保健センター（分室）","province":"東京都","city":"国立市","address":"国立市富士見台3-21-1","lat":35.685859,"lon":139.435872},{"name":"国立市保健センター","province":"東京都","city":"国立市","address":"東京都国立市富士見台3丁目16-5","lat":35.68608121,"lon":139.43650545},{"name":"国立市保健センター","province":"東京都","city":"国立市","address":"国立市富士見台3-16-5","lat":35.6862,"lon":139.43675},{"name":"国立市保健センター（分室）","province":"東京都","city":"国立市","address":"国立市富士見台3-21-1","lat":35.685879,"lon":139.43515},{"name":"国立市保健センター","province":"東京都","city":"国立市","address":"国立市富士見台3-16-5","lat":35.686095,"lon":139.436547},{"name":"国立市保健センター（分室）","province":"東京都","city":"国立市","address":"国立市富士見台3-21-1","lat":35.685859,"lon":139.435872},{"name":"国立市保健センター","province":"東京都","city":"国立市","address":"東京都国立市富士見台3丁目16-5","lat":35.68608121,"lon":139.43650545},{"name":"国立市保健センター","province":"東京都","city":"国立市","address":"国立市富士見台3-16-5","lat":35.6862,"lon":139.43675},{"name":"国立市保健センター（分室）","province":"東京都","city":"国立市","address":"国立市富士見台3-21-1","lat":35.685879,"lon":139.43515},{"name":"国立市保健センター","province":"東京都","city":"国立市","address":"国立市富士見台3-16-5","lat":35.686095,"lon":139.436547},{"name":"国立市保健センター（分室）","province":"東京都","city":"国立市","address":"国立市富士見台3-21-1","lat":35.685859,"lon":139.435872},{"name":"国立市保健センター","province":"東京都","city":"国立市","address":"東京都国立市富士見台3丁目16-5","lat":35.68608121,"lon":139.43650545},{"name":"国立市保健センター","province":"東京都","city":"国立市","address":"国立市富士見台3-16-5","lat":35.6862,"lon":139.43675},{"name":"国立市保健センター（分室）","province":"東京都","city":"国立市","address":"国立市富士見台3-21-1","lat":35.685879,"lon":139.43515}]}