{"keyword":"保育","data":[{"name":"国立保育園","province":"東京都","city":"国立市","address":"国立市北2丁目30番の1","lat":35.701074,"lon":139.435138},{"name":"北保育園","province":"東京都","city":"国立市","address":"国立市北3丁目1番地の1","lat":35.699366,"lon":139.43275},{"name":"きたひだまり保育園","province":"東京都","city":"国立市","address":"国立市北3-42-1","lat":35.69883,"lon":139.433997},{"name":"和光保育園","province":"東京都","city":"国立市","address":"国立市東2丁目2番地の1","lat":35.695653,"lon":139.451262},{"name":"あいわ保育園","province":"東京都","city":"国立市","address":"国立市東2丁目25番地の1","lat":35.690973,"lon":139.448324},{"name":"国立市立東保育園","province":"東京都","city":"国立市","address":"国立市富士見台1丁目45番地の17","lat":35.681715,"lon":139.451499},{"name":"こぐまこどものいえ","province":"東京都","city":"国立市","address":"国立市富士見台3丁目35番地の15","lat":35.685117,"lon":139.433947},{"name":"国立たいよう保育園","province":"東京都","city":"国立市","address":"国立市富士見台2-13-10","lat":35.683321,"lon":139.446255},{"name":"春光保育園","province":"東京都","city":"国立市","address":"国立市西2丁目14番地の1","lat":35.694244,"lon":139.433522},{"name":"国立市立矢川保育園","province":"東京都","city":"国立市","address":"国立市谷保6800番地の2","lat":35.683423,"lon":139.429439},{"name":"向陽保育園","province":"東京都","city":"国立市","address":"国立市谷保6746番地","lat":35.685112,"lon":139.428828},{"name":"国立あゆみ保育園","province":"東京都","city":"国立市","address":"国立市谷保6286番地の2","lat":35.681634,"lon":139.430334},{"name":"国立あおいとり保育園","province":"東京都","city":"国立市","address":"国立市泉5丁目2番地の1","lat":35.679279,"lon":139.428304}]}