{"keyword":"収蔵","data":[{"name":"国立中給水所","province":"東京都","city":"国立市","address":"東京都国立市中3-8-1","lat":35.688163,"lon":139.442608},{"name":"谷保給水所","province":"東京都","city":"国立市","address":"東京都国立市谷保1462-1","lat":35.6779939,"lon":139.440914},{"name":"谷保浄水所","province":"東京都","city":"国立市","address":"東京都国立市谷保1462-1","lat":35.67798226,"lon":139.44087203},{"name":"一橋大学グラウンド","province":"東京都","city":"国立市","address":"東京都国立市中2丁目1","lat":35.69427214,"lon":139.44260462},{"name":"＊?国立市公民館","province":"東京都","city":"国立市","address":"国立市中1-15-1","lat":35.696893,"lon":139.4435},{"name":"国立中給水所","province":"東京都","city":"国立市","address":"東京都国立市中3-8-1","lat":35.688163,"lon":139.442608},{"name":"谷保給水所","province":"東京都","city":"国立市","address":"東京都国立市谷保1462-1","lat":35.6779939,"lon":139.440914},{"name":"谷保浄水所","province":"東京都","city":"国立市","address":"東京都国立市谷保1462-1","lat":35.67798226,"lon":139.44087203},{"name":"一橋大学グラウンド","province":"東京都","city":"国立市","address":"東京都国立市中2丁目1","lat":35.69427214,"lon":139.44260462},{"name":"＊?国立市公民館","province":"東京都","city":"国立市","address":"国立市中1-15-1","lat":35.696893,"lon":139.4435},{"name":"国立中給水所","province":"東京都","city":"国立市","address":"東京都国立市中3-8-1","lat":35.688163,"lon":139.442608},{"name":"谷保給水所","province":"東京都","city":"国立市","address":"東京都国立市谷保1462-1","lat":35.6779939,"lon":139.440914},{"name":"谷保浄水所","province":"東京都","city":"国立市","address":"東京都国立市谷保1462-1","lat":35.67798226,"lon":139.44087203},{"name":"一橋大学グラウンド","province":"東京都","city":"国立市","address":"東京都国立市中2丁目1","lat":35.69427214,"lon":139.44260462},{"name":"＊?国立市公民館","province":"東京都","city":"国立市","address":"国立市中1-15-1","lat":35.696893,"lon":139.4435},{"name":"国立中給水所","province":"東京都","city":"国立市","address":"東京都国立市中3-8-1","lat":35.688163,"lon":139.442608},{"name":"谷保給水所","province":"東京都","city":"国立市","address":"東京都国立市谷保1462-1","lat":35.6779939,"lon":139.440914},{"name":"一橋大学グラウンド","province":"東京都","city":"国立市","address":"東京都国立市中2丁目1","lat":35.69427214,"lon":139.44260462},{"name":"＊?国立市公民館","province":"東京都","city":"国立市","address":"国立市中1-15-1","lat":35.696893,"lon":139.4435},{"name":"国立中給水所","province":"東京都","city":"国立市","address":"東京都国立市中3-8-1","lat":35.688163,"lon":139.442608},{"name":"谷保給水所","province":"東京都","city":"国立市","address":"東京都国立市谷保1462-1","lat":35.6779939,"lon":139.440914},{"name":"＊?国立市公民館","province":"東京都","city":"国立市","address":"国立市中1-15-1","lat":35.696893,"lon":139.4435},{"name":"国立中給水所","province":"東京都","city":"国立市","address":"東京都国立市中3-8-1","lat":35.688163,"lon":139.442608},{"name":"谷保給水所","province":"東京都","city":"国立市","address":"東京都国立市谷保1462-1","lat":35.6779939,"lon":139.440914},{"name":"＊?国立市公民館","province":"東京都","city":"国立市","address":"国立市中1-15-1","lat":35.696893,"lon":139.4435},{"name":"国立中給水所","province":"東京都","city":"国立市","address":"東京都国立市中3-8-1","lat":35.688163,"lon":139.442608},{"name":"谷保給水所","province":"東京都","city":"国立市","address":"東京都国立市谷保1462-1","lat":35.6779939,"lon":139.440914},{"name":"＊?国立市公民館","province":"東京都","city":"国立市","address":"国立市中1-15-1","lat":35.696893,"lon":139.4435},{"name":"国立中給水所","province":"東京都","city":"国立市","address":"東京都国立市中3-8-1","lat":35.688163,"lon":139.442608},{"name":"谷保給水所","province":"東京都","city":"国立市","address":"東京都国立市谷保1462-1","lat":35.6779939,"lon":139.440914},{"name":"＊?国立市公民館","province":"東京都","city":"国立市","address":"国立市中1-15-1","lat":35.696893,"lon":139.4435},{"name":"国立中給水所","province":"東京都","city":"国立市","address":"東京都国立市中3-8-1","lat":35.688163,"lon":139.442608},{"name":"谷保給水所","province":"東京都","city":"国立市","address":"東京都国立市谷保1462-1","lat":35.6779939,"lon":139.440914},{"name":"＊?国立市公民館","province":"東京都","city":"国立市","address":"国立市中1-15-1","lat":35.696893,"lon":139.4435},{"name":"国立中給水所","province":"東京都","city":"国立市","address":"東京都国立市中3-8-1","lat":35.688163,"lon":139.442608},{"name":"谷保給水所","province":"東京都","city":"国立市","address":"東京都国立市谷保1462-1","lat":35.6779939,"lon":139.440914},{"name":"＊?国立市公民館","province":"東京都","city":"国立市","address":"国立市中1-15-1","lat":35.696893,"lon":139.4435},{"name":"国立中給水所","province":"東京都","city":"国立市","address":"東京都国立市中3-8-1","lat":35.688163,"lon":139.442608},{"name":"谷保給水所","province":"東京都","city":"国立市","address":"東京都国立市谷保1462-1","lat":35.6779939,"lon":139.440914},{"name":"＊?国立市公民館","province":"東京都","city":"国立市","address":"国立市中1-15-1","lat":35.696893,"lon":139.4435},{"name":"国立中給水所","province":"東京都","city":"国立市","address":"東京都国立市中3-8-1","lat":35.688163,"lon":139.442608},{"name":"谷保給水所","province":"東京都","city":"国立市","address":"東京都国立市谷保1462-1","lat":35.6779939,"lon":139.440914},{"name":"＊?国立市公民館","province":"東京都","city":"国立市","address":"国立市中1-15-1","lat":35.696893,"lon":139.4435},{"name":"国立中給水所","province":"東京都","city":"国立市","address":"東京都国立市中3-8-1","lat":35.688163,"lon":139.442608},{"name":"谷保給水所","province":"東京都","city":"国立市","address":"東京都国立市谷保1462-1","lat":35.6779939,"lon":139.440914},{"name":"＊?国立市公民館","province":"東京都","city":"国立市","address":"国立市中1-15-1","lat":35.696893,"lon":139.4435},{"name":"国立中給水所","province":"東京都","city":"国立市","address":"東京都国立市中3-8-1","lat":35.688163,"lon":139.442608},{"name":"谷保給水所","province":"東京都","city":"国立市","address":"東京都国立市谷保1462-1","lat":35.6779939,"lon":139.440914},{"name":"＊?国立市公民館","province":"東京都","city":"国立市","address":"国立市中1-15-1","lat":35.696893,"lon":139.4435},{"name":"国立中給水所","province":"東京都","city":"国立市","address":"東京都国立市中3-8-1","lat":35.688163,"lon":139.442608},{"name":"谷保給水所","province":"東京都","city":"国立市","address":"東京都国立市谷保1462-1","lat":35.6779939,"lon":139.440914},{"name":"＊?国立市公民館","province":"東京都","city":"国立市","address":"国立市中1-15-1","lat":35.696893,"lon":139.4435},{"name":"国立中給水所","province":"東京都","city":"国立市","address":"東京都国立市中3-8-1","lat":35.688163,"lon":139.442608},{"name":"谷保給水所","province":"東京都","city":"国立市","address":"東京都国立市谷保1462-1","lat":35.6779939,"lon":139.440914},{"name":"＊?国立市公民館","province":"東京都","city":"国立市","address":"国立市中1-15-1","lat":35.696893,"lon":139.4435},{"name":"国立中給水所","province":"東京都","city":"国立市","address":"東京都国立市中3-8-1","lat":35.688163,"lon":139.442608},{"name":"谷保給水所","province":"東京都","city":"国立市","address":"東京都国立市谷保1462-1","lat":35.6779939,"lon":139.440914},{"name":"＊?国立市公民館","province":"東京都","city":"国立市","address":"国立市中1-15-1","lat":35.696893,"lon":139.4435},{"name":"国立中給水所","province":"東京都","city":"国立市","address":"東京都国立市中3-8-1","lat":35.688163,"lon":139.442608},{"name":"谷保給水所","province":"東京都","city":"国立市","address":"東京都国立市谷保1462-1","lat":35.6779939,"lon":139.440914},{"name":"＊?国立市公民館","province":"東京都","city":"国立市","address":"国立市中1-15-1","lat":35.696893,"lon":139.4435},{"name":"国立中給水所","province":"東京都","city":"国立市","address":"東京都国立市中3-8-1","lat":35.688163,"lon":139.442608},{"name":"谷保給水所","province":"東京都","city":"国立市","address":"東京都国立市谷保1462-1","lat":35.6779939,"lon":139.440914},{"name":"＊?国立市公民館","province":"東京都","city":"国立市","address":"国立市中1-15-1","lat":35.696893,"lon":139.4435},{"name":"国立中給水所","province":"東京都","city":"国立市","address":"東京都国立市中3-8-1","lat":35.688163,"lon":139.442608},{"name":"谷保給水所","province":"東京都","city":"国立市","address":"東京都国立市谷保1462-1","lat":35.6779939,"lon":139.440914},{"name":"＊?国立市公民館","province":"東京都","city":"国立市","address":"国立市中1-15-1","lat":35.696893,"lon":139.4435},{"name":"国立中給水所","province":"東京都","city":"国立市","address":"東京都国立市中3-8-1","lat":35.688163,"lon":139.442608},{"name":"谷保給水所","province":"東京都","city":"国立市","address":"東京都国立市谷保1462-1","lat":35.6779939,"lon":139.440914},{"name":"＊?国立市公民館","province":"東京都","city":"国立市","address":"国立市中1-15-1","lat":35.696893,"lon":139.4435},{"name":"国立中給水所","province":"東京都","city":"国立市","address":"東京都国立市中3-8-1","lat":35.688163,"lon":139.442608},{"name":"谷保給水所","province":"東京都","city":"国立市","address":"東京都国立市谷保1462-1","lat":35.6779939,"lon":139.440914},{"name":"＊?国立市公民館","province":"東京都","city":"国立市","address":"国立市中1-15-1","lat":35.696893,"lon":139.4435},{"name":"国立中給水所","province":"東京都","city":"国立市","address":"東京都国立市中3-8-1","lat":35.688163,"lon":139.442608},{"name":"谷保給水所","province":"東京都","city":"国立市","address":"東京都国立市谷保1462-1","lat":35.6779939,"lon":139.440914},{"name":"＊?国立市公民館","province":"東京都","city":"国立市","address":"国立市中1-15-1","lat":35.696893,"lon":139.4435},{"name":"国立中給水所","province":"東京都","city":"国立市","address":"東京都国立市中3-8-1","lat":35.688163,"lon":139.442608},{"name":"谷保給水所","province":"東京都","city":"国立市","address":"東京都国立市谷保1462-1","lat":35.6779939,"lon":139.440914},{"name":"＊?国立市公民館","province":"東京都","city":"国立市","address":"国立市中1-15-1","lat":35.696893,"lon":139.4435},{"name":"国立中給水所","province":"東京都","city":"国立市","address":"東京都国立市中3-8-1","lat":35.688163,"lon":139.442608},{"name":"谷保給水所","province":"東京都","city":"国立市","address":"東京都国立市谷保1462-1","lat":35.6779939,"lon":139.440914},{"name":"＊?国立市公民館","province":"東京都","city":"国立市","address":"国立市中1-15-1","lat":35.696893,"lon":139.4435},{"name":"国立中給水所","province":"東京都","city":"国立市","address":"東京都国立市中3-8-1","lat":35.688163,"lon":139.442608},{"name":"谷保給水所","province":"東京都","city":"国立市","address":"東京都国立市谷保1462-1","lat":35.6779939,"lon":139.440914},{"name":"＊?国立市公民館","province":"東京都","city":"国立市","address":"国立市中1-15-1","lat":35.696893,"lon":139.4435},{"name":"国立中給水所","province":"東京都","city":"国立市","address":"東京都国立市中3-8-1","lat":35.688163,"lon":139.442608},{"name":"谷保給水所","province":"東京都","city":"国立市","address":"東京都国立市谷保1462-1","lat":35.6779939,"lon":139.440914},{"name":"＊?国立市公民館","province":"東京都","city":"国立市","address":"国立市中1-15-1","lat":35.696893,"lon":139.4435},{"name":"国立中給水所","province":"東京都","city":"国立市","address":"東京都国立市中3-8-1","lat":35.688163,"lon":139.442608},{"name":"谷保給水所","province":"東京都","city":"国立市","address":"東京都国立市谷保1462-1","lat":35.6779939,"lon":139.440914},{"name":"＊?国立市公民館","province":"東京都","city":"国立市","address":"国立市中1-15-1","lat":35.696893,"lon":139.4435},{"name":"国立中給水所","province":"東京都","city":"国立市","address":"東京都国立市中3-8-1","lat":35.688163,"lon":139.442608},{"name":"谷保給水所","province":"東京都","city":"国立市","address":"東京都国立市谷保1462-1","lat":35.6779939,"lon":139.440914},{"name":"＊?国立市公民館","province":"東京都","city":"国立市","address":"国立市中1-15-1","lat":35.696893,"lon":139.4435},{"name":"国立中給水所","province":"東京都","city":"国立市","address":"東京都国立市中3-8-1","lat":35.688163,"lon":139.442608},{"name":"谷保給水所","province":"東京都","city":"国立市","address":"東京都国立市谷保1462-1","lat":35.6779939,"lon":139.440914},{"name":"＊?国立市公民館","province":"東京都","city":"国立市","address":"国立市中1-15-1","lat":35.696893,"lon":139.4435},{"name":"国立中給水所","province":"東京都","city":"国立市","address":"東京都国立市中3-8-1","lat":35.688163,"lon":139.442608},{"name":"谷保給水所","province":"東京都","city":"国立市","address":"東京都国立市谷保1462-1","lat":35.6779939,"lon":139.440914},{"name":"＊?国立市公民館","province":"東京都","city":"国立市","address":"国立市中1-15-1","lat":35.696893,"lon":139.4435},{"name":"国立中給水所","province":"東京都","city":"国立市","address":"東京都国立市中3-8-1","lat":35.688163,"lon":139.442608},{"name":"谷保給水所","province":"東京都","city":"国立市","address":"東京都国立市谷保1462-1","lat":35.6779939,"lon":139.440914},{"name":"＊?国立市公民館","province":"東京都","city":"国立市","address":"国立市中1-15-1","lat":35.696893,"lon":139.4435},{"name":"国立中給水所","province":"東京都","city":"国立市","address":"東京都国立市中3-8-1","lat":35.688163,"lon":139.442608},{"name":"谷保給水所","province":"東京都","city":"国立市","address":"東京都国立市谷保1462-1","lat":35.6779939,"lon":139.440914},{"name":"＊?国立市公民館","province":"東京都","city":"国立市","address":"国立市中1-15-1","lat":35.696893,"lon":139.4435},{"name":"国立中給水所","province":"東京都","city":"国立市","address":"東京都国立市中3-8-1","lat":35.688163,"lon":139.442608},{"name":"谷保給水所","province":"東京都","city":"国立市","address":"東京都国立市谷保1462-1","lat":35.6779939,"lon":139.440914},{"name":"＊?国立市公民館","province":"東京都","city":"国立市","address":"国立市中1-15-1","lat":35.696893,"lon":139.4435},{"name":"国立中給水所","province":"東京都","city":"国立市","address":"東京都国立市中3-8-1","lat":35.688163,"lon":139.442608},{"name":"谷保給水所","province":"東京都","city":"国立市","address":"東京都国立市谷保1462-1","lat":35.6779939,"lon":139.440914},{"name":"＊?国立市公民館","province":"東京都","city":"国立市","address":"国立市中1-15-1","lat":35.696893,"lon":139.4435},{"name":"国立中給水所","province":"東京都","city":"国立市","address":"東京都国立市中3-8-1","lat":35.688163,"lon":139.442608},{"name":"谷保給水所","province":"東京都","city":"国立市","address":"東京都国立市谷保1462-1","lat":35.6779939,"lon":139.440914},{"name":"＊?国立市公民館","province":"東京都","city":"国立市","address":"国立市中1-15-1","lat":35.696893,"lon":139.4435},{"name":"国立中給水所","province":"東京都","city":"国立市","address":"東京都国立市中3-8-1","lat":35.688163,"lon":139.442608},{"name":"谷保給水所","province":"東京都","city":"国立市","address":"東京都国立市谷保1462-1","lat":35.6779939,"lon":139.440914},{"name":"＊?国立市公民館","province":"東京都","city":"国立市","address":"国立市中1-15-1","lat":35.696893,"lon":139.4435},{"name":"国立中給水所","province":"東京都","city":"国立市","address":"東京都国立市中3-8-1","lat":35.688163,"lon":139.442608},{"name":"谷保給水所","province":"東京都","city":"国立市","address":"東京都国立市谷保1462-1","lat":35.6779939,"lon":139.440914},{"name":"＊?国立市公民館","province":"東京都","city":"国立市","address":"国立市中1-15-1","lat":35.696893,"lon":139.4435},{"name":"国立中給水所","province":"東京都","city":"国立市","address":"東京都国立市中3-8-1","lat":35.688163,"lon":139.442608},{"name":"谷保給水所","province":"東京都","city":"国立市","address":"東京都国立市谷保1462-1","lat":35.6779939,"lon":139.440914},{"name":"＊?国立市公民館","province":"東京都","city":"国立市","address":"国立市中1-15-1","lat":35.696893,"lon":139.4435},{"name":"国立中給水所","province":"東京都","city":"国立市","address":"東京都国立市中3-8-1","lat":35.688163,"lon":139.442608},{"name":"谷保給水所","province":"東京都","city":"国立市","address":"東京都国立市谷保1462-1","lat":35.6779939,"lon":139.440914},{"name":"＊?国立市公民館","province":"東京都","city":"国立市","address":"国立市中1-15-1","lat":35.696893,"lon":139.4435},{"name":"国立中給水所","province":"東京都","city":"国立市","address":"東京都国立市中3-8-1","lat":35.688163,"lon":139.442608},{"name":"谷保給水所","province":"東京都","city":"国立市","address":"東京都国立市谷保1462-1","lat":35.6779939,"lon":139.440914},{"name":"＊?国立市公民館","province":"東京都","city":"国立市","address":"国立市中1-15-1","lat":35.696893,"lon":139.4435},{"name":"国立中給水所","province":"東京都","city":"国立市","address":"東京都国立市中3-8-1","lat":35.688163,"lon":139.442608},{"name":"谷保給水所","province":"東京都","city":"国立市","address":"東京都国立市谷保1462-1","lat":35.6779939,"lon":139.440914},{"name":"＊?国立市公民館","province":"東京都","city":"国立市","address":"国立市中1-15-1","lat":35.696893,"lon":139.4435},{"name":"国立中給水所","province":"東京都","city":"国立市","address":"東京都国立市中3-8-1","lat":35.688163,"lon":139.442608},{"name":"谷保給水所","province":"東京都","city":"国立市","address":"東京都国立市谷保1462-1","lat":35.6779939,"lon":139.440914},{"name":"＊?国立市公民館","province":"東京都","city":"国立市","address":"国立市中1-15-1","lat":35.696893,"lon":139.4435},{"name":"国立中給水所","province":"東京都","city":"国立市","address":"東京都国立市中3-8-1","lat":35.688163,"lon":139.442608},{"name":"谷保給水所","province":"東京都","city":"国立市","address":"東京都国立市谷保1462-1","lat":35.6779939,"lon":139.440914},{"name":"＊?国立市公民館","province":"東京都","city":"国立市","address":"国立市中1-15-1","lat":35.696893,"lon":139.4435},{"name":"国立中給水所","province":"東京都","city":"国立市","address":"東京都国立市中3-8-1","lat":35.688163,"lon":139.442608},{"name":"谷保給水所","province":"東京都","city":"国立市","address":"東京都国立市谷保1462-1","lat":35.6779939,"lon":139.440914},{"name":"＊?国立市公民館","province":"東京都","city":"国立市","address":"国立市中1-15-1","lat":35.696893,"lon":139.4435}]}