{"keyword":"命令","data":[{"name":"国立保育園","province":"東京都","city":"国立市","address":"国立市北2丁目30番の1","lat":35.70104,"lon":139.43452},{"name":"きたひだまり保育園","province":"東京都","city":"国立市","address":"国立市北3-42-1","lat":35.70153,"lon":139.4296},{"name":"国立ひまわり保育園","province":"東京都","city":"国立市","address":"国立市北3-7-14","lat":35.6993,"lon":139.43045},{"name":"北保育園","province":"東京都","city":"国立市","address":"国立市北3丁目1番地の1","lat":35.69912,"lon":139.43164},{"name":"あいわ保育園","province":"東京都","city":"国立市","address":"国立市東2丁目25番地の1","lat":35.69101,"lon":139.44786},{"name":"和光保育園","province":"東京都","city":"国立市","address":"国立市東2丁目2番地の1","lat":35.69591,"lon":139.45076},{"name":"国立市立東保育園","province":"東京都","city":"国立市","address":"国立市富士見台1丁目45番地の17","lat":35.68218,"lon":139.4512},{"name":"国立たいよう保育園","province":"東京都","city":"国立市","address":"国立市富士見台2-13-10","lat":35.68321,"lon":139.44632},{"name":"国立市立なかよし保育園","province":"東京都","city":"国立市","address":"国立市富士見台2丁目46番地","lat":35.68516,"lon":139.44183},{"name":"認定こども園国立富士見台団地風の子","province":"東京都","city":"国立市","address":"国立市富士見台3-7-1","lat":35.6849204,"lon":139.4395509},{"name":"こぐまこどものいえ","province":"東京都","city":"国立市","address":"国立市富士見台3丁目35番地の15","lat":35.68515,"lon":139.43356},{"name":"国立市立西保育園","province":"東京都","city":"国立市","address":"国立市富士見台3丁目45番地の1","lat":35.68905,"lon":139.4342},{"name":"矢川保育園","province":"東京都","city":"国立市","address":"国立市富士見台4丁目17番地の64","lat":35.68743,"lon":139.42685},{"name":"さくらっこ保育園","province":"東京都","city":"国立市","address":"国立市中1-16-25シャトレクインテスビル2F","lat":35.69709,"lon":139.44514},{"name":"国立クムクム保育園","province":"東京都","city":"国立市","address":"国立市中2-18-2","lat":35.69167,"lon":139.44559},{"name":"春光保育園","province":"東京都","city":"国立市","address":"国立市西2丁目14番地の1","lat":35.6943,"lon":139.43251},{"name":"向陽保育園","province":"東京都","city":"国立市","address":"国立市谷保6746番地","lat":35.68467,"lon":139.42892},{"name":"国立あおいとり保育園","province":"東京都","city":"国立市","address":"国立市泉5丁目2番地の1","lat":35.67921,"lon":139.42873},{"name":"国立あゆみ保育園","province":"東京都","city":"国立市","address":"国立市矢川3丁目20番地の24","lat":35.68165,"lon":139.43045},{"name":"国立市立矢川保育園","province":"東京都","city":"国立市","address":"国立市谷保6800-2","lat":35.68364,"lon":139.42963},{"name":"国立あゆみ保育園","province":"東京都","city":"国立市","address":"国立市矢川3-20-24","lat":35.68162,"lon":139.430331},{"name":"国立あおいとり保育園","province":"東京都","city":"国立市","address":"国立市泉5-2-1","lat":35.6792,"lon":139.42868},{"name":"国立保育園","province":"東京都","city":"国立市","address":"国立市北2-30-1","lat":35.70104,"lon":139.43453},{"name":"さくらっこ保育園","province":"東京都","city":"国立市","address":"国立市中1-16-25シャトレクインテスビル2F","lat":35.69709,"lon":139.44515},{"name":"向陽保育園","province":"東京都","city":"国立市","address":"国立市谷保6746","lat":35.68467,"lon":139.42893},{"name":"きたひだまり保育園","province":"東京都","city":"国立市","address":"国立市北3-42-1","lat":35.69912,"lon":139.43164},{"name":"国立あゆみ保育園","province":"東京都","city":"国立市","address":"国立市矢川3丁目20番地の24","lat":35.68147,"lon":139.42723},{"name":"くにたち市民総合体育館","province":"東京都","city":"国立市","address":"東京都国立市富士見台2丁目48","lat":35.68475647,"lon":139.4401274},{"name":"国立市本庁舎","province":"東京都","city":"国立市","address":"国立市富士見台2-47-1","lat":35.683913,"lon":139.441366},{"name":"一橋大学グラウンド","province":"東京都","city":"国立市","address":"国立市中2-1","lat":35.69427,"lon":139.4426},{"name":"国立保育園","province":"東京都","city":"国立市","address":"国立市北2丁目30番の1","lat":35.70104,"lon":139.43452},{"name":"きたひだまり保育園","province":"東京都","city":"国立市","address":"国立市北3-42-1","lat":35.70153,"lon":139.4296},{"name":"国立ひまわり保育園","province":"東京都","city":"国立市","address":"国立市北3-7-14","lat":35.6993,"lon":139.43045},{"name":"北保育園","province":"東京都","city":"国立市","address":"国立市北3丁目1番地の1","lat":35.69912,"lon":139.43164},{"name":"あいわ保育園","province":"東京都","city":"国立市","address":"国立市東2丁目25番地の1","lat":35.69101,"lon":139.44786},{"name":"和光保育園","province":"東京都","city":"国立市","address":"国立市東2丁目2番地の1","lat":35.69591,"lon":139.45076},{"name":"国立市立東保育園","province":"東京都","city":"国立市","address":"国立市富士見台1丁目45番地の17","lat":35.68218,"lon":139.4512},{"name":"国立たいよう保育園","province":"東京都","city":"国立市","address":"国立市富士見台2-13-10","lat":35.68321,"lon":139.44632},{"name":"国立市立なかよし保育園","province":"東京都","city":"国立市","address":"国立市富士見台2丁目46番地","lat":35.68516,"lon":139.44183},{"name":"認定こども園国立富士見台団地風の子","province":"東京都","city":"国立市","address":"国立市富士見台3-7-1","lat":35.6849204,"lon":139.4395509},{"name":"こぐまこどものいえ","province":"東京都","city":"国立市","address":"国立市富士見台3丁目35番地の15","lat":35.68515,"lon":139.43356},{"name":"国立市立西保育園","province":"東京都","city":"国立市","address":"国立市富士見台3丁目45番地の1","lat":35.68905,"lon":139.4342},{"name":"矢川保育園","province":"東京都","city":"国立市","address":"国立市富士見台4丁目17番地の64","lat":35.68743,"lon":139.42685},{"name":"さくらっこ保育園","province":"東京都","city":"国立市","address":"国立市中1-16-25シャトレクインテスビル2F","lat":35.69709,"lon":139.44514},{"name":"国立クムクム保育園","province":"東京都","city":"国立市","address":"国立市中2-18-2","lat":35.69167,"lon":139.44559},{"name":"春光保育園","province":"東京都","city":"国立市","address":"国立市西2丁目14番地の1","lat":35.6943,"lon":139.43251},{"name":"向陽保育園","province":"東京都","city":"国立市","address":"国立市谷保6746番地","lat":35.68467,"lon":139.42892},{"name":"国立あおいとり保育園","province":"東京都","city":"国立市","address":"国立市泉5丁目2番地の1","lat":35.67921,"lon":139.42873},{"name":"国立あゆみ保育園","province":"東京都","city":"国立市","address":"国立市矢川3丁目20番地の24","lat":35.68165,"lon":139.43045},{"name":"国立市立矢川保育園","province":"東京都","city":"国立市","address":"国立市谷保6800-2","lat":35.68364,"lon":139.42963},{"name":"国立あゆみ保育園","province":"東京都","city":"国立市","address":"国立市矢川3-20-24","lat":35.68162,"lon":139.430331},{"name":"国立あおいとり保育園","province":"東京都","city":"国立市","address":"国立市泉5-2-1","lat":35.6792,"lon":139.42868},{"name":"国立保育園","province":"東京都","city":"国立市","address":"国立市北2-30-1","lat":35.70104,"lon":139.43453},{"name":"さくらっこ保育園","province":"東京都","city":"国立市","address":"国立市中1-16-25シャトレクインテスビル2F","lat":35.69709,"lon":139.44515},{"name":"向陽保育園","province":"東京都","city":"国立市","address":"国立市谷保6746","lat":35.68467,"lon":139.42893},{"name":"きたひだまり保育園","province":"東京都","city":"国立市","address":"国立市北3-42-1","lat":35.69912,"lon":139.43164},{"name":"国立あゆみ保育園","province":"東京都","city":"国立市","address":"国立市矢川3丁目20番地の24","lat":35.68147,"lon":139.42723},{"name":"くにたち市民総合体育館","province":"東京都","city":"国立市","address":"東京都国立市富士見台2丁目48","lat":35.68475647,"lon":139.4401274},{"name":"国立市本庁舎","province":"東京都","city":"国立市","address":"国立市富士見台2-47-1","lat":35.683913,"lon":139.441366},{"name":"一橋大学グラウンド","province":"東京都","city":"国立市","address":"国立市中2-1","lat":35.69427,"lon":139.4426},{"name":"国立保育園","province":"東京都","city":"国立市","address":"国立市北2丁目30番の1","lat":35.70104,"lon":139.43452},{"name":"きたひだまり保育園","province":"東京都","city":"国立市","address":"国立市北3-42-1","lat":35.70153,"lon":139.4296},{"name":"国立ひまわり保育園","province":"東京都","city":"国立市","address":"国立市北3-7-14","lat":35.6993,"lon":139.43045},{"name":"北保育園","province":"東京都","city":"国立市","address":"国立市北3丁目1番地の1","lat":35.69912,"lon":139.43164},{"name":"あいわ保育園","province":"東京都","city":"国立市","address":"国立市東2丁目25番地の1","lat":35.69101,"lon":139.44786},{"name":"和光保育園","province":"東京都","city":"国立市","address":"国立市東2丁目2番地の1","lat":35.69591,"lon":139.45076},{"name":"国立市立東保育園","province":"東京都","city":"国立市","address":"国立市富士見台1丁目45番地の17","lat":35.68218,"lon":139.4512},{"name":"国立たいよう保育園","province":"東京都","city":"国立市","address":"国立市富士見台2-13-10","lat":35.68321,"lon":139.44632},{"name":"国立市立なかよし保育園","province":"東京都","city":"国立市","address":"国立市富士見台2丁目46番地","lat":35.68516,"lon":139.44183},{"name":"認定こども園国立富士見台団地風の子","province":"東京都","city":"国立市","address":"国立市富士見台3-7-1","lat":35.6849204,"lon":139.4395509},{"name":"こぐまこどものいえ","province":"東京都","city":"国立市","address":"国立市富士見台3丁目35番地の15","lat":35.68515,"lon":139.43356},{"name":"国立市立西保育園","province":"東京都","city":"国立市","address":"国立市富士見台3丁目45番地の1","lat":35.68905,"lon":139.4342},{"name":"矢川保育園","province":"東京都","city":"国立市","address":"国立市富士見台4丁目17番地の64","lat":35.68743,"lon":139.42685},{"name":"さくらっこ保育園","province":"東京都","city":"国立市","address":"国立市中1-16-25シャトレクインテスビル2F","lat":35.69709,"lon":139.44514},{"name":"国立クムクム保育園","province":"東京都","city":"国立市","address":"国立市中2-18-2","lat":35.69167,"lon":139.44559},{"name":"春光保育園","province":"東京都","city":"国立市","address":"国立市西2丁目14番地の1","lat":35.6943,"lon":139.43251},{"name":"向陽保育園","province":"東京都","city":"国立市","address":"国立市谷保6746番地","lat":35.68467,"lon":139.42892},{"name":"国立あおいとり保育園","province":"東京都","city":"国立市","address":"国立市泉5丁目2番地の1","lat":35.67921,"lon":139.42873},{"name":"国立あゆみ保育園","province":"東京都","city":"国立市","address":"国立市矢川3丁目20番地の24","lat":35.68165,"lon":139.43045},{"name":"国立市立矢川保育園","province":"東京都","city":"国立市","address":"国立市谷保6800-2","lat":35.68364,"lon":139.42963},{"name":"国立あゆみ保育園","province":"東京都","city":"国立市","address":"国立市矢川3-20-24","lat":35.68162,"lon":139.430331},{"name":"国立あおいとり保育園","province":"東京都","city":"国立市","address":"国立市泉5-2-1","lat":35.6792,"lon":139.42868},{"name":"国立保育園","province":"東京都","city":"国立市","address":"国立市北2-30-1","lat":35.70104,"lon":139.43453},{"name":"さくらっこ保育園","province":"東京都","city":"国立市","address":"国立市中1-16-25シャトレクインテスビル2F","lat":35.69709,"lon":139.44515},{"name":"向陽保育園","province":"東京都","city":"国立市","address":"国立市谷保6746","lat":35.68467,"lon":139.42893},{"name":"きたひだまり保育園","province":"東京都","city":"国立市","address":"国立市北3-42-1","lat":35.69912,"lon":139.43164},{"name":"国立あゆみ保育園","province":"東京都","city":"国立市","address":"国立市矢川3丁目20番地の24","lat":35.68147,"lon":139.42723},{"name":"国立保育園","province":"東京都","city":"国立市","address":"国立市北2丁目30番の1","lat":35.70104,"lon":139.43452},{"name":"きたひだまり保育園","province":"東京都","city":"国立市","address":"国立市北3-42-1","lat":35.70153,"lon":139.4296},{"name":"国立ひまわり保育園","province":"東京都","city":"国立市","address":"国立市北3-7-14","lat":35.6993,"lon":139.43045},{"name":"北保育園","province":"東京都","city":"国立市","address":"国立市北3丁目1番地の1","lat":35.69912,"lon":139.43164},{"name":"あいわ保育園","province":"東京都","city":"国立市","address":"国立市東2丁目25番地の1","lat":35.69101,"lon":139.44786},{"name":"和光保育園","province":"東京都","city":"国立市","address":"国立市東2丁目2番地の1","lat":35.69591,"lon":139.45076},{"name":"国立市立東保育園","province":"東京都","city":"国立市","address":"国立市富士見台1丁目45番地の17","lat":35.68218,"lon":139.4512},{"name":"国立たいよう保育園","province":"東京都","city":"国立市","address":"国立市富士見台2-13-10","lat":35.68321,"lon":139.44632},{"name":"国立市立なかよし保育園","province":"東京都","city":"国立市","address":"国立市富士見台2丁目46番地","lat":35.68516,"lon":139.44183},{"name":"認定こども園国立富士見台団地風の子","province":"東京都","city":"国立市","address":"国立市富士見台3-7-1","lat":35.6849204,"lon":139.4395509},{"name":"こぐまこどものいえ","province":"東京都","city":"国立市","address":"国立市富士見台3丁目35番地の15","lat":35.68515,"lon":139.43356},{"name":"国立市立西保育園","province":"東京都","city":"国立市","address":"国立市富士見台3丁目45番地の1","lat":35.68905,"lon":139.4342},{"name":"矢川保育園","province":"東京都","city":"国立市","address":"国立市富士見台4丁目17番地の64","lat":35.68743,"lon":139.42685},{"name":"さくらっこ保育園","province":"東京都","city":"国立市","address":"国立市中1-16-25シャトレクインテスビル2F","lat":35.69709,"lon":139.44514},{"name":"国立クムクム保育園","province":"東京都","city":"国立市","address":"国立市中2-18-2","lat":35.69167,"lon":139.44559},{"name":"春光保育園","province":"東京都","city":"国立市","address":"国立市西2丁目14番地の1","lat":35.6943,"lon":139.43251},{"name":"向陽保育園","province":"東京都","city":"国立市","address":"国立市谷保6746番地","lat":35.68467,"lon":139.42892},{"name":"国立あおいとり保育園","province":"東京都","city":"国立市","address":"国立市泉5丁目2番地の1","lat":35.67921,"lon":139.42873},{"name":"国立あゆみ保育園","province":"東京都","city":"国立市","address":"国立市矢川3丁目20番地の24","lat":35.68165,"lon":139.43045},{"name":"国立市立矢川保育園","province":"東京都","city":"国立市","address":"国立市谷保6800-2","lat":35.68364,"lon":139.42963},{"name":"国立あゆみ保育園","province":"東京都","city":"国立市","address":"国立市矢川3-20-24","lat":35.68162,"lon":139.430331},{"name":"国立あおいとり保育園","province":"東京都","city":"国立市","address":"国立市泉5-2-1","lat":35.6792,"lon":139.42868},{"name":"国立保育園","province":"東京都","city":"国立市","address":"国立市北2-30-1","lat":35.70104,"lon":139.43453},{"name":"さくらっこ保育園","province":"東京都","city":"国立市","address":"国立市中1-16-25シャトレクインテスビル2F","lat":35.69709,"lon":139.44515},{"name":"向陽保育園","province":"東京都","city":"国立市","address":"国立市谷保6746","lat":35.68467,"lon":139.42893},{"name":"きたひだまり保育園","province":"東京都","city":"国立市","address":"国立市北3-42-1","lat":35.69912,"lon":139.43164},{"name":"国立あゆみ保育園","province":"東京都","city":"国立市","address":"国立市矢川3丁目20番地の24","lat":35.68147,"lon":139.42723},{"name":"国立保育園","province":"東京都","city":"国立市","address":"国立市北2丁目30番の1","lat":35.70104,"lon":139.43452},{"name":"きたひだまり保育園","province":"東京都","city":"国立市","address":"国立市北3-42-1","lat":35.70153,"lon":139.4296},{"name":"国立ひまわり保育園","province":"東京都","city":"国立市","address":"国立市北3-7-14","lat":35.6993,"lon":139.43045},{"name":"北保育園","province":"東京都","city":"国立市","address":"国立市北3丁目1番地の1","lat":35.69912,"lon":139.43164},{"name":"あいわ保育園","province":"東京都","city":"国立市","address":"国立市東2丁目25番地の1","lat":35.69101,"lon":139.44786},{"name":"和光保育園","province":"東京都","city":"国立市","address":"国立市東2丁目2番地の1","lat":35.69591,"lon":139.45076},{"name":"国立市立東保育園","province":"東京都","city":"国立市","address":"国立市富士見台1丁目45番地の17","lat":35.68218,"lon":139.4512},{"name":"国立たいよう保育園","province":"東京都","city":"国立市","address":"国立市富士見台2-13-10","lat":35.68321,"lon":139.44632},{"name":"国立市立なかよし保育園","province":"東京都","city":"国立市","address":"国立市富士見台2丁目46番地","lat":35.68516,"lon":139.44183},{"name":"認定こども園国立富士見台団地風の子","province":"東京都","city":"国立市","address":"国立市富士見台3-7-1","lat":35.6849204,"lon":139.4395509},{"name":"こぐまこどものいえ","province":"東京都","city":"国立市","address":"国立市富士見台3丁目35番地の15","lat":35.68515,"lon":139.43356},{"name":"国立市立西保育園","province":"東京都","city":"国立市","address":"国立市富士見台3丁目45番地の1","lat":35.68905,"lon":139.4342},{"name":"矢川保育園","province":"東京都","city":"国立市","address":"国立市富士見台4丁目17番地の64","lat":35.68743,"lon":139.42685},{"name":"さくらっこ保育園","province":"東京都","city":"国立市","address":"国立市中1-16-25シャトレクインテスビル2F","lat":35.69709,"lon":139.44514},{"name":"国立クムクム保育園","province":"東京都","city":"国立市","address":"国立市中2-18-2","lat":35.69167,"lon":139.44559},{"name":"春光保育園","province":"東京都","city":"国立市","address":"国立市西2丁目14番地の1","lat":35.6943,"lon":139.43251},{"name":"向陽保育園","province":"東京都","city":"国立市","address":"国立市谷保6746番地","lat":35.68467,"lon":139.42892},{"name":"国立あおいとり保育園","province":"東京都","city":"国立市","address":"国立市泉5丁目2番地の1","lat":35.67921,"lon":139.42873},{"name":"国立あゆみ保育園","province":"東京都","city":"国立市","address":"国立市矢川3丁目20番地の24","lat":35.68165,"lon":139.43045},{"name":"国立市立矢川保育園","province":"東京都","city":"国立市","address":"国立市谷保6800-2","lat":35.68364,"lon":139.42963},{"name":"国立あゆみ保育園","province":"東京都","city":"国立市","address":"国立市矢川3-20-24","lat":35.68162,"lon":139.430331},{"name":"国立あおいとり保育園","province":"東京都","city":"国立市","address":"国立市泉5-2-1","lat":35.6792,"lon":139.42868},{"name":"国立保育園","province":"東京都","city":"国立市","address":"国立市北2-30-1","lat":35.70104,"lon":139.43453},{"name":"さくらっこ保育園","province":"東京都","city":"国立市","address":"国立市中1-16-25シャトレクインテスビル2F","lat":35.69709,"lon":139.44515},{"name":"向陽保育園","province":"東京都","city":"国立市","address":"国立市谷保6746","lat":35.68467,"lon":139.42893},{"name":"きたひだまり保育園","province":"東京都","city":"国立市","address":"国立市北3-42-1","lat":35.69912,"lon":139.43164},{"name":"国立あゆみ保育園","province":"東京都","city":"国立市","address":"国立市矢川3丁目20番地の24","lat":35.68147,"lon":139.42723},{"name":"国立保育園","province":"東京都","city":"国立市","address":"国立市北2丁目30番の1","lat":35.70104,"lon":139.43452},{"name":"きたひだまり保育園","province":"東京都","city":"国立市","address":"国立市北3-42-1","lat":35.70153,"lon":139.4296},{"name":"国立ひまわり保育園","province":"東京都","city":"国立市","address":"国立市北3-7-14","lat":35.6993,"lon":139.43045},{"name":"北保育園","province":"東京都","city":"国立市","address":"国立市北3丁目1番地の1","lat":35.69912,"lon":139.43164},{"name":"あいわ保育園","province":"東京都","city":"国立市","address":"国立市東2丁目25番地の1","lat":35.69101,"lon":139.44786},{"name":"和光保育園","province":"東京都","city":"国立市","address":"国立市東2丁目2番地の1","lat":35.69591,"lon":139.45076},{"name":"国立市立東保育園","province":"東京都","city":"国立市","address":"国立市富士見台1丁目45番地の17","lat":35.68218,"lon":139.4512},{"name":"国立たいよう保育園","province":"東京都","city":"国立市","address":"国立市富士見台2-13-10","lat":35.68321,"lon":139.44632},{"name":"国立市立なかよし保育園","province":"東京都","city":"国立市","address":"国立市富士見台2丁目46番地","lat":35.68516,"lon":139.44183},{"name":"認定こども園国立富士見台団地風の子","province":"東京都","city":"国立市","address":"国立市富士見台3-7-1","lat":35.6849204,"lon":139.4395509},{"name":"こぐまこどものいえ","province":"東京都","city":"国立市","address":"国立市富士見台3丁目35番地の15","lat":35.68515,"lon":139.43356},{"name":"国立市立西保育園","province":"東京都","city":"国立市","address":"国立市富士見台3丁目45番地の1","lat":35.68905,"lon":139.4342},{"name":"矢川保育園","province":"東京都","city":"国立市","address":"国立市富士見台4丁目17番地の64","lat":35.68743,"lon":139.42685},{"name":"さくらっこ保育園","province":"東京都","city":"国立市","address":"国立市中1-16-25シャトレクインテスビル2F","lat":35.69709,"lon":139.44514},{"name":"国立クムクム保育園","province":"東京都","city":"国立市","address":"国立市中2-18-2","lat":35.69167,"lon":139.44559},{"name":"春光保育園","province":"東京都","city":"国立市","address":"国立市西2丁目14番地の1","lat":35.6943,"lon":139.43251},{"name":"向陽保育園","province":"東京都","city":"国立市","address":"国立市谷保6746番地","lat":35.68467,"lon":139.42892},{"name":"国立あおいとり保育園","province":"東京都","city":"国立市","address":"国立市泉5丁目2番地の1","lat":35.67921,"lon":139.42873},{"name":"国立あゆみ保育園","province":"東京都","city":"国立市","address":"国立市矢川3丁目20番地の24","lat":35.68165,"lon":139.43045},{"name":"国立市立矢川保育園","province":"東京都","city":"国立市","address":"国立市谷保6800-2","lat":35.68364,"lon":139.42963},{"name":"国立あゆみ保育園","province":"東京都","city":"国立市","address":"国立市矢川3-20-24","lat":35.68162,"lon":139.430331},{"name":"国立あおいとり保育園","province":"東京都","city":"国立市","address":"国立市泉5-2-1","lat":35.6792,"lon":139.42868},{"name":"国立保育園","province":"東京都","city":"国立市","address":"国立市北2-30-1","lat":35.70104,"lon":139.43453},{"name":"さくらっこ保育園","province":"東京都","city":"国立市","address":"国立市中1-16-25シャトレクインテスビル2F","lat":35.69709,"lon":139.44515},{"name":"向陽保育園","province":"東京都","city":"国立市","address":"国立市谷保6746","lat":35.68467,"lon":139.42893},{"name":"きたひだまり保育園","province":"東京都","city":"国立市","address":"国立市北3-42-1","lat":35.69912,"lon":139.43164},{"name":"国立あゆみ保育園","province":"東京都","city":"国立市","address":"国立市矢川3丁目20番地の24","lat":35.68147,"lon":139.42723},{"name":"国立保育園","province":"東京都","city":"国立市","address":"国立市北2丁目30番の1","lat":35.70104,"lon":139.43452},{"name":"きたひだまり保育園","province":"東京都","city":"国立市","address":"国立市北3-42-1","lat":35.70153,"lon":139.4296},{"name":"国立ひまわり保育園","province":"東京都","city":"国立市","address":"国立市北3-7-14","lat":35.6993,"lon":139.43045},{"name":"北保育園","province":"東京都","city":"国立市","address":"国立市北3丁目1番地の1","lat":35.69912,"lon":139.43164},{"name":"あいわ保育園","province":"東京都","city":"国立市","address":"国立市東2丁目25番地の1","lat":35.69101,"lon":139.44786},{"name":"和光保育園","province":"東京都","city":"国立市","address":"国立市東2丁目2番地の1","lat":35.69591,"lon":139.45076},{"name":"国立市立東保育園","province":"東京都","city":"国立市","address":"国立市富士見台1丁目45番地の17","lat":35.68218,"lon":139.4512},{"name":"国立たいよう保育園","province":"東京都","city":"国立市","address":"国立市富士見台2-13-10","lat":35.68321,"lon":139.44632},{"name":"国立市立なかよし保育園","province":"東京都","city":"国立市","address":"国立市富士見台2丁目46番地","lat":35.68516,"lon":139.44183},{"name":"認定こども園国立富士見台団地風の子","province":"東京都","city":"国立市","address":"国立市富士見台3-7-1","lat":35.6849204,"lon":139.4395509},{"name":"こぐまこどものいえ","province":"東京都","city":"国立市","address":"国立市富士見台3丁目35番地の15","lat":35.68515,"lon":139.43356},{"name":"国立市立西保育園","province":"東京都","city":"国立市","address":"国立市富士見台3丁目45番地の1","lat":35.68905,"lon":139.4342},{"name":"矢川保育園","province":"東京都","city":"国立市","address":"国立市富士見台4丁目17番地の64","lat":35.68743,"lon":139.42685},{"name":"さくらっこ保育園","province":"東京都","city":"国立市","address":"国立市中1-16-25シャトレクインテスビル2F","lat":35.69709,"lon":139.44514},{"name":"国立クムクム保育園","province":"東京都","city":"国立市","address":"国立市中2-18-2","lat":35.69167,"lon":139.44559},{"name":"春光保育園","province":"東京都","city":"国立市","address":"国立市西2丁目14番地の1","lat":35.6943,"lon":139.43251},{"name":"向陽保育園","province":"東京都","city":"国立市","address":"国立市谷保6746番地","lat":35.68467,"lon":139.42892},{"name":"国立あおいとり保育園","province":"東京都","city":"国立市","address":"国立市泉5丁目2番地の1","lat":35.67921,"lon":139.42873},{"name":"国立あゆみ保育園","province":"東京都","city":"国立市","address":"国立市矢川3丁目20番地の24","lat":35.68165,"lon":139.43045},{"name":"国立市立矢川保育園","province":"東京都","city":"国立市","address":"国立市谷保6800-2","lat":35.68364,"lon":139.42963},{"name":"国立あゆみ保育園","province":"東京都","city":"国立市","address":"国立市矢川3-20-24","lat":35.68162,"lon":139.430331},{"name":"国立あおいとり保育園","province":"東京都","city":"国立市","address":"国立市泉5-2-1","lat":35.6792,"lon":139.42868},{"name":"国立保育園","province":"東京都","city":"国立市","address":"国立市北2-30-1","lat":35.70104,"lon":139.43453},{"name":"さくらっこ保育園","province":"東京都","city":"国立市","address":"国立市中1-16-25シャトレクインテスビル2F","lat":35.69709,"lon":139.44515},{"name":"向陽保育園","province":"東京都","city":"国立市","address":"国立市谷保6746","lat":35.68467,"lon":139.42893},{"name":"きたひだまり保育園","province":"東京都","city":"国立市","address":"国立市北3-42-1","lat":35.69912,"lon":139.43164},{"name":"国立あゆみ保育園","province":"東京都","city":"国立市","address":"国立市矢川3丁目20番地の24","lat":35.68147,"lon":139.42723},{"name":"国立保育園","province":"東京都","city":"国立市","address":"国立市北2丁目30番の1","lat":35.70104,"lon":139.43452},{"name":"きたひだまり保育園","province":"東京都","city":"国立市","address":"国立市北3-42-1","lat":35.70153,"lon":139.4296},{"name":"国立ひまわり保育園","province":"東京都","city":"国立市","address":"国立市北3-7-14","lat":35.6993,"lon":139.43045},{"name":"北保育園","province":"東京都","city":"国立市","address":"国立市北3丁目1番地の1","lat":35.69912,"lon":139.43164},{"name":"あいわ保育園","province":"東京都","city":"国立市","address":"国立市東2丁目25番地の1","lat":35.69101,"lon":139.44786},{"name":"和光保育園","province":"東京都","city":"国立市","address":"国立市東2丁目2番地の1","lat":35.69591,"lon":139.45076},{"name":"国立市立東保育園","province":"東京都","city":"国立市","address":"国立市富士見台1丁目45番地の17","lat":35.68218,"lon":139.4512},{"name":"国立たいよう保育園","province":"東京都","city":"国立市","address":"国立市富士見台2-13-10","lat":35.68321,"lon":139.44632},{"name":"国立市立なかよし保育園","province":"東京都","city":"国立市","address":"国立市富士見台2丁目46番地","lat":35.68516,"lon":139.44183},{"name":"認定こども園国立富士見台団地風の子","province":"東京都","city":"国立市","address":"国立市富士見台3-7-1","lat":35.6849204,"lon":139.4395509},{"name":"こぐまこどものいえ","province":"東京都","city":"国立市","address":"国立市富士見台3丁目35番地の15","lat":35.68515,"lon":139.43356},{"name":"国立市立西保育園","province":"東京都","city":"国立市","address":"国立市富士見台3丁目45番地の1","lat":35.68905,"lon":139.4342},{"name":"矢川保育園","province":"東京都","city":"国立市","address":"国立市富士見台4丁目17番地の64","lat":35.68743,"lon":139.42685},{"name":"さくらっこ保育園","province":"東京都","city":"国立市","address":"国立市中1-16-25シャトレクインテスビル2F","lat":35.69709,"lon":139.44514},{"name":"国立クムクム保育園","province":"東京都","city":"国立市","address":"国立市中2-18-2","lat":35.69167,"lon":139.44559},{"name":"春光保育園","province":"東京都","city":"国立市","address":"国立市西2丁目14番地の1","lat":35.6943,"lon":139.43251},{"name":"向陽保育園","province":"東京都","city":"国立市","address":"国立市谷保6746番地","lat":35.68467,"lon":139.42892},{"name":"国立あおいとり保育園","province":"東京都","city":"国立市","address":"国立市泉5丁目2番地の1","lat":35.67921,"lon":139.42873},{"name":"国立あゆみ保育園","province":"東京都","city":"国立市","address":"国立市矢川3丁目20番地の24","lat":35.68165,"lon":139.43045},{"name":"国立市立矢川保育園","province":"東京都","city":"国立市","address":"国立市谷保6800-2","lat":35.68364,"lon":139.42963},{"name":"国立あゆみ保育園","province":"東京都","city":"国立市","address":"国立市矢川3-20-24","lat":35.68162,"lon":139.430331},{"name":"国立あおいとり保育園","province":"東京都","city":"国立市","address":"国立市泉5-2-1","lat":35.6792,"lon":139.42868},{"name":"国立保育園","province":"東京都","city":"国立市","address":"国立市北2-30-1","lat":35.70104,"lon":139.43453},{"name":"さくらっこ保育園","province":"東京都","city":"国立市","address":"国立市中1-16-25シャトレクインテスビル2F","lat":35.69709,"lon":139.44515},{"name":"向陽保育園","province":"東京都","city":"国立市","address":"国立市谷保6746","lat":35.68467,"lon":139.42893},{"name":"きたひだまり保育園","province":"東京都","city":"国立市","address":"国立市北3-42-1","lat":35.69912,"lon":139.43164},{"name":"国立あゆみ保育園","province":"東京都","city":"国立市","address":"国立市矢川3丁目20番地の24","lat":35.68147,"lon":139.42723},{"name":"国立保育園","province":"東京都","city":"国立市","address":"国立市北2丁目30番の1","lat":35.70104,"lon":139.43452},{"name":"きたひだまり保育園","province":"東京都","city":"国立市","address":"国立市北3-42-1","lat":35.70153,"lon":139.4296},{"name":"国立ひまわり保育園","province":"東京都","city":"国立市","address":"国立市北3-7-14","lat":35.6993,"lon":139.43045},{"name":"北保育園","province":"東京都","city":"国立市","address":"国立市北3丁目1番地の1","lat":35.69912,"lon":139.43164},{"name":"あいわ保育園","province":"東京都","city":"国立市","address":"国立市東2丁目25番地の1","lat":35.69101,"lon":139.44786},{"name":"和光保育園","province":"東京都","city":"国立市","address":"国立市東2丁目2番地の1","lat":35.69591,"lon":139.45076},{"name":"国立市立東保育園","province":"東京都","city":"国立市","address":"国立市富士見台1丁目45番地の17","lat":35.68218,"lon":139.4512},{"name":"国立たいよう保育園","province":"東京都","city":"国立市","address":"国立市富士見台2-13-10","lat":35.68321,"lon":139.44632},{"name":"国立市立なかよし保育園","province":"東京都","city":"国立市","address":"国立市富士見台2丁目46番地","lat":35.68516,"lon":139.44183},{"name":"認定こども園国立富士見台団地風の子","province":"東京都","city":"国立市","address":"国立市富士見台3-7-1","lat":35.6849204,"lon":139.4395509},{"name":"こぐまこどものいえ","province":"東京都","city":"国立市","address":"国立市富士見台3丁目35番地の15","lat":35.68515,"lon":139.43356},{"name":"国立市立西保育園","province":"東京都","city":"国立市","address":"国立市富士見台3丁目45番地の1","lat":35.68905,"lon":139.4342},{"name":"矢川保育園","province":"東京都","city":"国立市","address":"国立市富士見台4丁目17番地の64","lat":35.68743,"lon":139.42685},{"name":"さくらっこ保育園","province":"東京都","city":"国立市","address":"国立市中1-16-25シャトレクインテスビル2F","lat":35.69709,"lon":139.44514},{"name":"国立クムクム保育園","province":"東京都","city":"国立市","address":"国立市中2-18-2","lat":35.69167,"lon":139.44559},{"name":"春光保育園","province":"東京都","city":"国立市","address":"国立市西2丁目14番地の1","lat":35.6943,"lon":139.43251},{"name":"向陽保育園","province":"東京都","city":"国立市","address":"国立市谷保6746番地","lat":35.68467,"lon":139.42892},{"name":"国立あおいとり保育園","province":"東京都","city":"国立市","address":"国立市泉5丁目2番地の1","lat":35.67921,"lon":139.42873},{"name":"国立あゆみ保育園","province":"東京都","city":"国立市","address":"国立市矢川3丁目20番地の24","lat":35.68165,"lon":139.43045},{"name":"国立市立矢川保育園","province":"東京都","city":"国立市","address":"国立市谷保6800-2","lat":35.68364,"lon":139.42963},{"name":"国立あゆみ保育園","province":"東京都","city":"国立市","address":"国立市矢川3-20-24","lat":35.68162,"lon":139.430331},{"name":"国立あおいとり保育園","province":"東京都","city":"国立市","address":"国立市泉5-2-1","lat":35.6792,"lon":139.42868},{"name":"国立保育園","province":"東京都","city":"国立市","address":"国立市北2-30-1","lat":35.70104,"lon":139.43453},{"name":"さくらっこ保育園","province":"東京都","city":"国立市","address":"国立市中1-16-25シャトレクインテスビル2F","lat":35.69709,"lon":139.44515},{"name":"向陽保育園","province":"東京都","city":"国立市","address":"国立市谷保6746","lat":35.68467,"lon":139.42893},{"name":"きたひだまり保育園","province":"東京都","city":"国立市","address":"国立市北3-42-1","lat":35.69912,"lon":139.43164},{"name":"国立あゆみ保育園","province":"東京都","city":"国立市","address":"国立市矢川3丁目20番地の24","lat":35.68147,"lon":139.42723},{"name":"国立保育園","province":"東京都","city":"国立市","address":"国立市北2丁目30番の1","lat":35.70104,"lon":139.43452},{"name":"きたひだまり保育園","province":"東京都","city":"国立市","address":"国立市北3-42-1","lat":35.70153,"lon":139.4296},{"name":"国立ひまわり保育園","province":"東京都","city":"国立市","address":"国立市北3-7-14","lat":35.6993,"lon":139.43045},{"name":"北保育園","province":"東京都","city":"国立市","address":"国立市北3丁目1番地の1","lat":35.69912,"lon":139.43164},{"name":"あいわ保育園","province":"東京都","city":"国立市","address":"国立市東2丁目25番地の1","lat":35.69101,"lon":139.44786},{"name":"和光保育園","province":"東京都","city":"国立市","address":"国立市東2丁目2番地の1","lat":35.69591,"lon":139.45076},{"name":"国立市立東保育園","province":"東京都","city":"国立市","address":"国立市富士見台1丁目45番地の17","lat":35.68218,"lon":139.4512},{"name":"国立たいよう保育園","province":"東京都","city":"国立市","address":"国立市富士見台2-13-10","lat":35.68321,"lon":139.44632},{"name":"国立市立なかよし保育園","province":"東京都","city":"国立市","address":"国立市富士見台2丁目46番地","lat":35.68516,"lon":139.44183},{"name":"認定こども園国立富士見台団地風の子","province":"東京都","city":"国立市","address":"国立市富士見台3-7-1","lat":35.6849204,"lon":139.4395509},{"name":"こぐまこどものいえ","province":"東京都","city":"国立市","address":"国立市富士見台3丁目35番地の15","lat":35.68515,"lon":139.43356},{"name":"国立市立西保育園","province":"東京都","city":"国立市","address":"国立市富士見台3丁目45番地の1","lat":35.68905,"lon":139.4342},{"name":"矢川保育園","province":"東京都","city":"国立市","address":"国立市富士見台4丁目17番地の64","lat":35.68743,"lon":139.42685},{"name":"さくらっこ保育園","province":"東京都","city":"国立市","address":"国立市中1-16-25シャトレクインテスビル2F","lat":35.69709,"lon":139.44514},{"name":"国立クムクム保育園","province":"東京都","city":"国立市","address":"国立市中2-18-2","lat":35.69167,"lon":139.44559},{"name":"春光保育園","province":"東京都","city":"国立市","address":"国立市西2丁目14番地の1","lat":35.6943,"lon":139.43251},{"name":"向陽保育園","province":"東京都","city":"国立市","address":"国立市谷保6746番地","lat":35.68467,"lon":139.42892},{"name":"国立あおいとり保育園","province":"東京都","city":"国立市","address":"国立市泉5丁目2番地の1","lat":35.67921,"lon":139.42873},{"name":"国立あゆみ保育園","province":"東京都","city":"国立市","address":"国立市矢川3丁目20番地の24","lat":35.68165,"lon":139.43045},{"name":"国立市立矢川保育園","province":"東京都","city":"国立市","address":"国立市谷保6800-2","lat":35.68364,"lon":139.42963},{"name":"国立あゆみ保育園","province":"東京都","city":"国立市","address":"国立市矢川3-20-24","lat":35.68162,"lon":139.430331},{"name":"国立あおいとり保育園","province":"東京都","city":"国立市","address":"国立市泉5-2-1","lat":35.6792,"lon":139.42868},{"name":"国立保育園","province":"東京都","city":"国立市","address":"国立市北2-30-1","lat":35.70104,"lon":139.43453},{"name":"さくらっこ保育園","province":"東京都","city":"国立市","address":"国立市中1-16-25シャトレクインテスビル2F","lat":35.69709,"lon":139.44515},{"name":"向陽保育園","province":"東京都","city":"国立市","address":"国立市谷保6746","lat":35.68467,"lon":139.42893},{"name":"きたひだまり保育園","province":"東京都","city":"国立市","address":"国立市北3-42-1","lat":35.69912,"lon":139.43164},{"name":"国立あゆみ保育園","province":"東京都","city":"国立市","address":"国立市矢川3丁目20番地の24","lat":35.68147,"lon":139.42723},{"name":"国立保育園","province":"東京都","city":"国立市","address":"国立市北2丁目30番の1","lat":35.70104,"lon":139.43452},{"name":"きたひだまり保育園","province":"東京都","city":"国立市","address":"国立市北3-42-1","lat":35.70153,"lon":139.4296},{"name":"国立ひまわり保育園","province":"東京都","city":"国立市","address":"国立市北3-7-14","lat":35.6993,"lon":139.43045},{"name":"北保育園","province":"東京都","city":"国立市","address":"国立市北3丁目1番地の1","lat":35.69912,"lon":139.43164},{"name":"あいわ保育園","province":"東京都","city":"国立市","address":"国立市東2丁目25番地の1","lat":35.69101,"lon":139.44786},{"name":"和光保育園","province":"東京都","city":"国立市","address":"国立市東2丁目2番地の1","lat":35.69591,"lon":139.45076},{"name":"国立市立東保育園","province":"東京都","city":"国立市","address":"国立市富士見台1丁目45番地の17","lat":35.68218,"lon":139.4512},{"name":"国立たいよう保育園","province":"東京都","city":"国立市","address":"国立市富士見台2-13-10","lat":35.68321,"lon":139.44632},{"name":"国立市立なかよし保育園","province":"東京都","city":"国立市","address":"国立市富士見台2丁目46番地","lat":35.68516,"lon":139.44183},{"name":"認定こども園国立富士見台団地風の子","province":"東京都","city":"国立市","address":"国立市富士見台3-7-1","lat":35.6849204,"lon":139.4395509},{"name":"こぐまこどものいえ","province":"東京都","city":"国立市","address":"国立市富士見台3丁目35番地の15","lat":35.68515,"lon":139.43356},{"name":"国立市立西保育園","province":"東京都","city":"国立市","address":"国立市富士見台3丁目45番地の1","lat":35.68905,"lon":139.4342},{"name":"矢川保育園","province":"東京都","city":"国立市","address":"国立市富士見台4丁目17番地の64","lat":35.68743,"lon":139.42685},{"name":"さくらっこ保育園","province":"東京都","city":"国立市","address":"国立市中1-16-25シャトレクインテスビル2F","lat":35.69709,"lon":139.44514},{"name":"国立クムクム保育園","province":"東京都","city":"国立市","address":"国立市中2-18-2","lat":35.69167,"lon":139.44559},{"name":"春光保育園","province":"東京都","city":"国立市","address":"国立市西2丁目14番地の1","lat":35.6943,"lon":139.43251},{"name":"向陽保育園","province":"東京都","city":"国立市","address":"国立市谷保6746番地","lat":35.68467,"lon":139.42892},{"name":"国立あおいとり保育園","province":"東京都","city":"国立市","address":"国立市泉5丁目2番地の1","lat":35.67921,"lon":139.42873},{"name":"国立あゆみ保育園","province":"東京都","city":"国立市","address":"国立市矢川3丁目20番地の24","lat":35.68165,"lon":139.43045},{"name":"国立市立矢川保育園","province":"東京都","city":"国立市","address":"国立市谷保6800-2","lat":35.68364,"lon":139.42963},{"name":"国立あゆみ保育園","province":"東京都","city":"国立市","address":"国立市矢川3-20-24","lat":35.68162,"lon":139.430331},{"name":"国立あおいとり保育園","province":"東京都","city":"国立市","address":"国立市泉5-2-1","lat":35.6792,"lon":139.42868},{"name":"国立保育園","province":"東京都","city":"国立市","address":"国立市北2-30-1","lat":35.70104,"lon":139.43453},{"name":"さくらっこ保育園","province":"東京都","city":"国立市","address":"国立市中1-16-25シャトレクインテスビル2F","lat":35.69709,"lon":139.44515},{"name":"向陽保育園","province":"東京都","city":"国立市","address":"国立市谷保6746","lat":35.68467,"lon":139.42893},{"name":"きたひだまり保育園","province":"東京都","city":"国立市","address":"国立市北3-42-1","lat":35.69912,"lon":139.43164},{"name":"国立あゆみ保育園","province":"東京都","city":"国立市","address":"国立市矢川3丁目20番地の24","lat":35.68147,"lon":139.42723},{"name":"国立保育園","province":"東京都","city":"国立市","address":"国立市北2丁目30番の1","lat":35.70104,"lon":139.43452},{"name":"きたひだまり保育園","province":"東京都","city":"国立市","address":"国立市北3-42-1","lat":35.70153,"lon":139.4296},{"name":"国立ひまわり保育園","province":"東京都","city":"国立市","address":"国立市北3-7-14","lat":35.6993,"lon":139.43045},{"name":"北保育園","province":"東京都","city":"国立市","address":"国立市北3丁目1番地の1","lat":35.69912,"lon":139.43164},{"name":"あいわ保育園","province":"東京都","city":"国立市","address":"国立市東2丁目25番地の1","lat":35.69101,"lon":139.44786},{"name":"和光保育園","province":"東京都","city":"国立市","address":"国立市東2丁目2番地の1","lat":35.69591,"lon":139.45076},{"name":"国立市立東保育園","province":"東京都","city":"国立市","address":"国立市富士見台1丁目45番地の17","lat":35.68218,"lon":139.4512},{"name":"国立たいよう保育園","province":"東京都","city":"国立市","address":"国立市富士見台2-13-10","lat":35.68321,"lon":139.44632},{"name":"国立市立なかよし保育園","province":"東京都","city":"国立市","address":"国立市富士見台2丁目46番地","lat":35.68516,"lon":139.44183},{"name":"認定こども園国立富士見台団地風の子","province":"東京都","city":"国立市","address":"国立市富士見台3-7-1","lat":35.6849204,"lon":139.4395509},{"name":"こぐまこどものいえ","province":"東京都","city":"国立市","address":"国立市富士見台3丁目35番地の15","lat":35.68515,"lon":139.43356},{"name":"国立市立西保育園","province":"東京都","city":"国立市","address":"国立市富士見台3丁目45番地の1","lat":35.68905,"lon":139.4342},{"name":"矢川保育園","province":"東京都","city":"国立市","address":"国立市富士見台4丁目17番地の64","lat":35.68743,"lon":139.42685},{"name":"さくらっこ保育園","province":"東京都","city":"国立市","address":"国立市中1-16-25シャトレクインテスビル2F","lat":35.69709,"lon":139.44514},{"name":"国立クムクム保育園","province":"東京都","city":"国立市","address":"国立市中2-18-2","lat":35.69167,"lon":139.44559},{"name":"春光保育園","province":"東京都","city":"国立市","address":"国立市西2丁目14番地の1","lat":35.6943,"lon":139.43251},{"name":"向陽保育園","province":"東京都","city":"国立市","address":"国立市谷保6746番地","lat":35.68467,"lon":139.42892},{"name":"国立あおいとり保育園","province":"東京都","city":"国立市","address":"国立市泉5丁目2番地の1","lat":35.67921,"lon":139.42873},{"name":"国立あゆみ保育園","province":"東京都","city":"国立市","address":"国立市矢川3丁目20番地の24","lat":35.68165,"lon":139.43045},{"name":"国立市立矢川保育園","province":"東京都","city":"国立市","address":"国立市谷保6800-2","lat":35.68364,"lon":139.42963},{"name":"国立あゆみ保育園","province":"東京都","city":"国立市","address":"国立市矢川3-20-24","lat":35.68162,"lon":139.430331},{"name":"国立あおいとり保育園","province":"東京都","city":"国立市","address":"国立市泉5-2-1","lat":35.6792,"lon":139.42868},{"name":"国立保育園","province":"東京都","city":"国立市","address":"国立市北2-30-1","lat":35.70104,"lon":139.43453},{"name":"さくらっこ保育園","province":"東京都","city":"国立市","address":"国立市中1-16-25シャトレクインテスビル2F","lat":35.69709,"lon":139.44515},{"name":"向陽保育園","province":"東京都","city":"国立市","address":"国立市谷保6746","lat":35.68467,"lon":139.42893},{"name":"きたひだまり保育園","province":"東京都","city":"国立市","address":"国立市北3-42-1","lat":35.69912,"lon":139.43164},{"name":"国立あゆみ保育園","province":"東京都","city":"国立市","address":"国立市矢川3丁目20番地の24","lat":35.68147,"lon":139.42723},{"name":"国立保育園","province":"東京都","city":"国立市","address":"国立市北2丁目30番の1","lat":35.70104,"lon":139.43452},{"name":"きたひだまり保育園","province":"東京都","city":"国立市","address":"国立市北3-42-1","lat":35.70153,"lon":139.4296},{"name":"国立ひまわり保育園","province":"東京都","city":"国立市","address":"国立市北3-7-14","lat":35.6993,"lon":139.43045},{"name":"北保育園","province":"東京都","city":"国立市","address":"国立市北3丁目1番地の1","lat":35.69912,"lon":139.43164},{"name":"あいわ保育園","province":"東京都","city":"国立市","address":"国立市東2丁目25番地の1","lat":35.69101,"lon":139.44786},{"name":"和光保育園","province":"東京都","city":"国立市","address":"国立市東2丁目2番地の1","lat":35.69591,"lon":139.45076},{"name":"国立市立東保育園","province":"東京都","city":"国立市","address":"国立市富士見台1丁目45番地の17","lat":35.68218,"lon":139.4512},{"name":"国立たいよう保育園","province":"東京都","city":"国立市","address":"国立市富士見台2-13-10","lat":35.68321,"lon":139.44632},{"name":"国立市立なかよし保育園","province":"東京都","city":"国立市","address":"国立市富士見台2丁目46番地","lat":35.68516,"lon":139.44183},{"name":"認定こども園国立富士見台団地風の子","province":"東京都","city":"国立市","address":"国立市富士見台3-7-1","lat":35.6849204,"lon":139.4395509},{"name":"こぐまこどものいえ","province":"東京都","city":"国立市","address":"国立市富士見台3丁目35番地の15","lat":35.68515,"lon":139.43356},{"name":"国立市立西保育園","province":"東京都","city":"国立市","address":"国立市富士見台3丁目45番地の1","lat":35.68905,"lon":139.4342},{"name":"矢川保育園","province":"東京都","city":"国立市","address":"国立市富士見台4丁目17番地の64","lat":35.68743,"lon":139.42685},{"name":"さくらっこ保育園","province":"東京都","city":"国立市","address":"国立市中1-16-25シャトレクインテスビル2F","lat":35.69709,"lon":139.44514},{"name":"国立クムクム保育園","province":"東京都","city":"国立市","address":"国立市中2-18-2","lat":35.69167,"lon":139.44559},{"name":"春光保育園","province":"東京都","city":"国立市","address":"国立市西2丁目14番地の1","lat":35.6943,"lon":139.43251},{"name":"向陽保育園","province":"東京都","city":"国立市","address":"国立市谷保6746番地","lat":35.68467,"lon":139.42892},{"name":"国立あおいとり保育園","province":"東京都","city":"国立市","address":"国立市泉5丁目2番地の1","lat":35.67921,"lon":139.42873},{"name":"国立あゆみ保育園","province":"東京都","city":"国立市","address":"国立市矢川3丁目20番地の24","lat":35.68165,"lon":139.43045},{"name":"国立市立矢川保育園","province":"東京都","city":"国立市","address":"国立市谷保6800-2","lat":35.68364,"lon":139.42963},{"name":"国立あゆみ保育園","province":"東京都","city":"国立市","address":"国立市矢川3-20-24","lat":35.68162,"lon":139.430331},{"name":"国立あおいとり保育園","province":"東京都","city":"国立市","address":"国立市泉5-2-1","lat":35.6792,"lon":139.42868},{"name":"国立保育園","province":"東京都","city":"国立市","address":"国立市北2-30-1","lat":35.70104,"lon":139.43453},{"name":"さくらっこ保育園","province":"東京都","city":"国立市","address":"国立市中1-16-25シャトレクインテスビル2F","lat":35.69709,"lon":139.44515},{"name":"向陽保育園","province":"東京都","city":"国立市","address":"国立市谷保6746","lat":35.68467,"lon":139.42893},{"name":"きたひだまり保育園","province":"東京都","city":"国立市","address":"国立市北3-42-1","lat":35.69912,"lon":139.43164},{"name":"国立あゆみ保育園","province":"東京都","city":"国立市","address":"国立市矢川3丁目20番地の24","lat":35.68147,"lon":139.42723},{"name":"国立保育園","province":"東京都","city":"国立市","address":"国立市北2丁目30番の1","lat":35.70104,"lon":139.43452},{"name":"きたひだまり保育園","province":"東京都","city":"国立市","address":"国立市北3-42-1","lat":35.70153,"lon":139.4296},{"name":"国立ひまわり保育園","province":"東京都","city":"国立市","address":"国立市北3-7-14","lat":35.6993,"lon":139.43045},{"name":"北保育園","province":"東京都","city":"国立市","address":"国立市北3丁目1番地の1","lat":35.69912,"lon":139.43164},{"name":"あいわ保育園","province":"東京都","city":"国立市","address":"国立市東2丁目25番地の1","lat":35.69101,"lon":139.44786},{"name":"和光保育園","province":"東京都","city":"国立市","address":"国立市東2丁目2番地の1","lat":35.69591,"lon":139.45076},{"name":"国立市立東保育園","province":"東京都","city":"国立市","address":"国立市富士見台1丁目45番地の17","lat":35.68218,"lon":139.4512},{"name":"国立たいよう保育園","province":"東京都","city":"国立市","address":"国立市富士見台2-13-10","lat":35.68321,"lon":139.44632},{"name":"国立市立なかよし保育園","province":"東京都","city":"国立市","address":"国立市富士見台2丁目46番地","lat":35.68516,"lon":139.44183},{"name":"認定こども園国立富士見台団地風の子","province":"東京都","city":"国立市","address":"国立市富士見台3-7-1","lat":35.6849204,"lon":139.4395509},{"name":"こぐまこどものいえ","province":"東京都","city":"国立市","address":"国立市富士見台3丁目35番地の15","lat":35.68515,"lon":139.43356},{"name":"国立市立西保育園","province":"東京都","city":"国立市","address":"国立市富士見台3丁目45番地の1","lat":35.68905,"lon":139.4342},{"name":"矢川保育園","province":"東京都","city":"国立市","address":"国立市富士見台4丁目17番地の64","lat":35.68743,"lon":139.42685},{"name":"さくらっこ保育園","province":"東京都","city":"国立市","address":"国立市中1-16-25シャトレクインテスビル2F","lat":35.69709,"lon":139.44514},{"name":"国立クムクム保育園","province":"東京都","city":"国立市","address":"国立市中2-18-2","lat":35.69167,"lon":139.44559},{"name":"春光保育園","province":"東京都","city":"国立市","address":"国立市西2丁目14番地の1","lat":35.6943,"lon":139.43251},{"name":"向陽保育園","province":"東京都","city":"国立市","address":"国立市谷保6746番地","lat":35.68467,"lon":139.42892},{"name":"国立あおいとり保育園","province":"東京都","city":"国立市","address":"国立市泉5丁目2番地の1","lat":35.67921,"lon":139.42873},{"name":"国立あゆみ保育園","province":"東京都","city":"国立市","address":"国立市矢川3丁目20番地の24","lat":35.68165,"lon":139.43045},{"name":"国立市立矢川保育園","province":"東京都","city":"国立市","address":"国立市谷保6800-2","lat":35.68364,"lon":139.42963},{"name":"国立あゆみ保育園","province":"東京都","city":"国立市","address":"国立市矢川3-20-24","lat":35.68162,"lon":139.430331},{"name":"国立あおいとり保育園","province":"東京都","city":"国立市","address":"国立市泉5-2-1","lat":35.6792,"lon":139.42868},{"name":"国立保育園","province":"東京都","city":"国立市","address":"国立市北2-30-1","lat":35.70104,"lon":139.43453},{"name":"さくらっこ保育園","province":"東京都","city":"国立市","address":"国立市中1-16-25シャトレクインテスビル2F","lat":35.69709,"lon":139.44515},{"name":"向陽保育園","province":"東京都","city":"国立市","address":"国立市谷保6746","lat":35.68467,"lon":139.42893},{"name":"きたひだまり保育園","province":"東京都","city":"国立市","address":"国立市北3-42-1","lat":35.69912,"lon":139.43164},{"name":"国立あゆみ保育園","province":"東京都","city":"国立市","address":"国立市矢川3丁目20番地の24","lat":35.68147,"lon":139.42723},{"name":"国立保育園","province":"東京都","city":"国立市","address":"国立市北2丁目30番の1","lat":35.70104,"lon":139.43452},{"name":"きたひだまり保育園","province":"東京都","city":"国立市","address":"国立市北3-42-1","lat":35.70153,"lon":139.4296},{"name":"国立ひまわり保育園","province":"東京都","city":"国立市","address":"国立市北3-7-14","lat":35.6993,"lon":139.43045},{"name":"北保育園","province":"東京都","city":"国立市","address":"国立市北3丁目1番地の1","lat":35.69912,"lon":139.43164},{"name":"あいわ保育園","province":"東京都","city":"国立市","address":"国立市東2丁目25番地の1","lat":35.69101,"lon":139.44786},{"name":"和光保育園","province":"東京都","city":"国立市","address":"国立市東2丁目2番地の1","lat":35.69591,"lon":139.45076},{"name":"国立市立東保育園","province":"東京都","city":"国立市","address":"国立市富士見台1丁目45番地の17","lat":35.68218,"lon":139.4512},{"name":"国立たいよう保育園","province":"東京都","city":"国立市","address":"国立市富士見台2-13-10","lat":35.68321,"lon":139.44632},{"name":"国立市立なかよし保育園","province":"東京都","city":"国立市","address":"国立市富士見台2丁目46番地","lat":35.68516,"lon":139.44183},{"name":"認定こども園国立富士見台団地風の子","province":"東京都","city":"国立市","address":"国立市富士見台3-7-1","lat":35.6849204,"lon":139.4395509},{"name":"こぐまこどものいえ","province":"東京都","city":"国立市","address":"国立市富士見台3丁目35番地の15","lat":35.68515,"lon":139.43356},{"name":"国立市立西保育園","province":"東京都","city":"国立市","address":"国立市富士見台3丁目45番地の1","lat":35.68905,"lon":139.4342},{"name":"矢川保育園","province":"東京都","city":"国立市","address":"国立市富士見台4丁目17番地の64","lat":35.68743,"lon":139.42685},{"name":"さくらっこ保育園","province":"東京都","city":"国立市","address":"国立市中1-16-25シャトレクインテスビル2F","lat":35.69709,"lon":139.44514},{"name":"国立クムクム保育園","province":"東京都","city":"国立市","address":"国立市中2-18-2","lat":35.69167,"lon":139.44559},{"name":"春光保育園","province":"東京都","city":"国立市","address":"国立市西2丁目14番地の1","lat":35.6943,"lon":139.43251},{"name":"向陽保育園","province":"東京都","city":"国立市","address":"国立市谷保6746番地","lat":35.68467,"lon":139.42892},{"name":"国立あおいとり保育園","province":"東京都","city":"国立市","address":"国立市泉5丁目2番地の1","lat":35.67921,"lon":139.42873},{"name":"国立あゆみ保育園","province":"東京都","city":"国立市","address":"国立市矢川3丁目20番地の24","lat":35.68165,"lon":139.43045},{"name":"国立市立矢川保育園","province":"東京都","city":"国立市","address":"国立市谷保6800-2","lat":35.68364,"lon":139.42963},{"name":"国立あゆみ保育園","province":"東京都","city":"国立市","address":"国立市矢川3-20-24","lat":35.68162,"lon":139.430331},{"name":"国立あおいとり保育園","province":"東京都","city":"国立市","address":"国立市泉5-2-1","lat":35.6792,"lon":139.42868},{"name":"国立保育園","province":"東京都","city":"国立市","address":"国立市北2-30-1","lat":35.70104,"lon":139.43453},{"name":"さくらっこ保育園","province":"東京都","city":"国立市","address":"国立市中1-16-25シャトレクインテスビル2F","lat":35.69709,"lon":139.44515},{"name":"向陽保育園","province":"東京都","city":"国立市","address":"国立市谷保6746","lat":35.68467,"lon":139.42893},{"name":"きたひだまり保育園","province":"東京都","city":"国立市","address":"国立市北3-42-1","lat":35.69912,"lon":139.43164},{"name":"国立あゆみ保育園","province":"東京都","city":"国立市","address":"国立市矢川3丁目20番地の24","lat":35.68147,"lon":139.42723},{"name":"国立保育園","province":"東京都","city":"国立市","address":"国立市北2丁目30番の1","lat":35.70104,"lon":139.43452},{"name":"きたひだまり保育園","province":"東京都","city":"国立市","address":"国立市北3-42-1","lat":35.70153,"lon":139.4296},{"name":"国立ひまわり保育園","province":"東京都","city":"国立市","address":"国立市北3-7-14","lat":35.6993,"lon":139.43045},{"name":"北保育園","province":"東京都","city":"国立市","address":"国立市北3丁目1番地の1","lat":35.69912,"lon":139.43164},{"name":"あいわ保育園","province":"東京都","city":"国立市","address":"国立市東2丁目25番地の1","lat":35.69101,"lon":139.44786},{"name":"和光保育園","province":"東京都","city":"国立市","address":"国立市東2丁目2番地の1","lat":35.69591,"lon":139.45076},{"name":"国立市立東保育園","province":"東京都","city":"国立市","address":"国立市富士見台1丁目45番地の17","lat":35.68218,"lon":139.4512},{"name":"国立たいよう保育園","province":"東京都","city":"国立市","address":"国立市富士見台2-13-10","lat":35.68321,"lon":139.44632},{"name":"国立市立なかよし保育園","province":"東京都","city":"国立市","address":"国立市富士見台2丁目46番地","lat":35.68516,"lon":139.44183},{"name":"認定こども園国立富士見台団地風の子","province":"東京都","city":"国立市","address":"国立市富士見台3-7-1","lat":35.6849204,"lon":139.4395509},{"name":"こぐまこどものいえ","province":"東京都","city":"国立市","address":"国立市富士見台3丁目35番地の15","lat":35.68515,"lon":139.43356},{"name":"国立市立西保育園","province":"東京都","city":"国立市","address":"国立市富士見台3丁目45番地の1","lat":35.68905,"lon":139.4342},{"name":"矢川保育園","province":"東京都","city":"国立市","address":"国立市富士見台4丁目17番地の64","lat":35.68743,"lon":139.42685},{"name":"さくらっこ保育園","province":"東京都","city":"国立市","address":"国立市中1-16-25シャトレクインテスビル2F","lat":35.69709,"lon":139.44514},{"name":"国立クムクム保育園","province":"東京都","city":"国立市","address":"国立市中2-18-2","lat":35.69167,"lon":139.44559},{"name":"春光保育園","province":"東京都","city":"国立市","address":"国立市西2丁目14番地の1","lat":35.6943,"lon":139.43251},{"name":"向陽保育園","province":"東京都","city":"国立市","address":"国立市谷保6746番地","lat":35.68467,"lon":139.42892},{"name":"国立あおいとり保育園","province":"東京都","city":"国立市","address":"国立市泉5丁目2番地の1","lat":35.67921,"lon":139.42873},{"name":"国立あゆみ保育園","province":"東京都","city":"国立市","address":"国立市矢川3丁目20番地の24","lat":35.68165,"lon":139.43045},{"name":"国立市立矢川保育園","province":"東京都","city":"国立市","address":"国立市谷保6800-2","lat":35.68364,"lon":139.42963},{"name":"国立あゆみ保育園","province":"東京都","city":"国立市","address":"国立市矢川3-20-24","lat":35.68162,"lon":139.430331},{"name":"国立あおいとり保育園","province":"東京都","city":"国立市","address":"国立市泉5-2-1","lat":35.6792,"lon":139.42868},{"name":"国立保育園","province":"東京都","city":"国立市","address":"国立市北2-30-1","lat":35.70104,"lon":139.43453},{"name":"さくらっこ保育園","province":"東京都","city":"国立市","address":"国立市中1-16-25シャトレクインテスビル2F","lat":35.69709,"lon":139.44515},{"name":"向陽保育園","province":"東京都","city":"国立市","address":"国立市谷保6746","lat":35.68467,"lon":139.42893},{"name":"きたひだまり保育園","province":"東京都","city":"国立市","address":"国立市北3-42-1","lat":35.69912,"lon":139.43164},{"name":"国立あゆみ保育園","province":"東京都","city":"国立市","address":"国立市矢川3丁目20番地の24","lat":35.68147,"lon":139.42723},{"name":"国立保育園","province":"東京都","city":"国立市","address":"国立市北2丁目30番の1","lat":35.70104,"lon":139.43452},{"name":"きたひだまり保育園","province":"東京都","city":"国立市","address":"国立市北3-42-1","lat":35.70153,"lon":139.4296},{"name":"国立ひまわり保育園","province":"東京都","city":"国立市","address":"国立市北3-7-14","lat":35.6993,"lon":139.43045},{"name":"北保育園","province":"東京都","city":"国立市","address":"国立市北3丁目1番地の1","lat":35.69912,"lon":139.43164},{"name":"あいわ保育園","province":"東京都","city":"国立市","address":"国立市東2丁目25番地の1","lat":35.69101,"lon":139.44786},{"name":"和光保育園","province":"東京都","city":"国立市","address":"国立市東2丁目2番地の1","lat":35.69591,"lon":139.45076},{"name":"国立市立東保育園","province":"東京都","city":"国立市","address":"国立市富士見台1丁目45番地の17","lat":35.68218,"lon":139.4512},{"name":"国立たいよう保育園","province":"東京都","city":"国立市","address":"国立市富士見台2-13-10","lat":35.68321,"lon":139.44632},{"name":"国立市立なかよし保育園","province":"東京都","city":"国立市","address":"国立市富士見台2丁目46番地","lat":35.68516,"lon":139.44183},{"name":"認定こども園国立富士見台団地風の子","province":"東京都","city":"国立市","address":"国立市富士見台3-7-1","lat":35.6849204,"lon":139.4395509},{"name":"こぐまこどものいえ","province":"東京都","city":"国立市","address":"国立市富士見台3丁目35番地の15","lat":35.68515,"lon":139.43356},{"name":"国立市立西保育園","province":"東京都","city":"国立市","address":"国立市富士見台3丁目45番地の1","lat":35.68905,"lon":139.4342},{"name":"矢川保育園","province":"東京都","city":"国立市","address":"国立市富士見台4丁目17番地の64","lat":35.68743,"lon":139.42685},{"name":"さくらっこ保育園","province":"東京都","city":"国立市","address":"国立市中1-16-25シャトレクインテスビル2F","lat":35.69709,"lon":139.44514},{"name":"国立クムクム保育園","province":"東京都","city":"国立市","address":"国立市中2-18-2","lat":35.69167,"lon":139.44559},{"name":"春光保育園","province":"東京都","city":"国立市","address":"国立市西2丁目14番地の1","lat":35.6943,"lon":139.43251},{"name":"向陽保育園","province":"東京都","city":"国立市","address":"国立市谷保6746番地","lat":35.68467,"lon":139.42892},{"name":"国立あおいとり保育園","province":"東京都","city":"国立市","address":"国立市泉5丁目2番地の1","lat":35.67921,"lon":139.42873},{"name":"国立あゆみ保育園","province":"東京都","city":"国立市","address":"国立市矢川3丁目20番地の24","lat":35.68165,"lon":139.43045},{"name":"国立市立矢川保育園","province":"東京都","city":"国立市","address":"国立市谷保6800-2","lat":35.68364,"lon":139.42963},{"name":"国立あゆみ保育園","province":"東京都","city":"国立市","address":"国立市矢川3-20-24","lat":35.68162,"lon":139.430331},{"name":"国立あおいとり保育園","province":"東京都","city":"国立市","address":"国立市泉5-2-1","lat":35.6792,"lon":139.42868},{"name":"国立保育園","province":"東京都","city":"国立市","address":"国立市北2-30-1","lat":35.70104,"lon":139.43453},{"name":"さくらっこ保育園","province":"東京都","city":"国立市","address":"国立市中1-16-25シャトレクインテスビル2F","lat":35.69709,"lon":139.44515},{"name":"向陽保育園","province":"東京都","city":"国立市","address":"国立市谷保6746","lat":35.68467,"lon":139.42893},{"name":"きたひだまり保育園","province":"東京都","city":"国立市","address":"国立市北3-42-1","lat":35.69912,"lon":139.43164},{"name":"国立あゆみ保育園","province":"東京都","city":"国立市","address":"国立市矢川3丁目20番地の24","lat":35.68147,"lon":139.42723},{"name":"国立保育園","province":"東京都","city":"国立市","address":"国立市北2丁目30番の1","lat":35.70104,"lon":139.43452},{"name":"きたひだまり保育園","province":"東京都","city":"国立市","address":"国立市北3-42-1","lat":35.70153,"lon":139.4296},{"name":"国立ひまわり保育園","province":"東京都","city":"国立市","address":"国立市北3-7-14","lat":35.6993,"lon":139.43045},{"name":"北保育園","province":"東京都","city":"国立市","address":"国立市北3丁目1番地の1","lat":35.69912,"lon":139.43164},{"name":"あいわ保育園","province":"東京都","city":"国立市","address":"国立市東2丁目25番地の1","lat":35.69101,"lon":139.44786},{"name":"和光保育園","province":"東京都","city":"国立市","address":"国立市東2丁目2番地の1","lat":35.69591,"lon":139.45076},{"name":"国立市立東保育園","province":"東京都","city":"国立市","address":"国立市富士見台1丁目45番地の17","lat":35.68218,"lon":139.4512},{"name":"国立たいよう保育園","province":"東京都","city":"国立市","address":"国立市富士見台2-13-10","lat":35.68321,"lon":139.44632},{"name":"国立市立なかよし保育園","province":"東京都","city":"国立市","address":"国立市富士見台2丁目46番地","lat":35.68516,"lon":139.44183},{"name":"認定こども園国立富士見台団地風の子","province":"東京都","city":"国立市","address":"国立市富士見台3-7-1","lat":35.6849204,"lon":139.4395509},{"name":"こぐまこどものいえ","province":"東京都","city":"国立市","address":"国立市富士見台3丁目35番地の15","lat":35.68515,"lon":139.43356},{"name":"国立市立西保育園","province":"東京都","city":"国立市","address":"国立市富士見台3丁目45番地の1","lat":35.68905,"lon":139.4342},{"name":"矢川保育園","province":"東京都","city":"国立市","address":"国立市富士見台4丁目17番地の64","lat":35.68743,"lon":139.42685},{"name":"さくらっこ保育園","province":"東京都","city":"国立市","address":"国立市中1-16-25シャトレクインテスビル2F","lat":35.69709,"lon":139.44514},{"name":"国立クムクム保育園","province":"東京都","city":"国立市","address":"国立市中2-18-2","lat":35.69167,"lon":139.44559},{"name":"春光保育園","province":"東京都","city":"国立市","address":"国立市西2丁目14番地の1","lat":35.6943,"lon":139.43251},{"name":"向陽保育園","province":"東京都","city":"国立市","address":"国立市谷保6746番地","lat":35.68467,"lon":139.42892},{"name":"国立あおいとり保育園","province":"東京都","city":"国立市","address":"国立市泉5丁目2番地の1","lat":35.67921,"lon":139.42873},{"name":"国立あゆみ保育園","province":"東京都","city":"国立市","address":"国立市矢川3丁目20番地の24","lat":35.68165,"lon":139.43045},{"name":"国立市立矢川保育園","province":"東京都","city":"国立市","address":"国立市谷保6800-2","lat":35.68364,"lon":139.42963},{"name":"国立あゆみ保育園","province":"東京都","city":"国立市","address":"国立市矢川3-20-24","lat":35.68162,"lon":139.430331},{"name":"国立あおいとり保育園","province":"東京都","city":"国立市","address":"国立市泉5-2-1","lat":35.6792,"lon":139.42868},{"name":"国立保育園","province":"東京都","city":"国立市","address":"国立市北2-30-1","lat":35.70104,"lon":139.43453},{"name":"さくらっこ保育園","province":"東京都","city":"国立市","address":"国立市中1-16-25シャトレクインテスビル2F","lat":35.69709,"lon":139.44515},{"name":"向陽保育園","province":"東京都","city":"国立市","address":"国立市谷保6746","lat":35.68467,"lon":139.42893},{"name":"きたひだまり保育園","province":"東京都","city":"国立市","address":"国立市北3-42-1","lat":35.69912,"lon":139.43164},{"name":"国立あゆみ保育園","province":"東京都","city":"国立市","address":"国立市矢川3丁目20番地の24","lat":35.68147,"lon":139.42723},{"name":"国立保育園","province":"東京都","city":"国立市","address":"国立市北2丁目30番の1","lat":35.70104,"lon":139.43452},{"name":"きたひだまり保育園","province":"東京都","city":"国立市","address":"国立市北3-42-1","lat":35.70153,"lon":139.4296},{"name":"国立ひまわり保育園","province":"東京都","city":"国立市","address":"国立市北3-7-14","lat":35.6993,"lon":139.43045},{"name":"北保育園","province":"東京都","city":"国立市","address":"国立市北3丁目1番地の1","lat":35.69912,"lon":139.43164},{"name":"あいわ保育園","province":"東京都","city":"国立市","address":"国立市東2丁目25番地の1","lat":35.69101,"lon":139.44786},{"name":"和光保育園","province":"東京都","city":"国立市","address":"国立市東2丁目2番地の1","lat":35.69591,"lon":139.45076},{"name":"国立市立東保育園","province":"東京都","city":"国立市","address":"国立市富士見台1丁目45番地の17","lat":35.68218,"lon":139.4512},{"name":"国立たいよう保育園","province":"東京都","city":"国立市","address":"国立市富士見台2-13-10","lat":35.68321,"lon":139.44632},{"name":"国立市立なかよし保育園","province":"東京都","city":"国立市","address":"国立市富士見台2丁目46番地","lat":35.68516,"lon":139.44183},{"name":"認定こども園国立富士見台団地風の子","province":"東京都","city":"国立市","address":"国立市富士見台3-7-1","lat":35.6849204,"lon":139.4395509},{"name":"こぐまこどものいえ","province":"東京都","city":"国立市","address":"国立市富士見台3丁目35番地の15","lat":35.68515,"lon":139.43356},{"name":"国立市立西保育園","province":"東京都","city":"国立市","address":"国立市富士見台3丁目45番地の1","lat":35.68905,"lon":139.4342},{"name":"矢川保育園","province":"東京都","city":"国立市","address":"国立市富士見台4丁目17番地の64","lat":35.68743,"lon":139.42685},{"name":"さくらっこ保育園","province":"東京都","city":"国立市","address":"国立市中1-16-25シャトレクインテスビル2F","lat":35.69709,"lon":139.44514},{"name":"国立クムクム保育園","province":"東京都","city":"国立市","address":"国立市中2-18-2","lat":35.69167,"lon":139.44559},{"name":"春光保育園","province":"東京都","city":"国立市","address":"国立市西2丁目14番地の1","lat":35.6943,"lon":139.43251},{"name":"向陽保育園","province":"東京都","city":"国立市","address":"国立市谷保6746番地","lat":35.68467,"lon":139.42892},{"name":"国立あおいとり保育園","province":"東京都","city":"国立市","address":"国立市泉5丁目2番地の1","lat":35.67921,"lon":139.42873},{"name":"国立あゆみ保育園","province":"東京都","city":"国立市","address":"国立市矢川3丁目20番地の24","lat":35.68165,"lon":139.43045},{"name":"国立市立矢川保育園","province":"東京都","city":"国立市","address":"国立市谷保6800-2","lat":35.68364,"lon":139.42963},{"name":"国立あゆみ保育園","province":"東京都","city":"国立市","address":"国立市矢川3-20-24","lat":35.68162,"lon":139.430331},{"name":"国立あおいとり保育園","province":"東京都","city":"国立市","address":"国立市泉5-2-1","lat":35.6792,"lon":139.42868},{"name":"国立保育園","province":"東京都","city":"国立市","address":"国立市北2-30-1","lat":35.70104,"lon":139.43453},{"name":"さくらっこ保育園","province":"東京都","city":"国立市","address":"国立市中1-16-25シャトレクインテスビル2F","lat":35.69709,"lon":139.44515},{"name":"向陽保育園","province":"東京都","city":"国立市","address":"国立市谷保6746","lat":35.68467,"lon":139.42893},{"name":"きたひだまり保育園","province":"東京都","city":"国立市","address":"国立市北3-42-1","lat":35.69912,"lon":139.43164},{"name":"国立あゆみ保育園","province":"東京都","city":"国立市","address":"国立市矢川3丁目20番地の24","lat":35.68147,"lon":139.42723},{"name":"国立保育園","province":"東京都","city":"国立市","address":"国立市北2丁目30番の1","lat":35.70104,"lon":139.43452},{"name":"きたひだまり保育園","province":"東京都","city":"国立市","address":"国立市北3-42-1","lat":35.70153,"lon":139.4296},{"name":"国立ひまわり保育園","province":"東京都","city":"国立市","address":"国立市北3-7-14","lat":35.6993,"lon":139.43045},{"name":"北保育園","province":"東京都","city":"国立市","address":"国立市北3丁目1番地の1","lat":35.69912,"lon":139.43164},{"name":"あいわ保育園","province":"東京都","city":"国立市","address":"国立市東2丁目25番地の1","lat":35.69101,"lon":139.44786},{"name":"和光保育園","province":"東京都","city":"国立市","address":"国立市東2丁目2番地の1","lat":35.69591,"lon":139.45076},{"name":"国立市立東保育園","province":"東京都","city":"国立市","address":"国立市富士見台1丁目45番地の17","lat":35.68218,"lon":139.4512},{"name":"国立たいよう保育園","province":"東京都","city":"国立市","address":"国立市富士見台2-13-10","lat":35.68321,"lon":139.44632},{"name":"国立市立なかよし保育園","province":"東京都","city":"国立市","address":"国立市富士見台2丁目46番地","lat":35.68516,"lon":139.44183},{"name":"認定こども園国立富士見台団地風の子","province":"東京都","city":"国立市","address":"国立市富士見台3-7-1","lat":35.6849204,"lon":139.4395509},{"name":"こぐまこどものいえ","province":"東京都","city":"国立市","address":"国立市富士見台3丁目35番地の15","lat":35.68515,"lon":139.43356},{"name":"国立市立西保育園","province":"東京都","city":"国立市","address":"国立市富士見台3丁目45番地の1","lat":35.68905,"lon":139.4342},{"name":"矢川保育園","province":"東京都","city":"国立市","address":"国立市富士見台4丁目17番地の64","lat":35.68743,"lon":139.42685},{"name":"さくらっこ保育園","province":"東京都","city":"国立市","address":"国立市中1-16-25シャトレクインテスビル2F","lat":35.69709,"lon":139.44514},{"name":"国立クムクム保育園","province":"東京都","city":"国立市","address":"国立市中2-18-2","lat":35.69167,"lon":139.44559},{"name":"春光保育園","province":"東京都","city":"国立市","address":"国立市西2丁目14番地の1","lat":35.6943,"lon":139.43251},{"name":"向陽保育園","province":"東京都","city":"国立市","address":"国立市谷保6746番地","lat":35.68467,"lon":139.42892},{"name":"国立あおいとり保育園","province":"東京都","city":"国立市","address":"国立市泉5丁目2番地の1","lat":35.67921,"lon":139.42873},{"name":"国立あゆみ保育園","province":"東京都","city":"国立市","address":"国立市矢川3丁目20番地の24","lat":35.68165,"lon":139.43045},{"name":"国立市立矢川保育園","province":"東京都","city":"国立市","address":"国立市谷保6800-2","lat":35.68364,"lon":139.42963},{"name":"国立あゆみ保育園","province":"東京都","city":"国立市","address":"国立市矢川3-20-24","lat":35.68162,"lon":139.430331},{"name":"国立あおいとり保育園","province":"東京都","city":"国立市","address":"国立市泉5-2-1","lat":35.6792,"lon":139.42868},{"name":"国立保育園","province":"東京都","city":"国立市","address":"国立市北2-30-1","lat":35.70104,"lon":139.43453},{"name":"さくらっこ保育園","province":"東京都","city":"国立市","address":"国立市中1-16-25シャトレクインテスビル2F","lat":35.69709,"lon":139.44515},{"name":"向陽保育園","province":"東京都","city":"国立市","address":"国立市谷保6746","lat":35.68467,"lon":139.42893},{"name":"きたひだまり保育園","province":"東京都","city":"国立市","address":"国立市北3-42-1","lat":35.69912,"lon":139.43164},{"name":"国立あゆみ保育園","province":"東京都","city":"国立市","address":"国立市矢川3丁目20番地の24","lat":35.68147,"lon":139.42723},{"name":"国立保育園","province":"東京都","city":"国立市","address":"国立市北2丁目30番の1","lat":35.70104,"lon":139.43452},{"name":"きたひだまり保育園","province":"東京都","city":"国立市","address":"国立市北3-42-1","lat":35.70153,"lon":139.4296},{"name":"国立ひまわり保育園","province":"東京都","city":"国立市","address":"国立市北3-7-14","lat":35.6993,"lon":139.43045},{"name":"北保育園","province":"東京都","city":"国立市","address":"国立市北3丁目1番地の1","lat":35.69912,"lon":139.43164},{"name":"あいわ保育園","province":"東京都","city":"国立市","address":"国立市東2丁目25番地の1","lat":35.69101,"lon":139.44786},{"name":"和光保育園","province":"東京都","city":"国立市","address":"国立市東2丁目2番地の1","lat":35.69591,"lon":139.45076},{"name":"国立市立東保育園","province":"東京都","city":"国立市","address":"国立市富士見台1丁目45番地の17","lat":35.68218,"lon":139.4512},{"name":"国立たいよう保育園","province":"東京都","city":"国立市","address":"国立市富士見台2-13-10","lat":35.68321,"lon":139.44632},{"name":"国立市立なかよし保育園","province":"東京都","city":"国立市","address":"国立市富士見台2丁目46番地","lat":35.68516,"lon":139.44183},{"name":"認定こども園国立富士見台団地風の子","province":"東京都","city":"国立市","address":"国立市富士見台3-7-1","lat":35.6849204,"lon":139.4395509},{"name":"こぐまこどものいえ","province":"東京都","city":"国立市","address":"国立市富士見台3丁目35番地の15","lat":35.68515,"lon":139.43356},{"name":"国立市立西保育園","province":"東京都","city":"国立市","address":"国立市富士見台3丁目45番地の1","lat":35.68905,"lon":139.4342},{"name":"矢川保育園","province":"東京都","city":"国立市","address":"国立市富士見台4丁目17番地の64","lat":35.68743,"lon":139.42685},{"name":"さくらっこ保育園","province":"東京都","city":"国立市","address":"国立市中1-16-25シャトレクインテスビル2F","lat":35.69709,"lon":139.44514},{"name":"国立クムクム保育園","province":"東京都","city":"国立市","address":"国立市中2-18-2","lat":35.69167,"lon":139.44559},{"name":"春光保育園","province":"東京都","city":"国立市","address":"国立市西2丁目14番地の1","lat":35.6943,"lon":139.43251},{"name":"向陽保育園","province":"東京都","city":"国立市","address":"国立市谷保6746番地","lat":35.68467,"lon":139.42892},{"name":"国立あおいとり保育園","province":"東京都","city":"国立市","address":"国立市泉5丁目2番地の1","lat":35.67921,"lon":139.42873},{"name":"国立あゆみ保育園","province":"東京都","city":"国立市","address":"国立市矢川3丁目20番地の24","lat":35.68165,"lon":139.43045},{"name":"国立市立矢川保育園","province":"東京都","city":"国立市","address":"国立市谷保6800-2","lat":35.68364,"lon":139.42963},{"name":"国立あゆみ保育園","province":"東京都","city":"国立市","address":"国立市矢川3-20-24","lat":35.68162,"lon":139.430331},{"name":"国立あおいとり保育園","province":"東京都","city":"国立市","address":"国立市泉5-2-1","lat":35.6792,"lon":139.42868},{"name":"国立保育園","province":"東京都","city":"国立市","address":"国立市北2-30-1","lat":35.70104,"lon":139.43453},{"name":"さくらっこ保育園","province":"東京都","city":"国立市","address":"国立市中1-16-25シャトレクインテスビル2F","lat":35.69709,"lon":139.44515},{"name":"向陽保育園","province":"東京都","city":"国立市","address":"国立市谷保6746","lat":35.68467,"lon":139.42893},{"name":"きたひだまり保育園","province":"東京都","city":"国立市","address":"国立市北3-42-1","lat":35.69912,"lon":139.43164},{"name":"国立あゆみ保育園","province":"東京都","city":"国立市","address":"国立市矢川3丁目20番地の24","lat":35.68147,"lon":139.42723},{"name":"国立保育園","province":"東京都","city":"国立市","address":"国立市北2丁目30番の1","lat":35.70104,"lon":139.43452},{"name":"きたひだまり保育園","province":"東京都","city":"国立市","address":"国立市北3-42-1","lat":35.70153,"lon":139.4296},{"name":"国立ひまわり保育園","province":"東京都","city":"国立市","address":"国立市北3-7-14","lat":35.6993,"lon":139.43045},{"name":"北保育園","province":"東京都","city":"国立市","address":"国立市北3丁目1番地の1","lat":35.69912,"lon":139.43164},{"name":"あいわ保育園","province":"東京都","city":"国立市","address":"国立市東2丁目25番地の1","lat":35.69101,"lon":139.44786},{"name":"和光保育園","province":"東京都","city":"国立市","address":"国立市東2丁目2番地の1","lat":35.69591,"lon":139.45076},{"name":"国立市立東保育園","province":"東京都","city":"国立市","address":"国立市富士見台1丁目45番地の17","lat":35.68218,"lon":139.4512},{"name":"国立たいよう保育園","province":"東京都","city":"国立市","address":"国立市富士見台2-13-10","lat":35.68321,"lon":139.44632},{"name":"国立市立なかよし保育園","province":"東京都","city":"国立市","address":"国立市富士見台2丁目46番地","lat":35.68516,"lon":139.44183},{"name":"認定こども園国立富士見台団地風の子","province":"東京都","city":"国立市","address":"国立市富士見台3-7-1","lat":35.6849204,"lon":139.4395509},{"name":"こぐまこどものいえ","province":"東京都","city":"国立市","address":"国立市富士見台3丁目35番地の15","lat":35.68515,"lon":139.43356},{"name":"国立市立西保育園","province":"東京都","city":"国立市","address":"国立市富士見台3丁目45番地の1","lat":35.68905,"lon":139.4342},{"name":"矢川保育園","province":"東京都","city":"国立市","address":"国立市富士見台4丁目17番地の64","lat":35.68743,"lon":139.42685},{"name":"さくらっこ保育園","province":"東京都","city":"国立市","address":"国立市中1-16-25シャトレクインテスビル2F","lat":35.69709,"lon":139.44514},{"name":"国立クムクム保育園","province":"東京都","city":"国立市","address":"国立市中2-18-2","lat":35.69167,"lon":139.44559},{"name":"春光保育園","province":"東京都","city":"国立市","address":"国立市西2丁目14番地の1","lat":35.6943,"lon":139.43251},{"name":"向陽保育園","province":"東京都","city":"国立市","address":"国立市谷保6746番地","lat":35.68467,"lon":139.42892},{"name":"国立あおいとり保育園","province":"東京都","city":"国立市","address":"国立市泉5丁目2番地の1","lat":35.67921,"lon":139.42873},{"name":"国立あゆみ保育園","province":"東京都","city":"国立市","address":"国立市矢川3丁目20番地の24","lat":35.68165,"lon":139.43045},{"name":"国立市立矢川保育園","province":"東京都","city":"国立市","address":"国立市谷保6800-2","lat":35.68364,"lon":139.42963},{"name":"国立あゆみ保育園","province":"東京都","city":"国立市","address":"国立市矢川3-20-24","lat":35.68162,"lon":139.430331},{"name":"国立あおいとり保育園","province":"東京都","city":"国立市","address":"国立市泉5-2-1","lat":35.6792,"lon":139.42868},{"name":"国立保育園","province":"東京都","city":"国立市","address":"国立市北2-30-1","lat":35.70104,"lon":139.43453},{"name":"さくらっこ保育園","province":"東京都","city":"国立市","address":"国立市中1-16-25シャトレクインテスビル2F","lat":35.69709,"lon":139.44515},{"name":"向陽保育園","province":"東京都","city":"国立市","address":"国立市谷保6746","lat":35.68467,"lon":139.42893},{"name":"きたひだまり保育園","province":"東京都","city":"国立市","address":"国立市北3-42-1","lat":35.69912,"lon":139.43164},{"name":"国立あゆみ保育園","province":"東京都","city":"国立市","address":"国立市矢川3丁目20番地の24","lat":35.68147,"lon":139.42723},{"name":"国立保育園","province":"東京都","city":"国立市","address":"国立市北2丁目30番の1","lat":35.70104,"lon":139.43452},{"name":"きたひだまり保育園","province":"東京都","city":"国立市","address":"国立市北3-42-1","lat":35.70153,"lon":139.4296},{"name":"国立ひまわり保育園","province":"東京都","city":"国立市","address":"国立市北3-7-14","lat":35.6993,"lon":139.43045},{"name":"北保育園","province":"東京都","city":"国立市","address":"国立市北3丁目1番地の1","lat":35.69912,"lon":139.43164},{"name":"あいわ保育園","province":"東京都","city":"国立市","address":"国立市東2丁目25番地の1","lat":35.69101,"lon":139.44786},{"name":"和光保育園","province":"東京都","city":"国立市","address":"国立市東2丁目2番地の1","lat":35.69591,"lon":139.45076},{"name":"国立市立東保育園","province":"東京都","city":"国立市","address":"国立市富士見台1丁目45番地の17","lat":35.68218,"lon":139.4512},{"name":"国立たいよう保育園","province":"東京都","city":"国立市","address":"国立市富士見台2-13-10","lat":35.68321,"lon":139.44632},{"name":"国立市立なかよし保育園","province":"東京都","city":"国立市","address":"国立市富士見台2丁目46番地","lat":35.68516,"lon":139.44183},{"name":"認定こども園国立富士見台団地風の子","province":"東京都","city":"国立市","address":"国立市富士見台3-7-1","lat":35.6849204,"lon":139.4395509},{"name":"こぐまこどものいえ","province":"東京都","city":"国立市","address":"国立市富士見台3丁目35番地の15","lat":35.68515,"lon":139.43356},{"name":"国立市立西保育園","province":"東京都","city":"国立市","address":"国立市富士見台3丁目45番地の1","lat":35.68905,"lon":139.4342},{"name":"矢川保育園","province":"東京都","city":"国立市","address":"国立市富士見台4丁目17番地の64","lat":35.68743,"lon":139.42685},{"name":"さくらっこ保育園","province":"東京都","city":"国立市","address":"国立市中1-16-25シャトレクインテスビル2F","lat":35.69709,"lon":139.44514},{"name":"国立クムクム保育園","province":"東京都","city":"国立市","address":"国立市中2-18-2","lat":35.69167,"lon":139.44559},{"name":"春光保育園","province":"東京都","city":"国立市","address":"国立市西2丁目14番地の1","lat":35.6943,"lon":139.43251},{"name":"向陽保育園","province":"東京都","city":"国立市","address":"国立市谷保6746番地","lat":35.68467,"lon":139.42892},{"name":"国立あおいとり保育園","province":"東京都","city":"国立市","address":"国立市泉5丁目2番地の1","lat":35.67921,"lon":139.42873},{"name":"国立あゆみ保育園","province":"東京都","city":"国立市","address":"国立市矢川3丁目20番地の24","lat":35.68165,"lon":139.43045},{"name":"国立市立矢川保育園","province":"東京都","city":"国立市","address":"国立市谷保6800-2","lat":35.68364,"lon":139.42963},{"name":"国立あゆみ保育園","province":"東京都","city":"国立市","address":"国立市矢川3-20-24","lat":35.68162,"lon":139.430331},{"name":"国立あおいとり保育園","province":"東京都","city":"国立市","address":"国立市泉5-2-1","lat":35.6792,"lon":139.42868},{"name":"国立保育園","province":"東京都","city":"国立市","address":"国立市北2-30-1","lat":35.70104,"lon":139.43453},{"name":"さくらっこ保育園","province":"東京都","city":"国立市","address":"国立市中1-16-25シャトレクインテスビル2F","lat":35.69709,"lon":139.44515},{"name":"向陽保育園","province":"東京都","city":"国立市","address":"国立市谷保6746","lat":35.68467,"lon":139.42893},{"name":"きたひだまり保育園","province":"東京都","city":"国立市","address":"国立市北3-42-1","lat":35.69912,"lon":139.43164},{"name":"国立あゆみ保育園","province":"東京都","city":"国立市","address":"国立市矢川3丁目20番地の24","lat":35.68147,"lon":139.42723},{"name":"国立保育園","province":"東京都","city":"国立市","address":"国立市北2丁目30番の1","lat":35.70104,"lon":139.43452},{"name":"きたひだまり保育園","province":"東京都","city":"国立市","address":"国立市北3-42-1","lat":35.70153,"lon":139.4296},{"name":"国立ひまわり保育園","province":"東京都","city":"国立市","address":"国立市北3-7-14","lat":35.6993,"lon":139.43045},{"name":"北保育園","province":"東京都","city":"国立市","address":"国立市北3丁目1番地の1","lat":35.69912,"lon":139.43164},{"name":"あいわ保育園","province":"東京都","city":"国立市","address":"国立市東2丁目25番地の1","lat":35.69101,"lon":139.44786},{"name":"和光保育園","province":"東京都","city":"国立市","address":"国立市東2丁目2番地の1","lat":35.69591,"lon":139.45076},{"name":"国立市立東保育園","province":"東京都","city":"国立市","address":"国立市富士見台1丁目45番地の17","lat":35.68218,"lon":139.4512},{"name":"国立たいよう保育園","province":"東京都","city":"国立市","address":"国立市富士見台2-13-10","lat":35.68321,"lon":139.44632},{"name":"国立市立なかよし保育園","province":"東京都","city":"国立市","address":"国立市富士見台2丁目46番地","lat":35.68516,"lon":139.44183},{"name":"認定こども園国立富士見台団地風の子","province":"東京都","city":"国立市","address":"国立市富士見台3-7-1","lat":35.6849204,"lon":139.4395509},{"name":"こぐまこどものいえ","province":"東京都","city":"国立市","address":"国立市富士見台3丁目35番地の15","lat":35.68515,"lon":139.43356},{"name":"国立市立西保育園","province":"東京都","city":"国立市","address":"国立市富士見台3丁目45番地の1","lat":35.68905,"lon":139.4342},{"name":"矢川保育園","province":"東京都","city":"国立市","address":"国立市富士見台4丁目17番地の64","lat":35.68743,"lon":139.42685},{"name":"さくらっこ保育園","province":"東京都","city":"国立市","address":"国立市中1-16-25シャトレクインテスビル2F","lat":35.69709,"lon":139.44514},{"name":"国立クムクム保育園","province":"東京都","city":"国立市","address":"国立市中2-18-2","lat":35.69167,"lon":139.44559},{"name":"春光保育園","province":"東京都","city":"国立市","address":"国立市西2丁目14番地の1","lat":35.6943,"lon":139.43251},{"name":"向陽保育園","province":"東京都","city":"国立市","address":"国立市谷保6746番地","lat":35.68467,"lon":139.42892},{"name":"国立あおいとり保育園","province":"東京都","city":"国立市","address":"国立市泉5丁目2番地の1","lat":35.67921,"lon":139.42873},{"name":"国立あゆみ保育園","province":"東京都","city":"国立市","address":"国立市矢川3丁目20番地の24","lat":35.68165,"lon":139.43045},{"name":"国立市立矢川保育園","province":"東京都","city":"国立市","address":"国立市谷保6800-2","lat":35.68364,"lon":139.42963},{"name":"国立あゆみ保育園","province":"東京都","city":"国立市","address":"国立市矢川3-20-24","lat":35.68162,"lon":139.430331},{"name":"国立あおいとり保育園","province":"東京都","city":"国立市","address":"国立市泉5-2-1","lat":35.6792,"lon":139.42868},{"name":"国立保育園","province":"東京都","city":"国立市","address":"国立市北2-30-1","lat":35.70104,"lon":139.43453},{"name":"さくらっこ保育園","province":"東京都","city":"国立市","address":"国立市中1-16-25シャトレクインテスビル2F","lat":35.69709,"lon":139.44515},{"name":"向陽保育園","province":"東京都","city":"国立市","address":"国立市谷保6746","lat":35.68467,"lon":139.42893},{"name":"きたひだまり保育園","province":"東京都","city":"国立市","address":"国立市北3-42-1","lat":35.69912,"lon":139.43164},{"name":"国立あゆみ保育園","province":"東京都","city":"国立市","address":"国立市矢川3丁目20番地の24","lat":35.68147,"lon":139.42723},{"name":"国立保育園","province":"東京都","city":"国立市","address":"国立市北2丁目30番の1","lat":35.70104,"lon":139.43452},{"name":"きたひだまり保育園","province":"東京都","city":"国立市","address":"国立市北3-42-1","lat":35.70153,"lon":139.4296},{"name":"国立ひまわり保育園","province":"東京都","city":"国立市","address":"国立市北3-7-14","lat":35.6993,"lon":139.43045},{"name":"北保育園","province":"東京都","city":"国立市","address":"国立市北3丁目1番地の1","lat":35.69912,"lon":139.43164},{"name":"あいわ保育園","province":"東京都","city":"国立市","address":"国立市東2丁目25番地の1","lat":35.69101,"lon":139.44786},{"name":"和光保育園","province":"東京都","city":"国立市","address":"国立市東2丁目2番地の1","lat":35.69591,"lon":139.45076},{"name":"国立市立東保育園","province":"東京都","city":"国立市","address":"国立市富士見台1丁目45番地の17","lat":35.68218,"lon":139.4512},{"name":"国立たいよう保育園","province":"東京都","city":"国立市","address":"国立市富士見台2-13-10","lat":35.68321,"lon":139.44632},{"name":"国立市立なかよし保育園","province":"東京都","city":"国立市","address":"国立市富士見台2丁目46番地","lat":35.68516,"lon":139.44183},{"name":"認定こども園国立富士見台団地風の子","province":"東京都","city":"国立市","address":"国立市富士見台3-7-1","lat":35.6849204,"lon":139.4395509},{"name":"こぐまこどものいえ","province":"東京都","city":"国立市","address":"国立市富士見台3丁目35番地の15","lat":35.68515,"lon":139.43356},{"name":"国立市立西保育園","province":"東京都","city":"国立市","address":"国立市富士見台3丁目45番地の1","lat":35.68905,"lon":139.4342},{"name":"矢川保育園","province":"東京都","city":"国立市","address":"国立市富士見台4丁目17番地の64","lat":35.68743,"lon":139.42685},{"name":"さくらっこ保育園","province":"東京都","city":"国立市","address":"国立市中1-16-25シャトレクインテスビル2F","lat":35.69709,"lon":139.44514},{"name":"国立クムクム保育園","province":"東京都","city":"国立市","address":"国立市中2-18-2","lat":35.69167,"lon":139.44559},{"name":"春光保育園","province":"東京都","city":"国立市","address":"国立市西2丁目14番地の1","lat":35.6943,"lon":139.43251},{"name":"向陽保育園","province":"東京都","city":"国立市","address":"国立市谷保6746番地","lat":35.68467,"lon":139.42892},{"name":"国立あおいとり保育園","province":"東京都","city":"国立市","address":"国立市泉5丁目2番地の1","lat":35.67921,"lon":139.42873},{"name":"国立あゆみ保育園","province":"東京都","city":"国立市","address":"国立市矢川3丁目20番地の24","lat":35.68165,"lon":139.43045},{"name":"国立市立矢川保育園","province":"東京都","city":"国立市","address":"国立市谷保6800-2","lat":35.68364,"lon":139.42963},{"name":"国立あゆみ保育園","province":"東京都","city":"国立市","address":"国立市矢川3-20-24","lat":35.68162,"lon":139.430331},{"name":"国立あおいとり保育園","province":"東京都","city":"国立市","address":"国立市泉5-2-1","lat":35.6792,"lon":139.42868},{"name":"国立保育園","province":"東京都","city":"国立市","address":"国立市北2-30-1","lat":35.70104,"lon":139.43453},{"name":"さくらっこ保育園","province":"東京都","city":"国立市","address":"国立市中1-16-25シャトレクインテスビル2F","lat":35.69709,"lon":139.44515},{"name":"向陽保育園","province":"東京都","city":"国立市","address":"国立市谷保6746","lat":35.68467,"lon":139.42893},{"name":"きたひだまり保育園","province":"東京都","city":"国立市","address":"国立市北3-42-1","lat":35.69912,"lon":139.43164},{"name":"国立あゆみ保育園","province":"東京都","city":"国立市","address":"国立市矢川3丁目20番地の24","lat":35.68147,"lon":139.42723},{"name":"国立保育園","province":"東京都","city":"国立市","address":"国立市北2丁目30番の1","lat":35.70104,"lon":139.43452},{"name":"きたひだまり保育園","province":"東京都","city":"国立市","address":"国立市北3-42-1","lat":35.70153,"lon":139.4296},{"name":"国立ひまわり保育園","province":"東京都","city":"国立市","address":"国立市北3-7-14","lat":35.6993,"lon":139.43045},{"name":"北保育園","province":"東京都","city":"国立市","address":"国立市北3丁目1番地の1","lat":35.69912,"lon":139.43164},{"name":"あいわ保育園","province":"東京都","city":"国立市","address":"国立市東2丁目25番地の1","lat":35.69101,"lon":139.44786},{"name":"和光保育園","province":"東京都","city":"国立市","address":"国立市東2丁目2番地の1","lat":35.69591,"lon":139.45076},{"name":"国立市立東保育園","province":"東京都","city":"国立市","address":"国立市富士見台1丁目45番地の17","lat":35.68218,"lon":139.4512},{"name":"国立たいよう保育園","province":"東京都","city":"国立市","address":"国立市富士見台2-13-10","lat":35.68321,"lon":139.44632},{"name":"国立市立なかよし保育園","province":"東京都","city":"国立市","address":"国立市富士見台2丁目46番地","lat":35.68516,"lon":139.44183},{"name":"認定こども園国立富士見台団地風の子","province":"東京都","city":"国立市","address":"国立市富士見台3-7-1","lat":35.6849204,"lon":139.4395509},{"name":"こぐまこどものいえ","province":"東京都","city":"国立市","address":"国立市富士見台3丁目35番地の15","lat":35.68515,"lon":139.43356},{"name":"国立市立西保育園","province":"東京都","city":"国立市","address":"国立市富士見台3丁目45番地の1","lat":35.68905,"lon":139.4342},{"name":"矢川保育園","province":"東京都","city":"国立市","address":"国立市富士見台4丁目17番地の64","lat":35.68743,"lon":139.42685},{"name":"さくらっこ保育園","province":"東京都","city":"国立市","address":"国立市中1-16-25シャトレクインテスビル2F","lat":35.69709,"lon":139.44514},{"name":"国立クムクム保育園","province":"東京都","city":"国立市","address":"国立市中2-18-2","lat":35.69167,"lon":139.44559},{"name":"春光保育園","province":"東京都","city":"国立市","address":"国立市西2丁目14番地の1","lat":35.6943,"lon":139.43251},{"name":"向陽保育園","province":"東京都","city":"国立市","address":"国立市谷保6746番地","lat":35.68467,"lon":139.42892},{"name":"国立あおいとり保育園","province":"東京都","city":"国立市","address":"国立市泉5丁目2番地の1","lat":35.67921,"lon":139.42873},{"name":"国立あゆみ保育園","province":"東京都","city":"国立市","address":"国立市矢川3丁目20番地の24","lat":35.68165,"lon":139.43045},{"name":"国立市立矢川保育園","province":"東京都","city":"国立市","address":"国立市谷保6800-2","lat":35.68364,"lon":139.42963},{"name":"国立あゆみ保育園","province":"東京都","city":"国立市","address":"国立市矢川3-20-24","lat":35.68162,"lon":139.430331},{"name":"国立あおいとり保育園","province":"東京都","city":"国立市","address":"国立市泉5-2-1","lat":35.6792,"lon":139.42868},{"name":"国立保育園","province":"東京都","city":"国立市","address":"国立市北2-30-1","lat":35.70104,"lon":139.43453},{"name":"さくらっこ保育園","province":"東京都","city":"国立市","address":"国立市中1-16-25シャトレクインテスビル2F","lat":35.69709,"lon":139.44515},{"name":"向陽保育園","province":"東京都","city":"国立市","address":"国立市谷保6746","lat":35.68467,"lon":139.42893},{"name":"きたひだまり保育園","province":"東京都","city":"国立市","address":"国立市北3-42-1","lat":35.69912,"lon":139.43164},{"name":"国立あゆみ保育園","province":"東京都","city":"国立市","address":"国立市矢川3丁目20番地の24","lat":35.68147,"lon":139.42723},{"name":"国立保育園","province":"東京都","city":"国立市","address":"国立市北2丁目30番の1","lat":35.70104,"lon":139.43452},{"name":"きたひだまり保育園","province":"東京都","city":"国立市","address":"国立市北3-42-1","lat":35.70153,"lon":139.4296},{"name":"国立ひまわり保育園","province":"東京都","city":"国立市","address":"国立市北3-7-14","lat":35.6993,"lon":139.43045},{"name":"北保育園","province":"東京都","city":"国立市","address":"国立市北3丁目1番地の1","lat":35.69912,"lon":139.43164},{"name":"あいわ保育園","province":"東京都","city":"国立市","address":"国立市東2丁目25番地の1","lat":35.69101,"lon":139.44786},{"name":"和光保育園","province":"東京都","city":"国立市","address":"国立市東2丁目2番地の1","lat":35.69591,"lon":139.45076},{"name":"国立市立東保育園","province":"東京都","city":"国立市","address":"国立市富士見台1丁目45番地の17","lat":35.68218,"lon":139.4512},{"name":"国立たいよう保育園","province":"東京都","city":"国立市","address":"国立市富士見台2-13-10","lat":35.68321,"lon":139.44632},{"name":"国立市立なかよし保育園","province":"東京都","city":"国立市","address":"国立市富士見台2丁目46番地","lat":35.68516,"lon":139.44183},{"name":"認定こども園国立富士見台団地風の子","province":"東京都","city":"国立市","address":"国立市富士見台3-7-1","lat":35.6849204,"lon":139.4395509},{"name":"こぐまこどものいえ","province":"東京都","city":"国立市","address":"国立市富士見台3丁目35番地の15","lat":35.68515,"lon":139.43356},{"name":"国立市立西保育園","province":"東京都","city":"国立市","address":"国立市富士見台3丁目45番地の1","lat":35.68905,"lon":139.4342},{"name":"矢川保育園","province":"東京都","city":"国立市","address":"国立市富士見台4丁目17番地の64","lat":35.68743,"lon":139.42685},{"name":"さくらっこ保育園","province":"東京都","city":"国立市","address":"国立市中1-16-25シャトレクインテスビル2F","lat":35.69709,"lon":139.44514},{"name":"国立クムクム保育園","province":"東京都","city":"国立市","address":"国立市中2-18-2","lat":35.69167,"lon":139.44559},{"name":"春光保育園","province":"東京都","city":"国立市","address":"国立市西2丁目14番地の1","lat":35.6943,"lon":139.43251},{"name":"向陽保育園","province":"東京都","city":"国立市","address":"国立市谷保6746番地","lat":35.68467,"lon":139.42892},{"name":"国立あおいとり保育園","province":"東京都","city":"国立市","address":"国立市泉5丁目2番地の1","lat":35.67921,"lon":139.42873},{"name":"国立あゆみ保育園","province":"東京都","city":"国立市","address":"国立市矢川3丁目20番地の24","lat":35.68165,"lon":139.43045},{"name":"国立市立矢川保育園","province":"東京都","city":"国立市","address":"国立市谷保6800-2","lat":35.68364,"lon":139.42963},{"name":"国立あゆみ保育園","province":"東京都","city":"国立市","address":"国立市矢川3-20-24","lat":35.68162,"lon":139.430331},{"name":"国立あおいとり保育園","province":"東京都","city":"国立市","address":"国立市泉5-2-1","lat":35.6792,"lon":139.42868},{"name":"国立保育園","province":"東京都","city":"国立市","address":"国立市北2-30-1","lat":35.70104,"lon":139.43453},{"name":"さくらっこ保育園","province":"東京都","city":"国立市","address":"国立市中1-16-25シャトレクインテスビル2F","lat":35.69709,"lon":139.44515},{"name":"向陽保育園","province":"東京都","city":"国立市","address":"国立市谷保6746","lat":35.68467,"lon":139.42893},{"name":"きたひだまり保育園","province":"東京都","city":"国立市","address":"国立市北3-42-1","lat":35.69912,"lon":139.43164},{"name":"国立あゆみ保育園","province":"東京都","city":"国立市","address":"国立市矢川3丁目20番地の24","lat":35.68147,"lon":139.42723},{"name":"国立保育園","province":"東京都","city":"国立市","address":"国立市北2丁目30番の1","lat":35.70104,"lon":139.43452},{"name":"きたひだまり保育園","province":"東京都","city":"国立市","address":"国立市北3-42-1","lat":35.70153,"lon":139.4296},{"name":"国立ひまわり保育園","province":"東京都","city":"国立市","address":"国立市北3-7-14","lat":35.6993,"lon":139.43045},{"name":"北保育園","province":"東京都","city":"国立市","address":"国立市北3丁目1番地の1","lat":35.69912,"lon":139.43164},{"name":"あいわ保育園","province":"東京都","city":"国立市","address":"国立市東2丁目25番地の1","lat":35.69101,"lon":139.44786},{"name":"和光保育園","province":"東京都","city":"国立市","address":"国立市東2丁目2番地の1","lat":35.69591,"lon":139.45076},{"name":"国立市立東保育園","province":"東京都","city":"国立市","address":"国立市富士見台1丁目45番地の17","lat":35.68218,"lon":139.4512},{"name":"国立たいよう保育園","province":"東京都","city":"国立市","address":"国立市富士見台2-13-10","lat":35.68321,"lon":139.44632},{"name":"国立市立なかよし保育園","province":"東京都","city":"国立市","address":"国立市富士見台2丁目46番地","lat":35.68516,"lon":139.44183},{"name":"認定こども園国立富士見台団地風の子","province":"東京都","city":"国立市","address":"国立市富士見台3-7-1","lat":35.6849204,"lon":139.4395509},{"name":"こぐまこどものいえ","province":"東京都","city":"国立市","address":"国立市富士見台3丁目35番地の15","lat":35.68515,"lon":139.43356},{"name":"国立市立西保育園","province":"東京都","city":"国立市","address":"国立市富士見台3丁目45番地の1","lat":35.68905,"lon":139.4342},{"name":"矢川保育園","province":"東京都","city":"国立市","address":"国立市富士見台4丁目17番地の64","lat":35.68743,"lon":139.42685},{"name":"さくらっこ保育園","province":"東京都","city":"国立市","address":"国立市中1-16-25シャトレクインテスビル2F","lat":35.69709,"lon":139.44514},{"name":"国立クムクム保育園","province":"東京都","city":"国立市","address":"国立市中2-18-2","lat":35.69167,"lon":139.44559},{"name":"春光保育園","province":"東京都","city":"国立市","address":"国立市西2丁目14番地の1","lat":35.6943,"lon":139.43251},{"name":"向陽保育園","province":"東京都","city":"国立市","address":"国立市谷保6746番地","lat":35.68467,"lon":139.42892},{"name":"国立あおいとり保育園","province":"東京都","city":"国立市","address":"国立市泉5丁目2番地の1","lat":35.67921,"lon":139.42873},{"name":"国立あゆみ保育園","province":"東京都","city":"国立市","address":"国立市矢川3丁目20番地の24","lat":35.68165,"lon":139.43045},{"name":"国立市立矢川保育園","province":"東京都","city":"国立市","address":"国立市谷保6800-2","lat":35.68364,"lon":139.42963},{"name":"国立あゆみ保育園","province":"東京都","city":"国立市","address":"国立市矢川3-20-24","lat":35.68162,"lon":139.430331},{"name":"国立あおいとり保育園","province":"東京都","city":"国立市","address":"国立市泉5-2-1","lat":35.6792,"lon":139.42868},{"name":"国立保育園","province":"東京都","city":"国立市","address":"国立市北2-30-1","lat":35.70104,"lon":139.43453},{"name":"さくらっこ保育園","province":"東京都","city":"国立市","address":"国立市中1-16-25シャトレクインテスビル2F","lat":35.69709,"lon":139.44515},{"name":"向陽保育園","province":"東京都","city":"国立市","address":"国立市谷保6746","lat":35.68467,"lon":139.42893},{"name":"きたひだまり保育園","province":"東京都","city":"国立市","address":"国立市北3-42-1","lat":35.69912,"lon":139.43164},{"name":"国立あゆみ保育園","province":"東京都","city":"国立市","address":"国立市矢川3丁目20番地の24","lat":35.68147,"lon":139.42723},{"name":"国立保育園","province":"東京都","city":"国立市","address":"国立市北2丁目30番の1","lat":35.70104,"lon":139.43452},{"name":"きたひだまり保育園","province":"東京都","city":"国立市","address":"国立市北3-42-1","lat":35.70153,"lon":139.4296},{"name":"国立ひまわり保育園","province":"東京都","city":"国立市","address":"国立市北3-7-14","lat":35.6993,"lon":139.43045},{"name":"北保育園","province":"東京都","city":"国立市","address":"国立市北3丁目1番地の1","lat":35.69912,"lon":139.43164},{"name":"あいわ保育園","province":"東京都","city":"国立市","address":"国立市東2丁目25番地の1","lat":35.69101,"lon":139.44786},{"name":"和光保育園","province":"東京都","city":"国立市","address":"国立市東2丁目2番地の1","lat":35.69591,"lon":139.45076},{"name":"国立市立東保育園","province":"東京都","city":"国立市","address":"国立市富士見台1丁目45番地の17","lat":35.68218,"lon":139.4512},{"name":"国立たいよう保育園","province":"東京都","city":"国立市","address":"国立市富士見台2-13-10","lat":35.68321,"lon":139.44632},{"name":"国立市立なかよし保育園","province":"東京都","city":"国立市","address":"国立市富士見台2丁目46番地","lat":35.68516,"lon":139.44183},{"name":"認定こども園国立富士見台団地風の子","province":"東京都","city":"国立市","address":"国立市富士見台3-7-1","lat":35.6849204,"lon":139.4395509},{"name":"こぐまこどものいえ","province":"東京都","city":"国立市","address":"国立市富士見台3丁目35番地の15","lat":35.68515,"lon":139.43356},{"name":"国立市立西保育園","province":"東京都","city":"国立市","address":"国立市富士見台3丁目45番地の1","lat":35.68905,"lon":139.4342},{"name":"矢川保育園","province":"東京都","city":"国立市","address":"国立市富士見台4丁目17番地の64","lat":35.68743,"lon":139.42685},{"name":"さくらっこ保育園","province":"東京都","city":"国立市","address":"国立市中1-16-25シャトレクインテスビル2F","lat":35.69709,"lon":139.44514},{"name":"国立クムクム保育園","province":"東京都","city":"国立市","address":"国立市中2-18-2","lat":35.69167,"lon":139.44559},{"name":"春光保育園","province":"東京都","city":"国立市","address":"国立市西2丁目14番地の1","lat":35.6943,"lon":139.43251},{"name":"向陽保育園","province":"東京都","city":"国立市","address":"国立市谷保6746番地","lat":35.68467,"lon":139.42892},{"name":"国立あおいとり保育園","province":"東京都","city":"国立市","address":"国立市泉5丁目2番地の1","lat":35.67921,"lon":139.42873},{"name":"国立あゆみ保育園","province":"東京都","city":"国立市","address":"国立市矢川3丁目20番地の24","lat":35.68165,"lon":139.43045},{"name":"国立市立矢川保育園","province":"東京都","city":"国立市","address":"国立市谷保6800-2","lat":35.68364,"lon":139.42963},{"name":"国立あゆみ保育園","province":"東京都","city":"国立市","address":"国立市矢川3-20-24","lat":35.68162,"lon":139.430331},{"name":"国立あおいとり保育園","province":"東京都","city":"国立市","address":"国立市泉5-2-1","lat":35.6792,"lon":139.42868},{"name":"国立保育園","province":"東京都","city":"国立市","address":"国立市北2-30-1","lat":35.70104,"lon":139.43453},{"name":"さくらっこ保育園","province":"東京都","city":"国立市","address":"国立市中1-16-25シャトレクインテスビル2F","lat":35.69709,"lon":139.44515},{"name":"向陽保育園","province":"東京都","city":"国立市","address":"国立市谷保6746","lat":35.68467,"lon":139.42893},{"name":"きたひだまり保育園","province":"東京都","city":"国立市","address":"国立市北3-42-1","lat":35.69912,"lon":139.43164},{"name":"国立あゆみ保育園","province":"東京都","city":"国立市","address":"国立市矢川3丁目20番地の24","lat":35.68147,"lon":139.42723},{"name":"国立保育園","province":"東京都","city":"国立市","address":"国立市北2丁目30番の1","lat":35.70104,"lon":139.43452},{"name":"きたひだまり保育園","province":"東京都","city":"国立市","address":"国立市北3-42-1","lat":35.70153,"lon":139.4296},{"name":"国立ひまわり保育園","province":"東京都","city":"国立市","address":"国立市北3-7-14","lat":35.6993,"lon":139.43045},{"name":"北保育園","province":"東京都","city":"国立市","address":"国立市北3丁目1番地の1","lat":35.69912,"lon":139.43164},{"name":"あいわ保育園","province":"東京都","city":"国立市","address":"国立市東2丁目25番地の1","lat":35.69101,"lon":139.44786},{"name":"和光保育園","province":"東京都","city":"国立市","address":"国立市東2丁目2番地の1","lat":35.69591,"lon":139.45076},{"name":"国立市立東保育園","province":"東京都","city":"国立市","address":"国立市富士見台1丁目45番地の17","lat":35.68218,"lon":139.4512},{"name":"国立たいよう保育園","province":"東京都","city":"国立市","address":"国立市富士見台2-13-10","lat":35.68321,"lon":139.44632},{"name":"国立市立なかよし保育園","province":"東京都","city":"国立市","address":"国立市富士見台2丁目46番地","lat":35.68516,"lon":139.44183},{"name":"認定こども園国立富士見台団地風の子","province":"東京都","city":"国立市","address":"国立市富士見台3-7-1","lat":35.6849204,"lon":139.4395509},{"name":"こぐまこどものいえ","province":"東京都","city":"国立市","address":"国立市富士見台3丁目35番地の15","lat":35.68515,"lon":139.43356},{"name":"国立市立西保育園","province":"東京都","city":"国立市","address":"国立市富士見台3丁目45番地の1","lat":35.68905,"lon":139.4342},{"name":"矢川保育園","province":"東京都","city":"国立市","address":"国立市富士見台4丁目17番地の64","lat":35.68743,"lon":139.42685},{"name":"さくらっこ保育園","province":"東京都","city":"国立市","address":"国立市中1-16-25シャトレクインテスビル2F","lat":35.69709,"lon":139.44514},{"name":"国立クムクム保育園","province":"東京都","city":"国立市","address":"国立市中2-18-2","lat":35.69167,"lon":139.44559},{"name":"春光保育園","province":"東京都","city":"国立市","address":"国立市西2丁目14番地の1","lat":35.6943,"lon":139.43251},{"name":"向陽保育園","province":"東京都","city":"国立市","address":"国立市谷保6746番地","lat":35.68467,"lon":139.42892},{"name":"国立あおいとり保育園","province":"東京都","city":"国立市","address":"国立市泉5丁目2番地の1","lat":35.67921,"lon":139.42873},{"name":"国立あゆみ保育園","province":"東京都","city":"国立市","address":"国立市矢川3丁目20番地の24","lat":35.68165,"lon":139.43045},{"name":"国立市立矢川保育園","province":"東京都","city":"国立市","address":"国立市谷保6800-2","lat":35.68364,"lon":139.42963},{"name":"国立あゆみ保育園","province":"東京都","city":"国立市","address":"国立市矢川3-20-24","lat":35.68162,"lon":139.430331},{"name":"国立あおいとり保育園","province":"東京都","city":"国立市","address":"国立市泉5-2-1","lat":35.6792,"lon":139.42868},{"name":"国立保育園","province":"東京都","city":"国立市","address":"国立市北2-30-1","lat":35.70104,"lon":139.43453},{"name":"さくらっこ保育園","province":"東京都","city":"国立市","address":"国立市中1-16-25シャトレクインテスビル2F","lat":35.69709,"lon":139.44515},{"name":"向陽保育園","province":"東京都","city":"国立市","address":"国立市谷保6746","lat":35.68467,"lon":139.42893},{"name":"きたひだまり保育園","province":"東京都","city":"国立市","address":"国立市北3-42-1","lat":35.69912,"lon":139.43164},{"name":"国立あゆみ保育園","province":"東京都","city":"国立市","address":"国立市矢川3丁目20番地の24","lat":35.68147,"lon":139.42723},{"name":"国立保育園","province":"東京都","city":"国立市","address":"国立市北2丁目30番の1","lat":35.70104,"lon":139.43452},{"name":"きたひだまり保育園","province":"東京都","city":"国立市","address":"国立市北3-42-1","lat":35.70153,"lon":139.4296},{"name":"国立ひまわり保育園","province":"東京都","city":"国立市","address":"国立市北3-7-14","lat":35.6993,"lon":139.43045},{"name":"北保育園","province":"東京都","city":"国立市","address":"国立市北3丁目1番地の1","lat":35.69912,"lon":139.43164},{"name":"あいわ保育園","province":"東京都","city":"国立市","address":"国立市東2丁目25番地の1","lat":35.69101,"lon":139.44786},{"name":"和光保育園","province":"東京都","city":"国立市","address":"国立市東2丁目2番地の1","lat":35.69591,"lon":139.45076},{"name":"国立市立東保育園","province":"東京都","city":"国立市","address":"国立市富士見台1丁目45番地の17","lat":35.68218,"lon":139.4512},{"name":"国立たいよう保育園","province":"東京都","city":"国立市","address":"国立市富士見台2-13-10","lat":35.68321,"lon":139.44632},{"name":"国立市立なかよし保育園","province":"東京都","city":"国立市","address":"国立市富士見台2丁目46番地","lat":35.68516,"lon":139.44183},{"name":"認定こども園国立富士見台団地風の子","province":"東京都","city":"国立市","address":"国立市富士見台3-7-1","lat":35.6849204,"lon":139.4395509},{"name":"こぐまこどものいえ","province":"東京都","city":"国立市","address":"国立市富士見台3丁目35番地の15","lat":35.68515,"lon":139.43356},{"name":"国立市立西保育園","province":"東京都","city":"国立市","address":"国立市富士見台3丁目45番地の1","lat":35.68905,"lon":139.4342},{"name":"矢川保育園","province":"東京都","city":"国立市","address":"国立市富士見台4丁目17番地の64","lat":35.68743,"lon":139.42685},{"name":"さくらっこ保育園","province":"東京都","city":"国立市","address":"国立市中1-16-25シャトレクインテスビル2F","lat":35.69709,"lon":139.44514},{"name":"国立クムクム保育園","province":"東京都","city":"国立市","address":"国立市中2-18-2","lat":35.69167,"lon":139.44559},{"name":"春光保育園","province":"東京都","city":"国立市","address":"国立市西2丁目14番地の1","lat":35.6943,"lon":139.43251},{"name":"向陽保育園","province":"東京都","city":"国立市","address":"国立市谷保6746番地","lat":35.68467,"lon":139.42892},{"name":"国立あおいとり保育園","province":"東京都","city":"国立市","address":"国立市泉5丁目2番地の1","lat":35.67921,"lon":139.42873},{"name":"国立あゆみ保育園","province":"東京都","city":"国立市","address":"国立市矢川3丁目20番地の24","lat":35.68165,"lon":139.43045},{"name":"国立市立矢川保育園","province":"東京都","city":"国立市","address":"国立市谷保6800-2","lat":35.68364,"lon":139.42963},{"name":"国立あゆみ保育園","province":"東京都","city":"国立市","address":"国立市矢川3-20-24","lat":35.68162,"lon":139.430331},{"name":"国立あおいとり保育園","province":"東京都","city":"国立市","address":"国立市泉5-2-1","lat":35.6792,"lon":139.42868},{"name":"国立保育園","province":"東京都","city":"国立市","address":"国立市北2-30-1","lat":35.70104,"lon":139.43453},{"name":"さくらっこ保育園","province":"東京都","city":"国立市","address":"国立市中1-16-25シャトレクインテスビル2F","lat":35.69709,"lon":139.44515},{"name":"向陽保育園","province":"東京都","city":"国立市","address":"国立市谷保6746","lat":35.68467,"lon":139.42893},{"name":"きたひだまり保育園","province":"東京都","city":"国立市","address":"国立市北3-42-1","lat":35.69912,"lon":139.43164},{"name":"国立あゆみ保育園","province":"東京都","city":"国立市","address":"国立市矢川3丁目20番地の24","lat":35.68147,"lon":139.42723},{"name":"国立保育園","province":"東京都","city":"国立市","address":"国立市北2丁目30番の1","lat":35.70104,"lon":139.43452},{"name":"きたひだまり保育園","province":"東京都","city":"国立市","address":"国立市北3-42-1","lat":35.70153,"lon":139.4296},{"name":"国立ひまわり保育園","province":"東京都","city":"国立市","address":"国立市北3-7-14","lat":35.6993,"lon":139.43045},{"name":"北保育園","province":"東京都","city":"国立市","address":"国立市北3丁目1番地の1","lat":35.69912,"lon":139.43164},{"name":"あいわ保育園","province":"東京都","city":"国立市","address":"国立市東2丁目25番地の1","lat":35.69101,"lon":139.44786},{"name":"和光保育園","province":"東京都","city":"国立市","address":"国立市東2丁目2番地の1","lat":35.69591,"lon":139.45076},{"name":"国立市立東保育園","province":"東京都","city":"国立市","address":"国立市富士見台1丁目45番地の17","lat":35.68218,"lon":139.4512},{"name":"国立たいよう保育園","province":"東京都","city":"国立市","address":"国立市富士見台2-13-10","lat":35.68321,"lon":139.44632},{"name":"国立市立なかよし保育園","province":"東京都","city":"国立市","address":"国立市富士見台2丁目46番地","lat":35.68516,"lon":139.44183},{"name":"認定こども園国立富士見台団地風の子","province":"東京都","city":"国立市","address":"国立市富士見台3-7-1","lat":35.6849204,"lon":139.4395509},{"name":"こぐまこどものいえ","province":"東京都","city":"国立市","address":"国立市富士見台3丁目35番地の15","lat":35.68515,"lon":139.43356},{"name":"国立市立西保育園","province":"東京都","city":"国立市","address":"国立市富士見台3丁目45番地の1","lat":35.68905,"lon":139.4342},{"name":"矢川保育園","province":"東京都","city":"国立市","address":"国立市富士見台4丁目17番地の64","lat":35.68743,"lon":139.42685},{"name":"さくらっこ保育園","province":"東京都","city":"国立市","address":"国立市中1-16-25シャトレクインテスビル2F","lat":35.69709,"lon":139.44514},{"name":"国立クムクム保育園","province":"東京都","city":"国立市","address":"国立市中2-18-2","lat":35.69167,"lon":139.44559},{"name":"春光保育園","province":"東京都","city":"国立市","address":"国立市西2丁目14番地の1","lat":35.6943,"lon":139.43251},{"name":"向陽保育園","province":"東京都","city":"国立市","address":"国立市谷保6746番地","lat":35.68467,"lon":139.42892},{"name":"国立あおいとり保育園","province":"東京都","city":"国立市","address":"国立市泉5丁目2番地の1","lat":35.67921,"lon":139.42873},{"name":"国立あゆみ保育園","province":"東京都","city":"国立市","address":"国立市矢川3丁目20番地の24","lat":35.68165,"lon":139.43045},{"name":"国立市立矢川保育園","province":"東京都","city":"国立市","address":"国立市谷保6800-2","lat":35.68364,"lon":139.42963},{"name":"国立あゆみ保育園","province":"東京都","city":"国立市","address":"国立市矢川3-20-24","lat":35.68162,"lon":139.430331},{"name":"国立あおいとり保育園","province":"東京都","city":"国立市","address":"国立市泉5-2-1","lat":35.6792,"lon":139.42868},{"name":"国立保育園","province":"東京都","city":"国立市","address":"国立市北2-30-1","lat":35.70104,"lon":139.43453},{"name":"さくらっこ保育園","province":"東京都","city":"国立市","address":"国立市中1-16-25シャトレクインテスビル2F","lat":35.69709,"lon":139.44515},{"name":"向陽保育園","province":"東京都","city":"国立市","address":"国立市谷保6746","lat":35.68467,"lon":139.42893},{"name":"きたひだまり保育園","province":"東京都","city":"国立市","address":"国立市北3-42-1","lat":35.69912,"lon":139.43164},{"name":"国立あゆみ保育園","province":"東京都","city":"国立市","address":"国立市矢川3丁目20番地の24","lat":35.68147,"lon":139.42723},{"name":"国立保育園","province":"東京都","city":"国立市","address":"国立市北2丁目30番の1","lat":35.70104,"lon":139.43452},{"name":"きたひだまり保育園","province":"東京都","city":"国立市","address":"国立市北3-42-1","lat":35.70153,"lon":139.4296},{"name":"国立ひまわり保育園","province":"東京都","city":"国立市","address":"国立市北3-7-14","lat":35.6993,"lon":139.43045},{"name":"北保育園","province":"東京都","city":"国立市","address":"国立市北3丁目1番地の1","lat":35.69912,"lon":139.43164},{"name":"あいわ保育園","province":"東京都","city":"国立市","address":"国立市東2丁目25番地の1","lat":35.69101,"lon":139.44786},{"name":"和光保育園","province":"東京都","city":"国立市","address":"国立市東2丁目2番地の1","lat":35.69591,"lon":139.45076},{"name":"国立市立東保育園","province":"東京都","city":"国立市","address":"国立市富士見台1丁目45番地の17","lat":35.68218,"lon":139.4512},{"name":"国立たいよう保育園","province":"東京都","city":"国立市","address":"国立市富士見台2-13-10","lat":35.68321,"lon":139.44632},{"name":"国立市立なかよし保育園","province":"東京都","city":"国立市","address":"国立市富士見台2丁目46番地","lat":35.68516,"lon":139.44183},{"name":"認定こども園国立富士見台団地風の子","province":"東京都","city":"国立市","address":"国立市富士見台3-7-1","lat":35.6849204,"lon":139.4395509},{"name":"こぐまこどものいえ","province":"東京都","city":"国立市","address":"国立市富士見台3丁目35番地の15","lat":35.68515,"lon":139.43356},{"name":"国立市立西保育園","province":"東京都","city":"国立市","address":"国立市富士見台3丁目45番地の1","lat":35.68905,"lon":139.4342},{"name":"矢川保育園","province":"東京都","city":"国立市","address":"国立市富士見台4丁目17番地の64","lat":35.68743,"lon":139.42685},{"name":"さくらっこ保育園","province":"東京都","city":"国立市","address":"国立市中1-16-25シャトレクインテスビル2F","lat":35.69709,"lon":139.44514},{"name":"国立クムクム保育園","province":"東京都","city":"国立市","address":"国立市中2-18-2","lat":35.69167,"lon":139.44559},{"name":"春光保育園","province":"東京都","city":"国立市","address":"国立市西2丁目14番地の1","lat":35.6943,"lon":139.43251},{"name":"向陽保育園","province":"東京都","city":"国立市","address":"国立市谷保6746番地","lat":35.68467,"lon":139.42892},{"name":"国立あおいとり保育園","province":"東京都","city":"国立市","address":"国立市泉5丁目2番地の1","lat":35.67921,"lon":139.42873},{"name":"国立あゆみ保育園","province":"東京都","city":"国立市","address":"国立市矢川3丁目20番地の24","lat":35.68165,"lon":139.43045},{"name":"国立市立矢川保育園","province":"東京都","city":"国立市","address":"国立市谷保6800-2","lat":35.68364,"lon":139.42963},{"name":"国立あゆみ保育園","province":"東京都","city":"国立市","address":"国立市矢川3-20-24","lat":35.68162,"lon":139.430331},{"name":"国立あおいとり保育園","province":"東京都","city":"国立市","address":"国立市泉5-2-1","lat":35.6792,"lon":139.42868},{"name":"国立保育園","province":"東京都","city":"国立市","address":"国立市北2-30-1","lat":35.70104,"lon":139.43453},{"name":"さくらっこ保育園","province":"東京都","city":"国立市","address":"国立市中1-16-25シャトレクインテスビル2F","lat":35.69709,"lon":139.44515},{"name":"向陽保育園","province":"東京都","city":"国立市","address":"国立市谷保6746","lat":35.68467,"lon":139.42893},{"name":"きたひだまり保育園","province":"東京都","city":"国立市","address":"国立市北3-42-1","lat":35.69912,"lon":139.43164},{"name":"国立あゆみ保育園","province":"東京都","city":"国立市","address":"国立市矢川3丁目20番地の24","lat":35.68147,"lon":139.42723},{"name":"国立保育園","province":"東京都","city":"国立市","address":"国立市北2丁目30番の1","lat":35.70104,"lon":139.43452},{"name":"きたひだまり保育園","province":"東京都","city":"国立市","address":"国立市北3-42-1","lat":35.70153,"lon":139.4296},{"name":"国立ひまわり保育園","province":"東京都","city":"国立市","address":"国立市北3-7-14","lat":35.6993,"lon":139.43045},{"name":"北保育園","province":"東京都","city":"国立市","address":"国立市北3丁目1番地の1","lat":35.69912,"lon":139.43164},{"name":"あいわ保育園","province":"東京都","city":"国立市","address":"国立市東2丁目25番地の1","lat":35.69101,"lon":139.44786},{"name":"和光保育園","province":"東京都","city":"国立市","address":"国立市東2丁目2番地の1","lat":35.69591,"lon":139.45076},{"name":"国立市立東保育園","province":"東京都","city":"国立市","address":"国立市富士見台1丁目45番地の17","lat":35.68218,"lon":139.4512},{"name":"国立たいよう保育園","province":"東京都","city":"国立市","address":"国立市富士見台2-13-10","lat":35.68321,"lon":139.44632},{"name":"国立市立なかよし保育園","province":"東京都","city":"国立市","address":"国立市富士見台2丁目46番地","lat":35.68516,"lon":139.44183},{"name":"認定こども園国立富士見台団地風の子","province":"東京都","city":"国立市","address":"国立市富士見台3-7-1","lat":35.6849204,"lon":139.4395509},{"name":"こぐまこどものいえ","province":"東京都","city":"国立市","address":"国立市富士見台3丁目35番地の15","lat":35.68515,"lon":139.43356},{"name":"国立市立西保育園","province":"東京都","city":"国立市","address":"国立市富士見台3丁目45番地の1","lat":35.68905,"lon":139.4342},{"name":"矢川保育園","province":"東京都","city":"国立市","address":"国立市富士見台4丁目17番地の64","lat":35.68743,"lon":139.42685},{"name":"さくらっこ保育園","province":"東京都","city":"国立市","address":"国立市中1-16-25シャトレクインテスビル2F","lat":35.69709,"lon":139.44514},{"name":"国立クムクム保育園","province":"東京都","city":"国立市","address":"国立市中2-18-2","lat":35.69167,"lon":139.44559},{"name":"春光保育園","province":"東京都","city":"国立市","address":"国立市西2丁目14番地の1","lat":35.6943,"lon":139.43251},{"name":"向陽保育園","province":"東京都","city":"国立市","address":"国立市谷保6746番地","lat":35.68467,"lon":139.42892},{"name":"国立あおいとり保育園","province":"東京都","city":"国立市","address":"国立市泉5丁目2番地の1","lat":35.67921,"lon":139.42873},{"name":"国立あゆみ保育園","province":"東京都","city":"国立市","address":"国立市矢川3丁目20番地の24","lat":35.68165,"lon":139.43045},{"name":"国立市立矢川保育園","province":"東京都","city":"国立市","address":"国立市谷保6800-2","lat":35.68364,"lon":139.42963},{"name":"国立あゆみ保育園","province":"東京都","city":"国立市","address":"国立市矢川3-20-24","lat":35.68162,"lon":139.430331},{"name":"国立あおいとり保育園","province":"東京都","city":"国立市","address":"国立市泉5-2-1","lat":35.6792,"lon":139.42868},{"name":"国立保育園","province":"東京都","city":"国立市","address":"国立市北2-30-1","lat":35.70104,"lon":139.43453},{"name":"さくらっこ保育園","province":"東京都","city":"国立市","address":"国立市中1-16-25シャトレクインテスビル2F","lat":35.69709,"lon":139.44515},{"name":"向陽保育園","province":"東京都","city":"国立市","address":"国立市谷保6746","lat":35.68467,"lon":139.42893},{"name":"きたひだまり保育園","province":"東京都","city":"国立市","address":"国立市北3-42-1","lat":35.69912,"lon":139.43164},{"name":"国立あゆみ保育園","province":"東京都","city":"国立市","address":"国立市矢川3丁目20番地の24","lat":35.68147,"lon":139.42723},{"name":"国立保育園","province":"東京都","city":"国立市","address":"国立市北2丁目30番の1","lat":35.70104,"lon":139.43452},{"name":"きたひだまり保育園","province":"東京都","city":"国立市","address":"国立市北3-42-1","lat":35.70153,"lon":139.4296},{"name":"国立ひまわり保育園","province":"東京都","city":"国立市","address":"国立市北3-7-14","lat":35.6993,"lon":139.43045},{"name":"北保育園","province":"東京都","city":"国立市","address":"国立市北3丁目1番地の1","lat":35.69912,"lon":139.43164},{"name":"あいわ保育園","province":"東京都","city":"国立市","address":"国立市東2丁目25番地の1","lat":35.69101,"lon":139.44786},{"name":"和光保育園","province":"東京都","city":"国立市","address":"国立市東2丁目2番地の1","lat":35.69591,"lon":139.45076},{"name":"国立市立東保育園","province":"東京都","city":"国立市","address":"国立市富士見台1丁目45番地の17","lat":35.68218,"lon":139.4512},{"name":"国立たいよう保育園","province":"東京都","city":"国立市","address":"国立市富士見台2-13-10","lat":35.68321,"lon":139.44632},{"name":"国立市立なかよし保育園","province":"東京都","city":"国立市","address":"国立市富士見台2丁目46番地","lat":35.68516,"lon":139.44183},{"name":"認定こども園国立富士見台団地風の子","province":"東京都","city":"国立市","address":"国立市富士見台3-7-1","lat":35.6849204,"lon":139.4395509},{"name":"こぐまこどものいえ","province":"東京都","city":"国立市","address":"国立市富士見台3丁目35番地の15","lat":35.68515,"lon":139.43356},{"name":"国立市立西保育園","province":"東京都","city":"国立市","address":"国立市富士見台3丁目45番地の1","lat":35.68905,"lon":139.4342},{"name":"矢川保育園","province":"東京都","city":"国立市","address":"国立市富士見台4丁目17番地の64","lat":35.68743,"lon":139.42685},{"name":"さくらっこ保育園","province":"東京都","city":"国立市","address":"国立市中1-16-25シャトレクインテスビル2F","lat":35.69709,"lon":139.44514},{"name":"国立クムクム保育園","province":"東京都","city":"国立市","address":"国立市中2-18-2","lat":35.69167,"lon":139.44559},{"name":"春光保育園","province":"東京都","city":"国立市","address":"国立市西2丁目14番地の1","lat":35.6943,"lon":139.43251},{"name":"向陽保育園","province":"東京都","city":"国立市","address":"国立市谷保6746番地","lat":35.68467,"lon":139.42892},{"name":"国立あおいとり保育園","province":"東京都","city":"国立市","address":"国立市泉5丁目2番地の1","lat":35.67921,"lon":139.42873},{"name":"国立あゆみ保育園","province":"東京都","city":"国立市","address":"国立市矢川3丁目20番地の24","lat":35.68165,"lon":139.43045},{"name":"国立市立矢川保育園","province":"東京都","city":"国立市","address":"国立市谷保6800-2","lat":35.68364,"lon":139.42963},{"name":"国立あゆみ保育園","province":"東京都","city":"国立市","address":"国立市矢川3-20-24","lat":35.68162,"lon":139.430331},{"name":"国立あおいとり保育園","province":"東京都","city":"国立市","address":"国立市泉5-2-1","lat":35.6792,"lon":139.42868},{"name":"国立保育園","province":"東京都","city":"国立市","address":"国立市北2-30-1","lat":35.70104,"lon":139.43453},{"name":"さくらっこ保育園","province":"東京都","city":"国立市","address":"国立市中1-16-25シャトレクインテスビル2F","lat":35.69709,"lon":139.44515},{"name":"向陽保育園","province":"東京都","city":"国立市","address":"国立市谷保6746","lat":35.68467,"lon":139.42893},{"name":"きたひだまり保育園","province":"東京都","city":"国立市","address":"国立市北3-42-1","lat":35.69912,"lon":139.43164},{"name":"国立あゆみ保育園","province":"東京都","city":"国立市","address":"国立市矢川3丁目20番地の24","lat":35.68147,"lon":139.42723},{"name":"国立保育園","province":"東京都","city":"国立市","address":"国立市北2丁目30番の1","lat":35.70104,"lon":139.43452},{"name":"きたひだまり保育園","province":"東京都","city":"国立市","address":"国立市北3-42-1","lat":35.70153,"lon":139.4296},{"name":"国立ひまわり保育園","province":"東京都","city":"国立市","address":"国立市北3-7-14","lat":35.6993,"lon":139.43045},{"name":"北保育園","province":"東京都","city":"国立市","address":"国立市北3丁目1番地の1","lat":35.69912,"lon":139.43164},{"name":"あいわ保育園","province":"東京都","city":"国立市","address":"国立市東2丁目25番地の1","lat":35.69101,"lon":139.44786},{"name":"和光保育園","province":"東京都","city":"国立市","address":"国立市東2丁目2番地の1","lat":35.69591,"lon":139.45076},{"name":"国立市立東保育園","province":"東京都","city":"国立市","address":"国立市富士見台1丁目45番地の17","lat":35.68218,"lon":139.4512},{"name":"国立たいよう保育園","province":"東京都","city":"国立市","address":"国立市富士見台2-13-10","lat":35.68321,"lon":139.44632},{"name":"国立市立なかよし保育園","province":"東京都","city":"国立市","address":"国立市富士見台2丁目46番地","lat":35.68516,"lon":139.44183},{"name":"認定こども園国立富士見台団地風の子","province":"東京都","city":"国立市","address":"国立市富士見台3-7-1","lat":35.6849204,"lon":139.4395509},{"name":"こぐまこどものいえ","province":"東京都","city":"国立市","address":"国立市富士見台3丁目35番地の15","lat":35.68515,"lon":139.43356},{"name":"国立市立西保育園","province":"東京都","city":"国立市","address":"国立市富士見台3丁目45番地の1","lat":35.68905,"lon":139.4342},{"name":"矢川保育園","province":"東京都","city":"国立市","address":"国立市富士見台4丁目17番地の64","lat":35.68743,"lon":139.42685},{"name":"さくらっこ保育園","province":"東京都","city":"国立市","address":"国立市中1-16-25シャトレクインテスビル2F","lat":35.69709,"lon":139.44514},{"name":"国立クムクム保育園","province":"東京都","city":"国立市","address":"国立市中2-18-2","lat":35.69167,"lon":139.44559},{"name":"春光保育園","province":"東京都","city":"国立市","address":"国立市西2丁目14番地の1","lat":35.6943,"lon":139.43251},{"name":"向陽保育園","province":"東京都","city":"国立市","address":"国立市谷保6746番地","lat":35.68467,"lon":139.42892},{"name":"国立あおいとり保育園","province":"東京都","city":"国立市","address":"国立市泉5丁目2番地の1","lat":35.67921,"lon":139.42873},{"name":"国立あゆみ保育園","province":"東京都","city":"国立市","address":"国立市矢川3丁目20番地の24","lat":35.68165,"lon":139.43045},{"name":"国立市立矢川保育園","province":"東京都","city":"国立市","address":"国立市谷保6800-2","lat":35.68364,"lon":139.42963},{"name":"国立あゆみ保育園","province":"東京都","city":"国立市","address":"国立市矢川3-20-24","lat":35.68162,"lon":139.430331},{"name":"国立あおいとり保育園","province":"東京都","city":"国立市","address":"国立市泉5-2-1","lat":35.6792,"lon":139.42868},{"name":"国立保育園","province":"東京都","city":"国立市","address":"国立市北2-30-1","lat":35.70104,"lon":139.43453},{"name":"さくらっこ保育園","province":"東京都","city":"国立市","address":"国立市中1-16-25シャトレクインテスビル2F","lat":35.69709,"lon":139.44515},{"name":"向陽保育園","province":"東京都","city":"国立市","address":"国立市谷保6746","lat":35.68467,"lon":139.42893},{"name":"きたひだまり保育園","province":"東京都","city":"国立市","address":"国立市北3-42-1","lat":35.69912,"lon":139.43164},{"name":"国立あゆみ保育園","province":"東京都","city":"国立市","address":"国立市矢川3丁目20番地の24","lat":35.68147,"lon":139.42723},{"name":"国立保育園","province":"東京都","city":"国立市","address":"国立市北2丁目30番の1","lat":35.70104,"lon":139.43452},{"name":"きたひだまり保育園","province":"東京都","city":"国立市","address":"国立市北3-42-1","lat":35.70153,"lon":139.4296},{"name":"国立ひまわり保育園","province":"東京都","city":"国立市","address":"国立市北3-7-14","lat":35.6993,"lon":139.43045},{"name":"北保育園","province":"東京都","city":"国立市","address":"国立市北3丁目1番地の1","lat":35.69912,"lon":139.43164},{"name":"あいわ保育園","province":"東京都","city":"国立市","address":"国立市東2丁目25番地の1","lat":35.69101,"lon":139.44786},{"name":"和光保育園","province":"東京都","city":"国立市","address":"国立市東2丁目2番地の1","lat":35.69591,"lon":139.45076},{"name":"国立市立東保育園","province":"東京都","city":"国立市","address":"国立市富士見台1丁目45番地の17","lat":35.68218,"lon":139.4512},{"name":"国立たいよう保育園","province":"東京都","city":"国立市","address":"国立市富士見台2-13-10","lat":35.68321,"lon":139.44632},{"name":"国立市立なかよし保育園","province":"東京都","city":"国立市","address":"国立市富士見台2丁目46番地","lat":35.68516,"lon":139.44183},{"name":"認定こども園国立富士見台団地風の子","province":"東京都","city":"国立市","address":"国立市富士見台3-7-1","lat":35.6849204,"lon":139.4395509},{"name":"こぐまこどものいえ","province":"東京都","city":"国立市","address":"国立市富士見台3丁目35番地の15","lat":35.68515,"lon":139.43356},{"name":"国立市立西保育園","province":"東京都","city":"国立市","address":"国立市富士見台3丁目45番地の1","lat":35.68905,"lon":139.4342},{"name":"矢川保育園","province":"東京都","city":"国立市","address":"国立市富士見台4丁目17番地の64","lat":35.68743,"lon":139.42685},{"name":"さくらっこ保育園","province":"東京都","city":"国立市","address":"国立市中1-16-25シャトレクインテスビル2F","lat":35.69709,"lon":139.44514},{"name":"国立クムクム保育園","province":"東京都","city":"国立市","address":"国立市中2-18-2","lat":35.69167,"lon":139.44559},{"name":"春光保育園","province":"東京都","city":"国立市","address":"国立市西2丁目14番地の1","lat":35.6943,"lon":139.43251},{"name":"向陽保育園","province":"東京都","city":"国立市","address":"国立市谷保6746番地","lat":35.68467,"lon":139.42892},{"name":"国立あおいとり保育園","province":"東京都","city":"国立市","address":"国立市泉5丁目2番地の1","lat":35.67921,"lon":139.42873},{"name":"国立あゆみ保育園","province":"東京都","city":"国立市","address":"国立市矢川3丁目20番地の24","lat":35.68165,"lon":139.43045},{"name":"国立市立矢川保育園","province":"東京都","city":"国立市","address":"国立市谷保6800-2","lat":35.68364,"lon":139.42963},{"name":"国立あゆみ保育園","province":"東京都","city":"国立市","address":"国立市矢川3-20-24","lat":35.68162,"lon":139.430331},{"name":"国立あおいとり保育園","province":"東京都","city":"国立市","address":"国立市泉5-2-1","lat":35.6792,"lon":139.42868},{"name":"国立保育園","province":"東京都","city":"国立市","address":"国立市北2-30-1","lat":35.70104,"lon":139.43453},{"name":"さくらっこ保育園","province":"東京都","city":"国立市","address":"国立市中1-16-25シャトレクインテスビル2F","lat":35.69709,"lon":139.44515},{"name":"向陽保育園","province":"東京都","city":"国立市","address":"国立市谷保6746","lat":35.68467,"lon":139.42893},{"name":"きたひだまり保育園","province":"東京都","city":"国立市","address":"国立市北3-42-1","lat":35.69912,"lon":139.43164},{"name":"国立あゆみ保育園","province":"東京都","city":"国立市","address":"国立市矢川3丁目20番地の24","lat":35.68147,"lon":139.42723},{"name":"国立保育園","province":"東京都","city":"国立市","address":"国立市北2丁目30番の1","lat":35.70104,"lon":139.43452},{"name":"きたひだまり保育園","province":"東京都","city":"国立市","address":"国立市北3-42-1","lat":35.70153,"lon":139.4296},{"name":"国立ひまわり保育園","province":"東京都","city":"国立市","address":"国立市北3-7-14","lat":35.6993,"lon":139.43045},{"name":"北保育園","province":"東京都","city":"国立市","address":"国立市北3丁目1番地の1","lat":35.69912,"lon":139.43164},{"name":"あいわ保育園","province":"東京都","city":"国立市","address":"国立市東2丁目25番地の1","lat":35.69101,"lon":139.44786},{"name":"和光保育園","province":"東京都","city":"国立市","address":"国立市東2丁目2番地の1","lat":35.69591,"lon":139.45076},{"name":"国立市立東保育園","province":"東京都","city":"国立市","address":"国立市富士見台1丁目45番地の17","lat":35.68218,"lon":139.4512},{"name":"国立たいよう保育園","province":"東京都","city":"国立市","address":"国立市富士見台2-13-10","lat":35.68321,"lon":139.44632},{"name":"国立市立なかよし保育園","province":"東京都","city":"国立市","address":"国立市富士見台2丁目46番地","lat":35.68516,"lon":139.44183},{"name":"認定こども園国立富士見台団地風の子","province":"東京都","city":"国立市","address":"国立市富士見台3-7-1","lat":35.6849204,"lon":139.4395509},{"name":"こぐまこどものいえ","province":"東京都","city":"国立市","address":"国立市富士見台3丁目35番地の15","lat":35.68515,"lon":139.43356},{"name":"国立市立西保育園","province":"東京都","city":"国立市","address":"国立市富士見台3丁目45番地の1","lat":35.68905,"lon":139.4342},{"name":"矢川保育園","province":"東京都","city":"国立市","address":"国立市富士見台4丁目17番地の64","lat":35.68743,"lon":139.42685},{"name":"さくらっこ保育園","province":"東京都","city":"国立市","address":"国立市中1-16-25シャトレクインテスビル2F","lat":35.69709,"lon":139.44514},{"name":"国立クムクム保育園","province":"東京都","city":"国立市","address":"国立市中2-18-2","lat":35.69167,"lon":139.44559},{"name":"春光保育園","province":"東京都","city":"国立市","address":"国立市西2丁目14番地の1","lat":35.6943,"lon":139.43251},{"name":"向陽保育園","province":"東京都","city":"国立市","address":"国立市谷保6746番地","lat":35.68467,"lon":139.42892},{"name":"国立あおいとり保育園","province":"東京都","city":"国立市","address":"国立市泉5丁目2番地の1","lat":35.67921,"lon":139.42873},{"name":"国立あゆみ保育園","province":"東京都","city":"国立市","address":"国立市矢川3丁目20番地の24","lat":35.68165,"lon":139.43045},{"name":"国立市立矢川保育園","province":"東京都","city":"国立市","address":"国立市谷保6800-2","lat":35.68364,"lon":139.42963},{"name":"国立あゆみ保育園","province":"東京都","city":"国立市","address":"国立市矢川3-20-24","lat":35.68162,"lon":139.430331},{"name":"国立あおいとり保育園","province":"東京都","city":"国立市","address":"国立市泉5-2-1","lat":35.6792,"lon":139.42868},{"name":"国立保育園","province":"東京都","city":"国立市","address":"国立市北2-30-1","lat":35.70104,"lon":139.43453},{"name":"さくらっこ保育園","province":"東京都","city":"国立市","address":"国立市中1-16-25シャトレクインテスビル2F","lat":35.69709,"lon":139.44515},{"name":"向陽保育園","province":"東京都","city":"国立市","address":"国立市谷保6746","lat":35.68467,"lon":139.42893},{"name":"きたひだまり保育園","province":"東京都","city":"国立市","address":"国立市北3-42-1","lat":35.69912,"lon":139.43164},{"name":"国立あゆみ保育園","province":"東京都","city":"国立市","address":"国立市矢川3丁目20番地の24","lat":35.68147,"lon":139.42723},{"name":"国立保育園","province":"東京都","city":"国立市","address":"国立市北2丁目30番の1","lat":35.70104,"lon":139.43452},{"name":"きたひだまり保育園","province":"東京都","city":"国立市","address":"国立市北3-42-1","lat":35.70153,"lon":139.4296},{"name":"国立ひまわり保育園","province":"東京都","city":"国立市","address":"国立市北3-7-14","lat":35.6993,"lon":139.43045},{"name":"北保育園","province":"東京都","city":"国立市","address":"国立市北3丁目1番地の1","lat":35.69912,"lon":139.43164},{"name":"あいわ保育園","province":"東京都","city":"国立市","address":"国立市東2丁目25番地の1","lat":35.69101,"lon":139.44786},{"name":"和光保育園","province":"東京都","city":"国立市","address":"国立市東2丁目2番地の1","lat":35.69591,"lon":139.45076},{"name":"国立市立東保育園","province":"東京都","city":"国立市","address":"国立市富士見台1丁目45番地の17","lat":35.68218,"lon":139.4512},{"name":"国立たいよう保育園","province":"東京都","city":"国立市","address":"国立市富士見台2-13-10","lat":35.68321,"lon":139.44632},{"name":"国立市立なかよし保育園","province":"東京都","city":"国立市","address":"国立市富士見台2丁目46番地","lat":35.68516,"lon":139.44183},{"name":"認定こども園国立富士見台団地風の子","province":"東京都","city":"国立市","address":"国立市富士見台3-7-1","lat":35.6849204,"lon":139.4395509},{"name":"こぐまこどものいえ","province":"東京都","city":"国立市","address":"国立市富士見台3丁目35番地の15","lat":35.68515,"lon":139.43356},{"name":"国立市立西保育園","province":"東京都","city":"国立市","address":"国立市富士見台3丁目45番地の1","lat":35.68905,"lon":139.4342},{"name":"矢川保育園","province":"東京都","city":"国立市","address":"国立市富士見台4丁目17番地の64","lat":35.68743,"lon":139.42685},{"name":"さくらっこ保育園","province":"東京都","city":"国立市","address":"国立市中1-16-25シャトレクインテスビル2F","lat":35.69709,"lon":139.44514},{"name":"国立クムクム保育園","province":"東京都","city":"国立市","address":"国立市中2-18-2","lat":35.69167,"lon":139.44559},{"name":"春光保育園","province":"東京都","city":"国立市","address":"国立市西2丁目14番地の1","lat":35.6943,"lon":139.43251},{"name":"向陽保育園","province":"東京都","city":"国立市","address":"国立市谷保6746番地","lat":35.68467,"lon":139.42892},{"name":"国立あおいとり保育園","province":"東京都","city":"国立市","address":"国立市泉5丁目2番地の1","lat":35.67921,"lon":139.42873},{"name":"国立あゆみ保育園","province":"東京都","city":"国立市","address":"国立市矢川3丁目20番地の24","lat":35.68165,"lon":139.43045},{"name":"国立市立矢川保育園","province":"東京都","city":"国立市","address":"国立市谷保6800-2","lat":35.68364,"lon":139.42963},{"name":"国立あゆみ保育園","province":"東京都","city":"国立市","address":"国立市矢川3-20-24","lat":35.68162,"lon":139.430331},{"name":"国立あおいとり保育園","province":"東京都","city":"国立市","address":"国立市泉5-2-1","lat":35.6792,"lon":139.42868},{"name":"国立保育園","province":"東京都","city":"国立市","address":"国立市北2-30-1","lat":35.70104,"lon":139.43453},{"name":"さくらっこ保育園","province":"東京都","city":"国立市","address":"国立市中1-16-25シャトレクインテスビル2F","lat":35.69709,"lon":139.44515},{"name":"向陽保育園","province":"東京都","city":"国立市","address":"国立市谷保6746","lat":35.68467,"lon":139.42893},{"name":"きたひだまり保育園","province":"東京都","city":"国立市","address":"国立市北3-42-1","lat":35.69912,"lon":139.43164},{"name":"国立あゆみ保育園","province":"東京都","city":"国立市","address":"国立市矢川3丁目20番地の24","lat":35.68147,"lon":139.42723},{"name":"国立保育園","province":"東京都","city":"国立市","address":"国立市北2丁目30番の1","lat":35.70104,"lon":139.43452},{"name":"きたひだまり保育園","province":"東京都","city":"国立市","address":"国立市北3-42-1","lat":35.70153,"lon":139.4296},{"name":"国立ひまわり保育園","province":"東京都","city":"国立市","address":"国立市北3-7-14","lat":35.6993,"lon":139.43045},{"name":"北保育園","province":"東京都","city":"国立市","address":"国立市北3丁目1番地の1","lat":35.69912,"lon":139.43164},{"name":"あいわ保育園","province":"東京都","city":"国立市","address":"国立市東2丁目25番地の1","lat":35.69101,"lon":139.44786},{"name":"和光保育園","province":"東京都","city":"国立市","address":"国立市東2丁目2番地の1","lat":35.69591,"lon":139.45076},{"name":"国立市立東保育園","province":"東京都","city":"国立市","address":"国立市富士見台1丁目45番地の17","lat":35.68218,"lon":139.4512},{"name":"国立たいよう保育園","province":"東京都","city":"国立市","address":"国立市富士見台2-13-10","lat":35.68321,"lon":139.44632},{"name":"国立市立なかよし保育園","province":"東京都","city":"国立市","address":"国立市富士見台2丁目46番地","lat":35.68516,"lon":139.44183},{"name":"認定こども園国立富士見台団地風の子","province":"東京都","city":"国立市","address":"国立市富士見台3-7-1","lat":35.6849204,"lon":139.4395509},{"name":"こぐまこどものいえ","province":"東京都","city":"国立市","address":"国立市富士見台3丁目35番地の15","lat":35.68515,"lon":139.43356},{"name":"国立市立西保育園","province":"東京都","city":"国立市","address":"国立市富士見台3丁目45番地の1","lat":35.68905,"lon":139.4342},{"name":"矢川保育園","province":"東京都","city":"国立市","address":"国立市富士見台4丁目17番地の64","lat":35.68743,"lon":139.42685},{"name":"さくらっこ保育園","province":"東京都","city":"国立市","address":"国立市中1-16-25シャトレクインテスビル2F","lat":35.69709,"lon":139.44514},{"name":"国立クムクム保育園","province":"東京都","city":"国立市","address":"国立市中2-18-2","lat":35.69167,"lon":139.44559},{"name":"春光保育園","province":"東京都","city":"国立市","address":"国立市西2丁目14番地の1","lat":35.6943,"lon":139.43251},{"name":"向陽保育園","province":"東京都","city":"国立市","address":"国立市谷保6746番地","lat":35.68467,"lon":139.42892},{"name":"国立あおいとり保育園","province":"東京都","city":"国立市","address":"国立市泉5丁目2番地の1","lat":35.67921,"lon":139.42873},{"name":"国立あゆみ保育園","province":"東京都","city":"国立市","address":"国立市矢川3丁目20番地の24","lat":35.68165,"lon":139.43045},{"name":"国立市立矢川保育園","province":"東京都","city":"国立市","address":"国立市谷保6800-2","lat":35.68364,"lon":139.42963},{"name":"国立あゆみ保育園","province":"東京都","city":"国立市","address":"国立市矢川3-20-24","lat":35.68162,"lon":139.430331},{"name":"国立あおいとり保育園","province":"東京都","city":"国立市","address":"国立市泉5-2-1","lat":35.6792,"lon":139.42868},{"name":"国立保育園","province":"東京都","city":"国立市","address":"国立市北2-30-1","lat":35.70104,"lon":139.43453},{"name":"さくらっこ保育園","province":"東京都","city":"国立市","address":"国立市中1-16-25シャトレクインテスビル2F","lat":35.69709,"lon":139.44515},{"name":"向陽保育園","province":"東京都","city":"国立市","address":"国立市谷保6746","lat":35.68467,"lon":139.42893},{"name":"きたひだまり保育園","province":"東京都","city":"国立市","address":"国立市北3-42-1","lat":35.69912,"lon":139.43164},{"name":"国立あゆみ保育園","province":"東京都","city":"国立市","address":"国立市矢川3丁目20番地の24","lat":35.68147,"lon":139.42723},{"name":"国立保育園","province":"東京都","city":"国立市","address":"国立市北2丁目30番の1","lat":35.70104,"lon":139.43452},{"name":"きたひだまり保育園","province":"東京都","city":"国立市","address":"国立市北3-42-1","lat":35.70153,"lon":139.4296},{"name":"国立ひまわり保育園","province":"東京都","city":"国立市","address":"国立市北3-7-14","lat":35.6993,"lon":139.43045},{"name":"北保育園","province":"東京都","city":"国立市","address":"国立市北3丁目1番地の1","lat":35.69912,"lon":139.43164},{"name":"あいわ保育園","province":"東京都","city":"国立市","address":"国立市東2丁目25番地の1","lat":35.69101,"lon":139.44786},{"name":"和光保育園","province":"東京都","city":"国立市","address":"国立市東2丁目2番地の1","lat":35.69591,"lon":139.45076},{"name":"国立市立東保育園","province":"東京都","city":"国立市","address":"国立市富士見台1丁目45番地の17","lat":35.68218,"lon":139.4512},{"name":"国立たいよう保育園","province":"東京都","city":"国立市","address":"国立市富士見台2-13-10","lat":35.68321,"lon":139.44632},{"name":"国立市立なかよし保育園","province":"東京都","city":"国立市","address":"国立市富士見台2丁目46番地","lat":35.68516,"lon":139.44183},{"name":"認定こども園国立富士見台団地風の子","province":"東京都","city":"国立市","address":"国立市富士見台3-7-1","lat":35.6849204,"lon":139.4395509},{"name":"こぐまこどものいえ","province":"東京都","city":"国立市","address":"国立市富士見台3丁目35番地の15","lat":35.68515,"lon":139.43356},{"name":"国立市立西保育園","province":"東京都","city":"国立市","address":"国立市富士見台3丁目45番地の1","lat":35.68905,"lon":139.4342},{"name":"矢川保育園","province":"東京都","city":"国立市","address":"国立市富士見台4丁目17番地の64","lat":35.68743,"lon":139.42685},{"name":"さくらっこ保育園","province":"東京都","city":"国立市","address":"国立市中1-16-25シャトレクインテスビル2F","lat":35.69709,"lon":139.44514},{"name":"国立クムクム保育園","province":"東京都","city":"国立市","address":"国立市中2-18-2","lat":35.69167,"lon":139.44559},{"name":"春光保育園","province":"東京都","city":"国立市","address":"国立市西2丁目14番地の1","lat":35.6943,"lon":139.43251},{"name":"向陽保育園","province":"東京都","city":"国立市","address":"国立市谷保6746番地","lat":35.68467,"lon":139.42892},{"name":"国立あおいとり保育園","province":"東京都","city":"国立市","address":"国立市泉5丁目2番地の1","lat":35.67921,"lon":139.42873},{"name":"国立あゆみ保育園","province":"東京都","city":"国立市","address":"国立市矢川3丁目20番地の24","lat":35.68165,"lon":139.43045},{"name":"国立市立矢川保育園","province":"東京都","city":"国立市","address":"国立市谷保6800-2","lat":35.68364,"lon":139.42963},{"name":"国立あゆみ保育園","province":"東京都","city":"国立市","address":"国立市矢川3-20-24","lat":35.68162,"lon":139.430331},{"name":"国立あおいとり保育園","province":"東京都","city":"国立市","address":"国立市泉5-2-1","lat":35.6792,"lon":139.42868},{"name":"国立保育園","province":"東京都","city":"国立市","address":"国立市北2-30-1","lat":35.70104,"lon":139.43453},{"name":"さくらっこ保育園","province":"東京都","city":"国立市","address":"国立市中1-16-25シャトレクインテスビル2F","lat":35.69709,"lon":139.44515},{"name":"向陽保育園","province":"東京都","city":"国立市","address":"国立市谷保6746","lat":35.68467,"lon":139.42893},{"name":"きたひだまり保育園","province":"東京都","city":"国立市","address":"国立市北3-42-1","lat":35.69912,"lon":139.43164},{"name":"国立あゆみ保育園","province":"東京都","city":"国立市","address":"国立市矢川3丁目20番地の24","lat":35.68147,"lon":139.42723},{"name":"国立保育園","province":"東京都","city":"国立市","address":"国立市北2丁目30番の1","lat":35.70104,"lon":139.43452},{"name":"きたひだまり保育園","province":"東京都","city":"国立市","address":"国立市北3-42-1","lat":35.70153,"lon":139.4296},{"name":"国立ひまわり保育園","province":"東京都","city":"国立市","address":"国立市北3-7-14","lat":35.6993,"lon":139.43045},{"name":"北保育園","province":"東京都","city":"国立市","address":"国立市北3丁目1番地の1","lat":35.69912,"lon":139.43164},{"name":"あいわ保育園","province":"東京都","city":"国立市","address":"国立市東2丁目25番地の1","lat":35.69101,"lon":139.44786},{"name":"和光保育園","province":"東京都","city":"国立市","address":"国立市東2丁目2番地の1","lat":35.69591,"lon":139.45076},{"name":"国立市立東保育園","province":"東京都","city":"国立市","address":"国立市富士見台1丁目45番地の17","lat":35.68218,"lon":139.4512},{"name":"国立たいよう保育園","province":"東京都","city":"国立市","address":"国立市富士見台2-13-10","lat":35.68321,"lon":139.44632},{"name":"国立市立なかよし保育園","province":"東京都","city":"国立市","address":"国立市富士見台2丁目46番地","lat":35.68516,"lon":139.44183},{"name":"認定こども園国立富士見台団地風の子","province":"東京都","city":"国立市","address":"国立市富士見台3-7-1","lat":35.6849204,"lon":139.4395509},{"name":"こぐまこどものいえ","province":"東京都","city":"国立市","address":"国立市富士見台3丁目35番地の15","lat":35.68515,"lon":139.43356},{"name":"国立市立西保育園","province":"東京都","city":"国立市","address":"国立市富士見台3丁目45番地の1","lat":35.68905,"lon":139.4342},{"name":"矢川保育園","province":"東京都","city":"国立市","address":"国立市富士見台4丁目17番地の64","lat":35.68743,"lon":139.42685},{"name":"さくらっこ保育園","province":"東京都","city":"国立市","address":"国立市中1-16-25シャトレクインテスビル2F","lat":35.69709,"lon":139.44514},{"name":"国立クムクム保育園","province":"東京都","city":"国立市","address":"国立市中2-18-2","lat":35.69167,"lon":139.44559},{"name":"春光保育園","province":"東京都","city":"国立市","address":"国立市西2丁目14番地の1","lat":35.6943,"lon":139.43251},{"name":"向陽保育園","province":"東京都","city":"国立市","address":"国立市谷保6746番地","lat":35.68467,"lon":139.42892},{"name":"国立あおいとり保育園","province":"東京都","city":"国立市","address":"国立市泉5丁目2番地の1","lat":35.67921,"lon":139.42873},{"name":"国立あゆみ保育園","province":"東京都","city":"国立市","address":"国立市矢川3丁目20番地の24","lat":35.68165,"lon":139.43045},{"name":"国立市立矢川保育園","province":"東京都","city":"国立市","address":"国立市谷保6800-2","lat":35.68364,"lon":139.42963},{"name":"国立あゆみ保育園","province":"東京都","city":"国立市","address":"国立市矢川3-20-24","lat":35.68162,"lon":139.430331},{"name":"国立あおいとり保育園","province":"東京都","city":"国立市","address":"国立市泉5-2-1","lat":35.6792,"lon":139.42868},{"name":"国立保育園","province":"東京都","city":"国立市","address":"国立市北2-30-1","lat":35.70104,"lon":139.43453},{"name":"さくらっこ保育園","province":"東京都","city":"国立市","address":"国立市中1-16-25シャトレクインテスビル2F","lat":35.69709,"lon":139.44515},{"name":"向陽保育園","province":"東京都","city":"国立市","address":"国立市谷保6746","lat":35.68467,"lon":139.42893},{"name":"きたひだまり保育園","province":"東京都","city":"国立市","address":"国立市北3-42-1","lat":35.69912,"lon":139.43164},{"name":"国立あゆみ保育園","province":"東京都","city":"国立市","address":"国立市矢川3丁目20番地の24","lat":35.68147,"lon":139.42723},{"name":"国立保育園","province":"東京都","city":"国立市","address":"国立市北2丁目30番の1","lat":35.70104,"lon":139.43452},{"name":"きたひだまり保育園","province":"東京都","city":"国立市","address":"国立市北3-42-1","lat":35.70153,"lon":139.4296},{"name":"国立ひまわり保育園","province":"東京都","city":"国立市","address":"国立市北3-7-14","lat":35.6993,"lon":139.43045},{"name":"北保育園","province":"東京都","city":"国立市","address":"国立市北3丁目1番地の1","lat":35.69912,"lon":139.43164},{"name":"あいわ保育園","province":"東京都","city":"国立市","address":"国立市東2丁目25番地の1","lat":35.69101,"lon":139.44786},{"name":"和光保育園","province":"東京都","city":"国立市","address":"国立市東2丁目2番地の1","lat":35.69591,"lon":139.45076},{"name":"国立市立東保育園","province":"東京都","city":"国立市","address":"国立市富士見台1丁目45番地の17","lat":35.68218,"lon":139.4512},{"name":"国立たいよう保育園","province":"東京都","city":"国立市","address":"国立市富士見台2-13-10","lat":35.68321,"lon":139.44632},{"name":"国立市立なかよし保育園","province":"東京都","city":"国立市","address":"国立市富士見台2丁目46番地","lat":35.68516,"lon":139.44183},{"name":"認定こども園国立富士見台団地風の子","province":"東京都","city":"国立市","address":"国立市富士見台3-7-1","lat":35.6849204,"lon":139.4395509},{"name":"こぐまこどものいえ","province":"東京都","city":"国立市","address":"国立市富士見台3丁目35番地の15","lat":35.68515,"lon":139.43356},{"name":"国立市立西保育園","province":"東京都","city":"国立市","address":"国立市富士見台3丁目45番地の1","lat":35.68905,"lon":139.4342},{"name":"矢川保育園","province":"東京都","city":"国立市","address":"国立市富士見台4丁目17番地の64","lat":35.68743,"lon":139.42685},{"name":"さくらっこ保育園","province":"東京都","city":"国立市","address":"国立市中1-16-25シャトレクインテスビル2F","lat":35.69709,"lon":139.44514},{"name":"国立クムクム保育園","province":"東京都","city":"国立市","address":"国立市中2-18-2","lat":35.69167,"lon":139.44559},{"name":"春光保育園","province":"東京都","city":"国立市","address":"国立市西2丁目14番地の1","lat":35.6943,"lon":139.43251},{"name":"向陽保育園","province":"東京都","city":"国立市","address":"国立市谷保6746番地","lat":35.68467,"lon":139.42892},{"name":"国立あおいとり保育園","province":"東京都","city":"国立市","address":"国立市泉5丁目2番地の1","lat":35.67921,"lon":139.42873},{"name":"国立あゆみ保育園","province":"東京都","city":"国立市","address":"国立市矢川3丁目20番地の24","lat":35.68165,"lon":139.43045},{"name":"国立市立矢川保育園","province":"東京都","city":"国立市","address":"国立市谷保6800-2","lat":35.68364,"lon":139.42963},{"name":"国立あゆみ保育園","province":"東京都","city":"国立市","address":"国立市矢川3-20-24","lat":35.68162,"lon":139.430331},{"name":"国立あおいとり保育園","province":"東京都","city":"国立市","address":"国立市泉5-2-1","lat":35.6792,"lon":139.42868},{"name":"国立保育園","province":"東京都","city":"国立市","address":"国立市北2-30-1","lat":35.70104,"lon":139.43453},{"name":"さくらっこ保育園","province":"東京都","city":"国立市","address":"国立市中1-16-25シャトレクインテスビル2F","lat":35.69709,"lon":139.44515},{"name":"向陽保育園","province":"東京都","city":"国立市","address":"国立市谷保6746","lat":35.68467,"lon":139.42893},{"name":"きたひだまり保育園","province":"東京都","city":"国立市","address":"国立市北3-42-1","lat":35.69912,"lon":139.43164},{"name":"国立あゆみ保育園","province":"東京都","city":"国立市","address":"国立市矢川3丁目20番地の24","lat":35.68147,"lon":139.42723},{"name":"国立保育園","province":"東京都","city":"国立市","address":"国立市北2丁目30番の1","lat":35.70104,"lon":139.43452},{"name":"きたひだまり保育園","province":"東京都","city":"国立市","address":"国立市北3-42-1","lat":35.70153,"lon":139.4296},{"name":"国立ひまわり保育園","province":"東京都","city":"国立市","address":"国立市北3-7-14","lat":35.6993,"lon":139.43045},{"name":"北保育園","province":"東京都","city":"国立市","address":"国立市北3丁目1番地の1","lat":35.69912,"lon":139.43164},{"name":"あいわ保育園","province":"東京都","city":"国立市","address":"国立市東2丁目25番地の1","lat":35.69101,"lon":139.44786},{"name":"和光保育園","province":"東京都","city":"国立市","address":"国立市東2丁目2番地の1","lat":35.69591,"lon":139.45076},{"name":"国立市立東保育園","province":"東京都","city":"国立市","address":"国立市富士見台1丁目45番地の17","lat":35.68218,"lon":139.4512},{"name":"国立たいよう保育園","province":"東京都","city":"国立市","address":"国立市富士見台2-13-10","lat":35.68321,"lon":139.44632},{"name":"国立市立なかよし保育園","province":"東京都","city":"国立市","address":"国立市富士見台2丁目46番地","lat":35.68516,"lon":139.44183},{"name":"認定こども園国立富士見台団地風の子","province":"東京都","city":"国立市","address":"国立市富士見台3-7-1","lat":35.6849204,"lon":139.4395509},{"name":"こぐまこどものいえ","province":"東京都","city":"国立市","address":"国立市富士見台3丁目35番地の15","lat":35.68515,"lon":139.43356},{"name":"国立市立西保育園","province":"東京都","city":"国立市","address":"国立市富士見台3丁目45番地の1","lat":35.68905,"lon":139.4342},{"name":"矢川保育園","province":"東京都","city":"国立市","address":"国立市富士見台4丁目17番地の64","lat":35.68743,"lon":139.42685},{"name":"さくらっこ保育園","province":"東京都","city":"国立市","address":"国立市中1-16-25シャトレクインテスビル2F","lat":35.69709,"lon":139.44514},{"name":"国立クムクム保育園","province":"東京都","city":"国立市","address":"国立市中2-18-2","lat":35.69167,"lon":139.44559},{"name":"春光保育園","province":"東京都","city":"国立市","address":"国立市西2丁目14番地の1","lat":35.6943,"lon":139.43251},{"name":"向陽保育園","province":"東京都","city":"国立市","address":"国立市谷保6746番地","lat":35.68467,"lon":139.42892},{"name":"国立あおいとり保育園","province":"東京都","city":"国立市","address":"国立市泉5丁目2番地の1","lat":35.67921,"lon":139.42873},{"name":"国立あゆみ保育園","province":"東京都","city":"国立市","address":"国立市矢川3丁目20番地の24","lat":35.68165,"lon":139.43045},{"name":"国立市立矢川保育園","province":"東京都","city":"国立市","address":"国立市谷保6800-2","lat":35.68364,"lon":139.42963},{"name":"国立あゆみ保育園","province":"東京都","city":"国立市","address":"国立市矢川3-20-24","lat":35.68162,"lon":139.430331},{"name":"国立あおいとり保育園","province":"東京都","city":"国立市","address":"国立市泉5-2-1","lat":35.6792,"lon":139.42868},{"name":"国立保育園","province":"東京都","city":"国立市","address":"国立市北2-30-1","lat":35.70104,"lon":139.43453},{"name":"さくらっこ保育園","province":"東京都","city":"国立市","address":"国立市中1-16-25シャトレクインテスビル2F","lat":35.69709,"lon":139.44515},{"name":"向陽保育園","province":"東京都","city":"国立市","address":"国立市谷保6746","lat":35.68467,"lon":139.42893},{"name":"きたひだまり保育園","province":"東京都","city":"国立市","address":"国立市北3-42-1","lat":35.69912,"lon":139.43164},{"name":"国立あゆみ保育園","province":"東京都","city":"国立市","address":"国立市矢川3丁目20番地の24","lat":35.68147,"lon":139.42723},{"name":"国立保育園","province":"東京都","city":"国立市","address":"国立市北2丁目30番の1","lat":35.70104,"lon":139.43452},{"name":"きたひだまり保育園","province":"東京都","city":"国立市","address":"国立市北3-42-1","lat":35.70153,"lon":139.4296},{"name":"国立ひまわり保育園","province":"東京都","city":"国立市","address":"国立市北3-7-14","lat":35.6993,"lon":139.43045},{"name":"北保育園","province":"東京都","city":"国立市","address":"国立市北3丁目1番地の1","lat":35.69912,"lon":139.43164},{"name":"あいわ保育園","province":"東京都","city":"国立市","address":"国立市東2丁目25番地の1","lat":35.69101,"lon":139.44786},{"name":"和光保育園","province":"東京都","city":"国立市","address":"国立市東2丁目2番地の1","lat":35.69591,"lon":139.45076},{"name":"国立市立東保育園","province":"東京都","city":"国立市","address":"国立市富士見台1丁目45番地の17","lat":35.68218,"lon":139.4512},{"name":"国立たいよう保育園","province":"東京都","city":"国立市","address":"国立市富士見台2-13-10","lat":35.68321,"lon":139.44632},{"name":"国立市立なかよし保育園","province":"東京都","city":"国立市","address":"国立市富士見台2丁目46番地","lat":35.68516,"lon":139.44183},{"name":"認定こども園国立富士見台団地風の子","province":"東京都","city":"国立市","address":"国立市富士見台3-7-1","lat":35.6849204,"lon":139.4395509},{"name":"こぐまこどものいえ","province":"東京都","city":"国立市","address":"国立市富士見台3丁目35番地の15","lat":35.68515,"lon":139.43356},{"name":"国立市立西保育園","province":"東京都","city":"国立市","address":"国立市富士見台3丁目45番地の1","lat":35.68905,"lon":139.4342},{"name":"矢川保育園","province":"東京都","city":"国立市","address":"国立市富士見台4丁目17番地の64","lat":35.68743,"lon":139.42685},{"name":"さくらっこ保育園","province":"東京都","city":"国立市","address":"国立市中1-16-25シャトレクインテスビル2F","lat":35.69709,"lon":139.44514},{"name":"国立クムクム保育園","province":"東京都","city":"国立市","address":"国立市中2-18-2","lat":35.69167,"lon":139.44559},{"name":"春光保育園","province":"東京都","city":"国立市","address":"国立市西2丁目14番地の1","lat":35.6943,"lon":139.43251},{"name":"向陽保育園","province":"東京都","city":"国立市","address":"国立市谷保6746番地","lat":35.68467,"lon":139.42892},{"name":"国立あおいとり保育園","province":"東京都","city":"国立市","address":"国立市泉5丁目2番地の1","lat":35.67921,"lon":139.42873},{"name":"国立あゆみ保育園","province":"東京都","city":"国立市","address":"国立市矢川3丁目20番地の24","lat":35.68165,"lon":139.43045},{"name":"国立市立矢川保育園","province":"東京都","city":"国立市","address":"国立市谷保6800-2","lat":35.68364,"lon":139.42963},{"name":"国立あゆみ保育園","province":"東京都","city":"国立市","address":"国立市矢川3-20-24","lat":35.68162,"lon":139.430331},{"name":"国立あおいとり保育園","province":"東京都","city":"国立市","address":"国立市泉5-2-1","lat":35.6792,"lon":139.42868},{"name":"国立保育園","province":"東京都","city":"国立市","address":"国立市北2-30-1","lat":35.70104,"lon":139.43453},{"name":"さくらっこ保育園","province":"東京都","city":"国立市","address":"国立市中1-16-25シャトレクインテスビル2F","lat":35.69709,"lon":139.44515},{"name":"向陽保育園","province":"東京都","city":"国立市","address":"国立市谷保6746","lat":35.68467,"lon":139.42893},{"name":"きたひだまり保育園","province":"東京都","city":"国立市","address":"国立市北3-42-1","lat":35.69912,"lon":139.43164},{"name":"国立あゆみ保育園","province":"東京都","city":"国立市","address":"国立市矢川3丁目20番地の24","lat":35.68147,"lon":139.42723},{"name":"国立保育園","province":"東京都","city":"国立市","address":"国立市北2丁目30番の1","lat":35.70104,"lon":139.43452},{"name":"きたひだまり保育園","province":"東京都","city":"国立市","address":"国立市北3-42-1","lat":35.70153,"lon":139.4296},{"name":"国立ひまわり保育園","province":"東京都","city":"国立市","address":"国立市北3-7-14","lat":35.6993,"lon":139.43045},{"name":"北保育園","province":"東京都","city":"国立市","address":"国立市北3丁目1番地の1","lat":35.69912,"lon":139.43164},{"name":"あいわ保育園","province":"東京都","city":"国立市","address":"国立市東2丁目25番地の1","lat":35.69101,"lon":139.44786},{"name":"和光保育園","province":"東京都","city":"国立市","address":"国立市東2丁目2番地の1","lat":35.69591,"lon":139.45076},{"name":"国立市立東保育園","province":"東京都","city":"国立市","address":"国立市富士見台1丁目45番地の17","lat":35.68218,"lon":139.4512},{"name":"国立たいよう保育園","province":"東京都","city":"国立市","address":"国立市富士見台2-13-10","lat":35.68321,"lon":139.44632},{"name":"国立市立なかよし保育園","province":"東京都","city":"国立市","address":"国立市富士見台2丁目46番地","lat":35.68516,"lon":139.44183},{"name":"認定こども園国立富士見台団地風の子","province":"東京都","city":"国立市","address":"国立市富士見台3-7-1","lat":35.6849204,"lon":139.4395509},{"name":"こぐまこどものいえ","province":"東京都","city":"国立市","address":"国立市富士見台3丁目35番地の15","lat":35.68515,"lon":139.43356},{"name":"国立市立西保育園","province":"東京都","city":"国立市","address":"国立市富士見台3丁目45番地の1","lat":35.68905,"lon":139.4342},{"name":"矢川保育園","province":"東京都","city":"国立市","address":"国立市富士見台4丁目17番地の64","lat":35.68743,"lon":139.42685},{"name":"さくらっこ保育園","province":"東京都","city":"国立市","address":"国立市中1-16-25シャトレクインテスビル2F","lat":35.69709,"lon":139.44514},{"name":"国立クムクム保育園","province":"東京都","city":"国立市","address":"国立市中2-18-2","lat":35.69167,"lon":139.44559},{"name":"春光保育園","province":"東京都","city":"国立市","address":"国立市西2丁目14番地の1","lat":35.6943,"lon":139.43251},{"name":"向陽保育園","province":"東京都","city":"国立市","address":"国立市谷保6746番地","lat":35.68467,"lon":139.42892},{"name":"国立あおいとり保育園","province":"東京都","city":"国立市","address":"国立市泉5丁目2番地の1","lat":35.67921,"lon":139.42873},{"name":"国立あゆみ保育園","province":"東京都","city":"国立市","address":"国立市矢川3丁目20番地の24","lat":35.68165,"lon":139.43045},{"name":"国立市立矢川保育園","province":"東京都","city":"国立市","address":"国立市谷保6800-2","lat":35.68364,"lon":139.42963},{"name":"国立あゆみ保育園","province":"東京都","city":"国立市","address":"国立市矢川3-20-24","lat":35.68162,"lon":139.430331},{"name":"国立あおいとり保育園","province":"東京都","city":"国立市","address":"国立市泉5-2-1","lat":35.6792,"lon":139.42868},{"name":"国立保育園","province":"東京都","city":"国立市","address":"国立市北2-30-1","lat":35.70104,"lon":139.43453},{"name":"さくらっこ保育園","province":"東京都","city":"国立市","address":"国立市中1-16-25シャトレクインテスビル2F","lat":35.69709,"lon":139.44515},{"name":"向陽保育園","province":"東京都","city":"国立市","address":"国立市谷保6746","lat":35.68467,"lon":139.42893},{"name":"きたひだまり保育園","province":"東京都","city":"国立市","address":"国立市北3-42-1","lat":35.69912,"lon":139.43164},{"name":"国立あゆみ保育園","province":"東京都","city":"国立市","address":"国立市矢川3丁目20番地の24","lat":35.68147,"lon":139.42723},{"name":"国立保育園","province":"東京都","city":"国立市","address":"国立市北2丁目30番の1","lat":35.70104,"lon":139.43452},{"name":"きたひだまり保育園","province":"東京都","city":"国立市","address":"国立市北3-42-1","lat":35.70153,"lon":139.4296},{"name":"国立ひまわり保育園","province":"東京都","city":"国立市","address":"国立市北3-7-14","lat":35.6993,"lon":139.43045},{"name":"北保育園","province":"東京都","city":"国立市","address":"国立市北3丁目1番地の1","lat":35.69912,"lon":139.43164},{"name":"あいわ保育園","province":"東京都","city":"国立市","address":"国立市東2丁目25番地の1","lat":35.69101,"lon":139.44786},{"name":"和光保育園","province":"東京都","city":"国立市","address":"国立市東2丁目2番地の1","lat":35.69591,"lon":139.45076},{"name":"国立市立東保育園","province":"東京都","city":"国立市","address":"国立市富士見台1丁目45番地の17","lat":35.68218,"lon":139.4512},{"name":"国立たいよう保育園","province":"東京都","city":"国立市","address":"国立市富士見台2-13-10","lat":35.68321,"lon":139.44632},{"name":"国立市立なかよし保育園","province":"東京都","city":"国立市","address":"国立市富士見台2丁目46番地","lat":35.68516,"lon":139.44183},{"name":"認定こども園国立富士見台団地風の子","province":"東京都","city":"国立市","address":"国立市富士見台3-7-1","lat":35.6849204,"lon":139.4395509},{"name":"こぐまこどものいえ","province":"東京都","city":"国立市","address":"国立市富士見台3丁目35番地の15","lat":35.68515,"lon":139.43356},{"name":"国立市立西保育園","province":"東京都","city":"国立市","address":"国立市富士見台3丁目45番地の1","lat":35.68905,"lon":139.4342},{"name":"矢川保育園","province":"東京都","city":"国立市","address":"国立市富士見台4丁目17番地の64","lat":35.68743,"lon":139.42685},{"name":"さくらっこ保育園","province":"東京都","city":"国立市","address":"国立市中1-16-25シャトレクインテスビル2F","lat":35.69709,"lon":139.44514},{"name":"国立クムクム保育園","province":"東京都","city":"国立市","address":"国立市中2-18-2","lat":35.69167,"lon":139.44559},{"name":"春光保育園","province":"東京都","city":"国立市","address":"国立市西2丁目14番地の1","lat":35.6943,"lon":139.43251},{"name":"向陽保育園","province":"東京都","city":"国立市","address":"国立市谷保6746番地","lat":35.68467,"lon":139.42892},{"name":"国立あおいとり保育園","province":"東京都","city":"国立市","address":"国立市泉5丁目2番地の1","lat":35.67921,"lon":139.42873},{"name":"国立あゆみ保育園","province":"東京都","city":"国立市","address":"国立市矢川3丁目20番地の24","lat":35.68165,"lon":139.43045},{"name":"国立市立矢川保育園","province":"東京都","city":"国立市","address":"国立市谷保6800-2","lat":35.68364,"lon":139.42963},{"name":"国立あゆみ保育園","province":"東京都","city":"国立市","address":"国立市矢川3-20-24","lat":35.68162,"lon":139.430331},{"name":"国立あおいとり保育園","province":"東京都","city":"国立市","address":"国立市泉5-2-1","lat":35.6792,"lon":139.42868},{"name":"国立保育園","province":"東京都","city":"国立市","address":"国立市北2-30-1","lat":35.70104,"lon":139.43453},{"name":"さくらっこ保育園","province":"東京都","city":"国立市","address":"国立市中1-16-25シャトレクインテスビル2F","lat":35.69709,"lon":139.44515},{"name":"向陽保育園","province":"東京都","city":"国立市","address":"国立市谷保6746","lat":35.68467,"lon":139.42893},{"name":"きたひだまり保育園","province":"東京都","city":"国立市","address":"国立市北3-42-1","lat":35.69912,"lon":139.43164},{"name":"国立あゆみ保育園","province":"東京都","city":"国立市","address":"国立市矢川3丁目20番地の24","lat":35.68147,"lon":139.42723},{"name":"国立保育園","province":"東京都","city":"国立市","address":"国立市北2丁目30番の1","lat":35.70104,"lon":139.43452},{"name":"きたひだまり保育園","province":"東京都","city":"国立市","address":"国立市北3-42-1","lat":35.70153,"lon":139.4296},{"name":"国立ひまわり保育園","province":"東京都","city":"国立市","address":"国立市北3-7-14","lat":35.6993,"lon":139.43045},{"name":"北保育園","province":"東京都","city":"国立市","address":"国立市北3丁目1番地の1","lat":35.69912,"lon":139.43164},{"name":"あいわ保育園","province":"東京都","city":"国立市","address":"国立市東2丁目25番地の1","lat":35.69101,"lon":139.44786},{"name":"和光保育園","province":"東京都","city":"国立市","address":"国立市東2丁目2番地の1","lat":35.69591,"lon":139.45076},{"name":"国立市立東保育園","province":"東京都","city":"国立市","address":"国立市富士見台1丁目45番地の17","lat":35.68218,"lon":139.4512},{"name":"国立たいよう保育園","province":"東京都","city":"国立市","address":"国立市富士見台2-13-10","lat":35.68321,"lon":139.44632},{"name":"国立市立なかよし保育園","province":"東京都","city":"国立市","address":"国立市富士見台2丁目46番地","lat":35.68516,"lon":139.44183},{"name":"認定こども園国立富士見台団地風の子","province":"東京都","city":"国立市","address":"国立市富士見台3-7-1","lat":35.6849204,"lon":139.4395509},{"name":"こぐまこどものいえ","province":"東京都","city":"国立市","address":"国立市富士見台3丁目35番地の15","lat":35.68515,"lon":139.43356},{"name":"国立市立西保育園","province":"東京都","city":"国立市","address":"国立市富士見台3丁目45番地の1","lat":35.68905,"lon":139.4342},{"name":"矢川保育園","province":"東京都","city":"国立市","address":"国立市富士見台4丁目17番地の64","lat":35.68743,"lon":139.42685},{"name":"さくらっこ保育園","province":"東京都","city":"国立市","address":"国立市中1-16-25シャトレクインテスビル2F","lat":35.69709,"lon":139.44514},{"name":"国立クムクム保育園","province":"東京都","city":"国立市","address":"国立市中2-18-2","lat":35.69167,"lon":139.44559},{"name":"春光保育園","province":"東京都","city":"国立市","address":"国立市西2丁目14番地の1","lat":35.6943,"lon":139.43251},{"name":"向陽保育園","province":"東京都","city":"国立市","address":"国立市谷保6746番地","lat":35.68467,"lon":139.42892},{"name":"国立あおいとり保育園","province":"東京都","city":"国立市","address":"国立市泉5丁目2番地の1","lat":35.67921,"lon":139.42873},{"name":"国立あゆみ保育園","province":"東京都","city":"国立市","address":"国立市矢川3丁目20番地の24","lat":35.68165,"lon":139.43045},{"name":"国立市立矢川保育園","province":"東京都","city":"国立市","address":"国立市谷保6800-2","lat":35.68364,"lon":139.42963},{"name":"国立あゆみ保育園","province":"東京都","city":"国立市","address":"国立市矢川3-20-24","lat":35.68162,"lon":139.430331},{"name":"国立あおいとり保育園","province":"東京都","city":"国立市","address":"国立市泉5-2-1","lat":35.6792,"lon":139.42868},{"name":"国立保育園","province":"東京都","city":"国立市","address":"国立市北2-30-1","lat":35.70104,"lon":139.43453},{"name":"さくらっこ保育園","province":"東京都","city":"国立市","address":"国立市中1-16-25シャトレクインテスビル2F","lat":35.69709,"lon":139.44515},{"name":"向陽保育園","province":"東京都","city":"国立市","address":"国立市谷保6746","lat":35.68467,"lon":139.42893},{"name":"きたひだまり保育園","province":"東京都","city":"国立市","address":"国立市北3-42-1","lat":35.69912,"lon":139.43164},{"name":"国立あゆみ保育園","province":"東京都","city":"国立市","address":"国立市矢川3丁目20番地の24","lat":35.68147,"lon":139.42723},{"name":"国立保育園","province":"東京都","city":"国立市","address":"国立市北2丁目30番の1","lat":35.70104,"lon":139.43452},{"name":"きたひだまり保育園","province":"東京都","city":"国立市","address":"国立市北3-42-1","lat":35.70153,"lon":139.4296},{"name":"国立ひまわり保育園","province":"東京都","city":"国立市","address":"国立市北3-7-14","lat":35.6993,"lon":139.43045},{"name":"北保育園","province":"東京都","city":"国立市","address":"国立市北3丁目1番地の1","lat":35.69912,"lon":139.43164},{"name":"あいわ保育園","province":"東京都","city":"国立市","address":"国立市東2丁目25番地の1","lat":35.69101,"lon":139.44786},{"name":"和光保育園","province":"東京都","city":"国立市","address":"国立市東2丁目2番地の1","lat":35.69591,"lon":139.45076},{"name":"国立市立東保育園","province":"東京都","city":"国立市","address":"国立市富士見台1丁目45番地の17","lat":35.68218,"lon":139.4512},{"name":"国立たいよう保育園","province":"東京都","city":"国立市","address":"国立市富士見台2-13-10","lat":35.68321,"lon":139.44632},{"name":"国立市立なかよし保育園","province":"東京都","city":"国立市","address":"国立市富士見台2丁目46番地","lat":35.68516,"lon":139.44183},{"name":"認定こども園国立富士見台団地風の子","province":"東京都","city":"国立市","address":"国立市富士見台3-7-1","lat":35.6849204,"lon":139.4395509},{"name":"こぐまこどものいえ","province":"東京都","city":"国立市","address":"国立市富士見台3丁目35番地の15","lat":35.68515,"lon":139.43356},{"name":"国立市立西保育園","province":"東京都","city":"国立市","address":"国立市富士見台3丁目45番地の1","lat":35.68905,"lon":139.4342},{"name":"矢川保育園","province":"東京都","city":"国立市","address":"国立市富士見台4丁目17番地の64","lat":35.68743,"lon":139.42685},{"name":"さくらっこ保育園","province":"東京都","city":"国立市","address":"国立市中1-16-25シャトレクインテスビル2F","lat":35.69709,"lon":139.44514},{"name":"国立クムクム保育園","province":"東京都","city":"国立市","address":"国立市中2-18-2","lat":35.69167,"lon":139.44559},{"name":"春光保育園","province":"東京都","city":"国立市","address":"国立市西2丁目14番地の1","lat":35.6943,"lon":139.43251},{"name":"向陽保育園","province":"東京都","city":"国立市","address":"国立市谷保6746番地","lat":35.68467,"lon":139.42892},{"name":"国立あおいとり保育園","province":"東京都","city":"国立市","address":"国立市泉5丁目2番地の1","lat":35.67921,"lon":139.42873},{"name":"国立あゆみ保育園","province":"東京都","city":"国立市","address":"国立市矢川3丁目20番地の24","lat":35.68165,"lon":139.43045},{"name":"国立市立矢川保育園","province":"東京都","city":"国立市","address":"国立市谷保6800-2","lat":35.68364,"lon":139.42963},{"name":"国立あゆみ保育園","province":"東京都","city":"国立市","address":"国立市矢川3-20-24","lat":35.68162,"lon":139.430331},{"name":"国立あおいとり保育園","province":"東京都","city":"国立市","address":"国立市泉5-2-1","lat":35.6792,"lon":139.42868},{"name":"国立保育園","province":"東京都","city":"国立市","address":"国立市北2-30-1","lat":35.70104,"lon":139.43453},{"name":"さくらっこ保育園","province":"東京都","city":"国立市","address":"国立市中1-16-25シャトレクインテスビル2F","lat":35.69709,"lon":139.44515},{"name":"向陽保育園","province":"東京都","city":"国立市","address":"国立市谷保6746","lat":35.68467,"lon":139.42893},{"name":"きたひだまり保育園","province":"東京都","city":"国立市","address":"国立市北3-42-1","lat":35.69912,"lon":139.43164},{"name":"国立あゆみ保育園","province":"東京都","city":"国立市","address":"国立市矢川3丁目20番地の24","lat":35.68147,"lon":139.42723}]}