{"keyword":"戸数","data":[{"name":"国立市社会福祉協議会","province":"東京都","city":"国立市","address":"国立市富士見台2-38-5くにたち福祉会館内","lat":35.687451,"lon":139.444582},{"name":"国立市","province":"東京都","city":"国立市","address":"国立市富士見台2-47-1","lat":35.6839125,"lon":139.4413664},{"name":"株式会社セレモア","province":"東京都","city":"国立市","address":"東京都国立市谷保5115","lat":35.67971558,"lon":139.446777},{"name":"社会福祉法人東京福祉会","province":"東京都","city":"国立市","address":"東京都国立市谷保892-1","lat":35.67613812,"lon":139.44407181},{"name":"形如式典有限会社","province":"東京都","city":"国立市","address":"東京都国立市谷保6丁目21-28","lat":35.67502432,"lon":139.44278585},{"name":"株式会社セレケア","province":"東京都","city":"国立市","address":"東京都国立市東2丁目12-6","lat":35.69418353,"lon":139.45221211},{"name":"花＊家族葬ワイズワークス","province":"東京都","city":"国立市","address":"東京都国立市東1丁目6-2","lat":35.69758859,"lon":139.4477485},{"name":"セレーザ合同会社","province":"東京都","city":"国立市","address":"東京都国立市東2丁目9-3","lat":35.69432795,"lon":139.45174827},{"name":"（株）セレモア","province":"東京都","city":"国立市","address":"東京都国立市谷保5115","lat":35.67971558,"lon":139.446777},{"name":"国立市社会福祉協議会","province":"東京都","city":"国立市","address":"国立市富士見台2-38-5","lat":35.68736,"lon":139.44484},{"name":"国立市地域包括支援センター","province":"東京都","city":"国立市","address":"国立市富士見台2-47-1","lat":35.684376,"lon":139.441513},{"name":"地域包括支援センター北窓口","province":"東京都","city":"国立市","address":"国立市北3-2-15号棟1階","lat":35.700085,"lon":139.432373},{"name":"地域包括支援センター福祉会館窓口","province":"東京都","city":"国立市","address":"国立市富士見台2-38-5","lat":35.687355,"lon":139.444839},{"name":"地域包括支援センター泉窓口","province":"東京都","city":"国立市","address":"国立市泉3-1-6","lat":35.680405,"lon":139.42598},{"name":"国立市消費生活センター","province":"東京都","city":"国立市","address":"国立市富士見台2-47-1","lat":35.684376,"lon":139.441513},{"name":"谷保浄水所","province":"東京都","city":"国立市","address":"東京都国立市谷保1462-1","lat":35.67798226,"lon":139.44087203},{"name":"一橋大学グラウンド","province":"東京都","city":"国立市","address":"東京都国立市中2丁目1","lat":35.69427214,"lon":139.44260462},{"name":"国立市選挙管理委員会","province":"東京都","city":"国立市","address":"国立市富士見台2-47-1","lat":35.683909,"lon":139.44141},{"name":"東京都多摩障害者スポーツセンター","province":"東京都","city":"国立市","address":"東京都国立市","lat":35.68388439,"lon":139.44138288},{"name":"東京都多摩障害者スポーツセンター宿泊棟","province":"東京都","city":"国立市","address":"東京都国立市","lat":35.68388439,"lon":139.44138288},{"name":"東京都多摩障害者スポーツセンター","province":"東京都","city":"国立市","address":"東京都国立市富士見台2丁目1-1","lat":35.68666756,"lon":139.44659622},{"name":"国立高等学校","province":"東京都","city":"国立市","address":"東京都国立市東4丁目25-1","lat":35.68837299,"lon":139.44920148},{"name":"国立市社会福祉協議会","province":"東京都","city":"国立市","address":"国立市富士見台2-38-5くにたち福祉会館内","lat":35.687451,"lon":139.444582},{"name":"国立市社会福祉協議会","province":"東京都","city":"国立市","address":"国立市富士見台2-38-5","lat":35.68736,"lon":139.44484},{"name":"国立市地域包括支援センター","province":"東京都","city":"国立市","address":"国立市富士見台2-47-1","lat":35.684376,"lon":139.441513},{"name":"地域包括支援センター北窓口","province":"東京都","city":"国立市","address":"国立市北3-2-15号棟1階","lat":35.700085,"lon":139.432373},{"name":"地域包括支援センター福祉会館窓口","province":"東京都","city":"国立市","address":"国立市富士見台2-38-5","lat":35.687355,"lon":139.444839},{"name":"地域包括支援センター泉窓口","province":"東京都","city":"国立市","address":"国立市泉3-1-6","lat":35.680405,"lon":139.42598},{"name":"国立市消費生活センター","province":"東京都","city":"国立市","address":"国立市富士見台2-47-1","lat":35.684376,"lon":139.441513},{"name":"谷保浄水所","province":"東京都","city":"国立市","address":"東京都国立市谷保1462-1","lat":35.67798226,"lon":139.44087203},{"name":"一橋大学グラウンド","province":"東京都","city":"国立市","address":"東京都国立市中2丁目1","lat":35.69427214,"lon":139.44260462},{"name":"東京都多摩障害者スポーツセンター","province":"東京都","city":"国立市","address":"東京都国立市富士見台2丁目1-1","lat":35.68666756,"lon":139.44659622},{"name":"国立高等学校","province":"東京都","city":"国立市","address":"東京都国立市東4丁目25-1","lat":35.68837299,"lon":139.44920148},{"name":"国立市地域包括支援センター","province":"東京都","city":"国立市","address":"国立市富士見台2-47-1","lat":35.684376,"lon":139.441513},{"name":"地域包括支援センター北窓口","province":"東京都","city":"国立市","address":"国立市北3-2-15号棟1階","lat":35.700085,"lon":139.432373},{"name":"地域包括支援センター福祉会館窓口","province":"東京都","city":"国立市","address":"国立市富士見台2-38-5","lat":35.687355,"lon":139.444839},{"name":"地域包括支援センター泉窓口","province":"東京都","city":"国立市","address":"国立市泉3-1-6","lat":35.680405,"lon":139.42598},{"name":"国立市消費生活センター","province":"東京都","city":"国立市","address":"国立市富士見台2-47-1","lat":35.684376,"lon":139.441513},{"name":"東京都多摩障害者スポーツセンター","province":"東京都","city":"国立市","address":"東京都国立市富士見台2丁目1-1","lat":35.68666756,"lon":139.44659622},{"name":"国立高等学校","province":"東京都","city":"国立市","address":"東京都国立市東4丁目25-1","lat":35.68837299,"lon":139.44920148},{"name":"国立市地域包括支援センター","province":"東京都","city":"国立市","address":"国立市富士見台2-47-1","lat":35.684376,"lon":139.441513},{"name":"地域包括支援センター北窓口","province":"東京都","city":"国立市","address":"国立市北3-2-15号棟1階","lat":35.700085,"lon":139.432373},{"name":"地域包括支援センター福祉会館窓口","province":"東京都","city":"国立市","address":"国立市富士見台2-38-5","lat":35.687355,"lon":139.444839},{"name":"地域包括支援センター泉窓口","province":"東京都","city":"国立市","address":"国立市泉3-1-6","lat":35.680405,"lon":139.42598},{"name":"国立市消費生活センター","province":"東京都","city":"国立市","address":"国立市富士見台2-47-1","lat":35.684376,"lon":139.441513},{"name":"東京都多摩障害者スポーツセンター","province":"東京都","city":"国立市","address":"東京都国立市富士見台2丁目1-1","lat":35.68666756,"lon":139.44659622},{"name":"国立高等学校","province":"東京都","city":"国立市","address":"東京都国立市東4丁目25-1","lat":35.68837299,"lon":139.44920148},{"name":"国立市地域包括支援センター","province":"東京都","city":"国立市","address":"国立市富士見台2-47-1","lat":35.684376,"lon":139.441513},{"name":"地域包括支援センター北窓口","province":"東京都","city":"国立市","address":"国立市北3-2-15号棟1階","lat":35.700085,"lon":139.432373},{"name":"地域包括支援センター福祉会館窓口","province":"東京都","city":"国立市","address":"国立市富士見台2-38-5","lat":35.687355,"lon":139.444839},{"name":"地域包括支援センター泉窓口","province":"東京都","city":"国立市","address":"国立市泉3-1-6","lat":35.680405,"lon":139.42598},{"name":"国立市消費生活センター","province":"東京都","city":"国立市","address":"国立市富士見台2-47-1","lat":35.684376,"lon":139.441513},{"name":"国立市地域包括支援センター","province":"東京都","city":"国立市","address":"国立市富士見台2-47-1","lat":35.684376,"lon":139.441513},{"name":"地域包括支援センター北窓口","province":"東京都","city":"国立市","address":"国立市北3-2-15号棟1階","lat":35.700085,"lon":139.432373},{"name":"地域包括支援センター福祉会館窓口","province":"東京都","city":"国立市","address":"国立市富士見台2-38-5","lat":35.687355,"lon":139.444839},{"name":"地域包括支援センター泉窓口","province":"東京都","city":"国立市","address":"国立市泉3-1-6","lat":35.680405,"lon":139.42598},{"name":"国立市消費生活センター","province":"東京都","city":"国立市","address":"国立市富士見台2-47-1","lat":35.684376,"lon":139.441513},{"name":"国立市地域包括支援センター","province":"東京都","city":"国立市","address":"国立市富士見台2-47-1","lat":35.684376,"lon":139.441513},{"name":"地域包括支援センター北窓口","province":"東京都","city":"国立市","address":"国立市北3-2-15号棟1階","lat":35.700085,"lon":139.432373},{"name":"地域包括支援センター福祉会館窓口","province":"東京都","city":"国立市","address":"国立市富士見台2-38-5","lat":35.687355,"lon":139.444839},{"name":"地域包括支援センター泉窓口","province":"東京都","city":"国立市","address":"国立市泉3-1-6","lat":35.680405,"lon":139.42598},{"name":"国立市消費生活センター","province":"東京都","city":"国立市","address":"国立市富士見台2-47-1","lat":35.684376,"lon":139.441513},{"name":"国立市地域包括支援センター","province":"東京都","city":"国立市","address":"国立市富士見台2-47-1","lat":35.684376,"lon":139.441513},{"name":"地域包括支援センター北窓口","province":"東京都","city":"国立市","address":"国立市北3-2-15号棟1階","lat":35.700085,"lon":139.432373},{"name":"地域包括支援センター福祉会館窓口","province":"東京都","city":"国立市","address":"国立市富士見台2-38-5","lat":35.687355,"lon":139.444839},{"name":"地域包括支援センター泉窓口","province":"東京都","city":"国立市","address":"国立市泉3-1-6","lat":35.680405,"lon":139.42598},{"name":"国立市消費生活センター","province":"東京都","city":"国立市","address":"国立市富士見台2-47-1","lat":35.684376,"lon":139.441513},{"name":"国立市地域包括支援センター","province":"東京都","city":"国立市","address":"国立市富士見台2-47-1","lat":35.684376,"lon":139.441513},{"name":"地域包括支援センター北窓口","province":"東京都","city":"国立市","address":"国立市北3-2-15号棟1階","lat":35.700085,"lon":139.432373},{"name":"地域包括支援センター福祉会館窓口","province":"東京都","city":"国立市","address":"国立市富士見台2-38-5","lat":35.687355,"lon":139.444839},{"name":"地域包括支援センター泉窓口","province":"東京都","city":"国立市","address":"国立市泉3-1-6","lat":35.680405,"lon":139.42598},{"name":"国立市消費生活センター","province":"東京都","city":"国立市","address":"国立市富士見台2-47-1","lat":35.684376,"lon":139.441513},{"name":"国立市地域包括支援センター","province":"東京都","city":"国立市","address":"国立市富士見台2-47-1","lat":35.684376,"lon":139.441513},{"name":"地域包括支援センター北窓口","province":"東京都","city":"国立市","address":"国立市北3-2-15号棟1階","lat":35.700085,"lon":139.432373},{"name":"地域包括支援センター福祉会館窓口","province":"東京都","city":"国立市","address":"国立市富士見台2-38-5","lat":35.687355,"lon":139.444839},{"name":"地域包括支援センター泉窓口","province":"東京都","city":"国立市","address":"国立市泉3-1-6","lat":35.680405,"lon":139.42598},{"name":"国立市消費生活センター","province":"東京都","city":"国立市","address":"国立市富士見台2-47-1","lat":35.684376,"lon":139.441513},{"name":"国立市地域包括支援センター","province":"東京都","city":"国立市","address":"国立市富士見台2-47-1","lat":35.684376,"lon":139.441513},{"name":"地域包括支援センター北窓口","province":"東京都","city":"国立市","address":"国立市北3-2-15号棟1階","lat":35.700085,"lon":139.432373},{"name":"地域包括支援センター福祉会館窓口","province":"東京都","city":"国立市","address":"国立市富士見台2-38-5","lat":35.687355,"lon":139.444839},{"name":"地域包括支援センター泉窓口","province":"東京都","city":"国立市","address":"国立市泉3-1-6","lat":35.680405,"lon":139.42598},{"name":"国立市消費生活センター","province":"東京都","city":"国立市","address":"国立市富士見台2-47-1","lat":35.684376,"lon":139.441513},{"name":"国立市地域包括支援センター","province":"東京都","city":"国立市","address":"国立市富士見台2-47-1","lat":35.684376,"lon":139.441513},{"name":"地域包括支援センター北窓口","province":"東京都","city":"国立市","address":"国立市北3-2-15号棟1階","lat":35.700085,"lon":139.432373},{"name":"地域包括支援センター福祉会館窓口","province":"東京都","city":"国立市","address":"国立市富士見台2-38-5","lat":35.687355,"lon":139.444839},{"name":"地域包括支援センター泉窓口","province":"東京都","city":"国立市","address":"国立市泉3-1-6","lat":35.680405,"lon":139.42598},{"name":"国立市消費生活センター","province":"東京都","city":"国立市","address":"国立市富士見台2-47-1","lat":35.684376,"lon":139.441513},{"name":"国立市地域包括支援センター","province":"東京都","city":"国立市","address":"国立市富士見台2-47-1","lat":35.684376,"lon":139.441513},{"name":"地域包括支援センター北窓口","province":"東京都","city":"国立市","address":"国立市北3-2-15号棟1階","lat":35.700085,"lon":139.432373},{"name":"地域包括支援センター福祉会館窓口","province":"東京都","city":"国立市","address":"国立市富士見台2-38-5","lat":35.687355,"lon":139.444839},{"name":"地域包括支援センター泉窓口","province":"東京都","city":"国立市","address":"国立市泉3-1-6","lat":35.680405,"lon":139.42598},{"name":"国立市消費生活センター","province":"東京都","city":"国立市","address":"国立市富士見台2-47-1","lat":35.684376,"lon":139.441513},{"name":"国立市地域包括支援センター","province":"東京都","city":"国立市","address":"国立市富士見台2-47-1","lat":35.684376,"lon":139.441513},{"name":"地域包括支援センター北窓口","province":"東京都","city":"国立市","address":"国立市北3-2-15号棟1階","lat":35.700085,"lon":139.432373},{"name":"地域包括支援センター福祉会館窓口","province":"東京都","city":"国立市","address":"国立市富士見台2-38-5","lat":35.687355,"lon":139.444839},{"name":"地域包括支援センター泉窓口","province":"東京都","city":"国立市","address":"国立市泉3-1-6","lat":35.680405,"lon":139.42598},{"name":"国立市消費生活センター","province":"東京都","city":"国立市","address":"国立市富士見台2-47-1","lat":35.684376,"lon":139.441513},{"name":"国立市地域包括支援センター","province":"東京都","city":"国立市","address":"国立市富士見台2-47-1","lat":35.684376,"lon":139.441513},{"name":"地域包括支援センター北窓口","province":"東京都","city":"国立市","address":"国立市北3-2-15号棟1階","lat":35.700085,"lon":139.432373},{"name":"地域包括支援センター福祉会館窓口","province":"東京都","city":"国立市","address":"国立市富士見台2-38-5","lat":35.687355,"lon":139.444839},{"name":"地域包括支援センター泉窓口","province":"東京都","city":"国立市","address":"国立市泉3-1-6","lat":35.680405,"lon":139.42598},{"name":"国立市消費生活センター","province":"東京都","city":"国立市","address":"国立市富士見台2-47-1","lat":35.684376,"lon":139.441513},{"name":"国立市地域包括支援センター","province":"東京都","city":"国立市","address":"国立市富士見台2-47-1","lat":35.684376,"lon":139.441513},{"name":"地域包括支援センター北窓口","province":"東京都","city":"国立市","address":"国立市北3-2-15号棟1階","lat":35.700085,"lon":139.432373},{"name":"地域包括支援センター福祉会館窓口","province":"東京都","city":"国立市","address":"国立市富士見台2-38-5","lat":35.687355,"lon":139.444839},{"name":"地域包括支援センター泉窓口","province":"東京都","city":"国立市","address":"国立市泉3-1-6","lat":35.680405,"lon":139.42598},{"name":"国立市消費生活センター","province":"東京都","city":"国立市","address":"国立市富士見台2-47-1","lat":35.684376,"lon":139.441513},{"name":"国立市地域包括支援センター","province":"東京都","city":"国立市","address":"国立市富士見台2-47-1","lat":35.684376,"lon":139.441513},{"name":"地域包括支援センター北窓口","province":"東京都","city":"国立市","address":"国立市北3-2-15号棟1階","lat":35.700085,"lon":139.432373},{"name":"地域包括支援センター福祉会館窓口","province":"東京都","city":"国立市","address":"国立市富士見台2-38-5","lat":35.687355,"lon":139.444839},{"name":"地域包括支援センター泉窓口","province":"東京都","city":"国立市","address":"国立市泉3-1-6","lat":35.680405,"lon":139.42598},{"name":"国立市消費生活センター","province":"東京都","city":"国立市","address":"国立市富士見台2-47-1","lat":35.684376,"lon":139.441513},{"name":"国立市地域包括支援センター","province":"東京都","city":"国立市","address":"国立市富士見台2-47-1","lat":35.684376,"lon":139.441513},{"name":"地域包括支援センター北窓口","province":"東京都","city":"国立市","address":"国立市北3-2-15号棟1階","lat":35.700085,"lon":139.432373},{"name":"地域包括支援センター福祉会館窓口","province":"東京都","city":"国立市","address":"国立市富士見台2-38-5","lat":35.687355,"lon":139.444839},{"name":"地域包括支援センター泉窓口","province":"東京都","city":"国立市","address":"国立市泉3-1-6","lat":35.680405,"lon":139.42598},{"name":"国立市消費生活センター","province":"東京都","city":"国立市","address":"国立市富士見台2-47-1","lat":35.684376,"lon":139.441513},{"name":"国立市地域包括支援センター","province":"東京都","city":"国立市","address":"国立市富士見台2-47-1","lat":35.684376,"lon":139.441513},{"name":"地域包括支援センター北窓口","province":"東京都","city":"国立市","address":"国立市北3-2-15号棟1階","lat":35.700085,"lon":139.432373},{"name":"地域包括支援センター福祉会館窓口","province":"東京都","city":"国立市","address":"国立市富士見台2-38-5","lat":35.687355,"lon":139.444839},{"name":"地域包括支援センター泉窓口","province":"東京都","city":"国立市","address":"国立市泉3-1-6","lat":35.680405,"lon":139.42598},{"name":"国立市消費生活センター","province":"東京都","city":"国立市","address":"国立市富士見台2-47-1","lat":35.684376,"lon":139.441513},{"name":"国立市地域包括支援センター","province":"東京都","city":"国立市","address":"国立市富士見台2-47-1","lat":35.684376,"lon":139.441513},{"name":"地域包括支援センター北窓口","province":"東京都","city":"国立市","address":"国立市北3-2-15号棟1階","lat":35.700085,"lon":139.432373},{"name":"地域包括支援センター福祉会館窓口","province":"東京都","city":"国立市","address":"国立市富士見台2-38-5","lat":35.687355,"lon":139.444839},{"name":"地域包括支援センター泉窓口","province":"東京都","city":"国立市","address":"国立市泉3-1-6","lat":35.680405,"lon":139.42598},{"name":"国立市消費生活センター","province":"東京都","city":"国立市","address":"国立市富士見台2-47-1","lat":35.684376,"lon":139.441513},{"name":"国立市地域包括支援センター","province":"東京都","city":"国立市","address":"国立市富士見台2-47-1","lat":35.684376,"lon":139.441513},{"name":"地域包括支援センター北窓口","province":"東京都","city":"国立市","address":"国立市北3-2-15号棟1階","lat":35.700085,"lon":139.432373},{"name":"地域包括支援センター福祉会館窓口","province":"東京都","city":"国立市","address":"国立市富士見台2-38-5","lat":35.687355,"lon":139.444839},{"name":"地域包括支援センター泉窓口","province":"東京都","city":"国立市","address":"国立市泉3-1-6","lat":35.680405,"lon":139.42598},{"name":"国立市消費生活センター","province":"東京都","city":"国立市","address":"国立市富士見台2-47-1","lat":35.684376,"lon":139.441513}]}