{"keyword":"放課後","data":[{"name":"ハッピーテラス国立駅前","province":"東京都","city":"国立市","address":"国立市北1-5-8プラース壱番館2階店舗E","lat":35.699974,"lon":139.44686},{"name":"メリーランド","province":"東京都","city":"国立市","address":"国立市北3丁目40番3号","lat":35.699296,"lon":139.42842},{"name":"ＴＡＳＵＣ国立教室","province":"東京都","city":"国立市","address":"国立市東1-4-9ザ・ダイマス5階","lat":35.698436,"lon":139.447246},{"name":"ドリームボックス国立","province":"東京都","city":"国立市","address":"国立市東3丁目6-15エスポワール国立1階","lat":35.69452,"lon":139.452645},{"name":"東京ＹＭＣＡさくら国立","province":"東京都","city":"国立市","address":"国立市東1-4-20-102","lat":35.698813,"lon":139.448496},{"name":"ハイビスカス","province":"東京都","city":"国立市","address":"国立市富士見台4-10-6","lat":35.685859,"lon":139.431484},{"name":"くじらっこ","province":"東京都","city":"国立市","address":"国立市富士見台2-3-2メゾンエクセル1F","lat":35.685759,"lon":139.446402},{"name":"放課後等デイサービス　バモノス","province":"東京都","city":"国立市","address":"国立市富士見台1-7-1-1-114","lat":35.684604,"lon":139.448785},{"name":"放課後等デイサービスいもむしクラブ","province":"東京都","city":"国立市","address":"国立市富士見台1-17-29アップスタイルビルI2階","lat":35.681274,"lon":139.448041},{"name":"ハッピー・テラス国立","province":"東京都","city":"国立市","address":"国立市中2-3-66タキイシビル1階","lat":35.695494,"lon":139.439913},{"name":"滝乃川学園　放課後等デイサービス","province":"東京都","city":"国立市","address":"国立市谷保6312","lat":35.680959,"lon":139.429501},{"name":"スマイルともにー","province":"東京都","city":"国立市","address":"国立市泉5-20-4","lat":35.677954,"lon":139.43815}]}