{"keyword":"月間","data":[{"name":"ハッピーテラス国立駅前","province":"東京都","city":"国立市","address":"国立市北1-5-8プラース壱番館2階店舗E","lat":35.699974,"lon":139.44686},{"name":"メリーランド","province":"東京都","city":"国立市","address":"国立市北3丁目40番3号","lat":35.699296,"lon":139.42842},{"name":"ＴＡＳＵＣ国立教室","province":"東京都","city":"国立市","address":"国立市東1-4-9ザ・ダイマス5階","lat":35.698436,"lon":139.447246},{"name":"ドリームボックス国立","province":"東京都","city":"国立市","address":"国立市東3丁目6-15エスポワール国立1階","lat":35.69452,"lon":139.452645},{"name":"東京ＹＭＣＡさくら国立","province":"東京都","city":"国立市","address":"国立市東1-4-20-102","lat":35.698813,"lon":139.448496},{"name":"ハイビスカス","province":"東京都","city":"国立市","address":"国立市富士見台4-10-6","lat":35.685859,"lon":139.431484},{"name":"くじらっこ","province":"東京都","city":"国立市","address":"国立市富士見台2-3-2メゾンエクセル1F","lat":35.685759,"lon":139.446402},{"name":"放課後等デイサービス　バモノス","province":"東京都","city":"国立市","address":"国立市富士見台1-7-1-1-114","lat":35.684604,"lon":139.448785},{"name":"放課後等デイサービスいもむしクラブ","province":"東京都","city":"国立市","address":"国立市富士見台1-17-29アップスタイルビルI2階","lat":35.681274,"lon":139.448041},{"name":"ハッピー・テラス国立","province":"東京都","city":"国立市","address":"国立市中2-3-66タキイシビル1階","lat":35.695494,"lon":139.439913},{"name":"滝乃川学園　放課後等デイサービス","province":"東京都","city":"国立市","address":"国立市谷保6312","lat":35.680959,"lon":139.429501},{"name":"スマイルともにー","province":"東京都","city":"国立市","address":"国立市泉5-20-4","lat":35.677954,"lon":139.43815},{"name":"国立市子ども家庭支援センター","province":"東京都","city":"国立市","address":"国立市富士見台3-21-1","lat":35.685859,"lon":139.435872},{"name":"国立市子ども家庭支援センター","province":"東京都","city":"国立市","address":"国立市富士見台2-47-1","lat":35.68438,"lon":139.44151},{"name":"国立市子ども家庭支援センター","province":"東京都","city":"国立市","address":"国立市富士見台3-21-1","lat":35.68588,"lon":139.43515},{"name":"福祉センター前","province":"東京都","city":"国立市","address":"東京都国立市富士見台1丁目7-1","lat":35.68457064,"lon":139.44888498},{"name":"富士見台第一団地","province":"東京都","city":"国立市","address":"東京都国立市富士見台1丁目12","lat":35.68318466,"lon":139.44756847},{"name":"国立市民総合体育館前","province":"東京都","city":"国立市","address":"東京都国立市富士見台2丁目48","lat":35.68475647,"lon":139.4401274},{"name":"国立富士見通り入口","province":"東京都","city":"国立市","address":"東京都国立市中1丁目9-52","lat":35.69809405,"lon":139.44623194},{"name":"国立旭通り入口","province":"東京都","city":"国立市","address":"東京都国立市東1丁目6-25","lat":35.69813573,"lon":139.44703465},{"name":"国立高校西","province":"東京都","city":"国立市","address":"東京都国立市富士見台2丁目1-1","lat":35.68666756,"lon":139.44659622},{"name":"国立駅交番前","province":"東京都","city":"国立市","address":"東京都国立市東1丁目4-13","lat":35.69882455,"lon":139.44735126},{"name":"谷保第三公園北","province":"東京都","city":"国立市","address":"東京都国立市富士見台2丁目33-1","lat":35.68590649,"lon":139.44506304},{"name":"国立駅南口西","province":"東京都","city":"国立市","address":"東京都国立市中1丁目8-43","lat":35.69879952,"lon":139.44602083},{"name":"谷保浄水所","province":"東京都","city":"国立市","address":"東京都国立市谷保1462-1","lat":35.67798226,"lon":139.44087203},{"name":"一橋大学グラウンド","province":"東京都","city":"国立市","address":"東京都国立市中2丁目1","lat":35.69427214,"lon":139.44260462},{"name":"東京都多摩障害者スポーツセンター","province":"東京都","city":"国立市","address":"東京都国立市","lat":35.68388439,"lon":139.44138288},{"name":"東京都多摩障害者スポーツセンター宿泊棟","province":"東京都","city":"国立市","address":"東京都国立市","lat":35.68388439,"lon":139.44138288},{"name":"東京都多摩障害者スポーツセンター","province":"東京都","city":"国立市","address":"東京都国立市富士見台2丁目1-1","lat":35.68666756,"lon":139.44659622},{"name":"国立高等学校","province":"東京都","city":"国立市","address":"東京都国立市東4丁目25-1","lat":35.68837299,"lon":139.44920148},{"name":"くにたち市民総合体育館","province":"東京都","city":"国立市","address":"東京都国立市富士見台2丁目48","lat":35.68475647,"lon":139.4401274},{"name":"国立市本庁舎","province":"東京都","city":"国立市","address":"国立市富士見台2-47-1","lat":35.683913,"lon":139.441366},{"name":"一橋大学グラウンド","province":"東京都","city":"国立市","address":"国立市中2-1","lat":35.69427,"lon":139.4426},{"name":"ハッピーテラス国立駅前","province":"東京都","city":"国立市","address":"国立市北1-5-8プラース壱番館2階店舗E","lat":35.699974,"lon":139.44686},{"name":"メリーランド","province":"東京都","city":"国立市","address":"国立市北3丁目40番3号","lat":35.699296,"lon":139.42842},{"name":"ＴＡＳＵＣ国立教室","province":"東京都","city":"国立市","address":"国立市東1-4-9ザ・ダイマス5階","lat":35.698436,"lon":139.447246},{"name":"ドリームボックス国立","province":"東京都","city":"国立市","address":"国立市東3丁目6-15エスポワール国立1階","lat":35.69452,"lon":139.452645},{"name":"東京ＹＭＣＡさくら国立","province":"東京都","city":"国立市","address":"国立市東1-4-20-102","lat":35.698813,"lon":139.448496},{"name":"ハイビスカス","province":"東京都","city":"国立市","address":"国立市富士見台4-10-6","lat":35.685859,"lon":139.431484},{"name":"くじらっこ","province":"東京都","city":"国立市","address":"国立市富士見台2-3-2メゾンエクセル1F","lat":35.685759,"lon":139.446402},{"name":"放課後等デイサービス　バモノス","province":"東京都","city":"国立市","address":"国立市富士見台1-7-1-1-114","lat":35.684604,"lon":139.448785},{"name":"放課後等デイサービスいもむしクラブ","province":"東京都","city":"国立市","address":"国立市富士見台1-17-29アップスタイルビルI2階","lat":35.681274,"lon":139.448041},{"name":"ハッピー・テラス国立","province":"東京都","city":"国立市","address":"国立市中2-3-66タキイシビル1階","lat":35.695494,"lon":139.439913},{"name":"滝乃川学園　放課後等デイサービス","province":"東京都","city":"国立市","address":"国立市谷保6312","lat":35.680959,"lon":139.429501},{"name":"スマイルともにー","province":"東京都","city":"国立市","address":"国立市泉5-20-4","lat":35.677954,"lon":139.43815},{"name":"国立市子ども家庭支援センター","province":"東京都","city":"国立市","address":"国立市富士見台3-21-1","lat":35.685859,"lon":139.435872},{"name":"国立市子ども家庭支援センター","province":"東京都","city":"国立市","address":"国立市富士見台2-47-1","lat":35.68438,"lon":139.44151},{"name":"国立市子ども家庭支援センター","province":"東京都","city":"国立市","address":"国立市富士見台3-21-1","lat":35.68588,"lon":139.43515},{"name":"福祉センター前","province":"東京都","city":"国立市","address":"東京都国立市富士見台1丁目7-1","lat":35.68457064,"lon":139.44888498},{"name":"富士見台第一団地","province":"東京都","city":"国立市","address":"東京都国立市富士見台1丁目12","lat":35.68318466,"lon":139.44756847},{"name":"国立市民総合体育館前","province":"東京都","city":"国立市","address":"東京都国立市富士見台2丁目48","lat":35.68475647,"lon":139.4401274},{"name":"国立富士見通り入口","province":"東京都","city":"国立市","address":"東京都国立市中1丁目9-52","lat":35.69809405,"lon":139.44623194},{"name":"国立旭通り入口","province":"東京都","city":"国立市","address":"東京都国立市東1丁目6-25","lat":35.69813573,"lon":139.44703465},{"name":"国立高校西","province":"東京都","city":"国立市","address":"東京都国立市富士見台2丁目1-1","lat":35.68666756,"lon":139.44659622},{"name":"国立駅交番前","province":"東京都","city":"国立市","address":"東京都国立市東1丁目4-13","lat":35.69882455,"lon":139.44735126},{"name":"谷保第三公園北","province":"東京都","city":"国立市","address":"東京都国立市富士見台2丁目33-1","lat":35.68590649,"lon":139.44506304},{"name":"国立駅南口西","province":"東京都","city":"国立市","address":"東京都国立市中1丁目8-43","lat":35.69879952,"lon":139.44602083},{"name":"谷保浄水所","province":"東京都","city":"国立市","address":"東京都国立市谷保1462-1","lat":35.67798226,"lon":139.44087203},{"name":"一橋大学グラウンド","province":"東京都","city":"国立市","address":"東京都国立市中2丁目1","lat":35.69427214,"lon":139.44260462},{"name":"東京都多摩障害者スポーツセンター","province":"東京都","city":"国立市","address":"東京都国立市","lat":35.68388439,"lon":139.44138288},{"name":"東京都多摩障害者スポーツセンター宿泊棟","province":"東京都","city":"国立市","address":"東京都国立市","lat":35.68388439,"lon":139.44138288},{"name":"東京都多摩障害者スポーツセンター","province":"東京都","city":"国立市","address":"東京都国立市富士見台2丁目1-1","lat":35.68666756,"lon":139.44659622},{"name":"国立高等学校","province":"東京都","city":"国立市","address":"東京都国立市東4丁目25-1","lat":35.68837299,"lon":139.44920148},{"name":"ハッピーテラス国立駅前","province":"東京都","city":"国立市","address":"国立市北1-5-8プラース壱番館2階店舗E","lat":35.699974,"lon":139.44686},{"name":"メリーランド","province":"東京都","city":"国立市","address":"国立市北3丁目40番3号","lat":35.699296,"lon":139.42842},{"name":"ＴＡＳＵＣ国立教室","province":"東京都","city":"国立市","address":"国立市東1-4-9ザ・ダイマス5階","lat":35.698436,"lon":139.447246},{"name":"ドリームボックス国立","province":"東京都","city":"国立市","address":"国立市東3丁目6-15エスポワール国立1階","lat":35.69452,"lon":139.452645},{"name":"東京ＹＭＣＡさくら国立","province":"東京都","city":"国立市","address":"国立市東1-4-20-102","lat":35.698813,"lon":139.448496},{"name":"ハイビスカス","province":"東京都","city":"国立市","address":"国立市富士見台4-10-6","lat":35.685859,"lon":139.431484},{"name":"くじらっこ","province":"東京都","city":"国立市","address":"国立市富士見台2-3-2メゾンエクセル1F","lat":35.685759,"lon":139.446402},{"name":"放課後等デイサービス　バモノス","province":"東京都","city":"国立市","address":"国立市富士見台1-7-1-1-114","lat":35.684604,"lon":139.448785},{"name":"放課後等デイサービスいもむしクラブ","province":"東京都","city":"国立市","address":"国立市富士見台1-17-29アップスタイルビルI2階","lat":35.681274,"lon":139.448041},{"name":"ハッピー・テラス国立","province":"東京都","city":"国立市","address":"国立市中2-3-66タキイシビル1階","lat":35.695494,"lon":139.439913},{"name":"滝乃川学園　放課後等デイサービス","province":"東京都","city":"国立市","address":"国立市谷保6312","lat":35.680959,"lon":139.429501},{"name":"スマイルともにー","province":"東京都","city":"国立市","address":"国立市泉5-20-4","lat":35.677954,"lon":139.43815},{"name":"国立市子ども家庭支援センター","province":"東京都","city":"国立市","address":"国立市富士見台3-21-1","lat":35.685859,"lon":139.435872},{"name":"国立市子ども家庭支援センター","province":"東京都","city":"国立市","address":"国立市富士見台2-47-1","lat":35.68438,"lon":139.44151},{"name":"国立市子ども家庭支援センター","province":"東京都","city":"国立市","address":"国立市富士見台3-21-1","lat":35.68588,"lon":139.43515},{"name":"福祉センター前","province":"東京都","city":"国立市","address":"東京都国立市富士見台1丁目7-1","lat":35.68457064,"lon":139.44888498},{"name":"富士見台第一団地","province":"東京都","city":"国立市","address":"東京都国立市富士見台1丁目12","lat":35.68318466,"lon":139.44756847},{"name":"国立市民総合体育館前","province":"東京都","city":"国立市","address":"東京都国立市富士見台2丁目48","lat":35.68475647,"lon":139.4401274},{"name":"国立富士見通り入口","province":"東京都","city":"国立市","address":"東京都国立市中1丁目9-52","lat":35.69809405,"lon":139.44623194},{"name":"国立旭通り入口","province":"東京都","city":"国立市","address":"東京都国立市東1丁目6-25","lat":35.69813573,"lon":139.44703465},{"name":"国立高校西","province":"東京都","city":"国立市","address":"東京都国立市富士見台2丁目1-1","lat":35.68666756,"lon":139.44659622},{"name":"国立駅交番前","province":"東京都","city":"国立市","address":"東京都国立市東1丁目4-13","lat":35.69882455,"lon":139.44735126},{"name":"谷保第三公園北","province":"東京都","city":"国立市","address":"東京都国立市富士見台2丁目33-1","lat":35.68590649,"lon":139.44506304},{"name":"国立駅南口西","province":"東京都","city":"国立市","address":"東京都国立市中1丁目8-43","lat":35.69879952,"lon":139.44602083},{"name":"谷保浄水所","province":"東京都","city":"国立市","address":"東京都国立市谷保1462-1","lat":35.67798226,"lon":139.44087203},{"name":"一橋大学グラウンド","province":"東京都","city":"国立市","address":"東京都国立市中2丁目1","lat":35.69427214,"lon":139.44260462},{"name":"東京都多摩障害者スポーツセンター","province":"東京都","city":"国立市","address":"東京都国立市富士見台2丁目1-1","lat":35.68666756,"lon":139.44659622},{"name":"国立高等学校","province":"東京都","city":"国立市","address":"東京都国立市東4丁目25-1","lat":35.68837299,"lon":139.44920148},{"name":"ハッピーテラス国立駅前","province":"東京都","city":"国立市","address":"国立市北1-5-8プラース壱番館2階店舗E","lat":35.699974,"lon":139.44686},{"name":"メリーランド","province":"東京都","city":"国立市","address":"国立市北3丁目40番3号","lat":35.699296,"lon":139.42842},{"name":"ＴＡＳＵＣ国立教室","province":"東京都","city":"国立市","address":"国立市東1-4-9ザ・ダイマス5階","lat":35.698436,"lon":139.447246},{"name":"ドリームボックス国立","province":"東京都","city":"国立市","address":"国立市東3丁目6-15エスポワール国立1階","lat":35.69452,"lon":139.452645},{"name":"東京ＹＭＣＡさくら国立","province":"東京都","city":"国立市","address":"国立市東1-4-20-102","lat":35.698813,"lon":139.448496},{"name":"ハイビスカス","province":"東京都","city":"国立市","address":"国立市富士見台4-10-6","lat":35.685859,"lon":139.431484},{"name":"くじらっこ","province":"東京都","city":"国立市","address":"国立市富士見台2-3-2メゾンエクセル1F","lat":35.685759,"lon":139.446402},{"name":"放課後等デイサービス　バモノス","province":"東京都","city":"国立市","address":"国立市富士見台1-7-1-1-114","lat":35.684604,"lon":139.448785},{"name":"放課後等デイサービスいもむしクラブ","province":"東京都","city":"国立市","address":"国立市富士見台1-17-29アップスタイルビルI2階","lat":35.681274,"lon":139.448041},{"name":"ハッピー・テラス国立","province":"東京都","city":"国立市","address":"国立市中2-3-66タキイシビル1階","lat":35.695494,"lon":139.439913},{"name":"滝乃川学園　放課後等デイサービス","province":"東京都","city":"国立市","address":"国立市谷保6312","lat":35.680959,"lon":139.429501},{"name":"スマイルともにー","province":"東京都","city":"国立市","address":"国立市泉5-20-4","lat":35.677954,"lon":139.43815},{"name":"国立市子ども家庭支援センター","province":"東京都","city":"国立市","address":"国立市富士見台3-21-1","lat":35.685859,"lon":139.435872},{"name":"国立市子ども家庭支援センター","province":"東京都","city":"国立市","address":"国立市富士見台2-47-1","lat":35.68438,"lon":139.44151},{"name":"国立市子ども家庭支援センター","province":"東京都","city":"国立市","address":"国立市富士見台3-21-1","lat":35.68588,"lon":139.43515},{"name":"一橋大学グラウンド","province":"東京都","city":"国立市","address":"東京都国立市中2丁目1","lat":35.69427214,"lon":139.44260462},{"name":"東京都多摩障害者スポーツセンター","province":"東京都","city":"国立市","address":"東京都国立市富士見台2丁目1-1","lat":35.68666756,"lon":139.44659622},{"name":"国立高等学校","province":"東京都","city":"国立市","address":"東京都国立市東4丁目25-1","lat":35.68837299,"lon":139.44920148},{"name":"ハッピーテラス国立駅前","province":"東京都","city":"国立市","address":"国立市北1-5-8プラース壱番館2階店舗E","lat":35.699974,"lon":139.44686},{"name":"メリーランド","province":"東京都","city":"国立市","address":"国立市北3丁目40番3号","lat":35.699296,"lon":139.42842},{"name":"ＴＡＳＵＣ国立教室","province":"東京都","city":"国立市","address":"国立市東1-4-9ザ・ダイマス5階","lat":35.698436,"lon":139.447246},{"name":"ドリームボックス国立","province":"東京都","city":"国立市","address":"国立市東3丁目6-15エスポワール国立1階","lat":35.69452,"lon":139.452645},{"name":"東京ＹＭＣＡさくら国立","province":"東京都","city":"国立市","address":"国立市東1-4-20-102","lat":35.698813,"lon":139.448496},{"name":"ハイビスカス","province":"東京都","city":"国立市","address":"国立市富士見台4-10-6","lat":35.685859,"lon":139.431484},{"name":"くじらっこ","province":"東京都","city":"国立市","address":"国立市富士見台2-3-2メゾンエクセル1F","lat":35.685759,"lon":139.446402},{"name":"放課後等デイサービス　バモノス","province":"東京都","city":"国立市","address":"国立市富士見台1-7-1-1-114","lat":35.684604,"lon":139.448785},{"name":"放課後等デイサービスいもむしクラブ","province":"東京都","city":"国立市","address":"国立市富士見台1-17-29アップスタイルビルI2階","lat":35.681274,"lon":139.448041},{"name":"ハッピー・テラス国立","province":"東京都","city":"国立市","address":"国立市中2-3-66タキイシビル1階","lat":35.695494,"lon":139.439913},{"name":"滝乃川学園　放課後等デイサービス","province":"東京都","city":"国立市","address":"国立市谷保6312","lat":35.680959,"lon":139.429501},{"name":"スマイルともにー","province":"東京都","city":"国立市","address":"国立市泉5-20-4","lat":35.677954,"lon":139.43815},{"name":"国立市子ども家庭支援センター","province":"東京都","city":"国立市","address":"国立市富士見台3-21-1","lat":35.685859,"lon":139.435872},{"name":"国立市子ども家庭支援センター","province":"東京都","city":"国立市","address":"国立市富士見台2-47-1","lat":35.68438,"lon":139.44151},{"name":"国立市子ども家庭支援センター","province":"東京都","city":"国立市","address":"国立市富士見台3-21-1","lat":35.68588,"lon":139.43515},{"name":"東京都多摩障害者スポーツセンター","province":"東京都","city":"国立市","address":"東京都国立市富士見台2丁目1-1","lat":35.68666756,"lon":139.44659622},{"name":"国立高等学校","province":"東京都","city":"国立市","address":"東京都国立市東4丁目25-1","lat":35.68837299,"lon":139.44920148},{"name":"ハッピーテラス国立駅前","province":"東京都","city":"国立市","address":"国立市北1-5-8プラース壱番館2階店舗E","lat":35.699974,"lon":139.44686},{"name":"メリーランド","province":"東京都","city":"国立市","address":"国立市北3丁目40番3号","lat":35.699296,"lon":139.42842},{"name":"ＴＡＳＵＣ国立教室","province":"東京都","city":"国立市","address":"国立市東1-4-9ザ・ダイマス5階","lat":35.698436,"lon":139.447246},{"name":"ドリームボックス国立","province":"東京都","city":"国立市","address":"国立市東3丁目6-15エスポワール国立1階","lat":35.69452,"lon":139.452645},{"name":"東京ＹＭＣＡさくら国立","province":"東京都","city":"国立市","address":"国立市東1-4-20-102","lat":35.698813,"lon":139.448496},{"name":"ハイビスカス","province":"東京都","city":"国立市","address":"国立市富士見台4-10-6","lat":35.685859,"lon":139.431484},{"name":"くじらっこ","province":"東京都","city":"国立市","address":"国立市富士見台2-3-2メゾンエクセル1F","lat":35.685759,"lon":139.446402},{"name":"放課後等デイサービス　バモノス","province":"東京都","city":"国立市","address":"国立市富士見台1-7-1-1-114","lat":35.684604,"lon":139.448785},{"name":"放課後等デイサービスいもむしクラブ","province":"東京都","city":"国立市","address":"国立市富士見台1-17-29アップスタイルビルI2階","lat":35.681274,"lon":139.448041},{"name":"ハッピー・テラス国立","province":"東京都","city":"国立市","address":"国立市中2-3-66タキイシビル1階","lat":35.695494,"lon":139.439913},{"name":"滝乃川学園　放課後等デイサービス","province":"東京都","city":"国立市","address":"国立市谷保6312","lat":35.680959,"lon":139.429501},{"name":"スマイルともにー","province":"東京都","city":"国立市","address":"国立市泉5-20-4","lat":35.677954,"lon":139.43815},{"name":"国立市子ども家庭支援センター","province":"東京都","city":"国立市","address":"国立市富士見台3-21-1","lat":35.685859,"lon":139.435872},{"name":"国立市子ども家庭支援センター","province":"東京都","city":"国立市","address":"国立市富士見台2-47-1","lat":35.68438,"lon":139.44151},{"name":"国立市子ども家庭支援センター","province":"東京都","city":"国立市","address":"国立市富士見台3-21-1","lat":35.68588,"lon":139.43515},{"name":"東京都多摩障害者スポーツセンター","province":"東京都","city":"国立市","address":"東京都国立市富士見台2丁目1-1","lat":35.68666756,"lon":139.44659622},{"name":"国立高等学校","province":"東京都","city":"国立市","address":"東京都国立市東4丁目25-1","lat":35.68837299,"lon":139.44920148},{"name":"ハッピーテラス国立駅前","province":"東京都","city":"国立市","address":"国立市北1-5-8プラース壱番館2階店舗E","lat":35.699974,"lon":139.44686},{"name":"メリーランド","province":"東京都","city":"国立市","address":"国立市北3丁目40番3号","lat":35.699296,"lon":139.42842},{"name":"ＴＡＳＵＣ国立教室","province":"東京都","city":"国立市","address":"国立市東1-4-9ザ・ダイマス5階","lat":35.698436,"lon":139.447246},{"name":"ドリームボックス国立","province":"東京都","city":"国立市","address":"国立市東3丁目6-15エスポワール国立1階","lat":35.69452,"lon":139.452645},{"name":"東京ＹＭＣＡさくら国立","province":"東京都","city":"国立市","address":"国立市東1-4-20-102","lat":35.698813,"lon":139.448496},{"name":"ハイビスカス","province":"東京都","city":"国立市","address":"国立市富士見台4-10-6","lat":35.685859,"lon":139.431484},{"name":"くじらっこ","province":"東京都","city":"国立市","address":"国立市富士見台2-3-2メゾンエクセル1F","lat":35.685759,"lon":139.446402},{"name":"放課後等デイサービス　バモノス","province":"東京都","city":"国立市","address":"国立市富士見台1-7-1-1-114","lat":35.684604,"lon":139.448785},{"name":"放課後等デイサービスいもむしクラブ","province":"東京都","city":"国立市","address":"国立市富士見台1-17-29アップスタイルビルI2階","lat":35.681274,"lon":139.448041},{"name":"ハッピー・テラス国立","province":"東京都","city":"国立市","address":"国立市中2-3-66タキイシビル1階","lat":35.695494,"lon":139.439913},{"name":"滝乃川学園　放課後等デイサービス","province":"東京都","city":"国立市","address":"国立市谷保6312","lat":35.680959,"lon":139.429501},{"name":"スマイルともにー","province":"東京都","city":"国立市","address":"国立市泉5-20-4","lat":35.677954,"lon":139.43815},{"name":"国立市子ども家庭支援センター","province":"東京都","city":"国立市","address":"国立市富士見台3-21-1","lat":35.685859,"lon":139.435872},{"name":"国立市子ども家庭支援センター","province":"東京都","city":"国立市","address":"国立市富士見台2-47-1","lat":35.68438,"lon":139.44151},{"name":"国立市子ども家庭支援センター","province":"東京都","city":"国立市","address":"国立市富士見台3-21-1","lat":35.68588,"lon":139.43515},{"name":"東京都多摩障害者スポーツセンター","province":"東京都","city":"国立市","address":"東京都国立市富士見台2丁目1-1","lat":35.68666756,"lon":139.44659622},{"name":"国立高等学校","province":"東京都","city":"国立市","address":"東京都国立市東4丁目25-1","lat":35.68837299,"lon":139.44920148},{"name":"ハッピーテラス国立駅前","province":"東京都","city":"国立市","address":"国立市北1-5-8プラース壱番館2階店舗E","lat":35.699974,"lon":139.44686},{"name":"メリーランド","province":"東京都","city":"国立市","address":"国立市北3丁目40番3号","lat":35.699296,"lon":139.42842},{"name":"ＴＡＳＵＣ国立教室","province":"東京都","city":"国立市","address":"国立市東1-4-9ザ・ダイマス5階","lat":35.698436,"lon":139.447246},{"name":"ドリームボックス国立","province":"東京都","city":"国立市","address":"国立市東3丁目6-15エスポワール国立1階","lat":35.69452,"lon":139.452645},{"name":"東京ＹＭＣＡさくら国立","province":"東京都","city":"国立市","address":"国立市東1-4-20-102","lat":35.698813,"lon":139.448496},{"name":"ハイビスカス","province":"東京都","city":"国立市","address":"国立市富士見台4-10-6","lat":35.685859,"lon":139.431484},{"name":"くじらっこ","province":"東京都","city":"国立市","address":"国立市富士見台2-3-2メゾンエクセル1F","lat":35.685759,"lon":139.446402},{"name":"放課後等デイサービス　バモノス","province":"東京都","city":"国立市","address":"国立市富士見台1-7-1-1-114","lat":35.684604,"lon":139.448785},{"name":"放課後等デイサービスいもむしクラブ","province":"東京都","city":"国立市","address":"国立市富士見台1-17-29アップスタイルビルI2階","lat":35.681274,"lon":139.448041},{"name":"ハッピー・テラス国立","province":"東京都","city":"国立市","address":"国立市中2-3-66タキイシビル1階","lat":35.695494,"lon":139.439913},{"name":"滝乃川学園　放課後等デイサービス","province":"東京都","city":"国立市","address":"国立市谷保6312","lat":35.680959,"lon":139.429501},{"name":"スマイルともにー","province":"東京都","city":"国立市","address":"国立市泉5-20-4","lat":35.677954,"lon":139.43815},{"name":"国立市子ども家庭支援センター","province":"東京都","city":"国立市","address":"国立市富士見台3-21-1","lat":35.685859,"lon":139.435872},{"name":"国立市子ども家庭支援センター","province":"東京都","city":"国立市","address":"国立市富士見台2-47-1","lat":35.68438,"lon":139.44151},{"name":"国立市子ども家庭支援センター","province":"東京都","city":"国立市","address":"国立市富士見台3-21-1","lat":35.68588,"lon":139.43515},{"name":"東京都多摩障害者スポーツセンター","province":"東京都","city":"国立市","address":"東京都国立市富士見台2丁目1-1","lat":35.68666756,"lon":139.44659622},{"name":"国立高等学校","province":"東京都","city":"国立市","address":"東京都国立市東4丁目25-1","lat":35.68837299,"lon":139.44920148},{"name":"ハッピーテラス国立駅前","province":"東京都","city":"国立市","address":"国立市北1-5-8プラース壱番館2階店舗E","lat":35.699974,"lon":139.44686},{"name":"メリーランド","province":"東京都","city":"国立市","address":"国立市北3丁目40番3号","lat":35.699296,"lon":139.42842},{"name":"ＴＡＳＵＣ国立教室","province":"東京都","city":"国立市","address":"国立市東1-4-9ザ・ダイマス5階","lat":35.698436,"lon":139.447246},{"name":"ドリームボックス国立","province":"東京都","city":"国立市","address":"国立市東3丁目6-15エスポワール国立1階","lat":35.69452,"lon":139.452645},{"name":"東京ＹＭＣＡさくら国立","province":"東京都","city":"国立市","address":"国立市東1-4-20-102","lat":35.698813,"lon":139.448496},{"name":"ハイビスカス","province":"東京都","city":"国立市","address":"国立市富士見台4-10-6","lat":35.685859,"lon":139.431484},{"name":"くじらっこ","province":"東京都","city":"国立市","address":"国立市富士見台2-3-2メゾンエクセル1F","lat":35.685759,"lon":139.446402},{"name":"放課後等デイサービス　バモノス","province":"東京都","city":"国立市","address":"国立市富士見台1-7-1-1-114","lat":35.684604,"lon":139.448785},{"name":"放課後等デイサービスいもむしクラブ","province":"東京都","city":"国立市","address":"国立市富士見台1-17-29アップスタイルビルI2階","lat":35.681274,"lon":139.448041},{"name":"ハッピー・テラス国立","province":"東京都","city":"国立市","address":"国立市中2-3-66タキイシビル1階","lat":35.695494,"lon":139.439913},{"name":"滝乃川学園　放課後等デイサービス","province":"東京都","city":"国立市","address":"国立市谷保6312","lat":35.680959,"lon":139.429501},{"name":"スマイルともにー","province":"東京都","city":"国立市","address":"国立市泉5-20-4","lat":35.677954,"lon":139.43815},{"name":"国立市子ども家庭支援センター","province":"東京都","city":"国立市","address":"国立市富士見台3-21-1","lat":35.685859,"lon":139.435872},{"name":"国立市子ども家庭支援センター","province":"東京都","city":"国立市","address":"国立市富士見台2-47-1","lat":35.68438,"lon":139.44151},{"name":"国立市子ども家庭支援センター","province":"東京都","city":"国立市","address":"国立市富士見台3-21-1","lat":35.68588,"lon":139.43515},{"name":"東京都多摩障害者スポーツセンター","province":"東京都","city":"国立市","address":"東京都国立市富士見台2丁目1-1","lat":35.68666756,"lon":139.44659622},{"name":"国立高等学校","province":"東京都","city":"国立市","address":"東京都国立市東4丁目25-1","lat":35.68837299,"lon":139.44920148},{"name":"ハッピーテラス国立駅前","province":"東京都","city":"国立市","address":"国立市北1-5-8プラース壱番館2階店舗E","lat":35.699974,"lon":139.44686},{"name":"メリーランド","province":"東京都","city":"国立市","address":"国立市北3丁目40番3号","lat":35.699296,"lon":139.42842},{"name":"ＴＡＳＵＣ国立教室","province":"東京都","city":"国立市","address":"国立市東1-4-9ザ・ダイマス5階","lat":35.698436,"lon":139.447246},{"name":"ドリームボックス国立","province":"東京都","city":"国立市","address":"国立市東3丁目6-15エスポワール国立1階","lat":35.69452,"lon":139.452645},{"name":"東京ＹＭＣＡさくら国立","province":"東京都","city":"国立市","address":"国立市東1-4-20-102","lat":35.698813,"lon":139.448496},{"name":"ハイビスカス","province":"東京都","city":"国立市","address":"国立市富士見台4-10-6","lat":35.685859,"lon":139.431484},{"name":"くじらっこ","province":"東京都","city":"国立市","address":"国立市富士見台2-3-2メゾンエクセル1F","lat":35.685759,"lon":139.446402},{"name":"放課後等デイサービス　バモノス","province":"東京都","city":"国立市","address":"国立市富士見台1-7-1-1-114","lat":35.684604,"lon":139.448785},{"name":"放課後等デイサービスいもむしクラブ","province":"東京都","city":"国立市","address":"国立市富士見台1-17-29アップスタイルビルI2階","lat":35.681274,"lon":139.448041},{"name":"ハッピー・テラス国立","province":"東京都","city":"国立市","address":"国立市中2-3-66タキイシビル1階","lat":35.695494,"lon":139.439913},{"name":"滝乃川学園　放課後等デイサービス","province":"東京都","city":"国立市","address":"国立市谷保6312","lat":35.680959,"lon":139.429501},{"name":"スマイルともにー","province":"東京都","city":"国立市","address":"国立市泉5-20-4","lat":35.677954,"lon":139.43815},{"name":"国立市子ども家庭支援センター","province":"東京都","city":"国立市","address":"国立市富士見台3-21-1","lat":35.685859,"lon":139.435872},{"name":"国立市子ども家庭支援センター","province":"東京都","city":"国立市","address":"国立市富士見台2-47-1","lat":35.68438,"lon":139.44151},{"name":"国立市子ども家庭支援センター","province":"東京都","city":"国立市","address":"国立市富士見台3-21-1","lat":35.68588,"lon":139.43515},{"name":"東京都多摩障害者スポーツセンター","province":"東京都","city":"国立市","address":"東京都国立市富士見台2丁目1-1","lat":35.68666756,"lon":139.44659622},{"name":"国立高等学校","province":"東京都","city":"国立市","address":"東京都国立市東4丁目25-1","lat":35.68837299,"lon":139.44920148},{"name":"ハッピーテラス国立駅前","province":"東京都","city":"国立市","address":"国立市北1-5-8プラース壱番館2階店舗E","lat":35.699974,"lon":139.44686},{"name":"メリーランド","province":"東京都","city":"国立市","address":"国立市北3丁目40番3号","lat":35.699296,"lon":139.42842},{"name":"ＴＡＳＵＣ国立教室","province":"東京都","city":"国立市","address":"国立市東1-4-9ザ・ダイマス5階","lat":35.698436,"lon":139.447246},{"name":"ドリームボックス国立","province":"東京都","city":"国立市","address":"国立市東3丁目6-15エスポワール国立1階","lat":35.69452,"lon":139.452645},{"name":"東京ＹＭＣＡさくら国立","province":"東京都","city":"国立市","address":"国立市東1-4-20-102","lat":35.698813,"lon":139.448496},{"name":"ハイビスカス","province":"東京都","city":"国立市","address":"国立市富士見台4-10-6","lat":35.685859,"lon":139.431484},{"name":"くじらっこ","province":"東京都","city":"国立市","address":"国立市富士見台2-3-2メゾンエクセル1F","lat":35.685759,"lon":139.446402},{"name":"放課後等デイサービス　バモノス","province":"東京都","city":"国立市","address":"国立市富士見台1-7-1-1-114","lat":35.684604,"lon":139.448785},{"name":"放課後等デイサービスいもむしクラブ","province":"東京都","city":"国立市","address":"国立市富士見台1-17-29アップスタイルビルI2階","lat":35.681274,"lon":139.448041},{"name":"ハッピー・テラス国立","province":"東京都","city":"国立市","address":"国立市中2-3-66タキイシビル1階","lat":35.695494,"lon":139.439913},{"name":"滝乃川学園　放課後等デイサービス","province":"東京都","city":"国立市","address":"国立市谷保6312","lat":35.680959,"lon":139.429501},{"name":"スマイルともにー","province":"東京都","city":"国立市","address":"国立市泉5-20-4","lat":35.677954,"lon":139.43815},{"name":"国立市子ども家庭支援センター","province":"東京都","city":"国立市","address":"国立市富士見台3-21-1","lat":35.685859,"lon":139.435872},{"name":"国立市子ども家庭支援センター","province":"東京都","city":"国立市","address":"国立市富士見台2-47-1","lat":35.68438,"lon":139.44151},{"name":"国立市子ども家庭支援センター","province":"東京都","city":"国立市","address":"国立市富士見台3-21-1","lat":35.68588,"lon":139.43515},{"name":"東京都多摩障害者スポーツセンター","province":"東京都","city":"国立市","address":"東京都国立市富士見台2丁目1-1","lat":35.68666756,"lon":139.44659622},{"name":"国立高等学校","province":"東京都","city":"国立市","address":"東京都国立市東4丁目25-1","lat":35.68837299,"lon":139.44920148},{"name":"ハッピーテラス国立駅前","province":"東京都","city":"国立市","address":"国立市北1-5-8プラース壱番館2階店舗E","lat":35.699974,"lon":139.44686},{"name":"メリーランド","province":"東京都","city":"国立市","address":"国立市北3丁目40番3号","lat":35.699296,"lon":139.42842},{"name":"ＴＡＳＵＣ国立教室","province":"東京都","city":"国立市","address":"国立市東1-4-9ザ・ダイマス5階","lat":35.698436,"lon":139.447246},{"name":"ドリームボックス国立","province":"東京都","city":"国立市","address":"国立市東3丁目6-15エスポワール国立1階","lat":35.69452,"lon":139.452645},{"name":"東京ＹＭＣＡさくら国立","province":"東京都","city":"国立市","address":"国立市東1-4-20-102","lat":35.698813,"lon":139.448496},{"name":"ハイビスカス","province":"東京都","city":"国立市","address":"国立市富士見台4-10-6","lat":35.685859,"lon":139.431484},{"name":"くじらっこ","province":"東京都","city":"国立市","address":"国立市富士見台2-3-2メゾンエクセル1F","lat":35.685759,"lon":139.446402},{"name":"放課後等デイサービス　バモノス","province":"東京都","city":"国立市","address":"国立市富士見台1-7-1-1-114","lat":35.684604,"lon":139.448785},{"name":"放課後等デイサービスいもむしクラブ","province":"東京都","city":"国立市","address":"国立市富士見台1-17-29アップスタイルビルI2階","lat":35.681274,"lon":139.448041},{"name":"ハッピー・テラス国立","province":"東京都","city":"国立市","address":"国立市中2-3-66タキイシビル1階","lat":35.695494,"lon":139.439913},{"name":"滝乃川学園　放課後等デイサービス","province":"東京都","city":"国立市","address":"国立市谷保6312","lat":35.680959,"lon":139.429501},{"name":"スマイルともにー","province":"東京都","city":"国立市","address":"国立市泉5-20-4","lat":35.677954,"lon":139.43815},{"name":"国立市子ども家庭支援センター","province":"東京都","city":"国立市","address":"国立市富士見台3-21-1","lat":35.685859,"lon":139.435872},{"name":"国立市子ども家庭支援センター","province":"東京都","city":"国立市","address":"国立市富士見台2-47-1","lat":35.68438,"lon":139.44151},{"name":"国立市子ども家庭支援センター","province":"東京都","city":"国立市","address":"国立市富士見台3-21-1","lat":35.68588,"lon":139.43515},{"name":"東京都多摩障害者スポーツセンター","province":"東京都","city":"国立市","address":"東京都国立市富士見台2丁目1-1","lat":35.68666756,"lon":139.44659622},{"name":"国立高等学校","province":"東京都","city":"国立市","address":"東京都国立市東4丁目25-1","lat":35.68837299,"lon":139.44920148},{"name":"ハッピーテラス国立駅前","province":"東京都","city":"国立市","address":"国立市北1-5-8プラース壱番館2階店舗E","lat":35.699974,"lon":139.44686},{"name":"メリーランド","province":"東京都","city":"国立市","address":"国立市北3丁目40番3号","lat":35.699296,"lon":139.42842},{"name":"ＴＡＳＵＣ国立教室","province":"東京都","city":"国立市","address":"国立市東1-4-9ザ・ダイマス5階","lat":35.698436,"lon":139.447246},{"name":"ドリームボックス国立","province":"東京都","city":"国立市","address":"国立市東3丁目6-15エスポワール国立1階","lat":35.69452,"lon":139.452645},{"name":"東京ＹＭＣＡさくら国立","province":"東京都","city":"国立市","address":"国立市東1-4-20-102","lat":35.698813,"lon":139.448496},{"name":"ハイビスカス","province":"東京都","city":"国立市","address":"国立市富士見台4-10-6","lat":35.685859,"lon":139.431484},{"name":"くじらっこ","province":"東京都","city":"国立市","address":"国立市富士見台2-3-2メゾンエクセル1F","lat":35.685759,"lon":139.446402},{"name":"放課後等デイサービス　バモノス","province":"東京都","city":"国立市","address":"国立市富士見台1-7-1-1-114","lat":35.684604,"lon":139.448785},{"name":"放課後等デイサービスいもむしクラブ","province":"東京都","city":"国立市","address":"国立市富士見台1-17-29アップスタイルビルI2階","lat":35.681274,"lon":139.448041},{"name":"ハッピー・テラス国立","province":"東京都","city":"国立市","address":"国立市中2-3-66タキイシビル1階","lat":35.695494,"lon":139.439913},{"name":"滝乃川学園　放課後等デイサービス","province":"東京都","city":"国立市","address":"国立市谷保6312","lat":35.680959,"lon":139.429501},{"name":"スマイルともにー","province":"東京都","city":"国立市","address":"国立市泉5-20-4","lat":35.677954,"lon":139.43815},{"name":"国立市子ども家庭支援センター","province":"東京都","city":"国立市","address":"国立市富士見台3-21-1","lat":35.685859,"lon":139.435872},{"name":"国立市子ども家庭支援センター","province":"東京都","city":"国立市","address":"国立市富士見台2-47-1","lat":35.68438,"lon":139.44151},{"name":"国立市子ども家庭支援センター","province":"東京都","city":"国立市","address":"国立市富士見台3-21-1","lat":35.68588,"lon":139.43515},{"name":"東京都多摩障害者スポーツセンター","province":"東京都","city":"国立市","address":"東京都国立市富士見台2丁目1-1","lat":35.68666756,"lon":139.44659622},{"name":"国立高等学校","province":"東京都","city":"国立市","address":"東京都国立市東4丁目25-1","lat":35.68837299,"lon":139.44920148},{"name":"ハッピーテラス国立駅前","province":"東京都","city":"国立市","address":"国立市北1-5-8プラース壱番館2階店舗E","lat":35.699974,"lon":139.44686},{"name":"メリーランド","province":"東京都","city":"国立市","address":"国立市北3丁目40番3号","lat":35.699296,"lon":139.42842},{"name":"ＴＡＳＵＣ国立教室","province":"東京都","city":"国立市","address":"国立市東1-4-9ザ・ダイマス5階","lat":35.698436,"lon":139.447246},{"name":"ドリームボックス国立","province":"東京都","city":"国立市","address":"国立市東3丁目6-15エスポワール国立1階","lat":35.69452,"lon":139.452645},{"name":"東京ＹＭＣＡさくら国立","province":"東京都","city":"国立市","address":"国立市東1-4-20-102","lat":35.698813,"lon":139.448496},{"name":"ハイビスカス","province":"東京都","city":"国立市","address":"国立市富士見台4-10-6","lat":35.685859,"lon":139.431484},{"name":"くじらっこ","province":"東京都","city":"国立市","address":"国立市富士見台2-3-2メゾンエクセル1F","lat":35.685759,"lon":139.446402},{"name":"放課後等デイサービス　バモノス","province":"東京都","city":"国立市","address":"国立市富士見台1-7-1-1-114","lat":35.684604,"lon":139.448785},{"name":"放課後等デイサービスいもむしクラブ","province":"東京都","city":"国立市","address":"国立市富士見台1-17-29アップスタイルビルI2階","lat":35.681274,"lon":139.448041},{"name":"ハッピー・テラス国立","province":"東京都","city":"国立市","address":"国立市中2-3-66タキイシビル1階","lat":35.695494,"lon":139.439913},{"name":"滝乃川学園　放課後等デイサービス","province":"東京都","city":"国立市","address":"国立市谷保6312","lat":35.680959,"lon":139.429501},{"name":"スマイルともにー","province":"東京都","city":"国立市","address":"国立市泉5-20-4","lat":35.677954,"lon":139.43815},{"name":"国立市子ども家庭支援センター","province":"東京都","city":"国立市","address":"国立市富士見台3-21-1","lat":35.685859,"lon":139.435872},{"name":"国立市子ども家庭支援センター","province":"東京都","city":"国立市","address":"国立市富士見台2-47-1","lat":35.68438,"lon":139.44151},{"name":"国立市子ども家庭支援センター","province":"東京都","city":"国立市","address":"国立市富士見台3-21-1","lat":35.68588,"lon":139.43515},{"name":"東京都多摩障害者スポーツセンター","province":"東京都","city":"国立市","address":"東京都国立市富士見台2丁目1-1","lat":35.68666756,"lon":139.44659622},{"name":"国立高等学校","province":"東京都","city":"国立市","address":"東京都国立市東4丁目25-1","lat":35.68837299,"lon":139.44920148},{"name":"ハッピーテラス国立駅前","province":"東京都","city":"国立市","address":"国立市北1-5-8プラース壱番館2階店舗E","lat":35.699974,"lon":139.44686},{"name":"メリーランド","province":"東京都","city":"国立市","address":"国立市北3丁目40番3号","lat":35.699296,"lon":139.42842},{"name":"ＴＡＳＵＣ国立教室","province":"東京都","city":"国立市","address":"国立市東1-4-9ザ・ダイマス5階","lat":35.698436,"lon":139.447246},{"name":"ドリームボックス国立","province":"東京都","city":"国立市","address":"国立市東3丁目6-15エスポワール国立1階","lat":35.69452,"lon":139.452645},{"name":"東京ＹＭＣＡさくら国立","province":"東京都","city":"国立市","address":"国立市東1-4-20-102","lat":35.698813,"lon":139.448496},{"name":"ハイビスカス","province":"東京都","city":"国立市","address":"国立市富士見台4-10-6","lat":35.685859,"lon":139.431484},{"name":"くじらっこ","province":"東京都","city":"国立市","address":"国立市富士見台2-3-2メゾンエクセル1F","lat":35.685759,"lon":139.446402},{"name":"放課後等デイサービス　バモノス","province":"東京都","city":"国立市","address":"国立市富士見台1-7-1-1-114","lat":35.684604,"lon":139.448785},{"name":"放課後等デイサービスいもむしクラブ","province":"東京都","city":"国立市","address":"国立市富士見台1-17-29アップスタイルビルI2階","lat":35.681274,"lon":139.448041},{"name":"ハッピー・テラス国立","province":"東京都","city":"国立市","address":"国立市中2-3-66タキイシビル1階","lat":35.695494,"lon":139.439913},{"name":"滝乃川学園　放課後等デイサービス","province":"東京都","city":"国立市","address":"国立市谷保6312","lat":35.680959,"lon":139.429501},{"name":"スマイルともにー","province":"東京都","city":"国立市","address":"国立市泉5-20-4","lat":35.677954,"lon":139.43815},{"name":"国立市子ども家庭支援センター","province":"東京都","city":"国立市","address":"国立市富士見台3-21-1","lat":35.685859,"lon":139.435872},{"name":"国立市子ども家庭支援センター","province":"東京都","city":"国立市","address":"国立市富士見台2-47-1","lat":35.68438,"lon":139.44151},{"name":"国立市子ども家庭支援センター","province":"東京都","city":"国立市","address":"国立市富士見台3-21-1","lat":35.68588,"lon":139.43515},{"name":"東京都多摩障害者スポーツセンター","province":"東京都","city":"国立市","address":"東京都国立市富士見台2丁目1-1","lat":35.68666756,"lon":139.44659622},{"name":"国立高等学校","province":"東京都","city":"国立市","address":"東京都国立市東4丁目25-1","lat":35.68837299,"lon":139.44920148},{"name":"ハッピーテラス国立駅前","province":"東京都","city":"国立市","address":"国立市北1-5-8プラース壱番館2階店舗E","lat":35.699974,"lon":139.44686},{"name":"メリーランド","province":"東京都","city":"国立市","address":"国立市北3丁目40番3号","lat":35.699296,"lon":139.42842},{"name":"ＴＡＳＵＣ国立教室","province":"東京都","city":"国立市","address":"国立市東1-4-9ザ・ダイマス5階","lat":35.698436,"lon":139.447246},{"name":"ドリームボックス国立","province":"東京都","city":"国立市","address":"国立市東3丁目6-15エスポワール国立1階","lat":35.69452,"lon":139.452645},{"name":"東京ＹＭＣＡさくら国立","province":"東京都","city":"国立市","address":"国立市東1-4-20-102","lat":35.698813,"lon":139.448496},{"name":"ハイビスカス","province":"東京都","city":"国立市","address":"国立市富士見台4-10-6","lat":35.685859,"lon":139.431484},{"name":"くじらっこ","province":"東京都","city":"国立市","address":"国立市富士見台2-3-2メゾンエクセル1F","lat":35.685759,"lon":139.446402},{"name":"放課後等デイサービス　バモノス","province":"東京都","city":"国立市","address":"国立市富士見台1-7-1-1-114","lat":35.684604,"lon":139.448785},{"name":"放課後等デイサービスいもむしクラブ","province":"東京都","city":"国立市","address":"国立市富士見台1-17-29アップスタイルビルI2階","lat":35.681274,"lon":139.448041},{"name":"ハッピー・テラス国立","province":"東京都","city":"国立市","address":"国立市中2-3-66タキイシビル1階","lat":35.695494,"lon":139.439913},{"name":"滝乃川学園　放課後等デイサービス","province":"東京都","city":"国立市","address":"国立市谷保6312","lat":35.680959,"lon":139.429501},{"name":"スマイルともにー","province":"東京都","city":"国立市","address":"国立市泉5-20-4","lat":35.677954,"lon":139.43815},{"name":"国立市子ども家庭支援センター","province":"東京都","city":"国立市","address":"国立市富士見台3-21-1","lat":35.685859,"lon":139.435872},{"name":"国立市子ども家庭支援センター","province":"東京都","city":"国立市","address":"国立市富士見台2-47-1","lat":35.68438,"lon":139.44151},{"name":"国立市子ども家庭支援センター","province":"東京都","city":"国立市","address":"国立市富士見台3-21-1","lat":35.68588,"lon":139.43515},{"name":"東京都多摩障害者スポーツセンター","province":"東京都","city":"国立市","address":"東京都国立市富士見台2丁目1-1","lat":35.68666756,"lon":139.44659622},{"name":"国立高等学校","province":"東京都","city":"国立市","address":"東京都国立市東4丁目25-1","lat":35.68837299,"lon":139.44920148},{"name":"ハッピーテラス国立駅前","province":"東京都","city":"国立市","address":"国立市北1-5-8プラース壱番館2階店舗E","lat":35.699974,"lon":139.44686},{"name":"メリーランド","province":"東京都","city":"国立市","address":"国立市北3丁目40番3号","lat":35.699296,"lon":139.42842},{"name":"ＴＡＳＵＣ国立教室","province":"東京都","city":"国立市","address":"国立市東1-4-9ザ・ダイマス5階","lat":35.698436,"lon":139.447246},{"name":"ドリームボックス国立","province":"東京都","city":"国立市","address":"国立市東3丁目6-15エスポワール国立1階","lat":35.69452,"lon":139.452645},{"name":"東京ＹＭＣＡさくら国立","province":"東京都","city":"国立市","address":"国立市東1-4-20-102","lat":35.698813,"lon":139.448496},{"name":"ハイビスカス","province":"東京都","city":"国立市","address":"国立市富士見台4-10-6","lat":35.685859,"lon":139.431484},{"name":"くじらっこ","province":"東京都","city":"国立市","address":"国立市富士見台2-3-2メゾンエクセル1F","lat":35.685759,"lon":139.446402},{"name":"放課後等デイサービス　バモノス","province":"東京都","city":"国立市","address":"国立市富士見台1-7-1-1-114","lat":35.684604,"lon":139.448785},{"name":"放課後等デイサービスいもむしクラブ","province":"東京都","city":"国立市","address":"国立市富士見台1-17-29アップスタイルビルI2階","lat":35.681274,"lon":139.448041},{"name":"ハッピー・テラス国立","province":"東京都","city":"国立市","address":"国立市中2-3-66タキイシビル1階","lat":35.695494,"lon":139.439913},{"name":"滝乃川学園　放課後等デイサービス","province":"東京都","city":"国立市","address":"国立市谷保6312","lat":35.680959,"lon":139.429501},{"name":"スマイルともにー","province":"東京都","city":"国立市","address":"国立市泉5-20-4","lat":35.677954,"lon":139.43815},{"name":"国立市子ども家庭支援センター","province":"東京都","city":"国立市","address":"国立市富士見台3-21-1","lat":35.685859,"lon":139.435872},{"name":"国立市子ども家庭支援センター","province":"東京都","city":"国立市","address":"国立市富士見台2-47-1","lat":35.68438,"lon":139.44151},{"name":"国立市子ども家庭支援センター","province":"東京都","city":"国立市","address":"国立市富士見台3-21-1","lat":35.68588,"lon":139.43515},{"name":"東京都多摩障害者スポーツセンター","province":"東京都","city":"国立市","address":"東京都国立市富士見台2丁目1-1","lat":35.68666756,"lon":139.44659622},{"name":"国立高等学校","province":"東京都","city":"国立市","address":"東京都国立市東4丁目25-1","lat":35.68837299,"lon":139.44920148},{"name":"ハッピーテラス国立駅前","province":"東京都","city":"国立市","address":"国立市北1-5-8プラース壱番館2階店舗E","lat":35.699974,"lon":139.44686},{"name":"メリーランド","province":"東京都","city":"国立市","address":"国立市北3丁目40番3号","lat":35.699296,"lon":139.42842},{"name":"ＴＡＳＵＣ国立教室","province":"東京都","city":"国立市","address":"国立市東1-4-9ザ・ダイマス5階","lat":35.698436,"lon":139.447246},{"name":"ドリームボックス国立","province":"東京都","city":"国立市","address":"国立市東3丁目6-15エスポワール国立1階","lat":35.69452,"lon":139.452645},{"name":"東京ＹＭＣＡさくら国立","province":"東京都","city":"国立市","address":"国立市東1-4-20-102","lat":35.698813,"lon":139.448496},{"name":"ハイビスカス","province":"東京都","city":"国立市","address":"国立市富士見台4-10-6","lat":35.685859,"lon":139.431484},{"name":"くじらっこ","province":"東京都","city":"国立市","address":"国立市富士見台2-3-2メゾンエクセル1F","lat":35.685759,"lon":139.446402},{"name":"放課後等デイサービス　バモノス","province":"東京都","city":"国立市","address":"国立市富士見台1-7-1-1-114","lat":35.684604,"lon":139.448785},{"name":"放課後等デイサービスいもむしクラブ","province":"東京都","city":"国立市","address":"国立市富士見台1-17-29アップスタイルビルI2階","lat":35.681274,"lon":139.448041},{"name":"ハッピー・テラス国立","province":"東京都","city":"国立市","address":"国立市中2-3-66タキイシビル1階","lat":35.695494,"lon":139.439913},{"name":"滝乃川学園　放課後等デイサービス","province":"東京都","city":"国立市","address":"国立市谷保6312","lat":35.680959,"lon":139.429501},{"name":"スマイルともにー","province":"東京都","city":"国立市","address":"国立市泉5-20-4","lat":35.677954,"lon":139.43815},{"name":"国立市子ども家庭支援センター","province":"東京都","city":"国立市","address":"国立市富士見台3-21-1","lat":35.685859,"lon":139.435872},{"name":"国立市子ども家庭支援センター","province":"東京都","city":"国立市","address":"国立市富士見台2-47-1","lat":35.68438,"lon":139.44151},{"name":"国立市子ども家庭支援センター","province":"東京都","city":"国立市","address":"国立市富士見台3-21-1","lat":35.68588,"lon":139.43515},{"name":"東京都多摩障害者スポーツセンター","province":"東京都","city":"国立市","address":"東京都国立市富士見台2丁目1-1","lat":35.68666756,"lon":139.44659622},{"name":"国立高等学校","province":"東京都","city":"国立市","address":"東京都国立市東4丁目25-1","lat":35.68837299,"lon":139.44920148},{"name":"ハッピーテラス国立駅前","province":"東京都","city":"国立市","address":"国立市北1-5-8プラース壱番館2階店舗E","lat":35.699974,"lon":139.44686},{"name":"メリーランド","province":"東京都","city":"国立市","address":"国立市北3丁目40番3号","lat":35.699296,"lon":139.42842},{"name":"ＴＡＳＵＣ国立教室","province":"東京都","city":"国立市","address":"国立市東1-4-9ザ・ダイマス5階","lat":35.698436,"lon":139.447246},{"name":"ドリームボックス国立","province":"東京都","city":"国立市","address":"国立市東3丁目6-15エスポワール国立1階","lat":35.69452,"lon":139.452645},{"name":"東京ＹＭＣＡさくら国立","province":"東京都","city":"国立市","address":"国立市東1-4-20-102","lat":35.698813,"lon":139.448496},{"name":"ハイビスカス","province":"東京都","city":"国立市","address":"国立市富士見台4-10-6","lat":35.685859,"lon":139.431484},{"name":"くじらっこ","province":"東京都","city":"国立市","address":"国立市富士見台2-3-2メゾンエクセル1F","lat":35.685759,"lon":139.446402},{"name":"放課後等デイサービス　バモノス","province":"東京都","city":"国立市","address":"国立市富士見台1-7-1-1-114","lat":35.684604,"lon":139.448785},{"name":"放課後等デイサービスいもむしクラブ","province":"東京都","city":"国立市","address":"国立市富士見台1-17-29アップスタイルビルI2階","lat":35.681274,"lon":139.448041},{"name":"ハッピー・テラス国立","province":"東京都","city":"国立市","address":"国立市中2-3-66タキイシビル1階","lat":35.695494,"lon":139.439913},{"name":"滝乃川学園　放課後等デイサービス","province":"東京都","city":"国立市","address":"国立市谷保6312","lat":35.680959,"lon":139.429501},{"name":"スマイルともにー","province":"東京都","city":"国立市","address":"国立市泉5-20-4","lat":35.677954,"lon":139.43815},{"name":"国立市子ども家庭支援センター","province":"東京都","city":"国立市","address":"国立市富士見台3-21-1","lat":35.685859,"lon":139.435872},{"name":"国立市子ども家庭支援センター","province":"東京都","city":"国立市","address":"国立市富士見台2-47-1","lat":35.68438,"lon":139.44151},{"name":"国立市子ども家庭支援センター","province":"東京都","city":"国立市","address":"国立市富士見台3-21-1","lat":35.68588,"lon":139.43515},{"name":"ハッピーテラス国立駅前","province":"東京都","city":"国立市","address":"国立市北1-5-8プラース壱番館2階店舗E","lat":35.699974,"lon":139.44686},{"name":"メリーランド","province":"東京都","city":"国立市","address":"国立市北3丁目40番3号","lat":35.699296,"lon":139.42842},{"name":"ＴＡＳＵＣ国立教室","province":"東京都","city":"国立市","address":"国立市東1-4-9ザ・ダイマス5階","lat":35.698436,"lon":139.447246},{"name":"ドリームボックス国立","province":"東京都","city":"国立市","address":"国立市東3丁目6-15エスポワール国立1階","lat":35.69452,"lon":139.452645},{"name":"東京ＹＭＣＡさくら国立","province":"東京都","city":"国立市","address":"国立市東1-4-20-102","lat":35.698813,"lon":139.448496},{"name":"ハイビスカス","province":"東京都","city":"国立市","address":"国立市富士見台4-10-6","lat":35.685859,"lon":139.431484},{"name":"くじらっこ","province":"東京都","city":"国立市","address":"国立市富士見台2-3-2メゾンエクセル1F","lat":35.685759,"lon":139.446402},{"name":"放課後等デイサービス　バモノス","province":"東京都","city":"国立市","address":"国立市富士見台1-7-1-1-114","lat":35.684604,"lon":139.448785},{"name":"放課後等デイサービスいもむしクラブ","province":"東京都","city":"国立市","address":"国立市富士見台1-17-29アップスタイルビルI2階","lat":35.681274,"lon":139.448041},{"name":"ハッピー・テラス国立","province":"東京都","city":"国立市","address":"国立市中2-3-66タキイシビル1階","lat":35.695494,"lon":139.439913},{"name":"滝乃川学園　放課後等デイサービス","province":"東京都","city":"国立市","address":"国立市谷保6312","lat":35.680959,"lon":139.429501},{"name":"スマイルともにー","province":"東京都","city":"国立市","address":"国立市泉5-20-4","lat":35.677954,"lon":139.43815},{"name":"国立市子ども家庭支援センター","province":"東京都","city":"国立市","address":"国立市富士見台3-21-1","lat":35.685859,"lon":139.435872},{"name":"国立市子ども家庭支援センター","province":"東京都","city":"国立市","address":"国立市富士見台2-47-1","lat":35.68438,"lon":139.44151},{"name":"国立市子ども家庭支援センター","province":"東京都","city":"国立市","address":"国立市富士見台3-21-1","lat":35.68588,"lon":139.43515},{"name":"ハッピーテラス国立駅前","province":"東京都","city":"国立市","address":"国立市北1-5-8プラース壱番館2階店舗E","lat":35.699974,"lon":139.44686},{"name":"メリーランド","province":"東京都","city":"国立市","address":"国立市北3丁目40番3号","lat":35.699296,"lon":139.42842},{"name":"ＴＡＳＵＣ国立教室","province":"東京都","city":"国立市","address":"国立市東1-4-9ザ・ダイマス5階","lat":35.698436,"lon":139.447246},{"name":"ドリームボックス国立","province":"東京都","city":"国立市","address":"国立市東3丁目6-15エスポワール国立1階","lat":35.69452,"lon":139.452645},{"name":"東京ＹＭＣＡさくら国立","province":"東京都","city":"国立市","address":"国立市東1-4-20-102","lat":35.698813,"lon":139.448496},{"name":"ハイビスカス","province":"東京都","city":"国立市","address":"国立市富士見台4-10-6","lat":35.685859,"lon":139.431484},{"name":"くじらっこ","province":"東京都","city":"国立市","address":"国立市富士見台2-3-2メゾンエクセル1F","lat":35.685759,"lon":139.446402},{"name":"放課後等デイサービス　バモノス","province":"東京都","city":"国立市","address":"国立市富士見台1-7-1-1-114","lat":35.684604,"lon":139.448785},{"name":"放課後等デイサービスいもむしクラブ","province":"東京都","city":"国立市","address":"国立市富士見台1-17-29アップスタイルビルI2階","lat":35.681274,"lon":139.448041},{"name":"ハッピー・テラス国立","province":"東京都","city":"国立市","address":"国立市中2-3-66タキイシビル1階","lat":35.695494,"lon":139.439913},{"name":"滝乃川学園　放課後等デイサービス","province":"東京都","city":"国立市","address":"国立市谷保6312","lat":35.680959,"lon":139.429501},{"name":"スマイルともにー","province":"東京都","city":"国立市","address":"国立市泉5-20-4","lat":35.677954,"lon":139.43815},{"name":"国立市子ども家庭支援センター","province":"東京都","city":"国立市","address":"国立市富士見台3-21-1","lat":35.685859,"lon":139.435872},{"name":"国立市子ども家庭支援センター","province":"東京都","city":"国立市","address":"国立市富士見台2-47-1","lat":35.68438,"lon":139.44151},{"name":"国立市子ども家庭支援センター","province":"東京都","city":"国立市","address":"国立市富士見台3-21-1","lat":35.68588,"lon":139.43515},{"name":"ハッピーテラス国立駅前","province":"東京都","city":"国立市","address":"国立市北1-5-8プラース壱番館2階店舗E","lat":35.699974,"lon":139.44686},{"name":"メリーランド","province":"東京都","city":"国立市","address":"国立市北3丁目40番3号","lat":35.699296,"lon":139.42842},{"name":"ＴＡＳＵＣ国立教室","province":"東京都","city":"国立市","address":"国立市東1-4-9ザ・ダイマス5階","lat":35.698436,"lon":139.447246},{"name":"ドリームボックス国立","province":"東京都","city":"国立市","address":"国立市東3丁目6-15エスポワール国立1階","lat":35.69452,"lon":139.452645},{"name":"東京ＹＭＣＡさくら国立","province":"東京都","city":"国立市","address":"国立市東1-4-20-102","lat":35.698813,"lon":139.448496},{"name":"ハイビスカス","province":"東京都","city":"国立市","address":"国立市富士見台4-10-6","lat":35.685859,"lon":139.431484},{"name":"くじらっこ","province":"東京都","city":"国立市","address":"国立市富士見台2-3-2メゾンエクセル1F","lat":35.685759,"lon":139.446402},{"name":"放課後等デイサービス　バモノス","province":"東京都","city":"国立市","address":"国立市富士見台1-7-1-1-114","lat":35.684604,"lon":139.448785},{"name":"放課後等デイサービスいもむしクラブ","province":"東京都","city":"国立市","address":"国立市富士見台1-17-29アップスタイルビルI2階","lat":35.681274,"lon":139.448041},{"name":"ハッピー・テラス国立","province":"東京都","city":"国立市","address":"国立市中2-3-66タキイシビル1階","lat":35.695494,"lon":139.439913},{"name":"滝乃川学園　放課後等デイサービス","province":"東京都","city":"国立市","address":"国立市谷保6312","lat":35.680959,"lon":139.429501},{"name":"スマイルともにー","province":"東京都","city":"国立市","address":"国立市泉5-20-4","lat":35.677954,"lon":139.43815},{"name":"国立市子ども家庭支援センター","province":"東京都","city":"国立市","address":"国立市富士見台3-21-1","lat":35.685859,"lon":139.435872},{"name":"国立市子ども家庭支援センター","province":"東京都","city":"国立市","address":"国立市富士見台2-47-1","lat":35.68438,"lon":139.44151},{"name":"国立市子ども家庭支援センター","province":"東京都","city":"国立市","address":"国立市富士見台3-21-1","lat":35.68588,"lon":139.43515},{"name":"ハッピーテラス国立駅前","province":"東京都","city":"国立市","address":"国立市北1-5-8プラース壱番館2階店舗E","lat":35.699974,"lon":139.44686},{"name":"メリーランド","province":"東京都","city":"国立市","address":"国立市北3丁目40番3号","lat":35.699296,"lon":139.42842},{"name":"ＴＡＳＵＣ国立教室","province":"東京都","city":"国立市","address":"国立市東1-4-9ザ・ダイマス5階","lat":35.698436,"lon":139.447246},{"name":"ドリームボックス国立","province":"東京都","city":"国立市","address":"国立市東3丁目6-15エスポワール国立1階","lat":35.69452,"lon":139.452645},{"name":"東京ＹＭＣＡさくら国立","province":"東京都","city":"国立市","address":"国立市東1-4-20-102","lat":35.698813,"lon":139.448496},{"name":"ハイビスカス","province":"東京都","city":"国立市","address":"国立市富士見台4-10-6","lat":35.685859,"lon":139.431484},{"name":"くじらっこ","province":"東京都","city":"国立市","address":"国立市富士見台2-3-2メゾンエクセル1F","lat":35.685759,"lon":139.446402},{"name":"放課後等デイサービス　バモノス","province":"東京都","city":"国立市","address":"国立市富士見台1-7-1-1-114","lat":35.684604,"lon":139.448785},{"name":"放課後等デイサービスいもむしクラブ","province":"東京都","city":"国立市","address":"国立市富士見台1-17-29アップスタイルビルI2階","lat":35.681274,"lon":139.448041},{"name":"ハッピー・テラス国立","province":"東京都","city":"国立市","address":"国立市中2-3-66タキイシビル1階","lat":35.695494,"lon":139.439913},{"name":"滝乃川学園　放課後等デイサービス","province":"東京都","city":"国立市","address":"国立市谷保6312","lat":35.680959,"lon":139.429501},{"name":"スマイルともにー","province":"東京都","city":"国立市","address":"国立市泉5-20-4","lat":35.677954,"lon":139.43815},{"name":"国立市子ども家庭支援センター","province":"東京都","city":"国立市","address":"国立市富士見台3-21-1","lat":35.685859,"lon":139.435872},{"name":"国立市子ども家庭支援センター","province":"東京都","city":"国立市","address":"国立市富士見台2-47-1","lat":35.68438,"lon":139.44151},{"name":"国立市子ども家庭支援センター","province":"東京都","city":"国立市","address":"国立市富士見台3-21-1","lat":35.68588,"lon":139.43515},{"name":"ハッピーテラス国立駅前","province":"東京都","city":"国立市","address":"国立市北1-5-8プラース壱番館2階店舗E","lat":35.699974,"lon":139.44686},{"name":"メリーランド","province":"東京都","city":"国立市","address":"国立市北3丁目40番3号","lat":35.699296,"lon":139.42842},{"name":"ＴＡＳＵＣ国立教室","province":"東京都","city":"国立市","address":"国立市東1-4-9ザ・ダイマス5階","lat":35.698436,"lon":139.447246},{"name":"ドリームボックス国立","province":"東京都","city":"国立市","address":"国立市東3丁目6-15エスポワール国立1階","lat":35.69452,"lon":139.452645},{"name":"東京ＹＭＣＡさくら国立","province":"東京都","city":"国立市","address":"国立市東1-4-20-102","lat":35.698813,"lon":139.448496},{"name":"ハイビスカス","province":"東京都","city":"国立市","address":"国立市富士見台4-10-6","lat":35.685859,"lon":139.431484},{"name":"くじらっこ","province":"東京都","city":"国立市","address":"国立市富士見台2-3-2メゾンエクセル1F","lat":35.685759,"lon":139.446402},{"name":"放課後等デイサービス　バモノス","province":"東京都","city":"国立市","address":"国立市富士見台1-7-1-1-114","lat":35.684604,"lon":139.448785},{"name":"放課後等デイサービスいもむしクラブ","province":"東京都","city":"国立市","address":"国立市富士見台1-17-29アップスタイルビルI2階","lat":35.681274,"lon":139.448041},{"name":"ハッピー・テラス国立","province":"東京都","city":"国立市","address":"国立市中2-3-66タキイシビル1階","lat":35.695494,"lon":139.439913},{"name":"滝乃川学園　放課後等デイサービス","province":"東京都","city":"国立市","address":"国立市谷保6312","lat":35.680959,"lon":139.429501},{"name":"スマイルともにー","province":"東京都","city":"国立市","address":"国立市泉5-20-4","lat":35.677954,"lon":139.43815},{"name":"国立市子ども家庭支援センター","province":"東京都","city":"国立市","address":"国立市富士見台3-21-1","lat":35.685859,"lon":139.435872},{"name":"国立市子ども家庭支援センター","province":"東京都","city":"国立市","address":"国立市富士見台2-47-1","lat":35.68438,"lon":139.44151},{"name":"国立市子ども家庭支援センター","province":"東京都","city":"国立市","address":"国立市富士見台3-21-1","lat":35.68588,"lon":139.43515},{"name":"ハッピーテラス国立駅前","province":"東京都","city":"国立市","address":"国立市北1-5-8プラース壱番館2階店舗E","lat":35.699974,"lon":139.44686},{"name":"メリーランド","province":"東京都","city":"国立市","address":"国立市北3丁目40番3号","lat":35.699296,"lon":139.42842},{"name":"ＴＡＳＵＣ国立教室","province":"東京都","city":"国立市","address":"国立市東1-4-9ザ・ダイマス5階","lat":35.698436,"lon":139.447246},{"name":"ドリームボックス国立","province":"東京都","city":"国立市","address":"国立市東3丁目6-15エスポワール国立1階","lat":35.69452,"lon":139.452645},{"name":"東京ＹＭＣＡさくら国立","province":"東京都","city":"国立市","address":"国立市東1-4-20-102","lat":35.698813,"lon":139.448496},{"name":"ハイビスカス","province":"東京都","city":"国立市","address":"国立市富士見台4-10-6","lat":35.685859,"lon":139.431484},{"name":"くじらっこ","province":"東京都","city":"国立市","address":"国立市富士見台2-3-2メゾンエクセル1F","lat":35.685759,"lon":139.446402},{"name":"放課後等デイサービス　バモノス","province":"東京都","city":"国立市","address":"国立市富士見台1-7-1-1-114","lat":35.684604,"lon":139.448785},{"name":"放課後等デイサービスいもむしクラブ","province":"東京都","city":"国立市","address":"国立市富士見台1-17-29アップスタイルビルI2階","lat":35.681274,"lon":139.448041},{"name":"ハッピー・テラス国立","province":"東京都","city":"国立市","address":"国立市中2-3-66タキイシビル1階","lat":35.695494,"lon":139.439913},{"name":"滝乃川学園　放課後等デイサービス","province":"東京都","city":"国立市","address":"国立市谷保6312","lat":35.680959,"lon":139.429501},{"name":"スマイルともにー","province":"東京都","city":"国立市","address":"国立市泉5-20-4","lat":35.677954,"lon":139.43815},{"name":"国立市子ども家庭支援センター","province":"東京都","city":"国立市","address":"国立市富士見台3-21-1","lat":35.685859,"lon":139.435872},{"name":"国立市子ども家庭支援センター","province":"東京都","city":"国立市","address":"国立市富士見台2-47-1","lat":35.68438,"lon":139.44151},{"name":"国立市子ども家庭支援センター","province":"東京都","city":"国立市","address":"国立市富士見台3-21-1","lat":35.68588,"lon":139.43515},{"name":"ハッピーテラス国立駅前","province":"東京都","city":"国立市","address":"国立市北1-5-8プラース壱番館2階店舗E","lat":35.699974,"lon":139.44686},{"name":"メリーランド","province":"東京都","city":"国立市","address":"国立市北3丁目40番3号","lat":35.699296,"lon":139.42842},{"name":"ＴＡＳＵＣ国立教室","province":"東京都","city":"国立市","address":"国立市東1-4-9ザ・ダイマス5階","lat":35.698436,"lon":139.447246},{"name":"ドリームボックス国立","province":"東京都","city":"国立市","address":"国立市東3丁目6-15エスポワール国立1階","lat":35.69452,"lon":139.452645},{"name":"東京ＹＭＣＡさくら国立","province":"東京都","city":"国立市","address":"国立市東1-4-20-102","lat":35.698813,"lon":139.448496},{"name":"ハイビスカス","province":"東京都","city":"国立市","address":"国立市富士見台4-10-6","lat":35.685859,"lon":139.431484},{"name":"くじらっこ","province":"東京都","city":"国立市","address":"国立市富士見台2-3-2メゾンエクセル1F","lat":35.685759,"lon":139.446402},{"name":"放課後等デイサービス　バモノス","province":"東京都","city":"国立市","address":"国立市富士見台1-7-1-1-114","lat":35.684604,"lon":139.448785},{"name":"放課後等デイサービスいもむしクラブ","province":"東京都","city":"国立市","address":"国立市富士見台1-17-29アップスタイルビルI2階","lat":35.681274,"lon":139.448041},{"name":"ハッピー・テラス国立","province":"東京都","city":"国立市","address":"国立市中2-3-66タキイシビル1階","lat":35.695494,"lon":139.439913},{"name":"滝乃川学園　放課後等デイサービス","province":"東京都","city":"国立市","address":"国立市谷保6312","lat":35.680959,"lon":139.429501},{"name":"スマイルともにー","province":"東京都","city":"国立市","address":"国立市泉5-20-4","lat":35.677954,"lon":139.43815},{"name":"国立市子ども家庭支援センター","province":"東京都","city":"国立市","address":"国立市富士見台3-21-1","lat":35.685859,"lon":139.435872},{"name":"国立市子ども家庭支援センター","province":"東京都","city":"国立市","address":"国立市富士見台2-47-1","lat":35.68438,"lon":139.44151},{"name":"国立市子ども家庭支援センター","province":"東京都","city":"国立市","address":"国立市富士見台3-21-1","lat":35.68588,"lon":139.43515},{"name":"ハッピーテラス国立駅前","province":"東京都","city":"国立市","address":"国立市北1-5-8プラース壱番館2階店舗E","lat":35.699974,"lon":139.44686},{"name":"メリーランド","province":"東京都","city":"国立市","address":"国立市北3丁目40番3号","lat":35.699296,"lon":139.42842},{"name":"ＴＡＳＵＣ国立教室","province":"東京都","city":"国立市","address":"国立市東1-4-9ザ・ダイマス5階","lat":35.698436,"lon":139.447246},{"name":"ドリームボックス国立","province":"東京都","city":"国立市","address":"国立市東3丁目6-15エスポワール国立1階","lat":35.69452,"lon":139.452645},{"name":"東京ＹＭＣＡさくら国立","province":"東京都","city":"国立市","address":"国立市東1-4-20-102","lat":35.698813,"lon":139.448496},{"name":"ハイビスカス","province":"東京都","city":"国立市","address":"国立市富士見台4-10-6","lat":35.685859,"lon":139.431484},{"name":"くじらっこ","province":"東京都","city":"国立市","address":"国立市富士見台2-3-2メゾンエクセル1F","lat":35.685759,"lon":139.446402},{"name":"放課後等デイサービス　バモノス","province":"東京都","city":"国立市","address":"国立市富士見台1-7-1-1-114","lat":35.684604,"lon":139.448785},{"name":"放課後等デイサービスいもむしクラブ","province":"東京都","city":"国立市","address":"国立市富士見台1-17-29アップスタイルビルI2階","lat":35.681274,"lon":139.448041},{"name":"ハッピー・テラス国立","province":"東京都","city":"国立市","address":"国立市中2-3-66タキイシビル1階","lat":35.695494,"lon":139.439913},{"name":"滝乃川学園　放課後等デイサービス","province":"東京都","city":"国立市","address":"国立市谷保6312","lat":35.680959,"lon":139.429501},{"name":"スマイルともにー","province":"東京都","city":"国立市","address":"国立市泉5-20-4","lat":35.677954,"lon":139.43815},{"name":"国立市子ども家庭支援センター","province":"東京都","city":"国立市","address":"国立市富士見台3-21-1","lat":35.685859,"lon":139.435872},{"name":"国立市子ども家庭支援センター","province":"東京都","city":"国立市","address":"国立市富士見台2-47-1","lat":35.68438,"lon":139.44151},{"name":"国立市子ども家庭支援センター","province":"東京都","city":"国立市","address":"国立市富士見台3-21-1","lat":35.68588,"lon":139.43515},{"name":"ハッピーテラス国立駅前","province":"東京都","city":"国立市","address":"国立市北1-5-8プラース壱番館2階店舗E","lat":35.699974,"lon":139.44686},{"name":"メリーランド","province":"東京都","city":"国立市","address":"国立市北3丁目40番3号","lat":35.699296,"lon":139.42842},{"name":"ＴＡＳＵＣ国立教室","province":"東京都","city":"国立市","address":"国立市東1-4-9ザ・ダイマス5階","lat":35.698436,"lon":139.447246},{"name":"ドリームボックス国立","province":"東京都","city":"国立市","address":"国立市東3丁目6-15エスポワール国立1階","lat":35.69452,"lon":139.452645},{"name":"東京ＹＭＣＡさくら国立","province":"東京都","city":"国立市","address":"国立市東1-4-20-102","lat":35.698813,"lon":139.448496},{"name":"ハイビスカス","province":"東京都","city":"国立市","address":"国立市富士見台4-10-6","lat":35.685859,"lon":139.431484},{"name":"くじらっこ","province":"東京都","city":"国立市","address":"国立市富士見台2-3-2メゾンエクセル1F","lat":35.685759,"lon":139.446402},{"name":"放課後等デイサービス　バモノス","province":"東京都","city":"国立市","address":"国立市富士見台1-7-1-1-114","lat":35.684604,"lon":139.448785},{"name":"放課後等デイサービスいもむしクラブ","province":"東京都","city":"国立市","address":"国立市富士見台1-17-29アップスタイルビルI2階","lat":35.681274,"lon":139.448041},{"name":"ハッピー・テラス国立","province":"東京都","city":"国立市","address":"国立市中2-3-66タキイシビル1階","lat":35.695494,"lon":139.439913},{"name":"滝乃川学園　放課後等デイサービス","province":"東京都","city":"国立市","address":"国立市谷保6312","lat":35.680959,"lon":139.429501},{"name":"スマイルともにー","province":"東京都","city":"国立市","address":"国立市泉5-20-4","lat":35.677954,"lon":139.43815},{"name":"国立市子ども家庭支援センター","province":"東京都","city":"国立市","address":"国立市富士見台3-21-1","lat":35.685859,"lon":139.435872},{"name":"国立市子ども家庭支援センター","province":"東京都","city":"国立市","address":"国立市富士見台2-47-1","lat":35.68438,"lon":139.44151},{"name":"国立市子ども家庭支援センター","province":"東京都","city":"国立市","address":"国立市富士見台3-21-1","lat":35.68588,"lon":139.43515},{"name":"ハッピーテラス国立駅前","province":"東京都","city":"国立市","address":"国立市北1-5-8プラース壱番館2階店舗E","lat":35.699974,"lon":139.44686},{"name":"メリーランド","province":"東京都","city":"国立市","address":"国立市北3丁目40番3号","lat":35.699296,"lon":139.42842},{"name":"ＴＡＳＵＣ国立教室","province":"東京都","city":"国立市","address":"国立市東1-4-9ザ・ダイマス5階","lat":35.698436,"lon":139.447246},{"name":"ドリームボックス国立","province":"東京都","city":"国立市","address":"国立市東3丁目6-15エスポワール国立1階","lat":35.69452,"lon":139.452645},{"name":"東京ＹＭＣＡさくら国立","province":"東京都","city":"国立市","address":"国立市東1-4-20-102","lat":35.698813,"lon":139.448496},{"name":"ハイビスカス","province":"東京都","city":"国立市","address":"国立市富士見台4-10-6","lat":35.685859,"lon":139.431484},{"name":"くじらっこ","province":"東京都","city":"国立市","address":"国立市富士見台2-3-2メゾンエクセル1F","lat":35.685759,"lon":139.446402},{"name":"放課後等デイサービス　バモノス","province":"東京都","city":"国立市","address":"国立市富士見台1-7-1-1-114","lat":35.684604,"lon":139.448785},{"name":"放課後等デイサービスいもむしクラブ","province":"東京都","city":"国立市","address":"国立市富士見台1-17-29アップスタイルビルI2階","lat":35.681274,"lon":139.448041},{"name":"ハッピー・テラス国立","province":"東京都","city":"国立市","address":"国立市中2-3-66タキイシビル1階","lat":35.695494,"lon":139.439913},{"name":"滝乃川学園　放課後等デイサービス","province":"東京都","city":"国立市","address":"国立市谷保6312","lat":35.680959,"lon":139.429501},{"name":"スマイルともにー","province":"東京都","city":"国立市","address":"国立市泉5-20-4","lat":35.677954,"lon":139.43815},{"name":"国立市子ども家庭支援センター","province":"東京都","city":"国立市","address":"国立市富士見台3-21-1","lat":35.685859,"lon":139.435872},{"name":"国立市子ども家庭支援センター","province":"東京都","city":"国立市","address":"国立市富士見台2-47-1","lat":35.68438,"lon":139.44151},{"name":"国立市子ども家庭支援センター","province":"東京都","city":"国立市","address":"国立市富士見台3-21-1","lat":35.68588,"lon":139.43515},{"name":"ハッピーテラス国立駅前","province":"東京都","city":"国立市","address":"国立市北1-5-8プラース壱番館2階店舗E","lat":35.699974,"lon":139.44686},{"name":"メリーランド","province":"東京都","city":"国立市","address":"国立市北3丁目40番3号","lat":35.699296,"lon":139.42842},{"name":"ＴＡＳＵＣ国立教室","province":"東京都","city":"国立市","address":"国立市東1-4-9ザ・ダイマス5階","lat":35.698436,"lon":139.447246},{"name":"ドリームボックス国立","province":"東京都","city":"国立市","address":"国立市東3丁目6-15エスポワール国立1階","lat":35.69452,"lon":139.452645},{"name":"東京ＹＭＣＡさくら国立","province":"東京都","city":"国立市","address":"国立市東1-4-20-102","lat":35.698813,"lon":139.448496},{"name":"ハイビスカス","province":"東京都","city":"国立市","address":"国立市富士見台4-10-6","lat":35.685859,"lon":139.431484},{"name":"くじらっこ","province":"東京都","city":"国立市","address":"国立市富士見台2-3-2メゾンエクセル1F","lat":35.685759,"lon":139.446402},{"name":"放課後等デイサービス　バモノス","province":"東京都","city":"国立市","address":"国立市富士見台1-7-1-1-114","lat":35.684604,"lon":139.448785},{"name":"放課後等デイサービスいもむしクラブ","province":"東京都","city":"国立市","address":"国立市富士見台1-17-29アップスタイルビルI2階","lat":35.681274,"lon":139.448041},{"name":"ハッピー・テラス国立","province":"東京都","city":"国立市","address":"国立市中2-3-66タキイシビル1階","lat":35.695494,"lon":139.439913},{"name":"滝乃川学園　放課後等デイサービス","province":"東京都","city":"国立市","address":"国立市谷保6312","lat":35.680959,"lon":139.429501},{"name":"スマイルともにー","province":"東京都","city":"国立市","address":"国立市泉5-20-4","lat":35.677954,"lon":139.43815},{"name":"国立市子ども家庭支援センター","province":"東京都","city":"国立市","address":"国立市富士見台3-21-1","lat":35.685859,"lon":139.435872},{"name":"国立市子ども家庭支援センター","province":"東京都","city":"国立市","address":"国立市富士見台2-47-1","lat":35.68438,"lon":139.44151},{"name":"国立市子ども家庭支援センター","province":"東京都","city":"国立市","address":"国立市富士見台3-21-1","lat":35.68588,"lon":139.43515},{"name":"ハッピーテラス国立駅前","province":"東京都","city":"国立市","address":"国立市北1-5-8プラース壱番館2階店舗E","lat":35.699974,"lon":139.44686},{"name":"メリーランド","province":"東京都","city":"国立市","address":"国立市北3丁目40番3号","lat":35.699296,"lon":139.42842},{"name":"ＴＡＳＵＣ国立教室","province":"東京都","city":"国立市","address":"国立市東1-4-9ザ・ダイマス5階","lat":35.698436,"lon":139.447246},{"name":"ドリームボックス国立","province":"東京都","city":"国立市","address":"国立市東3丁目6-15エスポワール国立1階","lat":35.69452,"lon":139.452645},{"name":"東京ＹＭＣＡさくら国立","province":"東京都","city":"国立市","address":"国立市東1-4-20-102","lat":35.698813,"lon":139.448496},{"name":"ハイビスカス","province":"東京都","city":"国立市","address":"国立市富士見台4-10-6","lat":35.685859,"lon":139.431484},{"name":"くじらっこ","province":"東京都","city":"国立市","address":"国立市富士見台2-3-2メゾンエクセル1F","lat":35.685759,"lon":139.446402},{"name":"放課後等デイサービス　バモノス","province":"東京都","city":"国立市","address":"国立市富士見台1-7-1-1-114","lat":35.684604,"lon":139.448785},{"name":"放課後等デイサービスいもむしクラブ","province":"東京都","city":"国立市","address":"国立市富士見台1-17-29アップスタイルビルI2階","lat":35.681274,"lon":139.448041},{"name":"ハッピー・テラス国立","province":"東京都","city":"国立市","address":"国立市中2-3-66タキイシビル1階","lat":35.695494,"lon":139.439913},{"name":"滝乃川学園　放課後等デイサービス","province":"東京都","city":"国立市","address":"国立市谷保6312","lat":35.680959,"lon":139.429501},{"name":"スマイルともにー","province":"東京都","city":"国立市","address":"国立市泉5-20-4","lat":35.677954,"lon":139.43815},{"name":"国立市子ども家庭支援センター","province":"東京都","city":"国立市","address":"国立市富士見台3-21-1","lat":35.685859,"lon":139.435872},{"name":"国立市子ども家庭支援センター","province":"東京都","city":"国立市","address":"国立市富士見台2-47-1","lat":35.68438,"lon":139.44151},{"name":"国立市子ども家庭支援センター","province":"東京都","city":"国立市","address":"国立市富士見台3-21-1","lat":35.68588,"lon":139.43515},{"name":"ハッピーテラス国立駅前","province":"東京都","city":"国立市","address":"国立市北1-5-8プラース壱番館2階店舗E","lat":35.699974,"lon":139.44686},{"name":"メリーランド","province":"東京都","city":"国立市","address":"国立市北3丁目40番3号","lat":35.699296,"lon":139.42842},{"name":"ＴＡＳＵＣ国立教室","province":"東京都","city":"国立市","address":"国立市東1-4-9ザ・ダイマス5階","lat":35.698436,"lon":139.447246},{"name":"ドリームボックス国立","province":"東京都","city":"国立市","address":"国立市東3丁目6-15エスポワール国立1階","lat":35.69452,"lon":139.452645},{"name":"東京ＹＭＣＡさくら国立","province":"東京都","city":"国立市","address":"国立市東1-4-20-102","lat":35.698813,"lon":139.448496},{"name":"ハイビスカス","province":"東京都","city":"国立市","address":"国立市富士見台4-10-6","lat":35.685859,"lon":139.431484},{"name":"くじらっこ","province":"東京都","city":"国立市","address":"国立市富士見台2-3-2メゾンエクセル1F","lat":35.685759,"lon":139.446402},{"name":"放課後等デイサービス　バモノス","province":"東京都","city":"国立市","address":"国立市富士見台1-7-1-1-114","lat":35.684604,"lon":139.448785},{"name":"放課後等デイサービスいもむしクラブ","province":"東京都","city":"国立市","address":"国立市富士見台1-17-29アップスタイルビルI2階","lat":35.681274,"lon":139.448041},{"name":"ハッピー・テラス国立","province":"東京都","city":"国立市","address":"国立市中2-3-66タキイシビル1階","lat":35.695494,"lon":139.439913},{"name":"滝乃川学園　放課後等デイサービス","province":"東京都","city":"国立市","address":"国立市谷保6312","lat":35.680959,"lon":139.429501},{"name":"スマイルともにー","province":"東京都","city":"国立市","address":"国立市泉5-20-4","lat":35.677954,"lon":139.43815},{"name":"国立市子ども家庭支援センター","province":"東京都","city":"国立市","address":"国立市富士見台3-21-1","lat":35.685859,"lon":139.435872},{"name":"国立市子ども家庭支援センター","province":"東京都","city":"国立市","address":"国立市富士見台2-47-1","lat":35.68438,"lon":139.44151},{"name":"国立市子ども家庭支援センター","province":"東京都","city":"国立市","address":"国立市富士見台3-21-1","lat":35.68588,"lon":139.43515},{"name":"ハッピーテラス国立駅前","province":"東京都","city":"国立市","address":"国立市北1-5-8プラース壱番館2階店舗E","lat":35.699974,"lon":139.44686},{"name":"メリーランド","province":"東京都","city":"国立市","address":"国立市北3丁目40番3号","lat":35.699296,"lon":139.42842},{"name":"ＴＡＳＵＣ国立教室","province":"東京都","city":"国立市","address":"国立市東1-4-9ザ・ダイマス5階","lat":35.698436,"lon":139.447246},{"name":"ドリームボックス国立","province":"東京都","city":"国立市","address":"国立市東3丁目6-15エスポワール国立1階","lat":35.69452,"lon":139.452645},{"name":"東京ＹＭＣＡさくら国立","province":"東京都","city":"国立市","address":"国立市東1-4-20-102","lat":35.698813,"lon":139.448496},{"name":"ハイビスカス","province":"東京都","city":"国立市","address":"国立市富士見台4-10-6","lat":35.685859,"lon":139.431484},{"name":"くじらっこ","province":"東京都","city":"国立市","address":"国立市富士見台2-3-2メゾンエクセル1F","lat":35.685759,"lon":139.446402},{"name":"放課後等デイサービス　バモノス","province":"東京都","city":"国立市","address":"国立市富士見台1-7-1-1-114","lat":35.684604,"lon":139.448785},{"name":"放課後等デイサービスいもむしクラブ","province":"東京都","city":"国立市","address":"国立市富士見台1-17-29アップスタイルビルI2階","lat":35.681274,"lon":139.448041},{"name":"ハッピー・テラス国立","province":"東京都","city":"国立市","address":"国立市中2-3-66タキイシビル1階","lat":35.695494,"lon":139.439913},{"name":"滝乃川学園　放課後等デイサービス","province":"東京都","city":"国立市","address":"国立市谷保6312","lat":35.680959,"lon":139.429501},{"name":"スマイルともにー","province":"東京都","city":"国立市","address":"国立市泉5-20-4","lat":35.677954,"lon":139.43815},{"name":"国立市子ども家庭支援センター","province":"東京都","city":"国立市","address":"国立市富士見台3-21-1","lat":35.685859,"lon":139.435872},{"name":"国立市子ども家庭支援センター","province":"東京都","city":"国立市","address":"国立市富士見台2-47-1","lat":35.68438,"lon":139.44151},{"name":"国立市子ども家庭支援センター","province":"東京都","city":"国立市","address":"国立市富士見台3-21-1","lat":35.68588,"lon":139.43515},{"name":"ハッピーテラス国立駅前","province":"東京都","city":"国立市","address":"国立市北1-5-8プラース壱番館2階店舗E","lat":35.699974,"lon":139.44686},{"name":"メリーランド","province":"東京都","city":"国立市","address":"国立市北3丁目40番3号","lat":35.699296,"lon":139.42842},{"name":"ＴＡＳＵＣ国立教室","province":"東京都","city":"国立市","address":"国立市東1-4-9ザ・ダイマス5階","lat":35.698436,"lon":139.447246},{"name":"ドリームボックス国立","province":"東京都","city":"国立市","address":"国立市東3丁目6-15エスポワール国立1階","lat":35.69452,"lon":139.452645},{"name":"東京ＹＭＣＡさくら国立","province":"東京都","city":"国立市","address":"国立市東1-4-20-102","lat":35.698813,"lon":139.448496},{"name":"ハイビスカス","province":"東京都","city":"国立市","address":"国立市富士見台4-10-6","lat":35.685859,"lon":139.431484},{"name":"くじらっこ","province":"東京都","city":"国立市","address":"国立市富士見台2-3-2メゾンエクセル1F","lat":35.685759,"lon":139.446402},{"name":"放課後等デイサービス　バモノス","province":"東京都","city":"国立市","address":"国立市富士見台1-7-1-1-114","lat":35.684604,"lon":139.448785},{"name":"放課後等デイサービスいもむしクラブ","province":"東京都","city":"国立市","address":"国立市富士見台1-17-29アップスタイルビルI2階","lat":35.681274,"lon":139.448041},{"name":"ハッピー・テラス国立","province":"東京都","city":"国立市","address":"国立市中2-3-66タキイシビル1階","lat":35.695494,"lon":139.439913},{"name":"滝乃川学園　放課後等デイサービス","province":"東京都","city":"国立市","address":"国立市谷保6312","lat":35.680959,"lon":139.429501},{"name":"スマイルともにー","province":"東京都","city":"国立市","address":"国立市泉5-20-4","lat":35.677954,"lon":139.43815},{"name":"国立市子ども家庭支援センター","province":"東京都","city":"国立市","address":"国立市富士見台3-21-1","lat":35.685859,"lon":139.435872},{"name":"国立市子ども家庭支援センター","province":"東京都","city":"国立市","address":"国立市富士見台2-47-1","lat":35.68438,"lon":139.44151},{"name":"国立市子ども家庭支援センター","province":"東京都","city":"国立市","address":"国立市富士見台3-21-1","lat":35.68588,"lon":139.43515},{"name":"ハッピーテラス国立駅前","province":"東京都","city":"国立市","address":"国立市北1-5-8プラース壱番館2階店舗E","lat":35.699974,"lon":139.44686},{"name":"メリーランド","province":"東京都","city":"国立市","address":"国立市北3丁目40番3号","lat":35.699296,"lon":139.42842},{"name":"ＴＡＳＵＣ国立教室","province":"東京都","city":"国立市","address":"国立市東1-4-9ザ・ダイマス5階","lat":35.698436,"lon":139.447246},{"name":"ドリームボックス国立","province":"東京都","city":"国立市","address":"国立市東3丁目6-15エスポワール国立1階","lat":35.69452,"lon":139.452645},{"name":"東京ＹＭＣＡさくら国立","province":"東京都","city":"国立市","address":"国立市東1-4-20-102","lat":35.698813,"lon":139.448496},{"name":"ハイビスカス","province":"東京都","city":"国立市","address":"国立市富士見台4-10-6","lat":35.685859,"lon":139.431484},{"name":"くじらっこ","province":"東京都","city":"国立市","address":"国立市富士見台2-3-2メゾンエクセル1F","lat":35.685759,"lon":139.446402},{"name":"放課後等デイサービス　バモノス","province":"東京都","city":"国立市","address":"国立市富士見台1-7-1-1-114","lat":35.684604,"lon":139.448785},{"name":"放課後等デイサービスいもむしクラブ","province":"東京都","city":"国立市","address":"国立市富士見台1-17-29アップスタイルビルI2階","lat":35.681274,"lon":139.448041},{"name":"ハッピー・テラス国立","province":"東京都","city":"国立市","address":"国立市中2-3-66タキイシビル1階","lat":35.695494,"lon":139.439913},{"name":"滝乃川学園　放課後等デイサービス","province":"東京都","city":"国立市","address":"国立市谷保6312","lat":35.680959,"lon":139.429501},{"name":"スマイルともにー","province":"東京都","city":"国立市","address":"国立市泉5-20-4","lat":35.677954,"lon":139.43815},{"name":"国立市子ども家庭支援センター","province":"東京都","city":"国立市","address":"国立市富士見台3-21-1","lat":35.685859,"lon":139.435872},{"name":"国立市子ども家庭支援センター","province":"東京都","city":"国立市","address":"国立市富士見台2-47-1","lat":35.68438,"lon":139.44151},{"name":"国立市子ども家庭支援センター","province":"東京都","city":"国立市","address":"国立市富士見台3-21-1","lat":35.68588,"lon":139.43515},{"name":"ハッピーテラス国立駅前","province":"東京都","city":"国立市","address":"国立市北1-5-8プラース壱番館2階店舗E","lat":35.699974,"lon":139.44686},{"name":"メリーランド","province":"東京都","city":"国立市","address":"国立市北3丁目40番3号","lat":35.699296,"lon":139.42842},{"name":"ＴＡＳＵＣ国立教室","province":"東京都","city":"国立市","address":"国立市東1-4-9ザ・ダイマス5階","lat":35.698436,"lon":139.447246},{"name":"ドリームボックス国立","province":"東京都","city":"国立市","address":"国立市東3丁目6-15エスポワール国立1階","lat":35.69452,"lon":139.452645},{"name":"東京ＹＭＣＡさくら国立","province":"東京都","city":"国立市","address":"国立市東1-4-20-102","lat":35.698813,"lon":139.448496},{"name":"ハイビスカス","province":"東京都","city":"国立市","address":"国立市富士見台4-10-6","lat":35.685859,"lon":139.431484},{"name":"くじらっこ","province":"東京都","city":"国立市","address":"国立市富士見台2-3-2メゾンエクセル1F","lat":35.685759,"lon":139.446402},{"name":"放課後等デイサービス　バモノス","province":"東京都","city":"国立市","address":"国立市富士見台1-7-1-1-114","lat":35.684604,"lon":139.448785},{"name":"放課後等デイサービスいもむしクラブ","province":"東京都","city":"国立市","address":"国立市富士見台1-17-29アップスタイルビルI2階","lat":35.681274,"lon":139.448041},{"name":"ハッピー・テラス国立","province":"東京都","city":"国立市","address":"国立市中2-3-66タキイシビル1階","lat":35.695494,"lon":139.439913},{"name":"滝乃川学園　放課後等デイサービス","province":"東京都","city":"国立市","address":"国立市谷保6312","lat":35.680959,"lon":139.429501},{"name":"スマイルともにー","province":"東京都","city":"国立市","address":"国立市泉5-20-4","lat":35.677954,"lon":139.43815},{"name":"国立市子ども家庭支援センター","province":"東京都","city":"国立市","address":"国立市富士見台3-21-1","lat":35.685859,"lon":139.435872},{"name":"国立市子ども家庭支援センター","province":"東京都","city":"国立市","address":"国立市富士見台2-47-1","lat":35.68438,"lon":139.44151},{"name":"国立市子ども家庭支援センター","province":"東京都","city":"国立市","address":"国立市富士見台3-21-1","lat":35.68588,"lon":139.43515},{"name":"ハッピーテラス国立駅前","province":"東京都","city":"国立市","address":"国立市北1-5-8プラース壱番館2階店舗E","lat":35.699974,"lon":139.44686},{"name":"メリーランド","province":"東京都","city":"国立市","address":"国立市北3丁目40番3号","lat":35.699296,"lon":139.42842},{"name":"ＴＡＳＵＣ国立教室","province":"東京都","city":"国立市","address":"国立市東1-4-9ザ・ダイマス5階","lat":35.698436,"lon":139.447246},{"name":"ドリームボックス国立","province":"東京都","city":"国立市","address":"国立市東3丁目6-15エスポワール国立1階","lat":35.69452,"lon":139.452645},{"name":"東京ＹＭＣＡさくら国立","province":"東京都","city":"国立市","address":"国立市東1-4-20-102","lat":35.698813,"lon":139.448496},{"name":"ハイビスカス","province":"東京都","city":"国立市","address":"国立市富士見台4-10-6","lat":35.685859,"lon":139.431484},{"name":"くじらっこ","province":"東京都","city":"国立市","address":"国立市富士見台2-3-2メゾンエクセル1F","lat":35.685759,"lon":139.446402},{"name":"放課後等デイサービス　バモノス","province":"東京都","city":"国立市","address":"国立市富士見台1-7-1-1-114","lat":35.684604,"lon":139.448785},{"name":"放課後等デイサービスいもむしクラブ","province":"東京都","city":"国立市","address":"国立市富士見台1-17-29アップスタイルビルI2階","lat":35.681274,"lon":139.448041},{"name":"ハッピー・テラス国立","province":"東京都","city":"国立市","address":"国立市中2-3-66タキイシビル1階","lat":35.695494,"lon":139.439913},{"name":"滝乃川学園　放課後等デイサービス","province":"東京都","city":"国立市","address":"国立市谷保6312","lat":35.680959,"lon":139.429501},{"name":"スマイルともにー","province":"東京都","city":"国立市","address":"国立市泉5-20-4","lat":35.677954,"lon":139.43815},{"name":"国立市子ども家庭支援センター","province":"東京都","city":"国立市","address":"国立市富士見台3-21-1","lat":35.685859,"lon":139.435872},{"name":"国立市子ども家庭支援センター","province":"東京都","city":"国立市","address":"国立市富士見台2-47-1","lat":35.68438,"lon":139.44151},{"name":"国立市子ども家庭支援センター","province":"東京都","city":"国立市","address":"国立市富士見台3-21-1","lat":35.68588,"lon":139.43515},{"name":"ハッピーテラス国立駅前","province":"東京都","city":"国立市","address":"国立市北1-5-8プラース壱番館2階店舗E","lat":35.699974,"lon":139.44686},{"name":"メリーランド","province":"東京都","city":"国立市","address":"国立市北3丁目40番3号","lat":35.699296,"lon":139.42842},{"name":"ＴＡＳＵＣ国立教室","province":"東京都","city":"国立市","address":"国立市東1-4-9ザ・ダイマス5階","lat":35.698436,"lon":139.447246},{"name":"ドリームボックス国立","province":"東京都","city":"国立市","address":"国立市東3丁目6-15エスポワール国立1階","lat":35.69452,"lon":139.452645},{"name":"東京ＹＭＣＡさくら国立","province":"東京都","city":"国立市","address":"国立市東1-4-20-102","lat":35.698813,"lon":139.448496},{"name":"ハイビスカス","province":"東京都","city":"国立市","address":"国立市富士見台4-10-6","lat":35.685859,"lon":139.431484},{"name":"くじらっこ","province":"東京都","city":"国立市","address":"国立市富士見台2-3-2メゾンエクセル1F","lat":35.685759,"lon":139.446402},{"name":"放課後等デイサービス　バモノス","province":"東京都","city":"国立市","address":"国立市富士見台1-7-1-1-114","lat":35.684604,"lon":139.448785},{"name":"放課後等デイサービスいもむしクラブ","province":"東京都","city":"国立市","address":"国立市富士見台1-17-29アップスタイルビルI2階","lat":35.681274,"lon":139.448041},{"name":"ハッピー・テラス国立","province":"東京都","city":"国立市","address":"国立市中2-3-66タキイシビル1階","lat":35.695494,"lon":139.439913},{"name":"滝乃川学園　放課後等デイサービス","province":"東京都","city":"国立市","address":"国立市谷保6312","lat":35.680959,"lon":139.429501},{"name":"スマイルともにー","province":"東京都","city":"国立市","address":"国立市泉5-20-4","lat":35.677954,"lon":139.43815},{"name":"国立市子ども家庭支援センター","province":"東京都","city":"国立市","address":"国立市富士見台3-21-1","lat":35.685859,"lon":139.435872},{"name":"国立市子ども家庭支援センター","province":"東京都","city":"国立市","address":"国立市富士見台2-47-1","lat":35.68438,"lon":139.44151},{"name":"国立市子ども家庭支援センター","province":"東京都","city":"国立市","address":"国立市富士見台3-21-1","lat":35.68588,"lon":139.43515},{"name":"ハッピーテラス国立駅前","province":"東京都","city":"国立市","address":"国立市北1-5-8プラース壱番館2階店舗E","lat":35.699974,"lon":139.44686},{"name":"メリーランド","province":"東京都","city":"国立市","address":"国立市北3丁目40番3号","lat":35.699296,"lon":139.42842},{"name":"ＴＡＳＵＣ国立教室","province":"東京都","city":"国立市","address":"国立市東1-4-9ザ・ダイマス5階","lat":35.698436,"lon":139.447246},{"name":"ドリームボックス国立","province":"東京都","city":"国立市","address":"国立市東3丁目6-15エスポワール国立1階","lat":35.69452,"lon":139.452645},{"name":"東京ＹＭＣＡさくら国立","province":"東京都","city":"国立市","address":"国立市東1-4-20-102","lat":35.698813,"lon":139.448496},{"name":"ハイビスカス","province":"東京都","city":"国立市","address":"国立市富士見台4-10-6","lat":35.685859,"lon":139.431484},{"name":"くじらっこ","province":"東京都","city":"国立市","address":"国立市富士見台2-3-2メゾンエクセル1F","lat":35.685759,"lon":139.446402},{"name":"放課後等デイサービス　バモノス","province":"東京都","city":"国立市","address":"国立市富士見台1-7-1-1-114","lat":35.684604,"lon":139.448785},{"name":"放課後等デイサービスいもむしクラブ","province":"東京都","city":"国立市","address":"国立市富士見台1-17-29アップスタイルビルI2階","lat":35.681274,"lon":139.448041},{"name":"ハッピー・テラス国立","province":"東京都","city":"国立市","address":"国立市中2-3-66タキイシビル1階","lat":35.695494,"lon":139.439913},{"name":"滝乃川学園　放課後等デイサービス","province":"東京都","city":"国立市","address":"国立市谷保6312","lat":35.680959,"lon":139.429501},{"name":"スマイルともにー","province":"東京都","city":"国立市","address":"国立市泉5-20-4","lat":35.677954,"lon":139.43815},{"name":"国立市子ども家庭支援センター","province":"東京都","city":"国立市","address":"国立市富士見台3-21-1","lat":35.685859,"lon":139.435872},{"name":"国立市子ども家庭支援センター","province":"東京都","city":"国立市","address":"国立市富士見台2-47-1","lat":35.68438,"lon":139.44151},{"name":"国立市子ども家庭支援センター","province":"東京都","city":"国立市","address":"国立市富士見台3-21-1","lat":35.68588,"lon":139.43515},{"name":"ハッピーテラス国立駅前","province":"東京都","city":"国立市","address":"国立市北1-5-8プラース壱番館2階店舗E","lat":35.699974,"lon":139.44686},{"name":"メリーランド","province":"東京都","city":"国立市","address":"国立市北3丁目40番3号","lat":35.699296,"lon":139.42842},{"name":"ＴＡＳＵＣ国立教室","province":"東京都","city":"国立市","address":"国立市東1-4-9ザ・ダイマス5階","lat":35.698436,"lon":139.447246},{"name":"ドリームボックス国立","province":"東京都","city":"国立市","address":"国立市東3丁目6-15エスポワール国立1階","lat":35.69452,"lon":139.452645},{"name":"東京ＹＭＣＡさくら国立","province":"東京都","city":"国立市","address":"国立市東1-4-20-102","lat":35.698813,"lon":139.448496},{"name":"ハイビスカス","province":"東京都","city":"国立市","address":"国立市富士見台4-10-6","lat":35.685859,"lon":139.431484},{"name":"くじらっこ","province":"東京都","city":"国立市","address":"国立市富士見台2-3-2メゾンエクセル1F","lat":35.685759,"lon":139.446402},{"name":"放課後等デイサービス　バモノス","province":"東京都","city":"国立市","address":"国立市富士見台1-7-1-1-114","lat":35.684604,"lon":139.448785},{"name":"放課後等デイサービスいもむしクラブ","province":"東京都","city":"国立市","address":"国立市富士見台1-17-29アップスタイルビルI2階","lat":35.681274,"lon":139.448041},{"name":"ハッピー・テラス国立","province":"東京都","city":"国立市","address":"国立市中2-3-66タキイシビル1階","lat":35.695494,"lon":139.439913},{"name":"滝乃川学園　放課後等デイサービス","province":"東京都","city":"国立市","address":"国立市谷保6312","lat":35.680959,"lon":139.429501},{"name":"スマイルともにー","province":"東京都","city":"国立市","address":"国立市泉5-20-4","lat":35.677954,"lon":139.43815},{"name":"国立市子ども家庭支援センター","province":"東京都","city":"国立市","address":"国立市富士見台3-21-1","lat":35.685859,"lon":139.435872},{"name":"国立市子ども家庭支援センター","province":"東京都","city":"国立市","address":"国立市富士見台2-47-1","lat":35.68438,"lon":139.44151},{"name":"国立市子ども家庭支援センター","province":"東京都","city":"国立市","address":"国立市富士見台3-21-1","lat":35.68588,"lon":139.43515},{"name":"ハッピーテラス国立駅前","province":"東京都","city":"国立市","address":"国立市北1-5-8プラース壱番館2階店舗E","lat":35.699974,"lon":139.44686},{"name":"メリーランド","province":"東京都","city":"国立市","address":"国立市北3丁目40番3号","lat":35.699296,"lon":139.42842},{"name":"ＴＡＳＵＣ国立教室","province":"東京都","city":"国立市","address":"国立市東1-4-9ザ・ダイマス5階","lat":35.698436,"lon":139.447246},{"name":"ドリームボックス国立","province":"東京都","city":"国立市","address":"国立市東3丁目6-15エスポワール国立1階","lat":35.69452,"lon":139.452645},{"name":"東京ＹＭＣＡさくら国立","province":"東京都","city":"国立市","address":"国立市東1-4-20-102","lat":35.698813,"lon":139.448496},{"name":"ハイビスカス","province":"東京都","city":"国立市","address":"国立市富士見台4-10-6","lat":35.685859,"lon":139.431484},{"name":"くじらっこ","province":"東京都","city":"国立市","address":"国立市富士見台2-3-2メゾンエクセル1F","lat":35.685759,"lon":139.446402},{"name":"放課後等デイサービス　バモノス","province":"東京都","city":"国立市","address":"国立市富士見台1-7-1-1-114","lat":35.684604,"lon":139.448785},{"name":"放課後等デイサービスいもむしクラブ","province":"東京都","city":"国立市","address":"国立市富士見台1-17-29アップスタイルビルI2階","lat":35.681274,"lon":139.448041},{"name":"ハッピー・テラス国立","province":"東京都","city":"国立市","address":"国立市中2-3-66タキイシビル1階","lat":35.695494,"lon":139.439913},{"name":"滝乃川学園　放課後等デイサービス","province":"東京都","city":"国立市","address":"国立市谷保6312","lat":35.680959,"lon":139.429501},{"name":"スマイルともにー","province":"東京都","city":"国立市","address":"国立市泉5-20-4","lat":35.677954,"lon":139.43815},{"name":"国立市子ども家庭支援センター","province":"東京都","city":"国立市","address":"国立市富士見台3-21-1","lat":35.685859,"lon":139.435872},{"name":"国立市子ども家庭支援センター","province":"東京都","city":"国立市","address":"国立市富士見台2-47-1","lat":35.68438,"lon":139.44151},{"name":"国立市子ども家庭支援センター","province":"東京都","city":"国立市","address":"国立市富士見台3-21-1","lat":35.68588,"lon":139.43515},{"name":"ハッピーテラス国立駅前","province":"東京都","city":"国立市","address":"国立市北1-5-8プラース壱番館2階店舗E","lat":35.699974,"lon":139.44686},{"name":"メリーランド","province":"東京都","city":"国立市","address":"国立市北3丁目40番3号","lat":35.699296,"lon":139.42842},{"name":"ＴＡＳＵＣ国立教室","province":"東京都","city":"国立市","address":"国立市東1-4-9ザ・ダイマス5階","lat":35.698436,"lon":139.447246},{"name":"ドリームボックス国立","province":"東京都","city":"国立市","address":"国立市東3丁目6-15エスポワール国立1階","lat":35.69452,"lon":139.452645},{"name":"東京ＹＭＣＡさくら国立","province":"東京都","city":"国立市","address":"国立市東1-4-20-102","lat":35.698813,"lon":139.448496},{"name":"ハイビスカス","province":"東京都","city":"国立市","address":"国立市富士見台4-10-6","lat":35.685859,"lon":139.431484},{"name":"くじらっこ","province":"東京都","city":"国立市","address":"国立市富士見台2-3-2メゾンエクセル1F","lat":35.685759,"lon":139.446402},{"name":"放課後等デイサービス　バモノス","province":"東京都","city":"国立市","address":"国立市富士見台1-7-1-1-114","lat":35.684604,"lon":139.448785},{"name":"放課後等デイサービスいもむしクラブ","province":"東京都","city":"国立市","address":"国立市富士見台1-17-29アップスタイルビルI2階","lat":35.681274,"lon":139.448041},{"name":"ハッピー・テラス国立","province":"東京都","city":"国立市","address":"国立市中2-3-66タキイシビル1階","lat":35.695494,"lon":139.439913},{"name":"滝乃川学園　放課後等デイサービス","province":"東京都","city":"国立市","address":"国立市谷保6312","lat":35.680959,"lon":139.429501},{"name":"スマイルともにー","province":"東京都","city":"国立市","address":"国立市泉5-20-4","lat":35.677954,"lon":139.43815},{"name":"国立市子ども家庭支援センター","province":"東京都","city":"国立市","address":"国立市富士見台3-21-1","lat":35.685859,"lon":139.435872},{"name":"国立市子ども家庭支援センター","province":"東京都","city":"国立市","address":"国立市富士見台2-47-1","lat":35.68438,"lon":139.44151},{"name":"国立市子ども家庭支援センター","province":"東京都","city":"国立市","address":"国立市富士見台3-21-1","lat":35.68588,"lon":139.43515},{"name":"ハッピーテラス国立駅前","province":"東京都","city":"国立市","address":"国立市北1-5-8プラース壱番館2階店舗E","lat":35.699974,"lon":139.44686},{"name":"メリーランド","province":"東京都","city":"国立市","address":"国立市北3丁目40番3号","lat":35.699296,"lon":139.42842},{"name":"ＴＡＳＵＣ国立教室","province":"東京都","city":"国立市","address":"国立市東1-4-9ザ・ダイマス5階","lat":35.698436,"lon":139.447246},{"name":"ドリームボックス国立","province":"東京都","city":"国立市","address":"国立市東3丁目6-15エスポワール国立1階","lat":35.69452,"lon":139.452645},{"name":"東京ＹＭＣＡさくら国立","province":"東京都","city":"国立市","address":"国立市東1-4-20-102","lat":35.698813,"lon":139.448496},{"name":"ハイビスカス","province":"東京都","city":"国立市","address":"国立市富士見台4-10-6","lat":35.685859,"lon":139.431484},{"name":"くじらっこ","province":"東京都","city":"国立市","address":"国立市富士見台2-3-2メゾンエクセル1F","lat":35.685759,"lon":139.446402},{"name":"放課後等デイサービス　バモノス","province":"東京都","city":"国立市","address":"国立市富士見台1-7-1-1-114","lat":35.684604,"lon":139.448785},{"name":"放課後等デイサービスいもむしクラブ","province":"東京都","city":"国立市","address":"国立市富士見台1-17-29アップスタイルビルI2階","lat":35.681274,"lon":139.448041},{"name":"ハッピー・テラス国立","province":"東京都","city":"国立市","address":"国立市中2-3-66タキイシビル1階","lat":35.695494,"lon":139.439913},{"name":"滝乃川学園　放課後等デイサービス","province":"東京都","city":"国立市","address":"国立市谷保6312","lat":35.680959,"lon":139.429501},{"name":"スマイルともにー","province":"東京都","city":"国立市","address":"国立市泉5-20-4","lat":35.677954,"lon":139.43815},{"name":"国立市子ども家庭支援センター","province":"東京都","city":"国立市","address":"国立市富士見台3-21-1","lat":35.685859,"lon":139.435872},{"name":"国立市子ども家庭支援センター","province":"東京都","city":"国立市","address":"国立市富士見台2-47-1","lat":35.68438,"lon":139.44151},{"name":"国立市子ども家庭支援センター","province":"東京都","city":"国立市","address":"国立市富士見台3-21-1","lat":35.68588,"lon":139.43515},{"name":"ハッピーテラス国立駅前","province":"東京都","city":"国立市","address":"国立市北1-5-8プラース壱番館2階店舗E","lat":35.699974,"lon":139.44686},{"name":"メリーランド","province":"東京都","city":"国立市","address":"国立市北3丁目40番3号","lat":35.699296,"lon":139.42842},{"name":"ＴＡＳＵＣ国立教室","province":"東京都","city":"国立市","address":"国立市東1-4-9ザ・ダイマス5階","lat":35.698436,"lon":139.447246},{"name":"ドリームボックス国立","province":"東京都","city":"国立市","address":"国立市東3丁目6-15エスポワール国立1階","lat":35.69452,"lon":139.452645},{"name":"東京ＹＭＣＡさくら国立","province":"東京都","city":"国立市","address":"国立市東1-4-20-102","lat":35.698813,"lon":139.448496},{"name":"ハイビスカス","province":"東京都","city":"国立市","address":"国立市富士見台4-10-6","lat":35.685859,"lon":139.431484},{"name":"くじらっこ","province":"東京都","city":"国立市","address":"国立市富士見台2-3-2メゾンエクセル1F","lat":35.685759,"lon":139.446402},{"name":"放課後等デイサービス　バモノス","province":"東京都","city":"国立市","address":"国立市富士見台1-7-1-1-114","lat":35.684604,"lon":139.448785},{"name":"放課後等デイサービスいもむしクラブ","province":"東京都","city":"国立市","address":"国立市富士見台1-17-29アップスタイルビルI2階","lat":35.681274,"lon":139.448041},{"name":"ハッピー・テラス国立","province":"東京都","city":"国立市","address":"国立市中2-3-66タキイシビル1階","lat":35.695494,"lon":139.439913},{"name":"滝乃川学園　放課後等デイサービス","province":"東京都","city":"国立市","address":"国立市谷保6312","lat":35.680959,"lon":139.429501},{"name":"スマイルともにー","province":"東京都","city":"国立市","address":"国立市泉5-20-4","lat":35.677954,"lon":139.43815},{"name":"国立市子ども家庭支援センター","province":"東京都","city":"国立市","address":"国立市富士見台3-21-1","lat":35.685859,"lon":139.435872},{"name":"国立市子ども家庭支援センター","province":"東京都","city":"国立市","address":"国立市富士見台2-47-1","lat":35.68438,"lon":139.44151},{"name":"国立市子ども家庭支援センター","province":"東京都","city":"国立市","address":"国立市富士見台3-21-1","lat":35.68588,"lon":139.43515},{"name":"ハッピーテラス国立駅前","province":"東京都","city":"国立市","address":"国立市北1-5-8プラース壱番館2階店舗E","lat":35.699974,"lon":139.44686},{"name":"メリーランド","province":"東京都","city":"国立市","address":"国立市北3丁目40番3号","lat":35.699296,"lon":139.42842},{"name":"ＴＡＳＵＣ国立教室","province":"東京都","city":"国立市","address":"国立市東1-4-9ザ・ダイマス5階","lat":35.698436,"lon":139.447246},{"name":"ドリームボックス国立","province":"東京都","city":"国立市","address":"国立市東3丁目6-15エスポワール国立1階","lat":35.69452,"lon":139.452645},{"name":"東京ＹＭＣＡさくら国立","province":"東京都","city":"国立市","address":"国立市東1-4-20-102","lat":35.698813,"lon":139.448496},{"name":"ハイビスカス","province":"東京都","city":"国立市","address":"国立市富士見台4-10-6","lat":35.685859,"lon":139.431484},{"name":"くじらっこ","province":"東京都","city":"国立市","address":"国立市富士見台2-3-2メゾンエクセル1F","lat":35.685759,"lon":139.446402},{"name":"放課後等デイサービス　バモノス","province":"東京都","city":"国立市","address":"国立市富士見台1-7-1-1-114","lat":35.684604,"lon":139.448785},{"name":"放課後等デイサービスいもむしクラブ","province":"東京都","city":"国立市","address":"国立市富士見台1-17-29アップスタイルビルI2階","lat":35.681274,"lon":139.448041},{"name":"ハッピー・テラス国立","province":"東京都","city":"国立市","address":"国立市中2-3-66タキイシビル1階","lat":35.695494,"lon":139.439913},{"name":"滝乃川学園　放課後等デイサービス","province":"東京都","city":"国立市","address":"国立市谷保6312","lat":35.680959,"lon":139.429501},{"name":"スマイルともにー","province":"東京都","city":"国立市","address":"国立市泉5-20-4","lat":35.677954,"lon":139.43815},{"name":"国立市子ども家庭支援センター","province":"東京都","city":"国立市","address":"国立市富士見台3-21-1","lat":35.685859,"lon":139.435872},{"name":"国立市子ども家庭支援センター","province":"東京都","city":"国立市","address":"国立市富士見台2-47-1","lat":35.68438,"lon":139.44151},{"name":"国立市子ども家庭支援センター","province":"東京都","city":"国立市","address":"国立市富士見台3-21-1","lat":35.68588,"lon":139.43515},{"name":"ハッピーテラス国立駅前","province":"東京都","city":"国立市","address":"国立市北1-5-8プラース壱番館2階店舗E","lat":35.699974,"lon":139.44686},{"name":"メリーランド","province":"東京都","city":"国立市","address":"国立市北3丁目40番3号","lat":35.699296,"lon":139.42842},{"name":"ＴＡＳＵＣ国立教室","province":"東京都","city":"国立市","address":"国立市東1-4-9ザ・ダイマス5階","lat":35.698436,"lon":139.447246},{"name":"ドリームボックス国立","province":"東京都","city":"国立市","address":"国立市東3丁目6-15エスポワール国立1階","lat":35.69452,"lon":139.452645},{"name":"東京ＹＭＣＡさくら国立","province":"東京都","city":"国立市","address":"国立市東1-4-20-102","lat":35.698813,"lon":139.448496},{"name":"ハイビスカス","province":"東京都","city":"国立市","address":"国立市富士見台4-10-6","lat":35.685859,"lon":139.431484},{"name":"くじらっこ","province":"東京都","city":"国立市","address":"国立市富士見台2-3-2メゾンエクセル1F","lat":35.685759,"lon":139.446402},{"name":"放課後等デイサービス　バモノス","province":"東京都","city":"国立市","address":"国立市富士見台1-7-1-1-114","lat":35.684604,"lon":139.448785},{"name":"放課後等デイサービスいもむしクラブ","province":"東京都","city":"国立市","address":"国立市富士見台1-17-29アップスタイルビルI2階","lat":35.681274,"lon":139.448041},{"name":"ハッピー・テラス国立","province":"東京都","city":"国立市","address":"国立市中2-3-66タキイシビル1階","lat":35.695494,"lon":139.439913},{"name":"滝乃川学園　放課後等デイサービス","province":"東京都","city":"国立市","address":"国立市谷保6312","lat":35.680959,"lon":139.429501},{"name":"スマイルともにー","province":"東京都","city":"国立市","address":"国立市泉5-20-4","lat":35.677954,"lon":139.43815},{"name":"国立市子ども家庭支援センター","province":"東京都","city":"国立市","address":"国立市富士見台3-21-1","lat":35.685859,"lon":139.435872},{"name":"国立市子ども家庭支援センター","province":"東京都","city":"国立市","address":"国立市富士見台2-47-1","lat":35.68438,"lon":139.44151},{"name":"国立市子ども家庭支援センター","province":"東京都","city":"国立市","address":"国立市富士見台3-21-1","lat":35.68588,"lon":139.43515},{"name":"ハッピーテラス国立駅前","province":"東京都","city":"国立市","address":"国立市北1-5-8プラース壱番館2階店舗E","lat":35.699974,"lon":139.44686},{"name":"メリーランド","province":"東京都","city":"国立市","address":"国立市北3丁目40番3号","lat":35.699296,"lon":139.42842},{"name":"ＴＡＳＵＣ国立教室","province":"東京都","city":"国立市","address":"国立市東1-4-9ザ・ダイマス5階","lat":35.698436,"lon":139.447246},{"name":"ドリームボックス国立","province":"東京都","city":"国立市","address":"国立市東3丁目6-15エスポワール国立1階","lat":35.69452,"lon":139.452645},{"name":"東京ＹＭＣＡさくら国立","province":"東京都","city":"国立市","address":"国立市東1-4-20-102","lat":35.698813,"lon":139.448496},{"name":"ハイビスカス","province":"東京都","city":"国立市","address":"国立市富士見台4-10-6","lat":35.685859,"lon":139.431484},{"name":"くじらっこ","province":"東京都","city":"国立市","address":"国立市富士見台2-3-2メゾンエクセル1F","lat":35.685759,"lon":139.446402},{"name":"放課後等デイサービス　バモノス","province":"東京都","city":"国立市","address":"国立市富士見台1-7-1-1-114","lat":35.684604,"lon":139.448785},{"name":"放課後等デイサービスいもむしクラブ","province":"東京都","city":"国立市","address":"国立市富士見台1-17-29アップスタイルビルI2階","lat":35.681274,"lon":139.448041},{"name":"ハッピー・テラス国立","province":"東京都","city":"国立市","address":"国立市中2-3-66タキイシビル1階","lat":35.695494,"lon":139.439913},{"name":"滝乃川学園　放課後等デイサービス","province":"東京都","city":"国立市","address":"国立市谷保6312","lat":35.680959,"lon":139.429501},{"name":"スマイルともにー","province":"東京都","city":"国立市","address":"国立市泉5-20-4","lat":35.677954,"lon":139.43815},{"name":"国立市子ども家庭支援センター","province":"東京都","city":"国立市","address":"国立市富士見台3-21-1","lat":35.685859,"lon":139.435872},{"name":"国立市子ども家庭支援センター","province":"東京都","city":"国立市","address":"国立市富士見台2-47-1","lat":35.68438,"lon":139.44151},{"name":"国立市子ども家庭支援センター","province":"東京都","city":"国立市","address":"国立市富士見台3-21-1","lat":35.68588,"lon":139.43515},{"name":"ハッピーテラス国立駅前","province":"東京都","city":"国立市","address":"国立市北1-5-8プラース壱番館2階店舗E","lat":35.699974,"lon":139.44686},{"name":"メリーランド","province":"東京都","city":"国立市","address":"国立市北3丁目40番3号","lat":35.699296,"lon":139.42842},{"name":"ＴＡＳＵＣ国立教室","province":"東京都","city":"国立市","address":"国立市東1-4-9ザ・ダイマス5階","lat":35.698436,"lon":139.447246},{"name":"ドリームボックス国立","province":"東京都","city":"国立市","address":"国立市東3丁目6-15エスポワール国立1階","lat":35.69452,"lon":139.452645},{"name":"東京ＹＭＣＡさくら国立","province":"東京都","city":"国立市","address":"国立市東1-4-20-102","lat":35.698813,"lon":139.448496},{"name":"ハイビスカス","province":"東京都","city":"国立市","address":"国立市富士見台4-10-6","lat":35.685859,"lon":139.431484},{"name":"くじらっこ","province":"東京都","city":"国立市","address":"国立市富士見台2-3-2メゾンエクセル1F","lat":35.685759,"lon":139.446402},{"name":"放課後等デイサービス　バモノス","province":"東京都","city":"国立市","address":"国立市富士見台1-7-1-1-114","lat":35.684604,"lon":139.448785},{"name":"放課後等デイサービスいもむしクラブ","province":"東京都","city":"国立市","address":"国立市富士見台1-17-29アップスタイルビルI2階","lat":35.681274,"lon":139.448041},{"name":"ハッピー・テラス国立","province":"東京都","city":"国立市","address":"国立市中2-3-66タキイシビル1階","lat":35.695494,"lon":139.439913},{"name":"滝乃川学園　放課後等デイサービス","province":"東京都","city":"国立市","address":"国立市谷保6312","lat":35.680959,"lon":139.429501},{"name":"スマイルともにー","province":"東京都","city":"国立市","address":"国立市泉5-20-4","lat":35.677954,"lon":139.43815},{"name":"国立市子ども家庭支援センター","province":"東京都","city":"国立市","address":"国立市富士見台3-21-1","lat":35.685859,"lon":139.435872},{"name":"国立市子ども家庭支援センター","province":"東京都","city":"国立市","address":"国立市富士見台2-47-1","lat":35.68438,"lon":139.44151},{"name":"国立市子ども家庭支援センター","province":"東京都","city":"国立市","address":"国立市富士見台3-21-1","lat":35.68588,"lon":139.43515},{"name":"ハッピーテラス国立駅前","province":"東京都","city":"国立市","address":"国立市北1-5-8プラース壱番館2階店舗E","lat":35.699974,"lon":139.44686},{"name":"メリーランド","province":"東京都","city":"国立市","address":"国立市北3丁目40番3号","lat":35.699296,"lon":139.42842},{"name":"ＴＡＳＵＣ国立教室","province":"東京都","city":"国立市","address":"国立市東1-4-9ザ・ダイマス5階","lat":35.698436,"lon":139.447246},{"name":"ドリームボックス国立","province":"東京都","city":"国立市","address":"国立市東3丁目6-15エスポワール国立1階","lat":35.69452,"lon":139.452645},{"name":"東京ＹＭＣＡさくら国立","province":"東京都","city":"国立市","address":"国立市東1-4-20-102","lat":35.698813,"lon":139.448496},{"name":"ハイビスカス","province":"東京都","city":"国立市","address":"国立市富士見台4-10-6","lat":35.685859,"lon":139.431484},{"name":"くじらっこ","province":"東京都","city":"国立市","address":"国立市富士見台2-3-2メゾンエクセル1F","lat":35.685759,"lon":139.446402},{"name":"放課後等デイサービス　バモノス","province":"東京都","city":"国立市","address":"国立市富士見台1-7-1-1-114","lat":35.684604,"lon":139.448785},{"name":"放課後等デイサービスいもむしクラブ","province":"東京都","city":"国立市","address":"国立市富士見台1-17-29アップスタイルビルI2階","lat":35.681274,"lon":139.448041},{"name":"ハッピー・テラス国立","province":"東京都","city":"国立市","address":"国立市中2-3-66タキイシビル1階","lat":35.695494,"lon":139.439913},{"name":"滝乃川学園　放課後等デイサービス","province":"東京都","city":"国立市","address":"国立市谷保6312","lat":35.680959,"lon":139.429501},{"name":"スマイルともにー","province":"東京都","city":"国立市","address":"国立市泉5-20-4","lat":35.677954,"lon":139.43815},{"name":"国立市子ども家庭支援センター","province":"東京都","city":"国立市","address":"国立市富士見台3-21-1","lat":35.685859,"lon":139.435872},{"name":"国立市子ども家庭支援センター","province":"東京都","city":"国立市","address":"国立市富士見台2-47-1","lat":35.68438,"lon":139.44151},{"name":"国立市子ども家庭支援センター","province":"東京都","city":"国立市","address":"国立市富士見台3-21-1","lat":35.68588,"lon":139.43515},{"name":"ハッピーテラス国立駅前","province":"東京都","city":"国立市","address":"国立市北1-5-8プラース壱番館2階店舗E","lat":35.699974,"lon":139.44686},{"name":"メリーランド","province":"東京都","city":"国立市","address":"国立市北3丁目40番3号","lat":35.699296,"lon":139.42842},{"name":"ＴＡＳＵＣ国立教室","province":"東京都","city":"国立市","address":"国立市東1-4-9ザ・ダイマス5階","lat":35.698436,"lon":139.447246},{"name":"ドリームボックス国立","province":"東京都","city":"国立市","address":"国立市東3丁目6-15エスポワール国立1階","lat":35.69452,"lon":139.452645},{"name":"東京ＹＭＣＡさくら国立","province":"東京都","city":"国立市","address":"国立市東1-4-20-102","lat":35.698813,"lon":139.448496},{"name":"ハイビスカス","province":"東京都","city":"国立市","address":"国立市富士見台4-10-6","lat":35.685859,"lon":139.431484},{"name":"くじらっこ","province":"東京都","city":"国立市","address":"国立市富士見台2-3-2メゾンエクセル1F","lat":35.685759,"lon":139.446402},{"name":"放課後等デイサービス　バモノス","province":"東京都","city":"国立市","address":"国立市富士見台1-7-1-1-114","lat":35.684604,"lon":139.448785},{"name":"放課後等デイサービスいもむしクラブ","province":"東京都","city":"国立市","address":"国立市富士見台1-17-29アップスタイルビルI2階","lat":35.681274,"lon":139.448041},{"name":"ハッピー・テラス国立","province":"東京都","city":"国立市","address":"国立市中2-3-66タキイシビル1階","lat":35.695494,"lon":139.439913},{"name":"滝乃川学園　放課後等デイサービス","province":"東京都","city":"国立市","address":"国立市谷保6312","lat":35.680959,"lon":139.429501},{"name":"スマイルともにー","province":"東京都","city":"国立市","address":"国立市泉5-20-4","lat":35.677954,"lon":139.43815},{"name":"国立市子ども家庭支援センター","province":"東京都","city":"国立市","address":"国立市富士見台3-21-1","lat":35.685859,"lon":139.435872},{"name":"国立市子ども家庭支援センター","province":"東京都","city":"国立市","address":"国立市富士見台2-47-1","lat":35.68438,"lon":139.44151},{"name":"国立市子ども家庭支援センター","province":"東京都","city":"国立市","address":"国立市富士見台3-21-1","lat":35.68588,"lon":139.43515}]}