{"keyword":"椅子","data":[{"name":"東京都多摩障害者スポーツセンター","province":"東京都","city":"国立市","address":"東京都国立市富士見台2丁目1-1","lat":35.686247,"lon":139.446278},{"name":"東京都多摩障害者スポーツセンター","province":"東京都","city":"国立市","address":"東京都国立市富士見台2丁目1-1","lat":35.686764,"lon":139.446677},{"name":"東京都多摩障害者スポーツセンター","province":"東京都","city":"国立市","address":"東京都国立市富士見台2丁目1-1","lat":35.686789,"lon":139.446686},{"name":"東京都多摩障害者スポーツセンター","province":"東京都","city":"国立市","address":"東京都国立市富士見台2丁目1","lat":35.6871,"lon":139.446817},{"name":"東京都多摩障害者スポーツセンター","province":"東京都","city":"国立市","address":"東京都国立市富士見台2丁目1","lat":35.687081,"lon":139.446839},{"name":"東京都多摩障害者スポーツセンター","province":"東京都","city":"国立市","address":"東京都国立市富士見台2丁目1-1","lat":35.686453,"lon":139.44649},{"name":"東京都多摩障害者スポーツセンター","province":"東京都","city":"国立市","address":"東京都国立市富士見台2丁目1","lat":35.687121,"lon":139.44682},{"name":"東京都多摩障害者スポーツセンター","province":"東京都","city":"国立市","address":"東京都国立市富士見台2丁目1","lat":35.68703,"lon":139.446857},{"name":"東京都多摩障害者スポーツセンター","province":"東京都","city":"国立市","address":"東京都国立市富士見台2丁目1","lat":35.687002,"lon":139.446868},{"name":"東京都国立市役所本庁舎","province":"東京都","city":"国立市","address":"東京都国立市富士見台2丁目47-1","lat":35.683961,"lon":139.441276},{"name":"国立市公民館","province":"東京都","city":"国立市","address":"東京都国立市中1丁目15-1","lat":35.696886,"lon":139.443412},{"name":"国立市公民館","province":"東京都","city":"国立市","address":"東京都国立市中1丁目15-1","lat":35.696946,"lon":139.443476},{"name":"国立駅前くにたち・こくぶんじ市民プラザ","province":"東京都","city":"国立市","address":"東京都国立市北1丁目14","lat":35.699414,"lon":139.446903},{"name":"谷保東集会所","province":"東京都","city":"国立市","address":"東京都国立市谷保7丁目17-1","lat":35.673123,"lon":139.450665},{"name":"富士見台一丁目集会所","province":"東京都","city":"国立市","address":"東京都国立市富士見台1丁目8-4","lat":35.683369,"lon":139.448196},{"name":"富士見台二丁目集会所","province":"東京都","city":"国立市","address":"東京都国立市富士見台2丁目32","lat":35.684852,"lon":139.4449},{"name":"南市民プラザ","province":"東京都","city":"国立市","address":"東京都国立市泉2丁目3-2","lat":35.674485,"lon":139.430718},{"name":"北市民プラザ","province":"東京都","city":"国立市","address":"東京都国立市北3丁目1-1","lat":35.699259,"lon":139.432646},{"name":"国立市保健センター","province":"東京都","city":"国立市","address":"東京都国立市富士見台3丁目16-5","lat":35.686132,"lon":139.436594},{"name":"くにたち中央図書館","province":"東京都","city":"国立市","address":"東京都国立市富士見台2丁目34","lat":35.685209,"lon":139.444375},{"name":"くにたち郷土文化館","province":"東京都","city":"国立市","address":"東京都国立市谷保","lat":35.679418,"lon":139.43254},{"name":"城山さとのいえ","province":"東京都","city":"国立市","address":"東京都国立市泉5丁目21-20","lat":35.67842,"lon":139.437141},{"name":"くにたち市民総合体育館","province":"東京都","city":"国立市","address":"東京都国立市富士見台2丁目48-1","lat":35.685267,"lon":139.440377},{"name":"くにたち市民総合体育館","province":"東京都","city":"国立市","address":"東京都国立市富士見台2丁目48-1","lat":35.684794,"lon":139.440536},{"name":"くにたち市民総合体育館","province":"東京都","city":"国立市","address":"東京都国立市富士見台2丁目48-1","lat":35.685075,"lon":139.440286},{"name":"くにたち市民芸術小ホール","province":"東京都","city":"国立市","address":"東京都国立市富士見台2丁目48-1","lat":35.685222,"lon":139.44001},{"name":"南区公会堂","province":"東京都","city":"国立市","address":"東京都国立市泉3丁目29","lat":35.676222,"lon":139.427596},{"name":"谷保第三公園","province":"東京都","city":"国立市","address":"東京都国立市富士見台2丁目34","lat":35.685854,"lon":139.444276},{"name":"谷保第四公園","province":"東京都","city":"国立市","address":"東京都国立市富士見台2丁目49","lat":35.684233,"lon":139.439879},{"name":"矢川上公園","province":"東京都","city":"国立市","address":"東京都国立市富士見台4丁目4","lat":35.687731,"lon":139.432136},{"name":"矢川いこいの広場","province":"東京都","city":"国立市","address":"東京都国立市青柳1丁目18","lat":35.684864,"lon":139.426531},{"name":"北第一公園","province":"東京都","city":"国立市","address":"東京都国立市北3丁目8","lat":35.699888,"lon":139.431331},{"name":"泉第二遊園","province":"東京都","city":"国立市","address":"東京都国立市泉2丁目3","lat":35.673523,"lon":139.431583},{"name":"寺之下親水公園","province":"東京都","city":"国立市","address":"東京都国立市泉4丁目9","lat":35.676521,"lon":139.431772},{"name":"流域下水道処理場広場","province":"東京都","city":"国立市","address":"東京都国立市泉1丁目24","lat":35.673624,"lon":139.434439},{"name":"城山公園","province":"東京都","city":"国立市","address":"東京都国立市泉5丁目21","lat":35.678367,"lon":139.438367},{"name":"くにたち福祉会館","province":"東京都","city":"国立市","address":"東京都国立市富士見台2丁目38-5","lat":35.687558,"lon":139.444551},{"name":"くにたち福祉会館","province":"東京都","city":"国立市","address":"東京都国立市富士見台2丁目38-5","lat":35.687417,"lon":139.444545},{"name":"国立市子ども家庭支援センター（保健センター分室）","province":"東京都","city":"国立市","address":"東京都国立市富士見台3丁目21-1","lat":35.685826,"lon":139.435893},{"name":"国立市西児童館","province":"東京都","city":"国立市","address":"東京都国立市西1丁目12-26","lat":35.69696,"lon":139.433195},{"name":"東福祉館","province":"東京都","city":"国立市","address":"東京都国立市東3丁目18-32","lat":35.691451,"lon":139.454849},{"name":"西福祉館","province":"東京都","city":"国立市","address":"東京都国立市西2丁目17-32","lat":35.693903,"lon":139.432083},{"name":"北福祉館","province":"東京都","city":"国立市","address":"東京都国立市北2丁目19-1","lat":35.700633,"lon":139.437426},{"name":"くにたち立東福祉館","province":"東京都","city":"国立市","address":"東京都国立市北3丁目23-1","lat":35.701017,"lon":139.430281},{"name":"青柳福祉センター","province":"東京都","city":"国立市","address":"東京都国立市青柳2丁目8-60","lat":35.683236,"lon":139.423491},{"name":"中地域防災センター","province":"東京都","city":"国立市","address":"東京都国立市中2丁目10-7","lat":35.692722,"lon":139.439287},{"name":"東地域防災センター","province":"東京都","city":"国立市","address":"東京都国立市東1丁目13","lat":35.697329,"lon":139.450023},{"name":"富士見台地域防災センター","province":"東京都","city":"国立市","address":"東京都国立市富士見台3丁目13-5","lat":35.687846,"lon":139.436762},{"name":"くにたち未来共創拠点矢川プラス","province":"東京都","city":"国立市","address":"東京都国立市富士見台4丁目17","lat":35.6855903,"lon":139.429893},{"name":"くにたち未来共創拠点矢川プラス","province":"東京都","city":"国立市","address":"東京都国立市富士見台4丁目17","lat":35.685562,"lon":139.42999}]}