{"keyword":"構築","data":[{"name":"福祉センター前","province":"東京都","city":"国立市","address":"東京都国立市富士見台1丁目7-1","lat":35.68457064,"lon":139.44888498},{"name":"富士見台第一団地","province":"東京都","city":"国立市","address":"東京都国立市富士見台1丁目12","lat":35.68318466,"lon":139.44756847},{"name":"国立市民総合体育館前","province":"東京都","city":"国立市","address":"東京都国立市富士見台2丁目48","lat":35.68475647,"lon":139.4401274},{"name":"国立富士見通り入口","province":"東京都","city":"国立市","address":"東京都国立市中1丁目9-52","lat":35.69809405,"lon":139.44623194},{"name":"国立旭通り入口","province":"東京都","city":"国立市","address":"東京都国立市東1丁目6-25","lat":35.69813573,"lon":139.44703465},{"name":"国立高校西","province":"東京都","city":"国立市","address":"東京都国立市富士見台2丁目1-1","lat":35.68666756,"lon":139.44659622},{"name":"国立駅交番前","province":"東京都","city":"国立市","address":"東京都国立市東1丁目4-13","lat":35.69882455,"lon":139.44735126},{"name":"谷保第三公園北","province":"東京都","city":"国立市","address":"東京都国立市富士見台2丁目33-1","lat":35.68590649,"lon":139.44506304},{"name":"国立駅南口西","province":"東京都","city":"国立市","address":"東京都国立市中1丁目8-43","lat":35.69879952,"lon":139.44602083},{"name":"谷保浄水所","province":"東京都","city":"国立市","address":"東京都国立市谷保1462-1","lat":35.67798226,"lon":139.44087203},{"name":"一橋大学グラウンド","province":"東京都","city":"国立市","address":"国立市中2-1","lat":35.69427,"lon":139.4426},{"name":"福祉センター前","province":"東京都","city":"国立市","address":"東京都国立市富士見台1丁目7-1","lat":35.68457064,"lon":139.44888498},{"name":"富士見台第一団地","province":"東京都","city":"国立市","address":"東京都国立市富士見台1丁目12","lat":35.68318466,"lon":139.44756847},{"name":"国立市民総合体育館前","province":"東京都","city":"国立市","address":"東京都国立市富士見台2丁目48","lat":35.68475647,"lon":139.4401274},{"name":"国立富士見通り入口","province":"東京都","city":"国立市","address":"東京都国立市中1丁目9-52","lat":35.69809405,"lon":139.44623194},{"name":"国立旭通り入口","province":"東京都","city":"国立市","address":"東京都国立市東1丁目6-25","lat":35.69813573,"lon":139.44703465},{"name":"国立高校西","province":"東京都","city":"国立市","address":"東京都国立市富士見台2丁目1-1","lat":35.68666756,"lon":139.44659622},{"name":"国立駅交番前","province":"東京都","city":"国立市","address":"東京都国立市東1丁目4-13","lat":35.69882455,"lon":139.44735126},{"name":"谷保第三公園北","province":"東京都","city":"国立市","address":"東京都国立市富士見台2丁目33-1","lat":35.68590649,"lon":139.44506304},{"name":"国立駅南口西","province":"東京都","city":"国立市","address":"東京都国立市中1丁目8-43","lat":35.69879952,"lon":139.44602083},{"name":"谷保浄水所","province":"東京都","city":"国立市","address":"東京都国立市谷保1462-1","lat":35.67798226,"lon":139.44087203},{"name":"福祉センター前","province":"東京都","city":"国立市","address":"東京都国立市富士見台1丁目7-1","lat":35.68457064,"lon":139.44888498},{"name":"富士見台第一団地","province":"東京都","city":"国立市","address":"東京都国立市富士見台1丁目12","lat":35.68318466,"lon":139.44756847},{"name":"国立市民総合体育館前","province":"東京都","city":"国立市","address":"東京都国立市富士見台2丁目48","lat":35.68475647,"lon":139.4401274},{"name":"国立富士見通り入口","province":"東京都","city":"国立市","address":"東京都国立市中1丁目9-52","lat":35.69809405,"lon":139.44623194},{"name":"国立旭通り入口","province":"東京都","city":"国立市","address":"東京都国立市東1丁目6-25","lat":35.69813573,"lon":139.44703465},{"name":"国立高校西","province":"東京都","city":"国立市","address":"東京都国立市富士見台2丁目1-1","lat":35.68666756,"lon":139.44659622},{"name":"国立駅交番前","province":"東京都","city":"国立市","address":"東京都国立市東1丁目4-13","lat":35.69882455,"lon":139.44735126},{"name":"谷保第三公園北","province":"東京都","city":"国立市","address":"東京都国立市富士見台2丁目33-1","lat":35.68590649,"lon":139.44506304},{"name":"国立駅南口西","province":"東京都","city":"国立市","address":"東京都国立市中1丁目8-43","lat":35.69879952,"lon":139.44602083},{"name":"谷保浄水所","province":"東京都","city":"国立市","address":"東京都国立市谷保1462-1","lat":35.67798226,"lon":139.44087203},{"name":"福祉センター前","province":"東京都","city":"国立市","address":"東京都国立市富士見台1丁目7-1","lat":35.68457064,"lon":139.44888498},{"name":"富士見台第一団地","province":"東京都","city":"国立市","address":"東京都国立市富士見台1丁目12","lat":35.68318466,"lon":139.44756847},{"name":"国立市民総合体育館前","province":"東京都","city":"国立市","address":"東京都国立市富士見台2丁目48","lat":35.68475647,"lon":139.4401274},{"name":"国立富士見通り入口","province":"東京都","city":"国立市","address":"東京都国立市中1丁目9-52","lat":35.69809405,"lon":139.44623194},{"name":"国立旭通り入口","province":"東京都","city":"国立市","address":"東京都国立市東1丁目6-25","lat":35.69813573,"lon":139.44703465},{"name":"国立高校西","province":"東京都","city":"国立市","address":"東京都国立市富士見台2丁目1-1","lat":35.68666756,"lon":139.44659622},{"name":"国立駅交番前","province":"東京都","city":"国立市","address":"東京都国立市東1丁目4-13","lat":35.69882455,"lon":139.44735126},{"name":"谷保第三公園北","province":"東京都","city":"国立市","address":"東京都国立市富士見台2丁目33-1","lat":35.68590649,"lon":139.44506304},{"name":"国立駅南口西","province":"東京都","city":"国立市","address":"東京都国立市中1丁目8-43","lat":35.69879952,"lon":139.44602083},{"name":"谷保浄水所","province":"東京都","city":"国立市","address":"東京都国立市谷保1462-1","lat":35.67798226,"lon":139.44087203},{"name":"福祉センター前","province":"東京都","city":"国立市","address":"東京都国立市富士見台1丁目7-1","lat":35.68457064,"lon":139.44888498},{"name":"富士見台第一団地","province":"東京都","city":"国立市","address":"東京都国立市富士見台1丁目12","lat":35.68318466,"lon":139.44756847},{"name":"国立市民総合体育館前","province":"東京都","city":"国立市","address":"東京都国立市富士見台2丁目48","lat":35.68475647,"lon":139.4401274},{"name":"国立富士見通り入口","province":"東京都","city":"国立市","address":"東京都国立市中1丁目9-52","lat":35.69809405,"lon":139.44623194},{"name":"国立旭通り入口","province":"東京都","city":"国立市","address":"東京都国立市東1丁目6-25","lat":35.69813573,"lon":139.44703465},{"name":"国立高校西","province":"東京都","city":"国立市","address":"東京都国立市富士見台2丁目1-1","lat":35.68666756,"lon":139.44659622},{"name":"国立駅交番前","province":"東京都","city":"国立市","address":"東京都国立市東1丁目4-13","lat":35.69882455,"lon":139.44735126},{"name":"谷保第三公園北","province":"東京都","city":"国立市","address":"東京都国立市富士見台2丁目33-1","lat":35.68590649,"lon":139.44506304},{"name":"国立駅南口西","province":"東京都","city":"国立市","address":"東京都国立市中1丁目8-43","lat":35.69879952,"lon":139.44602083},{"name":"谷保浄水所","province":"東京都","city":"国立市","address":"東京都国立市谷保1462-1","lat":35.67798226,"lon":139.44087203},{"name":"福祉センター前","province":"東京都","city":"国立市","address":"東京都国立市富士見台1丁目7-1","lat":35.68457064,"lon":139.44888498},{"name":"富士見台第一団地","province":"東京都","city":"国立市","address":"東京都国立市富士見台1丁目12","lat":35.68318466,"lon":139.44756847},{"name":"国立市民総合体育館前","province":"東京都","city":"国立市","address":"東京都国立市富士見台2丁目48","lat":35.68475647,"lon":139.4401274},{"name":"国立富士見通り入口","province":"東京都","city":"国立市","address":"東京都国立市中1丁目9-52","lat":35.69809405,"lon":139.44623194},{"name":"国立旭通り入口","province":"東京都","city":"国立市","address":"東京都国立市東1丁目6-25","lat":35.69813573,"lon":139.44703465},{"name":"国立高校西","province":"東京都","city":"国立市","address":"東京都国立市富士見台2丁目1-1","lat":35.68666756,"lon":139.44659622},{"name":"国立駅交番前","province":"東京都","city":"国立市","address":"東京都国立市東1丁目4-13","lat":35.69882455,"lon":139.44735126},{"name":"谷保第三公園北","province":"東京都","city":"国立市","address":"東京都国立市富士見台2丁目33-1","lat":35.68590649,"lon":139.44506304},{"name":"国立駅南口西","province":"東京都","city":"国立市","address":"東京都国立市中1丁目8-43","lat":35.69879952,"lon":139.44602083},{"name":"谷保浄水所","province":"東京都","city":"国立市","address":"東京都国立市谷保1462-1","lat":35.67798226,"lon":139.44087203},{"name":"福祉センター前","province":"東京都","city":"国立市","address":"東京都国立市富士見台1丁目7-1","lat":35.68457064,"lon":139.44888498},{"name":"富士見台第一団地","province":"東京都","city":"国立市","address":"東京都国立市富士見台1丁目12","lat":35.68318466,"lon":139.44756847},{"name":"国立市民総合体育館前","province":"東京都","city":"国立市","address":"東京都国立市富士見台2丁目48","lat":35.68475647,"lon":139.4401274},{"name":"国立富士見通り入口","province":"東京都","city":"国立市","address":"東京都国立市中1丁目9-52","lat":35.69809405,"lon":139.44623194},{"name":"国立旭通り入口","province":"東京都","city":"国立市","address":"東京都国立市東1丁目6-25","lat":35.69813573,"lon":139.44703465},{"name":"国立高校西","province":"東京都","city":"国立市","address":"東京都国立市富士見台2丁目1-1","lat":35.68666756,"lon":139.44659622},{"name":"国立駅交番前","province":"東京都","city":"国立市","address":"東京都国立市東1丁目4-13","lat":35.69882455,"lon":139.44735126},{"name":"谷保第三公園北","province":"東京都","city":"国立市","address":"東京都国立市富士見台2丁目33-1","lat":35.68590649,"lon":139.44506304},{"name":"国立駅南口西","province":"東京都","city":"国立市","address":"東京都国立市中1丁目8-43","lat":35.69879952,"lon":139.44602083},{"name":"谷保浄水所","province":"東京都","city":"国立市","address":"東京都国立市谷保1462-1","lat":35.67798226,"lon":139.44087203},{"name":"福祉センター前","province":"東京都","city":"国立市","address":"東京都国立市富士見台1丁目7-1","lat":35.68457064,"lon":139.44888498},{"name":"富士見台第一団地","province":"東京都","city":"国立市","address":"東京都国立市富士見台1丁目12","lat":35.68318466,"lon":139.44756847},{"name":"国立市民総合体育館前","province":"東京都","city":"国立市","address":"東京都国立市富士見台2丁目48","lat":35.68475647,"lon":139.4401274},{"name":"国立富士見通り入口","province":"東京都","city":"国立市","address":"東京都国立市中1丁目9-52","lat":35.69809405,"lon":139.44623194},{"name":"国立旭通り入口","province":"東京都","city":"国立市","address":"東京都国立市東1丁目6-25","lat":35.69813573,"lon":139.44703465},{"name":"国立高校西","province":"東京都","city":"国立市","address":"東京都国立市富士見台2丁目1-1","lat":35.68666756,"lon":139.44659622},{"name":"国立駅交番前","province":"東京都","city":"国立市","address":"東京都国立市東1丁目4-13","lat":35.69882455,"lon":139.44735126},{"name":"谷保第三公園北","province":"東京都","city":"国立市","address":"東京都国立市富士見台2丁目33-1","lat":35.68590649,"lon":139.44506304},{"name":"国立駅南口西","province":"東京都","city":"国立市","address":"東京都国立市中1丁目8-43","lat":35.69879952,"lon":139.44602083},{"name":"谷保浄水所","province":"東京都","city":"国立市","address":"東京都国立市谷保1462-1","lat":35.67798226,"lon":139.44087203},{"name":"福祉センター前","province":"東京都","city":"国立市","address":"東京都国立市富士見台1丁目7-1","lat":35.68457064,"lon":139.44888498},{"name":"富士見台第一団地","province":"東京都","city":"国立市","address":"東京都国立市富士見台1丁目12","lat":35.68318466,"lon":139.44756847},{"name":"国立市民総合体育館前","province":"東京都","city":"国立市","address":"東京都国立市富士見台2丁目48","lat":35.68475647,"lon":139.4401274},{"name":"国立富士見通り入口","province":"東京都","city":"国立市","address":"東京都国立市中1丁目9-52","lat":35.69809405,"lon":139.44623194},{"name":"国立旭通り入口","province":"東京都","city":"国立市","address":"東京都国立市東1丁目6-25","lat":35.69813573,"lon":139.44703465},{"name":"国立高校西","province":"東京都","city":"国立市","address":"東京都国立市富士見台2丁目1-1","lat":35.68666756,"lon":139.44659622},{"name":"国立駅交番前","province":"東京都","city":"国立市","address":"東京都国立市東1丁目4-13","lat":35.69882455,"lon":139.44735126},{"name":"谷保第三公園北","province":"東京都","city":"国立市","address":"東京都国立市富士見台2丁目33-1","lat":35.68590649,"lon":139.44506304},{"name":"国立駅南口西","province":"東京都","city":"国立市","address":"東京都国立市中1丁目8-43","lat":35.69879952,"lon":139.44602083},{"name":"谷保浄水所","province":"東京都","city":"国立市","address":"東京都国立市谷保1462-1","lat":35.67798226,"lon":139.44087203},{"name":"福祉センター前","province":"東京都","city":"国立市","address":"東京都国立市富士見台1丁目7-1","lat":35.68457064,"lon":139.44888498},{"name":"富士見台第一団地","province":"東京都","city":"国立市","address":"東京都国立市富士見台1丁目12","lat":35.68318466,"lon":139.44756847},{"name":"国立市民総合体育館前","province":"東京都","city":"国立市","address":"東京都国立市富士見台2丁目48","lat":35.68475647,"lon":139.4401274},{"name":"国立富士見通り入口","province":"東京都","city":"国立市","address":"東京都国立市中1丁目9-52","lat":35.69809405,"lon":139.44623194},{"name":"国立旭通り入口","province":"東京都","city":"国立市","address":"東京都国立市東1丁目6-25","lat":35.69813573,"lon":139.44703465},{"name":"国立高校西","province":"東京都","city":"国立市","address":"東京都国立市富士見台2丁目1-1","lat":35.68666756,"lon":139.44659622},{"name":"国立駅交番前","province":"東京都","city":"国立市","address":"東京都国立市東1丁目4-13","lat":35.69882455,"lon":139.44735126},{"name":"谷保第三公園北","province":"東京都","city":"国立市","address":"東京都国立市富士見台2丁目33-1","lat":35.68590649,"lon":139.44506304},{"name":"国立駅南口西","province":"東京都","city":"国立市","address":"東京都国立市中1丁目8-43","lat":35.69879952,"lon":139.44602083},{"name":"谷保浄水所","province":"東京都","city":"国立市","address":"東京都国立市谷保1462-1","lat":35.67798226,"lon":139.44087203},{"name":"福祉センター前","province":"東京都","city":"国立市","address":"東京都国立市富士見台1丁目7-1","lat":35.68457064,"lon":139.44888498},{"name":"富士見台第一団地","province":"東京都","city":"国立市","address":"東京都国立市富士見台1丁目12","lat":35.68318466,"lon":139.44756847},{"name":"国立市民総合体育館前","province":"東京都","city":"国立市","address":"東京都国立市富士見台2丁目48","lat":35.68475647,"lon":139.4401274},{"name":"国立富士見通り入口","province":"東京都","city":"国立市","address":"東京都国立市中1丁目9-52","lat":35.69809405,"lon":139.44623194},{"name":"国立旭通り入口","province":"東京都","city":"国立市","address":"東京都国立市東1丁目6-25","lat":35.69813573,"lon":139.44703465},{"name":"国立高校西","province":"東京都","city":"国立市","address":"東京都国立市富士見台2丁目1-1","lat":35.68666756,"lon":139.44659622},{"name":"国立駅交番前","province":"東京都","city":"国立市","address":"東京都国立市東1丁目4-13","lat":35.69882455,"lon":139.44735126},{"name":"谷保第三公園北","province":"東京都","city":"国立市","address":"東京都国立市富士見台2丁目33-1","lat":35.68590649,"lon":139.44506304},{"name":"国立駅南口西","province":"東京都","city":"国立市","address":"東京都国立市中1丁目8-43","lat":35.69879952,"lon":139.44602083},{"name":"谷保浄水所","province":"東京都","city":"国立市","address":"東京都国立市谷保1462-1","lat":35.67798226,"lon":139.44087203},{"name":"福祉センター前","province":"東京都","city":"国立市","address":"東京都国立市富士見台1丁目7-1","lat":35.68457064,"lon":139.44888498},{"name":"富士見台第一団地","province":"東京都","city":"国立市","address":"東京都国立市富士見台1丁目12","lat":35.68318466,"lon":139.44756847},{"name":"国立市民総合体育館前","province":"東京都","city":"国立市","address":"東京都国立市富士見台2丁目48","lat":35.68475647,"lon":139.4401274},{"name":"国立富士見通り入口","province":"東京都","city":"国立市","address":"東京都国立市中1丁目9-52","lat":35.69809405,"lon":139.44623194},{"name":"国立旭通り入口","province":"東京都","city":"国立市","address":"東京都国立市東1丁目6-25","lat":35.69813573,"lon":139.44703465},{"name":"国立高校西","province":"東京都","city":"国立市","address":"東京都国立市富士見台2丁目1-1","lat":35.68666756,"lon":139.44659622},{"name":"国立駅交番前","province":"東京都","city":"国立市","address":"東京都国立市東1丁目4-13","lat":35.69882455,"lon":139.44735126},{"name":"谷保第三公園北","province":"東京都","city":"国立市","address":"東京都国立市富士見台2丁目33-1","lat":35.68590649,"lon":139.44506304},{"name":"国立駅南口西","province":"東京都","city":"国立市","address":"東京都国立市中1丁目8-43","lat":35.69879952,"lon":139.44602083},{"name":"谷保浄水所","province":"東京都","city":"国立市","address":"東京都国立市谷保1462-1","lat":35.67798226,"lon":139.44087203},{"name":"福祉センター前","province":"東京都","city":"国立市","address":"東京都国立市富士見台1丁目7-1","lat":35.68457064,"lon":139.44888498},{"name":"富士見台第一団地","province":"東京都","city":"国立市","address":"東京都国立市富士見台1丁目12","lat":35.68318466,"lon":139.44756847},{"name":"国立市民総合体育館前","province":"東京都","city":"国立市","address":"東京都国立市富士見台2丁目48","lat":35.68475647,"lon":139.4401274},{"name":"国立富士見通り入口","province":"東京都","city":"国立市","address":"東京都国立市中1丁目9-52","lat":35.69809405,"lon":139.44623194},{"name":"国立旭通り入口","province":"東京都","city":"国立市","address":"東京都国立市東1丁目6-25","lat":35.69813573,"lon":139.44703465},{"name":"国立高校西","province":"東京都","city":"国立市","address":"東京都国立市富士見台2丁目1-1","lat":35.68666756,"lon":139.44659622},{"name":"国立駅交番前","province":"東京都","city":"国立市","address":"東京都国立市東1丁目4-13","lat":35.69882455,"lon":139.44735126},{"name":"谷保第三公園北","province":"東京都","city":"国立市","address":"東京都国立市富士見台2丁目33-1","lat":35.68590649,"lon":139.44506304},{"name":"国立駅南口西","province":"東京都","city":"国立市","address":"東京都国立市中1丁目8-43","lat":35.69879952,"lon":139.44602083},{"name":"谷保浄水所","province":"東京都","city":"国立市","address":"東京都国立市谷保1462-1","lat":35.67798226,"lon":139.44087203}]}