{"keyword":"男女","data":[{"name":"国立保育園","province":"東京都","city":"国立市","address":"国立市北2丁目30番の1","lat":35.701074,"lon":139.435138},{"name":"北保育園","province":"東京都","city":"国立市","address":"国立市北3丁目1番地の1","lat":35.699366,"lon":139.43275},{"name":"きたひだまり保育園","province":"東京都","city":"国立市","address":"国立市北3-42-1","lat":35.69883,"lon":139.433997},{"name":"和光保育園","province":"東京都","city":"国立市","address":"国立市東2丁目2番地の1","lat":35.695653,"lon":139.451262},{"name":"あいわ保育園","province":"東京都","city":"国立市","address":"国立市東2丁目25番地の1","lat":35.690973,"lon":139.448324},{"name":"国立市立東保育園","province":"東京都","city":"国立市","address":"国立市富士見台1丁目45番地の17","lat":35.681715,"lon":139.451499},{"name":"こぐまこどものいえ","province":"東京都","city":"国立市","address":"国立市富士見台3丁目35番地の15","lat":35.685117,"lon":139.433947},{"name":"国立たいよう保育園","province":"東京都","city":"国立市","address":"国立市富士見台2-13-10","lat":35.683321,"lon":139.446255},{"name":"春光保育園","province":"東京都","city":"国立市","address":"国立市西2丁目14番地の1","lat":35.694244,"lon":139.433522},{"name":"国立市立矢川保育園","province":"東京都","city":"国立市","address":"国立市谷保6800番地の2","lat":35.683423,"lon":139.429439},{"name":"向陽保育園","province":"東京都","city":"国立市","address":"国立市谷保6746番地","lat":35.685112,"lon":139.428828},{"name":"国立あゆみ保育園","province":"東京都","city":"国立市","address":"国立市谷保6286番地の2","lat":35.681634,"lon":139.430334},{"name":"国立あおいとり保育園","province":"東京都","city":"国立市","address":"国立市泉5丁目2番地の1","lat":35.679279,"lon":139.428304},{"name":"ハッピーテラス国立駅前","province":"東京都","city":"国立市","address":"国立市北1-5-8プラース壱番館2階店舗E","lat":35.699974,"lon":139.44686},{"name":"メリーランド","province":"東京都","city":"国立市","address":"国立市北3丁目40番3号","lat":35.699296,"lon":139.42842},{"name":"ＴＡＳＵＣ国立教室","province":"東京都","city":"国立市","address":"国立市東1-4-9ザ・ダイマス5階","lat":35.698436,"lon":139.447246},{"name":"ドリームボックス国立","province":"東京都","city":"国立市","address":"国立市東3丁目6-15エスポワール国立1階","lat":35.69452,"lon":139.452645},{"name":"東京ＹＭＣＡさくら国立","province":"東京都","city":"国立市","address":"国立市東1-4-20-102","lat":35.698813,"lon":139.448496},{"name":"ハイビスカス","province":"東京都","city":"国立市","address":"国立市富士見台4-10-6","lat":35.685859,"lon":139.431484},{"name":"くじらっこ","province":"東京都","city":"国立市","address":"国立市富士見台2-3-2メゾンエクセル1F","lat":35.685759,"lon":139.446402},{"name":"放課後等デイサービス　バモノス","province":"東京都","city":"国立市","address":"国立市富士見台1-7-1-1-114","lat":35.684604,"lon":139.448785},{"name":"放課後等デイサービスいもむしクラブ","province":"東京都","city":"国立市","address":"国立市富士見台1-17-29アップスタイルビルI2階","lat":35.681274,"lon":139.448041},{"name":"ハッピー・テラス国立","province":"東京都","city":"国立市","address":"国立市中2-3-66タキイシビル1階","lat":35.695494,"lon":139.439913},{"name":"滝乃川学園　放課後等デイサービス","province":"東京都","city":"国立市","address":"国立市谷保6312","lat":35.680959,"lon":139.429501},{"name":"スマイルともにー","province":"東京都","city":"国立市","address":"国立市泉5-20-4","lat":35.677954,"lon":139.43815},{"name":"滝乃川学園成人部","province":"東京都","city":"国立市","address":"国立市谷保6312","lat":35.680959,"lon":139.429501},{"name":"わかばの家","province":"東京都","city":"国立市","address":"国立市谷保3140","lat":35.676701,"lon":139.428187},{"name":"さくら国立ハウス","province":"東京都","city":"国立市","address":"国立市富士見台3-8-15","lat":35.685923,"lon":139.43753},{"name":"国立市保健センター","province":"東京都","city":"国立市","address":"国立市富士見台3-16-5","lat":35.686095,"lon":139.436547},{"name":"国立市保健センター（分室）","province":"東京都","city":"国立市","address":"国立市富士見台3-21-1","lat":35.685859,"lon":139.435872},{"name":"さくら国立ハウス","province":"東京都","city":"国立市","address":"国立市富士見台3-8-15","lat":35.68604,"lon":139.43806},{"name":"東京都多摩障害者スポーツセンター","province":"東京都","city":"国立市","address":"東京都国立市富士見台2丁目1-1","lat":35.686247,"lon":139.446278},{"name":"東京都多摩障害者スポーツセンター","province":"東京都","city":"国立市","address":"東京都国立市富士見台2丁目1-1","lat":35.686764,"lon":139.446677},{"name":"東京都多摩障害者スポーツセンター","province":"東京都","city":"国立市","address":"東京都国立市富士見台2丁目1-1","lat":35.686789,"lon":139.446686},{"name":"東京都多摩障害者スポーツセンター","province":"東京都","city":"国立市","address":"東京都国立市富士見台2丁目1","lat":35.6871,"lon":139.446817},{"name":"東京都多摩障害者スポーツセンター","province":"東京都","city":"国立市","address":"東京都国立市富士見台2丁目1","lat":35.687081,"lon":139.446839},{"name":"東京都多摩障害者スポーツセンター","province":"東京都","city":"国立市","address":"東京都国立市富士見台2丁目1-1","lat":35.686453,"lon":139.44649},{"name":"東京都多摩障害者スポーツセンター","province":"東京都","city":"国立市","address":"東京都国立市富士見台2丁目1","lat":35.687121,"lon":139.44682},{"name":"東京都多摩障害者スポーツセンター","province":"東京都","city":"国立市","address":"東京都国立市富士見台2丁目1","lat":35.68703,"lon":139.446857},{"name":"東京都多摩障害者スポーツセンター","province":"東京都","city":"国立市","address":"東京都国立市富士見台2丁目1","lat":35.687002,"lon":139.446868},{"name":"東京都国立市役所本庁舎","province":"東京都","city":"国立市","address":"東京都国立市富士見台2丁目47-1","lat":35.683961,"lon":139.441276},{"name":"国立市公民館","province":"東京都","city":"国立市","address":"東京都国立市中1丁目15-1","lat":35.696886,"lon":139.443412},{"name":"国立市公民館","province":"東京都","city":"国立市","address":"東京都国立市中1丁目15-1","lat":35.696946,"lon":139.443476},{"name":"国立駅前くにたち・こくぶんじ市民プラザ","province":"東京都","city":"国立市","address":"東京都国立市北1丁目14","lat":35.699414,"lon":139.446903},{"name":"谷保東集会所","province":"東京都","city":"国立市","address":"東京都国立市谷保7丁目17-1","lat":35.673123,"lon":139.450665},{"name":"富士見台一丁目集会所","province":"東京都","city":"国立市","address":"東京都国立市富士見台1丁目8-4","lat":35.683369,"lon":139.448196},{"name":"富士見台二丁目集会所","province":"東京都","city":"国立市","address":"東京都国立市富士見台2丁目32","lat":35.684852,"lon":139.4449},{"name":"南市民プラザ","province":"東京都","city":"国立市","address":"東京都国立市泉2丁目3-2","lat":35.674485,"lon":139.430718},{"name":"北市民プラザ","province":"東京都","city":"国立市","address":"東京都国立市北3丁目1-1","lat":35.699259,"lon":139.432646},{"name":"国立市保健センター","province":"東京都","city":"国立市","address":"東京都国立市富士見台3丁目16-5","lat":35.686132,"lon":139.436594},{"name":"くにたち中央図書館","province":"東京都","city":"国立市","address":"東京都国立市富士見台2丁目34","lat":35.685209,"lon":139.444375},{"name":"くにたち郷土文化館","province":"東京都","city":"国立市","address":"東京都国立市谷保","lat":35.679418,"lon":139.43254},{"name":"城山さとのいえ","province":"東京都","city":"国立市","address":"東京都国立市泉5丁目21-20","lat":35.67842,"lon":139.437141},{"name":"くにたち市民総合体育館","province":"東京都","city":"国立市","address":"東京都国立市富士見台2丁目48-1","lat":35.685267,"lon":139.440377},{"name":"くにたち市民総合体育館","province":"東京都","city":"国立市","address":"東京都国立市富士見台2丁目48-1","lat":35.684794,"lon":139.440536},{"name":"くにたち市民総合体育館","province":"東京都","city":"国立市","address":"東京都国立市富士見台2丁目48-1","lat":35.685075,"lon":139.440286},{"name":"くにたち市民芸術小ホール","province":"東京都","city":"国立市","address":"東京都国立市富士見台2丁目48-1","lat":35.685222,"lon":139.44001},{"name":"南区公会堂","province":"東京都","city":"国立市","address":"東京都国立市泉3丁目29","lat":35.676222,"lon":139.427596},{"name":"谷保第三公園","province":"東京都","city":"国立市","address":"東京都国立市富士見台2丁目34","lat":35.685854,"lon":139.444276},{"name":"谷保第四公園","province":"東京都","city":"国立市","address":"東京都国立市富士見台2丁目49","lat":35.684233,"lon":139.439879},{"name":"矢川上公園","province":"東京都","city":"国立市","address":"東京都国立市富士見台4丁目4","lat":35.687731,"lon":139.432136},{"name":"矢川いこいの広場","province":"東京都","city":"国立市","address":"東京都国立市青柳1丁目18","lat":35.684864,"lon":139.426531},{"name":"北第一公園","province":"東京都","city":"国立市","address":"東京都国立市北3丁目8","lat":35.699888,"lon":139.431331},{"name":"泉第二遊園","province":"東京都","city":"国立市","address":"東京都国立市泉2丁目3","lat":35.673523,"lon":139.431583},{"name":"寺之下親水公園","province":"東京都","city":"国立市","address":"東京都国立市泉4丁目9","lat":35.676521,"lon":139.431772},{"name":"流域下水道処理場広場","province":"東京都","city":"国立市","address":"東京都国立市泉1丁目24","lat":35.673624,"lon":139.434439},{"name":"城山公園","province":"東京都","city":"国立市","address":"東京都国立市泉5丁目21","lat":35.678367,"lon":139.438367},{"name":"くにたち福祉会館","province":"東京都","city":"国立市","address":"東京都国立市富士見台2丁目38-5","lat":35.687558,"lon":139.444551},{"name":"くにたち福祉会館","province":"東京都","city":"国立市","address":"東京都国立市富士見台2丁目38-5","lat":35.687417,"lon":139.444545},{"name":"国立市子ども家庭支援センター（保健センター分室）","province":"東京都","city":"国立市","address":"東京都国立市富士見台3丁目21-1","lat":35.685826,"lon":139.435893},{"name":"国立市西児童館","province":"東京都","city":"国立市","address":"東京都国立市西1丁目12-26","lat":35.69696,"lon":139.433195},{"name":"東福祉館","province":"東京都","city":"国立市","address":"東京都国立市東3丁目18-32","lat":35.691451,"lon":139.454849},{"name":"西福祉館","province":"東京都","city":"国立市","address":"東京都国立市西2丁目17-32","lat":35.693903,"lon":139.432083},{"name":"北福祉館","province":"東京都","city":"国立市","address":"東京都国立市北2丁目19-1","lat":35.700633,"lon":139.437426},{"name":"くにたち立東福祉館","province":"東京都","city":"国立市","address":"東京都国立市北3丁目23-1","lat":35.701017,"lon":139.430281},{"name":"青柳福祉センター","province":"東京都","city":"国立市","address":"東京都国立市青柳2丁目8-60","lat":35.683236,"lon":139.423491},{"name":"中地域防災センター","province":"東京都","city":"国立市","address":"東京都国立市中2丁目10-7","lat":35.692722,"lon":139.439287},{"name":"東地域防災センター","province":"東京都","city":"国立市","address":"東京都国立市東1丁目13","lat":35.697329,"lon":139.450023},{"name":"富士見台地域防災センター","province":"東京都","city":"国立市","address":"東京都国立市富士見台3丁目13-5","lat":35.687846,"lon":139.436762},{"name":"くにたち未来共創拠点矢川プラス","province":"東京都","city":"国立市","address":"東京都国立市富士見台4丁目17","lat":35.6855903,"lon":139.429893},{"name":"くにたち未来共創拠点矢川プラス","province":"東京都","city":"国立市","address":"東京都国立市富士見台4丁目17","lat":35.685562,"lon":139.42999},{"name":"伊藤単朴墓","province":"東京都","city":"国立市","address":"東京都国立市青柳355","lat":35.686214,"lon":139.424643},{"name":"くにたち中央図書館","province":"東京都","city":"国立市","address":"東京都国立市富士見台2丁目34","lat":35.68558704,"lon":139.44378816},{"name":"くにたち北市民プラザ図書館","province":"東京都","city":"国立市","address":"東京都国立市北3丁目1-1","lat":35.69934348,"lon":139.43274974},{"name":"おいでよ。ごはんや","province":"東京都","city":"国立市","address":"東京都国立市富士見台1-17-8","lat":35.68161091,"lon":139.4472612},{"name":"カサムシカ子ども食堂","province":"東京都","city":"国立市","address":"東京都国立市中3-5-60","lat":35.68929325,"lon":139.4424981},{"name":"たまご（多孫・他孫）食堂","province":"東京都","city":"国立市","address":"東京都国立市中2-10-7","lat":35.69293411,"lon":139.4394076},{"name":"おいしいじかん","province":"東京都","city":"国立市","address":"東京都国立市富士見台2-39-1","lat":35.68761301,"lon":139.4438361},{"name":"きたまち学☆食","province":"東京都","city":"国立市","address":"東京都国立市北3-23-1","lat":35.70110454,"lon":139.4303275},{"name":"OSUSOWAKE食堂","province":"東京都","city":"国立市","address":"東京都国立市東3-18-32","lat":35.69164296,"lon":139.4547772},{"name":"ぐるぐる食堂","province":"東京都","city":"国立市","address":"東京都国立市富士見台1-8-38","lat":35.68347175,"lon":139.4490542},{"name":"ラグー","province":"東京都","city":"国立市","address":"東京都国立市中1-15-6","lat":35.69682087,"lon":139.4430095},{"name":"SOMPO流子ども食堂","province":"東京都","city":"国立市","address":"東京都国立市青柳1-21-14","lat":35.68362927,"lon":139.4256635},{"name":"くにちゃん食堂","province":"東京都","city":"国立市","address":"東京都国立市富士見台4-10-1","lat":35.68579502,"lon":139.4318817},{"name":"矢川の子がも食堂","province":"東京都","city":"国立市","address":"東京都国立市富士見台4-17-65","lat":35.68549131,"lon":139.4300278},{"name":"H1T国立","province":"東京都","city":"国立市","address":"東京都国立市東1丁目4-8","lat":35.69829961,"lon":139.44721796},{"name":"国立中給水所","province":"東京都","city":"国立市","address":"東京都国立市中3-8-1","lat":35.688163,"lon":139.442608},{"name":"谷保給水所","province":"東京都","city":"国立市","address":"東京都国立市谷保1462-1","lat":35.6779939,"lon":139.440914},{"name":"国立保育園","province":"東京都","city":"国立市","address":"国立市北2丁目30番の1","lat":35.70104,"lon":139.43452},{"name":"きたひだまり保育園","province":"東京都","city":"国立市","address":"国立市北3-42-1","lat":35.70153,"lon":139.4296},{"name":"国立ひまわり保育園","province":"東京都","city":"国立市","address":"国立市北3-7-14","lat":35.6993,"lon":139.43045},{"name":"北保育園","province":"東京都","city":"国立市","address":"国立市北3丁目1番地の1","lat":35.69912,"lon":139.43164},{"name":"あいわ保育園","province":"東京都","city":"国立市","address":"国立市東2丁目25番地の1","lat":35.69101,"lon":139.44786},{"name":"和光保育園","province":"東京都","city":"国立市","address":"国立市東2丁目2番地の1","lat":35.69591,"lon":139.45076},{"name":"国立市立東保育園","province":"東京都","city":"国立市","address":"国立市富士見台1丁目45番地の17","lat":35.68218,"lon":139.4512},{"name":"国立たいよう保育園","province":"東京都","city":"国立市","address":"国立市富士見台2-13-10","lat":35.68321,"lon":139.44632},{"name":"国立市立なかよし保育園","province":"東京都","city":"国立市","address":"国立市富士見台2丁目46番地","lat":35.68516,"lon":139.44183},{"name":"認定こども園国立富士見台団地風の子","province":"東京都","city":"国立市","address":"国立市富士見台3-7-1","lat":35.6849204,"lon":139.4395509},{"name":"こぐまこどものいえ","province":"東京都","city":"国立市","address":"国立市富士見台3丁目35番地の15","lat":35.68515,"lon":139.43356},{"name":"国立市立西保育園","province":"東京都","city":"国立市","address":"国立市富士見台3丁目45番地の1","lat":35.68905,"lon":139.4342},{"name":"矢川保育園","province":"東京都","city":"国立市","address":"国立市富士見台4丁目17番地の64","lat":35.68743,"lon":139.42685},{"name":"さくらっこ保育園","province":"東京都","city":"国立市","address":"国立市中1-16-25シャトレクインテスビル2F","lat":35.69709,"lon":139.44514},{"name":"国立クムクム保育園","province":"東京都","city":"国立市","address":"国立市中2-18-2","lat":35.69167,"lon":139.44559},{"name":"春光保育園","province":"東京都","city":"国立市","address":"国立市西2丁目14番地の1","lat":35.6943,"lon":139.43251},{"name":"向陽保育園","province":"東京都","city":"国立市","address":"国立市谷保6746番地","lat":35.68467,"lon":139.42892},{"name":"国立あおいとり保育園","province":"東京都","city":"国立市","address":"国立市泉5丁目2番地の1","lat":35.67921,"lon":139.42873},{"name":"国立あゆみ保育園","province":"東京都","city":"国立市","address":"国立市矢川3丁目20番地の24","lat":35.68165,"lon":139.43045},{"name":"生長の家神の国寮","province":"東京都","city":"国立市","address":"国立市富士見台2-39-1","lat":35.6875,"lon":139.44359},{"name":"国立市","province":"東京都","city":"国立市","address":"国立市富士見台2-47-1","lat":35.68438,"lon":139.44151},{"name":"谷保駅北第６自転車駐車場","province":"東京都","city":"国立市","address":"東京都国立市富士見台2丁目16-1","lat":35.68206253,"lon":139.44658249},{"name":"矢川駅北第１自転車駐車場","province":"東京都","city":"国立市","address":"東京都国立市富士見台4丁目8-17","lat":35.68644215,"lon":139.43225025},{"name":"大学通り自転車駐車場","province":"東京都","city":"国立市","address":"東京都国立市東2丁目29","lat":35.69350291,"lon":139.44685149},{"name":"国立市地域包括支援センター","province":"東京都","city":"国立市","address":"国立市富士見台2-47-1","lat":35.684376,"lon":139.441513},{"name":"地域包括支援センター北窓口","province":"東京都","city":"国立市","address":"国立市北3-2-15号棟1階","lat":35.700085,"lon":139.432373},{"name":"地域包括支援センター福祉会館窓口","province":"東京都","city":"国立市","address":"国立市富士見台2-38-5","lat":35.687355,"lon":139.444839},{"name":"地域包括支援センター泉窓口","province":"東京都","city":"国立市","address":"国立市泉3-1-6","lat":35.680405,"lon":139.42598},{"name":"国立市消費生活センター","province":"東京都","city":"国立市","address":"国立市富士見台2-47-1","lat":35.684376,"lon":139.441513},{"name":"東京都多摩障害者スポーツセンター","province":"東京都","city":"国立市","address":"東京都国立市富士見台2-1-1","lat":35.686681,"lon":139.446549},{"name":"特定非営利活動法人燦福祉作業所天成舎","province":"東京都","city":"国立市","address":"東京都国立市富士見台3丁目33-22","lat":35.68615333,"lon":139.43354459},{"name":"一般社団法人クリエイティブ・ソーシャルワーカーズ・ジャポン レジリエンス","province":"東京都","city":"国立市","address":"東京都国立市中1丁目14-6","lat":35.69708851,"lon":139.44315725},{"name":"一般社団法人一粒福祉会ワークオアシスアレーズまほろば","province":"東京都","city":"国立市","address":"東京都国立市谷保5019-7","lat":35.68132092,"lon":139.4456326},{"name":"株式会社でかぬーて　ふっくりー","province":"東京都","city":"国立市","address":"東京都国立市西2丁目20-8","lat":35.69323593,"lon":139.43574136},{"name":"国立市立矢川保育園","province":"東京都","city":"国立市","address":"国立市谷保6800-2","lat":35.68364,"lon":139.42963},{"name":"国立あゆみ保育園","province":"東京都","city":"国立市","address":"国立市矢川3-20-24","lat":35.68162,"lon":139.430331},{"name":"国立あおいとり保育園","province":"東京都","city":"国立市","address":"国立市泉5-2-1","lat":35.6792,"lon":139.42868},{"name":"生長の家神の国寮","province":"東京都","city":"国立市","address":"国立市富士見台2-39-1","lat":35.687409,"lon":139.443896},{"name":"国立保育園","province":"東京都","city":"国立市","address":"国立市北2-30-1","lat":35.70104,"lon":139.43453},{"name":"さくらっこ保育園","province":"東京都","city":"国立市","address":"国立市中1-16-25シャトレクインテスビル2F","lat":35.69709,"lon":139.44515},{"name":"向陽保育園","province":"東京都","city":"国立市","address":"国立市谷保6746","lat":35.68467,"lon":139.42893},{"name":"さくら国立ハウス","province":"東京都","city":"国立市","address":"国立市富士見台3-8-15","lat":35.68604,"lon":139.43807},{"name":"きたひだまり保育園","province":"東京都","city":"国立市","address":"国立市北3-42-1","lat":35.69912,"lon":139.43164},{"name":"国立あゆみ保育園","province":"東京都","city":"国立市","address":"国立市矢川3丁目20番地の24","lat":35.68147,"lon":139.42723},{"name":"福祉センター前","province":"東京都","city":"国立市","address":"東京都国立市富士見台1丁目7-1","lat":35.68457064,"lon":139.44888498},{"name":"富士見台第一団地","province":"東京都","city":"国立市","address":"東京都国立市富士見台1丁目12","lat":35.68318466,"lon":139.44756847},{"name":"国立市民総合体育館前","province":"東京都","city":"国立市","address":"東京都国立市富士見台2丁目48","lat":35.68475647,"lon":139.4401274},{"name":"国立富士見通り入口","province":"東京都","city":"国立市","address":"東京都国立市中1丁目9-52","lat":35.69809405,"lon":139.44623194},{"name":"国立旭通り入口","province":"東京都","city":"国立市","address":"東京都国立市東1丁目6-25","lat":35.69813573,"lon":139.44703465},{"name":"国立高校西","province":"東京都","city":"国立市","address":"東京都国立市富士見台2丁目1-1","lat":35.68666756,"lon":139.44659622},{"name":"国立駅交番前","province":"東京都","city":"国立市","address":"東京都国立市東1丁目4-13","lat":35.69882455,"lon":139.44735126},{"name":"谷保第三公園北","province":"東京都","city":"国立市","address":"東京都国立市富士見台2丁目33-1","lat":35.68590649,"lon":139.44506304},{"name":"国立駅南口西","province":"東京都","city":"国立市","address":"東京都国立市中1丁目8-43","lat":35.69879952,"lon":139.44602083},{"name":"谷保浄水所","province":"東京都","city":"国立市","address":"東京都国立市谷保1462-1","lat":35.67798226,"lon":139.44087203},{"name":"一橋大学グラウンド","province":"東京都","city":"国立市","address":"東京都国立市中2丁目1","lat":35.69427214,"lon":139.44260462},{"name":"＊?くにたち郷土文化館","province":"東京都","city":"国立市","address":"国立市谷保6231","lat":35.678996,"lon":139.432642},{"name":"＊?国立市古民家","province":"東京都","city":"国立市","address":"国立市谷保1705-1","lat":35.678449,"lon":139.436665},{"name":"(株)田邊商店  国立事業所","province":"東京都","city":"国立市","address":"国立市泉4-7-2","lat":35.677849,"lon":139.430054},{"name":"玉川産業(有)","province":"東京都","city":"国立市","address":"国立市泉2-12-12","lat":35.674381,"lon":139.42923},{"name":"(有)柳産業","province":"東京都","city":"国立市","address":"国立市泉1-14-11","lat":35.672302,"lon":139.439758},{"name":"グリーンリサイクル(株)  国立営業所","province":"東京都","city":"国立市","address":"国立市泉3-31-10","lat":35.676041,"lon":139.429016},{"name":"焼却施設","province":"東京都","city":"国立市","address":"東京都国立市泉1丁目8-3","lat":35.675488,"lon":139.43605},{"name":"焼却施設","province":"東京都","city":"国立市","address":"東京都国立市泉1丁目14","lat":35.672302,"lon":139.439758},{"name":"国立市","province":"東京都","city":"国立市","address":"国立市富士見台2-47-1","lat":35.683912,"lon":139.441366},{"name":"スポーツセンター\"","province":"東京都","city":"国立市","address":"東京都国立市富士見台2丁目1-1","lat":35.68666756,"lon":139.44659622},{"name":"くにたち中央図書館","province":"東京都","city":"国立市","address":"東京都国立市富士見台2丁目34","lat":35.68558704,"lon":139.44378816},{"name":"くにたち福祉会館","province":"東京都","city":"国立市","address":"東京都国立市富士見台2丁目38-5","lat":35.68744796,"lon":139.44467136},{"name":"国立市役所本庁舎","province":"東京都","city":"国立市","address":"東京都国立市富士見台2丁目47-1","lat":35.68391215,"lon":139.44136621},{"name":"くにたち市民芸術小ホール","province":"東京都","city":"国立市","address":"東京都国立市富士見台2丁目48-1","lat":35.68502867,"lon":139.44038015},{"name":"くにたち市民総合体育館","province":"東京都","city":"国立市","address":"東京都国立市富士見台2丁目48-1","lat":35.68502867,"lon":139.44038015},{"name":"国立市公民館","province":"東京都","city":"国立市","address":"東京都国立市中1丁目15-1","lat":35.69689686,"lon":139.44336835},{"name":"体育館","province":"東京都","city":"国立市","address":"国立市富士見台2-1-1","lat":35.686681,"lon":139.446549},{"name":"トレーニング室","province":"東京都","city":"国立市","address":"国立市富士見台2-1-1","lat":35.686681,"lon":139.446549},{"name":"屋内温水プール","province":"東京都","city":"国立市","address":"国立市富士見台2-1-1","lat":35.686681,"lon":139.446549},{"name":"卓球室","province":"東京都","city":"国立市","address":"国立市富士見台2-1-1","lat":35.686681,"lon":139.446549},{"name":"サウンドテーブルテニス室","province":"東京都","city":"国立市","address":"国立市富士見台2-1-1","lat":35.686681,"lon":139.446549},{"name":"健康体力相談室","province":"東京都","city":"国立市","address":"国立市富士見台2-1-1","lat":35.686681,"lon":139.446549},{"name":"東京都多摩障害者スポーツセンター","province":"東京都","city":"国立市","address":"東京都国立市富士見台2丁目1-1","lat":35.68666756,"lon":139.44659622},{"name":"国立高等学校","province":"東京都","city":"国立市","address":"東京都国立市東4丁目25-1","lat":35.68837299,"lon":139.44920148},{"name":"くにたち市民総合体育館","province":"東京都","city":"国立市","address":"東京都国立市富士見台2丁目48","lat":35.68475647,"lon":139.4401274},{"name":"石神集会所","province":"東京都","city":"国立市","address":"東京都国立市谷保7103-2","lat":35.682827,"lon":139.438643},{"name":"東地域防災センター","province":"東京都","city":"国立市","address":"東京都国立市東1-13-13","lat":35.697313,"lon":139.45008},{"name":"国立市本庁舎","province":"東京都","city":"国立市","address":"国立市富士見台2-47-1","lat":35.683913,"lon":139.441366},{"name":"一橋大学グラウンド","province":"東京都","city":"国立市","address":"国立市中2-1","lat":35.69427,"lon":139.4426},{"name":"ハッピーテラス国立駅前","province":"東京都","city":"国立市","address":"国立市北1-5-8プラース壱番館2階店舗E","lat":35.699974,"lon":139.44686},{"name":"メリーランド","province":"東京都","city":"国立市","address":"国立市北3丁目40番3号","lat":35.699296,"lon":139.42842},{"name":"ＴＡＳＵＣ国立教室","province":"東京都","city":"国立市","address":"国立市東1-4-9ザ・ダイマス5階","lat":35.698436,"lon":139.447246},{"name":"ドリームボックス国立","province":"東京都","city":"国立市","address":"国立市東3丁目6-15エスポワール国立1階","lat":35.69452,"lon":139.452645},{"name":"東京ＹＭＣＡさくら国立","province":"東京都","city":"国立市","address":"国立市東1-4-20-102","lat":35.698813,"lon":139.448496},{"name":"ハイビスカス","province":"東京都","city":"国立市","address":"国立市富士見台4-10-6","lat":35.685859,"lon":139.431484},{"name":"くじらっこ","province":"東京都","city":"国立市","address":"国立市富士見台2-3-2メゾンエクセル1F","lat":35.685759,"lon":139.446402},{"name":"放課後等デイサービス　バモノス","province":"東京都","city":"国立市","address":"国立市富士見台1-7-1-1-114","lat":35.684604,"lon":139.448785},{"name":"放課後等デイサービスいもむしクラブ","province":"東京都","city":"国立市","address":"国立市富士見台1-17-29アップスタイルビルI2階","lat":35.681274,"lon":139.448041},{"name":"ハッピー・テラス国立","province":"東京都","city":"国立市","address":"国立市中2-3-66タキイシビル1階","lat":35.695494,"lon":139.439913},{"name":"滝乃川学園　放課後等デイサービス","province":"東京都","city":"国立市","address":"国立市谷保6312","lat":35.680959,"lon":139.429501},{"name":"スマイルともにー","province":"東京都","city":"国立市","address":"国立市泉5-20-4","lat":35.677954,"lon":139.43815},{"name":"さくら国立ハウス","province":"東京都","city":"国立市","address":"国立市富士見台3-8-15","lat":35.685923,"lon":139.43753},{"name":"さくら国立ハウス","province":"東京都","city":"国立市","address":"国立市富士見台3-8-15","lat":35.68604,"lon":139.43806},{"name":"くにたち中央図書館","province":"東京都","city":"国立市","address":"東京都国立市富士見台2丁目34","lat":35.68558704,"lon":139.44378816},{"name":"くにたち北市民プラザ図書館","province":"東京都","city":"国立市","address":"東京都国立市北3丁目1-1","lat":35.69934348,"lon":139.43274974},{"name":"おいでよ。ごはんや","province":"東京都","city":"国立市","address":"東京都国立市富士見台1-17-8","lat":35.68161091,"lon":139.4472612},{"name":"カサムシカ子ども食堂","province":"東京都","city":"国立市","address":"東京都国立市中3-5-60","lat":35.68929325,"lon":139.4424981},{"name":"たまご（多孫・他孫）食堂","province":"東京都","city":"国立市","address":"東京都国立市中2-10-7","lat":35.69293411,"lon":139.4394076},{"name":"おいしいじかん","province":"東京都","city":"国立市","address":"東京都国立市富士見台2-39-1","lat":35.68761301,"lon":139.4438361},{"name":"きたまち学☆食","province":"東京都","city":"国立市","address":"東京都国立市北3-23-1","lat":35.70110454,"lon":139.4303275},{"name":"OSUSOWAKE食堂","province":"東京都","city":"国立市","address":"東京都国立市東3-18-32","lat":35.69164296,"lon":139.4547772},{"name":"ぐるぐる食堂","province":"東京都","city":"国立市","address":"東京都国立市富士見台1-8-38","lat":35.68347175,"lon":139.4490542},{"name":"ラグー","province":"東京都","city":"国立市","address":"東京都国立市中1-15-6","lat":35.69682087,"lon":139.4430095},{"name":"SOMPO流子ども食堂","province":"東京都","city":"国立市","address":"東京都国立市青柳1-21-14","lat":35.68362927,"lon":139.4256635},{"name":"くにちゃん食堂","province":"東京都","city":"国立市","address":"東京都国立市富士見台4-10-1","lat":35.68579502,"lon":139.4318817},{"name":"矢川の子がも食堂","province":"東京都","city":"国立市","address":"東京都国立市富士見台4-17-65","lat":35.68549131,"lon":139.4300278},{"name":"H1T国立","province":"東京都","city":"国立市","address":"東京都国立市東1丁目4-8","lat":35.69829961,"lon":139.44721796},{"name":"国立中給水所","province":"東京都","city":"国立市","address":"東京都国立市中3-8-1","lat":35.688163,"lon":139.442608},{"name":"谷保給水所","province":"東京都","city":"国立市","address":"東京都国立市谷保1462-1","lat":35.6779939,"lon":139.440914},{"name":"生長の家神の国寮","province":"東京都","city":"国立市","address":"国立市富士見台2-39-1","lat":35.6875,"lon":139.44359},{"name":"国立市","province":"東京都","city":"国立市","address":"国立市富士見台2-47-1","lat":35.68438,"lon":139.44151},{"name":"谷保駅北第６自転車駐車場","province":"東京都","city":"国立市","address":"東京都国立市富士見台2丁目16-1","lat":35.68206253,"lon":139.44658249},{"name":"矢川駅北第１自転車駐車場","province":"東京都","city":"国立市","address":"東京都国立市富士見台4丁目8-17","lat":35.68644215,"lon":139.43225025},{"name":"大学通り自転車駐車場","province":"東京都","city":"国立市","address":"東京都国立市東2丁目29","lat":35.69350291,"lon":139.44685149},{"name":"国立市地域包括支援センター","province":"東京都","city":"国立市","address":"国立市富士見台2-47-1","lat":35.684376,"lon":139.441513},{"name":"地域包括支援センター北窓口","province":"東京都","city":"国立市","address":"国立市北3-2-15号棟1階","lat":35.700085,"lon":139.432373},{"name":"地域包括支援センター福祉会館窓口","province":"東京都","city":"国立市","address":"国立市富士見台2-38-5","lat":35.687355,"lon":139.444839},{"name":"地域包括支援センター泉窓口","province":"東京都","city":"国立市","address":"国立市泉3-1-6","lat":35.680405,"lon":139.42598},{"name":"国立市消費生活センター","province":"東京都","city":"国立市","address":"国立市富士見台2-47-1","lat":35.684376,"lon":139.441513},{"name":"東京都多摩障害者スポーツセンター","province":"東京都","city":"国立市","address":"東京都国立市富士見台2-1-1","lat":35.686681,"lon":139.446549},{"name":"生長の家神の国寮","province":"東京都","city":"国立市","address":"国立市富士見台2-39-1","lat":35.687409,"lon":139.443896},{"name":"さくら国立ハウス","province":"東京都","city":"国立市","address":"国立市富士見台3-8-15","lat":35.68604,"lon":139.43807},{"name":"福祉センター前","province":"東京都","city":"国立市","address":"東京都国立市富士見台1丁目7-1","lat":35.68457064,"lon":139.44888498},{"name":"富士見台第一団地","province":"東京都","city":"国立市","address":"東京都国立市富士見台1丁目12","lat":35.68318466,"lon":139.44756847},{"name":"国立市民総合体育館前","province":"東京都","city":"国立市","address":"東京都国立市富士見台2丁目48","lat":35.68475647,"lon":139.4401274},{"name":"国立富士見通り入口","province":"東京都","city":"国立市","address":"東京都国立市中1丁目9-52","lat":35.69809405,"lon":139.44623194},{"name":"国立旭通り入口","province":"東京都","city":"国立市","address":"東京都国立市東1丁目6-25","lat":35.69813573,"lon":139.44703465},{"name":"国立高校西","province":"東京都","city":"国立市","address":"東京都国立市富士見台2丁目1-1","lat":35.68666756,"lon":139.44659622},{"name":"国立駅交番前","province":"東京都","city":"国立市","address":"東京都国立市東1丁目4-13","lat":35.69882455,"lon":139.44735126},{"name":"谷保第三公園北","province":"東京都","city":"国立市","address":"東京都国立市富士見台2丁目33-1","lat":35.68590649,"lon":139.44506304},{"name":"国立駅南口西","province":"東京都","city":"国立市","address":"東京都国立市中1丁目8-43","lat":35.69879952,"lon":139.44602083},{"name":"＊?くにたち郷土文化館","province":"東京都","city":"国立市","address":"国立市谷保6231","lat":35.678996,"lon":139.432642},{"name":"＊?国立市古民家","province":"東京都","city":"国立市","address":"国立市谷保1705-1","lat":35.678449,"lon":139.436665},{"name":"(株)田邊商店  国立事業所","province":"東京都","city":"国立市","address":"国立市泉4-7-2","lat":35.677849,"lon":139.430054},{"name":"玉川産業(有)","province":"東京都","city":"国立市","address":"国立市泉2-12-12","lat":35.674381,"lon":139.42923},{"name":"(有)柳産業","province":"東京都","city":"国立市","address":"国立市泉1-14-11","lat":35.672302,"lon":139.439758},{"name":"グリーンリサイクル(株)  国立営業所","province":"東京都","city":"国立市","address":"国立市泉3-31-10","lat":35.676041,"lon":139.429016},{"name":"焼却施設","province":"東京都","city":"国立市","address":"東京都国立市泉1丁目8-3","lat":35.675488,"lon":139.43605},{"name":"焼却施設","province":"東京都","city":"国立市","address":"東京都国立市泉1丁目14","lat":35.672302,"lon":139.439758},{"name":"国立市","province":"東京都","city":"国立市","address":"国立市富士見台2-47-1","lat":35.683912,"lon":139.441366},{"name":"スポーツセンター\"","province":"東京都","city":"国立市","address":"東京都国立市富士見台2丁目1-1","lat":35.68666756,"lon":139.44659622},{"name":"くにたち中央図書館","province":"東京都","city":"国立市","address":"東京都国立市富士見台2丁目34","lat":35.68558704,"lon":139.44378816},{"name":"くにたち福祉会館","province":"東京都","city":"国立市","address":"東京都国立市富士見台2丁目38-5","lat":35.68744796,"lon":139.44467136},{"name":"国立市役所本庁舎","province":"東京都","city":"国立市","address":"東京都国立市富士見台2丁目47-1","lat":35.68391215,"lon":139.44136621},{"name":"くにたち市民芸術小ホール","province":"東京都","city":"国立市","address":"東京都国立市富士見台2丁目48-1","lat":35.68502867,"lon":139.44038015},{"name":"くにたち市民総合体育館","province":"東京都","city":"国立市","address":"東京都国立市富士見台2丁目48-1","lat":35.68502867,"lon":139.44038015},{"name":"国立市公民館","province":"東京都","city":"国立市","address":"東京都国立市中1丁目15-1","lat":35.69689686,"lon":139.44336835},{"name":"体育館","province":"東京都","city":"国立市","address":"国立市富士見台2-1-1","lat":35.686681,"lon":139.446549},{"name":"トレーニング室","province":"東京都","city":"国立市","address":"国立市富士見台2-1-1","lat":35.686681,"lon":139.446549},{"name":"屋内温水プール","province":"東京都","city":"国立市","address":"国立市富士見台2-1-1","lat":35.686681,"lon":139.446549},{"name":"卓球室","province":"東京都","city":"国立市","address":"国立市富士見台2-1-1","lat":35.686681,"lon":139.446549},{"name":"サウンドテーブルテニス室","province":"東京都","city":"国立市","address":"国立市富士見台2-1-1","lat":35.686681,"lon":139.446549},{"name":"健康体力相談室","province":"東京都","city":"国立市","address":"国立市富士見台2-1-1","lat":35.686681,"lon":139.446549},{"name":"石神集会所","province":"東京都","city":"国立市","address":"東京都国立市谷保7103-2","lat":35.682827,"lon":139.438643},{"name":"東地域防災センター","province":"東京都","city":"国立市","address":"東京都国立市東1-13-13","lat":35.697313,"lon":139.45008},{"name":"一橋大学グラウンド","province":"東京都","city":"国立市","address":"国立市中2-1","lat":35.69427,"lon":139.4426},{"name":"ハッピーテラス国立駅前","province":"東京都","city":"国立市","address":"国立市北1-5-8プラース壱番館2階店舗E","lat":35.699974,"lon":139.44686},{"name":"メリーランド","province":"東京都","city":"国立市","address":"国立市北3丁目40番3号","lat":35.699296,"lon":139.42842},{"name":"ＴＡＳＵＣ国立教室","province":"東京都","city":"国立市","address":"国立市東1-4-9ザ・ダイマス5階","lat":35.698436,"lon":139.447246},{"name":"ドリームボックス国立","province":"東京都","city":"国立市","address":"国立市東3丁目6-15エスポワール国立1階","lat":35.69452,"lon":139.452645},{"name":"東京ＹＭＣＡさくら国立","province":"東京都","city":"国立市","address":"国立市東1-4-20-102","lat":35.698813,"lon":139.448496},{"name":"ハイビスカス","province":"東京都","city":"国立市","address":"国立市富士見台4-10-6","lat":35.685859,"lon":139.431484},{"name":"くじらっこ","province":"東京都","city":"国立市","address":"国立市富士見台2-3-2メゾンエクセル1F","lat":35.685759,"lon":139.446402},{"name":"放課後等デイサービス　バモノス","province":"東京都","city":"国立市","address":"国立市富士見台1-7-1-1-114","lat":35.684604,"lon":139.448785},{"name":"放課後等デイサービスいもむしクラブ","province":"東京都","city":"国立市","address":"国立市富士見台1-17-29アップスタイルビルI2階","lat":35.681274,"lon":139.448041},{"name":"ハッピー・テラス国立","province":"東京都","city":"国立市","address":"国立市中2-3-66タキイシビル1階","lat":35.695494,"lon":139.439913},{"name":"滝乃川学園　放課後等デイサービス","province":"東京都","city":"国立市","address":"国立市谷保6312","lat":35.680959,"lon":139.429501},{"name":"スマイルともにー","province":"東京都","city":"国立市","address":"国立市泉5-20-4","lat":35.677954,"lon":139.43815},{"name":"さくら国立ハウス","province":"東京都","city":"国立市","address":"国立市富士見台3-8-15","lat":35.685923,"lon":139.43753},{"name":"さくら国立ハウス","province":"東京都","city":"国立市","address":"国立市富士見台3-8-15","lat":35.68604,"lon":139.43806},{"name":"くにたち中央図書館","province":"東京都","city":"国立市","address":"東京都国立市富士見台2丁目34","lat":35.68558704,"lon":139.44378816},{"name":"くにたち北市民プラザ図書館","province":"東京都","city":"国立市","address":"東京都国立市北3丁目1-1","lat":35.69934348,"lon":139.43274974},{"name":"おいでよ。ごはんや","province":"東京都","city":"国立市","address":"東京都国立市富士見台1-17-8","lat":35.68161091,"lon":139.4472612},{"name":"カサムシカ子ども食堂","province":"東京都","city":"国立市","address":"東京都国立市中3-5-60","lat":35.68929325,"lon":139.4424981},{"name":"たまご（多孫・他孫）食堂","province":"東京都","city":"国立市","address":"東京都国立市中2-10-7","lat":35.69293411,"lon":139.4394076},{"name":"おいしいじかん","province":"東京都","city":"国立市","address":"東京都国立市富士見台2-39-1","lat":35.68761301,"lon":139.4438361},{"name":"きたまち学☆食","province":"東京都","city":"国立市","address":"東京都国立市北3-23-1","lat":35.70110454,"lon":139.4303275},{"name":"OSUSOWAKE食堂","province":"東京都","city":"国立市","address":"東京都国立市東3-18-32","lat":35.69164296,"lon":139.4547772},{"name":"ぐるぐる食堂","province":"東京都","city":"国立市","address":"東京都国立市富士見台1-8-38","lat":35.68347175,"lon":139.4490542},{"name":"ラグー","province":"東京都","city":"国立市","address":"東京都国立市中1-15-6","lat":35.69682087,"lon":139.4430095},{"name":"SOMPO流子ども食堂","province":"東京都","city":"国立市","address":"東京都国立市青柳1-21-14","lat":35.68362927,"lon":139.4256635},{"name":"くにちゃん食堂","province":"東京都","city":"国立市","address":"東京都国立市富士見台4-10-1","lat":35.68579502,"lon":139.4318817},{"name":"矢川の子がも食堂","province":"東京都","city":"国立市","address":"東京都国立市富士見台4-17-65","lat":35.68549131,"lon":139.4300278},{"name":"H1T国立","province":"東京都","city":"国立市","address":"東京都国立市東1丁目4-8","lat":35.69829961,"lon":139.44721796},{"name":"国立中給水所","province":"東京都","city":"国立市","address":"東京都国立市中3-8-1","lat":35.688163,"lon":139.442608},{"name":"谷保給水所","province":"東京都","city":"国立市","address":"東京都国立市谷保1462-1","lat":35.6779939,"lon":139.440914},{"name":"谷保駅北第６自転車駐車場","province":"東京都","city":"国立市","address":"東京都国立市富士見台2丁目16-1","lat":35.68206253,"lon":139.44658249},{"name":"矢川駅北第１自転車駐車場","province":"東京都","city":"国立市","address":"東京都国立市富士見台4丁目8-17","lat":35.68644215,"lon":139.43225025},{"name":"大学通り自転車駐車場","province":"東京都","city":"国立市","address":"東京都国立市東2丁目29","lat":35.69350291,"lon":139.44685149},{"name":"国立市地域包括支援センター","province":"東京都","city":"国立市","address":"国立市富士見台2-47-1","lat":35.684376,"lon":139.441513},{"name":"地域包括支援センター北窓口","province":"東京都","city":"国立市","address":"国立市北3-2-15号棟1階","lat":35.700085,"lon":139.432373},{"name":"地域包括支援センター福祉会館窓口","province":"東京都","city":"国立市","address":"国立市富士見台2-38-5","lat":35.687355,"lon":139.444839},{"name":"地域包括支援センター泉窓口","province":"東京都","city":"国立市","address":"国立市泉3-1-6","lat":35.680405,"lon":139.42598},{"name":"国立市消費生活センター","province":"東京都","city":"国立市","address":"国立市富士見台2-47-1","lat":35.684376,"lon":139.441513},{"name":"さくら国立ハウス","province":"東京都","city":"国立市","address":"国立市富士見台3-8-15","lat":35.68604,"lon":139.43807},{"name":"福祉センター前","province":"東京都","city":"国立市","address":"東京都国立市富士見台1丁目7-1","lat":35.68457064,"lon":139.44888498},{"name":"富士見台第一団地","province":"東京都","city":"国立市","address":"東京都国立市富士見台1丁目12","lat":35.68318466,"lon":139.44756847},{"name":"国立市民総合体育館前","province":"東京都","city":"国立市","address":"東京都国立市富士見台2丁目48","lat":35.68475647,"lon":139.4401274},{"name":"国立富士見通り入口","province":"東京都","city":"国立市","address":"東京都国立市中1丁目9-52","lat":35.69809405,"lon":139.44623194},{"name":"国立旭通り入口","province":"東京都","city":"国立市","address":"東京都国立市東1丁目6-25","lat":35.69813573,"lon":139.44703465},{"name":"国立高校西","province":"東京都","city":"国立市","address":"東京都国立市富士見台2丁目1-1","lat":35.68666756,"lon":139.44659622},{"name":"国立駅交番前","province":"東京都","city":"国立市","address":"東京都国立市東1丁目4-13","lat":35.69882455,"lon":139.44735126},{"name":"谷保第三公園北","province":"東京都","city":"国立市","address":"東京都国立市富士見台2丁目33-1","lat":35.68590649,"lon":139.44506304},{"name":"国立駅南口西","province":"東京都","city":"国立市","address":"東京都国立市中1丁目8-43","lat":35.69879952,"lon":139.44602083},{"name":"＊?くにたち郷土文化館","province":"東京都","city":"国立市","address":"国立市谷保6231","lat":35.678996,"lon":139.432642},{"name":"＊?国立市古民家","province":"東京都","city":"国立市","address":"国立市谷保1705-1","lat":35.678449,"lon":139.436665},{"name":"(株)田邊商店  国立事業所","province":"東京都","city":"国立市","address":"国立市泉4-7-2","lat":35.677849,"lon":139.430054},{"name":"玉川産業(有)","province":"東京都","city":"国立市","address":"国立市泉2-12-12","lat":35.674381,"lon":139.42923},{"name":"(有)柳産業","province":"東京都","city":"国立市","address":"国立市泉1-14-11","lat":35.672302,"lon":139.439758},{"name":"グリーンリサイクル(株)  国立営業所","province":"東京都","city":"国立市","address":"国立市泉3-31-10","lat":35.676041,"lon":139.429016},{"name":"焼却施設","province":"東京都","city":"国立市","address":"東京都国立市泉1丁目8-3","lat":35.675488,"lon":139.43605},{"name":"焼却施設","province":"東京都","city":"国立市","address":"東京都国立市泉1丁目14","lat":35.672302,"lon":139.439758},{"name":"スポーツセンター\"","province":"東京都","city":"国立市","address":"東京都国立市富士見台2丁目1-1","lat":35.68666756,"lon":139.44659622},{"name":"くにたち中央図書館","province":"東京都","city":"国立市","address":"東京都国立市富士見台2丁目34","lat":35.68558704,"lon":139.44378816},{"name":"くにたち福祉会館","province":"東京都","city":"国立市","address":"東京都国立市富士見台2丁目38-5","lat":35.68744796,"lon":139.44467136},{"name":"国立市役所本庁舎","province":"東京都","city":"国立市","address":"東京都国立市富士見台2丁目47-1","lat":35.68391215,"lon":139.44136621},{"name":"くにたち市民芸術小ホール","province":"東京都","city":"国立市","address":"東京都国立市富士見台2丁目48-1","lat":35.68502867,"lon":139.44038015},{"name":"くにたち市民総合体育館","province":"東京都","city":"国立市","address":"東京都国立市富士見台2丁目48-1","lat":35.68502867,"lon":139.44038015},{"name":"国立市公民館","province":"東京都","city":"国立市","address":"東京都国立市中1丁目15-1","lat":35.69689686,"lon":139.44336835},{"name":"体育館","province":"東京都","city":"国立市","address":"国立市富士見台2-1-1","lat":35.686681,"lon":139.446549},{"name":"トレーニング室","province":"東京都","city":"国立市","address":"国立市富士見台2-1-1","lat":35.686681,"lon":139.446549},{"name":"屋内温水プール","province":"東京都","city":"国立市","address":"国立市富士見台2-1-1","lat":35.686681,"lon":139.446549},{"name":"卓球室","province":"東京都","city":"国立市","address":"国立市富士見台2-1-1","lat":35.686681,"lon":139.446549},{"name":"サウンドテーブルテニス室","province":"東京都","city":"国立市","address":"国立市富士見台2-1-1","lat":35.686681,"lon":139.446549},{"name":"健康体力相談室","province":"東京都","city":"国立市","address":"国立市富士見台2-1-1","lat":35.686681,"lon":139.446549},{"name":"石神集会所","province":"東京都","city":"国立市","address":"東京都国立市谷保7103-2","lat":35.682827,"lon":139.438643},{"name":"東地域防災センター","province":"東京都","city":"国立市","address":"東京都国立市東1-13-13","lat":35.697313,"lon":139.45008},{"name":"ハッピーテラス国立駅前","province":"東京都","city":"国立市","address":"国立市北1-5-8プラース壱番館2階店舗E","lat":35.699974,"lon":139.44686},{"name":"メリーランド","province":"東京都","city":"国立市","address":"国立市北3丁目40番3号","lat":35.699296,"lon":139.42842},{"name":"ＴＡＳＵＣ国立教室","province":"東京都","city":"国立市","address":"国立市東1-4-9ザ・ダイマス5階","lat":35.698436,"lon":139.447246},{"name":"ドリームボックス国立","province":"東京都","city":"国立市","address":"国立市東3丁目6-15エスポワール国立1階","lat":35.69452,"lon":139.452645},{"name":"東京ＹＭＣＡさくら国立","province":"東京都","city":"国立市","address":"国立市東1-4-20-102","lat":35.698813,"lon":139.448496},{"name":"ハイビスカス","province":"東京都","city":"国立市","address":"国立市富士見台4-10-6","lat":35.685859,"lon":139.431484},{"name":"くじらっこ","province":"東京都","city":"国立市","address":"国立市富士見台2-3-2メゾンエクセル1F","lat":35.685759,"lon":139.446402},{"name":"放課後等デイサービス　バモノス","province":"東京都","city":"国立市","address":"国立市富士見台1-7-1-1-114","lat":35.684604,"lon":139.448785},{"name":"放課後等デイサービスいもむしクラブ","province":"東京都","city":"国立市","address":"国立市富士見台1-17-29アップスタイルビルI2階","lat":35.681274,"lon":139.448041},{"name":"ハッピー・テラス国立","province":"東京都","city":"国立市","address":"国立市中2-3-66タキイシビル1階","lat":35.695494,"lon":139.439913},{"name":"滝乃川学園　放課後等デイサービス","province":"東京都","city":"国立市","address":"国立市谷保6312","lat":35.680959,"lon":139.429501},{"name":"スマイルともにー","province":"東京都","city":"国立市","address":"国立市泉5-20-4","lat":35.677954,"lon":139.43815},{"name":"さくら国立ハウス","province":"東京都","city":"国立市","address":"国立市富士見台3-8-15","lat":35.685923,"lon":139.43753},{"name":"さくら国立ハウス","province":"東京都","city":"国立市","address":"国立市富士見台3-8-15","lat":35.68604,"lon":139.43806},{"name":"くにたち中央図書館","province":"東京都","city":"国立市","address":"東京都国立市富士見台2丁目34","lat":35.68558704,"lon":139.44378816},{"name":"くにたち北市民プラザ図書館","province":"東京都","city":"国立市","address":"東京都国立市北3丁目1-1","lat":35.69934348,"lon":139.43274974},{"name":"おいでよ。ごはんや","province":"東京都","city":"国立市","address":"東京都国立市富士見台1-17-8","lat":35.68161091,"lon":139.4472612},{"name":"カサムシカ子ども食堂","province":"東京都","city":"国立市","address":"東京都国立市中3-5-60","lat":35.68929325,"lon":139.4424981},{"name":"たまご（多孫・他孫）食堂","province":"東京都","city":"国立市","address":"東京都国立市中2-10-7","lat":35.69293411,"lon":139.4394076},{"name":"おいしいじかん","province":"東京都","city":"国立市","address":"東京都国立市富士見台2-39-1","lat":35.68761301,"lon":139.4438361},{"name":"きたまち学☆食","province":"東京都","city":"国立市","address":"東京都国立市北3-23-1","lat":35.70110454,"lon":139.4303275},{"name":"OSUSOWAKE食堂","province":"東京都","city":"国立市","address":"東京都国立市東3-18-32","lat":35.69164296,"lon":139.4547772},{"name":"ぐるぐる食堂","province":"東京都","city":"国立市","address":"東京都国立市富士見台1-8-38","lat":35.68347175,"lon":139.4490542},{"name":"ラグー","province":"東京都","city":"国立市","address":"東京都国立市中1-15-6","lat":35.69682087,"lon":139.4430095},{"name":"SOMPO流子ども食堂","province":"東京都","city":"国立市","address":"東京都国立市青柳1-21-14","lat":35.68362927,"lon":139.4256635},{"name":"くにちゃん食堂","province":"東京都","city":"国立市","address":"東京都国立市富士見台4-10-1","lat":35.68579502,"lon":139.4318817},{"name":"矢川の子がも食堂","province":"東京都","city":"国立市","address":"東京都国立市富士見台4-17-65","lat":35.68549131,"lon":139.4300278},{"name":"H1T国立","province":"東京都","city":"国立市","address":"東京都国立市東1丁目4-8","lat":35.69829961,"lon":139.44721796},{"name":"国立中給水所","province":"東京都","city":"国立市","address":"東京都国立市中3-8-1","lat":35.688163,"lon":139.442608},{"name":"谷保給水所","province":"東京都","city":"国立市","address":"東京都国立市谷保1462-1","lat":35.6779939,"lon":139.440914},{"name":"谷保駅北第６自転車駐車場","province":"東京都","city":"国立市","address":"東京都国立市富士見台2丁目16-1","lat":35.68206253,"lon":139.44658249},{"name":"矢川駅北第１自転車駐車場","province":"東京都","city":"国立市","address":"東京都国立市富士見台4丁目8-17","lat":35.68644215,"lon":139.43225025},{"name":"大学通り自転車駐車場","province":"東京都","city":"国立市","address":"東京都国立市東2丁目29","lat":35.69350291,"lon":139.44685149},{"name":"さくら国立ハウス","province":"東京都","city":"国立市","address":"国立市富士見台3-8-15","lat":35.68604,"lon":139.43807},{"name":"福祉センター前","province":"東京都","city":"国立市","address":"東京都国立市富士見台1丁目7-1","lat":35.68457064,"lon":139.44888498},{"name":"富士見台第一団地","province":"東京都","city":"国立市","address":"東京都国立市富士見台1丁目12","lat":35.68318466,"lon":139.44756847},{"name":"国立市民総合体育館前","province":"東京都","city":"国立市","address":"東京都国立市富士見台2丁目48","lat":35.68475647,"lon":139.4401274},{"name":"国立富士見通り入口","province":"東京都","city":"国立市","address":"東京都国立市中1丁目9-52","lat":35.69809405,"lon":139.44623194},{"name":"国立旭通り入口","province":"東京都","city":"国立市","address":"東京都国立市東1丁目6-25","lat":35.69813573,"lon":139.44703465},{"name":"国立高校西","province":"東京都","city":"国立市","address":"東京都国立市富士見台2丁目1-1","lat":35.68666756,"lon":139.44659622},{"name":"国立駅交番前","province":"東京都","city":"国立市","address":"東京都国立市東1丁目4-13","lat":35.69882455,"lon":139.44735126},{"name":"谷保第三公園北","province":"東京都","city":"国立市","address":"東京都国立市富士見台2丁目33-1","lat":35.68590649,"lon":139.44506304},{"name":"国立駅南口西","province":"東京都","city":"国立市","address":"東京都国立市中1丁目8-43","lat":35.69879952,"lon":139.44602083},{"name":"＊?くにたち郷土文化館","province":"東京都","city":"国立市","address":"国立市谷保6231","lat":35.678996,"lon":139.432642},{"name":"＊?国立市古民家","province":"東京都","city":"国立市","address":"国立市谷保1705-1","lat":35.678449,"lon":139.436665},{"name":"(株)田邊商店  国立事業所","province":"東京都","city":"国立市","address":"国立市泉4-7-2","lat":35.677849,"lon":139.430054},{"name":"玉川産業(有)","province":"東京都","city":"国立市","address":"国立市泉2-12-12","lat":35.674381,"lon":139.42923},{"name":"(有)柳産業","province":"東京都","city":"国立市","address":"国立市泉1-14-11","lat":35.672302,"lon":139.439758},{"name":"グリーンリサイクル(株)  国立営業所","province":"東京都","city":"国立市","address":"国立市泉3-31-10","lat":35.676041,"lon":139.429016},{"name":"焼却施設","province":"東京都","city":"国立市","address":"東京都国立市泉1丁目8-3","lat":35.675488,"lon":139.43605},{"name":"焼却施設","province":"東京都","city":"国立市","address":"東京都国立市泉1丁目14","lat":35.672302,"lon":139.439758},{"name":"スポーツセンター\"","province":"東京都","city":"国立市","address":"東京都国立市富士見台2丁目1-1","lat":35.68666756,"lon":139.44659622},{"name":"くにたち中央図書館","province":"東京都","city":"国立市","address":"東京都国立市富士見台2丁目34","lat":35.68558704,"lon":139.44378816},{"name":"くにたち福祉会館","province":"東京都","city":"国立市","address":"東京都国立市富士見台2丁目38-5","lat":35.68744796,"lon":139.44467136},{"name":"国立市役所本庁舎","province":"東京都","city":"国立市","address":"東京都国立市富士見台2丁目47-1","lat":35.68391215,"lon":139.44136621},{"name":"くにたち市民芸術小ホール","province":"東京都","city":"国立市","address":"東京都国立市富士見台2丁目48-1","lat":35.68502867,"lon":139.44038015},{"name":"くにたち市民総合体育館","province":"東京都","city":"国立市","address":"東京都国立市富士見台2丁目48-1","lat":35.68502867,"lon":139.44038015},{"name":"国立市公民館","province":"東京都","city":"国立市","address":"東京都国立市中1丁目15-1","lat":35.69689686,"lon":139.44336835},{"name":"体育館","province":"東京都","city":"国立市","address":"国立市富士見台2-1-1","lat":35.686681,"lon":139.446549},{"name":"トレーニング室","province":"東京都","city":"国立市","address":"国立市富士見台2-1-1","lat":35.686681,"lon":139.446549},{"name":"屋内温水プール","province":"東京都","city":"国立市","address":"国立市富士見台2-1-1","lat":35.686681,"lon":139.446549},{"name":"卓球室","province":"東京都","city":"国立市","address":"国立市富士見台2-1-1","lat":35.686681,"lon":139.446549},{"name":"サウンドテーブルテニス室","province":"東京都","city":"国立市","address":"国立市富士見台2-1-1","lat":35.686681,"lon":139.446549},{"name":"健康体力相談室","province":"東京都","city":"国立市","address":"国立市富士見台2-1-1","lat":35.686681,"lon":139.446549},{"name":"石神集会所","province":"東京都","city":"国立市","address":"東京都国立市谷保7103-2","lat":35.682827,"lon":139.438643},{"name":"東地域防災センター","province":"東京都","city":"国立市","address":"東京都国立市東1-13-13","lat":35.697313,"lon":139.45008},{"name":"ハッピーテラス国立駅前","province":"東京都","city":"国立市","address":"国立市北1-5-8プラース壱番館2階店舗E","lat":35.699974,"lon":139.44686},{"name":"メリーランド","province":"東京都","city":"国立市","address":"国立市北3丁目40番3号","lat":35.699296,"lon":139.42842},{"name":"ＴＡＳＵＣ国立教室","province":"東京都","city":"国立市","address":"国立市東1-4-9ザ・ダイマス5階","lat":35.698436,"lon":139.447246},{"name":"ドリームボックス国立","province":"東京都","city":"国立市","address":"国立市東3丁目6-15エスポワール国立1階","lat":35.69452,"lon":139.452645},{"name":"東京ＹＭＣＡさくら国立","province":"東京都","city":"国立市","address":"国立市東1-4-20-102","lat":35.698813,"lon":139.448496},{"name":"ハイビスカス","province":"東京都","city":"国立市","address":"国立市富士見台4-10-6","lat":35.685859,"lon":139.431484},{"name":"くじらっこ","province":"東京都","city":"国立市","address":"国立市富士見台2-3-2メゾンエクセル1F","lat":35.685759,"lon":139.446402},{"name":"放課後等デイサービス　バモノス","province":"東京都","city":"国立市","address":"国立市富士見台1-7-1-1-114","lat":35.684604,"lon":139.448785},{"name":"放課後等デイサービスいもむしクラブ","province":"東京都","city":"国立市","address":"国立市富士見台1-17-29アップスタイルビルI2階","lat":35.681274,"lon":139.448041},{"name":"ハッピー・テラス国立","province":"東京都","city":"国立市","address":"国立市中2-3-66タキイシビル1階","lat":35.695494,"lon":139.439913},{"name":"滝乃川学園　放課後等デイサービス","province":"東京都","city":"国立市","address":"国立市谷保6312","lat":35.680959,"lon":139.429501},{"name":"スマイルともにー","province":"東京都","city":"国立市","address":"国立市泉5-20-4","lat":35.677954,"lon":139.43815},{"name":"さくら国立ハウス","province":"東京都","city":"国立市","address":"国立市富士見台3-8-15","lat":35.685923,"lon":139.43753},{"name":"さくら国立ハウス","province":"東京都","city":"国立市","address":"国立市富士見台3-8-15","lat":35.68604,"lon":139.43806},{"name":"くにたち中央図書館","province":"東京都","city":"国立市","address":"東京都国立市富士見台2丁目34","lat":35.68558704,"lon":139.44378816},{"name":"くにたち北市民プラザ図書館","province":"東京都","city":"国立市","address":"東京都国立市北3丁目1-1","lat":35.69934348,"lon":139.43274974},{"name":"おいでよ。ごはんや","province":"東京都","city":"国立市","address":"東京都国立市富士見台1-17-8","lat":35.68161091,"lon":139.4472612},{"name":"カサムシカ子ども食堂","province":"東京都","city":"国立市","address":"東京都国立市中3-5-60","lat":35.68929325,"lon":139.4424981},{"name":"たまご（多孫・他孫）食堂","province":"東京都","city":"国立市","address":"東京都国立市中2-10-7","lat":35.69293411,"lon":139.4394076},{"name":"おいしいじかん","province":"東京都","city":"国立市","address":"東京都国立市富士見台2-39-1","lat":35.68761301,"lon":139.4438361},{"name":"きたまち学☆食","province":"東京都","city":"国立市","address":"東京都国立市北3-23-1","lat":35.70110454,"lon":139.4303275},{"name":"OSUSOWAKE食堂","province":"東京都","city":"国立市","address":"東京都国立市東3-18-32","lat":35.69164296,"lon":139.4547772},{"name":"ぐるぐる食堂","province":"東京都","city":"国立市","address":"東京都国立市富士見台1-8-38","lat":35.68347175,"lon":139.4490542},{"name":"ラグー","province":"東京都","city":"国立市","address":"東京都国立市中1-15-6","lat":35.69682087,"lon":139.4430095},{"name":"SOMPO流子ども食堂","province":"東京都","city":"国立市","address":"東京都国立市青柳1-21-14","lat":35.68362927,"lon":139.4256635},{"name":"くにちゃん食堂","province":"東京都","city":"国立市","address":"東京都国立市富士見台4-10-1","lat":35.68579502,"lon":139.4318817},{"name":"矢川の子がも食堂","province":"東京都","city":"国立市","address":"東京都国立市富士見台4-17-65","lat":35.68549131,"lon":139.4300278},{"name":"H1T国立","province":"東京都","city":"国立市","address":"東京都国立市東1丁目4-8","lat":35.69829961,"lon":139.44721796},{"name":"国立中給水所","province":"東京都","city":"国立市","address":"東京都国立市中3-8-1","lat":35.688163,"lon":139.442608},{"name":"谷保給水所","province":"東京都","city":"国立市","address":"東京都国立市谷保1462-1","lat":35.6779939,"lon":139.440914},{"name":"谷保駅北第６自転車駐車場","province":"東京都","city":"国立市","address":"東京都国立市富士見台2丁目16-1","lat":35.68206253,"lon":139.44658249},{"name":"矢川駅北第１自転車駐車場","province":"東京都","city":"国立市","address":"東京都国立市富士見台4丁目8-17","lat":35.68644215,"lon":139.43225025},{"name":"大学通り自転車駐車場","province":"東京都","city":"国立市","address":"東京都国立市東2丁目29","lat":35.69350291,"lon":139.44685149},{"name":"さくら国立ハウス","province":"東京都","city":"国立市","address":"国立市富士見台3-8-15","lat":35.68604,"lon":139.43807},{"name":"福祉センター前","province":"東京都","city":"国立市","address":"東京都国立市富士見台1丁目7-1","lat":35.68457064,"lon":139.44888498},{"name":"富士見台第一団地","province":"東京都","city":"国立市","address":"東京都国立市富士見台1丁目12","lat":35.68318466,"lon":139.44756847},{"name":"国立市民総合体育館前","province":"東京都","city":"国立市","address":"東京都国立市富士見台2丁目48","lat":35.68475647,"lon":139.4401274},{"name":"国立富士見通り入口","province":"東京都","city":"国立市","address":"東京都国立市中1丁目9-52","lat":35.69809405,"lon":139.44623194},{"name":"国立旭通り入口","province":"東京都","city":"国立市","address":"東京都国立市東1丁目6-25","lat":35.69813573,"lon":139.44703465},{"name":"国立高校西","province":"東京都","city":"国立市","address":"東京都国立市富士見台2丁目1-1","lat":35.68666756,"lon":139.44659622},{"name":"国立駅交番前","province":"東京都","city":"国立市","address":"東京都国立市東1丁目4-13","lat":35.69882455,"lon":139.44735126},{"name":"谷保第三公園北","province":"東京都","city":"国立市","address":"東京都国立市富士見台2丁目33-1","lat":35.68590649,"lon":139.44506304},{"name":"国立駅南口西","province":"東京都","city":"国立市","address":"東京都国立市中1丁目8-43","lat":35.69879952,"lon":139.44602083},{"name":"＊?くにたち郷土文化館","province":"東京都","city":"国立市","address":"国立市谷保6231","lat":35.678996,"lon":139.432642},{"name":"＊?国立市古民家","province":"東京都","city":"国立市","address":"国立市谷保1705-1","lat":35.678449,"lon":139.436665},{"name":"焼却施設","province":"東京都","city":"国立市","address":"東京都国立市泉1丁目8-3","lat":35.675488,"lon":139.43605},{"name":"焼却施設","province":"東京都","city":"国立市","address":"東京都国立市泉1丁目14","lat":35.672302,"lon":139.439758},{"name":"スポーツセンター\"","province":"東京都","city":"国立市","address":"東京都国立市富士見台2丁目1-1","lat":35.68666756,"lon":139.44659622},{"name":"くにたち中央図書館","province":"東京都","city":"国立市","address":"東京都国立市富士見台2丁目34","lat":35.68558704,"lon":139.44378816},{"name":"くにたち福祉会館","province":"東京都","city":"国立市","address":"東京都国立市富士見台2丁目38-5","lat":35.68744796,"lon":139.44467136},{"name":"国立市役所本庁舎","province":"東京都","city":"国立市","address":"東京都国立市富士見台2丁目47-1","lat":35.68391215,"lon":139.44136621},{"name":"くにたち市民芸術小ホール","province":"東京都","city":"国立市","address":"東京都国立市富士見台2丁目48-1","lat":35.68502867,"lon":139.44038015},{"name":"くにたち市民総合体育館","province":"東京都","city":"国立市","address":"東京都国立市富士見台2丁目48-1","lat":35.68502867,"lon":139.44038015},{"name":"国立市公民館","province":"東京都","city":"国立市","address":"東京都国立市中1丁目15-1","lat":35.69689686,"lon":139.44336835},{"name":"体育館","province":"東京都","city":"国立市","address":"国立市富士見台2-1-1","lat":35.686681,"lon":139.446549},{"name":"トレーニング室","province":"東京都","city":"国立市","address":"国立市富士見台2-1-1","lat":35.686681,"lon":139.446549},{"name":"屋内温水プール","province":"東京都","city":"国立市","address":"国立市富士見台2-1-1","lat":35.686681,"lon":139.446549},{"name":"卓球室","province":"東京都","city":"国立市","address":"国立市富士見台2-1-1","lat":35.686681,"lon":139.446549},{"name":"サウンドテーブルテニス室","province":"東京都","city":"国立市","address":"国立市富士見台2-1-1","lat":35.686681,"lon":139.446549},{"name":"健康体力相談室","province":"東京都","city":"国立市","address":"国立市富士見台2-1-1","lat":35.686681,"lon":139.446549},{"name":"石神集会所","province":"東京都","city":"国立市","address":"東京都国立市谷保7103-2","lat":35.682827,"lon":139.438643},{"name":"東地域防災センター","province":"東京都","city":"国立市","address":"東京都国立市東1-13-13","lat":35.697313,"lon":139.45008},{"name":"ハッピーテラス国立駅前","province":"東京都","city":"国立市","address":"国立市北1-5-8プラース壱番館2階店舗E","lat":35.699974,"lon":139.44686},{"name":"メリーランド","province":"東京都","city":"国立市","address":"国立市北3丁目40番3号","lat":35.699296,"lon":139.42842},{"name":"ＴＡＳＵＣ国立教室","province":"東京都","city":"国立市","address":"国立市東1-4-9ザ・ダイマス5階","lat":35.698436,"lon":139.447246},{"name":"ドリームボックス国立","province":"東京都","city":"国立市","address":"国立市東3丁目6-15エスポワール国立1階","lat":35.69452,"lon":139.452645},{"name":"東京ＹＭＣＡさくら国立","province":"東京都","city":"国立市","address":"国立市東1-4-20-102","lat":35.698813,"lon":139.448496},{"name":"ハイビスカス","province":"東京都","city":"国立市","address":"国立市富士見台4-10-6","lat":35.685859,"lon":139.431484},{"name":"くじらっこ","province":"東京都","city":"国立市","address":"国立市富士見台2-3-2メゾンエクセル1F","lat":35.685759,"lon":139.446402},{"name":"放課後等デイサービス　バモノス","province":"東京都","city":"国立市","address":"国立市富士見台1-7-1-1-114","lat":35.684604,"lon":139.448785},{"name":"放課後等デイサービスいもむしクラブ","province":"東京都","city":"国立市","address":"国立市富士見台1-17-29アップスタイルビルI2階","lat":35.681274,"lon":139.448041},{"name":"ハッピー・テラス国立","province":"東京都","city":"国立市","address":"国立市中2-3-66タキイシビル1階","lat":35.695494,"lon":139.439913},{"name":"滝乃川学園　放課後等デイサービス","province":"東京都","city":"国立市","address":"国立市谷保6312","lat":35.680959,"lon":139.429501},{"name":"スマイルともにー","province":"東京都","city":"国立市","address":"国立市泉5-20-4","lat":35.677954,"lon":139.43815},{"name":"さくら国立ハウス","province":"東京都","city":"国立市","address":"国立市富士見台3-8-15","lat":35.685923,"lon":139.43753},{"name":"さくら国立ハウス","province":"東京都","city":"国立市","address":"国立市富士見台3-8-15","lat":35.68604,"lon":139.43806},{"name":"おいでよ。ごはんや","province":"東京都","city":"国立市","address":"東京都国立市富士見台1-17-8","lat":35.68161091,"lon":139.4472612},{"name":"カサムシカ子ども食堂","province":"東京都","city":"国立市","address":"東京都国立市中3-5-60","lat":35.68929325,"lon":139.4424981},{"name":"たまご（多孫・他孫）食堂","province":"東京都","city":"国立市","address":"東京都国立市中2-10-7","lat":35.69293411,"lon":139.4394076},{"name":"おいしいじかん","province":"東京都","city":"国立市","address":"東京都国立市富士見台2-39-1","lat":35.68761301,"lon":139.4438361},{"name":"きたまち学☆食","province":"東京都","city":"国立市","address":"東京都国立市北3-23-1","lat":35.70110454,"lon":139.4303275},{"name":"OSUSOWAKE食堂","province":"東京都","city":"国立市","address":"東京都国立市東3-18-32","lat":35.69164296,"lon":139.4547772},{"name":"ぐるぐる食堂","province":"東京都","city":"国立市","address":"東京都国立市富士見台1-8-38","lat":35.68347175,"lon":139.4490542},{"name":"ラグー","province":"東京都","city":"国立市","address":"東京都国立市中1-15-6","lat":35.69682087,"lon":139.4430095},{"name":"SOMPO流子ども食堂","province":"東京都","city":"国立市","address":"東京都国立市青柳1-21-14","lat":35.68362927,"lon":139.4256635},{"name":"くにちゃん食堂","province":"東京都","city":"国立市","address":"東京都国立市富士見台4-10-1","lat":35.68579502,"lon":139.4318817},{"name":"矢川の子がも食堂","province":"東京都","city":"国立市","address":"東京都国立市富士見台4-17-65","lat":35.68549131,"lon":139.4300278},{"name":"H1T国立","province":"東京都","city":"国立市","address":"東京都国立市東1丁目4-8","lat":35.69829961,"lon":139.44721796},{"name":"国立中給水所","province":"東京都","city":"国立市","address":"東京都国立市中3-8-1","lat":35.688163,"lon":139.442608},{"name":"谷保給水所","province":"東京都","city":"国立市","address":"東京都国立市谷保1462-1","lat":35.6779939,"lon":139.440914},{"name":"谷保駅北第６自転車駐車場","province":"東京都","city":"国立市","address":"東京都国立市富士見台2丁目16-1","lat":35.68206253,"lon":139.44658249},{"name":"矢川駅北第１自転車駐車場","province":"東京都","city":"国立市","address":"東京都国立市富士見台4丁目8-17","lat":35.68644215,"lon":139.43225025},{"name":"大学通り自転車駐車場","province":"東京都","city":"国立市","address":"東京都国立市東2丁目29","lat":35.69350291,"lon":139.44685149},{"name":"さくら国立ハウス","province":"東京都","city":"国立市","address":"国立市富士見台3-8-15","lat":35.68604,"lon":139.43807},{"name":"福祉センター前","province":"東京都","city":"国立市","address":"東京都国立市富士見台1丁目7-1","lat":35.68457064,"lon":139.44888498},{"name":"富士見台第一団地","province":"東京都","city":"国立市","address":"東京都国立市富士見台1丁目12","lat":35.68318466,"lon":139.44756847},{"name":"国立市民総合体育館前","province":"東京都","city":"国立市","address":"東京都国立市富士見台2丁目48","lat":35.68475647,"lon":139.4401274},{"name":"国立富士見通り入口","province":"東京都","city":"国立市","address":"東京都国立市中1丁目9-52","lat":35.69809405,"lon":139.44623194},{"name":"国立旭通り入口","province":"東京都","city":"国立市","address":"東京都国立市東1丁目6-25","lat":35.69813573,"lon":139.44703465},{"name":"国立高校西","province":"東京都","city":"国立市","address":"東京都国立市富士見台2丁目1-1","lat":35.68666756,"lon":139.44659622},{"name":"国立駅交番前","province":"東京都","city":"国立市","address":"東京都国立市東1丁目4-13","lat":35.69882455,"lon":139.44735126},{"name":"谷保第三公園北","province":"東京都","city":"国立市","address":"東京都国立市富士見台2丁目33-1","lat":35.68590649,"lon":139.44506304},{"name":"国立駅南口西","province":"東京都","city":"国立市","address":"東京都国立市中1丁目8-43","lat":35.69879952,"lon":139.44602083},{"name":"＊?国立市古民家","province":"東京都","city":"国立市","address":"国立市谷保1705-1","lat":35.678449,"lon":139.436665},{"name":"焼却施設","province":"東京都","city":"国立市","address":"東京都国立市泉1丁目8-3","lat":35.675488,"lon":139.43605},{"name":"焼却施設","province":"東京都","city":"国立市","address":"東京都国立市泉1丁目14","lat":35.672302,"lon":139.439758},{"name":"スポーツセンター\"","province":"東京都","city":"国立市","address":"東京都国立市富士見台2丁目1-1","lat":35.68666756,"lon":139.44659622},{"name":"くにたち中央図書館","province":"東京都","city":"国立市","address":"東京都国立市富士見台2丁目34","lat":35.68558704,"lon":139.44378816},{"name":"くにたち福祉会館","province":"東京都","city":"国立市","address":"東京都国立市富士見台2丁目38-5","lat":35.68744796,"lon":139.44467136},{"name":"国立市役所本庁舎","province":"東京都","city":"国立市","address":"東京都国立市富士見台2丁目47-1","lat":35.68391215,"lon":139.44136621},{"name":"くにたち市民芸術小ホール","province":"東京都","city":"国立市","address":"東京都国立市富士見台2丁目48-1","lat":35.68502867,"lon":139.44038015},{"name":"くにたち市民総合体育館","province":"東京都","city":"国立市","address":"東京都国立市富士見台2丁目48-1","lat":35.68502867,"lon":139.44038015},{"name":"国立市公民館","province":"東京都","city":"国立市","address":"東京都国立市中1丁目15-1","lat":35.69689686,"lon":139.44336835},{"name":"石神集会所","province":"東京都","city":"国立市","address":"東京都国立市谷保7103-2","lat":35.682827,"lon":139.438643},{"name":"東地域防災センター","province":"東京都","city":"国立市","address":"東京都国立市東1-13-13","lat":35.697313,"lon":139.45008},{"name":"ハッピーテラス国立駅前","province":"東京都","city":"国立市","address":"国立市北1-5-8プラース壱番館2階店舗E","lat":35.699974,"lon":139.44686},{"name":"メリーランド","province":"東京都","city":"国立市","address":"国立市北3丁目40番3号","lat":35.699296,"lon":139.42842},{"name":"ＴＡＳＵＣ国立教室","province":"東京都","city":"国立市","address":"国立市東1-4-9ザ・ダイマス5階","lat":35.698436,"lon":139.447246},{"name":"ドリームボックス国立","province":"東京都","city":"国立市","address":"国立市東3丁目6-15エスポワール国立1階","lat":35.69452,"lon":139.452645},{"name":"東京ＹＭＣＡさくら国立","province":"東京都","city":"国立市","address":"国立市東1-4-20-102","lat":35.698813,"lon":139.448496},{"name":"ハイビスカス","province":"東京都","city":"国立市","address":"国立市富士見台4-10-6","lat":35.685859,"lon":139.431484},{"name":"くじらっこ","province":"東京都","city":"国立市","address":"国立市富士見台2-3-2メゾンエクセル1F","lat":35.685759,"lon":139.446402},{"name":"放課後等デイサービス　バモノス","province":"東京都","city":"国立市","address":"国立市富士見台1-7-1-1-114","lat":35.684604,"lon":139.448785},{"name":"放課後等デイサービスいもむしクラブ","province":"東京都","city":"国立市","address":"国立市富士見台1-17-29アップスタイルビルI2階","lat":35.681274,"lon":139.448041},{"name":"ハッピー・テラス国立","province":"東京都","city":"国立市","address":"国立市中2-3-66タキイシビル1階","lat":35.695494,"lon":139.439913},{"name":"滝乃川学園　放課後等デイサービス","province":"東京都","city":"国立市","address":"国立市谷保6312","lat":35.680959,"lon":139.429501},{"name":"スマイルともにー","province":"東京都","city":"国立市","address":"国立市泉5-20-4","lat":35.677954,"lon":139.43815},{"name":"さくら国立ハウス","province":"東京都","city":"国立市","address":"国立市富士見台3-8-15","lat":35.685923,"lon":139.43753},{"name":"さくら国立ハウス","province":"東京都","city":"国立市","address":"国立市富士見台3-8-15","lat":35.68604,"lon":139.43806},{"name":"H1T国立","province":"東京都","city":"国立市","address":"東京都国立市東1丁目4-8","lat":35.69829961,"lon":139.44721796},{"name":"国立中給水所","province":"東京都","city":"国立市","address":"東京都国立市中3-8-1","lat":35.688163,"lon":139.442608},{"name":"谷保給水所","province":"東京都","city":"国立市","address":"東京都国立市谷保1462-1","lat":35.6779939,"lon":139.440914},{"name":"谷保駅北第６自転車駐車場","province":"東京都","city":"国立市","address":"東京都国立市富士見台2丁目16-1","lat":35.68206253,"lon":139.44658249},{"name":"矢川駅北第１自転車駐車場","province":"東京都","city":"国立市","address":"東京都国立市富士見台4丁目8-17","lat":35.68644215,"lon":139.43225025},{"name":"大学通り自転車駐車場","province":"東京都","city":"国立市","address":"東京都国立市東2丁目29","lat":35.69350291,"lon":139.44685149},{"name":"さくら国立ハウス","province":"東京都","city":"国立市","address":"国立市富士見台3-8-15","lat":35.68604,"lon":139.43807},{"name":"福祉センター前","province":"東京都","city":"国立市","address":"東京都国立市富士見台1丁目7-1","lat":35.68457064,"lon":139.44888498},{"name":"富士見台第一団地","province":"東京都","city":"国立市","address":"東京都国立市富士見台1丁目12","lat":35.68318466,"lon":139.44756847},{"name":"国立市民総合体育館前","province":"東京都","city":"国立市","address":"東京都国立市富士見台2丁目48","lat":35.68475647,"lon":139.4401274},{"name":"国立富士見通り入口","province":"東京都","city":"国立市","address":"東京都国立市中1丁目9-52","lat":35.69809405,"lon":139.44623194},{"name":"国立旭通り入口","province":"東京都","city":"国立市","address":"東京都国立市東1丁目6-25","lat":35.69813573,"lon":139.44703465},{"name":"国立高校西","province":"東京都","city":"国立市","address":"東京都国立市富士見台2丁目1-1","lat":35.68666756,"lon":139.44659622},{"name":"国立駅交番前","province":"東京都","city":"国立市","address":"東京都国立市東1丁目4-13","lat":35.69882455,"lon":139.44735126},{"name":"谷保第三公園北","province":"東京都","city":"国立市","address":"東京都国立市富士見台2丁目33-1","lat":35.68590649,"lon":139.44506304},{"name":"国立駅南口西","province":"東京都","city":"国立市","address":"東京都国立市中1丁目8-43","lat":35.69879952,"lon":139.44602083},{"name":"焼却施設","province":"東京都","city":"国立市","address":"東京都国立市泉1丁目8-3","lat":35.675488,"lon":139.43605},{"name":"焼却施設","province":"東京都","city":"国立市","address":"東京都国立市泉1丁目14","lat":35.672302,"lon":139.439758},{"name":"スポーツセンター\"","province":"東京都","city":"国立市","address":"東京都国立市富士見台2丁目1-1","lat":35.68666756,"lon":139.44659622},{"name":"くにたち中央図書館","province":"東京都","city":"国立市","address":"東京都国立市富士見台2丁目34","lat":35.68558704,"lon":139.44378816},{"name":"くにたち福祉会館","province":"東京都","city":"国立市","address":"東京都国立市富士見台2丁目38-5","lat":35.68744796,"lon":139.44467136},{"name":"国立市役所本庁舎","province":"東京都","city":"国立市","address":"東京都国立市富士見台2丁目47-1","lat":35.68391215,"lon":139.44136621},{"name":"くにたち市民芸術小ホール","province":"東京都","city":"国立市","address":"東京都国立市富士見台2丁目48-1","lat":35.68502867,"lon":139.44038015},{"name":"くにたち市民総合体育館","province":"東京都","city":"国立市","address":"東京都国立市富士見台2丁目48-1","lat":35.68502867,"lon":139.44038015},{"name":"国立市公民館","province":"東京都","city":"国立市","address":"東京都国立市中1丁目15-1","lat":35.69689686,"lon":139.44336835},{"name":"石神集会所","province":"東京都","city":"国立市","address":"東京都国立市谷保7103-2","lat":35.682827,"lon":139.438643},{"name":"東地域防災センター","province":"東京都","city":"国立市","address":"東京都国立市東1-13-13","lat":35.697313,"lon":139.45008},{"name":"さくら国立ハウス","province":"東京都","city":"国立市","address":"国立市富士見台3-8-15","lat":35.685923,"lon":139.43753},{"name":"さくら国立ハウス","province":"東京都","city":"国立市","address":"国立市富士見台3-8-15","lat":35.68604,"lon":139.43806},{"name":"H1T国立","province":"東京都","city":"国立市","address":"東京都国立市東1丁目4-8","lat":35.69829961,"lon":139.44721796},{"name":"国立中給水所","province":"東京都","city":"国立市","address":"東京都国立市中3-8-1","lat":35.688163,"lon":139.442608},{"name":"谷保給水所","province":"東京都","city":"国立市","address":"東京都国立市谷保1462-1","lat":35.6779939,"lon":139.440914},{"name":"谷保駅北第６自転車駐車場","province":"東京都","city":"国立市","address":"東京都国立市富士見台2丁目16-1","lat":35.68206253,"lon":139.44658249},{"name":"矢川駅北第１自転車駐車場","province":"東京都","city":"国立市","address":"東京都国立市富士見台4丁目8-17","lat":35.68644215,"lon":139.43225025},{"name":"大学通り自転車駐車場","province":"東京都","city":"国立市","address":"東京都国立市東2丁目29","lat":35.69350291,"lon":139.44685149},{"name":"さくら国立ハウス","province":"東京都","city":"国立市","address":"国立市富士見台3-8-15","lat":35.68604,"lon":139.43807},{"name":"焼却施設","province":"東京都","city":"国立市","address":"東京都国立市泉1丁目8-3","lat":35.675488,"lon":139.43605},{"name":"焼却施設","province":"東京都","city":"国立市","address":"東京都国立市泉1丁目14","lat":35.672302,"lon":139.439758},{"name":"スポーツセンター\"","province":"東京都","city":"国立市","address":"東京都国立市富士見台2丁目1-1","lat":35.68666756,"lon":139.44659622},{"name":"くにたち中央図書館","province":"東京都","city":"国立市","address":"東京都国立市富士見台2丁目34","lat":35.68558704,"lon":139.44378816},{"name":"くにたち福祉会館","province":"東京都","city":"国立市","address":"東京都国立市富士見台2丁目38-5","lat":35.68744796,"lon":139.44467136},{"name":"国立市役所本庁舎","province":"東京都","city":"国立市","address":"東京都国立市富士見台2丁目47-1","lat":35.68391215,"lon":139.44136621},{"name":"くにたち市民芸術小ホール","province":"東京都","city":"国立市","address":"東京都国立市富士見台2丁目48-1","lat":35.68502867,"lon":139.44038015},{"name":"くにたち市民総合体育館","province":"東京都","city":"国立市","address":"東京都国立市富士見台2丁目48-1","lat":35.68502867,"lon":139.44038015},{"name":"国立市公民館","province":"東京都","city":"国立市","address":"東京都国立市中1丁目15-1","lat":35.69689686,"lon":139.44336835},{"name":"石神集会所","province":"東京都","city":"国立市","address":"東京都国立市谷保7103-2","lat":35.682827,"lon":139.438643},{"name":"東地域防災センター","province":"東京都","city":"国立市","address":"東京都国立市東1-13-13","lat":35.697313,"lon":139.45008},{"name":"さくら国立ハウス","province":"東京都","city":"国立市","address":"国立市富士見台3-8-15","lat":35.685923,"lon":139.43753},{"name":"さくら国立ハウス","province":"東京都","city":"国立市","address":"国立市富士見台3-8-15","lat":35.68604,"lon":139.43806},{"name":"H1T国立","province":"東京都","city":"国立市","address":"東京都国立市東1丁目4-8","lat":35.69829961,"lon":139.44721796},{"name":"国立中給水所","province":"東京都","city":"国立市","address":"東京都国立市中3-8-1","lat":35.688163,"lon":139.442608},{"name":"谷保給水所","province":"東京都","city":"国立市","address":"東京都国立市谷保1462-1","lat":35.6779939,"lon":139.440914},{"name":"谷保駅北第６自転車駐車場","province":"東京都","city":"国立市","address":"東京都国立市富士見台2丁目16-1","lat":35.68206253,"lon":139.44658249},{"name":"矢川駅北第１自転車駐車場","province":"東京都","city":"国立市","address":"東京都国立市富士見台4丁目8-17","lat":35.68644215,"lon":139.43225025},{"name":"大学通り自転車駐車場","province":"東京都","city":"国立市","address":"東京都国立市東2丁目29","lat":35.69350291,"lon":139.44685149},{"name":"さくら国立ハウス","province":"東京都","city":"国立市","address":"国立市富士見台3-8-15","lat":35.68604,"lon":139.43807},{"name":"焼却施設","province":"東京都","city":"国立市","address":"東京都国立市泉1丁目8-3","lat":35.675488,"lon":139.43605},{"name":"焼却施設","province":"東京都","city":"国立市","address":"東京都国立市泉1丁目14","lat":35.672302,"lon":139.439758},{"name":"スポーツセンター\"","province":"東京都","city":"国立市","address":"東京都国立市富士見台2丁目1-1","lat":35.68666756,"lon":139.44659622},{"name":"くにたち中央図書館","province":"東京都","city":"国立市","address":"東京都国立市富士見台2丁目34","lat":35.68558704,"lon":139.44378816},{"name":"くにたち福祉会館","province":"東京都","city":"国立市","address":"東京都国立市富士見台2丁目38-5","lat":35.68744796,"lon":139.44467136},{"name":"国立市役所本庁舎","province":"東京都","city":"国立市","address":"東京都国立市富士見台2丁目47-1","lat":35.68391215,"lon":139.44136621},{"name":"くにたち市民芸術小ホール","province":"東京都","city":"国立市","address":"東京都国立市富士見台2丁目48-1","lat":35.68502867,"lon":139.44038015},{"name":"くにたち市民総合体育館","province":"東京都","city":"国立市","address":"東京都国立市富士見台2丁目48-1","lat":35.68502867,"lon":139.44038015},{"name":"国立市公民館","province":"東京都","city":"国立市","address":"東京都国立市中1丁目15-1","lat":35.69689686,"lon":139.44336835},{"name":"石神集会所","province":"東京都","city":"国立市","address":"東京都国立市谷保7103-2","lat":35.682827,"lon":139.438643},{"name":"東地域防災センター","province":"東京都","city":"国立市","address":"東京都国立市東1-13-13","lat":35.697313,"lon":139.45008},{"name":"H1T国立","province":"東京都","city":"国立市","address":"東京都国立市東1丁目4-8","lat":35.69829961,"lon":139.44721796},{"name":"国立中給水所","province":"東京都","city":"国立市","address":"東京都国立市中3-8-1","lat":35.688163,"lon":139.442608},{"name":"谷保給水所","province":"東京都","city":"国立市","address":"東京都国立市谷保1462-1","lat":35.6779939,"lon":139.440914},{"name":"谷保駅北第６自転車駐車場","province":"東京都","city":"国立市","address":"東京都国立市富士見台2丁目16-1","lat":35.68206253,"lon":139.44658249},{"name":"矢川駅北第１自転車駐車場","province":"東京都","city":"国立市","address":"東京都国立市富士見台4丁目8-17","lat":35.68644215,"lon":139.43225025},{"name":"大学通り自転車駐車場","province":"東京都","city":"国立市","address":"東京都国立市東2丁目29","lat":35.69350291,"lon":139.44685149},{"name":"焼却施設","province":"東京都","city":"国立市","address":"東京都国立市泉1丁目8-3","lat":35.675488,"lon":139.43605},{"name":"焼却施設","province":"東京都","city":"国立市","address":"東京都国立市泉1丁目14","lat":35.672302,"lon":139.439758},{"name":"スポーツセンター\"","province":"東京都","city":"国立市","address":"東京都国立市富士見台2丁目1-1","lat":35.68666756,"lon":139.44659622},{"name":"くにたち中央図書館","province":"東京都","city":"国立市","address":"東京都国立市富士見台2丁目34","lat":35.68558704,"lon":139.44378816},{"name":"くにたち福祉会館","province":"東京都","city":"国立市","address":"東京都国立市富士見台2丁目38-5","lat":35.68744796,"lon":139.44467136},{"name":"国立市役所本庁舎","province":"東京都","city":"国立市","address":"東京都国立市富士見台2丁目47-1","lat":35.68391215,"lon":139.44136621},{"name":"くにたち市民芸術小ホール","province":"東京都","city":"国立市","address":"東京都国立市富士見台2丁目48-1","lat":35.68502867,"lon":139.44038015},{"name":"くにたち市民総合体育館","province":"東京都","city":"国立市","address":"東京都国立市富士見台2丁目48-1","lat":35.68502867,"lon":139.44038015},{"name":"国立市公民館","province":"東京都","city":"国立市","address":"東京都国立市中1丁目15-1","lat":35.69689686,"lon":139.44336835},{"name":"石神集会所","province":"東京都","city":"国立市","address":"東京都国立市谷保7103-2","lat":35.682827,"lon":139.438643},{"name":"東地域防災センター","province":"東京都","city":"国立市","address":"東京都国立市東1-13-13","lat":35.697313,"lon":139.45008},{"name":"H1T国立","province":"東京都","city":"国立市","address":"東京都国立市東1丁目4-8","lat":35.69829961,"lon":139.44721796},{"name":"焼却施設","province":"東京都","city":"国立市","address":"東京都国立市泉1丁目8-3","lat":35.675488,"lon":139.43605},{"name":"焼却施設","province":"東京都","city":"国立市","address":"東京都国立市泉1丁目14","lat":35.672302,"lon":139.439758},{"name":"スポーツセンター\"","province":"東京都","city":"国立市","address":"東京都国立市富士見台2丁目1-1","lat":35.68666756,"lon":139.44659622},{"name":"くにたち中央図書館","province":"東京都","city":"国立市","address":"東京都国立市富士見台2丁目34","lat":35.68558704,"lon":139.44378816},{"name":"くにたち福祉会館","province":"東京都","city":"国立市","address":"東京都国立市富士見台2丁目38-5","lat":35.68744796,"lon":139.44467136},{"name":"国立市役所本庁舎","province":"東京都","city":"国立市","address":"東京都国立市富士見台2丁目47-1","lat":35.68391215,"lon":139.44136621},{"name":"くにたち市民芸術小ホール","province":"東京都","city":"国立市","address":"東京都国立市富士見台2丁目48-1","lat":35.68502867,"lon":139.44038015},{"name":"くにたち市民総合体育館","province":"東京都","city":"国立市","address":"東京都国立市富士見台2丁目48-1","lat":35.68502867,"lon":139.44038015},{"name":"国立市公民館","province":"東京都","city":"国立市","address":"東京都国立市中1丁目15-1","lat":35.69689686,"lon":139.44336835},{"name":"石神集会所","province":"東京都","city":"国立市","address":"東京都国立市谷保7103-2","lat":35.682827,"lon":139.438643},{"name":"東地域防災センター","province":"東京都","city":"国立市","address":"東京都国立市東1-13-13","lat":35.697313,"lon":139.45008},{"name":"H1T国立","province":"東京都","city":"国立市","address":"東京都国立市東1丁目4-8","lat":35.69829961,"lon":139.44721796},{"name":"焼却施設","province":"東京都","city":"国立市","address":"東京都国立市泉1丁目8-3","lat":35.675488,"lon":139.43605},{"name":"焼却施設","province":"東京都","city":"国立市","address":"東京都国立市泉1丁目14","lat":35.672302,"lon":139.439758},{"name":"スポーツセンター\"","province":"東京都","city":"国立市","address":"東京都国立市富士見台2丁目1-1","lat":35.68666756,"lon":139.44659622},{"name":"くにたち中央図書館","province":"東京都","city":"国立市","address":"東京都国立市富士見台2丁目34","lat":35.68558704,"lon":139.44378816},{"name":"くにたち福祉会館","province":"東京都","city":"国立市","address":"東京都国立市富士見台2丁目38-5","lat":35.68744796,"lon":139.44467136},{"name":"国立市役所本庁舎","province":"東京都","city":"国立市","address":"東京都国立市富士見台2丁目47-1","lat":35.68391215,"lon":139.44136621},{"name":"くにたち市民芸術小ホール","province":"東京都","city":"国立市","address":"東京都国立市富士見台2丁目48-1","lat":35.68502867,"lon":139.44038015},{"name":"くにたち市民総合体育館","province":"東京都","city":"国立市","address":"東京都国立市富士見台2丁目48-1","lat":35.68502867,"lon":139.44038015},{"name":"国立市公民館","province":"東京都","city":"国立市","address":"東京都国立市中1丁目15-1","lat":35.69689686,"lon":139.44336835},{"name":"H1T国立","province":"東京都","city":"国立市","address":"東京都国立市東1丁目4-8","lat":35.69829961,"lon":139.44721796},{"name":"焼却施設","province":"東京都","city":"国立市","address":"東京都国立市泉1丁目8-3","lat":35.675488,"lon":139.43605},{"name":"焼却施設","province":"東京都","city":"国立市","address":"東京都国立市泉1丁目14","lat":35.672302,"lon":139.439758},{"name":"スポーツセンター\"","province":"東京都","city":"国立市","address":"東京都国立市富士見台2丁目1-1","lat":35.68666756,"lon":139.44659622},{"name":"くにたち中央図書館","province":"東京都","city":"国立市","address":"東京都国立市富士見台2丁目34","lat":35.68558704,"lon":139.44378816},{"name":"くにたち福祉会館","province":"東京都","city":"国立市","address":"東京都国立市富士見台2丁目38-5","lat":35.68744796,"lon":139.44467136},{"name":"国立市役所本庁舎","province":"東京都","city":"国立市","address":"東京都国立市富士見台2丁目47-1","lat":35.68391215,"lon":139.44136621},{"name":"くにたち市民芸術小ホール","province":"東京都","city":"国立市","address":"東京都国立市富士見台2丁目48-1","lat":35.68502867,"lon":139.44038015},{"name":"くにたち市民総合体育館","province":"東京都","city":"国立市","address":"東京都国立市富士見台2丁目48-1","lat":35.68502867,"lon":139.44038015},{"name":"国立市公民館","province":"東京都","city":"国立市","address":"東京都国立市中1丁目15-1","lat":35.69689686,"lon":139.44336835},{"name":"H1T国立","province":"東京都","city":"国立市","address":"東京都国立市東1丁目4-8","lat":35.69829961,"lon":139.44721796},{"name":"焼却施設","province":"東京都","city":"国立市","address":"東京都国立市泉1丁目8-3","lat":35.675488,"lon":139.43605},{"name":"焼却施設","province":"東京都","city":"国立市","address":"東京都国立市泉1丁目14","lat":35.672302,"lon":139.439758},{"name":"スポーツセンター\"","province":"東京都","city":"国立市","address":"東京都国立市富士見台2丁目1-1","lat":35.68666756,"lon":139.44659622},{"name":"くにたち中央図書館","province":"東京都","city":"国立市","address":"東京都国立市富士見台2丁目34","lat":35.68558704,"lon":139.44378816},{"name":"くにたち福祉会館","province":"東京都","city":"国立市","address":"東京都国立市富士見台2丁目38-5","lat":35.68744796,"lon":139.44467136},{"name":"国立市役所本庁舎","province":"東京都","city":"国立市","address":"東京都国立市富士見台2丁目47-1","lat":35.68391215,"lon":139.44136621},{"name":"くにたち市民芸術小ホール","province":"東京都","city":"国立市","address":"東京都国立市富士見台2丁目48-1","lat":35.68502867,"lon":139.44038015},{"name":"くにたち市民総合体育館","province":"東京都","city":"国立市","address":"東京都国立市富士見台2丁目48-1","lat":35.68502867,"lon":139.44038015},{"name":"国立市公民館","province":"東京都","city":"国立市","address":"東京都国立市中1丁目15-1","lat":35.69689686,"lon":139.44336835},{"name":"H1T国立","province":"東京都","city":"国立市","address":"東京都国立市東1丁目4-8","lat":35.69829961,"lon":139.44721796},{"name":"焼却施設","province":"東京都","city":"国立市","address":"東京都国立市泉1丁目8-3","lat":35.675488,"lon":139.43605},{"name":"焼却施設","province":"東京都","city":"国立市","address":"東京都国立市泉1丁目14","lat":35.672302,"lon":139.439758},{"name":"スポーツセンター\"","province":"東京都","city":"国立市","address":"東京都国立市富士見台2丁目1-1","lat":35.68666756,"lon":139.44659622},{"name":"くにたち中央図書館","province":"東京都","city":"国立市","address":"東京都国立市富士見台2丁目34","lat":35.68558704,"lon":139.44378816},{"name":"くにたち福祉会館","province":"東京都","city":"国立市","address":"東京都国立市富士見台2丁目38-5","lat":35.68744796,"lon":139.44467136},{"name":"国立市役所本庁舎","province":"東京都","city":"国立市","address":"東京都国立市富士見台2丁目47-1","lat":35.68391215,"lon":139.44136621},{"name":"くにたち市民芸術小ホール","province":"東京都","city":"国立市","address":"東京都国立市富士見台2丁目48-1","lat":35.68502867,"lon":139.44038015},{"name":"くにたち市民総合体育館","province":"東京都","city":"国立市","address":"東京都国立市富士見台2丁目48-1","lat":35.68502867,"lon":139.44038015},{"name":"国立市公民館","province":"東京都","city":"国立市","address":"東京都国立市中1丁目15-1","lat":35.69689686,"lon":139.44336835},{"name":"H1T国立","province":"東京都","city":"国立市","address":"東京都国立市東1丁目4-8","lat":35.69829961,"lon":139.44721796},{"name":"焼却施設","province":"東京都","city":"国立市","address":"東京都国立市泉1丁目8-3","lat":35.675488,"lon":139.43605},{"name":"焼却施設","province":"東京都","city":"国立市","address":"東京都国立市泉1丁目14","lat":35.672302,"lon":139.439758},{"name":"スポーツセンター\"","province":"東京都","city":"国立市","address":"東京都国立市富士見台2丁目1-1","lat":35.68666756,"lon":139.44659622},{"name":"くにたち中央図書館","province":"東京都","city":"国立市","address":"東京都国立市富士見台2丁目34","lat":35.68558704,"lon":139.44378816},{"name":"くにたち福祉会館","province":"東京都","city":"国立市","address":"東京都国立市富士見台2丁目38-5","lat":35.68744796,"lon":139.44467136},{"name":"国立市役所本庁舎","province":"東京都","city":"国立市","address":"東京都国立市富士見台2丁目47-1","lat":35.68391215,"lon":139.44136621},{"name":"くにたち市民芸術小ホール","province":"東京都","city":"国立市","address":"東京都国立市富士見台2丁目48-1","lat":35.68502867,"lon":139.44038015},{"name":"くにたち市民総合体育館","province":"東京都","city":"国立市","address":"東京都国立市富士見台2丁目48-1","lat":35.68502867,"lon":139.44038015},{"name":"国立市公民館","province":"東京都","city":"国立市","address":"東京都国立市中1丁目15-1","lat":35.69689686,"lon":139.44336835},{"name":"H1T国立","province":"東京都","city":"国立市","address":"東京都国立市東1丁目4-8","lat":35.69829961,"lon":139.44721796},{"name":"焼却施設","province":"東京都","city":"国立市","address":"東京都国立市泉1丁目8-3","lat":35.675488,"lon":139.43605},{"name":"焼却施設","province":"東京都","city":"国立市","address":"東京都国立市泉1丁目14","lat":35.672302,"lon":139.439758},{"name":"スポーツセンター\"","province":"東京都","city":"国立市","address":"東京都国立市富士見台2丁目1-1","lat":35.68666756,"lon":139.44659622},{"name":"くにたち中央図書館","province":"東京都","city":"国立市","address":"東京都国立市富士見台2丁目34","lat":35.68558704,"lon":139.44378816},{"name":"くにたち福祉会館","province":"東京都","city":"国立市","address":"東京都国立市富士見台2丁目38-5","lat":35.68744796,"lon":139.44467136},{"name":"国立市役所本庁舎","province":"東京都","city":"国立市","address":"東京都国立市富士見台2丁目47-1","lat":35.68391215,"lon":139.44136621},{"name":"くにたち市民芸術小ホール","province":"東京都","city":"国立市","address":"東京都国立市富士見台2丁目48-1","lat":35.68502867,"lon":139.44038015},{"name":"くにたち市民総合体育館","province":"東京都","city":"国立市","address":"東京都国立市富士見台2丁目48-1","lat":35.68502867,"lon":139.44038015},{"name":"国立市公民館","province":"東京都","city":"国立市","address":"東京都国立市中1丁目15-1","lat":35.69689686,"lon":139.44336835},{"name":"H1T国立","province":"東京都","city":"国立市","address":"東京都国立市東1丁目4-8","lat":35.69829961,"lon":139.44721796},{"name":"焼却施設","province":"東京都","city":"国立市","address":"東京都国立市泉1丁目8-3","lat":35.675488,"lon":139.43605},{"name":"焼却施設","province":"東京都","city":"国立市","address":"東京都国立市泉1丁目14","lat":35.672302,"lon":139.439758},{"name":"スポーツセンター\"","province":"東京都","city":"国立市","address":"東京都国立市富士見台2丁目1-1","lat":35.68666756,"lon":139.44659622},{"name":"くにたち中央図書館","province":"東京都","city":"国立市","address":"東京都国立市富士見台2丁目34","lat":35.68558704,"lon":139.44378816},{"name":"くにたち福祉会館","province":"東京都","city":"国立市","address":"東京都国立市富士見台2丁目38-5","lat":35.68744796,"lon":139.44467136},{"name":"国立市役所本庁舎","province":"東京都","city":"国立市","address":"東京都国立市富士見台2丁目47-1","lat":35.68391215,"lon":139.44136621},{"name":"くにたち市民芸術小ホール","province":"東京都","city":"国立市","address":"東京都国立市富士見台2丁目48-1","lat":35.68502867,"lon":139.44038015},{"name":"くにたち市民総合体育館","province":"東京都","city":"国立市","address":"東京都国立市富士見台2丁目48-1","lat":35.68502867,"lon":139.44038015},{"name":"国立市公民館","province":"東京都","city":"国立市","address":"東京都国立市中1丁目15-1","lat":35.69689686,"lon":139.44336835},{"name":"H1T国立","province":"東京都","city":"国立市","address":"東京都国立市東1丁目4-8","lat":35.69829961,"lon":139.44721796},{"name":"焼却施設","province":"東京都","city":"国立市","address":"東京都国立市泉1丁目8-3","lat":35.675488,"lon":139.43605},{"name":"焼却施設","province":"東京都","city":"国立市","address":"東京都国立市泉1丁目14","lat":35.672302,"lon":139.439758},{"name":"スポーツセンター\"","province":"東京都","city":"国立市","address":"東京都国立市富士見台2丁目1-1","lat":35.68666756,"lon":139.44659622},{"name":"くにたち中央図書館","province":"東京都","city":"国立市","address":"東京都国立市富士見台2丁目34","lat":35.68558704,"lon":139.44378816},{"name":"くにたち福祉会館","province":"東京都","city":"国立市","address":"東京都国立市富士見台2丁目38-5","lat":35.68744796,"lon":139.44467136},{"name":"国立市役所本庁舎","province":"東京都","city":"国立市","address":"東京都国立市富士見台2丁目47-1","lat":35.68391215,"lon":139.44136621},{"name":"くにたち市民芸術小ホール","province":"東京都","city":"国立市","address":"東京都国立市富士見台2丁目48-1","lat":35.68502867,"lon":139.44038015},{"name":"くにたち市民総合体育館","province":"東京都","city":"国立市","address":"東京都国立市富士見台2丁目48-1","lat":35.68502867,"lon":139.44038015},{"name":"国立市公民館","province":"東京都","city":"国立市","address":"東京都国立市中1丁目15-1","lat":35.69689686,"lon":139.44336835},{"name":"H1T国立","province":"東京都","city":"国立市","address":"東京都国立市東1丁目4-8","lat":35.69829961,"lon":139.44721796},{"name":"焼却施設","province":"東京都","city":"国立市","address":"東京都国立市泉1丁目8-3","lat":35.675488,"lon":139.43605},{"name":"焼却施設","province":"東京都","city":"国立市","address":"東京都国立市泉1丁目14","lat":35.672302,"lon":139.439758},{"name":"スポーツセンター\"","province":"東京都","city":"国立市","address":"東京都国立市富士見台2丁目1-1","lat":35.68666756,"lon":139.44659622},{"name":"くにたち中央図書館","province":"東京都","city":"国立市","address":"東京都国立市富士見台2丁目34","lat":35.68558704,"lon":139.44378816},{"name":"くにたち福祉会館","province":"東京都","city":"国立市","address":"東京都国立市富士見台2丁目38-5","lat":35.68744796,"lon":139.44467136},{"name":"国立市役所本庁舎","province":"東京都","city":"国立市","address":"東京都国立市富士見台2丁目47-1","lat":35.68391215,"lon":139.44136621},{"name":"くにたち市民芸術小ホール","province":"東京都","city":"国立市","address":"東京都国立市富士見台2丁目48-1","lat":35.68502867,"lon":139.44038015},{"name":"くにたち市民総合体育館","province":"東京都","city":"国立市","address":"東京都国立市富士見台2丁目48-1","lat":35.68502867,"lon":139.44038015},{"name":"国立市公民館","province":"東京都","city":"国立市","address":"東京都国立市中1丁目15-1","lat":35.69689686,"lon":139.44336835},{"name":"H1T国立","province":"東京都","city":"国立市","address":"東京都国立市東1丁目4-8","lat":35.69829961,"lon":139.44721796},{"name":"焼却施設","province":"東京都","city":"国立市","address":"東京都国立市泉1丁目8-3","lat":35.675488,"lon":139.43605},{"name":"焼却施設","province":"東京都","city":"国立市","address":"東京都国立市泉1丁目14","lat":35.672302,"lon":139.439758},{"name":"スポーツセンター\"","province":"東京都","city":"国立市","address":"東京都国立市富士見台2丁目1-1","lat":35.68666756,"lon":139.44659622},{"name":"くにたち中央図書館","province":"東京都","city":"国立市","address":"東京都国立市富士見台2丁目34","lat":35.68558704,"lon":139.44378816},{"name":"くにたち福祉会館","province":"東京都","city":"国立市","address":"東京都国立市富士見台2丁目38-5","lat":35.68744796,"lon":139.44467136},{"name":"国立市役所本庁舎","province":"東京都","city":"国立市","address":"東京都国立市富士見台2丁目47-1","lat":35.68391215,"lon":139.44136621},{"name":"くにたち市民芸術小ホール","province":"東京都","city":"国立市","address":"東京都国立市富士見台2丁目48-1","lat":35.68502867,"lon":139.44038015},{"name":"くにたち市民総合体育館","province":"東京都","city":"国立市","address":"東京都国立市富士見台2丁目48-1","lat":35.68502867,"lon":139.44038015},{"name":"国立市公民館","province":"東京都","city":"国立市","address":"東京都国立市中1丁目15-1","lat":35.69689686,"lon":139.44336835},{"name":"H1T国立","province":"東京都","city":"国立市","address":"東京都国立市東1丁目4-8","lat":35.69829961,"lon":139.44721796},{"name":"焼却施設","province":"東京都","city":"国立市","address":"東京都国立市泉1丁目8-3","lat":35.675488,"lon":139.43605},{"name":"焼却施設","province":"東京都","city":"国立市","address":"東京都国立市泉1丁目14","lat":35.672302,"lon":139.439758},{"name":"スポーツセンター\"","province":"東京都","city":"国立市","address":"東京都国立市富士見台2丁目1-1","lat":35.68666756,"lon":139.44659622},{"name":"くにたち中央図書館","province":"東京都","city":"国立市","address":"東京都国立市富士見台2丁目34","lat":35.68558704,"lon":139.44378816},{"name":"くにたち福祉会館","province":"東京都","city":"国立市","address":"東京都国立市富士見台2丁目38-5","lat":35.68744796,"lon":139.44467136},{"name":"国立市役所本庁舎","province":"東京都","city":"国立市","address":"東京都国立市富士見台2丁目47-1","lat":35.68391215,"lon":139.44136621},{"name":"くにたち市民芸術小ホール","province":"東京都","city":"国立市","address":"東京都国立市富士見台2丁目48-1","lat":35.68502867,"lon":139.44038015},{"name":"くにたち市民総合体育館","province":"東京都","city":"国立市","address":"東京都国立市富士見台2丁目48-1","lat":35.68502867,"lon":139.44038015},{"name":"国立市公民館","province":"東京都","city":"国立市","address":"東京都国立市中1丁目15-1","lat":35.69689686,"lon":139.44336835},{"name":"H1T国立","province":"東京都","city":"国立市","address":"東京都国立市東1丁目4-8","lat":35.69829961,"lon":139.44721796},{"name":"焼却施設","province":"東京都","city":"国立市","address":"東京都国立市泉1丁目8-3","lat":35.675488,"lon":139.43605},{"name":"焼却施設","province":"東京都","city":"国立市","address":"東京都国立市泉1丁目14","lat":35.672302,"lon":139.439758},{"name":"スポーツセンター\"","province":"東京都","city":"国立市","address":"東京都国立市富士見台2丁目1-1","lat":35.68666756,"lon":139.44659622},{"name":"くにたち中央図書館","province":"東京都","city":"国立市","address":"東京都国立市富士見台2丁目34","lat":35.68558704,"lon":139.44378816},{"name":"くにたち福祉会館","province":"東京都","city":"国立市","address":"東京都国立市富士見台2丁目38-5","lat":35.68744796,"lon":139.44467136},{"name":"国立市役所本庁舎","province":"東京都","city":"国立市","address":"東京都国立市富士見台2丁目47-1","lat":35.68391215,"lon":139.44136621},{"name":"くにたち市民芸術小ホール","province":"東京都","city":"国立市","address":"東京都国立市富士見台2丁目48-1","lat":35.68502867,"lon":139.44038015},{"name":"くにたち市民総合体育館","province":"東京都","city":"国立市","address":"東京都国立市富士見台2丁目48-1","lat":35.68502867,"lon":139.44038015},{"name":"国立市公民館","province":"東京都","city":"国立市","address":"東京都国立市中1丁目15-1","lat":35.69689686,"lon":139.44336835},{"name":"焼却施設","province":"東京都","city":"国立市","address":"東京都国立市泉1丁目8-3","lat":35.675488,"lon":139.43605},{"name":"焼却施設","province":"東京都","city":"国立市","address":"東京都国立市泉1丁目14","lat":35.672302,"lon":139.439758},{"name":"スポーツセンター\"","province":"東京都","city":"国立市","address":"東京都国立市富士見台2丁目1-1","lat":35.68666756,"lon":139.44659622},{"name":"くにたち中央図書館","province":"東京都","city":"国立市","address":"東京都国立市富士見台2丁目34","lat":35.68558704,"lon":139.44378816},{"name":"くにたち福祉会館","province":"東京都","city":"国立市","address":"東京都国立市富士見台2丁目38-5","lat":35.68744796,"lon":139.44467136},{"name":"国立市役所本庁舎","province":"東京都","city":"国立市","address":"東京都国立市富士見台2丁目47-1","lat":35.68391215,"lon":139.44136621},{"name":"くにたち市民芸術小ホール","province":"東京都","city":"国立市","address":"東京都国立市富士見台2丁目48-1","lat":35.68502867,"lon":139.44038015},{"name":"くにたち市民総合体育館","province":"東京都","city":"国立市","address":"東京都国立市富士見台2丁目48-1","lat":35.68502867,"lon":139.44038015},{"name":"国立市公民館","province":"東京都","city":"国立市","address":"東京都国立市中1丁目15-1","lat":35.69689686,"lon":139.44336835},{"name":"焼却施設","province":"東京都","city":"国立市","address":"東京都国立市泉1丁目8-3","lat":35.675488,"lon":139.43605},{"name":"焼却施設","province":"東京都","city":"国立市","address":"東京都国立市泉1丁目14","lat":35.672302,"lon":139.439758},{"name":"スポーツセンター\"","province":"東京都","city":"国立市","address":"東京都国立市富士見台2丁目1-1","lat":35.68666756,"lon":139.44659622},{"name":"くにたち中央図書館","province":"東京都","city":"国立市","address":"東京都国立市富士見台2丁目34","lat":35.68558704,"lon":139.44378816},{"name":"くにたち福祉会館","province":"東京都","city":"国立市","address":"東京都国立市富士見台2丁目38-5","lat":35.68744796,"lon":139.44467136},{"name":"国立市役所本庁舎","province":"東京都","city":"国立市","address":"東京都国立市富士見台2丁目47-1","lat":35.68391215,"lon":139.44136621},{"name":"くにたち市民芸術小ホール","province":"東京都","city":"国立市","address":"東京都国立市富士見台2丁目48-1","lat":35.68502867,"lon":139.44038015},{"name":"くにたち市民総合体育館","province":"東京都","city":"国立市","address":"東京都国立市富士見台2丁目48-1","lat":35.68502867,"lon":139.44038015},{"name":"国立市公民館","province":"東京都","city":"国立市","address":"東京都国立市中1丁目15-1","lat":35.69689686,"lon":139.44336835},{"name":"焼却施設","province":"東京都","city":"国立市","address":"東京都国立市泉1丁目8-3","lat":35.675488,"lon":139.43605},{"name":"焼却施設","province":"東京都","city":"国立市","address":"東京都国立市泉1丁目14","lat":35.672302,"lon":139.439758},{"name":"スポーツセンター\"","province":"東京都","city":"国立市","address":"東京都国立市富士見台2丁目1-1","lat":35.68666756,"lon":139.44659622},{"name":"くにたち中央図書館","province":"東京都","city":"国立市","address":"東京都国立市富士見台2丁目34","lat":35.68558704,"lon":139.44378816},{"name":"くにたち福祉会館","province":"東京都","city":"国立市","address":"東京都国立市富士見台2丁目38-5","lat":35.68744796,"lon":139.44467136},{"name":"国立市役所本庁舎","province":"東京都","city":"国立市","address":"東京都国立市富士見台2丁目47-1","lat":35.68391215,"lon":139.44136621},{"name":"くにたち市民芸術小ホール","province":"東京都","city":"国立市","address":"東京都国立市富士見台2丁目48-1","lat":35.68502867,"lon":139.44038015},{"name":"くにたち市民総合体育館","province":"東京都","city":"国立市","address":"東京都国立市富士見台2丁目48-1","lat":35.68502867,"lon":139.44038015},{"name":"国立市公民館","province":"東京都","city":"国立市","address":"東京都国立市中1丁目15-1","lat":35.69689686,"lon":139.44336835},{"name":"焼却施設","province":"東京都","city":"国立市","address":"東京都国立市泉1丁目8-3","lat":35.675488,"lon":139.43605},{"name":"焼却施設","province":"東京都","city":"国立市","address":"東京都国立市泉1丁目14","lat":35.672302,"lon":139.439758},{"name":"スポーツセンター\"","province":"東京都","city":"国立市","address":"東京都国立市富士見台2丁目1-1","lat":35.68666756,"lon":139.44659622},{"name":"くにたち中央図書館","province":"東京都","city":"国立市","address":"東京都国立市富士見台2丁目34","lat":35.68558704,"lon":139.44378816},{"name":"くにたち福祉会館","province":"東京都","city":"国立市","address":"東京都国立市富士見台2丁目38-5","lat":35.68744796,"lon":139.44467136},{"name":"国立市役所本庁舎","province":"東京都","city":"国立市","address":"東京都国立市富士見台2丁目47-1","lat":35.68391215,"lon":139.44136621},{"name":"くにたち市民芸術小ホール","province":"東京都","city":"国立市","address":"東京都国立市富士見台2丁目48-1","lat":35.68502867,"lon":139.44038015},{"name":"くにたち市民総合体育館","province":"東京都","city":"国立市","address":"東京都国立市富士見台2丁目48-1","lat":35.68502867,"lon":139.44038015},{"name":"国立市公民館","province":"東京都","city":"国立市","address":"東京都国立市中1丁目15-1","lat":35.69689686,"lon":139.44336835},{"name":"焼却施設","province":"東京都","city":"国立市","address":"東京都国立市泉1丁目8-3","lat":35.675488,"lon":139.43605},{"name":"焼却施設","province":"東京都","city":"国立市","address":"東京都国立市泉1丁目14","lat":35.672302,"lon":139.439758},{"name":"スポーツセンター\"","province":"東京都","city":"国立市","address":"東京都国立市富士見台2丁目1-1","lat":35.68666756,"lon":139.44659622},{"name":"くにたち中央図書館","province":"東京都","city":"国立市","address":"東京都国立市富士見台2丁目34","lat":35.68558704,"lon":139.44378816},{"name":"くにたち福祉会館","province":"東京都","city":"国立市","address":"東京都国立市富士見台2丁目38-5","lat":35.68744796,"lon":139.44467136},{"name":"国立市役所本庁舎","province":"東京都","city":"国立市","address":"東京都国立市富士見台2丁目47-1","lat":35.68391215,"lon":139.44136621},{"name":"くにたち市民芸術小ホール","province":"東京都","city":"国立市","address":"東京都国立市富士見台2丁目48-1","lat":35.68502867,"lon":139.44038015},{"name":"くにたち市民総合体育館","province":"東京都","city":"国立市","address":"東京都国立市富士見台2丁目48-1","lat":35.68502867,"lon":139.44038015},{"name":"国立市公民館","province":"東京都","city":"国立市","address":"東京都国立市中1丁目15-1","lat":35.69689686,"lon":139.44336835},{"name":"焼却施設","province":"東京都","city":"国立市","address":"東京都国立市泉1丁目8-3","lat":35.675488,"lon":139.43605},{"name":"焼却施設","province":"東京都","city":"国立市","address":"東京都国立市泉1丁目14","lat":35.672302,"lon":139.439758},{"name":"スポーツセンター\"","province":"東京都","city":"国立市","address":"東京都国立市富士見台2丁目1-1","lat":35.68666756,"lon":139.44659622},{"name":"くにたち中央図書館","province":"東京都","city":"国立市","address":"東京都国立市富士見台2丁目34","lat":35.68558704,"lon":139.44378816},{"name":"くにたち福祉会館","province":"東京都","city":"国立市","address":"東京都国立市富士見台2丁目38-5","lat":35.68744796,"lon":139.44467136},{"name":"国立市役所本庁舎","province":"東京都","city":"国立市","address":"東京都国立市富士見台2丁目47-1","lat":35.68391215,"lon":139.44136621},{"name":"くにたち市民芸術小ホール","province":"東京都","city":"国立市","address":"東京都国立市富士見台2丁目48-1","lat":35.68502867,"lon":139.44038015},{"name":"くにたち市民総合体育館","province":"東京都","city":"国立市","address":"東京都国立市富士見台2丁目48-1","lat":35.68502867,"lon":139.44038015},{"name":"国立市公民館","province":"東京都","city":"国立市","address":"東京都国立市中1丁目15-1","lat":35.69689686,"lon":139.44336835},{"name":"焼却施設","province":"東京都","city":"国立市","address":"東京都国立市泉1丁目8-3","lat":35.675488,"lon":139.43605},{"name":"焼却施設","province":"東京都","city":"国立市","address":"東京都国立市泉1丁目14","lat":35.672302,"lon":139.439758},{"name":"スポーツセンター\"","province":"東京都","city":"国立市","address":"東京都国立市富士見台2丁目1-1","lat":35.68666756,"lon":139.44659622},{"name":"くにたち中央図書館","province":"東京都","city":"国立市","address":"東京都国立市富士見台2丁目34","lat":35.68558704,"lon":139.44378816},{"name":"くにたち福祉会館","province":"東京都","city":"国立市","address":"東京都国立市富士見台2丁目38-5","lat":35.68744796,"lon":139.44467136},{"name":"国立市役所本庁舎","province":"東京都","city":"国立市","address":"東京都国立市富士見台2丁目47-1","lat":35.68391215,"lon":139.44136621},{"name":"くにたち市民芸術小ホール","province":"東京都","city":"国立市","address":"東京都国立市富士見台2丁目48-1","lat":35.68502867,"lon":139.44038015},{"name":"くにたち市民総合体育館","province":"東京都","city":"国立市","address":"東京都国立市富士見台2丁目48-1","lat":35.68502867,"lon":139.44038015},{"name":"国立市公民館","province":"東京都","city":"国立市","address":"東京都国立市中1丁目15-1","lat":35.69689686,"lon":139.44336835},{"name":"焼却施設","province":"東京都","city":"国立市","address":"東京都国立市泉1丁目8-3","lat":35.675488,"lon":139.43605},{"name":"焼却施設","province":"東京都","city":"国立市","address":"東京都国立市泉1丁目14","lat":35.672302,"lon":139.439758},{"name":"スポーツセンター\"","province":"東京都","city":"国立市","address":"東京都国立市富士見台2丁目1-1","lat":35.68666756,"lon":139.44659622},{"name":"くにたち中央図書館","province":"東京都","city":"国立市","address":"東京都国立市富士見台2丁目34","lat":35.68558704,"lon":139.44378816},{"name":"くにたち福祉会館","province":"東京都","city":"国立市","address":"東京都国立市富士見台2丁目38-5","lat":35.68744796,"lon":139.44467136},{"name":"国立市役所本庁舎","province":"東京都","city":"国立市","address":"東京都国立市富士見台2丁目47-1","lat":35.68391215,"lon":139.44136621},{"name":"くにたち市民芸術小ホール","province":"東京都","city":"国立市","address":"東京都国立市富士見台2丁目48-1","lat":35.68502867,"lon":139.44038015},{"name":"くにたち市民総合体育館","province":"東京都","city":"国立市","address":"東京都国立市富士見台2丁目48-1","lat":35.68502867,"lon":139.44038015},{"name":"国立市公民館","province":"東京都","city":"国立市","address":"東京都国立市中1丁目15-1","lat":35.69689686,"lon":139.44336835},{"name":"焼却施設","province":"東京都","city":"国立市","address":"東京都国立市泉1丁目8-3","lat":35.675488,"lon":139.43605},{"name":"焼却施設","province":"東京都","city":"国立市","address":"東京都国立市泉1丁目14","lat":35.672302,"lon":139.439758},{"name":"スポーツセンター\"","province":"東京都","city":"国立市","address":"東京都国立市富士見台2丁目1-1","lat":35.68666756,"lon":139.44659622},{"name":"くにたち中央図書館","province":"東京都","city":"国立市","address":"東京都国立市富士見台2丁目34","lat":35.68558704,"lon":139.44378816},{"name":"くにたち福祉会館","province":"東京都","city":"国立市","address":"東京都国立市富士見台2丁目38-5","lat":35.68744796,"lon":139.44467136},{"name":"国立市役所本庁舎","province":"東京都","city":"国立市","address":"東京都国立市富士見台2丁目47-1","lat":35.68391215,"lon":139.44136621},{"name":"くにたち市民芸術小ホール","province":"東京都","city":"国立市","address":"東京都国立市富士見台2丁目48-1","lat":35.68502867,"lon":139.44038015},{"name":"くにたち市民総合体育館","province":"東京都","city":"国立市","address":"東京都国立市富士見台2丁目48-1","lat":35.68502867,"lon":139.44038015},{"name":"国立市公民館","province":"東京都","city":"国立市","address":"東京都国立市中1丁目15-1","lat":35.69689686,"lon":139.44336835},{"name":"焼却施設","province":"東京都","city":"国立市","address":"東京都国立市泉1丁目8-3","lat":35.675488,"lon":139.43605},{"name":"焼却施設","province":"東京都","city":"国立市","address":"東京都国立市泉1丁目14","lat":35.672302,"lon":139.439758},{"name":"スポーツセンター\"","province":"東京都","city":"国立市","address":"東京都国立市富士見台2丁目1-1","lat":35.68666756,"lon":139.44659622},{"name":"くにたち中央図書館","province":"東京都","city":"国立市","address":"東京都国立市富士見台2丁目34","lat":35.68558704,"lon":139.44378816},{"name":"くにたち福祉会館","province":"東京都","city":"国立市","address":"東京都国立市富士見台2丁目38-5","lat":35.68744796,"lon":139.44467136},{"name":"国立市役所本庁舎","province":"東京都","city":"国立市","address":"東京都国立市富士見台2丁目47-1","lat":35.68391215,"lon":139.44136621},{"name":"くにたち市民芸術小ホール","province":"東京都","city":"国立市","address":"東京都国立市富士見台2丁目48-1","lat":35.68502867,"lon":139.44038015},{"name":"くにたち市民総合体育館","province":"東京都","city":"国立市","address":"東京都国立市富士見台2丁目48-1","lat":35.68502867,"lon":139.44038015},{"name":"国立市公民館","province":"東京都","city":"国立市","address":"東京都国立市中1丁目15-1","lat":35.69689686,"lon":139.44336835},{"name":"焼却施設","province":"東京都","city":"国立市","address":"東京都国立市泉1丁目8-3","lat":35.675488,"lon":139.43605},{"name":"焼却施設","province":"東京都","city":"国立市","address":"東京都国立市泉1丁目14","lat":35.672302,"lon":139.439758},{"name":"スポーツセンター\"","province":"東京都","city":"国立市","address":"東京都国立市富士見台2丁目1-1","lat":35.68666756,"lon":139.44659622},{"name":"くにたち中央図書館","province":"東京都","city":"国立市","address":"東京都国立市富士見台2丁目34","lat":35.68558704,"lon":139.44378816},{"name":"くにたち福祉会館","province":"東京都","city":"国立市","address":"東京都国立市富士見台2丁目38-5","lat":35.68744796,"lon":139.44467136},{"name":"国立市役所本庁舎","province":"東京都","city":"国立市","address":"東京都国立市富士見台2丁目47-1","lat":35.68391215,"lon":139.44136621},{"name":"くにたち市民芸術小ホール","province":"東京都","city":"国立市","address":"東京都国立市富士見台2丁目48-1","lat":35.68502867,"lon":139.44038015},{"name":"くにたち市民総合体育館","province":"東京都","city":"国立市","address":"東京都国立市富士見台2丁目48-1","lat":35.68502867,"lon":139.44038015},{"name":"国立市公民館","province":"東京都","city":"国立市","address":"東京都国立市中1丁目15-1","lat":35.69689686,"lon":139.44336835},{"name":"焼却施設","province":"東京都","city":"国立市","address":"東京都国立市泉1丁目8-3","lat":35.675488,"lon":139.43605},{"name":"焼却施設","province":"東京都","city":"国立市","address":"東京都国立市泉1丁目14","lat":35.672302,"lon":139.439758},{"name":"スポーツセンター\"","province":"東京都","city":"国立市","address":"東京都国立市富士見台2丁目1-1","lat":35.68666756,"lon":139.44659622},{"name":"くにたち中央図書館","province":"東京都","city":"国立市","address":"東京都国立市富士見台2丁目34","lat":35.68558704,"lon":139.44378816},{"name":"くにたち福祉会館","province":"東京都","city":"国立市","address":"東京都国立市富士見台2丁目38-5","lat":35.68744796,"lon":139.44467136},{"name":"国立市役所本庁舎","province":"東京都","city":"国立市","address":"東京都国立市富士見台2丁目47-1","lat":35.68391215,"lon":139.44136621},{"name":"くにたち市民芸術小ホール","province":"東京都","city":"国立市","address":"東京都国立市富士見台2丁目48-1","lat":35.68502867,"lon":139.44038015},{"name":"くにたち市民総合体育館","province":"東京都","city":"国立市","address":"東京都国立市富士見台2丁目48-1","lat":35.68502867,"lon":139.44038015},{"name":"国立市公民館","province":"東京都","city":"国立市","address":"東京都国立市中1丁目15-1","lat":35.69689686,"lon":139.44336835},{"name":"焼却施設","province":"東京都","city":"国立市","address":"東京都国立市泉1丁目8-3","lat":35.675488,"lon":139.43605},{"name":"焼却施設","province":"東京都","city":"国立市","address":"東京都国立市泉1丁目14","lat":35.672302,"lon":139.439758},{"name":"スポーツセンター\"","province":"東京都","city":"国立市","address":"東京都国立市富士見台2丁目1-1","lat":35.68666756,"lon":139.44659622},{"name":"くにたち中央図書館","province":"東京都","city":"国立市","address":"東京都国立市富士見台2丁目34","lat":35.68558704,"lon":139.44378816},{"name":"くにたち福祉会館","province":"東京都","city":"国立市","address":"東京都国立市富士見台2丁目38-5","lat":35.68744796,"lon":139.44467136},{"name":"国立市役所本庁舎","province":"東京都","city":"国立市","address":"東京都国立市富士見台2丁目47-1","lat":35.68391215,"lon":139.44136621},{"name":"くにたち市民芸術小ホール","province":"東京都","city":"国立市","address":"東京都国立市富士見台2丁目48-1","lat":35.68502867,"lon":139.44038015},{"name":"くにたち市民総合体育館","province":"東京都","city":"国立市","address":"東京都国立市富士見台2丁目48-1","lat":35.68502867,"lon":139.44038015},{"name":"国立市公民館","province":"東京都","city":"国立市","address":"東京都国立市中1丁目15-1","lat":35.69689686,"lon":139.44336835},{"name":"スポーツセンター\"","province":"東京都","city":"国立市","address":"東京都国立市富士見台2丁目1-1","lat":35.68666756,"lon":139.44659622},{"name":"くにたち中央図書館","province":"東京都","city":"国立市","address":"東京都国立市富士見台2丁目34","lat":35.68558704,"lon":139.44378816},{"name":"くにたち福祉会館","province":"東京都","city":"国立市","address":"東京都国立市富士見台2丁目38-5","lat":35.68744796,"lon":139.44467136},{"name":"国立市役所本庁舎","province":"東京都","city":"国立市","address":"東京都国立市富士見台2丁目47-1","lat":35.68391215,"lon":139.44136621},{"name":"くにたち市民芸術小ホール","province":"東京都","city":"国立市","address":"東京都国立市富士見台2丁目48-1","lat":35.68502867,"lon":139.44038015},{"name":"くにたち市民総合体育館","province":"東京都","city":"国立市","address":"東京都国立市富士見台2丁目48-1","lat":35.68502867,"lon":139.44038015},{"name":"国立市公民館","province":"東京都","city":"国立市","address":"東京都国立市中1丁目15-1","lat":35.69689686,"lon":139.44336835},{"name":"スポーツセンター\"","province":"東京都","city":"国立市","address":"東京都国立市富士見台2丁目1-1","lat":35.68666756,"lon":139.44659622},{"name":"くにたち中央図書館","province":"東京都","city":"国立市","address":"東京都国立市富士見台2丁目34","lat":35.68558704,"lon":139.44378816},{"name":"くにたち福祉会館","province":"東京都","city":"国立市","address":"東京都国立市富士見台2丁目38-5","lat":35.68744796,"lon":139.44467136},{"name":"国立市役所本庁舎","province":"東京都","city":"国立市","address":"東京都国立市富士見台2丁目47-1","lat":35.68391215,"lon":139.44136621},{"name":"くにたち市民芸術小ホール","province":"東京都","city":"国立市","address":"東京都国立市富士見台2丁目48-1","lat":35.68502867,"lon":139.44038015},{"name":"くにたち市民総合体育館","province":"東京都","city":"国立市","address":"東京都国立市富士見台2丁目48-1","lat":35.68502867,"lon":139.44038015},{"name":"国立市公民館","province":"東京都","city":"国立市","address":"東京都国立市中1丁目15-1","lat":35.69689686,"lon":139.44336835},{"name":"スポーツセンター\"","province":"東京都","city":"国立市","address":"東京都国立市富士見台2丁目1-1","lat":35.68666756,"lon":139.44659622},{"name":"くにたち中央図書館","province":"東京都","city":"国立市","address":"東京都国立市富士見台2丁目34","lat":35.68558704,"lon":139.44378816},{"name":"くにたち福祉会館","province":"東京都","city":"国立市","address":"東京都国立市富士見台2丁目38-5","lat":35.68744796,"lon":139.44467136},{"name":"国立市役所本庁舎","province":"東京都","city":"国立市","address":"東京都国立市富士見台2丁目47-1","lat":35.68391215,"lon":139.44136621},{"name":"くにたち市民芸術小ホール","province":"東京都","city":"国立市","address":"東京都国立市富士見台2丁目48-1","lat":35.68502867,"lon":139.44038015},{"name":"くにたち市民総合体育館","province":"東京都","city":"国立市","address":"東京都国立市富士見台2丁目48-1","lat":35.68502867,"lon":139.44038015},{"name":"国立市公民館","province":"東京都","city":"国立市","address":"東京都国立市中1丁目15-1","lat":35.69689686,"lon":139.44336835},{"name":"スポーツセンター\"","province":"東京都","city":"国立市","address":"東京都国立市富士見台2丁目1-1","lat":35.68666756,"lon":139.44659622},{"name":"くにたち中央図書館","province":"東京都","city":"国立市","address":"東京都国立市富士見台2丁目34","lat":35.68558704,"lon":139.44378816},{"name":"くにたち福祉会館","province":"東京都","city":"国立市","address":"東京都国立市富士見台2丁目38-5","lat":35.68744796,"lon":139.44467136},{"name":"国立市役所本庁舎","province":"東京都","city":"国立市","address":"東京都国立市富士見台2丁目47-1","lat":35.68391215,"lon":139.44136621},{"name":"くにたち市民芸術小ホール","province":"東京都","city":"国立市","address":"東京都国立市富士見台2丁目48-1","lat":35.68502867,"lon":139.44038015},{"name":"くにたち市民総合体育館","province":"東京都","city":"国立市","address":"東京都国立市富士見台2丁目48-1","lat":35.68502867,"lon":139.44038015},{"name":"国立市公民館","province":"東京都","city":"国立市","address":"東京都国立市中1丁目15-1","lat":35.69689686,"lon":139.44336835},{"name":"スポーツセンター\"","province":"東京都","city":"国立市","address":"東京都国立市富士見台2丁目1-1","lat":35.68666756,"lon":139.44659622},{"name":"くにたち中央図書館","province":"東京都","city":"国立市","address":"東京都国立市富士見台2丁目34","lat":35.68558704,"lon":139.44378816},{"name":"くにたち福祉会館","province":"東京都","city":"国立市","address":"東京都国立市富士見台2丁目38-5","lat":35.68744796,"lon":139.44467136},{"name":"国立市役所本庁舎","province":"東京都","city":"国立市","address":"東京都国立市富士見台2丁目47-1","lat":35.68391215,"lon":139.44136621},{"name":"くにたち市民芸術小ホール","province":"東京都","city":"国立市","address":"東京都国立市富士見台2丁目48-1","lat":35.68502867,"lon":139.44038015},{"name":"くにたち市民総合体育館","province":"東京都","city":"国立市","address":"東京都国立市富士見台2丁目48-1","lat":35.68502867,"lon":139.44038015},{"name":"国立市公民館","province":"東京都","city":"国立市","address":"東京都国立市中1丁目15-1","lat":35.69689686,"lon":139.44336835},{"name":"スポーツセンター\"","province":"東京都","city":"国立市","address":"東京都国立市富士見台2丁目1-1","lat":35.68666756,"lon":139.44659622},{"name":"くにたち中央図書館","province":"東京都","city":"国立市","address":"東京都国立市富士見台2丁目34","lat":35.68558704,"lon":139.44378816},{"name":"くにたち福祉会館","province":"東京都","city":"国立市","address":"東京都国立市富士見台2丁目38-5","lat":35.68744796,"lon":139.44467136},{"name":"国立市役所本庁舎","province":"東京都","city":"国立市","address":"東京都国立市富士見台2丁目47-1","lat":35.68391215,"lon":139.44136621},{"name":"くにたち市民芸術小ホール","province":"東京都","city":"国立市","address":"東京都国立市富士見台2丁目48-1","lat":35.68502867,"lon":139.44038015},{"name":"くにたち市民総合体育館","province":"東京都","city":"国立市","address":"東京都国立市富士見台2丁目48-1","lat":35.68502867,"lon":139.44038015},{"name":"国立市公民館","province":"東京都","city":"国立市","address":"東京都国立市中1丁目15-1","lat":35.69689686,"lon":139.44336835},{"name":"スポーツセンター\"","province":"東京都","city":"国立市","address":"東京都国立市富士見台2丁目1-1","lat":35.68666756,"lon":139.44659622},{"name":"くにたち中央図書館","province":"東京都","city":"国立市","address":"東京都国立市富士見台2丁目34","lat":35.68558704,"lon":139.44378816},{"name":"くにたち福祉会館","province":"東京都","city":"国立市","address":"東京都国立市富士見台2丁目38-5","lat":35.68744796,"lon":139.44467136},{"name":"国立市役所本庁舎","province":"東京都","city":"国立市","address":"東京都国立市富士見台2丁目47-1","lat":35.68391215,"lon":139.44136621},{"name":"くにたち市民芸術小ホール","province":"東京都","city":"国立市","address":"東京都国立市富士見台2丁目48-1","lat":35.68502867,"lon":139.44038015},{"name":"くにたち市民総合体育館","province":"東京都","city":"国立市","address":"東京都国立市富士見台2丁目48-1","lat":35.68502867,"lon":139.44038015},{"name":"国立市公民館","province":"東京都","city":"国立市","address":"東京都国立市中1丁目15-1","lat":35.69689686,"lon":139.44336835},{"name":"スポーツセンター\"","province":"東京都","city":"国立市","address":"東京都国立市富士見台2丁目1-1","lat":35.68666756,"lon":139.44659622},{"name":"くにたち中央図書館","province":"東京都","city":"国立市","address":"東京都国立市富士見台2丁目34","lat":35.68558704,"lon":139.44378816},{"name":"くにたち福祉会館","province":"東京都","city":"国立市","address":"東京都国立市富士見台2丁目38-5","lat":35.68744796,"lon":139.44467136},{"name":"国立市役所本庁舎","province":"東京都","city":"国立市","address":"東京都国立市富士見台2丁目47-1","lat":35.68391215,"lon":139.44136621},{"name":"くにたち市民芸術小ホール","province":"東京都","city":"国立市","address":"東京都国立市富士見台2丁目48-1","lat":35.68502867,"lon":139.44038015},{"name":"くにたち市民総合体育館","province":"東京都","city":"国立市","address":"東京都国立市富士見台2丁目48-1","lat":35.68502867,"lon":139.44038015},{"name":"国立市公民館","province":"東京都","city":"国立市","address":"東京都国立市中1丁目15-1","lat":35.69689686,"lon":139.44336835},{"name":"スポーツセンター\"","province":"東京都","city":"国立市","address":"東京都国立市富士見台2丁目1-1","lat":35.68666756,"lon":139.44659622},{"name":"くにたち中央図書館","province":"東京都","city":"国立市","address":"東京都国立市富士見台2丁目34","lat":35.68558704,"lon":139.44378816},{"name":"くにたち福祉会館","province":"東京都","city":"国立市","address":"東京都国立市富士見台2丁目38-5","lat":35.68744796,"lon":139.44467136},{"name":"国立市役所本庁舎","province":"東京都","city":"国立市","address":"東京都国立市富士見台2丁目47-1","lat":35.68391215,"lon":139.44136621},{"name":"くにたち市民芸術小ホール","province":"東京都","city":"国立市","address":"東京都国立市富士見台2丁目48-1","lat":35.68502867,"lon":139.44038015},{"name":"くにたち市民総合体育館","province":"東京都","city":"国立市","address":"東京都国立市富士見台2丁目48-1","lat":35.68502867,"lon":139.44038015},{"name":"国立市公民館","province":"東京都","city":"国立市","address":"東京都国立市中1丁目15-1","lat":35.69689686,"lon":139.44336835},{"name":"スポーツセンター\"","province":"東京都","city":"国立市","address":"東京都国立市富士見台2丁目1-1","lat":35.68666756,"lon":139.44659622},{"name":"くにたち中央図書館","province":"東京都","city":"国立市","address":"東京都国立市富士見台2丁目34","lat":35.68558704,"lon":139.44378816},{"name":"くにたち福祉会館","province":"東京都","city":"国立市","address":"東京都国立市富士見台2丁目38-5","lat":35.68744796,"lon":139.44467136},{"name":"国立市役所本庁舎","province":"東京都","city":"国立市","address":"東京都国立市富士見台2丁目47-1","lat":35.68391215,"lon":139.44136621},{"name":"くにたち市民芸術小ホール","province":"東京都","city":"国立市","address":"東京都国立市富士見台2丁目48-1","lat":35.68502867,"lon":139.44038015},{"name":"くにたち市民総合体育館","province":"東京都","city":"国立市","address":"東京都国立市富士見台2丁目48-1","lat":35.68502867,"lon":139.44038015},{"name":"国立市公民館","province":"東京都","city":"国立市","address":"東京都国立市中1丁目15-1","lat":35.69689686,"lon":139.44336835},{"name":"スポーツセンター\"","province":"東京都","city":"国立市","address":"東京都国立市富士見台2丁目1-1","lat":35.68666756,"lon":139.44659622},{"name":"くにたち中央図書館","province":"東京都","city":"国立市","address":"東京都国立市富士見台2丁目34","lat":35.68558704,"lon":139.44378816},{"name":"くにたち福祉会館","province":"東京都","city":"国立市","address":"東京都国立市富士見台2丁目38-5","lat":35.68744796,"lon":139.44467136},{"name":"国立市役所本庁舎","province":"東京都","city":"国立市","address":"東京都国立市富士見台2丁目47-1","lat":35.68391215,"lon":139.44136621},{"name":"くにたち市民芸術小ホール","province":"東京都","city":"国立市","address":"東京都国立市富士見台2丁目48-1","lat":35.68502867,"lon":139.44038015},{"name":"くにたち市民総合体育館","province":"東京都","city":"国立市","address":"東京都国立市富士見台2丁目48-1","lat":35.68502867,"lon":139.44038015},{"name":"国立市公民館","province":"東京都","city":"国立市","address":"東京都国立市中1丁目15-1","lat":35.69689686,"lon":139.44336835},{"name":"スポーツセンター\"","province":"東京都","city":"国立市","address":"東京都国立市富士見台2丁目1-1","lat":35.68666756,"lon":139.44659622},{"name":"くにたち中央図書館","province":"東京都","city":"国立市","address":"東京都国立市富士見台2丁目34","lat":35.68558704,"lon":139.44378816},{"name":"くにたち福祉会館","province":"東京都","city":"国立市","address":"東京都国立市富士見台2丁目38-5","lat":35.68744796,"lon":139.44467136},{"name":"国立市役所本庁舎","province":"東京都","city":"国立市","address":"東京都国立市富士見台2丁目47-1","lat":35.68391215,"lon":139.44136621},{"name":"くにたち市民芸術小ホール","province":"東京都","city":"国立市","address":"東京都国立市富士見台2丁目48-1","lat":35.68502867,"lon":139.44038015},{"name":"くにたち市民総合体育館","province":"東京都","city":"国立市","address":"東京都国立市富士見台2丁目48-1","lat":35.68502867,"lon":139.44038015},{"name":"国立市公民館","province":"東京都","city":"国立市","address":"東京都国立市中1丁目15-1","lat":35.69689686,"lon":139.44336835},{"name":"スポーツセンター\"","province":"東京都","city":"国立市","address":"東京都国立市富士見台2丁目1-1","lat":35.68666756,"lon":139.44659622},{"name":"くにたち中央図書館","province":"東京都","city":"国立市","address":"東京都国立市富士見台2丁目34","lat":35.68558704,"lon":139.44378816},{"name":"くにたち福祉会館","province":"東京都","city":"国立市","address":"東京都国立市富士見台2丁目38-5","lat":35.68744796,"lon":139.44467136},{"name":"国立市役所本庁舎","province":"東京都","city":"国立市","address":"東京都国立市富士見台2丁目47-1","lat":35.68391215,"lon":139.44136621},{"name":"くにたち市民芸術小ホール","province":"東京都","city":"国立市","address":"東京都国立市富士見台2丁目48-1","lat":35.68502867,"lon":139.44038015},{"name":"くにたち市民総合体育館","province":"東京都","city":"国立市","address":"東京都国立市富士見台2丁目48-1","lat":35.68502867,"lon":139.44038015},{"name":"国立市公民館","province":"東京都","city":"国立市","address":"東京都国立市中1丁目15-1","lat":35.69689686,"lon":139.44336835},{"name":"スポーツセンター\"","province":"東京都","city":"国立市","address":"東京都国立市富士見台2丁目1-1","lat":35.68666756,"lon":139.44659622},{"name":"くにたち中央図書館","province":"東京都","city":"国立市","address":"東京都国立市富士見台2丁目34","lat":35.68558704,"lon":139.44378816},{"name":"くにたち福祉会館","province":"東京都","city":"国立市","address":"東京都国立市富士見台2丁目38-5","lat":35.68744796,"lon":139.44467136},{"name":"国立市役所本庁舎","province":"東京都","city":"国立市","address":"東京都国立市富士見台2丁目47-1","lat":35.68391215,"lon":139.44136621},{"name":"くにたち市民芸術小ホール","province":"東京都","city":"国立市","address":"東京都国立市富士見台2丁目48-1","lat":35.68502867,"lon":139.44038015},{"name":"くにたち市民総合体育館","province":"東京都","city":"国立市","address":"東京都国立市富士見台2丁目48-1","lat":35.68502867,"lon":139.44038015},{"name":"国立市公民館","province":"東京都","city":"国立市","address":"東京都国立市中1丁目15-1","lat":35.69689686,"lon":139.44336835},{"name":"スポーツセンター\"","province":"東京都","city":"国立市","address":"東京都国立市富士見台2丁目1-1","lat":35.68666756,"lon":139.44659622},{"name":"くにたち中央図書館","province":"東京都","city":"国立市","address":"東京都国立市富士見台2丁目34","lat":35.68558704,"lon":139.44378816},{"name":"くにたち福祉会館","province":"東京都","city":"国立市","address":"東京都国立市富士見台2丁目38-5","lat":35.68744796,"lon":139.44467136},{"name":"国立市役所本庁舎","province":"東京都","city":"国立市","address":"東京都国立市富士見台2丁目47-1","lat":35.68391215,"lon":139.44136621},{"name":"くにたち市民芸術小ホール","province":"東京都","city":"国立市","address":"東京都国立市富士見台2丁目48-1","lat":35.68502867,"lon":139.44038015},{"name":"くにたち市民総合体育館","province":"東京都","city":"国立市","address":"東京都国立市富士見台2丁目48-1","lat":35.68502867,"lon":139.44038015},{"name":"国立市公民館","province":"東京都","city":"国立市","address":"東京都国立市中1丁目15-1","lat":35.69689686,"lon":139.44336835},{"name":"スポーツセンター\"","province":"東京都","city":"国立市","address":"東京都国立市富士見台2丁目1-1","lat":35.68666756,"lon":139.44659622},{"name":"くにたち中央図書館","province":"東京都","city":"国立市","address":"東京都国立市富士見台2丁目34","lat":35.68558704,"lon":139.44378816},{"name":"くにたち福祉会館","province":"東京都","city":"国立市","address":"東京都国立市富士見台2丁目38-5","lat":35.68744796,"lon":139.44467136},{"name":"国立市役所本庁舎","province":"東京都","city":"国立市","address":"東京都国立市富士見台2丁目47-1","lat":35.68391215,"lon":139.44136621},{"name":"くにたち市民芸術小ホール","province":"東京都","city":"国立市","address":"東京都国立市富士見台2丁目48-1","lat":35.68502867,"lon":139.44038015},{"name":"くにたち市民総合体育館","province":"東京都","city":"国立市","address":"東京都国立市富士見台2丁目48-1","lat":35.68502867,"lon":139.44038015},{"name":"国立市公民館","province":"東京都","city":"国立市","address":"東京都国立市中1丁目15-1","lat":35.69689686,"lon":139.44336835},{"name":"スポーツセンター\"","province":"東京都","city":"国立市","address":"東京都国立市富士見台2丁目1-1","lat":35.68666756,"lon":139.44659622},{"name":"くにたち中央図書館","province":"東京都","city":"国立市","address":"東京都国立市富士見台2丁目34","lat":35.68558704,"lon":139.44378816},{"name":"くにたち福祉会館","province":"東京都","city":"国立市","address":"東京都国立市富士見台2丁目38-5","lat":35.68744796,"lon":139.44467136},{"name":"国立市役所本庁舎","province":"東京都","city":"国立市","address":"東京都国立市富士見台2丁目47-1","lat":35.68391215,"lon":139.44136621},{"name":"くにたち市民芸術小ホール","province":"東京都","city":"国立市","address":"東京都国立市富士見台2丁目48-1","lat":35.68502867,"lon":139.44038015},{"name":"くにたち市民総合体育館","province":"東京都","city":"国立市","address":"東京都国立市富士見台2丁目48-1","lat":35.68502867,"lon":139.44038015},{"name":"国立市公民館","province":"東京都","city":"国立市","address":"東京都国立市中1丁目15-1","lat":35.69689686,"lon":139.44336835},{"name":"スポーツセンター\"","province":"東京都","city":"国立市","address":"東京都国立市富士見台2丁目1-1","lat":35.68666756,"lon":139.44659622},{"name":"くにたち中央図書館","province":"東京都","city":"国立市","address":"東京都国立市富士見台2丁目34","lat":35.68558704,"lon":139.44378816},{"name":"くにたち福祉会館","province":"東京都","city":"国立市","address":"東京都国立市富士見台2丁目38-5","lat":35.68744796,"lon":139.44467136},{"name":"国立市役所本庁舎","province":"東京都","city":"国立市","address":"東京都国立市富士見台2丁目47-1","lat":35.68391215,"lon":139.44136621},{"name":"くにたち市民芸術小ホール","province":"東京都","city":"国立市","address":"東京都国立市富士見台2丁目48-1","lat":35.68502867,"lon":139.44038015},{"name":"くにたち市民総合体育館","province":"東京都","city":"国立市","address":"東京都国立市富士見台2丁目48-1","lat":35.68502867,"lon":139.44038015},{"name":"国立市公民館","province":"東京都","city":"国立市","address":"東京都国立市中1丁目15-1","lat":35.69689686,"lon":139.44336835},{"name":"スポーツセンター\"","province":"東京都","city":"国立市","address":"東京都国立市富士見台2丁目1-1","lat":35.68666756,"lon":139.44659622},{"name":"くにたち中央図書館","province":"東京都","city":"国立市","address":"東京都国立市富士見台2丁目34","lat":35.68558704,"lon":139.44378816},{"name":"くにたち福祉会館","province":"東京都","city":"国立市","address":"東京都国立市富士見台2丁目38-5","lat":35.68744796,"lon":139.44467136},{"name":"国立市役所本庁舎","province":"東京都","city":"国立市","address":"東京都国立市富士見台2丁目47-1","lat":35.68391215,"lon":139.44136621},{"name":"くにたち市民芸術小ホール","province":"東京都","city":"国立市","address":"東京都国立市富士見台2丁目48-1","lat":35.68502867,"lon":139.44038015},{"name":"くにたち市民総合体育館","province":"東京都","city":"国立市","address":"東京都国立市富士見台2丁目48-1","lat":35.68502867,"lon":139.44038015},{"name":"国立市公民館","province":"東京都","city":"国立市","address":"東京都国立市中1丁目15-1","lat":35.69689686,"lon":139.44336835},{"name":"スポーツセンター\"","province":"東京都","city":"国立市","address":"東京都国立市富士見台2丁目1-1","lat":35.68666756,"lon":139.44659622},{"name":"くにたち中央図書館","province":"東京都","city":"国立市","address":"東京都国立市富士見台2丁目34","lat":35.68558704,"lon":139.44378816},{"name":"くにたち福祉会館","province":"東京都","city":"国立市","address":"東京都国立市富士見台2丁目38-5","lat":35.68744796,"lon":139.44467136},{"name":"国立市役所本庁舎","province":"東京都","city":"国立市","address":"東京都国立市富士見台2丁目47-1","lat":35.68391215,"lon":139.44136621},{"name":"くにたち市民芸術小ホール","province":"東京都","city":"国立市","address":"東京都国立市富士見台2丁目48-1","lat":35.68502867,"lon":139.44038015},{"name":"くにたち市民総合体育館","province":"東京都","city":"国立市","address":"東京都国立市富士見台2丁目48-1","lat":35.68502867,"lon":139.44038015},{"name":"国立市公民館","province":"東京都","city":"国立市","address":"東京都国立市中1丁目15-1","lat":35.69689686,"lon":139.44336835},{"name":"スポーツセンター\"","province":"東京都","city":"国立市","address":"東京都国立市富士見台2丁目1-1","lat":35.68666756,"lon":139.44659622},{"name":"くにたち中央図書館","province":"東京都","city":"国立市","address":"東京都国立市富士見台2丁目34","lat":35.68558704,"lon":139.44378816},{"name":"くにたち福祉会館","province":"東京都","city":"国立市","address":"東京都国立市富士見台2丁目38-5","lat":35.68744796,"lon":139.44467136},{"name":"国立市役所本庁舎","province":"東京都","city":"国立市","address":"東京都国立市富士見台2丁目47-1","lat":35.68391215,"lon":139.44136621},{"name":"くにたち市民芸術小ホール","province":"東京都","city":"国立市","address":"東京都国立市富士見台2丁目48-1","lat":35.68502867,"lon":139.44038015},{"name":"くにたち市民総合体育館","province":"東京都","city":"国立市","address":"東京都国立市富士見台2丁目48-1","lat":35.68502867,"lon":139.44038015},{"name":"国立市公民館","province":"東京都","city":"国立市","address":"東京都国立市中1丁目15-1","lat":35.69689686,"lon":139.44336835}]}