{"keyword":"週","data":[{"name":"矢川児童館","province":"東京都","city":"国立市","address":"国立市富士見台4-17-1","lat":35.687098,"lon":139.428503},{"name":"中央児童館","province":"東京都","city":"国立市","address":"国立市富士見台2-38-5","lat":35.687451,"lon":139.444582},{"name":"国立市社会福祉協議会","province":"東京都","city":"国立市","address":"国立市富士見台2-38-5くにたち福祉会館内","lat":35.687451,"lon":139.444582},{"name":"伊藤単朴墓","province":"東京都","city":"国立市","address":"東京都国立市青柳355","lat":35.686214,"lon":139.424643},{"name":"くにたち中央図書館","province":"東京都","city":"国立市","address":"東京都国立市富士見台2丁目34","lat":35.68558704,"lon":139.44378816},{"name":"くにたち北市民プラザ図書館","province":"東京都","city":"国立市","address":"東京都国立市北3丁目1-1","lat":35.69934348,"lon":139.43274974},{"name":"中央児童館","province":"東京都","city":"国立市","address":"国立市富士見台2-38-5","lat":35.68736,"lon":139.44484},{"name":"矢川児童館","province":"東京都","city":"国立市","address":"国立市富士見台4-17-65","lat":35.68743,"lon":139.42685},{"name":"西児童館","province":"東京都","city":"国立市","address":"国立市西1-12-26","lat":35.69673,"lon":139.43271},{"name":"東京都多摩障害者スポーツセンター","province":"東京都","city":"国立市","address":"国立市富士見台2-1-1","lat":35.6866,"lon":139.44635},{"name":"国立市社会福祉協議会","province":"東京都","city":"国立市","address":"国立市富士見台2-38-5","lat":35.68736,"lon":139.44484},{"name":"東京都多摩障害者スポーツセンター","province":"東京都","city":"国立市","address":"東京都国立市富士見台2-1-1","lat":35.686681,"lon":139.446549},{"name":"東京都多摩障害者スポーツセンター","province":"東京都","city":"国立市","address":"国立市富士見台2-1-1","lat":35.686521,"lon":139.446565},{"name":"谷保浄水所","province":"東京都","city":"国立市","address":"東京都国立市谷保1462-1","lat":35.67798226,"lon":139.44087203},{"name":"一橋大学グラウンド","province":"東京都","city":"国立市","address":"東京都国立市中2丁目1","lat":35.69427214,"lon":139.44260462},{"name":"＊?国立市公民館","province":"東京都","city":"国立市","address":"国立市中1-15-1","lat":35.696893,"lon":139.4435},{"name":"＊?くにたち郷土文化館","province":"東京都","city":"国立市","address":"国立市谷保6231","lat":35.678996,"lon":139.432642},{"name":"＊?くにたち中央図書館","province":"東京都","city":"国立市","address":"国立市富士見台2-34","lat":35.685151,"lon":139.444416},{"name":"＊?くにたち中央図書館青柳分室","province":"東京都","city":"国立市","address":"国立市青柳244","lat":35.683198,"lon":139.423542},{"name":"＊?くにたち中央図書館谷保東分室","province":"東京都","city":"国立市","address":"国立市谷保135-1","lat":35.686397,"lon":139.430056},{"name":"＊?くにたち中央図書館下谷保分室","province":"東京都","city":"国立市","address":"国立市谷保5066","lat":35.679625,"lon":139.448808},{"name":"＊?くにたち中央図書館南市民プラザ分室","province":"東京都","city":"国立市","address":"国立市泉2-3-21号棟1階","lat":35.674543,"lon":139.430661},{"name":"＊?くにたち中央図書館東分室","province":"東京都","city":"国立市","address":"国立市東3-18-32","lat":35.691456,"lon":139.454847},{"name":"＊?くにたち北市民プラザ図書館","province":"東京都","city":"国立市","address":"国立市北3-1-19号棟1階","lat":35.699365,"lon":139.432662},{"name":"国立市公民館","province":"東京都","city":"国立市","address":"国立市中1-15-1","lat":35.696854,"lon":139.443359},{"name":"くにたち中央図書館","province":"東京都","city":"国立市","address":"国立市富士見台2-34","lat":35.685696,"lon":139.443497},{"name":"くにたち中央図書館下谷保分室","province":"東京都","city":"国立市","address":"国立市谷保5066","lat":35.679398,"lon":139.44841},{"name":"くにたち中央図書館青柳分室","province":"東京都","city":"国立市","address":"国立市青柳244","lat":35.682404,"lon":139.423279},{"name":"くにたち中央図書館谷保東分室","province":"東京都","city":"国立市","address":"国立市谷保135-1","lat":35.674107,"lon":139.445236},{"name":"くにたち中央図書館東分室","province":"東京都","city":"国立市","address":"国立市東3-18-32","lat":35.691208,"lon":139.454071},{"name":"くにたち中央図書館南市民プラザ分室","province":"東京都","city":"国立市","address":"国立市泉2-3-21号棟1階","lat":35.674431,"lon":139.431137},{"name":"くにたち北市民プラザ図書館","province":"東京都","city":"国立市","address":"国立市北3-1-19号棟1階","lat":35.699455,"lon":139.449249},{"name":"くにたち郷土文化館","province":"東京都","city":"国立市","address":"国立市谷保6231","lat":35.679863,"lon":139.432434},{"name":"くにたち男女平等参画ステーション","province":"東京都","city":"国立市","address":"国立市谷保1705-1","lat":35.674107,"lon":139.445236},{"name":"国立市古民家","province":"東京都","city":"国立市","address":"国立市泉5-21-20","lat":35.678322,"lon":139.437744},{"name":"東京都多摩障害者スポーツセンター","province":"東京都","city":"国立市","address":"東京都国立市","lat":35.68388439,"lon":139.44138288},{"name":"東京都多摩障害者スポーツセンター宿泊棟","province":"東京都","city":"国立市","address":"東京都国立市","lat":35.68388439,"lon":139.44138288},{"name":"体育館","province":"東京都","city":"国立市","address":"国立市富士見台2-1-1","lat":35.686681,"lon":139.446549},{"name":"トレーニング室","province":"東京都","city":"国立市","address":"国立市富士見台2-1-1","lat":35.686681,"lon":139.446549},{"name":"屋内温水プール","province":"東京都","city":"国立市","address":"国立市富士見台2-1-1","lat":35.686681,"lon":139.446549},{"name":"卓球室","province":"東京都","city":"国立市","address":"国立市富士見台2-1-1","lat":35.686681,"lon":139.446549},{"name":"サウンドテーブルテニス室","province":"東京都","city":"国立市","address":"国立市富士見台2-1-1","lat":35.686681,"lon":139.446549},{"name":"健康体力相談室","province":"東京都","city":"国立市","address":"国立市富士見台2-1-1","lat":35.686681,"lon":139.446549},{"name":"国立市本庁舎","province":"東京都","city":"国立市","address":"国立市富士見台2-47-1","lat":35.683913,"lon":139.441366},{"name":"一橋大学グラウンド","province":"東京都","city":"国立市","address":"国立市中2-1","lat":35.69427,"lon":139.4426},{"name":"矢川児童館","province":"東京都","city":"国立市","address":"国立市富士見台4-17-1","lat":35.687098,"lon":139.428503},{"name":"中央児童館","province":"東京都","city":"国立市","address":"国立市富士見台2-38-5","lat":35.687451,"lon":139.444582},{"name":"国立市社会福祉協議会","province":"東京都","city":"国立市","address":"国立市富士見台2-38-5くにたち福祉会館内","lat":35.687451,"lon":139.444582},{"name":"伊藤単朴墓","province":"東京都","city":"国立市","address":"東京都国立市青柳355","lat":35.686214,"lon":139.424643},{"name":"くにたち中央図書館","province":"東京都","city":"国立市","address":"東京都国立市富士見台2丁目34","lat":35.68558704,"lon":139.44378816},{"name":"くにたち北市民プラザ図書館","province":"東京都","city":"国立市","address":"東京都国立市北3丁目1-1","lat":35.69934348,"lon":139.43274974},{"name":"中央児童館","province":"東京都","city":"国立市","address":"国立市富士見台2-38-5","lat":35.68736,"lon":139.44484},{"name":"矢川児童館","province":"東京都","city":"国立市","address":"国立市富士見台4-17-65","lat":35.68743,"lon":139.42685},{"name":"西児童館","province":"東京都","city":"国立市","address":"国立市西1-12-26","lat":35.69673,"lon":139.43271},{"name":"東京都多摩障害者スポーツセンター","province":"東京都","city":"国立市","address":"国立市富士見台2-1-1","lat":35.6866,"lon":139.44635},{"name":"国立市社会福祉協議会","province":"東京都","city":"国立市","address":"国立市富士見台2-38-5","lat":35.68736,"lon":139.44484},{"name":"東京都多摩障害者スポーツセンター","province":"東京都","city":"国立市","address":"東京都国立市富士見台2-1-1","lat":35.686681,"lon":139.446549},{"name":"東京都多摩障害者スポーツセンター","province":"東京都","city":"国立市","address":"国立市富士見台2-1-1","lat":35.686521,"lon":139.446565},{"name":"谷保浄水所","province":"東京都","city":"国立市","address":"東京都国立市谷保1462-1","lat":35.67798226,"lon":139.44087203},{"name":"＊?国立市公民館","province":"東京都","city":"国立市","address":"国立市中1-15-1","lat":35.696893,"lon":139.4435},{"name":"＊?くにたち郷土文化館","province":"東京都","city":"国立市","address":"国立市谷保6231","lat":35.678996,"lon":139.432642},{"name":"＊?くにたち中央図書館","province":"東京都","city":"国立市","address":"国立市富士見台2-34","lat":35.685151,"lon":139.444416},{"name":"＊?くにたち中央図書館青柳分室","province":"東京都","city":"国立市","address":"国立市青柳244","lat":35.683198,"lon":139.423542},{"name":"＊?くにたち中央図書館谷保東分室","province":"東京都","city":"国立市","address":"国立市谷保135-1","lat":35.686397,"lon":139.430056},{"name":"＊?くにたち中央図書館下谷保分室","province":"東京都","city":"国立市","address":"国立市谷保5066","lat":35.679625,"lon":139.448808},{"name":"＊?くにたち中央図書館南市民プラザ分室","province":"東京都","city":"国立市","address":"国立市泉2-3-21号棟1階","lat":35.674543,"lon":139.430661},{"name":"＊?くにたち中央図書館東分室","province":"東京都","city":"国立市","address":"国立市東3-18-32","lat":35.691456,"lon":139.454847},{"name":"＊?くにたち北市民プラザ図書館","province":"東京都","city":"国立市","address":"国立市北3-1-19号棟1階","lat":35.699365,"lon":139.432662},{"name":"国立市公民館","province":"東京都","city":"国立市","address":"国立市中1-15-1","lat":35.696854,"lon":139.443359},{"name":"くにたち中央図書館","province":"東京都","city":"国立市","address":"国立市富士見台2-34","lat":35.685696,"lon":139.443497},{"name":"くにたち中央図書館下谷保分室","province":"東京都","city":"国立市","address":"国立市谷保5066","lat":35.679398,"lon":139.44841},{"name":"くにたち中央図書館青柳分室","province":"東京都","city":"国立市","address":"国立市青柳244","lat":35.682404,"lon":139.423279},{"name":"くにたち中央図書館谷保東分室","province":"東京都","city":"国立市","address":"国立市谷保135-1","lat":35.674107,"lon":139.445236},{"name":"くにたち中央図書館東分室","province":"東京都","city":"国立市","address":"国立市東3-18-32","lat":35.691208,"lon":139.454071},{"name":"くにたち中央図書館南市民プラザ分室","province":"東京都","city":"国立市","address":"国立市泉2-3-21号棟1階","lat":35.674431,"lon":139.431137},{"name":"くにたち北市民プラザ図書館","province":"東京都","city":"国立市","address":"国立市北3-1-19号棟1階","lat":35.699455,"lon":139.449249},{"name":"くにたち郷土文化館","province":"東京都","city":"国立市","address":"国立市谷保6231","lat":35.679863,"lon":139.432434},{"name":"くにたち男女平等参画ステーション","province":"東京都","city":"国立市","address":"国立市谷保1705-1","lat":35.674107,"lon":139.445236},{"name":"国立市古民家","province":"東京都","city":"国立市","address":"国立市泉5-21-20","lat":35.678322,"lon":139.437744},{"name":"東京都多摩障害者スポーツセンター","province":"東京都","city":"国立市","address":"東京都国立市","lat":35.68388439,"lon":139.44138288},{"name":"東京都多摩障害者スポーツセンター宿泊棟","province":"東京都","city":"国立市","address":"東京都国立市","lat":35.68388439,"lon":139.44138288},{"name":"体育館","province":"東京都","city":"国立市","address":"国立市富士見台2-1-1","lat":35.686681,"lon":139.446549},{"name":"トレーニング室","province":"東京都","city":"国立市","address":"国立市富士見台2-1-1","lat":35.686681,"lon":139.446549},{"name":"屋内温水プール","province":"東京都","city":"国立市","address":"国立市富士見台2-1-1","lat":35.686681,"lon":139.446549},{"name":"卓球室","province":"東京都","city":"国立市","address":"国立市富士見台2-1-1","lat":35.686681,"lon":139.446549},{"name":"サウンドテーブルテニス室","province":"東京都","city":"国立市","address":"国立市富士見台2-1-1","lat":35.686681,"lon":139.446549},{"name":"健康体力相談室","province":"東京都","city":"国立市","address":"国立市富士見台2-1-1","lat":35.686681,"lon":139.446549},{"name":"国立市本庁舎","province":"東京都","city":"国立市","address":"国立市富士見台2-47-1","lat":35.683913,"lon":139.441366},{"name":"一橋大学グラウンド","province":"東京都","city":"国立市","address":"国立市中2-1","lat":35.69427,"lon":139.4426},{"name":"矢川児童館","province":"東京都","city":"国立市","address":"国立市富士見台4-17-1","lat":35.687098,"lon":139.428503},{"name":"中央児童館","province":"東京都","city":"国立市","address":"国立市富士見台2-38-5","lat":35.687451,"lon":139.444582},{"name":"国立市社会福祉協議会","province":"東京都","city":"国立市","address":"国立市富士見台2-38-5くにたち福祉会館内","lat":35.687451,"lon":139.444582},{"name":"伊藤単朴墓","province":"東京都","city":"国立市","address":"東京都国立市青柳355","lat":35.686214,"lon":139.424643},{"name":"くにたち中央図書館","province":"東京都","city":"国立市","address":"東京都国立市富士見台2丁目34","lat":35.68558704,"lon":139.44378816},{"name":"くにたち北市民プラザ図書館","province":"東京都","city":"国立市","address":"東京都国立市北3丁目1-1","lat":35.69934348,"lon":139.43274974},{"name":"中央児童館","province":"東京都","city":"国立市","address":"国立市富士見台2-38-5","lat":35.68736,"lon":139.44484},{"name":"矢川児童館","province":"東京都","city":"国立市","address":"国立市富士見台4-17-65","lat":35.68743,"lon":139.42685},{"name":"西児童館","province":"東京都","city":"国立市","address":"国立市西1-12-26","lat":35.69673,"lon":139.43271},{"name":"東京都多摩障害者スポーツセンター","province":"東京都","city":"国立市","address":"国立市富士見台2-1-1","lat":35.6866,"lon":139.44635},{"name":"国立市社会福祉協議会","province":"東京都","city":"国立市","address":"国立市富士見台2-38-5","lat":35.68736,"lon":139.44484},{"name":"東京都多摩障害者スポーツセンター","province":"東京都","city":"国立市","address":"東京都国立市富士見台2-1-1","lat":35.686681,"lon":139.446549},{"name":"東京都多摩障害者スポーツセンター","province":"東京都","city":"国立市","address":"国立市富士見台2-1-1","lat":35.686521,"lon":139.446565},{"name":"＊?国立市公民館","province":"東京都","city":"国立市","address":"国立市中1-15-1","lat":35.696893,"lon":139.4435},{"name":"＊?くにたち郷土文化館","province":"東京都","city":"国立市","address":"国立市谷保6231","lat":35.678996,"lon":139.432642},{"name":"＊?くにたち中央図書館","province":"東京都","city":"国立市","address":"国立市富士見台2-34","lat":35.685151,"lon":139.444416},{"name":"＊?くにたち中央図書館青柳分室","province":"東京都","city":"国立市","address":"国立市青柳244","lat":35.683198,"lon":139.423542},{"name":"＊?くにたち中央図書館谷保東分室","province":"東京都","city":"国立市","address":"国立市谷保135-1","lat":35.686397,"lon":139.430056},{"name":"＊?くにたち中央図書館下谷保分室","province":"東京都","city":"国立市","address":"国立市谷保5066","lat":35.679625,"lon":139.448808},{"name":"＊?くにたち中央図書館南市民プラザ分室","province":"東京都","city":"国立市","address":"国立市泉2-3-21号棟1階","lat":35.674543,"lon":139.430661},{"name":"＊?くにたち中央図書館東分室","province":"東京都","city":"国立市","address":"国立市東3-18-32","lat":35.691456,"lon":139.454847},{"name":"＊?くにたち北市民プラザ図書館","province":"東京都","city":"国立市","address":"国立市北3-1-19号棟1階","lat":35.699365,"lon":139.432662},{"name":"国立市公民館","province":"東京都","city":"国立市","address":"国立市中1-15-1","lat":35.696854,"lon":139.443359},{"name":"くにたち中央図書館","province":"東京都","city":"国立市","address":"国立市富士見台2-34","lat":35.685696,"lon":139.443497},{"name":"くにたち中央図書館下谷保分室","province":"東京都","city":"国立市","address":"国立市谷保5066","lat":35.679398,"lon":139.44841},{"name":"くにたち中央図書館青柳分室","province":"東京都","city":"国立市","address":"国立市青柳244","lat":35.682404,"lon":139.423279},{"name":"くにたち中央図書館谷保東分室","province":"東京都","city":"国立市","address":"国立市谷保135-1","lat":35.674107,"lon":139.445236},{"name":"くにたち中央図書館東分室","province":"東京都","city":"国立市","address":"国立市東3-18-32","lat":35.691208,"lon":139.454071},{"name":"くにたち中央図書館南市民プラザ分室","province":"東京都","city":"国立市","address":"国立市泉2-3-21号棟1階","lat":35.674431,"lon":139.431137},{"name":"くにたち北市民プラザ図書館","province":"東京都","city":"国立市","address":"国立市北3-1-19号棟1階","lat":35.699455,"lon":139.449249},{"name":"くにたち郷土文化館","province":"東京都","city":"国立市","address":"国立市谷保6231","lat":35.679863,"lon":139.432434},{"name":"くにたち男女平等参画ステーション","province":"東京都","city":"国立市","address":"国立市谷保1705-1","lat":35.674107,"lon":139.445236},{"name":"国立市古民家","province":"東京都","city":"国立市","address":"国立市泉5-21-20","lat":35.678322,"lon":139.437744},{"name":"体育館","province":"東京都","city":"国立市","address":"国立市富士見台2-1-1","lat":35.686681,"lon":139.446549},{"name":"トレーニング室","province":"東京都","city":"国立市","address":"国立市富士見台2-1-1","lat":35.686681,"lon":139.446549},{"name":"屋内温水プール","province":"東京都","city":"国立市","address":"国立市富士見台2-1-1","lat":35.686681,"lon":139.446549},{"name":"卓球室","province":"東京都","city":"国立市","address":"国立市富士見台2-1-1","lat":35.686681,"lon":139.446549},{"name":"サウンドテーブルテニス室","province":"東京都","city":"国立市","address":"国立市富士見台2-1-1","lat":35.686681,"lon":139.446549},{"name":"健康体力相談室","province":"東京都","city":"国立市","address":"国立市富士見台2-1-1","lat":35.686681,"lon":139.446549},{"name":"矢川児童館","province":"東京都","city":"国立市","address":"国立市富士見台4-17-1","lat":35.687098,"lon":139.428503},{"name":"中央児童館","province":"東京都","city":"国立市","address":"国立市富士見台2-38-5","lat":35.687451,"lon":139.444582},{"name":"国立市社会福祉協議会","province":"東京都","city":"国立市","address":"国立市富士見台2-38-5くにたち福祉会館内","lat":35.687451,"lon":139.444582},{"name":"伊藤単朴墓","province":"東京都","city":"国立市","address":"東京都国立市青柳355","lat":35.686214,"lon":139.424643},{"name":"くにたち中央図書館","province":"東京都","city":"国立市","address":"東京都国立市富士見台2丁目34","lat":35.68558704,"lon":139.44378816},{"name":"くにたち北市民プラザ図書館","province":"東京都","city":"国立市","address":"東京都国立市北3丁目1-1","lat":35.69934348,"lon":139.43274974},{"name":"中央児童館","province":"東京都","city":"国立市","address":"国立市富士見台2-38-5","lat":35.68736,"lon":139.44484},{"name":"矢川児童館","province":"東京都","city":"国立市","address":"国立市富士見台4-17-65","lat":35.68743,"lon":139.42685},{"name":"西児童館","province":"東京都","city":"国立市","address":"国立市西1-12-26","lat":35.69673,"lon":139.43271},{"name":"東京都多摩障害者スポーツセンター","province":"東京都","city":"国立市","address":"国立市富士見台2-1-1","lat":35.6866,"lon":139.44635},{"name":"国立市社会福祉協議会","province":"東京都","city":"国立市","address":"国立市富士見台2-38-5","lat":35.68736,"lon":139.44484},{"name":"東京都多摩障害者スポーツセンター","province":"東京都","city":"国立市","address":"東京都国立市富士見台2-1-1","lat":35.686681,"lon":139.446549},{"name":"東京都多摩障害者スポーツセンター","province":"東京都","city":"国立市","address":"国立市富士見台2-1-1","lat":35.686521,"lon":139.446565},{"name":"＊?国立市公民館","province":"東京都","city":"国立市","address":"国立市中1-15-1","lat":35.696893,"lon":139.4435},{"name":"＊?くにたち郷土文化館","province":"東京都","city":"国立市","address":"国立市谷保6231","lat":35.678996,"lon":139.432642},{"name":"＊?くにたち中央図書館","province":"東京都","city":"国立市","address":"国立市富士見台2-34","lat":35.685151,"lon":139.444416},{"name":"＊?くにたち中央図書館青柳分室","province":"東京都","city":"国立市","address":"国立市青柳244","lat":35.683198,"lon":139.423542},{"name":"＊?くにたち中央図書館谷保東分室","province":"東京都","city":"国立市","address":"国立市谷保135-1","lat":35.686397,"lon":139.430056},{"name":"＊?くにたち中央図書館下谷保分室","province":"東京都","city":"国立市","address":"国立市谷保5066","lat":35.679625,"lon":139.448808},{"name":"＊?くにたち中央図書館南市民プラザ分室","province":"東京都","city":"国立市","address":"国立市泉2-3-21号棟1階","lat":35.674543,"lon":139.430661},{"name":"＊?くにたち中央図書館東分室","province":"東京都","city":"国立市","address":"国立市東3-18-32","lat":35.691456,"lon":139.454847},{"name":"＊?くにたち北市民プラザ図書館","province":"東京都","city":"国立市","address":"国立市北3-1-19号棟1階","lat":35.699365,"lon":139.432662},{"name":"国立市公民館","province":"東京都","city":"国立市","address":"国立市中1-15-1","lat":35.696854,"lon":139.443359},{"name":"くにたち中央図書館","province":"東京都","city":"国立市","address":"国立市富士見台2-34","lat":35.685696,"lon":139.443497},{"name":"くにたち中央図書館下谷保分室","province":"東京都","city":"国立市","address":"国立市谷保5066","lat":35.679398,"lon":139.44841},{"name":"くにたち中央図書館青柳分室","province":"東京都","city":"国立市","address":"国立市青柳244","lat":35.682404,"lon":139.423279},{"name":"くにたち中央図書館谷保東分室","province":"東京都","city":"国立市","address":"国立市谷保135-1","lat":35.674107,"lon":139.445236},{"name":"くにたち中央図書館東分室","province":"東京都","city":"国立市","address":"国立市東3-18-32","lat":35.691208,"lon":139.454071},{"name":"くにたち中央図書館南市民プラザ分室","province":"東京都","city":"国立市","address":"国立市泉2-3-21号棟1階","lat":35.674431,"lon":139.431137},{"name":"くにたち北市民プラザ図書館","province":"東京都","city":"国立市","address":"国立市北3-1-19号棟1階","lat":35.699455,"lon":139.449249},{"name":"くにたち郷土文化館","province":"東京都","city":"国立市","address":"国立市谷保6231","lat":35.679863,"lon":139.432434},{"name":"くにたち男女平等参画ステーション","province":"東京都","city":"国立市","address":"国立市谷保1705-1","lat":35.674107,"lon":139.445236},{"name":"国立市古民家","province":"東京都","city":"国立市","address":"国立市泉5-21-20","lat":35.678322,"lon":139.437744},{"name":"体育館","province":"東京都","city":"国立市","address":"国立市富士見台2-1-1","lat":35.686681,"lon":139.446549},{"name":"トレーニング室","province":"東京都","city":"国立市","address":"国立市富士見台2-1-1","lat":35.686681,"lon":139.446549},{"name":"屋内温水プール","province":"東京都","city":"国立市","address":"国立市富士見台2-1-1","lat":35.686681,"lon":139.446549},{"name":"卓球室","province":"東京都","city":"国立市","address":"国立市富士見台2-1-1","lat":35.686681,"lon":139.446549},{"name":"サウンドテーブルテニス室","province":"東京都","city":"国立市","address":"国立市富士見台2-1-1","lat":35.686681,"lon":139.446549},{"name":"健康体力相談室","province":"東京都","city":"国立市","address":"国立市富士見台2-1-1","lat":35.686681,"lon":139.446549},{"name":"矢川児童館","province":"東京都","city":"国立市","address":"国立市富士見台4-17-1","lat":35.687098,"lon":139.428503},{"name":"中央児童館","province":"東京都","city":"国立市","address":"国立市富士見台2-38-5","lat":35.687451,"lon":139.444582},{"name":"伊藤単朴墓","province":"東京都","city":"国立市","address":"東京都国立市青柳355","lat":35.686214,"lon":139.424643},{"name":"くにたち中央図書館","province":"東京都","city":"国立市","address":"東京都国立市富士見台2丁目34","lat":35.68558704,"lon":139.44378816},{"name":"くにたち北市民プラザ図書館","province":"東京都","city":"国立市","address":"東京都国立市北3丁目1-1","lat":35.69934348,"lon":139.43274974},{"name":"中央児童館","province":"東京都","city":"国立市","address":"国立市富士見台2-38-5","lat":35.68736,"lon":139.44484},{"name":"矢川児童館","province":"東京都","city":"国立市","address":"国立市富士見台4-17-65","lat":35.68743,"lon":139.42685},{"name":"西児童館","province":"東京都","city":"国立市","address":"国立市西1-12-26","lat":35.69673,"lon":139.43271},{"name":"東京都多摩障害者スポーツセンター","province":"東京都","city":"国立市","address":"国立市富士見台2-1-1","lat":35.6866,"lon":139.44635},{"name":"東京都多摩障害者スポーツセンター","province":"東京都","city":"国立市","address":"東京都国立市富士見台2-1-1","lat":35.686681,"lon":139.446549},{"name":"東京都多摩障害者スポーツセンター","province":"東京都","city":"国立市","address":"国立市富士見台2-1-1","lat":35.686521,"lon":139.446565},{"name":"＊?国立市公民館","province":"東京都","city":"国立市","address":"国立市中1-15-1","lat":35.696893,"lon":139.4435},{"name":"＊?くにたち郷土文化館","province":"東京都","city":"国立市","address":"国立市谷保6231","lat":35.678996,"lon":139.432642},{"name":"＊?くにたち中央図書館","province":"東京都","city":"国立市","address":"国立市富士見台2-34","lat":35.685151,"lon":139.444416},{"name":"＊?くにたち中央図書館青柳分室","province":"東京都","city":"国立市","address":"国立市青柳244","lat":35.683198,"lon":139.423542},{"name":"＊?くにたち中央図書館谷保東分室","province":"東京都","city":"国立市","address":"国立市谷保135-1","lat":35.686397,"lon":139.430056},{"name":"＊?くにたち中央図書館下谷保分室","province":"東京都","city":"国立市","address":"国立市谷保5066","lat":35.679625,"lon":139.448808},{"name":"＊?くにたち中央図書館南市民プラザ分室","province":"東京都","city":"国立市","address":"国立市泉2-3-21号棟1階","lat":35.674543,"lon":139.430661},{"name":"＊?くにたち中央図書館東分室","province":"東京都","city":"国立市","address":"国立市東3-18-32","lat":35.691456,"lon":139.454847},{"name":"＊?くにたち北市民プラザ図書館","province":"東京都","city":"国立市","address":"国立市北3-1-19号棟1階","lat":35.699365,"lon":139.432662},{"name":"国立市公民館","province":"東京都","city":"国立市","address":"国立市中1-15-1","lat":35.696854,"lon":139.443359},{"name":"くにたち中央図書館","province":"東京都","city":"国立市","address":"国立市富士見台2-34","lat":35.685696,"lon":139.443497},{"name":"くにたち中央図書館下谷保分室","province":"東京都","city":"国立市","address":"国立市谷保5066","lat":35.679398,"lon":139.44841},{"name":"くにたち中央図書館青柳分室","province":"東京都","city":"国立市","address":"国立市青柳244","lat":35.682404,"lon":139.423279},{"name":"くにたち中央図書館谷保東分室","province":"東京都","city":"国立市","address":"国立市谷保135-1","lat":35.674107,"lon":139.445236},{"name":"くにたち中央図書館東分室","province":"東京都","city":"国立市","address":"国立市東3-18-32","lat":35.691208,"lon":139.454071},{"name":"くにたち中央図書館南市民プラザ分室","province":"東京都","city":"国立市","address":"国立市泉2-3-21号棟1階","lat":35.674431,"lon":139.431137},{"name":"くにたち北市民プラザ図書館","province":"東京都","city":"国立市","address":"国立市北3-1-19号棟1階","lat":35.699455,"lon":139.449249},{"name":"くにたち郷土文化館","province":"東京都","city":"国立市","address":"国立市谷保6231","lat":35.679863,"lon":139.432434},{"name":"くにたち男女平等参画ステーション","province":"東京都","city":"国立市","address":"国立市谷保1705-1","lat":35.674107,"lon":139.445236},{"name":"国立市古民家","province":"東京都","city":"国立市","address":"国立市泉5-21-20","lat":35.678322,"lon":139.437744},{"name":"体育館","province":"東京都","city":"国立市","address":"国立市富士見台2-1-1","lat":35.686681,"lon":139.446549},{"name":"トレーニング室","province":"東京都","city":"国立市","address":"国立市富士見台2-1-1","lat":35.686681,"lon":139.446549},{"name":"屋内温水プール","province":"東京都","city":"国立市","address":"国立市富士見台2-1-1","lat":35.686681,"lon":139.446549},{"name":"卓球室","province":"東京都","city":"国立市","address":"国立市富士見台2-1-1","lat":35.686681,"lon":139.446549},{"name":"サウンドテーブルテニス室","province":"東京都","city":"国立市","address":"国立市富士見台2-1-1","lat":35.686681,"lon":139.446549},{"name":"健康体力相談室","province":"東京都","city":"国立市","address":"国立市富士見台2-1-1","lat":35.686681,"lon":139.446549},{"name":"矢川児童館","province":"東京都","city":"国立市","address":"国立市富士見台4-17-1","lat":35.687098,"lon":139.428503},{"name":"中央児童館","province":"東京都","city":"国立市","address":"国立市富士見台2-38-5","lat":35.687451,"lon":139.444582},{"name":"伊藤単朴墓","province":"東京都","city":"国立市","address":"東京都国立市青柳355","lat":35.686214,"lon":139.424643},{"name":"くにたち中央図書館","province":"東京都","city":"国立市","address":"東京都国立市富士見台2丁目34","lat":35.68558704,"lon":139.44378816},{"name":"くにたち北市民プラザ図書館","province":"東京都","city":"国立市","address":"東京都国立市北3丁目1-1","lat":35.69934348,"lon":139.43274974},{"name":"中央児童館","province":"東京都","city":"国立市","address":"国立市富士見台2-38-5","lat":35.68736,"lon":139.44484},{"name":"矢川児童館","province":"東京都","city":"国立市","address":"国立市富士見台4-17-65","lat":35.68743,"lon":139.42685},{"name":"西児童館","province":"東京都","city":"国立市","address":"国立市西1-12-26","lat":35.69673,"lon":139.43271},{"name":"東京都多摩障害者スポーツセンター","province":"東京都","city":"国立市","address":"国立市富士見台2-1-1","lat":35.6866,"lon":139.44635},{"name":"東京都多摩障害者スポーツセンター","province":"東京都","city":"国立市","address":"国立市富士見台2-1-1","lat":35.686521,"lon":139.446565},{"name":"＊?国立市公民館","province":"東京都","city":"国立市","address":"国立市中1-15-1","lat":35.696893,"lon":139.4435},{"name":"＊?くにたち郷土文化館","province":"東京都","city":"国立市","address":"国立市谷保6231","lat":35.678996,"lon":139.432642},{"name":"＊?くにたち中央図書館","province":"東京都","city":"国立市","address":"国立市富士見台2-34","lat":35.685151,"lon":139.444416},{"name":"＊?くにたち中央図書館青柳分室","province":"東京都","city":"国立市","address":"国立市青柳244","lat":35.683198,"lon":139.423542},{"name":"＊?くにたち中央図書館谷保東分室","province":"東京都","city":"国立市","address":"国立市谷保135-1","lat":35.686397,"lon":139.430056},{"name":"＊?くにたち中央図書館下谷保分室","province":"東京都","city":"国立市","address":"国立市谷保5066","lat":35.679625,"lon":139.448808},{"name":"＊?くにたち中央図書館南市民プラザ分室","province":"東京都","city":"国立市","address":"国立市泉2-3-21号棟1階","lat":35.674543,"lon":139.430661},{"name":"＊?くにたち中央図書館東分室","province":"東京都","city":"国立市","address":"国立市東3-18-32","lat":35.691456,"lon":139.454847},{"name":"＊?くにたち北市民プラザ図書館","province":"東京都","city":"国立市","address":"国立市北3-1-19号棟1階","lat":35.699365,"lon":139.432662},{"name":"国立市公民館","province":"東京都","city":"国立市","address":"国立市中1-15-1","lat":35.696854,"lon":139.443359},{"name":"くにたち中央図書館","province":"東京都","city":"国立市","address":"国立市富士見台2-34","lat":35.685696,"lon":139.443497},{"name":"くにたち中央図書館下谷保分室","province":"東京都","city":"国立市","address":"国立市谷保5066","lat":35.679398,"lon":139.44841},{"name":"くにたち中央図書館青柳分室","province":"東京都","city":"国立市","address":"国立市青柳244","lat":35.682404,"lon":139.423279},{"name":"くにたち中央図書館谷保東分室","province":"東京都","city":"国立市","address":"国立市谷保135-1","lat":35.674107,"lon":139.445236},{"name":"くにたち中央図書館東分室","province":"東京都","city":"国立市","address":"国立市東3-18-32","lat":35.691208,"lon":139.454071},{"name":"くにたち中央図書館南市民プラザ分室","province":"東京都","city":"国立市","address":"国立市泉2-3-21号棟1階","lat":35.674431,"lon":139.431137},{"name":"くにたち北市民プラザ図書館","province":"東京都","city":"国立市","address":"国立市北3-1-19号棟1階","lat":35.699455,"lon":139.449249},{"name":"くにたち郷土文化館","province":"東京都","city":"国立市","address":"国立市谷保6231","lat":35.679863,"lon":139.432434},{"name":"くにたち男女平等参画ステーション","province":"東京都","city":"国立市","address":"国立市谷保1705-1","lat":35.674107,"lon":139.445236},{"name":"国立市古民家","province":"東京都","city":"国立市","address":"国立市泉5-21-20","lat":35.678322,"lon":139.437744},{"name":"体育館","province":"東京都","city":"国立市","address":"国立市富士見台2-1-1","lat":35.686681,"lon":139.446549},{"name":"トレーニング室","province":"東京都","city":"国立市","address":"国立市富士見台2-1-1","lat":35.686681,"lon":139.446549},{"name":"屋内温水プール","province":"東京都","city":"国立市","address":"国立市富士見台2-1-1","lat":35.686681,"lon":139.446549},{"name":"卓球室","province":"東京都","city":"国立市","address":"国立市富士見台2-1-1","lat":35.686681,"lon":139.446549},{"name":"サウンドテーブルテニス室","province":"東京都","city":"国立市","address":"国立市富士見台2-1-1","lat":35.686681,"lon":139.446549},{"name":"健康体力相談室","province":"東京都","city":"国立市","address":"国立市富士見台2-1-1","lat":35.686681,"lon":139.446549},{"name":"矢川児童館","province":"東京都","city":"国立市","address":"国立市富士見台4-17-1","lat":35.687098,"lon":139.428503},{"name":"中央児童館","province":"東京都","city":"国立市","address":"国立市富士見台2-38-5","lat":35.687451,"lon":139.444582},{"name":"伊藤単朴墓","province":"東京都","city":"国立市","address":"東京都国立市青柳355","lat":35.686214,"lon":139.424643},{"name":"くにたち中央図書館","province":"東京都","city":"国立市","address":"東京都国立市富士見台2丁目34","lat":35.68558704,"lon":139.44378816},{"name":"くにたち北市民プラザ図書館","province":"東京都","city":"国立市","address":"東京都国立市北3丁目1-1","lat":35.69934348,"lon":139.43274974},{"name":"中央児童館","province":"東京都","city":"国立市","address":"国立市富士見台2-38-5","lat":35.68736,"lon":139.44484},{"name":"矢川児童館","province":"東京都","city":"国立市","address":"国立市富士見台4-17-65","lat":35.68743,"lon":139.42685},{"name":"西児童館","province":"東京都","city":"国立市","address":"国立市西1-12-26","lat":35.69673,"lon":139.43271},{"name":"東京都多摩障害者スポーツセンター","province":"東京都","city":"国立市","address":"国立市富士見台2-1-1","lat":35.6866,"lon":139.44635},{"name":"東京都多摩障害者スポーツセンター","province":"東京都","city":"国立市","address":"国立市富士見台2-1-1","lat":35.686521,"lon":139.446565},{"name":"＊?国立市公民館","province":"東京都","city":"国立市","address":"国立市中1-15-1","lat":35.696893,"lon":139.4435},{"name":"＊?くにたち郷土文化館","province":"東京都","city":"国立市","address":"国立市谷保6231","lat":35.678996,"lon":139.432642},{"name":"＊?くにたち中央図書館","province":"東京都","city":"国立市","address":"国立市富士見台2-34","lat":35.685151,"lon":139.444416},{"name":"＊?くにたち中央図書館青柳分室","province":"東京都","city":"国立市","address":"国立市青柳244","lat":35.683198,"lon":139.423542},{"name":"＊?くにたち中央図書館谷保東分室","province":"東京都","city":"国立市","address":"国立市谷保135-1","lat":35.686397,"lon":139.430056},{"name":"＊?くにたち中央図書館下谷保分室","province":"東京都","city":"国立市","address":"国立市谷保5066","lat":35.679625,"lon":139.448808},{"name":"＊?くにたち中央図書館南市民プラザ分室","province":"東京都","city":"国立市","address":"国立市泉2-3-21号棟1階","lat":35.674543,"lon":139.430661},{"name":"＊?くにたち中央図書館東分室","province":"東京都","city":"国立市","address":"国立市東3-18-32","lat":35.691456,"lon":139.454847},{"name":"＊?くにたち北市民プラザ図書館","province":"東京都","city":"国立市","address":"国立市北3-1-19号棟1階","lat":35.699365,"lon":139.432662},{"name":"国立市公民館","province":"東京都","city":"国立市","address":"国立市中1-15-1","lat":35.696854,"lon":139.443359},{"name":"くにたち中央図書館","province":"東京都","city":"国立市","address":"国立市富士見台2-34","lat":35.685696,"lon":139.443497},{"name":"くにたち中央図書館下谷保分室","province":"東京都","city":"国立市","address":"国立市谷保5066","lat":35.679398,"lon":139.44841},{"name":"くにたち中央図書館青柳分室","province":"東京都","city":"国立市","address":"国立市青柳244","lat":35.682404,"lon":139.423279},{"name":"くにたち中央図書館谷保東分室","province":"東京都","city":"国立市","address":"国立市谷保135-1","lat":35.674107,"lon":139.445236},{"name":"くにたち中央図書館東分室","province":"東京都","city":"国立市","address":"国立市東3-18-32","lat":35.691208,"lon":139.454071},{"name":"くにたち中央図書館南市民プラザ分室","province":"東京都","city":"国立市","address":"国立市泉2-3-21号棟1階","lat":35.674431,"lon":139.431137},{"name":"くにたち北市民プラザ図書館","province":"東京都","city":"国立市","address":"国立市北3-1-19号棟1階","lat":35.699455,"lon":139.449249},{"name":"くにたち郷土文化館","province":"東京都","city":"国立市","address":"国立市谷保6231","lat":35.679863,"lon":139.432434},{"name":"くにたち男女平等参画ステーション","province":"東京都","city":"国立市","address":"国立市谷保1705-1","lat":35.674107,"lon":139.445236},{"name":"国立市古民家","province":"東京都","city":"国立市","address":"国立市泉5-21-20","lat":35.678322,"lon":139.437744},{"name":"体育館","province":"東京都","city":"国立市","address":"国立市富士見台2-1-1","lat":35.686681,"lon":139.446549},{"name":"トレーニング室","province":"東京都","city":"国立市","address":"国立市富士見台2-1-1","lat":35.686681,"lon":139.446549},{"name":"屋内温水プール","province":"東京都","city":"国立市","address":"国立市富士見台2-1-1","lat":35.686681,"lon":139.446549},{"name":"卓球室","province":"東京都","city":"国立市","address":"国立市富士見台2-1-1","lat":35.686681,"lon":139.446549},{"name":"サウンドテーブルテニス室","province":"東京都","city":"国立市","address":"国立市富士見台2-1-1","lat":35.686681,"lon":139.446549},{"name":"健康体力相談室","province":"東京都","city":"国立市","address":"国立市富士見台2-1-1","lat":35.686681,"lon":139.446549},{"name":"矢川児童館","province":"東京都","city":"国立市","address":"国立市富士見台4-17-1","lat":35.687098,"lon":139.428503},{"name":"中央児童館","province":"東京都","city":"国立市","address":"国立市富士見台2-38-5","lat":35.687451,"lon":139.444582},{"name":"伊藤単朴墓","province":"東京都","city":"国立市","address":"東京都国立市青柳355","lat":35.686214,"lon":139.424643},{"name":"くにたち中央図書館","province":"東京都","city":"国立市","address":"東京都国立市富士見台2丁目34","lat":35.68558704,"lon":139.44378816},{"name":"くにたち北市民プラザ図書館","province":"東京都","city":"国立市","address":"東京都国立市北3丁目1-1","lat":35.69934348,"lon":139.43274974},{"name":"中央児童館","province":"東京都","city":"国立市","address":"国立市富士見台2-38-5","lat":35.68736,"lon":139.44484},{"name":"矢川児童館","province":"東京都","city":"国立市","address":"国立市富士見台4-17-65","lat":35.68743,"lon":139.42685},{"name":"西児童館","province":"東京都","city":"国立市","address":"国立市西1-12-26","lat":35.69673,"lon":139.43271},{"name":"東京都多摩障害者スポーツセンター","province":"東京都","city":"国立市","address":"国立市富士見台2-1-1","lat":35.6866,"lon":139.44635},{"name":"東京都多摩障害者スポーツセンター","province":"東京都","city":"国立市","address":"国立市富士見台2-1-1","lat":35.686521,"lon":139.446565},{"name":"＊?くにたち郷土文化館","province":"東京都","city":"国立市","address":"国立市谷保6231","lat":35.678996,"lon":139.432642},{"name":"＊?くにたち中央図書館","province":"東京都","city":"国立市","address":"国立市富士見台2-34","lat":35.685151,"lon":139.444416},{"name":"＊?くにたち中央図書館青柳分室","province":"東京都","city":"国立市","address":"国立市青柳244","lat":35.683198,"lon":139.423542},{"name":"＊?くにたち中央図書館谷保東分室","province":"東京都","city":"国立市","address":"国立市谷保135-1","lat":35.686397,"lon":139.430056},{"name":"＊?くにたち中央図書館下谷保分室","province":"東京都","city":"国立市","address":"国立市谷保5066","lat":35.679625,"lon":139.448808},{"name":"＊?くにたち中央図書館南市民プラザ分室","province":"東京都","city":"国立市","address":"国立市泉2-3-21号棟1階","lat":35.674543,"lon":139.430661},{"name":"＊?くにたち中央図書館東分室","province":"東京都","city":"国立市","address":"国立市東3-18-32","lat":35.691456,"lon":139.454847},{"name":"＊?くにたち北市民プラザ図書館","province":"東京都","city":"国立市","address":"国立市北3-1-19号棟1階","lat":35.699365,"lon":139.432662},{"name":"国立市公民館","province":"東京都","city":"国立市","address":"国立市中1-15-1","lat":35.696854,"lon":139.443359},{"name":"くにたち中央図書館","province":"東京都","city":"国立市","address":"国立市富士見台2-34","lat":35.685696,"lon":139.443497},{"name":"くにたち中央図書館下谷保分室","province":"東京都","city":"国立市","address":"国立市谷保5066","lat":35.679398,"lon":139.44841},{"name":"くにたち中央図書館青柳分室","province":"東京都","city":"国立市","address":"国立市青柳244","lat":35.682404,"lon":139.423279},{"name":"くにたち中央図書館谷保東分室","province":"東京都","city":"国立市","address":"国立市谷保135-1","lat":35.674107,"lon":139.445236},{"name":"くにたち中央図書館東分室","province":"東京都","city":"国立市","address":"国立市東3-18-32","lat":35.691208,"lon":139.454071},{"name":"くにたち中央図書館南市民プラザ分室","province":"東京都","city":"国立市","address":"国立市泉2-3-21号棟1階","lat":35.674431,"lon":139.431137},{"name":"くにたち北市民プラザ図書館","province":"東京都","city":"国立市","address":"国立市北3-1-19号棟1階","lat":35.699455,"lon":139.449249},{"name":"くにたち郷土文化館","province":"東京都","city":"国立市","address":"国立市谷保6231","lat":35.679863,"lon":139.432434},{"name":"くにたち男女平等参画ステーション","province":"東京都","city":"国立市","address":"国立市谷保1705-1","lat":35.674107,"lon":139.445236},{"name":"国立市古民家","province":"東京都","city":"国立市","address":"国立市泉5-21-20","lat":35.678322,"lon":139.437744},{"name":"体育館","province":"東京都","city":"国立市","address":"国立市富士見台2-1-1","lat":35.686681,"lon":139.446549},{"name":"トレーニング室","province":"東京都","city":"国立市","address":"国立市富士見台2-1-1","lat":35.686681,"lon":139.446549},{"name":"屋内温水プール","province":"東京都","city":"国立市","address":"国立市富士見台2-1-1","lat":35.686681,"lon":139.446549},{"name":"卓球室","province":"東京都","city":"国立市","address":"国立市富士見台2-1-1","lat":35.686681,"lon":139.446549},{"name":"サウンドテーブルテニス室","province":"東京都","city":"国立市","address":"国立市富士見台2-1-1","lat":35.686681,"lon":139.446549},{"name":"健康体力相談室","province":"東京都","city":"国立市","address":"国立市富士見台2-1-1","lat":35.686681,"lon":139.446549},{"name":"矢川児童館","province":"東京都","city":"国立市","address":"国立市富士見台4-17-1","lat":35.687098,"lon":139.428503},{"name":"中央児童館","province":"東京都","city":"国立市","address":"国立市富士見台2-38-5","lat":35.687451,"lon":139.444582},{"name":"伊藤単朴墓","province":"東京都","city":"国立市","address":"東京都国立市青柳355","lat":35.686214,"lon":139.424643},{"name":"くにたち中央図書館","province":"東京都","city":"国立市","address":"東京都国立市富士見台2丁目34","lat":35.68558704,"lon":139.44378816},{"name":"くにたち北市民プラザ図書館","province":"東京都","city":"国立市","address":"東京都国立市北3丁目1-1","lat":35.69934348,"lon":139.43274974},{"name":"中央児童館","province":"東京都","city":"国立市","address":"国立市富士見台2-38-5","lat":35.68736,"lon":139.44484},{"name":"矢川児童館","province":"東京都","city":"国立市","address":"国立市富士見台4-17-65","lat":35.68743,"lon":139.42685},{"name":"西児童館","province":"東京都","city":"国立市","address":"国立市西1-12-26","lat":35.69673,"lon":139.43271},{"name":"東京都多摩障害者スポーツセンター","province":"東京都","city":"国立市","address":"国立市富士見台2-1-1","lat":35.6866,"lon":139.44635},{"name":"東京都多摩障害者スポーツセンター","province":"東京都","city":"国立市","address":"国立市富士見台2-1-1","lat":35.686521,"lon":139.446565},{"name":"＊?くにたち郷土文化館","province":"東京都","city":"国立市","address":"国立市谷保6231","lat":35.678996,"lon":139.432642},{"name":"＊?くにたち中央図書館","province":"東京都","city":"国立市","address":"国立市富士見台2-34","lat":35.685151,"lon":139.444416},{"name":"＊?くにたち中央図書館青柳分室","province":"東京都","city":"国立市","address":"国立市青柳244","lat":35.683198,"lon":139.423542},{"name":"＊?くにたち中央図書館谷保東分室","province":"東京都","city":"国立市","address":"国立市谷保135-1","lat":35.686397,"lon":139.430056},{"name":"＊?くにたち中央図書館下谷保分室","province":"東京都","city":"国立市","address":"国立市谷保5066","lat":35.679625,"lon":139.448808},{"name":"＊?くにたち中央図書館南市民プラザ分室","province":"東京都","city":"国立市","address":"国立市泉2-3-21号棟1階","lat":35.674543,"lon":139.430661},{"name":"＊?くにたち中央図書館東分室","province":"東京都","city":"国立市","address":"国立市東3-18-32","lat":35.691456,"lon":139.454847},{"name":"＊?くにたち北市民プラザ図書館","province":"東京都","city":"国立市","address":"国立市北3-1-19号棟1階","lat":35.699365,"lon":139.432662},{"name":"国立市公民館","province":"東京都","city":"国立市","address":"国立市中1-15-1","lat":35.696854,"lon":139.443359},{"name":"くにたち中央図書館","province":"東京都","city":"国立市","address":"国立市富士見台2-34","lat":35.685696,"lon":139.443497},{"name":"くにたち中央図書館下谷保分室","province":"東京都","city":"国立市","address":"国立市谷保5066","lat":35.679398,"lon":139.44841},{"name":"くにたち中央図書館青柳分室","province":"東京都","city":"国立市","address":"国立市青柳244","lat":35.682404,"lon":139.423279},{"name":"くにたち中央図書館谷保東分室","province":"東京都","city":"国立市","address":"国立市谷保135-1","lat":35.674107,"lon":139.445236},{"name":"くにたち中央図書館東分室","province":"東京都","city":"国立市","address":"国立市東3-18-32","lat":35.691208,"lon":139.454071},{"name":"くにたち中央図書館南市民プラザ分室","province":"東京都","city":"国立市","address":"国立市泉2-3-21号棟1階","lat":35.674431,"lon":139.431137},{"name":"くにたち北市民プラザ図書館","province":"東京都","city":"国立市","address":"国立市北3-1-19号棟1階","lat":35.699455,"lon":139.449249},{"name":"くにたち郷土文化館","province":"東京都","city":"国立市","address":"国立市谷保6231","lat":35.679863,"lon":139.432434},{"name":"くにたち男女平等参画ステーション","province":"東京都","city":"国立市","address":"国立市谷保1705-1","lat":35.674107,"lon":139.445236},{"name":"国立市古民家","province":"東京都","city":"国立市","address":"国立市泉5-21-20","lat":35.678322,"lon":139.437744},{"name":"体育館","province":"東京都","city":"国立市","address":"国立市富士見台2-1-1","lat":35.686681,"lon":139.446549},{"name":"トレーニング室","province":"東京都","city":"国立市","address":"国立市富士見台2-1-1","lat":35.686681,"lon":139.446549},{"name":"屋内温水プール","province":"東京都","city":"国立市","address":"国立市富士見台2-1-1","lat":35.686681,"lon":139.446549},{"name":"卓球室","province":"東京都","city":"国立市","address":"国立市富士見台2-1-1","lat":35.686681,"lon":139.446549},{"name":"サウンドテーブルテニス室","province":"東京都","city":"国立市","address":"国立市富士見台2-1-1","lat":35.686681,"lon":139.446549},{"name":"健康体力相談室","province":"東京都","city":"国立市","address":"国立市富士見台2-1-1","lat":35.686681,"lon":139.446549},{"name":"矢川児童館","province":"東京都","city":"国立市","address":"国立市富士見台4-17-1","lat":35.687098,"lon":139.428503},{"name":"中央児童館","province":"東京都","city":"国立市","address":"国立市富士見台2-38-5","lat":35.687451,"lon":139.444582},{"name":"伊藤単朴墓","province":"東京都","city":"国立市","address":"東京都国立市青柳355","lat":35.686214,"lon":139.424643},{"name":"くにたち中央図書館","province":"東京都","city":"国立市","address":"東京都国立市富士見台2丁目34","lat":35.68558704,"lon":139.44378816},{"name":"くにたち北市民プラザ図書館","province":"東京都","city":"国立市","address":"東京都国立市北3丁目1-1","lat":35.69934348,"lon":139.43274974},{"name":"中央児童館","province":"東京都","city":"国立市","address":"国立市富士見台2-38-5","lat":35.68736,"lon":139.44484},{"name":"矢川児童館","province":"東京都","city":"国立市","address":"国立市富士見台4-17-65","lat":35.68743,"lon":139.42685},{"name":"西児童館","province":"東京都","city":"国立市","address":"国立市西1-12-26","lat":35.69673,"lon":139.43271},{"name":"東京都多摩障害者スポーツセンター","province":"東京都","city":"国立市","address":"国立市富士見台2-1-1","lat":35.6866,"lon":139.44635},{"name":"東京都多摩障害者スポーツセンター","province":"東京都","city":"国立市","address":"国立市富士見台2-1-1","lat":35.686521,"lon":139.446565},{"name":"＊?くにたち中央図書館","province":"東京都","city":"国立市","address":"国立市富士見台2-34","lat":35.685151,"lon":139.444416},{"name":"＊?くにたち中央図書館青柳分室","province":"東京都","city":"国立市","address":"国立市青柳244","lat":35.683198,"lon":139.423542},{"name":"＊?くにたち中央図書館谷保東分室","province":"東京都","city":"国立市","address":"国立市谷保135-1","lat":35.686397,"lon":139.430056},{"name":"＊?くにたち中央図書館下谷保分室","province":"東京都","city":"国立市","address":"国立市谷保5066","lat":35.679625,"lon":139.448808},{"name":"＊?くにたち中央図書館南市民プラザ分室","province":"東京都","city":"国立市","address":"国立市泉2-3-21号棟1階","lat":35.674543,"lon":139.430661},{"name":"＊?くにたち中央図書館東分室","province":"東京都","city":"国立市","address":"国立市東3-18-32","lat":35.691456,"lon":139.454847},{"name":"＊?くにたち北市民プラザ図書館","province":"東京都","city":"国立市","address":"国立市北3-1-19号棟1階","lat":35.699365,"lon":139.432662},{"name":"国立市公民館","province":"東京都","city":"国立市","address":"国立市中1-15-1","lat":35.696854,"lon":139.443359},{"name":"くにたち中央図書館","province":"東京都","city":"国立市","address":"国立市富士見台2-34","lat":35.685696,"lon":139.443497},{"name":"くにたち中央図書館下谷保分室","province":"東京都","city":"国立市","address":"国立市谷保5066","lat":35.679398,"lon":139.44841},{"name":"くにたち中央図書館青柳分室","province":"東京都","city":"国立市","address":"国立市青柳244","lat":35.682404,"lon":139.423279},{"name":"くにたち中央図書館谷保東分室","province":"東京都","city":"国立市","address":"国立市谷保135-1","lat":35.674107,"lon":139.445236},{"name":"くにたち中央図書館東分室","province":"東京都","city":"国立市","address":"国立市東3-18-32","lat":35.691208,"lon":139.454071},{"name":"くにたち中央図書館南市民プラザ分室","province":"東京都","city":"国立市","address":"国立市泉2-3-21号棟1階","lat":35.674431,"lon":139.431137},{"name":"くにたち北市民プラザ図書館","province":"東京都","city":"国立市","address":"国立市北3-1-19号棟1階","lat":35.699455,"lon":139.449249},{"name":"くにたち郷土文化館","province":"東京都","city":"国立市","address":"国立市谷保6231","lat":35.679863,"lon":139.432434},{"name":"くにたち男女平等参画ステーション","province":"東京都","city":"国立市","address":"国立市谷保1705-1","lat":35.674107,"lon":139.445236},{"name":"国立市古民家","province":"東京都","city":"国立市","address":"国立市泉5-21-20","lat":35.678322,"lon":139.437744},{"name":"体育館","province":"東京都","city":"国立市","address":"国立市富士見台2-1-1","lat":35.686681,"lon":139.446549},{"name":"トレーニング室","province":"東京都","city":"国立市","address":"国立市富士見台2-1-1","lat":35.686681,"lon":139.446549},{"name":"屋内温水プール","province":"東京都","city":"国立市","address":"国立市富士見台2-1-1","lat":35.686681,"lon":139.446549},{"name":"卓球室","province":"東京都","city":"国立市","address":"国立市富士見台2-1-1","lat":35.686681,"lon":139.446549},{"name":"サウンドテーブルテニス室","province":"東京都","city":"国立市","address":"国立市富士見台2-1-1","lat":35.686681,"lon":139.446549},{"name":"健康体力相談室","province":"東京都","city":"国立市","address":"国立市富士見台2-1-1","lat":35.686681,"lon":139.446549},{"name":"矢川児童館","province":"東京都","city":"国立市","address":"国立市富士見台4-17-1","lat":35.687098,"lon":139.428503},{"name":"中央児童館","province":"東京都","city":"国立市","address":"国立市富士見台2-38-5","lat":35.687451,"lon":139.444582},{"name":"伊藤単朴墓","province":"東京都","city":"国立市","address":"東京都国立市青柳355","lat":35.686214,"lon":139.424643},{"name":"くにたち中央図書館","province":"東京都","city":"国立市","address":"東京都国立市富士見台2丁目34","lat":35.68558704,"lon":139.44378816},{"name":"くにたち北市民プラザ図書館","province":"東京都","city":"国立市","address":"東京都国立市北3丁目1-1","lat":35.69934348,"lon":139.43274974},{"name":"中央児童館","province":"東京都","city":"国立市","address":"国立市富士見台2-38-5","lat":35.68736,"lon":139.44484},{"name":"矢川児童館","province":"東京都","city":"国立市","address":"国立市富士見台4-17-65","lat":35.68743,"lon":139.42685},{"name":"西児童館","province":"東京都","city":"国立市","address":"国立市西1-12-26","lat":35.69673,"lon":139.43271},{"name":"東京都多摩障害者スポーツセンター","province":"東京都","city":"国立市","address":"国立市富士見台2-1-1","lat":35.6866,"lon":139.44635},{"name":"東京都多摩障害者スポーツセンター","province":"東京都","city":"国立市","address":"国立市富士見台2-1-1","lat":35.686521,"lon":139.446565},{"name":"＊?くにたち中央図書館","province":"東京都","city":"国立市","address":"国立市富士見台2-34","lat":35.685151,"lon":139.444416},{"name":"＊?くにたち中央図書館青柳分室","province":"東京都","city":"国立市","address":"国立市青柳244","lat":35.683198,"lon":139.423542},{"name":"＊?くにたち中央図書館谷保東分室","province":"東京都","city":"国立市","address":"国立市谷保135-1","lat":35.686397,"lon":139.430056},{"name":"＊?くにたち中央図書館下谷保分室","province":"東京都","city":"国立市","address":"国立市谷保5066","lat":35.679625,"lon":139.448808},{"name":"＊?くにたち中央図書館南市民プラザ分室","province":"東京都","city":"国立市","address":"国立市泉2-3-21号棟1階","lat":35.674543,"lon":139.430661},{"name":"＊?くにたち中央図書館東分室","province":"東京都","city":"国立市","address":"国立市東3-18-32","lat":35.691456,"lon":139.454847},{"name":"＊?くにたち北市民プラザ図書館","province":"東京都","city":"国立市","address":"国立市北3-1-19号棟1階","lat":35.699365,"lon":139.432662},{"name":"国立市公民館","province":"東京都","city":"国立市","address":"国立市中1-15-1","lat":35.696854,"lon":139.443359},{"name":"くにたち中央図書館","province":"東京都","city":"国立市","address":"国立市富士見台2-34","lat":35.685696,"lon":139.443497},{"name":"くにたち中央図書館下谷保分室","province":"東京都","city":"国立市","address":"国立市谷保5066","lat":35.679398,"lon":139.44841},{"name":"くにたち中央図書館青柳分室","province":"東京都","city":"国立市","address":"国立市青柳244","lat":35.682404,"lon":139.423279},{"name":"くにたち中央図書館谷保東分室","province":"東京都","city":"国立市","address":"国立市谷保135-1","lat":35.674107,"lon":139.445236},{"name":"くにたち中央図書館東分室","province":"東京都","city":"国立市","address":"国立市東3-18-32","lat":35.691208,"lon":139.454071},{"name":"くにたち中央図書館南市民プラザ分室","province":"東京都","city":"国立市","address":"国立市泉2-3-21号棟1階","lat":35.674431,"lon":139.431137},{"name":"くにたち北市民プラザ図書館","province":"東京都","city":"国立市","address":"国立市北3-1-19号棟1階","lat":35.699455,"lon":139.449249},{"name":"くにたち郷土文化館","province":"東京都","city":"国立市","address":"国立市谷保6231","lat":35.679863,"lon":139.432434},{"name":"くにたち男女平等参画ステーション","province":"東京都","city":"国立市","address":"国立市谷保1705-1","lat":35.674107,"lon":139.445236},{"name":"国立市古民家","province":"東京都","city":"国立市","address":"国立市泉5-21-20","lat":35.678322,"lon":139.437744},{"name":"体育館","province":"東京都","city":"国立市","address":"国立市富士見台2-1-1","lat":35.686681,"lon":139.446549},{"name":"トレーニング室","province":"東京都","city":"国立市","address":"国立市富士見台2-1-1","lat":35.686681,"lon":139.446549},{"name":"屋内温水プール","province":"東京都","city":"国立市","address":"国立市富士見台2-1-1","lat":35.686681,"lon":139.446549},{"name":"卓球室","province":"東京都","city":"国立市","address":"国立市富士見台2-1-1","lat":35.686681,"lon":139.446549},{"name":"サウンドテーブルテニス室","province":"東京都","city":"国立市","address":"国立市富士見台2-1-1","lat":35.686681,"lon":139.446549},{"name":"健康体力相談室","province":"東京都","city":"国立市","address":"国立市富士見台2-1-1","lat":35.686681,"lon":139.446549},{"name":"矢川児童館","province":"東京都","city":"国立市","address":"国立市富士見台4-17-1","lat":35.687098,"lon":139.428503},{"name":"中央児童館","province":"東京都","city":"国立市","address":"国立市富士見台2-38-5","lat":35.687451,"lon":139.444582},{"name":"伊藤単朴墓","province":"東京都","city":"国立市","address":"東京都国立市青柳355","lat":35.686214,"lon":139.424643},{"name":"くにたち中央図書館","province":"東京都","city":"国立市","address":"東京都国立市富士見台2丁目34","lat":35.68558704,"lon":139.44378816},{"name":"くにたち北市民プラザ図書館","province":"東京都","city":"国立市","address":"東京都国立市北3丁目1-1","lat":35.69934348,"lon":139.43274974},{"name":"中央児童館","province":"東京都","city":"国立市","address":"国立市富士見台2-38-5","lat":35.68736,"lon":139.44484},{"name":"矢川児童館","province":"東京都","city":"国立市","address":"国立市富士見台4-17-65","lat":35.68743,"lon":139.42685},{"name":"西児童館","province":"東京都","city":"国立市","address":"国立市西1-12-26","lat":35.69673,"lon":139.43271},{"name":"東京都多摩障害者スポーツセンター","province":"東京都","city":"国立市","address":"国立市富士見台2-1-1","lat":35.6866,"lon":139.44635},{"name":"東京都多摩障害者スポーツセンター","province":"東京都","city":"国立市","address":"国立市富士見台2-1-1","lat":35.686521,"lon":139.446565},{"name":"＊?くにたち中央図書館","province":"東京都","city":"国立市","address":"国立市富士見台2-34","lat":35.685151,"lon":139.444416},{"name":"＊?くにたち中央図書館青柳分室","province":"東京都","city":"国立市","address":"国立市青柳244","lat":35.683198,"lon":139.423542},{"name":"＊?くにたち中央図書館谷保東分室","province":"東京都","city":"国立市","address":"国立市谷保135-1","lat":35.686397,"lon":139.430056},{"name":"＊?くにたち中央図書館下谷保分室","province":"東京都","city":"国立市","address":"国立市谷保5066","lat":35.679625,"lon":139.448808},{"name":"＊?くにたち中央図書館南市民プラザ分室","province":"東京都","city":"国立市","address":"国立市泉2-3-21号棟1階","lat":35.674543,"lon":139.430661},{"name":"＊?くにたち中央図書館東分室","province":"東京都","city":"国立市","address":"国立市東3-18-32","lat":35.691456,"lon":139.454847},{"name":"＊?くにたち北市民プラザ図書館","province":"東京都","city":"国立市","address":"国立市北3-1-19号棟1階","lat":35.699365,"lon":139.432662},{"name":"国立市公民館","province":"東京都","city":"国立市","address":"国立市中1-15-1","lat":35.696854,"lon":139.443359},{"name":"くにたち中央図書館","province":"東京都","city":"国立市","address":"国立市富士見台2-34","lat":35.685696,"lon":139.443497},{"name":"くにたち中央図書館下谷保分室","province":"東京都","city":"国立市","address":"国立市谷保5066","lat":35.679398,"lon":139.44841},{"name":"くにたち中央図書館青柳分室","province":"東京都","city":"国立市","address":"国立市青柳244","lat":35.682404,"lon":139.423279},{"name":"くにたち中央図書館谷保東分室","province":"東京都","city":"国立市","address":"国立市谷保135-1","lat":35.674107,"lon":139.445236},{"name":"くにたち中央図書館東分室","province":"東京都","city":"国立市","address":"国立市東3-18-32","lat":35.691208,"lon":139.454071},{"name":"くにたち中央図書館南市民プラザ分室","province":"東京都","city":"国立市","address":"国立市泉2-3-21号棟1階","lat":35.674431,"lon":139.431137},{"name":"くにたち北市民プラザ図書館","province":"東京都","city":"国立市","address":"国立市北3-1-19号棟1階","lat":35.699455,"lon":139.449249},{"name":"くにたち郷土文化館","province":"東京都","city":"国立市","address":"国立市谷保6231","lat":35.679863,"lon":139.432434},{"name":"くにたち男女平等参画ステーション","province":"東京都","city":"国立市","address":"国立市谷保1705-1","lat":35.674107,"lon":139.445236},{"name":"国立市古民家","province":"東京都","city":"国立市","address":"国立市泉5-21-20","lat":35.678322,"lon":139.437744},{"name":"体育館","province":"東京都","city":"国立市","address":"国立市富士見台2-1-1","lat":35.686681,"lon":139.446549},{"name":"トレーニング室","province":"東京都","city":"国立市","address":"国立市富士見台2-1-1","lat":35.686681,"lon":139.446549},{"name":"屋内温水プール","province":"東京都","city":"国立市","address":"国立市富士見台2-1-1","lat":35.686681,"lon":139.446549},{"name":"卓球室","province":"東京都","city":"国立市","address":"国立市富士見台2-1-1","lat":35.686681,"lon":139.446549},{"name":"サウンドテーブルテニス室","province":"東京都","city":"国立市","address":"国立市富士見台2-1-1","lat":35.686681,"lon":139.446549},{"name":"健康体力相談室","province":"東京都","city":"国立市","address":"国立市富士見台2-1-1","lat":35.686681,"lon":139.446549},{"name":"矢川児童館","province":"東京都","city":"国立市","address":"国立市富士見台4-17-1","lat":35.687098,"lon":139.428503},{"name":"中央児童館","province":"東京都","city":"国立市","address":"国立市富士見台2-38-5","lat":35.687451,"lon":139.444582},{"name":"伊藤単朴墓","province":"東京都","city":"国立市","address":"東京都国立市青柳355","lat":35.686214,"lon":139.424643},{"name":"くにたち中央図書館","province":"東京都","city":"国立市","address":"東京都国立市富士見台2丁目34","lat":35.68558704,"lon":139.44378816},{"name":"くにたち北市民プラザ図書館","province":"東京都","city":"国立市","address":"東京都国立市北3丁目1-1","lat":35.69934348,"lon":139.43274974},{"name":"中央児童館","province":"東京都","city":"国立市","address":"国立市富士見台2-38-5","lat":35.68736,"lon":139.44484},{"name":"矢川児童館","province":"東京都","city":"国立市","address":"国立市富士見台4-17-65","lat":35.68743,"lon":139.42685},{"name":"西児童館","province":"東京都","city":"国立市","address":"国立市西1-12-26","lat":35.69673,"lon":139.43271},{"name":"東京都多摩障害者スポーツセンター","province":"東京都","city":"国立市","address":"国立市富士見台2-1-1","lat":35.6866,"lon":139.44635},{"name":"東京都多摩障害者スポーツセンター","province":"東京都","city":"国立市","address":"国立市富士見台2-1-1","lat":35.686521,"lon":139.446565},{"name":"＊?くにたち中央図書館","province":"東京都","city":"国立市","address":"国立市富士見台2-34","lat":35.685151,"lon":139.444416},{"name":"＊?くにたち中央図書館青柳分室","province":"東京都","city":"国立市","address":"国立市青柳244","lat":35.683198,"lon":139.423542},{"name":"＊?くにたち中央図書館谷保東分室","province":"東京都","city":"国立市","address":"国立市谷保135-1","lat":35.686397,"lon":139.430056},{"name":"＊?くにたち中央図書館下谷保分室","province":"東京都","city":"国立市","address":"国立市谷保5066","lat":35.679625,"lon":139.448808},{"name":"＊?くにたち中央図書館南市民プラザ分室","province":"東京都","city":"国立市","address":"国立市泉2-3-21号棟1階","lat":35.674543,"lon":139.430661},{"name":"＊?くにたち中央図書館東分室","province":"東京都","city":"国立市","address":"国立市東3-18-32","lat":35.691456,"lon":139.454847},{"name":"＊?くにたち北市民プラザ図書館","province":"東京都","city":"国立市","address":"国立市北3-1-19号棟1階","lat":35.699365,"lon":139.432662},{"name":"国立市公民館","province":"東京都","city":"国立市","address":"国立市中1-15-1","lat":35.696854,"lon":139.443359},{"name":"くにたち中央図書館","province":"東京都","city":"国立市","address":"国立市富士見台2-34","lat":35.685696,"lon":139.443497},{"name":"くにたち中央図書館下谷保分室","province":"東京都","city":"国立市","address":"国立市谷保5066","lat":35.679398,"lon":139.44841},{"name":"くにたち中央図書館青柳分室","province":"東京都","city":"国立市","address":"国立市青柳244","lat":35.682404,"lon":139.423279},{"name":"くにたち中央図書館谷保東分室","province":"東京都","city":"国立市","address":"国立市谷保135-1","lat":35.674107,"lon":139.445236},{"name":"くにたち中央図書館東分室","province":"東京都","city":"国立市","address":"国立市東3-18-32","lat":35.691208,"lon":139.454071},{"name":"くにたち中央図書館南市民プラザ分室","province":"東京都","city":"国立市","address":"国立市泉2-3-21号棟1階","lat":35.674431,"lon":139.431137},{"name":"くにたち北市民プラザ図書館","province":"東京都","city":"国立市","address":"国立市北3-1-19号棟1階","lat":35.699455,"lon":139.449249},{"name":"くにたち郷土文化館","province":"東京都","city":"国立市","address":"国立市谷保6231","lat":35.679863,"lon":139.432434},{"name":"くにたち男女平等参画ステーション","province":"東京都","city":"国立市","address":"国立市谷保1705-1","lat":35.674107,"lon":139.445236},{"name":"国立市古民家","province":"東京都","city":"国立市","address":"国立市泉5-21-20","lat":35.678322,"lon":139.437744},{"name":"体育館","province":"東京都","city":"国立市","address":"国立市富士見台2-1-1","lat":35.686681,"lon":139.446549},{"name":"トレーニング室","province":"東京都","city":"国立市","address":"国立市富士見台2-1-1","lat":35.686681,"lon":139.446549},{"name":"屋内温水プール","province":"東京都","city":"国立市","address":"国立市富士見台2-1-1","lat":35.686681,"lon":139.446549},{"name":"卓球室","province":"東京都","city":"国立市","address":"国立市富士見台2-1-1","lat":35.686681,"lon":139.446549},{"name":"サウンドテーブルテニス室","province":"東京都","city":"国立市","address":"国立市富士見台2-1-1","lat":35.686681,"lon":139.446549},{"name":"健康体力相談室","province":"東京都","city":"国立市","address":"国立市富士見台2-1-1","lat":35.686681,"lon":139.446549},{"name":"矢川児童館","province":"東京都","city":"国立市","address":"国立市富士見台4-17-1","lat":35.687098,"lon":139.428503},{"name":"中央児童館","province":"東京都","city":"国立市","address":"国立市富士見台2-38-5","lat":35.687451,"lon":139.444582},{"name":"伊藤単朴墓","province":"東京都","city":"国立市","address":"東京都国立市青柳355","lat":35.686214,"lon":139.424643},{"name":"くにたち中央図書館","province":"東京都","city":"国立市","address":"東京都国立市富士見台2丁目34","lat":35.68558704,"lon":139.44378816},{"name":"くにたち北市民プラザ図書館","province":"東京都","city":"国立市","address":"東京都国立市北3丁目1-1","lat":35.69934348,"lon":139.43274974},{"name":"中央児童館","province":"東京都","city":"国立市","address":"国立市富士見台2-38-5","lat":35.68736,"lon":139.44484},{"name":"矢川児童館","province":"東京都","city":"国立市","address":"国立市富士見台4-17-65","lat":35.68743,"lon":139.42685},{"name":"西児童館","province":"東京都","city":"国立市","address":"国立市西1-12-26","lat":35.69673,"lon":139.43271},{"name":"東京都多摩障害者スポーツセンター","province":"東京都","city":"国立市","address":"国立市富士見台2-1-1","lat":35.6866,"lon":139.44635},{"name":"東京都多摩障害者スポーツセンター","province":"東京都","city":"国立市","address":"国立市富士見台2-1-1","lat":35.686521,"lon":139.446565},{"name":"＊?くにたち中央図書館","province":"東京都","city":"国立市","address":"国立市富士見台2-34","lat":35.685151,"lon":139.444416},{"name":"＊?くにたち中央図書館青柳分室","province":"東京都","city":"国立市","address":"国立市青柳244","lat":35.683198,"lon":139.423542},{"name":"＊?くにたち中央図書館谷保東分室","province":"東京都","city":"国立市","address":"国立市谷保135-1","lat":35.686397,"lon":139.430056},{"name":"＊?くにたち中央図書館下谷保分室","province":"東京都","city":"国立市","address":"国立市谷保5066","lat":35.679625,"lon":139.448808},{"name":"＊?くにたち中央図書館南市民プラザ分室","province":"東京都","city":"国立市","address":"国立市泉2-3-21号棟1階","lat":35.674543,"lon":139.430661},{"name":"＊?くにたち中央図書館東分室","province":"東京都","city":"国立市","address":"国立市東3-18-32","lat":35.691456,"lon":139.454847},{"name":"＊?くにたち北市民プラザ図書館","province":"東京都","city":"国立市","address":"国立市北3-1-19号棟1階","lat":35.699365,"lon":139.432662},{"name":"国立市公民館","province":"東京都","city":"国立市","address":"国立市中1-15-1","lat":35.696854,"lon":139.443359},{"name":"くにたち中央図書館","province":"東京都","city":"国立市","address":"国立市富士見台2-34","lat":35.685696,"lon":139.443497},{"name":"くにたち中央図書館下谷保分室","province":"東京都","city":"国立市","address":"国立市谷保5066","lat":35.679398,"lon":139.44841},{"name":"くにたち中央図書館青柳分室","province":"東京都","city":"国立市","address":"国立市青柳244","lat":35.682404,"lon":139.423279},{"name":"くにたち中央図書館谷保東分室","province":"東京都","city":"国立市","address":"国立市谷保135-1","lat":35.674107,"lon":139.445236},{"name":"くにたち中央図書館東分室","province":"東京都","city":"国立市","address":"国立市東3-18-32","lat":35.691208,"lon":139.454071},{"name":"くにたち中央図書館南市民プラザ分室","province":"東京都","city":"国立市","address":"国立市泉2-3-21号棟1階","lat":35.674431,"lon":139.431137},{"name":"くにたち北市民プラザ図書館","province":"東京都","city":"国立市","address":"国立市北3-1-19号棟1階","lat":35.699455,"lon":139.449249},{"name":"くにたち郷土文化館","province":"東京都","city":"国立市","address":"国立市谷保6231","lat":35.679863,"lon":139.432434},{"name":"くにたち男女平等参画ステーション","province":"東京都","city":"国立市","address":"国立市谷保1705-1","lat":35.674107,"lon":139.445236},{"name":"国立市古民家","province":"東京都","city":"国立市","address":"国立市泉5-21-20","lat":35.678322,"lon":139.437744},{"name":"体育館","province":"東京都","city":"国立市","address":"国立市富士見台2-1-1","lat":35.686681,"lon":139.446549},{"name":"トレーニング室","province":"東京都","city":"国立市","address":"国立市富士見台2-1-1","lat":35.686681,"lon":139.446549},{"name":"屋内温水プール","province":"東京都","city":"国立市","address":"国立市富士見台2-1-1","lat":35.686681,"lon":139.446549},{"name":"卓球室","province":"東京都","city":"国立市","address":"国立市富士見台2-1-1","lat":35.686681,"lon":139.446549},{"name":"サウンドテーブルテニス室","province":"東京都","city":"国立市","address":"国立市富士見台2-1-1","lat":35.686681,"lon":139.446549},{"name":"健康体力相談室","province":"東京都","city":"国立市","address":"国立市富士見台2-1-1","lat":35.686681,"lon":139.446549},{"name":"矢川児童館","province":"東京都","city":"国立市","address":"国立市富士見台4-17-1","lat":35.687098,"lon":139.428503},{"name":"中央児童館","province":"東京都","city":"国立市","address":"国立市富士見台2-38-5","lat":35.687451,"lon":139.444582},{"name":"伊藤単朴墓","province":"東京都","city":"国立市","address":"東京都国立市青柳355","lat":35.686214,"lon":139.424643},{"name":"くにたち中央図書館","province":"東京都","city":"国立市","address":"東京都国立市富士見台2丁目34","lat":35.68558704,"lon":139.44378816},{"name":"くにたち北市民プラザ図書館","province":"東京都","city":"国立市","address":"東京都国立市北3丁目1-1","lat":35.69934348,"lon":139.43274974},{"name":"中央児童館","province":"東京都","city":"国立市","address":"国立市富士見台2-38-5","lat":35.68736,"lon":139.44484},{"name":"矢川児童館","province":"東京都","city":"国立市","address":"国立市富士見台4-17-65","lat":35.68743,"lon":139.42685},{"name":"西児童館","province":"東京都","city":"国立市","address":"国立市西1-12-26","lat":35.69673,"lon":139.43271},{"name":"東京都多摩障害者スポーツセンター","province":"東京都","city":"国立市","address":"国立市富士見台2-1-1","lat":35.6866,"lon":139.44635},{"name":"東京都多摩障害者スポーツセンター","province":"東京都","city":"国立市","address":"国立市富士見台2-1-1","lat":35.686521,"lon":139.446565},{"name":"＊?くにたち中央図書館","province":"東京都","city":"国立市","address":"国立市富士見台2-34","lat":35.685151,"lon":139.444416},{"name":"＊?くにたち中央図書館青柳分室","province":"東京都","city":"国立市","address":"国立市青柳244","lat":35.683198,"lon":139.423542},{"name":"＊?くにたち中央図書館谷保東分室","province":"東京都","city":"国立市","address":"国立市谷保135-1","lat":35.686397,"lon":139.430056},{"name":"＊?くにたち中央図書館下谷保分室","province":"東京都","city":"国立市","address":"国立市谷保5066","lat":35.679625,"lon":139.448808},{"name":"＊?くにたち中央図書館南市民プラザ分室","province":"東京都","city":"国立市","address":"国立市泉2-3-21号棟1階","lat":35.674543,"lon":139.430661},{"name":"＊?くにたち中央図書館東分室","province":"東京都","city":"国立市","address":"国立市東3-18-32","lat":35.691456,"lon":139.454847},{"name":"＊?くにたち北市民プラザ図書館","province":"東京都","city":"国立市","address":"国立市北3-1-19号棟1階","lat":35.699365,"lon":139.432662},{"name":"国立市公民館","province":"東京都","city":"国立市","address":"国立市中1-15-1","lat":35.696854,"lon":139.443359},{"name":"くにたち中央図書館","province":"東京都","city":"国立市","address":"国立市富士見台2-34","lat":35.685696,"lon":139.443497},{"name":"くにたち中央図書館下谷保分室","province":"東京都","city":"国立市","address":"国立市谷保5066","lat":35.679398,"lon":139.44841},{"name":"くにたち中央図書館青柳分室","province":"東京都","city":"国立市","address":"国立市青柳244","lat":35.682404,"lon":139.423279},{"name":"くにたち中央図書館谷保東分室","province":"東京都","city":"国立市","address":"国立市谷保135-1","lat":35.674107,"lon":139.445236},{"name":"くにたち中央図書館東分室","province":"東京都","city":"国立市","address":"国立市東3-18-32","lat":35.691208,"lon":139.454071},{"name":"くにたち中央図書館南市民プラザ分室","province":"東京都","city":"国立市","address":"国立市泉2-3-21号棟1階","lat":35.674431,"lon":139.431137},{"name":"くにたち北市民プラザ図書館","province":"東京都","city":"国立市","address":"国立市北3-1-19号棟1階","lat":35.699455,"lon":139.449249},{"name":"くにたち郷土文化館","province":"東京都","city":"国立市","address":"国立市谷保6231","lat":35.679863,"lon":139.432434},{"name":"くにたち男女平等参画ステーション","province":"東京都","city":"国立市","address":"国立市谷保1705-1","lat":35.674107,"lon":139.445236},{"name":"国立市古民家","province":"東京都","city":"国立市","address":"国立市泉5-21-20","lat":35.678322,"lon":139.437744},{"name":"体育館","province":"東京都","city":"国立市","address":"国立市富士見台2-1-1","lat":35.686681,"lon":139.446549},{"name":"トレーニング室","province":"東京都","city":"国立市","address":"国立市富士見台2-1-1","lat":35.686681,"lon":139.446549},{"name":"屋内温水プール","province":"東京都","city":"国立市","address":"国立市富士見台2-1-1","lat":35.686681,"lon":139.446549},{"name":"卓球室","province":"東京都","city":"国立市","address":"国立市富士見台2-1-1","lat":35.686681,"lon":139.446549},{"name":"サウンドテーブルテニス室","province":"東京都","city":"国立市","address":"国立市富士見台2-1-1","lat":35.686681,"lon":139.446549},{"name":"健康体力相談室","province":"東京都","city":"国立市","address":"国立市富士見台2-1-1","lat":35.686681,"lon":139.446549},{"name":"矢川児童館","province":"東京都","city":"国立市","address":"国立市富士見台4-17-1","lat":35.687098,"lon":139.428503},{"name":"中央児童館","province":"東京都","city":"国立市","address":"国立市富士見台2-38-5","lat":35.687451,"lon":139.444582},{"name":"伊藤単朴墓","province":"東京都","city":"国立市","address":"東京都国立市青柳355","lat":35.686214,"lon":139.424643},{"name":"くにたち中央図書館","province":"東京都","city":"国立市","address":"東京都国立市富士見台2丁目34","lat":35.68558704,"lon":139.44378816},{"name":"くにたち北市民プラザ図書館","province":"東京都","city":"国立市","address":"東京都国立市北3丁目1-1","lat":35.69934348,"lon":139.43274974},{"name":"中央児童館","province":"東京都","city":"国立市","address":"国立市富士見台2-38-5","lat":35.68736,"lon":139.44484},{"name":"矢川児童館","province":"東京都","city":"国立市","address":"国立市富士見台4-17-65","lat":35.68743,"lon":139.42685},{"name":"西児童館","province":"東京都","city":"国立市","address":"国立市西1-12-26","lat":35.69673,"lon":139.43271},{"name":"東京都多摩障害者スポーツセンター","province":"東京都","city":"国立市","address":"国立市富士見台2-1-1","lat":35.6866,"lon":139.44635},{"name":"東京都多摩障害者スポーツセンター","province":"東京都","city":"国立市","address":"国立市富士見台2-1-1","lat":35.686521,"lon":139.446565},{"name":"＊?くにたち中央図書館","province":"東京都","city":"国立市","address":"国立市富士見台2-34","lat":35.685151,"lon":139.444416},{"name":"＊?くにたち中央図書館青柳分室","province":"東京都","city":"国立市","address":"国立市青柳244","lat":35.683198,"lon":139.423542},{"name":"＊?くにたち中央図書館谷保東分室","province":"東京都","city":"国立市","address":"国立市谷保135-1","lat":35.686397,"lon":139.430056},{"name":"＊?くにたち中央図書館下谷保分室","province":"東京都","city":"国立市","address":"国立市谷保5066","lat":35.679625,"lon":139.448808},{"name":"＊?くにたち中央図書館南市民プラザ分室","province":"東京都","city":"国立市","address":"国立市泉2-3-21号棟1階","lat":35.674543,"lon":139.430661},{"name":"＊?くにたち中央図書館東分室","province":"東京都","city":"国立市","address":"国立市東3-18-32","lat":35.691456,"lon":139.454847},{"name":"＊?くにたち北市民プラザ図書館","province":"東京都","city":"国立市","address":"国立市北3-1-19号棟1階","lat":35.699365,"lon":139.432662},{"name":"国立市公民館","province":"東京都","city":"国立市","address":"国立市中1-15-1","lat":35.696854,"lon":139.443359},{"name":"くにたち中央図書館","province":"東京都","city":"国立市","address":"国立市富士見台2-34","lat":35.685696,"lon":139.443497},{"name":"くにたち中央図書館下谷保分室","province":"東京都","city":"国立市","address":"国立市谷保5066","lat":35.679398,"lon":139.44841},{"name":"くにたち中央図書館青柳分室","province":"東京都","city":"国立市","address":"国立市青柳244","lat":35.682404,"lon":139.423279},{"name":"くにたち中央図書館谷保東分室","province":"東京都","city":"国立市","address":"国立市谷保135-1","lat":35.674107,"lon":139.445236},{"name":"くにたち中央図書館東分室","province":"東京都","city":"国立市","address":"国立市東3-18-32","lat":35.691208,"lon":139.454071},{"name":"くにたち中央図書館南市民プラザ分室","province":"東京都","city":"国立市","address":"国立市泉2-3-21号棟1階","lat":35.674431,"lon":139.431137},{"name":"くにたち北市民プラザ図書館","province":"東京都","city":"国立市","address":"国立市北3-1-19号棟1階","lat":35.699455,"lon":139.449249},{"name":"くにたち郷土文化館","province":"東京都","city":"国立市","address":"国立市谷保6231","lat":35.679863,"lon":139.432434},{"name":"くにたち男女平等参画ステーション","province":"東京都","city":"国立市","address":"国立市谷保1705-1","lat":35.674107,"lon":139.445236},{"name":"国立市古民家","province":"東京都","city":"国立市","address":"国立市泉5-21-20","lat":35.678322,"lon":139.437744},{"name":"体育館","province":"東京都","city":"国立市","address":"国立市富士見台2-1-1","lat":35.686681,"lon":139.446549},{"name":"トレーニング室","province":"東京都","city":"国立市","address":"国立市富士見台2-1-1","lat":35.686681,"lon":139.446549},{"name":"屋内温水プール","province":"東京都","city":"国立市","address":"国立市富士見台2-1-1","lat":35.686681,"lon":139.446549},{"name":"卓球室","province":"東京都","city":"国立市","address":"国立市富士見台2-1-1","lat":35.686681,"lon":139.446549},{"name":"サウンドテーブルテニス室","province":"東京都","city":"国立市","address":"国立市富士見台2-1-1","lat":35.686681,"lon":139.446549},{"name":"健康体力相談室","province":"東京都","city":"国立市","address":"国立市富士見台2-1-1","lat":35.686681,"lon":139.446549},{"name":"矢川児童館","province":"東京都","city":"国立市","address":"国立市富士見台4-17-1","lat":35.687098,"lon":139.428503},{"name":"中央児童館","province":"東京都","city":"国立市","address":"国立市富士見台2-38-5","lat":35.687451,"lon":139.444582},{"name":"伊藤単朴墓","province":"東京都","city":"国立市","address":"東京都国立市青柳355","lat":35.686214,"lon":139.424643},{"name":"くにたち中央図書館","province":"東京都","city":"国立市","address":"東京都国立市富士見台2丁目34","lat":35.68558704,"lon":139.44378816},{"name":"くにたち北市民プラザ図書館","province":"東京都","city":"国立市","address":"東京都国立市北3丁目1-1","lat":35.69934348,"lon":139.43274974},{"name":"中央児童館","province":"東京都","city":"国立市","address":"国立市富士見台2-38-5","lat":35.68736,"lon":139.44484},{"name":"矢川児童館","province":"東京都","city":"国立市","address":"国立市富士見台4-17-65","lat":35.68743,"lon":139.42685},{"name":"西児童館","province":"東京都","city":"国立市","address":"国立市西1-12-26","lat":35.69673,"lon":139.43271},{"name":"東京都多摩障害者スポーツセンター","province":"東京都","city":"国立市","address":"国立市富士見台2-1-1","lat":35.6866,"lon":139.44635},{"name":"東京都多摩障害者スポーツセンター","province":"東京都","city":"国立市","address":"国立市富士見台2-1-1","lat":35.686521,"lon":139.446565},{"name":"＊?くにたち中央図書館","province":"東京都","city":"国立市","address":"国立市富士見台2-34","lat":35.685151,"lon":139.444416},{"name":"＊?くにたち中央図書館青柳分室","province":"東京都","city":"国立市","address":"国立市青柳244","lat":35.683198,"lon":139.423542},{"name":"＊?くにたち中央図書館谷保東分室","province":"東京都","city":"国立市","address":"国立市谷保135-1","lat":35.686397,"lon":139.430056},{"name":"＊?くにたち中央図書館下谷保分室","province":"東京都","city":"国立市","address":"国立市谷保5066","lat":35.679625,"lon":139.448808},{"name":"＊?くにたち中央図書館南市民プラザ分室","province":"東京都","city":"国立市","address":"国立市泉2-3-21号棟1階","lat":35.674543,"lon":139.430661},{"name":"＊?くにたち中央図書館東分室","province":"東京都","city":"国立市","address":"国立市東3-18-32","lat":35.691456,"lon":139.454847},{"name":"＊?くにたち北市民プラザ図書館","province":"東京都","city":"国立市","address":"国立市北3-1-19号棟1階","lat":35.699365,"lon":139.432662},{"name":"国立市公民館","province":"東京都","city":"国立市","address":"国立市中1-15-1","lat":35.696854,"lon":139.443359},{"name":"くにたち中央図書館","province":"東京都","city":"国立市","address":"国立市富士見台2-34","lat":35.685696,"lon":139.443497},{"name":"くにたち中央図書館下谷保分室","province":"東京都","city":"国立市","address":"国立市谷保5066","lat":35.679398,"lon":139.44841},{"name":"くにたち中央図書館青柳分室","province":"東京都","city":"国立市","address":"国立市青柳244","lat":35.682404,"lon":139.423279},{"name":"くにたち中央図書館谷保東分室","province":"東京都","city":"国立市","address":"国立市谷保135-1","lat":35.674107,"lon":139.445236},{"name":"くにたち中央図書館東分室","province":"東京都","city":"国立市","address":"国立市東3-18-32","lat":35.691208,"lon":139.454071},{"name":"くにたち中央図書館南市民プラザ分室","province":"東京都","city":"国立市","address":"国立市泉2-3-21号棟1階","lat":35.674431,"lon":139.431137},{"name":"くにたち北市民プラザ図書館","province":"東京都","city":"国立市","address":"国立市北3-1-19号棟1階","lat":35.699455,"lon":139.449249},{"name":"くにたち郷土文化館","province":"東京都","city":"国立市","address":"国立市谷保6231","lat":35.679863,"lon":139.432434},{"name":"くにたち男女平等参画ステーション","province":"東京都","city":"国立市","address":"国立市谷保1705-1","lat":35.674107,"lon":139.445236},{"name":"国立市古民家","province":"東京都","city":"国立市","address":"国立市泉5-21-20","lat":35.678322,"lon":139.437744},{"name":"体育館","province":"東京都","city":"国立市","address":"国立市富士見台2-1-1","lat":35.686681,"lon":139.446549},{"name":"トレーニング室","province":"東京都","city":"国立市","address":"国立市富士見台2-1-1","lat":35.686681,"lon":139.446549},{"name":"屋内温水プール","province":"東京都","city":"国立市","address":"国立市富士見台2-1-1","lat":35.686681,"lon":139.446549},{"name":"卓球室","province":"東京都","city":"国立市","address":"国立市富士見台2-1-1","lat":35.686681,"lon":139.446549},{"name":"サウンドテーブルテニス室","province":"東京都","city":"国立市","address":"国立市富士見台2-1-1","lat":35.686681,"lon":139.446549},{"name":"健康体力相談室","province":"東京都","city":"国立市","address":"国立市富士見台2-1-1","lat":35.686681,"lon":139.446549},{"name":"矢川児童館","province":"東京都","city":"国立市","address":"国立市富士見台4-17-1","lat":35.687098,"lon":139.428503},{"name":"中央児童館","province":"東京都","city":"国立市","address":"国立市富士見台2-38-5","lat":35.687451,"lon":139.444582},{"name":"伊藤単朴墓","province":"東京都","city":"国立市","address":"東京都国立市青柳355","lat":35.686214,"lon":139.424643},{"name":"くにたち中央図書館","province":"東京都","city":"国立市","address":"東京都国立市富士見台2丁目34","lat":35.68558704,"lon":139.44378816},{"name":"くにたち北市民プラザ図書館","province":"東京都","city":"国立市","address":"東京都国立市北3丁目1-1","lat":35.69934348,"lon":139.43274974},{"name":"中央児童館","province":"東京都","city":"国立市","address":"国立市富士見台2-38-5","lat":35.68736,"lon":139.44484},{"name":"矢川児童館","province":"東京都","city":"国立市","address":"国立市富士見台4-17-65","lat":35.68743,"lon":139.42685},{"name":"西児童館","province":"東京都","city":"国立市","address":"国立市西1-12-26","lat":35.69673,"lon":139.43271},{"name":"東京都多摩障害者スポーツセンター","province":"東京都","city":"国立市","address":"国立市富士見台2-1-1","lat":35.6866,"lon":139.44635},{"name":"東京都多摩障害者スポーツセンター","province":"東京都","city":"国立市","address":"国立市富士見台2-1-1","lat":35.686521,"lon":139.446565},{"name":"＊?くにたち中央図書館","province":"東京都","city":"国立市","address":"国立市富士見台2-34","lat":35.685151,"lon":139.444416},{"name":"＊?くにたち中央図書館青柳分室","province":"東京都","city":"国立市","address":"国立市青柳244","lat":35.683198,"lon":139.423542},{"name":"＊?くにたち中央図書館谷保東分室","province":"東京都","city":"国立市","address":"国立市谷保135-1","lat":35.686397,"lon":139.430056},{"name":"＊?くにたち中央図書館下谷保分室","province":"東京都","city":"国立市","address":"国立市谷保5066","lat":35.679625,"lon":139.448808},{"name":"＊?くにたち中央図書館南市民プラザ分室","province":"東京都","city":"国立市","address":"国立市泉2-3-21号棟1階","lat":35.674543,"lon":139.430661},{"name":"＊?くにたち中央図書館東分室","province":"東京都","city":"国立市","address":"国立市東3-18-32","lat":35.691456,"lon":139.454847},{"name":"＊?くにたち北市民プラザ図書館","province":"東京都","city":"国立市","address":"国立市北3-1-19号棟1階","lat":35.699365,"lon":139.432662},{"name":"国立市公民館","province":"東京都","city":"国立市","address":"国立市中1-15-1","lat":35.696854,"lon":139.443359},{"name":"くにたち中央図書館","province":"東京都","city":"国立市","address":"国立市富士見台2-34","lat":35.685696,"lon":139.443497},{"name":"くにたち中央図書館下谷保分室","province":"東京都","city":"国立市","address":"国立市谷保5066","lat":35.679398,"lon":139.44841},{"name":"くにたち中央図書館青柳分室","province":"東京都","city":"国立市","address":"国立市青柳244","lat":35.682404,"lon":139.423279},{"name":"くにたち中央図書館谷保東分室","province":"東京都","city":"国立市","address":"国立市谷保135-1","lat":35.674107,"lon":139.445236},{"name":"くにたち中央図書館東分室","province":"東京都","city":"国立市","address":"国立市東3-18-32","lat":35.691208,"lon":139.454071},{"name":"くにたち中央図書館南市民プラザ分室","province":"東京都","city":"国立市","address":"国立市泉2-3-21号棟1階","lat":35.674431,"lon":139.431137},{"name":"くにたち北市民プラザ図書館","province":"東京都","city":"国立市","address":"国立市北3-1-19号棟1階","lat":35.699455,"lon":139.449249},{"name":"くにたち郷土文化館","province":"東京都","city":"国立市","address":"国立市谷保6231","lat":35.679863,"lon":139.432434},{"name":"くにたち男女平等参画ステーション","province":"東京都","city":"国立市","address":"国立市谷保1705-1","lat":35.674107,"lon":139.445236},{"name":"国立市古民家","province":"東京都","city":"国立市","address":"国立市泉5-21-20","lat":35.678322,"lon":139.437744},{"name":"体育館","province":"東京都","city":"国立市","address":"国立市富士見台2-1-1","lat":35.686681,"lon":139.446549},{"name":"トレーニング室","province":"東京都","city":"国立市","address":"国立市富士見台2-1-1","lat":35.686681,"lon":139.446549},{"name":"屋内温水プール","province":"東京都","city":"国立市","address":"国立市富士見台2-1-1","lat":35.686681,"lon":139.446549},{"name":"卓球室","province":"東京都","city":"国立市","address":"国立市富士見台2-1-1","lat":35.686681,"lon":139.446549},{"name":"サウンドテーブルテニス室","province":"東京都","city":"国立市","address":"国立市富士見台2-1-1","lat":35.686681,"lon":139.446549},{"name":"健康体力相談室","province":"東京都","city":"国立市","address":"国立市富士見台2-1-1","lat":35.686681,"lon":139.446549},{"name":"矢川児童館","province":"東京都","city":"国立市","address":"国立市富士見台4-17-1","lat":35.687098,"lon":139.428503},{"name":"中央児童館","province":"東京都","city":"国立市","address":"国立市富士見台2-38-5","lat":35.687451,"lon":139.444582},{"name":"伊藤単朴墓","province":"東京都","city":"国立市","address":"東京都国立市青柳355","lat":35.686214,"lon":139.424643},{"name":"くにたち中央図書館","province":"東京都","city":"国立市","address":"東京都国立市富士見台2丁目34","lat":35.68558704,"lon":139.44378816},{"name":"くにたち北市民プラザ図書館","province":"東京都","city":"国立市","address":"東京都国立市北3丁目1-1","lat":35.69934348,"lon":139.43274974},{"name":"中央児童館","province":"東京都","city":"国立市","address":"国立市富士見台2-38-5","lat":35.68736,"lon":139.44484},{"name":"矢川児童館","province":"東京都","city":"国立市","address":"国立市富士見台4-17-65","lat":35.68743,"lon":139.42685},{"name":"西児童館","province":"東京都","city":"国立市","address":"国立市西1-12-26","lat":35.69673,"lon":139.43271},{"name":"東京都多摩障害者スポーツセンター","province":"東京都","city":"国立市","address":"国立市富士見台2-1-1","lat":35.6866,"lon":139.44635},{"name":"東京都多摩障害者スポーツセンター","province":"東京都","city":"国立市","address":"国立市富士見台2-1-1","lat":35.686521,"lon":139.446565},{"name":"＊?くにたち中央図書館","province":"東京都","city":"国立市","address":"国立市富士見台2-34","lat":35.685151,"lon":139.444416},{"name":"＊?くにたち中央図書館青柳分室","province":"東京都","city":"国立市","address":"国立市青柳244","lat":35.683198,"lon":139.423542},{"name":"＊?くにたち中央図書館谷保東分室","province":"東京都","city":"国立市","address":"国立市谷保135-1","lat":35.686397,"lon":139.430056},{"name":"＊?くにたち中央図書館下谷保分室","province":"東京都","city":"国立市","address":"国立市谷保5066","lat":35.679625,"lon":139.448808},{"name":"＊?くにたち中央図書館南市民プラザ分室","province":"東京都","city":"国立市","address":"国立市泉2-3-21号棟1階","lat":35.674543,"lon":139.430661},{"name":"＊?くにたち中央図書館東分室","province":"東京都","city":"国立市","address":"国立市東3-18-32","lat":35.691456,"lon":139.454847},{"name":"＊?くにたち北市民プラザ図書館","province":"東京都","city":"国立市","address":"国立市北3-1-19号棟1階","lat":35.699365,"lon":139.432662},{"name":"国立市公民館","province":"東京都","city":"国立市","address":"国立市中1-15-1","lat":35.696854,"lon":139.443359},{"name":"くにたち中央図書館","province":"東京都","city":"国立市","address":"国立市富士見台2-34","lat":35.685696,"lon":139.443497},{"name":"くにたち中央図書館下谷保分室","province":"東京都","city":"国立市","address":"国立市谷保5066","lat":35.679398,"lon":139.44841},{"name":"くにたち中央図書館青柳分室","province":"東京都","city":"国立市","address":"国立市青柳244","lat":35.682404,"lon":139.423279},{"name":"くにたち中央図書館谷保東分室","province":"東京都","city":"国立市","address":"国立市谷保135-1","lat":35.674107,"lon":139.445236},{"name":"くにたち中央図書館東分室","province":"東京都","city":"国立市","address":"国立市東3-18-32","lat":35.691208,"lon":139.454071},{"name":"くにたち中央図書館南市民プラザ分室","province":"東京都","city":"国立市","address":"国立市泉2-3-21号棟1階","lat":35.674431,"lon":139.431137},{"name":"くにたち北市民プラザ図書館","province":"東京都","city":"国立市","address":"国立市北3-1-19号棟1階","lat":35.699455,"lon":139.449249},{"name":"くにたち郷土文化館","province":"東京都","city":"国立市","address":"国立市谷保6231","lat":35.679863,"lon":139.432434},{"name":"くにたち男女平等参画ステーション","province":"東京都","city":"国立市","address":"国立市谷保1705-1","lat":35.674107,"lon":139.445236},{"name":"国立市古民家","province":"東京都","city":"国立市","address":"国立市泉5-21-20","lat":35.678322,"lon":139.437744},{"name":"体育館","province":"東京都","city":"国立市","address":"国立市富士見台2-1-1","lat":35.686681,"lon":139.446549},{"name":"トレーニング室","province":"東京都","city":"国立市","address":"国立市富士見台2-1-1","lat":35.686681,"lon":139.446549},{"name":"屋内温水プール","province":"東京都","city":"国立市","address":"国立市富士見台2-1-1","lat":35.686681,"lon":139.446549},{"name":"卓球室","province":"東京都","city":"国立市","address":"国立市富士見台2-1-1","lat":35.686681,"lon":139.446549},{"name":"サウンドテーブルテニス室","province":"東京都","city":"国立市","address":"国立市富士見台2-1-1","lat":35.686681,"lon":139.446549},{"name":"健康体力相談室","province":"東京都","city":"国立市","address":"国立市富士見台2-1-1","lat":35.686681,"lon":139.446549},{"name":"矢川児童館","province":"東京都","city":"国立市","address":"国立市富士見台4-17-1","lat":35.687098,"lon":139.428503},{"name":"中央児童館","province":"東京都","city":"国立市","address":"国立市富士見台2-38-5","lat":35.687451,"lon":139.444582},{"name":"伊藤単朴墓","province":"東京都","city":"国立市","address":"東京都国立市青柳355","lat":35.686214,"lon":139.424643},{"name":"くにたち中央図書館","province":"東京都","city":"国立市","address":"東京都国立市富士見台2丁目34","lat":35.68558704,"lon":139.44378816},{"name":"くにたち北市民プラザ図書館","province":"東京都","city":"国立市","address":"東京都国立市北3丁目1-1","lat":35.69934348,"lon":139.43274974},{"name":"中央児童館","province":"東京都","city":"国立市","address":"国立市富士見台2-38-5","lat":35.68736,"lon":139.44484},{"name":"矢川児童館","province":"東京都","city":"国立市","address":"国立市富士見台4-17-65","lat":35.68743,"lon":139.42685},{"name":"西児童館","province":"東京都","city":"国立市","address":"国立市西1-12-26","lat":35.69673,"lon":139.43271},{"name":"東京都多摩障害者スポーツセンター","province":"東京都","city":"国立市","address":"国立市富士見台2-1-1","lat":35.6866,"lon":139.44635},{"name":"東京都多摩障害者スポーツセンター","province":"東京都","city":"国立市","address":"国立市富士見台2-1-1","lat":35.686521,"lon":139.446565},{"name":"＊?くにたち中央図書館","province":"東京都","city":"国立市","address":"国立市富士見台2-34","lat":35.685151,"lon":139.444416},{"name":"＊?くにたち中央図書館青柳分室","province":"東京都","city":"国立市","address":"国立市青柳244","lat":35.683198,"lon":139.423542},{"name":"＊?くにたち中央図書館谷保東分室","province":"東京都","city":"国立市","address":"国立市谷保135-1","lat":35.686397,"lon":139.430056},{"name":"＊?くにたち中央図書館下谷保分室","province":"東京都","city":"国立市","address":"国立市谷保5066","lat":35.679625,"lon":139.448808},{"name":"＊?くにたち中央図書館南市民プラザ分室","province":"東京都","city":"国立市","address":"国立市泉2-3-21号棟1階","lat":35.674543,"lon":139.430661},{"name":"＊?くにたち中央図書館東分室","province":"東京都","city":"国立市","address":"国立市東3-18-32","lat":35.691456,"lon":139.454847},{"name":"＊?くにたち北市民プラザ図書館","province":"東京都","city":"国立市","address":"国立市北3-1-19号棟1階","lat":35.699365,"lon":139.432662},{"name":"国立市公民館","province":"東京都","city":"国立市","address":"国立市中1-15-1","lat":35.696854,"lon":139.443359},{"name":"くにたち中央図書館","province":"東京都","city":"国立市","address":"国立市富士見台2-34","lat":35.685696,"lon":139.443497},{"name":"くにたち中央図書館下谷保分室","province":"東京都","city":"国立市","address":"国立市谷保5066","lat":35.679398,"lon":139.44841},{"name":"くにたち中央図書館青柳分室","province":"東京都","city":"国立市","address":"国立市青柳244","lat":35.682404,"lon":139.423279},{"name":"くにたち中央図書館谷保東分室","province":"東京都","city":"国立市","address":"国立市谷保135-1","lat":35.674107,"lon":139.445236},{"name":"くにたち中央図書館東分室","province":"東京都","city":"国立市","address":"国立市東3-18-32","lat":35.691208,"lon":139.454071},{"name":"くにたち中央図書館南市民プラザ分室","province":"東京都","city":"国立市","address":"国立市泉2-3-21号棟1階","lat":35.674431,"lon":139.431137},{"name":"くにたち北市民プラザ図書館","province":"東京都","city":"国立市","address":"国立市北3-1-19号棟1階","lat":35.699455,"lon":139.449249},{"name":"くにたち郷土文化館","province":"東京都","city":"国立市","address":"国立市谷保6231","lat":35.679863,"lon":139.432434},{"name":"くにたち男女平等参画ステーション","province":"東京都","city":"国立市","address":"国立市谷保1705-1","lat":35.674107,"lon":139.445236},{"name":"国立市古民家","province":"東京都","city":"国立市","address":"国立市泉5-21-20","lat":35.678322,"lon":139.437744},{"name":"体育館","province":"東京都","city":"国立市","address":"国立市富士見台2-1-1","lat":35.686681,"lon":139.446549},{"name":"トレーニング室","province":"東京都","city":"国立市","address":"国立市富士見台2-1-1","lat":35.686681,"lon":139.446549},{"name":"屋内温水プール","province":"東京都","city":"国立市","address":"国立市富士見台2-1-1","lat":35.686681,"lon":139.446549},{"name":"卓球室","province":"東京都","city":"国立市","address":"国立市富士見台2-1-1","lat":35.686681,"lon":139.446549},{"name":"サウンドテーブルテニス室","province":"東京都","city":"国立市","address":"国立市富士見台2-1-1","lat":35.686681,"lon":139.446549},{"name":"健康体力相談室","province":"東京都","city":"国立市","address":"国立市富士見台2-1-1","lat":35.686681,"lon":139.446549},{"name":"矢川児童館","province":"東京都","city":"国立市","address":"国立市富士見台4-17-1","lat":35.687098,"lon":139.428503},{"name":"中央児童館","province":"東京都","city":"国立市","address":"国立市富士見台2-38-5","lat":35.687451,"lon":139.444582},{"name":"伊藤単朴墓","province":"東京都","city":"国立市","address":"東京都国立市青柳355","lat":35.686214,"lon":139.424643},{"name":"くにたち中央図書館","province":"東京都","city":"国立市","address":"東京都国立市富士見台2丁目34","lat":35.68558704,"lon":139.44378816},{"name":"くにたち北市民プラザ図書館","province":"東京都","city":"国立市","address":"東京都国立市北3丁目1-1","lat":35.69934348,"lon":139.43274974},{"name":"中央児童館","province":"東京都","city":"国立市","address":"国立市富士見台2-38-5","lat":35.68736,"lon":139.44484},{"name":"矢川児童館","province":"東京都","city":"国立市","address":"国立市富士見台4-17-65","lat":35.68743,"lon":139.42685},{"name":"西児童館","province":"東京都","city":"国立市","address":"国立市西1-12-26","lat":35.69673,"lon":139.43271},{"name":"東京都多摩障害者スポーツセンター","province":"東京都","city":"国立市","address":"国立市富士見台2-1-1","lat":35.6866,"lon":139.44635},{"name":"東京都多摩障害者スポーツセンター","province":"東京都","city":"国立市","address":"国立市富士見台2-1-1","lat":35.686521,"lon":139.446565},{"name":"＊?くにたち中央図書館","province":"東京都","city":"国立市","address":"国立市富士見台2-34","lat":35.685151,"lon":139.444416},{"name":"＊?くにたち中央図書館青柳分室","province":"東京都","city":"国立市","address":"国立市青柳244","lat":35.683198,"lon":139.423542},{"name":"＊?くにたち中央図書館谷保東分室","province":"東京都","city":"国立市","address":"国立市谷保135-1","lat":35.686397,"lon":139.430056},{"name":"＊?くにたち中央図書館下谷保分室","province":"東京都","city":"国立市","address":"国立市谷保5066","lat":35.679625,"lon":139.448808},{"name":"＊?くにたち中央図書館南市民プラザ分室","province":"東京都","city":"国立市","address":"国立市泉2-3-21号棟1階","lat":35.674543,"lon":139.430661},{"name":"＊?くにたち中央図書館東分室","province":"東京都","city":"国立市","address":"国立市東3-18-32","lat":35.691456,"lon":139.454847},{"name":"＊?くにたち北市民プラザ図書館","province":"東京都","city":"国立市","address":"国立市北3-1-19号棟1階","lat":35.699365,"lon":139.432662},{"name":"国立市公民館","province":"東京都","city":"国立市","address":"国立市中1-15-1","lat":35.696854,"lon":139.443359},{"name":"くにたち中央図書館","province":"東京都","city":"国立市","address":"国立市富士見台2-34","lat":35.685696,"lon":139.443497},{"name":"くにたち中央図書館下谷保分室","province":"東京都","city":"国立市","address":"国立市谷保5066","lat":35.679398,"lon":139.44841},{"name":"くにたち中央図書館青柳分室","province":"東京都","city":"国立市","address":"国立市青柳244","lat":35.682404,"lon":139.423279},{"name":"くにたち中央図書館谷保東分室","province":"東京都","city":"国立市","address":"国立市谷保135-1","lat":35.674107,"lon":139.445236},{"name":"くにたち中央図書館東分室","province":"東京都","city":"国立市","address":"国立市東3-18-32","lat":35.691208,"lon":139.454071},{"name":"くにたち中央図書館南市民プラザ分室","province":"東京都","city":"国立市","address":"国立市泉2-3-21号棟1階","lat":35.674431,"lon":139.431137},{"name":"くにたち北市民プラザ図書館","province":"東京都","city":"国立市","address":"国立市北3-1-19号棟1階","lat":35.699455,"lon":139.449249},{"name":"くにたち郷土文化館","province":"東京都","city":"国立市","address":"国立市谷保6231","lat":35.679863,"lon":139.432434},{"name":"くにたち男女平等参画ステーション","province":"東京都","city":"国立市","address":"国立市谷保1705-1","lat":35.674107,"lon":139.445236},{"name":"国立市古民家","province":"東京都","city":"国立市","address":"国立市泉5-21-20","lat":35.678322,"lon":139.437744},{"name":"体育館","province":"東京都","city":"国立市","address":"国立市富士見台2-1-1","lat":35.686681,"lon":139.446549},{"name":"トレーニング室","province":"東京都","city":"国立市","address":"国立市富士見台2-1-1","lat":35.686681,"lon":139.446549},{"name":"屋内温水プール","province":"東京都","city":"国立市","address":"国立市富士見台2-1-1","lat":35.686681,"lon":139.446549},{"name":"卓球室","province":"東京都","city":"国立市","address":"国立市富士見台2-1-1","lat":35.686681,"lon":139.446549},{"name":"サウンドテーブルテニス室","province":"東京都","city":"国立市","address":"国立市富士見台2-1-1","lat":35.686681,"lon":139.446549},{"name":"健康体力相談室","province":"東京都","city":"国立市","address":"国立市富士見台2-1-1","lat":35.686681,"lon":139.446549},{"name":"矢川児童館","province":"東京都","city":"国立市","address":"国立市富士見台4-17-1","lat":35.687098,"lon":139.428503},{"name":"中央児童館","province":"東京都","city":"国立市","address":"国立市富士見台2-38-5","lat":35.687451,"lon":139.444582},{"name":"伊藤単朴墓","province":"東京都","city":"国立市","address":"東京都国立市青柳355","lat":35.686214,"lon":139.424643},{"name":"くにたち中央図書館","province":"東京都","city":"国立市","address":"東京都国立市富士見台2丁目34","lat":35.68558704,"lon":139.44378816},{"name":"くにたち北市民プラザ図書館","province":"東京都","city":"国立市","address":"東京都国立市北3丁目1-1","lat":35.69934348,"lon":139.43274974},{"name":"中央児童館","province":"東京都","city":"国立市","address":"国立市富士見台2-38-5","lat":35.68736,"lon":139.44484},{"name":"矢川児童館","province":"東京都","city":"国立市","address":"国立市富士見台4-17-65","lat":35.68743,"lon":139.42685},{"name":"西児童館","province":"東京都","city":"国立市","address":"国立市西1-12-26","lat":35.69673,"lon":139.43271},{"name":"東京都多摩障害者スポーツセンター","province":"東京都","city":"国立市","address":"国立市富士見台2-1-1","lat":35.6866,"lon":139.44635},{"name":"東京都多摩障害者スポーツセンター","province":"東京都","city":"国立市","address":"国立市富士見台2-1-1","lat":35.686521,"lon":139.446565},{"name":"＊?くにたち中央図書館","province":"東京都","city":"国立市","address":"国立市富士見台2-34","lat":35.685151,"lon":139.444416},{"name":"＊?くにたち中央図書館青柳分室","province":"東京都","city":"国立市","address":"国立市青柳244","lat":35.683198,"lon":139.423542},{"name":"＊?くにたち中央図書館谷保東分室","province":"東京都","city":"国立市","address":"国立市谷保135-1","lat":35.686397,"lon":139.430056},{"name":"＊?くにたち中央図書館下谷保分室","province":"東京都","city":"国立市","address":"国立市谷保5066","lat":35.679625,"lon":139.448808},{"name":"＊?くにたち中央図書館南市民プラザ分室","province":"東京都","city":"国立市","address":"国立市泉2-3-21号棟1階","lat":35.674543,"lon":139.430661},{"name":"＊?くにたち中央図書館東分室","province":"東京都","city":"国立市","address":"国立市東3-18-32","lat":35.691456,"lon":139.454847},{"name":"＊?くにたち北市民プラザ図書館","province":"東京都","city":"国立市","address":"国立市北3-1-19号棟1階","lat":35.699365,"lon":139.432662},{"name":"国立市公民館","province":"東京都","city":"国立市","address":"国立市中1-15-1","lat":35.696854,"lon":139.443359},{"name":"くにたち中央図書館","province":"東京都","city":"国立市","address":"国立市富士見台2-34","lat":35.685696,"lon":139.443497},{"name":"くにたち中央図書館下谷保分室","province":"東京都","city":"国立市","address":"国立市谷保5066","lat":35.679398,"lon":139.44841},{"name":"くにたち中央図書館青柳分室","province":"東京都","city":"国立市","address":"国立市青柳244","lat":35.682404,"lon":139.423279},{"name":"くにたち中央図書館谷保東分室","province":"東京都","city":"国立市","address":"国立市谷保135-1","lat":35.674107,"lon":139.445236},{"name":"くにたち中央図書館東分室","province":"東京都","city":"国立市","address":"国立市東3-18-32","lat":35.691208,"lon":139.454071},{"name":"くにたち中央図書館南市民プラザ分室","province":"東京都","city":"国立市","address":"国立市泉2-3-21号棟1階","lat":35.674431,"lon":139.431137},{"name":"くにたち北市民プラザ図書館","province":"東京都","city":"国立市","address":"国立市北3-1-19号棟1階","lat":35.699455,"lon":139.449249},{"name":"くにたち郷土文化館","province":"東京都","city":"国立市","address":"国立市谷保6231","lat":35.679863,"lon":139.432434},{"name":"くにたち男女平等参画ステーション","province":"東京都","city":"国立市","address":"国立市谷保1705-1","lat":35.674107,"lon":139.445236},{"name":"国立市古民家","province":"東京都","city":"国立市","address":"国立市泉5-21-20","lat":35.678322,"lon":139.437744},{"name":"体育館","province":"東京都","city":"国立市","address":"国立市富士見台2-1-1","lat":35.686681,"lon":139.446549},{"name":"トレーニング室","province":"東京都","city":"国立市","address":"国立市富士見台2-1-1","lat":35.686681,"lon":139.446549},{"name":"屋内温水プール","province":"東京都","city":"国立市","address":"国立市富士見台2-1-1","lat":35.686681,"lon":139.446549},{"name":"卓球室","province":"東京都","city":"国立市","address":"国立市富士見台2-1-1","lat":35.686681,"lon":139.446549},{"name":"サウンドテーブルテニス室","province":"東京都","city":"国立市","address":"国立市富士見台2-1-1","lat":35.686681,"lon":139.446549},{"name":"健康体力相談室","province":"東京都","city":"国立市","address":"国立市富士見台2-1-1","lat":35.686681,"lon":139.446549},{"name":"矢川児童館","province":"東京都","city":"国立市","address":"国立市富士見台4-17-1","lat":35.687098,"lon":139.428503},{"name":"中央児童館","province":"東京都","city":"国立市","address":"国立市富士見台2-38-5","lat":35.687451,"lon":139.444582},{"name":"伊藤単朴墓","province":"東京都","city":"国立市","address":"東京都国立市青柳355","lat":35.686214,"lon":139.424643},{"name":"くにたち中央図書館","province":"東京都","city":"国立市","address":"東京都国立市富士見台2丁目34","lat":35.68558704,"lon":139.44378816},{"name":"くにたち北市民プラザ図書館","province":"東京都","city":"国立市","address":"東京都国立市北3丁目1-1","lat":35.69934348,"lon":139.43274974},{"name":"中央児童館","province":"東京都","city":"国立市","address":"国立市富士見台2-38-5","lat":35.68736,"lon":139.44484},{"name":"矢川児童館","province":"東京都","city":"国立市","address":"国立市富士見台4-17-65","lat":35.68743,"lon":139.42685},{"name":"西児童館","province":"東京都","city":"国立市","address":"国立市西1-12-26","lat":35.69673,"lon":139.43271},{"name":"東京都多摩障害者スポーツセンター","province":"東京都","city":"国立市","address":"国立市富士見台2-1-1","lat":35.6866,"lon":139.44635},{"name":"東京都多摩障害者スポーツセンター","province":"東京都","city":"国立市","address":"国立市富士見台2-1-1","lat":35.686521,"lon":139.446565},{"name":"＊?くにたち中央図書館","province":"東京都","city":"国立市","address":"国立市富士見台2-34","lat":35.685151,"lon":139.444416},{"name":"＊?くにたち中央図書館青柳分室","province":"東京都","city":"国立市","address":"国立市青柳244","lat":35.683198,"lon":139.423542},{"name":"＊?くにたち中央図書館谷保東分室","province":"東京都","city":"国立市","address":"国立市谷保135-1","lat":35.686397,"lon":139.430056},{"name":"＊?くにたち中央図書館下谷保分室","province":"東京都","city":"国立市","address":"国立市谷保5066","lat":35.679625,"lon":139.448808},{"name":"＊?くにたち中央図書館南市民プラザ分室","province":"東京都","city":"国立市","address":"国立市泉2-3-21号棟1階","lat":35.674543,"lon":139.430661},{"name":"＊?くにたち中央図書館東分室","province":"東京都","city":"国立市","address":"国立市東3-18-32","lat":35.691456,"lon":139.454847},{"name":"＊?くにたち北市民プラザ図書館","province":"東京都","city":"国立市","address":"国立市北3-1-19号棟1階","lat":35.699365,"lon":139.432662},{"name":"国立市公民館","province":"東京都","city":"国立市","address":"国立市中1-15-1","lat":35.696854,"lon":139.443359},{"name":"くにたち中央図書館","province":"東京都","city":"国立市","address":"国立市富士見台2-34","lat":35.685696,"lon":139.443497},{"name":"くにたち中央図書館下谷保分室","province":"東京都","city":"国立市","address":"国立市谷保5066","lat":35.679398,"lon":139.44841},{"name":"くにたち中央図書館青柳分室","province":"東京都","city":"国立市","address":"国立市青柳244","lat":35.682404,"lon":139.423279},{"name":"くにたち中央図書館谷保東分室","province":"東京都","city":"国立市","address":"国立市谷保135-1","lat":35.674107,"lon":139.445236},{"name":"くにたち中央図書館東分室","province":"東京都","city":"国立市","address":"国立市東3-18-32","lat":35.691208,"lon":139.454071},{"name":"くにたち中央図書館南市民プラザ分室","province":"東京都","city":"国立市","address":"国立市泉2-3-21号棟1階","lat":35.674431,"lon":139.431137},{"name":"くにたち北市民プラザ図書館","province":"東京都","city":"国立市","address":"国立市北3-1-19号棟1階","lat":35.699455,"lon":139.449249},{"name":"くにたち郷土文化館","province":"東京都","city":"国立市","address":"国立市谷保6231","lat":35.679863,"lon":139.432434},{"name":"くにたち男女平等参画ステーション","province":"東京都","city":"国立市","address":"国立市谷保1705-1","lat":35.674107,"lon":139.445236},{"name":"国立市古民家","province":"東京都","city":"国立市","address":"国立市泉5-21-20","lat":35.678322,"lon":139.437744},{"name":"体育館","province":"東京都","city":"国立市","address":"国立市富士見台2-1-1","lat":35.686681,"lon":139.446549},{"name":"トレーニング室","province":"東京都","city":"国立市","address":"国立市富士見台2-1-1","lat":35.686681,"lon":139.446549},{"name":"屋内温水プール","province":"東京都","city":"国立市","address":"国立市富士見台2-1-1","lat":35.686681,"lon":139.446549},{"name":"卓球室","province":"東京都","city":"国立市","address":"国立市富士見台2-1-1","lat":35.686681,"lon":139.446549},{"name":"サウンドテーブルテニス室","province":"東京都","city":"国立市","address":"国立市富士見台2-1-1","lat":35.686681,"lon":139.446549},{"name":"健康体力相談室","province":"東京都","city":"国立市","address":"国立市富士見台2-1-1","lat":35.686681,"lon":139.446549},{"name":"矢川児童館","province":"東京都","city":"国立市","address":"国立市富士見台4-17-1","lat":35.687098,"lon":139.428503},{"name":"中央児童館","province":"東京都","city":"国立市","address":"国立市富士見台2-38-5","lat":35.687451,"lon":139.444582},{"name":"伊藤単朴墓","province":"東京都","city":"国立市","address":"東京都国立市青柳355","lat":35.686214,"lon":139.424643},{"name":"くにたち中央図書館","province":"東京都","city":"国立市","address":"東京都国立市富士見台2丁目34","lat":35.68558704,"lon":139.44378816},{"name":"くにたち北市民プラザ図書館","province":"東京都","city":"国立市","address":"東京都国立市北3丁目1-1","lat":35.69934348,"lon":139.43274974},{"name":"中央児童館","province":"東京都","city":"国立市","address":"国立市富士見台2-38-5","lat":35.68736,"lon":139.44484},{"name":"矢川児童館","province":"東京都","city":"国立市","address":"国立市富士見台4-17-65","lat":35.68743,"lon":139.42685},{"name":"西児童館","province":"東京都","city":"国立市","address":"国立市西1-12-26","lat":35.69673,"lon":139.43271},{"name":"東京都多摩障害者スポーツセンター","province":"東京都","city":"国立市","address":"国立市富士見台2-1-1","lat":35.6866,"lon":139.44635},{"name":"東京都多摩障害者スポーツセンター","province":"東京都","city":"国立市","address":"国立市富士見台2-1-1","lat":35.686521,"lon":139.446565},{"name":"＊?くにたち中央図書館","province":"東京都","city":"国立市","address":"国立市富士見台2-34","lat":35.685151,"lon":139.444416},{"name":"＊?くにたち中央図書館青柳分室","province":"東京都","city":"国立市","address":"国立市青柳244","lat":35.683198,"lon":139.423542},{"name":"＊?くにたち中央図書館谷保東分室","province":"東京都","city":"国立市","address":"国立市谷保135-1","lat":35.686397,"lon":139.430056},{"name":"＊?くにたち中央図書館下谷保分室","province":"東京都","city":"国立市","address":"国立市谷保5066","lat":35.679625,"lon":139.448808},{"name":"＊?くにたち中央図書館南市民プラザ分室","province":"東京都","city":"国立市","address":"国立市泉2-3-21号棟1階","lat":35.674543,"lon":139.430661},{"name":"＊?くにたち中央図書館東分室","province":"東京都","city":"国立市","address":"国立市東3-18-32","lat":35.691456,"lon":139.454847},{"name":"＊?くにたち北市民プラザ図書館","province":"東京都","city":"国立市","address":"国立市北3-1-19号棟1階","lat":35.699365,"lon":139.432662},{"name":"国立市公民館","province":"東京都","city":"国立市","address":"国立市中1-15-1","lat":35.696854,"lon":139.443359},{"name":"くにたち中央図書館","province":"東京都","city":"国立市","address":"国立市富士見台2-34","lat":35.685696,"lon":139.443497},{"name":"くにたち中央図書館下谷保分室","province":"東京都","city":"国立市","address":"国立市谷保5066","lat":35.679398,"lon":139.44841},{"name":"くにたち中央図書館青柳分室","province":"東京都","city":"国立市","address":"国立市青柳244","lat":35.682404,"lon":139.423279},{"name":"くにたち中央図書館谷保東分室","province":"東京都","city":"国立市","address":"国立市谷保135-1","lat":35.674107,"lon":139.445236},{"name":"くにたち中央図書館東分室","province":"東京都","city":"国立市","address":"国立市東3-18-32","lat":35.691208,"lon":139.454071},{"name":"くにたち中央図書館南市民プラザ分室","province":"東京都","city":"国立市","address":"国立市泉2-3-21号棟1階","lat":35.674431,"lon":139.431137},{"name":"くにたち北市民プラザ図書館","province":"東京都","city":"国立市","address":"国立市北3-1-19号棟1階","lat":35.699455,"lon":139.449249},{"name":"くにたち郷土文化館","province":"東京都","city":"国立市","address":"国立市谷保6231","lat":35.679863,"lon":139.432434},{"name":"くにたち男女平等参画ステーション","province":"東京都","city":"国立市","address":"国立市谷保1705-1","lat":35.674107,"lon":139.445236},{"name":"国立市古民家","province":"東京都","city":"国立市","address":"国立市泉5-21-20","lat":35.678322,"lon":139.437744},{"name":"体育館","province":"東京都","city":"国立市","address":"国立市富士見台2-1-1","lat":35.686681,"lon":139.446549},{"name":"トレーニング室","province":"東京都","city":"国立市","address":"国立市富士見台2-1-1","lat":35.686681,"lon":139.446549},{"name":"屋内温水プール","province":"東京都","city":"国立市","address":"国立市富士見台2-1-1","lat":35.686681,"lon":139.446549},{"name":"卓球室","province":"東京都","city":"国立市","address":"国立市富士見台2-1-1","lat":35.686681,"lon":139.446549},{"name":"サウンドテーブルテニス室","province":"東京都","city":"国立市","address":"国立市富士見台2-1-1","lat":35.686681,"lon":139.446549},{"name":"健康体力相談室","province":"東京都","city":"国立市","address":"国立市富士見台2-1-1","lat":35.686681,"lon":139.446549},{"name":"矢川児童館","province":"東京都","city":"国立市","address":"国立市富士見台4-17-1","lat":35.687098,"lon":139.428503},{"name":"中央児童館","province":"東京都","city":"国立市","address":"国立市富士見台2-38-5","lat":35.687451,"lon":139.444582},{"name":"伊藤単朴墓","province":"東京都","city":"国立市","address":"東京都国立市青柳355","lat":35.686214,"lon":139.424643},{"name":"くにたち中央図書館","province":"東京都","city":"国立市","address":"東京都国立市富士見台2丁目34","lat":35.68558704,"lon":139.44378816},{"name":"くにたち北市民プラザ図書館","province":"東京都","city":"国立市","address":"東京都国立市北3丁目1-1","lat":35.69934348,"lon":139.43274974},{"name":"中央児童館","province":"東京都","city":"国立市","address":"国立市富士見台2-38-5","lat":35.68736,"lon":139.44484},{"name":"矢川児童館","province":"東京都","city":"国立市","address":"国立市富士見台4-17-65","lat":35.68743,"lon":139.42685},{"name":"西児童館","province":"東京都","city":"国立市","address":"国立市西1-12-26","lat":35.69673,"lon":139.43271},{"name":"東京都多摩障害者スポーツセンター","province":"東京都","city":"国立市","address":"国立市富士見台2-1-1","lat":35.6866,"lon":139.44635},{"name":"東京都多摩障害者スポーツセンター","province":"東京都","city":"国立市","address":"国立市富士見台2-1-1","lat":35.686521,"lon":139.446565},{"name":"＊?くにたち中央図書館","province":"東京都","city":"国立市","address":"国立市富士見台2-34","lat":35.685151,"lon":139.444416},{"name":"＊?くにたち中央図書館青柳分室","province":"東京都","city":"国立市","address":"国立市青柳244","lat":35.683198,"lon":139.423542},{"name":"＊?くにたち中央図書館谷保東分室","province":"東京都","city":"国立市","address":"国立市谷保135-1","lat":35.686397,"lon":139.430056},{"name":"＊?くにたち中央図書館下谷保分室","province":"東京都","city":"国立市","address":"国立市谷保5066","lat":35.679625,"lon":139.448808},{"name":"＊?くにたち中央図書館南市民プラザ分室","province":"東京都","city":"国立市","address":"国立市泉2-3-21号棟1階","lat":35.674543,"lon":139.430661},{"name":"＊?くにたち中央図書館東分室","province":"東京都","city":"国立市","address":"国立市東3-18-32","lat":35.691456,"lon":139.454847},{"name":"＊?くにたち北市民プラザ図書館","province":"東京都","city":"国立市","address":"国立市北3-1-19号棟1階","lat":35.699365,"lon":139.432662},{"name":"国立市公民館","province":"東京都","city":"国立市","address":"国立市中1-15-1","lat":35.696854,"lon":139.443359},{"name":"くにたち中央図書館","province":"東京都","city":"国立市","address":"国立市富士見台2-34","lat":35.685696,"lon":139.443497},{"name":"くにたち中央図書館下谷保分室","province":"東京都","city":"国立市","address":"国立市谷保5066","lat":35.679398,"lon":139.44841},{"name":"くにたち中央図書館青柳分室","province":"東京都","city":"国立市","address":"国立市青柳244","lat":35.682404,"lon":139.423279},{"name":"くにたち中央図書館谷保東分室","province":"東京都","city":"国立市","address":"国立市谷保135-1","lat":35.674107,"lon":139.445236},{"name":"くにたち中央図書館東分室","province":"東京都","city":"国立市","address":"国立市東3-18-32","lat":35.691208,"lon":139.454071},{"name":"くにたち中央図書館南市民プラザ分室","province":"東京都","city":"国立市","address":"国立市泉2-3-21号棟1階","lat":35.674431,"lon":139.431137},{"name":"くにたち北市民プラザ図書館","province":"東京都","city":"国立市","address":"国立市北3-1-19号棟1階","lat":35.699455,"lon":139.449249},{"name":"くにたち郷土文化館","province":"東京都","city":"国立市","address":"国立市谷保6231","lat":35.679863,"lon":139.432434},{"name":"くにたち男女平等参画ステーション","province":"東京都","city":"国立市","address":"国立市谷保1705-1","lat":35.674107,"lon":139.445236},{"name":"国立市古民家","province":"東京都","city":"国立市","address":"国立市泉5-21-20","lat":35.678322,"lon":139.437744},{"name":"体育館","province":"東京都","city":"国立市","address":"国立市富士見台2-1-1","lat":35.686681,"lon":139.446549},{"name":"トレーニング室","province":"東京都","city":"国立市","address":"国立市富士見台2-1-1","lat":35.686681,"lon":139.446549},{"name":"屋内温水プール","province":"東京都","city":"国立市","address":"国立市富士見台2-1-1","lat":35.686681,"lon":139.446549},{"name":"卓球室","province":"東京都","city":"国立市","address":"国立市富士見台2-1-1","lat":35.686681,"lon":139.446549},{"name":"サウンドテーブルテニス室","province":"東京都","city":"国立市","address":"国立市富士見台2-1-1","lat":35.686681,"lon":139.446549},{"name":"健康体力相談室","province":"東京都","city":"国立市","address":"国立市富士見台2-1-1","lat":35.686681,"lon":139.446549},{"name":"矢川児童館","province":"東京都","city":"国立市","address":"国立市富士見台4-17-1","lat":35.687098,"lon":139.428503},{"name":"中央児童館","province":"東京都","city":"国立市","address":"国立市富士見台2-38-5","lat":35.687451,"lon":139.444582},{"name":"伊藤単朴墓","province":"東京都","city":"国立市","address":"東京都国立市青柳355","lat":35.686214,"lon":139.424643},{"name":"くにたち中央図書館","province":"東京都","city":"国立市","address":"東京都国立市富士見台2丁目34","lat":35.68558704,"lon":139.44378816},{"name":"くにたち北市民プラザ図書館","province":"東京都","city":"国立市","address":"東京都国立市北3丁目1-1","lat":35.69934348,"lon":139.43274974},{"name":"中央児童館","province":"東京都","city":"国立市","address":"国立市富士見台2-38-5","lat":35.68736,"lon":139.44484},{"name":"矢川児童館","province":"東京都","city":"国立市","address":"国立市富士見台4-17-65","lat":35.68743,"lon":139.42685},{"name":"西児童館","province":"東京都","city":"国立市","address":"国立市西1-12-26","lat":35.69673,"lon":139.43271},{"name":"東京都多摩障害者スポーツセンター","province":"東京都","city":"国立市","address":"国立市富士見台2-1-1","lat":35.6866,"lon":139.44635},{"name":"東京都多摩障害者スポーツセンター","province":"東京都","city":"国立市","address":"国立市富士見台2-1-1","lat":35.686521,"lon":139.446565},{"name":"＊?くにたち中央図書館","province":"東京都","city":"国立市","address":"国立市富士見台2-34","lat":35.685151,"lon":139.444416},{"name":"＊?くにたち中央図書館青柳分室","province":"東京都","city":"国立市","address":"国立市青柳244","lat":35.683198,"lon":139.423542},{"name":"＊?くにたち中央図書館谷保東分室","province":"東京都","city":"国立市","address":"国立市谷保135-1","lat":35.686397,"lon":139.430056},{"name":"＊?くにたち中央図書館下谷保分室","province":"東京都","city":"国立市","address":"国立市谷保5066","lat":35.679625,"lon":139.448808},{"name":"＊?くにたち中央図書館南市民プラザ分室","province":"東京都","city":"国立市","address":"国立市泉2-3-21号棟1階","lat":35.674543,"lon":139.430661},{"name":"＊?くにたち中央図書館東分室","province":"東京都","city":"国立市","address":"国立市東3-18-32","lat":35.691456,"lon":139.454847},{"name":"＊?くにたち北市民プラザ図書館","province":"東京都","city":"国立市","address":"国立市北3-1-19号棟1階","lat":35.699365,"lon":139.432662},{"name":"国立市公民館","province":"東京都","city":"国立市","address":"国立市中1-15-1","lat":35.696854,"lon":139.443359},{"name":"くにたち中央図書館","province":"東京都","city":"国立市","address":"国立市富士見台2-34","lat":35.685696,"lon":139.443497},{"name":"くにたち中央図書館下谷保分室","province":"東京都","city":"国立市","address":"国立市谷保5066","lat":35.679398,"lon":139.44841},{"name":"くにたち中央図書館青柳分室","province":"東京都","city":"国立市","address":"国立市青柳244","lat":35.682404,"lon":139.423279},{"name":"くにたち中央図書館谷保東分室","province":"東京都","city":"国立市","address":"国立市谷保135-1","lat":35.674107,"lon":139.445236},{"name":"くにたち中央図書館東分室","province":"東京都","city":"国立市","address":"国立市東3-18-32","lat":35.691208,"lon":139.454071},{"name":"くにたち中央図書館南市民プラザ分室","province":"東京都","city":"国立市","address":"国立市泉2-3-21号棟1階","lat":35.674431,"lon":139.431137},{"name":"くにたち北市民プラザ図書館","province":"東京都","city":"国立市","address":"国立市北3-1-19号棟1階","lat":35.699455,"lon":139.449249},{"name":"くにたち郷土文化館","province":"東京都","city":"国立市","address":"国立市谷保6231","lat":35.679863,"lon":139.432434},{"name":"くにたち男女平等参画ステーション","province":"東京都","city":"国立市","address":"国立市谷保1705-1","lat":35.674107,"lon":139.445236},{"name":"国立市古民家","province":"東京都","city":"国立市","address":"国立市泉5-21-20","lat":35.678322,"lon":139.437744},{"name":"体育館","province":"東京都","city":"国立市","address":"国立市富士見台2-1-1","lat":35.686681,"lon":139.446549},{"name":"トレーニング室","province":"東京都","city":"国立市","address":"国立市富士見台2-1-1","lat":35.686681,"lon":139.446549},{"name":"屋内温水プール","province":"東京都","city":"国立市","address":"国立市富士見台2-1-1","lat":35.686681,"lon":139.446549},{"name":"卓球室","province":"東京都","city":"国立市","address":"国立市富士見台2-1-1","lat":35.686681,"lon":139.446549},{"name":"サウンドテーブルテニス室","province":"東京都","city":"国立市","address":"国立市富士見台2-1-1","lat":35.686681,"lon":139.446549},{"name":"健康体力相談室","province":"東京都","city":"国立市","address":"国立市富士見台2-1-1","lat":35.686681,"lon":139.446549},{"name":"矢川児童館","province":"東京都","city":"国立市","address":"国立市富士見台4-17-1","lat":35.687098,"lon":139.428503},{"name":"中央児童館","province":"東京都","city":"国立市","address":"国立市富士見台2-38-5","lat":35.687451,"lon":139.444582},{"name":"伊藤単朴墓","province":"東京都","city":"国立市","address":"東京都国立市青柳355","lat":35.686214,"lon":139.424643},{"name":"くにたち中央図書館","province":"東京都","city":"国立市","address":"東京都国立市富士見台2丁目34","lat":35.68558704,"lon":139.44378816},{"name":"くにたち北市民プラザ図書館","province":"東京都","city":"国立市","address":"東京都国立市北3丁目1-1","lat":35.69934348,"lon":139.43274974},{"name":"中央児童館","province":"東京都","city":"国立市","address":"国立市富士見台2-38-5","lat":35.68736,"lon":139.44484},{"name":"矢川児童館","province":"東京都","city":"国立市","address":"国立市富士見台4-17-65","lat":35.68743,"lon":139.42685},{"name":"西児童館","province":"東京都","city":"国立市","address":"国立市西1-12-26","lat":35.69673,"lon":139.43271},{"name":"東京都多摩障害者スポーツセンター","province":"東京都","city":"国立市","address":"国立市富士見台2-1-1","lat":35.6866,"lon":139.44635},{"name":"東京都多摩障害者スポーツセンター","province":"東京都","city":"国立市","address":"国立市富士見台2-1-1","lat":35.686521,"lon":139.446565},{"name":"＊?くにたち中央図書館","province":"東京都","city":"国立市","address":"国立市富士見台2-34","lat":35.685151,"lon":139.444416},{"name":"＊?くにたち中央図書館青柳分室","province":"東京都","city":"国立市","address":"国立市青柳244","lat":35.683198,"lon":139.423542},{"name":"＊?くにたち中央図書館谷保東分室","province":"東京都","city":"国立市","address":"国立市谷保135-1","lat":35.686397,"lon":139.430056},{"name":"＊?くにたち中央図書館下谷保分室","province":"東京都","city":"国立市","address":"国立市谷保5066","lat":35.679625,"lon":139.448808},{"name":"＊?くにたち中央図書館南市民プラザ分室","province":"東京都","city":"国立市","address":"国立市泉2-3-21号棟1階","lat":35.674543,"lon":139.430661},{"name":"＊?くにたち中央図書館東分室","province":"東京都","city":"国立市","address":"国立市東3-18-32","lat":35.691456,"lon":139.454847},{"name":"＊?くにたち北市民プラザ図書館","province":"東京都","city":"国立市","address":"国立市北3-1-19号棟1階","lat":35.699365,"lon":139.432662},{"name":"国立市公民館","province":"東京都","city":"国立市","address":"国立市中1-15-1","lat":35.696854,"lon":139.443359},{"name":"くにたち中央図書館","province":"東京都","city":"国立市","address":"国立市富士見台2-34","lat":35.685696,"lon":139.443497},{"name":"くにたち中央図書館下谷保分室","province":"東京都","city":"国立市","address":"国立市谷保5066","lat":35.679398,"lon":139.44841},{"name":"くにたち中央図書館青柳分室","province":"東京都","city":"国立市","address":"国立市青柳244","lat":35.682404,"lon":139.423279},{"name":"くにたち中央図書館谷保東分室","province":"東京都","city":"国立市","address":"国立市谷保135-1","lat":35.674107,"lon":139.445236},{"name":"くにたち中央図書館東分室","province":"東京都","city":"国立市","address":"国立市東3-18-32","lat":35.691208,"lon":139.454071},{"name":"くにたち中央図書館南市民プラザ分室","province":"東京都","city":"国立市","address":"国立市泉2-3-21号棟1階","lat":35.674431,"lon":139.431137},{"name":"くにたち北市民プラザ図書館","province":"東京都","city":"国立市","address":"国立市北3-1-19号棟1階","lat":35.699455,"lon":139.449249},{"name":"くにたち郷土文化館","province":"東京都","city":"国立市","address":"国立市谷保6231","lat":35.679863,"lon":139.432434},{"name":"くにたち男女平等参画ステーション","province":"東京都","city":"国立市","address":"国立市谷保1705-1","lat":35.674107,"lon":139.445236},{"name":"国立市古民家","province":"東京都","city":"国立市","address":"国立市泉5-21-20","lat":35.678322,"lon":139.437744},{"name":"体育館","province":"東京都","city":"国立市","address":"国立市富士見台2-1-1","lat":35.686681,"lon":139.446549},{"name":"トレーニング室","province":"東京都","city":"国立市","address":"国立市富士見台2-1-1","lat":35.686681,"lon":139.446549},{"name":"屋内温水プール","province":"東京都","city":"国立市","address":"国立市富士見台2-1-1","lat":35.686681,"lon":139.446549},{"name":"卓球室","province":"東京都","city":"国立市","address":"国立市富士見台2-1-1","lat":35.686681,"lon":139.446549},{"name":"サウンドテーブルテニス室","province":"東京都","city":"国立市","address":"国立市富士見台2-1-1","lat":35.686681,"lon":139.446549},{"name":"健康体力相談室","province":"東京都","city":"国立市","address":"国立市富士見台2-1-1","lat":35.686681,"lon":139.446549},{"name":"矢川児童館","province":"東京都","city":"国立市","address":"国立市富士見台4-17-1","lat":35.687098,"lon":139.428503},{"name":"中央児童館","province":"東京都","city":"国立市","address":"国立市富士見台2-38-5","lat":35.687451,"lon":139.444582},{"name":"伊藤単朴墓","province":"東京都","city":"国立市","address":"東京都国立市青柳355","lat":35.686214,"lon":139.424643},{"name":"くにたち中央図書館","province":"東京都","city":"国立市","address":"東京都国立市富士見台2丁目34","lat":35.68558704,"lon":139.44378816},{"name":"くにたち北市民プラザ図書館","province":"東京都","city":"国立市","address":"東京都国立市北3丁目1-1","lat":35.69934348,"lon":139.43274974},{"name":"中央児童館","province":"東京都","city":"国立市","address":"国立市富士見台2-38-5","lat":35.68736,"lon":139.44484},{"name":"矢川児童館","province":"東京都","city":"国立市","address":"国立市富士見台4-17-65","lat":35.68743,"lon":139.42685},{"name":"西児童館","province":"東京都","city":"国立市","address":"国立市西1-12-26","lat":35.69673,"lon":139.43271},{"name":"東京都多摩障害者スポーツセンター","province":"東京都","city":"国立市","address":"国立市富士見台2-1-1","lat":35.6866,"lon":139.44635},{"name":"東京都多摩障害者スポーツセンター","province":"東京都","city":"国立市","address":"国立市富士見台2-1-1","lat":35.686521,"lon":139.446565},{"name":"＊?くにたち中央図書館","province":"東京都","city":"国立市","address":"国立市富士見台2-34","lat":35.685151,"lon":139.444416},{"name":"＊?くにたち中央図書館青柳分室","province":"東京都","city":"国立市","address":"国立市青柳244","lat":35.683198,"lon":139.423542},{"name":"＊?くにたち中央図書館谷保東分室","province":"東京都","city":"国立市","address":"国立市谷保135-1","lat":35.686397,"lon":139.430056},{"name":"＊?くにたち中央図書館下谷保分室","province":"東京都","city":"国立市","address":"国立市谷保5066","lat":35.679625,"lon":139.448808},{"name":"＊?くにたち中央図書館南市民プラザ分室","province":"東京都","city":"国立市","address":"国立市泉2-3-21号棟1階","lat":35.674543,"lon":139.430661},{"name":"＊?くにたち中央図書館東分室","province":"東京都","city":"国立市","address":"国立市東3-18-32","lat":35.691456,"lon":139.454847},{"name":"＊?くにたち北市民プラザ図書館","province":"東京都","city":"国立市","address":"国立市北3-1-19号棟1階","lat":35.699365,"lon":139.432662},{"name":"国立市公民館","province":"東京都","city":"国立市","address":"国立市中1-15-1","lat":35.696854,"lon":139.443359},{"name":"くにたち中央図書館","province":"東京都","city":"国立市","address":"国立市富士見台2-34","lat":35.685696,"lon":139.443497},{"name":"くにたち中央図書館下谷保分室","province":"東京都","city":"国立市","address":"国立市谷保5066","lat":35.679398,"lon":139.44841},{"name":"くにたち中央図書館青柳分室","province":"東京都","city":"国立市","address":"国立市青柳244","lat":35.682404,"lon":139.423279},{"name":"くにたち中央図書館谷保東分室","province":"東京都","city":"国立市","address":"国立市谷保135-1","lat":35.674107,"lon":139.445236},{"name":"くにたち中央図書館東分室","province":"東京都","city":"国立市","address":"国立市東3-18-32","lat":35.691208,"lon":139.454071},{"name":"くにたち中央図書館南市民プラザ分室","province":"東京都","city":"国立市","address":"国立市泉2-3-21号棟1階","lat":35.674431,"lon":139.431137},{"name":"くにたち北市民プラザ図書館","province":"東京都","city":"国立市","address":"国立市北3-1-19号棟1階","lat":35.699455,"lon":139.449249},{"name":"くにたち郷土文化館","province":"東京都","city":"国立市","address":"国立市谷保6231","lat":35.679863,"lon":139.432434},{"name":"くにたち男女平等参画ステーション","province":"東京都","city":"国立市","address":"国立市谷保1705-1","lat":35.674107,"lon":139.445236},{"name":"国立市古民家","province":"東京都","city":"国立市","address":"国立市泉5-21-20","lat":35.678322,"lon":139.437744},{"name":"体育館","province":"東京都","city":"国立市","address":"国立市富士見台2-1-1","lat":35.686681,"lon":139.446549},{"name":"トレーニング室","province":"東京都","city":"国立市","address":"国立市富士見台2-1-1","lat":35.686681,"lon":139.446549},{"name":"屋内温水プール","province":"東京都","city":"国立市","address":"国立市富士見台2-1-1","lat":35.686681,"lon":139.446549},{"name":"卓球室","province":"東京都","city":"国立市","address":"国立市富士見台2-1-1","lat":35.686681,"lon":139.446549},{"name":"サウンドテーブルテニス室","province":"東京都","city":"国立市","address":"国立市富士見台2-1-1","lat":35.686681,"lon":139.446549},{"name":"健康体力相談室","province":"東京都","city":"国立市","address":"国立市富士見台2-1-1","lat":35.686681,"lon":139.446549},{"name":"矢川児童館","province":"東京都","city":"国立市","address":"国立市富士見台4-17-1","lat":35.687098,"lon":139.428503},{"name":"中央児童館","province":"東京都","city":"国立市","address":"国立市富士見台2-38-5","lat":35.687451,"lon":139.444582},{"name":"伊藤単朴墓","province":"東京都","city":"国立市","address":"東京都国立市青柳355","lat":35.686214,"lon":139.424643},{"name":"くにたち中央図書館","province":"東京都","city":"国立市","address":"東京都国立市富士見台2丁目34","lat":35.68558704,"lon":139.44378816},{"name":"くにたち北市民プラザ図書館","province":"東京都","city":"国立市","address":"東京都国立市北3丁目1-1","lat":35.69934348,"lon":139.43274974},{"name":"中央児童館","province":"東京都","city":"国立市","address":"国立市富士見台2-38-5","lat":35.68736,"lon":139.44484},{"name":"矢川児童館","province":"東京都","city":"国立市","address":"国立市富士見台4-17-65","lat":35.68743,"lon":139.42685},{"name":"西児童館","province":"東京都","city":"国立市","address":"国立市西1-12-26","lat":35.69673,"lon":139.43271},{"name":"東京都多摩障害者スポーツセンター","province":"東京都","city":"国立市","address":"国立市富士見台2-1-1","lat":35.6866,"lon":139.44635},{"name":"東京都多摩障害者スポーツセンター","province":"東京都","city":"国立市","address":"国立市富士見台2-1-1","lat":35.686521,"lon":139.446565},{"name":"＊?くにたち中央図書館","province":"東京都","city":"国立市","address":"国立市富士見台2-34","lat":35.685151,"lon":139.444416},{"name":"＊?くにたち中央図書館青柳分室","province":"東京都","city":"国立市","address":"国立市青柳244","lat":35.683198,"lon":139.423542},{"name":"＊?くにたち中央図書館谷保東分室","province":"東京都","city":"国立市","address":"国立市谷保135-1","lat":35.686397,"lon":139.430056},{"name":"＊?くにたち中央図書館下谷保分室","province":"東京都","city":"国立市","address":"国立市谷保5066","lat":35.679625,"lon":139.448808},{"name":"＊?くにたち中央図書館南市民プラザ分室","province":"東京都","city":"国立市","address":"国立市泉2-3-21号棟1階","lat":35.674543,"lon":139.430661},{"name":"＊?くにたち中央図書館東分室","province":"東京都","city":"国立市","address":"国立市東3-18-32","lat":35.691456,"lon":139.454847},{"name":"＊?くにたち北市民プラザ図書館","province":"東京都","city":"国立市","address":"国立市北3-1-19号棟1階","lat":35.699365,"lon":139.432662},{"name":"国立市公民館","province":"東京都","city":"国立市","address":"国立市中1-15-1","lat":35.696854,"lon":139.443359},{"name":"くにたち中央図書館","province":"東京都","city":"国立市","address":"国立市富士見台2-34","lat":35.685696,"lon":139.443497},{"name":"くにたち中央図書館下谷保分室","province":"東京都","city":"国立市","address":"国立市谷保5066","lat":35.679398,"lon":139.44841},{"name":"くにたち中央図書館青柳分室","province":"東京都","city":"国立市","address":"国立市青柳244","lat":35.682404,"lon":139.423279},{"name":"くにたち中央図書館谷保東分室","province":"東京都","city":"国立市","address":"国立市谷保135-1","lat":35.674107,"lon":139.445236},{"name":"くにたち中央図書館東分室","province":"東京都","city":"国立市","address":"国立市東3-18-32","lat":35.691208,"lon":139.454071},{"name":"くにたち中央図書館南市民プラザ分室","province":"東京都","city":"国立市","address":"国立市泉2-3-21号棟1階","lat":35.674431,"lon":139.431137},{"name":"くにたち北市民プラザ図書館","province":"東京都","city":"国立市","address":"国立市北3-1-19号棟1階","lat":35.699455,"lon":139.449249},{"name":"くにたち郷土文化館","province":"東京都","city":"国立市","address":"国立市谷保6231","lat":35.679863,"lon":139.432434},{"name":"くにたち男女平等参画ステーション","province":"東京都","city":"国立市","address":"国立市谷保1705-1","lat":35.674107,"lon":139.445236},{"name":"国立市古民家","province":"東京都","city":"国立市","address":"国立市泉5-21-20","lat":35.678322,"lon":139.437744},{"name":"体育館","province":"東京都","city":"国立市","address":"国立市富士見台2-1-1","lat":35.686681,"lon":139.446549},{"name":"トレーニング室","province":"東京都","city":"国立市","address":"国立市富士見台2-1-1","lat":35.686681,"lon":139.446549},{"name":"屋内温水プール","province":"東京都","city":"国立市","address":"国立市富士見台2-1-1","lat":35.686681,"lon":139.446549},{"name":"卓球室","province":"東京都","city":"国立市","address":"国立市富士見台2-1-1","lat":35.686681,"lon":139.446549},{"name":"サウンドテーブルテニス室","province":"東京都","city":"国立市","address":"国立市富士見台2-1-1","lat":35.686681,"lon":139.446549},{"name":"健康体力相談室","province":"東京都","city":"国立市","address":"国立市富士見台2-1-1","lat":35.686681,"lon":139.446549},{"name":"矢川児童館","province":"東京都","city":"国立市","address":"国立市富士見台4-17-1","lat":35.687098,"lon":139.428503},{"name":"中央児童館","province":"東京都","city":"国立市","address":"国立市富士見台2-38-5","lat":35.687451,"lon":139.444582},{"name":"伊藤単朴墓","province":"東京都","city":"国立市","address":"東京都国立市青柳355","lat":35.686214,"lon":139.424643},{"name":"くにたち中央図書館","province":"東京都","city":"国立市","address":"東京都国立市富士見台2丁目34","lat":35.68558704,"lon":139.44378816},{"name":"くにたち北市民プラザ図書館","province":"東京都","city":"国立市","address":"東京都国立市北3丁目1-1","lat":35.69934348,"lon":139.43274974},{"name":"中央児童館","province":"東京都","city":"国立市","address":"国立市富士見台2-38-5","lat":35.68736,"lon":139.44484},{"name":"矢川児童館","province":"東京都","city":"国立市","address":"国立市富士見台4-17-65","lat":35.68743,"lon":139.42685},{"name":"西児童館","province":"東京都","city":"国立市","address":"国立市西1-12-26","lat":35.69673,"lon":139.43271},{"name":"東京都多摩障害者スポーツセンター","province":"東京都","city":"国立市","address":"国立市富士見台2-1-1","lat":35.6866,"lon":139.44635},{"name":"東京都多摩障害者スポーツセンター","province":"東京都","city":"国立市","address":"国立市富士見台2-1-1","lat":35.686521,"lon":139.446565},{"name":"＊?くにたち中央図書館","province":"東京都","city":"国立市","address":"国立市富士見台2-34","lat":35.685151,"lon":139.444416},{"name":"＊?くにたち中央図書館青柳分室","province":"東京都","city":"国立市","address":"国立市青柳244","lat":35.683198,"lon":139.423542},{"name":"＊?くにたち中央図書館谷保東分室","province":"東京都","city":"国立市","address":"国立市谷保135-1","lat":35.686397,"lon":139.430056},{"name":"＊?くにたち中央図書館下谷保分室","province":"東京都","city":"国立市","address":"国立市谷保5066","lat":35.679625,"lon":139.448808},{"name":"＊?くにたち中央図書館南市民プラザ分室","province":"東京都","city":"国立市","address":"国立市泉2-3-21号棟1階","lat":35.674543,"lon":139.430661},{"name":"＊?くにたち中央図書館東分室","province":"東京都","city":"国立市","address":"国立市東3-18-32","lat":35.691456,"lon":139.454847},{"name":"＊?くにたち北市民プラザ図書館","province":"東京都","city":"国立市","address":"国立市北3-1-19号棟1階","lat":35.699365,"lon":139.432662},{"name":"国立市公民館","province":"東京都","city":"国立市","address":"国立市中1-15-1","lat":35.696854,"lon":139.443359},{"name":"くにたち中央図書館","province":"東京都","city":"国立市","address":"国立市富士見台2-34","lat":35.685696,"lon":139.443497},{"name":"くにたち中央図書館下谷保分室","province":"東京都","city":"国立市","address":"国立市谷保5066","lat":35.679398,"lon":139.44841},{"name":"くにたち中央図書館青柳分室","province":"東京都","city":"国立市","address":"国立市青柳244","lat":35.682404,"lon":139.423279},{"name":"くにたち中央図書館谷保東分室","province":"東京都","city":"国立市","address":"国立市谷保135-1","lat":35.674107,"lon":139.445236},{"name":"くにたち中央図書館東分室","province":"東京都","city":"国立市","address":"国立市東3-18-32","lat":35.691208,"lon":139.454071},{"name":"くにたち中央図書館南市民プラザ分室","province":"東京都","city":"国立市","address":"国立市泉2-3-21号棟1階","lat":35.674431,"lon":139.431137},{"name":"くにたち北市民プラザ図書館","province":"東京都","city":"国立市","address":"国立市北3-1-19号棟1階","lat":35.699455,"lon":139.449249},{"name":"くにたち郷土文化館","province":"東京都","city":"国立市","address":"国立市谷保6231","lat":35.679863,"lon":139.432434},{"name":"くにたち男女平等参画ステーション","province":"東京都","city":"国立市","address":"国立市谷保1705-1","lat":35.674107,"lon":139.445236},{"name":"国立市古民家","province":"東京都","city":"国立市","address":"国立市泉5-21-20","lat":35.678322,"lon":139.437744},{"name":"体育館","province":"東京都","city":"国立市","address":"国立市富士見台2-1-1","lat":35.686681,"lon":139.446549},{"name":"トレーニング室","province":"東京都","city":"国立市","address":"国立市富士見台2-1-1","lat":35.686681,"lon":139.446549},{"name":"屋内温水プール","province":"東京都","city":"国立市","address":"国立市富士見台2-1-1","lat":35.686681,"lon":139.446549},{"name":"卓球室","province":"東京都","city":"国立市","address":"国立市富士見台2-1-1","lat":35.686681,"lon":139.446549},{"name":"サウンドテーブルテニス室","province":"東京都","city":"国立市","address":"国立市富士見台2-1-1","lat":35.686681,"lon":139.446549},{"name":"健康体力相談室","province":"東京都","city":"国立市","address":"国立市富士見台2-1-1","lat":35.686681,"lon":139.446549},{"name":"矢川児童館","province":"東京都","city":"国立市","address":"国立市富士見台4-17-1","lat":35.687098,"lon":139.428503},{"name":"中央児童館","province":"東京都","city":"国立市","address":"国立市富士見台2-38-5","lat":35.687451,"lon":139.444582},{"name":"伊藤単朴墓","province":"東京都","city":"国立市","address":"東京都国立市青柳355","lat":35.686214,"lon":139.424643},{"name":"くにたち中央図書館","province":"東京都","city":"国立市","address":"東京都国立市富士見台2丁目34","lat":35.68558704,"lon":139.44378816},{"name":"くにたち北市民プラザ図書館","province":"東京都","city":"国立市","address":"東京都国立市北3丁目1-1","lat":35.69934348,"lon":139.43274974},{"name":"中央児童館","province":"東京都","city":"国立市","address":"国立市富士見台2-38-5","lat":35.68736,"lon":139.44484},{"name":"矢川児童館","province":"東京都","city":"国立市","address":"国立市富士見台4-17-65","lat":35.68743,"lon":139.42685},{"name":"西児童館","province":"東京都","city":"国立市","address":"国立市西1-12-26","lat":35.69673,"lon":139.43271},{"name":"東京都多摩障害者スポーツセンター","province":"東京都","city":"国立市","address":"国立市富士見台2-1-1","lat":35.6866,"lon":139.44635},{"name":"東京都多摩障害者スポーツセンター","province":"東京都","city":"国立市","address":"国立市富士見台2-1-1","lat":35.686521,"lon":139.446565},{"name":"＊?くにたち中央図書館","province":"東京都","city":"国立市","address":"国立市富士見台2-34","lat":35.685151,"lon":139.444416},{"name":"＊?くにたち中央図書館青柳分室","province":"東京都","city":"国立市","address":"国立市青柳244","lat":35.683198,"lon":139.423542},{"name":"＊?くにたち中央図書館谷保東分室","province":"東京都","city":"国立市","address":"国立市谷保135-1","lat":35.686397,"lon":139.430056},{"name":"＊?くにたち中央図書館下谷保分室","province":"東京都","city":"国立市","address":"国立市谷保5066","lat":35.679625,"lon":139.448808},{"name":"＊?くにたち中央図書館南市民プラザ分室","province":"東京都","city":"国立市","address":"国立市泉2-3-21号棟1階","lat":35.674543,"lon":139.430661},{"name":"＊?くにたち中央図書館東分室","province":"東京都","city":"国立市","address":"国立市東3-18-32","lat":35.691456,"lon":139.454847},{"name":"＊?くにたち北市民プラザ図書館","province":"東京都","city":"国立市","address":"国立市北3-1-19号棟1階","lat":35.699365,"lon":139.432662},{"name":"国立市公民館","province":"東京都","city":"国立市","address":"国立市中1-15-1","lat":35.696854,"lon":139.443359},{"name":"くにたち中央図書館","province":"東京都","city":"国立市","address":"国立市富士見台2-34","lat":35.685696,"lon":139.443497},{"name":"くにたち中央図書館下谷保分室","province":"東京都","city":"国立市","address":"国立市谷保5066","lat":35.679398,"lon":139.44841},{"name":"くにたち中央図書館青柳分室","province":"東京都","city":"国立市","address":"国立市青柳244","lat":35.682404,"lon":139.423279},{"name":"くにたち中央図書館谷保東分室","province":"東京都","city":"国立市","address":"国立市谷保135-1","lat":35.674107,"lon":139.445236},{"name":"くにたち中央図書館東分室","province":"東京都","city":"国立市","address":"国立市東3-18-32","lat":35.691208,"lon":139.454071},{"name":"くにたち中央図書館南市民プラザ分室","province":"東京都","city":"国立市","address":"国立市泉2-3-21号棟1階","lat":35.674431,"lon":139.431137},{"name":"くにたち北市民プラザ図書館","province":"東京都","city":"国立市","address":"国立市北3-1-19号棟1階","lat":35.699455,"lon":139.449249},{"name":"くにたち郷土文化館","province":"東京都","city":"国立市","address":"国立市谷保6231","lat":35.679863,"lon":139.432434},{"name":"くにたち男女平等参画ステーション","province":"東京都","city":"国立市","address":"国立市谷保1705-1","lat":35.674107,"lon":139.445236},{"name":"国立市古民家","province":"東京都","city":"国立市","address":"国立市泉5-21-20","lat":35.678322,"lon":139.437744},{"name":"体育館","province":"東京都","city":"国立市","address":"国立市富士見台2-1-1","lat":35.686681,"lon":139.446549},{"name":"トレーニング室","province":"東京都","city":"国立市","address":"国立市富士見台2-1-1","lat":35.686681,"lon":139.446549},{"name":"屋内温水プール","province":"東京都","city":"国立市","address":"国立市富士見台2-1-1","lat":35.686681,"lon":139.446549},{"name":"卓球室","province":"東京都","city":"国立市","address":"国立市富士見台2-1-1","lat":35.686681,"lon":139.446549},{"name":"サウンドテーブルテニス室","province":"東京都","city":"国立市","address":"国立市富士見台2-1-1","lat":35.686681,"lon":139.446549},{"name":"健康体力相談室","province":"東京都","city":"国立市","address":"国立市富士見台2-1-1","lat":35.686681,"lon":139.446549},{"name":"矢川児童館","province":"東京都","city":"国立市","address":"国立市富士見台4-17-1","lat":35.687098,"lon":139.428503},{"name":"中央児童館","province":"東京都","city":"国立市","address":"国立市富士見台2-38-5","lat":35.687451,"lon":139.444582},{"name":"伊藤単朴墓","province":"東京都","city":"国立市","address":"東京都国立市青柳355","lat":35.686214,"lon":139.424643},{"name":"くにたち中央図書館","province":"東京都","city":"国立市","address":"東京都国立市富士見台2丁目34","lat":35.68558704,"lon":139.44378816},{"name":"くにたち北市民プラザ図書館","province":"東京都","city":"国立市","address":"東京都国立市北3丁目1-1","lat":35.69934348,"lon":139.43274974},{"name":"中央児童館","province":"東京都","city":"国立市","address":"国立市富士見台2-38-5","lat":35.68736,"lon":139.44484},{"name":"矢川児童館","province":"東京都","city":"国立市","address":"国立市富士見台4-17-65","lat":35.68743,"lon":139.42685},{"name":"西児童館","province":"東京都","city":"国立市","address":"国立市西1-12-26","lat":35.69673,"lon":139.43271},{"name":"東京都多摩障害者スポーツセンター","province":"東京都","city":"国立市","address":"国立市富士見台2-1-1","lat":35.6866,"lon":139.44635},{"name":"東京都多摩障害者スポーツセンター","province":"東京都","city":"国立市","address":"国立市富士見台2-1-1","lat":35.686521,"lon":139.446565},{"name":"＊?くにたち中央図書館","province":"東京都","city":"国立市","address":"国立市富士見台2-34","lat":35.685151,"lon":139.444416},{"name":"＊?くにたち中央図書館青柳分室","province":"東京都","city":"国立市","address":"国立市青柳244","lat":35.683198,"lon":139.423542},{"name":"＊?くにたち中央図書館谷保東分室","province":"東京都","city":"国立市","address":"国立市谷保135-1","lat":35.686397,"lon":139.430056},{"name":"＊?くにたち中央図書館下谷保分室","province":"東京都","city":"国立市","address":"国立市谷保5066","lat":35.679625,"lon":139.448808},{"name":"＊?くにたち中央図書館南市民プラザ分室","province":"東京都","city":"国立市","address":"国立市泉2-3-21号棟1階","lat":35.674543,"lon":139.430661},{"name":"＊?くにたち中央図書館東分室","province":"東京都","city":"国立市","address":"国立市東3-18-32","lat":35.691456,"lon":139.454847},{"name":"＊?くにたち北市民プラザ図書館","province":"東京都","city":"国立市","address":"国立市北3-1-19号棟1階","lat":35.699365,"lon":139.432662},{"name":"国立市公民館","province":"東京都","city":"国立市","address":"国立市中1-15-1","lat":35.696854,"lon":139.443359},{"name":"くにたち中央図書館","province":"東京都","city":"国立市","address":"国立市富士見台2-34","lat":35.685696,"lon":139.443497},{"name":"くにたち中央図書館下谷保分室","province":"東京都","city":"国立市","address":"国立市谷保5066","lat":35.679398,"lon":139.44841},{"name":"くにたち中央図書館青柳分室","province":"東京都","city":"国立市","address":"国立市青柳244","lat":35.682404,"lon":139.423279},{"name":"くにたち中央図書館谷保東分室","province":"東京都","city":"国立市","address":"国立市谷保135-1","lat":35.674107,"lon":139.445236},{"name":"くにたち中央図書館東分室","province":"東京都","city":"国立市","address":"国立市東3-18-32","lat":35.691208,"lon":139.454071},{"name":"くにたち中央図書館南市民プラザ分室","province":"東京都","city":"国立市","address":"国立市泉2-3-21号棟1階","lat":35.674431,"lon":139.431137},{"name":"くにたち北市民プラザ図書館","province":"東京都","city":"国立市","address":"国立市北3-1-19号棟1階","lat":35.699455,"lon":139.449249},{"name":"くにたち郷土文化館","province":"東京都","city":"国立市","address":"国立市谷保6231","lat":35.679863,"lon":139.432434},{"name":"くにたち男女平等参画ステーション","province":"東京都","city":"国立市","address":"国立市谷保1705-1","lat":35.674107,"lon":139.445236},{"name":"国立市古民家","province":"東京都","city":"国立市","address":"国立市泉5-21-20","lat":35.678322,"lon":139.437744},{"name":"体育館","province":"東京都","city":"国立市","address":"国立市富士見台2-1-1","lat":35.686681,"lon":139.446549},{"name":"トレーニング室","province":"東京都","city":"国立市","address":"国立市富士見台2-1-1","lat":35.686681,"lon":139.446549},{"name":"屋内温水プール","province":"東京都","city":"国立市","address":"国立市富士見台2-1-1","lat":35.686681,"lon":139.446549},{"name":"卓球室","province":"東京都","city":"国立市","address":"国立市富士見台2-1-1","lat":35.686681,"lon":139.446549},{"name":"サウンドテーブルテニス室","province":"東京都","city":"国立市","address":"国立市富士見台2-1-1","lat":35.686681,"lon":139.446549},{"name":"健康体力相談室","province":"東京都","city":"国立市","address":"国立市富士見台2-1-1","lat":35.686681,"lon":139.446549},{"name":"矢川児童館","province":"東京都","city":"国立市","address":"国立市富士見台4-17-1","lat":35.687098,"lon":139.428503},{"name":"中央児童館","province":"東京都","city":"国立市","address":"国立市富士見台2-38-5","lat":35.687451,"lon":139.444582},{"name":"伊藤単朴墓","province":"東京都","city":"国立市","address":"東京都国立市青柳355","lat":35.686214,"lon":139.424643},{"name":"くにたち中央図書館","province":"東京都","city":"国立市","address":"東京都国立市富士見台2丁目34","lat":35.68558704,"lon":139.44378816},{"name":"くにたち北市民プラザ図書館","province":"東京都","city":"国立市","address":"東京都国立市北3丁目1-1","lat":35.69934348,"lon":139.43274974},{"name":"中央児童館","province":"東京都","city":"国立市","address":"国立市富士見台2-38-5","lat":35.68736,"lon":139.44484},{"name":"矢川児童館","province":"東京都","city":"国立市","address":"国立市富士見台4-17-65","lat":35.68743,"lon":139.42685},{"name":"西児童館","province":"東京都","city":"国立市","address":"国立市西1-12-26","lat":35.69673,"lon":139.43271},{"name":"東京都多摩障害者スポーツセンター","province":"東京都","city":"国立市","address":"国立市富士見台2-1-1","lat":35.6866,"lon":139.44635},{"name":"東京都多摩障害者スポーツセンター","province":"東京都","city":"国立市","address":"国立市富士見台2-1-1","lat":35.686521,"lon":139.446565},{"name":"＊?くにたち中央図書館","province":"東京都","city":"国立市","address":"国立市富士見台2-34","lat":35.685151,"lon":139.444416},{"name":"＊?くにたち中央図書館青柳分室","province":"東京都","city":"国立市","address":"国立市青柳244","lat":35.683198,"lon":139.423542},{"name":"＊?くにたち中央図書館谷保東分室","province":"東京都","city":"国立市","address":"国立市谷保135-1","lat":35.686397,"lon":139.430056},{"name":"＊?くにたち中央図書館下谷保分室","province":"東京都","city":"国立市","address":"国立市谷保5066","lat":35.679625,"lon":139.448808},{"name":"＊?くにたち中央図書館南市民プラザ分室","province":"東京都","city":"国立市","address":"国立市泉2-3-21号棟1階","lat":35.674543,"lon":139.430661},{"name":"＊?くにたち中央図書館東分室","province":"東京都","city":"国立市","address":"国立市東3-18-32","lat":35.691456,"lon":139.454847},{"name":"＊?くにたち北市民プラザ図書館","province":"東京都","city":"国立市","address":"国立市北3-1-19号棟1階","lat":35.699365,"lon":139.432662},{"name":"国立市公民館","province":"東京都","city":"国立市","address":"国立市中1-15-1","lat":35.696854,"lon":139.443359},{"name":"くにたち中央図書館","province":"東京都","city":"国立市","address":"国立市富士見台2-34","lat":35.685696,"lon":139.443497},{"name":"くにたち中央図書館下谷保分室","province":"東京都","city":"国立市","address":"国立市谷保5066","lat":35.679398,"lon":139.44841},{"name":"くにたち中央図書館青柳分室","province":"東京都","city":"国立市","address":"国立市青柳244","lat":35.682404,"lon":139.423279},{"name":"くにたち中央図書館谷保東分室","province":"東京都","city":"国立市","address":"国立市谷保135-1","lat":35.674107,"lon":139.445236},{"name":"くにたち中央図書館東分室","province":"東京都","city":"国立市","address":"国立市東3-18-32","lat":35.691208,"lon":139.454071},{"name":"くにたち中央図書館南市民プラザ分室","province":"東京都","city":"国立市","address":"国立市泉2-3-21号棟1階","lat":35.674431,"lon":139.431137},{"name":"くにたち北市民プラザ図書館","province":"東京都","city":"国立市","address":"国立市北3-1-19号棟1階","lat":35.699455,"lon":139.449249},{"name":"くにたち郷土文化館","province":"東京都","city":"国立市","address":"国立市谷保6231","lat":35.679863,"lon":139.432434},{"name":"くにたち男女平等参画ステーション","province":"東京都","city":"国立市","address":"国立市谷保1705-1","lat":35.674107,"lon":139.445236},{"name":"国立市古民家","province":"東京都","city":"国立市","address":"国立市泉5-21-20","lat":35.678322,"lon":139.437744},{"name":"体育館","province":"東京都","city":"国立市","address":"国立市富士見台2-1-1","lat":35.686681,"lon":139.446549},{"name":"トレーニング室","province":"東京都","city":"国立市","address":"国立市富士見台2-1-1","lat":35.686681,"lon":139.446549},{"name":"屋内温水プール","province":"東京都","city":"国立市","address":"国立市富士見台2-1-1","lat":35.686681,"lon":139.446549},{"name":"卓球室","province":"東京都","city":"国立市","address":"国立市富士見台2-1-1","lat":35.686681,"lon":139.446549},{"name":"サウンドテーブルテニス室","province":"東京都","city":"国立市","address":"国立市富士見台2-1-1","lat":35.686681,"lon":139.446549},{"name":"健康体力相談室","province":"東京都","city":"国立市","address":"国立市富士見台2-1-1","lat":35.686681,"lon":139.446549},{"name":"矢川児童館","province":"東京都","city":"国立市","address":"国立市富士見台4-17-1","lat":35.687098,"lon":139.428503},{"name":"中央児童館","province":"東京都","city":"国立市","address":"国立市富士見台2-38-5","lat":35.687451,"lon":139.444582},{"name":"伊藤単朴墓","province":"東京都","city":"国立市","address":"東京都国立市青柳355","lat":35.686214,"lon":139.424643},{"name":"くにたち中央図書館","province":"東京都","city":"国立市","address":"東京都国立市富士見台2丁目34","lat":35.68558704,"lon":139.44378816},{"name":"くにたち北市民プラザ図書館","province":"東京都","city":"国立市","address":"東京都国立市北3丁目1-1","lat":35.69934348,"lon":139.43274974},{"name":"中央児童館","province":"東京都","city":"国立市","address":"国立市富士見台2-38-5","lat":35.68736,"lon":139.44484},{"name":"矢川児童館","province":"東京都","city":"国立市","address":"国立市富士見台4-17-65","lat":35.68743,"lon":139.42685},{"name":"西児童館","province":"東京都","city":"国立市","address":"国立市西1-12-26","lat":35.69673,"lon":139.43271},{"name":"東京都多摩障害者スポーツセンター","province":"東京都","city":"国立市","address":"国立市富士見台2-1-1","lat":35.6866,"lon":139.44635},{"name":"東京都多摩障害者スポーツセンター","province":"東京都","city":"国立市","address":"国立市富士見台2-1-1","lat":35.686521,"lon":139.446565},{"name":"＊?くにたち中央図書館","province":"東京都","city":"国立市","address":"国立市富士見台2-34","lat":35.685151,"lon":139.444416},{"name":"＊?くにたち中央図書館青柳分室","province":"東京都","city":"国立市","address":"国立市青柳244","lat":35.683198,"lon":139.423542},{"name":"＊?くにたち中央図書館谷保東分室","province":"東京都","city":"国立市","address":"国立市谷保135-1","lat":35.686397,"lon":139.430056},{"name":"＊?くにたち中央図書館下谷保分室","province":"東京都","city":"国立市","address":"国立市谷保5066","lat":35.679625,"lon":139.448808},{"name":"＊?くにたち中央図書館南市民プラザ分室","province":"東京都","city":"国立市","address":"国立市泉2-3-21号棟1階","lat":35.674543,"lon":139.430661},{"name":"＊?くにたち中央図書館東分室","province":"東京都","city":"国立市","address":"国立市東3-18-32","lat":35.691456,"lon":139.454847},{"name":"＊?くにたち北市民プラザ図書館","province":"東京都","city":"国立市","address":"国立市北3-1-19号棟1階","lat":35.699365,"lon":139.432662},{"name":"国立市公民館","province":"東京都","city":"国立市","address":"国立市中1-15-1","lat":35.696854,"lon":139.443359},{"name":"くにたち中央図書館","province":"東京都","city":"国立市","address":"国立市富士見台2-34","lat":35.685696,"lon":139.443497},{"name":"くにたち中央図書館下谷保分室","province":"東京都","city":"国立市","address":"国立市谷保5066","lat":35.679398,"lon":139.44841},{"name":"くにたち中央図書館青柳分室","province":"東京都","city":"国立市","address":"国立市青柳244","lat":35.682404,"lon":139.423279},{"name":"くにたち中央図書館谷保東分室","province":"東京都","city":"国立市","address":"国立市谷保135-1","lat":35.674107,"lon":139.445236},{"name":"くにたち中央図書館東分室","province":"東京都","city":"国立市","address":"国立市東3-18-32","lat":35.691208,"lon":139.454071},{"name":"くにたち中央図書館南市民プラザ分室","province":"東京都","city":"国立市","address":"国立市泉2-3-21号棟1階","lat":35.674431,"lon":139.431137},{"name":"くにたち北市民プラザ図書館","province":"東京都","city":"国立市","address":"国立市北3-1-19号棟1階","lat":35.699455,"lon":139.449249},{"name":"くにたち郷土文化館","province":"東京都","city":"国立市","address":"国立市谷保6231","lat":35.679863,"lon":139.432434},{"name":"くにたち男女平等参画ステーション","province":"東京都","city":"国立市","address":"国立市谷保1705-1","lat":35.674107,"lon":139.445236},{"name":"国立市古民家","province":"東京都","city":"国立市","address":"国立市泉5-21-20","lat":35.678322,"lon":139.437744},{"name":"体育館","province":"東京都","city":"国立市","address":"国立市富士見台2-1-1","lat":35.686681,"lon":139.446549},{"name":"トレーニング室","province":"東京都","city":"国立市","address":"国立市富士見台2-1-1","lat":35.686681,"lon":139.446549},{"name":"屋内温水プール","province":"東京都","city":"国立市","address":"国立市富士見台2-1-1","lat":35.686681,"lon":139.446549},{"name":"卓球室","province":"東京都","city":"国立市","address":"国立市富士見台2-1-1","lat":35.686681,"lon":139.446549},{"name":"サウンドテーブルテニス室","province":"東京都","city":"国立市","address":"国立市富士見台2-1-1","lat":35.686681,"lon":139.446549},{"name":"健康体力相談室","province":"東京都","city":"国立市","address":"国立市富士見台2-1-1","lat":35.686681,"lon":139.446549},{"name":"矢川児童館","province":"東京都","city":"国立市","address":"国立市富士見台4-17-1","lat":35.687098,"lon":139.428503},{"name":"中央児童館","province":"東京都","city":"国立市","address":"国立市富士見台2-38-5","lat":35.687451,"lon":139.444582},{"name":"伊藤単朴墓","province":"東京都","city":"国立市","address":"東京都国立市青柳355","lat":35.686214,"lon":139.424643},{"name":"くにたち中央図書館","province":"東京都","city":"国立市","address":"東京都国立市富士見台2丁目34","lat":35.68558704,"lon":139.44378816},{"name":"くにたち北市民プラザ図書館","province":"東京都","city":"国立市","address":"東京都国立市北3丁目1-1","lat":35.69934348,"lon":139.43274974},{"name":"中央児童館","province":"東京都","city":"国立市","address":"国立市富士見台2-38-5","lat":35.68736,"lon":139.44484},{"name":"矢川児童館","province":"東京都","city":"国立市","address":"国立市富士見台4-17-65","lat":35.68743,"lon":139.42685},{"name":"西児童館","province":"東京都","city":"国立市","address":"国立市西1-12-26","lat":35.69673,"lon":139.43271},{"name":"東京都多摩障害者スポーツセンター","province":"東京都","city":"国立市","address":"国立市富士見台2-1-1","lat":35.6866,"lon":139.44635},{"name":"東京都多摩障害者スポーツセンター","province":"東京都","city":"国立市","address":"国立市富士見台2-1-1","lat":35.686521,"lon":139.446565},{"name":"＊?くにたち中央図書館","province":"東京都","city":"国立市","address":"国立市富士見台2-34","lat":35.685151,"lon":139.444416},{"name":"＊?くにたち中央図書館青柳分室","province":"東京都","city":"国立市","address":"国立市青柳244","lat":35.683198,"lon":139.423542},{"name":"＊?くにたち中央図書館谷保東分室","province":"東京都","city":"国立市","address":"国立市谷保135-1","lat":35.686397,"lon":139.430056},{"name":"＊?くにたち中央図書館下谷保分室","province":"東京都","city":"国立市","address":"国立市谷保5066","lat":35.679625,"lon":139.448808},{"name":"＊?くにたち中央図書館南市民プラザ分室","province":"東京都","city":"国立市","address":"国立市泉2-3-21号棟1階","lat":35.674543,"lon":139.430661},{"name":"＊?くにたち中央図書館東分室","province":"東京都","city":"国立市","address":"国立市東3-18-32","lat":35.691456,"lon":139.454847},{"name":"＊?くにたち北市民プラザ図書館","province":"東京都","city":"国立市","address":"国立市北3-1-19号棟1階","lat":35.699365,"lon":139.432662},{"name":"国立市公民館","province":"東京都","city":"国立市","address":"国立市中1-15-1","lat":35.696854,"lon":139.443359},{"name":"くにたち中央図書館","province":"東京都","city":"国立市","address":"国立市富士見台2-34","lat":35.685696,"lon":139.443497},{"name":"くにたち中央図書館下谷保分室","province":"東京都","city":"国立市","address":"国立市谷保5066","lat":35.679398,"lon":139.44841},{"name":"くにたち中央図書館青柳分室","province":"東京都","city":"国立市","address":"国立市青柳244","lat":35.682404,"lon":139.423279},{"name":"くにたち中央図書館谷保東分室","province":"東京都","city":"国立市","address":"国立市谷保135-1","lat":35.674107,"lon":139.445236},{"name":"くにたち中央図書館東分室","province":"東京都","city":"国立市","address":"国立市東3-18-32","lat":35.691208,"lon":139.454071},{"name":"くにたち中央図書館南市民プラザ分室","province":"東京都","city":"国立市","address":"国立市泉2-3-21号棟1階","lat":35.674431,"lon":139.431137},{"name":"くにたち北市民プラザ図書館","province":"東京都","city":"国立市","address":"国立市北3-1-19号棟1階","lat":35.699455,"lon":139.449249},{"name":"くにたち郷土文化館","province":"東京都","city":"国立市","address":"国立市谷保6231","lat":35.679863,"lon":139.432434},{"name":"くにたち男女平等参画ステーション","province":"東京都","city":"国立市","address":"国立市谷保1705-1","lat":35.674107,"lon":139.445236},{"name":"国立市古民家","province":"東京都","city":"国立市","address":"国立市泉5-21-20","lat":35.678322,"lon":139.437744},{"name":"体育館","province":"東京都","city":"国立市","address":"国立市富士見台2-1-1","lat":35.686681,"lon":139.446549},{"name":"トレーニング室","province":"東京都","city":"国立市","address":"国立市富士見台2-1-1","lat":35.686681,"lon":139.446549},{"name":"屋内温水プール","province":"東京都","city":"国立市","address":"国立市富士見台2-1-1","lat":35.686681,"lon":139.446549},{"name":"卓球室","province":"東京都","city":"国立市","address":"国立市富士見台2-1-1","lat":35.686681,"lon":139.446549},{"name":"サウンドテーブルテニス室","province":"東京都","city":"国立市","address":"国立市富士見台2-1-1","lat":35.686681,"lon":139.446549},{"name":"健康体力相談室","province":"東京都","city":"国立市","address":"国立市富士見台2-1-1","lat":35.686681,"lon":139.446549},{"name":"矢川児童館","province":"東京都","city":"国立市","address":"国立市富士見台4-17-1","lat":35.687098,"lon":139.428503},{"name":"中央児童館","province":"東京都","city":"国立市","address":"国立市富士見台2-38-5","lat":35.687451,"lon":139.444582},{"name":"伊藤単朴墓","province":"東京都","city":"国立市","address":"東京都国立市青柳355","lat":35.686214,"lon":139.424643},{"name":"くにたち中央図書館","province":"東京都","city":"国立市","address":"東京都国立市富士見台2丁目34","lat":35.68558704,"lon":139.44378816},{"name":"くにたち北市民プラザ図書館","province":"東京都","city":"国立市","address":"東京都国立市北3丁目1-1","lat":35.69934348,"lon":139.43274974},{"name":"中央児童館","province":"東京都","city":"国立市","address":"国立市富士見台2-38-5","lat":35.68736,"lon":139.44484},{"name":"矢川児童館","province":"東京都","city":"国立市","address":"国立市富士見台4-17-65","lat":35.68743,"lon":139.42685},{"name":"西児童館","province":"東京都","city":"国立市","address":"国立市西1-12-26","lat":35.69673,"lon":139.43271},{"name":"東京都多摩障害者スポーツセンター","province":"東京都","city":"国立市","address":"国立市富士見台2-1-1","lat":35.6866,"lon":139.44635},{"name":"東京都多摩障害者スポーツセンター","province":"東京都","city":"国立市","address":"国立市富士見台2-1-1","lat":35.686521,"lon":139.446565},{"name":"＊?くにたち中央図書館","province":"東京都","city":"国立市","address":"国立市富士見台2-34","lat":35.685151,"lon":139.444416},{"name":"＊?くにたち中央図書館青柳分室","province":"東京都","city":"国立市","address":"国立市青柳244","lat":35.683198,"lon":139.423542},{"name":"＊?くにたち中央図書館谷保東分室","province":"東京都","city":"国立市","address":"国立市谷保135-1","lat":35.686397,"lon":139.430056},{"name":"＊?くにたち中央図書館下谷保分室","province":"東京都","city":"国立市","address":"国立市谷保5066","lat":35.679625,"lon":139.448808},{"name":"＊?くにたち中央図書館南市民プラザ分室","province":"東京都","city":"国立市","address":"国立市泉2-3-21号棟1階","lat":35.674543,"lon":139.430661},{"name":"＊?くにたち中央図書館東分室","province":"東京都","city":"国立市","address":"国立市東3-18-32","lat":35.691456,"lon":139.454847},{"name":"＊?くにたち北市民プラザ図書館","province":"東京都","city":"国立市","address":"国立市北3-1-19号棟1階","lat":35.699365,"lon":139.432662},{"name":"国立市公民館","province":"東京都","city":"国立市","address":"国立市中1-15-1","lat":35.696854,"lon":139.443359},{"name":"くにたち中央図書館","province":"東京都","city":"国立市","address":"国立市富士見台2-34","lat":35.685696,"lon":139.443497},{"name":"くにたち中央図書館下谷保分室","province":"東京都","city":"国立市","address":"国立市谷保5066","lat":35.679398,"lon":139.44841},{"name":"くにたち中央図書館青柳分室","province":"東京都","city":"国立市","address":"国立市青柳244","lat":35.682404,"lon":139.423279},{"name":"くにたち中央図書館谷保東分室","province":"東京都","city":"国立市","address":"国立市谷保135-1","lat":35.674107,"lon":139.445236},{"name":"くにたち中央図書館東分室","province":"東京都","city":"国立市","address":"国立市東3-18-32","lat":35.691208,"lon":139.454071},{"name":"くにたち中央図書館南市民プラザ分室","province":"東京都","city":"国立市","address":"国立市泉2-3-21号棟1階","lat":35.674431,"lon":139.431137},{"name":"くにたち北市民プラザ図書館","province":"東京都","city":"国立市","address":"国立市北3-1-19号棟1階","lat":35.699455,"lon":139.449249},{"name":"くにたち郷土文化館","province":"東京都","city":"国立市","address":"国立市谷保6231","lat":35.679863,"lon":139.432434},{"name":"くにたち男女平等参画ステーション","province":"東京都","city":"国立市","address":"国立市谷保1705-1","lat":35.674107,"lon":139.445236},{"name":"国立市古民家","province":"東京都","city":"国立市","address":"国立市泉5-21-20","lat":35.678322,"lon":139.437744},{"name":"体育館","province":"東京都","city":"国立市","address":"国立市富士見台2-1-1","lat":35.686681,"lon":139.446549},{"name":"トレーニング室","province":"東京都","city":"国立市","address":"国立市富士見台2-1-1","lat":35.686681,"lon":139.446549},{"name":"屋内温水プール","province":"東京都","city":"国立市","address":"国立市富士見台2-1-1","lat":35.686681,"lon":139.446549},{"name":"卓球室","province":"東京都","city":"国立市","address":"国立市富士見台2-1-1","lat":35.686681,"lon":139.446549},{"name":"サウンドテーブルテニス室","province":"東京都","city":"国立市","address":"国立市富士見台2-1-1","lat":35.686681,"lon":139.446549},{"name":"健康体力相談室","province":"東京都","city":"国立市","address":"国立市富士見台2-1-1","lat":35.686681,"lon":139.446549},{"name":"矢川児童館","province":"東京都","city":"国立市","address":"国立市富士見台4-17-1","lat":35.687098,"lon":139.428503},{"name":"中央児童館","province":"東京都","city":"国立市","address":"国立市富士見台2-38-5","lat":35.687451,"lon":139.444582},{"name":"伊藤単朴墓","province":"東京都","city":"国立市","address":"東京都国立市青柳355","lat":35.686214,"lon":139.424643},{"name":"くにたち中央図書館","province":"東京都","city":"国立市","address":"東京都国立市富士見台2丁目34","lat":35.68558704,"lon":139.44378816},{"name":"くにたち北市民プラザ図書館","province":"東京都","city":"国立市","address":"東京都国立市北3丁目1-1","lat":35.69934348,"lon":139.43274974},{"name":"中央児童館","province":"東京都","city":"国立市","address":"国立市富士見台2-38-5","lat":35.68736,"lon":139.44484},{"name":"矢川児童館","province":"東京都","city":"国立市","address":"国立市富士見台4-17-65","lat":35.68743,"lon":139.42685},{"name":"西児童館","province":"東京都","city":"国立市","address":"国立市西1-12-26","lat":35.69673,"lon":139.43271},{"name":"東京都多摩障害者スポーツセンター","province":"東京都","city":"国立市","address":"国立市富士見台2-1-1","lat":35.6866,"lon":139.44635},{"name":"東京都多摩障害者スポーツセンター","province":"東京都","city":"国立市","address":"国立市富士見台2-1-1","lat":35.686521,"lon":139.446565},{"name":"＊?くにたち中央図書館","province":"東京都","city":"国立市","address":"国立市富士見台2-34","lat":35.685151,"lon":139.444416},{"name":"＊?くにたち中央図書館青柳分室","province":"東京都","city":"国立市","address":"国立市青柳244","lat":35.683198,"lon":139.423542},{"name":"＊?くにたち中央図書館谷保東分室","province":"東京都","city":"国立市","address":"国立市谷保135-1","lat":35.686397,"lon":139.430056},{"name":"＊?くにたち中央図書館下谷保分室","province":"東京都","city":"国立市","address":"国立市谷保5066","lat":35.679625,"lon":139.448808},{"name":"＊?くにたち中央図書館南市民プラザ分室","province":"東京都","city":"国立市","address":"国立市泉2-3-21号棟1階","lat":35.674543,"lon":139.430661},{"name":"＊?くにたち中央図書館東分室","province":"東京都","city":"国立市","address":"国立市東3-18-32","lat":35.691456,"lon":139.454847},{"name":"＊?くにたち北市民プラザ図書館","province":"東京都","city":"国立市","address":"国立市北3-1-19号棟1階","lat":35.699365,"lon":139.432662},{"name":"国立市公民館","province":"東京都","city":"国立市","address":"国立市中1-15-1","lat":35.696854,"lon":139.443359},{"name":"くにたち中央図書館","province":"東京都","city":"国立市","address":"国立市富士見台2-34","lat":35.685696,"lon":139.443497},{"name":"くにたち中央図書館下谷保分室","province":"東京都","city":"国立市","address":"国立市谷保5066","lat":35.679398,"lon":139.44841},{"name":"くにたち中央図書館青柳分室","province":"東京都","city":"国立市","address":"国立市青柳244","lat":35.682404,"lon":139.423279},{"name":"くにたち中央図書館谷保東分室","province":"東京都","city":"国立市","address":"国立市谷保135-1","lat":35.674107,"lon":139.445236},{"name":"くにたち中央図書館東分室","province":"東京都","city":"国立市","address":"国立市東3-18-32","lat":35.691208,"lon":139.454071},{"name":"くにたち中央図書館南市民プラザ分室","province":"東京都","city":"国立市","address":"国立市泉2-3-21号棟1階","lat":35.674431,"lon":139.431137},{"name":"くにたち北市民プラザ図書館","province":"東京都","city":"国立市","address":"国立市北3-1-19号棟1階","lat":35.699455,"lon":139.449249},{"name":"くにたち郷土文化館","province":"東京都","city":"国立市","address":"国立市谷保6231","lat":35.679863,"lon":139.432434},{"name":"くにたち男女平等参画ステーション","province":"東京都","city":"国立市","address":"国立市谷保1705-1","lat":35.674107,"lon":139.445236},{"name":"国立市古民家","province":"東京都","city":"国立市","address":"国立市泉5-21-20","lat":35.678322,"lon":139.437744},{"name":"体育館","province":"東京都","city":"国立市","address":"国立市富士見台2-1-1","lat":35.686681,"lon":139.446549},{"name":"トレーニング室","province":"東京都","city":"国立市","address":"国立市富士見台2-1-1","lat":35.686681,"lon":139.446549},{"name":"屋内温水プール","province":"東京都","city":"国立市","address":"国立市富士見台2-1-1","lat":35.686681,"lon":139.446549},{"name":"卓球室","province":"東京都","city":"国立市","address":"国立市富士見台2-1-1","lat":35.686681,"lon":139.446549},{"name":"サウンドテーブルテニス室","province":"東京都","city":"国立市","address":"国立市富士見台2-1-1","lat":35.686681,"lon":139.446549},{"name":"健康体力相談室","province":"東京都","city":"国立市","address":"国立市富士見台2-1-1","lat":35.686681,"lon":139.446549},{"name":"矢川児童館","province":"東京都","city":"国立市","address":"国立市富士見台4-17-1","lat":35.687098,"lon":139.428503},{"name":"中央児童館","province":"東京都","city":"国立市","address":"国立市富士見台2-38-5","lat":35.687451,"lon":139.444582},{"name":"伊藤単朴墓","province":"東京都","city":"国立市","address":"東京都国立市青柳355","lat":35.686214,"lon":139.424643},{"name":"くにたち中央図書館","province":"東京都","city":"国立市","address":"東京都国立市富士見台2丁目34","lat":35.68558704,"lon":139.44378816},{"name":"くにたち北市民プラザ図書館","province":"東京都","city":"国立市","address":"東京都国立市北3丁目1-1","lat":35.69934348,"lon":139.43274974},{"name":"中央児童館","province":"東京都","city":"国立市","address":"国立市富士見台2-38-5","lat":35.68736,"lon":139.44484},{"name":"矢川児童館","province":"東京都","city":"国立市","address":"国立市富士見台4-17-65","lat":35.68743,"lon":139.42685},{"name":"西児童館","province":"東京都","city":"国立市","address":"国立市西1-12-26","lat":35.69673,"lon":139.43271},{"name":"東京都多摩障害者スポーツセンター","province":"東京都","city":"国立市","address":"国立市富士見台2-1-1","lat":35.6866,"lon":139.44635},{"name":"東京都多摩障害者スポーツセンター","province":"東京都","city":"国立市","address":"国立市富士見台2-1-1","lat":35.686521,"lon":139.446565},{"name":"＊?くにたち中央図書館","province":"東京都","city":"国立市","address":"国立市富士見台2-34","lat":35.685151,"lon":139.444416},{"name":"＊?くにたち中央図書館青柳分室","province":"東京都","city":"国立市","address":"国立市青柳244","lat":35.683198,"lon":139.423542},{"name":"＊?くにたち中央図書館谷保東分室","province":"東京都","city":"国立市","address":"国立市谷保135-1","lat":35.686397,"lon":139.430056},{"name":"＊?くにたち中央図書館下谷保分室","province":"東京都","city":"国立市","address":"国立市谷保5066","lat":35.679625,"lon":139.448808},{"name":"＊?くにたち中央図書館南市民プラザ分室","province":"東京都","city":"国立市","address":"国立市泉2-3-21号棟1階","lat":35.674543,"lon":139.430661},{"name":"＊?くにたち中央図書館東分室","province":"東京都","city":"国立市","address":"国立市東3-18-32","lat":35.691456,"lon":139.454847},{"name":"＊?くにたち北市民プラザ図書館","province":"東京都","city":"国立市","address":"国立市北3-1-19号棟1階","lat":35.699365,"lon":139.432662},{"name":"国立市公民館","province":"東京都","city":"国立市","address":"国立市中1-15-1","lat":35.696854,"lon":139.443359},{"name":"くにたち中央図書館","province":"東京都","city":"国立市","address":"国立市富士見台2-34","lat":35.685696,"lon":139.443497},{"name":"くにたち中央図書館下谷保分室","province":"東京都","city":"国立市","address":"国立市谷保5066","lat":35.679398,"lon":139.44841},{"name":"くにたち中央図書館青柳分室","province":"東京都","city":"国立市","address":"国立市青柳244","lat":35.682404,"lon":139.423279},{"name":"くにたち中央図書館谷保東分室","province":"東京都","city":"国立市","address":"国立市谷保135-1","lat":35.674107,"lon":139.445236},{"name":"くにたち中央図書館東分室","province":"東京都","city":"国立市","address":"国立市東3-18-32","lat":35.691208,"lon":139.454071},{"name":"くにたち中央図書館南市民プラザ分室","province":"東京都","city":"国立市","address":"国立市泉2-3-21号棟1階","lat":35.674431,"lon":139.431137},{"name":"くにたち北市民プラザ図書館","province":"東京都","city":"国立市","address":"国立市北3-1-19号棟1階","lat":35.699455,"lon":139.449249},{"name":"くにたち郷土文化館","province":"東京都","city":"国立市","address":"国立市谷保6231","lat":35.679863,"lon":139.432434},{"name":"くにたち男女平等参画ステーション","province":"東京都","city":"国立市","address":"国立市谷保1705-1","lat":35.674107,"lon":139.445236},{"name":"国立市古民家","province":"東京都","city":"国立市","address":"国立市泉5-21-20","lat":35.678322,"lon":139.437744},{"name":"体育館","province":"東京都","city":"国立市","address":"国立市富士見台2-1-1","lat":35.686681,"lon":139.446549},{"name":"トレーニング室","province":"東京都","city":"国立市","address":"国立市富士見台2-1-1","lat":35.686681,"lon":139.446549},{"name":"屋内温水プール","province":"東京都","city":"国立市","address":"国立市富士見台2-1-1","lat":35.686681,"lon":139.446549},{"name":"卓球室","province":"東京都","city":"国立市","address":"国立市富士見台2-1-1","lat":35.686681,"lon":139.446549},{"name":"サウンドテーブルテニス室","province":"東京都","city":"国立市","address":"国立市富士見台2-1-1","lat":35.686681,"lon":139.446549},{"name":"健康体力相談室","province":"東京都","city":"国立市","address":"国立市富士見台2-1-1","lat":35.686681,"lon":139.446549},{"name":"矢川児童館","province":"東京都","city":"国立市","address":"国立市富士見台4-17-1","lat":35.687098,"lon":139.428503},{"name":"中央児童館","province":"東京都","city":"国立市","address":"国立市富士見台2-38-5","lat":35.687451,"lon":139.444582},{"name":"伊藤単朴墓","province":"東京都","city":"国立市","address":"東京都国立市青柳355","lat":35.686214,"lon":139.424643},{"name":"くにたち中央図書館","province":"東京都","city":"国立市","address":"東京都国立市富士見台2丁目34","lat":35.68558704,"lon":139.44378816},{"name":"くにたち北市民プラザ図書館","province":"東京都","city":"国立市","address":"東京都国立市北3丁目1-1","lat":35.69934348,"lon":139.43274974},{"name":"中央児童館","province":"東京都","city":"国立市","address":"国立市富士見台2-38-5","lat":35.68736,"lon":139.44484},{"name":"矢川児童館","province":"東京都","city":"国立市","address":"国立市富士見台4-17-65","lat":35.68743,"lon":139.42685},{"name":"西児童館","province":"東京都","city":"国立市","address":"国立市西1-12-26","lat":35.69673,"lon":139.43271},{"name":"東京都多摩障害者スポーツセンター","province":"東京都","city":"国立市","address":"国立市富士見台2-1-1","lat":35.6866,"lon":139.44635},{"name":"東京都多摩障害者スポーツセンター","province":"東京都","city":"国立市","address":"国立市富士見台2-1-1","lat":35.686521,"lon":139.446565},{"name":"＊?くにたち中央図書館","province":"東京都","city":"国立市","address":"国立市富士見台2-34","lat":35.685151,"lon":139.444416},{"name":"＊?くにたち中央図書館青柳分室","province":"東京都","city":"国立市","address":"国立市青柳244","lat":35.683198,"lon":139.423542},{"name":"＊?くにたち中央図書館谷保東分室","province":"東京都","city":"国立市","address":"国立市谷保135-1","lat":35.686397,"lon":139.430056},{"name":"＊?くにたち中央図書館下谷保分室","province":"東京都","city":"国立市","address":"国立市谷保5066","lat":35.679625,"lon":139.448808},{"name":"＊?くにたち中央図書館南市民プラザ分室","province":"東京都","city":"国立市","address":"国立市泉2-3-21号棟1階","lat":35.674543,"lon":139.430661},{"name":"＊?くにたち中央図書館東分室","province":"東京都","city":"国立市","address":"国立市東3-18-32","lat":35.691456,"lon":139.454847},{"name":"＊?くにたち北市民プラザ図書館","province":"東京都","city":"国立市","address":"国立市北3-1-19号棟1階","lat":35.699365,"lon":139.432662},{"name":"国立市公民館","province":"東京都","city":"国立市","address":"国立市中1-15-1","lat":35.696854,"lon":139.443359},{"name":"くにたち中央図書館","province":"東京都","city":"国立市","address":"国立市富士見台2-34","lat":35.685696,"lon":139.443497},{"name":"くにたち中央図書館下谷保分室","province":"東京都","city":"国立市","address":"国立市谷保5066","lat":35.679398,"lon":139.44841},{"name":"くにたち中央図書館青柳分室","province":"東京都","city":"国立市","address":"国立市青柳244","lat":35.682404,"lon":139.423279},{"name":"くにたち中央図書館谷保東分室","province":"東京都","city":"国立市","address":"国立市谷保135-1","lat":35.674107,"lon":139.445236},{"name":"くにたち中央図書館東分室","province":"東京都","city":"国立市","address":"国立市東3-18-32","lat":35.691208,"lon":139.454071},{"name":"くにたち中央図書館南市民プラザ分室","province":"東京都","city":"国立市","address":"国立市泉2-3-21号棟1階","lat":35.674431,"lon":139.431137},{"name":"くにたち北市民プラザ図書館","province":"東京都","city":"国立市","address":"国立市北3-1-19号棟1階","lat":35.699455,"lon":139.449249},{"name":"くにたち郷土文化館","province":"東京都","city":"国立市","address":"国立市谷保6231","lat":35.679863,"lon":139.432434},{"name":"くにたち男女平等参画ステーション","province":"東京都","city":"国立市","address":"国立市谷保1705-1","lat":35.674107,"lon":139.445236},{"name":"国立市古民家","province":"東京都","city":"国立市","address":"国立市泉5-21-20","lat":35.678322,"lon":139.437744},{"name":"体育館","province":"東京都","city":"国立市","address":"国立市富士見台2-1-1","lat":35.686681,"lon":139.446549},{"name":"トレーニング室","province":"東京都","city":"国立市","address":"国立市富士見台2-1-1","lat":35.686681,"lon":139.446549},{"name":"屋内温水プール","province":"東京都","city":"国立市","address":"国立市富士見台2-1-1","lat":35.686681,"lon":139.446549},{"name":"卓球室","province":"東京都","city":"国立市","address":"国立市富士見台2-1-1","lat":35.686681,"lon":139.446549},{"name":"サウンドテーブルテニス室","province":"東京都","city":"国立市","address":"国立市富士見台2-1-1","lat":35.686681,"lon":139.446549},{"name":"健康体力相談室","province":"東京都","city":"国立市","address":"国立市富士見台2-1-1","lat":35.686681,"lon":139.446549},{"name":"矢川児童館","province":"東京都","city":"国立市","address":"国立市富士見台4-17-1","lat":35.687098,"lon":139.428503},{"name":"中央児童館","province":"東京都","city":"国立市","address":"国立市富士見台2-38-5","lat":35.687451,"lon":139.444582},{"name":"伊藤単朴墓","province":"東京都","city":"国立市","address":"東京都国立市青柳355","lat":35.686214,"lon":139.424643},{"name":"くにたち中央図書館","province":"東京都","city":"国立市","address":"東京都国立市富士見台2丁目34","lat":35.68558704,"lon":139.44378816},{"name":"くにたち北市民プラザ図書館","province":"東京都","city":"国立市","address":"東京都国立市北3丁目1-1","lat":35.69934348,"lon":139.43274974},{"name":"中央児童館","province":"東京都","city":"国立市","address":"国立市富士見台2-38-5","lat":35.68736,"lon":139.44484},{"name":"矢川児童館","province":"東京都","city":"国立市","address":"国立市富士見台4-17-65","lat":35.68743,"lon":139.42685},{"name":"西児童館","province":"東京都","city":"国立市","address":"国立市西1-12-26","lat":35.69673,"lon":139.43271},{"name":"東京都多摩障害者スポーツセンター","province":"東京都","city":"国立市","address":"国立市富士見台2-1-1","lat":35.6866,"lon":139.44635},{"name":"東京都多摩障害者スポーツセンター","province":"東京都","city":"国立市","address":"国立市富士見台2-1-1","lat":35.686521,"lon":139.446565},{"name":"＊?くにたち中央図書館","province":"東京都","city":"国立市","address":"国立市富士見台2-34","lat":35.685151,"lon":139.444416},{"name":"＊?くにたち中央図書館青柳分室","province":"東京都","city":"国立市","address":"国立市青柳244","lat":35.683198,"lon":139.423542},{"name":"＊?くにたち中央図書館谷保東分室","province":"東京都","city":"国立市","address":"国立市谷保135-1","lat":35.686397,"lon":139.430056},{"name":"＊?くにたち中央図書館下谷保分室","province":"東京都","city":"国立市","address":"国立市谷保5066","lat":35.679625,"lon":139.448808},{"name":"＊?くにたち中央図書館南市民プラザ分室","province":"東京都","city":"国立市","address":"国立市泉2-3-21号棟1階","lat":35.674543,"lon":139.430661},{"name":"＊?くにたち中央図書館東分室","province":"東京都","city":"国立市","address":"国立市東3-18-32","lat":35.691456,"lon":139.454847},{"name":"＊?くにたち北市民プラザ図書館","province":"東京都","city":"国立市","address":"国立市北3-1-19号棟1階","lat":35.699365,"lon":139.432662},{"name":"国立市公民館","province":"東京都","city":"国立市","address":"国立市中1-15-1","lat":35.696854,"lon":139.443359},{"name":"くにたち中央図書館","province":"東京都","city":"国立市","address":"国立市富士見台2-34","lat":35.685696,"lon":139.443497},{"name":"くにたち中央図書館下谷保分室","province":"東京都","city":"国立市","address":"国立市谷保5066","lat":35.679398,"lon":139.44841},{"name":"くにたち中央図書館青柳分室","province":"東京都","city":"国立市","address":"国立市青柳244","lat":35.682404,"lon":139.423279},{"name":"くにたち中央図書館谷保東分室","province":"東京都","city":"国立市","address":"国立市谷保135-1","lat":35.674107,"lon":139.445236},{"name":"くにたち中央図書館東分室","province":"東京都","city":"国立市","address":"国立市東3-18-32","lat":35.691208,"lon":139.454071},{"name":"くにたち中央図書館南市民プラザ分室","province":"東京都","city":"国立市","address":"国立市泉2-3-21号棟1階","lat":35.674431,"lon":139.431137},{"name":"くにたち北市民プラザ図書館","province":"東京都","city":"国立市","address":"国立市北3-1-19号棟1階","lat":35.699455,"lon":139.449249},{"name":"くにたち郷土文化館","province":"東京都","city":"国立市","address":"国立市谷保6231","lat":35.679863,"lon":139.432434},{"name":"くにたち男女平等参画ステーション","province":"東京都","city":"国立市","address":"国立市谷保1705-1","lat":35.674107,"lon":139.445236},{"name":"国立市古民家","province":"東京都","city":"国立市","address":"国立市泉5-21-20","lat":35.678322,"lon":139.437744},{"name":"体育館","province":"東京都","city":"国立市","address":"国立市富士見台2-1-1","lat":35.686681,"lon":139.446549},{"name":"トレーニング室","province":"東京都","city":"国立市","address":"国立市富士見台2-1-1","lat":35.686681,"lon":139.446549},{"name":"屋内温水プール","province":"東京都","city":"国立市","address":"国立市富士見台2-1-1","lat":35.686681,"lon":139.446549},{"name":"卓球室","province":"東京都","city":"国立市","address":"国立市富士見台2-1-1","lat":35.686681,"lon":139.446549},{"name":"サウンドテーブルテニス室","province":"東京都","city":"国立市","address":"国立市富士見台2-1-1","lat":35.686681,"lon":139.446549},{"name":"健康体力相談室","province":"東京都","city":"国立市","address":"国立市富士見台2-1-1","lat":35.686681,"lon":139.446549},{"name":"矢川児童館","province":"東京都","city":"国立市","address":"国立市富士見台4-17-1","lat":35.687098,"lon":139.428503},{"name":"中央児童館","province":"東京都","city":"国立市","address":"国立市富士見台2-38-5","lat":35.687451,"lon":139.444582},{"name":"伊藤単朴墓","province":"東京都","city":"国立市","address":"東京都国立市青柳355","lat":35.686214,"lon":139.424643},{"name":"くにたち中央図書館","province":"東京都","city":"国立市","address":"東京都国立市富士見台2丁目34","lat":35.68558704,"lon":139.44378816},{"name":"くにたち北市民プラザ図書館","province":"東京都","city":"国立市","address":"東京都国立市北3丁目1-1","lat":35.69934348,"lon":139.43274974},{"name":"中央児童館","province":"東京都","city":"国立市","address":"国立市富士見台2-38-5","lat":35.68736,"lon":139.44484},{"name":"矢川児童館","province":"東京都","city":"国立市","address":"国立市富士見台4-17-65","lat":35.68743,"lon":139.42685},{"name":"西児童館","province":"東京都","city":"国立市","address":"国立市西1-12-26","lat":35.69673,"lon":139.43271},{"name":"東京都多摩障害者スポーツセンター","province":"東京都","city":"国立市","address":"国立市富士見台2-1-1","lat":35.6866,"lon":139.44635},{"name":"東京都多摩障害者スポーツセンター","province":"東京都","city":"国立市","address":"国立市富士見台2-1-1","lat":35.686521,"lon":139.446565},{"name":"＊?くにたち中央図書館","province":"東京都","city":"国立市","address":"国立市富士見台2-34","lat":35.685151,"lon":139.444416},{"name":"＊?くにたち中央図書館青柳分室","province":"東京都","city":"国立市","address":"国立市青柳244","lat":35.683198,"lon":139.423542},{"name":"＊?くにたち中央図書館谷保東分室","province":"東京都","city":"国立市","address":"国立市谷保135-1","lat":35.686397,"lon":139.430056},{"name":"＊?くにたち中央図書館下谷保分室","province":"東京都","city":"国立市","address":"国立市谷保5066","lat":35.679625,"lon":139.448808},{"name":"＊?くにたち中央図書館南市民プラザ分室","province":"東京都","city":"国立市","address":"国立市泉2-3-21号棟1階","lat":35.674543,"lon":139.430661},{"name":"＊?くにたち中央図書館東分室","province":"東京都","city":"国立市","address":"国立市東3-18-32","lat":35.691456,"lon":139.454847},{"name":"＊?くにたち北市民プラザ図書館","province":"東京都","city":"国立市","address":"国立市北3-1-19号棟1階","lat":35.699365,"lon":139.432662},{"name":"国立市公民館","province":"東京都","city":"国立市","address":"国立市中1-15-1","lat":35.696854,"lon":139.443359},{"name":"くにたち中央図書館","province":"東京都","city":"国立市","address":"国立市富士見台2-34","lat":35.685696,"lon":139.443497},{"name":"くにたち中央図書館下谷保分室","province":"東京都","city":"国立市","address":"国立市谷保5066","lat":35.679398,"lon":139.44841},{"name":"くにたち中央図書館青柳分室","province":"東京都","city":"国立市","address":"国立市青柳244","lat":35.682404,"lon":139.423279},{"name":"くにたち中央図書館谷保東分室","province":"東京都","city":"国立市","address":"国立市谷保135-1","lat":35.674107,"lon":139.445236},{"name":"くにたち中央図書館東分室","province":"東京都","city":"国立市","address":"国立市東3-18-32","lat":35.691208,"lon":139.454071},{"name":"くにたち中央図書館南市民プラザ分室","province":"東京都","city":"国立市","address":"国立市泉2-3-21号棟1階","lat":35.674431,"lon":139.431137},{"name":"くにたち北市民プラザ図書館","province":"東京都","city":"国立市","address":"国立市北3-1-19号棟1階","lat":35.699455,"lon":139.449249},{"name":"くにたち郷土文化館","province":"東京都","city":"国立市","address":"国立市谷保6231","lat":35.679863,"lon":139.432434},{"name":"くにたち男女平等参画ステーション","province":"東京都","city":"国立市","address":"国立市谷保1705-1","lat":35.674107,"lon":139.445236},{"name":"国立市古民家","province":"東京都","city":"国立市","address":"国立市泉5-21-20","lat":35.678322,"lon":139.437744},{"name":"体育館","province":"東京都","city":"国立市","address":"国立市富士見台2-1-1","lat":35.686681,"lon":139.446549},{"name":"トレーニング室","province":"東京都","city":"国立市","address":"国立市富士見台2-1-1","lat":35.686681,"lon":139.446549},{"name":"屋内温水プール","province":"東京都","city":"国立市","address":"国立市富士見台2-1-1","lat":35.686681,"lon":139.446549},{"name":"卓球室","province":"東京都","city":"国立市","address":"国立市富士見台2-1-1","lat":35.686681,"lon":139.446549},{"name":"サウンドテーブルテニス室","province":"東京都","city":"国立市","address":"国立市富士見台2-1-1","lat":35.686681,"lon":139.446549},{"name":"健康体力相談室","province":"東京都","city":"国立市","address":"国立市富士見台2-1-1","lat":35.686681,"lon":139.446549},{"name":"矢川児童館","province":"東京都","city":"国立市","address":"国立市富士見台4-17-1","lat":35.687098,"lon":139.428503},{"name":"中央児童館","province":"東京都","city":"国立市","address":"国立市富士見台2-38-5","lat":35.687451,"lon":139.444582},{"name":"伊藤単朴墓","province":"東京都","city":"国立市","address":"東京都国立市青柳355","lat":35.686214,"lon":139.424643},{"name":"くにたち中央図書館","province":"東京都","city":"国立市","address":"東京都国立市富士見台2丁目34","lat":35.68558704,"lon":139.44378816},{"name":"くにたち北市民プラザ図書館","province":"東京都","city":"国立市","address":"東京都国立市北3丁目1-1","lat":35.69934348,"lon":139.43274974},{"name":"中央児童館","province":"東京都","city":"国立市","address":"国立市富士見台2-38-5","lat":35.68736,"lon":139.44484},{"name":"矢川児童館","province":"東京都","city":"国立市","address":"国立市富士見台4-17-65","lat":35.68743,"lon":139.42685},{"name":"西児童館","province":"東京都","city":"国立市","address":"国立市西1-12-26","lat":35.69673,"lon":139.43271},{"name":"東京都多摩障害者スポーツセンター","province":"東京都","city":"国立市","address":"国立市富士見台2-1-1","lat":35.6866,"lon":139.44635},{"name":"東京都多摩障害者スポーツセンター","province":"東京都","city":"国立市","address":"国立市富士見台2-1-1","lat":35.686521,"lon":139.446565},{"name":"＊?くにたち中央図書館","province":"東京都","city":"国立市","address":"国立市富士見台2-34","lat":35.685151,"lon":139.444416},{"name":"＊?くにたち中央図書館青柳分室","province":"東京都","city":"国立市","address":"国立市青柳244","lat":35.683198,"lon":139.423542},{"name":"＊?くにたち中央図書館谷保東分室","province":"東京都","city":"国立市","address":"国立市谷保135-1","lat":35.686397,"lon":139.430056},{"name":"＊?くにたち中央図書館下谷保分室","province":"東京都","city":"国立市","address":"国立市谷保5066","lat":35.679625,"lon":139.448808},{"name":"＊?くにたち中央図書館南市民プラザ分室","province":"東京都","city":"国立市","address":"国立市泉2-3-21号棟1階","lat":35.674543,"lon":139.430661},{"name":"＊?くにたち中央図書館東分室","province":"東京都","city":"国立市","address":"国立市東3-18-32","lat":35.691456,"lon":139.454847},{"name":"＊?くにたち北市民プラザ図書館","province":"東京都","city":"国立市","address":"国立市北3-1-19号棟1階","lat":35.699365,"lon":139.432662},{"name":"国立市公民館","province":"東京都","city":"国立市","address":"国立市中1-15-1","lat":35.696854,"lon":139.443359},{"name":"くにたち中央図書館","province":"東京都","city":"国立市","address":"国立市富士見台2-34","lat":35.685696,"lon":139.443497},{"name":"くにたち中央図書館下谷保分室","province":"東京都","city":"国立市","address":"国立市谷保5066","lat":35.679398,"lon":139.44841},{"name":"くにたち中央図書館青柳分室","province":"東京都","city":"国立市","address":"国立市青柳244","lat":35.682404,"lon":139.423279},{"name":"くにたち中央図書館谷保東分室","province":"東京都","city":"国立市","address":"国立市谷保135-1","lat":35.674107,"lon":139.445236},{"name":"くにたち中央図書館東分室","province":"東京都","city":"国立市","address":"国立市東3-18-32","lat":35.691208,"lon":139.454071},{"name":"くにたち中央図書館南市民プラザ分室","province":"東京都","city":"国立市","address":"国立市泉2-3-21号棟1階","lat":35.674431,"lon":139.431137},{"name":"くにたち北市民プラザ図書館","province":"東京都","city":"国立市","address":"国立市北3-1-19号棟1階","lat":35.699455,"lon":139.449249},{"name":"くにたち郷土文化館","province":"東京都","city":"国立市","address":"国立市谷保6231","lat":35.679863,"lon":139.432434},{"name":"くにたち男女平等参画ステーション","province":"東京都","city":"国立市","address":"国立市谷保1705-1","lat":35.674107,"lon":139.445236},{"name":"国立市古民家","province":"東京都","city":"国立市","address":"国立市泉5-21-20","lat":35.678322,"lon":139.437744},{"name":"体育館","province":"東京都","city":"国立市","address":"国立市富士見台2-1-1","lat":35.686681,"lon":139.446549},{"name":"トレーニング室","province":"東京都","city":"国立市","address":"国立市富士見台2-1-1","lat":35.686681,"lon":139.446549},{"name":"屋内温水プール","province":"東京都","city":"国立市","address":"国立市富士見台2-1-1","lat":35.686681,"lon":139.446549},{"name":"卓球室","province":"東京都","city":"国立市","address":"国立市富士見台2-1-1","lat":35.686681,"lon":139.446549},{"name":"サウンドテーブルテニス室","province":"東京都","city":"国立市","address":"国立市富士見台2-1-1","lat":35.686681,"lon":139.446549},{"name":"健康体力相談室","province":"東京都","city":"国立市","address":"国立市富士見台2-1-1","lat":35.686681,"lon":139.446549},{"name":"矢川児童館","province":"東京都","city":"国立市","address":"国立市富士見台4-17-1","lat":35.687098,"lon":139.428503},{"name":"中央児童館","province":"東京都","city":"国立市","address":"国立市富士見台2-38-5","lat":35.687451,"lon":139.444582},{"name":"伊藤単朴墓","province":"東京都","city":"国立市","address":"東京都国立市青柳355","lat":35.686214,"lon":139.424643},{"name":"くにたち中央図書館","province":"東京都","city":"国立市","address":"東京都国立市富士見台2丁目34","lat":35.68558704,"lon":139.44378816},{"name":"くにたち北市民プラザ図書館","province":"東京都","city":"国立市","address":"東京都国立市北3丁目1-1","lat":35.69934348,"lon":139.43274974},{"name":"中央児童館","province":"東京都","city":"国立市","address":"国立市富士見台2-38-5","lat":35.68736,"lon":139.44484},{"name":"矢川児童館","province":"東京都","city":"国立市","address":"国立市富士見台4-17-65","lat":35.68743,"lon":139.42685},{"name":"西児童館","province":"東京都","city":"国立市","address":"国立市西1-12-26","lat":35.69673,"lon":139.43271},{"name":"東京都多摩障害者スポーツセンター","province":"東京都","city":"国立市","address":"国立市富士見台2-1-1","lat":35.6866,"lon":139.44635},{"name":"東京都多摩障害者スポーツセンター","province":"東京都","city":"国立市","address":"国立市富士見台2-1-1","lat":35.686521,"lon":139.446565},{"name":"＊?くにたち中央図書館","province":"東京都","city":"国立市","address":"国立市富士見台2-34","lat":35.685151,"lon":139.444416},{"name":"＊?くにたち中央図書館青柳分室","province":"東京都","city":"国立市","address":"国立市青柳244","lat":35.683198,"lon":139.423542},{"name":"＊?くにたち中央図書館谷保東分室","province":"東京都","city":"国立市","address":"国立市谷保135-1","lat":35.686397,"lon":139.430056},{"name":"＊?くにたち中央図書館下谷保分室","province":"東京都","city":"国立市","address":"国立市谷保5066","lat":35.679625,"lon":139.448808},{"name":"＊?くにたち中央図書館南市民プラザ分室","province":"東京都","city":"国立市","address":"国立市泉2-3-21号棟1階","lat":35.674543,"lon":139.430661},{"name":"＊?くにたち中央図書館東分室","province":"東京都","city":"国立市","address":"国立市東3-18-32","lat":35.691456,"lon":139.454847},{"name":"＊?くにたち北市民プラザ図書館","province":"東京都","city":"国立市","address":"国立市北3-1-19号棟1階","lat":35.699365,"lon":139.432662},{"name":"国立市公民館","province":"東京都","city":"国立市","address":"国立市中1-15-1","lat":35.696854,"lon":139.443359},{"name":"くにたち中央図書館","province":"東京都","city":"国立市","address":"国立市富士見台2-34","lat":35.685696,"lon":139.443497},{"name":"くにたち中央図書館下谷保分室","province":"東京都","city":"国立市","address":"国立市谷保5066","lat":35.679398,"lon":139.44841},{"name":"くにたち中央図書館青柳分室","province":"東京都","city":"国立市","address":"国立市青柳244","lat":35.682404,"lon":139.423279},{"name":"くにたち中央図書館谷保東分室","province":"東京都","city":"国立市","address":"国立市谷保135-1","lat":35.674107,"lon":139.445236},{"name":"くにたち中央図書館東分室","province":"東京都","city":"国立市","address":"国立市東3-18-32","lat":35.691208,"lon":139.454071},{"name":"くにたち中央図書館南市民プラザ分室","province":"東京都","city":"国立市","address":"国立市泉2-3-21号棟1階","lat":35.674431,"lon":139.431137},{"name":"くにたち北市民プラザ図書館","province":"東京都","city":"国立市","address":"国立市北3-1-19号棟1階","lat":35.699455,"lon":139.449249},{"name":"くにたち郷土文化館","province":"東京都","city":"国立市","address":"国立市谷保6231","lat":35.679863,"lon":139.432434},{"name":"くにたち男女平等参画ステーション","province":"東京都","city":"国立市","address":"国立市谷保1705-1","lat":35.674107,"lon":139.445236},{"name":"国立市古民家","province":"東京都","city":"国立市","address":"国立市泉5-21-20","lat":35.678322,"lon":139.437744},{"name":"体育館","province":"東京都","city":"国立市","address":"国立市富士見台2-1-1","lat":35.686681,"lon":139.446549},{"name":"トレーニング室","province":"東京都","city":"国立市","address":"国立市富士見台2-1-1","lat":35.686681,"lon":139.446549},{"name":"屋内温水プール","province":"東京都","city":"国立市","address":"国立市富士見台2-1-1","lat":35.686681,"lon":139.446549},{"name":"卓球室","province":"東京都","city":"国立市","address":"国立市富士見台2-1-1","lat":35.686681,"lon":139.446549},{"name":"サウンドテーブルテニス室","province":"東京都","city":"国立市","address":"国立市富士見台2-1-1","lat":35.686681,"lon":139.446549},{"name":"健康体力相談室","province":"東京都","city":"国立市","address":"国立市富士見台2-1-1","lat":35.686681,"lon":139.446549},{"name":"矢川児童館","province":"東京都","city":"国立市","address":"国立市富士見台4-17-1","lat":35.687098,"lon":139.428503},{"name":"中央児童館","province":"東京都","city":"国立市","address":"国立市富士見台2-38-5","lat":35.687451,"lon":139.444582},{"name":"伊藤単朴墓","province":"東京都","city":"国立市","address":"東京都国立市青柳355","lat":35.686214,"lon":139.424643},{"name":"くにたち中央図書館","province":"東京都","city":"国立市","address":"東京都国立市富士見台2丁目34","lat":35.68558704,"lon":139.44378816},{"name":"くにたち北市民プラザ図書館","province":"東京都","city":"国立市","address":"東京都国立市北3丁目1-1","lat":35.69934348,"lon":139.43274974},{"name":"中央児童館","province":"東京都","city":"国立市","address":"国立市富士見台2-38-5","lat":35.68736,"lon":139.44484},{"name":"矢川児童館","province":"東京都","city":"国立市","address":"国立市富士見台4-17-65","lat":35.68743,"lon":139.42685},{"name":"西児童館","province":"東京都","city":"国立市","address":"国立市西1-12-26","lat":35.69673,"lon":139.43271},{"name":"東京都多摩障害者スポーツセンター","province":"東京都","city":"国立市","address":"国立市富士見台2-1-1","lat":35.6866,"lon":139.44635},{"name":"東京都多摩障害者スポーツセンター","province":"東京都","city":"国立市","address":"国立市富士見台2-1-1","lat":35.686521,"lon":139.446565},{"name":"＊?くにたち中央図書館","province":"東京都","city":"国立市","address":"国立市富士見台2-34","lat":35.685151,"lon":139.444416},{"name":"＊?くにたち中央図書館青柳分室","province":"東京都","city":"国立市","address":"国立市青柳244","lat":35.683198,"lon":139.423542},{"name":"＊?くにたち中央図書館谷保東分室","province":"東京都","city":"国立市","address":"国立市谷保135-1","lat":35.686397,"lon":139.430056},{"name":"＊?くにたち中央図書館下谷保分室","province":"東京都","city":"国立市","address":"国立市谷保5066","lat":35.679625,"lon":139.448808},{"name":"＊?くにたち中央図書館南市民プラザ分室","province":"東京都","city":"国立市","address":"国立市泉2-3-21号棟1階","lat":35.674543,"lon":139.430661},{"name":"＊?くにたち中央図書館東分室","province":"東京都","city":"国立市","address":"国立市東3-18-32","lat":35.691456,"lon":139.454847},{"name":"＊?くにたち北市民プラザ図書館","province":"東京都","city":"国立市","address":"国立市北3-1-19号棟1階","lat":35.699365,"lon":139.432662},{"name":"国立市公民館","province":"東京都","city":"国立市","address":"国立市中1-15-1","lat":35.696854,"lon":139.443359},{"name":"くにたち中央図書館","province":"東京都","city":"国立市","address":"国立市富士見台2-34","lat":35.685696,"lon":139.443497},{"name":"くにたち中央図書館下谷保分室","province":"東京都","city":"国立市","address":"国立市谷保5066","lat":35.679398,"lon":139.44841},{"name":"くにたち中央図書館青柳分室","province":"東京都","city":"国立市","address":"国立市青柳244","lat":35.682404,"lon":139.423279},{"name":"くにたち中央図書館谷保東分室","province":"東京都","city":"国立市","address":"国立市谷保135-1","lat":35.674107,"lon":139.445236},{"name":"くにたち中央図書館東分室","province":"東京都","city":"国立市","address":"国立市東3-18-32","lat":35.691208,"lon":139.454071},{"name":"くにたち中央図書館南市民プラザ分室","province":"東京都","city":"国立市","address":"国立市泉2-3-21号棟1階","lat":35.674431,"lon":139.431137},{"name":"くにたち北市民プラザ図書館","province":"東京都","city":"国立市","address":"国立市北3-1-19号棟1階","lat":35.699455,"lon":139.449249},{"name":"くにたち郷土文化館","province":"東京都","city":"国立市","address":"国立市谷保6231","lat":35.679863,"lon":139.432434},{"name":"くにたち男女平等参画ステーション","province":"東京都","city":"国立市","address":"国立市谷保1705-1","lat":35.674107,"lon":139.445236},{"name":"国立市古民家","province":"東京都","city":"国立市","address":"国立市泉5-21-20","lat":35.678322,"lon":139.437744},{"name":"体育館","province":"東京都","city":"国立市","address":"国立市富士見台2-1-1","lat":35.686681,"lon":139.446549},{"name":"トレーニング室","province":"東京都","city":"国立市","address":"国立市富士見台2-1-1","lat":35.686681,"lon":139.446549},{"name":"屋内温水プール","province":"東京都","city":"国立市","address":"国立市富士見台2-1-1","lat":35.686681,"lon":139.446549},{"name":"卓球室","province":"東京都","city":"国立市","address":"国立市富士見台2-1-1","lat":35.686681,"lon":139.446549},{"name":"サウンドテーブルテニス室","province":"東京都","city":"国立市","address":"国立市富士見台2-1-1","lat":35.686681,"lon":139.446549},{"name":"健康体力相談室","province":"東京都","city":"国立市","address":"国立市富士見台2-1-1","lat":35.686681,"lon":139.446549},{"name":"矢川児童館","province":"東京都","city":"国立市","address":"国立市富士見台4-17-1","lat":35.687098,"lon":139.428503},{"name":"中央児童館","province":"東京都","city":"国立市","address":"国立市富士見台2-38-5","lat":35.687451,"lon":139.444582},{"name":"伊藤単朴墓","province":"東京都","city":"国立市","address":"東京都国立市青柳355","lat":35.686214,"lon":139.424643},{"name":"くにたち中央図書館","province":"東京都","city":"国立市","address":"東京都国立市富士見台2丁目34","lat":35.68558704,"lon":139.44378816},{"name":"くにたち北市民プラザ図書館","province":"東京都","city":"国立市","address":"東京都国立市北3丁目1-1","lat":35.69934348,"lon":139.43274974},{"name":"中央児童館","province":"東京都","city":"国立市","address":"国立市富士見台2-38-5","lat":35.68736,"lon":139.44484},{"name":"矢川児童館","province":"東京都","city":"国立市","address":"国立市富士見台4-17-65","lat":35.68743,"lon":139.42685},{"name":"西児童館","province":"東京都","city":"国立市","address":"国立市西1-12-26","lat":35.69673,"lon":139.43271},{"name":"東京都多摩障害者スポーツセンター","province":"東京都","city":"国立市","address":"国立市富士見台2-1-1","lat":35.6866,"lon":139.44635},{"name":"東京都多摩障害者スポーツセンター","province":"東京都","city":"国立市","address":"国立市富士見台2-1-1","lat":35.686521,"lon":139.446565},{"name":"＊?くにたち中央図書館","province":"東京都","city":"国立市","address":"国立市富士見台2-34","lat":35.685151,"lon":139.444416},{"name":"＊?くにたち中央図書館青柳分室","province":"東京都","city":"国立市","address":"国立市青柳244","lat":35.683198,"lon":139.423542},{"name":"＊?くにたち中央図書館谷保東分室","province":"東京都","city":"国立市","address":"国立市谷保135-1","lat":35.686397,"lon":139.430056},{"name":"＊?くにたち中央図書館下谷保分室","province":"東京都","city":"国立市","address":"国立市谷保5066","lat":35.679625,"lon":139.448808},{"name":"＊?くにたち中央図書館南市民プラザ分室","province":"東京都","city":"国立市","address":"国立市泉2-3-21号棟1階","lat":35.674543,"lon":139.430661},{"name":"＊?くにたち中央図書館東分室","province":"東京都","city":"国立市","address":"国立市東3-18-32","lat":35.691456,"lon":139.454847},{"name":"＊?くにたち北市民プラザ図書館","province":"東京都","city":"国立市","address":"国立市北3-1-19号棟1階","lat":35.699365,"lon":139.432662},{"name":"国立市公民館","province":"東京都","city":"国立市","address":"国立市中1-15-1","lat":35.696854,"lon":139.443359},{"name":"くにたち中央図書館","province":"東京都","city":"国立市","address":"国立市富士見台2-34","lat":35.685696,"lon":139.443497},{"name":"くにたち中央図書館下谷保分室","province":"東京都","city":"国立市","address":"国立市谷保5066","lat":35.679398,"lon":139.44841},{"name":"くにたち中央図書館青柳分室","province":"東京都","city":"国立市","address":"国立市青柳244","lat":35.682404,"lon":139.423279},{"name":"くにたち中央図書館谷保東分室","province":"東京都","city":"国立市","address":"国立市谷保135-1","lat":35.674107,"lon":139.445236},{"name":"くにたち中央図書館東分室","province":"東京都","city":"国立市","address":"国立市東3-18-32","lat":35.691208,"lon":139.454071},{"name":"くにたち中央図書館南市民プラザ分室","province":"東京都","city":"国立市","address":"国立市泉2-3-21号棟1階","lat":35.674431,"lon":139.431137},{"name":"くにたち北市民プラザ図書館","province":"東京都","city":"国立市","address":"国立市北3-1-19号棟1階","lat":35.699455,"lon":139.449249},{"name":"くにたち郷土文化館","province":"東京都","city":"国立市","address":"国立市谷保6231","lat":35.679863,"lon":139.432434},{"name":"くにたち男女平等参画ステーション","province":"東京都","city":"国立市","address":"国立市谷保1705-1","lat":35.674107,"lon":139.445236},{"name":"国立市古民家","province":"東京都","city":"国立市","address":"国立市泉5-21-20","lat":35.678322,"lon":139.437744},{"name":"体育館","province":"東京都","city":"国立市","address":"国立市富士見台2-1-1","lat":35.686681,"lon":139.446549},{"name":"トレーニング室","province":"東京都","city":"国立市","address":"国立市富士見台2-1-1","lat":35.686681,"lon":139.446549},{"name":"屋内温水プール","province":"東京都","city":"国立市","address":"国立市富士見台2-1-1","lat":35.686681,"lon":139.446549},{"name":"卓球室","province":"東京都","city":"国立市","address":"国立市富士見台2-1-1","lat":35.686681,"lon":139.446549},{"name":"サウンドテーブルテニス室","province":"東京都","city":"国立市","address":"国立市富士見台2-1-1","lat":35.686681,"lon":139.446549},{"name":"健康体力相談室","province":"東京都","city":"国立市","address":"国立市富士見台2-1-1","lat":35.686681,"lon":139.446549},{"name":"矢川児童館","province":"東京都","city":"国立市","address":"国立市富士見台4-17-1","lat":35.687098,"lon":139.428503},{"name":"中央児童館","province":"東京都","city":"国立市","address":"国立市富士見台2-38-5","lat":35.687451,"lon":139.444582},{"name":"伊藤単朴墓","province":"東京都","city":"国立市","address":"東京都国立市青柳355","lat":35.686214,"lon":139.424643},{"name":"くにたち中央図書館","province":"東京都","city":"国立市","address":"東京都国立市富士見台2丁目34","lat":35.68558704,"lon":139.44378816},{"name":"くにたち北市民プラザ図書館","province":"東京都","city":"国立市","address":"東京都国立市北3丁目1-1","lat":35.69934348,"lon":139.43274974},{"name":"中央児童館","province":"東京都","city":"国立市","address":"国立市富士見台2-38-5","lat":35.68736,"lon":139.44484},{"name":"矢川児童館","province":"東京都","city":"国立市","address":"国立市富士見台4-17-65","lat":35.68743,"lon":139.42685},{"name":"西児童館","province":"東京都","city":"国立市","address":"国立市西1-12-26","lat":35.69673,"lon":139.43271},{"name":"東京都多摩障害者スポーツセンター","province":"東京都","city":"国立市","address":"国立市富士見台2-1-1","lat":35.6866,"lon":139.44635},{"name":"東京都多摩障害者スポーツセンター","province":"東京都","city":"国立市","address":"国立市富士見台2-1-1","lat":35.686521,"lon":139.446565},{"name":"＊?くにたち中央図書館","province":"東京都","city":"国立市","address":"国立市富士見台2-34","lat":35.685151,"lon":139.444416},{"name":"＊?くにたち中央図書館青柳分室","province":"東京都","city":"国立市","address":"国立市青柳244","lat":35.683198,"lon":139.423542},{"name":"＊?くにたち中央図書館谷保東分室","province":"東京都","city":"国立市","address":"国立市谷保135-1","lat":35.686397,"lon":139.430056},{"name":"＊?くにたち中央図書館下谷保分室","province":"東京都","city":"国立市","address":"国立市谷保5066","lat":35.679625,"lon":139.448808},{"name":"＊?くにたち中央図書館南市民プラザ分室","province":"東京都","city":"国立市","address":"国立市泉2-3-21号棟1階","lat":35.674543,"lon":139.430661},{"name":"＊?くにたち中央図書館東分室","province":"東京都","city":"国立市","address":"国立市東3-18-32","lat":35.691456,"lon":139.454847},{"name":"＊?くにたち北市民プラザ図書館","province":"東京都","city":"国立市","address":"国立市北3-1-19号棟1階","lat":35.699365,"lon":139.432662},{"name":"国立市公民館","province":"東京都","city":"国立市","address":"国立市中1-15-1","lat":35.696854,"lon":139.443359},{"name":"くにたち中央図書館","province":"東京都","city":"国立市","address":"国立市富士見台2-34","lat":35.685696,"lon":139.443497},{"name":"くにたち中央図書館下谷保分室","province":"東京都","city":"国立市","address":"国立市谷保5066","lat":35.679398,"lon":139.44841},{"name":"くにたち中央図書館青柳分室","province":"東京都","city":"国立市","address":"国立市青柳244","lat":35.682404,"lon":139.423279},{"name":"くにたち中央図書館谷保東分室","province":"東京都","city":"国立市","address":"国立市谷保135-1","lat":35.674107,"lon":139.445236},{"name":"くにたち中央図書館東分室","province":"東京都","city":"国立市","address":"国立市東3-18-32","lat":35.691208,"lon":139.454071},{"name":"くにたち中央図書館南市民プラザ分室","province":"東京都","city":"国立市","address":"国立市泉2-3-21号棟1階","lat":35.674431,"lon":139.431137},{"name":"くにたち北市民プラザ図書館","province":"東京都","city":"国立市","address":"国立市北3-1-19号棟1階","lat":35.699455,"lon":139.449249},{"name":"くにたち郷土文化館","province":"東京都","city":"国立市","address":"国立市谷保6231","lat":35.679863,"lon":139.432434},{"name":"くにたち男女平等参画ステーション","province":"東京都","city":"国立市","address":"国立市谷保1705-1","lat":35.674107,"lon":139.445236},{"name":"国立市古民家","province":"東京都","city":"国立市","address":"国立市泉5-21-20","lat":35.678322,"lon":139.437744},{"name":"体育館","province":"東京都","city":"国立市","address":"国立市富士見台2-1-1","lat":35.686681,"lon":139.446549},{"name":"トレーニング室","province":"東京都","city":"国立市","address":"国立市富士見台2-1-1","lat":35.686681,"lon":139.446549},{"name":"屋内温水プール","province":"東京都","city":"国立市","address":"国立市富士見台2-1-1","lat":35.686681,"lon":139.446549},{"name":"卓球室","province":"東京都","city":"国立市","address":"国立市富士見台2-1-1","lat":35.686681,"lon":139.446549},{"name":"サウンドテーブルテニス室","province":"東京都","city":"国立市","address":"国立市富士見台2-1-1","lat":35.686681,"lon":139.446549},{"name":"健康体力相談室","province":"東京都","city":"国立市","address":"国立市富士見台2-1-1","lat":35.686681,"lon":139.446549},{"name":"矢川児童館","province":"東京都","city":"国立市","address":"国立市富士見台4-17-1","lat":35.687098,"lon":139.428503},{"name":"中央児童館","province":"東京都","city":"国立市","address":"国立市富士見台2-38-5","lat":35.687451,"lon":139.444582},{"name":"伊藤単朴墓","province":"東京都","city":"国立市","address":"東京都国立市青柳355","lat":35.686214,"lon":139.424643},{"name":"くにたち中央図書館","province":"東京都","city":"国立市","address":"東京都国立市富士見台2丁目34","lat":35.68558704,"lon":139.44378816},{"name":"くにたち北市民プラザ図書館","province":"東京都","city":"国立市","address":"東京都国立市北3丁目1-1","lat":35.69934348,"lon":139.43274974},{"name":"中央児童館","province":"東京都","city":"国立市","address":"国立市富士見台2-38-5","lat":35.68736,"lon":139.44484},{"name":"矢川児童館","province":"東京都","city":"国立市","address":"国立市富士見台4-17-65","lat":35.68743,"lon":139.42685},{"name":"西児童館","province":"東京都","city":"国立市","address":"国立市西1-12-26","lat":35.69673,"lon":139.43271},{"name":"東京都多摩障害者スポーツセンター","province":"東京都","city":"国立市","address":"国立市富士見台2-1-1","lat":35.6866,"lon":139.44635},{"name":"東京都多摩障害者スポーツセンター","province":"東京都","city":"国立市","address":"国立市富士見台2-1-1","lat":35.686521,"lon":139.446565},{"name":"＊?くにたち中央図書館","province":"東京都","city":"国立市","address":"国立市富士見台2-34","lat":35.685151,"lon":139.444416},{"name":"＊?くにたち中央図書館青柳分室","province":"東京都","city":"国立市","address":"国立市青柳244","lat":35.683198,"lon":139.423542},{"name":"＊?くにたち中央図書館谷保東分室","province":"東京都","city":"国立市","address":"国立市谷保135-1","lat":35.686397,"lon":139.430056},{"name":"＊?くにたち中央図書館下谷保分室","province":"東京都","city":"国立市","address":"国立市谷保5066","lat":35.679625,"lon":139.448808},{"name":"＊?くにたち中央図書館南市民プラザ分室","province":"東京都","city":"国立市","address":"国立市泉2-3-21号棟1階","lat":35.674543,"lon":139.430661},{"name":"＊?くにたち中央図書館東分室","province":"東京都","city":"国立市","address":"国立市東3-18-32","lat":35.691456,"lon":139.454847},{"name":"＊?くにたち北市民プラザ図書館","province":"東京都","city":"国立市","address":"国立市北3-1-19号棟1階","lat":35.699365,"lon":139.432662},{"name":"国立市公民館","province":"東京都","city":"国立市","address":"国立市中1-15-1","lat":35.696854,"lon":139.443359},{"name":"くにたち中央図書館","province":"東京都","city":"国立市","address":"国立市富士見台2-34","lat":35.685696,"lon":139.443497},{"name":"くにたち中央図書館下谷保分室","province":"東京都","city":"国立市","address":"国立市谷保5066","lat":35.679398,"lon":139.44841},{"name":"くにたち中央図書館青柳分室","province":"東京都","city":"国立市","address":"国立市青柳244","lat":35.682404,"lon":139.423279},{"name":"くにたち中央図書館谷保東分室","province":"東京都","city":"国立市","address":"国立市谷保135-1","lat":35.674107,"lon":139.445236},{"name":"くにたち中央図書館東分室","province":"東京都","city":"国立市","address":"国立市東3-18-32","lat":35.691208,"lon":139.454071},{"name":"くにたち中央図書館南市民プラザ分室","province":"東京都","city":"国立市","address":"国立市泉2-3-21号棟1階","lat":35.674431,"lon":139.431137},{"name":"くにたち北市民プラザ図書館","province":"東京都","city":"国立市","address":"国立市北3-1-19号棟1階","lat":35.699455,"lon":139.449249},{"name":"くにたち郷土文化館","province":"東京都","city":"国立市","address":"国立市谷保6231","lat":35.679863,"lon":139.432434},{"name":"くにたち男女平等参画ステーション","province":"東京都","city":"国立市","address":"国立市谷保1705-1","lat":35.674107,"lon":139.445236},{"name":"国立市古民家","province":"東京都","city":"国立市","address":"国立市泉5-21-20","lat":35.678322,"lon":139.437744},{"name":"体育館","province":"東京都","city":"国立市","address":"国立市富士見台2-1-1","lat":35.686681,"lon":139.446549},{"name":"トレーニング室","province":"東京都","city":"国立市","address":"国立市富士見台2-1-1","lat":35.686681,"lon":139.446549},{"name":"屋内温水プール","province":"東京都","city":"国立市","address":"国立市富士見台2-1-1","lat":35.686681,"lon":139.446549},{"name":"卓球室","province":"東京都","city":"国立市","address":"国立市富士見台2-1-1","lat":35.686681,"lon":139.446549},{"name":"サウンドテーブルテニス室","province":"東京都","city":"国立市","address":"国立市富士見台2-1-1","lat":35.686681,"lon":139.446549},{"name":"健康体力相談室","province":"東京都","city":"国立市","address":"国立市富士見台2-1-1","lat":35.686681,"lon":139.446549},{"name":"矢川児童館","province":"東京都","city":"国立市","address":"国立市富士見台4-17-1","lat":35.687098,"lon":139.428503},{"name":"中央児童館","province":"東京都","city":"国立市","address":"国立市富士見台2-38-5","lat":35.687451,"lon":139.444582},{"name":"伊藤単朴墓","province":"東京都","city":"国立市","address":"東京都国立市青柳355","lat":35.686214,"lon":139.424643},{"name":"くにたち中央図書館","province":"東京都","city":"国立市","address":"東京都国立市富士見台2丁目34","lat":35.68558704,"lon":139.44378816},{"name":"くにたち北市民プラザ図書館","province":"東京都","city":"国立市","address":"東京都国立市北3丁目1-1","lat":35.69934348,"lon":139.43274974},{"name":"中央児童館","province":"東京都","city":"国立市","address":"国立市富士見台2-38-5","lat":35.68736,"lon":139.44484},{"name":"矢川児童館","province":"東京都","city":"国立市","address":"国立市富士見台4-17-65","lat":35.68743,"lon":139.42685},{"name":"西児童館","province":"東京都","city":"国立市","address":"国立市西1-12-26","lat":35.69673,"lon":139.43271},{"name":"東京都多摩障害者スポーツセンター","province":"東京都","city":"国立市","address":"国立市富士見台2-1-1","lat":35.6866,"lon":139.44635},{"name":"東京都多摩障害者スポーツセンター","province":"東京都","city":"国立市","address":"国立市富士見台2-1-1","lat":35.686521,"lon":139.446565},{"name":"＊?くにたち中央図書館","province":"東京都","city":"国立市","address":"国立市富士見台2-34","lat":35.685151,"lon":139.444416},{"name":"＊?くにたち中央図書館青柳分室","province":"東京都","city":"国立市","address":"国立市青柳244","lat":35.683198,"lon":139.423542},{"name":"＊?くにたち中央図書館谷保東分室","province":"東京都","city":"国立市","address":"国立市谷保135-1","lat":35.686397,"lon":139.430056},{"name":"＊?くにたち中央図書館下谷保分室","province":"東京都","city":"国立市","address":"国立市谷保5066","lat":35.679625,"lon":139.448808},{"name":"＊?くにたち中央図書館南市民プラザ分室","province":"東京都","city":"国立市","address":"国立市泉2-3-21号棟1階","lat":35.674543,"lon":139.430661},{"name":"＊?くにたち中央図書館東分室","province":"東京都","city":"国立市","address":"国立市東3-18-32","lat":35.691456,"lon":139.454847},{"name":"＊?くにたち北市民プラザ図書館","province":"東京都","city":"国立市","address":"国立市北3-1-19号棟1階","lat":35.699365,"lon":139.432662},{"name":"国立市公民館","province":"東京都","city":"国立市","address":"国立市中1-15-1","lat":35.696854,"lon":139.443359},{"name":"くにたち中央図書館","province":"東京都","city":"国立市","address":"国立市富士見台2-34","lat":35.685696,"lon":139.443497},{"name":"くにたち中央図書館下谷保分室","province":"東京都","city":"国立市","address":"国立市谷保5066","lat":35.679398,"lon":139.44841},{"name":"くにたち中央図書館青柳分室","province":"東京都","city":"国立市","address":"国立市青柳244","lat":35.682404,"lon":139.423279},{"name":"くにたち中央図書館谷保東分室","province":"東京都","city":"国立市","address":"国立市谷保135-1","lat":35.674107,"lon":139.445236},{"name":"くにたち中央図書館東分室","province":"東京都","city":"国立市","address":"国立市東3-18-32","lat":35.691208,"lon":139.454071},{"name":"くにたち中央図書館南市民プラザ分室","province":"東京都","city":"国立市","address":"国立市泉2-3-21号棟1階","lat":35.674431,"lon":139.431137},{"name":"くにたち北市民プラザ図書館","province":"東京都","city":"国立市","address":"国立市北3-1-19号棟1階","lat":35.699455,"lon":139.449249},{"name":"くにたち郷土文化館","province":"東京都","city":"国立市","address":"国立市谷保6231","lat":35.679863,"lon":139.432434},{"name":"くにたち男女平等参画ステーション","province":"東京都","city":"国立市","address":"国立市谷保1705-1","lat":35.674107,"lon":139.445236},{"name":"国立市古民家","province":"東京都","city":"国立市","address":"国立市泉5-21-20","lat":35.678322,"lon":139.437744},{"name":"体育館","province":"東京都","city":"国立市","address":"国立市富士見台2-1-1","lat":35.686681,"lon":139.446549},{"name":"トレーニング室","province":"東京都","city":"国立市","address":"国立市富士見台2-1-1","lat":35.686681,"lon":139.446549},{"name":"屋内温水プール","province":"東京都","city":"国立市","address":"国立市富士見台2-1-1","lat":35.686681,"lon":139.446549},{"name":"卓球室","province":"東京都","city":"国立市","address":"国立市富士見台2-1-1","lat":35.686681,"lon":139.446549},{"name":"サウンドテーブルテニス室","province":"東京都","city":"国立市","address":"国立市富士見台2-1-1","lat":35.686681,"lon":139.446549},{"name":"健康体力相談室","province":"東京都","city":"国立市","address":"国立市富士見台2-1-1","lat":35.686681,"lon":139.446549},{"name":"矢川児童館","province":"東京都","city":"国立市","address":"国立市富士見台4-17-1","lat":35.687098,"lon":139.428503},{"name":"中央児童館","province":"東京都","city":"国立市","address":"国立市富士見台2-38-5","lat":35.687451,"lon":139.444582},{"name":"伊藤単朴墓","province":"東京都","city":"国立市","address":"東京都国立市青柳355","lat":35.686214,"lon":139.424643},{"name":"くにたち中央図書館","province":"東京都","city":"国立市","address":"東京都国立市富士見台2丁目34","lat":35.68558704,"lon":139.44378816},{"name":"くにたち北市民プラザ図書館","province":"東京都","city":"国立市","address":"東京都国立市北3丁目1-1","lat":35.69934348,"lon":139.43274974},{"name":"中央児童館","province":"東京都","city":"国立市","address":"国立市富士見台2-38-5","lat":35.68736,"lon":139.44484},{"name":"矢川児童館","province":"東京都","city":"国立市","address":"国立市富士見台4-17-65","lat":35.68743,"lon":139.42685},{"name":"西児童館","province":"東京都","city":"国立市","address":"国立市西1-12-26","lat":35.69673,"lon":139.43271},{"name":"東京都多摩障害者スポーツセンター","province":"東京都","city":"国立市","address":"国立市富士見台2-1-1","lat":35.6866,"lon":139.44635},{"name":"東京都多摩障害者スポーツセンター","province":"東京都","city":"国立市","address":"国立市富士見台2-1-1","lat":35.686521,"lon":139.446565},{"name":"＊?くにたち中央図書館","province":"東京都","city":"国立市","address":"国立市富士見台2-34","lat":35.685151,"lon":139.444416},{"name":"＊?くにたち中央図書館青柳分室","province":"東京都","city":"国立市","address":"国立市青柳244","lat":35.683198,"lon":139.423542},{"name":"＊?くにたち中央図書館谷保東分室","province":"東京都","city":"国立市","address":"国立市谷保135-1","lat":35.686397,"lon":139.430056},{"name":"＊?くにたち中央図書館下谷保分室","province":"東京都","city":"国立市","address":"国立市谷保5066","lat":35.679625,"lon":139.448808},{"name":"＊?くにたち中央図書館南市民プラザ分室","province":"東京都","city":"国立市","address":"国立市泉2-3-21号棟1階","lat":35.674543,"lon":139.430661},{"name":"＊?くにたち中央図書館東分室","province":"東京都","city":"国立市","address":"国立市東3-18-32","lat":35.691456,"lon":139.454847},{"name":"＊?くにたち北市民プラザ図書館","province":"東京都","city":"国立市","address":"国立市北3-1-19号棟1階","lat":35.699365,"lon":139.432662},{"name":"国立市公民館","province":"東京都","city":"国立市","address":"国立市中1-15-1","lat":35.696854,"lon":139.443359},{"name":"くにたち中央図書館","province":"東京都","city":"国立市","address":"国立市富士見台2-34","lat":35.685696,"lon":139.443497},{"name":"くにたち中央図書館下谷保分室","province":"東京都","city":"国立市","address":"国立市谷保5066","lat":35.679398,"lon":139.44841},{"name":"くにたち中央図書館青柳分室","province":"東京都","city":"国立市","address":"国立市青柳244","lat":35.682404,"lon":139.423279},{"name":"くにたち中央図書館谷保東分室","province":"東京都","city":"国立市","address":"国立市谷保135-1","lat":35.674107,"lon":139.445236},{"name":"くにたち中央図書館東分室","province":"東京都","city":"国立市","address":"国立市東3-18-32","lat":35.691208,"lon":139.454071},{"name":"くにたち中央図書館南市民プラザ分室","province":"東京都","city":"国立市","address":"国立市泉2-3-21号棟1階","lat":35.674431,"lon":139.431137},{"name":"くにたち北市民プラザ図書館","province":"東京都","city":"国立市","address":"国立市北3-1-19号棟1階","lat":35.699455,"lon":139.449249},{"name":"くにたち郷土文化館","province":"東京都","city":"国立市","address":"国立市谷保6231","lat":35.679863,"lon":139.432434},{"name":"くにたち男女平等参画ステーション","province":"東京都","city":"国立市","address":"国立市谷保1705-1","lat":35.674107,"lon":139.445236},{"name":"国立市古民家","province":"東京都","city":"国立市","address":"国立市泉5-21-20","lat":35.678322,"lon":139.437744},{"name":"体育館","province":"東京都","city":"国立市","address":"国立市富士見台2-1-1","lat":35.686681,"lon":139.446549},{"name":"トレーニング室","province":"東京都","city":"国立市","address":"国立市富士見台2-1-1","lat":35.686681,"lon":139.446549},{"name":"屋内温水プール","province":"東京都","city":"国立市","address":"国立市富士見台2-1-1","lat":35.686681,"lon":139.446549},{"name":"卓球室","province":"東京都","city":"国立市","address":"国立市富士見台2-1-1","lat":35.686681,"lon":139.446549},{"name":"サウンドテーブルテニス室","province":"東京都","city":"国立市","address":"国立市富士見台2-1-1","lat":35.686681,"lon":139.446549},{"name":"健康体力相談室","province":"東京都","city":"国立市","address":"国立市富士見台2-1-1","lat":35.686681,"lon":139.446549},{"name":"矢川児童館","province":"東京都","city":"国立市","address":"国立市富士見台4-17-1","lat":35.687098,"lon":139.428503},{"name":"中央児童館","province":"東京都","city":"国立市","address":"国立市富士見台2-38-5","lat":35.687451,"lon":139.444582},{"name":"伊藤単朴墓","province":"東京都","city":"国立市","address":"東京都国立市青柳355","lat":35.686214,"lon":139.424643},{"name":"くにたち中央図書館","province":"東京都","city":"国立市","address":"東京都国立市富士見台2丁目34","lat":35.68558704,"lon":139.44378816},{"name":"くにたち北市民プラザ図書館","province":"東京都","city":"国立市","address":"東京都国立市北3丁目1-1","lat":35.69934348,"lon":139.43274974},{"name":"中央児童館","province":"東京都","city":"国立市","address":"国立市富士見台2-38-5","lat":35.68736,"lon":139.44484},{"name":"矢川児童館","province":"東京都","city":"国立市","address":"国立市富士見台4-17-65","lat":35.68743,"lon":139.42685},{"name":"西児童館","province":"東京都","city":"国立市","address":"国立市西1-12-26","lat":35.69673,"lon":139.43271},{"name":"東京都多摩障害者スポーツセンター","province":"東京都","city":"国立市","address":"国立市富士見台2-1-1","lat":35.6866,"lon":139.44635},{"name":"東京都多摩障害者スポーツセンター","province":"東京都","city":"国立市","address":"国立市富士見台2-1-1","lat":35.686521,"lon":139.446565},{"name":"＊?くにたち中央図書館","province":"東京都","city":"国立市","address":"国立市富士見台2-34","lat":35.685151,"lon":139.444416},{"name":"＊?くにたち中央図書館青柳分室","province":"東京都","city":"国立市","address":"国立市青柳244","lat":35.683198,"lon":139.423542},{"name":"＊?くにたち中央図書館谷保東分室","province":"東京都","city":"国立市","address":"国立市谷保135-1","lat":35.686397,"lon":139.430056},{"name":"＊?くにたち中央図書館下谷保分室","province":"東京都","city":"国立市","address":"国立市谷保5066","lat":35.679625,"lon":139.448808},{"name":"＊?くにたち中央図書館南市民プラザ分室","province":"東京都","city":"国立市","address":"国立市泉2-3-21号棟1階","lat":35.674543,"lon":139.430661},{"name":"＊?くにたち中央図書館東分室","province":"東京都","city":"国立市","address":"国立市東3-18-32","lat":35.691456,"lon":139.454847},{"name":"＊?くにたち北市民プラザ図書館","province":"東京都","city":"国立市","address":"国立市北3-1-19号棟1階","lat":35.699365,"lon":139.432662},{"name":"国立市公民館","province":"東京都","city":"国立市","address":"国立市中1-15-1","lat":35.696854,"lon":139.443359},{"name":"くにたち中央図書館","province":"東京都","city":"国立市","address":"国立市富士見台2-34","lat":35.685696,"lon":139.443497},{"name":"くにたち中央図書館下谷保分室","province":"東京都","city":"国立市","address":"国立市谷保5066","lat":35.679398,"lon":139.44841},{"name":"くにたち中央図書館青柳分室","province":"東京都","city":"国立市","address":"国立市青柳244","lat":35.682404,"lon":139.423279},{"name":"くにたち中央図書館谷保東分室","province":"東京都","city":"国立市","address":"国立市谷保135-1","lat":35.674107,"lon":139.445236},{"name":"くにたち中央図書館東分室","province":"東京都","city":"国立市","address":"国立市東3-18-32","lat":35.691208,"lon":139.454071},{"name":"くにたち中央図書館南市民プラザ分室","province":"東京都","city":"国立市","address":"国立市泉2-3-21号棟1階","lat":35.674431,"lon":139.431137},{"name":"くにたち北市民プラザ図書館","province":"東京都","city":"国立市","address":"国立市北3-1-19号棟1階","lat":35.699455,"lon":139.449249},{"name":"くにたち郷土文化館","province":"東京都","city":"国立市","address":"国立市谷保6231","lat":35.679863,"lon":139.432434},{"name":"くにたち男女平等参画ステーション","province":"東京都","city":"国立市","address":"国立市谷保1705-1","lat":35.674107,"lon":139.445236},{"name":"国立市古民家","province":"東京都","city":"国立市","address":"国立市泉5-21-20","lat":35.678322,"lon":139.437744},{"name":"体育館","province":"東京都","city":"国立市","address":"国立市富士見台2-1-1","lat":35.686681,"lon":139.446549},{"name":"トレーニング室","province":"東京都","city":"国立市","address":"国立市富士見台2-1-1","lat":35.686681,"lon":139.446549},{"name":"屋内温水プール","province":"東京都","city":"国立市","address":"国立市富士見台2-1-1","lat":35.686681,"lon":139.446549},{"name":"卓球室","province":"東京都","city":"国立市","address":"国立市富士見台2-1-1","lat":35.686681,"lon":139.446549},{"name":"サウンドテーブルテニス室","province":"東京都","city":"国立市","address":"国立市富士見台2-1-1","lat":35.686681,"lon":139.446549},{"name":"健康体力相談室","province":"東京都","city":"国立市","address":"国立市富士見台2-1-1","lat":35.686681,"lon":139.446549},{"name":"矢川児童館","province":"東京都","city":"国立市","address":"国立市富士見台4-17-1","lat":35.687098,"lon":139.428503},{"name":"中央児童館","province":"東京都","city":"国立市","address":"国立市富士見台2-38-5","lat":35.687451,"lon":139.444582},{"name":"伊藤単朴墓","province":"東京都","city":"国立市","address":"東京都国立市青柳355","lat":35.686214,"lon":139.424643},{"name":"くにたち中央図書館","province":"東京都","city":"国立市","address":"東京都国立市富士見台2丁目34","lat":35.68558704,"lon":139.44378816},{"name":"くにたち北市民プラザ図書館","province":"東京都","city":"国立市","address":"東京都国立市北3丁目1-1","lat":35.69934348,"lon":139.43274974},{"name":"中央児童館","province":"東京都","city":"国立市","address":"国立市富士見台2-38-5","lat":35.68736,"lon":139.44484},{"name":"矢川児童館","province":"東京都","city":"国立市","address":"国立市富士見台4-17-65","lat":35.68743,"lon":139.42685},{"name":"西児童館","province":"東京都","city":"国立市","address":"国立市西1-12-26","lat":35.69673,"lon":139.43271},{"name":"東京都多摩障害者スポーツセンター","province":"東京都","city":"国立市","address":"国立市富士見台2-1-1","lat":35.6866,"lon":139.44635},{"name":"東京都多摩障害者スポーツセンター","province":"東京都","city":"国立市","address":"国立市富士見台2-1-1","lat":35.686521,"lon":139.446565},{"name":"＊?くにたち中央図書館","province":"東京都","city":"国立市","address":"国立市富士見台2-34","lat":35.685151,"lon":139.444416},{"name":"＊?くにたち中央図書館青柳分室","province":"東京都","city":"国立市","address":"国立市青柳244","lat":35.683198,"lon":139.423542},{"name":"＊?くにたち中央図書館谷保東分室","province":"東京都","city":"国立市","address":"国立市谷保135-1","lat":35.686397,"lon":139.430056},{"name":"＊?くにたち中央図書館下谷保分室","province":"東京都","city":"国立市","address":"国立市谷保5066","lat":35.679625,"lon":139.448808},{"name":"＊?くにたち中央図書館南市民プラザ分室","province":"東京都","city":"国立市","address":"国立市泉2-3-21号棟1階","lat":35.674543,"lon":139.430661},{"name":"＊?くにたち中央図書館東分室","province":"東京都","city":"国立市","address":"国立市東3-18-32","lat":35.691456,"lon":139.454847},{"name":"＊?くにたち北市民プラザ図書館","province":"東京都","city":"国立市","address":"国立市北3-1-19号棟1階","lat":35.699365,"lon":139.432662},{"name":"国立市公民館","province":"東京都","city":"国立市","address":"国立市中1-15-1","lat":35.696854,"lon":139.443359},{"name":"くにたち中央図書館","province":"東京都","city":"国立市","address":"国立市富士見台2-34","lat":35.685696,"lon":139.443497},{"name":"くにたち中央図書館下谷保分室","province":"東京都","city":"国立市","address":"国立市谷保5066","lat":35.679398,"lon":139.44841},{"name":"くにたち中央図書館青柳分室","province":"東京都","city":"国立市","address":"国立市青柳244","lat":35.682404,"lon":139.423279},{"name":"くにたち中央図書館谷保東分室","province":"東京都","city":"国立市","address":"国立市谷保135-1","lat":35.674107,"lon":139.445236},{"name":"くにたち中央図書館東分室","province":"東京都","city":"国立市","address":"国立市東3-18-32","lat":35.691208,"lon":139.454071},{"name":"くにたち中央図書館南市民プラザ分室","province":"東京都","city":"国立市","address":"国立市泉2-3-21号棟1階","lat":35.674431,"lon":139.431137},{"name":"くにたち北市民プラザ図書館","province":"東京都","city":"国立市","address":"国立市北3-1-19号棟1階","lat":35.699455,"lon":139.449249},{"name":"くにたち郷土文化館","province":"東京都","city":"国立市","address":"国立市谷保6231","lat":35.679863,"lon":139.432434},{"name":"くにたち男女平等参画ステーション","province":"東京都","city":"国立市","address":"国立市谷保1705-1","lat":35.674107,"lon":139.445236},{"name":"国立市古民家","province":"東京都","city":"国立市","address":"国立市泉5-21-20","lat":35.678322,"lon":139.437744},{"name":"体育館","province":"東京都","city":"国立市","address":"国立市富士見台2-1-1","lat":35.686681,"lon":139.446549},{"name":"トレーニング室","province":"東京都","city":"国立市","address":"国立市富士見台2-1-1","lat":35.686681,"lon":139.446549},{"name":"屋内温水プール","province":"東京都","city":"国立市","address":"国立市富士見台2-1-1","lat":35.686681,"lon":139.446549},{"name":"卓球室","province":"東京都","city":"国立市","address":"国立市富士見台2-1-1","lat":35.686681,"lon":139.446549},{"name":"サウンドテーブルテニス室","province":"東京都","city":"国立市","address":"国立市富士見台2-1-1","lat":35.686681,"lon":139.446549},{"name":"健康体力相談室","province":"東京都","city":"国立市","address":"国立市富士見台2-1-1","lat":35.686681,"lon":139.446549},{"name":"矢川児童館","province":"東京都","city":"国立市","address":"国立市富士見台4-17-1","lat":35.687098,"lon":139.428503},{"name":"中央児童館","province":"東京都","city":"国立市","address":"国立市富士見台2-38-5","lat":35.687451,"lon":139.444582},{"name":"伊藤単朴墓","province":"東京都","city":"国立市","address":"東京都国立市青柳355","lat":35.686214,"lon":139.424643},{"name":"くにたち中央図書館","province":"東京都","city":"国立市","address":"東京都国立市富士見台2丁目34","lat":35.68558704,"lon":139.44378816},{"name":"くにたち北市民プラザ図書館","province":"東京都","city":"国立市","address":"東京都国立市北3丁目1-1","lat":35.69934348,"lon":139.43274974},{"name":"中央児童館","province":"東京都","city":"国立市","address":"国立市富士見台2-38-5","lat":35.68736,"lon":139.44484},{"name":"矢川児童館","province":"東京都","city":"国立市","address":"国立市富士見台4-17-65","lat":35.68743,"lon":139.42685},{"name":"西児童館","province":"東京都","city":"国立市","address":"国立市西1-12-26","lat":35.69673,"lon":139.43271},{"name":"東京都多摩障害者スポーツセンター","province":"東京都","city":"国立市","address":"国立市富士見台2-1-1","lat":35.6866,"lon":139.44635},{"name":"東京都多摩障害者スポーツセンター","province":"東京都","city":"国立市","address":"国立市富士見台2-1-1","lat":35.686521,"lon":139.446565},{"name":"＊?くにたち中央図書館","province":"東京都","city":"国立市","address":"国立市富士見台2-34","lat":35.685151,"lon":139.444416},{"name":"＊?くにたち中央図書館青柳分室","province":"東京都","city":"国立市","address":"国立市青柳244","lat":35.683198,"lon":139.423542},{"name":"＊?くにたち中央図書館谷保東分室","province":"東京都","city":"国立市","address":"国立市谷保135-1","lat":35.686397,"lon":139.430056},{"name":"＊?くにたち中央図書館下谷保分室","province":"東京都","city":"国立市","address":"国立市谷保5066","lat":35.679625,"lon":139.448808},{"name":"＊?くにたち中央図書館南市民プラザ分室","province":"東京都","city":"国立市","address":"国立市泉2-3-21号棟1階","lat":35.674543,"lon":139.430661},{"name":"＊?くにたち中央図書館東分室","province":"東京都","city":"国立市","address":"国立市東3-18-32","lat":35.691456,"lon":139.454847},{"name":"＊?くにたち北市民プラザ図書館","province":"東京都","city":"国立市","address":"国立市北3-1-19号棟1階","lat":35.699365,"lon":139.432662},{"name":"国立市公民館","province":"東京都","city":"国立市","address":"国立市中1-15-1","lat":35.696854,"lon":139.443359},{"name":"くにたち中央図書館","province":"東京都","city":"国立市","address":"国立市富士見台2-34","lat":35.685696,"lon":139.443497},{"name":"くにたち中央図書館下谷保分室","province":"東京都","city":"国立市","address":"国立市谷保5066","lat":35.679398,"lon":139.44841},{"name":"くにたち中央図書館青柳分室","province":"東京都","city":"国立市","address":"国立市青柳244","lat":35.682404,"lon":139.423279},{"name":"くにたち中央図書館谷保東分室","province":"東京都","city":"国立市","address":"国立市谷保135-1","lat":35.674107,"lon":139.445236},{"name":"くにたち中央図書館東分室","province":"東京都","city":"国立市","address":"国立市東3-18-32","lat":35.691208,"lon":139.454071},{"name":"くにたち中央図書館南市民プラザ分室","province":"東京都","city":"国立市","address":"国立市泉2-3-21号棟1階","lat":35.674431,"lon":139.431137},{"name":"くにたち北市民プラザ図書館","province":"東京都","city":"国立市","address":"国立市北3-1-19号棟1階","lat":35.699455,"lon":139.449249},{"name":"くにたち郷土文化館","province":"東京都","city":"国立市","address":"国立市谷保6231","lat":35.679863,"lon":139.432434},{"name":"くにたち男女平等参画ステーション","province":"東京都","city":"国立市","address":"国立市谷保1705-1","lat":35.674107,"lon":139.445236},{"name":"国立市古民家","province":"東京都","city":"国立市","address":"国立市泉5-21-20","lat":35.678322,"lon":139.437744},{"name":"体育館","province":"東京都","city":"国立市","address":"国立市富士見台2-1-1","lat":35.686681,"lon":139.446549},{"name":"トレーニング室","province":"東京都","city":"国立市","address":"国立市富士見台2-1-1","lat":35.686681,"lon":139.446549},{"name":"屋内温水プール","province":"東京都","city":"国立市","address":"国立市富士見台2-1-1","lat":35.686681,"lon":139.446549},{"name":"卓球室","province":"東京都","city":"国立市","address":"国立市富士見台2-1-1","lat":35.686681,"lon":139.446549},{"name":"サウンドテーブルテニス室","province":"東京都","city":"国立市","address":"国立市富士見台2-1-1","lat":35.686681,"lon":139.446549},{"name":"健康体力相談室","province":"東京都","city":"国立市","address":"国立市富士見台2-1-1","lat":35.686681,"lon":139.446549}]}