{"keyword":"食堂","data":[{"name":"おいでよ。ごはんや","province":"東京都","city":"国立市","address":"東京都国立市富士見台1-17-8","lat":35.68161091,"lon":139.4472612},{"name":"カサムシカ子ども食堂","province":"東京都","city":"国立市","address":"東京都国立市中3-5-60","lat":35.68929325,"lon":139.4424981},{"name":"たまご（多孫・他孫）食堂","province":"東京都","city":"国立市","address":"東京都国立市中2-10-7","lat":35.69293411,"lon":139.4394076},{"name":"おいしいじかん","province":"東京都","city":"国立市","address":"東京都国立市富士見台2-39-1","lat":35.68761301,"lon":139.4438361},{"name":"きたまち学☆食","province":"東京都","city":"国立市","address":"東京都国立市北3-23-1","lat":35.70110454,"lon":139.4303275},{"name":"OSUSOWAKE食堂","province":"東京都","city":"国立市","address":"東京都国立市東3-18-32","lat":35.69164296,"lon":139.4547772},{"name":"ぐるぐる食堂","province":"東京都","city":"国立市","address":"東京都国立市富士見台1-8-38","lat":35.68347175,"lon":139.4490542},{"name":"ラグー","province":"東京都","city":"国立市","address":"東京都国立市中1-15-6","lat":35.69682087,"lon":139.4430095},{"name":"SOMPO流子ども食堂","province":"東京都","city":"国立市","address":"東京都国立市青柳1-21-14","lat":35.68362927,"lon":139.4256635},{"name":"くにちゃん食堂","province":"東京都","city":"国立市","address":"東京都国立市富士見台4-10-1","lat":35.68579502,"lon":139.4318817},{"name":"矢川の子がも食堂","province":"東京都","city":"国立市","address":"東京都国立市富士見台4-17-65","lat":35.68549131,"lon":139.4300278}]}