{"keyword":"館","data":[{"name":"矢川児童館","province":"東京都","city":"国立市","address":"国立市富士見台4-17-1","lat":35.687098,"lon":139.428503},{"name":"中央児童館","province":"東京都","city":"国立市","address":"国立市富士見台2-38-5","lat":35.687451,"lon":139.444582},{"name":"くにたち中央図書館","province":"東京都","city":"国立市","address":"東京都国立市富士見台2丁目34","lat":35.68558704,"lon":139.44378816},{"name":"くにたち北市民プラザ図書館","province":"東京都","city":"国立市","address":"東京都国立市北3丁目1-1","lat":35.69934348,"lon":139.43274974},{"name":"中央児童館","province":"東京都","city":"国立市","address":"国立市富士見台2-38-5","lat":35.68736,"lon":139.44484},{"name":"矢川児童館","province":"東京都","city":"国立市","address":"国立市富士見台4-17-65","lat":35.68743,"lon":139.42685},{"name":"西児童館","province":"東京都","city":"国立市","address":"国立市西1-12-26","lat":35.69673,"lon":139.43271},{"name":"＊?くにたち中央図書館","province":"東京都","city":"国立市","address":"国立市富士見台2-34","lat":35.685151,"lon":139.444416},{"name":"＊?くにたち中央図書館青柳分室","province":"東京都","city":"国立市","address":"国立市青柳244","lat":35.683198,"lon":139.423542},{"name":"＊?くにたち中央図書館谷保東分室","province":"東京都","city":"国立市","address":"国立市谷保135-1","lat":35.686397,"lon":139.430056},{"name":"＊?くにたち中央図書館下谷保分室","province":"東京都","city":"国立市","address":"国立市谷保5066","lat":35.679625,"lon":139.448808},{"name":"＊?くにたち中央図書館南市民プラザ分室","province":"東京都","city":"国立市","address":"国立市泉2-3-21号棟1階","lat":35.674543,"lon":139.430661},{"name":"＊?くにたち中央図書館東分室","province":"東京都","city":"国立市","address":"国立市東3-18-32","lat":35.691456,"lon":139.454847},{"name":"＊?くにたち北市民プラザ図書館","province":"東京都","city":"国立市","address":"国立市北3-1-19号棟1階","lat":35.699365,"lon":139.432662}]}