{"keyword":"清瀬","data":[{"name":"清瀬市立駅前図書館","province":"東京都","city":"清瀬市","address":"清瀬市元町1-4-5クレア4階","lat":35.773247,"lon":139.520493},{"name":"清瀬市立下宿図書館","province":"東京都","city":"清瀬市","address":"清瀬市下宿2-524-1下宿地域市民センター内","lat":35.798779,"lon":139.534714},{"name":"清瀬市立元町こども図書館","province":"東京都","city":"清瀬市","address":"清瀬市元町1-6-6清瀬けやきホール内","lat":35.77496,"lon":139.51918},{"name":"清瀬市立竹丘図書館","province":"東京都","city":"清瀬市","address":"清瀬市竹丘1-11-1竹丘地域市民センター内","lat":35.765816,"lon":139.511505},{"name":"清瀬市立中央図書館","province":"東京都","city":"清瀬市","address":"清瀬市梅園1-1-21","lat":35.773674,"lon":139.510666},{"name":"清瀬市立野塩図書館","province":"東京都","city":"清瀬市","address":"清瀬市野塩1-322-2野塩地域市民センター内","lat":35.776138,"lon":139.499527},{"name":"清瀬市郷土博物館","province":"東京都","city":"清瀬市","address":"清瀬市上清戸2-6-41","lat":35.780193,"lon":139.520142},{"name":"清瀬市男女共同参画センター","province":"東京都","city":"清瀬市","address":"清瀬市元町1-2-11アミュー4階","lat":35.772114,"lon":139.520966},{"name":"清瀬市生涯学習センター","province":"東京都","city":"清瀬市","address":"清瀬市元町1-2-11アミュー5~7階","lat":35.772114,"lon":139.520966},{"name":"清瀬市立科山荘","province":"長野県","city":"","address":"長野県北佐久郡立科大字芦田八ヶ野字蓼科牧場西1068","lat":36.27084,"lon":138.318283}]}