{"keyword":"男女","data":[{"name":"NewWork川崎","province":"神奈川県","city":"川崎市川崎区","address":"神奈川県川崎市川崎区駅前本町26-4","lat":35.53044432,"lon":139.69680697},{"name":"基幹的広域防災拠点（東扇島地区）","province":"神奈川県","city":"川崎市川崎区","address":"神奈川県川崎市川崎区東扇島","lat":35.50399032,"lon":139.76681013},{"name":"NewWork川崎","province":"神奈川県","city":"川崎市川崎区","address":"神奈川県川崎市川崎区駅前本町26-4","lat":35.53044432,"lon":139.69680697},{"name":"基幹的広域防災拠点（東扇島地区）","province":"神奈川県","city":"川崎市川崎区","address":"神奈川県川崎市川崎区東扇島","lat":35.50399032,"lon":139.76681013},{"name":"NewWork川崎","province":"神奈川県","city":"川崎市川崎区","address":"神奈川県川崎市川崎区駅前本町26-4","lat":35.53044432,"lon":139.69680697},{"name":"NewWork川崎","province":"神奈川県","city":"川崎市川崎区","address":"神奈川県川崎市川崎区駅前本町26-4","lat":35.53044432,"lon":139.69680697},{"name":"NewWork川崎","province":"神奈川県","city":"川崎市川崎区","address":"神奈川県川崎市川崎区駅前本町26-4","lat":35.53044432,"lon":139.69680697},{"name":"NewWork川崎","province":"神奈川県","city":"川崎市川崎区","address":"神奈川県川崎市川崎区駅前本町26-4","lat":35.53044432,"lon":139.69680697},{"name":"NewWork川崎","province":"神奈川県","city":"川崎市川崎区","address":"神奈川県川崎市川崎区駅前本町26-4","lat":35.53044432,"lon":139.69680697},{"name":"NewWork川崎","province":"神奈川県","city":"川崎市川崎区","address":"神奈川県川崎市川崎区駅前本町26-4","lat":35.53044432,"lon":139.69680697},{"name":"NewWork川崎","province":"神奈川県","city":"川崎市川崎区","address":"神奈川県川崎市川崎区駅前本町26-4","lat":35.53044432,"lon":139.69680697},{"name":"NewWork川崎","province":"神奈川県","city":"川崎市川崎区","address":"神奈川県川崎市川崎区駅前本町26-4","lat":35.53044432,"lon":139.69680697},{"name":"NewWork川崎","province":"神奈川県","city":"川崎市川崎区","address":"神奈川県川崎市川崎区駅前本町26-4","lat":35.53044432,"lon":139.69680697},{"name":"NewWork川崎","province":"神奈川県","city":"川崎市川崎区","address":"神奈川県川崎市川崎区駅前本町26-4","lat":35.53044432,"lon":139.69680697},{"name":"NewWork川崎","province":"神奈川県","city":"川崎市川崎区","address":"神奈川県川崎市川崎区駅前本町26-4","lat":35.53044432,"lon":139.69680697},{"name":"NewWork川崎","province":"神奈川県","city":"川崎市川崎区","address":"神奈川県川崎市川崎区駅前本町26-4","lat":35.53044432,"lon":139.69680697},{"name":"NewWork川崎","province":"神奈川県","city":"川崎市川崎区","address":"神奈川県川崎市川崎区駅前本町26-4","lat":35.53044432,"lon":139.69680697},{"name":"NewWork川崎","province":"神奈川県","city":"川崎市川崎区","address":"神奈川県川崎市川崎区駅前本町26-4","lat":35.53044432,"lon":139.69680697},{"name":"NewWork川崎","province":"神奈川県","city":"川崎市川崎区","address":"神奈川県川崎市川崎区駅前本町26-4","lat":35.53044432,"lon":139.69680697},{"name":"NewWork川崎","province":"神奈川県","city":"川崎市川崎区","address":"神奈川県川崎市川崎区駅前本町26-4","lat":35.53044432,"lon":139.69680697},{"name":"NewWork川崎","province":"神奈川県","city":"川崎市川崎区","address":"神奈川県川崎市川崎区駅前本町26-4","lat":35.53044432,"lon":139.69680697},{"name":"NewWork川崎","province":"神奈川県","city":"川崎市川崎区","address":"神奈川県川崎市川崎区駅前本町26-4","lat":35.53044432,"lon":139.69680697},{"name":"NewWork川崎","province":"神奈川県","city":"川崎市川崎区","address":"神奈川県川崎市川崎区駅前本町26-4","lat":35.53044432,"lon":139.69680697},{"name":"NewWork川崎","province":"神奈川県","city":"川崎市川崎区","address":"神奈川県川崎市川崎区駅前本町26-4","lat":35.53044432,"lon":139.69680697},{"name":"NewWork川崎","province":"神奈川県","city":"川崎市川崎区","address":"神奈川県川崎市川崎区駅前本町26-4","lat":35.53044432,"lon":139.69680697}]}