{"keyword":"男女","data":[{"name":"H1T海浜幕張","province":"千葉県","city":"千葉市美浜区","address":"千葉県千葉市美浜区ひび野2丁目4","lat":35.64780303,"lon":140.04041968},{"name":"幸町浄水所","province":"千葉県","city":"千葉市美浜区","address":"千葉県千葉市美浜区幸町2丁目24","lat":35.62104094,"lon":140.09460134},{"name":"H1T海浜幕張","province":"千葉県","city":"千葉市美浜区","address":"千葉県千葉市美浜区ひび野2丁目4","lat":35.64780303,"lon":140.04041968},{"name":"H1T海浜幕張","province":"千葉県","city":"千葉市美浜区","address":"千葉県千葉市美浜区ひび野2丁目4","lat":35.64780303,"lon":140.04041968},{"name":"H1T海浜幕張","province":"千葉県","city":"千葉市美浜区","address":"千葉県千葉市美浜区ひび野2丁目4","lat":35.64780303,"lon":140.04041968},{"name":"H1T海浜幕張","province":"千葉県","city":"千葉市美浜区","address":"千葉県千葉市美浜区ひび野2丁目4","lat":35.64780303,"lon":140.04041968},{"name":"H1T海浜幕張","province":"千葉県","city":"千葉市美浜区","address":"千葉県千葉市美浜区ひび野2丁目4","lat":35.64780303,"lon":140.04041968},{"name":"H1T海浜幕張","province":"千葉県","city":"千葉市美浜区","address":"千葉県千葉市美浜区ひび野2丁目4","lat":35.64780303,"lon":140.04041968},{"name":"H1T海浜幕張","province":"千葉県","city":"千葉市美浜区","address":"千葉県千葉市美浜区ひび野2丁目4","lat":35.64780303,"lon":140.04041968},{"name":"H1T海浜幕張","province":"千葉県","city":"千葉市美浜区","address":"千葉県千葉市美浜区ひび野2丁目4","lat":35.64780303,"lon":140.04041968},{"name":"H1T海浜幕張","province":"千葉県","city":"千葉市美浜区","address":"千葉県千葉市美浜区ひび野2丁目4","lat":35.64780303,"lon":140.04041968},{"name":"H1T海浜幕張","province":"千葉県","city":"千葉市美浜区","address":"千葉県千葉市美浜区ひび野2丁目4","lat":35.64780303,"lon":140.04041968},{"name":"H1T海浜幕張","province":"千葉県","city":"千葉市美浜区","address":"千葉県千葉市美浜区ひび野2丁目4","lat":35.64780303,"lon":140.04041968},{"name":"H1T海浜幕張","province":"千葉県","city":"千葉市美浜区","address":"千葉県千葉市美浜区ひび野2丁目4","lat":35.64780303,"lon":140.04041968},{"name":"H1T海浜幕張","province":"千葉県","city":"千葉市美浜区","address":"千葉県千葉市美浜区ひび野2丁目4","lat":35.64780303,"lon":140.04041968},{"name":"H1T海浜幕張","province":"千葉県","city":"千葉市美浜区","address":"千葉県千葉市美浜区ひび野2丁目4","lat":35.64780303,"lon":140.04041968},{"name":"H1T海浜幕張","province":"千葉県","city":"千葉市美浜区","address":"千葉県千葉市美浜区ひび野2丁目4","lat":35.64780303,"lon":140.04041968},{"name":"H1T海浜幕張","province":"千葉県","city":"千葉市美浜区","address":"千葉県千葉市美浜区ひび野2丁目4","lat":35.64780303,"lon":140.04041968},{"name":"H1T海浜幕張","province":"千葉県","city":"千葉市美浜区","address":"千葉県千葉市美浜区ひび野2丁目4","lat":35.64780303,"lon":140.04041968},{"name":"H1T海浜幕張","province":"千葉県","city":"千葉市美浜区","address":"千葉県千葉市美浜区ひび野2丁目4","lat":35.64780303,"lon":140.04041968},{"name":"H1T海浜幕張","province":"千葉県","city":"千葉市美浜区","address":"千葉県千葉市美浜区ひび野2丁目4","lat":35.64780303,"lon":140.04041968},{"name":"H1T海浜幕張","province":"千葉県","city":"千葉市美浜区","address":"千葉県千葉市美浜区ひび野2丁目4","lat":35.64780303,"lon":140.04041968},{"name":"H1T海浜幕張","province":"千葉県","city":"千葉市美浜区","address":"千葉県千葉市美浜区ひび野2丁目4","lat":35.64780303,"lon":140.04041968},{"name":"H1T海浜幕張","province":"千葉県","city":"千葉市美浜区","address":"千葉県千葉市美浜区ひび野2丁目4","lat":35.64780303,"lon":140.04041968}]}