{"keyword":"再生","data":[{"name":"日高工業(株)","province":"東京都","city":"千代田区","address":"千代田区飯田橋2-12-1","lat":35.699402,"lon":139.749771},{"name":"千代田区リサイクル事業(協)","province":"東京都","city":"千代田区","address":"千代田区飯田橋2-12-1","lat":35.699402,"lon":139.749771},{"name":"第一商事(株)  東京事業部","province":"東京都","city":"港区","address":"港区港南5-6-28","lat":35.6301,"lon":139.756653},{"name":"(株)川藤商会","province":"東京都","city":"新宿区","address":"新宿区西落合1-13-13","lat":35.720596,"lon":139.681747},{"name":"藤田健次郎","province":"東京都","city":"新宿区","address":"新宿区山吹町307","lat":35.70665,"lon":139.732315},{"name":"(株)長井紙業","province":"東京都","city":"新宿区","address":"新宿区戸山1-10-15","lat":35.702686,"lon":139.719254},{"name":"(株)近吟紙業","province":"東京都","city":"文京区","address":"文京区白山3-2-4","lat":35.718601,"lon":139.743347},{"name":"三弘紙業(株)  フェニックスリサイクルセンター","province":"東京都","city":"文京区","address":"文京区白山3-1-6","lat":35.717892,"lon":139.744522},{"name":"(有)マル浜鈴木紙業","province":"東京都","city":"文京区","address":"文京区関口1-15-19","lat":35.708458,"lon":139.734406},{"name":"武藤商店","province":"東京都","city":"文京区","address":"文京区音羽1-24-8","lat":35.712543,"lon":139.730042},{"name":"斉藤紙業","province":"東京都","city":"文京区","address":"文京区水道1-5-25","lat":35.709667,"lon":139.740509},{"name":"(株)國光  東京事業所","province":"東京都","city":"台東区","address":"台東区三ノ輪1-5-3","lat":35.72707,"lon":139.792801},{"name":"(株)協和","province":"東京都","city":"台東区","address":"台東区根岸5-7-9","lat":35.727386,"lon":139.784256},{"name":"山仁紙業(株)  本社","province":"東京都","city":"台東区","address":"台東区三筋1-10-12","lat":35.704292,"lon":139.784851},{"name":"(有)北信紙業","province":"東京都","city":"台東区","address":"台東区松が谷3-3-9","lat":35.715282,"lon":139.787811},{"name":"(株)ノボル紙業","province":"東京都","city":"台東区","address":"台東区竜泉3-9-2","lat":35.724674,"lon":139.792496},{"name":"(有)近藤紙業","province":"東京都","city":"台東区","address":"台東区松が谷1-5-8","lat":35.71175,"lon":139.785522},{"name":"(株)山室  隅田店","province":"東京都","city":"墨田区","address":"墨田区堤通1-17-27","lat":35.725731,"lon":139.811493},{"name":"(有)藤本春吉商店","province":"東京都","city":"墨田区","address":"墨田区立川3-1-14","lat":35.690201,"lon":139.803909},{"name":"(有)吉田容器店","province":"東京都","city":"墨田区","address":"墨田区立花3-23-12","lat":35.707401,"lon":139.835144},{"name":"東京レンダリング(協)","province":"東京都","city":"墨田区","address":"墨田区東墨田1-9-1","lat":35.715397,"lon":139.832275},{"name":"二興金属(株)","province":"東京都","city":"墨田区","address":"墨田区本所1-10-11","lat":35.702209,"lon":139.798264},{"name":"(株)五井金属","province":"東京都","city":"墨田区","address":"墨田区立川2-7-1","lat":35.69091,"lon":139.801361},{"name":"(有)塚越商店","province":"東京都","city":"墨田区","address":"墨田区東駒形4-20-9","lat":35.707268,"lon":139.804611},{"name":"(株)野口茂樹商店","province":"東京都","city":"墨田区","address":"墨田区横川1-3-6","lat":35.702995,"lon":139.810013},{"name":"製紙原料サワムラ商店","province":"東京都","city":"墨田区","address":"墨田区太平1-18-11","lat":35.701523,"lon":139.809143},{"name":"東日紙業(株)  墨田支店","province":"東京都","city":"墨田区","address":"墨田区文花2-4-16","lat":35.708496,"lon":139.82637},{"name":"(有)石橋商店","province":"東京都","city":"墨田区","address":"墨田区向島3-10-11","lat":35.713501,"lon":139.807831},{"name":"(有)吉田容器店  東墨田工場","province":"東京都","city":"墨田区","address":"墨田区東墨田1-3-7","lat":35.717815,"lon":139.830734},{"name":"東京紙業(株)","province":"東京都","city":"江東区","address":"江東区塩浜2-7-12","lat":35.662048,"lon":139.807419},{"name":"(株)荒井商店","province":"東京都","city":"江東区","address":"江東区新木場4-3-24","lat":35.643555,"lon":139.839111},{"name":"(株)松井紙業","province":"東京都","city":"江東区","address":"江東区海辺11-4","lat":35.681122,"lon":139.818329},{"name":"(株)宮崎  新木場営業所","province":"東京都","city":"江東区","address":"江東区新木場2-7-1","lat":35.638634,"lon":139.831757},{"name":"(株)中田  新木場事業所","province":"東京都","city":"江東区","address":"江東区新木場2-9-9","lat":35.637939,"lon":139.824905},{"name":"(株)木場リサイクル","province":"東京都","city":"江東区","address":"江東区塩浜2-14-2","lat":35.662785,"lon":139.809097},{"name":"三東運輸(株)  新木場工場","province":"東京都","city":"江東区","address":"江東区新木場4-5-4","lat":35.640163,"lon":139.837952},{"name":"藤ビルメンテナンス(株)","province":"東京都","city":"江東区","address":"江東区新木場3-6-9","lat":35.638317,"lon":139.834442},{"name":"美濃紙業(株)  東雲営業所","province":"東京都","city":"江東区","address":"江東区東雲2-6-32","lat":35.64138,"lon":139.801117},{"name":"広陽サービス(株)  辰巳リサイクルセンター","province":"東京都","city":"江東区","address":"江東区辰巳3-7-8","lat":35.642025,"lon":139.809311},{"name":"広陽サービス(株)  東雲リサイクルセンター","province":"東京都","city":"江東区","address":"江東区東雲2-10-23/25","lat":35.639233,"lon":139.80481},{"name":"有明興業(株)  若洲本社工場","province":"東京都","city":"江東区","address":"江東区若洲2-8-25","lat":35.619427,"lon":139.832596},{"name":"(株)山博  リサイクルセンター江東","province":"東京都","city":"江東区","address":"江東区新砂3-10-17","lat":35.657635,"lon":139.830994},{"name":"東京産資源(株)","province":"東京都","city":"江東区","address":"江東区東砂5-14-17","lat":35.67498,"lon":139.842194},{"name":"(有)関東紙業","province":"東京都","city":"江東区","address":"江東区塩浜2-11-1","lat":35.663513,"lon":139.80899},{"name":"ヨシヤコーポレーション(株)  新木場センター","province":"東京都","city":"江東区","address":"江東区新木場1-13-1","lat":35.641033,"lon":139.834671},{"name":"(株)関根商店","province":"東京都","city":"江東区","address":"江東区扇橋2-6-1","lat":35.683208,"lon":139.815048},{"name":"(株)オネスト  新木場リサイクル工場","province":"東京都","city":"江東区","address":"江東区新木場4-3-26","lat":35.643555,"lon":139.839111},{"name":"むさし野紙業(株)  新木場営業所","province":"東京都","city":"江東区","address":"江東区新木場2-4-3","lat":35.639145,"lon":139.825714},{"name":"(株)アサヒ･クリーン","province":"東京都","city":"江東区","address":"江東区枝川1-10-27","lat":35.655334,"lon":139.80423},{"name":"大洋紙原(有)  砂町R事業場","province":"東京都","city":"江東区","address":"江東区北砂4-35-9","lat":35.677914,"lon":139.833694},{"name":"(株)坪野谷紙業  新木場事業所","province":"東京都","city":"江東区","address":"江東区新木場2-9-12","lat":35.637939,"lon":139.824905},{"name":"(株)共益商会  大森営業所","province":"東京都","city":"品川区","address":"品川区南大井6-8-1","lat":35.591969,"lon":139.733063},{"name":"(有)後藤商店","province":"東京都","city":"品川区","address":"品川区西五反田5-30-16","lat":35.622742,"lon":139.713181},{"name":"(有)鈴木紙業","province":"東京都","city":"品川区","address":"品川区南品川4-8-4","lat":35.612625,"lon":139.736069},{"name":"(有)スリーシープランニング","province":"東京都","city":"品川区","address":"品川区南品川3-6-31","lat":35.608429,"lon":139.744705},{"name":"川村金属(株)","province":"東京都","city":"品川区","address":"品川区荏原4-8-8","lat":35.615547,"lon":139.706345},{"name":"(有)齋木商店","province":"東京都","city":"目黒区","address":"目黒区五本木1-1-3","lat":35.640125,"lon":139.6866},{"name":"東日紙商(株)  目黒支店","province":"東京都","city":"目黒区","address":"目黒区目黒1-17-17","lat":35.636639,"lon":139.710236},{"name":"(株)西商店  本社","province":"東京都","city":"大田区","address":"大田区池上6-28-5","lat":35.569305,"lon":139.706039},{"name":"ツチヤ産業(株)","province":"東京都","city":"大田区","address":"大田区東糀谷4-7-20","lat":35.554882,"lon":139.745468},{"name":"(株)大龍金属","province":"東京都","city":"大田区","address":"大田区京浜島2-6-10","lat":35.570194,"lon":139.768845},{"name":"(株)京福商店  京浜島営業所","province":"東京都","city":"大田区","address":"大田区京浜島2-15-3","lat":35.569153,"lon":139.764435},{"name":"京浜容器(株)","province":"東京都","city":"大田区","address":"大田区大森中1-2-25","lat":35.57193,"lon":139.73349},{"name":"(資)豊田八郎商店","province":"東京都","city":"大田区","address":"大田区久が原2-2-11","lat":35.585342,"lon":139.69603},{"name":"(有)馬場啓介商店","province":"東京都","city":"大田区","address":"大田区北千束3-4-11","lat":35.606293,"lon":139.689575},{"name":"(株)カネダ","province":"東京都","city":"大田区","address":"大田区本羽田1-26-16","lat":35.546173,"lon":139.728363},{"name":"(株)玉川軽金属","province":"東京都","city":"大田区","address":"大田区東糀谷5-12-3","lat":35.56002,"lon":139.743118},{"name":"(株)國光  中央営業所","province":"東京都","city":"大田区","address":"大田区京浜島2-14-7","lat":35.568424,"lon":139.763901},{"name":"(株)こんの  東京営業所","province":"東京都","city":"大田区","address":"大田区大森南4-10-27","lat":35.567402,"lon":139.747498},{"name":"藤ビルメンテナンス(株)","province":"東京都","city":"大田区","address":"大田区京浜島3-4-3","lat":35.574162,"lon":139.76326},{"name":"日栄産業(株)","province":"東京都","city":"大田区","address":"大田区京浜島3-5-2","lat":35.573341,"lon":139.76503},{"name":"(株)ジー・エス","province":"東京都","city":"大田区","address":"大田区京浜島2-14-10","lat":35.568424,"lon":139.763901},{"name":"(株)宮崎  六郷営業所","province":"東京都","city":"大田区","address":"大田区東六郷3-25-5","lat":35.540291,"lon":139.710144},{"name":"(有)藤井商店","province":"東京都","city":"大田区","address":"大田区矢口3-11-11","lat":35.559502,"lon":139.694366},{"name":"(株)西商店  第一瓶･缶センター","province":"東京都","city":"大田区","address":"大田区京浜島2-14-1","lat":35.568424,"lon":139.763901},{"name":"(株)木下  東京大森事業所","province":"東京都","city":"大田区","address":"大田区大森南2-9-17","lat":35.56229,"lon":139.744568},{"name":"有明興業(株)  京浜島工場","province":"東京都","city":"大田区","address":"大田区京浜島3-3-14","lat":35.573097,"lon":139.763153},{"name":"東日紙商(株)  京浜支店","province":"東京都","city":"大田区","address":"大田区東糀谷5-8-3","lat":35.559944,"lon":139.745117},{"name":"(株)西商店  京浜島事業所","province":"東京都","city":"大田区","address":"大田区京浜島2-14-14","lat":35.568424,"lon":139.763901},{"name":"品川運輸(株)  京浜島ﾘｻｲｸﾙｾﾝﾀｰﾘﾊﾞｰｽ2002","province":"東京都","city":"大田区","address":"大田区京浜島2-15-5","lat":35.569153,"lon":139.764435},{"name":"岩間茂隆  岩間商店","province":"東京都","city":"大田区","address":"大田区京浜島2-12-15","lat":35.569969,"lon":139.761841},{"name":"(株)西商店  第二瓶･缶センター","province":"東京都","city":"大田区","address":"大田区京浜島3-3-7","lat":35.573097,"lon":139.763153},{"name":"(株)エコ・エイト  京浜島クリアセンター","province":"東京都","city":"大田区","address":"大田区京浜島2-18-10","lat":35.568932,"lon":139.767059},{"name":"(株)樋口常三郎商店  羽田ヤード","province":"東京都","city":"大田区","address":"大田区東糀谷5-3-9","lat":35.560612,"lon":139.745331},{"name":"成友興業(株)  城南島第一工場","province":"東京都","city":"大田区","address":"大田区城南島3-3-3","lat":35.579407,"lon":139.780426},{"name":"(株)シンエイメタル","province":"東京都","city":"世田谷区","address":"世田谷区宇奈根1-6-1","lat":35.618629,"lon":139.603897},{"name":"(株)中田  世田谷事業所","province":"東京都","city":"世田谷区","address":"世田谷区大蔵1-2-6","lat":35.635223,"lon":139.621933},{"name":"アサミカレット","province":"東京都","city":"世田谷区","address":"世田谷区鎌田2-14-11","lat":35.618912,"lon":139.613174},{"name":"(株)井上  リサイクルセンター","province":"東京都","city":"世田谷区","address":"世田谷区船橋5-28-3","lat":35.657154,"lon":139.624771},{"name":"(株)中田","province":"東京都","city":"渋谷区","address":"渋谷区恵比寿西2-6-6","lat":35.65123,"lon":139.706802},{"name":"(株)平松商店","province":"東京都","city":"渋谷区","address":"渋谷区幡ケ谷2-42-5","lat":35.678211,"lon":139.67424},{"name":"(株)武蔵野","province":"東京都","city":"中野区","address":"中野区弥生町2-50-8","lat":35.690514,"lon":139.67038},{"name":"栗原紙材(株)  中野事業所","province":"東京都","city":"中野区","address":"中野区丸山2-5-9","lat":35.724636,"lon":139.65358},{"name":"協和硝子(株)","province":"東京都","city":"中野区","address":"中野区本町3-1-4","lat":35.693279,"lon":139.67746},{"name":"(株)加藤商店","province":"東京都","city":"中野区","address":"中野区江古田4-29-15","lat":35.724987,"lon":139.661896},{"name":"(株)恩田","province":"東京都","city":"中野区","address":"中野区江古田4-31-4","lat":35.724346,"lon":139.661591},{"name":"(株)河内商店","province":"東京都","city":"杉並区","address":"杉並区西荻南3-22-6","lat":35.703747,"lon":139.603958},{"name":"(株)丸三容器","province":"東京都","city":"杉並区","address":"杉並区和泉1-38-12","lat":35.678822,"lon":139.657318},{"name":"(株)梶谷商事","province":"東京都","city":"杉並区","address":"杉並区堀ノ内3-13-3","lat":35.690456,"lon":139.649582},{"name":"(有)斉藤商店","province":"東京都","city":"杉並区","address":"杉並区天沼1-1-2","lat":35.704826,"lon":139.627991},{"name":"足立明敏  足立商店","province":"東京都","city":"杉並区","address":"杉並区荻窪1-3-15","lat":35.691696,"lon":139.61937},{"name":"井出紙業(株)","province":"東京都","city":"杉並区","address":"杉並区下高井戸3-25-10","lat":35.671566,"lon":139.635559},{"name":"(株)高岡","province":"東京都","city":"杉並区","address":"杉並区阿佐谷北4-28-15","lat":35.713039,"lon":139.63707},{"name":"網野容器(有)","province":"東京都","city":"杉並区","address":"杉並区下高井戸3-1-3","lat":35.669441,"lon":139.633667},{"name":"東日紙商(株)  高井戸支店","province":"東京都","city":"杉並区","address":"杉並区高井戸東4-8-4","lat":35.688797,"lon":139.617691},{"name":"(株)井戸商店","province":"東京都","city":"豊島区","address":"豊島区巣鴨4-6-6","lat":35.735485,"lon":139.73027},{"name":"(株)中谷紙業","province":"東京都","city":"豊島区","address":"豊島区高田1-20-7","lat":35.714542,"lon":139.716187},{"name":"(株)たかまる商店","province":"東京都","city":"北区","address":"北区赤羽西2-2-3","lat":35.772114,"lon":139.721542},{"name":"(有)鰐渕商事","province":"東京都","city":"北区","address":"北区上中里1-41-10","lat":35.744671,"lon":139.746902},{"name":"(株)シマムラ","province":"東京都","city":"北区","address":"北区昭和町1-1-8","lat":35.745796,"lon":139.756653},{"name":"(株)伊久美商店","province":"東京都","city":"北区","address":"北区滝野川7-48-11","lat":35.741234,"lon":139.724579},{"name":"豊商産業(有)","province":"東京都","city":"北区","address":"北区浮間4-12-5","lat":35.789169,"lon":139.696594},{"name":"(有)篠原商店","province":"東京都","city":"北区","address":"北区滝野川5-53-3","lat":35.749634,"lon":139.725876},{"name":"柄澤秀保","province":"東京都","city":"北区","address":"北区西ケ原3-20-14","lat":35.744976,"lon":139.74176},{"name":"(有)佐々木商店","province":"東京都","city":"北区","address":"北区王子4-4-5","lat":35.761272,"lon":139.733612},{"name":"(株)桂紙業  本社","province":"東京都","city":"北区","address":"北区桐ケ丘1-20-12","lat":35.777943,"lon":139.703766},{"name":"(株)宏文社","province":"東京都","city":"北区","address":"北区豊島1-14-7","lat":35.75843,"lon":139.73967},{"name":"(株)大久保  本店倉庫","province":"東京都","city":"荒川区","address":"荒川区東日暮里2-45-2","lat":35.730141,"lon":139.783768},{"name":"(株)須賀","province":"東京都","city":"荒川区","address":"荒川区東日暮里2-28-11","lat":35.728958,"lon":139.785263},{"name":"(株)久保田商店","province":"東京都","city":"荒川区","address":"荒川区東日暮里4-16-5","lat":35.727699,"lon":139.78067},{"name":"(株)小湊","province":"東京都","city":"荒川区","address":"荒川区西日暮里6-20-4","lat":35.735748,"lon":139.771347},{"name":"(有)斎民商店","province":"東京都","city":"荒川区","address":"荒川区東日暮里2-31-7","lat":35.727909,"lon":139.785217},{"name":"丸八金属(株)","province":"東京都","city":"荒川区","address":"荒川区東日暮里1-12-3","lat":35.731064,"lon":139.787979},{"name":"(有)杉沢正直商店","province":"東京都","city":"荒川区","address":"荒川区東日暮里2-25-7","lat":35.730213,"lon":139.785141},{"name":"(株)ワタコー","province":"東京都","city":"荒川区","address":"荒川区東日暮里2-39-4","lat":35.730667,"lon":139.784515},{"name":"(有)野村ゴム商店","province":"東京都","city":"荒川区","address":"荒川区東日暮里2-38-5","lat":35.73016,"lon":139.784485},{"name":"(株)大島商店","province":"東京都","city":"荒川区","address":"荒川区東尾久1-5-6","lat":35.739014,"lon":139.772705},{"name":"(有)那須野商店","province":"東京都","city":"荒川区","address":"荒川区東日暮里3-3-17","lat":35.73138,"lon":139.78273},{"name":"近藤紙業","province":"東京都","city":"荒川区","address":"荒川区南千住6-51-3","lat":35.735886,"lon":139.793427},{"name":"(株)シムラ  荒川工場","province":"東京都","city":"荒川区","address":"荒川区荒川8-23-3","lat":35.740128,"lon":139.789902},{"name":"(株)マンモスエコロジー  本社営業所","province":"東京都","city":"荒川区","address":"荒川区東日暮里2-33-14","lat":35.728275,"lon":139.784332},{"name":"(株)廣田","province":"東京都","city":"荒川区","address":"荒川区東日暮里2-28-3","lat":35.728958,"lon":139.785263},{"name":"栗原紙材(株)  板橋事業所","province":"東京都","city":"板橋区","address":"板橋区前野町3-32-7","lat":35.768223,"lon":139.693405},{"name":"三弘紙業(株)  板橋営業所","province":"東京都","city":"板橋区","address":"板橋区大谷口北町6","lat":35.750614,"lon":139.691391},{"name":"森本鐵鋼産業(株)","province":"東京都","city":"板橋区","address":"板橋区小茂根2-22-10","lat":35.749813,"lon":139.681137},{"name":"(株)工藤商店  高島平営業所","province":"東京都","city":"板橋区","address":"板橋区高島平6-2-6","lat":35.790798,"lon":139.651169},{"name":"皆川商事(株)  東京営業所","province":"東京都","city":"板橋区","address":"板橋区舟渡1-9-10","lat":35.790653,"lon":139.689514},{"name":"(有)川島商店","province":"東京都","city":"板橋区","address":"板橋区高島平9-25-8","lat":35.790478,"lon":139.668198},{"name":"(株)関口商店  本店","province":"東京都","city":"板橋区","address":"板橋区東坂下1-14-9","lat":35.782116,"lon":139.691544},{"name":"(株)関口商店  営業所","province":"東京都","city":"板橋区","address":"板橋区坂下1-4-5","lat":35.779938,"lon":139.688049},{"name":"(有)石原商店  資源化センター","province":"東京都","city":"板橋区","address":"板橋区徳丸6-9-20","lat":35.777489,"lon":139.664322},{"name":"古田産商(株)","province":"東京都","city":"板橋区","address":"板橋区舟渡1-7-23","lat":35.791412,"lon":139.68837},{"name":"グリーンロジテック(株)  本社営業所","province":"東京都","city":"板橋区","address":"板橋区坂下3-34-3","lat":35.78949,"lon":139.684204},{"name":"（株）鈴福","province":"東京都","city":"板橋区","address":"板橋区新河岸1-12-11","lat":35.796066,"lon":139.6698},{"name":"(株)志賀商店","province":"東京都","city":"板橋区","address":"板橋区新河岸1-17-6","lat":35.796051,"lon":139.66597},{"name":"木村鋼業(株)  東京板橋営業所","province":"東京都","city":"板橋区","address":"板橋区徳丸6-51-12","lat":35.779758,"lon":139.66098},{"name":"(有)藤田商店","province":"東京都","city":"板橋区","address":"板橋区新河岸1-25-12","lat":35.797394,"lon":139.665359},{"name":"(株)東方産業","province":"東京都","city":"板橋区","address":"板橋区三園2-6-26","lat":35.792931,"lon":139.64119},{"name":"(株)古川商店","province":"東京都","city":"練馬区","address":"練馬区土支田2-3-1","lat":35.758732,"lon":139.613678},{"name":"(株)市川商店","province":"東京都","city":"練馬区","address":"練馬区早宮3-12-18","lat":35.750492,"lon":139.652649},{"name":"巴山龍雄","province":"東京都","city":"練馬区","address":"練馬区豊玉中3-23-13","lat":35.733234,"lon":139.653061},{"name":"(有)武田商会","province":"東京都","city":"練馬区","address":"練馬区西大泉町1-21-2","lat":35.763412,"lon":139.566986},{"name":"紙材開発(株)","province":"東京都","city":"練馬区","address":"練馬区高野台2-4-12","lat":35.747242,"lon":139.622116},{"name":"(株)要興業  千住リサイクルセンター","province":"東京都","city":"足立区","address":"足立区千住桜木2-18-11","lat":35.755093,"lon":139.783585},{"name":"(有)古橋商事","province":"東京都","city":"足立区","address":"足立区梅田4-27-16","lat":35.761623,"lon":139.791046},{"name":"(株)トベ商事  本社作業所","province":"東京都","city":"足立区","address":"足立区入谷8-10-29","lat":35.807178,"lon":139.75679},{"name":"(株)やまたけ","province":"東京都","city":"足立区","address":"足立区西新井4-9-1","lat":35.786072,"lon":139.775604},{"name":"丸昭商事(株)","province":"東京都","city":"足立区","address":"足立区南花畑4-27-15","lat":35.798397,"lon":139.817566},{"name":"美濃紙業(株)  本社","province":"東京都","city":"足立区","address":"足立区千住緑町3-18-16","lat":35.747707,"lon":139.791321},{"name":"(株)藁科商店","province":"東京都","city":"足立区","address":"足立区関原3-1-5","lat":35.76981,"lon":139.792023},{"name":"(株)増田商店  足立営業所","province":"東京都","city":"足立区","address":"足立区東和5-2-20","lat":35.774139,"lon":139.836914},{"name":"(株)新井商店  綾瀬営業所","province":"東京都","city":"足立区","address":"足立区北加平町8-26","lat":35.782597,"lon":139.830429},{"name":"(株)新井商店  入谷営業所","province":"東京都","city":"足立区","address":"足立区入谷1-21-2","lat":35.802795,"lon":139.766159},{"name":"(株)丸忠","province":"東京都","city":"足立区","address":"足立区梅田5-27-10","lat":35.771618,"lon":139.793915},{"name":"(有)松沢紙業","province":"東京都","city":"足立区","address":"足立区保塚町6-4","lat":35.784821,"lon":139.816071},{"name":"(株)長岡商店  舎人リサイクルセンター","province":"東京都","city":"足立区","address":"足立区舎人1-22-8","lat":35.807774,"lon":139.768005},{"name":"太誠産業(株)  足立工場","province":"東京都","city":"足立区","address":"足立区南花畑4-1-21","lat":35.79422,"lon":139.817627},{"name":"(有)丸保商店","province":"東京都","city":"足立区","address":"足立区竹の塚2-32-17","lat":35.792149,"lon":139.797562},{"name":"(株)カネテツ","province":"東京都","city":"足立区","address":"足立区入谷9-5-10","lat":35.811333,"lon":139.757523},{"name":"グリーンリサイクル(株)","province":"東京都","city":"足立区","address":"足立区宮城1-4-8","lat":35.756783,"lon":139.753845},{"name":"(株)フクズミ","province":"東京都","city":"足立区","address":"足立区本木1-5-19","lat":35.762749,"lon":139.787262},{"name":"(有)つるや商店","province":"東京都","city":"足立区","address":"足立区中川4-14-6","lat":35.773075,"lon":139.845123},{"name":"(株)要興業  鹿浜リサイクルセンター","province":"東京都","city":"足立区","address":"足立区堀之内1-14-15","lat":35.776268,"lon":139.752243},{"name":"(株)要興業  入谷リサイクルセンター","province":"東京都","city":"足立区","address":"足立区入谷9-28-20","lat":35.807976,"lon":139.754227},{"name":"(株)トベ商事  第7作業所","province":"東京都","city":"足立区","address":"足立区入谷3-11-8","lat":35.811497,"lon":139.759598},{"name":"(株)トベ商事  第8作業所","province":"東京都","city":"足立区","address":"足立区入谷9-4-5","lat":35.811424,"lon":139.758392},{"name":"(株)阿部商店","province":"東京都","city":"足立区","address":"足立区柳原1-34-15","lat":35.744427,"lon":139.813644},{"name":"(株)遠藤商店","province":"東京都","city":"足立区","address":"足立区花畑1-14-1","lat":35.799843,"lon":139.812347},{"name":"石崎商店(株)  梅田工場","province":"東京都","city":"足立区","address":"足立区梅田3-20-8","lat":35.764782,"lon":139.797729},{"name":"桜サービス(株)","province":"東京都","city":"足立区","address":"足立区皿沼3-16-11","lat":35.793365,"lon":139.764557},{"name":"(株)トベ商事  第4作業所","province":"東京都","city":"足立区","address":"足立区入谷8-6-7","lat":35.80555,"lon":139.756317},{"name":"(株)丸十商店","province":"東京都","city":"足立区","address":"足立区本木2-10-1","lat":35.764347,"lon":139.785202},{"name":"美濃紙業(株)  千住東営業所","province":"東京都","city":"足立区","address":"足立区千住東2-23-23","lat":35.746174,"lon":139.81044},{"name":"(株)丸豊","province":"東京都","city":"足立区","address":"足立区入谷8-9-8","lat":35.80777,"lon":139.75795},{"name":"中村商店","province":"東京都","city":"足立区","address":"足立区綾瀬3-27-7","lat":35.764851,"lon":139.828857},{"name":"(株)東京クリアセンター  リサイクル事業所","province":"東京都","city":"足立区","address":"足立区入谷7-12-22","lat":35.801933,"lon":139.757919},{"name":"(株)トベ商事  第3作業所","province":"東京都","city":"足立区","address":"足立区入谷3-11-12","lat":35.811497,"lon":139.759598},{"name":"(有)鳥山商店","province":"東京都","city":"足立区","address":"足立区梅田3-24-4","lat":35.764477,"lon":139.796753},{"name":"(有)澤村紙業","province":"東京都","city":"足立区","address":"足立区入谷7-22-20","lat":35.796844,"lon":139.760803},{"name":"日本衛生(株)","province":"東京都","city":"足立区","address":"足立区入谷9-7-9","lat":35.809555,"lon":139.757309},{"name":"(有)丸保紙業","province":"東京都","city":"足立区","address":"足立区椿1-2-1","lat":35.777325,"lon":139.758621},{"name":"(株)斎藤商店  梅田営業所","province":"東京都","city":"足立区","address":"足立区梅田6-7-10","lat":35.767891,"lon":139.798508},{"name":"(株)利根川産業  入谷工場","province":"東京都","city":"足立区","address":"足立区入谷8-3-22","lat":35.805546,"lon":139.758591},{"name":"(株)那須商会  第二工場","province":"東京都","city":"足立区","address":"足立区入谷7-22-5","lat":35.796844,"lon":139.760803},{"name":"(株)長村紙業","province":"東京都","city":"足立区","address":"足立区千住東1-11-7","lat":35.743896,"lon":139.803513},{"name":"近藤商店","province":"東京都","city":"足立区","address":"足立区西新井4-40-11","lat":35.789562,"lon":139.772537},{"name":"(株)ヨシモリ  本社","province":"東京都","city":"足立区","address":"足立区関原1-12-2","lat":35.763634,"lon":139.789169},{"name":"(株)首都圏環境美化センター","province":"東京都","city":"足立区","address":"足立区入谷9-21-19","lat":35.810547,"lon":139.752136},{"name":"(株)東京クリアセンター  リサイクルセンター","province":"東京都","city":"足立区","address":"足立区入谷7-12-12","lat":35.801933,"lon":139.757919},{"name":"(株)協栄清水商店  鹿浜リサイクルセンター","province":"東京都","city":"足立区","address":"足立区鹿浜2-27-16","lat":35.781796,"lon":139.750793},{"name":"(株)遠藤商店  足立エコセンター","province":"東京都","city":"足立区","address":"足立区入谷8-9-1","lat":35.80777,"lon":139.75795},{"name":"(株)トベ商事  第5作業所","province":"東京都","city":"足立区","address":"足立区入谷8-12-4","lat":35.805851,"lon":139.754486},{"name":"丸澤金属(株)","province":"東京都","city":"足立区","address":"足立区栗原3-27-4","lat":35.781883,"lon":139.786011},{"name":"大谷清運(株)  リサイクルプラントリボーン","province":"東京都","city":"足立区","address":"足立区入谷9-4-13","lat":35.811424,"lon":139.758392},{"name":"(有)小宮山商店","province":"東京都","city":"葛飾区","address":"葛飾区白鳥1-10-3","lat":35.745934,"lon":139.844315},{"name":"(株)増田商店","province":"東京都","city":"葛飾区","address":"葛飾区立石2-23-17","lat":35.737736,"lon":139.841599},{"name":"(株)樽味商会","province":"東京都","city":"葛飾区","address":"葛飾区小菅2-8-17","lat":35.750664,"lon":139.82431},{"name":"(株)真田","province":"東京都","city":"葛飾区","address":"葛飾区東新小岩4-20-8","lat":35.725346,"lon":139.864441},{"name":"(株)宮永兄弟商会","province":"東京都","city":"葛飾区","address":"葛飾区四つ木5-6-13","lat":35.740955,"lon":139.838882},{"name":"(有)石橋商店","province":"東京都","city":"葛飾区","address":"葛飾区白鳥2-3-18","lat":35.749783,"lon":139.843201},{"name":"(株)山室  葛飾店","province":"東京都","city":"葛飾区","address":"葛飾区奥戸3-10-4","lat":35.734444,"lon":139.862885},{"name":"(有)丸正鉄工","province":"東京都","city":"葛飾区","address":"葛飾区南水元2-21-10","lat":35.779621,"lon":139.857758},{"name":"(株)環境整備  リサイクルセンター","province":"東京都","city":"葛飾区","address":"葛飾区宝町2-18-5","lat":35.745907,"lon":139.837112},{"name":"(株)山勝","province":"東京都","city":"葛飾区","address":"葛飾区奥戸6-20-4","lat":35.731319,"lon":139.869812},{"name":"小岩興業(株)","province":"東京都","city":"葛飾区","address":"葛飾区奥戸8-13-4","lat":35.735939,"lon":139.865829},{"name":"高嶺清掃(株)","province":"東京都","city":"葛飾区","address":"葛飾区東立石3-5-1","lat":35.734726,"lon":139.843094},{"name":"(株)赤松商店","province":"東京都","city":"葛飾区","address":"葛飾区堀切4-7-8","lat":35.745815,"lon":139.825226},{"name":"(株)中島商店","province":"東京都","city":"江戸川区","address":"江戸川区大杉2-22-12","lat":35.702911,"lon":139.880539},{"name":"(株)鈴亀","province":"東京都","city":"江戸川区","address":"江戸川区中央1-17-19","lat":35.705864,"lon":139.870163},{"name":"(有)フルカワ","province":"東京都","city":"江戸川区","address":"江戸川区南篠崎町4-23-4","lat":35.699673,"lon":139.902283},{"name":"鐵甲金属(株)","province":"東京都","city":"江戸川区","address":"江戸川区大杉4-29-17","lat":35.711552,"lon":139.881821},{"name":"(株)春江","province":"東京都","city":"江戸川区","address":"江戸川区松江4-24-10","lat":35.689644,"lon":139.870438},{"name":"(有)福田川商店","province":"東京都","city":"江戸川区","address":"江戸川区南小岩5-3-14","lat":35.723526,"lon":139.879807},{"name":"ｶﾜﾊﾗﾒﾀﾙ(株)","province":"東京都","city":"江戸川区","address":"江戸川区篠崎町4-17-1","lat":35.699566,"lon":139.908569},{"name":"(株)伊藤信司商店  京葉営業所","province":"東京都","city":"江戸川区","address":"江戸川区南篠崎町4-23-22","lat":35.699673,"lon":139.902283},{"name":"(株)ヤハギ環境","province":"東京都","city":"江戸川区","address":"江戸川区南葛西2-18-7","lat":35.655132,"lon":139.875214},{"name":"(株)日成ストマック･トーキョー  本社工場","province":"東京都","city":"江戸川区","address":"江戸川区東葛西3-17-15","lat":35.668476,"lon":139.885406},{"name":"(株)オグラ","province":"東京都","city":"江戸川区","address":"江戸川区松江4-29-1","lat":35.691471,"lon":139.871536},{"name":"(有)山口商店","province":"東京都","city":"江戸川区","address":"江戸川区東小松川2-23-12","lat":35.694427,"lon":139.866165},{"name":"(株)上田紙業","province":"東京都","city":"江戸川区","address":"江戸川区上篠崎4-15-5","lat":35.707611,"lon":139.898926},{"name":"(有)牧野商店","province":"東京都","city":"江戸川区","address":"江戸川区篠崎町8-13-11","lat":35.705566,"lon":139.898376},{"name":"(株)坪野谷紙業  江戸川事業所","province":"東京都","city":"江戸川区","address":"江戸川区松江7-15-2","lat":35.691669,"lon":139.874008},{"name":"(株)須賀  船堀営業所","province":"東京都","city":"江戸川区","address":"江戸川区船堀3-9-20","lat":35.681896,"lon":139.865479},{"name":"(株)須賀  東小松川営業所","province":"東京都","city":"江戸川区","address":"江戸川区東小松川4-18-20","lat":35.687618,"lon":139.862045},{"name":"三東運輸(株)  エコプラント","province":"東京都","city":"江戸川区","address":"江戸川区篠崎町5-6-8","lat":35.70369,"lon":139.906052},{"name":"(株)乙  江戸川営業所","province":"東京都","city":"江戸川区","address":"江戸川区松江6-5-5","lat":35.687317,"lon":139.871521},{"name":"(株)浜田  東京リサイクルセンター","province":"東京都","city":"江戸川区","address":"江戸川区松江5-22-21","lat":35.686195,"lon":139.868637},{"name":"(有)太田商店  東京リサイクル工場","province":"東京都","city":"江戸川区","address":"江戸川区大杉5-31-15","lat":35.712456,"lon":139.878754},{"name":"中央鉄鋼（有）","province":"東京都","city":"江戸川区","address":"江戸川区西葛西8-20-198-20-1","lat":35.658245,"lon":139.862839},{"name":"久保田鉄鋼(株)","province":"東京都","city":"八王子市","address":"八王子市中野上町2-18-3","lat":35.669109,"lon":139.324997},{"name":"三弘紙業(株)  八王子営業所","province":"東京都","city":"八王子市","address":"八王子市宮下町54-1","lat":35.703022,"lon":139.312744},{"name":"東京紙業(株)  多摩事業所","province":"東京都","city":"八王子市","address":"八王子市中野上町1-16-16","lat":35.667873,"lon":139.326584},{"name":"八王子容器(有)","province":"東京都","city":"八王子市","address":"八王子市西寺方町81-4","lat":35.67337,"lon":139.26532},{"name":"(有)長岡商店","province":"東京都","city":"八王子市","address":"八王子市上川町601-1","lat":35.704987,"lon":139.248047},{"name":"八王子資源化事業(協)","province":"東京都","city":"八王子市","address":"八王子市楢原町1452-1","lat":35.680737,"lon":139.30249},{"name":"(株)こんの","province":"東京都","city":"八王子市","address":"八王子市石川町2802","lat":35.674221,"lon":139.366211},{"name":"(有)西田商店","province":"東京都","city":"八王子市","address":"八王子市戸吹町1891-3","lat":35.703228,"lon":139.295197},{"name":"(株)エコネット","province":"東京都","city":"八王子市","address":"八王子市犬目町776","lat":35.689659,"lon":139.307724},{"name":"(株)完山金属  高尾リサイクルセンター","province":"東京都","city":"八王子市","address":"八王子市南浅川町3952-1","lat":35.615612,"lon":139.244919},{"name":"(株)トーホー商事  丹木資源リサイクル事業所","province":"東京都","city":"八王子市","address":"八王子市丹木町1-570","lat":35.690018,"lon":139.333572},{"name":"前田金属工業(株)","province":"東京都","city":"立川市","address":"立川市柴崎町6-19-28","lat":35.686832,"lon":139.409332},{"name":"高根商事(株)  富士見町支店","province":"東京都","city":"立川市","address":"立川市富士見町6-36-4","lat":35.692577,"lon":139.388947},{"name":"王子齋藤紙業(株)  三鷹営業所","province":"東京都","city":"三鷹市","address":"三鷹市大沢4-8-1","lat":35.669399,"lon":139.540192},{"name":"(有)梅田商店","province":"東京都","city":"三鷹市","address":"三鷹市新川3-15-11","lat":35.681786,"lon":139.570877},{"name":"西都金属(株)","province":"東京都","city":"青梅市","address":"青梅市成木8-81-1","lat":35.82465,"lon":139.230453},{"name":"(有)吉崎商店","province":"東京都","city":"青梅市","address":"青梅市藤橋3-1-24","lat":35.794254,"lon":139.306793},{"name":"(株)若林商店","province":"東京都","city":"青梅市","address":"青梅市新町7-28-5","lat":35.785393,"lon":139.315918},{"name":"(有)山田総合企画  青梅工場","province":"東京都","city":"青梅市","address":"青梅市新町6-8-4","lat":35.790234,"lon":139.316559},{"name":"(株)大久保  多摩古紙センター府中","province":"東京都","city":"府中市","address":"府中市美好町2-28-4","lat":35.674973,"lon":139.466843},{"name":"(株)小池商店  府中営業所","province":"東京都","city":"府中市","address":"府中市四谷6-56-1","lat":35.671955,"lon":139.432465},{"name":"(株)小池商店  第二工場","province":"東京都","city":"府中市","address":"府中市四谷6-34-7","lat":35.671684,"lon":139.432983},{"name":"(株)大久保  多摩古紙センター昭島","province":"東京都","city":"昭島市","address":"昭島市武蔵野2-9-33","lat":35.72261,"lon":139.376877},{"name":"三弘紙業(株)  昭島営業所","province":"東京都","city":"昭島市","address":"昭島市松原町2-3-17","lat":35.713634,"lon":139.35289},{"name":"(有)土井壜店","province":"東京都","city":"調布市","address":"調布市布田6-47-4","lat":35.644402,"lon":139.550827},{"name":"(有)金沢商店","province":"東京都","city":"調布市","address":"調布市多摩川2-4-1","lat":35.647549,"lon":139.524261},{"name":"滝沢三男也  滝沢商店","province":"東京都","city":"調布市","address":"調布市深大寺東町5-16-22","lat":35.672882,"lon":139.555649},{"name":"(有)加藤商店  本店","province":"東京都","city":"調布市","address":"調布市深大寺北町6-60-14","lat":35.680981,"lon":139.54805},{"name":"(有)カネショウ","province":"東京都","city":"町田市","address":"町田市下小山田町594","lat":35.606651,"lon":139.417145},{"name":"(株)宮崎  横浜営業所","province":"東京都","city":"町田市","address":"町田市鶴間7-20-19","lat":35.504444,"lon":139.480057},{"name":"(株)グリーン山愛","province":"東京都","city":"町田市","address":"町田市森野6-1-1","lat":35.552418,"lon":139.429977},{"name":"(株)伊藤国商店","province":"東京都","city":"小金井市","address":"小金井市中町1-14-41","lat":35.693977,"lon":139.517075},{"name":"(株)前原紙業  小平営業所","province":"東京都","city":"小平市","address":"小平市小川東町5-1872-3","lat":35.733185,"lon":139.470963},{"name":"(株)下田商店","province":"東京都","city":"日野市","address":"日野市万願寺2-35-6","lat":35.674171,"lon":139.417526},{"name":"日野市資源リサイクル事業(協)","province":"東京都","city":"日野市","address":"日野市万願寺2-35-6","lat":35.674171,"lon":139.417526},{"name":"(有)藤田商店  本店","province":"東京都","city":"日野市","address":"日野市旭が丘1-19-2","lat":35.65596,"lon":139.373962},{"name":"(株)サダヤマ","province":"東京都","city":"日野市","address":"日野市日野7759-11","lat":35.679417,"lon":139.414719},{"name":"(株)三栄サービス","province":"東京都","city":"東村山市","address":"東村山市久米川町1-16-5","lat":35.769608,"lon":139.479767},{"name":"JP資源(株)","province":"東京都","city":"東村山市","address":"東村山市久米川町5-32-15","lat":35.774208,"lon":139.476151},{"name":"(有)野村容器","province":"東京都","city":"国分寺市","address":"国分寺市東恋ケ窪5-2-3","lat":35.707634,"lon":139.467743},{"name":"(株)田邊商店  国立事業所","province":"東京都","city":"国立市","address":"国立市泉4-7-2","lat":35.677849,"lon":139.430054},{"name":"玉川産業(有)","province":"東京都","city":"国立市","address":"国立市泉2-12-12","lat":35.674381,"lon":139.42923},{"name":"(有)柳産業","province":"東京都","city":"国立市","address":"国立市泉1-14-11","lat":35.672302,"lon":139.439758},{"name":"グリーンリサイクル(株)  国立営業所","province":"東京都","city":"国立市","address":"国立市泉3-31-10","lat":35.676041,"lon":139.429016},{"name":"(有)山下商事","province":"東京都","city":"東久留米市","address":"東久留米市八幡町2-11-53","lat":35.752308,"lon":139.510056},{"name":"比留間運送(株)  中間処理工場","province":"東京都","city":"武蔵村山市","address":"武蔵村山市伊奈平3-25-5","lat":35.736393,"lon":139.38028},{"name":"(有)富商","province":"東京都","city":"武蔵村山市","address":"武蔵村山市伊奈平2-8","lat":35.74202,"lon":139.380173},{"name":"(株)前原紙業  武蔵村山営業所","province":"東京都","city":"武蔵村山市","address":"武蔵村山市榎2-92-1","lat":35.740997,"lon":139.390793},{"name":"(有)原商店","province":"東京都","city":"多摩市","address":"多摩市和田2015-13","lat":35.639248,"lon":139.424988},{"name":"(株)エコ･ファクトリー  リサイクルセンター","province":"東京都","city":"稲城市","address":"稲城市大丸1434-3","lat":35.644585,"lon":139.477737},{"name":"(有)西村商店","province":"東京都","city":"羽村市","address":"羽村市神明台3-33-25","lat":35.759457,"lon":139.325348},{"name":"(株)鈴商  羽村事業所","province":"東京都","city":"羽村市","address":"羽村市五ノ神361-1","lat":35.771442,"lon":139.330597},{"name":"松村ダスト(有)","province":"東京都","city":"あきる野市","address":"あきる野市三内787","lat":35.74189,"lon":139.22084},{"name":"浦野産業(株)","province":"東京都","city":"あきる野市","address":"あきる野市草花720-8","lat":35.738201,"lon":139.306213},{"name":"成友興業(株)  あきる野工場","province":"東京都","city":"あきる野市","address":"あきる野市平沢字下モ川原1095-1他","lat":35.732239,"lon":139.310089},{"name":"松村ダスト(有)  舘谷工場","province":"東京都","city":"あきる野市","address":"あきる野市舘谷251-1他","lat":35.732681,"lon":139.230972},{"name":"小島建材工業(株)  雨間リサイクル工場","province":"東京都","city":"あきる野市","address":"あきる野市雨間2280-1、2276","lat":35.717457,"lon":139.295563},{"name":"栗原紙材(株)  瑞穂事業所","province":"東京都","city":"西多摩郡瑞穂町","address":"西多摩郡瑞穂町箱根ヶ崎東松原4-7","lat":35.769863,"lon":139.33992},{"name":"(株)総合整備  瑞穂第１工場","province":"東京都","city":"西多摩郡瑞穂町","address":"西多摩郡瑞穂町長岡3-1-28","lat":35.776424,"lon":139.326721},{"name":"永和鉄鋼(株)","province":"東京都","city":"西多摩郡瑞穂町","address":"西多摩郡瑞穂町長岡3-6-9","lat":35.776012,"lon":139.325241},{"name":"(株)加藤商事  西多摩支店リサイクルプラント","province":"東京都","city":"西多摩郡瑞穂町","address":"西多摩郡瑞穂町長岡3-5-15","lat":35.775894,"lon":139.323578},{"name":"永和鉄鋼(株)  第2工場","province":"東京都","city":"西多摩郡瑞穂町","address":"西多摩郡瑞穂町長岡3-4-20","lat":35.773987,"lon":139.326141},{"name":"(有)鹿島金属工業","province":"東京都","city":"西多摩郡瑞穂町","address":"西多摩郡瑞穂町南平2-4-5","lat":35.767555,"lon":139.337631},{"name":"(株)前原紙業  瑞穂営業所","province":"東京都","city":"西多摩郡瑞穂町","address":"西多摩郡瑞穂町二本木430-2","lat":35.791046,"lon":139.345978},{"name":"(株)宮崎  西多摩営業所","province":"東京都","city":"西多摩郡瑞穂町","address":"西多摩郡瑞穂町長岡3-11-4","lat":35.777489,"lon":139.322144},{"name":"むさし野紙業(株)  西多摩営業所","province":"東京都","city":"西多摩郡瑞穂町","address":"西多摩郡瑞穂町長岡3-5-1","lat":35.775894,"lon":139.323578},{"name":"高根商事(株)  エルデガーデン","province":"東京都","city":"西多摩郡瑞穂町","address":"西多摩郡瑞穂町駒形富士山字和田86-1","lat":35.783318,"lon":139.353287},{"name":"(株)合同金属","province":"東京都","city":"西多摩郡瑞穂町","address":"西多摩郡瑞穂町駒形富士山栗原新田120-1","lat":35.783318,"lon":139.353287},{"name":"(株)須賀","province":"東京都","city":"西多摩郡瑞穂町","address":"西多摩郡瑞穂町大字高根650","lat":35.782906,"lon":139.362488},{"name":"(株)総合整備  瑞穂第二工場","province":"東京都","city":"西多摩郡瑞穂町","address":"西多摩郡瑞穂町大字富士山栗原新田180-1","lat":35.787067,"lon":139.345261},{"name":"(株)オーレック  第1工場大島リサイクルセンター","province":"東京都","city":"大島町","address":"大島町元町字上山315","lat":34.769356,"lon":139.38562}]}