{"keyword":"低額","data":[{"name":"ふるさと２丁目ハウス","province":"東京都","city":"台東区","address":"台東区日本堤2-37-1","lat":35.7281,"lon":139.79497},{"name":"やまて寮　※現在、休止中","province":"東京都","city":"豊島区","address":"豊島区南池袋4-18-9","lat":35.72435,"lon":139.72029},{"name":"あさひ　第一西水元寮","province":"東京都","city":"葛飾区","address":"葛飾区水元3-36-1","lat":35.78249,"lon":139.86322},{"name":"シルバービレッジ　※現在、休止中","province":"東京都","city":"板橋区","address":"板橋区板橋1-47-10","lat":35.74858,"lon":139.71838},{"name":"あさひ宮田記念第３八広寮","province":"東京都","city":"墨田区","address":"墨田区八広3-1-3","lat":35.71876,"lon":139.82495},{"name":"あさひ第３八広寮","province":"東京都","city":"墨田区","address":"墨田区八広3-1-3","lat":35.71876,"lon":139.82495},{"name":"ふるさとせせらぎ館","province":"東京都","city":"墨田区","address":"墨田区文花3-19-6","lat":35.71143,"lon":139.82701},{"name":"やまて寮※現在、休止中","province":"東京都","city":"豊島区","address":"豊島区南池袋4-18-9","lat":35.72435,"lon":139.72029},{"name":"あさひ第一西水元寮","province":"東京都","city":"葛飾区","address":"葛飾区水元3-36-1","lat":35.78249,"lon":139.86322},{"name":"ＴＥＯＳ北新宿ハウス","province":"東京都","city":"新宿区","address":"新宿区北新宿3-10-2","lat":35.70207,"lon":139.69075},{"name":"千束荘","province":"東京都","city":"台東区","address":"台東区千束3-23-13","lat":35.72249,"lon":139.79349},{"name":"ＳＴＥＰ-ＵＰ-ＨＯＵＳＥ","province":"東京都","city":"台東区","address":"東京都台東区","lat":35.71260667,"lon":139.77999789},{"name":"さくら第２亀戸ハウス","province":"東京都","city":"江東区","address":"江東区亀戸9-18-10","lat":35.69769,"lon":139.84255},{"name":"新町荘","province":"東京都","city":"世田谷区","address":"世田谷区新町3-22-10","lat":35.63218,"lon":139.64618},{"name":"シルバービレッジ","province":"東京都","city":"板橋区","address":"板橋区板橋1-47-10","lat":35.74859,"lon":139.71838},{"name":"八王子ドゥーム2","province":"東京都","city":"八王子市","address":"東京都八王子市","lat":35.66634173,"lon":139.31580521},{"name":"ル・シェール八王子2","province":"東京都","city":"八王子市","address":"東京都八王子市","lat":35.66634173,"lon":139.31580521},{"name":"立川第２荘（2）","province":"東京都","city":"立川市","address":"立川市富士見町4-15-14","lat":35.69511,"lon":139.39961},{"name":"さくら府中南ハウス","province":"東京都","city":"府中市","address":"府中市日新町4-23-10","lat":35.67213,"lon":139.44309},{"name":"天神荘","province":"東京都","city":"府中市","address":"府中市天神町1-13-42","lat":35.67975,"lon":139.48711},{"name":"さくら東小金井ハウス","province":"東京都","city":"小金井市","address":"小金井市東町4-20-22","lat":35.6959,"lon":139.52506},{"name":"サンハイツ貫井南2","province":"東京都","city":"小金井市","address":"小金井市貫井南町4-14-8","lat":35.69549,"lon":139.49466},{"name":"花小金井ハイツ","province":"東京都","city":"小平市","address":"小平市花小金井6-20-3","lat":35.73023,"lon":139.51057},{"name":"花小金井ハイツ2","province":"東京都","city":"小平市","address":"小平市花小金井6-20-3","lat":35.73023,"lon":139.51057},{"name":"ベル１０１（2）","province":"東京都","city":"日野市","address":"東京都日野市","lat":35.67144843,"lon":139.39486221},{"name":"ドーミー久米川","province":"東京都","city":"東村山市","address":"東村山市本町1-9-11","lat":35.75205,"lon":139.46751},{"name":"ドーミー久米川２","province":"東京都","city":"東村山市","address":"東村山市本町1-9-11","lat":35.75205,"lon":139.46751},{"name":"さくら国立ハウス","province":"東京都","city":"国立市","address":"国立市富士見台3-8-15","lat":35.68604,"lon":139.43807},{"name":"芝久保ハイツ","province":"東京都","city":"西東京市","address":"西東京市芝久保町4-2-9","lat":35.73027,"lon":139.52799},{"name":"芝久保ハイツ２","province":"東京都","city":"西東京市","address":"西東京市芝久保町4-2-9","lat":35.73027,"lon":139.52799},{"name":"ふるさと二丁目ハウス","province":"東京都","city":"台東区","address":"台東区日本堤2-37-1","lat":35.7281,"lon":139.79497},{"name":"ふるさと立花四丁目ハウス","province":"東京都","city":"墨田区","address":"墨田区立花4-11-4","lat":35.71003,"lon":139.83017},{"name":"カーサ大森","province":"東京都","city":"大田区","address":"大田区山王4-21-61-B","lat":35.59214,"lon":139.7298},{"name":"ふるさと上池ハウス","province":"東京都","city":"豊島区","address":"豊島区上池袋1-18-27","lat":35.734451,"lon":139.721751},{"name":"あさひ　第１西水元寮","province":"東京都","city":"葛飾区","address":"葛飾区水元3-36-1","lat":35.78081,"lon":139.86134},{"name":"グッドライフ三鷹寮","province":"東京都","city":"三鷹市","address":"三鷹市野崎4-4-23","lat":35.68024,"lon":139.54076},{"name":"さくら府中南ハウス","province":"東京都","city":"府中市","address":"府中市日新町4-23-10","lat":35.69326,"lon":139.48795},{"name":"花小金井ハイツ2","province":"東京都","city":"小平市","address":"小平市花小金井6-20-3","lat":35.73022,"lon":139.51057},{"name":"ふるさと立花四丁目ハウス","province":"東京都","city":"墨田区","address":"墨田区立花4-11-4","lat":35.709853,"lon":139.830365},{"name":"やすらぎの里沼袋寮","province":"東京都","city":"中野区","address":"中野区沼袋4-3-11","lat":35.721375,"lon":139.660934},{"name":"ルシェール八王子","province":"東京都","city":"八王子市","address":"東京都八王子市","lat":35.66634173,"lon":139.31580521},{"name":"ドーミー久米川","province":"東京都","city":"東村山市","address":"東村山市本町1-9-11","lat":35.751721,"lon":139.467964},{"name":"さくら国分寺ハウス","province":"東京都","city":"国分寺市","address":"国分寺市東元町3-30-7","lat":35.69677,"lon":139.476974}]}