{"keyword":"エネルギー","data":[{"name":"第二庁舎（防災センター）","province":"東京都","city":"品川区","address":"東京都品川区広町2丁目1-36","lat":35.60881128,"lon":139.73028866},{"name":"品川学園（義務教育学校）","province":"東京都","city":"品川区","address":"東京都品川区北品川3丁目9-30","lat":35.61808545,"lon":139.73813771},{"name":"品川区北品川3-11-22","province":"愛知県","city":"稲沢市","address":"愛知県稲沢市高御堂10丁目","lat":35.24652433,"lon":136.79882196},{"name":"御殿山小学校","province":"東京都","city":"品川区","address":"東京都品川区北品川5丁目2-6","lat":35.62325687,"lon":139.7322991},{"name":"城南小学校","province":"東京都","city":"品川区","address":"東京都品川区南品川2丁目8-21","lat":35.61243628,"lon":139.74327917},{"name":"品川区立障害児者総合支援施設","province":"東京都","city":"品川区","address":"東京都品川区南品川3丁目7-7","lat":35.60719533,"lon":139.74482093},{"name":"台場小学校","province":"東京都","city":"品川区","address":"東京都品川区東品川1丁目8-30","lat":35.62095193,"lon":139.74360659},{"name":"東品川高齢者施設（福栄会）","province":"東京都","city":"品川区","address":"東京都品川区東品川3丁目1-8","lat":35.61714416,"lon":139.74681759},{"name":"ファミーユ下神明","province":"東京都","city":"品川区","address":"東京都品川区西品川1丁目20-16","lat":35.61014164,"lon":139.72910815},{"name":"しながわ中央公園（管理棟）","province":"東京都","city":"品川区","address":"東京都品川区西品川1丁目27-14","lat":35.60922229,"lon":139.72882487},{"name":"中小企業センター","province":"東京都","city":"品川区","address":"東京都品川区西品川1丁目28-3","lat":35.60930836,"lon":139.72772495},{"name":"芳水小学校","province":"東京都","city":"品川区","address":"東京都品川区大崎3丁目12-22","lat":35.61922938,"lon":139.72504708},{"name":"第三日野小学校（北棟・南棟）","province":"東京都","city":"品川区","address":"東京都品川区上大崎1丁目19-19","lat":35.6328,"lon":139.72381895},{"name":"上大崎特別養護老人ホーム","province":"東京都","city":"品川区","address":"東京都品川区上大崎3丁目10-7","lat":35.63317209,"lon":139.71838332},{"name":"品川区東五反田2-11-1","province":"愛知県","city":"稲沢市","address":"愛知県稲沢市高御堂10丁目","lat":35.24652433,"lon":136.79882196},{"name":"品川区西五反田3-6-6","province":"愛知県","city":"稲沢市","address":"愛知県稲沢市高御堂10丁目","lat":35.24652433,"lon":136.79882196},{"name":"ファミーユ西五反田（東館）","province":"東京都","city":"品川区","address":"東京都品川区西五反田3丁目6-38","lat":35.62737829,"lon":139.71807797},{"name":"大井三丁目高齢者憩いの場","province":"東京都","city":"品川区","address":"東京都品川区大井3丁目17-16","lat":35.60200376,"lon":139.73054998},{"name":"伊藤学園（義務教育学校）","province":"東京都","city":"品川区","address":"東京都品川区大井5丁目1-37","lat":35.60002607,"lon":139.72608094},{"name":"大井認知症高齢者グループホーム","province":"東京都","city":"品川区","address":"東京都品川区大井6丁目20-5","lat":35.59451859,"lon":139.73041417},{"name":"浜川中学校","province":"東京都","city":"品川区","address":"東京都品川区東大井3丁目18-34","lat":35.60019873,"lon":139.73794395},{"name":"大井林町高齢者複合施設","province":"東京都","city":"品川区","address":"東京都品川区東大井4丁目9-1","lat":35.60534262,"lon":139.74026579},{"name":"立会小学校","province":"東京都","city":"品川区","address":"東京都品川区東大井4丁目15-9","lat":35.60446772,"lon":139.74019083},{"name":"総合区民会館（きゅりあん）","province":"東京都","city":"品川区","address":"東京都品川区東大井5丁目18-1","lat":35.60615069,"lon":139.73588831},{"name":"冨士見台中学校","province":"東京都","city":"品川区","address":"東京都品川区西大井5丁目5-14","lat":35.59855372,"lon":139.71526242},{"name":"伊藤小学校","province":"東京都","city":"品川区","address":"東京都品川区西大井5丁目6-8","lat":35.59875374,"lon":139.71727891},{"name":"浜川小学校","province":"東京都","city":"品川区","address":"東京都品川区南大井4丁目3-27","lat":35.59816556,"lon":139.73587474},{"name":"品川区南大井5-19-1","province":"愛知県","city":"稲沢市","address":"愛知県稲沢市高御堂10丁目","lat":35.24652433,"lon":136.79882196},{"name":"品川区荏原2-9-6","province":"愛知県","city":"稲沢市","address":"愛知県稲沢市高御堂10丁目","lat":35.24652433,"lon":136.79882196},{"name":"スクエア荏原","province":"東京都","city":"品川区","address":"東京都品川区荏原4丁目5-28","lat":35.61532948,"lon":139.70754869},{"name":"武蔵小山創業支援センター","province":"東京都","city":"品川区","address":"東京都品川区小山3丁目27-5","lat":35.61975392,"lon":139.70336836},{"name":"小山小学校","province":"東京都","city":"品川区","address":"東京都品川区小山5丁目10-6","lat":35.61600158,"lon":139.70324905},{"name":"荏原第六中学校","province":"東京都","city":"品川区","address":"東京都品川区小山5丁目20-19","lat":35.61636261,"lon":139.69987711},{"name":"品川区戸越1-15-23","province":"愛知県","city":"稲沢市","address":"愛知県稲沢市高御堂10丁目","lat":35.24652433,"lon":136.79882196},{"name":"大原小学校","province":"東京都","city":"品川区","address":"東京都品川区戸越6丁目17-3","lat":35.60732217,"lon":139.71599819},{"name":"品川区西中延1-2-8","province":"愛知県","city":"稲沢市","address":"愛知県稲沢市高御堂10丁目","lat":35.24652433,"lon":136.79882196},{"name":"第二延山小学校","province":"東京都","city":"品川区","address":"東京都品川区旗の台1丁目6-1","lat":35.61011893,"lon":139.70361308},{"name":"旗台小学校","province":"東京都","city":"品川区","address":"東京都品川区旗の台4丁目7-11","lat":35.60335298,"lon":139.70419377},{"name":"荏原第五中学校","province":"東京都","city":"品川区","address":"東京都品川区旗の台5丁目11-13","lat":35.60315575,"lon":139.70210231},{"name":"荏原第三地域センター","province":"東京都","city":"品川区","address":"東京都品川区平塚1丁目13-18","lat":35.61339371,"lon":139.71541195},{"name":"平塚高齢者多世代交流支援施設","province":"東京都","city":"品川区","address":"東京都品川区平塚2丁目10-20","lat":35.61690441,"lon":139.71395365},{"name":"豊葉の杜学園（義務教育学校）","province":"東京都","city":"品川区","address":"東京都品川区二葉1丁目3-40","lat":35.60733629,"lon":139.72556962},{"name":"杜松高齢者施設","province":"東京都","city":"品川区","address":"東京都品川区豊町4丁目24-15","lat":35.60627797,"lon":139.72308096},{"name":"資源化センター","province":"東京都","city":"品川区","address":"東京都品川区八潮1丁目4-1","lat":35.60946205,"lon":139.75402291},{"name":"こみゅにてぃぷらざ八潮","province":"東京都","city":"品川区","address":"東京都品川区八潮5丁目9-11","lat":35.59808293,"lon":139.75241801},{"name":"日光しながわ光林荘","province":"栃木県","city":"日光市","address":"栃木県日光市細尾町676-1","lat":36.73011072,"lon":139.55532605},{"name":"品川荘","province":"静岡県","city":"伊東市","address":"静岡県伊東市広野1丁目3-17","lat":34.96279801,"lon":139.09145618}]}