{"keyword":"再生","data":[{"name":"栗原紙材(株)  瑞穂事業所","province":"東京都","city":"西多摩郡瑞穂町","address":"西多摩郡瑞穂町箱根ヶ崎東松原4-7","lat":35.769863,"lon":139.33992},{"name":"(株)総合整備  瑞穂第１工場","province":"東京都","city":"西多摩郡瑞穂町","address":"西多摩郡瑞穂町長岡3-1-28","lat":35.776424,"lon":139.326721},{"name":"永和鉄鋼(株)","province":"東京都","city":"西多摩郡瑞穂町","address":"西多摩郡瑞穂町長岡3-6-9","lat":35.776012,"lon":139.325241},{"name":"(株)加藤商事  西多摩支店リサイクルプラント","province":"東京都","city":"西多摩郡瑞穂町","address":"西多摩郡瑞穂町長岡3-5-15","lat":35.775894,"lon":139.323578},{"name":"永和鉄鋼(株)  第2工場","province":"東京都","city":"西多摩郡瑞穂町","address":"西多摩郡瑞穂町長岡3-4-20","lat":35.773987,"lon":139.326141},{"name":"(有)鹿島金属工業","province":"東京都","city":"西多摩郡瑞穂町","address":"西多摩郡瑞穂町南平2-4-5","lat":35.767555,"lon":139.337631},{"name":"(株)前原紙業  瑞穂営業所","province":"東京都","city":"西多摩郡瑞穂町","address":"西多摩郡瑞穂町二本木430-2","lat":35.791046,"lon":139.345978},{"name":"(株)宮崎  西多摩営業所","province":"東京都","city":"西多摩郡瑞穂町","address":"西多摩郡瑞穂町長岡3-11-4","lat":35.777489,"lon":139.322144},{"name":"むさし野紙業(株)  西多摩営業所","province":"東京都","city":"西多摩郡瑞穂町","address":"西多摩郡瑞穂町長岡3-5-1","lat":35.775894,"lon":139.323578},{"name":"高根商事(株)  エルデガーデン","province":"東京都","city":"西多摩郡瑞穂町","address":"西多摩郡瑞穂町駒形富士山字和田86-1","lat":35.783318,"lon":139.353287},{"name":"(株)合同金属","province":"東京都","city":"西多摩郡瑞穂町","address":"西多摩郡瑞穂町駒形富士山栗原新田120-1","lat":35.783318,"lon":139.353287},{"name":"(株)須賀","province":"東京都","city":"西多摩郡瑞穂町","address":"西多摩郡瑞穂町大字高根650","lat":35.782906,"lon":139.362488},{"name":"(株)総合整備  瑞穂第二工場","province":"東京都","city":"西多摩郡瑞穂町","address":"西多摩郡瑞穂町大字富士山栗原新田180-1","lat":35.787067,"lon":139.345261}]}