{"keyword":"子ども","data":[{"name":"野山北・六道山公園","province":"東京都","city":"西多摩郡瑞穂町","address":"東京都西多摩郡瑞穂町大字駒形富士山","lat":35.779047,"lon":139.354024},{"name":"野山北・六道山公園","province":"東京都","city":"西多摩郡瑞穂町","address":"東京都西多摩郡瑞穂町大字石畑","lat":35.770903,"lon":139.358433},{"name":"野山北・六道山公園","province":"東京都","city":"西多摩郡瑞穂町","address":"東京都西多摩郡瑞穂町大字石畑","lat":35.774866,"lon":139.368439},{"name":"瑞穂町役場（本庁舎）","province":"東京都","city":"西多摩郡瑞穂町","address":"東京都西多摩郡瑞穂町大字箱根ケ崎","lat":35.772046,"lon":139.354258},{"name":"瑞穂町役場（本庁舎）","province":"東京都","city":"西多摩郡瑞穂町","address":"東京都西多摩郡瑞穂町大字箱根ケ崎","lat":35.772047,"lon":139.354258},{"name":"瑞穂町役場（本庁舎）","province":"東京都","city":"西多摩郡瑞穂町","address":"東京都西多摩郡瑞穂町大字箱根ケ崎","lat":35.772047,"lon":139.354257},{"name":"瑞穂町町民会館","province":"東京都","city":"西多摩郡瑞穂町","address":"東京都西多摩郡瑞穂町大字石畑1875","lat":35.771695,"lon":139.354758},{"name":"瑞穂町町民会館","province":"東京都","city":"西多摩郡瑞穂町","address":"東京都西多摩郡瑞穂町大字石畑1875","lat":35.771688,"lon":139.354883},{"name":"元狭山コミュニティセンター","province":"東京都","city":"西多摩郡瑞穂町","address":"東京都西多摩郡瑞穂町大字二本木673-1","lat":35.790981,"lon":139.35552},{"name":"石畑会館","province":"東京都","city":"西多摩郡瑞穂町","address":"東京都西多摩郡瑞穂町大字石畑211","lat":35.765602,"lon":139.35551},{"name":"長岡南会館だれでもトイレ","province":"東京都","city":"西多摩郡瑞穂町","address":"東京都西多摩郡瑞穂町長岡4丁目6-4","lat":35.77728,"lon":139.328725},{"name":"箱根ケ崎西会館だれでもトイレ","province":"東京都","city":"西多摩郡瑞穂町","address":"東京都西多摩郡瑞穂町箱根ケ崎東松原16-3","lat":35.774116,"lon":139.339761},{"name":"箱根ケ崎南会館だれでもトイレ","province":"東京都","city":"西多摩郡瑞穂町","address":"東京都西多摩郡瑞穂町大字武蔵3","lat":35.768173,"lon":139.349375},{"name":"箱根ケ崎北会館だれでもトイレ","province":"東京都","city":"西多摩郡瑞穂町","address":"東京都西多摩郡瑞穂町大字箱根ケ崎2","lat":35.776211,"lon":139.350325},{"name":"長岡コミュニティセンター","province":"東京都","city":"西多摩郡瑞穂町","address":"東京都西多摩郡瑞穂町大字箱根ケ崎1180","lat":35.780901,"lon":139.337323},{"name":"長岡コミュニティセンター","province":"東京都","city":"西多摩郡瑞穂町","address":"東京都西多摩郡瑞穂町大字箱根ケ崎1180","lat":35.780927,"lon":139.337258},{"name":"武蔵野コミュニティセンター","province":"東京都","city":"西多摩郡瑞穂町","address":"東京都西多摩郡瑞穂町むさし野1丁目5","lat":35.761674,"lon":139.339849},{"name":"石畑中央会館だれでもトイレ","province":"東京都","city":"西多摩郡瑞穂町","address":"東京都西多摩郡瑞穂町大字石畑1837","lat":35.769278,"lon":139.35633},{"name":"瑞穂町ふれあいセンター","province":"東京都","city":"西多摩郡瑞穂町","address":"東京都西多摩郡瑞穂町大字石畑2008","lat":35.774474,"lon":139.357313},{"name":"瑞穂町ふれあいセンター","province":"東京都","city":"西多摩郡瑞穂町","address":"東京都西多摩郡瑞穂町大字石畑2008","lat":35.774474,"lon":139.357314},{"name":"瑞穂町保健センター","province":"東京都","city":"西多摩郡瑞穂町","address":"東京都西多摩郡瑞穂町大字石畑1970","lat":35.773735,"lon":139.35666},{"name":"瑞穂町郷土資料館","province":"東京都","city":"西多摩郡瑞穂町","address":"東京都西多摩郡瑞穂町大字駒形富士山316-5","lat":35.780575,"lon":139.352162},{"name":"耕心館","province":"東京都","city":"西多摩郡瑞穂町","address":"東京都西多摩郡瑞穂町大字駒形富士山317-1","lat":35.781016,"lon":139.352588},{"name":"瑞穂ビューパーク・スカイホール","province":"東京都","city":"西多摩郡瑞穂町","address":"東京都西多摩郡瑞穂町大字箱根ケ崎2475","lat":35.774889,"lon":139.355309},{"name":"瑞穂ビューパーク・スカイホール","province":"東京都","city":"西多摩郡瑞穂町","address":"東京都西多摩郡瑞穂町大字箱根ケ崎2475","lat":35.774635,"lon":139.355277},{"name":"瑞穂ビューパーク・スカイホール","province":"東京都","city":"西多摩郡瑞穂町","address":"東京都西多摩郡瑞穂町大字箱根ケ崎2475","lat":35.774486,"lon":139.355569},{"name":"瑞穂ビューパーク・スカイホール","province":"東京都","city":"西多摩郡瑞穂町","address":"東京都西多摩郡瑞穂町大字箱根ケ崎2475","lat":35.77453,"lon":139.355468},{"name":"瑞穂ビューパーク・スカイホール","province":"東京都","city":"西多摩郡瑞穂町","address":"東京都西多摩郡瑞穂町大字箱根ケ崎2475","lat":35.774705,"lon":139.355656},{"name":"みずほリサイクルプラザ","province":"東京都","city":"西多摩郡瑞穂町","address":"東京都西多摩郡瑞穂町大字箱根ケ崎1723","lat":35.768338,"lon":139.343281},{"name":"みずほリサイクルプラザ","province":"東京都","city":"西多摩郡瑞穂町","address":"東京都西多摩郡瑞穂町大字箱根ケ崎","lat":35.768208,"lon":139.342455},{"name":"みずほリサイクルプラザ","province":"東京都","city":"西多摩郡瑞穂町","address":"東京都西多摩郡瑞穂町大字箱根ケ崎1723","lat":35.768445,"lon":139.343267},{"name":"瑞穂中央体育館","province":"東京都","city":"西多摩郡瑞穂町","address":"東京都西多摩郡瑞穂町大字石畑1989-1","lat":35.77272,"lon":139.357058},{"name":"瑞穂町武道館","province":"東京都","city":"西多摩郡瑞穂町","address":"東京都西多摩郡瑞穂町大字箱根ケ崎519","lat":35.77545,"lon":139.347657},{"name":"シクラメンスポーツ公園","province":"東京都","city":"西多摩郡瑞穂町","address":"東京都西多摩郡瑞穂町大字箱根ケ崎","lat":35.78407,"lon":139.337653},{"name":"殿ケ谷ポケットパーク","province":"東京都","city":"西多摩郡瑞穂町","address":"東京都西多摩郡瑞穂町大字殿ケ谷","lat":35.764136,"lon":139.36052},{"name":"玉林寺公園","province":"東京都","city":"西多摩郡瑞穂町","address":"東京都西多摩郡瑞穂町大字殿ケ谷","lat":35.767921,"lon":139.362761},{"name":"狭山谷公園","province":"東京都","city":"西多摩郡瑞穂町","address":"東京都西多摩郡瑞穂町大字石畑","lat":35.773443,"lon":139.356797},{"name":"狭山池公園","province":"東京都","city":"西多摩郡瑞穂町","address":"東京都西多摩郡瑞穂町大字箱根ケ崎","lat":35.776019,"lon":139.347891},{"name":"さやま花多里の郷","province":"東京都","city":"西多摩郡瑞穂町","address":"東京都西多摩郡瑞穂町大字駒形富士山","lat":35.777128,"lon":139.350336},{"name":"かすが公園","province":"東京都","city":"西多摩郡瑞穂町","address":"東京都西多摩郡瑞穂町長岡4丁目24","lat":35.778932,"lon":139.326642},{"name":"下野公園","province":"東京都","city":"西多摩郡瑞穂町","address":"東京都西多摩郡瑞穂町長岡1丁目40","lat":35.77642,"lon":139.331846},{"name":"若草公園","province":"東京都","city":"西多摩郡瑞穂町","address":"東京都西多摩郡瑞穂町長岡1丁目17","lat":35.775281,"lon":139.334413},{"name":"長岡公園","province":"東京都","city":"西多摩郡瑞穂町","address":"東京都西多摩郡瑞穂町大字箱根ケ崎","lat":35.780783,"lon":139.337425},{"name":"長谷部緑地だれでもトイレ","province":"東京都","city":"西多摩郡瑞穂町","address":"東京都西多摩郡瑞穂町大字長岡長谷部","lat":35.78575,"lon":139.326285},{"name":"さくら公園","province":"東京都","city":"西多摩郡瑞穂町","address":"東京都西多摩郡瑞穂町箱根ケ崎東松原33","lat":35.775059,"lon":139.339468},{"name":"松原中央公園","province":"東京都","city":"西多摩郡瑞穂町","address":"東京都西多摩郡瑞穂町箱根ケ崎西松原42","lat":35.77225,"lon":139.333671},{"name":"松原西公園","province":"東京都","city":"西多摩郡瑞穂町","address":"東京都西多摩郡瑞穂町箱根ケ崎西松原20","lat":35.769346,"lon":139.335814},{"name":"松原ひがし公園","province":"東京都","city":"西多摩郡瑞穂町","address":"東京都西多摩郡瑞穂町箱根ケ崎東松原7","lat":35.770975,"lon":139.339756},{"name":"南平ひばり公園","province":"東京都","city":"西多摩郡瑞穂町","address":"東京都西多摩郡瑞穂町南平2丁目37","lat":35.765371,"lon":139.338396},{"name":"みずほさかえ公園","province":"東京都","city":"西多摩郡瑞穂町","address":"東京都西多摩郡瑞穂町むさし野2丁目43","lat":35.759172,"lon":139.337857},{"name":"富士見公園","province":"東京都","city":"西多摩郡瑞穂町","address":"東京都西多摩郡瑞穂町むさし野2丁目1","lat":35.759637,"lon":139.341726},{"name":"松山公園","province":"東京都","city":"西多摩郡瑞穂町","address":"東京都西多摩郡瑞穂町大字高根","lat":35.787135,"lon":139.349947},{"name":"二本木公園","province":"東京都","city":"西多摩郡瑞穂町","address":"東京都西多摩郡瑞穂町大字二本木","lat":35.791503,"lon":139.354759},{"name":"富士山公園","province":"東京都","city":"西多摩郡瑞穂町","address":"東京都西多摩郡瑞穂町大字駒形富士山","lat":35.782262,"lon":139.353924},{"name":"高根下公園","province":"東京都","city":"西多摩郡瑞穂町","address":"東京都西多摩郡瑞穂町大字高根","lat":35.785046,"lon":139.36432},{"name":"駒形公園","province":"東京都","city":"西多摩郡瑞穂町","address":"東京都西多摩郡瑞穂町大字二本木","lat":35.790657,"lon":139.366427},{"name":"吉野橋だれでもトイレ","province":"東京都","city":"西多摩郡瑞穂町","address":"東京都西多摩郡瑞穂町大字石畑","lat":35.768396,"lon":139.355049},{"name":"石畑防災広場","province":"東京都","city":"西多摩郡瑞穂町","address":"東京都西多摩郡瑞穂町大字石畑","lat":35.765831,"lon":139.355497},{"name":"元狭山広域防災広場","province":"東京都","city":"西多摩郡瑞穂町","address":"東京都西多摩郡瑞穂町大字二本木","lat":35.792736,"lon":139.351478},{"name":"下師岡公園","province":"東京都","city":"西多摩郡瑞穂町","address":"東京都西多摩郡瑞穂町長岡2丁目9","lat":35.775396,"lon":139.328264},{"name":"瑞穂町営グランド","province":"東京都","city":"西多摩郡瑞穂町","address":"東京都西多摩郡瑞穂町大字箱根ケ崎","lat":35.76728,"lon":139.34871},{"name":"瑞穂町営第２グランド","province":"東京都","city":"西多摩郡瑞穂町","address":"東京都西多摩郡瑞穂町箱根ケ崎西松原3","lat":35.76749,"lon":139.335417},{"name":"石畑地区スポーツ広場だれでもトイレ","province":"東京都","city":"西多摩郡瑞穂町","address":"東京都西多摩郡瑞穂町大字石畑","lat":35.765285,"lon":139.358045},{"name":"瑞穂町営少年サッカー場","province":"東京都","city":"西多摩郡瑞穂町","address":"東京都西多摩郡瑞穂町大字駒形富士山320","lat":35.78127,"lon":139.351571},{"name":"町営第2庭球場","province":"東京都","city":"西多摩郡瑞穂町","address":"東京都西多摩郡瑞穂町箱根ケ崎西松原57","lat":35.772163,"lon":139.333013},{"name":"石畑公園","province":"東京都","city":"西多摩郡瑞穂町","address":"東京都西多摩郡瑞穂町石畑（大字）","lat":35.76716696,"lon":139.35720097},{"name":"瑞穂ビューパーク競技場","province":"東京都","city":"西多摩郡瑞穂町","address":"東京都西多摩郡瑞穂町箱根ケ崎（大字）2475","lat":35.77460487,"lon":139.35533972},{"name":"町営第２グラウンド","province":"東京都","city":"西多摩郡瑞穂町","address":"東京都西多摩郡瑞穂町箱根ケ崎西松原33-1","lat":35.77001618,"lon":139.33711925},{"name":"＊?耕心館","province":"東京都","city":"西多摩郡瑞穂町","address":"瑞穂町駒形富士山317-1","lat":35.780957,"lon":139.352604},{"name":"＊?瑞穂ビューパーク・スカイホール","province":"東京都","city":"西多摩郡瑞穂町","address":"瑞穂町箱根ケ崎2475","lat":35.774473,"lon":139.355377},{"name":"瑞穂スカイホール","province":"東京都","city":"西多摩郡瑞穂町","address":"東京都西多摩郡瑞穂町箱根ケ崎（大字）2475","lat":35.77460487,"lon":139.35533972},{"name":"瑞穂斎場","province":"東京都","city":"西多摩郡瑞穂町","address":"東京都西多摩郡瑞穂町富士山栗原新田（大字）244","lat":35.78176225,"lon":139.34704573},{"name":"野山北・六道山公園","province":"東京都","city":"西多摩郡瑞穂町","address":"東京都西多摩郡瑞穂町大字駒形富士山","lat":35.779047,"lon":139.354024},{"name":"野山北・六道山公園","province":"東京都","city":"西多摩郡瑞穂町","address":"東京都西多摩郡瑞穂町大字石畑","lat":35.770903,"lon":139.358433},{"name":"野山北・六道山公園","province":"東京都","city":"西多摩郡瑞穂町","address":"東京都西多摩郡瑞穂町大字石畑","lat":35.774866,"lon":139.368439},{"name":"瑞穂町役場（本庁舎）","province":"東京都","city":"西多摩郡瑞穂町","address":"東京都西多摩郡瑞穂町大字箱根ケ崎","lat":35.772046,"lon":139.354258},{"name":"瑞穂町役場（本庁舎）","province":"東京都","city":"西多摩郡瑞穂町","address":"東京都西多摩郡瑞穂町大字箱根ケ崎","lat":35.772047,"lon":139.354258},{"name":"瑞穂町役場（本庁舎）","province":"東京都","city":"西多摩郡瑞穂町","address":"東京都西多摩郡瑞穂町大字箱根ケ崎","lat":35.772047,"lon":139.354257},{"name":"瑞穂町町民会館","province":"東京都","city":"西多摩郡瑞穂町","address":"東京都西多摩郡瑞穂町大字石畑1875","lat":35.771695,"lon":139.354758},{"name":"瑞穂町町民会館","province":"東京都","city":"西多摩郡瑞穂町","address":"東京都西多摩郡瑞穂町大字石畑1875","lat":35.771688,"lon":139.354883},{"name":"元狭山コミュニティセンター","province":"東京都","city":"西多摩郡瑞穂町","address":"東京都西多摩郡瑞穂町大字二本木673-1","lat":35.790981,"lon":139.35552},{"name":"石畑会館","province":"東京都","city":"西多摩郡瑞穂町","address":"東京都西多摩郡瑞穂町大字石畑211","lat":35.765602,"lon":139.35551},{"name":"長岡南会館だれでもトイレ","province":"東京都","city":"西多摩郡瑞穂町","address":"東京都西多摩郡瑞穂町長岡4丁目6-4","lat":35.77728,"lon":139.328725},{"name":"箱根ケ崎西会館だれでもトイレ","province":"東京都","city":"西多摩郡瑞穂町","address":"東京都西多摩郡瑞穂町箱根ケ崎東松原16-3","lat":35.774116,"lon":139.339761},{"name":"箱根ケ崎南会館だれでもトイレ","province":"東京都","city":"西多摩郡瑞穂町","address":"東京都西多摩郡瑞穂町大字武蔵3","lat":35.768173,"lon":139.349375},{"name":"箱根ケ崎北会館だれでもトイレ","province":"東京都","city":"西多摩郡瑞穂町","address":"東京都西多摩郡瑞穂町大字箱根ケ崎2","lat":35.776211,"lon":139.350325},{"name":"長岡コミュニティセンター","province":"東京都","city":"西多摩郡瑞穂町","address":"東京都西多摩郡瑞穂町大字箱根ケ崎1180","lat":35.780901,"lon":139.337323},{"name":"長岡コミュニティセンター","province":"東京都","city":"西多摩郡瑞穂町","address":"東京都西多摩郡瑞穂町大字箱根ケ崎1180","lat":35.780927,"lon":139.337258},{"name":"武蔵野コミュニティセンター","province":"東京都","city":"西多摩郡瑞穂町","address":"東京都西多摩郡瑞穂町むさし野1丁目5","lat":35.761674,"lon":139.339849},{"name":"石畑中央会館だれでもトイレ","province":"東京都","city":"西多摩郡瑞穂町","address":"東京都西多摩郡瑞穂町大字石畑1837","lat":35.769278,"lon":139.35633},{"name":"瑞穂町ふれあいセンター","province":"東京都","city":"西多摩郡瑞穂町","address":"東京都西多摩郡瑞穂町大字石畑2008","lat":35.774474,"lon":139.357313},{"name":"瑞穂町ふれあいセンター","province":"東京都","city":"西多摩郡瑞穂町","address":"東京都西多摩郡瑞穂町大字石畑2008","lat":35.774474,"lon":139.357314},{"name":"瑞穂町保健センター","province":"東京都","city":"西多摩郡瑞穂町","address":"東京都西多摩郡瑞穂町大字石畑1970","lat":35.773735,"lon":139.35666},{"name":"瑞穂町郷土資料館","province":"東京都","city":"西多摩郡瑞穂町","address":"東京都西多摩郡瑞穂町大字駒形富士山316-5","lat":35.780575,"lon":139.352162},{"name":"耕心館","province":"東京都","city":"西多摩郡瑞穂町","address":"東京都西多摩郡瑞穂町大字駒形富士山317-1","lat":35.781016,"lon":139.352588},{"name":"瑞穂ビューパーク・スカイホール","province":"東京都","city":"西多摩郡瑞穂町","address":"東京都西多摩郡瑞穂町大字箱根ケ崎2475","lat":35.774889,"lon":139.355309},{"name":"瑞穂ビューパーク・スカイホール","province":"東京都","city":"西多摩郡瑞穂町","address":"東京都西多摩郡瑞穂町大字箱根ケ崎2475","lat":35.774635,"lon":139.355277},{"name":"瑞穂ビューパーク・スカイホール","province":"東京都","city":"西多摩郡瑞穂町","address":"東京都西多摩郡瑞穂町大字箱根ケ崎2475","lat":35.774486,"lon":139.355569},{"name":"瑞穂ビューパーク・スカイホール","province":"東京都","city":"西多摩郡瑞穂町","address":"東京都西多摩郡瑞穂町大字箱根ケ崎2475","lat":35.77453,"lon":139.355468},{"name":"瑞穂ビューパーク・スカイホール","province":"東京都","city":"西多摩郡瑞穂町","address":"東京都西多摩郡瑞穂町大字箱根ケ崎2475","lat":35.774705,"lon":139.355656},{"name":"みずほリサイクルプラザ","province":"東京都","city":"西多摩郡瑞穂町","address":"東京都西多摩郡瑞穂町大字箱根ケ崎1723","lat":35.768338,"lon":139.343281},{"name":"みずほリサイクルプラザ","province":"東京都","city":"西多摩郡瑞穂町","address":"東京都西多摩郡瑞穂町大字箱根ケ崎","lat":35.768208,"lon":139.342455},{"name":"みずほリサイクルプラザ","province":"東京都","city":"西多摩郡瑞穂町","address":"東京都西多摩郡瑞穂町大字箱根ケ崎1723","lat":35.768445,"lon":139.343267},{"name":"瑞穂中央体育館","province":"東京都","city":"西多摩郡瑞穂町","address":"東京都西多摩郡瑞穂町大字石畑1989-1","lat":35.77272,"lon":139.357058},{"name":"瑞穂町武道館","province":"東京都","city":"西多摩郡瑞穂町","address":"東京都西多摩郡瑞穂町大字箱根ケ崎519","lat":35.77545,"lon":139.347657},{"name":"シクラメンスポーツ公園","province":"東京都","city":"西多摩郡瑞穂町","address":"東京都西多摩郡瑞穂町大字箱根ケ崎","lat":35.78407,"lon":139.337653},{"name":"殿ケ谷ポケットパーク","province":"東京都","city":"西多摩郡瑞穂町","address":"東京都西多摩郡瑞穂町大字殿ケ谷","lat":35.764136,"lon":139.36052},{"name":"玉林寺公園","province":"東京都","city":"西多摩郡瑞穂町","address":"東京都西多摩郡瑞穂町大字殿ケ谷","lat":35.767921,"lon":139.362761},{"name":"狭山谷公園","province":"東京都","city":"西多摩郡瑞穂町","address":"東京都西多摩郡瑞穂町大字石畑","lat":35.773443,"lon":139.356797},{"name":"狭山池公園","province":"東京都","city":"西多摩郡瑞穂町","address":"東京都西多摩郡瑞穂町大字箱根ケ崎","lat":35.776019,"lon":139.347891},{"name":"さやま花多里の郷","province":"東京都","city":"西多摩郡瑞穂町","address":"東京都西多摩郡瑞穂町大字駒形富士山","lat":35.777128,"lon":139.350336},{"name":"かすが公園","province":"東京都","city":"西多摩郡瑞穂町","address":"東京都西多摩郡瑞穂町長岡4丁目24","lat":35.778932,"lon":139.326642},{"name":"下野公園","province":"東京都","city":"西多摩郡瑞穂町","address":"東京都西多摩郡瑞穂町長岡1丁目40","lat":35.77642,"lon":139.331846},{"name":"若草公園","province":"東京都","city":"西多摩郡瑞穂町","address":"東京都西多摩郡瑞穂町長岡1丁目17","lat":35.775281,"lon":139.334413},{"name":"長岡公園","province":"東京都","city":"西多摩郡瑞穂町","address":"東京都西多摩郡瑞穂町大字箱根ケ崎","lat":35.780783,"lon":139.337425},{"name":"長谷部緑地だれでもトイレ","province":"東京都","city":"西多摩郡瑞穂町","address":"東京都西多摩郡瑞穂町大字長岡長谷部","lat":35.78575,"lon":139.326285},{"name":"さくら公園","province":"東京都","city":"西多摩郡瑞穂町","address":"東京都西多摩郡瑞穂町箱根ケ崎東松原33","lat":35.775059,"lon":139.339468},{"name":"松原中央公園","province":"東京都","city":"西多摩郡瑞穂町","address":"東京都西多摩郡瑞穂町箱根ケ崎西松原42","lat":35.77225,"lon":139.333671},{"name":"松原西公園","province":"東京都","city":"西多摩郡瑞穂町","address":"東京都西多摩郡瑞穂町箱根ケ崎西松原20","lat":35.769346,"lon":139.335814},{"name":"松原ひがし公園","province":"東京都","city":"西多摩郡瑞穂町","address":"東京都西多摩郡瑞穂町箱根ケ崎東松原7","lat":35.770975,"lon":139.339756},{"name":"南平ひばり公園","province":"東京都","city":"西多摩郡瑞穂町","address":"東京都西多摩郡瑞穂町南平2丁目37","lat":35.765371,"lon":139.338396},{"name":"みずほさかえ公園","province":"東京都","city":"西多摩郡瑞穂町","address":"東京都西多摩郡瑞穂町むさし野2丁目43","lat":35.759172,"lon":139.337857},{"name":"富士見公園","province":"東京都","city":"西多摩郡瑞穂町","address":"東京都西多摩郡瑞穂町むさし野2丁目1","lat":35.759637,"lon":139.341726},{"name":"松山公園","province":"東京都","city":"西多摩郡瑞穂町","address":"東京都西多摩郡瑞穂町大字高根","lat":35.787135,"lon":139.349947},{"name":"二本木公園","province":"東京都","city":"西多摩郡瑞穂町","address":"東京都西多摩郡瑞穂町大字二本木","lat":35.791503,"lon":139.354759},{"name":"富士山公園","province":"東京都","city":"西多摩郡瑞穂町","address":"東京都西多摩郡瑞穂町大字駒形富士山","lat":35.782262,"lon":139.353924},{"name":"高根下公園","province":"東京都","city":"西多摩郡瑞穂町","address":"東京都西多摩郡瑞穂町大字高根","lat":35.785046,"lon":139.36432},{"name":"駒形公園","province":"東京都","city":"西多摩郡瑞穂町","address":"東京都西多摩郡瑞穂町大字二本木","lat":35.790657,"lon":139.366427},{"name":"吉野橋だれでもトイレ","province":"東京都","city":"西多摩郡瑞穂町","address":"東京都西多摩郡瑞穂町大字石畑","lat":35.768396,"lon":139.355049},{"name":"石畑防災広場","province":"東京都","city":"西多摩郡瑞穂町","address":"東京都西多摩郡瑞穂町大字石畑","lat":35.765831,"lon":139.355497},{"name":"元狭山広域防災広場","province":"東京都","city":"西多摩郡瑞穂町","address":"東京都西多摩郡瑞穂町大字二本木","lat":35.792736,"lon":139.351478},{"name":"下師岡公園","province":"東京都","city":"西多摩郡瑞穂町","address":"東京都西多摩郡瑞穂町長岡2丁目9","lat":35.775396,"lon":139.328264},{"name":"瑞穂町営グランド","province":"東京都","city":"西多摩郡瑞穂町","address":"東京都西多摩郡瑞穂町大字箱根ケ崎","lat":35.76728,"lon":139.34871},{"name":"瑞穂町営第２グランド","province":"東京都","city":"西多摩郡瑞穂町","address":"東京都西多摩郡瑞穂町箱根ケ崎西松原3","lat":35.76749,"lon":139.335417},{"name":"石畑地区スポーツ広場だれでもトイレ","province":"東京都","city":"西多摩郡瑞穂町","address":"東京都西多摩郡瑞穂町大字石畑","lat":35.765285,"lon":139.358045},{"name":"瑞穂町営少年サッカー場","province":"東京都","city":"西多摩郡瑞穂町","address":"東京都西多摩郡瑞穂町大字駒形富士山320","lat":35.78127,"lon":139.351571},{"name":"町営第2庭球場","province":"東京都","city":"西多摩郡瑞穂町","address":"東京都西多摩郡瑞穂町箱根ケ崎西松原57","lat":35.772163,"lon":139.333013},{"name":"＊?耕心館","province":"東京都","city":"西多摩郡瑞穂町","address":"瑞穂町駒形富士山317-1","lat":35.780957,"lon":139.352604},{"name":"＊?瑞穂ビューパーク・スカイホール","province":"東京都","city":"西多摩郡瑞穂町","address":"瑞穂町箱根ケ崎2475","lat":35.774473,"lon":139.355377},{"name":"野山北・六道山公園","province":"東京都","city":"西多摩郡瑞穂町","address":"東京都西多摩郡瑞穂町大字駒形富士山","lat":35.779047,"lon":139.354024},{"name":"野山北・六道山公園","province":"東京都","city":"西多摩郡瑞穂町","address":"東京都西多摩郡瑞穂町大字石畑","lat":35.770903,"lon":139.358433},{"name":"野山北・六道山公園","province":"東京都","city":"西多摩郡瑞穂町","address":"東京都西多摩郡瑞穂町大字石畑","lat":35.774866,"lon":139.368439},{"name":"瑞穂町役場（本庁舎）","province":"東京都","city":"西多摩郡瑞穂町","address":"東京都西多摩郡瑞穂町大字箱根ケ崎","lat":35.772046,"lon":139.354258},{"name":"瑞穂町役場（本庁舎）","province":"東京都","city":"西多摩郡瑞穂町","address":"東京都西多摩郡瑞穂町大字箱根ケ崎","lat":35.772047,"lon":139.354258},{"name":"瑞穂町役場（本庁舎）","province":"東京都","city":"西多摩郡瑞穂町","address":"東京都西多摩郡瑞穂町大字箱根ケ崎","lat":35.772047,"lon":139.354257},{"name":"瑞穂町町民会館","province":"東京都","city":"西多摩郡瑞穂町","address":"東京都西多摩郡瑞穂町大字石畑1875","lat":35.771695,"lon":139.354758},{"name":"瑞穂町町民会館","province":"東京都","city":"西多摩郡瑞穂町","address":"東京都西多摩郡瑞穂町大字石畑1875","lat":35.771688,"lon":139.354883},{"name":"元狭山コミュニティセンター","province":"東京都","city":"西多摩郡瑞穂町","address":"東京都西多摩郡瑞穂町大字二本木673-1","lat":35.790981,"lon":139.35552},{"name":"石畑会館","province":"東京都","city":"西多摩郡瑞穂町","address":"東京都西多摩郡瑞穂町大字石畑211","lat":35.765602,"lon":139.35551},{"name":"長岡南会館だれでもトイレ","province":"東京都","city":"西多摩郡瑞穂町","address":"東京都西多摩郡瑞穂町長岡4丁目6-4","lat":35.77728,"lon":139.328725},{"name":"箱根ケ崎西会館だれでもトイレ","province":"東京都","city":"西多摩郡瑞穂町","address":"東京都西多摩郡瑞穂町箱根ケ崎東松原16-3","lat":35.774116,"lon":139.339761},{"name":"箱根ケ崎南会館だれでもトイレ","province":"東京都","city":"西多摩郡瑞穂町","address":"東京都西多摩郡瑞穂町大字武蔵3","lat":35.768173,"lon":139.349375},{"name":"箱根ケ崎北会館だれでもトイレ","province":"東京都","city":"西多摩郡瑞穂町","address":"東京都西多摩郡瑞穂町大字箱根ケ崎2","lat":35.776211,"lon":139.350325},{"name":"長岡コミュニティセンター","province":"東京都","city":"西多摩郡瑞穂町","address":"東京都西多摩郡瑞穂町大字箱根ケ崎1180","lat":35.780901,"lon":139.337323},{"name":"長岡コミュニティセンター","province":"東京都","city":"西多摩郡瑞穂町","address":"東京都西多摩郡瑞穂町大字箱根ケ崎1180","lat":35.780927,"lon":139.337258},{"name":"武蔵野コミュニティセンター","province":"東京都","city":"西多摩郡瑞穂町","address":"東京都西多摩郡瑞穂町むさし野1丁目5","lat":35.761674,"lon":139.339849},{"name":"石畑中央会館だれでもトイレ","province":"東京都","city":"西多摩郡瑞穂町","address":"東京都西多摩郡瑞穂町大字石畑1837","lat":35.769278,"lon":139.35633},{"name":"瑞穂町ふれあいセンター","province":"東京都","city":"西多摩郡瑞穂町","address":"東京都西多摩郡瑞穂町大字石畑2008","lat":35.774474,"lon":139.357313},{"name":"瑞穂町ふれあいセンター","province":"東京都","city":"西多摩郡瑞穂町","address":"東京都西多摩郡瑞穂町大字石畑2008","lat":35.774474,"lon":139.357314},{"name":"瑞穂町保健センター","province":"東京都","city":"西多摩郡瑞穂町","address":"東京都西多摩郡瑞穂町大字石畑1970","lat":35.773735,"lon":139.35666},{"name":"瑞穂町郷土資料館","province":"東京都","city":"西多摩郡瑞穂町","address":"東京都西多摩郡瑞穂町大字駒形富士山316-5","lat":35.780575,"lon":139.352162},{"name":"耕心館","province":"東京都","city":"西多摩郡瑞穂町","address":"東京都西多摩郡瑞穂町大字駒形富士山317-1","lat":35.781016,"lon":139.352588},{"name":"瑞穂ビューパーク・スカイホール","province":"東京都","city":"西多摩郡瑞穂町","address":"東京都西多摩郡瑞穂町大字箱根ケ崎2475","lat":35.774889,"lon":139.355309},{"name":"瑞穂ビューパーク・スカイホール","province":"東京都","city":"西多摩郡瑞穂町","address":"東京都西多摩郡瑞穂町大字箱根ケ崎2475","lat":35.774635,"lon":139.355277},{"name":"瑞穂ビューパーク・スカイホール","province":"東京都","city":"西多摩郡瑞穂町","address":"東京都西多摩郡瑞穂町大字箱根ケ崎2475","lat":35.774486,"lon":139.355569},{"name":"瑞穂ビューパーク・スカイホール","province":"東京都","city":"西多摩郡瑞穂町","address":"東京都西多摩郡瑞穂町大字箱根ケ崎2475","lat":35.77453,"lon":139.355468},{"name":"瑞穂ビューパーク・スカイホール","province":"東京都","city":"西多摩郡瑞穂町","address":"東京都西多摩郡瑞穂町大字箱根ケ崎2475","lat":35.774705,"lon":139.355656},{"name":"みずほリサイクルプラザ","province":"東京都","city":"西多摩郡瑞穂町","address":"東京都西多摩郡瑞穂町大字箱根ケ崎1723","lat":35.768338,"lon":139.343281},{"name":"みずほリサイクルプラザ","province":"東京都","city":"西多摩郡瑞穂町","address":"東京都西多摩郡瑞穂町大字箱根ケ崎","lat":35.768208,"lon":139.342455},{"name":"みずほリサイクルプラザ","province":"東京都","city":"西多摩郡瑞穂町","address":"東京都西多摩郡瑞穂町大字箱根ケ崎1723","lat":35.768445,"lon":139.343267},{"name":"瑞穂中央体育館","province":"東京都","city":"西多摩郡瑞穂町","address":"東京都西多摩郡瑞穂町大字石畑1989-1","lat":35.77272,"lon":139.357058},{"name":"瑞穂町武道館","province":"東京都","city":"西多摩郡瑞穂町","address":"東京都西多摩郡瑞穂町大字箱根ケ崎519","lat":35.77545,"lon":139.347657},{"name":"シクラメンスポーツ公園","province":"東京都","city":"西多摩郡瑞穂町","address":"東京都西多摩郡瑞穂町大字箱根ケ崎","lat":35.78407,"lon":139.337653},{"name":"殿ケ谷ポケットパーク","province":"東京都","city":"西多摩郡瑞穂町","address":"東京都西多摩郡瑞穂町大字殿ケ谷","lat":35.764136,"lon":139.36052},{"name":"玉林寺公園","province":"東京都","city":"西多摩郡瑞穂町","address":"東京都西多摩郡瑞穂町大字殿ケ谷","lat":35.767921,"lon":139.362761},{"name":"狭山谷公園","province":"東京都","city":"西多摩郡瑞穂町","address":"東京都西多摩郡瑞穂町大字石畑","lat":35.773443,"lon":139.356797},{"name":"狭山池公園","province":"東京都","city":"西多摩郡瑞穂町","address":"東京都西多摩郡瑞穂町大字箱根ケ崎","lat":35.776019,"lon":139.347891},{"name":"さやま花多里の郷","province":"東京都","city":"西多摩郡瑞穂町","address":"東京都西多摩郡瑞穂町大字駒形富士山","lat":35.777128,"lon":139.350336},{"name":"かすが公園","province":"東京都","city":"西多摩郡瑞穂町","address":"東京都西多摩郡瑞穂町長岡4丁目24","lat":35.778932,"lon":139.326642},{"name":"下野公園","province":"東京都","city":"西多摩郡瑞穂町","address":"東京都西多摩郡瑞穂町長岡1丁目40","lat":35.77642,"lon":139.331846},{"name":"若草公園","province":"東京都","city":"西多摩郡瑞穂町","address":"東京都西多摩郡瑞穂町長岡1丁目17","lat":35.775281,"lon":139.334413},{"name":"長岡公園","province":"東京都","city":"西多摩郡瑞穂町","address":"東京都西多摩郡瑞穂町大字箱根ケ崎","lat":35.780783,"lon":139.337425},{"name":"長谷部緑地だれでもトイレ","province":"東京都","city":"西多摩郡瑞穂町","address":"東京都西多摩郡瑞穂町大字長岡長谷部","lat":35.78575,"lon":139.326285},{"name":"さくら公園","province":"東京都","city":"西多摩郡瑞穂町","address":"東京都西多摩郡瑞穂町箱根ケ崎東松原33","lat":35.775059,"lon":139.339468},{"name":"松原中央公園","province":"東京都","city":"西多摩郡瑞穂町","address":"東京都西多摩郡瑞穂町箱根ケ崎西松原42","lat":35.77225,"lon":139.333671},{"name":"松原西公園","province":"東京都","city":"西多摩郡瑞穂町","address":"東京都西多摩郡瑞穂町箱根ケ崎西松原20","lat":35.769346,"lon":139.335814},{"name":"松原ひがし公園","province":"東京都","city":"西多摩郡瑞穂町","address":"東京都西多摩郡瑞穂町箱根ケ崎東松原7","lat":35.770975,"lon":139.339756},{"name":"南平ひばり公園","province":"東京都","city":"西多摩郡瑞穂町","address":"東京都西多摩郡瑞穂町南平2丁目37","lat":35.765371,"lon":139.338396},{"name":"みずほさかえ公園","province":"東京都","city":"西多摩郡瑞穂町","address":"東京都西多摩郡瑞穂町むさし野2丁目43","lat":35.759172,"lon":139.337857},{"name":"富士見公園","province":"東京都","city":"西多摩郡瑞穂町","address":"東京都西多摩郡瑞穂町むさし野2丁目1","lat":35.759637,"lon":139.341726},{"name":"松山公園","province":"東京都","city":"西多摩郡瑞穂町","address":"東京都西多摩郡瑞穂町大字高根","lat":35.787135,"lon":139.349947},{"name":"二本木公園","province":"東京都","city":"西多摩郡瑞穂町","address":"東京都西多摩郡瑞穂町大字二本木","lat":35.791503,"lon":139.354759},{"name":"富士山公園","province":"東京都","city":"西多摩郡瑞穂町","address":"東京都西多摩郡瑞穂町大字駒形富士山","lat":35.782262,"lon":139.353924},{"name":"高根下公園","province":"東京都","city":"西多摩郡瑞穂町","address":"東京都西多摩郡瑞穂町大字高根","lat":35.785046,"lon":139.36432},{"name":"駒形公園","province":"東京都","city":"西多摩郡瑞穂町","address":"東京都西多摩郡瑞穂町大字二本木","lat":35.790657,"lon":139.366427},{"name":"吉野橋だれでもトイレ","province":"東京都","city":"西多摩郡瑞穂町","address":"東京都西多摩郡瑞穂町大字石畑","lat":35.768396,"lon":139.355049},{"name":"石畑防災広場","province":"東京都","city":"西多摩郡瑞穂町","address":"東京都西多摩郡瑞穂町大字石畑","lat":35.765831,"lon":139.355497},{"name":"元狭山広域防災広場","province":"東京都","city":"西多摩郡瑞穂町","address":"東京都西多摩郡瑞穂町大字二本木","lat":35.792736,"lon":139.351478},{"name":"下師岡公園","province":"東京都","city":"西多摩郡瑞穂町","address":"東京都西多摩郡瑞穂町長岡2丁目9","lat":35.775396,"lon":139.328264},{"name":"瑞穂町営グランド","province":"東京都","city":"西多摩郡瑞穂町","address":"東京都西多摩郡瑞穂町大字箱根ケ崎","lat":35.76728,"lon":139.34871},{"name":"瑞穂町営第２グランド","province":"東京都","city":"西多摩郡瑞穂町","address":"東京都西多摩郡瑞穂町箱根ケ崎西松原3","lat":35.76749,"lon":139.335417},{"name":"石畑地区スポーツ広場だれでもトイレ","province":"東京都","city":"西多摩郡瑞穂町","address":"東京都西多摩郡瑞穂町大字石畑","lat":35.765285,"lon":139.358045},{"name":"瑞穂町営少年サッカー場","province":"東京都","city":"西多摩郡瑞穂町","address":"東京都西多摩郡瑞穂町大字駒形富士山320","lat":35.78127,"lon":139.351571},{"name":"町営第2庭球場","province":"東京都","city":"西多摩郡瑞穂町","address":"東京都西多摩郡瑞穂町箱根ケ崎西松原57","lat":35.772163,"lon":139.333013},{"name":"＊?耕心館","province":"東京都","city":"西多摩郡瑞穂町","address":"瑞穂町駒形富士山317-1","lat":35.780957,"lon":139.352604},{"name":"＊?瑞穂ビューパーク・スカイホール","province":"東京都","city":"西多摩郡瑞穂町","address":"瑞穂町箱根ケ崎2475","lat":35.774473,"lon":139.355377},{"name":"野山北・六道山公園","province":"東京都","city":"西多摩郡瑞穂町","address":"東京都西多摩郡瑞穂町大字駒形富士山","lat":35.779047,"lon":139.354024},{"name":"野山北・六道山公園","province":"東京都","city":"西多摩郡瑞穂町","address":"東京都西多摩郡瑞穂町大字石畑","lat":35.770903,"lon":139.358433},{"name":"野山北・六道山公園","province":"東京都","city":"西多摩郡瑞穂町","address":"東京都西多摩郡瑞穂町大字石畑","lat":35.774866,"lon":139.368439},{"name":"瑞穂町役場（本庁舎）","province":"東京都","city":"西多摩郡瑞穂町","address":"東京都西多摩郡瑞穂町大字箱根ケ崎","lat":35.772046,"lon":139.354258},{"name":"瑞穂町役場（本庁舎）","province":"東京都","city":"西多摩郡瑞穂町","address":"東京都西多摩郡瑞穂町大字箱根ケ崎","lat":35.772047,"lon":139.354258},{"name":"瑞穂町役場（本庁舎）","province":"東京都","city":"西多摩郡瑞穂町","address":"東京都西多摩郡瑞穂町大字箱根ケ崎","lat":35.772047,"lon":139.354257},{"name":"瑞穂町町民会館","province":"東京都","city":"西多摩郡瑞穂町","address":"東京都西多摩郡瑞穂町大字石畑1875","lat":35.771695,"lon":139.354758},{"name":"瑞穂町町民会館","province":"東京都","city":"西多摩郡瑞穂町","address":"東京都西多摩郡瑞穂町大字石畑1875","lat":35.771688,"lon":139.354883},{"name":"元狭山コミュニティセンター","province":"東京都","city":"西多摩郡瑞穂町","address":"東京都西多摩郡瑞穂町大字二本木673-1","lat":35.790981,"lon":139.35552},{"name":"石畑会館","province":"東京都","city":"西多摩郡瑞穂町","address":"東京都西多摩郡瑞穂町大字石畑211","lat":35.765602,"lon":139.35551},{"name":"長岡南会館だれでもトイレ","province":"東京都","city":"西多摩郡瑞穂町","address":"東京都西多摩郡瑞穂町長岡4丁目6-4","lat":35.77728,"lon":139.328725},{"name":"箱根ケ崎西会館だれでもトイレ","province":"東京都","city":"西多摩郡瑞穂町","address":"東京都西多摩郡瑞穂町箱根ケ崎東松原16-3","lat":35.774116,"lon":139.339761},{"name":"箱根ケ崎南会館だれでもトイレ","province":"東京都","city":"西多摩郡瑞穂町","address":"東京都西多摩郡瑞穂町大字武蔵3","lat":35.768173,"lon":139.349375},{"name":"箱根ケ崎北会館だれでもトイレ","province":"東京都","city":"西多摩郡瑞穂町","address":"東京都西多摩郡瑞穂町大字箱根ケ崎2","lat":35.776211,"lon":139.350325},{"name":"長岡コミュニティセンター","province":"東京都","city":"西多摩郡瑞穂町","address":"東京都西多摩郡瑞穂町大字箱根ケ崎1180","lat":35.780901,"lon":139.337323},{"name":"長岡コミュニティセンター","province":"東京都","city":"西多摩郡瑞穂町","address":"東京都西多摩郡瑞穂町大字箱根ケ崎1180","lat":35.780927,"lon":139.337258},{"name":"武蔵野コミュニティセンター","province":"東京都","city":"西多摩郡瑞穂町","address":"東京都西多摩郡瑞穂町むさし野1丁目5","lat":35.761674,"lon":139.339849},{"name":"石畑中央会館だれでもトイレ","province":"東京都","city":"西多摩郡瑞穂町","address":"東京都西多摩郡瑞穂町大字石畑1837","lat":35.769278,"lon":139.35633},{"name":"瑞穂町ふれあいセンター","province":"東京都","city":"西多摩郡瑞穂町","address":"東京都西多摩郡瑞穂町大字石畑2008","lat":35.774474,"lon":139.357313},{"name":"瑞穂町ふれあいセンター","province":"東京都","city":"西多摩郡瑞穂町","address":"東京都西多摩郡瑞穂町大字石畑2008","lat":35.774474,"lon":139.357314},{"name":"瑞穂町保健センター","province":"東京都","city":"西多摩郡瑞穂町","address":"東京都西多摩郡瑞穂町大字石畑1970","lat":35.773735,"lon":139.35666},{"name":"瑞穂町郷土資料館","province":"東京都","city":"西多摩郡瑞穂町","address":"東京都西多摩郡瑞穂町大字駒形富士山316-5","lat":35.780575,"lon":139.352162},{"name":"耕心館","province":"東京都","city":"西多摩郡瑞穂町","address":"東京都西多摩郡瑞穂町大字駒形富士山317-1","lat":35.781016,"lon":139.352588},{"name":"瑞穂ビューパーク・スカイホール","province":"東京都","city":"西多摩郡瑞穂町","address":"東京都西多摩郡瑞穂町大字箱根ケ崎2475","lat":35.774889,"lon":139.355309},{"name":"瑞穂ビューパーク・スカイホール","province":"東京都","city":"西多摩郡瑞穂町","address":"東京都西多摩郡瑞穂町大字箱根ケ崎2475","lat":35.774635,"lon":139.355277},{"name":"瑞穂ビューパーク・スカイホール","province":"東京都","city":"西多摩郡瑞穂町","address":"東京都西多摩郡瑞穂町大字箱根ケ崎2475","lat":35.774486,"lon":139.355569},{"name":"瑞穂ビューパーク・スカイホール","province":"東京都","city":"西多摩郡瑞穂町","address":"東京都西多摩郡瑞穂町大字箱根ケ崎2475","lat":35.77453,"lon":139.355468},{"name":"瑞穂ビューパーク・スカイホール","province":"東京都","city":"西多摩郡瑞穂町","address":"東京都西多摩郡瑞穂町大字箱根ケ崎2475","lat":35.774705,"lon":139.355656},{"name":"みずほリサイクルプラザ","province":"東京都","city":"西多摩郡瑞穂町","address":"東京都西多摩郡瑞穂町大字箱根ケ崎1723","lat":35.768338,"lon":139.343281},{"name":"みずほリサイクルプラザ","province":"東京都","city":"西多摩郡瑞穂町","address":"東京都西多摩郡瑞穂町大字箱根ケ崎","lat":35.768208,"lon":139.342455},{"name":"みずほリサイクルプラザ","province":"東京都","city":"西多摩郡瑞穂町","address":"東京都西多摩郡瑞穂町大字箱根ケ崎1723","lat":35.768445,"lon":139.343267},{"name":"瑞穂中央体育館","province":"東京都","city":"西多摩郡瑞穂町","address":"東京都西多摩郡瑞穂町大字石畑1989-1","lat":35.77272,"lon":139.357058},{"name":"瑞穂町武道館","province":"東京都","city":"西多摩郡瑞穂町","address":"東京都西多摩郡瑞穂町大字箱根ケ崎519","lat":35.77545,"lon":139.347657},{"name":"シクラメンスポーツ公園","province":"東京都","city":"西多摩郡瑞穂町","address":"東京都西多摩郡瑞穂町大字箱根ケ崎","lat":35.78407,"lon":139.337653},{"name":"殿ケ谷ポケットパーク","province":"東京都","city":"西多摩郡瑞穂町","address":"東京都西多摩郡瑞穂町大字殿ケ谷","lat":35.764136,"lon":139.36052},{"name":"玉林寺公園","province":"東京都","city":"西多摩郡瑞穂町","address":"東京都西多摩郡瑞穂町大字殿ケ谷","lat":35.767921,"lon":139.362761},{"name":"狭山谷公園","province":"東京都","city":"西多摩郡瑞穂町","address":"東京都西多摩郡瑞穂町大字石畑","lat":35.773443,"lon":139.356797},{"name":"狭山池公園","province":"東京都","city":"西多摩郡瑞穂町","address":"東京都西多摩郡瑞穂町大字箱根ケ崎","lat":35.776019,"lon":139.347891},{"name":"さやま花多里の郷","province":"東京都","city":"西多摩郡瑞穂町","address":"東京都西多摩郡瑞穂町大字駒形富士山","lat":35.777128,"lon":139.350336},{"name":"かすが公園","province":"東京都","city":"西多摩郡瑞穂町","address":"東京都西多摩郡瑞穂町長岡4丁目24","lat":35.778932,"lon":139.326642},{"name":"下野公園","province":"東京都","city":"西多摩郡瑞穂町","address":"東京都西多摩郡瑞穂町長岡1丁目40","lat":35.77642,"lon":139.331846},{"name":"若草公園","province":"東京都","city":"西多摩郡瑞穂町","address":"東京都西多摩郡瑞穂町長岡1丁目17","lat":35.775281,"lon":139.334413},{"name":"長岡公園","province":"東京都","city":"西多摩郡瑞穂町","address":"東京都西多摩郡瑞穂町大字箱根ケ崎","lat":35.780783,"lon":139.337425},{"name":"長谷部緑地だれでもトイレ","province":"東京都","city":"西多摩郡瑞穂町","address":"東京都西多摩郡瑞穂町大字長岡長谷部","lat":35.78575,"lon":139.326285},{"name":"さくら公園","province":"東京都","city":"西多摩郡瑞穂町","address":"東京都西多摩郡瑞穂町箱根ケ崎東松原33","lat":35.775059,"lon":139.339468},{"name":"松原中央公園","province":"東京都","city":"西多摩郡瑞穂町","address":"東京都西多摩郡瑞穂町箱根ケ崎西松原42","lat":35.77225,"lon":139.333671},{"name":"松原西公園","province":"東京都","city":"西多摩郡瑞穂町","address":"東京都西多摩郡瑞穂町箱根ケ崎西松原20","lat":35.769346,"lon":139.335814},{"name":"松原ひがし公園","province":"東京都","city":"西多摩郡瑞穂町","address":"東京都西多摩郡瑞穂町箱根ケ崎東松原7","lat":35.770975,"lon":139.339756},{"name":"南平ひばり公園","province":"東京都","city":"西多摩郡瑞穂町","address":"東京都西多摩郡瑞穂町南平2丁目37","lat":35.765371,"lon":139.338396},{"name":"みずほさかえ公園","province":"東京都","city":"西多摩郡瑞穂町","address":"東京都西多摩郡瑞穂町むさし野2丁目43","lat":35.759172,"lon":139.337857},{"name":"富士見公園","province":"東京都","city":"西多摩郡瑞穂町","address":"東京都西多摩郡瑞穂町むさし野2丁目1","lat":35.759637,"lon":139.341726},{"name":"松山公園","province":"東京都","city":"西多摩郡瑞穂町","address":"東京都西多摩郡瑞穂町大字高根","lat":35.787135,"lon":139.349947},{"name":"二本木公園","province":"東京都","city":"西多摩郡瑞穂町","address":"東京都西多摩郡瑞穂町大字二本木","lat":35.791503,"lon":139.354759},{"name":"富士山公園","province":"東京都","city":"西多摩郡瑞穂町","address":"東京都西多摩郡瑞穂町大字駒形富士山","lat":35.782262,"lon":139.353924},{"name":"高根下公園","province":"東京都","city":"西多摩郡瑞穂町","address":"東京都西多摩郡瑞穂町大字高根","lat":35.785046,"lon":139.36432},{"name":"駒形公園","province":"東京都","city":"西多摩郡瑞穂町","address":"東京都西多摩郡瑞穂町大字二本木","lat":35.790657,"lon":139.366427},{"name":"吉野橋だれでもトイレ","province":"東京都","city":"西多摩郡瑞穂町","address":"東京都西多摩郡瑞穂町大字石畑","lat":35.768396,"lon":139.355049},{"name":"石畑防災広場","province":"東京都","city":"西多摩郡瑞穂町","address":"東京都西多摩郡瑞穂町大字石畑","lat":35.765831,"lon":139.355497},{"name":"元狭山広域防災広場","province":"東京都","city":"西多摩郡瑞穂町","address":"東京都西多摩郡瑞穂町大字二本木","lat":35.792736,"lon":139.351478},{"name":"下師岡公園","province":"東京都","city":"西多摩郡瑞穂町","address":"東京都西多摩郡瑞穂町長岡2丁目9","lat":35.775396,"lon":139.328264},{"name":"瑞穂町営グランド","province":"東京都","city":"西多摩郡瑞穂町","address":"東京都西多摩郡瑞穂町大字箱根ケ崎","lat":35.76728,"lon":139.34871},{"name":"瑞穂町営第２グランド","province":"東京都","city":"西多摩郡瑞穂町","address":"東京都西多摩郡瑞穂町箱根ケ崎西松原3","lat":35.76749,"lon":139.335417},{"name":"石畑地区スポーツ広場だれでもトイレ","province":"東京都","city":"西多摩郡瑞穂町","address":"東京都西多摩郡瑞穂町大字石畑","lat":35.765285,"lon":139.358045},{"name":"瑞穂町営少年サッカー場","province":"東京都","city":"西多摩郡瑞穂町","address":"東京都西多摩郡瑞穂町大字駒形富士山320","lat":35.78127,"lon":139.351571},{"name":"町営第2庭球場","province":"東京都","city":"西多摩郡瑞穂町","address":"東京都西多摩郡瑞穂町箱根ケ崎西松原57","lat":35.772163,"lon":139.333013},{"name":"＊?耕心館","province":"東京都","city":"西多摩郡瑞穂町","address":"瑞穂町駒形富士山317-1","lat":35.780957,"lon":139.352604},{"name":"＊?瑞穂ビューパーク・スカイホール","province":"東京都","city":"西多摩郡瑞穂町","address":"瑞穂町箱根ケ崎2475","lat":35.774473,"lon":139.355377},{"name":"＊?耕心館","province":"東京都","city":"西多摩郡瑞穂町","address":"瑞穂町駒形富士山317-1","lat":35.780957,"lon":139.352604},{"name":"＊?瑞穂ビューパーク・スカイホール","province":"東京都","city":"西多摩郡瑞穂町","address":"瑞穂町箱根ケ崎2475","lat":35.774473,"lon":139.355377},{"name":"＊?耕心館","province":"東京都","city":"西多摩郡瑞穂町","address":"瑞穂町駒形富士山317-1","lat":35.780957,"lon":139.352604},{"name":"＊?瑞穂ビューパーク・スカイホール","province":"東京都","city":"西多摩郡瑞穂町","address":"瑞穂町箱根ケ崎2475","lat":35.774473,"lon":139.355377},{"name":"＊?耕心館","province":"東京都","city":"西多摩郡瑞穂町","address":"瑞穂町駒形富士山317-1","lat":35.780957,"lon":139.352604},{"name":"＊?瑞穂ビューパーク・スカイホール","province":"東京都","city":"西多摩郡瑞穂町","address":"瑞穂町箱根ケ崎2475","lat":35.774473,"lon":139.355377},{"name":"＊?耕心館","province":"東京都","city":"西多摩郡瑞穂町","address":"瑞穂町駒形富士山317-1","lat":35.780957,"lon":139.352604},{"name":"＊?瑞穂ビューパーク・スカイホール","province":"東京都","city":"西多摩郡瑞穂町","address":"瑞穂町箱根ケ崎2475","lat":35.774473,"lon":139.355377},{"name":"＊?耕心館","province":"東京都","city":"西多摩郡瑞穂町","address":"瑞穂町駒形富士山317-1","lat":35.780957,"lon":139.352604},{"name":"＊?瑞穂ビューパーク・スカイホール","province":"東京都","city":"西多摩郡瑞穂町","address":"瑞穂町箱根ケ崎2475","lat":35.774473,"lon":139.355377},{"name":"＊?耕心館","province":"東京都","city":"西多摩郡瑞穂町","address":"瑞穂町駒形富士山317-1","lat":35.780957,"lon":139.352604},{"name":"＊?瑞穂ビューパーク・スカイホール","province":"東京都","city":"西多摩郡瑞穂町","address":"瑞穂町箱根ケ崎2475","lat":35.774473,"lon":139.355377},{"name":"＊?耕心館","province":"東京都","city":"西多摩郡瑞穂町","address":"瑞穂町駒形富士山317-1","lat":35.780957,"lon":139.352604},{"name":"＊?瑞穂ビューパーク・スカイホール","province":"東京都","city":"西多摩郡瑞穂町","address":"瑞穂町箱根ケ崎2475","lat":35.774473,"lon":139.355377},{"name":"＊?耕心館","province":"東京都","city":"西多摩郡瑞穂町","address":"瑞穂町駒形富士山317-1","lat":35.780957,"lon":139.352604},{"name":"＊?瑞穂ビューパーク・スカイホール","province":"東京都","city":"西多摩郡瑞穂町","address":"瑞穂町箱根ケ崎2475","lat":35.774473,"lon":139.355377},{"name":"＊?耕心館","province":"東京都","city":"西多摩郡瑞穂町","address":"瑞穂町駒形富士山317-1","lat":35.780957,"lon":139.352604},{"name":"＊?瑞穂ビューパーク・スカイホール","province":"東京都","city":"西多摩郡瑞穂町","address":"瑞穂町箱根ケ崎2475","lat":35.774473,"lon":139.355377},{"name":"＊?耕心館","province":"東京都","city":"西多摩郡瑞穂町","address":"瑞穂町駒形富士山317-1","lat":35.780957,"lon":139.352604},{"name":"＊?瑞穂ビューパーク・スカイホール","province":"東京都","city":"西多摩郡瑞穂町","address":"瑞穂町箱根ケ崎2475","lat":35.774473,"lon":139.355377},{"name":"＊?耕心館","province":"東京都","city":"西多摩郡瑞穂町","address":"瑞穂町駒形富士山317-1","lat":35.780957,"lon":139.352604},{"name":"＊?瑞穂ビューパーク・スカイホール","province":"東京都","city":"西多摩郡瑞穂町","address":"瑞穂町箱根ケ崎2475","lat":35.774473,"lon":139.355377},{"name":"＊?耕心館","province":"東京都","city":"西多摩郡瑞穂町","address":"瑞穂町駒形富士山317-1","lat":35.780957,"lon":139.352604},{"name":"＊?瑞穂ビューパーク・スカイホール","province":"東京都","city":"西多摩郡瑞穂町","address":"瑞穂町箱根ケ崎2475","lat":35.774473,"lon":139.355377},{"name":"＊?耕心館","province":"東京都","city":"西多摩郡瑞穂町","address":"瑞穂町駒形富士山317-1","lat":35.780957,"lon":139.352604},{"name":"＊?瑞穂ビューパーク・スカイホール","province":"東京都","city":"西多摩郡瑞穂町","address":"瑞穂町箱根ケ崎2475","lat":35.774473,"lon":139.355377},{"name":"＊?耕心館","province":"東京都","city":"西多摩郡瑞穂町","address":"瑞穂町駒形富士山317-1","lat":35.780957,"lon":139.352604},{"name":"＊?瑞穂ビューパーク・スカイホール","province":"東京都","city":"西多摩郡瑞穂町","address":"瑞穂町箱根ケ崎2475","lat":35.774473,"lon":139.355377},{"name":"＊?耕心館","province":"東京都","city":"西多摩郡瑞穂町","address":"瑞穂町駒形富士山317-1","lat":35.780957,"lon":139.352604},{"name":"＊?瑞穂ビューパーク・スカイホール","province":"東京都","city":"西多摩郡瑞穂町","address":"瑞穂町箱根ケ崎2475","lat":35.774473,"lon":139.355377},{"name":"＊?耕心館","province":"東京都","city":"西多摩郡瑞穂町","address":"瑞穂町駒形富士山317-1","lat":35.780957,"lon":139.352604},{"name":"＊?瑞穂ビューパーク・スカイホール","province":"東京都","city":"西多摩郡瑞穂町","address":"瑞穂町箱根ケ崎2475","lat":35.774473,"lon":139.355377},{"name":"＊?耕心館","province":"東京都","city":"西多摩郡瑞穂町","address":"瑞穂町駒形富士山317-1","lat":35.780957,"lon":139.352604},{"name":"＊?瑞穂ビューパーク・スカイホール","province":"東京都","city":"西多摩郡瑞穂町","address":"瑞穂町箱根ケ崎2475","lat":35.774473,"lon":139.355377},{"name":"＊?耕心館","province":"東京都","city":"西多摩郡瑞穂町","address":"瑞穂町駒形富士山317-1","lat":35.780957,"lon":139.352604},{"name":"＊?瑞穂ビューパーク・スカイホール","province":"東京都","city":"西多摩郡瑞穂町","address":"瑞穂町箱根ケ崎2475","lat":35.774473,"lon":139.355377},{"name":"＊?耕心館","province":"東京都","city":"西多摩郡瑞穂町","address":"瑞穂町駒形富士山317-1","lat":35.780957,"lon":139.352604},{"name":"＊?瑞穂ビューパーク・スカイホール","province":"東京都","city":"西多摩郡瑞穂町","address":"瑞穂町箱根ケ崎2475","lat":35.774473,"lon":139.355377},{"name":"＊?耕心館","province":"東京都","city":"西多摩郡瑞穂町","address":"瑞穂町駒形富士山317-1","lat":35.780957,"lon":139.352604},{"name":"＊?瑞穂ビューパーク・スカイホール","province":"東京都","city":"西多摩郡瑞穂町","address":"瑞穂町箱根ケ崎2475","lat":35.774473,"lon":139.355377},{"name":"＊?耕心館","province":"東京都","city":"西多摩郡瑞穂町","address":"瑞穂町駒形富士山317-1","lat":35.780957,"lon":139.352604},{"name":"＊?瑞穂ビューパーク・スカイホール","province":"東京都","city":"西多摩郡瑞穂町","address":"瑞穂町箱根ケ崎2475","lat":35.774473,"lon":139.355377},{"name":"＊?耕心館","province":"東京都","city":"西多摩郡瑞穂町","address":"瑞穂町駒形富士山317-1","lat":35.780957,"lon":139.352604},{"name":"＊?瑞穂ビューパーク・スカイホール","province":"東京都","city":"西多摩郡瑞穂町","address":"瑞穂町箱根ケ崎2475","lat":35.774473,"lon":139.355377},{"name":"＊?耕心館","province":"東京都","city":"西多摩郡瑞穂町","address":"瑞穂町駒形富士山317-1","lat":35.780957,"lon":139.352604},{"name":"＊?瑞穂ビューパーク・スカイホール","province":"東京都","city":"西多摩郡瑞穂町","address":"瑞穂町箱根ケ崎2475","lat":35.774473,"lon":139.355377},{"name":"＊?耕心館","province":"東京都","city":"西多摩郡瑞穂町","address":"瑞穂町駒形富士山317-1","lat":35.780957,"lon":139.352604},{"name":"＊?瑞穂ビューパーク・スカイホール","province":"東京都","city":"西多摩郡瑞穂町","address":"瑞穂町箱根ケ崎2475","lat":35.774473,"lon":139.355377},{"name":"＊?耕心館","province":"東京都","city":"西多摩郡瑞穂町","address":"瑞穂町駒形富士山317-1","lat":35.780957,"lon":139.352604},{"name":"＊?瑞穂ビューパーク・スカイホール","province":"東京都","city":"西多摩郡瑞穂町","address":"瑞穂町箱根ケ崎2475","lat":35.774473,"lon":139.355377},{"name":"＊?耕心館","province":"東京都","city":"西多摩郡瑞穂町","address":"瑞穂町駒形富士山317-1","lat":35.780957,"lon":139.352604},{"name":"＊?瑞穂ビューパーク・スカイホール","province":"東京都","city":"西多摩郡瑞穂町","address":"瑞穂町箱根ケ崎2475","lat":35.774473,"lon":139.355377},{"name":"＊?耕心館","province":"東京都","city":"西多摩郡瑞穂町","address":"瑞穂町駒形富士山317-1","lat":35.780957,"lon":139.352604},{"name":"＊?瑞穂ビューパーク・スカイホール","province":"東京都","city":"西多摩郡瑞穂町","address":"瑞穂町箱根ケ崎2475","lat":35.774473,"lon":139.355377},{"name":"＊?耕心館","province":"東京都","city":"西多摩郡瑞穂町","address":"瑞穂町駒形富士山317-1","lat":35.780957,"lon":139.352604},{"name":"＊?瑞穂ビューパーク・スカイホール","province":"東京都","city":"西多摩郡瑞穂町","address":"瑞穂町箱根ケ崎2475","lat":35.774473,"lon":139.355377},{"name":"＊?耕心館","province":"東京都","city":"西多摩郡瑞穂町","address":"瑞穂町駒形富士山317-1","lat":35.780957,"lon":139.352604},{"name":"＊?瑞穂ビューパーク・スカイホール","province":"東京都","city":"西多摩郡瑞穂町","address":"瑞穂町箱根ケ崎2475","lat":35.774473,"lon":139.355377},{"name":"＊?耕心館","province":"東京都","city":"西多摩郡瑞穂町","address":"瑞穂町駒形富士山317-1","lat":35.780957,"lon":139.352604},{"name":"＊?瑞穂ビューパーク・スカイホール","province":"東京都","city":"西多摩郡瑞穂町","address":"瑞穂町箱根ケ崎2475","lat":35.774473,"lon":139.355377},{"name":"＊?耕心館","province":"東京都","city":"西多摩郡瑞穂町","address":"瑞穂町駒形富士山317-1","lat":35.780957,"lon":139.352604},{"name":"＊?瑞穂ビューパーク・スカイホール","province":"東京都","city":"西多摩郡瑞穂町","address":"瑞穂町箱根ケ崎2475","lat":35.774473,"lon":139.355377},{"name":"＊?耕心館","province":"東京都","city":"西多摩郡瑞穂町","address":"瑞穂町駒形富士山317-1","lat":35.780957,"lon":139.352604},{"name":"＊?瑞穂ビューパーク・スカイホール","province":"東京都","city":"西多摩郡瑞穂町","address":"瑞穂町箱根ケ崎2475","lat":35.774473,"lon":139.355377},{"name":"＊?耕心館","province":"東京都","city":"西多摩郡瑞穂町","address":"瑞穂町駒形富士山317-1","lat":35.780957,"lon":139.352604},{"name":"＊?瑞穂ビューパーク・スカイホール","province":"東京都","city":"西多摩郡瑞穂町","address":"瑞穂町箱根ケ崎2475","lat":35.774473,"lon":139.355377},{"name":"＊?耕心館","province":"東京都","city":"西多摩郡瑞穂町","address":"瑞穂町駒形富士山317-1","lat":35.780957,"lon":139.352604},{"name":"＊?瑞穂ビューパーク・スカイホール","province":"東京都","city":"西多摩郡瑞穂町","address":"瑞穂町箱根ケ崎2475","lat":35.774473,"lon":139.355377},{"name":"＊?耕心館","province":"東京都","city":"西多摩郡瑞穂町","address":"瑞穂町駒形富士山317-1","lat":35.780957,"lon":139.352604},{"name":"＊?瑞穂ビューパーク・スカイホール","province":"東京都","city":"西多摩郡瑞穂町","address":"瑞穂町箱根ケ崎2475","lat":35.774473,"lon":139.355377},{"name":"＊?耕心館","province":"東京都","city":"西多摩郡瑞穂町","address":"瑞穂町駒形富士山317-1","lat":35.780957,"lon":139.352604},{"name":"＊?瑞穂ビューパーク・スカイホール","province":"東京都","city":"西多摩郡瑞穂町","address":"瑞穂町箱根ケ崎2475","lat":35.774473,"lon":139.355377},{"name":"＊?耕心館","province":"東京都","city":"西多摩郡瑞穂町","address":"瑞穂町駒形富士山317-1","lat":35.780957,"lon":139.352604},{"name":"＊?瑞穂ビューパーク・スカイホール","province":"東京都","city":"西多摩郡瑞穂町","address":"瑞穂町箱根ケ崎2475","lat":35.774473,"lon":139.355377},{"name":"＊?耕心館","province":"東京都","city":"西多摩郡瑞穂町","address":"瑞穂町駒形富士山317-1","lat":35.780957,"lon":139.352604},{"name":"＊?瑞穂ビューパーク・スカイホール","province":"東京都","city":"西多摩郡瑞穂町","address":"瑞穂町箱根ケ崎2475","lat":35.774473,"lon":139.355377},{"name":"＊?耕心館","province":"東京都","city":"西多摩郡瑞穂町","address":"瑞穂町駒形富士山317-1","lat":35.780957,"lon":139.352604},{"name":"＊?瑞穂ビューパーク・スカイホール","province":"東京都","city":"西多摩郡瑞穂町","address":"瑞穂町箱根ケ崎2475","lat":35.774473,"lon":139.355377},{"name":"＊?耕心館","province":"東京都","city":"西多摩郡瑞穂町","address":"瑞穂町駒形富士山317-1","lat":35.780957,"lon":139.352604},{"name":"＊?瑞穂ビューパーク・スカイホール","province":"東京都","city":"西多摩郡瑞穂町","address":"瑞穂町箱根ケ崎2475","lat":35.774473,"lon":139.355377},{"name":"＊?耕心館","province":"東京都","city":"西多摩郡瑞穂町","address":"瑞穂町駒形富士山317-1","lat":35.780957,"lon":139.352604},{"name":"＊?瑞穂ビューパーク・スカイホール","province":"東京都","city":"西多摩郡瑞穂町","address":"瑞穂町箱根ケ崎2475","lat":35.774473,"lon":139.355377},{"name":"＊?耕心館","province":"東京都","city":"西多摩郡瑞穂町","address":"瑞穂町駒形富士山317-1","lat":35.780957,"lon":139.352604},{"name":"＊?瑞穂ビューパーク・スカイホール","province":"東京都","city":"西多摩郡瑞穂町","address":"瑞穂町箱根ケ崎2475","lat":35.774473,"lon":139.355377},{"name":"＊?耕心館","province":"東京都","city":"西多摩郡瑞穂町","address":"瑞穂町駒形富士山317-1","lat":35.780957,"lon":139.352604},{"name":"＊?瑞穂ビューパーク・スカイホール","province":"東京都","city":"西多摩郡瑞穂町","address":"瑞穂町箱根ケ崎2475","lat":35.774473,"lon":139.355377},{"name":"＊?耕心館","province":"東京都","city":"西多摩郡瑞穂町","address":"瑞穂町駒形富士山317-1","lat":35.780957,"lon":139.352604},{"name":"＊?瑞穂ビューパーク・スカイホール","province":"東京都","city":"西多摩郡瑞穂町","address":"瑞穂町箱根ケ崎2475","lat":35.774473,"lon":139.355377},{"name":"＊?耕心館","province":"東京都","city":"西多摩郡瑞穂町","address":"瑞穂町駒形富士山317-1","lat":35.780957,"lon":139.352604},{"name":"＊?瑞穂ビューパーク・スカイホール","province":"東京都","city":"西多摩郡瑞穂町","address":"瑞穂町箱根ケ崎2475","lat":35.774473,"lon":139.355377},{"name":"＊?耕心館","province":"東京都","city":"西多摩郡瑞穂町","address":"瑞穂町駒形富士山317-1","lat":35.780957,"lon":139.352604},{"name":"＊?瑞穂ビューパーク・スカイホール","province":"東京都","city":"西多摩郡瑞穂町","address":"瑞穂町箱根ケ崎2475","lat":35.774473,"lon":139.355377},{"name":"＊?耕心館","province":"東京都","city":"西多摩郡瑞穂町","address":"瑞穂町駒形富士山317-1","lat":35.780957,"lon":139.352604},{"name":"＊?瑞穂ビューパーク・スカイホール","province":"東京都","city":"西多摩郡瑞穂町","address":"瑞穂町箱根ケ崎2475","lat":35.774473,"lon":139.355377}]}