{"keyword":"店","data":[{"name":"瑞穂町社会福祉協議会","province":"東京都","city":"西多摩郡瑞穂町","address":"西多摩郡瑞穂町石畑2008ふれあいセンター1階","lat":35.774469,"lon":139.357198},{"name":"瑞穂町社会福祉協議会","province":"東京都","city":"西多摩郡瑞穂町","address":"西多摩郡瑞穂町大字石畑2008ふれあいセンター1階","lat":35.77695,"lon":139.35938},{"name":"＊?瑞穂町生涯学習センター","province":"東京都","city":"西多摩郡瑞穂町","address":"瑞穂町箱根ケ崎2287","lat":35.769284,"lon":139.352739},{"name":"瑞穂町社会福祉協議会","province":"東京都","city":"西多摩郡瑞穂町","address":"西多摩郡瑞穂町石畑2008ふれあいセンター1階","lat":35.774469,"lon":139.357198},{"name":"瑞穂町社会福祉協議会","province":"東京都","city":"西多摩郡瑞穂町","address":"西多摩郡瑞穂町大字石畑2008ふれあいセンター1階","lat":35.77695,"lon":139.35938},{"name":"瑞穂町社会福祉協議会","province":"東京都","city":"西多摩郡瑞穂町","address":"西多摩郡瑞穂町石畑2008ふれあいセンター1階","lat":35.774469,"lon":139.357198},{"name":"瑞穂町社会福祉協議会","province":"東京都","city":"西多摩郡瑞穂町","address":"西多摩郡瑞穂町大字石畑2008ふれあいセンター1階","lat":35.77695,"lon":139.35938},{"name":"瑞穂町社会福祉協議会","province":"東京都","city":"西多摩郡瑞穂町","address":"西多摩郡瑞穂町石畑2008ふれあいセンター1階","lat":35.774469,"lon":139.357198},{"name":"瑞穂町社会福祉協議会","province":"東京都","city":"西多摩郡瑞穂町","address":"西多摩郡瑞穂町大字石畑2008ふれあいセンター1階","lat":35.77695,"lon":139.35938},{"name":"瑞穂町社会福祉協議会","province":"東京都","city":"西多摩郡瑞穂町","address":"西多摩郡瑞穂町石畑2008ふれあいセンター1階","lat":35.774469,"lon":139.357198},{"name":"瑞穂町社会福祉協議会","province":"東京都","city":"西多摩郡瑞穂町","address":"西多摩郡瑞穂町大字石畑2008ふれあいセンター1階","lat":35.77695,"lon":139.35938},{"name":"瑞穂町社会福祉協議会","province":"東京都","city":"西多摩郡瑞穂町","address":"西多摩郡瑞穂町石畑2008ふれあいセンター1階","lat":35.774469,"lon":139.357198},{"name":"瑞穂町社会福祉協議会","province":"東京都","city":"西多摩郡瑞穂町","address":"西多摩郡瑞穂町大字石畑2008ふれあいセンター1階","lat":35.77695,"lon":139.35938},{"name":"瑞穂町社会福祉協議会","province":"東京都","city":"西多摩郡瑞穂町","address":"西多摩郡瑞穂町石畑2008ふれあいセンター1階","lat":35.774469,"lon":139.357198},{"name":"瑞穂町社会福祉協議会","province":"東京都","city":"西多摩郡瑞穂町","address":"西多摩郡瑞穂町大字石畑2008ふれあいセンター1階","lat":35.77695,"lon":139.35938},{"name":"瑞穂町社会福祉協議会","province":"東京都","city":"西多摩郡瑞穂町","address":"西多摩郡瑞穂町石畑2008ふれあいセンター1階","lat":35.774469,"lon":139.357198},{"name":"瑞穂町社会福祉協議会","province":"東京都","city":"西多摩郡瑞穂町","address":"西多摩郡瑞穂町大字石畑2008ふれあいセンター1階","lat":35.77695,"lon":139.35938},{"name":"瑞穂町社会福祉協議会","province":"東京都","city":"西多摩郡瑞穂町","address":"西多摩郡瑞穂町石畑2008ふれあいセンター1階","lat":35.774469,"lon":139.357198},{"name":"瑞穂町社会福祉協議会","province":"東京都","city":"西多摩郡瑞穂町","address":"西多摩郡瑞穂町大字石畑2008ふれあいセンター1階","lat":35.77695,"lon":139.35938},{"name":"瑞穂町社会福祉協議会","province":"東京都","city":"西多摩郡瑞穂町","address":"西多摩郡瑞穂町石畑2008ふれあいセンター1階","lat":35.774469,"lon":139.357198},{"name":"瑞穂町社会福祉協議会","province":"東京都","city":"西多摩郡瑞穂町","address":"西多摩郡瑞穂町大字石畑2008ふれあいセンター1階","lat":35.77695,"lon":139.35938},{"name":"瑞穂町社会福祉協議会","province":"東京都","city":"西多摩郡瑞穂町","address":"西多摩郡瑞穂町石畑2008ふれあいセンター1階","lat":35.774469,"lon":139.357198},{"name":"瑞穂町社会福祉協議会","province":"東京都","city":"西多摩郡瑞穂町","address":"西多摩郡瑞穂町大字石畑2008ふれあいセンター1階","lat":35.77695,"lon":139.35938},{"name":"瑞穂町社会福祉協議会","province":"東京都","city":"西多摩郡瑞穂町","address":"西多摩郡瑞穂町石畑2008ふれあいセンター1階","lat":35.774469,"lon":139.357198},{"name":"瑞穂町社会福祉協議会","province":"東京都","city":"西多摩郡瑞穂町","address":"西多摩郡瑞穂町大字石畑2008ふれあいセンター1階","lat":35.77695,"lon":139.35938},{"name":"瑞穂町社会福祉協議会","province":"東京都","city":"西多摩郡瑞穂町","address":"西多摩郡瑞穂町石畑2008ふれあいセンター1階","lat":35.774469,"lon":139.357198},{"name":"瑞穂町社会福祉協議会","province":"東京都","city":"西多摩郡瑞穂町","address":"西多摩郡瑞穂町大字石畑2008ふれあいセンター1階","lat":35.77695,"lon":139.35938},{"name":"瑞穂町社会福祉協議会","province":"東京都","city":"西多摩郡瑞穂町","address":"西多摩郡瑞穂町石畑2008ふれあいセンター1階","lat":35.774469,"lon":139.357198},{"name":"瑞穂町社会福祉協議会","province":"東京都","city":"西多摩郡瑞穂町","address":"西多摩郡瑞穂町大字石畑2008ふれあいセンター1階","lat":35.77695,"lon":139.35938},{"name":"瑞穂町社会福祉協議会","province":"東京都","city":"西多摩郡瑞穂町","address":"西多摩郡瑞穂町石畑2008ふれあいセンター1階","lat":35.774469,"lon":139.357198},{"name":"瑞穂町社会福祉協議会","province":"東京都","city":"西多摩郡瑞穂町","address":"西多摩郡瑞穂町大字石畑2008ふれあいセンター1階","lat":35.77695,"lon":139.35938},{"name":"瑞穂町社会福祉協議会","province":"東京都","city":"西多摩郡瑞穂町","address":"西多摩郡瑞穂町石畑2008ふれあいセンター1階","lat":35.774469,"lon":139.357198},{"name":"瑞穂町社会福祉協議会","province":"東京都","city":"西多摩郡瑞穂町","address":"西多摩郡瑞穂町大字石畑2008ふれあいセンター1階","lat":35.77695,"lon":139.35938},{"name":"瑞穂町社会福祉協議会","province":"東京都","city":"西多摩郡瑞穂町","address":"西多摩郡瑞穂町石畑2008ふれあいセンター1階","lat":35.774469,"lon":139.357198},{"name":"瑞穂町社会福祉協議会","province":"東京都","city":"西多摩郡瑞穂町","address":"西多摩郡瑞穂町大字石畑2008ふれあいセンター1階","lat":35.77695,"lon":139.35938},{"name":"瑞穂町社会福祉協議会","province":"東京都","city":"西多摩郡瑞穂町","address":"西多摩郡瑞穂町石畑2008ふれあいセンター1階","lat":35.774469,"lon":139.357198},{"name":"瑞穂町社会福祉協議会","province":"東京都","city":"西多摩郡瑞穂町","address":"西多摩郡瑞穂町大字石畑2008ふれあいセンター1階","lat":35.77695,"lon":139.35938},{"name":"瑞穂町社会福祉協議会","province":"東京都","city":"西多摩郡瑞穂町","address":"西多摩郡瑞穂町石畑2008ふれあいセンター1階","lat":35.774469,"lon":139.357198},{"name":"瑞穂町社会福祉協議会","province":"東京都","city":"西多摩郡瑞穂町","address":"西多摩郡瑞穂町大字石畑2008ふれあいセンター1階","lat":35.77695,"lon":139.35938},{"name":"瑞穂町社会福祉協議会","province":"東京都","city":"西多摩郡瑞穂町","address":"西多摩郡瑞穂町石畑2008ふれあいセンター1階","lat":35.774469,"lon":139.357198},{"name":"瑞穂町社会福祉協議会","province":"東京都","city":"西多摩郡瑞穂町","address":"西多摩郡瑞穂町大字石畑2008ふれあいセンター1階","lat":35.77695,"lon":139.35938},{"name":"瑞穂町社会福祉協議会","province":"東京都","city":"西多摩郡瑞穂町","address":"西多摩郡瑞穂町石畑2008ふれあいセンター1階","lat":35.774469,"lon":139.357198},{"name":"瑞穂町社会福祉協議会","province":"東京都","city":"西多摩郡瑞穂町","address":"西多摩郡瑞穂町大字石畑2008ふれあいセンター1階","lat":35.77695,"lon":139.35938},{"name":"瑞穂町社会福祉協議会","province":"東京都","city":"西多摩郡瑞穂町","address":"西多摩郡瑞穂町石畑2008ふれあいセンター1階","lat":35.774469,"lon":139.357198},{"name":"瑞穂町社会福祉協議会","province":"東京都","city":"西多摩郡瑞穂町","address":"西多摩郡瑞穂町大字石畑2008ふれあいセンター1階","lat":35.77695,"lon":139.35938},{"name":"瑞穂町社会福祉協議会","province":"東京都","city":"西多摩郡瑞穂町","address":"西多摩郡瑞穂町石畑2008ふれあいセンター1階","lat":35.774469,"lon":139.357198},{"name":"瑞穂町社会福祉協議会","province":"東京都","city":"西多摩郡瑞穂町","address":"西多摩郡瑞穂町大字石畑2008ふれあいセンター1階","lat":35.77695,"lon":139.35938},{"name":"瑞穂町社会福祉協議会","province":"東京都","city":"西多摩郡瑞穂町","address":"西多摩郡瑞穂町石畑2008ふれあいセンター1階","lat":35.774469,"lon":139.357198},{"name":"瑞穂町社会福祉協議会","province":"東京都","city":"西多摩郡瑞穂町","address":"西多摩郡瑞穂町大字石畑2008ふれあいセンター1階","lat":35.77695,"lon":139.35938},{"name":"瑞穂町社会福祉協議会","province":"東京都","city":"西多摩郡瑞穂町","address":"西多摩郡瑞穂町石畑2008ふれあいセンター1階","lat":35.774469,"lon":139.357198},{"name":"瑞穂町社会福祉協議会","province":"東京都","city":"西多摩郡瑞穂町","address":"西多摩郡瑞穂町大字石畑2008ふれあいセンター1階","lat":35.77695,"lon":139.35938},{"name":"瑞穂町社会福祉協議会","province":"東京都","city":"西多摩郡瑞穂町","address":"西多摩郡瑞穂町石畑2008ふれあいセンター1階","lat":35.774469,"lon":139.357198},{"name":"瑞穂町社会福祉協議会","province":"東京都","city":"西多摩郡瑞穂町","address":"西多摩郡瑞穂町大字石畑2008ふれあいセンター1階","lat":35.77695,"lon":139.35938},{"name":"瑞穂町社会福祉協議会","province":"東京都","city":"西多摩郡瑞穂町","address":"西多摩郡瑞穂町石畑2008ふれあいセンター1階","lat":35.774469,"lon":139.357198},{"name":"瑞穂町社会福祉協議会","province":"東京都","city":"西多摩郡瑞穂町","address":"西多摩郡瑞穂町大字石畑2008ふれあいセンター1階","lat":35.77695,"lon":139.35938},{"name":"瑞穂町社会福祉協議会","province":"東京都","city":"西多摩郡瑞穂町","address":"西多摩郡瑞穂町石畑2008ふれあいセンター1階","lat":35.774469,"lon":139.357198},{"name":"瑞穂町社会福祉協議会","province":"東京都","city":"西多摩郡瑞穂町","address":"西多摩郡瑞穂町大字石畑2008ふれあいセンター1階","lat":35.77695,"lon":139.35938},{"name":"瑞穂町社会福祉協議会","province":"東京都","city":"西多摩郡瑞穂町","address":"西多摩郡瑞穂町石畑2008ふれあいセンター1階","lat":35.774469,"lon":139.357198},{"name":"瑞穂町社会福祉協議会","province":"東京都","city":"西多摩郡瑞穂町","address":"西多摩郡瑞穂町大字石畑2008ふれあいセンター1階","lat":35.77695,"lon":139.35938},{"name":"瑞穂町社会福祉協議会","province":"東京都","city":"西多摩郡瑞穂町","address":"西多摩郡瑞穂町石畑2008ふれあいセンター1階","lat":35.774469,"lon":139.357198},{"name":"瑞穂町社会福祉協議会","province":"東京都","city":"西多摩郡瑞穂町","address":"西多摩郡瑞穂町大字石畑2008ふれあいセンター1階","lat":35.77695,"lon":139.35938},{"name":"瑞穂町社会福祉協議会","province":"東京都","city":"西多摩郡瑞穂町","address":"西多摩郡瑞穂町石畑2008ふれあいセンター1階","lat":35.774469,"lon":139.357198},{"name":"瑞穂町社会福祉協議会","province":"東京都","city":"西多摩郡瑞穂町","address":"西多摩郡瑞穂町大字石畑2008ふれあいセンター1階","lat":35.77695,"lon":139.35938},{"name":"瑞穂町社会福祉協議会","province":"東京都","city":"西多摩郡瑞穂町","address":"西多摩郡瑞穂町石畑2008ふれあいセンター1階","lat":35.774469,"lon":139.357198},{"name":"瑞穂町社会福祉協議会","province":"東京都","city":"西多摩郡瑞穂町","address":"西多摩郡瑞穂町大字石畑2008ふれあいセンター1階","lat":35.77695,"lon":139.35938},{"name":"瑞穂町社会福祉協議会","province":"東京都","city":"西多摩郡瑞穂町","address":"西多摩郡瑞穂町石畑2008ふれあいセンター1階","lat":35.774469,"lon":139.357198},{"name":"瑞穂町社会福祉協議会","province":"東京都","city":"西多摩郡瑞穂町","address":"西多摩郡瑞穂町大字石畑2008ふれあいセンター1階","lat":35.77695,"lon":139.35938},{"name":"瑞穂町社会福祉協議会","province":"東京都","city":"西多摩郡瑞穂町","address":"西多摩郡瑞穂町石畑2008ふれあいセンター1階","lat":35.774469,"lon":139.357198},{"name":"瑞穂町社会福祉協議会","province":"東京都","city":"西多摩郡瑞穂町","address":"西多摩郡瑞穂町大字石畑2008ふれあいセンター1階","lat":35.77695,"lon":139.35938},{"name":"瑞穂町社会福祉協議会","province":"東京都","city":"西多摩郡瑞穂町","address":"西多摩郡瑞穂町石畑2008ふれあいセンター1階","lat":35.774469,"lon":139.357198},{"name":"瑞穂町社会福祉協議会","province":"東京都","city":"西多摩郡瑞穂町","address":"西多摩郡瑞穂町大字石畑2008ふれあいセンター1階","lat":35.77695,"lon":139.35938},{"name":"瑞穂町社会福祉協議会","province":"東京都","city":"西多摩郡瑞穂町","address":"西多摩郡瑞穂町石畑2008ふれあいセンター1階","lat":35.774469,"lon":139.357198},{"name":"瑞穂町社会福祉協議会","province":"東京都","city":"西多摩郡瑞穂町","address":"西多摩郡瑞穂町大字石畑2008ふれあいセンター1階","lat":35.77695,"lon":139.35938},{"name":"瑞穂町社会福祉協議会","province":"東京都","city":"西多摩郡瑞穂町","address":"西多摩郡瑞穂町石畑2008ふれあいセンター1階","lat":35.774469,"lon":139.357198},{"name":"瑞穂町社会福祉協議会","province":"東京都","city":"西多摩郡瑞穂町","address":"西多摩郡瑞穂町大字石畑2008ふれあいセンター1階","lat":35.77695,"lon":139.35938},{"name":"瑞穂町社会福祉協議会","province":"東京都","city":"西多摩郡瑞穂町","address":"西多摩郡瑞穂町石畑2008ふれあいセンター1階","lat":35.774469,"lon":139.357198},{"name":"瑞穂町社会福祉協議会","province":"東京都","city":"西多摩郡瑞穂町","address":"西多摩郡瑞穂町大字石畑2008ふれあいセンター1階","lat":35.77695,"lon":139.35938},{"name":"瑞穂町社会福祉協議会","province":"東京都","city":"西多摩郡瑞穂町","address":"西多摩郡瑞穂町石畑2008ふれあいセンター1階","lat":35.774469,"lon":139.357198},{"name":"瑞穂町社会福祉協議会","province":"東京都","city":"西多摩郡瑞穂町","address":"西多摩郡瑞穂町大字石畑2008ふれあいセンター1階","lat":35.77695,"lon":139.35938},{"name":"瑞穂町社会福祉協議会","province":"東京都","city":"西多摩郡瑞穂町","address":"西多摩郡瑞穂町石畑2008ふれあいセンター1階","lat":35.774469,"lon":139.357198},{"name":"瑞穂町社会福祉協議会","province":"東京都","city":"西多摩郡瑞穂町","address":"西多摩郡瑞穂町大字石畑2008ふれあいセンター1階","lat":35.77695,"lon":139.35938},{"name":"瑞穂町社会福祉協議会","province":"東京都","city":"西多摩郡瑞穂町","address":"西多摩郡瑞穂町石畑2008ふれあいセンター1階","lat":35.774469,"lon":139.357198},{"name":"瑞穂町社会福祉協議会","province":"東京都","city":"西多摩郡瑞穂町","address":"西多摩郡瑞穂町大字石畑2008ふれあいセンター1階","lat":35.77695,"lon":139.35938},{"name":"瑞穂町社会福祉協議会","province":"東京都","city":"西多摩郡瑞穂町","address":"西多摩郡瑞穂町石畑2008ふれあいセンター1階","lat":35.774469,"lon":139.357198},{"name":"瑞穂町社会福祉協議会","province":"東京都","city":"西多摩郡瑞穂町","address":"西多摩郡瑞穂町大字石畑2008ふれあいセンター1階","lat":35.77695,"lon":139.35938},{"name":"瑞穂町社会福祉協議会","province":"東京都","city":"西多摩郡瑞穂町","address":"西多摩郡瑞穂町石畑2008ふれあいセンター1階","lat":35.774469,"lon":139.357198},{"name":"瑞穂町社会福祉協議会","province":"東京都","city":"西多摩郡瑞穂町","address":"西多摩郡瑞穂町大字石畑2008ふれあいセンター1階","lat":35.77695,"lon":139.35938},{"name":"瑞穂町社会福祉協議会","province":"東京都","city":"西多摩郡瑞穂町","address":"西多摩郡瑞穂町石畑2008ふれあいセンター1階","lat":35.774469,"lon":139.357198},{"name":"瑞穂町社会福祉協議会","province":"東京都","city":"西多摩郡瑞穂町","address":"西多摩郡瑞穂町大字石畑2008ふれあいセンター1階","lat":35.77695,"lon":139.35938},{"name":"瑞穂町社会福祉協議会","province":"東京都","city":"西多摩郡瑞穂町","address":"西多摩郡瑞穂町石畑2008ふれあいセンター1階","lat":35.774469,"lon":139.357198},{"name":"瑞穂町社会福祉協議会","province":"東京都","city":"西多摩郡瑞穂町","address":"西多摩郡瑞穂町大字石畑2008ふれあいセンター1階","lat":35.77695,"lon":139.35938},{"name":"瑞穂町社会福祉協議会","province":"東京都","city":"西多摩郡瑞穂町","address":"西多摩郡瑞穂町石畑2008ふれあいセンター1階","lat":35.774469,"lon":139.357198},{"name":"瑞穂町社会福祉協議会","province":"東京都","city":"西多摩郡瑞穂町","address":"西多摩郡瑞穂町大字石畑2008ふれあいセンター1階","lat":35.77695,"lon":139.35938},{"name":"瑞穂町社会福祉協議会","province":"東京都","city":"西多摩郡瑞穂町","address":"西多摩郡瑞穂町石畑2008ふれあいセンター1階","lat":35.774469,"lon":139.357198},{"name":"瑞穂町社会福祉協議会","province":"東京都","city":"西多摩郡瑞穂町","address":"西多摩郡瑞穂町大字石畑2008ふれあいセンター1階","lat":35.77695,"lon":139.35938},{"name":"瑞穂町社会福祉協議会","province":"東京都","city":"西多摩郡瑞穂町","address":"西多摩郡瑞穂町石畑2008ふれあいセンター1階","lat":35.774469,"lon":139.357198},{"name":"瑞穂町社会福祉協議会","province":"東京都","city":"西多摩郡瑞穂町","address":"西多摩郡瑞穂町大字石畑2008ふれあいセンター1階","lat":35.77695,"lon":139.35938}]}