{"keyword":"戸数","data":[{"name":"瑞穂町社会福祉協議会","province":"東京都","city":"西多摩郡瑞穂町","address":"西多摩郡瑞穂町石畑2008ふれあいセンター1階","lat":35.774469,"lon":139.357198},{"name":"瑞穂町社会福祉協議会","province":"東京都","city":"西多摩郡瑞穂町","address":"西多摩郡瑞穂町大字石畑2008ふれあいセンター1階","lat":35.77695,"lon":139.35938},{"name":"福祉部高齢課高齢係","province":"東京都","city":"西多摩郡瑞穂町","address":"西多摩郡瑞穂町大字箱根ケ崎2335","lat":35.771915,"lon":139.353943},{"name":"瑞穂町東部高齢者支援センター","province":"東京都","city":"西多摩郡瑞穂町","address":"西多摩郡瑞穂町大字石畑2008瑞穂町ふれあいセンター内","lat":35.776951,"lon":139.359375},{"name":"瑞穂町西部高齢者支援センター","province":"東京都","city":"西多摩郡瑞穂町","address":"西多摩郡瑞穂町大字箱根ケ崎1180長岡コミュニティセンター内","lat":35.78067,"lon":139.337296},{"name":"瑞穂斎場","province":"東京都","city":"西多摩郡瑞穂町","address":"東京都西多摩郡瑞穂町富士山栗原新田（大字）244","lat":35.78176225,"lon":139.34704573},{"name":"石畑公園","province":"東京都","city":"西多摩郡瑞穂町","address":"東京都西多摩郡瑞穂町石畑（大字）","lat":35.76716696,"lon":139.35720097},{"name":"瑞穂ビューパーク競技場","province":"東京都","city":"西多摩郡瑞穂町","address":"東京都西多摩郡瑞穂町箱根ケ崎（大字）2475","lat":35.77460487,"lon":139.35533972},{"name":"町営第２グラウンド","province":"東京都","city":"西多摩郡瑞穂町","address":"東京都西多摩郡瑞穂町箱根ケ崎西松原33-1","lat":35.77001618,"lon":139.33711925},{"name":"瑞穂町選挙管理委員会","province":"東京都","city":"西多摩郡瑞穂町","address":"西多摩郡瑞穂町箱根ヶ崎2335","lat":35.772033,"lon":139.353973},{"name":"瑞穂農芸高等学校","province":"東京都","city":"西多摩郡瑞穂町","address":"東京都西多摩郡瑞穂町石畑（大字）2027","lat":35.77686854,"lon":139.35968925},{"name":"瑞穂町社会福祉協議会","province":"東京都","city":"西多摩郡瑞穂町","address":"西多摩郡瑞穂町石畑2008ふれあいセンター1階","lat":35.774469,"lon":139.357198},{"name":"瑞穂町社会福祉協議会","province":"東京都","city":"西多摩郡瑞穂町","address":"西多摩郡瑞穂町大字石畑2008ふれあいセンター1階","lat":35.77695,"lon":139.35938},{"name":"福祉部高齢課高齢係","province":"東京都","city":"西多摩郡瑞穂町","address":"西多摩郡瑞穂町大字箱根ケ崎2335","lat":35.771915,"lon":139.353943},{"name":"瑞穂町東部高齢者支援センター","province":"東京都","city":"西多摩郡瑞穂町","address":"西多摩郡瑞穂町大字石畑2008瑞穂町ふれあいセンター内","lat":35.776951,"lon":139.359375},{"name":"瑞穂町西部高齢者支援センター","province":"東京都","city":"西多摩郡瑞穂町","address":"西多摩郡瑞穂町大字箱根ケ崎1180長岡コミュニティセンター内","lat":35.78067,"lon":139.337296},{"name":"瑞穂斎場","province":"東京都","city":"西多摩郡瑞穂町","address":"東京都西多摩郡瑞穂町富士山栗原新田（大字）244","lat":35.78176225,"lon":139.34704573},{"name":"石畑公園","province":"東京都","city":"西多摩郡瑞穂町","address":"東京都西多摩郡瑞穂町石畑（大字）","lat":35.76716696,"lon":139.35720097},{"name":"瑞穂ビューパーク競技場","province":"東京都","city":"西多摩郡瑞穂町","address":"東京都西多摩郡瑞穂町箱根ケ崎（大字）2475","lat":35.77460487,"lon":139.35533972},{"name":"町営第２グラウンド","province":"東京都","city":"西多摩郡瑞穂町","address":"東京都西多摩郡瑞穂町箱根ケ崎西松原33-1","lat":35.77001618,"lon":139.33711925},{"name":"瑞穂農芸高等学校","province":"東京都","city":"西多摩郡瑞穂町","address":"東京都西多摩郡瑞穂町石畑（大字）2027","lat":35.77686854,"lon":139.35968925},{"name":"福祉部高齢課高齢係","province":"東京都","city":"西多摩郡瑞穂町","address":"西多摩郡瑞穂町大字箱根ケ崎2335","lat":35.771915,"lon":139.353943},{"name":"瑞穂町東部高齢者支援センター","province":"東京都","city":"西多摩郡瑞穂町","address":"西多摩郡瑞穂町大字石畑2008瑞穂町ふれあいセンター内","lat":35.776951,"lon":139.359375},{"name":"瑞穂町西部高齢者支援センター","province":"東京都","city":"西多摩郡瑞穂町","address":"西多摩郡瑞穂町大字箱根ケ崎1180長岡コミュニティセンター内","lat":35.78067,"lon":139.337296},{"name":"瑞穂農芸高等学校","province":"東京都","city":"西多摩郡瑞穂町","address":"東京都西多摩郡瑞穂町石畑（大字）2027","lat":35.77686854,"lon":139.35968925},{"name":"福祉部高齢課高齢係","province":"東京都","city":"西多摩郡瑞穂町","address":"西多摩郡瑞穂町大字箱根ケ崎2335","lat":35.771915,"lon":139.353943},{"name":"瑞穂町東部高齢者支援センター","province":"東京都","city":"西多摩郡瑞穂町","address":"西多摩郡瑞穂町大字石畑2008瑞穂町ふれあいセンター内","lat":35.776951,"lon":139.359375},{"name":"瑞穂町西部高齢者支援センター","province":"東京都","city":"西多摩郡瑞穂町","address":"西多摩郡瑞穂町大字箱根ケ崎1180長岡コミュニティセンター内","lat":35.78067,"lon":139.337296},{"name":"瑞穂農芸高等学校","province":"東京都","city":"西多摩郡瑞穂町","address":"東京都西多摩郡瑞穂町石畑（大字）2027","lat":35.77686854,"lon":139.35968925},{"name":"福祉部高齢課高齢係","province":"東京都","city":"西多摩郡瑞穂町","address":"西多摩郡瑞穂町大字箱根ケ崎2335","lat":35.771915,"lon":139.353943},{"name":"瑞穂町東部高齢者支援センター","province":"東京都","city":"西多摩郡瑞穂町","address":"西多摩郡瑞穂町大字石畑2008瑞穂町ふれあいセンター内","lat":35.776951,"lon":139.359375},{"name":"瑞穂町西部高齢者支援センター","province":"東京都","city":"西多摩郡瑞穂町","address":"西多摩郡瑞穂町大字箱根ケ崎1180長岡コミュニティセンター内","lat":35.78067,"lon":139.337296},{"name":"福祉部高齢課高齢係","province":"東京都","city":"西多摩郡瑞穂町","address":"西多摩郡瑞穂町大字箱根ケ崎2335","lat":35.771915,"lon":139.353943},{"name":"瑞穂町東部高齢者支援センター","province":"東京都","city":"西多摩郡瑞穂町","address":"西多摩郡瑞穂町大字石畑2008瑞穂町ふれあいセンター内","lat":35.776951,"lon":139.359375},{"name":"瑞穂町西部高齢者支援センター","province":"東京都","city":"西多摩郡瑞穂町","address":"西多摩郡瑞穂町大字箱根ケ崎1180長岡コミュニティセンター内","lat":35.78067,"lon":139.337296},{"name":"福祉部高齢課高齢係","province":"東京都","city":"西多摩郡瑞穂町","address":"西多摩郡瑞穂町大字箱根ケ崎2335","lat":35.771915,"lon":139.353943},{"name":"瑞穂町東部高齢者支援センター","province":"東京都","city":"西多摩郡瑞穂町","address":"西多摩郡瑞穂町大字石畑2008瑞穂町ふれあいセンター内","lat":35.776951,"lon":139.359375},{"name":"瑞穂町西部高齢者支援センター","province":"東京都","city":"西多摩郡瑞穂町","address":"西多摩郡瑞穂町大字箱根ケ崎1180長岡コミュニティセンター内","lat":35.78067,"lon":139.337296},{"name":"福祉部高齢課高齢係","province":"東京都","city":"西多摩郡瑞穂町","address":"西多摩郡瑞穂町大字箱根ケ崎2335","lat":35.771915,"lon":139.353943},{"name":"瑞穂町東部高齢者支援センター","province":"東京都","city":"西多摩郡瑞穂町","address":"西多摩郡瑞穂町大字石畑2008瑞穂町ふれあいセンター内","lat":35.776951,"lon":139.359375},{"name":"瑞穂町西部高齢者支援センター","province":"東京都","city":"西多摩郡瑞穂町","address":"西多摩郡瑞穂町大字箱根ケ崎1180長岡コミュニティセンター内","lat":35.78067,"lon":139.337296},{"name":"福祉部高齢課高齢係","province":"東京都","city":"西多摩郡瑞穂町","address":"西多摩郡瑞穂町大字箱根ケ崎2335","lat":35.771915,"lon":139.353943},{"name":"瑞穂町東部高齢者支援センター","province":"東京都","city":"西多摩郡瑞穂町","address":"西多摩郡瑞穂町大字石畑2008瑞穂町ふれあいセンター内","lat":35.776951,"lon":139.359375},{"name":"瑞穂町西部高齢者支援センター","province":"東京都","city":"西多摩郡瑞穂町","address":"西多摩郡瑞穂町大字箱根ケ崎1180長岡コミュニティセンター内","lat":35.78067,"lon":139.337296},{"name":"福祉部高齢課高齢係","province":"東京都","city":"西多摩郡瑞穂町","address":"西多摩郡瑞穂町大字箱根ケ崎2335","lat":35.771915,"lon":139.353943},{"name":"瑞穂町東部高齢者支援センター","province":"東京都","city":"西多摩郡瑞穂町","address":"西多摩郡瑞穂町大字石畑2008瑞穂町ふれあいセンター内","lat":35.776951,"lon":139.359375},{"name":"瑞穂町西部高齢者支援センター","province":"東京都","city":"西多摩郡瑞穂町","address":"西多摩郡瑞穂町大字箱根ケ崎1180長岡コミュニティセンター内","lat":35.78067,"lon":139.337296},{"name":"福祉部高齢課高齢係","province":"東京都","city":"西多摩郡瑞穂町","address":"西多摩郡瑞穂町大字箱根ケ崎2335","lat":35.771915,"lon":139.353943},{"name":"瑞穂町東部高齢者支援センター","province":"東京都","city":"西多摩郡瑞穂町","address":"西多摩郡瑞穂町大字石畑2008瑞穂町ふれあいセンター内","lat":35.776951,"lon":139.359375},{"name":"瑞穂町西部高齢者支援センター","province":"東京都","city":"西多摩郡瑞穂町","address":"西多摩郡瑞穂町大字箱根ケ崎1180長岡コミュニティセンター内","lat":35.78067,"lon":139.337296},{"name":"福祉部高齢課高齢係","province":"東京都","city":"西多摩郡瑞穂町","address":"西多摩郡瑞穂町大字箱根ケ崎2335","lat":35.771915,"lon":139.353943},{"name":"瑞穂町東部高齢者支援センター","province":"東京都","city":"西多摩郡瑞穂町","address":"西多摩郡瑞穂町大字石畑2008瑞穂町ふれあいセンター内","lat":35.776951,"lon":139.359375},{"name":"瑞穂町西部高齢者支援センター","province":"東京都","city":"西多摩郡瑞穂町","address":"西多摩郡瑞穂町大字箱根ケ崎1180長岡コミュニティセンター内","lat":35.78067,"lon":139.337296},{"name":"福祉部高齢課高齢係","province":"東京都","city":"西多摩郡瑞穂町","address":"西多摩郡瑞穂町大字箱根ケ崎2335","lat":35.771915,"lon":139.353943},{"name":"瑞穂町東部高齢者支援センター","province":"東京都","city":"西多摩郡瑞穂町","address":"西多摩郡瑞穂町大字石畑2008瑞穂町ふれあいセンター内","lat":35.776951,"lon":139.359375},{"name":"瑞穂町西部高齢者支援センター","province":"東京都","city":"西多摩郡瑞穂町","address":"西多摩郡瑞穂町大字箱根ケ崎1180長岡コミュニティセンター内","lat":35.78067,"lon":139.337296},{"name":"福祉部高齢課高齢係","province":"東京都","city":"西多摩郡瑞穂町","address":"西多摩郡瑞穂町大字箱根ケ崎2335","lat":35.771915,"lon":139.353943},{"name":"瑞穂町東部高齢者支援センター","province":"東京都","city":"西多摩郡瑞穂町","address":"西多摩郡瑞穂町大字石畑2008瑞穂町ふれあいセンター内","lat":35.776951,"lon":139.359375},{"name":"瑞穂町西部高齢者支援センター","province":"東京都","city":"西多摩郡瑞穂町","address":"西多摩郡瑞穂町大字箱根ケ崎1180長岡コミュニティセンター内","lat":35.78067,"lon":139.337296},{"name":"福祉部高齢課高齢係","province":"東京都","city":"西多摩郡瑞穂町","address":"西多摩郡瑞穂町大字箱根ケ崎2335","lat":35.771915,"lon":139.353943},{"name":"瑞穂町東部高齢者支援センター","province":"東京都","city":"西多摩郡瑞穂町","address":"西多摩郡瑞穂町大字石畑2008瑞穂町ふれあいセンター内","lat":35.776951,"lon":139.359375},{"name":"瑞穂町西部高齢者支援センター","province":"東京都","city":"西多摩郡瑞穂町","address":"西多摩郡瑞穂町大字箱根ケ崎1180長岡コミュニティセンター内","lat":35.78067,"lon":139.337296},{"name":"福祉部高齢課高齢係","province":"東京都","city":"西多摩郡瑞穂町","address":"西多摩郡瑞穂町大字箱根ケ崎2335","lat":35.771915,"lon":139.353943},{"name":"瑞穂町東部高齢者支援センター","province":"東京都","city":"西多摩郡瑞穂町","address":"西多摩郡瑞穂町大字石畑2008瑞穂町ふれあいセンター内","lat":35.776951,"lon":139.359375},{"name":"瑞穂町西部高齢者支援センター","province":"東京都","city":"西多摩郡瑞穂町","address":"西多摩郡瑞穂町大字箱根ケ崎1180長岡コミュニティセンター内","lat":35.78067,"lon":139.337296},{"name":"福祉部高齢課高齢係","province":"東京都","city":"西多摩郡瑞穂町","address":"西多摩郡瑞穂町大字箱根ケ崎2335","lat":35.771915,"lon":139.353943},{"name":"瑞穂町東部高齢者支援センター","province":"東京都","city":"西多摩郡瑞穂町","address":"西多摩郡瑞穂町大字石畑2008瑞穂町ふれあいセンター内","lat":35.776951,"lon":139.359375},{"name":"瑞穂町西部高齢者支援センター","province":"東京都","city":"西多摩郡瑞穂町","address":"西多摩郡瑞穂町大字箱根ケ崎1180長岡コミュニティセンター内","lat":35.78067,"lon":139.337296},{"name":"福祉部高齢課高齢係","province":"東京都","city":"西多摩郡瑞穂町","address":"西多摩郡瑞穂町大字箱根ケ崎2335","lat":35.771915,"lon":139.353943},{"name":"瑞穂町東部高齢者支援センター","province":"東京都","city":"西多摩郡瑞穂町","address":"西多摩郡瑞穂町大字石畑2008瑞穂町ふれあいセンター内","lat":35.776951,"lon":139.359375},{"name":"瑞穂町西部高齢者支援センター","province":"東京都","city":"西多摩郡瑞穂町","address":"西多摩郡瑞穂町大字箱根ケ崎1180長岡コミュニティセンター内","lat":35.78067,"lon":139.337296},{"name":"福祉部高齢課高齢係","province":"東京都","city":"西多摩郡瑞穂町","address":"西多摩郡瑞穂町大字箱根ケ崎2335","lat":35.771915,"lon":139.353943},{"name":"瑞穂町東部高齢者支援センター","province":"東京都","city":"西多摩郡瑞穂町","address":"西多摩郡瑞穂町大字石畑2008瑞穂町ふれあいセンター内","lat":35.776951,"lon":139.359375},{"name":"瑞穂町西部高齢者支援センター","province":"東京都","city":"西多摩郡瑞穂町","address":"西多摩郡瑞穂町大字箱根ケ崎1180長岡コミュニティセンター内","lat":35.78067,"lon":139.337296},{"name":"福祉部高齢課高齢係","province":"東京都","city":"西多摩郡瑞穂町","address":"西多摩郡瑞穂町大字箱根ケ崎2335","lat":35.771915,"lon":139.353943},{"name":"瑞穂町東部高齢者支援センター","province":"東京都","city":"西多摩郡瑞穂町","address":"西多摩郡瑞穂町大字石畑2008瑞穂町ふれあいセンター内","lat":35.776951,"lon":139.359375},{"name":"瑞穂町西部高齢者支援センター","province":"東京都","city":"西多摩郡瑞穂町","address":"西多摩郡瑞穂町大字箱根ケ崎1180長岡コミュニティセンター内","lat":35.78067,"lon":139.337296},{"name":"福祉部高齢課高齢係","province":"東京都","city":"西多摩郡瑞穂町","address":"西多摩郡瑞穂町大字箱根ケ崎2335","lat":35.771915,"lon":139.353943},{"name":"瑞穂町東部高齢者支援センター","province":"東京都","city":"西多摩郡瑞穂町","address":"西多摩郡瑞穂町大字石畑2008瑞穂町ふれあいセンター内","lat":35.776951,"lon":139.359375},{"name":"瑞穂町西部高齢者支援センター","province":"東京都","city":"西多摩郡瑞穂町","address":"西多摩郡瑞穂町大字箱根ケ崎1180長岡コミュニティセンター内","lat":35.78067,"lon":139.337296}]}