{"keyword":"朝","data":[{"name":"十六号石畑北","province":"東京都","city":"西多摩郡瑞穂町","address":"東京都西多摩郡瑞穂町箱根ケ崎（大字）1963-1","lat":35.76508075,"lon":139.34134962},{"name":"岩蔵街道","province":"東京都","city":"西多摩郡瑞穂町","address":"東京都西多摩郡瑞穂町箱根ケ崎（大字）1128-3","lat":35.78047613,"lon":139.33947982},{"name":"長岡コミュニティセンター図書室","province":"東京都","city":"西多摩郡瑞穂町","address":"瑞穂町箱根ケ崎1180","lat":35.78067,"lon":139.337296},{"name":"元狭山ふるさと思い出館図書室","province":"東京都","city":"西多摩郡瑞穂町","address":"瑞穂町二本木710","lat":35.789997,"lon":139.353058},{"name":"瑞穂町図書館","province":"東京都","city":"西多摩郡瑞穂町","address":"瑞穂町石畑1962","lat":35.776951,"lon":139.359375},{"name":"殿ケ谷図書室","province":"東京都","city":"西多摩郡瑞穂町","address":"瑞穂町殿ケ谷988","lat":35.76561,"lon":139.363251},{"name":"武蔵野コミュニティーセンター図書室","province":"東京都","city":"西多摩郡瑞穂町","address":"瑞穂町むさし野1-5","lat":35.761532,"lon":139.338638},{"name":"瑞穂町郷土資料館けやき館","province":"東京都","city":"西多摩郡瑞穂町","address":"瑞穂町駒形富士山316-5","lat":35.783318,"lon":139.353287},{"name":"瑞穂町生涯学習センター","province":"東京都","city":"西多摩郡瑞穂町","address":"瑞穂町箱根ケ崎2287","lat":35.768837,"lon":139.353088},{"name":"耕心館","province":"東京都","city":"西多摩郡瑞穂町","address":"瑞穂町駒形富士山317-1","lat":35.780582,"lon":139.351913},{"name":"瑞穂ビューパーク・スカイホール","province":"東京都","city":"西多摩郡瑞穂町","address":"瑞穂町箱根ケ崎2475","lat":35.774883,"lon":139.355148},{"name":"十六号石畑北","province":"東京都","city":"西多摩郡瑞穂町","address":"東京都西多摩郡瑞穂町箱根ケ崎（大字）1963-1","lat":35.76508075,"lon":139.34134962},{"name":"岩蔵街道","province":"東京都","city":"西多摩郡瑞穂町","address":"東京都西多摩郡瑞穂町箱根ケ崎（大字）1128-3","lat":35.78047613,"lon":139.33947982},{"name":"長岡コミュニティセンター図書室","province":"東京都","city":"西多摩郡瑞穂町","address":"瑞穂町箱根ケ崎1180","lat":35.78067,"lon":139.337296},{"name":"元狭山ふるさと思い出館図書室","province":"東京都","city":"西多摩郡瑞穂町","address":"瑞穂町二本木710","lat":35.789997,"lon":139.353058},{"name":"瑞穂町図書館","province":"東京都","city":"西多摩郡瑞穂町","address":"瑞穂町石畑1962","lat":35.776951,"lon":139.359375},{"name":"殿ケ谷図書室","province":"東京都","city":"西多摩郡瑞穂町","address":"瑞穂町殿ケ谷988","lat":35.76561,"lon":139.363251},{"name":"武蔵野コミュニティーセンター図書室","province":"東京都","city":"西多摩郡瑞穂町","address":"瑞穂町むさし野1-5","lat":35.761532,"lon":139.338638},{"name":"瑞穂町郷土資料館けやき館","province":"東京都","city":"西多摩郡瑞穂町","address":"瑞穂町駒形富士山316-5","lat":35.783318,"lon":139.353287},{"name":"瑞穂町生涯学習センター","province":"東京都","city":"西多摩郡瑞穂町","address":"瑞穂町箱根ケ崎2287","lat":35.768837,"lon":139.353088},{"name":"耕心館","province":"東京都","city":"西多摩郡瑞穂町","address":"瑞穂町駒形富士山317-1","lat":35.780582,"lon":139.351913},{"name":"瑞穂ビューパーク・スカイホール","province":"東京都","city":"西多摩郡瑞穂町","address":"瑞穂町箱根ケ崎2475","lat":35.774883,"lon":139.355148},{"name":"十六号石畑北","province":"東京都","city":"西多摩郡瑞穂町","address":"東京都西多摩郡瑞穂町箱根ケ崎（大字）1963-1","lat":35.76508075,"lon":139.34134962},{"name":"岩蔵街道","province":"東京都","city":"西多摩郡瑞穂町","address":"東京都西多摩郡瑞穂町箱根ケ崎（大字）1128-3","lat":35.78047613,"lon":139.33947982},{"name":"長岡コミュニティセンター図書室","province":"東京都","city":"西多摩郡瑞穂町","address":"瑞穂町箱根ケ崎1180","lat":35.78067,"lon":139.337296},{"name":"元狭山ふるさと思い出館図書室","province":"東京都","city":"西多摩郡瑞穂町","address":"瑞穂町二本木710","lat":35.789997,"lon":139.353058},{"name":"瑞穂町図書館","province":"東京都","city":"西多摩郡瑞穂町","address":"瑞穂町石畑1962","lat":35.776951,"lon":139.359375},{"name":"殿ケ谷図書室","province":"東京都","city":"西多摩郡瑞穂町","address":"瑞穂町殿ケ谷988","lat":35.76561,"lon":139.363251},{"name":"武蔵野コミュニティーセンター図書室","province":"東京都","city":"西多摩郡瑞穂町","address":"瑞穂町むさし野1-5","lat":35.761532,"lon":139.338638},{"name":"瑞穂町郷土資料館けやき館","province":"東京都","city":"西多摩郡瑞穂町","address":"瑞穂町駒形富士山316-5","lat":35.783318,"lon":139.353287},{"name":"瑞穂町生涯学習センター","province":"東京都","city":"西多摩郡瑞穂町","address":"瑞穂町箱根ケ崎2287","lat":35.768837,"lon":139.353088},{"name":"耕心館","province":"東京都","city":"西多摩郡瑞穂町","address":"瑞穂町駒形富士山317-1","lat":35.780582,"lon":139.351913},{"name":"瑞穂ビューパーク・スカイホール","province":"東京都","city":"西多摩郡瑞穂町","address":"瑞穂町箱根ケ崎2475","lat":35.774883,"lon":139.355148},{"name":"十六号石畑北","province":"東京都","city":"西多摩郡瑞穂町","address":"東京都西多摩郡瑞穂町箱根ケ崎（大字）1963-1","lat":35.76508075,"lon":139.34134962},{"name":"岩蔵街道","province":"東京都","city":"西多摩郡瑞穂町","address":"東京都西多摩郡瑞穂町箱根ケ崎（大字）1128-3","lat":35.78047613,"lon":139.33947982},{"name":"長岡コミュニティセンター図書室","province":"東京都","city":"西多摩郡瑞穂町","address":"瑞穂町箱根ケ崎1180","lat":35.78067,"lon":139.337296},{"name":"元狭山ふるさと思い出館図書室","province":"東京都","city":"西多摩郡瑞穂町","address":"瑞穂町二本木710","lat":35.789997,"lon":139.353058},{"name":"瑞穂町図書館","province":"東京都","city":"西多摩郡瑞穂町","address":"瑞穂町石畑1962","lat":35.776951,"lon":139.359375},{"name":"殿ケ谷図書室","province":"東京都","city":"西多摩郡瑞穂町","address":"瑞穂町殿ケ谷988","lat":35.76561,"lon":139.363251},{"name":"武蔵野コミュニティーセンター図書室","province":"東京都","city":"西多摩郡瑞穂町","address":"瑞穂町むさし野1-5","lat":35.761532,"lon":139.338638},{"name":"瑞穂町郷土資料館けやき館","province":"東京都","city":"西多摩郡瑞穂町","address":"瑞穂町駒形富士山316-5","lat":35.783318,"lon":139.353287},{"name":"瑞穂町生涯学習センター","province":"東京都","city":"西多摩郡瑞穂町","address":"瑞穂町箱根ケ崎2287","lat":35.768837,"lon":139.353088},{"name":"耕心館","province":"東京都","city":"西多摩郡瑞穂町","address":"瑞穂町駒形富士山317-1","lat":35.780582,"lon":139.351913},{"name":"瑞穂ビューパーク・スカイホール","province":"東京都","city":"西多摩郡瑞穂町","address":"瑞穂町箱根ケ崎2475","lat":35.774883,"lon":139.355148},{"name":"十六号石畑北","province":"東京都","city":"西多摩郡瑞穂町","address":"東京都西多摩郡瑞穂町箱根ケ崎（大字）1963-1","lat":35.76508075,"lon":139.34134962},{"name":"岩蔵街道","province":"東京都","city":"西多摩郡瑞穂町","address":"東京都西多摩郡瑞穂町箱根ケ崎（大字）1128-3","lat":35.78047613,"lon":139.33947982},{"name":"長岡コミュニティセンター図書室","province":"東京都","city":"西多摩郡瑞穂町","address":"瑞穂町箱根ケ崎1180","lat":35.78067,"lon":139.337296},{"name":"元狭山ふるさと思い出館図書室","province":"東京都","city":"西多摩郡瑞穂町","address":"瑞穂町二本木710","lat":35.789997,"lon":139.353058},{"name":"瑞穂町図書館","province":"東京都","city":"西多摩郡瑞穂町","address":"瑞穂町石畑1962","lat":35.776951,"lon":139.359375},{"name":"殿ケ谷図書室","province":"東京都","city":"西多摩郡瑞穂町","address":"瑞穂町殿ケ谷988","lat":35.76561,"lon":139.363251},{"name":"武蔵野コミュニティーセンター図書室","province":"東京都","city":"西多摩郡瑞穂町","address":"瑞穂町むさし野1-5","lat":35.761532,"lon":139.338638},{"name":"瑞穂町郷土資料館けやき館","province":"東京都","city":"西多摩郡瑞穂町","address":"瑞穂町駒形富士山316-5","lat":35.783318,"lon":139.353287},{"name":"瑞穂町生涯学習センター","province":"東京都","city":"西多摩郡瑞穂町","address":"瑞穂町箱根ケ崎2287","lat":35.768837,"lon":139.353088},{"name":"耕心館","province":"東京都","city":"西多摩郡瑞穂町","address":"瑞穂町駒形富士山317-1","lat":35.780582,"lon":139.351913},{"name":"瑞穂ビューパーク・スカイホール","province":"東京都","city":"西多摩郡瑞穂町","address":"瑞穂町箱根ケ崎2475","lat":35.774883,"lon":139.355148},{"name":"十六号石畑北","province":"東京都","city":"西多摩郡瑞穂町","address":"東京都西多摩郡瑞穂町箱根ケ崎（大字）1963-1","lat":35.76508075,"lon":139.34134962},{"name":"岩蔵街道","province":"東京都","city":"西多摩郡瑞穂町","address":"東京都西多摩郡瑞穂町箱根ケ崎（大字）1128-3","lat":35.78047613,"lon":139.33947982},{"name":"長岡コミュニティセンター図書室","province":"東京都","city":"西多摩郡瑞穂町","address":"瑞穂町箱根ケ崎1180","lat":35.78067,"lon":139.337296},{"name":"元狭山ふるさと思い出館図書室","province":"東京都","city":"西多摩郡瑞穂町","address":"瑞穂町二本木710","lat":35.789997,"lon":139.353058},{"name":"瑞穂町図書館","province":"東京都","city":"西多摩郡瑞穂町","address":"瑞穂町石畑1962","lat":35.776951,"lon":139.359375},{"name":"殿ケ谷図書室","province":"東京都","city":"西多摩郡瑞穂町","address":"瑞穂町殿ケ谷988","lat":35.76561,"lon":139.363251},{"name":"武蔵野コミュニティーセンター図書室","province":"東京都","city":"西多摩郡瑞穂町","address":"瑞穂町むさし野1-5","lat":35.761532,"lon":139.338638},{"name":"瑞穂町郷土資料館けやき館","province":"東京都","city":"西多摩郡瑞穂町","address":"瑞穂町駒形富士山316-5","lat":35.783318,"lon":139.353287},{"name":"瑞穂町生涯学習センター","province":"東京都","city":"西多摩郡瑞穂町","address":"瑞穂町箱根ケ崎2287","lat":35.768837,"lon":139.353088},{"name":"耕心館","province":"東京都","city":"西多摩郡瑞穂町","address":"瑞穂町駒形富士山317-1","lat":35.780582,"lon":139.351913},{"name":"瑞穂ビューパーク・スカイホール","province":"東京都","city":"西多摩郡瑞穂町","address":"瑞穂町箱根ケ崎2475","lat":35.774883,"lon":139.355148},{"name":"十六号石畑北","province":"東京都","city":"西多摩郡瑞穂町","address":"東京都西多摩郡瑞穂町箱根ケ崎（大字）1963-1","lat":35.76508075,"lon":139.34134962},{"name":"岩蔵街道","province":"東京都","city":"西多摩郡瑞穂町","address":"東京都西多摩郡瑞穂町箱根ケ崎（大字）1128-3","lat":35.78047613,"lon":139.33947982},{"name":"長岡コミュニティセンター図書室","province":"東京都","city":"西多摩郡瑞穂町","address":"瑞穂町箱根ケ崎1180","lat":35.78067,"lon":139.337296},{"name":"元狭山ふるさと思い出館図書室","province":"東京都","city":"西多摩郡瑞穂町","address":"瑞穂町二本木710","lat":35.789997,"lon":139.353058},{"name":"瑞穂町図書館","province":"東京都","city":"西多摩郡瑞穂町","address":"瑞穂町石畑1962","lat":35.776951,"lon":139.359375},{"name":"殿ケ谷図書室","province":"東京都","city":"西多摩郡瑞穂町","address":"瑞穂町殿ケ谷988","lat":35.76561,"lon":139.363251},{"name":"武蔵野コミュニティーセンター図書室","province":"東京都","city":"西多摩郡瑞穂町","address":"瑞穂町むさし野1-5","lat":35.761532,"lon":139.338638},{"name":"瑞穂町郷土資料館けやき館","province":"東京都","city":"西多摩郡瑞穂町","address":"瑞穂町駒形富士山316-5","lat":35.783318,"lon":139.353287},{"name":"瑞穂町生涯学習センター","province":"東京都","city":"西多摩郡瑞穂町","address":"瑞穂町箱根ケ崎2287","lat":35.768837,"lon":139.353088},{"name":"耕心館","province":"東京都","city":"西多摩郡瑞穂町","address":"瑞穂町駒形富士山317-1","lat":35.780582,"lon":139.351913},{"name":"瑞穂ビューパーク・スカイホール","province":"東京都","city":"西多摩郡瑞穂町","address":"瑞穂町箱根ケ崎2475","lat":35.774883,"lon":139.355148},{"name":"十六号石畑北","province":"東京都","city":"西多摩郡瑞穂町","address":"東京都西多摩郡瑞穂町箱根ケ崎（大字）1963-1","lat":35.76508075,"lon":139.34134962},{"name":"岩蔵街道","province":"東京都","city":"西多摩郡瑞穂町","address":"東京都西多摩郡瑞穂町箱根ケ崎（大字）1128-3","lat":35.78047613,"lon":139.33947982},{"name":"長岡コミュニティセンター図書室","province":"東京都","city":"西多摩郡瑞穂町","address":"瑞穂町箱根ケ崎1180","lat":35.78067,"lon":139.337296},{"name":"元狭山ふるさと思い出館図書室","province":"東京都","city":"西多摩郡瑞穂町","address":"瑞穂町二本木710","lat":35.789997,"lon":139.353058},{"name":"瑞穂町図書館","province":"東京都","city":"西多摩郡瑞穂町","address":"瑞穂町石畑1962","lat":35.776951,"lon":139.359375},{"name":"殿ケ谷図書室","province":"東京都","city":"西多摩郡瑞穂町","address":"瑞穂町殿ケ谷988","lat":35.76561,"lon":139.363251},{"name":"武蔵野コミュニティーセンター図書室","province":"東京都","city":"西多摩郡瑞穂町","address":"瑞穂町むさし野1-5","lat":35.761532,"lon":139.338638},{"name":"瑞穂町郷土資料館けやき館","province":"東京都","city":"西多摩郡瑞穂町","address":"瑞穂町駒形富士山316-5","lat":35.783318,"lon":139.353287},{"name":"瑞穂町生涯学習センター","province":"東京都","city":"西多摩郡瑞穂町","address":"瑞穂町箱根ケ崎2287","lat":35.768837,"lon":139.353088},{"name":"耕心館","province":"東京都","city":"西多摩郡瑞穂町","address":"瑞穂町駒形富士山317-1","lat":35.780582,"lon":139.351913},{"name":"瑞穂ビューパーク・スカイホール","province":"東京都","city":"西多摩郡瑞穂町","address":"瑞穂町箱根ケ崎2475","lat":35.774883,"lon":139.355148},{"name":"十六号石畑北","province":"東京都","city":"西多摩郡瑞穂町","address":"東京都西多摩郡瑞穂町箱根ケ崎（大字）1963-1","lat":35.76508075,"lon":139.34134962},{"name":"岩蔵街道","province":"東京都","city":"西多摩郡瑞穂町","address":"東京都西多摩郡瑞穂町箱根ケ崎（大字）1128-3","lat":35.78047613,"lon":139.33947982},{"name":"長岡コミュニティセンター図書室","province":"東京都","city":"西多摩郡瑞穂町","address":"瑞穂町箱根ケ崎1180","lat":35.78067,"lon":139.337296},{"name":"元狭山ふるさと思い出館図書室","province":"東京都","city":"西多摩郡瑞穂町","address":"瑞穂町二本木710","lat":35.789997,"lon":139.353058},{"name":"瑞穂町図書館","province":"東京都","city":"西多摩郡瑞穂町","address":"瑞穂町石畑1962","lat":35.776951,"lon":139.359375},{"name":"殿ケ谷図書室","province":"東京都","city":"西多摩郡瑞穂町","address":"瑞穂町殿ケ谷988","lat":35.76561,"lon":139.363251},{"name":"武蔵野コミュニティーセンター図書室","province":"東京都","city":"西多摩郡瑞穂町","address":"瑞穂町むさし野1-5","lat":35.761532,"lon":139.338638},{"name":"瑞穂町郷土資料館けやき館","province":"東京都","city":"西多摩郡瑞穂町","address":"瑞穂町駒形富士山316-5","lat":35.783318,"lon":139.353287},{"name":"瑞穂町生涯学習センター","province":"東京都","city":"西多摩郡瑞穂町","address":"瑞穂町箱根ケ崎2287","lat":35.768837,"lon":139.353088},{"name":"耕心館","province":"東京都","city":"西多摩郡瑞穂町","address":"瑞穂町駒形富士山317-1","lat":35.780582,"lon":139.351913},{"name":"瑞穂ビューパーク・スカイホール","province":"東京都","city":"西多摩郡瑞穂町","address":"瑞穂町箱根ケ崎2475","lat":35.774883,"lon":139.355148},{"name":"長岡コミュニティセンター図書室","province":"東京都","city":"西多摩郡瑞穂町","address":"瑞穂町箱根ケ崎1180","lat":35.78067,"lon":139.337296},{"name":"元狭山ふるさと思い出館図書室","province":"東京都","city":"西多摩郡瑞穂町","address":"瑞穂町二本木710","lat":35.789997,"lon":139.353058},{"name":"瑞穂町図書館","province":"東京都","city":"西多摩郡瑞穂町","address":"瑞穂町石畑1962","lat":35.776951,"lon":139.359375},{"name":"殿ケ谷図書室","province":"東京都","city":"西多摩郡瑞穂町","address":"瑞穂町殿ケ谷988","lat":35.76561,"lon":139.363251},{"name":"武蔵野コミュニティーセンター図書室","province":"東京都","city":"西多摩郡瑞穂町","address":"瑞穂町むさし野1-5","lat":35.761532,"lon":139.338638},{"name":"瑞穂町郷土資料館けやき館","province":"東京都","city":"西多摩郡瑞穂町","address":"瑞穂町駒形富士山316-5","lat":35.783318,"lon":139.353287},{"name":"瑞穂町生涯学習センター","province":"東京都","city":"西多摩郡瑞穂町","address":"瑞穂町箱根ケ崎2287","lat":35.768837,"lon":139.353088},{"name":"耕心館","province":"東京都","city":"西多摩郡瑞穂町","address":"瑞穂町駒形富士山317-1","lat":35.780582,"lon":139.351913},{"name":"瑞穂ビューパーク・スカイホール","province":"東京都","city":"西多摩郡瑞穂町","address":"瑞穂町箱根ケ崎2475","lat":35.774883,"lon":139.355148},{"name":"長岡コミュニティセンター図書室","province":"東京都","city":"西多摩郡瑞穂町","address":"瑞穂町箱根ケ崎1180","lat":35.78067,"lon":139.337296},{"name":"元狭山ふるさと思い出館図書室","province":"東京都","city":"西多摩郡瑞穂町","address":"瑞穂町二本木710","lat":35.789997,"lon":139.353058},{"name":"瑞穂町図書館","province":"東京都","city":"西多摩郡瑞穂町","address":"瑞穂町石畑1962","lat":35.776951,"lon":139.359375},{"name":"殿ケ谷図書室","province":"東京都","city":"西多摩郡瑞穂町","address":"瑞穂町殿ケ谷988","lat":35.76561,"lon":139.363251},{"name":"武蔵野コミュニティーセンター図書室","province":"東京都","city":"西多摩郡瑞穂町","address":"瑞穂町むさし野1-5","lat":35.761532,"lon":139.338638},{"name":"瑞穂町郷土資料館けやき館","province":"東京都","city":"西多摩郡瑞穂町","address":"瑞穂町駒形富士山316-5","lat":35.783318,"lon":139.353287},{"name":"瑞穂町生涯学習センター","province":"東京都","city":"西多摩郡瑞穂町","address":"瑞穂町箱根ケ崎2287","lat":35.768837,"lon":139.353088},{"name":"耕心館","province":"東京都","city":"西多摩郡瑞穂町","address":"瑞穂町駒形富士山317-1","lat":35.780582,"lon":139.351913},{"name":"瑞穂ビューパーク・スカイホール","province":"東京都","city":"西多摩郡瑞穂町","address":"瑞穂町箱根ケ崎2475","lat":35.774883,"lon":139.355148},{"name":"長岡コミュニティセンター図書室","province":"東京都","city":"西多摩郡瑞穂町","address":"瑞穂町箱根ケ崎1180","lat":35.78067,"lon":139.337296},{"name":"元狭山ふるさと思い出館図書室","province":"東京都","city":"西多摩郡瑞穂町","address":"瑞穂町二本木710","lat":35.789997,"lon":139.353058},{"name":"瑞穂町図書館","province":"東京都","city":"西多摩郡瑞穂町","address":"瑞穂町石畑1962","lat":35.776951,"lon":139.359375},{"name":"殿ケ谷図書室","province":"東京都","city":"西多摩郡瑞穂町","address":"瑞穂町殿ケ谷988","lat":35.76561,"lon":139.363251},{"name":"武蔵野コミュニティーセンター図書室","province":"東京都","city":"西多摩郡瑞穂町","address":"瑞穂町むさし野1-5","lat":35.761532,"lon":139.338638},{"name":"瑞穂町郷土資料館けやき館","province":"東京都","city":"西多摩郡瑞穂町","address":"瑞穂町駒形富士山316-5","lat":35.783318,"lon":139.353287},{"name":"瑞穂町生涯学習センター","province":"東京都","city":"西多摩郡瑞穂町","address":"瑞穂町箱根ケ崎2287","lat":35.768837,"lon":139.353088},{"name":"耕心館","province":"東京都","city":"西多摩郡瑞穂町","address":"瑞穂町駒形富士山317-1","lat":35.780582,"lon":139.351913},{"name":"瑞穂ビューパーク・スカイホール","province":"東京都","city":"西多摩郡瑞穂町","address":"瑞穂町箱根ケ崎2475","lat":35.774883,"lon":139.355148},{"name":"長岡コミュニティセンター図書室","province":"東京都","city":"西多摩郡瑞穂町","address":"瑞穂町箱根ケ崎1180","lat":35.78067,"lon":139.337296},{"name":"元狭山ふるさと思い出館図書室","province":"東京都","city":"西多摩郡瑞穂町","address":"瑞穂町二本木710","lat":35.789997,"lon":139.353058},{"name":"瑞穂町図書館","province":"東京都","city":"西多摩郡瑞穂町","address":"瑞穂町石畑1962","lat":35.776951,"lon":139.359375},{"name":"殿ケ谷図書室","province":"東京都","city":"西多摩郡瑞穂町","address":"瑞穂町殿ケ谷988","lat":35.76561,"lon":139.363251},{"name":"武蔵野コミュニティーセンター図書室","province":"東京都","city":"西多摩郡瑞穂町","address":"瑞穂町むさし野1-5","lat":35.761532,"lon":139.338638},{"name":"瑞穂町郷土資料館けやき館","province":"東京都","city":"西多摩郡瑞穂町","address":"瑞穂町駒形富士山316-5","lat":35.783318,"lon":139.353287},{"name":"瑞穂町生涯学習センター","province":"東京都","city":"西多摩郡瑞穂町","address":"瑞穂町箱根ケ崎2287","lat":35.768837,"lon":139.353088},{"name":"耕心館","province":"東京都","city":"西多摩郡瑞穂町","address":"瑞穂町駒形富士山317-1","lat":35.780582,"lon":139.351913},{"name":"瑞穂ビューパーク・スカイホール","province":"東京都","city":"西多摩郡瑞穂町","address":"瑞穂町箱根ケ崎2475","lat":35.774883,"lon":139.355148},{"name":"長岡コミュニティセンター図書室","province":"東京都","city":"西多摩郡瑞穂町","address":"瑞穂町箱根ケ崎1180","lat":35.78067,"lon":139.337296},{"name":"元狭山ふるさと思い出館図書室","province":"東京都","city":"西多摩郡瑞穂町","address":"瑞穂町二本木710","lat":35.789997,"lon":139.353058},{"name":"瑞穂町図書館","province":"東京都","city":"西多摩郡瑞穂町","address":"瑞穂町石畑1962","lat":35.776951,"lon":139.359375},{"name":"殿ケ谷図書室","province":"東京都","city":"西多摩郡瑞穂町","address":"瑞穂町殿ケ谷988","lat":35.76561,"lon":139.363251},{"name":"武蔵野コミュニティーセンター図書室","province":"東京都","city":"西多摩郡瑞穂町","address":"瑞穂町むさし野1-5","lat":35.761532,"lon":139.338638},{"name":"瑞穂町郷土資料館けやき館","province":"東京都","city":"西多摩郡瑞穂町","address":"瑞穂町駒形富士山316-5","lat":35.783318,"lon":139.353287},{"name":"瑞穂町生涯学習センター","province":"東京都","city":"西多摩郡瑞穂町","address":"瑞穂町箱根ケ崎2287","lat":35.768837,"lon":139.353088},{"name":"耕心館","province":"東京都","city":"西多摩郡瑞穂町","address":"瑞穂町駒形富士山317-1","lat":35.780582,"lon":139.351913},{"name":"瑞穂ビューパーク・スカイホール","province":"東京都","city":"西多摩郡瑞穂町","address":"瑞穂町箱根ケ崎2475","lat":35.774883,"lon":139.355148},{"name":"長岡コミュニティセンター図書室","province":"東京都","city":"西多摩郡瑞穂町","address":"瑞穂町箱根ケ崎1180","lat":35.78067,"lon":139.337296},{"name":"元狭山ふるさと思い出館図書室","province":"東京都","city":"西多摩郡瑞穂町","address":"瑞穂町二本木710","lat":35.789997,"lon":139.353058},{"name":"瑞穂町図書館","province":"東京都","city":"西多摩郡瑞穂町","address":"瑞穂町石畑1962","lat":35.776951,"lon":139.359375},{"name":"殿ケ谷図書室","province":"東京都","city":"西多摩郡瑞穂町","address":"瑞穂町殿ケ谷988","lat":35.76561,"lon":139.363251},{"name":"武蔵野コミュニティーセンター図書室","province":"東京都","city":"西多摩郡瑞穂町","address":"瑞穂町むさし野1-5","lat":35.761532,"lon":139.338638},{"name":"瑞穂町郷土資料館けやき館","province":"東京都","city":"西多摩郡瑞穂町","address":"瑞穂町駒形富士山316-5","lat":35.783318,"lon":139.353287},{"name":"瑞穂町生涯学習センター","province":"東京都","city":"西多摩郡瑞穂町","address":"瑞穂町箱根ケ崎2287","lat":35.768837,"lon":139.353088},{"name":"耕心館","province":"東京都","city":"西多摩郡瑞穂町","address":"瑞穂町駒形富士山317-1","lat":35.780582,"lon":139.351913},{"name":"瑞穂ビューパーク・スカイホール","province":"東京都","city":"西多摩郡瑞穂町","address":"瑞穂町箱根ケ崎2475","lat":35.774883,"lon":139.355148},{"name":"長岡コミュニティセンター図書室","province":"東京都","city":"西多摩郡瑞穂町","address":"瑞穂町箱根ケ崎1180","lat":35.78067,"lon":139.337296},{"name":"元狭山ふるさと思い出館図書室","province":"東京都","city":"西多摩郡瑞穂町","address":"瑞穂町二本木710","lat":35.789997,"lon":139.353058},{"name":"瑞穂町図書館","province":"東京都","city":"西多摩郡瑞穂町","address":"瑞穂町石畑1962","lat":35.776951,"lon":139.359375},{"name":"殿ケ谷図書室","province":"東京都","city":"西多摩郡瑞穂町","address":"瑞穂町殿ケ谷988","lat":35.76561,"lon":139.363251},{"name":"武蔵野コミュニティーセンター図書室","province":"東京都","city":"西多摩郡瑞穂町","address":"瑞穂町むさし野1-5","lat":35.761532,"lon":139.338638},{"name":"瑞穂町郷土資料館けやき館","province":"東京都","city":"西多摩郡瑞穂町","address":"瑞穂町駒形富士山316-5","lat":35.783318,"lon":139.353287},{"name":"瑞穂町生涯学習センター","province":"東京都","city":"西多摩郡瑞穂町","address":"瑞穂町箱根ケ崎2287","lat":35.768837,"lon":139.353088},{"name":"耕心館","province":"東京都","city":"西多摩郡瑞穂町","address":"瑞穂町駒形富士山317-1","lat":35.780582,"lon":139.351913},{"name":"瑞穂ビューパーク・スカイホール","province":"東京都","city":"西多摩郡瑞穂町","address":"瑞穂町箱根ケ崎2475","lat":35.774883,"lon":139.355148},{"name":"長岡コミュニティセンター図書室","province":"東京都","city":"西多摩郡瑞穂町","address":"瑞穂町箱根ケ崎1180","lat":35.78067,"lon":139.337296},{"name":"元狭山ふるさと思い出館図書室","province":"東京都","city":"西多摩郡瑞穂町","address":"瑞穂町二本木710","lat":35.789997,"lon":139.353058},{"name":"瑞穂町図書館","province":"東京都","city":"西多摩郡瑞穂町","address":"瑞穂町石畑1962","lat":35.776951,"lon":139.359375},{"name":"殿ケ谷図書室","province":"東京都","city":"西多摩郡瑞穂町","address":"瑞穂町殿ケ谷988","lat":35.76561,"lon":139.363251},{"name":"武蔵野コミュニティーセンター図書室","province":"東京都","city":"西多摩郡瑞穂町","address":"瑞穂町むさし野1-5","lat":35.761532,"lon":139.338638},{"name":"瑞穂町郷土資料館けやき館","province":"東京都","city":"西多摩郡瑞穂町","address":"瑞穂町駒形富士山316-5","lat":35.783318,"lon":139.353287},{"name":"瑞穂町生涯学習センター","province":"東京都","city":"西多摩郡瑞穂町","address":"瑞穂町箱根ケ崎2287","lat":35.768837,"lon":139.353088},{"name":"耕心館","province":"東京都","city":"西多摩郡瑞穂町","address":"瑞穂町駒形富士山317-1","lat":35.780582,"lon":139.351913},{"name":"瑞穂ビューパーク・スカイホール","province":"東京都","city":"西多摩郡瑞穂町","address":"瑞穂町箱根ケ崎2475","lat":35.774883,"lon":139.355148},{"name":"長岡コミュニティセンター図書室","province":"東京都","city":"西多摩郡瑞穂町","address":"瑞穂町箱根ケ崎1180","lat":35.78067,"lon":139.337296},{"name":"元狭山ふるさと思い出館図書室","province":"東京都","city":"西多摩郡瑞穂町","address":"瑞穂町二本木710","lat":35.789997,"lon":139.353058},{"name":"瑞穂町図書館","province":"東京都","city":"西多摩郡瑞穂町","address":"瑞穂町石畑1962","lat":35.776951,"lon":139.359375},{"name":"殿ケ谷図書室","province":"東京都","city":"西多摩郡瑞穂町","address":"瑞穂町殿ケ谷988","lat":35.76561,"lon":139.363251},{"name":"武蔵野コミュニティーセンター図書室","province":"東京都","city":"西多摩郡瑞穂町","address":"瑞穂町むさし野1-5","lat":35.761532,"lon":139.338638},{"name":"瑞穂町郷土資料館けやき館","province":"東京都","city":"西多摩郡瑞穂町","address":"瑞穂町駒形富士山316-5","lat":35.783318,"lon":139.353287},{"name":"瑞穂町生涯学習センター","province":"東京都","city":"西多摩郡瑞穂町","address":"瑞穂町箱根ケ崎2287","lat":35.768837,"lon":139.353088},{"name":"耕心館","province":"東京都","city":"西多摩郡瑞穂町","address":"瑞穂町駒形富士山317-1","lat":35.780582,"lon":139.351913},{"name":"瑞穂ビューパーク・スカイホール","province":"東京都","city":"西多摩郡瑞穂町","address":"瑞穂町箱根ケ崎2475","lat":35.774883,"lon":139.355148},{"name":"長岡コミュニティセンター図書室","province":"東京都","city":"西多摩郡瑞穂町","address":"瑞穂町箱根ケ崎1180","lat":35.78067,"lon":139.337296},{"name":"元狭山ふるさと思い出館図書室","province":"東京都","city":"西多摩郡瑞穂町","address":"瑞穂町二本木710","lat":35.789997,"lon":139.353058},{"name":"瑞穂町図書館","province":"東京都","city":"西多摩郡瑞穂町","address":"瑞穂町石畑1962","lat":35.776951,"lon":139.359375},{"name":"殿ケ谷図書室","province":"東京都","city":"西多摩郡瑞穂町","address":"瑞穂町殿ケ谷988","lat":35.76561,"lon":139.363251},{"name":"武蔵野コミュニティーセンター図書室","province":"東京都","city":"西多摩郡瑞穂町","address":"瑞穂町むさし野1-5","lat":35.761532,"lon":139.338638},{"name":"瑞穂町郷土資料館けやき館","province":"東京都","city":"西多摩郡瑞穂町","address":"瑞穂町駒形富士山316-5","lat":35.783318,"lon":139.353287},{"name":"瑞穂町生涯学習センター","province":"東京都","city":"西多摩郡瑞穂町","address":"瑞穂町箱根ケ崎2287","lat":35.768837,"lon":139.353088},{"name":"耕心館","province":"東京都","city":"西多摩郡瑞穂町","address":"瑞穂町駒形富士山317-1","lat":35.780582,"lon":139.351913},{"name":"瑞穂ビューパーク・スカイホール","province":"東京都","city":"西多摩郡瑞穂町","address":"瑞穂町箱根ケ崎2475","lat":35.774883,"lon":139.355148},{"name":"長岡コミュニティセンター図書室","province":"東京都","city":"西多摩郡瑞穂町","address":"瑞穂町箱根ケ崎1180","lat":35.78067,"lon":139.337296},{"name":"元狭山ふるさと思い出館図書室","province":"東京都","city":"西多摩郡瑞穂町","address":"瑞穂町二本木710","lat":35.789997,"lon":139.353058},{"name":"瑞穂町図書館","province":"東京都","city":"西多摩郡瑞穂町","address":"瑞穂町石畑1962","lat":35.776951,"lon":139.359375},{"name":"殿ケ谷図書室","province":"東京都","city":"西多摩郡瑞穂町","address":"瑞穂町殿ケ谷988","lat":35.76561,"lon":139.363251},{"name":"武蔵野コミュニティーセンター図書室","province":"東京都","city":"西多摩郡瑞穂町","address":"瑞穂町むさし野1-5","lat":35.761532,"lon":139.338638},{"name":"瑞穂町郷土資料館けやき館","province":"東京都","city":"西多摩郡瑞穂町","address":"瑞穂町駒形富士山316-5","lat":35.783318,"lon":139.353287},{"name":"瑞穂町生涯学習センター","province":"東京都","city":"西多摩郡瑞穂町","address":"瑞穂町箱根ケ崎2287","lat":35.768837,"lon":139.353088},{"name":"耕心館","province":"東京都","city":"西多摩郡瑞穂町","address":"瑞穂町駒形富士山317-1","lat":35.780582,"lon":139.351913},{"name":"瑞穂ビューパーク・スカイホール","province":"東京都","city":"西多摩郡瑞穂町","address":"瑞穂町箱根ケ崎2475","lat":35.774883,"lon":139.355148},{"name":"長岡コミュニティセンター図書室","province":"東京都","city":"西多摩郡瑞穂町","address":"瑞穂町箱根ケ崎1180","lat":35.78067,"lon":139.337296},{"name":"元狭山ふるさと思い出館図書室","province":"東京都","city":"西多摩郡瑞穂町","address":"瑞穂町二本木710","lat":35.789997,"lon":139.353058},{"name":"瑞穂町図書館","province":"東京都","city":"西多摩郡瑞穂町","address":"瑞穂町石畑1962","lat":35.776951,"lon":139.359375},{"name":"殿ケ谷図書室","province":"東京都","city":"西多摩郡瑞穂町","address":"瑞穂町殿ケ谷988","lat":35.76561,"lon":139.363251},{"name":"武蔵野コミュニティーセンター図書室","province":"東京都","city":"西多摩郡瑞穂町","address":"瑞穂町むさし野1-5","lat":35.761532,"lon":139.338638},{"name":"瑞穂町郷土資料館けやき館","province":"東京都","city":"西多摩郡瑞穂町","address":"瑞穂町駒形富士山316-5","lat":35.783318,"lon":139.353287},{"name":"瑞穂町生涯学習センター","province":"東京都","city":"西多摩郡瑞穂町","address":"瑞穂町箱根ケ崎2287","lat":35.768837,"lon":139.353088},{"name":"耕心館","province":"東京都","city":"西多摩郡瑞穂町","address":"瑞穂町駒形富士山317-1","lat":35.780582,"lon":139.351913},{"name":"瑞穂ビューパーク・スカイホール","province":"東京都","city":"西多摩郡瑞穂町","address":"瑞穂町箱根ケ崎2475","lat":35.774883,"lon":139.355148},{"name":"長岡コミュニティセンター図書室","province":"東京都","city":"西多摩郡瑞穂町","address":"瑞穂町箱根ケ崎1180","lat":35.78067,"lon":139.337296},{"name":"元狭山ふるさと思い出館図書室","province":"東京都","city":"西多摩郡瑞穂町","address":"瑞穂町二本木710","lat":35.789997,"lon":139.353058},{"name":"瑞穂町図書館","province":"東京都","city":"西多摩郡瑞穂町","address":"瑞穂町石畑1962","lat":35.776951,"lon":139.359375},{"name":"殿ケ谷図書室","province":"東京都","city":"西多摩郡瑞穂町","address":"瑞穂町殿ケ谷988","lat":35.76561,"lon":139.363251},{"name":"武蔵野コミュニティーセンター図書室","province":"東京都","city":"西多摩郡瑞穂町","address":"瑞穂町むさし野1-5","lat":35.761532,"lon":139.338638},{"name":"瑞穂町郷土資料館けやき館","province":"東京都","city":"西多摩郡瑞穂町","address":"瑞穂町駒形富士山316-5","lat":35.783318,"lon":139.353287},{"name":"瑞穂町生涯学習センター","province":"東京都","city":"西多摩郡瑞穂町","address":"瑞穂町箱根ケ崎2287","lat":35.768837,"lon":139.353088},{"name":"耕心館","province":"東京都","city":"西多摩郡瑞穂町","address":"瑞穂町駒形富士山317-1","lat":35.780582,"lon":139.351913},{"name":"瑞穂ビューパーク・スカイホール","province":"東京都","city":"西多摩郡瑞穂町","address":"瑞穂町箱根ケ崎2475","lat":35.774883,"lon":139.355148},{"name":"長岡コミュニティセンター図書室","province":"東京都","city":"西多摩郡瑞穂町","address":"瑞穂町箱根ケ崎1180","lat":35.78067,"lon":139.337296},{"name":"元狭山ふるさと思い出館図書室","province":"東京都","city":"西多摩郡瑞穂町","address":"瑞穂町二本木710","lat":35.789997,"lon":139.353058},{"name":"瑞穂町図書館","province":"東京都","city":"西多摩郡瑞穂町","address":"瑞穂町石畑1962","lat":35.776951,"lon":139.359375},{"name":"殿ケ谷図書室","province":"東京都","city":"西多摩郡瑞穂町","address":"瑞穂町殿ケ谷988","lat":35.76561,"lon":139.363251},{"name":"武蔵野コミュニティーセンター図書室","province":"東京都","city":"西多摩郡瑞穂町","address":"瑞穂町むさし野1-5","lat":35.761532,"lon":139.338638},{"name":"瑞穂町郷土資料館けやき館","province":"東京都","city":"西多摩郡瑞穂町","address":"瑞穂町駒形富士山316-5","lat":35.783318,"lon":139.353287},{"name":"瑞穂町生涯学習センター","province":"東京都","city":"西多摩郡瑞穂町","address":"瑞穂町箱根ケ崎2287","lat":35.768837,"lon":139.353088},{"name":"耕心館","province":"東京都","city":"西多摩郡瑞穂町","address":"瑞穂町駒形富士山317-1","lat":35.780582,"lon":139.351913},{"name":"瑞穂ビューパーク・スカイホール","province":"東京都","city":"西多摩郡瑞穂町","address":"瑞穂町箱根ケ崎2475","lat":35.774883,"lon":139.355148},{"name":"長岡コミュニティセンター図書室","province":"東京都","city":"西多摩郡瑞穂町","address":"瑞穂町箱根ケ崎1180","lat":35.78067,"lon":139.337296},{"name":"元狭山ふるさと思い出館図書室","province":"東京都","city":"西多摩郡瑞穂町","address":"瑞穂町二本木710","lat":35.789997,"lon":139.353058},{"name":"瑞穂町図書館","province":"東京都","city":"西多摩郡瑞穂町","address":"瑞穂町石畑1962","lat":35.776951,"lon":139.359375},{"name":"殿ケ谷図書室","province":"東京都","city":"西多摩郡瑞穂町","address":"瑞穂町殿ケ谷988","lat":35.76561,"lon":139.363251},{"name":"武蔵野コミュニティーセンター図書室","province":"東京都","city":"西多摩郡瑞穂町","address":"瑞穂町むさし野1-5","lat":35.761532,"lon":139.338638},{"name":"瑞穂町郷土資料館けやき館","province":"東京都","city":"西多摩郡瑞穂町","address":"瑞穂町駒形富士山316-5","lat":35.783318,"lon":139.353287},{"name":"瑞穂町生涯学習センター","province":"東京都","city":"西多摩郡瑞穂町","address":"瑞穂町箱根ケ崎2287","lat":35.768837,"lon":139.353088},{"name":"耕心館","province":"東京都","city":"西多摩郡瑞穂町","address":"瑞穂町駒形富士山317-1","lat":35.780582,"lon":139.351913},{"name":"瑞穂ビューパーク・スカイホール","province":"東京都","city":"西多摩郡瑞穂町","address":"瑞穂町箱根ケ崎2475","lat":35.774883,"lon":139.355148},{"name":"長岡コミュニティセンター図書室","province":"東京都","city":"西多摩郡瑞穂町","address":"瑞穂町箱根ケ崎1180","lat":35.78067,"lon":139.337296},{"name":"元狭山ふるさと思い出館図書室","province":"東京都","city":"西多摩郡瑞穂町","address":"瑞穂町二本木710","lat":35.789997,"lon":139.353058},{"name":"瑞穂町図書館","province":"東京都","city":"西多摩郡瑞穂町","address":"瑞穂町石畑1962","lat":35.776951,"lon":139.359375},{"name":"殿ケ谷図書室","province":"東京都","city":"西多摩郡瑞穂町","address":"瑞穂町殿ケ谷988","lat":35.76561,"lon":139.363251},{"name":"武蔵野コミュニティーセンター図書室","province":"東京都","city":"西多摩郡瑞穂町","address":"瑞穂町むさし野1-5","lat":35.761532,"lon":139.338638},{"name":"瑞穂町郷土資料館けやき館","province":"東京都","city":"西多摩郡瑞穂町","address":"瑞穂町駒形富士山316-5","lat":35.783318,"lon":139.353287},{"name":"瑞穂町生涯学習センター","province":"東京都","city":"西多摩郡瑞穂町","address":"瑞穂町箱根ケ崎2287","lat":35.768837,"lon":139.353088},{"name":"耕心館","province":"東京都","city":"西多摩郡瑞穂町","address":"瑞穂町駒形富士山317-1","lat":35.780582,"lon":139.351913},{"name":"瑞穂ビューパーク・スカイホール","province":"東京都","city":"西多摩郡瑞穂町","address":"瑞穂町箱根ケ崎2475","lat":35.774883,"lon":139.355148},{"name":"長岡コミュニティセンター図書室","province":"東京都","city":"西多摩郡瑞穂町","address":"瑞穂町箱根ケ崎1180","lat":35.78067,"lon":139.337296},{"name":"元狭山ふるさと思い出館図書室","province":"東京都","city":"西多摩郡瑞穂町","address":"瑞穂町二本木710","lat":35.789997,"lon":139.353058},{"name":"瑞穂町図書館","province":"東京都","city":"西多摩郡瑞穂町","address":"瑞穂町石畑1962","lat":35.776951,"lon":139.359375},{"name":"殿ケ谷図書室","province":"東京都","city":"西多摩郡瑞穂町","address":"瑞穂町殿ケ谷988","lat":35.76561,"lon":139.363251},{"name":"武蔵野コミュニティーセンター図書室","province":"東京都","city":"西多摩郡瑞穂町","address":"瑞穂町むさし野1-5","lat":35.761532,"lon":139.338638},{"name":"瑞穂町郷土資料館けやき館","province":"東京都","city":"西多摩郡瑞穂町","address":"瑞穂町駒形富士山316-5","lat":35.783318,"lon":139.353287},{"name":"瑞穂町生涯学習センター","province":"東京都","city":"西多摩郡瑞穂町","address":"瑞穂町箱根ケ崎2287","lat":35.768837,"lon":139.353088},{"name":"耕心館","province":"東京都","city":"西多摩郡瑞穂町","address":"瑞穂町駒形富士山317-1","lat":35.780582,"lon":139.351913},{"name":"瑞穂ビューパーク・スカイホール","province":"東京都","city":"西多摩郡瑞穂町","address":"瑞穂町箱根ケ崎2475","lat":35.774883,"lon":139.355148},{"name":"長岡コミュニティセンター図書室","province":"東京都","city":"西多摩郡瑞穂町","address":"瑞穂町箱根ケ崎1180","lat":35.78067,"lon":139.337296},{"name":"元狭山ふるさと思い出館図書室","province":"東京都","city":"西多摩郡瑞穂町","address":"瑞穂町二本木710","lat":35.789997,"lon":139.353058},{"name":"瑞穂町図書館","province":"東京都","city":"西多摩郡瑞穂町","address":"瑞穂町石畑1962","lat":35.776951,"lon":139.359375},{"name":"殿ケ谷図書室","province":"東京都","city":"西多摩郡瑞穂町","address":"瑞穂町殿ケ谷988","lat":35.76561,"lon":139.363251},{"name":"武蔵野コミュニティーセンター図書室","province":"東京都","city":"西多摩郡瑞穂町","address":"瑞穂町むさし野1-5","lat":35.761532,"lon":139.338638},{"name":"瑞穂町郷土資料館けやき館","province":"東京都","city":"西多摩郡瑞穂町","address":"瑞穂町駒形富士山316-5","lat":35.783318,"lon":139.353287},{"name":"瑞穂町生涯学習センター","province":"東京都","city":"西多摩郡瑞穂町","address":"瑞穂町箱根ケ崎2287","lat":35.768837,"lon":139.353088},{"name":"耕心館","province":"東京都","city":"西多摩郡瑞穂町","address":"瑞穂町駒形富士山317-1","lat":35.780582,"lon":139.351913},{"name":"瑞穂ビューパーク・スカイホール","province":"東京都","city":"西多摩郡瑞穂町","address":"瑞穂町箱根ケ崎2475","lat":35.774883,"lon":139.355148},{"name":"長岡コミュニティセンター図書室","province":"東京都","city":"西多摩郡瑞穂町","address":"瑞穂町箱根ケ崎1180","lat":35.78067,"lon":139.337296},{"name":"元狭山ふるさと思い出館図書室","province":"東京都","city":"西多摩郡瑞穂町","address":"瑞穂町二本木710","lat":35.789997,"lon":139.353058},{"name":"瑞穂町図書館","province":"東京都","city":"西多摩郡瑞穂町","address":"瑞穂町石畑1962","lat":35.776951,"lon":139.359375},{"name":"殿ケ谷図書室","province":"東京都","city":"西多摩郡瑞穂町","address":"瑞穂町殿ケ谷988","lat":35.76561,"lon":139.363251},{"name":"武蔵野コミュニティーセンター図書室","province":"東京都","city":"西多摩郡瑞穂町","address":"瑞穂町むさし野1-5","lat":35.761532,"lon":139.338638},{"name":"瑞穂町郷土資料館けやき館","province":"東京都","city":"西多摩郡瑞穂町","address":"瑞穂町駒形富士山316-5","lat":35.783318,"lon":139.353287},{"name":"瑞穂町生涯学習センター","province":"東京都","city":"西多摩郡瑞穂町","address":"瑞穂町箱根ケ崎2287","lat":35.768837,"lon":139.353088},{"name":"耕心館","province":"東京都","city":"西多摩郡瑞穂町","address":"瑞穂町駒形富士山317-1","lat":35.780582,"lon":139.351913},{"name":"瑞穂ビューパーク・スカイホール","province":"東京都","city":"西多摩郡瑞穂町","address":"瑞穂町箱根ケ崎2475","lat":35.774883,"lon":139.355148},{"name":"長岡コミュニティセンター図書室","province":"東京都","city":"西多摩郡瑞穂町","address":"瑞穂町箱根ケ崎1180","lat":35.78067,"lon":139.337296},{"name":"元狭山ふるさと思い出館図書室","province":"東京都","city":"西多摩郡瑞穂町","address":"瑞穂町二本木710","lat":35.789997,"lon":139.353058},{"name":"瑞穂町図書館","province":"東京都","city":"西多摩郡瑞穂町","address":"瑞穂町石畑1962","lat":35.776951,"lon":139.359375},{"name":"殿ケ谷図書室","province":"東京都","city":"西多摩郡瑞穂町","address":"瑞穂町殿ケ谷988","lat":35.76561,"lon":139.363251},{"name":"武蔵野コミュニティーセンター図書室","province":"東京都","city":"西多摩郡瑞穂町","address":"瑞穂町むさし野1-5","lat":35.761532,"lon":139.338638},{"name":"瑞穂町郷土資料館けやき館","province":"東京都","city":"西多摩郡瑞穂町","address":"瑞穂町駒形富士山316-5","lat":35.783318,"lon":139.353287},{"name":"瑞穂町生涯学習センター","province":"東京都","city":"西多摩郡瑞穂町","address":"瑞穂町箱根ケ崎2287","lat":35.768837,"lon":139.353088},{"name":"耕心館","province":"東京都","city":"西多摩郡瑞穂町","address":"瑞穂町駒形富士山317-1","lat":35.780582,"lon":139.351913},{"name":"瑞穂ビューパーク・スカイホール","province":"東京都","city":"西多摩郡瑞穂町","address":"瑞穂町箱根ケ崎2475","lat":35.774883,"lon":139.355148},{"name":"長岡コミュニティセンター図書室","province":"東京都","city":"西多摩郡瑞穂町","address":"瑞穂町箱根ケ崎1180","lat":35.78067,"lon":139.337296},{"name":"元狭山ふるさと思い出館図書室","province":"東京都","city":"西多摩郡瑞穂町","address":"瑞穂町二本木710","lat":35.789997,"lon":139.353058},{"name":"瑞穂町図書館","province":"東京都","city":"西多摩郡瑞穂町","address":"瑞穂町石畑1962","lat":35.776951,"lon":139.359375},{"name":"殿ケ谷図書室","province":"東京都","city":"西多摩郡瑞穂町","address":"瑞穂町殿ケ谷988","lat":35.76561,"lon":139.363251},{"name":"武蔵野コミュニティーセンター図書室","province":"東京都","city":"西多摩郡瑞穂町","address":"瑞穂町むさし野1-5","lat":35.761532,"lon":139.338638},{"name":"瑞穂町郷土資料館けやき館","province":"東京都","city":"西多摩郡瑞穂町","address":"瑞穂町駒形富士山316-5","lat":35.783318,"lon":139.353287},{"name":"瑞穂町生涯学習センター","province":"東京都","city":"西多摩郡瑞穂町","address":"瑞穂町箱根ケ崎2287","lat":35.768837,"lon":139.353088},{"name":"耕心館","province":"東京都","city":"西多摩郡瑞穂町","address":"瑞穂町駒形富士山317-1","lat":35.780582,"lon":139.351913},{"name":"瑞穂ビューパーク・スカイホール","province":"東京都","city":"西多摩郡瑞穂町","address":"瑞穂町箱根ケ崎2475","lat":35.774883,"lon":139.355148},{"name":"長岡コミュニティセンター図書室","province":"東京都","city":"西多摩郡瑞穂町","address":"瑞穂町箱根ケ崎1180","lat":35.78067,"lon":139.337296},{"name":"元狭山ふるさと思い出館図書室","province":"東京都","city":"西多摩郡瑞穂町","address":"瑞穂町二本木710","lat":35.789997,"lon":139.353058},{"name":"瑞穂町図書館","province":"東京都","city":"西多摩郡瑞穂町","address":"瑞穂町石畑1962","lat":35.776951,"lon":139.359375},{"name":"殿ケ谷図書室","province":"東京都","city":"西多摩郡瑞穂町","address":"瑞穂町殿ケ谷988","lat":35.76561,"lon":139.363251},{"name":"武蔵野コミュニティーセンター図書室","province":"東京都","city":"西多摩郡瑞穂町","address":"瑞穂町むさし野1-5","lat":35.761532,"lon":139.338638},{"name":"瑞穂町郷土資料館けやき館","province":"東京都","city":"西多摩郡瑞穂町","address":"瑞穂町駒形富士山316-5","lat":35.783318,"lon":139.353287},{"name":"瑞穂町生涯学習センター","province":"東京都","city":"西多摩郡瑞穂町","address":"瑞穂町箱根ケ崎2287","lat":35.768837,"lon":139.353088},{"name":"耕心館","province":"東京都","city":"西多摩郡瑞穂町","address":"瑞穂町駒形富士山317-1","lat":35.780582,"lon":139.351913},{"name":"瑞穂ビューパーク・スカイホール","province":"東京都","city":"西多摩郡瑞穂町","address":"瑞穂町箱根ケ崎2475","lat":35.774883,"lon":139.355148},{"name":"長岡コミュニティセンター図書室","province":"東京都","city":"西多摩郡瑞穂町","address":"瑞穂町箱根ケ崎1180","lat":35.78067,"lon":139.337296},{"name":"元狭山ふるさと思い出館図書室","province":"東京都","city":"西多摩郡瑞穂町","address":"瑞穂町二本木710","lat":35.789997,"lon":139.353058},{"name":"瑞穂町図書館","province":"東京都","city":"西多摩郡瑞穂町","address":"瑞穂町石畑1962","lat":35.776951,"lon":139.359375},{"name":"殿ケ谷図書室","province":"東京都","city":"西多摩郡瑞穂町","address":"瑞穂町殿ケ谷988","lat":35.76561,"lon":139.363251},{"name":"武蔵野コミュニティーセンター図書室","province":"東京都","city":"西多摩郡瑞穂町","address":"瑞穂町むさし野1-5","lat":35.761532,"lon":139.338638},{"name":"瑞穂町郷土資料館けやき館","province":"東京都","city":"西多摩郡瑞穂町","address":"瑞穂町駒形富士山316-5","lat":35.783318,"lon":139.353287},{"name":"瑞穂町生涯学習センター","province":"東京都","city":"西多摩郡瑞穂町","address":"瑞穂町箱根ケ崎2287","lat":35.768837,"lon":139.353088},{"name":"耕心館","province":"東京都","city":"西多摩郡瑞穂町","address":"瑞穂町駒形富士山317-1","lat":35.780582,"lon":139.351913},{"name":"瑞穂ビューパーク・スカイホール","province":"東京都","city":"西多摩郡瑞穂町","address":"瑞穂町箱根ケ崎2475","lat":35.774883,"lon":139.355148},{"name":"長岡コミュニティセンター図書室","province":"東京都","city":"西多摩郡瑞穂町","address":"瑞穂町箱根ケ崎1180","lat":35.78067,"lon":139.337296},{"name":"元狭山ふるさと思い出館図書室","province":"東京都","city":"西多摩郡瑞穂町","address":"瑞穂町二本木710","lat":35.789997,"lon":139.353058},{"name":"瑞穂町図書館","province":"東京都","city":"西多摩郡瑞穂町","address":"瑞穂町石畑1962","lat":35.776951,"lon":139.359375},{"name":"殿ケ谷図書室","province":"東京都","city":"西多摩郡瑞穂町","address":"瑞穂町殿ケ谷988","lat":35.76561,"lon":139.363251},{"name":"武蔵野コミュニティーセンター図書室","province":"東京都","city":"西多摩郡瑞穂町","address":"瑞穂町むさし野1-5","lat":35.761532,"lon":139.338638},{"name":"瑞穂町郷土資料館けやき館","province":"東京都","city":"西多摩郡瑞穂町","address":"瑞穂町駒形富士山316-5","lat":35.783318,"lon":139.353287},{"name":"瑞穂町生涯学習センター","province":"東京都","city":"西多摩郡瑞穂町","address":"瑞穂町箱根ケ崎2287","lat":35.768837,"lon":139.353088},{"name":"耕心館","province":"東京都","city":"西多摩郡瑞穂町","address":"瑞穂町駒形富士山317-1","lat":35.780582,"lon":139.351913},{"name":"瑞穂ビューパーク・スカイホール","province":"東京都","city":"西多摩郡瑞穂町","address":"瑞穂町箱根ケ崎2475","lat":35.774883,"lon":139.355148},{"name":"長岡コミュニティセンター図書室","province":"東京都","city":"西多摩郡瑞穂町","address":"瑞穂町箱根ケ崎1180","lat":35.78067,"lon":139.337296},{"name":"元狭山ふるさと思い出館図書室","province":"東京都","city":"西多摩郡瑞穂町","address":"瑞穂町二本木710","lat":35.789997,"lon":139.353058},{"name":"瑞穂町図書館","province":"東京都","city":"西多摩郡瑞穂町","address":"瑞穂町石畑1962","lat":35.776951,"lon":139.359375},{"name":"殿ケ谷図書室","province":"東京都","city":"西多摩郡瑞穂町","address":"瑞穂町殿ケ谷988","lat":35.76561,"lon":139.363251},{"name":"武蔵野コミュニティーセンター図書室","province":"東京都","city":"西多摩郡瑞穂町","address":"瑞穂町むさし野1-5","lat":35.761532,"lon":139.338638},{"name":"瑞穂町郷土資料館けやき館","province":"東京都","city":"西多摩郡瑞穂町","address":"瑞穂町駒形富士山316-5","lat":35.783318,"lon":139.353287},{"name":"瑞穂町生涯学習センター","province":"東京都","city":"西多摩郡瑞穂町","address":"瑞穂町箱根ケ崎2287","lat":35.768837,"lon":139.353088},{"name":"耕心館","province":"東京都","city":"西多摩郡瑞穂町","address":"瑞穂町駒形富士山317-1","lat":35.780582,"lon":139.351913},{"name":"瑞穂ビューパーク・スカイホール","province":"東京都","city":"西多摩郡瑞穂町","address":"瑞穂町箱根ケ崎2475","lat":35.774883,"lon":139.355148},{"name":"長岡コミュニティセンター図書室","province":"東京都","city":"西多摩郡瑞穂町","address":"瑞穂町箱根ケ崎1180","lat":35.78067,"lon":139.337296},{"name":"元狭山ふるさと思い出館図書室","province":"東京都","city":"西多摩郡瑞穂町","address":"瑞穂町二本木710","lat":35.789997,"lon":139.353058},{"name":"瑞穂町図書館","province":"東京都","city":"西多摩郡瑞穂町","address":"瑞穂町石畑1962","lat":35.776951,"lon":139.359375},{"name":"殿ケ谷図書室","province":"東京都","city":"西多摩郡瑞穂町","address":"瑞穂町殿ケ谷988","lat":35.76561,"lon":139.363251},{"name":"武蔵野コミュニティーセンター図書室","province":"東京都","city":"西多摩郡瑞穂町","address":"瑞穂町むさし野1-5","lat":35.761532,"lon":139.338638},{"name":"瑞穂町郷土資料館けやき館","province":"東京都","city":"西多摩郡瑞穂町","address":"瑞穂町駒形富士山316-5","lat":35.783318,"lon":139.353287},{"name":"瑞穂町生涯学習センター","province":"東京都","city":"西多摩郡瑞穂町","address":"瑞穂町箱根ケ崎2287","lat":35.768837,"lon":139.353088},{"name":"耕心館","province":"東京都","city":"西多摩郡瑞穂町","address":"瑞穂町駒形富士山317-1","lat":35.780582,"lon":139.351913},{"name":"瑞穂ビューパーク・スカイホール","province":"東京都","city":"西多摩郡瑞穂町","address":"瑞穂町箱根ケ崎2475","lat":35.774883,"lon":139.355148},{"name":"長岡コミュニティセンター図書室","province":"東京都","city":"西多摩郡瑞穂町","address":"瑞穂町箱根ケ崎1180","lat":35.78067,"lon":139.337296},{"name":"元狭山ふるさと思い出館図書室","province":"東京都","city":"西多摩郡瑞穂町","address":"瑞穂町二本木710","lat":35.789997,"lon":139.353058},{"name":"瑞穂町図書館","province":"東京都","city":"西多摩郡瑞穂町","address":"瑞穂町石畑1962","lat":35.776951,"lon":139.359375},{"name":"殿ケ谷図書室","province":"東京都","city":"西多摩郡瑞穂町","address":"瑞穂町殿ケ谷988","lat":35.76561,"lon":139.363251},{"name":"武蔵野コミュニティーセンター図書室","province":"東京都","city":"西多摩郡瑞穂町","address":"瑞穂町むさし野1-5","lat":35.761532,"lon":139.338638},{"name":"瑞穂町郷土資料館けやき館","province":"東京都","city":"西多摩郡瑞穂町","address":"瑞穂町駒形富士山316-5","lat":35.783318,"lon":139.353287},{"name":"瑞穂町生涯学習センター","province":"東京都","city":"西多摩郡瑞穂町","address":"瑞穂町箱根ケ崎2287","lat":35.768837,"lon":139.353088},{"name":"耕心館","province":"東京都","city":"西多摩郡瑞穂町","address":"瑞穂町駒形富士山317-1","lat":35.780582,"lon":139.351913},{"name":"瑞穂ビューパーク・スカイホール","province":"東京都","city":"西多摩郡瑞穂町","address":"瑞穂町箱根ケ崎2475","lat":35.774883,"lon":139.355148},{"name":"長岡コミュニティセンター図書室","province":"東京都","city":"西多摩郡瑞穂町","address":"瑞穂町箱根ケ崎1180","lat":35.78067,"lon":139.337296},{"name":"元狭山ふるさと思い出館図書室","province":"東京都","city":"西多摩郡瑞穂町","address":"瑞穂町二本木710","lat":35.789997,"lon":139.353058},{"name":"瑞穂町図書館","province":"東京都","city":"西多摩郡瑞穂町","address":"瑞穂町石畑1962","lat":35.776951,"lon":139.359375},{"name":"殿ケ谷図書室","province":"東京都","city":"西多摩郡瑞穂町","address":"瑞穂町殿ケ谷988","lat":35.76561,"lon":139.363251},{"name":"武蔵野コミュニティーセンター図書室","province":"東京都","city":"西多摩郡瑞穂町","address":"瑞穂町むさし野1-5","lat":35.761532,"lon":139.338638},{"name":"瑞穂町郷土資料館けやき館","province":"東京都","city":"西多摩郡瑞穂町","address":"瑞穂町駒形富士山316-5","lat":35.783318,"lon":139.353287},{"name":"瑞穂町生涯学習センター","province":"東京都","city":"西多摩郡瑞穂町","address":"瑞穂町箱根ケ崎2287","lat":35.768837,"lon":139.353088},{"name":"耕心館","province":"東京都","city":"西多摩郡瑞穂町","address":"瑞穂町駒形富士山317-1","lat":35.780582,"lon":139.351913},{"name":"瑞穂ビューパーク・スカイホール","province":"東京都","city":"西多摩郡瑞穂町","address":"瑞穂町箱根ケ崎2475","lat":35.774883,"lon":139.355148},{"name":"長岡コミュニティセンター図書室","province":"東京都","city":"西多摩郡瑞穂町","address":"瑞穂町箱根ケ崎1180","lat":35.78067,"lon":139.337296},{"name":"元狭山ふるさと思い出館図書室","province":"東京都","city":"西多摩郡瑞穂町","address":"瑞穂町二本木710","lat":35.789997,"lon":139.353058},{"name":"瑞穂町図書館","province":"東京都","city":"西多摩郡瑞穂町","address":"瑞穂町石畑1962","lat":35.776951,"lon":139.359375},{"name":"殿ケ谷図書室","province":"東京都","city":"西多摩郡瑞穂町","address":"瑞穂町殿ケ谷988","lat":35.76561,"lon":139.363251},{"name":"武蔵野コミュニティーセンター図書室","province":"東京都","city":"西多摩郡瑞穂町","address":"瑞穂町むさし野1-5","lat":35.761532,"lon":139.338638},{"name":"瑞穂町郷土資料館けやき館","province":"東京都","city":"西多摩郡瑞穂町","address":"瑞穂町駒形富士山316-5","lat":35.783318,"lon":139.353287},{"name":"瑞穂町生涯学習センター","province":"東京都","city":"西多摩郡瑞穂町","address":"瑞穂町箱根ケ崎2287","lat":35.768837,"lon":139.353088},{"name":"耕心館","province":"東京都","city":"西多摩郡瑞穂町","address":"瑞穂町駒形富士山317-1","lat":35.780582,"lon":139.351913},{"name":"瑞穂ビューパーク・スカイホール","province":"東京都","city":"西多摩郡瑞穂町","address":"瑞穂町箱根ケ崎2475","lat":35.774883,"lon":139.355148},{"name":"長岡コミュニティセンター図書室","province":"東京都","city":"西多摩郡瑞穂町","address":"瑞穂町箱根ケ崎1180","lat":35.78067,"lon":139.337296},{"name":"元狭山ふるさと思い出館図書室","province":"東京都","city":"西多摩郡瑞穂町","address":"瑞穂町二本木710","lat":35.789997,"lon":139.353058},{"name":"瑞穂町図書館","province":"東京都","city":"西多摩郡瑞穂町","address":"瑞穂町石畑1962","lat":35.776951,"lon":139.359375},{"name":"殿ケ谷図書室","province":"東京都","city":"西多摩郡瑞穂町","address":"瑞穂町殿ケ谷988","lat":35.76561,"lon":139.363251},{"name":"武蔵野コミュニティーセンター図書室","province":"東京都","city":"西多摩郡瑞穂町","address":"瑞穂町むさし野1-5","lat":35.761532,"lon":139.338638},{"name":"瑞穂町郷土資料館けやき館","province":"東京都","city":"西多摩郡瑞穂町","address":"瑞穂町駒形富士山316-5","lat":35.783318,"lon":139.353287},{"name":"瑞穂町生涯学習センター","province":"東京都","city":"西多摩郡瑞穂町","address":"瑞穂町箱根ケ崎2287","lat":35.768837,"lon":139.353088},{"name":"耕心館","province":"東京都","city":"西多摩郡瑞穂町","address":"瑞穂町駒形富士山317-1","lat":35.780582,"lon":139.351913},{"name":"瑞穂ビューパーク・スカイホール","province":"東京都","city":"西多摩郡瑞穂町","address":"瑞穂町箱根ケ崎2475","lat":35.774883,"lon":139.355148},{"name":"長岡コミュニティセンター図書室","province":"東京都","city":"西多摩郡瑞穂町","address":"瑞穂町箱根ケ崎1180","lat":35.78067,"lon":139.337296},{"name":"元狭山ふるさと思い出館図書室","province":"東京都","city":"西多摩郡瑞穂町","address":"瑞穂町二本木710","lat":35.789997,"lon":139.353058},{"name":"瑞穂町図書館","province":"東京都","city":"西多摩郡瑞穂町","address":"瑞穂町石畑1962","lat":35.776951,"lon":139.359375},{"name":"殿ケ谷図書室","province":"東京都","city":"西多摩郡瑞穂町","address":"瑞穂町殿ケ谷988","lat":35.76561,"lon":139.363251},{"name":"武蔵野コミュニティーセンター図書室","province":"東京都","city":"西多摩郡瑞穂町","address":"瑞穂町むさし野1-5","lat":35.761532,"lon":139.338638},{"name":"瑞穂町郷土資料館けやき館","province":"東京都","city":"西多摩郡瑞穂町","address":"瑞穂町駒形富士山316-5","lat":35.783318,"lon":139.353287},{"name":"瑞穂町生涯学習センター","province":"東京都","city":"西多摩郡瑞穂町","address":"瑞穂町箱根ケ崎2287","lat":35.768837,"lon":139.353088},{"name":"耕心館","province":"東京都","city":"西多摩郡瑞穂町","address":"瑞穂町駒形富士山317-1","lat":35.780582,"lon":139.351913},{"name":"瑞穂ビューパーク・スカイホール","province":"東京都","city":"西多摩郡瑞穂町","address":"瑞穂町箱根ケ崎2475","lat":35.774883,"lon":139.355148},{"name":"長岡コミュニティセンター図書室","province":"東京都","city":"西多摩郡瑞穂町","address":"瑞穂町箱根ケ崎1180","lat":35.78067,"lon":139.337296},{"name":"元狭山ふるさと思い出館図書室","province":"東京都","city":"西多摩郡瑞穂町","address":"瑞穂町二本木710","lat":35.789997,"lon":139.353058},{"name":"瑞穂町図書館","province":"東京都","city":"西多摩郡瑞穂町","address":"瑞穂町石畑1962","lat":35.776951,"lon":139.359375},{"name":"殿ケ谷図書室","province":"東京都","city":"西多摩郡瑞穂町","address":"瑞穂町殿ケ谷988","lat":35.76561,"lon":139.363251},{"name":"武蔵野コミュニティーセンター図書室","province":"東京都","city":"西多摩郡瑞穂町","address":"瑞穂町むさし野1-5","lat":35.761532,"lon":139.338638},{"name":"瑞穂町郷土資料館けやき館","province":"東京都","city":"西多摩郡瑞穂町","address":"瑞穂町駒形富士山316-5","lat":35.783318,"lon":139.353287},{"name":"瑞穂町生涯学習センター","province":"東京都","city":"西多摩郡瑞穂町","address":"瑞穂町箱根ケ崎2287","lat":35.768837,"lon":139.353088},{"name":"耕心館","province":"東京都","city":"西多摩郡瑞穂町","address":"瑞穂町駒形富士山317-1","lat":35.780582,"lon":139.351913},{"name":"瑞穂ビューパーク・スカイホール","province":"東京都","city":"西多摩郡瑞穂町","address":"瑞穂町箱根ケ崎2475","lat":35.774883,"lon":139.355148},{"name":"長岡コミュニティセンター図書室","province":"東京都","city":"西多摩郡瑞穂町","address":"瑞穂町箱根ケ崎1180","lat":35.78067,"lon":139.337296},{"name":"元狭山ふるさと思い出館図書室","province":"東京都","city":"西多摩郡瑞穂町","address":"瑞穂町二本木710","lat":35.789997,"lon":139.353058},{"name":"瑞穂町図書館","province":"東京都","city":"西多摩郡瑞穂町","address":"瑞穂町石畑1962","lat":35.776951,"lon":139.359375},{"name":"殿ケ谷図書室","province":"東京都","city":"西多摩郡瑞穂町","address":"瑞穂町殿ケ谷988","lat":35.76561,"lon":139.363251},{"name":"武蔵野コミュニティーセンター図書室","province":"東京都","city":"西多摩郡瑞穂町","address":"瑞穂町むさし野1-5","lat":35.761532,"lon":139.338638},{"name":"瑞穂町郷土資料館けやき館","province":"東京都","city":"西多摩郡瑞穂町","address":"瑞穂町駒形富士山316-5","lat":35.783318,"lon":139.353287},{"name":"瑞穂町生涯学習センター","province":"東京都","city":"西多摩郡瑞穂町","address":"瑞穂町箱根ケ崎2287","lat":35.768837,"lon":139.353088},{"name":"耕心館","province":"東京都","city":"西多摩郡瑞穂町","address":"瑞穂町駒形富士山317-1","lat":35.780582,"lon":139.351913},{"name":"瑞穂ビューパーク・スカイホール","province":"東京都","city":"西多摩郡瑞穂町","address":"瑞穂町箱根ケ崎2475","lat":35.774883,"lon":139.355148}]}