{"keyword":"認可","data":[{"name":"狭山保育園","province":"東京都","city":"西多摩郡瑞穂町","address":"西多摩郡瑞穂町大字駒形富士山420番地","lat":35.78492,"lon":139.355},{"name":"石畑保育園","province":"東京都","city":"西多摩郡瑞穂町","address":"西多摩郡瑞穂町大字石畑1837番地","lat":35.76949,"lon":139.35609},{"name":"とのがや保育園","province":"東京都","city":"西多摩郡瑞穂町","address":"西多摩郡瑞穂町大字殿ケ谷892番地4","lat":35.76703,"lon":139.3624},{"name":"むさしの保育園","province":"東京都","city":"西多摩郡瑞穂町","address":"西多摩郡瑞穂町むさし野一丁目5番地","lat":35.76153,"lon":139.33864},{"name":"みずほひじり保育園","province":"東京都","city":"西多摩郡瑞穂町","address":"西多摩郡瑞穂町大字箱根ケ崎2515番地1","lat":35.77579,"lon":139.35388},{"name":"ぴよぴよ保育園","province":"東京都","city":"西多摩郡瑞穂町","address":"西多摩郡瑞穂町大字箱根ケ崎363番地1","lat":35.77143,"lon":139.34474},{"name":"東松原保育園","province":"東京都","city":"西多摩郡瑞穂町","address":"西多摩郡瑞穂町箱根ケ崎東松原16番地8","lat":35.7742,"lon":139.33972},{"name":"南平保育園","province":"東京都","city":"西多摩郡瑞穂町","address":"西多摩郡瑞穂町南平二丁目3番地4","lat":35.7672099,"lon":139.3379211},{"name":"長岡保育園","province":"東京都","city":"西多摩郡瑞穂町","address":"西多摩郡瑞穂町長岡四丁目11番地14","lat":35.77975,"lon":139.3277},{"name":"みずほひじり保育園","province":"東京都","city":"西多摩郡瑞穂町","address":"西多摩郡瑞穂町大字箱根ケ崎2515-1","lat":35.7758,"lon":139.35388},{"name":"ぴよぴよ保育園","province":"東京都","city":"西多摩郡瑞穂町","address":"西多摩郡瑞穂町大字箱根ケ崎363-1","lat":35.77144,"lon":139.34474}]}