{"keyword":"週","data":[{"name":"あすなろ児童館","province":"東京都","city":"西多摩郡瑞穂町","address":"西多摩郡瑞穂町大字石畑1837","lat":35.769353,"lon":139.356193},{"name":"瑞穂町社会福祉協議会","province":"東京都","city":"西多摩郡瑞穂町","address":"西多摩郡瑞穂町石畑2008ふれあいセンター1階","lat":35.774469,"lon":139.357198},{"name":"瑞穂町図書館","province":"東京都","city":"西多摩郡瑞穂町","address":"東京都西多摩郡瑞穂町大字石畑1962番地","lat":35.77475,"lon":139.356734},{"name":"元狭山ふるさと思い出館図書室","province":"東京都","city":"西多摩郡瑞穂町","address":"東京都西多摩郡瑞穂町大字二本木710番地","lat":35.789608,"lon":139.354835},{"name":"長岡コミュニティセンター図書室","province":"東京都","city":"西多摩郡瑞穂町","address":"東京都西多摩郡瑞穂町大字箱根ケ崎1180番地","lat":35.780904,"lon":139.337175},{"name":"武蔵野コミュニティセンター図書室","province":"東京都","city":"西多摩郡瑞穂町","address":"東京都西多摩郡瑞穂町むさし野1丁目5番地","lat":35.761579,"lon":139.339685},{"name":"殿ケ谷図書室","province":"東京都","city":"西多摩郡瑞穂町","address":"東京都西多摩郡瑞穂町大字殿ケ谷988番地","lat":35.765227,"lon":139.363772},{"name":"あすなろ児童館","province":"東京都","city":"西多摩郡瑞穂町","address":"西多摩郡瑞穂町大字石畑1837","lat":35.76949,"lon":139.35609},{"name":"瑞穂町社会福祉協議会","province":"東京都","city":"西多摩郡瑞穂町","address":"西多摩郡瑞穂町大字石畑2008ふれあいセンター1階","lat":35.77695,"lon":139.35938},{"name":"瑞穂斎場","province":"東京都","city":"西多摩郡瑞穂町","address":"東京都西多摩郡瑞穂町富士山栗原新田（大字）244","lat":35.78176225,"lon":139.34704573},{"name":"石畑公園","province":"東京都","city":"西多摩郡瑞穂町","address":"東京都西多摩郡瑞穂町石畑（大字）","lat":35.76716696,"lon":139.35720097},{"name":"瑞穂ビューパーク競技場","province":"東京都","city":"西多摩郡瑞穂町","address":"東京都西多摩郡瑞穂町箱根ケ崎（大字）2475","lat":35.77460487,"lon":139.35533972},{"name":"町営第２グラウンド","province":"東京都","city":"西多摩郡瑞穂町","address":"東京都西多摩郡瑞穂町箱根ケ崎西松原33-1","lat":35.77001618,"lon":139.33711925},{"name":"＊?瑞穂町郷土資料館","province":"東京都","city":"西多摩郡瑞穂町","address":"瑞穂町石畑1962","lat":35.774751,"lon":139.356739},{"name":"＊?元狭山ふるさと思い出館図書室","province":"東京都","city":"西多摩郡瑞穂町","address":"瑞穂町二本木710","lat":35.789626,"lon":139.354843},{"name":"＊?殿ケ谷図書室","province":"東京都","city":"西多摩郡瑞穂町","address":"瑞穂町殿ケ谷988","lat":35.765225,"lon":139.363774},{"name":"＊?長岡コミュニティセンター図書室","province":"東京都","city":"西多摩郡瑞穂町","address":"瑞穂町箱根ケ崎1180番地長岡コミュニティセンター内","lat":35.780933,"lon":139.337174},{"name":"＊?瑞穂町図書館","province":"東京都","city":"西多摩郡瑞穂町","address":"瑞穂町石畑1962","lat":35.774735,"lon":139.356719},{"name":"＊?武蔵野コミュニティーセンター図書室","province":"東京都","city":"西多摩郡瑞穂町","address":"瑞穂町むさし野1-5瑞穂アパート27号棟武蔵野コミュニティセンター内","lat":35.76158,"lon":139.339706},{"name":"瑞穂町本庁舎","province":"東京都","city":"西多摩郡瑞穂町","address":"西多摩郡瑞穂町大字箱根ヶ崎2335","lat":35.77189,"lon":139.3538},{"name":"瑞穂斎場","province":"東京都","city":"西多摩郡瑞穂町","address":"東京都西多摩郡瑞穂町富士山栗原新田（大字）244","lat":35.78176225,"lon":139.34704573},{"name":"あすなろ児童館","province":"東京都","city":"西多摩郡瑞穂町","address":"西多摩郡瑞穂町大字石畑1837","lat":35.769353,"lon":139.356193},{"name":"瑞穂町社会福祉協議会","province":"東京都","city":"西多摩郡瑞穂町","address":"西多摩郡瑞穂町石畑2008ふれあいセンター1階","lat":35.774469,"lon":139.357198},{"name":"瑞穂町図書館","province":"東京都","city":"西多摩郡瑞穂町","address":"東京都西多摩郡瑞穂町大字石畑1962番地","lat":35.77475,"lon":139.356734},{"name":"元狭山ふるさと思い出館図書室","province":"東京都","city":"西多摩郡瑞穂町","address":"東京都西多摩郡瑞穂町大字二本木710番地","lat":35.789608,"lon":139.354835},{"name":"長岡コミュニティセンター図書室","province":"東京都","city":"西多摩郡瑞穂町","address":"東京都西多摩郡瑞穂町大字箱根ケ崎1180番地","lat":35.780904,"lon":139.337175},{"name":"武蔵野コミュニティセンター図書室","province":"東京都","city":"西多摩郡瑞穂町","address":"東京都西多摩郡瑞穂町むさし野1丁目5番地","lat":35.761579,"lon":139.339685},{"name":"殿ケ谷図書室","province":"東京都","city":"西多摩郡瑞穂町","address":"東京都西多摩郡瑞穂町大字殿ケ谷988番地","lat":35.765227,"lon":139.363772},{"name":"あすなろ児童館","province":"東京都","city":"西多摩郡瑞穂町","address":"西多摩郡瑞穂町大字石畑1837","lat":35.76949,"lon":139.35609},{"name":"瑞穂町社会福祉協議会","province":"東京都","city":"西多摩郡瑞穂町","address":"西多摩郡瑞穂町大字石畑2008ふれあいセンター1階","lat":35.77695,"lon":139.35938},{"name":"瑞穂斎場","province":"東京都","city":"西多摩郡瑞穂町","address":"東京都西多摩郡瑞穂町富士山栗原新田（大字）244","lat":35.78176225,"lon":139.34704573},{"name":"＊?瑞穂町郷土資料館","province":"東京都","city":"西多摩郡瑞穂町","address":"瑞穂町石畑1962","lat":35.774751,"lon":139.356739},{"name":"＊?元狭山ふるさと思い出館図書室","province":"東京都","city":"西多摩郡瑞穂町","address":"瑞穂町二本木710","lat":35.789626,"lon":139.354843},{"name":"＊?殿ケ谷図書室","province":"東京都","city":"西多摩郡瑞穂町","address":"瑞穂町殿ケ谷988","lat":35.765225,"lon":139.363774},{"name":"＊?長岡コミュニティセンター図書室","province":"東京都","city":"西多摩郡瑞穂町","address":"瑞穂町箱根ケ崎1180番地長岡コミュニティセンター内","lat":35.780933,"lon":139.337174},{"name":"＊?瑞穂町図書館","province":"東京都","city":"西多摩郡瑞穂町","address":"瑞穂町石畑1962","lat":35.774735,"lon":139.356719},{"name":"＊?武蔵野コミュニティーセンター図書室","province":"東京都","city":"西多摩郡瑞穂町","address":"瑞穂町むさし野1-5瑞穂アパート27号棟武蔵野コミュニティセンター内","lat":35.76158,"lon":139.339706},{"name":"瑞穂町本庁舎","province":"東京都","city":"西多摩郡瑞穂町","address":"西多摩郡瑞穂町大字箱根ヶ崎2335","lat":35.77189,"lon":139.3538},{"name":"あすなろ児童館","province":"東京都","city":"西多摩郡瑞穂町","address":"西多摩郡瑞穂町大字石畑1837","lat":35.769353,"lon":139.356193},{"name":"瑞穂町社会福祉協議会","province":"東京都","city":"西多摩郡瑞穂町","address":"西多摩郡瑞穂町石畑2008ふれあいセンター1階","lat":35.774469,"lon":139.357198},{"name":"瑞穂町図書館","province":"東京都","city":"西多摩郡瑞穂町","address":"東京都西多摩郡瑞穂町大字石畑1962番地","lat":35.77475,"lon":139.356734},{"name":"元狭山ふるさと思い出館図書室","province":"東京都","city":"西多摩郡瑞穂町","address":"東京都西多摩郡瑞穂町大字二本木710番地","lat":35.789608,"lon":139.354835},{"name":"長岡コミュニティセンター図書室","province":"東京都","city":"西多摩郡瑞穂町","address":"東京都西多摩郡瑞穂町大字箱根ケ崎1180番地","lat":35.780904,"lon":139.337175},{"name":"武蔵野コミュニティセンター図書室","province":"東京都","city":"西多摩郡瑞穂町","address":"東京都西多摩郡瑞穂町むさし野1丁目5番地","lat":35.761579,"lon":139.339685},{"name":"殿ケ谷図書室","province":"東京都","city":"西多摩郡瑞穂町","address":"東京都西多摩郡瑞穂町大字殿ケ谷988番地","lat":35.765227,"lon":139.363772},{"name":"あすなろ児童館","province":"東京都","city":"西多摩郡瑞穂町","address":"西多摩郡瑞穂町大字石畑1837","lat":35.76949,"lon":139.35609},{"name":"瑞穂町社会福祉協議会","province":"東京都","city":"西多摩郡瑞穂町","address":"西多摩郡瑞穂町大字石畑2008ふれあいセンター1階","lat":35.77695,"lon":139.35938},{"name":"＊?瑞穂町郷土資料館","province":"東京都","city":"西多摩郡瑞穂町","address":"瑞穂町石畑1962","lat":35.774751,"lon":139.356739},{"name":"＊?元狭山ふるさと思い出館図書室","province":"東京都","city":"西多摩郡瑞穂町","address":"瑞穂町二本木710","lat":35.789626,"lon":139.354843},{"name":"＊?殿ケ谷図書室","province":"東京都","city":"西多摩郡瑞穂町","address":"瑞穂町殿ケ谷988","lat":35.765225,"lon":139.363774},{"name":"＊?長岡コミュニティセンター図書室","province":"東京都","city":"西多摩郡瑞穂町","address":"瑞穂町箱根ケ崎1180番地長岡コミュニティセンター内","lat":35.780933,"lon":139.337174},{"name":"＊?瑞穂町図書館","province":"東京都","city":"西多摩郡瑞穂町","address":"瑞穂町石畑1962","lat":35.774735,"lon":139.356719},{"name":"＊?武蔵野コミュニティーセンター図書室","province":"東京都","city":"西多摩郡瑞穂町","address":"瑞穂町むさし野1-5瑞穂アパート27号棟武蔵野コミュニティセンター内","lat":35.76158,"lon":139.339706},{"name":"あすなろ児童館","province":"東京都","city":"西多摩郡瑞穂町","address":"西多摩郡瑞穂町大字石畑1837","lat":35.769353,"lon":139.356193},{"name":"瑞穂町社会福祉協議会","province":"東京都","city":"西多摩郡瑞穂町","address":"西多摩郡瑞穂町石畑2008ふれあいセンター1階","lat":35.774469,"lon":139.357198},{"name":"瑞穂町図書館","province":"東京都","city":"西多摩郡瑞穂町","address":"東京都西多摩郡瑞穂町大字石畑1962番地","lat":35.77475,"lon":139.356734},{"name":"元狭山ふるさと思い出館図書室","province":"東京都","city":"西多摩郡瑞穂町","address":"東京都西多摩郡瑞穂町大字二本木710番地","lat":35.789608,"lon":139.354835},{"name":"長岡コミュニティセンター図書室","province":"東京都","city":"西多摩郡瑞穂町","address":"東京都西多摩郡瑞穂町大字箱根ケ崎1180番地","lat":35.780904,"lon":139.337175},{"name":"武蔵野コミュニティセンター図書室","province":"東京都","city":"西多摩郡瑞穂町","address":"東京都西多摩郡瑞穂町むさし野1丁目5番地","lat":35.761579,"lon":139.339685},{"name":"殿ケ谷図書室","province":"東京都","city":"西多摩郡瑞穂町","address":"東京都西多摩郡瑞穂町大字殿ケ谷988番地","lat":35.765227,"lon":139.363772},{"name":"あすなろ児童館","province":"東京都","city":"西多摩郡瑞穂町","address":"西多摩郡瑞穂町大字石畑1837","lat":35.76949,"lon":139.35609},{"name":"瑞穂町社会福祉協議会","province":"東京都","city":"西多摩郡瑞穂町","address":"西多摩郡瑞穂町大字石畑2008ふれあいセンター1階","lat":35.77695,"lon":139.35938},{"name":"＊?瑞穂町郷土資料館","province":"東京都","city":"西多摩郡瑞穂町","address":"瑞穂町石畑1962","lat":35.774751,"lon":139.356739},{"name":"＊?元狭山ふるさと思い出館図書室","province":"東京都","city":"西多摩郡瑞穂町","address":"瑞穂町二本木710","lat":35.789626,"lon":139.354843},{"name":"＊?殿ケ谷図書室","province":"東京都","city":"西多摩郡瑞穂町","address":"瑞穂町殿ケ谷988","lat":35.765225,"lon":139.363774},{"name":"＊?長岡コミュニティセンター図書室","province":"東京都","city":"西多摩郡瑞穂町","address":"瑞穂町箱根ケ崎1180番地長岡コミュニティセンター内","lat":35.780933,"lon":139.337174},{"name":"＊?瑞穂町図書館","province":"東京都","city":"西多摩郡瑞穂町","address":"瑞穂町石畑1962","lat":35.774735,"lon":139.356719},{"name":"＊?武蔵野コミュニティーセンター図書室","province":"東京都","city":"西多摩郡瑞穂町","address":"瑞穂町むさし野1-5瑞穂アパート27号棟武蔵野コミュニティセンター内","lat":35.76158,"lon":139.339706},{"name":"あすなろ児童館","province":"東京都","city":"西多摩郡瑞穂町","address":"西多摩郡瑞穂町大字石畑1837","lat":35.769353,"lon":139.356193},{"name":"瑞穂町図書館","province":"東京都","city":"西多摩郡瑞穂町","address":"東京都西多摩郡瑞穂町大字石畑1962番地","lat":35.77475,"lon":139.356734},{"name":"元狭山ふるさと思い出館図書室","province":"東京都","city":"西多摩郡瑞穂町","address":"東京都西多摩郡瑞穂町大字二本木710番地","lat":35.789608,"lon":139.354835},{"name":"長岡コミュニティセンター図書室","province":"東京都","city":"西多摩郡瑞穂町","address":"東京都西多摩郡瑞穂町大字箱根ケ崎1180番地","lat":35.780904,"lon":139.337175},{"name":"武蔵野コミュニティセンター図書室","province":"東京都","city":"西多摩郡瑞穂町","address":"東京都西多摩郡瑞穂町むさし野1丁目5番地","lat":35.761579,"lon":139.339685},{"name":"殿ケ谷図書室","province":"東京都","city":"西多摩郡瑞穂町","address":"東京都西多摩郡瑞穂町大字殿ケ谷988番地","lat":35.765227,"lon":139.363772},{"name":"あすなろ児童館","province":"東京都","city":"西多摩郡瑞穂町","address":"西多摩郡瑞穂町大字石畑1837","lat":35.76949,"lon":139.35609},{"name":"＊?瑞穂町郷土資料館","province":"東京都","city":"西多摩郡瑞穂町","address":"瑞穂町石畑1962","lat":35.774751,"lon":139.356739},{"name":"＊?元狭山ふるさと思い出館図書室","province":"東京都","city":"西多摩郡瑞穂町","address":"瑞穂町二本木710","lat":35.789626,"lon":139.354843},{"name":"＊?殿ケ谷図書室","province":"東京都","city":"西多摩郡瑞穂町","address":"瑞穂町殿ケ谷988","lat":35.765225,"lon":139.363774},{"name":"＊?長岡コミュニティセンター図書室","province":"東京都","city":"西多摩郡瑞穂町","address":"瑞穂町箱根ケ崎1180番地長岡コミュニティセンター内","lat":35.780933,"lon":139.337174},{"name":"＊?瑞穂町図書館","province":"東京都","city":"西多摩郡瑞穂町","address":"瑞穂町石畑1962","lat":35.774735,"lon":139.356719},{"name":"＊?武蔵野コミュニティーセンター図書室","province":"東京都","city":"西多摩郡瑞穂町","address":"瑞穂町むさし野1-5瑞穂アパート27号棟武蔵野コミュニティセンター内","lat":35.76158,"lon":139.339706},{"name":"あすなろ児童館","province":"東京都","city":"西多摩郡瑞穂町","address":"西多摩郡瑞穂町大字石畑1837","lat":35.769353,"lon":139.356193},{"name":"瑞穂町図書館","province":"東京都","city":"西多摩郡瑞穂町","address":"東京都西多摩郡瑞穂町大字石畑1962番地","lat":35.77475,"lon":139.356734},{"name":"元狭山ふるさと思い出館図書室","province":"東京都","city":"西多摩郡瑞穂町","address":"東京都西多摩郡瑞穂町大字二本木710番地","lat":35.789608,"lon":139.354835},{"name":"長岡コミュニティセンター図書室","province":"東京都","city":"西多摩郡瑞穂町","address":"東京都西多摩郡瑞穂町大字箱根ケ崎1180番地","lat":35.780904,"lon":139.337175},{"name":"武蔵野コミュニティセンター図書室","province":"東京都","city":"西多摩郡瑞穂町","address":"東京都西多摩郡瑞穂町むさし野1丁目5番地","lat":35.761579,"lon":139.339685},{"name":"殿ケ谷図書室","province":"東京都","city":"西多摩郡瑞穂町","address":"東京都西多摩郡瑞穂町大字殿ケ谷988番地","lat":35.765227,"lon":139.363772},{"name":"あすなろ児童館","province":"東京都","city":"西多摩郡瑞穂町","address":"西多摩郡瑞穂町大字石畑1837","lat":35.76949,"lon":139.35609},{"name":"＊?瑞穂町郷土資料館","province":"東京都","city":"西多摩郡瑞穂町","address":"瑞穂町石畑1962","lat":35.774751,"lon":139.356739},{"name":"＊?元狭山ふるさと思い出館図書室","province":"東京都","city":"西多摩郡瑞穂町","address":"瑞穂町二本木710","lat":35.789626,"lon":139.354843},{"name":"＊?殿ケ谷図書室","province":"東京都","city":"西多摩郡瑞穂町","address":"瑞穂町殿ケ谷988","lat":35.765225,"lon":139.363774},{"name":"＊?長岡コミュニティセンター図書室","province":"東京都","city":"西多摩郡瑞穂町","address":"瑞穂町箱根ケ崎1180番地長岡コミュニティセンター内","lat":35.780933,"lon":139.337174},{"name":"＊?瑞穂町図書館","province":"東京都","city":"西多摩郡瑞穂町","address":"瑞穂町石畑1962","lat":35.774735,"lon":139.356719},{"name":"＊?武蔵野コミュニティーセンター図書室","province":"東京都","city":"西多摩郡瑞穂町","address":"瑞穂町むさし野1-5瑞穂アパート27号棟武蔵野コミュニティセンター内","lat":35.76158,"lon":139.339706},{"name":"あすなろ児童館","province":"東京都","city":"西多摩郡瑞穂町","address":"西多摩郡瑞穂町大字石畑1837","lat":35.769353,"lon":139.356193},{"name":"瑞穂町図書館","province":"東京都","city":"西多摩郡瑞穂町","address":"東京都西多摩郡瑞穂町大字石畑1962番地","lat":35.77475,"lon":139.356734},{"name":"元狭山ふるさと思い出館図書室","province":"東京都","city":"西多摩郡瑞穂町","address":"東京都西多摩郡瑞穂町大字二本木710番地","lat":35.789608,"lon":139.354835},{"name":"長岡コミュニティセンター図書室","province":"東京都","city":"西多摩郡瑞穂町","address":"東京都西多摩郡瑞穂町大字箱根ケ崎1180番地","lat":35.780904,"lon":139.337175},{"name":"武蔵野コミュニティセンター図書室","province":"東京都","city":"西多摩郡瑞穂町","address":"東京都西多摩郡瑞穂町むさし野1丁目5番地","lat":35.761579,"lon":139.339685},{"name":"殿ケ谷図書室","province":"東京都","city":"西多摩郡瑞穂町","address":"東京都西多摩郡瑞穂町大字殿ケ谷988番地","lat":35.765227,"lon":139.363772},{"name":"あすなろ児童館","province":"東京都","city":"西多摩郡瑞穂町","address":"西多摩郡瑞穂町大字石畑1837","lat":35.76949,"lon":139.35609},{"name":"＊?瑞穂町郷土資料館","province":"東京都","city":"西多摩郡瑞穂町","address":"瑞穂町石畑1962","lat":35.774751,"lon":139.356739},{"name":"＊?元狭山ふるさと思い出館図書室","province":"東京都","city":"西多摩郡瑞穂町","address":"瑞穂町二本木710","lat":35.789626,"lon":139.354843},{"name":"＊?殿ケ谷図書室","province":"東京都","city":"西多摩郡瑞穂町","address":"瑞穂町殿ケ谷988","lat":35.765225,"lon":139.363774},{"name":"＊?長岡コミュニティセンター図書室","province":"東京都","city":"西多摩郡瑞穂町","address":"瑞穂町箱根ケ崎1180番地長岡コミュニティセンター内","lat":35.780933,"lon":139.337174},{"name":"＊?瑞穂町図書館","province":"東京都","city":"西多摩郡瑞穂町","address":"瑞穂町石畑1962","lat":35.774735,"lon":139.356719},{"name":"＊?武蔵野コミュニティーセンター図書室","province":"東京都","city":"西多摩郡瑞穂町","address":"瑞穂町むさし野1-5瑞穂アパート27号棟武蔵野コミュニティセンター内","lat":35.76158,"lon":139.339706},{"name":"あすなろ児童館","province":"東京都","city":"西多摩郡瑞穂町","address":"西多摩郡瑞穂町大字石畑1837","lat":35.769353,"lon":139.356193},{"name":"瑞穂町図書館","province":"東京都","city":"西多摩郡瑞穂町","address":"東京都西多摩郡瑞穂町大字石畑1962番地","lat":35.77475,"lon":139.356734},{"name":"元狭山ふるさと思い出館図書室","province":"東京都","city":"西多摩郡瑞穂町","address":"東京都西多摩郡瑞穂町大字二本木710番地","lat":35.789608,"lon":139.354835},{"name":"長岡コミュニティセンター図書室","province":"東京都","city":"西多摩郡瑞穂町","address":"東京都西多摩郡瑞穂町大字箱根ケ崎1180番地","lat":35.780904,"lon":139.337175},{"name":"武蔵野コミュニティセンター図書室","province":"東京都","city":"西多摩郡瑞穂町","address":"東京都西多摩郡瑞穂町むさし野1丁目5番地","lat":35.761579,"lon":139.339685},{"name":"殿ケ谷図書室","province":"東京都","city":"西多摩郡瑞穂町","address":"東京都西多摩郡瑞穂町大字殿ケ谷988番地","lat":35.765227,"lon":139.363772},{"name":"あすなろ児童館","province":"東京都","city":"西多摩郡瑞穂町","address":"西多摩郡瑞穂町大字石畑1837","lat":35.76949,"lon":139.35609},{"name":"＊?瑞穂町郷土資料館","province":"東京都","city":"西多摩郡瑞穂町","address":"瑞穂町石畑1962","lat":35.774751,"lon":139.356739},{"name":"＊?元狭山ふるさと思い出館図書室","province":"東京都","city":"西多摩郡瑞穂町","address":"瑞穂町二本木710","lat":35.789626,"lon":139.354843},{"name":"＊?殿ケ谷図書室","province":"東京都","city":"西多摩郡瑞穂町","address":"瑞穂町殿ケ谷988","lat":35.765225,"lon":139.363774},{"name":"＊?長岡コミュニティセンター図書室","province":"東京都","city":"西多摩郡瑞穂町","address":"瑞穂町箱根ケ崎1180番地長岡コミュニティセンター内","lat":35.780933,"lon":139.337174},{"name":"＊?瑞穂町図書館","province":"東京都","city":"西多摩郡瑞穂町","address":"瑞穂町石畑1962","lat":35.774735,"lon":139.356719},{"name":"＊?武蔵野コミュニティーセンター図書室","province":"東京都","city":"西多摩郡瑞穂町","address":"瑞穂町むさし野1-5瑞穂アパート27号棟武蔵野コミュニティセンター内","lat":35.76158,"lon":139.339706},{"name":"あすなろ児童館","province":"東京都","city":"西多摩郡瑞穂町","address":"西多摩郡瑞穂町大字石畑1837","lat":35.769353,"lon":139.356193},{"name":"瑞穂町図書館","province":"東京都","city":"西多摩郡瑞穂町","address":"東京都西多摩郡瑞穂町大字石畑1962番地","lat":35.77475,"lon":139.356734},{"name":"元狭山ふるさと思い出館図書室","province":"東京都","city":"西多摩郡瑞穂町","address":"東京都西多摩郡瑞穂町大字二本木710番地","lat":35.789608,"lon":139.354835},{"name":"長岡コミュニティセンター図書室","province":"東京都","city":"西多摩郡瑞穂町","address":"東京都西多摩郡瑞穂町大字箱根ケ崎1180番地","lat":35.780904,"lon":139.337175},{"name":"武蔵野コミュニティセンター図書室","province":"東京都","city":"西多摩郡瑞穂町","address":"東京都西多摩郡瑞穂町むさし野1丁目5番地","lat":35.761579,"lon":139.339685},{"name":"殿ケ谷図書室","province":"東京都","city":"西多摩郡瑞穂町","address":"東京都西多摩郡瑞穂町大字殿ケ谷988番地","lat":35.765227,"lon":139.363772},{"name":"あすなろ児童館","province":"東京都","city":"西多摩郡瑞穂町","address":"西多摩郡瑞穂町大字石畑1837","lat":35.76949,"lon":139.35609},{"name":"＊?瑞穂町郷土資料館","province":"東京都","city":"西多摩郡瑞穂町","address":"瑞穂町石畑1962","lat":35.774751,"lon":139.356739},{"name":"＊?元狭山ふるさと思い出館図書室","province":"東京都","city":"西多摩郡瑞穂町","address":"瑞穂町二本木710","lat":35.789626,"lon":139.354843},{"name":"＊?殿ケ谷図書室","province":"東京都","city":"西多摩郡瑞穂町","address":"瑞穂町殿ケ谷988","lat":35.765225,"lon":139.363774},{"name":"＊?長岡コミュニティセンター図書室","province":"東京都","city":"西多摩郡瑞穂町","address":"瑞穂町箱根ケ崎1180番地長岡コミュニティセンター内","lat":35.780933,"lon":139.337174},{"name":"＊?瑞穂町図書館","province":"東京都","city":"西多摩郡瑞穂町","address":"瑞穂町石畑1962","lat":35.774735,"lon":139.356719},{"name":"＊?武蔵野コミュニティーセンター図書室","province":"東京都","city":"西多摩郡瑞穂町","address":"瑞穂町むさし野1-5瑞穂アパート27号棟武蔵野コミュニティセンター内","lat":35.76158,"lon":139.339706},{"name":"あすなろ児童館","province":"東京都","city":"西多摩郡瑞穂町","address":"西多摩郡瑞穂町大字石畑1837","lat":35.769353,"lon":139.356193},{"name":"瑞穂町図書館","province":"東京都","city":"西多摩郡瑞穂町","address":"東京都西多摩郡瑞穂町大字石畑1962番地","lat":35.77475,"lon":139.356734},{"name":"元狭山ふるさと思い出館図書室","province":"東京都","city":"西多摩郡瑞穂町","address":"東京都西多摩郡瑞穂町大字二本木710番地","lat":35.789608,"lon":139.354835},{"name":"長岡コミュニティセンター図書室","province":"東京都","city":"西多摩郡瑞穂町","address":"東京都西多摩郡瑞穂町大字箱根ケ崎1180番地","lat":35.780904,"lon":139.337175},{"name":"武蔵野コミュニティセンター図書室","province":"東京都","city":"西多摩郡瑞穂町","address":"東京都西多摩郡瑞穂町むさし野1丁目5番地","lat":35.761579,"lon":139.339685},{"name":"殿ケ谷図書室","province":"東京都","city":"西多摩郡瑞穂町","address":"東京都西多摩郡瑞穂町大字殿ケ谷988番地","lat":35.765227,"lon":139.363772},{"name":"あすなろ児童館","province":"東京都","city":"西多摩郡瑞穂町","address":"西多摩郡瑞穂町大字石畑1837","lat":35.76949,"lon":139.35609},{"name":"＊?元狭山ふるさと思い出館図書室","province":"東京都","city":"西多摩郡瑞穂町","address":"瑞穂町二本木710","lat":35.789626,"lon":139.354843},{"name":"＊?殿ケ谷図書室","province":"東京都","city":"西多摩郡瑞穂町","address":"瑞穂町殿ケ谷988","lat":35.765225,"lon":139.363774},{"name":"＊?長岡コミュニティセンター図書室","province":"東京都","city":"西多摩郡瑞穂町","address":"瑞穂町箱根ケ崎1180番地長岡コミュニティセンター内","lat":35.780933,"lon":139.337174},{"name":"＊?瑞穂町図書館","province":"東京都","city":"西多摩郡瑞穂町","address":"瑞穂町石畑1962","lat":35.774735,"lon":139.356719},{"name":"＊?武蔵野コミュニティーセンター図書室","province":"東京都","city":"西多摩郡瑞穂町","address":"瑞穂町むさし野1-5瑞穂アパート27号棟武蔵野コミュニティセンター内","lat":35.76158,"lon":139.339706},{"name":"あすなろ児童館","province":"東京都","city":"西多摩郡瑞穂町","address":"西多摩郡瑞穂町大字石畑1837","lat":35.769353,"lon":139.356193},{"name":"瑞穂町図書館","province":"東京都","city":"西多摩郡瑞穂町","address":"東京都西多摩郡瑞穂町大字石畑1962番地","lat":35.77475,"lon":139.356734},{"name":"元狭山ふるさと思い出館図書室","province":"東京都","city":"西多摩郡瑞穂町","address":"東京都西多摩郡瑞穂町大字二本木710番地","lat":35.789608,"lon":139.354835},{"name":"長岡コミュニティセンター図書室","province":"東京都","city":"西多摩郡瑞穂町","address":"東京都西多摩郡瑞穂町大字箱根ケ崎1180番地","lat":35.780904,"lon":139.337175},{"name":"武蔵野コミュニティセンター図書室","province":"東京都","city":"西多摩郡瑞穂町","address":"東京都西多摩郡瑞穂町むさし野1丁目5番地","lat":35.761579,"lon":139.339685},{"name":"殿ケ谷図書室","province":"東京都","city":"西多摩郡瑞穂町","address":"東京都西多摩郡瑞穂町大字殿ケ谷988番地","lat":35.765227,"lon":139.363772},{"name":"あすなろ児童館","province":"東京都","city":"西多摩郡瑞穂町","address":"西多摩郡瑞穂町大字石畑1837","lat":35.76949,"lon":139.35609},{"name":"＊?元狭山ふるさと思い出館図書室","province":"東京都","city":"西多摩郡瑞穂町","address":"瑞穂町二本木710","lat":35.789626,"lon":139.354843},{"name":"＊?殿ケ谷図書室","province":"東京都","city":"西多摩郡瑞穂町","address":"瑞穂町殿ケ谷988","lat":35.765225,"lon":139.363774},{"name":"＊?長岡コミュニティセンター図書室","province":"東京都","city":"西多摩郡瑞穂町","address":"瑞穂町箱根ケ崎1180番地長岡コミュニティセンター内","lat":35.780933,"lon":139.337174},{"name":"＊?瑞穂町図書館","province":"東京都","city":"西多摩郡瑞穂町","address":"瑞穂町石畑1962","lat":35.774735,"lon":139.356719},{"name":"＊?武蔵野コミュニティーセンター図書室","province":"東京都","city":"西多摩郡瑞穂町","address":"瑞穂町むさし野1-5瑞穂アパート27号棟武蔵野コミュニティセンター内","lat":35.76158,"lon":139.339706},{"name":"あすなろ児童館","province":"東京都","city":"西多摩郡瑞穂町","address":"西多摩郡瑞穂町大字石畑1837","lat":35.769353,"lon":139.356193},{"name":"瑞穂町図書館","province":"東京都","city":"西多摩郡瑞穂町","address":"東京都西多摩郡瑞穂町大字石畑1962番地","lat":35.77475,"lon":139.356734},{"name":"元狭山ふるさと思い出館図書室","province":"東京都","city":"西多摩郡瑞穂町","address":"東京都西多摩郡瑞穂町大字二本木710番地","lat":35.789608,"lon":139.354835},{"name":"長岡コミュニティセンター図書室","province":"東京都","city":"西多摩郡瑞穂町","address":"東京都西多摩郡瑞穂町大字箱根ケ崎1180番地","lat":35.780904,"lon":139.337175},{"name":"武蔵野コミュニティセンター図書室","province":"東京都","city":"西多摩郡瑞穂町","address":"東京都西多摩郡瑞穂町むさし野1丁目5番地","lat":35.761579,"lon":139.339685},{"name":"殿ケ谷図書室","province":"東京都","city":"西多摩郡瑞穂町","address":"東京都西多摩郡瑞穂町大字殿ケ谷988番地","lat":35.765227,"lon":139.363772},{"name":"あすなろ児童館","province":"東京都","city":"西多摩郡瑞穂町","address":"西多摩郡瑞穂町大字石畑1837","lat":35.76949,"lon":139.35609},{"name":"＊?元狭山ふるさと思い出館図書室","province":"東京都","city":"西多摩郡瑞穂町","address":"瑞穂町二本木710","lat":35.789626,"lon":139.354843},{"name":"＊?殿ケ谷図書室","province":"東京都","city":"西多摩郡瑞穂町","address":"瑞穂町殿ケ谷988","lat":35.765225,"lon":139.363774},{"name":"＊?長岡コミュニティセンター図書室","province":"東京都","city":"西多摩郡瑞穂町","address":"瑞穂町箱根ケ崎1180番地長岡コミュニティセンター内","lat":35.780933,"lon":139.337174},{"name":"＊?瑞穂町図書館","province":"東京都","city":"西多摩郡瑞穂町","address":"瑞穂町石畑1962","lat":35.774735,"lon":139.356719},{"name":"＊?武蔵野コミュニティーセンター図書室","province":"東京都","city":"西多摩郡瑞穂町","address":"瑞穂町むさし野1-5瑞穂アパート27号棟武蔵野コミュニティセンター内","lat":35.76158,"lon":139.339706},{"name":"あすなろ児童館","province":"東京都","city":"西多摩郡瑞穂町","address":"西多摩郡瑞穂町大字石畑1837","lat":35.769353,"lon":139.356193},{"name":"瑞穂町図書館","province":"東京都","city":"西多摩郡瑞穂町","address":"東京都西多摩郡瑞穂町大字石畑1962番地","lat":35.77475,"lon":139.356734},{"name":"元狭山ふるさと思い出館図書室","province":"東京都","city":"西多摩郡瑞穂町","address":"東京都西多摩郡瑞穂町大字二本木710番地","lat":35.789608,"lon":139.354835},{"name":"長岡コミュニティセンター図書室","province":"東京都","city":"西多摩郡瑞穂町","address":"東京都西多摩郡瑞穂町大字箱根ケ崎1180番地","lat":35.780904,"lon":139.337175},{"name":"武蔵野コミュニティセンター図書室","province":"東京都","city":"西多摩郡瑞穂町","address":"東京都西多摩郡瑞穂町むさし野1丁目5番地","lat":35.761579,"lon":139.339685},{"name":"殿ケ谷図書室","province":"東京都","city":"西多摩郡瑞穂町","address":"東京都西多摩郡瑞穂町大字殿ケ谷988番地","lat":35.765227,"lon":139.363772},{"name":"あすなろ児童館","province":"東京都","city":"西多摩郡瑞穂町","address":"西多摩郡瑞穂町大字石畑1837","lat":35.76949,"lon":139.35609},{"name":"＊?元狭山ふるさと思い出館図書室","province":"東京都","city":"西多摩郡瑞穂町","address":"瑞穂町二本木710","lat":35.789626,"lon":139.354843},{"name":"＊?殿ケ谷図書室","province":"東京都","city":"西多摩郡瑞穂町","address":"瑞穂町殿ケ谷988","lat":35.765225,"lon":139.363774},{"name":"＊?長岡コミュニティセンター図書室","province":"東京都","city":"西多摩郡瑞穂町","address":"瑞穂町箱根ケ崎1180番地長岡コミュニティセンター内","lat":35.780933,"lon":139.337174},{"name":"＊?瑞穂町図書館","province":"東京都","city":"西多摩郡瑞穂町","address":"瑞穂町石畑1962","lat":35.774735,"lon":139.356719},{"name":"＊?武蔵野コミュニティーセンター図書室","province":"東京都","city":"西多摩郡瑞穂町","address":"瑞穂町むさし野1-5瑞穂アパート27号棟武蔵野コミュニティセンター内","lat":35.76158,"lon":139.339706},{"name":"あすなろ児童館","province":"東京都","city":"西多摩郡瑞穂町","address":"西多摩郡瑞穂町大字石畑1837","lat":35.769353,"lon":139.356193},{"name":"瑞穂町図書館","province":"東京都","city":"西多摩郡瑞穂町","address":"東京都西多摩郡瑞穂町大字石畑1962番地","lat":35.77475,"lon":139.356734},{"name":"元狭山ふるさと思い出館図書室","province":"東京都","city":"西多摩郡瑞穂町","address":"東京都西多摩郡瑞穂町大字二本木710番地","lat":35.789608,"lon":139.354835},{"name":"長岡コミュニティセンター図書室","province":"東京都","city":"西多摩郡瑞穂町","address":"東京都西多摩郡瑞穂町大字箱根ケ崎1180番地","lat":35.780904,"lon":139.337175},{"name":"武蔵野コミュニティセンター図書室","province":"東京都","city":"西多摩郡瑞穂町","address":"東京都西多摩郡瑞穂町むさし野1丁目5番地","lat":35.761579,"lon":139.339685},{"name":"殿ケ谷図書室","province":"東京都","city":"西多摩郡瑞穂町","address":"東京都西多摩郡瑞穂町大字殿ケ谷988番地","lat":35.765227,"lon":139.363772},{"name":"あすなろ児童館","province":"東京都","city":"西多摩郡瑞穂町","address":"西多摩郡瑞穂町大字石畑1837","lat":35.76949,"lon":139.35609},{"name":"＊?元狭山ふるさと思い出館図書室","province":"東京都","city":"西多摩郡瑞穂町","address":"瑞穂町二本木710","lat":35.789626,"lon":139.354843},{"name":"＊?殿ケ谷図書室","province":"東京都","city":"西多摩郡瑞穂町","address":"瑞穂町殿ケ谷988","lat":35.765225,"lon":139.363774},{"name":"＊?長岡コミュニティセンター図書室","province":"東京都","city":"西多摩郡瑞穂町","address":"瑞穂町箱根ケ崎1180番地長岡コミュニティセンター内","lat":35.780933,"lon":139.337174},{"name":"＊?瑞穂町図書館","province":"東京都","city":"西多摩郡瑞穂町","address":"瑞穂町石畑1962","lat":35.774735,"lon":139.356719},{"name":"＊?武蔵野コミュニティーセンター図書室","province":"東京都","city":"西多摩郡瑞穂町","address":"瑞穂町むさし野1-5瑞穂アパート27号棟武蔵野コミュニティセンター内","lat":35.76158,"lon":139.339706},{"name":"あすなろ児童館","province":"東京都","city":"西多摩郡瑞穂町","address":"西多摩郡瑞穂町大字石畑1837","lat":35.769353,"lon":139.356193},{"name":"瑞穂町図書館","province":"東京都","city":"西多摩郡瑞穂町","address":"東京都西多摩郡瑞穂町大字石畑1962番地","lat":35.77475,"lon":139.356734},{"name":"元狭山ふるさと思い出館図書室","province":"東京都","city":"西多摩郡瑞穂町","address":"東京都西多摩郡瑞穂町大字二本木710番地","lat":35.789608,"lon":139.354835},{"name":"長岡コミュニティセンター図書室","province":"東京都","city":"西多摩郡瑞穂町","address":"東京都西多摩郡瑞穂町大字箱根ケ崎1180番地","lat":35.780904,"lon":139.337175},{"name":"武蔵野コミュニティセンター図書室","province":"東京都","city":"西多摩郡瑞穂町","address":"東京都西多摩郡瑞穂町むさし野1丁目5番地","lat":35.761579,"lon":139.339685},{"name":"殿ケ谷図書室","province":"東京都","city":"西多摩郡瑞穂町","address":"東京都西多摩郡瑞穂町大字殿ケ谷988番地","lat":35.765227,"lon":139.363772},{"name":"あすなろ児童館","province":"東京都","city":"西多摩郡瑞穂町","address":"西多摩郡瑞穂町大字石畑1837","lat":35.76949,"lon":139.35609},{"name":"＊?元狭山ふるさと思い出館図書室","province":"東京都","city":"西多摩郡瑞穂町","address":"瑞穂町二本木710","lat":35.789626,"lon":139.354843},{"name":"＊?殿ケ谷図書室","province":"東京都","city":"西多摩郡瑞穂町","address":"瑞穂町殿ケ谷988","lat":35.765225,"lon":139.363774},{"name":"＊?長岡コミュニティセンター図書室","province":"東京都","city":"西多摩郡瑞穂町","address":"瑞穂町箱根ケ崎1180番地長岡コミュニティセンター内","lat":35.780933,"lon":139.337174},{"name":"＊?瑞穂町図書館","province":"東京都","city":"西多摩郡瑞穂町","address":"瑞穂町石畑1962","lat":35.774735,"lon":139.356719},{"name":"＊?武蔵野コミュニティーセンター図書室","province":"東京都","city":"西多摩郡瑞穂町","address":"瑞穂町むさし野1-5瑞穂アパート27号棟武蔵野コミュニティセンター内","lat":35.76158,"lon":139.339706},{"name":"あすなろ児童館","province":"東京都","city":"西多摩郡瑞穂町","address":"西多摩郡瑞穂町大字石畑1837","lat":35.769353,"lon":139.356193},{"name":"瑞穂町図書館","province":"東京都","city":"西多摩郡瑞穂町","address":"東京都西多摩郡瑞穂町大字石畑1962番地","lat":35.77475,"lon":139.356734},{"name":"元狭山ふるさと思い出館図書室","province":"東京都","city":"西多摩郡瑞穂町","address":"東京都西多摩郡瑞穂町大字二本木710番地","lat":35.789608,"lon":139.354835},{"name":"長岡コミュニティセンター図書室","province":"東京都","city":"西多摩郡瑞穂町","address":"東京都西多摩郡瑞穂町大字箱根ケ崎1180番地","lat":35.780904,"lon":139.337175},{"name":"武蔵野コミュニティセンター図書室","province":"東京都","city":"西多摩郡瑞穂町","address":"東京都西多摩郡瑞穂町むさし野1丁目5番地","lat":35.761579,"lon":139.339685},{"name":"殿ケ谷図書室","province":"東京都","city":"西多摩郡瑞穂町","address":"東京都西多摩郡瑞穂町大字殿ケ谷988番地","lat":35.765227,"lon":139.363772},{"name":"あすなろ児童館","province":"東京都","city":"西多摩郡瑞穂町","address":"西多摩郡瑞穂町大字石畑1837","lat":35.76949,"lon":139.35609},{"name":"＊?元狭山ふるさと思い出館図書室","province":"東京都","city":"西多摩郡瑞穂町","address":"瑞穂町二本木710","lat":35.789626,"lon":139.354843},{"name":"＊?殿ケ谷図書室","province":"東京都","city":"西多摩郡瑞穂町","address":"瑞穂町殿ケ谷988","lat":35.765225,"lon":139.363774},{"name":"＊?長岡コミュニティセンター図書室","province":"東京都","city":"西多摩郡瑞穂町","address":"瑞穂町箱根ケ崎1180番地長岡コミュニティセンター内","lat":35.780933,"lon":139.337174},{"name":"＊?瑞穂町図書館","province":"東京都","city":"西多摩郡瑞穂町","address":"瑞穂町石畑1962","lat":35.774735,"lon":139.356719},{"name":"＊?武蔵野コミュニティーセンター図書室","province":"東京都","city":"西多摩郡瑞穂町","address":"瑞穂町むさし野1-5瑞穂アパート27号棟武蔵野コミュニティセンター内","lat":35.76158,"lon":139.339706},{"name":"あすなろ児童館","province":"東京都","city":"西多摩郡瑞穂町","address":"西多摩郡瑞穂町大字石畑1837","lat":35.769353,"lon":139.356193},{"name":"瑞穂町図書館","province":"東京都","city":"西多摩郡瑞穂町","address":"東京都西多摩郡瑞穂町大字石畑1962番地","lat":35.77475,"lon":139.356734},{"name":"元狭山ふるさと思い出館図書室","province":"東京都","city":"西多摩郡瑞穂町","address":"東京都西多摩郡瑞穂町大字二本木710番地","lat":35.789608,"lon":139.354835},{"name":"長岡コミュニティセンター図書室","province":"東京都","city":"西多摩郡瑞穂町","address":"東京都西多摩郡瑞穂町大字箱根ケ崎1180番地","lat":35.780904,"lon":139.337175},{"name":"武蔵野コミュニティセンター図書室","province":"東京都","city":"西多摩郡瑞穂町","address":"東京都西多摩郡瑞穂町むさし野1丁目5番地","lat":35.761579,"lon":139.339685},{"name":"殿ケ谷図書室","province":"東京都","city":"西多摩郡瑞穂町","address":"東京都西多摩郡瑞穂町大字殿ケ谷988番地","lat":35.765227,"lon":139.363772},{"name":"あすなろ児童館","province":"東京都","city":"西多摩郡瑞穂町","address":"西多摩郡瑞穂町大字石畑1837","lat":35.76949,"lon":139.35609},{"name":"＊?元狭山ふるさと思い出館図書室","province":"東京都","city":"西多摩郡瑞穂町","address":"瑞穂町二本木710","lat":35.789626,"lon":139.354843},{"name":"＊?殿ケ谷図書室","province":"東京都","city":"西多摩郡瑞穂町","address":"瑞穂町殿ケ谷988","lat":35.765225,"lon":139.363774},{"name":"＊?長岡コミュニティセンター図書室","province":"東京都","city":"西多摩郡瑞穂町","address":"瑞穂町箱根ケ崎1180番地長岡コミュニティセンター内","lat":35.780933,"lon":139.337174},{"name":"＊?瑞穂町図書館","province":"東京都","city":"西多摩郡瑞穂町","address":"瑞穂町石畑1962","lat":35.774735,"lon":139.356719},{"name":"＊?武蔵野コミュニティーセンター図書室","province":"東京都","city":"西多摩郡瑞穂町","address":"瑞穂町むさし野1-5瑞穂アパート27号棟武蔵野コミュニティセンター内","lat":35.76158,"lon":139.339706},{"name":"あすなろ児童館","province":"東京都","city":"西多摩郡瑞穂町","address":"西多摩郡瑞穂町大字石畑1837","lat":35.769353,"lon":139.356193},{"name":"瑞穂町図書館","province":"東京都","city":"西多摩郡瑞穂町","address":"東京都西多摩郡瑞穂町大字石畑1962番地","lat":35.77475,"lon":139.356734},{"name":"元狭山ふるさと思い出館図書室","province":"東京都","city":"西多摩郡瑞穂町","address":"東京都西多摩郡瑞穂町大字二本木710番地","lat":35.789608,"lon":139.354835},{"name":"長岡コミュニティセンター図書室","province":"東京都","city":"西多摩郡瑞穂町","address":"東京都西多摩郡瑞穂町大字箱根ケ崎1180番地","lat":35.780904,"lon":139.337175},{"name":"武蔵野コミュニティセンター図書室","province":"東京都","city":"西多摩郡瑞穂町","address":"東京都西多摩郡瑞穂町むさし野1丁目5番地","lat":35.761579,"lon":139.339685},{"name":"殿ケ谷図書室","province":"東京都","city":"西多摩郡瑞穂町","address":"東京都西多摩郡瑞穂町大字殿ケ谷988番地","lat":35.765227,"lon":139.363772},{"name":"あすなろ児童館","province":"東京都","city":"西多摩郡瑞穂町","address":"西多摩郡瑞穂町大字石畑1837","lat":35.76949,"lon":139.35609},{"name":"＊?元狭山ふるさと思い出館図書室","province":"東京都","city":"西多摩郡瑞穂町","address":"瑞穂町二本木710","lat":35.789626,"lon":139.354843},{"name":"＊?殿ケ谷図書室","province":"東京都","city":"西多摩郡瑞穂町","address":"瑞穂町殿ケ谷988","lat":35.765225,"lon":139.363774},{"name":"＊?長岡コミュニティセンター図書室","province":"東京都","city":"西多摩郡瑞穂町","address":"瑞穂町箱根ケ崎1180番地長岡コミュニティセンター内","lat":35.780933,"lon":139.337174},{"name":"＊?瑞穂町図書館","province":"東京都","city":"西多摩郡瑞穂町","address":"瑞穂町石畑1962","lat":35.774735,"lon":139.356719},{"name":"＊?武蔵野コミュニティーセンター図書室","province":"東京都","city":"西多摩郡瑞穂町","address":"瑞穂町むさし野1-5瑞穂アパート27号棟武蔵野コミュニティセンター内","lat":35.76158,"lon":139.339706},{"name":"あすなろ児童館","province":"東京都","city":"西多摩郡瑞穂町","address":"西多摩郡瑞穂町大字石畑1837","lat":35.769353,"lon":139.356193},{"name":"瑞穂町図書館","province":"東京都","city":"西多摩郡瑞穂町","address":"東京都西多摩郡瑞穂町大字石畑1962番地","lat":35.77475,"lon":139.356734},{"name":"元狭山ふるさと思い出館図書室","province":"東京都","city":"西多摩郡瑞穂町","address":"東京都西多摩郡瑞穂町大字二本木710番地","lat":35.789608,"lon":139.354835},{"name":"長岡コミュニティセンター図書室","province":"東京都","city":"西多摩郡瑞穂町","address":"東京都西多摩郡瑞穂町大字箱根ケ崎1180番地","lat":35.780904,"lon":139.337175},{"name":"武蔵野コミュニティセンター図書室","province":"東京都","city":"西多摩郡瑞穂町","address":"東京都西多摩郡瑞穂町むさし野1丁目5番地","lat":35.761579,"lon":139.339685},{"name":"殿ケ谷図書室","province":"東京都","city":"西多摩郡瑞穂町","address":"東京都西多摩郡瑞穂町大字殿ケ谷988番地","lat":35.765227,"lon":139.363772},{"name":"あすなろ児童館","province":"東京都","city":"西多摩郡瑞穂町","address":"西多摩郡瑞穂町大字石畑1837","lat":35.76949,"lon":139.35609},{"name":"＊?元狭山ふるさと思い出館図書室","province":"東京都","city":"西多摩郡瑞穂町","address":"瑞穂町二本木710","lat":35.789626,"lon":139.354843},{"name":"＊?殿ケ谷図書室","province":"東京都","city":"西多摩郡瑞穂町","address":"瑞穂町殿ケ谷988","lat":35.765225,"lon":139.363774},{"name":"＊?長岡コミュニティセンター図書室","province":"東京都","city":"西多摩郡瑞穂町","address":"瑞穂町箱根ケ崎1180番地長岡コミュニティセンター内","lat":35.780933,"lon":139.337174},{"name":"＊?瑞穂町図書館","province":"東京都","city":"西多摩郡瑞穂町","address":"瑞穂町石畑1962","lat":35.774735,"lon":139.356719},{"name":"＊?武蔵野コミュニティーセンター図書室","province":"東京都","city":"西多摩郡瑞穂町","address":"瑞穂町むさし野1-5瑞穂アパート27号棟武蔵野コミュニティセンター内","lat":35.76158,"lon":139.339706},{"name":"あすなろ児童館","province":"東京都","city":"西多摩郡瑞穂町","address":"西多摩郡瑞穂町大字石畑1837","lat":35.769353,"lon":139.356193},{"name":"瑞穂町図書館","province":"東京都","city":"西多摩郡瑞穂町","address":"東京都西多摩郡瑞穂町大字石畑1962番地","lat":35.77475,"lon":139.356734},{"name":"元狭山ふるさと思い出館図書室","province":"東京都","city":"西多摩郡瑞穂町","address":"東京都西多摩郡瑞穂町大字二本木710番地","lat":35.789608,"lon":139.354835},{"name":"長岡コミュニティセンター図書室","province":"東京都","city":"西多摩郡瑞穂町","address":"東京都西多摩郡瑞穂町大字箱根ケ崎1180番地","lat":35.780904,"lon":139.337175},{"name":"武蔵野コミュニティセンター図書室","province":"東京都","city":"西多摩郡瑞穂町","address":"東京都西多摩郡瑞穂町むさし野1丁目5番地","lat":35.761579,"lon":139.339685},{"name":"殿ケ谷図書室","province":"東京都","city":"西多摩郡瑞穂町","address":"東京都西多摩郡瑞穂町大字殿ケ谷988番地","lat":35.765227,"lon":139.363772},{"name":"あすなろ児童館","province":"東京都","city":"西多摩郡瑞穂町","address":"西多摩郡瑞穂町大字石畑1837","lat":35.76949,"lon":139.35609},{"name":"＊?元狭山ふるさと思い出館図書室","province":"東京都","city":"西多摩郡瑞穂町","address":"瑞穂町二本木710","lat":35.789626,"lon":139.354843},{"name":"＊?殿ケ谷図書室","province":"東京都","city":"西多摩郡瑞穂町","address":"瑞穂町殿ケ谷988","lat":35.765225,"lon":139.363774},{"name":"＊?長岡コミュニティセンター図書室","province":"東京都","city":"西多摩郡瑞穂町","address":"瑞穂町箱根ケ崎1180番地長岡コミュニティセンター内","lat":35.780933,"lon":139.337174},{"name":"＊?瑞穂町図書館","province":"東京都","city":"西多摩郡瑞穂町","address":"瑞穂町石畑1962","lat":35.774735,"lon":139.356719},{"name":"＊?武蔵野コミュニティーセンター図書室","province":"東京都","city":"西多摩郡瑞穂町","address":"瑞穂町むさし野1-5瑞穂アパート27号棟武蔵野コミュニティセンター内","lat":35.76158,"lon":139.339706},{"name":"あすなろ児童館","province":"東京都","city":"西多摩郡瑞穂町","address":"西多摩郡瑞穂町大字石畑1837","lat":35.769353,"lon":139.356193},{"name":"瑞穂町図書館","province":"東京都","city":"西多摩郡瑞穂町","address":"東京都西多摩郡瑞穂町大字石畑1962番地","lat":35.77475,"lon":139.356734},{"name":"元狭山ふるさと思い出館図書室","province":"東京都","city":"西多摩郡瑞穂町","address":"東京都西多摩郡瑞穂町大字二本木710番地","lat":35.789608,"lon":139.354835},{"name":"長岡コミュニティセンター図書室","province":"東京都","city":"西多摩郡瑞穂町","address":"東京都西多摩郡瑞穂町大字箱根ケ崎1180番地","lat":35.780904,"lon":139.337175},{"name":"武蔵野コミュニティセンター図書室","province":"東京都","city":"西多摩郡瑞穂町","address":"東京都西多摩郡瑞穂町むさし野1丁目5番地","lat":35.761579,"lon":139.339685},{"name":"殿ケ谷図書室","province":"東京都","city":"西多摩郡瑞穂町","address":"東京都西多摩郡瑞穂町大字殿ケ谷988番地","lat":35.765227,"lon":139.363772},{"name":"あすなろ児童館","province":"東京都","city":"西多摩郡瑞穂町","address":"西多摩郡瑞穂町大字石畑1837","lat":35.76949,"lon":139.35609},{"name":"＊?元狭山ふるさと思い出館図書室","province":"東京都","city":"西多摩郡瑞穂町","address":"瑞穂町二本木710","lat":35.789626,"lon":139.354843},{"name":"＊?殿ケ谷図書室","province":"東京都","city":"西多摩郡瑞穂町","address":"瑞穂町殿ケ谷988","lat":35.765225,"lon":139.363774},{"name":"＊?長岡コミュニティセンター図書室","province":"東京都","city":"西多摩郡瑞穂町","address":"瑞穂町箱根ケ崎1180番地長岡コミュニティセンター内","lat":35.780933,"lon":139.337174},{"name":"＊?瑞穂町図書館","province":"東京都","city":"西多摩郡瑞穂町","address":"瑞穂町石畑1962","lat":35.774735,"lon":139.356719},{"name":"＊?武蔵野コミュニティーセンター図書室","province":"東京都","city":"西多摩郡瑞穂町","address":"瑞穂町むさし野1-5瑞穂アパート27号棟武蔵野コミュニティセンター内","lat":35.76158,"lon":139.339706},{"name":"あすなろ児童館","province":"東京都","city":"西多摩郡瑞穂町","address":"西多摩郡瑞穂町大字石畑1837","lat":35.769353,"lon":139.356193},{"name":"瑞穂町図書館","province":"東京都","city":"西多摩郡瑞穂町","address":"東京都西多摩郡瑞穂町大字石畑1962番地","lat":35.77475,"lon":139.356734},{"name":"元狭山ふるさと思い出館図書室","province":"東京都","city":"西多摩郡瑞穂町","address":"東京都西多摩郡瑞穂町大字二本木710番地","lat":35.789608,"lon":139.354835},{"name":"長岡コミュニティセンター図書室","province":"東京都","city":"西多摩郡瑞穂町","address":"東京都西多摩郡瑞穂町大字箱根ケ崎1180番地","lat":35.780904,"lon":139.337175},{"name":"武蔵野コミュニティセンター図書室","province":"東京都","city":"西多摩郡瑞穂町","address":"東京都西多摩郡瑞穂町むさし野1丁目5番地","lat":35.761579,"lon":139.339685},{"name":"殿ケ谷図書室","province":"東京都","city":"西多摩郡瑞穂町","address":"東京都西多摩郡瑞穂町大字殿ケ谷988番地","lat":35.765227,"lon":139.363772},{"name":"あすなろ児童館","province":"東京都","city":"西多摩郡瑞穂町","address":"西多摩郡瑞穂町大字石畑1837","lat":35.76949,"lon":139.35609},{"name":"＊?元狭山ふるさと思い出館図書室","province":"東京都","city":"西多摩郡瑞穂町","address":"瑞穂町二本木710","lat":35.789626,"lon":139.354843},{"name":"＊?殿ケ谷図書室","province":"東京都","city":"西多摩郡瑞穂町","address":"瑞穂町殿ケ谷988","lat":35.765225,"lon":139.363774},{"name":"＊?長岡コミュニティセンター図書室","province":"東京都","city":"西多摩郡瑞穂町","address":"瑞穂町箱根ケ崎1180番地長岡コミュニティセンター内","lat":35.780933,"lon":139.337174},{"name":"＊?瑞穂町図書館","province":"東京都","city":"西多摩郡瑞穂町","address":"瑞穂町石畑1962","lat":35.774735,"lon":139.356719},{"name":"＊?武蔵野コミュニティーセンター図書室","province":"東京都","city":"西多摩郡瑞穂町","address":"瑞穂町むさし野1-5瑞穂アパート27号棟武蔵野コミュニティセンター内","lat":35.76158,"lon":139.339706},{"name":"あすなろ児童館","province":"東京都","city":"西多摩郡瑞穂町","address":"西多摩郡瑞穂町大字石畑1837","lat":35.769353,"lon":139.356193},{"name":"瑞穂町図書館","province":"東京都","city":"西多摩郡瑞穂町","address":"東京都西多摩郡瑞穂町大字石畑1962番地","lat":35.77475,"lon":139.356734},{"name":"元狭山ふるさと思い出館図書室","province":"東京都","city":"西多摩郡瑞穂町","address":"東京都西多摩郡瑞穂町大字二本木710番地","lat":35.789608,"lon":139.354835},{"name":"長岡コミュニティセンター図書室","province":"東京都","city":"西多摩郡瑞穂町","address":"東京都西多摩郡瑞穂町大字箱根ケ崎1180番地","lat":35.780904,"lon":139.337175},{"name":"武蔵野コミュニティセンター図書室","province":"東京都","city":"西多摩郡瑞穂町","address":"東京都西多摩郡瑞穂町むさし野1丁目5番地","lat":35.761579,"lon":139.339685},{"name":"殿ケ谷図書室","province":"東京都","city":"西多摩郡瑞穂町","address":"東京都西多摩郡瑞穂町大字殿ケ谷988番地","lat":35.765227,"lon":139.363772},{"name":"あすなろ児童館","province":"東京都","city":"西多摩郡瑞穂町","address":"西多摩郡瑞穂町大字石畑1837","lat":35.76949,"lon":139.35609},{"name":"＊?元狭山ふるさと思い出館図書室","province":"東京都","city":"西多摩郡瑞穂町","address":"瑞穂町二本木710","lat":35.789626,"lon":139.354843},{"name":"＊?殿ケ谷図書室","province":"東京都","city":"西多摩郡瑞穂町","address":"瑞穂町殿ケ谷988","lat":35.765225,"lon":139.363774},{"name":"＊?長岡コミュニティセンター図書室","province":"東京都","city":"西多摩郡瑞穂町","address":"瑞穂町箱根ケ崎1180番地長岡コミュニティセンター内","lat":35.780933,"lon":139.337174},{"name":"＊?瑞穂町図書館","province":"東京都","city":"西多摩郡瑞穂町","address":"瑞穂町石畑1962","lat":35.774735,"lon":139.356719},{"name":"＊?武蔵野コミュニティーセンター図書室","province":"東京都","city":"西多摩郡瑞穂町","address":"瑞穂町むさし野1-5瑞穂アパート27号棟武蔵野コミュニティセンター内","lat":35.76158,"lon":139.339706},{"name":"あすなろ児童館","province":"東京都","city":"西多摩郡瑞穂町","address":"西多摩郡瑞穂町大字石畑1837","lat":35.769353,"lon":139.356193},{"name":"瑞穂町図書館","province":"東京都","city":"西多摩郡瑞穂町","address":"東京都西多摩郡瑞穂町大字石畑1962番地","lat":35.77475,"lon":139.356734},{"name":"元狭山ふるさと思い出館図書室","province":"東京都","city":"西多摩郡瑞穂町","address":"東京都西多摩郡瑞穂町大字二本木710番地","lat":35.789608,"lon":139.354835},{"name":"長岡コミュニティセンター図書室","province":"東京都","city":"西多摩郡瑞穂町","address":"東京都西多摩郡瑞穂町大字箱根ケ崎1180番地","lat":35.780904,"lon":139.337175},{"name":"武蔵野コミュニティセンター図書室","province":"東京都","city":"西多摩郡瑞穂町","address":"東京都西多摩郡瑞穂町むさし野1丁目5番地","lat":35.761579,"lon":139.339685},{"name":"殿ケ谷図書室","province":"東京都","city":"西多摩郡瑞穂町","address":"東京都西多摩郡瑞穂町大字殿ケ谷988番地","lat":35.765227,"lon":139.363772},{"name":"あすなろ児童館","province":"東京都","city":"西多摩郡瑞穂町","address":"西多摩郡瑞穂町大字石畑1837","lat":35.76949,"lon":139.35609},{"name":"＊?元狭山ふるさと思い出館図書室","province":"東京都","city":"西多摩郡瑞穂町","address":"瑞穂町二本木710","lat":35.789626,"lon":139.354843},{"name":"＊?殿ケ谷図書室","province":"東京都","city":"西多摩郡瑞穂町","address":"瑞穂町殿ケ谷988","lat":35.765225,"lon":139.363774},{"name":"＊?長岡コミュニティセンター図書室","province":"東京都","city":"西多摩郡瑞穂町","address":"瑞穂町箱根ケ崎1180番地長岡コミュニティセンター内","lat":35.780933,"lon":139.337174},{"name":"＊?瑞穂町図書館","province":"東京都","city":"西多摩郡瑞穂町","address":"瑞穂町石畑1962","lat":35.774735,"lon":139.356719},{"name":"＊?武蔵野コミュニティーセンター図書室","province":"東京都","city":"西多摩郡瑞穂町","address":"瑞穂町むさし野1-5瑞穂アパート27号棟武蔵野コミュニティセンター内","lat":35.76158,"lon":139.339706},{"name":"あすなろ児童館","province":"東京都","city":"西多摩郡瑞穂町","address":"西多摩郡瑞穂町大字石畑1837","lat":35.769353,"lon":139.356193},{"name":"瑞穂町図書館","province":"東京都","city":"西多摩郡瑞穂町","address":"東京都西多摩郡瑞穂町大字石畑1962番地","lat":35.77475,"lon":139.356734},{"name":"元狭山ふるさと思い出館図書室","province":"東京都","city":"西多摩郡瑞穂町","address":"東京都西多摩郡瑞穂町大字二本木710番地","lat":35.789608,"lon":139.354835},{"name":"長岡コミュニティセンター図書室","province":"東京都","city":"西多摩郡瑞穂町","address":"東京都西多摩郡瑞穂町大字箱根ケ崎1180番地","lat":35.780904,"lon":139.337175},{"name":"武蔵野コミュニティセンター図書室","province":"東京都","city":"西多摩郡瑞穂町","address":"東京都西多摩郡瑞穂町むさし野1丁目5番地","lat":35.761579,"lon":139.339685},{"name":"殿ケ谷図書室","province":"東京都","city":"西多摩郡瑞穂町","address":"東京都西多摩郡瑞穂町大字殿ケ谷988番地","lat":35.765227,"lon":139.363772},{"name":"あすなろ児童館","province":"東京都","city":"西多摩郡瑞穂町","address":"西多摩郡瑞穂町大字石畑1837","lat":35.76949,"lon":139.35609},{"name":"＊?元狭山ふるさと思い出館図書室","province":"東京都","city":"西多摩郡瑞穂町","address":"瑞穂町二本木710","lat":35.789626,"lon":139.354843},{"name":"＊?殿ケ谷図書室","province":"東京都","city":"西多摩郡瑞穂町","address":"瑞穂町殿ケ谷988","lat":35.765225,"lon":139.363774},{"name":"＊?長岡コミュニティセンター図書室","province":"東京都","city":"西多摩郡瑞穂町","address":"瑞穂町箱根ケ崎1180番地長岡コミュニティセンター内","lat":35.780933,"lon":139.337174},{"name":"＊?瑞穂町図書館","province":"東京都","city":"西多摩郡瑞穂町","address":"瑞穂町石畑1962","lat":35.774735,"lon":139.356719},{"name":"＊?武蔵野コミュニティーセンター図書室","province":"東京都","city":"西多摩郡瑞穂町","address":"瑞穂町むさし野1-5瑞穂アパート27号棟武蔵野コミュニティセンター内","lat":35.76158,"lon":139.339706},{"name":"あすなろ児童館","province":"東京都","city":"西多摩郡瑞穂町","address":"西多摩郡瑞穂町大字石畑1837","lat":35.769353,"lon":139.356193},{"name":"瑞穂町図書館","province":"東京都","city":"西多摩郡瑞穂町","address":"東京都西多摩郡瑞穂町大字石畑1962番地","lat":35.77475,"lon":139.356734},{"name":"元狭山ふるさと思い出館図書室","province":"東京都","city":"西多摩郡瑞穂町","address":"東京都西多摩郡瑞穂町大字二本木710番地","lat":35.789608,"lon":139.354835},{"name":"長岡コミュニティセンター図書室","province":"東京都","city":"西多摩郡瑞穂町","address":"東京都西多摩郡瑞穂町大字箱根ケ崎1180番地","lat":35.780904,"lon":139.337175},{"name":"武蔵野コミュニティセンター図書室","province":"東京都","city":"西多摩郡瑞穂町","address":"東京都西多摩郡瑞穂町むさし野1丁目5番地","lat":35.761579,"lon":139.339685},{"name":"殿ケ谷図書室","province":"東京都","city":"西多摩郡瑞穂町","address":"東京都西多摩郡瑞穂町大字殿ケ谷988番地","lat":35.765227,"lon":139.363772},{"name":"あすなろ児童館","province":"東京都","city":"西多摩郡瑞穂町","address":"西多摩郡瑞穂町大字石畑1837","lat":35.76949,"lon":139.35609},{"name":"＊?元狭山ふるさと思い出館図書室","province":"東京都","city":"西多摩郡瑞穂町","address":"瑞穂町二本木710","lat":35.789626,"lon":139.354843},{"name":"＊?殿ケ谷図書室","province":"東京都","city":"西多摩郡瑞穂町","address":"瑞穂町殿ケ谷988","lat":35.765225,"lon":139.363774},{"name":"＊?長岡コミュニティセンター図書室","province":"東京都","city":"西多摩郡瑞穂町","address":"瑞穂町箱根ケ崎1180番地長岡コミュニティセンター内","lat":35.780933,"lon":139.337174},{"name":"＊?瑞穂町図書館","province":"東京都","city":"西多摩郡瑞穂町","address":"瑞穂町石畑1962","lat":35.774735,"lon":139.356719},{"name":"＊?武蔵野コミュニティーセンター図書室","province":"東京都","city":"西多摩郡瑞穂町","address":"瑞穂町むさし野1-5瑞穂アパート27号棟武蔵野コミュニティセンター内","lat":35.76158,"lon":139.339706},{"name":"あすなろ児童館","province":"東京都","city":"西多摩郡瑞穂町","address":"西多摩郡瑞穂町大字石畑1837","lat":35.769353,"lon":139.356193},{"name":"瑞穂町図書館","province":"東京都","city":"西多摩郡瑞穂町","address":"東京都西多摩郡瑞穂町大字石畑1962番地","lat":35.77475,"lon":139.356734},{"name":"元狭山ふるさと思い出館図書室","province":"東京都","city":"西多摩郡瑞穂町","address":"東京都西多摩郡瑞穂町大字二本木710番地","lat":35.789608,"lon":139.354835},{"name":"長岡コミュニティセンター図書室","province":"東京都","city":"西多摩郡瑞穂町","address":"東京都西多摩郡瑞穂町大字箱根ケ崎1180番地","lat":35.780904,"lon":139.337175},{"name":"武蔵野コミュニティセンター図書室","province":"東京都","city":"西多摩郡瑞穂町","address":"東京都西多摩郡瑞穂町むさし野1丁目5番地","lat":35.761579,"lon":139.339685},{"name":"殿ケ谷図書室","province":"東京都","city":"西多摩郡瑞穂町","address":"東京都西多摩郡瑞穂町大字殿ケ谷988番地","lat":35.765227,"lon":139.363772},{"name":"あすなろ児童館","province":"東京都","city":"西多摩郡瑞穂町","address":"西多摩郡瑞穂町大字石畑1837","lat":35.76949,"lon":139.35609},{"name":"＊?元狭山ふるさと思い出館図書室","province":"東京都","city":"西多摩郡瑞穂町","address":"瑞穂町二本木710","lat":35.789626,"lon":139.354843},{"name":"＊?殿ケ谷図書室","province":"東京都","city":"西多摩郡瑞穂町","address":"瑞穂町殿ケ谷988","lat":35.765225,"lon":139.363774},{"name":"＊?長岡コミュニティセンター図書室","province":"東京都","city":"西多摩郡瑞穂町","address":"瑞穂町箱根ケ崎1180番地長岡コミュニティセンター内","lat":35.780933,"lon":139.337174},{"name":"＊?瑞穂町図書館","province":"東京都","city":"西多摩郡瑞穂町","address":"瑞穂町石畑1962","lat":35.774735,"lon":139.356719},{"name":"＊?武蔵野コミュニティーセンター図書室","province":"東京都","city":"西多摩郡瑞穂町","address":"瑞穂町むさし野1-5瑞穂アパート27号棟武蔵野コミュニティセンター内","lat":35.76158,"lon":139.339706},{"name":"あすなろ児童館","province":"東京都","city":"西多摩郡瑞穂町","address":"西多摩郡瑞穂町大字石畑1837","lat":35.769353,"lon":139.356193},{"name":"瑞穂町図書館","province":"東京都","city":"西多摩郡瑞穂町","address":"東京都西多摩郡瑞穂町大字石畑1962番地","lat":35.77475,"lon":139.356734},{"name":"元狭山ふるさと思い出館図書室","province":"東京都","city":"西多摩郡瑞穂町","address":"東京都西多摩郡瑞穂町大字二本木710番地","lat":35.789608,"lon":139.354835},{"name":"長岡コミュニティセンター図書室","province":"東京都","city":"西多摩郡瑞穂町","address":"東京都西多摩郡瑞穂町大字箱根ケ崎1180番地","lat":35.780904,"lon":139.337175},{"name":"武蔵野コミュニティセンター図書室","province":"東京都","city":"西多摩郡瑞穂町","address":"東京都西多摩郡瑞穂町むさし野1丁目5番地","lat":35.761579,"lon":139.339685},{"name":"殿ケ谷図書室","province":"東京都","city":"西多摩郡瑞穂町","address":"東京都西多摩郡瑞穂町大字殿ケ谷988番地","lat":35.765227,"lon":139.363772},{"name":"あすなろ児童館","province":"東京都","city":"西多摩郡瑞穂町","address":"西多摩郡瑞穂町大字石畑1837","lat":35.76949,"lon":139.35609},{"name":"＊?元狭山ふるさと思い出館図書室","province":"東京都","city":"西多摩郡瑞穂町","address":"瑞穂町二本木710","lat":35.789626,"lon":139.354843},{"name":"＊?殿ケ谷図書室","province":"東京都","city":"西多摩郡瑞穂町","address":"瑞穂町殿ケ谷988","lat":35.765225,"lon":139.363774},{"name":"＊?長岡コミュニティセンター図書室","province":"東京都","city":"西多摩郡瑞穂町","address":"瑞穂町箱根ケ崎1180番地長岡コミュニティセンター内","lat":35.780933,"lon":139.337174},{"name":"＊?瑞穂町図書館","province":"東京都","city":"西多摩郡瑞穂町","address":"瑞穂町石畑1962","lat":35.774735,"lon":139.356719},{"name":"＊?武蔵野コミュニティーセンター図書室","province":"東京都","city":"西多摩郡瑞穂町","address":"瑞穂町むさし野1-5瑞穂アパート27号棟武蔵野コミュニティセンター内","lat":35.76158,"lon":139.339706},{"name":"あすなろ児童館","province":"東京都","city":"西多摩郡瑞穂町","address":"西多摩郡瑞穂町大字石畑1837","lat":35.769353,"lon":139.356193},{"name":"瑞穂町図書館","province":"東京都","city":"西多摩郡瑞穂町","address":"東京都西多摩郡瑞穂町大字石畑1962番地","lat":35.77475,"lon":139.356734},{"name":"元狭山ふるさと思い出館図書室","province":"東京都","city":"西多摩郡瑞穂町","address":"東京都西多摩郡瑞穂町大字二本木710番地","lat":35.789608,"lon":139.354835},{"name":"長岡コミュニティセンター図書室","province":"東京都","city":"西多摩郡瑞穂町","address":"東京都西多摩郡瑞穂町大字箱根ケ崎1180番地","lat":35.780904,"lon":139.337175},{"name":"武蔵野コミュニティセンター図書室","province":"東京都","city":"西多摩郡瑞穂町","address":"東京都西多摩郡瑞穂町むさし野1丁目5番地","lat":35.761579,"lon":139.339685},{"name":"殿ケ谷図書室","province":"東京都","city":"西多摩郡瑞穂町","address":"東京都西多摩郡瑞穂町大字殿ケ谷988番地","lat":35.765227,"lon":139.363772},{"name":"あすなろ児童館","province":"東京都","city":"西多摩郡瑞穂町","address":"西多摩郡瑞穂町大字石畑1837","lat":35.76949,"lon":139.35609},{"name":"＊?元狭山ふるさと思い出館図書室","province":"東京都","city":"西多摩郡瑞穂町","address":"瑞穂町二本木710","lat":35.789626,"lon":139.354843},{"name":"＊?殿ケ谷図書室","province":"東京都","city":"西多摩郡瑞穂町","address":"瑞穂町殿ケ谷988","lat":35.765225,"lon":139.363774},{"name":"＊?長岡コミュニティセンター図書室","province":"東京都","city":"西多摩郡瑞穂町","address":"瑞穂町箱根ケ崎1180番地長岡コミュニティセンター内","lat":35.780933,"lon":139.337174},{"name":"＊?瑞穂町図書館","province":"東京都","city":"西多摩郡瑞穂町","address":"瑞穂町石畑1962","lat":35.774735,"lon":139.356719},{"name":"＊?武蔵野コミュニティーセンター図書室","province":"東京都","city":"西多摩郡瑞穂町","address":"瑞穂町むさし野1-5瑞穂アパート27号棟武蔵野コミュニティセンター内","lat":35.76158,"lon":139.339706},{"name":"あすなろ児童館","province":"東京都","city":"西多摩郡瑞穂町","address":"西多摩郡瑞穂町大字石畑1837","lat":35.769353,"lon":139.356193},{"name":"瑞穂町図書館","province":"東京都","city":"西多摩郡瑞穂町","address":"東京都西多摩郡瑞穂町大字石畑1962番地","lat":35.77475,"lon":139.356734},{"name":"元狭山ふるさと思い出館図書室","province":"東京都","city":"西多摩郡瑞穂町","address":"東京都西多摩郡瑞穂町大字二本木710番地","lat":35.789608,"lon":139.354835},{"name":"長岡コミュニティセンター図書室","province":"東京都","city":"西多摩郡瑞穂町","address":"東京都西多摩郡瑞穂町大字箱根ケ崎1180番地","lat":35.780904,"lon":139.337175},{"name":"武蔵野コミュニティセンター図書室","province":"東京都","city":"西多摩郡瑞穂町","address":"東京都西多摩郡瑞穂町むさし野1丁目5番地","lat":35.761579,"lon":139.339685},{"name":"殿ケ谷図書室","province":"東京都","city":"西多摩郡瑞穂町","address":"東京都西多摩郡瑞穂町大字殿ケ谷988番地","lat":35.765227,"lon":139.363772},{"name":"あすなろ児童館","province":"東京都","city":"西多摩郡瑞穂町","address":"西多摩郡瑞穂町大字石畑1837","lat":35.76949,"lon":139.35609},{"name":"＊?元狭山ふるさと思い出館図書室","province":"東京都","city":"西多摩郡瑞穂町","address":"瑞穂町二本木710","lat":35.789626,"lon":139.354843},{"name":"＊?殿ケ谷図書室","province":"東京都","city":"西多摩郡瑞穂町","address":"瑞穂町殿ケ谷988","lat":35.765225,"lon":139.363774},{"name":"＊?長岡コミュニティセンター図書室","province":"東京都","city":"西多摩郡瑞穂町","address":"瑞穂町箱根ケ崎1180番地長岡コミュニティセンター内","lat":35.780933,"lon":139.337174},{"name":"＊?瑞穂町図書館","province":"東京都","city":"西多摩郡瑞穂町","address":"瑞穂町石畑1962","lat":35.774735,"lon":139.356719},{"name":"＊?武蔵野コミュニティーセンター図書室","province":"東京都","city":"西多摩郡瑞穂町","address":"瑞穂町むさし野1-5瑞穂アパート27号棟武蔵野コミュニティセンター内","lat":35.76158,"lon":139.339706},{"name":"あすなろ児童館","province":"東京都","city":"西多摩郡瑞穂町","address":"西多摩郡瑞穂町大字石畑1837","lat":35.769353,"lon":139.356193},{"name":"瑞穂町図書館","province":"東京都","city":"西多摩郡瑞穂町","address":"東京都西多摩郡瑞穂町大字石畑1962番地","lat":35.77475,"lon":139.356734},{"name":"元狭山ふるさと思い出館図書室","province":"東京都","city":"西多摩郡瑞穂町","address":"東京都西多摩郡瑞穂町大字二本木710番地","lat":35.789608,"lon":139.354835},{"name":"長岡コミュニティセンター図書室","province":"東京都","city":"西多摩郡瑞穂町","address":"東京都西多摩郡瑞穂町大字箱根ケ崎1180番地","lat":35.780904,"lon":139.337175},{"name":"武蔵野コミュニティセンター図書室","province":"東京都","city":"西多摩郡瑞穂町","address":"東京都西多摩郡瑞穂町むさし野1丁目5番地","lat":35.761579,"lon":139.339685},{"name":"殿ケ谷図書室","province":"東京都","city":"西多摩郡瑞穂町","address":"東京都西多摩郡瑞穂町大字殿ケ谷988番地","lat":35.765227,"lon":139.363772},{"name":"あすなろ児童館","province":"東京都","city":"西多摩郡瑞穂町","address":"西多摩郡瑞穂町大字石畑1837","lat":35.76949,"lon":139.35609},{"name":"＊?元狭山ふるさと思い出館図書室","province":"東京都","city":"西多摩郡瑞穂町","address":"瑞穂町二本木710","lat":35.789626,"lon":139.354843},{"name":"＊?殿ケ谷図書室","province":"東京都","city":"西多摩郡瑞穂町","address":"瑞穂町殿ケ谷988","lat":35.765225,"lon":139.363774},{"name":"＊?長岡コミュニティセンター図書室","province":"東京都","city":"西多摩郡瑞穂町","address":"瑞穂町箱根ケ崎1180番地長岡コミュニティセンター内","lat":35.780933,"lon":139.337174},{"name":"＊?瑞穂町図書館","province":"東京都","city":"西多摩郡瑞穂町","address":"瑞穂町石畑1962","lat":35.774735,"lon":139.356719},{"name":"＊?武蔵野コミュニティーセンター図書室","province":"東京都","city":"西多摩郡瑞穂町","address":"瑞穂町むさし野1-5瑞穂アパート27号棟武蔵野コミュニティセンター内","lat":35.76158,"lon":139.339706},{"name":"あすなろ児童館","province":"東京都","city":"西多摩郡瑞穂町","address":"西多摩郡瑞穂町大字石畑1837","lat":35.769353,"lon":139.356193},{"name":"瑞穂町図書館","province":"東京都","city":"西多摩郡瑞穂町","address":"東京都西多摩郡瑞穂町大字石畑1962番地","lat":35.77475,"lon":139.356734},{"name":"元狭山ふるさと思い出館図書室","province":"東京都","city":"西多摩郡瑞穂町","address":"東京都西多摩郡瑞穂町大字二本木710番地","lat":35.789608,"lon":139.354835},{"name":"長岡コミュニティセンター図書室","province":"東京都","city":"西多摩郡瑞穂町","address":"東京都西多摩郡瑞穂町大字箱根ケ崎1180番地","lat":35.780904,"lon":139.337175},{"name":"武蔵野コミュニティセンター図書室","province":"東京都","city":"西多摩郡瑞穂町","address":"東京都西多摩郡瑞穂町むさし野1丁目5番地","lat":35.761579,"lon":139.339685},{"name":"殿ケ谷図書室","province":"東京都","city":"西多摩郡瑞穂町","address":"東京都西多摩郡瑞穂町大字殿ケ谷988番地","lat":35.765227,"lon":139.363772},{"name":"あすなろ児童館","province":"東京都","city":"西多摩郡瑞穂町","address":"西多摩郡瑞穂町大字石畑1837","lat":35.76949,"lon":139.35609},{"name":"＊?元狭山ふるさと思い出館図書室","province":"東京都","city":"西多摩郡瑞穂町","address":"瑞穂町二本木710","lat":35.789626,"lon":139.354843},{"name":"＊?殿ケ谷図書室","province":"東京都","city":"西多摩郡瑞穂町","address":"瑞穂町殿ケ谷988","lat":35.765225,"lon":139.363774},{"name":"＊?長岡コミュニティセンター図書室","province":"東京都","city":"西多摩郡瑞穂町","address":"瑞穂町箱根ケ崎1180番地長岡コミュニティセンター内","lat":35.780933,"lon":139.337174},{"name":"＊?瑞穂町図書館","province":"東京都","city":"西多摩郡瑞穂町","address":"瑞穂町石畑1962","lat":35.774735,"lon":139.356719},{"name":"＊?武蔵野コミュニティーセンター図書室","province":"東京都","city":"西多摩郡瑞穂町","address":"瑞穂町むさし野1-5瑞穂アパート27号棟武蔵野コミュニティセンター内","lat":35.76158,"lon":139.339706},{"name":"あすなろ児童館","province":"東京都","city":"西多摩郡瑞穂町","address":"西多摩郡瑞穂町大字石畑1837","lat":35.769353,"lon":139.356193},{"name":"瑞穂町図書館","province":"東京都","city":"西多摩郡瑞穂町","address":"東京都西多摩郡瑞穂町大字石畑1962番地","lat":35.77475,"lon":139.356734},{"name":"元狭山ふるさと思い出館図書室","province":"東京都","city":"西多摩郡瑞穂町","address":"東京都西多摩郡瑞穂町大字二本木710番地","lat":35.789608,"lon":139.354835},{"name":"長岡コミュニティセンター図書室","province":"東京都","city":"西多摩郡瑞穂町","address":"東京都西多摩郡瑞穂町大字箱根ケ崎1180番地","lat":35.780904,"lon":139.337175},{"name":"武蔵野コミュニティセンター図書室","province":"東京都","city":"西多摩郡瑞穂町","address":"東京都西多摩郡瑞穂町むさし野1丁目5番地","lat":35.761579,"lon":139.339685},{"name":"殿ケ谷図書室","province":"東京都","city":"西多摩郡瑞穂町","address":"東京都西多摩郡瑞穂町大字殿ケ谷988番地","lat":35.765227,"lon":139.363772},{"name":"あすなろ児童館","province":"東京都","city":"西多摩郡瑞穂町","address":"西多摩郡瑞穂町大字石畑1837","lat":35.76949,"lon":139.35609},{"name":"＊?元狭山ふるさと思い出館図書室","province":"東京都","city":"西多摩郡瑞穂町","address":"瑞穂町二本木710","lat":35.789626,"lon":139.354843},{"name":"＊?殿ケ谷図書室","province":"東京都","city":"西多摩郡瑞穂町","address":"瑞穂町殿ケ谷988","lat":35.765225,"lon":139.363774},{"name":"＊?長岡コミュニティセンター図書室","province":"東京都","city":"西多摩郡瑞穂町","address":"瑞穂町箱根ケ崎1180番地長岡コミュニティセンター内","lat":35.780933,"lon":139.337174},{"name":"＊?瑞穂町図書館","province":"東京都","city":"西多摩郡瑞穂町","address":"瑞穂町石畑1962","lat":35.774735,"lon":139.356719},{"name":"＊?武蔵野コミュニティーセンター図書室","province":"東京都","city":"西多摩郡瑞穂町","address":"瑞穂町むさし野1-5瑞穂アパート27号棟武蔵野コミュニティセンター内","lat":35.76158,"lon":139.339706},{"name":"あすなろ児童館","province":"東京都","city":"西多摩郡瑞穂町","address":"西多摩郡瑞穂町大字石畑1837","lat":35.769353,"lon":139.356193},{"name":"瑞穂町図書館","province":"東京都","city":"西多摩郡瑞穂町","address":"東京都西多摩郡瑞穂町大字石畑1962番地","lat":35.77475,"lon":139.356734},{"name":"元狭山ふるさと思い出館図書室","province":"東京都","city":"西多摩郡瑞穂町","address":"東京都西多摩郡瑞穂町大字二本木710番地","lat":35.789608,"lon":139.354835},{"name":"長岡コミュニティセンター図書室","province":"東京都","city":"西多摩郡瑞穂町","address":"東京都西多摩郡瑞穂町大字箱根ケ崎1180番地","lat":35.780904,"lon":139.337175},{"name":"武蔵野コミュニティセンター図書室","province":"東京都","city":"西多摩郡瑞穂町","address":"東京都西多摩郡瑞穂町むさし野1丁目5番地","lat":35.761579,"lon":139.339685},{"name":"殿ケ谷図書室","province":"東京都","city":"西多摩郡瑞穂町","address":"東京都西多摩郡瑞穂町大字殿ケ谷988番地","lat":35.765227,"lon":139.363772},{"name":"あすなろ児童館","province":"東京都","city":"西多摩郡瑞穂町","address":"西多摩郡瑞穂町大字石畑1837","lat":35.76949,"lon":139.35609},{"name":"＊?元狭山ふるさと思い出館図書室","province":"東京都","city":"西多摩郡瑞穂町","address":"瑞穂町二本木710","lat":35.789626,"lon":139.354843},{"name":"＊?殿ケ谷図書室","province":"東京都","city":"西多摩郡瑞穂町","address":"瑞穂町殿ケ谷988","lat":35.765225,"lon":139.363774},{"name":"＊?長岡コミュニティセンター図書室","province":"東京都","city":"西多摩郡瑞穂町","address":"瑞穂町箱根ケ崎1180番地長岡コミュニティセンター内","lat":35.780933,"lon":139.337174},{"name":"＊?瑞穂町図書館","province":"東京都","city":"西多摩郡瑞穂町","address":"瑞穂町石畑1962","lat":35.774735,"lon":139.356719},{"name":"＊?武蔵野コミュニティーセンター図書室","province":"東京都","city":"西多摩郡瑞穂町","address":"瑞穂町むさし野1-5瑞穂アパート27号棟武蔵野コミュニティセンター内","lat":35.76158,"lon":139.339706},{"name":"あすなろ児童館","province":"東京都","city":"西多摩郡瑞穂町","address":"西多摩郡瑞穂町大字石畑1837","lat":35.769353,"lon":139.356193},{"name":"瑞穂町図書館","province":"東京都","city":"西多摩郡瑞穂町","address":"東京都西多摩郡瑞穂町大字石畑1962番地","lat":35.77475,"lon":139.356734},{"name":"元狭山ふるさと思い出館図書室","province":"東京都","city":"西多摩郡瑞穂町","address":"東京都西多摩郡瑞穂町大字二本木710番地","lat":35.789608,"lon":139.354835},{"name":"長岡コミュニティセンター図書室","province":"東京都","city":"西多摩郡瑞穂町","address":"東京都西多摩郡瑞穂町大字箱根ケ崎1180番地","lat":35.780904,"lon":139.337175},{"name":"武蔵野コミュニティセンター図書室","province":"東京都","city":"西多摩郡瑞穂町","address":"東京都西多摩郡瑞穂町むさし野1丁目5番地","lat":35.761579,"lon":139.339685},{"name":"殿ケ谷図書室","province":"東京都","city":"西多摩郡瑞穂町","address":"東京都西多摩郡瑞穂町大字殿ケ谷988番地","lat":35.765227,"lon":139.363772},{"name":"あすなろ児童館","province":"東京都","city":"西多摩郡瑞穂町","address":"西多摩郡瑞穂町大字石畑1837","lat":35.76949,"lon":139.35609},{"name":"＊?元狭山ふるさと思い出館図書室","province":"東京都","city":"西多摩郡瑞穂町","address":"瑞穂町二本木710","lat":35.789626,"lon":139.354843},{"name":"＊?殿ケ谷図書室","province":"東京都","city":"西多摩郡瑞穂町","address":"瑞穂町殿ケ谷988","lat":35.765225,"lon":139.363774},{"name":"＊?長岡コミュニティセンター図書室","province":"東京都","city":"西多摩郡瑞穂町","address":"瑞穂町箱根ケ崎1180番地長岡コミュニティセンター内","lat":35.780933,"lon":139.337174},{"name":"＊?瑞穂町図書館","province":"東京都","city":"西多摩郡瑞穂町","address":"瑞穂町石畑1962","lat":35.774735,"lon":139.356719},{"name":"＊?武蔵野コミュニティーセンター図書室","province":"東京都","city":"西多摩郡瑞穂町","address":"瑞穂町むさし野1-5瑞穂アパート27号棟武蔵野コミュニティセンター内","lat":35.76158,"lon":139.339706},{"name":"あすなろ児童館","province":"東京都","city":"西多摩郡瑞穂町","address":"西多摩郡瑞穂町大字石畑1837","lat":35.769353,"lon":139.356193},{"name":"瑞穂町図書館","province":"東京都","city":"西多摩郡瑞穂町","address":"東京都西多摩郡瑞穂町大字石畑1962番地","lat":35.77475,"lon":139.356734},{"name":"元狭山ふるさと思い出館図書室","province":"東京都","city":"西多摩郡瑞穂町","address":"東京都西多摩郡瑞穂町大字二本木710番地","lat":35.789608,"lon":139.354835},{"name":"長岡コミュニティセンター図書室","province":"東京都","city":"西多摩郡瑞穂町","address":"東京都西多摩郡瑞穂町大字箱根ケ崎1180番地","lat":35.780904,"lon":139.337175},{"name":"武蔵野コミュニティセンター図書室","province":"東京都","city":"西多摩郡瑞穂町","address":"東京都西多摩郡瑞穂町むさし野1丁目5番地","lat":35.761579,"lon":139.339685},{"name":"殿ケ谷図書室","province":"東京都","city":"西多摩郡瑞穂町","address":"東京都西多摩郡瑞穂町大字殿ケ谷988番地","lat":35.765227,"lon":139.363772},{"name":"あすなろ児童館","province":"東京都","city":"西多摩郡瑞穂町","address":"西多摩郡瑞穂町大字石畑1837","lat":35.76949,"lon":139.35609},{"name":"＊?元狭山ふるさと思い出館図書室","province":"東京都","city":"西多摩郡瑞穂町","address":"瑞穂町二本木710","lat":35.789626,"lon":139.354843},{"name":"＊?殿ケ谷図書室","province":"東京都","city":"西多摩郡瑞穂町","address":"瑞穂町殿ケ谷988","lat":35.765225,"lon":139.363774},{"name":"＊?長岡コミュニティセンター図書室","province":"東京都","city":"西多摩郡瑞穂町","address":"瑞穂町箱根ケ崎1180番地長岡コミュニティセンター内","lat":35.780933,"lon":139.337174},{"name":"＊?瑞穂町図書館","province":"東京都","city":"西多摩郡瑞穂町","address":"瑞穂町石畑1962","lat":35.774735,"lon":139.356719},{"name":"＊?武蔵野コミュニティーセンター図書室","province":"東京都","city":"西多摩郡瑞穂町","address":"瑞穂町むさし野1-5瑞穂アパート27号棟武蔵野コミュニティセンター内","lat":35.76158,"lon":139.339706},{"name":"あすなろ児童館","province":"東京都","city":"西多摩郡瑞穂町","address":"西多摩郡瑞穂町大字石畑1837","lat":35.769353,"lon":139.356193},{"name":"瑞穂町図書館","province":"東京都","city":"西多摩郡瑞穂町","address":"東京都西多摩郡瑞穂町大字石畑1962番地","lat":35.77475,"lon":139.356734},{"name":"元狭山ふるさと思い出館図書室","province":"東京都","city":"西多摩郡瑞穂町","address":"東京都西多摩郡瑞穂町大字二本木710番地","lat":35.789608,"lon":139.354835},{"name":"長岡コミュニティセンター図書室","province":"東京都","city":"西多摩郡瑞穂町","address":"東京都西多摩郡瑞穂町大字箱根ケ崎1180番地","lat":35.780904,"lon":139.337175},{"name":"武蔵野コミュニティセンター図書室","province":"東京都","city":"西多摩郡瑞穂町","address":"東京都西多摩郡瑞穂町むさし野1丁目5番地","lat":35.761579,"lon":139.339685},{"name":"殿ケ谷図書室","province":"東京都","city":"西多摩郡瑞穂町","address":"東京都西多摩郡瑞穂町大字殿ケ谷988番地","lat":35.765227,"lon":139.363772},{"name":"あすなろ児童館","province":"東京都","city":"西多摩郡瑞穂町","address":"西多摩郡瑞穂町大字石畑1837","lat":35.76949,"lon":139.35609},{"name":"＊?元狭山ふるさと思い出館図書室","province":"東京都","city":"西多摩郡瑞穂町","address":"瑞穂町二本木710","lat":35.789626,"lon":139.354843},{"name":"＊?殿ケ谷図書室","province":"東京都","city":"西多摩郡瑞穂町","address":"瑞穂町殿ケ谷988","lat":35.765225,"lon":139.363774},{"name":"＊?長岡コミュニティセンター図書室","province":"東京都","city":"西多摩郡瑞穂町","address":"瑞穂町箱根ケ崎1180番地長岡コミュニティセンター内","lat":35.780933,"lon":139.337174},{"name":"＊?瑞穂町図書館","province":"東京都","city":"西多摩郡瑞穂町","address":"瑞穂町石畑1962","lat":35.774735,"lon":139.356719},{"name":"＊?武蔵野コミュニティーセンター図書室","province":"東京都","city":"西多摩郡瑞穂町","address":"瑞穂町むさし野1-5瑞穂アパート27号棟武蔵野コミュニティセンター内","lat":35.76158,"lon":139.339706},{"name":"あすなろ児童館","province":"東京都","city":"西多摩郡瑞穂町","address":"西多摩郡瑞穂町大字石畑1837","lat":35.769353,"lon":139.356193},{"name":"瑞穂町図書館","province":"東京都","city":"西多摩郡瑞穂町","address":"東京都西多摩郡瑞穂町大字石畑1962番地","lat":35.77475,"lon":139.356734},{"name":"元狭山ふるさと思い出館図書室","province":"東京都","city":"西多摩郡瑞穂町","address":"東京都西多摩郡瑞穂町大字二本木710番地","lat":35.789608,"lon":139.354835},{"name":"長岡コミュニティセンター図書室","province":"東京都","city":"西多摩郡瑞穂町","address":"東京都西多摩郡瑞穂町大字箱根ケ崎1180番地","lat":35.780904,"lon":139.337175},{"name":"武蔵野コミュニティセンター図書室","province":"東京都","city":"西多摩郡瑞穂町","address":"東京都西多摩郡瑞穂町むさし野1丁目5番地","lat":35.761579,"lon":139.339685},{"name":"殿ケ谷図書室","province":"東京都","city":"西多摩郡瑞穂町","address":"東京都西多摩郡瑞穂町大字殿ケ谷988番地","lat":35.765227,"lon":139.363772},{"name":"あすなろ児童館","province":"東京都","city":"西多摩郡瑞穂町","address":"西多摩郡瑞穂町大字石畑1837","lat":35.76949,"lon":139.35609},{"name":"＊?元狭山ふるさと思い出館図書室","province":"東京都","city":"西多摩郡瑞穂町","address":"瑞穂町二本木710","lat":35.789626,"lon":139.354843},{"name":"＊?殿ケ谷図書室","province":"東京都","city":"西多摩郡瑞穂町","address":"瑞穂町殿ケ谷988","lat":35.765225,"lon":139.363774},{"name":"＊?長岡コミュニティセンター図書室","province":"東京都","city":"西多摩郡瑞穂町","address":"瑞穂町箱根ケ崎1180番地長岡コミュニティセンター内","lat":35.780933,"lon":139.337174},{"name":"＊?瑞穂町図書館","province":"東京都","city":"西多摩郡瑞穂町","address":"瑞穂町石畑1962","lat":35.774735,"lon":139.356719},{"name":"＊?武蔵野コミュニティーセンター図書室","province":"東京都","city":"西多摩郡瑞穂町","address":"瑞穂町むさし野1-5瑞穂アパート27号棟武蔵野コミュニティセンター内","lat":35.76158,"lon":139.339706},{"name":"あすなろ児童館","province":"東京都","city":"西多摩郡瑞穂町","address":"西多摩郡瑞穂町大字石畑1837","lat":35.769353,"lon":139.356193},{"name":"瑞穂町図書館","province":"東京都","city":"西多摩郡瑞穂町","address":"東京都西多摩郡瑞穂町大字石畑1962番地","lat":35.77475,"lon":139.356734},{"name":"元狭山ふるさと思い出館図書室","province":"東京都","city":"西多摩郡瑞穂町","address":"東京都西多摩郡瑞穂町大字二本木710番地","lat":35.789608,"lon":139.354835},{"name":"長岡コミュニティセンター図書室","province":"東京都","city":"西多摩郡瑞穂町","address":"東京都西多摩郡瑞穂町大字箱根ケ崎1180番地","lat":35.780904,"lon":139.337175},{"name":"武蔵野コミュニティセンター図書室","province":"東京都","city":"西多摩郡瑞穂町","address":"東京都西多摩郡瑞穂町むさし野1丁目5番地","lat":35.761579,"lon":139.339685},{"name":"殿ケ谷図書室","province":"東京都","city":"西多摩郡瑞穂町","address":"東京都西多摩郡瑞穂町大字殿ケ谷988番地","lat":35.765227,"lon":139.363772},{"name":"あすなろ児童館","province":"東京都","city":"西多摩郡瑞穂町","address":"西多摩郡瑞穂町大字石畑1837","lat":35.76949,"lon":139.35609},{"name":"＊?元狭山ふるさと思い出館図書室","province":"東京都","city":"西多摩郡瑞穂町","address":"瑞穂町二本木710","lat":35.789626,"lon":139.354843},{"name":"＊?殿ケ谷図書室","province":"東京都","city":"西多摩郡瑞穂町","address":"瑞穂町殿ケ谷988","lat":35.765225,"lon":139.363774},{"name":"＊?長岡コミュニティセンター図書室","province":"東京都","city":"西多摩郡瑞穂町","address":"瑞穂町箱根ケ崎1180番地長岡コミュニティセンター内","lat":35.780933,"lon":139.337174},{"name":"＊?瑞穂町図書館","province":"東京都","city":"西多摩郡瑞穂町","address":"瑞穂町石畑1962","lat":35.774735,"lon":139.356719},{"name":"＊?武蔵野コミュニティーセンター図書室","province":"東京都","city":"西多摩郡瑞穂町","address":"瑞穂町むさし野1-5瑞穂アパート27号棟武蔵野コミュニティセンター内","lat":35.76158,"lon":139.339706},{"name":"あすなろ児童館","province":"東京都","city":"西多摩郡瑞穂町","address":"西多摩郡瑞穂町大字石畑1837","lat":35.769353,"lon":139.356193},{"name":"瑞穂町図書館","province":"東京都","city":"西多摩郡瑞穂町","address":"東京都西多摩郡瑞穂町大字石畑1962番地","lat":35.77475,"lon":139.356734},{"name":"元狭山ふるさと思い出館図書室","province":"東京都","city":"西多摩郡瑞穂町","address":"東京都西多摩郡瑞穂町大字二本木710番地","lat":35.789608,"lon":139.354835},{"name":"長岡コミュニティセンター図書室","province":"東京都","city":"西多摩郡瑞穂町","address":"東京都西多摩郡瑞穂町大字箱根ケ崎1180番地","lat":35.780904,"lon":139.337175},{"name":"武蔵野コミュニティセンター図書室","province":"東京都","city":"西多摩郡瑞穂町","address":"東京都西多摩郡瑞穂町むさし野1丁目5番地","lat":35.761579,"lon":139.339685},{"name":"殿ケ谷図書室","province":"東京都","city":"西多摩郡瑞穂町","address":"東京都西多摩郡瑞穂町大字殿ケ谷988番地","lat":35.765227,"lon":139.363772},{"name":"あすなろ児童館","province":"東京都","city":"西多摩郡瑞穂町","address":"西多摩郡瑞穂町大字石畑1837","lat":35.76949,"lon":139.35609},{"name":"＊?元狭山ふるさと思い出館図書室","province":"東京都","city":"西多摩郡瑞穂町","address":"瑞穂町二本木710","lat":35.789626,"lon":139.354843},{"name":"＊?殿ケ谷図書室","province":"東京都","city":"西多摩郡瑞穂町","address":"瑞穂町殿ケ谷988","lat":35.765225,"lon":139.363774},{"name":"＊?長岡コミュニティセンター図書室","province":"東京都","city":"西多摩郡瑞穂町","address":"瑞穂町箱根ケ崎1180番地長岡コミュニティセンター内","lat":35.780933,"lon":139.337174},{"name":"＊?瑞穂町図書館","province":"東京都","city":"西多摩郡瑞穂町","address":"瑞穂町石畑1962","lat":35.774735,"lon":139.356719},{"name":"＊?武蔵野コミュニティーセンター図書室","province":"東京都","city":"西多摩郡瑞穂町","address":"瑞穂町むさし野1-5瑞穂アパート27号棟武蔵野コミュニティセンター内","lat":35.76158,"lon":139.339706},{"name":"あすなろ児童館","province":"東京都","city":"西多摩郡瑞穂町","address":"西多摩郡瑞穂町大字石畑1837","lat":35.769353,"lon":139.356193},{"name":"瑞穂町図書館","province":"東京都","city":"西多摩郡瑞穂町","address":"東京都西多摩郡瑞穂町大字石畑1962番地","lat":35.77475,"lon":139.356734},{"name":"元狭山ふるさと思い出館図書室","province":"東京都","city":"西多摩郡瑞穂町","address":"東京都西多摩郡瑞穂町大字二本木710番地","lat":35.789608,"lon":139.354835},{"name":"長岡コミュニティセンター図書室","province":"東京都","city":"西多摩郡瑞穂町","address":"東京都西多摩郡瑞穂町大字箱根ケ崎1180番地","lat":35.780904,"lon":139.337175},{"name":"武蔵野コミュニティセンター図書室","province":"東京都","city":"西多摩郡瑞穂町","address":"東京都西多摩郡瑞穂町むさし野1丁目5番地","lat":35.761579,"lon":139.339685},{"name":"殿ケ谷図書室","province":"東京都","city":"西多摩郡瑞穂町","address":"東京都西多摩郡瑞穂町大字殿ケ谷988番地","lat":35.765227,"lon":139.363772},{"name":"あすなろ児童館","province":"東京都","city":"西多摩郡瑞穂町","address":"西多摩郡瑞穂町大字石畑1837","lat":35.76949,"lon":139.35609},{"name":"＊?元狭山ふるさと思い出館図書室","province":"東京都","city":"西多摩郡瑞穂町","address":"瑞穂町二本木710","lat":35.789626,"lon":139.354843},{"name":"＊?殿ケ谷図書室","province":"東京都","city":"西多摩郡瑞穂町","address":"瑞穂町殿ケ谷988","lat":35.765225,"lon":139.363774},{"name":"＊?長岡コミュニティセンター図書室","province":"東京都","city":"西多摩郡瑞穂町","address":"瑞穂町箱根ケ崎1180番地長岡コミュニティセンター内","lat":35.780933,"lon":139.337174},{"name":"＊?瑞穂町図書館","province":"東京都","city":"西多摩郡瑞穂町","address":"瑞穂町石畑1962","lat":35.774735,"lon":139.356719},{"name":"＊?武蔵野コミュニティーセンター図書室","province":"東京都","city":"西多摩郡瑞穂町","address":"瑞穂町むさし野1-5瑞穂アパート27号棟武蔵野コミュニティセンター内","lat":35.76158,"lon":139.339706},{"name":"あすなろ児童館","province":"東京都","city":"西多摩郡瑞穂町","address":"西多摩郡瑞穂町大字石畑1837","lat":35.769353,"lon":139.356193},{"name":"瑞穂町図書館","province":"東京都","city":"西多摩郡瑞穂町","address":"東京都西多摩郡瑞穂町大字石畑1962番地","lat":35.77475,"lon":139.356734},{"name":"元狭山ふるさと思い出館図書室","province":"東京都","city":"西多摩郡瑞穂町","address":"東京都西多摩郡瑞穂町大字二本木710番地","lat":35.789608,"lon":139.354835},{"name":"長岡コミュニティセンター図書室","province":"東京都","city":"西多摩郡瑞穂町","address":"東京都西多摩郡瑞穂町大字箱根ケ崎1180番地","lat":35.780904,"lon":139.337175},{"name":"武蔵野コミュニティセンター図書室","province":"東京都","city":"西多摩郡瑞穂町","address":"東京都西多摩郡瑞穂町むさし野1丁目5番地","lat":35.761579,"lon":139.339685},{"name":"殿ケ谷図書室","province":"東京都","city":"西多摩郡瑞穂町","address":"東京都西多摩郡瑞穂町大字殿ケ谷988番地","lat":35.765227,"lon":139.363772},{"name":"あすなろ児童館","province":"東京都","city":"西多摩郡瑞穂町","address":"西多摩郡瑞穂町大字石畑1837","lat":35.76949,"lon":139.35609},{"name":"＊?元狭山ふるさと思い出館図書室","province":"東京都","city":"西多摩郡瑞穂町","address":"瑞穂町二本木710","lat":35.789626,"lon":139.354843},{"name":"＊?殿ケ谷図書室","province":"東京都","city":"西多摩郡瑞穂町","address":"瑞穂町殿ケ谷988","lat":35.765225,"lon":139.363774},{"name":"＊?長岡コミュニティセンター図書室","province":"東京都","city":"西多摩郡瑞穂町","address":"瑞穂町箱根ケ崎1180番地長岡コミュニティセンター内","lat":35.780933,"lon":139.337174},{"name":"＊?瑞穂町図書館","province":"東京都","city":"西多摩郡瑞穂町","address":"瑞穂町石畑1962","lat":35.774735,"lon":139.356719},{"name":"＊?武蔵野コミュニティーセンター図書室","province":"東京都","city":"西多摩郡瑞穂町","address":"瑞穂町むさし野1-5瑞穂アパート27号棟武蔵野コミュニティセンター内","lat":35.76158,"lon":139.339706},{"name":"あすなろ児童館","province":"東京都","city":"西多摩郡瑞穂町","address":"西多摩郡瑞穂町大字石畑1837","lat":35.769353,"lon":139.356193},{"name":"瑞穂町図書館","province":"東京都","city":"西多摩郡瑞穂町","address":"東京都西多摩郡瑞穂町大字石畑1962番地","lat":35.77475,"lon":139.356734},{"name":"元狭山ふるさと思い出館図書室","province":"東京都","city":"西多摩郡瑞穂町","address":"東京都西多摩郡瑞穂町大字二本木710番地","lat":35.789608,"lon":139.354835},{"name":"長岡コミュニティセンター図書室","province":"東京都","city":"西多摩郡瑞穂町","address":"東京都西多摩郡瑞穂町大字箱根ケ崎1180番地","lat":35.780904,"lon":139.337175},{"name":"武蔵野コミュニティセンター図書室","province":"東京都","city":"西多摩郡瑞穂町","address":"東京都西多摩郡瑞穂町むさし野1丁目5番地","lat":35.761579,"lon":139.339685},{"name":"殿ケ谷図書室","province":"東京都","city":"西多摩郡瑞穂町","address":"東京都西多摩郡瑞穂町大字殿ケ谷988番地","lat":35.765227,"lon":139.363772},{"name":"あすなろ児童館","province":"東京都","city":"西多摩郡瑞穂町","address":"西多摩郡瑞穂町大字石畑1837","lat":35.76949,"lon":139.35609},{"name":"＊?元狭山ふるさと思い出館図書室","province":"東京都","city":"西多摩郡瑞穂町","address":"瑞穂町二本木710","lat":35.789626,"lon":139.354843},{"name":"＊?殿ケ谷図書室","province":"東京都","city":"西多摩郡瑞穂町","address":"瑞穂町殿ケ谷988","lat":35.765225,"lon":139.363774},{"name":"＊?長岡コミュニティセンター図書室","province":"東京都","city":"西多摩郡瑞穂町","address":"瑞穂町箱根ケ崎1180番地長岡コミュニティセンター内","lat":35.780933,"lon":139.337174},{"name":"＊?瑞穂町図書館","province":"東京都","city":"西多摩郡瑞穂町","address":"瑞穂町石畑1962","lat":35.774735,"lon":139.356719},{"name":"＊?武蔵野コミュニティーセンター図書室","province":"東京都","city":"西多摩郡瑞穂町","address":"瑞穂町むさし野1-5瑞穂アパート27号棟武蔵野コミュニティセンター内","lat":35.76158,"lon":139.339706},{"name":"あすなろ児童館","province":"東京都","city":"西多摩郡瑞穂町","address":"西多摩郡瑞穂町大字石畑1837","lat":35.769353,"lon":139.356193},{"name":"瑞穂町図書館","province":"東京都","city":"西多摩郡瑞穂町","address":"東京都西多摩郡瑞穂町大字石畑1962番地","lat":35.77475,"lon":139.356734},{"name":"元狭山ふるさと思い出館図書室","province":"東京都","city":"西多摩郡瑞穂町","address":"東京都西多摩郡瑞穂町大字二本木710番地","lat":35.789608,"lon":139.354835},{"name":"長岡コミュニティセンター図書室","province":"東京都","city":"西多摩郡瑞穂町","address":"東京都西多摩郡瑞穂町大字箱根ケ崎1180番地","lat":35.780904,"lon":139.337175},{"name":"武蔵野コミュニティセンター図書室","province":"東京都","city":"西多摩郡瑞穂町","address":"東京都西多摩郡瑞穂町むさし野1丁目5番地","lat":35.761579,"lon":139.339685},{"name":"殿ケ谷図書室","province":"東京都","city":"西多摩郡瑞穂町","address":"東京都西多摩郡瑞穂町大字殿ケ谷988番地","lat":35.765227,"lon":139.363772},{"name":"あすなろ児童館","province":"東京都","city":"西多摩郡瑞穂町","address":"西多摩郡瑞穂町大字石畑1837","lat":35.76949,"lon":139.35609},{"name":"＊?元狭山ふるさと思い出館図書室","province":"東京都","city":"西多摩郡瑞穂町","address":"瑞穂町二本木710","lat":35.789626,"lon":139.354843},{"name":"＊?殿ケ谷図書室","province":"東京都","city":"西多摩郡瑞穂町","address":"瑞穂町殿ケ谷988","lat":35.765225,"lon":139.363774},{"name":"＊?長岡コミュニティセンター図書室","province":"東京都","city":"西多摩郡瑞穂町","address":"瑞穂町箱根ケ崎1180番地長岡コミュニティセンター内","lat":35.780933,"lon":139.337174},{"name":"＊?瑞穂町図書館","province":"東京都","city":"西多摩郡瑞穂町","address":"瑞穂町石畑1962","lat":35.774735,"lon":139.356719},{"name":"＊?武蔵野コミュニティーセンター図書室","province":"東京都","city":"西多摩郡瑞穂町","address":"瑞穂町むさし野1-5瑞穂アパート27号棟武蔵野コミュニティセンター内","lat":35.76158,"lon":139.339706},{"name":"あすなろ児童館","province":"東京都","city":"西多摩郡瑞穂町","address":"西多摩郡瑞穂町大字石畑1837","lat":35.769353,"lon":139.356193},{"name":"瑞穂町図書館","province":"東京都","city":"西多摩郡瑞穂町","address":"東京都西多摩郡瑞穂町大字石畑1962番地","lat":35.77475,"lon":139.356734},{"name":"元狭山ふるさと思い出館図書室","province":"東京都","city":"西多摩郡瑞穂町","address":"東京都西多摩郡瑞穂町大字二本木710番地","lat":35.789608,"lon":139.354835},{"name":"長岡コミュニティセンター図書室","province":"東京都","city":"西多摩郡瑞穂町","address":"東京都西多摩郡瑞穂町大字箱根ケ崎1180番地","lat":35.780904,"lon":139.337175},{"name":"武蔵野コミュニティセンター図書室","province":"東京都","city":"西多摩郡瑞穂町","address":"東京都西多摩郡瑞穂町むさし野1丁目5番地","lat":35.761579,"lon":139.339685},{"name":"殿ケ谷図書室","province":"東京都","city":"西多摩郡瑞穂町","address":"東京都西多摩郡瑞穂町大字殿ケ谷988番地","lat":35.765227,"lon":139.363772},{"name":"あすなろ児童館","province":"東京都","city":"西多摩郡瑞穂町","address":"西多摩郡瑞穂町大字石畑1837","lat":35.76949,"lon":139.35609},{"name":"＊?元狭山ふるさと思い出館図書室","province":"東京都","city":"西多摩郡瑞穂町","address":"瑞穂町二本木710","lat":35.789626,"lon":139.354843},{"name":"＊?殿ケ谷図書室","province":"東京都","city":"西多摩郡瑞穂町","address":"瑞穂町殿ケ谷988","lat":35.765225,"lon":139.363774},{"name":"＊?長岡コミュニティセンター図書室","province":"東京都","city":"西多摩郡瑞穂町","address":"瑞穂町箱根ケ崎1180番地長岡コミュニティセンター内","lat":35.780933,"lon":139.337174},{"name":"＊?瑞穂町図書館","province":"東京都","city":"西多摩郡瑞穂町","address":"瑞穂町石畑1962","lat":35.774735,"lon":139.356719},{"name":"＊?武蔵野コミュニティーセンター図書室","province":"東京都","city":"西多摩郡瑞穂町","address":"瑞穂町むさし野1-5瑞穂アパート27号棟武蔵野コミュニティセンター内","lat":35.76158,"lon":139.339706},{"name":"あすなろ児童館","province":"東京都","city":"西多摩郡瑞穂町","address":"西多摩郡瑞穂町大字石畑1837","lat":35.769353,"lon":139.356193},{"name":"瑞穂町図書館","province":"東京都","city":"西多摩郡瑞穂町","address":"東京都西多摩郡瑞穂町大字石畑1962番地","lat":35.77475,"lon":139.356734},{"name":"元狭山ふるさと思い出館図書室","province":"東京都","city":"西多摩郡瑞穂町","address":"東京都西多摩郡瑞穂町大字二本木710番地","lat":35.789608,"lon":139.354835},{"name":"長岡コミュニティセンター図書室","province":"東京都","city":"西多摩郡瑞穂町","address":"東京都西多摩郡瑞穂町大字箱根ケ崎1180番地","lat":35.780904,"lon":139.337175},{"name":"武蔵野コミュニティセンター図書室","province":"東京都","city":"西多摩郡瑞穂町","address":"東京都西多摩郡瑞穂町むさし野1丁目5番地","lat":35.761579,"lon":139.339685},{"name":"殿ケ谷図書室","province":"東京都","city":"西多摩郡瑞穂町","address":"東京都西多摩郡瑞穂町大字殿ケ谷988番地","lat":35.765227,"lon":139.363772},{"name":"あすなろ児童館","province":"東京都","city":"西多摩郡瑞穂町","address":"西多摩郡瑞穂町大字石畑1837","lat":35.76949,"lon":139.35609},{"name":"＊?元狭山ふるさと思い出館図書室","province":"東京都","city":"西多摩郡瑞穂町","address":"瑞穂町二本木710","lat":35.789626,"lon":139.354843},{"name":"＊?殿ケ谷図書室","province":"東京都","city":"西多摩郡瑞穂町","address":"瑞穂町殿ケ谷988","lat":35.765225,"lon":139.363774},{"name":"＊?長岡コミュニティセンター図書室","province":"東京都","city":"西多摩郡瑞穂町","address":"瑞穂町箱根ケ崎1180番地長岡コミュニティセンター内","lat":35.780933,"lon":139.337174},{"name":"＊?瑞穂町図書館","province":"東京都","city":"西多摩郡瑞穂町","address":"瑞穂町石畑1962","lat":35.774735,"lon":139.356719},{"name":"＊?武蔵野コミュニティーセンター図書室","province":"東京都","city":"西多摩郡瑞穂町","address":"瑞穂町むさし野1-5瑞穂アパート27号棟武蔵野コミュニティセンター内","lat":35.76158,"lon":139.339706},{"name":"あすなろ児童館","province":"東京都","city":"西多摩郡瑞穂町","address":"西多摩郡瑞穂町大字石畑1837","lat":35.769353,"lon":139.356193},{"name":"瑞穂町図書館","province":"東京都","city":"西多摩郡瑞穂町","address":"東京都西多摩郡瑞穂町大字石畑1962番地","lat":35.77475,"lon":139.356734},{"name":"元狭山ふるさと思い出館図書室","province":"東京都","city":"西多摩郡瑞穂町","address":"東京都西多摩郡瑞穂町大字二本木710番地","lat":35.789608,"lon":139.354835},{"name":"長岡コミュニティセンター図書室","province":"東京都","city":"西多摩郡瑞穂町","address":"東京都西多摩郡瑞穂町大字箱根ケ崎1180番地","lat":35.780904,"lon":139.337175},{"name":"武蔵野コミュニティセンター図書室","province":"東京都","city":"西多摩郡瑞穂町","address":"東京都西多摩郡瑞穂町むさし野1丁目5番地","lat":35.761579,"lon":139.339685},{"name":"殿ケ谷図書室","province":"東京都","city":"西多摩郡瑞穂町","address":"東京都西多摩郡瑞穂町大字殿ケ谷988番地","lat":35.765227,"lon":139.363772},{"name":"あすなろ児童館","province":"東京都","city":"西多摩郡瑞穂町","address":"西多摩郡瑞穂町大字石畑1837","lat":35.76949,"lon":139.35609},{"name":"＊?元狭山ふるさと思い出館図書室","province":"東京都","city":"西多摩郡瑞穂町","address":"瑞穂町二本木710","lat":35.789626,"lon":139.354843},{"name":"＊?殿ケ谷図書室","province":"東京都","city":"西多摩郡瑞穂町","address":"瑞穂町殿ケ谷988","lat":35.765225,"lon":139.363774},{"name":"＊?長岡コミュニティセンター図書室","province":"東京都","city":"西多摩郡瑞穂町","address":"瑞穂町箱根ケ崎1180番地長岡コミュニティセンター内","lat":35.780933,"lon":139.337174},{"name":"＊?瑞穂町図書館","province":"東京都","city":"西多摩郡瑞穂町","address":"瑞穂町石畑1962","lat":35.774735,"lon":139.356719},{"name":"＊?武蔵野コミュニティーセンター図書室","province":"東京都","city":"西多摩郡瑞穂町","address":"瑞穂町むさし野1-5瑞穂アパート27号棟武蔵野コミュニティセンター内","lat":35.76158,"lon":139.339706},{"name":"あすなろ児童館","province":"東京都","city":"西多摩郡瑞穂町","address":"西多摩郡瑞穂町大字石畑1837","lat":35.769353,"lon":139.356193},{"name":"瑞穂町図書館","province":"東京都","city":"西多摩郡瑞穂町","address":"東京都西多摩郡瑞穂町大字石畑1962番地","lat":35.77475,"lon":139.356734},{"name":"元狭山ふるさと思い出館図書室","province":"東京都","city":"西多摩郡瑞穂町","address":"東京都西多摩郡瑞穂町大字二本木710番地","lat":35.789608,"lon":139.354835},{"name":"長岡コミュニティセンター図書室","province":"東京都","city":"西多摩郡瑞穂町","address":"東京都西多摩郡瑞穂町大字箱根ケ崎1180番地","lat":35.780904,"lon":139.337175},{"name":"武蔵野コミュニティセンター図書室","province":"東京都","city":"西多摩郡瑞穂町","address":"東京都西多摩郡瑞穂町むさし野1丁目5番地","lat":35.761579,"lon":139.339685},{"name":"殿ケ谷図書室","province":"東京都","city":"西多摩郡瑞穂町","address":"東京都西多摩郡瑞穂町大字殿ケ谷988番地","lat":35.765227,"lon":139.363772},{"name":"あすなろ児童館","province":"東京都","city":"西多摩郡瑞穂町","address":"西多摩郡瑞穂町大字石畑1837","lat":35.76949,"lon":139.35609},{"name":"＊?元狭山ふるさと思い出館図書室","province":"東京都","city":"西多摩郡瑞穂町","address":"瑞穂町二本木710","lat":35.789626,"lon":139.354843},{"name":"＊?殿ケ谷図書室","province":"東京都","city":"西多摩郡瑞穂町","address":"瑞穂町殿ケ谷988","lat":35.765225,"lon":139.363774},{"name":"＊?長岡コミュニティセンター図書室","province":"東京都","city":"西多摩郡瑞穂町","address":"瑞穂町箱根ケ崎1180番地長岡コミュニティセンター内","lat":35.780933,"lon":139.337174},{"name":"＊?瑞穂町図書館","province":"東京都","city":"西多摩郡瑞穂町","address":"瑞穂町石畑1962","lat":35.774735,"lon":139.356719},{"name":"＊?武蔵野コミュニティーセンター図書室","province":"東京都","city":"西多摩郡瑞穂町","address":"瑞穂町むさし野1-5瑞穂アパート27号棟武蔵野コミュニティセンター内","lat":35.76158,"lon":139.339706},{"name":"あすなろ児童館","province":"東京都","city":"西多摩郡瑞穂町","address":"西多摩郡瑞穂町大字石畑1837","lat":35.769353,"lon":139.356193},{"name":"瑞穂町図書館","province":"東京都","city":"西多摩郡瑞穂町","address":"東京都西多摩郡瑞穂町大字石畑1962番地","lat":35.77475,"lon":139.356734},{"name":"元狭山ふるさと思い出館図書室","province":"東京都","city":"西多摩郡瑞穂町","address":"東京都西多摩郡瑞穂町大字二本木710番地","lat":35.789608,"lon":139.354835},{"name":"長岡コミュニティセンター図書室","province":"東京都","city":"西多摩郡瑞穂町","address":"東京都西多摩郡瑞穂町大字箱根ケ崎1180番地","lat":35.780904,"lon":139.337175},{"name":"武蔵野コミュニティセンター図書室","province":"東京都","city":"西多摩郡瑞穂町","address":"東京都西多摩郡瑞穂町むさし野1丁目5番地","lat":35.761579,"lon":139.339685},{"name":"殿ケ谷図書室","province":"東京都","city":"西多摩郡瑞穂町","address":"東京都西多摩郡瑞穂町大字殿ケ谷988番地","lat":35.765227,"lon":139.363772},{"name":"あすなろ児童館","province":"東京都","city":"西多摩郡瑞穂町","address":"西多摩郡瑞穂町大字石畑1837","lat":35.76949,"lon":139.35609},{"name":"＊?元狭山ふるさと思い出館図書室","province":"東京都","city":"西多摩郡瑞穂町","address":"瑞穂町二本木710","lat":35.789626,"lon":139.354843},{"name":"＊?殿ケ谷図書室","province":"東京都","city":"西多摩郡瑞穂町","address":"瑞穂町殿ケ谷988","lat":35.765225,"lon":139.363774},{"name":"＊?長岡コミュニティセンター図書室","province":"東京都","city":"西多摩郡瑞穂町","address":"瑞穂町箱根ケ崎1180番地長岡コミュニティセンター内","lat":35.780933,"lon":139.337174},{"name":"＊?瑞穂町図書館","province":"東京都","city":"西多摩郡瑞穂町","address":"瑞穂町石畑1962","lat":35.774735,"lon":139.356719},{"name":"＊?武蔵野コミュニティーセンター図書室","province":"東京都","city":"西多摩郡瑞穂町","address":"瑞穂町むさし野1-5瑞穂アパート27号棟武蔵野コミュニティセンター内","lat":35.76158,"lon":139.339706},{"name":"あすなろ児童館","province":"東京都","city":"西多摩郡瑞穂町","address":"西多摩郡瑞穂町大字石畑1837","lat":35.769353,"lon":139.356193},{"name":"瑞穂町図書館","province":"東京都","city":"西多摩郡瑞穂町","address":"東京都西多摩郡瑞穂町大字石畑1962番地","lat":35.77475,"lon":139.356734},{"name":"元狭山ふるさと思い出館図書室","province":"東京都","city":"西多摩郡瑞穂町","address":"東京都西多摩郡瑞穂町大字二本木710番地","lat":35.789608,"lon":139.354835},{"name":"長岡コミュニティセンター図書室","province":"東京都","city":"西多摩郡瑞穂町","address":"東京都西多摩郡瑞穂町大字箱根ケ崎1180番地","lat":35.780904,"lon":139.337175},{"name":"武蔵野コミュニティセンター図書室","province":"東京都","city":"西多摩郡瑞穂町","address":"東京都西多摩郡瑞穂町むさし野1丁目5番地","lat":35.761579,"lon":139.339685},{"name":"殿ケ谷図書室","province":"東京都","city":"西多摩郡瑞穂町","address":"東京都西多摩郡瑞穂町大字殿ケ谷988番地","lat":35.765227,"lon":139.363772},{"name":"あすなろ児童館","province":"東京都","city":"西多摩郡瑞穂町","address":"西多摩郡瑞穂町大字石畑1837","lat":35.76949,"lon":139.35609},{"name":"＊?元狭山ふるさと思い出館図書室","province":"東京都","city":"西多摩郡瑞穂町","address":"瑞穂町二本木710","lat":35.789626,"lon":139.354843},{"name":"＊?殿ケ谷図書室","province":"東京都","city":"西多摩郡瑞穂町","address":"瑞穂町殿ケ谷988","lat":35.765225,"lon":139.363774},{"name":"＊?長岡コミュニティセンター図書室","province":"東京都","city":"西多摩郡瑞穂町","address":"瑞穂町箱根ケ崎1180番地長岡コミュニティセンター内","lat":35.780933,"lon":139.337174},{"name":"＊?瑞穂町図書館","province":"東京都","city":"西多摩郡瑞穂町","address":"瑞穂町石畑1962","lat":35.774735,"lon":139.356719},{"name":"＊?武蔵野コミュニティーセンター図書室","province":"東京都","city":"西多摩郡瑞穂町","address":"瑞穂町むさし野1-5瑞穂アパート27号棟武蔵野コミュニティセンター内","lat":35.76158,"lon":139.339706},{"name":"あすなろ児童館","province":"東京都","city":"西多摩郡瑞穂町","address":"西多摩郡瑞穂町大字石畑1837","lat":35.769353,"lon":139.356193},{"name":"瑞穂町図書館","province":"東京都","city":"西多摩郡瑞穂町","address":"東京都西多摩郡瑞穂町大字石畑1962番地","lat":35.77475,"lon":139.356734},{"name":"元狭山ふるさと思い出館図書室","province":"東京都","city":"西多摩郡瑞穂町","address":"東京都西多摩郡瑞穂町大字二本木710番地","lat":35.789608,"lon":139.354835},{"name":"長岡コミュニティセンター図書室","province":"東京都","city":"西多摩郡瑞穂町","address":"東京都西多摩郡瑞穂町大字箱根ケ崎1180番地","lat":35.780904,"lon":139.337175},{"name":"武蔵野コミュニティセンター図書室","province":"東京都","city":"西多摩郡瑞穂町","address":"東京都西多摩郡瑞穂町むさし野1丁目5番地","lat":35.761579,"lon":139.339685},{"name":"殿ケ谷図書室","province":"東京都","city":"西多摩郡瑞穂町","address":"東京都西多摩郡瑞穂町大字殿ケ谷988番地","lat":35.765227,"lon":139.363772},{"name":"あすなろ児童館","province":"東京都","city":"西多摩郡瑞穂町","address":"西多摩郡瑞穂町大字石畑1837","lat":35.76949,"lon":139.35609},{"name":"＊?元狭山ふるさと思い出館図書室","province":"東京都","city":"西多摩郡瑞穂町","address":"瑞穂町二本木710","lat":35.789626,"lon":139.354843},{"name":"＊?殿ケ谷図書室","province":"東京都","city":"西多摩郡瑞穂町","address":"瑞穂町殿ケ谷988","lat":35.765225,"lon":139.363774},{"name":"＊?長岡コミュニティセンター図書室","province":"東京都","city":"西多摩郡瑞穂町","address":"瑞穂町箱根ケ崎1180番地長岡コミュニティセンター内","lat":35.780933,"lon":139.337174},{"name":"＊?瑞穂町図書館","province":"東京都","city":"西多摩郡瑞穂町","address":"瑞穂町石畑1962","lat":35.774735,"lon":139.356719},{"name":"＊?武蔵野コミュニティーセンター図書室","province":"東京都","city":"西多摩郡瑞穂町","address":"瑞穂町むさし野1-5瑞穂アパート27号棟武蔵野コミュニティセンター内","lat":35.76158,"lon":139.339706},{"name":"あすなろ児童館","province":"東京都","city":"西多摩郡瑞穂町","address":"西多摩郡瑞穂町大字石畑1837","lat":35.769353,"lon":139.356193},{"name":"瑞穂町図書館","province":"東京都","city":"西多摩郡瑞穂町","address":"東京都西多摩郡瑞穂町大字石畑1962番地","lat":35.77475,"lon":139.356734},{"name":"元狭山ふるさと思い出館図書室","province":"東京都","city":"西多摩郡瑞穂町","address":"東京都西多摩郡瑞穂町大字二本木710番地","lat":35.789608,"lon":139.354835},{"name":"長岡コミュニティセンター図書室","province":"東京都","city":"西多摩郡瑞穂町","address":"東京都西多摩郡瑞穂町大字箱根ケ崎1180番地","lat":35.780904,"lon":139.337175},{"name":"武蔵野コミュニティセンター図書室","province":"東京都","city":"西多摩郡瑞穂町","address":"東京都西多摩郡瑞穂町むさし野1丁目5番地","lat":35.761579,"lon":139.339685},{"name":"殿ケ谷図書室","province":"東京都","city":"西多摩郡瑞穂町","address":"東京都西多摩郡瑞穂町大字殿ケ谷988番地","lat":35.765227,"lon":139.363772},{"name":"あすなろ児童館","province":"東京都","city":"西多摩郡瑞穂町","address":"西多摩郡瑞穂町大字石畑1837","lat":35.76949,"lon":139.35609},{"name":"＊?元狭山ふるさと思い出館図書室","province":"東京都","city":"西多摩郡瑞穂町","address":"瑞穂町二本木710","lat":35.789626,"lon":139.354843},{"name":"＊?殿ケ谷図書室","province":"東京都","city":"西多摩郡瑞穂町","address":"瑞穂町殿ケ谷988","lat":35.765225,"lon":139.363774},{"name":"＊?長岡コミュニティセンター図書室","province":"東京都","city":"西多摩郡瑞穂町","address":"瑞穂町箱根ケ崎1180番地長岡コミュニティセンター内","lat":35.780933,"lon":139.337174},{"name":"＊?瑞穂町図書館","province":"東京都","city":"西多摩郡瑞穂町","address":"瑞穂町石畑1962","lat":35.774735,"lon":139.356719},{"name":"＊?武蔵野コミュニティーセンター図書室","province":"東京都","city":"西多摩郡瑞穂町","address":"瑞穂町むさし野1-5瑞穂アパート27号棟武蔵野コミュニティセンター内","lat":35.76158,"lon":139.339706}]}