{"keyword":"館","data":[{"name":"あすなろ児童館","province":"東京都","city":"西多摩郡瑞穂町","address":"西多摩郡瑞穂町大字石畑1837","lat":35.769353,"lon":139.356193},{"name":"瑞穂町図書館","province":"東京都","city":"西多摩郡瑞穂町","address":"東京都西多摩郡瑞穂町大字石畑1962番地","lat":35.77475,"lon":139.356734},{"name":"元狭山ふるさと思い出館図書室","province":"東京都","city":"西多摩郡瑞穂町","address":"東京都西多摩郡瑞穂町大字二本木710番地","lat":35.789608,"lon":139.354835},{"name":"長岡コミュニティセンター図書室","province":"東京都","city":"西多摩郡瑞穂町","address":"東京都西多摩郡瑞穂町大字箱根ケ崎1180番地","lat":35.780904,"lon":139.337175},{"name":"武蔵野コミュニティセンター図書室","province":"東京都","city":"西多摩郡瑞穂町","address":"東京都西多摩郡瑞穂町むさし野1丁目5番地","lat":35.761579,"lon":139.339685},{"name":"殿ケ谷図書室","province":"東京都","city":"西多摩郡瑞穂町","address":"東京都西多摩郡瑞穂町大字殿ケ谷988番地","lat":35.765227,"lon":139.363772},{"name":"あすなろ児童館","province":"東京都","city":"西多摩郡瑞穂町","address":"西多摩郡瑞穂町大字石畑1837","lat":35.76949,"lon":139.35609},{"name":"＊?元狭山ふるさと思い出館図書室","province":"東京都","city":"西多摩郡瑞穂町","address":"瑞穂町二本木710","lat":35.789626,"lon":139.354843},{"name":"＊?殿ケ谷図書室","province":"東京都","city":"西多摩郡瑞穂町","address":"瑞穂町殿ケ谷988","lat":35.765225,"lon":139.363774},{"name":"＊?長岡コミュニティセンター図書室","province":"東京都","city":"西多摩郡瑞穂町","address":"瑞穂町箱根ケ崎1180番地長岡コミュニティセンター内","lat":35.780933,"lon":139.337174},{"name":"＊?瑞穂町図書館","province":"東京都","city":"西多摩郡瑞穂町","address":"瑞穂町石畑1962","lat":35.774735,"lon":139.356719},{"name":"＊?武蔵野コミュニティーセンター図書室","province":"東京都","city":"西多摩郡瑞穂町","address":"瑞穂町むさし野1-5瑞穂アパート27号棟武蔵野コミュニティセンター内","lat":35.76158,"lon":139.339706}]}