{"keyword":"国分寺","data":[{"name":"もとまち公民館","province":"東京都","city":"国分寺市","address":"国分寺市東元町2-3-13","lat":35.692352,"lon":139.483459},{"name":"光公民館","province":"東京都","city":"国分寺市","address":"国分寺市光町3-13-19","lat":35.708,"lon":139.442963},{"name":"並木公民館","province":"東京都","city":"国分寺市","address":"国分寺市並木町2-12-3","lat":35.715721,"lon":139.453232},{"name":"本多公民館","province":"東京都","city":"国分寺市","address":"国分寺市本多1-7-1","lat":35.705498,"lon":139.482574},{"name":"恋ケ窪公民館","province":"東京都","city":"国分寺市","address":"国分寺市西恋ヶ窪4-12-8","lat":35.707253,"lon":139.464539},{"name":"もとまち図書館","province":"東京都","city":"国分寺市","address":"国分寺市東元町2-3-13","lat":35.692352,"lon":139.483459},{"name":"光図書館","province":"東京都","city":"国分寺市","address":"国分寺市光町3-13-19","lat":35.708,"lon":139.442963},{"name":"並木図書館","province":"東京都","city":"国分寺市","address":"国分寺市並木町2-12-3","lat":35.715721,"lon":139.453232},{"name":"本多図書館","province":"東京都","city":"国分寺市","address":"国分寺市本多1-7-1","lat":35.705498,"lon":139.482574},{"name":"本多図書館駅前分館","province":"東京都","city":"国分寺市","address":"国分寺市本町4-1-9国分寺本町クリスタルビル4階","lat":35.700802,"lon":139.48468},{"name":"恋ケ窪図書館","province":"東京都","city":"国分寺市","address":"国分寺市西恋ケ窪4-12-8","lat":35.707253,"lon":139.464539},{"name":"国分寺市民俗資料室","province":"東京都","city":"国分寺市","address":"国分寺市本多5-24-11","lat":35.706345,"lon":139.48494},{"name":"武蔵国分寺跡資料館","province":"東京都","city":"国分寺市","address":"国分寺市西元町1-13-10","lat":35.693268,"lon":139.473175},{"name":"男女平等推進センター（ライツこくぶんじ）","province":"東京都","city":"国分寺市","address":"国分寺市光町1-46-8","lat":35.702618,"lon":139.444641},{"name":"いずみホール","province":"東京都","city":"国分寺市","address":"国分寺市泉町3-36-12","lat":35.698803,"lon":139.465012},{"name":"教育センター（ひかりプラザ）","province":"東京都","city":"国分寺市","address":"国分寺市光町1-46-8","lat":35.702618,"lon":139.444641},{"name":"文化財資料展示室","province":"東京都","city":"国分寺市","address":"国分寺市西元町3-10-17","lat":35.690262,"lon":139.471466}]}