{"keyword":"リサイクル","data":[{"name":"練馬区立春日町リサイクルセンター","province":"東京都","city":"練馬区","address":"練馬区春日町2-14-16","lat":35.7560064,"lon":139.6478929},{"name":"練馬区立関町リサイクルセンター","province":"東京都","city":"練馬区","address":"練馬区関町北1-7-14","lat":35.72500107,"lon":139.5779479},{"name":"練馬区立豊玉リサイクルセンター","province":"東京都","city":"練馬区","address":"練馬区豊玉上2-22-15","lat":35.73704187,"lon":139.6602984},{"name":"練馬区立大泉リサイクルセンター","province":"東京都","city":"練馬区","address":"練馬区大泉学園町1-34-10","lat":35.76306953,"lon":139.5909239},{"name":"墨田清掃工場","province":"東京都","city":"墨田区","address":"墨田区東墨田一丁目10番23号","lat":35.717483,"lon":139.831816},{"name":"すみだリサイクルセンター","province":"東京都","city":"墨田区","address":"墨田区横川五丁目10番1号111号室","lat":35.705993,"lon":139.816348},{"name":"エコプラザ","province":"東京都","city":"港区","address":"港区浜松町一丁目13番1号","lat":35.658833,"lon":139.756852,"URL":"<a href='https://www.city.minato.tokyo.jp/shisetsu/kankyo/kankyo/01.html' target='_blank'>https://www.city.minato.tokyo.jp/shisetsu/kankyo/kankyo/01.html</a>","分類":"環境施設","地区":"芝地区","連絡先":"電話:03-5404-7764 ファックス:03-5404-7765"},{"name":"みなとリサイクル清掃事務所","province":"東京都","city":"港区","address":"港区港南三丁目9番59号","lat":35.634364,"lon":139.751329,"URL":"<a href='https://www.city.minato.tokyo.jp/shisetsu/kankyo/seso/01.html' target='_blank'>https://www.city.minato.tokyo.jp/shisetsu/kankyo/seso/01.html</a>","分類":"清掃・リサイクル施設","地区":"芝浦港南地区","連絡先":"電話:03-3450-8025 ファックス:03-3450-8063"},{"name":"港資源化センター","province":"東京都","city":"港区","address":"港区港南五丁目7番1号","lat":35.631227,"lon":139.757018,"URL":"<a href='https://www.city.minato.tokyo.jp/shisetsu/kankyo/seso/02.html' target='_blank'>https://www.city.minato.tokyo.jp/shisetsu/kankyo/seso/02.html</a>","分類":"清掃・リサイクル施設","地区":"芝浦港南地区","連絡先":""},{"name":"港清掃工場","province":"東京都","city":"港区","address":"港区港南五丁目7番1号","lat":35.631576,"lon":139.755846,"URL":"<a href='https://www.city.minato.tokyo.jp/shisetsu/kankyo/seso/03.html' target='_blank'>https://www.city.minato.tokyo.jp/shisetsu/kankyo/seso/03.html</a>","分類":"清掃・リサイクル施設","地区":"芝浦港南地区","連絡先":"電話:03-5479-5300"},{"name":"埋立処分場","province":"東京都","city":"江東区","address":"江東区青梅二丁目地先","lat":35.599811,"lon":139.809265,"URL":"<a href='https://www.city.minato.tokyo.jp/shisetsu/kankyo/seso/04.html' target='_blank'>https://www.city.minato.tokyo.jp/shisetsu/kankyo/seso/04.html</a>","分類":"清掃・リサイクル施設","地区":"港区外","連絡先":""},{"name":"芝浦清掃作業所","province":"東京都","city":"港区","address":"港区港南三丁目1番18号","lat":35.63509,"lon":139.75075,"URL":"<a href='https://www.city.minato.tokyo.jp/shisetsu/kankyo/seso/05.html' target='_blank'>https://www.city.minato.tokyo.jp/shisetsu/kankyo/seso/05.html</a>","分類":"清掃・リサイクル施設","地区":"芝浦港南地区","連絡先":""},{"name":"新堀粗大ごみ中継所","province":"東京都","city":"港区","address":"港区芝三丁目2番14号","lat":35.653484,"lon":139.746429,"URL":"<a href='https://www.city.minato.tokyo.jp/shisetsu/kankyo/seso/06.html' target='_blank'>https://www.city.minato.tokyo.jp/shisetsu/kankyo/seso/06.html</a>","分類":"清掃・リサイクル施設","地区":"芝地区","連絡先":""},{"name":"みなと区民の森作業小屋","province":"東京都","city":"あきる野市","address":"東京都あきる野市戸倉字刈寄谷2403-6","lat":35.710358,"lon":139.201748,"URL":"<a href='https://www.city.minato.tokyo.jp/shisetsu/kankyo/kankyo/02.html' target='_blank'>https://www.city.minato.tokyo.jp/shisetsu/kankyo/kankyo/02.html</a>","分類":"環境施設","地区":"港区外","連絡先":""}]}