{"keyword":"スポーツ","data":[{"name":"シビックホール","province":"東京都","city":"文京区","address":"東京都文京区春日1丁目16番21号","lat":35.7080649999999,"lon":139.752173999999},{"name":"アカデミー文京","province":"東京都","city":"文京区","address":"東京都文京区春日1丁目16番21号","lat":35.7080649999999,"lon":139.752173999999},{"name":"アカデミー向丘","province":"東京都","city":"文京区","address":"東京都文京区向丘1丁目20番8号","lat":35.7173349999999,"lon":139.75788},{"name":"アカデミー湯島","province":"東京都","city":"文京区","address":"東京都文京区湯島2丁目28番14号","lat":35.706572,"lon":139.766568},{"name":"アカデミー音羽","province":"東京都","city":"文京区","address":"東京都文京区大塚5丁目40番15号","lat":35.720094,"lon":139.725617999999},{"name":"アカデミー千石","province":"東京都","city":"文京区","address":"東京都文京区千石1丁目25番3号","lat":35.7275769999999,"lon":139.74375},{"name":"アカデミー茗台","province":"東京都","city":"文京区","address":"東京都文京区春日2丁目9番5号","lat":35.7135389999999,"lon":139.741205},{"name":"文京総合体育館","province":"東京都","city":"文京区","address":"東京都文京区本郷7丁目1番2号","lat":35.708382,"lon":139.76318},{"name":"文京スポーツセンター","province":"東京都","city":"文京区","address":"東京都文京区大塚3丁目29番2号","lat":35.720522,"lon":139.73642},{"name":"文京江戸川橋体育館","province":"東京都","city":"文京区","address":"東京都文京区小日向1丁目7番4号","lat":35.7106029999999,"lon":139.735459999999},{"name":"六義公園運動場","province":"東京都","city":"文京区","address":"東京都文京区本駒込6丁目16番10号","lat":35.7313049999999,"lon":139.745763},{"name":"小石川運動場","province":"東京都","city":"文京区","address":"東京都文京区後楽1丁目8番23号","lat":35.704965,"lon":139.746415},{"name":"後楽公園少年野球場","province":"東京都","city":"文京区","address":"東京都文京区後楽1丁目6番25号","lat":35.70652769,"lon":139.748556},{"name":"竹早テニスコート","province":"東京都","city":"文京区","address":"東京都文京区小石川5丁目9番1号","lat":35.7171609999999,"lon":139.739597},{"name":"シビックホール","province":"東京都","city":"文京区","address":"東京都文京区春日1丁目16番21号","lat":35.708065,"lon":139.752174},{"name":"アカデミー文京","province":"東京都","city":"文京区","address":"東京都文京区春日1丁目16番21号","lat":35.708065,"lon":139.752174},{"name":"アカデミー向丘","province":"東京都","city":"文京区","address":"東京都文京区向丘1丁目20番8号","lat":35.717335,"lon":139.75788},{"name":"アカデミー音羽","province":"東京都","city":"文京区","address":"東京都文京区大塚5丁目40番15号","lat":35.720094,"lon":139.725618},{"name":"アカデミー千石","province":"東京都","city":"文京区","address":"東京都文京区千石1丁目25番3号","lat":35.727577,"lon":139.74375},{"name":"アカデミー茗台","province":"東京都","city":"文京区","address":"東京都文京区春日2丁目9番5号","lat":35.713539,"lon":139.741205},{"name":"六義公園運動場","province":"東京都","city":"文京区","address":"東京都文京区本駒込6丁目16番10号","lat":35.731305,"lon":139.745763},{"name":"竹早テニスコート","province":"東京都","city":"文京区","address":"東京都文京区小石川5丁目9番1号","lat":35.717161,"lon":139.739597}]}