{"keyword":"一覧","data":[{"name":"スポーツセンター","province":"東京都","city":"文京区","address":"東京都文京区大塚3丁目29-2","lat":35.72054062,"lon":139.73641181},{"name":"大塚公園集会所","province":"東京都","city":"文京区","address":"東京都文京区大塚4丁目49-2","lat":35.7238068,"lon":139.73236759},{"name":"礫川地域活動センター","province":"東京都","city":"文京区","address":"東京都文京区小石川2丁目18-18","lat":35.71195301,"lon":139.75033306},{"name":"飯田橋駅（都営大江戸線）","province":"東京都","city":"文京区","address":"東京都文京区後楽1丁目9-5","lat":35.70352608,"lon":139.74679479},{"name":"千石駅（都営三田線）","province":"東京都","city":"文京区","address":"東京都文京区千石1丁目29-13","lat":35.72720398,"lon":139.74532192},{"name":"本郷図書館","province":"東京都","city":"文京区","address":"東京都文京区千駄木3丁目2-6","lat":35.72559094,"lon":139.76150415},{"name":"水道局文京営業所","province":"東京都","city":"文京区","address":"東京都文京区西片2丁目16-23","lat":35.71792755,"lon":139.75523251},{"name":"白山駅（都営三田線）","province":"東京都","city":"文京区","address":"東京都文京区白山5丁目36-10","lat":35.7205244,"lon":139.75170217},{"name":"本郷三丁目駅（都営大江戸線）","province":"東京都","city":"文京区","address":"東京都文京区本郷2丁目40-8","lat":35.70723157,"lon":139.76009357},{"name":"東京都水道歴史館","province":"東京都","city":"文京区","address":"東京都文京区本郷2丁目7-1","lat":35.70302926,"lon":139.76043822},{"name":"真砂中央図書館","province":"東京都","city":"文京区","address":"東京都文京区本郷4丁目8-15","lat":35.70853967,"lon":139.75698262},{"name":"文京区男女平等センター","province":"東京都","city":"文京区","address":"東京都文京区本郷4丁目8-3","lat":35.70867022,"lon":139.75750757},{"name":"区民センター","province":"東京都","city":"文京区","address":"東京都文京区本郷4丁目15-14","lat":35.70879235,"lon":139.75417729},{"name":"総合体育館","province":"東京都","city":"文京区","address":"東京都文京区本郷7丁目1-2","lat":35.7082899,"lon":139.76316837},{"name":"駒込地域活動センター","province":"東京都","city":"文京区","address":"東京都文京区本駒込3丁目22-4","lat":35.72864855,"lon":139.75237135},{"name":"文京区勤労福祉会館","province":"東京都","city":"文京区","address":"東京都文京区本駒込4丁目35-15","lat":35.73346756,"lon":139.75514043},{"name":"向丘地域活動センター","province":"東京都","city":"文京区","address":"東京都文京区向丘1丁目20-8","lat":35.71722493,"lon":139.75762122},{"name":"大原地域活動センター","province":"東京都","city":"文京区","address":"東京都文京区千石1丁目4-3","lat":35.72449035,"lon":139.7433805},{"name":"不忍通りふれあい館","province":"東京都","city":"文京区","address":"東京都文京区根津2丁目20-7","lat":35.71920834,"lon":139.76417635}]}