{"keyword":"保育","data":[{"name":"文京区立さしがや保育園","province":"東京都","city":"文京区","address":"文京区白山2-32-6","lat":35.718097,"lon":139.7497},{"name":"キッズソフィア・白山保育園","province":"東京都","city":"文京区","address":"文京区白山4-36-13","lat":35.72241,"lon":139.74785},{"name":"白山ひかり保育園","province":"東京都","city":"文京区","address":"文京区白山2-29-9","lat":35.717633,"lon":139.750983},{"name":"ベネッセかごまち保育園","province":"東京都","city":"文京区","address":"文京区白山5-17-17","lat":35.726896,"lon":139.746261},{"name":"文京区立久堅保育園","province":"東京都","city":"文京区","address":"文京区小石川5-27-7","lat":35.718613,"lon":139.741553},{"name":"文京区立柳町保育園","province":"東京都","city":"文京区","address":"文京区小石川1-23-6","lat":35.713753,"lon":139.750652},{"name":"小学館アカデミー小石川保育園","province":"東京都","city":"文京区","address":"文京区小石川2-1-12","lat":35.709114,"lon":139.751489},{"name":"にじのいるか保育園小石川","province":"東京都","city":"文京区","address":"文京区小石川1-24-3","lat":35.714119,"lon":139.749716},{"name":"ハッピーマム茗荷谷","province":"東京都","city":"文京区","address":"文京区小石川5-4-1","lat":35.716972,"lon":139.738431},{"name":"富坂まきば保育園","province":"東京都","city":"文京区","address":"文京区小石川2丁目17番40号","lat":35.711264,"lon":139.748436},{"name":"モニカ茗荷谷駅前園","province":"東京都","city":"文京区","address":"文京区小石川5丁目3番2号エイト印刷ビル2階","lat":35.716613,"lon":139.739028},{"name":"グローバルキッズ後楽二丁目園","province":"東京都","city":"文京区","address":"文京区後楽2-20-15","lat":35.707365,"lon":139.745564},{"name":"テンダーラビング保育園小石川","province":"東京都","city":"文京区","address":"文京区後楽1-8-13小石川運動場内","lat":35.703982,"lon":139.747123},{"name":"文京区立水道保育園","province":"東京都","city":"文京区","address":"文京区水道1-3-26","lat":35.709575,"lon":139.742301},{"name":"文京区立こひなた保育園","province":"東京都","city":"文京区","address":"文京区小日向1-21-1","lat":35.713997,"lon":139.736073},{"name":"こひなたさくらさくほいくえん","province":"東京都","city":"文京区","address":"文京区小日向2-18-3","lat":35.711303,"lon":139.733573},{"name":"文京区立千石保育園","province":"東京都","city":"文京区","address":"文京区千石1-4-3","lat":35.724504,"lon":139.743342},{"name":"文京区立千石西保育園","province":"東京都","city":"文京区","address":"文京区千石3-15-15","lat":35.724915,"lon":139.738225},{"name":"ベネッセ千石保育園","province":"東京都","city":"文京区","address":"文京区千石4-45-2","lat":35.72912,"lon":139.742719},{"name":"にじのいるか保育園千石","province":"東京都","city":"文京区","address":"文京区千石2-8-9","lat":35.722788,"lon":139.738962},{"name":"にじのいるか保育園千石第二","province":"東京都","city":"文京区","address":"文京区千石3-39-15","lat":35.726076,"lon":139.739945},{"name":"えがおの森保育園・せんごく","province":"東京都","city":"文京区","address":"文京区千石1-29-4","lat":35.727098,"lon":139.745089},{"name":"お茶の水女子大学こども園","province":"東京都","city":"文京区","address":"文京区大塚2-1-1","lat":35.718802,"lon":139.732596},{"name":"文京区立大塚保育園","province":"東京都","city":"文京区","address":"文京区大塚6-22-19","lat":35.724637,"lon":139.725646},{"name":"まなびの森保育園茗荷谷","province":"東京都","city":"文京区","address":"文京区大塚3-20-5","lat":35.721665,"lon":139.734673},{"name":"小学館アカデミー茗荷谷保育園","province":"東京都","city":"文京区","address":"文京区大塚1-4-15","lat":35.717555,"lon":139.736101},{"name":"グローバルキッズ新大塚園","province":"東京都","city":"文京区","address":"文京区大塚5-3-13","lat":35.723018,"lon":139.730796},{"name":"テンダーラビング保育園茗荷谷園","province":"東京都","city":"文京区","address":"文京区大塚4-41-12","lat":35.721938,"lon":139.73394},{"name":"ちゃいれっく新大塚駅前保育園","province":"東京都","city":"文京区","address":"文京区大塚4-48-7キュラーズ新大塚2階","lat":35.723873,"lon":139.731034},{"name":"八千代保育園","province":"東京都","city":"文京区","address":"文京区音羽1-19-18","lat":35.715691,"lon":139.728546},{"name":"文京区立青柳保育園","province":"東京都","city":"文京区","address":"文京区関口3-2-5","lat":35.713463,"lon":139.72916},{"name":"損保ジャパン日本興亜スマイルキッズ江戸川橋保育園","province":"東京都","city":"文京区","address":"文京区関口1-45-15","lat":35.709781,"lon":139.730016},{"name":"文京区立目白台保育園","province":"東京都","city":"文京区","address":"文京区目白台1-5-1","lat":35.713805,"lon":139.720575},{"name":"同仁美登里保育園","province":"東京都","city":"文京区","address":"文京区目白台3-10-9","lat":35.716616,"lon":139.725727},{"name":"文京区立本駒込保育園","province":"東京都","city":"文京区","address":"文京区本駒込5-63-2","lat":35.733809,"lon":139.752493},{"name":"文京区立本駒込南保育園","province":"東京都","city":"文京区","address":"文京区本駒込3-11-14","lat":35.72781,"lon":139.755141},{"name":"文京区立本駒込西保育園","province":"東京都","city":"文京区","address":"文京区本駒込2-9-16","lat":35.727621,"lon":139.747502},{"name":"アスク本駒込保育園","province":"東京都","city":"文京区","address":"文京区本駒込2-1-23","lat":35.725671,"lon":139.749152},{"name":"本駒込プチ・クレイシュ","province":"東京都","city":"文京区","address":"文京区本駒込3-22-4","lat":35.728643,"lon":139.752371},{"name":"クオリスキッズ駒込保育園","province":"東京都","city":"文京区","address":"文京区本駒込5丁目71番6号","lat":35.73384,"lon":139.750613},{"name":"モニカ本駒込園","province":"東京都","city":"文京区","address":"文京区本駒込3-20-3","lat":35.728015,"lon":139.752538},{"name":"こどもヶ丘保育園本駒込園","province":"東京都","city":"文京区","address":"文京区本駒込4-42-14","lat":35.732768,"lon":139.757657},{"name":"文京区立駒込保育園","province":"東京都","city":"文京区","address":"文京区千駄木3-19-17","lat":35.729649,"lon":139.760632},{"name":"文京区立しおみ保育園","province":"東京都","city":"文京区","address":"文京区千駄木2-27-8","lat":35.725002,"lon":139.761935},{"name":"どんぐり保育園","province":"東京都","city":"文京区","address":"文京区千駄木2-48-4","lat":35.721711,"lon":139.762332},{"name":"ポピンズナーサリースクール千駄木","province":"東京都","city":"文京区","address":"文京区千駄木2-16-7","lat":35.723413,"lon":139.761588},{"name":"テンダーラビング保育園千駄木","province":"東京都","city":"文京区","address":"文京区千駄木2丁目11番3号","lat":35.722569,"lon":139.760832},{"name":"文京区立向丘保育園","province":"東京都","city":"文京区","address":"文京区向丘1-3-11","lat":35.717461,"lon":139.75661},{"name":"保育所まあむ東大前園","province":"東京都","city":"文京区","address":"文京区向丘1-16-26","lat":35.718844,"lon":139.756868},{"name":"こころの保育園文京西片","province":"東京都","city":"文京区","address":"文京区西片2-1-1","lat":35.714384,"lon":139.75698},{"name":"キッズガーデン文京春日","province":"東京都","city":"文京区","address":"文京区西片1-17-8","lat":35.713658,"lon":139.752744},{"name":"文京区立藍染保育園","province":"東京都","city":"文京区","address":"文京区根津2‐34‐15","lat":35.721172,"lon":139.763265},{"name":"文京区立根津保育園","province":"東京都","city":"文京区","address":"文京区根津1-15-12","lat":35.718544,"lon":139.763621},{"name":"文京区立本郷保育園","province":"東京都","city":"文京区","address":"文京区本郷1-28-12","lat":35.706437,"lon":139.756697},{"name":"慈愛会保育園","province":"東京都","city":"文京区","address":"文京区本郷6-12-5","lat":35.713109,"lon":139.756788},{"name":"たんぽぽ保育園","province":"東京都","city":"文京区","address":"文京区本郷7-3-1","lat":35.712056,"lon":139.762774},{"name":"ポピンズナーサリースクール本郷","province":"東京都","city":"文京区","address":"文京区本郷4-15-14","lat":35.708812,"lon":139.754238},{"name":"東京こども保育園","province":"東京都","city":"文京区","address":"文京区湯島2-29-1","lat":35.706387,"lon":139.765468},{"name":"日生湯島保育園ひびき","province":"東京都","city":"文京区","address":"文京区湯島4-1-12","lat":35.707596,"lon":139.764552},{"name":"こころおちゃのみず第一保育園","province":"東京都","city":"文京区","address":"文京区湯島1丁目10番5号湯島D&Aビル1階","lat":35.702491,"lon":139.765388},{"name":"こころおちゃのみず第二保育園","province":"東京都","city":"文京区","address":"文京区湯島1丁目10番5号湯島D&Aビル2階","lat":35.702491,"lon":139.765388}]}