{"keyword":"区","data":[{"name":"文京区保健所","province":"東京都","city":"文京区","address":"文京区春日1-16-21","lat":35.707951,"lon":139.75243},{"name":"保健サービスセンター","province":"東京都","city":"文京区","address":"文京区春日1-16-21","lat":35.707951,"lon":139.75243},{"name":"保健サービスセンター本郷支所","province":"東京都","city":"文京区","address":"文京区千駄木5-20-18","lat":35.727082,"lon":139.760168},{"name":"文京保健所","province":"東京都","city":"文京区","address":"東京都文京区春日1丁目16-21","lat":35.70794517,"lon":139.75242748},{"name":"保健サービスセンター","province":"東京都","city":"文京区","address":"東京都文京区春日1丁目16-21","lat":35.70794517,"lon":139.75242748},{"name":"保健サービスセンター本郷支所","province":"東京都","city":"文京区","address":"東京都文京区千駄木5丁目20-18","lat":35.72709628,"lon":139.76017919},{"name":"文京保健所","province":"東京都","city":"文京区","address":"文京区春日1-16-21","lat":35.70794,"lon":139.75278},{"name":"保健サービスセンター","province":"東京都","city":"文京区","address":"文京区春日1-16-21","lat":35.70794,"lon":139.75278},{"name":"保健サービスセンター本郷支所","province":"東京都","city":"文京区","address":"文京区千駄木5-20-18","lat":35.72718,"lon":139.76012},{"name":"文京区保健所","province":"東京都","city":"文京区","address":"文京区春日1-16-21","lat":35.70794,"lon":139.75278}]}