{"keyword":"区立","data":[{"name":"真砂中央図書館","province":"東京都","city":"文京区","address":"東京都文京区本郷4丁目8番15号","lat":35.7085539999999,"lon":139.756995999999},{"name":"本郷図書館","province":"東京都","city":"文京区","address":"東京都文京区千駄木3丁目2番6号汐見地域センター内","lat":35.72552194,"lon":139.7614226},{"name":"小石川図書館","province":"東京都","city":"文京区","address":"東京都文京区小石川5丁目9番20号","lat":35.7169719999999,"lon":139.740124},{"name":"本駒込図書館","province":"東京都","city":"文京区","address":"東京都文京区本駒込4丁目35番15号","lat":35.7332759999999,"lon":139.755369},{"name":"水道端図書館","province":"東京都","city":"文京区","address":"東京都文京区水道2丁目16番14号","lat":35.710636,"lon":139.737720999999},{"name":"目白台図書館","province":"東京都","city":"文京区","address":"東京都文京区関口3丁目17番9号","lat":35.7151479999999,"lon":139.72551},{"name":"千石図書館","province":"東京都","city":"文京区","address":"東京都文京区千石1丁目25番3号","lat":35.7275769999999,"lon":139.74375},{"name":"湯島図書館","province":"東京都","city":"文京区","address":"東京都文京区本郷3丁目10番18号湯島総合センター4階","lat":35.7040119999999,"lon":139.763645999999},{"name":"根津図書室","province":"東京都","city":"文京区","address":"東京都文京区根津2丁目20番7号不忍通りふれあい館2階","lat":35.7191919999999,"lon":139.764204},{"name":"大塚公園みどりの図書室","province":"東京都","city":"文京区","address":"東京都文京区大塚4丁目49番2号大塚公園内","lat":35.7238299999999,"lon":139.73245},{"name":"第一中学校","province":"東京都","city":"文京区","address":"東京都文京区小石川5丁目8番9号","lat":35.7180129999999,"lon":139.738682},{"name":"第三中学校","province":"東京都","city":"文京区","address":"東京都文京区春日1丁目9番31号","lat":35.7091509999999,"lon":139.746670999999},{"name":"第六中学校","province":"東京都","city":"文京区","address":"東京都文京区向丘1丁目2番2号","lat":35.7170739999999,"lon":139.757725999999},{"name":"第八中学校","province":"東京都","city":"文京区","address":"東京都文京区千駄木2丁目19番22号","lat":35.724322,"lon":139.761014999999},{"name":"第九中学校","province":"東京都","city":"文京区","address":"東京都文京区本駒込3丁目28番9号","lat":35.7296539999999,"lon":139.75278},{"name":"第十中学校","province":"東京都","city":"文京区","address":"東京都文京区千石2丁目40番17号","lat":35.7235159999999,"lon":139.742537999999},{"name":"文林中学校","province":"東京都","city":"文京区","address":"東京都文京区千駄木5丁目25番10号","lat":35.7280519999999,"lon":139.758571999999},{"name":"茗台中学校","province":"東京都","city":"文京区","address":"東京都文京区春日2丁目9番5号","lat":35.7135389999999,"lon":139.741205},{"name":"本郷台中学校","province":"東京都","city":"文京区","address":"東京都文京区本郷2丁目38番23号","lat":35.7069509999999,"lon":139.758938},{"name":"音羽中学校","province":"東京都","city":"文京区","address":"東京都文京区大塚1丁目9番24号","lat":35.7172169999999,"lon":139.732789999999},{"name":"礫川小学校","province":"東京都","city":"文京区","address":"東京都文京区小石川2丁目13番2号","lat":35.7108339999999,"lon":139.747575},{"name":"柳町小学校","province":"東京都","city":"文京区","address":"東京都文京区小石川1丁目23番16号","lat":35.7144589999999,"lon":139.750137999999},{"name":"指ヶ谷小学校","province":"東京都","city":"文京区","address":"東京都文京区白山2丁目28番4号","lat":35.717306,"lon":139.750766999999},{"name":"林町小学校","province":"東京都","city":"文京区","address":"東京都文京区千石2丁目36番3号","lat":35.724322,"lon":139.742247999999},{"name":"明化小学校","province":"東京都","city":"文京区","address":"東京都文京区千石1丁目13番9号","lat":35.7248329999999,"lon":139.744880999999},{"name":"青柳小学校","province":"東京都","city":"文京区","address":"東京都文京区大塚5丁目40番18号","lat":35.7204169999999,"lon":139.725097},{"name":"関口台町小学校","province":"東京都","city":"文京区","address":"東京都文京区関口2丁目6番1号","lat":35.7118669999999,"lon":139.726756999999},{"name":"金富小学校","province":"東京都","city":"文京区","address":"東京都文京区春日2丁目6番15号","lat":35.7108309999999,"lon":139.741618999999},{"name":"窪町小学校","province":"東京都","city":"文京区","address":"東京都文京区大塚3丁目2番3号","lat":35.7188769999999,"lon":139.735628999999},{"name":"大塚小学校","province":"東京都","city":"文京区","address":"東京都文京区大塚4丁目1番7号","lat":35.7237289999999,"lon":139.736379999999},{"name":"誠之小学校","province":"東京都","city":"文京区","address":"東京都文京区西片2丁目14番6号","lat":35.7179429999999,"lon":139.754029},{"name":"根津小学校","province":"東京都","city":"文京区","address":"東京都文京区根津1丁目14番3号","lat":35.7184389999999,"lon":139.763222},{"name":"千駄木小学校","province":"東京都","city":"文京区","address":"東京都文京区千駄木5丁目44番2号","lat":35.72914,"lon":139.758950999999},{"name":"昭和小学校","province":"東京都","city":"文京区","address":"東京都文京区本駒込2丁目28番31号","lat":35.731554,"lon":139.749484999999},{"name":"駒本小学校","province":"東京都","city":"文京区","address":"東京都文京区向丘2丁目37番5号","lat":35.7246179999999,"lon":139.754577},{"name":"駕籠町小学校","province":"東京都","city":"文京区","address":"東京都文京区本駒込2丁目29番6号","lat":35.7283619999999,"lon":139.7458},{"name":"本郷小学校","province":"東京都","city":"文京区","address":"東京都文京区本郷4丁目5番15号","lat":35.7080929999999,"lon":139.758136},{"name":"指ヶ谷小学校","province":"東京都","city":"文京区","address":"東京都文京区白山2丁目28番4号","lat":35.717306,"lon":139.750767}]}