{"keyword":"商品","data":[{"name":"高齢者あんしん相談センター富坂","province":"東京都","city":"文京区","address":"東京都文京区白山5丁目16番3号","lat":35.724688,"lon":139.746734},{"name":"高齢者あんしん相談センター富坂分室","province":"東京都","city":"文京区","address":"東京都文京区小石川2丁目18番18号","lat":35.711945,"lon":139.750345},{"name":"高齢者あんしん相談センター大塚","province":"東京都","city":"文京区","address":"東京都文京区大塚4丁目50番1号","lat":35.724654,"lon":139.730809},{"name":"高齢者あんしん相談センター大塚分室","province":"東京都","city":"文京区","address":"東京都文京区音羽1丁目15番12号","lat":35.715336,"lon":139.729627},{"name":"高齢者あんしん相談センター本富士","province":"東京都","city":"文京区","address":"東京都文京区本郷2丁目40番11号","lat":35.707346,"lon":139.760406},{"name":"高齢者あんしん相談センター本富士分室","province":"東京都","city":"文京区","address":"東京都文京区西片2丁目19番15号","lat":35.704504,"lon":139.759142},{"name":"高齢者あんしん相談センター駒込","province":"東京都","city":"文京区","address":"東京都文京区千駄木5丁目19番2号","lat":35.726782,"lon":139.760027},{"name":"高齢者あんしん相談センター駒込分室","province":"東京都","city":"文京区","address":"東京都文京区本駒込2丁目28番10号","lat":35.730751,"lon":139.747619},{"name":"大塚児童館","province":"東京都","city":"文京区","address":"東京都文京区大塚6丁目22番地19号","lat":35.7246349999999,"lon":139.725646},{"name":"しおみ児童館","province":"東京都","city":"文京区","address":"東京都文京区千駄木2丁目27番地8号","lat":35.724935,"lon":139.761908},{"name":"千石児童館","province":"東京都","city":"文京区","address":"東京都文京区千石1丁目4番地3号","lat":35.7248149999999,"lon":139.743264},{"name":"水道児童館","province":"東京都","city":"文京区","address":"東京都文京区水道1丁目3番地26号","lat":35.7095669999999,"lon":139.742295},{"name":"本駒込児童館","province":"東京都","city":"文京区","address":"東京都文京区本駒込5丁目63番地2号","lat":35.733842,"lon":139.752436999999},{"name":"本駒込南児童館","province":"東京都","city":"文京区","address":"東京都文京区本駒込3丁目11番地14号","lat":35.727715,"lon":139.755128},{"name":"久堅児童館","province":"東京都","city":"文京区","address":"東京都文京区小石川5丁目27番地7号","lat":35.718614,"lon":139.741553},{"name":"柳町児童館","province":"東京都","city":"文京区","address":"東京都文京区小石川1丁目23番地9号","lat":35.713709,"lon":139.750506},{"name":"千石西児童館","province":"東京都","city":"文京区","address":"東京都文京区千石3丁目15番地15号","lat":35.7249139999999,"lon":139.738225999999},{"name":"小日向台町児童館","province":"東京都","city":"文京区","address":"東京都文京区小日向2丁目2番地2号","lat":35.7129979999999,"lon":139.734867},{"name":"目白台児童館","province":"東京都","city":"文京区","address":"東京都文京区目白台1丁目5番地1号","lat":35.7138309999999,"lon":139.720661},{"name":"湯島児童館","province":"東京都","city":"文京区","address":"東京都文京区本郷3丁目10番地18号","lat":35.7040119999999,"lon":139.763645999999},{"name":"白山東児童館","province":"東京都","city":"文京区","address":"東京都文京区白山1丁目29番地10号","lat":35.7191359999999,"lon":139.753069},{"name":"根津児童館","province":"東京都","city":"文京区","address":"東京都文京区根津1丁目14番地3号","lat":35.7184389999999,"lon":139.763222},{"name":"目白台第二児童館","province":"東京都","city":"文京区","address":"東京都文京区目白台3丁目18番地7号","lat":35.717258,"lon":139.723396},{"name":"本郷児童館","province":"東京都","city":"文京区","address":"東京都文京区本郷5丁目30番地8号","lat":35.711666,"lon":139.758274999999},{"name":"保坂病児保育ルーム","province":"東京都","city":"文京区","address":"東京都文京区白山五丁目27番12号","lat":35.724533,"lon":139.750092},{"name":"順天堂病後児ルーム「みつばち」","province":"東京都","city":"文京区","address":"東京都文京区本郷一丁目1番19号","lat":35.702844,"lon":139.758249},{"name":"東京都立駒込病院病児・病後児保育室「ろびん」","province":"東京都","city":"文京区","address":"東京都文京区本駒込三丁目18番22号","lat":35.72993,"lon":139.75638},{"name":"ゆうひが丘春日病児保育ルーム","province":"東京都","city":"文京区","address":"東京都文京区小石川一丁目5番1号","lat":35.71048,"lon":139.75261},{"name":"子育てひろば西片","province":"東京都","city":"文京区","address":"東京都文京区西片1丁目8番15号","lat":35.712588,"lon":139.754057},{"name":"子育てひろば汐見","province":"東京都","city":"文京区","address":"東京都文京区千駄木2丁目19番23号(汐見小学校内)","lat":35.724296,"lon":139.760809},{"name":"子育てひろば江戸川橋","province":"東京都","city":"文京区","address":"東京都文京区小日向2丁目16番15号(文京総合福祉センター3階)","lat":35.710662,"lon":139.734753},{"name":"子育てひろば水道","province":"東京都","city":"文京区","address":"東京都文京区水道1-3-26(水道保育園内)","lat":35.7095669999999,"lon":139.742295},{"name":"子育てひろば千石","province":"東京都","city":"文京区","address":"東京都文京区千石1丁目4番3号(千石児童館内)","lat":35.7248149999999,"lon":139.743264},{"name":"こまぴよのおうち","province":"東京都","city":"文京区","address":"東京都文京区本駒込五丁目11番6号","lat":35.731435,"lon":139.75271},{"name":"こそだておうえんまちぷら","province":"東京都","city":"文京区","address":"東京都文京区本郷三丁目9番5号NK本郷ビル4階","lat":35.704574,"lon":139.763083},{"name":"さきちゃんちpetit","province":"東京都","city":"文京区","address":"東京都文京区白山二丁目14番17号1階","lat":35.717548,"lon":139.746094},{"name":"文京福祉センター江戸川橋","province":"東京都","city":"文京区","address":"東京都文京区小日向二丁目16番15号","lat":35.710602,"lon":139.734647},{"name":"文京福祉センター湯島","province":"東京都","city":"文京区","address":"東京都文京区本郷三丁目10番18号","lat":35.70386,"lon":139.763775},{"name":"駒込病院","province":"東京都","city":"文京区","address":"東京都文京区本駒込3丁目18-22","lat":35.72994856,"lon":139.75609048},{"name":"久堅児童館","province":"東京都","city":"文京区","address":"文京区小石川5-27-7","lat":35.718613,"lon":139.741553},{"name":"柳町児童館","province":"東京都","city":"文京区","address":"文京区小石川1-23-9","lat":35.714183,"lon":139.750347},{"name":"水道児童館","province":"東京都","city":"文京区","address":"文京区水道1-3-26","lat":35.709575,"lon":139.742301},{"name":"小日向台町児童館","province":"東京都","city":"文京区","address":"文京区小日向2-2-2","lat":35.713019,"lon":139.734812},{"name":"千石児童館","province":"東京都","city":"文京区","address":"文京区千石1-4-3","lat":35.724504,"lon":139.743342},{"name":"千石西児童館","province":"東京都","city":"文京区","address":"文京区千石3-15-15","lat":35.724915,"lon":139.738225},{"name":"大塚児童館","province":"東京都","city":"文京区","address":"文京区大塚6-22-19","lat":35.724637,"lon":139.725646},{"name":"目白台児童館","province":"東京都","city":"文京区","address":"文京区目白台1-5-1","lat":35.713805,"lon":139.720575},{"name":"目日台第二児童館","province":"東京都","city":"文京区","address":"文京区目白台3-18-7","lat":35.717213,"lon":139.723377},{"name":"白山東児童館","province":"東京都","city":"文京区","address":"文京区白山1-29-10","lat":35.719072,"lon":139.752972},{"name":"本駒込児童館","province":"東京都","city":"文京区","address":"文京区本駒込5-63-2","lat":35.733809,"lon":139.752493},{"name":"本駒込南児童館","province":"東京都","city":"文京区","address":"文京区本駒込3-11-14","lat":35.72781,"lon":139.755141},{"name":"しおみ児童館","province":"東京都","city":"文京区","address":"文京区千駄木2-27-8","lat":35.725002,"lon":139.761935},{"name":"根津児童館","province":"東京都","city":"文京区","address":"文京区根津1-14-3","lat":35.718322,"lon":139.763413},{"name":"本郷児童館","province":"東京都","city":"文京区","address":"文京区本郷5-30-8","lat":35.711667,"lon":139.758274},{"name":"湯島児童館","province":"東京都","city":"文京区","address":"文京区本郷3-10-18","lat":35.70396,"lon":139.763674},{"name":"リアン文京","province":"東京都","city":"文京区","address":"文京区小日向2-16-15","lat":35.710581,"lon":139.734582},{"name":"文京区社会福祉協議会","province":"東京都","city":"文京区","address":"文京区本郷4-15-14文京区民センター4階","lat":35.708812,"lon":139.754238},{"name":"文京区子ども家庭支援センター","province":"東京都","city":"文京区","address":"文京区春日1-16-21シビックセンター5階","lat":35.707951,"lon":139.75243},{"name":"東京都福祉人材センター研修室","province":"東京都","city":"文京区","address":"文京区小日向4-1-6東京都社会福祉保健医療研修センター1階","lat":35.713955,"lon":139.740684},{"name":"東京都社会福祉保健医療研修センター","province":"東京都","city":"文京区","address":"東京都文京区小日向4丁目1-6","lat":35.713863,"lon":139.740606},{"name":"東京都社会福祉保健医療研修センター","province":"東京都","city":"文京区","address":"東京都文京区小日向4丁目1-6","lat":35.713671,"lon":139.740738},{"name":"東京都社会福祉保健医療研修センター","province":"東京都","city":"文京区","address":"東京都文京区小日向4丁目1-6","lat":35.713724,"lon":139.740686},{"name":"六義園","province":"東京都","city":"文京区","address":"東京都文京区本駒込6丁目16","lat":35.732548,"lon":139.748457},{"name":"小石川後楽園","province":"東京都","city":"文京区","address":"東京都文京区後楽1丁目6","lat":35.706098,"lon":139.748542},{"name":"小石川後楽園","province":"東京都","city":"文京区","address":"東京都文京区後楽1丁目6","lat":35.705139,"lon":139.74823},{"name":"小石川後楽園","province":"東京都","city":"文京区","address":"東京都文京区後楽1丁目6","lat":35.704683,"lon":139.748423},{"name":"都営三田線駅白山駅","province":"東京都","city":"文京区","address":"東京都文京区白山1丁目33","lat":35.721384,"lon":139.75215},{"name":"都営三田線駅水道橋駅","province":"東京都","city":"文京区","address":"東京都文京区本郷1丁目14","lat":35.703881,"lon":139.755189},{"name":"都営三田線駅春日駅","province":"東京都","city":"文京区","address":"東京都文京区本郷4丁目17","lat":35.709252,"lon":139.753261},{"name":"都営三田線駅千石駅","province":"東京都","city":"文京区","address":"東京都文京区千石1丁目27","lat":35.72818,"lon":139.744283},{"name":"都営大江戸線飯田橋駅","province":"東京都","city":"文京区","address":"東京都文京区後楽1丁目9","lat":35.703705,"lon":139.746953},{"name":"都営大江戸線春日駅","province":"東京都","city":"文京区","address":"東京都文京区小石川1丁目1","lat":35.708528,"lon":139.752714},{"name":"都営大江戸線本郷三丁目駅","province":"東京都","city":"文京区","address":"東京都文京区本郷4丁目1","lat":35.707581,"lon":139.760802},{"name":"東京都水道局文京営業所","province":"東京都","city":"文京区","address":"東京都文京区西片2丁目16-23","lat":35.717954,"lon":139.75532},{"name":"東京都水道歴史館","province":"東京都","city":"文京区","address":"東京都文京区本郷2丁目7","lat":35.703347,"lon":139.760492},{"name":"文京シビックセンター","province":"東京都","city":"文京区","address":"東京都文京区春日1丁目16-21","lat":35.708164,"lon":139.752379},{"name":"小石川四丁目児童遊園","province":"東京都","city":"文京区","address":"東京都文京区小石川4丁目13","lat":35.715557,"lon":139.744235},{"name":"文京シビックセンター","province":"東京都","city":"文京区","address":"東京都文京区春日1丁目16-21","lat":35.708233,"lon":139.753053},{"name":"文京シビックセンター","province":"東京都","city":"文京区","address":"東京都文京区春日1丁目16-21","lat":35.708061,"lon":139.752875},{"name":"文京区立駕籠町会館","province":"東京都","city":"文京区","address":"東京都文京区本駒込6丁目2","lat":35.729488,"lon":139.743633},{"name":"文京区立大塚北会館","province":"東京都","city":"文京区","address":"東京都文京区大塚6丁目15-3","lat":35.726061,"lon":139.725775},{"name":"白山東会館","province":"東京都","city":"文京区","address":"東京都文京区白山1丁目29-10","lat":35.719124,"lon":139.753077},{"name":"文京区立目白台交流館","province":"東京都","city":"文京区","address":"東京都文京区目白台3丁目18-7","lat":35.717167,"lon":139.723397},{"name":"文京区教育センター（青少年プラザ）","province":"東京都","city":"文京区","address":"東京都文京区湯島4丁目7-10","lat":35.708834,"lon":139.765707},{"name":"勤労福祉会館","province":"東京都","city":"文京区","address":"東京都文京区本駒込4丁目35-15","lat":35.733356,"lon":139.755084},{"name":"勤労福祉会館","province":"東京都","city":"文京区","address":"東京都文京区本駒込4丁目35-15","lat":35.733306,"lon":139.755108},{"name":"男女平等センター","province":"東京都","city":"文京区","address":"東京都文京区本郷4丁目8-3","lat":35.708604,"lon":139.757476},{"name":"文京福祉センター江戸川橋","province":"東京都","city":"文京区","address":"東京都文京区小日向2丁目16-15","lat":35.710642,"lon":139.73448},{"name":"文京総合福祉センター","province":"東京都","city":"文京区","address":"東京都文京区小日向2丁目16-15","lat":35.710486,"lon":139.734726},{"name":"礫川地域活動センター","province":"東京都","city":"文京区","address":"東京都文京区小石川2丁目18-18","lat":35.711934,"lon":139.750347},{"name":"大原地域活動センター","province":"東京都","city":"文京区","address":"東京都文京区千石1丁目4","lat":35.724755,"lon":139.743159},{"name":"音羽地域活動センター","province":"東京都","city":"文京区","address":"東京都文京区音羽1丁目22-14","lat":35.713899,"lon":139.729737},{"name":"向丘地域活動センター","province":"東京都","city":"文京区","address":"東京都文京区向丘1丁目20-8","lat":35.717226,"lon":139.757641},{"name":"不忍通りふれあい館（根津地域活動センター）","province":"東京都","city":"文京区","address":"東京都文京区根津2丁目20-7","lat":35.719211,"lon":139.764243},{"name":"汐見地域活動センター","province":"東京都","city":"文京区","address":"東京都文京区千駄木3丁目2-6","lat":35.725544,"lon":139.761441},{"name":"駒込地域活動センター","province":"東京都","city":"文京区","address":"東京都文京区本駒込3丁目22-4","lat":35.728568,"lon":139.752448},{"name":"文京区民センター","province":"東京都","city":"文京区","address":"東京都文京区本郷4丁目15-14","lat":35.708811,"lon":139.75424},{"name":"大塚地域活動センター","province":"東京都","city":"文京区","address":"東京都文京区大塚1丁目4","lat":35.71822,"lon":139.73584},{"name":"保健サービスセンター本郷支所","province":"東京都","city":"文京区","address":"東京都文京区千駄木5丁目20-18","lat":35.726908,"lon":139.760422},{"name":"真砂中央図書館","province":"東京都","city":"文京区","address":"東京都文京区本郷4丁目8-15","lat":35.708443,"lon":139.757152},{"name":"文京区立本郷図書館","province":"東京都","city":"文京区","address":"東京都文京区千駄木3丁目2-6","lat":35.725572,"lon":139.761425},{"name":"本駒込図書館","province":"東京都","city":"文京区","address":"東京都文京区本駒込4丁目35","lat":35.732973,"lon":139.755506},{"name":"水道端図書館","province":"東京都","city":"文京区","address":"東京都文京区水道2丁目16-14","lat":35.710637,"lon":139.737709},{"name":"目白台図書館","province":"東京都","city":"文京区","address":"東京都文京区関口3丁目17-9","lat":35.71518,"lon":139.725559},{"name":"千石図書館　アカデミー千石","province":"東京都","city":"文京区","address":"東京都文京区千石1丁目25-3","lat":35.727615,"lon":139.743621},{"name":"湯島図書館","province":"東京都","city":"文京区","address":"東京都文京区本郷3丁目10-18","lat":35.703951,"lon":139.763794},{"name":"森鴎外記念館","province":"東京都","city":"文京区","address":"東京都文京区千駄木1丁目23-4","lat":35.724841,"lon":139.760632},{"name":"アカデミー湯島","province":"東京都","city":"文京区","address":"東京都文京区湯島2丁目28-14","lat":35.706656,"lon":139.76662},{"name":"アカデミー音羽","province":"東京都","city":"文京区","address":"東京都文京区大塚5丁目40-15","lat":35.720074,"lon":139.725569},{"name":"アカデミー茗台","province":"東京都","city":"文京区","address":"東京都文京区春日2丁目9-5","lat":35.713418,"lon":139.741462},{"name":"アカデミー茗台","province":"東京都","city":"文京区","address":"東京都文京区春日2丁目9-5","lat":35.713433,"lon":139.741274},{"name":"大塚公園","province":"東京都","city":"文京区","address":"東京都文京区大塚4丁目49","lat":35.72433,"lon":139.731797},{"name":"須藤公園","province":"東京都","city":"文京区","address":"東京都文京区千駄木3丁目4","lat":35.726125,"lon":139.762562},{"name":"白山公園","province":"東京都","city":"文京区","address":"東京都文京区白山5丁目31","lat":35.722249,"lon":139.750559},{"name":"根津二丁目児童遊園","province":"東京都","city":"文京区","address":"東京都文京区根津2丁目22","lat":35.719191,"lon":139.765466},{"name":"教育の森公園","province":"東京都","city":"文京区","address":"東京都文京区大塚3丁目29","lat":35.719297,"lon":139.736318},{"name":"教育の森公園","province":"東京都","city":"文京区","address":"東京都文京区大塚3丁目29","lat":35.719291,"lon":139.736311},{"name":"駕籠町公園","province":"東京都","city":"文京区","address":"東京都文京区本駒込2丁目10","lat":35.727992,"lon":139.746281},{"name":"六義公園","province":"東京都","city":"文京区","address":"東京都文京区本駒込6丁目16","lat":35.73206,"lon":139.747339},{"name":"動坂公園","province":"東京都","city":"文京区","address":"東京都文京区本駒込4丁目18","lat":35.731983,"lon":139.756453},{"name":"大観音児童遊園","province":"東京都","city":"文京区","address":"東京都文京区向丘2丁目38","lat":35.724517,"lon":139.756705},{"name":"千石公園","province":"東京都","city":"文京区","address":"東京都文京区千石1丁目4","lat":35.72443,"lon":139.74315},{"name":"新花公園","province":"東京都","city":"文京区","address":"東京都文京区湯島2丁目31","lat":35.706882,"lon":139.766586},{"name":"新大塚公園","province":"東京都","city":"文京区","address":"東京都文京区大塚1丁目8","lat":35.717458,"lon":139.733204},{"name":"江戸川公園","province":"東京都","city":"文京区","address":"東京都文京区関口2丁目1","lat":35.710602,"lon":139.725886},{"name":"大塚窪町公園","province":"東京都","city":"文京区","address":"東京都文京区大塚3丁目26","lat":35.72222,"lon":139.736341},{"name":"礫川公園","province":"東京都","city":"文京区","address":"東京都文京区春日1丁目15","lat":35.708136,"lon":139.751389},{"name":"竹早公園","province":"東京都","city":"文京区","address":"東京都文京区小石川5丁目9","lat":35.717006,"lon":139.739905},{"name":"肥後細川庭園","province":"東京都","city":"文京区","address":"東京都文京区目白台1丁目1-22","lat":35.713291,"lon":139.721868},{"name":"肥後細川庭園","province":"東京都","city":"文京区","address":"東京都文京区目白台1丁目1","lat":35.713353,"lon":139.722173},{"name":"目白台運動公園","province":"東京都","city":"文京区","address":"東京都文京区目白台1丁目20","lat":35.714578,"lon":139.722773},{"name":"目白台運動公園","province":"東京都","city":"文京区","address":"東京都文京区目白台1丁目20","lat":35.714582,"lon":139.722863},{"name":"文京宮下公園","province":"東京都","city":"文京区","address":"東京都文京区千石4丁目23","lat":35.729958,"lon":139.739029},{"name":"本郷給水所公苑","province":"東京都","city":"文京区","address":"東京都文京区本郷2丁目7","lat":35.703062,"lon":139.759433},{"name":"お茶の水公園","province":"東京都","city":"文京区","address":"東京都文京区湯島1丁目4","lat":35.700992,"lon":139.766143},{"name":"小石川一丁目児童遊園","province":"東京都","city":"文京区","address":"東京都文京区小石川1丁目24","lat":35.714312,"lon":139.74986},{"name":"西片公園内公衆便所","province":"東京都","city":"文京区","address":"東京都文京区西片2丁目3","lat":35.71395,"lon":139.755352},{"name":"久堅公園","province":"東京都","city":"文京区","address":"東京都文京区小石川5丁目27","lat":35.718179,"lon":139.741811},{"name":"神明都電車庫跡公園","province":"東京都","city":"文京区","address":"東京都文京区本駒込4丁目35-15","lat":35.7333014,"lon":139.755095},{"name":"白山四丁目第二児童遊園","province":"東京都","city":"文京区","address":"東京都文京区白山4丁目4","lat":35.720289,"lon":139.74678},{"name":"水道一丁目児童遊園","province":"東京都","city":"文京区","address":"東京都文京区水道1丁目6","lat":35.710245,"lon":139.74059},{"name":"関口一丁目公衆便所","province":"東京都","city":"文京区","address":"東京都文京区関口1丁目9","lat":35.70882,"lon":139.732651},{"name":"御茶の水橋際公衆便所","province":"東京都","city":"文京区","address":"東京都文京区湯島1丁目5","lat":35.700731,"lon":139.7632},{"name":"根津神社表参道際公衆便所","province":"東京都","city":"文京区","address":"東京都文京区根津1丁目28","lat":35.719169,"lon":139.761309},{"name":"駕籠町公衆便所","province":"東京都","city":"文京区","address":"東京都文京区本駒込2丁目28","lat":35.729815,"lon":139.74583},{"name":"真砂坂公衆便所","province":"東京都","city":"文京区","address":"東京都文京区本郷4丁目13","lat":35.707954,"lon":139.755279},{"name":"窪町東公園内公衆便所","province":"東京都","city":"文京区","address":"東京都文京区大塚3丁目30","lat":35.719963,"lon":139.738941},{"name":"蓬莱町公衆便所","province":"東京都","city":"文京区","address":"東京都文京区向丘2丁目27","lat":35.722151,"lon":139.754993},{"name":"富坂上公衆便所","province":"東京都","city":"文京区","address":"東京都文京区春日1丁目13","lat":35.709503,"lon":139.748008},{"name":"播磨坂公衆便所","province":"東京都","city":"文京区","address":"東京都文京区小石川4丁目17","lat":35.716308,"lon":139.741534},{"name":"白山坂上公衆便所","province":"東京都","city":"文京区","address":"東京都文京区白山1丁目37","lat":35.722416,"lon":139.752686},{"name":"根津神社境内公衆便所","province":"東京都","city":"文京区","address":"東京都文京区根津1丁目28","lat":35.720611,"lon":139.760056},{"name":"護国寺前公衆便所","province":"東京都","city":"文京区","address":"東京都文京区大塚5丁目40","lat":35.720279,"lon":139.727014},{"name":"船河原橋際公衆便所","province":"東京都","city":"文京区","address":"東京都文京区後楽2丁目1","lat":35.703257,"lon":139.745213},{"name":"江戸川公園内公衆便所","province":"東京都","city":"文京区","address":"東京都文京区関口2丁目1","lat":35.710864,"lon":139.731053},{"name":"後楽公園内公衆便所","province":"東京都","city":"文京区","address":"東京都文京区後楽1丁目6","lat":35.706777,"lon":139.748894},{"name":"駒込公園内公衆便所","province":"東京都","city":"文京区","address":"東京都文京区本駒込3丁目18","lat":35.730597,"lon":139.757025},{"name":"農学部際公衆便所","province":"東京都","city":"文京区","address":"東京都文京区弥生1丁目1","lat":35.717006,"lon":139.759226},{"name":"後楽橋際公衆便所","province":"東京都","city":"文京区","address":"東京都文京区後楽1丁目2","lat":35.702735,"lon":139.751716},{"name":"湯島天神境内公衆便所","province":"東京都","city":"文京区","address":"東京都文京区湯島3丁目29","lat":35.707179,"lon":139.768213},{"name":"聖堂際公衆便所","province":"東京都","city":"文京区","address":"東京都文京区湯島1丁目4","lat":35.700462,"lon":139.76723},{"name":"文京江戸川橋体育館","province":"東京都","city":"文京区","address":"東京都文京区小日向1丁目7-4","lat":35.710219,"lon":139.735567},{"name":"文京スポーツセンター","province":"東京都","city":"文京区","address":"東京都文京区大塚3丁目29-2","lat":35.720609,"lon":139.736342},{"name":"文京スポーツセンター","province":"東京都","city":"文京区","address":"東京都文京区大塚3丁目29-2","lat":35.720631,"lon":139.736242},{"name":"文京スポーツセンター","province":"東京都","city":"文京区","address":"東京都文京区大塚3丁目29-2","lat":35.72046,"lon":139.736468},{"name":"文京総合体育館","province":"東京都","city":"文京区","address":"東京都文京区本郷7丁目1-2","lat":35.708289,"lon":139.763333},{"name":"文京総合体育館","province":"東京都","city":"文京区","address":"東京都文京区本郷7丁目1-2","lat":35.708165,"lon":139.76305},{"name":"文京総合体育館","province":"東京都","city":"文京区","address":"東京都文京区本郷7丁目1-2","lat":35.708253,"lon":139.762935},{"name":"小石川運動場","province":"東京都","city":"文京区","address":"東京都文京区後楽1丁目8-23","lat":35.705059,"lon":139.746442},{"name":"六義公園運動場","province":"東京都","city":"文京区","address":"東京都文京区本駒込6丁目16","lat":35.731383,"lon":139.745803},{"name":"文京保健所","province":"東京都","city":"文京区","address":"東京都文京区春日1丁目16-21","lat":35.70794517,"lon":139.75242748},{"name":"保健サービスセンター","province":"東京都","city":"文京区","address":"東京都文京区春日1丁目16-21","lat":35.70794517,"lon":139.75242748},{"name":"保健サービスセンター本郷支所","province":"東京都","city":"文京区","address":"東京都文京区千駄木5丁目20-18","lat":35.72709628,"lon":139.76017919},{"name":"文京福祉センター江戸川橋","province":"東京都","city":"文京区","address":"文京区小日向2-16-15","lat":35.71065,"lon":139.73488},{"name":"文京福祉センター湯島","province":"東京都","city":"文京区","address":"文京区本郷3-10-18","lat":35.70407,"lon":139.76379},{"name":"柳町児童館","province":"東京都","city":"文京区","address":"文京区小石川1-23-9","lat":35.71401,"lon":139.75053},{"name":"久堅児童館","province":"東京都","city":"文京区","address":"文京区小石川5-27-7","lat":35.71844,"lon":139.74146},{"name":"水道児童館","province":"東京都","city":"文京区","address":"文京区水道1-3-26","lat":35.70906,"lon":139.74171},{"name":"小日向台町児童館","province":"東京都","city":"文京区","address":"文京区小日向2-2-2","lat":35.71336,"lon":139.73482},{"name":"千石児童館","province":"東京都","city":"文京区","address":"文京区千石1-4-3","lat":35.72475,"lon":139.74319},{"name":"千石西児童館","province":"東京都","city":"文京区","address":"文京区千石3-15-15","lat":35.72508,"lon":139.73869},{"name":"大塚児童館","province":"東京都","city":"文京区","address":"文京区大塚6-22-19","lat":35.72487,"lon":139.72557},{"name":"目白台児童館","province":"東京都","city":"文京区","address":"文京区目白台1-5-1","lat":35.71376,"lon":139.7206},{"name":"目日台第二児童館","province":"東京都","city":"文京区","address":"文京区目白台3-18-7","lat":35.71765,"lon":139.72348},{"name":"白山東児童館","province":"東京都","city":"文京区","address":"文京区白山1-29-10","lat":35.71922,"lon":139.75258},{"name":"本駒込南児童館","province":"東京都","city":"文京区","address":"文京区本駒込3-11-14","lat":35.72791,"lon":139.75514},{"name":"本駒込児童館","province":"東京都","city":"文京区","address":"文京区本駒込5-63-2","lat":35.73381,"lon":139.75244},{"name":"しおみ児童館","province":"東京都","city":"文京区","address":"文京区千駄木2-27-8","lat":35.72475,"lon":139.76186},{"name":"根津児童館","province":"東京都","city":"文京区","address":"文京区根津1-14-3","lat":35.71834,"lon":139.76311},{"name":"湯島児童館","province":"東京都","city":"文京区","address":"文京区本郷3-10-18","lat":35.70407,"lon":139.76379},{"name":"本郷児童館","province":"東京都","city":"文京区","address":"文京区本郷5-30-8","lat":35.71175,"lon":139.75862},{"name":"文京区社会福祉協議会","province":"東京都","city":"文京区","address":"文京区本郷4-15-14文京区民センター4階","lat":35.70855,"lon":139.75456},{"name":"文京区","province":"東京都","city":"文京区","address":"文京区春日1-16-21","lat":35.70794,"lon":139.75278},{"name":"文京保健所","province":"東京都","city":"文京区","address":"文京区春日1-16-21","lat":35.70794,"lon":139.75278},{"name":"保健サービスセンター","province":"東京都","city":"文京区","address":"文京区春日1-16-21","lat":35.70794,"lon":139.75278},{"name":"保健サービスセンター本郷支所","province":"東京都","city":"文京区","address":"文京区千駄木5-20-18","lat":35.72718,"lon":139.76012},{"name":"文京区子ども家庭支援センター","province":"東京都","city":"文京区","address":"文京区春日1-16-21シビックセンター5階","lat":35.70794,"lon":139.75278},{"name":"東京都福祉人材センター研修室","province":"東京都","city":"文京区","address":"文京区小日向4-1-6東京都社会福祉保健医療研修センター1階","lat":35.71382,"lon":139.74043},{"name":"東京都発達障害者支援センター（おとなTOSCA）※対象者が１８歳以上","province":"東京都","city":"文京区","address":"文京区大塚4-45-16","lat":35.72197,"lon":139.73204},{"name":"文京区福祉センター湯島","province":"東京都","city":"文京区","address":"文京区本郷3-10-18","lat":35.70407,"lon":139.76379},{"name":"文京福祉センター江戸川橋","province":"東京都","city":"文京区","address":"文京区小日向2-16-15","lat":35.710581,"lon":139.734582},{"name":"文京福祉センター湯島","province":"東京都","city":"文京区","address":"文京区本郷3-10-18","lat":35.718659,"lon":139.635873},{"name":"文京区福祉センター湯島","province":"東京都","city":"文京区","address":"文京区本郷3-10-18","lat":35.70408,"lon":139.76379},{"name":"千石児童館","province":"東京都","city":"文京区","address":"文京区千石1-4-3","lat":35.72475,"lon":139.7432},{"name":"湯島児童館","province":"東京都","city":"文京区","address":"文京区本郷3-10-18","lat":35.70408,"lon":139.76379},{"name":"文京区保健所","province":"東京都","city":"文京区","address":"文京区春日1-16-21","lat":35.70794,"lon":139.75278},{"name":"日本医科大学付属病院","province":"東京都","city":"文京区","address":"東京都文京区千駄木1丁目1-5","lat":35.72107737,"lon":139.75886828},{"name":"都立駒込病院","province":"東京都","city":"文京区","address":"東京都文京区本駒込3丁目18-22","lat":35.72994856,"lon":139.75609048},{"name":"順天堂大学医学部附属順天堂医院","province":"東京都","city":"文京区","address":"東京都文京区本郷3丁目1-3","lat":35.70250161,"lon":139.76261313},{"name":"東京医科歯科大学医学部附属病院","province":"東京都","city":"文京区","address":"東京都文京区湯島1丁目5-45","lat":35.70099629,"lon":139.76491864},{"name":"東京大学医学部付属病院","province":"東京都","city":"文京区","address":"東京都文京区本郷7丁目3-1","lat":35.71203394,"lon":139.76277932},{"name":"＊?文京区男女平等センター","province":"東京都","city":"文京区","address":"文京区本郷4-8-3","lat":35.708552,"lon":139.757477},{"name":"文京区","province":"東京都","city":"文京区","address":"文京区春日1-16-21","lat":35.707951,"lon":139.75243},{"name":"大塚児童館","province":"東京都","city":"文京区","address":"東京都文京区大塚6丁目22番地19号","lat":35.724635,"lon":139.725646},{"name":"千石児童館","province":"東京都","city":"文京区","address":"東京都文京区千石1丁目4番地3号","lat":35.724815,"lon":139.743264},{"name":"水道児童館","province":"東京都","city":"文京区","address":"東京都文京区水道1丁目3番地26号","lat":35.709567,"lon":139.742295},{"name":"本駒込児童館","province":"東京都","city":"文京区","address":"東京都文京区本駒込5丁目63番地2号","lat":35.733842,"lon":139.752437},{"name":"千石西児童館","province":"東京都","city":"文京区","address":"東京都文京区千石3丁目15番地15号","lat":35.724914,"lon":139.738226},{"name":"小日向台町児童館","province":"東京都","city":"文京区","address":"東京都文京区小日向2丁目2番地2号","lat":35.712998,"lon":139.734867},{"name":"目白台児童館","province":"東京都","city":"文京区","address":"東京都文京区目白台1丁目5番地1号","lat":35.713831,"lon":139.720661},{"name":"湯島児童館","province":"東京都","city":"文京区","address":"東京都文京区本郷3丁目10番地18号","lat":35.704012,"lon":139.763646},{"name":"白山東児童館","province":"東京都","city":"文京区","address":"東京都文京区白山1丁目29番地10号","lat":35.719136,"lon":139.753069},{"name":"根津児童館","province":"東京都","city":"文京区","address":"東京都文京区根津1丁目14番地3号","lat":35.718439,"lon":139.763222},{"name":"本郷児童館","province":"東京都","city":"文京区","address":"東京都文京区本郷5丁目30番地8号","lat":35.711666,"lon":139.758275},{"name":"子育てひろば水道","province":"東京都","city":"文京区","address":"東京都文京区水道1-3-26(水道保育園内)","lat":35.709567,"lon":139.742295},{"name":"子育てひろば千石","province":"東京都","city":"文京区","address":"東京都文京区千石1丁目4番3号(千石児童館内)","lat":35.724815,"lon":139.743264},{"name":"第五方面交通機動隊","province":"東京都","city":"文京区","address":"文京区春日1-5-12","lat":35.70814,"lon":139.7478},{"name":"第五方面本部","province":"東京都","city":"文京区","address":"文京区春日1-5-12","lat":35.70814,"lon":139.7478},{"name":"大塚警察署","province":"東京都","city":"文京区","address":"文京区目白台3-28-3/(平成27年8月まで)","lat":35.71681,"lon":139.7263},{"name":"駒込警察署","province":"東京都","city":"文京区","address":"文京区本駒込2-28-18","lat":35.7311,"lon":139.7483},{"name":"富坂警察署","province":"東京都","city":"文京区","address":"文京区小石川2-14-2","lat":35.7105,"lon":139.747},{"name":"本富士警察署","province":"東京都","city":"文京区","address":"文京区本郷7-1-7","lat":35.70775,"lon":139.7634},{"name":"小石川消防署","province":"東京都","city":"文京区","address":"文京区白山3-3-1","lat":35.7191,"lon":139.7428},{"name":"本郷消防署","province":"東京都","city":"文京区","address":"文京区本郷7-1-11","lat":35.70786,"lon":139.7629},{"name":"東京大学御殿下グラウンド","province":"東京都","city":"文京区","address":"文京区本郷7-3-1","lat":35.712062,"lon":139.762697},{"name":"東京大学医学部付属病院ヘリポート","province":"東京都","city":"文京区","address":"文京区本郷7-3-1","lat":35.712062,"lon":139.762697},{"name":"順天堂大学医学部附属順天堂医院ヘリポート","province":"東京都","city":"文京区","address":"文京区本郷3-1-3","lat":35.702238,"lon":139.762486},{"name":"東京医科歯科大学医学部附属病院ヘリポート","province":"東京都","city":"文京区","address":"文京区湯島1-5-45","lat":35.700977,"lon":139.764941},{"name":"市兵衛河岸","province":"東京都","city":"文京区","address":"文京区後楽1丁目","lat":35.7053,"lon":139.7519},{"name":"高齢者あんしん相談センター富坂","province":"東京都","city":"文京区","address":"東京都文京区白山5丁目16番3号","lat":35.724688,"lon":139.746734},{"name":"高齢者あんしん相談センター富坂分室","province":"東京都","city":"文京区","address":"東京都文京区小石川2丁目18番18号","lat":35.711945,"lon":139.750345},{"name":"高齢者あんしん相談センター大塚","province":"東京都","city":"文京区","address":"東京都文京区大塚4丁目50番1号","lat":35.724654,"lon":139.730809},{"name":"高齢者あんしん相談センター大塚分室","province":"東京都","city":"文京区","address":"東京都文京区音羽1丁目15番12号","lat":35.715336,"lon":139.729627},{"name":"高齢者あんしん相談センター本富士","province":"東京都","city":"文京区","address":"東京都文京区本郷2丁目40番11号","lat":35.707346,"lon":139.760406},{"name":"高齢者あんしん相談センター本富士分室","province":"東京都","city":"文京区","address":"東京都文京区西片2丁目19番15号","lat":35.704504,"lon":139.759142},{"name":"高齢者あんしん相談センター駒込","province":"東京都","city":"文京区","address":"東京都文京区千駄木5丁目19番2号","lat":35.726782,"lon":139.760027},{"name":"高齢者あんしん相談センター駒込分室","province":"東京都","city":"文京区","address":"東京都文京区本駒込2丁目28番10号","lat":35.730751,"lon":139.747619},{"name":"大塚児童館","province":"東京都","city":"文京区","address":"東京都文京区大塚6丁目22番地19号","lat":35.7246349999999,"lon":139.725646},{"name":"しおみ児童館","province":"東京都","city":"文京区","address":"東京都文京区千駄木2丁目27番地8号","lat":35.724935,"lon":139.761908},{"name":"千石児童館","province":"東京都","city":"文京区","address":"東京都文京区千石1丁目4番地3号","lat":35.7248149999999,"lon":139.743264},{"name":"水道児童館","province":"東京都","city":"文京区","address":"東京都文京区水道1丁目3番地26号","lat":35.7095669999999,"lon":139.742295},{"name":"本駒込児童館","province":"東京都","city":"文京区","address":"東京都文京区本駒込5丁目63番地2号","lat":35.733842,"lon":139.752436999999},{"name":"本駒込南児童館","province":"東京都","city":"文京区","address":"東京都文京区本駒込3丁目11番地14号","lat":35.727715,"lon":139.755128},{"name":"久堅児童館","province":"東京都","city":"文京区","address":"東京都文京区小石川5丁目27番地7号","lat":35.718614,"lon":139.741553},{"name":"柳町児童館","province":"東京都","city":"文京区","address":"東京都文京区小石川1丁目23番地9号","lat":35.713709,"lon":139.750506},{"name":"千石西児童館","province":"東京都","city":"文京区","address":"東京都文京区千石3丁目15番地15号","lat":35.7249139999999,"lon":139.738225999999},{"name":"小日向台町児童館","province":"東京都","city":"文京区","address":"東京都文京区小日向2丁目2番地2号","lat":35.7129979999999,"lon":139.734867},{"name":"目白台児童館","province":"東京都","city":"文京区","address":"東京都文京区目白台1丁目5番地1号","lat":35.7138309999999,"lon":139.720661},{"name":"湯島児童館","province":"東京都","city":"文京区","address":"東京都文京区本郷3丁目10番地18号","lat":35.7040119999999,"lon":139.763645999999},{"name":"白山東児童館","province":"東京都","city":"文京区","address":"東京都文京区白山1丁目29番地10号","lat":35.7191359999999,"lon":139.753069},{"name":"根津児童館","province":"東京都","city":"文京区","address":"東京都文京区根津1丁目14番地3号","lat":35.7184389999999,"lon":139.763222},{"name":"目白台第二児童館","province":"東京都","city":"文京区","address":"東京都文京区目白台3丁目18番地7号","lat":35.717258,"lon":139.723396},{"name":"本郷児童館","province":"東京都","city":"文京区","address":"東京都文京区本郷5丁目30番地8号","lat":35.711666,"lon":139.758274999999},{"name":"保坂病児保育ルーム","province":"東京都","city":"文京区","address":"東京都文京区白山五丁目27番12号","lat":35.724533,"lon":139.750092},{"name":"順天堂病後児ルーム「みつばち」","province":"東京都","city":"文京区","address":"東京都文京区本郷一丁目1番19号","lat":35.702844,"lon":139.758249},{"name":"東京都立駒込病院病児・病後児保育室「ろびん」","province":"東京都","city":"文京区","address":"東京都文京区本駒込三丁目18番22号","lat":35.72993,"lon":139.75638},{"name":"ゆうひが丘春日病児保育ルーム","province":"東京都","city":"文京区","address":"東京都文京区小石川一丁目5番1号","lat":35.71048,"lon":139.75261},{"name":"子育てひろば西片","province":"東京都","city":"文京区","address":"東京都文京区西片1丁目8番15号","lat":35.712588,"lon":139.754057},{"name":"子育てひろば汐見","province":"東京都","city":"文京区","address":"東京都文京区千駄木2丁目19番23号(汐見小学校内)","lat":35.724296,"lon":139.760809},{"name":"子育てひろば江戸川橋","province":"東京都","city":"文京区","address":"東京都文京区小日向2丁目16番15号(文京総合福祉センター3階)","lat":35.710662,"lon":139.734753},{"name":"子育てひろば水道","province":"東京都","city":"文京区","address":"東京都文京区水道1-3-26(水道保育園内)","lat":35.7095669999999,"lon":139.742295},{"name":"子育てひろば千石","province":"東京都","city":"文京区","address":"東京都文京区千石1丁目4番3号(千石児童館内)","lat":35.7248149999999,"lon":139.743264},{"name":"こまぴよのおうち","province":"東京都","city":"文京区","address":"東京都文京区本駒込五丁目11番6号","lat":35.731435,"lon":139.75271},{"name":"こそだておうえんまちぷら","province":"東京都","city":"文京区","address":"東京都文京区本郷三丁目9番5号NK本郷ビル4階","lat":35.704574,"lon":139.763083},{"name":"さきちゃんちpetit","province":"東京都","city":"文京区","address":"東京都文京区白山二丁目14番17号1階","lat":35.717548,"lon":139.746094},{"name":"文京福祉センター江戸川橋","province":"東京都","city":"文京区","address":"東京都文京区小日向二丁目16番15号","lat":35.710602,"lon":139.734647},{"name":"文京福祉センター湯島","province":"東京都","city":"文京区","address":"東京都文京区本郷三丁目10番18号","lat":35.70386,"lon":139.763775},{"name":"久堅児童館","province":"東京都","city":"文京区","address":"文京区小石川5-27-7","lat":35.718613,"lon":139.741553},{"name":"柳町児童館","province":"東京都","city":"文京区","address":"文京区小石川1-23-9","lat":35.714183,"lon":139.750347},{"name":"水道児童館","province":"東京都","city":"文京区","address":"文京区水道1-3-26","lat":35.709575,"lon":139.742301},{"name":"小日向台町児童館","province":"東京都","city":"文京区","address":"文京区小日向2-2-2","lat":35.713019,"lon":139.734812},{"name":"千石児童館","province":"東京都","city":"文京区","address":"文京区千石1-4-3","lat":35.724504,"lon":139.743342},{"name":"千石西児童館","province":"東京都","city":"文京区","address":"文京区千石3-15-15","lat":35.724915,"lon":139.738225},{"name":"大塚児童館","province":"東京都","city":"文京区","address":"文京区大塚6-22-19","lat":35.724637,"lon":139.725646},{"name":"目白台児童館","province":"東京都","city":"文京区","address":"文京区目白台1-5-1","lat":35.713805,"lon":139.720575},{"name":"目日台第二児童館","province":"東京都","city":"文京区","address":"文京区目白台3-18-7","lat":35.717213,"lon":139.723377},{"name":"白山東児童館","province":"東京都","city":"文京区","address":"文京区白山1-29-10","lat":35.719072,"lon":139.752972},{"name":"本駒込児童館","province":"東京都","city":"文京区","address":"文京区本駒込5-63-2","lat":35.733809,"lon":139.752493},{"name":"本駒込南児童館","province":"東京都","city":"文京区","address":"文京区本駒込3-11-14","lat":35.72781,"lon":139.755141},{"name":"しおみ児童館","province":"東京都","city":"文京区","address":"文京区千駄木2-27-8","lat":35.725002,"lon":139.761935},{"name":"根津児童館","province":"東京都","city":"文京区","address":"文京区根津1-14-3","lat":35.718322,"lon":139.763413},{"name":"本郷児童館","province":"東京都","city":"文京区","address":"文京区本郷5-30-8","lat":35.711667,"lon":139.758274},{"name":"湯島児童館","province":"東京都","city":"文京区","address":"文京区本郷3-10-18","lat":35.70396,"lon":139.763674},{"name":"リアン文京","province":"東京都","city":"文京区","address":"文京区小日向2-16-15","lat":35.710581,"lon":139.734582},{"name":"文京区子ども家庭支援センター","province":"東京都","city":"文京区","address":"文京区春日1-16-21シビックセンター5階","lat":35.707951,"lon":139.75243},{"name":"東京都福祉人材センター研修室","province":"東京都","city":"文京区","address":"文京区小日向4-1-6東京都社会福祉保健医療研修センター1階","lat":35.713955,"lon":139.740684},{"name":"東京都社会福祉保健医療研修センター","province":"東京都","city":"文京区","address":"東京都文京区小日向4丁目1-6","lat":35.713863,"lon":139.740606},{"name":"東京都社会福祉保健医療研修センター","province":"東京都","city":"文京区","address":"東京都文京区小日向4丁目1-6","lat":35.713671,"lon":139.740738},{"name":"東京都社会福祉保健医療研修センター","province":"東京都","city":"文京区","address":"東京都文京区小日向4丁目1-6","lat":35.713724,"lon":139.740686},{"name":"六義園","province":"東京都","city":"文京区","address":"東京都文京区本駒込6丁目16","lat":35.732548,"lon":139.748457},{"name":"小石川後楽園","province":"東京都","city":"文京区","address":"東京都文京区後楽1丁目6","lat":35.706098,"lon":139.748542},{"name":"小石川後楽園","province":"東京都","city":"文京区","address":"東京都文京区後楽1丁目6","lat":35.705139,"lon":139.74823},{"name":"小石川後楽園","province":"東京都","city":"文京区","address":"東京都文京区後楽1丁目6","lat":35.704683,"lon":139.748423},{"name":"都営三田線駅白山駅","province":"東京都","city":"文京区","address":"東京都文京区白山1丁目33","lat":35.721384,"lon":139.75215},{"name":"都営三田線駅水道橋駅","province":"東京都","city":"文京区","address":"東京都文京区本郷1丁目14","lat":35.703881,"lon":139.755189},{"name":"都営三田線駅春日駅","province":"東京都","city":"文京区","address":"東京都文京区本郷4丁目17","lat":35.709252,"lon":139.753261},{"name":"都営三田線駅千石駅","province":"東京都","city":"文京区","address":"東京都文京区千石1丁目27","lat":35.72818,"lon":139.744283},{"name":"都営大江戸線飯田橋駅","province":"東京都","city":"文京区","address":"東京都文京区後楽1丁目9","lat":35.703705,"lon":139.746953},{"name":"都営大江戸線春日駅","province":"東京都","city":"文京区","address":"東京都文京区小石川1丁目1","lat":35.708528,"lon":139.752714},{"name":"都営大江戸線本郷三丁目駅","province":"東京都","city":"文京区","address":"東京都文京区本郷4丁目1","lat":35.707581,"lon":139.760802},{"name":"東京都水道局文京営業所","province":"東京都","city":"文京区","address":"東京都文京区西片2丁目16-23","lat":35.717954,"lon":139.75532},{"name":"東京都水道歴史館","province":"東京都","city":"文京区","address":"東京都文京区本郷2丁目7","lat":35.703347,"lon":139.760492},{"name":"文京シビックセンター","province":"東京都","city":"文京区","address":"東京都文京区春日1丁目16-21","lat":35.708164,"lon":139.752379},{"name":"小石川四丁目児童遊園","province":"東京都","city":"文京区","address":"東京都文京区小石川4丁目13","lat":35.715557,"lon":139.744235},{"name":"文京シビックセンター","province":"東京都","city":"文京区","address":"東京都文京区春日1丁目16-21","lat":35.708233,"lon":139.753053},{"name":"文京シビックセンター","province":"東京都","city":"文京区","address":"東京都文京区春日1丁目16-21","lat":35.708061,"lon":139.752875},{"name":"文京区立駕籠町会館","province":"東京都","city":"文京区","address":"東京都文京区本駒込6丁目2","lat":35.729488,"lon":139.743633},{"name":"文京区立大塚北会館","province":"東京都","city":"文京区","address":"東京都文京区大塚6丁目15-3","lat":35.726061,"lon":139.725775},{"name":"白山東会館","province":"東京都","city":"文京区","address":"東京都文京区白山1丁目29-10","lat":35.719124,"lon":139.753077},{"name":"文京区立目白台交流館","province":"東京都","city":"文京区","address":"東京都文京区目白台3丁目18-7","lat":35.717167,"lon":139.723397},{"name":"文京区教育センター（青少年プラザ）","province":"東京都","city":"文京区","address":"東京都文京区湯島4丁目7-10","lat":35.708834,"lon":139.765707},{"name":"勤労福祉会館","province":"東京都","city":"文京区","address":"東京都文京区本駒込4丁目35-15","lat":35.733356,"lon":139.755084},{"name":"勤労福祉会館","province":"東京都","city":"文京区","address":"東京都文京区本駒込4丁目35-15","lat":35.733306,"lon":139.755108},{"name":"男女平等センター","province":"東京都","city":"文京区","address":"東京都文京区本郷4丁目8-3","lat":35.708604,"lon":139.757476},{"name":"文京福祉センター江戸川橋","province":"東京都","city":"文京区","address":"東京都文京区小日向2丁目16-15","lat":35.710642,"lon":139.73448},{"name":"文京総合福祉センター","province":"東京都","city":"文京区","address":"東京都文京区小日向2丁目16-15","lat":35.710486,"lon":139.734726},{"name":"礫川地域活動センター","province":"東京都","city":"文京区","address":"東京都文京区小石川2丁目18-18","lat":35.711934,"lon":139.750347},{"name":"大原地域活動センター","province":"東京都","city":"文京区","address":"東京都文京区千石1丁目4","lat":35.724755,"lon":139.743159},{"name":"音羽地域活動センター","province":"東京都","city":"文京区","address":"東京都文京区音羽1丁目22-14","lat":35.713899,"lon":139.729737},{"name":"向丘地域活動センター","province":"東京都","city":"文京区","address":"東京都文京区向丘1丁目20-8","lat":35.717226,"lon":139.757641},{"name":"不忍通りふれあい館（根津地域活動センター）","province":"東京都","city":"文京区","address":"東京都文京区根津2丁目20-7","lat":35.719211,"lon":139.764243},{"name":"汐見地域活動センター","province":"東京都","city":"文京区","address":"東京都文京区千駄木3丁目2-6","lat":35.725544,"lon":139.761441},{"name":"駒込地域活動センター","province":"東京都","city":"文京区","address":"東京都文京区本駒込3丁目22-4","lat":35.728568,"lon":139.752448},{"name":"文京区民センター","province":"東京都","city":"文京区","address":"東京都文京区本郷4丁目15-14","lat":35.708811,"lon":139.75424},{"name":"大塚地域活動センター","province":"東京都","city":"文京区","address":"東京都文京区大塚1丁目4","lat":35.71822,"lon":139.73584},{"name":"保健サービスセンター本郷支所","province":"東京都","city":"文京区","address":"東京都文京区千駄木5丁目20-18","lat":35.726908,"lon":139.760422},{"name":"真砂中央図書館","province":"東京都","city":"文京区","address":"東京都文京区本郷4丁目8-15","lat":35.708443,"lon":139.757152},{"name":"文京区立本郷図書館","province":"東京都","city":"文京区","address":"東京都文京区千駄木3丁目2-6","lat":35.725572,"lon":139.761425},{"name":"本駒込図書館","province":"東京都","city":"文京区","address":"東京都文京区本駒込4丁目35","lat":35.732973,"lon":139.755506},{"name":"水道端図書館","province":"東京都","city":"文京区","address":"東京都文京区水道2丁目16-14","lat":35.710637,"lon":139.737709},{"name":"目白台図書館","province":"東京都","city":"文京区","address":"東京都文京区関口3丁目17-9","lat":35.71518,"lon":139.725559},{"name":"千石図書館　アカデミー千石","province":"東京都","city":"文京区","address":"東京都文京区千石1丁目25-3","lat":35.727615,"lon":139.743621},{"name":"湯島図書館","province":"東京都","city":"文京区","address":"東京都文京区本郷3丁目10-18","lat":35.703951,"lon":139.763794},{"name":"森鴎外記念館","province":"東京都","city":"文京区","address":"東京都文京区千駄木1丁目23-4","lat":35.724841,"lon":139.760632},{"name":"アカデミー湯島","province":"東京都","city":"文京区","address":"東京都文京区湯島2丁目28-14","lat":35.706656,"lon":139.76662},{"name":"アカデミー音羽","province":"東京都","city":"文京区","address":"東京都文京区大塚5丁目40-15","lat":35.720074,"lon":139.725569},{"name":"アカデミー茗台","province":"東京都","city":"文京区","address":"東京都文京区春日2丁目9-5","lat":35.713418,"lon":139.741462},{"name":"アカデミー茗台","province":"東京都","city":"文京区","address":"東京都文京区春日2丁目9-5","lat":35.713433,"lon":139.741274},{"name":"大塚公園","province":"東京都","city":"文京区","address":"東京都文京区大塚4丁目49","lat":35.72433,"lon":139.731797},{"name":"須藤公園","province":"東京都","city":"文京区","address":"東京都文京区千駄木3丁目4","lat":35.726125,"lon":139.762562},{"name":"白山公園","province":"東京都","city":"文京区","address":"東京都文京区白山5丁目31","lat":35.722249,"lon":139.750559},{"name":"根津二丁目児童遊園","province":"東京都","city":"文京区","address":"東京都文京区根津2丁目22","lat":35.719191,"lon":139.765466},{"name":"教育の森公園","province":"東京都","city":"文京区","address":"東京都文京区大塚3丁目29","lat":35.719297,"lon":139.736318},{"name":"教育の森公園","province":"東京都","city":"文京区","address":"東京都文京区大塚3丁目29","lat":35.719291,"lon":139.736311},{"name":"駕籠町公園","province":"東京都","city":"文京区","address":"東京都文京区本駒込2丁目10","lat":35.727992,"lon":139.746281},{"name":"六義公園","province":"東京都","city":"文京区","address":"東京都文京区本駒込6丁目16","lat":35.73206,"lon":139.747339},{"name":"動坂公園","province":"東京都","city":"文京区","address":"東京都文京区本駒込4丁目18","lat":35.731983,"lon":139.756453},{"name":"大観音児童遊園","province":"東京都","city":"文京区","address":"東京都文京区向丘2丁目38","lat":35.724517,"lon":139.756705},{"name":"千石公園","province":"東京都","city":"文京区","address":"東京都文京区千石1丁目4","lat":35.72443,"lon":139.74315},{"name":"新花公園","province":"東京都","city":"文京区","address":"東京都文京区湯島2丁目31","lat":35.706882,"lon":139.766586},{"name":"新大塚公園","province":"東京都","city":"文京区","address":"東京都文京区大塚1丁目8","lat":35.717458,"lon":139.733204},{"name":"江戸川公園","province":"東京都","city":"文京区","address":"東京都文京区関口2丁目1","lat":35.710602,"lon":139.725886},{"name":"大塚窪町公園","province":"東京都","city":"文京区","address":"東京都文京区大塚3丁目26","lat":35.72222,"lon":139.736341},{"name":"礫川公園","province":"東京都","city":"文京区","address":"東京都文京区春日1丁目15","lat":35.708136,"lon":139.751389},{"name":"竹早公園","province":"東京都","city":"文京区","address":"東京都文京区小石川5丁目9","lat":35.717006,"lon":139.739905},{"name":"肥後細川庭園","province":"東京都","city":"文京区","address":"東京都文京区目白台1丁目1-22","lat":35.713291,"lon":139.721868},{"name":"肥後細川庭園","province":"東京都","city":"文京区","address":"東京都文京区目白台1丁目1","lat":35.713353,"lon":139.722173},{"name":"目白台運動公園","province":"東京都","city":"文京区","address":"東京都文京区目白台1丁目20","lat":35.714578,"lon":139.722773},{"name":"目白台運動公園","province":"東京都","city":"文京区","address":"東京都文京区目白台1丁目20","lat":35.714582,"lon":139.722863},{"name":"文京宮下公園","province":"東京都","city":"文京区","address":"東京都文京区千石4丁目23","lat":35.729958,"lon":139.739029},{"name":"本郷給水所公苑","province":"東京都","city":"文京区","address":"東京都文京区本郷2丁目7","lat":35.703062,"lon":139.759433},{"name":"お茶の水公園","province":"東京都","city":"文京区","address":"東京都文京区湯島1丁目4","lat":35.700992,"lon":139.766143},{"name":"小石川一丁目児童遊園","province":"東京都","city":"文京区","address":"東京都文京区小石川1丁目24","lat":35.714312,"lon":139.74986},{"name":"西片公園内公衆便所","province":"東京都","city":"文京区","address":"東京都文京区西片2丁目3","lat":35.71395,"lon":139.755352},{"name":"久堅公園","province":"東京都","city":"文京区","address":"東京都文京区小石川5丁目27","lat":35.718179,"lon":139.741811},{"name":"神明都電車庫跡公園","province":"東京都","city":"文京区","address":"東京都文京区本駒込4丁目35-15","lat":35.7333014,"lon":139.755095},{"name":"白山四丁目第二児童遊園","province":"東京都","city":"文京区","address":"東京都文京区白山4丁目4","lat":35.720289,"lon":139.74678},{"name":"水道一丁目児童遊園","province":"東京都","city":"文京区","address":"東京都文京区水道1丁目6","lat":35.710245,"lon":139.74059},{"name":"関口一丁目公衆便所","province":"東京都","city":"文京区","address":"東京都文京区関口1丁目9","lat":35.70882,"lon":139.732651},{"name":"御茶の水橋際公衆便所","province":"東京都","city":"文京区","address":"東京都文京区湯島1丁目5","lat":35.700731,"lon":139.7632},{"name":"根津神社表参道際公衆便所","province":"東京都","city":"文京区","address":"東京都文京区根津1丁目28","lat":35.719169,"lon":139.761309},{"name":"駕籠町公衆便所","province":"東京都","city":"文京区","address":"東京都文京区本駒込2丁目28","lat":35.729815,"lon":139.74583},{"name":"真砂坂公衆便所","province":"東京都","city":"文京区","address":"東京都文京区本郷4丁目13","lat":35.707954,"lon":139.755279},{"name":"窪町東公園内公衆便所","province":"東京都","city":"文京区","address":"東京都文京区大塚3丁目30","lat":35.719963,"lon":139.738941},{"name":"蓬莱町公衆便所","province":"東京都","city":"文京区","address":"東京都文京区向丘2丁目27","lat":35.722151,"lon":139.754993},{"name":"富坂上公衆便所","province":"東京都","city":"文京区","address":"東京都文京区春日1丁目13","lat":35.709503,"lon":139.748008},{"name":"播磨坂公衆便所","province":"東京都","city":"文京区","address":"東京都文京区小石川4丁目17","lat":35.716308,"lon":139.741534},{"name":"白山坂上公衆便所","province":"東京都","city":"文京区","address":"東京都文京区白山1丁目37","lat":35.722416,"lon":139.752686},{"name":"根津神社境内公衆便所","province":"東京都","city":"文京区","address":"東京都文京区根津1丁目28","lat":35.720611,"lon":139.760056},{"name":"護国寺前公衆便所","province":"東京都","city":"文京区","address":"東京都文京区大塚5丁目40","lat":35.720279,"lon":139.727014},{"name":"船河原橋際公衆便所","province":"東京都","city":"文京区","address":"東京都文京区後楽2丁目1","lat":35.703257,"lon":139.745213},{"name":"江戸川公園内公衆便所","province":"東京都","city":"文京区","address":"東京都文京区関口2丁目1","lat":35.710864,"lon":139.731053},{"name":"後楽公園内公衆便所","province":"東京都","city":"文京区","address":"東京都文京区後楽1丁目6","lat":35.706777,"lon":139.748894},{"name":"駒込公園内公衆便所","province":"東京都","city":"文京区","address":"東京都文京区本駒込3丁目18","lat":35.730597,"lon":139.757025},{"name":"農学部際公衆便所","province":"東京都","city":"文京区","address":"東京都文京区弥生1丁目1","lat":35.717006,"lon":139.759226},{"name":"後楽橋際公衆便所","province":"東京都","city":"文京区","address":"東京都文京区後楽1丁目2","lat":35.702735,"lon":139.751716},{"name":"湯島天神境内公衆便所","province":"東京都","city":"文京区","address":"東京都文京区湯島3丁目29","lat":35.707179,"lon":139.768213},{"name":"聖堂際公衆便所","province":"東京都","city":"文京区","address":"東京都文京区湯島1丁目4","lat":35.700462,"lon":139.76723},{"name":"文京江戸川橋体育館","province":"東京都","city":"文京区","address":"東京都文京区小日向1丁目7-4","lat":35.710219,"lon":139.735567},{"name":"文京スポーツセンター","province":"東京都","city":"文京区","address":"東京都文京区大塚3丁目29-2","lat":35.720609,"lon":139.736342},{"name":"文京スポーツセンター","province":"東京都","city":"文京区","address":"東京都文京区大塚3丁目29-2","lat":35.720631,"lon":139.736242},{"name":"文京スポーツセンター","province":"東京都","city":"文京区","address":"東京都文京区大塚3丁目29-2","lat":35.72046,"lon":139.736468},{"name":"文京総合体育館","province":"東京都","city":"文京区","address":"東京都文京区本郷7丁目1-2","lat":35.708289,"lon":139.763333},{"name":"文京総合体育館","province":"東京都","city":"文京区","address":"東京都文京区本郷7丁目1-2","lat":35.708165,"lon":139.76305},{"name":"文京総合体育館","province":"東京都","city":"文京区","address":"東京都文京区本郷7丁目1-2","lat":35.708253,"lon":139.762935},{"name":"小石川運動場","province":"東京都","city":"文京区","address":"東京都文京区後楽1丁目8-23","lat":35.705059,"lon":139.746442},{"name":"六義公園運動場","province":"東京都","city":"文京区","address":"東京都文京区本駒込6丁目16","lat":35.731383,"lon":139.745803},{"name":"文京保健所","province":"東京都","city":"文京区","address":"東京都文京区春日1丁目16-21","lat":35.70794517,"lon":139.75242748},{"name":"保健サービスセンター","province":"東京都","city":"文京区","address":"東京都文京区春日1丁目16-21","lat":35.70794517,"lon":139.75242748},{"name":"保健サービスセンター本郷支所","province":"東京都","city":"文京区","address":"東京都文京区千駄木5丁目20-18","lat":35.72709628,"lon":139.76017919},{"name":"文京福祉センター江戸川橋","province":"東京都","city":"文京区","address":"文京区小日向2-16-15","lat":35.71065,"lon":139.73488},{"name":"文京福祉センター湯島","province":"東京都","city":"文京区","address":"文京区本郷3-10-18","lat":35.70407,"lon":139.76379},{"name":"柳町児童館","province":"東京都","city":"文京区","address":"文京区小石川1-23-9","lat":35.71401,"lon":139.75053},{"name":"久堅児童館","province":"東京都","city":"文京区","address":"文京区小石川5-27-7","lat":35.71844,"lon":139.74146},{"name":"水道児童館","province":"東京都","city":"文京区","address":"文京区水道1-3-26","lat":35.70906,"lon":139.74171},{"name":"小日向台町児童館","province":"東京都","city":"文京区","address":"文京区小日向2-2-2","lat":35.71336,"lon":139.73482},{"name":"千石児童館","province":"東京都","city":"文京区","address":"文京区千石1-4-3","lat":35.72475,"lon":139.74319},{"name":"千石西児童館","province":"東京都","city":"文京区","address":"文京区千石3-15-15","lat":35.72508,"lon":139.73869},{"name":"大塚児童館","province":"東京都","city":"文京区","address":"文京区大塚6-22-19","lat":35.72487,"lon":139.72557},{"name":"目白台児童館","province":"東京都","city":"文京区","address":"文京区目白台1-5-1","lat":35.71376,"lon":139.7206},{"name":"目日台第二児童館","province":"東京都","city":"文京区","address":"文京区目白台3-18-7","lat":35.71765,"lon":139.72348},{"name":"白山東児童館","province":"東京都","city":"文京区","address":"文京区白山1-29-10","lat":35.71922,"lon":139.75258},{"name":"本駒込南児童館","province":"東京都","city":"文京区","address":"文京区本駒込3-11-14","lat":35.72791,"lon":139.75514},{"name":"本駒込児童館","province":"東京都","city":"文京区","address":"文京区本駒込5-63-2","lat":35.73381,"lon":139.75244},{"name":"しおみ児童館","province":"東京都","city":"文京区","address":"文京区千駄木2-27-8","lat":35.72475,"lon":139.76186},{"name":"根津児童館","province":"東京都","city":"文京区","address":"文京区根津1-14-3","lat":35.71834,"lon":139.76311},{"name":"湯島児童館","province":"東京都","city":"文京区","address":"文京区本郷3-10-18","lat":35.70407,"lon":139.76379},{"name":"本郷児童館","province":"東京都","city":"文京区","address":"文京区本郷5-30-8","lat":35.71175,"lon":139.75862},{"name":"文京区","province":"東京都","city":"文京区","address":"文京区春日1-16-21","lat":35.70794,"lon":139.75278},{"name":"文京保健所","province":"東京都","city":"文京区","address":"文京区春日1-16-21","lat":35.70794,"lon":139.75278},{"name":"保健サービスセンター","province":"東京都","city":"文京区","address":"文京区春日1-16-21","lat":35.70794,"lon":139.75278},{"name":"保健サービスセンター本郷支所","province":"東京都","city":"文京区","address":"文京区千駄木5-20-18","lat":35.72718,"lon":139.76012},{"name":"文京区子ども家庭支援センター","province":"東京都","city":"文京区","address":"文京区春日1-16-21シビックセンター5階","lat":35.70794,"lon":139.75278},{"name":"東京都福祉人材センター研修室","province":"東京都","city":"文京区","address":"文京区小日向4-1-6東京都社会福祉保健医療研修センター1階","lat":35.71382,"lon":139.74043},{"name":"東京都発達障害者支援センター（おとなTOSCA）※対象者が１８歳以上","province":"東京都","city":"文京区","address":"文京区大塚4-45-16","lat":35.72197,"lon":139.73204},{"name":"文京区福祉センター湯島","province":"東京都","city":"文京区","address":"文京区本郷3-10-18","lat":35.70407,"lon":139.76379},{"name":"文京福祉センター江戸川橋","province":"東京都","city":"文京区","address":"文京区小日向2-16-15","lat":35.710581,"lon":139.734582},{"name":"文京福祉センター湯島","province":"東京都","city":"文京区","address":"文京区本郷3-10-18","lat":35.718659,"lon":139.635873},{"name":"文京区福祉センター湯島","province":"東京都","city":"文京区","address":"文京区本郷3-10-18","lat":35.70408,"lon":139.76379},{"name":"千石児童館","province":"東京都","city":"文京区","address":"文京区千石1-4-3","lat":35.72475,"lon":139.7432},{"name":"湯島児童館","province":"東京都","city":"文京区","address":"文京区本郷3-10-18","lat":35.70408,"lon":139.76379},{"name":"文京区保健所","province":"東京都","city":"文京区","address":"文京区春日1-16-21","lat":35.70794,"lon":139.75278},{"name":"＊?文京区男女平等センター","province":"東京都","city":"文京区","address":"文京区本郷4-8-3","lat":35.708552,"lon":139.757477},{"name":"文京区","province":"東京都","city":"文京区","address":"文京区春日1-16-21","lat":35.707951,"lon":139.75243},{"name":"大塚児童館","province":"東京都","city":"文京区","address":"東京都文京区大塚6丁目22番地19号","lat":35.724635,"lon":139.725646},{"name":"千石児童館","province":"東京都","city":"文京区","address":"東京都文京区千石1丁目4番地3号","lat":35.724815,"lon":139.743264},{"name":"水道児童館","province":"東京都","city":"文京区","address":"東京都文京区水道1丁目3番地26号","lat":35.709567,"lon":139.742295},{"name":"本駒込児童館","province":"東京都","city":"文京区","address":"東京都文京区本駒込5丁目63番地2号","lat":35.733842,"lon":139.752437},{"name":"千石西児童館","province":"東京都","city":"文京区","address":"東京都文京区千石3丁目15番地15号","lat":35.724914,"lon":139.738226},{"name":"小日向台町児童館","province":"東京都","city":"文京区","address":"東京都文京区小日向2丁目2番地2号","lat":35.712998,"lon":139.734867},{"name":"目白台児童館","province":"東京都","city":"文京区","address":"東京都文京区目白台1丁目5番地1号","lat":35.713831,"lon":139.720661},{"name":"湯島児童館","province":"東京都","city":"文京区","address":"東京都文京区本郷3丁目10番地18号","lat":35.704012,"lon":139.763646},{"name":"白山東児童館","province":"東京都","city":"文京区","address":"東京都文京区白山1丁目29番地10号","lat":35.719136,"lon":139.753069},{"name":"根津児童館","province":"東京都","city":"文京区","address":"東京都文京区根津1丁目14番地3号","lat":35.718439,"lon":139.763222},{"name":"本郷児童館","province":"東京都","city":"文京区","address":"東京都文京区本郷5丁目30番地8号","lat":35.711666,"lon":139.758275},{"name":"子育てひろば水道","province":"東京都","city":"文京区","address":"東京都文京区水道1-3-26(水道保育園内)","lat":35.709567,"lon":139.742295},{"name":"子育てひろば千石","province":"東京都","city":"文京区","address":"東京都文京区千石1丁目4番3号(千石児童館内)","lat":35.724815,"lon":139.743264},{"name":"第五方面交通機動隊","province":"東京都","city":"文京区","address":"文京区春日1-5-12","lat":35.70814,"lon":139.7478},{"name":"第五方面本部","province":"東京都","city":"文京区","address":"文京区春日1-5-12","lat":35.70814,"lon":139.7478},{"name":"大塚警察署","province":"東京都","city":"文京区","address":"文京区目白台3-28-3/(平成27年8月まで)","lat":35.71681,"lon":139.7263},{"name":"駒込警察署","province":"東京都","city":"文京区","address":"文京区本駒込2-28-18","lat":35.7311,"lon":139.7483},{"name":"富坂警察署","province":"東京都","city":"文京区","address":"文京区小石川2-14-2","lat":35.7105,"lon":139.747},{"name":"本富士警察署","province":"東京都","city":"文京区","address":"文京区本郷7-1-7","lat":35.70775,"lon":139.7634},{"name":"小石川消防署","province":"東京都","city":"文京区","address":"文京区白山3-3-1","lat":35.7191,"lon":139.7428},{"name":"本郷消防署","province":"東京都","city":"文京区","address":"文京区本郷7-1-11","lat":35.70786,"lon":139.7629},{"name":"東京大学御殿下グラウンド","province":"東京都","city":"文京区","address":"文京区本郷7-3-1","lat":35.712062,"lon":139.762697},{"name":"東京大学医学部付属病院ヘリポート","province":"東京都","city":"文京区","address":"文京区本郷7-3-1","lat":35.712062,"lon":139.762697},{"name":"順天堂大学医学部附属順天堂医院ヘリポート","province":"東京都","city":"文京区","address":"文京区本郷3-1-3","lat":35.702238,"lon":139.762486},{"name":"東京医科歯科大学医学部附属病院ヘリポート","province":"東京都","city":"文京区","address":"文京区湯島1-5-45","lat":35.700977,"lon":139.764941},{"name":"市兵衛河岸","province":"東京都","city":"文京区","address":"文京区後楽1丁目","lat":35.7053,"lon":139.7519},{"name":"高齢者あんしん相談センター富坂","province":"東京都","city":"文京区","address":"東京都文京区白山5丁目16番3号","lat":35.724688,"lon":139.746734},{"name":"高齢者あんしん相談センター富坂分室","province":"東京都","city":"文京区","address":"東京都文京区小石川2丁目18番18号","lat":35.711945,"lon":139.750345},{"name":"高齢者あんしん相談センター大塚","province":"東京都","city":"文京区","address":"東京都文京区大塚4丁目50番1号","lat":35.724654,"lon":139.730809},{"name":"高齢者あんしん相談センター大塚分室","province":"東京都","city":"文京区","address":"東京都文京区音羽1丁目15番12号","lat":35.715336,"lon":139.729627},{"name":"高齢者あんしん相談センター本富士","province":"東京都","city":"文京区","address":"東京都文京区本郷2丁目40番11号","lat":35.707346,"lon":139.760406},{"name":"高齢者あんしん相談センター本富士分室","province":"東京都","city":"文京区","address":"東京都文京区西片2丁目19番15号","lat":35.704504,"lon":139.759142},{"name":"高齢者あんしん相談センター駒込","province":"東京都","city":"文京区","address":"東京都文京区千駄木5丁目19番2号","lat":35.726782,"lon":139.760027},{"name":"高齢者あんしん相談センター駒込分室","province":"東京都","city":"文京区","address":"東京都文京区本駒込2丁目28番10号","lat":35.730751,"lon":139.747619},{"name":"大塚児童館","province":"東京都","city":"文京区","address":"東京都文京区大塚6丁目22番地19号","lat":35.7246349999999,"lon":139.725646},{"name":"しおみ児童館","province":"東京都","city":"文京区","address":"東京都文京区千駄木2丁目27番地8号","lat":35.724935,"lon":139.761908},{"name":"千石児童館","province":"東京都","city":"文京区","address":"東京都文京区千石1丁目4番地3号","lat":35.7248149999999,"lon":139.743264},{"name":"水道児童館","province":"東京都","city":"文京区","address":"東京都文京区水道1丁目3番地26号","lat":35.7095669999999,"lon":139.742295},{"name":"本駒込児童館","province":"東京都","city":"文京区","address":"東京都文京区本駒込5丁目63番地2号","lat":35.733842,"lon":139.752436999999},{"name":"本駒込南児童館","province":"東京都","city":"文京区","address":"東京都文京区本駒込3丁目11番地14号","lat":35.727715,"lon":139.755128},{"name":"久堅児童館","province":"東京都","city":"文京区","address":"東京都文京区小石川5丁目27番地7号","lat":35.718614,"lon":139.741553},{"name":"柳町児童館","province":"東京都","city":"文京区","address":"東京都文京区小石川1丁目23番地9号","lat":35.713709,"lon":139.750506},{"name":"千石西児童館","province":"東京都","city":"文京区","address":"東京都文京区千石3丁目15番地15号","lat":35.7249139999999,"lon":139.738225999999},{"name":"小日向台町児童館","province":"東京都","city":"文京区","address":"東京都文京区小日向2丁目2番地2号","lat":35.7129979999999,"lon":139.734867},{"name":"目白台児童館","province":"東京都","city":"文京区","address":"東京都文京区目白台1丁目5番地1号","lat":35.7138309999999,"lon":139.720661},{"name":"湯島児童館","province":"東京都","city":"文京区","address":"東京都文京区本郷3丁目10番地18号","lat":35.7040119999999,"lon":139.763645999999},{"name":"白山東児童館","province":"東京都","city":"文京区","address":"東京都文京区白山1丁目29番地10号","lat":35.7191359999999,"lon":139.753069},{"name":"根津児童館","province":"東京都","city":"文京区","address":"東京都文京区根津1丁目14番地3号","lat":35.7184389999999,"lon":139.763222},{"name":"目白台第二児童館","province":"東京都","city":"文京区","address":"東京都文京区目白台3丁目18番地7号","lat":35.717258,"lon":139.723396},{"name":"本郷児童館","province":"東京都","city":"文京区","address":"東京都文京区本郷5丁目30番地8号","lat":35.711666,"lon":139.758274999999},{"name":"保坂病児保育ルーム","province":"東京都","city":"文京区","address":"東京都文京区白山五丁目27番12号","lat":35.724533,"lon":139.750092},{"name":"順天堂病後児ルーム「みつばち」","province":"東京都","city":"文京区","address":"東京都文京区本郷一丁目1番19号","lat":35.702844,"lon":139.758249},{"name":"東京都立駒込病院病児・病後児保育室「ろびん」","province":"東京都","city":"文京区","address":"東京都文京区本駒込三丁目18番22号","lat":35.72993,"lon":139.75638},{"name":"ゆうひが丘春日病児保育ルーム","province":"東京都","city":"文京区","address":"東京都文京区小石川一丁目5番1号","lat":35.71048,"lon":139.75261},{"name":"子育てひろば西片","province":"東京都","city":"文京区","address":"東京都文京区西片1丁目8番15号","lat":35.712588,"lon":139.754057},{"name":"子育てひろば汐見","province":"東京都","city":"文京区","address":"東京都文京区千駄木2丁目19番23号(汐見小学校内)","lat":35.724296,"lon":139.760809},{"name":"子育てひろば江戸川橋","province":"東京都","city":"文京区","address":"東京都文京区小日向2丁目16番15号(文京総合福祉センター3階)","lat":35.710662,"lon":139.734753},{"name":"子育てひろば水道","province":"東京都","city":"文京区","address":"東京都文京区水道1-3-26(水道保育園内)","lat":35.7095669999999,"lon":139.742295},{"name":"子育てひろば千石","province":"東京都","city":"文京区","address":"東京都文京区千石1丁目4番3号(千石児童館内)","lat":35.7248149999999,"lon":139.743264},{"name":"こまぴよのおうち","province":"東京都","city":"文京区","address":"東京都文京区本駒込五丁目11番6号","lat":35.731435,"lon":139.75271},{"name":"こそだておうえんまちぷら","province":"東京都","city":"文京区","address":"東京都文京区本郷三丁目9番5号NK本郷ビル4階","lat":35.704574,"lon":139.763083},{"name":"さきちゃんちpetit","province":"東京都","city":"文京区","address":"東京都文京区白山二丁目14番17号1階","lat":35.717548,"lon":139.746094},{"name":"文京福祉センター江戸川橋","province":"東京都","city":"文京区","address":"東京都文京区小日向二丁目16番15号","lat":35.710602,"lon":139.734647},{"name":"文京福祉センター湯島","province":"東京都","city":"文京区","address":"東京都文京区本郷三丁目10番18号","lat":35.70386,"lon":139.763775},{"name":"久堅児童館","province":"東京都","city":"文京区","address":"文京区小石川5-27-7","lat":35.718613,"lon":139.741553},{"name":"柳町児童館","province":"東京都","city":"文京区","address":"文京区小石川1-23-9","lat":35.714183,"lon":139.750347},{"name":"水道児童館","province":"東京都","city":"文京区","address":"文京区水道1-3-26","lat":35.709575,"lon":139.742301},{"name":"小日向台町児童館","province":"東京都","city":"文京区","address":"文京区小日向2-2-2","lat":35.713019,"lon":139.734812},{"name":"千石児童館","province":"東京都","city":"文京区","address":"文京区千石1-4-3","lat":35.724504,"lon":139.743342},{"name":"千石西児童館","province":"東京都","city":"文京区","address":"文京区千石3-15-15","lat":35.724915,"lon":139.738225},{"name":"大塚児童館","province":"東京都","city":"文京区","address":"文京区大塚6-22-19","lat":35.724637,"lon":139.725646},{"name":"目白台児童館","province":"東京都","city":"文京区","address":"文京区目白台1-5-1","lat":35.713805,"lon":139.720575},{"name":"目日台第二児童館","province":"東京都","city":"文京区","address":"文京区目白台3-18-7","lat":35.717213,"lon":139.723377},{"name":"白山東児童館","province":"東京都","city":"文京区","address":"文京区白山1-29-10","lat":35.719072,"lon":139.752972},{"name":"本駒込児童館","province":"東京都","city":"文京区","address":"文京区本駒込5-63-2","lat":35.733809,"lon":139.752493},{"name":"本駒込南児童館","province":"東京都","city":"文京区","address":"文京区本駒込3-11-14","lat":35.72781,"lon":139.755141},{"name":"しおみ児童館","province":"東京都","city":"文京区","address":"文京区千駄木2-27-8","lat":35.725002,"lon":139.761935},{"name":"根津児童館","province":"東京都","city":"文京区","address":"文京区根津1-14-3","lat":35.718322,"lon":139.763413},{"name":"本郷児童館","province":"東京都","city":"文京区","address":"文京区本郷5-30-8","lat":35.711667,"lon":139.758274},{"name":"湯島児童館","province":"東京都","city":"文京区","address":"文京区本郷3-10-18","lat":35.70396,"lon":139.763674},{"name":"リアン文京","province":"東京都","city":"文京区","address":"文京区小日向2-16-15","lat":35.710581,"lon":139.734582},{"name":"東京都福祉人材センター研修室","province":"東京都","city":"文京区","address":"文京区小日向4-1-6東京都社会福祉保健医療研修センター1階","lat":35.713955,"lon":139.740684},{"name":"文京福祉センター江戸川橋","province":"東京都","city":"文京区","address":"文京区小日向2-16-15","lat":35.71065,"lon":139.73488},{"name":"文京福祉センター湯島","province":"東京都","city":"文京区","address":"文京区本郷3-10-18","lat":35.70407,"lon":139.76379},{"name":"柳町児童館","province":"東京都","city":"文京区","address":"文京区小石川1-23-9","lat":35.71401,"lon":139.75053},{"name":"久堅児童館","province":"東京都","city":"文京区","address":"文京区小石川5-27-7","lat":35.71844,"lon":139.74146},{"name":"水道児童館","province":"東京都","city":"文京区","address":"文京区水道1-3-26","lat":35.70906,"lon":139.74171},{"name":"小日向台町児童館","province":"東京都","city":"文京区","address":"文京区小日向2-2-2","lat":35.71336,"lon":139.73482},{"name":"千石児童館","province":"東京都","city":"文京区","address":"文京区千石1-4-3","lat":35.72475,"lon":139.74319},{"name":"千石西児童館","province":"東京都","city":"文京区","address":"文京区千石3-15-15","lat":35.72508,"lon":139.73869},{"name":"大塚児童館","province":"東京都","city":"文京区","address":"文京区大塚6-22-19","lat":35.72487,"lon":139.72557},{"name":"目白台児童館","province":"東京都","city":"文京区","address":"文京区目白台1-5-1","lat":35.71376,"lon":139.7206},{"name":"目日台第二児童館","province":"東京都","city":"文京区","address":"文京区目白台3-18-7","lat":35.71765,"lon":139.72348},{"name":"白山東児童館","province":"東京都","city":"文京区","address":"文京区白山1-29-10","lat":35.71922,"lon":139.75258},{"name":"本駒込南児童館","province":"東京都","city":"文京区","address":"文京区本駒込3-11-14","lat":35.72791,"lon":139.75514},{"name":"本駒込児童館","province":"東京都","city":"文京区","address":"文京区本駒込5-63-2","lat":35.73381,"lon":139.75244},{"name":"しおみ児童館","province":"東京都","city":"文京区","address":"文京区千駄木2-27-8","lat":35.72475,"lon":139.76186},{"name":"根津児童館","province":"東京都","city":"文京区","address":"文京区根津1-14-3","lat":35.71834,"lon":139.76311},{"name":"湯島児童館","province":"東京都","city":"文京区","address":"文京区本郷3-10-18","lat":35.70407,"lon":139.76379},{"name":"本郷児童館","province":"東京都","city":"文京区","address":"文京区本郷5-30-8","lat":35.71175,"lon":139.75862},{"name":"文京区","province":"東京都","city":"文京区","address":"文京区春日1-16-21","lat":35.70794,"lon":139.75278},{"name":"東京都福祉人材センター研修室","province":"東京都","city":"文京区","address":"文京区小日向4-1-6東京都社会福祉保健医療研修センター1階","lat":35.71382,"lon":139.74043},{"name":"東京都発達障害者支援センター（おとなTOSCA）※対象者が１８歳以上","province":"東京都","city":"文京区","address":"文京区大塚4-45-16","lat":35.72197,"lon":139.73204},{"name":"文京区福祉センター湯島","province":"東京都","city":"文京区","address":"文京区本郷3-10-18","lat":35.70407,"lon":139.76379},{"name":"文京福祉センター江戸川橋","province":"東京都","city":"文京区","address":"文京区小日向2-16-15","lat":35.710581,"lon":139.734582},{"name":"文京福祉センター湯島","province":"東京都","city":"文京区","address":"文京区本郷3-10-18","lat":35.718659,"lon":139.635873},{"name":"文京区福祉センター湯島","province":"東京都","city":"文京区","address":"文京区本郷3-10-18","lat":35.70408,"lon":139.76379},{"name":"千石児童館","province":"東京都","city":"文京区","address":"文京区千石1-4-3","lat":35.72475,"lon":139.7432},{"name":"湯島児童館","province":"東京都","city":"文京区","address":"文京区本郷3-10-18","lat":35.70408,"lon":139.76379},{"name":"＊?文京区男女平等センター","province":"東京都","city":"文京区","address":"文京区本郷4-8-3","lat":35.708552,"lon":139.757477},{"name":"文京区","province":"東京都","city":"文京区","address":"文京区春日1-16-21","lat":35.707951,"lon":139.75243},{"name":"大塚児童館","province":"東京都","city":"文京区","address":"東京都文京区大塚6丁目22番地19号","lat":35.724635,"lon":139.725646},{"name":"千石児童館","province":"東京都","city":"文京区","address":"東京都文京区千石1丁目4番地3号","lat":35.724815,"lon":139.743264},{"name":"水道児童館","province":"東京都","city":"文京区","address":"東京都文京区水道1丁目3番地26号","lat":35.709567,"lon":139.742295},{"name":"本駒込児童館","province":"東京都","city":"文京区","address":"東京都文京区本駒込5丁目63番地2号","lat":35.733842,"lon":139.752437},{"name":"千石西児童館","province":"東京都","city":"文京区","address":"東京都文京区千石3丁目15番地15号","lat":35.724914,"lon":139.738226},{"name":"小日向台町児童館","province":"東京都","city":"文京区","address":"東京都文京区小日向2丁目2番地2号","lat":35.712998,"lon":139.734867},{"name":"目白台児童館","province":"東京都","city":"文京区","address":"東京都文京区目白台1丁目5番地1号","lat":35.713831,"lon":139.720661},{"name":"湯島児童館","province":"東京都","city":"文京区","address":"東京都文京区本郷3丁目10番地18号","lat":35.704012,"lon":139.763646},{"name":"白山東児童館","province":"東京都","city":"文京区","address":"東京都文京区白山1丁目29番地10号","lat":35.719136,"lon":139.753069},{"name":"根津児童館","province":"東京都","city":"文京区","address":"東京都文京区根津1丁目14番地3号","lat":35.718439,"lon":139.763222},{"name":"本郷児童館","province":"東京都","city":"文京区","address":"東京都文京区本郷5丁目30番地8号","lat":35.711666,"lon":139.758275},{"name":"子育てひろば水道","province":"東京都","city":"文京区","address":"東京都文京区水道1-3-26(水道保育園内)","lat":35.709567,"lon":139.742295},{"name":"子育てひろば千石","province":"東京都","city":"文京区","address":"東京都文京区千石1丁目4番3号(千石児童館内)","lat":35.724815,"lon":139.743264},{"name":"高齢者あんしん相談センター富坂","province":"東京都","city":"文京区","address":"東京都文京区白山5丁目16番3号","lat":35.724688,"lon":139.746734},{"name":"高齢者あんしん相談センター富坂分室","province":"東京都","city":"文京区","address":"東京都文京区小石川2丁目18番18号","lat":35.711945,"lon":139.750345},{"name":"高齢者あんしん相談センター大塚","province":"東京都","city":"文京区","address":"東京都文京区大塚4丁目50番1号","lat":35.724654,"lon":139.730809},{"name":"高齢者あんしん相談センター大塚分室","province":"東京都","city":"文京区","address":"東京都文京区音羽1丁目15番12号","lat":35.715336,"lon":139.729627},{"name":"高齢者あんしん相談センター本富士","province":"東京都","city":"文京区","address":"東京都文京区本郷2丁目40番11号","lat":35.707346,"lon":139.760406},{"name":"高齢者あんしん相談センター本富士分室","province":"東京都","city":"文京区","address":"東京都文京区西片2丁目19番15号","lat":35.704504,"lon":139.759142},{"name":"高齢者あんしん相談センター駒込","province":"東京都","city":"文京区","address":"東京都文京区千駄木5丁目19番2号","lat":35.726782,"lon":139.760027},{"name":"高齢者あんしん相談センター駒込分室","province":"東京都","city":"文京区","address":"東京都文京区本駒込2丁目28番10号","lat":35.730751,"lon":139.747619},{"name":"保坂病児保育ルーム","province":"東京都","city":"文京区","address":"東京都文京区白山五丁目27番12号","lat":35.724533,"lon":139.750092},{"name":"順天堂病後児ルーム「みつばち」","province":"東京都","city":"文京区","address":"東京都文京区本郷一丁目1番19号","lat":35.702844,"lon":139.758249},{"name":"東京都立駒込病院病児・病後児保育室「ろびん」","province":"東京都","city":"文京区","address":"東京都文京区本駒込三丁目18番22号","lat":35.72993,"lon":139.75638},{"name":"ゆうひが丘春日病児保育ルーム","province":"東京都","city":"文京区","address":"東京都文京区小石川一丁目5番1号","lat":35.71048,"lon":139.75261},{"name":"子育てひろば西片","province":"東京都","city":"文京区","address":"東京都文京区西片1丁目8番15号","lat":35.712588,"lon":139.754057},{"name":"子育てひろば汐見","province":"東京都","city":"文京区","address":"東京都文京区千駄木2丁目19番23号(汐見小学校内)","lat":35.724296,"lon":139.760809},{"name":"子育てひろば江戸川橋","province":"東京都","city":"文京区","address":"東京都文京区小日向2丁目16番15号(文京総合福祉センター3階)","lat":35.710662,"lon":139.734753},{"name":"子育てひろば水道","province":"東京都","city":"文京区","address":"東京都文京区水道1-3-26(水道保育園内)","lat":35.7095669999999,"lon":139.742295},{"name":"子育てひろば千石","province":"東京都","city":"文京区","address":"東京都文京区千石1丁目4番3号(千石児童館内)","lat":35.7248149999999,"lon":139.743264},{"name":"こまぴよのおうち","province":"東京都","city":"文京区","address":"東京都文京区本駒込五丁目11番6号","lat":35.731435,"lon":139.75271},{"name":"こそだておうえんまちぷら","province":"東京都","city":"文京区","address":"東京都文京区本郷三丁目9番5号NK本郷ビル4階","lat":35.704574,"lon":139.763083},{"name":"さきちゃんちpetit","province":"東京都","city":"文京区","address":"東京都文京区白山二丁目14番17号1階","lat":35.717548,"lon":139.746094},{"name":"文京福祉センター江戸川橋","province":"東京都","city":"文京区","address":"東京都文京区小日向二丁目16番15号","lat":35.710602,"lon":139.734647},{"name":"文京福祉センター湯島","province":"東京都","city":"文京区","address":"東京都文京区本郷三丁目10番18号","lat":35.70386,"lon":139.763775},{"name":"リアン文京","province":"東京都","city":"文京区","address":"文京区小日向2-16-15","lat":35.710581,"lon":139.734582},{"name":"東京都福祉人材センター研修室","province":"東京都","city":"文京区","address":"文京区小日向4-1-6東京都社会福祉保健医療研修センター1階","lat":35.713955,"lon":139.740684},{"name":"文京福祉センター江戸川橋","province":"東京都","city":"文京区","address":"文京区小日向2-16-15","lat":35.71065,"lon":139.73488},{"name":"文京福祉センター湯島","province":"東京都","city":"文京区","address":"文京区本郷3-10-18","lat":35.70407,"lon":139.76379},{"name":"文京区","province":"東京都","city":"文京区","address":"文京区春日1-16-21","lat":35.70794,"lon":139.75278},{"name":"東京都福祉人材センター研修室","province":"東京都","city":"文京区","address":"文京区小日向4-1-6東京都社会福祉保健医療研修センター1階","lat":35.71382,"lon":139.74043},{"name":"東京都発達障害者支援センター（おとなTOSCA）※対象者が１８歳以上","province":"東京都","city":"文京区","address":"文京区大塚4-45-16","lat":35.72197,"lon":139.73204},{"name":"文京区福祉センター湯島","province":"東京都","city":"文京区","address":"文京区本郷3-10-18","lat":35.70407,"lon":139.76379},{"name":"文京福祉センター江戸川橋","province":"東京都","city":"文京区","address":"文京区小日向2-16-15","lat":35.710581,"lon":139.734582},{"name":"文京福祉センター湯島","province":"東京都","city":"文京区","address":"文京区本郷3-10-18","lat":35.718659,"lon":139.635873},{"name":"文京区福祉センター湯島","province":"東京都","city":"文京区","address":"文京区本郷3-10-18","lat":35.70408,"lon":139.76379},{"name":"＊?文京区男女平等センター","province":"東京都","city":"文京区","address":"文京区本郷4-8-3","lat":35.708552,"lon":139.757477},{"name":"文京区","province":"東京都","city":"文京区","address":"文京区春日1-16-21","lat":35.707951,"lon":139.75243},{"name":"子育てひろば水道","province":"東京都","city":"文京区","address":"東京都文京区水道1-3-26(水道保育園内)","lat":35.709567,"lon":139.742295},{"name":"子育てひろば千石","province":"東京都","city":"文京区","address":"東京都文京区千石1丁目4番3号(千石児童館内)","lat":35.724815,"lon":139.743264},{"name":"高齢者あんしん相談センター富坂","province":"東京都","city":"文京区","address":"東京都文京区白山5丁目16番3号","lat":35.724688,"lon":139.746734},{"name":"高齢者あんしん相談センター富坂分室","province":"東京都","city":"文京区","address":"東京都文京区小石川2丁目18番18号","lat":35.711945,"lon":139.750345},{"name":"高齢者あんしん相談センター大塚","province":"東京都","city":"文京区","address":"東京都文京区大塚4丁目50番1号","lat":35.724654,"lon":139.730809},{"name":"高齢者あんしん相談センター大塚分室","province":"東京都","city":"文京区","address":"東京都文京区音羽1丁目15番12号","lat":35.715336,"lon":139.729627},{"name":"高齢者あんしん相談センター本富士","province":"東京都","city":"文京区","address":"東京都文京区本郷2丁目40番11号","lat":35.707346,"lon":139.760406},{"name":"高齢者あんしん相談センター本富士分室","province":"東京都","city":"文京区","address":"東京都文京区西片2丁目19番15号","lat":35.704504,"lon":139.759142},{"name":"高齢者あんしん相談センター駒込","province":"東京都","city":"文京区","address":"東京都文京区千駄木5丁目19番2号","lat":35.726782,"lon":139.760027},{"name":"高齢者あんしん相談センター駒込分室","province":"東京都","city":"文京区","address":"東京都文京区本駒込2丁目28番10号","lat":35.730751,"lon":139.747619},{"name":"保坂病児保育ルーム","province":"東京都","city":"文京区","address":"東京都文京区白山五丁目27番12号","lat":35.724533,"lon":139.750092},{"name":"順天堂病後児ルーム「みつばち」","province":"東京都","city":"文京区","address":"東京都文京区本郷一丁目1番19号","lat":35.702844,"lon":139.758249},{"name":"東京都立駒込病院病児・病後児保育室「ろびん」","province":"東京都","city":"文京区","address":"東京都文京区本駒込三丁目18番22号","lat":35.72993,"lon":139.75638},{"name":"ゆうひが丘春日病児保育ルーム","province":"東京都","city":"文京区","address":"東京都文京区小石川一丁目5番1号","lat":35.71048,"lon":139.75261},{"name":"子育てひろば西片","province":"東京都","city":"文京区","address":"東京都文京区西片1丁目8番15号","lat":35.712588,"lon":139.754057},{"name":"子育てひろば汐見","province":"東京都","city":"文京区","address":"東京都文京区千駄木2丁目19番23号(汐見小学校内)","lat":35.724296,"lon":139.760809},{"name":"子育てひろば江戸川橋","province":"東京都","city":"文京区","address":"東京都文京区小日向2丁目16番15号(文京総合福祉センター3階)","lat":35.710662,"lon":139.734753},{"name":"子育てひろば水道","province":"東京都","city":"文京区","address":"東京都文京区水道1-3-26(水道保育園内)","lat":35.7095669999999,"lon":139.742295},{"name":"子育てひろば千石","province":"東京都","city":"文京区","address":"東京都文京区千石1丁目4番3号(千石児童館内)","lat":35.7248149999999,"lon":139.743264},{"name":"こまぴよのおうち","province":"東京都","city":"文京区","address":"東京都文京区本駒込五丁目11番6号","lat":35.731435,"lon":139.75271},{"name":"こそだておうえんまちぷら","province":"東京都","city":"文京区","address":"東京都文京区本郷三丁目9番5号NK本郷ビル4階","lat":35.704574,"lon":139.763083},{"name":"さきちゃんちpetit","province":"東京都","city":"文京区","address":"東京都文京区白山二丁目14番17号1階","lat":35.717548,"lon":139.746094},{"name":"文京福祉センター江戸川橋","province":"東京都","city":"文京区","address":"東京都文京区小日向二丁目16番15号","lat":35.710602,"lon":139.734647},{"name":"文京福祉センター湯島","province":"東京都","city":"文京区","address":"東京都文京区本郷三丁目10番18号","lat":35.70386,"lon":139.763775},{"name":"リアン文京","province":"東京都","city":"文京区","address":"文京区小日向2-16-15","lat":35.710581,"lon":139.734582},{"name":"東京都福祉人材センター研修室","province":"東京都","city":"文京区","address":"文京区小日向4-1-6東京都社会福祉保健医療研修センター1階","lat":35.713955,"lon":139.740684},{"name":"文京福祉センター江戸川橋","province":"東京都","city":"文京区","address":"文京区小日向2-16-15","lat":35.71065,"lon":139.73488},{"name":"文京福祉センター湯島","province":"東京都","city":"文京区","address":"文京区本郷3-10-18","lat":35.70407,"lon":139.76379},{"name":"文京区","province":"東京都","city":"文京区","address":"文京区春日1-16-21","lat":35.70794,"lon":139.75278},{"name":"東京都福祉人材センター研修室","province":"東京都","city":"文京区","address":"文京区小日向4-1-6東京都社会福祉保健医療研修センター1階","lat":35.71382,"lon":139.74043},{"name":"東京都発達障害者支援センター（おとなTOSCA）※対象者が１８歳以上","province":"東京都","city":"文京区","address":"文京区大塚4-45-16","lat":35.72197,"lon":139.73204},{"name":"文京区福祉センター湯島","province":"東京都","city":"文京区","address":"文京区本郷3-10-18","lat":35.70407,"lon":139.76379},{"name":"文京福祉センター江戸川橋","province":"東京都","city":"文京区","address":"文京区小日向2-16-15","lat":35.710581,"lon":139.734582},{"name":"文京福祉センター湯島","province":"東京都","city":"文京区","address":"文京区本郷3-10-18","lat":35.718659,"lon":139.635873},{"name":"文京区福祉センター湯島","province":"東京都","city":"文京区","address":"文京区本郷3-10-18","lat":35.70408,"lon":139.76379},{"name":"＊?文京区男女平等センター","province":"東京都","city":"文京区","address":"文京区本郷4-8-3","lat":35.708552,"lon":139.757477},{"name":"文京区","province":"東京都","city":"文京区","address":"文京区春日1-16-21","lat":35.707951,"lon":139.75243},{"name":"子育てひろば水道","province":"東京都","city":"文京区","address":"東京都文京区水道1-3-26(水道保育園内)","lat":35.709567,"lon":139.742295},{"name":"子育てひろば千石","province":"東京都","city":"文京区","address":"東京都文京区千石1丁目4番3号(千石児童館内)","lat":35.724815,"lon":139.743264},{"name":"高齢者あんしん相談センター富坂","province":"東京都","city":"文京区","address":"東京都文京区白山5丁目16番3号","lat":35.724688,"lon":139.746734},{"name":"高齢者あんしん相談センター富坂分室","province":"東京都","city":"文京区","address":"東京都文京区小石川2丁目18番18号","lat":35.711945,"lon":139.750345},{"name":"高齢者あんしん相談センター大塚","province":"東京都","city":"文京区","address":"東京都文京区大塚4丁目50番1号","lat":35.724654,"lon":139.730809},{"name":"高齢者あんしん相談センター大塚分室","province":"東京都","city":"文京区","address":"東京都文京区音羽1丁目15番12号","lat":35.715336,"lon":139.729627},{"name":"高齢者あんしん相談センター本富士","province":"東京都","city":"文京区","address":"東京都文京区本郷2丁目40番11号","lat":35.707346,"lon":139.760406},{"name":"高齢者あんしん相談センター本富士分室","province":"東京都","city":"文京区","address":"東京都文京区西片2丁目19番15号","lat":35.704504,"lon":139.759142},{"name":"高齢者あんしん相談センター駒込","province":"東京都","city":"文京区","address":"東京都文京区千駄木5丁目19番2号","lat":35.726782,"lon":139.760027},{"name":"高齢者あんしん相談センター駒込分室","province":"東京都","city":"文京区","address":"東京都文京区本駒込2丁目28番10号","lat":35.730751,"lon":139.747619},{"name":"保坂病児保育ルーム","province":"東京都","city":"文京区","address":"東京都文京区白山五丁目27番12号","lat":35.724533,"lon":139.750092},{"name":"順天堂病後児ルーム「みつばち」","province":"東京都","city":"文京区","address":"東京都文京区本郷一丁目1番19号","lat":35.702844,"lon":139.758249},{"name":"東京都立駒込病院病児・病後児保育室「ろびん」","province":"東京都","city":"文京区","address":"東京都文京区本駒込三丁目18番22号","lat":35.72993,"lon":139.75638},{"name":"ゆうひが丘春日病児保育ルーム","province":"東京都","city":"文京区","address":"東京都文京区小石川一丁目5番1号","lat":35.71048,"lon":139.75261},{"name":"子育てひろば西片","province":"東京都","city":"文京区","address":"東京都文京区西片1丁目8番15号","lat":35.712588,"lon":139.754057},{"name":"子育てひろば汐見","province":"東京都","city":"文京区","address":"東京都文京区千駄木2丁目19番23号(汐見小学校内)","lat":35.724296,"lon":139.760809},{"name":"子育てひろば江戸川橋","province":"東京都","city":"文京区","address":"東京都文京区小日向2丁目16番15号(文京総合福祉センター3階)","lat":35.710662,"lon":139.734753},{"name":"子育てひろば水道","province":"東京都","city":"文京区","address":"東京都文京区水道1-3-26(水道保育園内)","lat":35.7095669999999,"lon":139.742295},{"name":"子育てひろば千石","province":"東京都","city":"文京区","address":"東京都文京区千石1丁目4番3号(千石児童館内)","lat":35.7248149999999,"lon":139.743264},{"name":"こまぴよのおうち","province":"東京都","city":"文京区","address":"東京都文京区本駒込五丁目11番6号","lat":35.731435,"lon":139.75271},{"name":"こそだておうえんまちぷら","province":"東京都","city":"文京区","address":"東京都文京区本郷三丁目9番5号NK本郷ビル4階","lat":35.704574,"lon":139.763083},{"name":"さきちゃんちpetit","province":"東京都","city":"文京区","address":"東京都文京区白山二丁目14番17号1階","lat":35.717548,"lon":139.746094},{"name":"文京福祉センター江戸川橋","province":"東京都","city":"文京区","address":"東京都文京区小日向二丁目16番15号","lat":35.710602,"lon":139.734647},{"name":"文京福祉センター湯島","province":"東京都","city":"文京区","address":"東京都文京区本郷三丁目10番18号","lat":35.70386,"lon":139.763775},{"name":"リアン文京","province":"東京都","city":"文京区","address":"文京区小日向2-16-15","lat":35.710581,"lon":139.734582},{"name":"東京都福祉人材センター研修室","province":"東京都","city":"文京区","address":"文京区小日向4-1-6東京都社会福祉保健医療研修センター1階","lat":35.713955,"lon":139.740684},{"name":"文京福祉センター江戸川橋","province":"東京都","city":"文京区","address":"文京区小日向2-16-15","lat":35.71065,"lon":139.73488},{"name":"文京福祉センター湯島","province":"東京都","city":"文京区","address":"文京区本郷3-10-18","lat":35.70407,"lon":139.76379},{"name":"文京区","province":"東京都","city":"文京区","address":"文京区春日1-16-21","lat":35.70794,"lon":139.75278},{"name":"東京都福祉人材センター研修室","province":"東京都","city":"文京区","address":"文京区小日向4-1-6東京都社会福祉保健医療研修センター1階","lat":35.71382,"lon":139.74043},{"name":"東京都発達障害者支援センター（おとなTOSCA）※対象者が１８歳以上","province":"東京都","city":"文京区","address":"文京区大塚4-45-16","lat":35.72197,"lon":139.73204},{"name":"文京区福祉センター湯島","province":"東京都","city":"文京区","address":"文京区本郷3-10-18","lat":35.70407,"lon":139.76379},{"name":"文京福祉センター江戸川橋","province":"東京都","city":"文京区","address":"文京区小日向2-16-15","lat":35.710581,"lon":139.734582},{"name":"文京福祉センター湯島","province":"東京都","city":"文京区","address":"文京区本郷3-10-18","lat":35.718659,"lon":139.635873},{"name":"文京区福祉センター湯島","province":"東京都","city":"文京区","address":"文京区本郷3-10-18","lat":35.70408,"lon":139.76379},{"name":"文京区","province":"東京都","city":"文京区","address":"文京区春日1-16-21","lat":35.707951,"lon":139.75243},{"name":"子育てひろば水道","province":"東京都","city":"文京区","address":"東京都文京区水道1-3-26(水道保育園内)","lat":35.709567,"lon":139.742295},{"name":"子育てひろば千石","province":"東京都","city":"文京区","address":"東京都文京区千石1丁目4番3号(千石児童館内)","lat":35.724815,"lon":139.743264},{"name":"保坂病児保育ルーム","province":"東京都","city":"文京区","address":"東京都文京区白山五丁目27番12号","lat":35.724533,"lon":139.750092},{"name":"順天堂病後児ルーム「みつばち」","province":"東京都","city":"文京区","address":"東京都文京区本郷一丁目1番19号","lat":35.702844,"lon":139.758249},{"name":"東京都立駒込病院病児・病後児保育室「ろびん」","province":"東京都","city":"文京区","address":"東京都文京区本駒込三丁目18番22号","lat":35.72993,"lon":139.75638},{"name":"ゆうひが丘春日病児保育ルーム","province":"東京都","city":"文京区","address":"東京都文京区小石川一丁目5番1号","lat":35.71048,"lon":139.75261},{"name":"文京福祉センター江戸川橋","province":"東京都","city":"文京区","address":"東京都文京区小日向二丁目16番15号","lat":35.710602,"lon":139.734647},{"name":"文京福祉センター湯島","province":"東京都","city":"文京区","address":"東京都文京区本郷三丁目10番18号","lat":35.70386,"lon":139.763775},{"name":"リアン文京","province":"東京都","city":"文京区","address":"文京区小日向2-16-15","lat":35.710581,"lon":139.734582},{"name":"東京都福祉人材センター研修室","province":"東京都","city":"文京区","address":"文京区小日向4-1-6東京都社会福祉保健医療研修センター1階","lat":35.713955,"lon":139.740684},{"name":"文京福祉センター江戸川橋","province":"東京都","city":"文京区","address":"文京区小日向2-16-15","lat":35.71065,"lon":139.73488},{"name":"文京福祉センター湯島","province":"東京都","city":"文京区","address":"文京区本郷3-10-18","lat":35.70407,"lon":139.76379},{"name":"文京区","province":"東京都","city":"文京区","address":"文京区春日1-16-21","lat":35.70794,"lon":139.75278},{"name":"東京都福祉人材センター研修室","province":"東京都","city":"文京区","address":"文京区小日向4-1-6東京都社会福祉保健医療研修センター1階","lat":35.71382,"lon":139.74043},{"name":"東京都発達障害者支援センター（おとなTOSCA）※対象者が１８歳以上","province":"東京都","city":"文京区","address":"文京区大塚4-45-16","lat":35.72197,"lon":139.73204},{"name":"文京区福祉センター湯島","province":"東京都","city":"文京区","address":"文京区本郷3-10-18","lat":35.70407,"lon":139.76379},{"name":"文京福祉センター江戸川橋","province":"東京都","city":"文京区","address":"文京区小日向2-16-15","lat":35.710581,"lon":139.734582},{"name":"文京福祉センター湯島","province":"東京都","city":"文京区","address":"文京区本郷3-10-18","lat":35.718659,"lon":139.635873},{"name":"文京区福祉センター湯島","province":"東京都","city":"文京区","address":"文京区本郷3-10-18","lat":35.70408,"lon":139.76379},{"name":"文京区","province":"東京都","city":"文京区","address":"文京区春日1-16-21","lat":35.707951,"lon":139.75243},{"name":"保坂病児保育ルーム","province":"東京都","city":"文京区","address":"東京都文京区白山五丁目27番12号","lat":35.724533,"lon":139.750092},{"name":"順天堂病後児ルーム「みつばち」","province":"東京都","city":"文京区","address":"東京都文京区本郷一丁目1番19号","lat":35.702844,"lon":139.758249},{"name":"東京都立駒込病院病児・病後児保育室「ろびん」","province":"東京都","city":"文京区","address":"東京都文京区本駒込三丁目18番22号","lat":35.72993,"lon":139.75638},{"name":"ゆうひが丘春日病児保育ルーム","province":"東京都","city":"文京区","address":"東京都文京区小石川一丁目5番1号","lat":35.71048,"lon":139.75261},{"name":"文京福祉センター江戸川橋","province":"東京都","city":"文京区","address":"東京都文京区小日向二丁目16番15号","lat":35.710602,"lon":139.734647},{"name":"文京福祉センター湯島","province":"東京都","city":"文京区","address":"東京都文京区本郷三丁目10番18号","lat":35.70386,"lon":139.763775},{"name":"リアン文京","province":"東京都","city":"文京区","address":"文京区小日向2-16-15","lat":35.710581,"lon":139.734582},{"name":"文京福祉センター江戸川橋","province":"東京都","city":"文京区","address":"文京区小日向2-16-15","lat":35.71065,"lon":139.73488},{"name":"文京福祉センター湯島","province":"東京都","city":"文京区","address":"文京区本郷3-10-18","lat":35.70407,"lon":139.76379},{"name":"文京区","province":"東京都","city":"文京区","address":"文京区春日1-16-21","lat":35.70794,"lon":139.75278},{"name":"文京区福祉センター湯島","province":"東京都","city":"文京区","address":"文京区本郷3-10-18","lat":35.70407,"lon":139.76379},{"name":"文京福祉センター江戸川橋","province":"東京都","city":"文京区","address":"文京区小日向2-16-15","lat":35.710581,"lon":139.734582},{"name":"文京福祉センター湯島","province":"東京都","city":"文京区","address":"文京区本郷3-10-18","lat":35.718659,"lon":139.635873},{"name":"文京区福祉センター湯島","province":"東京都","city":"文京区","address":"文京区本郷3-10-18","lat":35.70408,"lon":139.76379},{"name":"文京区","province":"東京都","city":"文京区","address":"文京区春日1-16-21","lat":35.707951,"lon":139.75243},{"name":"保坂病児保育ルーム","province":"東京都","city":"文京区","address":"東京都文京区白山五丁目27番12号","lat":35.724533,"lon":139.750092},{"name":"順天堂病後児ルーム「みつばち」","province":"東京都","city":"文京区","address":"東京都文京区本郷一丁目1番19号","lat":35.702844,"lon":139.758249},{"name":"東京都立駒込病院病児・病後児保育室「ろびん」","province":"東京都","city":"文京区","address":"東京都文京区本駒込三丁目18番22号","lat":35.72993,"lon":139.75638},{"name":"ゆうひが丘春日病児保育ルーム","province":"東京都","city":"文京区","address":"東京都文京区小石川一丁目5番1号","lat":35.71048,"lon":139.75261},{"name":"文京福祉センター江戸川橋","province":"東京都","city":"文京区","address":"東京都文京区小日向二丁目16番15号","lat":35.710602,"lon":139.734647},{"name":"文京福祉センター湯島","province":"東京都","city":"文京区","address":"東京都文京区本郷三丁目10番18号","lat":35.70386,"lon":139.763775},{"name":"リアン文京","province":"東京都","city":"文京区","address":"文京区小日向2-16-15","lat":35.710581,"lon":139.734582},{"name":"文京福祉センター江戸川橋","province":"東京都","city":"文京区","address":"文京区小日向2-16-15","lat":35.71065,"lon":139.73488},{"name":"文京福祉センター湯島","province":"東京都","city":"文京区","address":"文京区本郷3-10-18","lat":35.70407,"lon":139.76379},{"name":"文京区","province":"東京都","city":"文京区","address":"文京区春日1-16-21","lat":35.70794,"lon":139.75278},{"name":"文京区福祉センター湯島","province":"東京都","city":"文京区","address":"文京区本郷3-10-18","lat":35.70407,"lon":139.76379},{"name":"文京福祉センター江戸川橋","province":"東京都","city":"文京区","address":"文京区小日向2-16-15","lat":35.710581,"lon":139.734582},{"name":"文京福祉センター湯島","province":"東京都","city":"文京区","address":"文京区本郷3-10-18","lat":35.718659,"lon":139.635873},{"name":"文京区福祉センター湯島","province":"東京都","city":"文京区","address":"文京区本郷3-10-18","lat":35.70408,"lon":139.76379},{"name":"文京区","province":"東京都","city":"文京区","address":"文京区春日1-16-21","lat":35.707951,"lon":139.75243},{"name":"保坂病児保育ルーム","province":"東京都","city":"文京区","address":"東京都文京区白山五丁目27番12号","lat":35.724533,"lon":139.750092},{"name":"順天堂病後児ルーム「みつばち」","province":"東京都","city":"文京区","address":"東京都文京区本郷一丁目1番19号","lat":35.702844,"lon":139.758249},{"name":"東京都立駒込病院病児・病後児保育室「ろびん」","province":"東京都","city":"文京区","address":"東京都文京区本駒込三丁目18番22号","lat":35.72993,"lon":139.75638},{"name":"ゆうひが丘春日病児保育ルーム","province":"東京都","city":"文京区","address":"東京都文京区小石川一丁目5番1号","lat":35.71048,"lon":139.75261},{"name":"文京福祉センター江戸川橋","province":"東京都","city":"文京区","address":"東京都文京区小日向二丁目16番15号","lat":35.710602,"lon":139.734647},{"name":"文京福祉センター湯島","province":"東京都","city":"文京区","address":"東京都文京区本郷三丁目10番18号","lat":35.70386,"lon":139.763775},{"name":"リアン文京","province":"東京都","city":"文京区","address":"文京区小日向2-16-15","lat":35.710581,"lon":139.734582},{"name":"文京福祉センター江戸川橋","province":"東京都","city":"文京区","address":"文京区小日向2-16-15","lat":35.71065,"lon":139.73488},{"name":"文京福祉センター湯島","province":"東京都","city":"文京区","address":"文京区本郷3-10-18","lat":35.70407,"lon":139.76379},{"name":"文京区","province":"東京都","city":"文京区","address":"文京区春日1-16-21","lat":35.70794,"lon":139.75278},{"name":"文京区福祉センター湯島","province":"東京都","city":"文京区","address":"文京区本郷3-10-18","lat":35.70407,"lon":139.76379},{"name":"文京福祉センター江戸川橋","province":"東京都","city":"文京区","address":"文京区小日向2-16-15","lat":35.710581,"lon":139.734582},{"name":"文京福祉センター湯島","province":"東京都","city":"文京区","address":"文京区本郷3-10-18","lat":35.718659,"lon":139.635873},{"name":"文京区福祉センター湯島","province":"東京都","city":"文京区","address":"文京区本郷3-10-18","lat":35.70408,"lon":139.76379},{"name":"文京区","province":"東京都","city":"文京区","address":"文京区春日1-16-21","lat":35.707951,"lon":139.75243},{"name":"保坂病児保育ルーム","province":"東京都","city":"文京区","address":"東京都文京区白山五丁目27番12号","lat":35.724533,"lon":139.750092},{"name":"順天堂病後児ルーム「みつばち」","province":"東京都","city":"文京区","address":"東京都文京区本郷一丁目1番19号","lat":35.702844,"lon":139.758249},{"name":"東京都立駒込病院病児・病後児保育室「ろびん」","province":"東京都","city":"文京区","address":"東京都文京区本駒込三丁目18番22号","lat":35.72993,"lon":139.75638},{"name":"ゆうひが丘春日病児保育ルーム","province":"東京都","city":"文京区","address":"東京都文京区小石川一丁目5番1号","lat":35.71048,"lon":139.75261},{"name":"文京福祉センター江戸川橋","province":"東京都","city":"文京区","address":"東京都文京区小日向二丁目16番15号","lat":35.710602,"lon":139.734647},{"name":"文京福祉センター湯島","province":"東京都","city":"文京区","address":"東京都文京区本郷三丁目10番18号","lat":35.70386,"lon":139.763775},{"name":"リアン文京","province":"東京都","city":"文京区","address":"文京区小日向2-16-15","lat":35.710581,"lon":139.734582},{"name":"文京福祉センター江戸川橋","province":"東京都","city":"文京区","address":"文京区小日向2-16-15","lat":35.71065,"lon":139.73488},{"name":"文京福祉センター湯島","province":"東京都","city":"文京区","address":"文京区本郷3-10-18","lat":35.70407,"lon":139.76379},{"name":"文京区","province":"東京都","city":"文京区","address":"文京区春日1-16-21","lat":35.70794,"lon":139.75278},{"name":"文京区福祉センター湯島","province":"東京都","city":"文京区","address":"文京区本郷3-10-18","lat":35.70407,"lon":139.76379},{"name":"文京福祉センター江戸川橋","province":"東京都","city":"文京区","address":"文京区小日向2-16-15","lat":35.710581,"lon":139.734582},{"name":"文京福祉センター湯島","province":"東京都","city":"文京区","address":"文京区本郷3-10-18","lat":35.718659,"lon":139.635873},{"name":"文京区福祉センター湯島","province":"東京都","city":"文京区","address":"文京区本郷3-10-18","lat":35.70408,"lon":139.76379},{"name":"文京区","province":"東京都","city":"文京区","address":"文京区春日1-16-21","lat":35.707951,"lon":139.75243},{"name":"リアン文京","province":"東京都","city":"文京区","address":"文京区小日向2-16-15","lat":35.710581,"lon":139.734582},{"name":"文京福祉センター江戸川橋","province":"東京都","city":"文京区","address":"文京区小日向2-16-15","lat":35.71065,"lon":139.73488},{"name":"文京福祉センター湯島","province":"東京都","city":"文京区","address":"文京区本郷3-10-18","lat":35.70407,"lon":139.76379},{"name":"文京区","province":"東京都","city":"文京区","address":"文京区春日1-16-21","lat":35.70794,"lon":139.75278},{"name":"文京区福祉センター湯島","province":"東京都","city":"文京区","address":"文京区本郷3-10-18","lat":35.70407,"lon":139.76379},{"name":"文京福祉センター江戸川橋","province":"東京都","city":"文京区","address":"文京区小日向2-16-15","lat":35.710581,"lon":139.734582},{"name":"文京福祉センター湯島","province":"東京都","city":"文京区","address":"文京区本郷3-10-18","lat":35.718659,"lon":139.635873},{"name":"文京区福祉センター湯島","province":"東京都","city":"文京区","address":"文京区本郷3-10-18","lat":35.70408,"lon":139.76379},{"name":"文京区","province":"東京都","city":"文京区","address":"文京区春日1-16-21","lat":35.707951,"lon":139.75243},{"name":"リアン文京","province":"東京都","city":"文京区","address":"文京区小日向2-16-15","lat":35.710581,"lon":139.734582},{"name":"文京福祉センター江戸川橋","province":"東京都","city":"文京区","address":"文京区小日向2-16-15","lat":35.71065,"lon":139.73488},{"name":"文京福祉センター湯島","province":"東京都","city":"文京区","address":"文京区本郷3-10-18","lat":35.70407,"lon":139.76379},{"name":"文京区","province":"東京都","city":"文京区","address":"文京区春日1-16-21","lat":35.70794,"lon":139.75278},{"name":"文京区福祉センター湯島","province":"東京都","city":"文京区","address":"文京区本郷3-10-18","lat":35.70407,"lon":139.76379},{"name":"文京福祉センター江戸川橋","province":"東京都","city":"文京区","address":"文京区小日向2-16-15","lat":35.710581,"lon":139.734582},{"name":"文京福祉センター湯島","province":"東京都","city":"文京区","address":"文京区本郷3-10-18","lat":35.718659,"lon":139.635873},{"name":"文京区福祉センター湯島","province":"東京都","city":"文京区","address":"文京区本郷3-10-18","lat":35.70408,"lon":139.76379},{"name":"文京区","province":"東京都","city":"文京区","address":"文京区春日1-16-21","lat":35.707951,"lon":139.75243},{"name":"リアン文京","province":"東京都","city":"文京区","address":"文京区小日向2-16-15","lat":35.710581,"lon":139.734582},{"name":"文京福祉センター江戸川橋","province":"東京都","city":"文京区","address":"文京区小日向2-16-15","lat":35.71065,"lon":139.73488},{"name":"文京福祉センター湯島","province":"東京都","city":"文京区","address":"文京区本郷3-10-18","lat":35.70407,"lon":139.76379},{"name":"文京区","province":"東京都","city":"文京区","address":"文京区春日1-16-21","lat":35.70794,"lon":139.75278},{"name":"文京区福祉センター湯島","province":"東京都","city":"文京区","address":"文京区本郷3-10-18","lat":35.70407,"lon":139.76379},{"name":"文京福祉センター江戸川橋","province":"東京都","city":"文京区","address":"文京区小日向2-16-15","lat":35.710581,"lon":139.734582},{"name":"文京福祉センター湯島","province":"東京都","city":"文京区","address":"文京区本郷3-10-18","lat":35.718659,"lon":139.635873},{"name":"文京区福祉センター湯島","province":"東京都","city":"文京区","address":"文京区本郷3-10-18","lat":35.70408,"lon":139.76379},{"name":"文京区","province":"東京都","city":"文京区","address":"文京区春日1-16-21","lat":35.707951,"lon":139.75243},{"name":"リアン文京","province":"東京都","city":"文京区","address":"文京区小日向2-16-15","lat":35.710581,"lon":139.734582},{"name":"文京福祉センター江戸川橋","province":"東京都","city":"文京区","address":"文京区小日向2-16-15","lat":35.71065,"lon":139.73488},{"name":"文京福祉センター湯島","province":"東京都","city":"文京区","address":"文京区本郷3-10-18","lat":35.70407,"lon":139.76379},{"name":"文京区","province":"東京都","city":"文京区","address":"文京区春日1-16-21","lat":35.70794,"lon":139.75278},{"name":"文京区福祉センター湯島","province":"東京都","city":"文京区","address":"文京区本郷3-10-18","lat":35.70407,"lon":139.76379},{"name":"文京福祉センター江戸川橋","province":"東京都","city":"文京区","address":"文京区小日向2-16-15","lat":35.710581,"lon":139.734582},{"name":"文京福祉センター湯島","province":"東京都","city":"文京区","address":"文京区本郷3-10-18","lat":35.718659,"lon":139.635873},{"name":"文京区福祉センター湯島","province":"東京都","city":"文京区","address":"文京区本郷3-10-18","lat":35.70408,"lon":139.76379},{"name":"文京区","province":"東京都","city":"文京区","address":"文京区春日1-16-21","lat":35.707951,"lon":139.75243},{"name":"リアン文京","province":"東京都","city":"文京区","address":"文京区小日向2-16-15","lat":35.710581,"lon":139.734582},{"name":"文京福祉センター江戸川橋","province":"東京都","city":"文京区","address":"文京区小日向2-16-15","lat":35.71065,"lon":139.73488},{"name":"文京福祉センター湯島","province":"東京都","city":"文京区","address":"文京区本郷3-10-18","lat":35.70407,"lon":139.76379},{"name":"文京区","province":"東京都","city":"文京区","address":"文京区春日1-16-21","lat":35.70794,"lon":139.75278},{"name":"文京区福祉センター湯島","province":"東京都","city":"文京区","address":"文京区本郷3-10-18","lat":35.70407,"lon":139.76379},{"name":"文京福祉センター江戸川橋","province":"東京都","city":"文京区","address":"文京区小日向2-16-15","lat":35.710581,"lon":139.734582},{"name":"文京福祉センター湯島","province":"東京都","city":"文京区","address":"文京区本郷3-10-18","lat":35.718659,"lon":139.635873},{"name":"文京区福祉センター湯島","province":"東京都","city":"文京区","address":"文京区本郷3-10-18","lat":35.70408,"lon":139.76379},{"name":"文京区","province":"東京都","city":"文京区","address":"文京区春日1-16-21","lat":35.707951,"lon":139.75243},{"name":"リアン文京","province":"東京都","city":"文京区","address":"文京区小日向2-16-15","lat":35.710581,"lon":139.734582},{"name":"文京福祉センター江戸川橋","province":"東京都","city":"文京区","address":"文京区小日向2-16-15","lat":35.71065,"lon":139.73488},{"name":"文京福祉センター湯島","province":"東京都","city":"文京区","address":"文京区本郷3-10-18","lat":35.70407,"lon":139.76379},{"name":"文京区","province":"東京都","city":"文京区","address":"文京区春日1-16-21","lat":35.70794,"lon":139.75278},{"name":"文京区福祉センター湯島","province":"東京都","city":"文京区","address":"文京区本郷3-10-18","lat":35.70407,"lon":139.76379},{"name":"文京福祉センター江戸川橋","province":"東京都","city":"文京区","address":"文京区小日向2-16-15","lat":35.710581,"lon":139.734582},{"name":"文京福祉センター湯島","province":"東京都","city":"文京区","address":"文京区本郷3-10-18","lat":35.718659,"lon":139.635873},{"name":"文京区福祉センター湯島","province":"東京都","city":"文京区","address":"文京区本郷3-10-18","lat":35.70408,"lon":139.76379},{"name":"文京区","province":"東京都","city":"文京区","address":"文京区春日1-16-21","lat":35.707951,"lon":139.75243},{"name":"リアン文京","province":"東京都","city":"文京区","address":"文京区小日向2-16-15","lat":35.710581,"lon":139.734582},{"name":"文京福祉センター江戸川橋","province":"東京都","city":"文京区","address":"文京区小日向2-16-15","lat":35.71065,"lon":139.73488},{"name":"文京福祉センター湯島","province":"東京都","city":"文京区","address":"文京区本郷3-10-18","lat":35.70407,"lon":139.76379},{"name":"文京区","province":"東京都","city":"文京区","address":"文京区春日1-16-21","lat":35.70794,"lon":139.75278},{"name":"文京区福祉センター湯島","province":"東京都","city":"文京区","address":"文京区本郷3-10-18","lat":35.70407,"lon":139.76379},{"name":"文京福祉センター江戸川橋","province":"東京都","city":"文京区","address":"文京区小日向2-16-15","lat":35.710581,"lon":139.734582},{"name":"文京福祉センター湯島","province":"東京都","city":"文京区","address":"文京区本郷3-10-18","lat":35.718659,"lon":139.635873},{"name":"文京区福祉センター湯島","province":"東京都","city":"文京区","address":"文京区本郷3-10-18","lat":35.70408,"lon":139.76379},{"name":"文京区","province":"東京都","city":"文京区","address":"文京区春日1-16-21","lat":35.707951,"lon":139.75243},{"name":"リアン文京","province":"東京都","city":"文京区","address":"文京区小日向2-16-15","lat":35.710581,"lon":139.734582},{"name":"文京福祉センター江戸川橋","province":"東京都","city":"文京区","address":"文京区小日向2-16-15","lat":35.71065,"lon":139.73488},{"name":"文京福祉センター湯島","province":"東京都","city":"文京区","address":"文京区本郷3-10-18","lat":35.70407,"lon":139.76379},{"name":"文京区","province":"東京都","city":"文京区","address":"文京区春日1-16-21","lat":35.70794,"lon":139.75278},{"name":"文京区福祉センター湯島","province":"東京都","city":"文京区","address":"文京区本郷3-10-18","lat":35.70407,"lon":139.76379},{"name":"文京福祉センター江戸川橋","province":"東京都","city":"文京区","address":"文京区小日向2-16-15","lat":35.710581,"lon":139.734582},{"name":"文京福祉センター湯島","province":"東京都","city":"文京区","address":"文京区本郷3-10-18","lat":35.718659,"lon":139.635873},{"name":"文京区福祉センター湯島","province":"東京都","city":"文京区","address":"文京区本郷3-10-18","lat":35.70408,"lon":139.76379},{"name":"文京区","province":"東京都","city":"文京区","address":"文京区春日1-16-21","lat":35.707951,"lon":139.75243},{"name":"リアン文京","province":"東京都","city":"文京区","address":"文京区小日向2-16-15","lat":35.710581,"lon":139.734582},{"name":"文京福祉センター江戸川橋","province":"東京都","city":"文京区","address":"文京区小日向2-16-15","lat":35.71065,"lon":139.73488},{"name":"文京福祉センター湯島","province":"東京都","city":"文京区","address":"文京区本郷3-10-18","lat":35.70407,"lon":139.76379},{"name":"文京区","province":"東京都","city":"文京区","address":"文京区春日1-16-21","lat":35.70794,"lon":139.75278},{"name":"文京区福祉センター湯島","province":"東京都","city":"文京区","address":"文京区本郷3-10-18","lat":35.70407,"lon":139.76379},{"name":"文京福祉センター江戸川橋","province":"東京都","city":"文京区","address":"文京区小日向2-16-15","lat":35.710581,"lon":139.734582},{"name":"文京福祉センター湯島","province":"東京都","city":"文京区","address":"文京区本郷3-10-18","lat":35.718659,"lon":139.635873},{"name":"文京区福祉センター湯島","province":"東京都","city":"文京区","address":"文京区本郷3-10-18","lat":35.70408,"lon":139.76379},{"name":"文京区","province":"東京都","city":"文京区","address":"文京区春日1-16-21","lat":35.707951,"lon":139.75243},{"name":"リアン文京","province":"東京都","city":"文京区","address":"文京区小日向2-16-15","lat":35.710581,"lon":139.734582},{"name":"文京福祉センター江戸川橋","province":"東京都","city":"文京区","address":"文京区小日向2-16-15","lat":35.71065,"lon":139.73488},{"name":"文京福祉センター湯島","province":"東京都","city":"文京区","address":"文京区本郷3-10-18","lat":35.70407,"lon":139.76379},{"name":"文京区","province":"東京都","city":"文京区","address":"文京区春日1-16-21","lat":35.70794,"lon":139.75278},{"name":"文京区福祉センター湯島","province":"東京都","city":"文京区","address":"文京区本郷3-10-18","lat":35.70407,"lon":139.76379},{"name":"文京福祉センター江戸川橋","province":"東京都","city":"文京区","address":"文京区小日向2-16-15","lat":35.710581,"lon":139.734582},{"name":"文京福祉センター湯島","province":"東京都","city":"文京区","address":"文京区本郷3-10-18","lat":35.718659,"lon":139.635873},{"name":"文京区福祉センター湯島","province":"東京都","city":"文京区","address":"文京区本郷3-10-18","lat":35.70408,"lon":139.76379},{"name":"文京区","province":"東京都","city":"文京区","address":"文京区春日1-16-21","lat":35.707951,"lon":139.75243},{"name":"リアン文京","province":"東京都","city":"文京区","address":"文京区小日向2-16-15","lat":35.710581,"lon":139.734582},{"name":"文京福祉センター江戸川橋","province":"東京都","city":"文京区","address":"文京区小日向2-16-15","lat":35.71065,"lon":139.73488},{"name":"文京福祉センター湯島","province":"東京都","city":"文京区","address":"文京区本郷3-10-18","lat":35.70407,"lon":139.76379},{"name":"文京区","province":"東京都","city":"文京区","address":"文京区春日1-16-21","lat":35.70794,"lon":139.75278},{"name":"文京区福祉センター湯島","province":"東京都","city":"文京区","address":"文京区本郷3-10-18","lat":35.70407,"lon":139.76379},{"name":"文京福祉センター江戸川橋","province":"東京都","city":"文京区","address":"文京区小日向2-16-15","lat":35.710581,"lon":139.734582},{"name":"文京福祉センター湯島","province":"東京都","city":"文京区","address":"文京区本郷3-10-18","lat":35.718659,"lon":139.635873},{"name":"文京区福祉センター湯島","province":"東京都","city":"文京区","address":"文京区本郷3-10-18","lat":35.70408,"lon":139.76379},{"name":"文京区","province":"東京都","city":"文京区","address":"文京区春日1-16-21","lat":35.707951,"lon":139.75243},{"name":"リアン文京","province":"東京都","city":"文京区","address":"文京区小日向2-16-15","lat":35.710581,"lon":139.734582},{"name":"文京福祉センター江戸川橋","province":"東京都","city":"文京区","address":"文京区小日向2-16-15","lat":35.71065,"lon":139.73488},{"name":"文京福祉センター湯島","province":"東京都","city":"文京区","address":"文京区本郷3-10-18","lat":35.70407,"lon":139.76379},{"name":"文京区","province":"東京都","city":"文京区","address":"文京区春日1-16-21","lat":35.70794,"lon":139.75278},{"name":"文京区福祉センター湯島","province":"東京都","city":"文京区","address":"文京区本郷3-10-18","lat":35.70407,"lon":139.76379},{"name":"文京福祉センター江戸川橋","province":"東京都","city":"文京区","address":"文京区小日向2-16-15","lat":35.710581,"lon":139.734582},{"name":"文京福祉センター湯島","province":"東京都","city":"文京区","address":"文京区本郷3-10-18","lat":35.718659,"lon":139.635873},{"name":"文京区福祉センター湯島","province":"東京都","city":"文京区","address":"文京区本郷3-10-18","lat":35.70408,"lon":139.76379},{"name":"文京区","province":"東京都","city":"文京区","address":"文京区春日1-16-21","lat":35.707951,"lon":139.75243},{"name":"リアン文京","province":"東京都","city":"文京区","address":"文京区小日向2-16-15","lat":35.710581,"lon":139.734582},{"name":"文京福祉センター江戸川橋","province":"東京都","city":"文京区","address":"文京区小日向2-16-15","lat":35.71065,"lon":139.73488},{"name":"文京福祉センター湯島","province":"東京都","city":"文京区","address":"文京区本郷3-10-18","lat":35.70407,"lon":139.76379},{"name":"文京区","province":"東京都","city":"文京区","address":"文京区春日1-16-21","lat":35.70794,"lon":139.75278},{"name":"文京区福祉センター湯島","province":"東京都","city":"文京区","address":"文京区本郷3-10-18","lat":35.70407,"lon":139.76379},{"name":"文京福祉センター江戸川橋","province":"東京都","city":"文京区","address":"文京区小日向2-16-15","lat":35.710581,"lon":139.734582},{"name":"文京福祉センター湯島","province":"東京都","city":"文京区","address":"文京区本郷3-10-18","lat":35.718659,"lon":139.635873},{"name":"文京区福祉センター湯島","province":"東京都","city":"文京区","address":"文京区本郷3-10-18","lat":35.70408,"lon":139.76379},{"name":"文京区","province":"東京都","city":"文京区","address":"文京区春日1-16-21","lat":35.707951,"lon":139.75243},{"name":"リアン文京","province":"東京都","city":"文京区","address":"文京区小日向2-16-15","lat":35.710581,"lon":139.734582},{"name":"文京福祉センター江戸川橋","province":"東京都","city":"文京区","address":"文京区小日向2-16-15","lat":35.71065,"lon":139.73488},{"name":"文京福祉センター湯島","province":"東京都","city":"文京区","address":"文京区本郷3-10-18","lat":35.70407,"lon":139.76379},{"name":"文京区","province":"東京都","city":"文京区","address":"文京区春日1-16-21","lat":35.70794,"lon":139.75278},{"name":"文京区福祉センター湯島","province":"東京都","city":"文京区","address":"文京区本郷3-10-18","lat":35.70407,"lon":139.76379},{"name":"文京福祉センター江戸川橋","province":"東京都","city":"文京区","address":"文京区小日向2-16-15","lat":35.710581,"lon":139.734582},{"name":"文京福祉センター湯島","province":"東京都","city":"文京区","address":"文京区本郷3-10-18","lat":35.718659,"lon":139.635873},{"name":"文京区福祉センター湯島","province":"東京都","city":"文京区","address":"文京区本郷3-10-18","lat":35.70408,"lon":139.76379},{"name":"文京区","province":"東京都","city":"文京区","address":"文京区春日1-16-21","lat":35.707951,"lon":139.75243},{"name":"リアン文京","province":"東京都","city":"文京区","address":"文京区小日向2-16-15","lat":35.710581,"lon":139.734582},{"name":"文京福祉センター江戸川橋","province":"東京都","city":"文京区","address":"文京区小日向2-16-15","lat":35.71065,"lon":139.73488},{"name":"文京福祉センター湯島","province":"東京都","city":"文京区","address":"文京区本郷3-10-18","lat":35.70407,"lon":139.76379},{"name":"文京区","province":"東京都","city":"文京区","address":"文京区春日1-16-21","lat":35.70794,"lon":139.75278},{"name":"文京区福祉センター湯島","province":"東京都","city":"文京区","address":"文京区本郷3-10-18","lat":35.70407,"lon":139.76379},{"name":"文京福祉センター江戸川橋","province":"東京都","city":"文京区","address":"文京区小日向2-16-15","lat":35.710581,"lon":139.734582},{"name":"文京福祉センター湯島","province":"東京都","city":"文京区","address":"文京区本郷3-10-18","lat":35.718659,"lon":139.635873},{"name":"文京区福祉センター湯島","province":"東京都","city":"文京区","address":"文京区本郷3-10-18","lat":35.70408,"lon":139.76379},{"name":"文京区","province":"東京都","city":"文京区","address":"文京区春日1-16-21","lat":35.707951,"lon":139.75243},{"name":"リアン文京","province":"東京都","city":"文京区","address":"文京区小日向2-16-15","lat":35.710581,"lon":139.734582},{"name":"文京福祉センター江戸川橋","province":"東京都","city":"文京区","address":"文京区小日向2-16-15","lat":35.71065,"lon":139.73488},{"name":"文京福祉センター湯島","province":"東京都","city":"文京区","address":"文京区本郷3-10-18","lat":35.70407,"lon":139.76379},{"name":"文京区","province":"東京都","city":"文京区","address":"文京区春日1-16-21","lat":35.70794,"lon":139.75278},{"name":"文京区福祉センター湯島","province":"東京都","city":"文京区","address":"文京区本郷3-10-18","lat":35.70407,"lon":139.76379},{"name":"文京福祉センター江戸川橋","province":"東京都","city":"文京区","address":"文京区小日向2-16-15","lat":35.710581,"lon":139.734582},{"name":"文京福祉センター湯島","province":"東京都","city":"文京区","address":"文京区本郷3-10-18","lat":35.718659,"lon":139.635873},{"name":"文京区福祉センター湯島","province":"東京都","city":"文京区","address":"文京区本郷3-10-18","lat":35.70408,"lon":139.76379},{"name":"文京区","province":"東京都","city":"文京区","address":"文京区春日1-16-21","lat":35.707951,"lon":139.75243},{"name":"リアン文京","province":"東京都","city":"文京区","address":"文京区小日向2-16-15","lat":35.710581,"lon":139.734582},{"name":"文京福祉センター江戸川橋","province":"東京都","city":"文京区","address":"文京区小日向2-16-15","lat":35.71065,"lon":139.73488},{"name":"文京福祉センター湯島","province":"東京都","city":"文京区","address":"文京区本郷3-10-18","lat":35.70407,"lon":139.76379},{"name":"文京区","province":"東京都","city":"文京区","address":"文京区春日1-16-21","lat":35.70794,"lon":139.75278},{"name":"文京区福祉センター湯島","province":"東京都","city":"文京区","address":"文京区本郷3-10-18","lat":35.70407,"lon":139.76379},{"name":"文京福祉センター江戸川橋","province":"東京都","city":"文京区","address":"文京区小日向2-16-15","lat":35.710581,"lon":139.734582},{"name":"文京福祉センター湯島","province":"東京都","city":"文京区","address":"文京区本郷3-10-18","lat":35.718659,"lon":139.635873},{"name":"文京区福祉センター湯島","province":"東京都","city":"文京区","address":"文京区本郷3-10-18","lat":35.70408,"lon":139.76379},{"name":"文京区","province":"東京都","city":"文京区","address":"文京区春日1-16-21","lat":35.707951,"lon":139.75243},{"name":"リアン文京","province":"東京都","city":"文京区","address":"文京区小日向2-16-15","lat":35.710581,"lon":139.734582},{"name":"文京福祉センター江戸川橋","province":"東京都","city":"文京区","address":"文京区小日向2-16-15","lat":35.71065,"lon":139.73488},{"name":"文京福祉センター湯島","province":"東京都","city":"文京区","address":"文京区本郷3-10-18","lat":35.70407,"lon":139.76379},{"name":"文京区","province":"東京都","city":"文京区","address":"文京区春日1-16-21","lat":35.70794,"lon":139.75278},{"name":"文京区福祉センター湯島","province":"東京都","city":"文京区","address":"文京区本郷3-10-18","lat":35.70407,"lon":139.76379},{"name":"文京福祉センター江戸川橋","province":"東京都","city":"文京区","address":"文京区小日向2-16-15","lat":35.710581,"lon":139.734582},{"name":"文京福祉センター湯島","province":"東京都","city":"文京区","address":"文京区本郷3-10-18","lat":35.718659,"lon":139.635873},{"name":"文京区福祉センター湯島","province":"東京都","city":"文京区","address":"文京区本郷3-10-18","lat":35.70408,"lon":139.76379},{"name":"文京区","province":"東京都","city":"文京区","address":"文京区春日1-16-21","lat":35.707951,"lon":139.75243},{"name":"リアン文京","province":"東京都","city":"文京区","address":"文京区小日向2-16-15","lat":35.710581,"lon":139.734582},{"name":"文京福祉センター江戸川橋","province":"東京都","city":"文京区","address":"文京区小日向2-16-15","lat":35.71065,"lon":139.73488},{"name":"文京福祉センター湯島","province":"東京都","city":"文京区","address":"文京区本郷3-10-18","lat":35.70407,"lon":139.76379},{"name":"文京区","province":"東京都","city":"文京区","address":"文京区春日1-16-21","lat":35.70794,"lon":139.75278},{"name":"文京区福祉センター湯島","province":"東京都","city":"文京区","address":"文京区本郷3-10-18","lat":35.70407,"lon":139.76379},{"name":"文京福祉センター江戸川橋","province":"東京都","city":"文京区","address":"文京区小日向2-16-15","lat":35.710581,"lon":139.734582},{"name":"文京福祉センター湯島","province":"東京都","city":"文京区","address":"文京区本郷3-10-18","lat":35.718659,"lon":139.635873},{"name":"文京区福祉センター湯島","province":"東京都","city":"文京区","address":"文京区本郷3-10-18","lat":35.70408,"lon":139.76379},{"name":"文京区","province":"東京都","city":"文京区","address":"文京区春日1-16-21","lat":35.707951,"lon":139.75243},{"name":"リアン文京","province":"東京都","city":"文京区","address":"文京区小日向2-16-15","lat":35.710581,"lon":139.734582},{"name":"文京福祉センター江戸川橋","province":"東京都","city":"文京区","address":"文京区小日向2-16-15","lat":35.71065,"lon":139.73488},{"name":"文京福祉センター湯島","province":"東京都","city":"文京区","address":"文京区本郷3-10-18","lat":35.70407,"lon":139.76379},{"name":"文京区","province":"東京都","city":"文京区","address":"文京区春日1-16-21","lat":35.70794,"lon":139.75278},{"name":"文京区福祉センター湯島","province":"東京都","city":"文京区","address":"文京区本郷3-10-18","lat":35.70407,"lon":139.76379},{"name":"文京福祉センター江戸川橋","province":"東京都","city":"文京区","address":"文京区小日向2-16-15","lat":35.710581,"lon":139.734582},{"name":"文京福祉センター湯島","province":"東京都","city":"文京区","address":"文京区本郷3-10-18","lat":35.718659,"lon":139.635873},{"name":"文京区福祉センター湯島","province":"東京都","city":"文京区","address":"文京区本郷3-10-18","lat":35.70408,"lon":139.76379},{"name":"文京区","province":"東京都","city":"文京区","address":"文京区春日1-16-21","lat":35.707951,"lon":139.75243},{"name":"リアン文京","province":"東京都","city":"文京区","address":"文京区小日向2-16-15","lat":35.710581,"lon":139.734582},{"name":"文京福祉センター江戸川橋","province":"東京都","city":"文京区","address":"文京区小日向2-16-15","lat":35.71065,"lon":139.73488},{"name":"文京福祉センター湯島","province":"東京都","city":"文京区","address":"文京区本郷3-10-18","lat":35.70407,"lon":139.76379},{"name":"文京区","province":"東京都","city":"文京区","address":"文京区春日1-16-21","lat":35.70794,"lon":139.75278},{"name":"文京区福祉センター湯島","province":"東京都","city":"文京区","address":"文京区本郷3-10-18","lat":35.70407,"lon":139.76379},{"name":"文京福祉センター江戸川橋","province":"東京都","city":"文京区","address":"文京区小日向2-16-15","lat":35.710581,"lon":139.734582},{"name":"文京福祉センター湯島","province":"東京都","city":"文京区","address":"文京区本郷3-10-18","lat":35.718659,"lon":139.635873},{"name":"文京区福祉センター湯島","province":"東京都","city":"文京区","address":"文京区本郷3-10-18","lat":35.70408,"lon":139.76379},{"name":"文京区","province":"東京都","city":"文京区","address":"文京区春日1-16-21","lat":35.707951,"lon":139.75243},{"name":"リアン文京","province":"東京都","city":"文京区","address":"文京区小日向2-16-15","lat":35.710581,"lon":139.734582},{"name":"文京福祉センター江戸川橋","province":"東京都","city":"文京区","address":"文京区小日向2-16-15","lat":35.71065,"lon":139.73488},{"name":"文京福祉センター湯島","province":"東京都","city":"文京区","address":"文京区本郷3-10-18","lat":35.70407,"lon":139.76379},{"name":"文京区","province":"東京都","city":"文京区","address":"文京区春日1-16-21","lat":35.70794,"lon":139.75278},{"name":"文京区福祉センター湯島","province":"東京都","city":"文京区","address":"文京区本郷3-10-18","lat":35.70407,"lon":139.76379},{"name":"文京福祉センター江戸川橋","province":"東京都","city":"文京区","address":"文京区小日向2-16-15","lat":35.710581,"lon":139.734582},{"name":"文京福祉センター湯島","province":"東京都","city":"文京区","address":"文京区本郷3-10-18","lat":35.718659,"lon":139.635873},{"name":"文京区福祉センター湯島","province":"東京都","city":"文京区","address":"文京区本郷3-10-18","lat":35.70408,"lon":139.76379},{"name":"文京区","province":"東京都","city":"文京区","address":"文京区春日1-16-21","lat":35.707951,"lon":139.75243},{"name":"リアン文京","province":"東京都","city":"文京区","address":"文京区小日向2-16-15","lat":35.710581,"lon":139.734582},{"name":"文京福祉センター江戸川橋","province":"東京都","city":"文京区","address":"文京区小日向2-16-15","lat":35.71065,"lon":139.73488},{"name":"文京福祉センター湯島","province":"東京都","city":"文京区","address":"文京区本郷3-10-18","lat":35.70407,"lon":139.76379},{"name":"文京区","province":"東京都","city":"文京区","address":"文京区春日1-16-21","lat":35.70794,"lon":139.75278},{"name":"文京区福祉センター湯島","province":"東京都","city":"文京区","address":"文京区本郷3-10-18","lat":35.70407,"lon":139.76379},{"name":"文京福祉センター江戸川橋","province":"東京都","city":"文京区","address":"文京区小日向2-16-15","lat":35.710581,"lon":139.734582},{"name":"文京福祉センター湯島","province":"東京都","city":"文京区","address":"文京区本郷3-10-18","lat":35.718659,"lon":139.635873},{"name":"文京区福祉センター湯島","province":"東京都","city":"文京区","address":"文京区本郷3-10-18","lat":35.70408,"lon":139.76379},{"name":"文京区","province":"東京都","city":"文京区","address":"文京区春日1-16-21","lat":35.707951,"lon":139.75243},{"name":"リアン文京","province":"東京都","city":"文京区","address":"文京区小日向2-16-15","lat":35.710581,"lon":139.734582},{"name":"文京福祉センター江戸川橋","province":"東京都","city":"文京区","address":"文京区小日向2-16-15","lat":35.71065,"lon":139.73488},{"name":"文京福祉センター湯島","province":"東京都","city":"文京区","address":"文京区本郷3-10-18","lat":35.70407,"lon":139.76379},{"name":"文京区","province":"東京都","city":"文京区","address":"文京区春日1-16-21","lat":35.70794,"lon":139.75278},{"name":"文京区福祉センター湯島","province":"東京都","city":"文京区","address":"文京区本郷3-10-18","lat":35.70407,"lon":139.76379},{"name":"文京福祉センター江戸川橋","province":"東京都","city":"文京区","address":"文京区小日向2-16-15","lat":35.710581,"lon":139.734582},{"name":"文京福祉センター湯島","province":"東京都","city":"文京区","address":"文京区本郷3-10-18","lat":35.718659,"lon":139.635873},{"name":"文京区福祉センター湯島","province":"東京都","city":"文京区","address":"文京区本郷3-10-18","lat":35.70408,"lon":139.76379},{"name":"文京区","province":"東京都","city":"文京区","address":"文京区春日1-16-21","lat":35.707951,"lon":139.75243},{"name":"リアン文京","province":"東京都","city":"文京区","address":"文京区小日向2-16-15","lat":35.710581,"lon":139.734582},{"name":"文京福祉センター江戸川橋","province":"東京都","city":"文京区","address":"文京区小日向2-16-15","lat":35.71065,"lon":139.73488},{"name":"文京福祉センター湯島","province":"東京都","city":"文京区","address":"文京区本郷3-10-18","lat":35.70407,"lon":139.76379},{"name":"文京区","province":"東京都","city":"文京区","address":"文京区春日1-16-21","lat":35.70794,"lon":139.75278},{"name":"文京区福祉センター湯島","province":"東京都","city":"文京区","address":"文京区本郷3-10-18","lat":35.70407,"lon":139.76379},{"name":"文京福祉センター江戸川橋","province":"東京都","city":"文京区","address":"文京区小日向2-16-15","lat":35.710581,"lon":139.734582},{"name":"文京福祉センター湯島","province":"東京都","city":"文京区","address":"文京区本郷3-10-18","lat":35.718659,"lon":139.635873},{"name":"文京区福祉センター湯島","province":"東京都","city":"文京区","address":"文京区本郷3-10-18","lat":35.70408,"lon":139.76379},{"name":"文京区","province":"東京都","city":"文京区","address":"文京区春日1-16-21","lat":35.707951,"lon":139.75243},{"name":"リアン文京","province":"東京都","city":"文京区","address":"文京区小日向2-16-15","lat":35.710581,"lon":139.734582},{"name":"文京福祉センター江戸川橋","province":"東京都","city":"文京区","address":"文京区小日向2-16-15","lat":35.71065,"lon":139.73488},{"name":"文京福祉センター湯島","province":"東京都","city":"文京区","address":"文京区本郷3-10-18","lat":35.70407,"lon":139.76379},{"name":"文京区","province":"東京都","city":"文京区","address":"文京区春日1-16-21","lat":35.70794,"lon":139.75278},{"name":"文京区福祉センター湯島","province":"東京都","city":"文京区","address":"文京区本郷3-10-18","lat":35.70407,"lon":139.76379},{"name":"文京福祉センター江戸川橋","province":"東京都","city":"文京区","address":"文京区小日向2-16-15","lat":35.710581,"lon":139.734582},{"name":"文京福祉センター湯島","province":"東京都","city":"文京区","address":"文京区本郷3-10-18","lat":35.718659,"lon":139.635873},{"name":"文京区福祉センター湯島","province":"東京都","city":"文京区","address":"文京区本郷3-10-18","lat":35.70408,"lon":139.76379},{"name":"文京区","province":"東京都","city":"文京区","address":"文京区春日1-16-21","lat":35.707951,"lon":139.75243},{"name":"リアン文京","province":"東京都","city":"文京区","address":"文京区小日向2-16-15","lat":35.710581,"lon":139.734582},{"name":"文京福祉センター江戸川橋","province":"東京都","city":"文京区","address":"文京区小日向2-16-15","lat":35.71065,"lon":139.73488},{"name":"文京福祉センター湯島","province":"東京都","city":"文京区","address":"文京区本郷3-10-18","lat":35.70407,"lon":139.76379},{"name":"文京区","province":"東京都","city":"文京区","address":"文京区春日1-16-21","lat":35.70794,"lon":139.75278},{"name":"文京区福祉センター湯島","province":"東京都","city":"文京区","address":"文京区本郷3-10-18","lat":35.70407,"lon":139.76379},{"name":"文京福祉センター江戸川橋","province":"東京都","city":"文京区","address":"文京区小日向2-16-15","lat":35.710581,"lon":139.734582},{"name":"文京福祉センター湯島","province":"東京都","city":"文京区","address":"文京区本郷3-10-18","lat":35.718659,"lon":139.635873},{"name":"文京区福祉センター湯島","province":"東京都","city":"文京区","address":"文京区本郷3-10-18","lat":35.70408,"lon":139.76379},{"name":"文京区","province":"東京都","city":"文京区","address":"文京区春日1-16-21","lat":35.707951,"lon":139.75243},{"name":"リアン文京","province":"東京都","city":"文京区","address":"文京区小日向2-16-15","lat":35.710581,"lon":139.734582},{"name":"文京福祉センター江戸川橋","province":"東京都","city":"文京区","address":"文京区小日向2-16-15","lat":35.71065,"lon":139.73488},{"name":"文京福祉センター湯島","province":"東京都","city":"文京区","address":"文京区本郷3-10-18","lat":35.70407,"lon":139.76379},{"name":"文京区","province":"東京都","city":"文京区","address":"文京区春日1-16-21","lat":35.70794,"lon":139.75278},{"name":"文京区福祉センター湯島","province":"東京都","city":"文京区","address":"文京区本郷3-10-18","lat":35.70407,"lon":139.76379},{"name":"文京福祉センター江戸川橋","province":"東京都","city":"文京区","address":"文京区小日向2-16-15","lat":35.710581,"lon":139.734582},{"name":"文京福祉センター湯島","province":"東京都","city":"文京区","address":"文京区本郷3-10-18","lat":35.718659,"lon":139.635873},{"name":"文京区福祉センター湯島","province":"東京都","city":"文京区","address":"文京区本郷3-10-18","lat":35.70408,"lon":139.76379},{"name":"文京区","province":"東京都","city":"文京区","address":"文京区春日1-16-21","lat":35.707951,"lon":139.75243},{"name":"リアン文京","province":"東京都","city":"文京区","address":"文京区小日向2-16-15","lat":35.710581,"lon":139.734582},{"name":"文京福祉センター江戸川橋","province":"東京都","city":"文京区","address":"文京区小日向2-16-15","lat":35.71065,"lon":139.73488},{"name":"文京福祉センター湯島","province":"東京都","city":"文京区","address":"文京区本郷3-10-18","lat":35.70407,"lon":139.76379},{"name":"文京区","province":"東京都","city":"文京区","address":"文京区春日1-16-21","lat":35.70794,"lon":139.75278},{"name":"文京区福祉センター湯島","province":"東京都","city":"文京区","address":"文京区本郷3-10-18","lat":35.70407,"lon":139.76379},{"name":"文京福祉センター江戸川橋","province":"東京都","city":"文京区","address":"文京区小日向2-16-15","lat":35.710581,"lon":139.734582},{"name":"文京福祉センター湯島","province":"東京都","city":"文京区","address":"文京区本郷3-10-18","lat":35.718659,"lon":139.635873},{"name":"文京区福祉センター湯島","province":"東京都","city":"文京区","address":"文京区本郷3-10-18","lat":35.70408,"lon":139.76379},{"name":"文京区","province":"東京都","city":"文京区","address":"文京区春日1-16-21","lat":35.707951,"lon":139.75243},{"name":"リアン文京","province":"東京都","city":"文京区","address":"文京区小日向2-16-15","lat":35.710581,"lon":139.734582},{"name":"文京福祉センター江戸川橋","province":"東京都","city":"文京区","address":"文京区小日向2-16-15","lat":35.71065,"lon":139.73488},{"name":"文京福祉センター湯島","province":"東京都","city":"文京区","address":"文京区本郷3-10-18","lat":35.70407,"lon":139.76379},{"name":"文京区","province":"東京都","city":"文京区","address":"文京区春日1-16-21","lat":35.70794,"lon":139.75278},{"name":"文京区福祉センター湯島","province":"東京都","city":"文京区","address":"文京区本郷3-10-18","lat":35.70407,"lon":139.76379},{"name":"文京福祉センター江戸川橋","province":"東京都","city":"文京区","address":"文京区小日向2-16-15","lat":35.710581,"lon":139.734582},{"name":"文京福祉センター湯島","province":"東京都","city":"文京区","address":"文京区本郷3-10-18","lat":35.718659,"lon":139.635873},{"name":"文京区福祉センター湯島","province":"東京都","city":"文京区","address":"文京区本郷3-10-18","lat":35.70408,"lon":139.76379},{"name":"文京区","province":"東京都","city":"文京区","address":"文京区春日1-16-21","lat":35.707951,"lon":139.75243},{"name":"リアン文京","province":"東京都","city":"文京区","address":"文京区小日向2-16-15","lat":35.710581,"lon":139.734582},{"name":"文京福祉センター江戸川橋","province":"東京都","city":"文京区","address":"文京区小日向2-16-15","lat":35.71065,"lon":139.73488},{"name":"文京福祉センター湯島","province":"東京都","city":"文京区","address":"文京区本郷3-10-18","lat":35.70407,"lon":139.76379},{"name":"文京区","province":"東京都","city":"文京区","address":"文京区春日1-16-21","lat":35.70794,"lon":139.75278},{"name":"文京区福祉センター湯島","province":"東京都","city":"文京区","address":"文京区本郷3-10-18","lat":35.70407,"lon":139.76379},{"name":"文京福祉センター江戸川橋","province":"東京都","city":"文京区","address":"文京区小日向2-16-15","lat":35.710581,"lon":139.734582},{"name":"文京福祉センター湯島","province":"東京都","city":"文京区","address":"文京区本郷3-10-18","lat":35.718659,"lon":139.635873},{"name":"文京区福祉センター湯島","province":"東京都","city":"文京区","address":"文京区本郷3-10-18","lat":35.70408,"lon":139.76379},{"name":"文京区","province":"東京都","city":"文京区","address":"文京区春日1-16-21","lat":35.707951,"lon":139.75243},{"name":"リアン文京","province":"東京都","city":"文京区","address":"文京区小日向2-16-15","lat":35.710581,"lon":139.734582},{"name":"文京福祉センター江戸川橋","province":"東京都","city":"文京区","address":"文京区小日向2-16-15","lat":35.71065,"lon":139.73488},{"name":"文京福祉センター湯島","province":"東京都","city":"文京区","address":"文京区本郷3-10-18","lat":35.70407,"lon":139.76379},{"name":"文京区","province":"東京都","city":"文京区","address":"文京区春日1-16-21","lat":35.70794,"lon":139.75278},{"name":"文京区福祉センター湯島","province":"東京都","city":"文京区","address":"文京区本郷3-10-18","lat":35.70407,"lon":139.76379},{"name":"文京福祉センター江戸川橋","province":"東京都","city":"文京区","address":"文京区小日向2-16-15","lat":35.710581,"lon":139.734582},{"name":"文京福祉センター湯島","province":"東京都","city":"文京区","address":"文京区本郷3-10-18","lat":35.718659,"lon":139.635873},{"name":"文京区福祉センター湯島","province":"東京都","city":"文京区","address":"文京区本郷3-10-18","lat":35.70408,"lon":139.76379},{"name":"文京区","province":"東京都","city":"文京区","address":"文京区春日1-16-21","lat":35.707951,"lon":139.75243},{"name":"リアン文京","province":"東京都","city":"文京区","address":"文京区小日向2-16-15","lat":35.710581,"lon":139.734582},{"name":"文京福祉センター江戸川橋","province":"東京都","city":"文京区","address":"文京区小日向2-16-15","lat":35.71065,"lon":139.73488},{"name":"文京福祉センター湯島","province":"東京都","city":"文京区","address":"文京区本郷3-10-18","lat":35.70407,"lon":139.76379},{"name":"文京区","province":"東京都","city":"文京区","address":"文京区春日1-16-21","lat":35.70794,"lon":139.75278},{"name":"文京区福祉センター湯島","province":"東京都","city":"文京区","address":"文京区本郷3-10-18","lat":35.70407,"lon":139.76379},{"name":"文京福祉センター江戸川橋","province":"東京都","city":"文京区","address":"文京区小日向2-16-15","lat":35.710581,"lon":139.734582},{"name":"文京福祉センター湯島","province":"東京都","city":"文京区","address":"文京区本郷3-10-18","lat":35.718659,"lon":139.635873},{"name":"文京区福祉センター湯島","province":"東京都","city":"文京区","address":"文京区本郷3-10-18","lat":35.70408,"lon":139.76379},{"name":"文京区","province":"東京都","city":"文京区","address":"文京区春日1-16-21","lat":35.707951,"lon":139.75243},{"name":"リアン文京","province":"東京都","city":"文京区","address":"文京区小日向2-16-15","lat":35.710581,"lon":139.734582},{"name":"文京福祉センター江戸川橋","province":"東京都","city":"文京区","address":"文京区小日向2-16-15","lat":35.71065,"lon":139.73488},{"name":"文京福祉センター湯島","province":"東京都","city":"文京区","address":"文京区本郷3-10-18","lat":35.70407,"lon":139.76379},{"name":"文京区","province":"東京都","city":"文京区","address":"文京区春日1-16-21","lat":35.70794,"lon":139.75278},{"name":"文京区福祉センター湯島","province":"東京都","city":"文京区","address":"文京区本郷3-10-18","lat":35.70407,"lon":139.76379},{"name":"文京福祉センター江戸川橋","province":"東京都","city":"文京区","address":"文京区小日向2-16-15","lat":35.710581,"lon":139.734582},{"name":"文京福祉センター湯島","province":"東京都","city":"文京区","address":"文京区本郷3-10-18","lat":35.718659,"lon":139.635873},{"name":"文京区福祉センター湯島","province":"東京都","city":"文京区","address":"文京区本郷3-10-18","lat":35.70408,"lon":139.76379},{"name":"文京区","province":"東京都","city":"文京区","address":"文京区春日1-16-21","lat":35.707951,"lon":139.75243},{"name":"リアン文京","province":"東京都","city":"文京区","address":"文京区小日向2-16-15","lat":35.710581,"lon":139.734582},{"name":"文京福祉センター江戸川橋","province":"東京都","city":"文京区","address":"文京区小日向2-16-15","lat":35.71065,"lon":139.73488},{"name":"文京福祉センター湯島","province":"東京都","city":"文京区","address":"文京区本郷3-10-18","lat":35.70407,"lon":139.76379},{"name":"文京区","province":"東京都","city":"文京区","address":"文京区春日1-16-21","lat":35.70794,"lon":139.75278},{"name":"文京区福祉センター湯島","province":"東京都","city":"文京区","address":"文京区本郷3-10-18","lat":35.70407,"lon":139.76379},{"name":"文京福祉センター江戸川橋","province":"東京都","city":"文京区","address":"文京区小日向2-16-15","lat":35.710581,"lon":139.734582},{"name":"文京福祉センター湯島","province":"東京都","city":"文京区","address":"文京区本郷3-10-18","lat":35.718659,"lon":139.635873},{"name":"文京区福祉センター湯島","province":"東京都","city":"文京区","address":"文京区本郷3-10-18","lat":35.70408,"lon":139.76379},{"name":"文京区","province":"東京都","city":"文京区","address":"文京区春日1-16-21","lat":35.707951,"lon":139.75243},{"name":"リアン文京","province":"東京都","city":"文京区","address":"文京区小日向2-16-15","lat":35.710581,"lon":139.734582},{"name":"文京福祉センター江戸川橋","province":"東京都","city":"文京区","address":"文京区小日向2-16-15","lat":35.71065,"lon":139.73488},{"name":"文京福祉センター湯島","province":"東京都","city":"文京区","address":"文京区本郷3-10-18","lat":35.70407,"lon":139.76379},{"name":"文京区","province":"東京都","city":"文京区","address":"文京区春日1-16-21","lat":35.70794,"lon":139.75278},{"name":"文京区福祉センター湯島","province":"東京都","city":"文京区","address":"文京区本郷3-10-18","lat":35.70407,"lon":139.76379},{"name":"文京福祉センター江戸川橋","province":"東京都","city":"文京区","address":"文京区小日向2-16-15","lat":35.710581,"lon":139.734582},{"name":"文京福祉センター湯島","province":"東京都","city":"文京区","address":"文京区本郷3-10-18","lat":35.718659,"lon":139.635873},{"name":"文京区福祉センター湯島","province":"東京都","city":"文京区","address":"文京区本郷3-10-18","lat":35.70408,"lon":139.76379},{"name":"文京区","province":"東京都","city":"文京区","address":"文京区春日1-16-21","lat":35.707951,"lon":139.75243},{"name":"リアン文京","province":"東京都","city":"文京区","address":"文京区小日向2-16-15","lat":35.710581,"lon":139.734582},{"name":"文京福祉センター江戸川橋","province":"東京都","city":"文京区","address":"文京区小日向2-16-15","lat":35.71065,"lon":139.73488},{"name":"文京福祉センター湯島","province":"東京都","city":"文京区","address":"文京区本郷3-10-18","lat":35.70407,"lon":139.76379},{"name":"文京区","province":"東京都","city":"文京区","address":"文京区春日1-16-21","lat":35.70794,"lon":139.75278},{"name":"文京区福祉センター湯島","province":"東京都","city":"文京区","address":"文京区本郷3-10-18","lat":35.70407,"lon":139.76379},{"name":"文京福祉センター江戸川橋","province":"東京都","city":"文京区","address":"文京区小日向2-16-15","lat":35.710581,"lon":139.734582},{"name":"文京福祉センター湯島","province":"東京都","city":"文京区","address":"文京区本郷3-10-18","lat":35.718659,"lon":139.635873},{"name":"文京区福祉センター湯島","province":"東京都","city":"文京区","address":"文京区本郷3-10-18","lat":35.70408,"lon":139.76379},{"name":"文京区","province":"東京都","city":"文京区","address":"文京区春日1-16-21","lat":35.707951,"lon":139.75243},{"name":"リアン文京","province":"東京都","city":"文京区","address":"文京区小日向2-16-15","lat":35.710581,"lon":139.734582},{"name":"文京福祉センター江戸川橋","province":"東京都","city":"文京区","address":"文京区小日向2-16-15","lat":35.71065,"lon":139.73488},{"name":"文京福祉センター湯島","province":"東京都","city":"文京区","address":"文京区本郷3-10-18","lat":35.70407,"lon":139.76379},{"name":"文京区","province":"東京都","city":"文京区","address":"文京区春日1-16-21","lat":35.70794,"lon":139.75278},{"name":"文京区福祉センター湯島","province":"東京都","city":"文京区","address":"文京区本郷3-10-18","lat":35.70407,"lon":139.76379},{"name":"文京福祉センター江戸川橋","province":"東京都","city":"文京区","address":"文京区小日向2-16-15","lat":35.710581,"lon":139.734582},{"name":"文京福祉センター湯島","province":"東京都","city":"文京区","address":"文京区本郷3-10-18","lat":35.718659,"lon":139.635873},{"name":"文京区福祉センター湯島","province":"東京都","city":"文京区","address":"文京区本郷3-10-18","lat":35.70408,"lon":139.76379},{"name":"文京区","province":"東京都","city":"文京区","address":"文京区春日1-16-21","lat":35.707951,"lon":139.75243},{"name":"リアン文京","province":"東京都","city":"文京区","address":"文京区小日向2-16-15","lat":35.710581,"lon":139.734582},{"name":"文京福祉センター江戸川橋","province":"東京都","city":"文京区","address":"文京区小日向2-16-15","lat":35.71065,"lon":139.73488},{"name":"文京福祉センター湯島","province":"東京都","city":"文京区","address":"文京区本郷3-10-18","lat":35.70407,"lon":139.76379},{"name":"文京区","province":"東京都","city":"文京区","address":"文京区春日1-16-21","lat":35.70794,"lon":139.75278},{"name":"文京区福祉センター湯島","province":"東京都","city":"文京区","address":"文京区本郷3-10-18","lat":35.70407,"lon":139.76379},{"name":"文京福祉センター江戸川橋","province":"東京都","city":"文京区","address":"文京区小日向2-16-15","lat":35.710581,"lon":139.734582},{"name":"文京福祉センター湯島","province":"東京都","city":"文京区","address":"文京区本郷3-10-18","lat":35.718659,"lon":139.635873},{"name":"文京区福祉センター湯島","province":"東京都","city":"文京区","address":"文京区本郷3-10-18","lat":35.70408,"lon":139.76379},{"name":"文京区","province":"東京都","city":"文京区","address":"文京区春日1-16-21","lat":35.707951,"lon":139.75243},{"name":"リアン文京","province":"東京都","city":"文京区","address":"文京区小日向2-16-15","lat":35.710581,"lon":139.734582},{"name":"文京福祉センター江戸川橋","province":"東京都","city":"文京区","address":"文京区小日向2-16-15","lat":35.71065,"lon":139.73488},{"name":"文京福祉センター湯島","province":"東京都","city":"文京区","address":"文京区本郷3-10-18","lat":35.70407,"lon":139.76379},{"name":"文京区","province":"東京都","city":"文京区","address":"文京区春日1-16-21","lat":35.70794,"lon":139.75278},{"name":"文京区福祉センター湯島","province":"東京都","city":"文京区","address":"文京区本郷3-10-18","lat":35.70407,"lon":139.76379},{"name":"文京福祉センター江戸川橋","province":"東京都","city":"文京区","address":"文京区小日向2-16-15","lat":35.710581,"lon":139.734582},{"name":"文京福祉センター湯島","province":"東京都","city":"文京区","address":"文京区本郷3-10-18","lat":35.718659,"lon":139.635873},{"name":"文京区福祉センター湯島","province":"東京都","city":"文京区","address":"文京区本郷3-10-18","lat":35.70408,"lon":139.76379},{"name":"文京区","province":"東京都","city":"文京区","address":"文京区春日1-16-21","lat":35.707951,"lon":139.75243},{"name":"リアン文京","province":"東京都","city":"文京区","address":"文京区小日向2-16-15","lat":35.710581,"lon":139.734582},{"name":"文京福祉センター江戸川橋","province":"東京都","city":"文京区","address":"文京区小日向2-16-15","lat":35.71065,"lon":139.73488},{"name":"文京福祉センター湯島","province":"東京都","city":"文京区","address":"文京区本郷3-10-18","lat":35.70407,"lon":139.76379},{"name":"文京区","province":"東京都","city":"文京区","address":"文京区春日1-16-21","lat":35.70794,"lon":139.75278},{"name":"文京区福祉センター湯島","province":"東京都","city":"文京区","address":"文京区本郷3-10-18","lat":35.70407,"lon":139.76379},{"name":"文京福祉センター江戸川橋","province":"東京都","city":"文京区","address":"文京区小日向2-16-15","lat":35.710581,"lon":139.734582},{"name":"文京福祉センター湯島","province":"東京都","city":"文京区","address":"文京区本郷3-10-18","lat":35.718659,"lon":139.635873},{"name":"文京区福祉センター湯島","province":"東京都","city":"文京区","address":"文京区本郷3-10-18","lat":35.70408,"lon":139.76379},{"name":"文京区","province":"東京都","city":"文京区","address":"文京区春日1-16-21","lat":35.707951,"lon":139.75243},{"name":"リアン文京","province":"東京都","city":"文京区","address":"文京区小日向2-16-15","lat":35.710581,"lon":139.734582},{"name":"文京福祉センター江戸川橋","province":"東京都","city":"文京区","address":"文京区小日向2-16-15","lat":35.71065,"lon":139.73488},{"name":"文京福祉センター湯島","province":"東京都","city":"文京区","address":"文京区本郷3-10-18","lat":35.70407,"lon":139.76379},{"name":"文京区","province":"東京都","city":"文京区","address":"文京区春日1-16-21","lat":35.70794,"lon":139.75278},{"name":"文京区福祉センター湯島","province":"東京都","city":"文京区","address":"文京区本郷3-10-18","lat":35.70407,"lon":139.76379},{"name":"文京福祉センター江戸川橋","province":"東京都","city":"文京区","address":"文京区小日向2-16-15","lat":35.710581,"lon":139.734582},{"name":"文京福祉センター湯島","province":"東京都","city":"文京区","address":"文京区本郷3-10-18","lat":35.718659,"lon":139.635873},{"name":"文京区福祉センター湯島","province":"東京都","city":"文京区","address":"文京区本郷3-10-18","lat":35.70408,"lon":139.76379},{"name":"文京区","province":"東京都","city":"文京区","address":"文京区春日1-16-21","lat":35.707951,"lon":139.75243},{"name":"リアン文京","province":"東京都","city":"文京区","address":"文京区小日向2-16-15","lat":35.710581,"lon":139.734582},{"name":"文京福祉センター江戸川橋","province":"東京都","city":"文京区","address":"文京区小日向2-16-15","lat":35.71065,"lon":139.73488},{"name":"文京福祉センター湯島","province":"東京都","city":"文京区","address":"文京区本郷3-10-18","lat":35.70407,"lon":139.76379},{"name":"文京区","province":"東京都","city":"文京区","address":"文京区春日1-16-21","lat":35.70794,"lon":139.75278},{"name":"文京区福祉センター湯島","province":"東京都","city":"文京区","address":"文京区本郷3-10-18","lat":35.70407,"lon":139.76379},{"name":"文京福祉センター江戸川橋","province":"東京都","city":"文京区","address":"文京区小日向2-16-15","lat":35.710581,"lon":139.734582},{"name":"文京福祉センター湯島","province":"東京都","city":"文京区","address":"文京区本郷3-10-18","lat":35.718659,"lon":139.635873},{"name":"文京区福祉センター湯島","province":"東京都","city":"文京区","address":"文京区本郷3-10-18","lat":35.70408,"lon":139.76379},{"name":"文京区","province":"東京都","city":"文京区","address":"文京区春日1-16-21","lat":35.707951,"lon":139.75243},{"name":"リアン文京","province":"東京都","city":"文京区","address":"文京区小日向2-16-15","lat":35.710581,"lon":139.734582},{"name":"文京福祉センター江戸川橋","province":"東京都","city":"文京区","address":"文京区小日向2-16-15","lat":35.71065,"lon":139.73488},{"name":"文京福祉センター湯島","province":"東京都","city":"文京区","address":"文京区本郷3-10-18","lat":35.70407,"lon":139.76379},{"name":"文京区","province":"東京都","city":"文京区","address":"文京区春日1-16-21","lat":35.70794,"lon":139.75278},{"name":"文京区福祉センター湯島","province":"東京都","city":"文京区","address":"文京区本郷3-10-18","lat":35.70407,"lon":139.76379},{"name":"文京福祉センター江戸川橋","province":"東京都","city":"文京区","address":"文京区小日向2-16-15","lat":35.710581,"lon":139.734582},{"name":"文京福祉センター湯島","province":"東京都","city":"文京区","address":"文京区本郷3-10-18","lat":35.718659,"lon":139.635873},{"name":"文京区福祉センター湯島","province":"東京都","city":"文京区","address":"文京区本郷3-10-18","lat":35.70408,"lon":139.76379},{"name":"文京区","province":"東京都","city":"文京区","address":"文京区春日1-16-21","lat":35.707951,"lon":139.75243}]}