{"keyword":"回収","data":[{"name":"小石川運動場","province":"東京都","city":"文京区","address":"東京都文京区後楽1丁目8-23","lat":35.70499535,"lon":139.74648921},{"name":"文京シビックセンター","province":"東京都","city":"文京区","address":"東京都文京区春日1丁目16-21","lat":35.70794517,"lon":139.75242748},{"name":"礫川地域活動センター","province":"東京都","city":"文京区","address":"東京都文京区小石川2丁目18-18","lat":35.71195301,"lon":139.75033306},{"name":"小石川図書館","province":"東京都","city":"文京区","address":"東京都文京区小石川5丁目9-20","lat":35.71696056,"lon":139.74013382},{"name":"播磨坂清掃事業所","province":"東京都","city":"文京区","address":"東京都文京区小石川5丁目40-21","lat":35.71723559,"lon":139.74281134},{"name":"白山東会館","province":"東京都","city":"文京区","address":"東京都文京区白山1丁目29-10","lat":35.71913292,"lon":139.75308266},{"name":"白山交流館","province":"東京都","city":"文京区","address":"東京都文京区白山4丁目27-11","lat":35.72057427,"lon":139.74825244},{"name":"東都無線株式会社","province":"東京都","city":"文京区","address":"東京都文京区千石1丁目16-14","lat":35.72542917,"lon":139.74488034},{"name":"千石図書館","province":"東京都","city":"文京区","address":"東京都文京区千石1丁目25-3","lat":35.72758167,"lon":139.7437137},{"name":"大原地域活動センター","province":"東京都","city":"文京区","address":"東京都文京区千石1丁目4-3","lat":35.72449035,"lon":139.7433805},{"name":"水道児童館","province":"東京都","city":"文京区","address":"東京都文京区水道1丁目3-26","lat":35.7095753,"lon":139.74230053},{"name":"水道端図書館","province":"東京都","city":"文京区","address":"東京都文京区水道2丁目16-14","lat":35.71058897,"lon":139.73770369},{"name":"文京総合福祉センター","province":"東京都","city":"文京区","address":"東京都文京区小日向2丁目16-15","lat":35.71058055,"lon":139.73458175},{"name":"大塚地域活動センター","province":"東京都","city":"文京区","address":"東京都文京区大塚1丁目5-17","lat":35.71862968,"lon":139.73462038},{"name":"文京スポーツセンター","province":"東京都","city":"文京区","address":"東京都文京区大塚3丁目29-2","lat":35.72054062,"lon":139.73641181},{"name":"大塚公園みどりの図書室","province":"東京都","city":"文京区","address":"東京都文京区大塚4丁目49-2","lat":35.7238068,"lon":139.73236759},{"name":"フジ特販","province":"東京都","city":"文京区","address":"東京都文京区大塚5丁目7-11","lat":35.72479273,"lon":139.73016774},{"name":"コモディイイダ江戸川橋店","province":"東京都","city":"文京区","address":"東京都文京区関口1丁目47-12","lat":35.70979722,"lon":139.73103487},{"name":"目白台図書館","province":"東京都","city":"文京区","address":"東京都文京区関口3丁目17-9","lat":35.71513259,"lon":139.72548794},{"name":"音羽地域活動センター","province":"東京都","city":"文京区","address":"東京都文京区音羽1丁目22-14","lat":35.71390228,"lon":139.72967651},{"name":"目白台交流館","province":"東京都","city":"文京区","address":"東京都文京区目白台3丁目18-7","lat":35.71719341,"lon":139.72340193},{"name":"湯島総合センター","province":"東京都","city":"文京区","address":"東京都文京区本郷3丁目10-18","lat":35.70394593,"lon":139.7636519},{"name":"男女平等センター","province":"東京都","city":"文京区","address":"東京都文京区本郷4丁目8-3","lat":35.70867022,"lon":139.75750757},{"name":"区民センター","province":"東京都","city":"文京区","address":"東京都文京区本郷4丁目15-14","lat":35.70879235,"lon":139.75417729},{"name":"湯島地域活動センター","province":"東京都","city":"文京区","address":"東京都文京区本郷7丁目1-2","lat":35.7082899,"lon":139.76316837},{"name":"教育センター","province":"東京都","city":"文京区","address":"東京都文京区湯島4丁目7-10","lat":35.70884827,"lon":139.76576823},{"name":"向丘地域活動センター","province":"東京都","city":"文京区","address":"東京都文京区向丘1丁目20-8","lat":35.71722493,"lon":139.75762122},{"name":"根津交流館","province":"東京都","city":"文京区","address":"東京都文京区根津1丁目14-3","lat":35.71832228,"lon":139.76341252},{"name":"根津地域活動センター","province":"東京都","city":"文京区","address":"東京都文京区根津2丁目20-7","lat":35.71920834,"lon":139.76417635},{"name":"汐見地域活動センター","province":"東京都","city":"文京区","address":"東京都文京区千駄木3丁目2-6","lat":35.72559094,"lon":139.76150415},{"name":"千駄木交流館","province":"東京都","city":"文京区","address":"東京都文京区千駄木3丁目42-20","lat":35.7274659,"lon":139.76410397},{"name":"保健サービスセンター本郷支所","province":"東京都","city":"文京区","address":"東京都文京区千駄木5丁目20-18","lat":35.72709628,"lon":139.76017919},{"name":"駒込地域活動センター","province":"東京都","city":"文京区","address":"東京都文京区本駒込3丁目22-4","lat":35.72864855,"lon":139.75237135},{"name":"勤労福祉会館","province":"東京都","city":"文京区","address":"東京都文京区本駒込4丁目35-15","lat":35.73346756,"lon":139.75514043}]}