{"keyword":"園","data":[{"name":"柳町保育園","province":"東京都","city":"文京区","address":"東京都文京区小石川1丁目23番6号","lat":35.713753,"lon":139.750653},{"name":"根津保育園","province":"東京都","city":"文京区","address":"東京都文京区根津1丁目15番12号","lat":35.7186349999999,"lon":139.763556999999},{"name":"お茶の水女子大学こども園","province":"東京都","city":"文京区","address":"東京都文京区大塚2丁目1番1号","lat":35.7179268,"lon":139.7313886},{"name":"慈愛会保育園","province":"東京都","city":"文京区","address":"東京都文京区本郷4丁目12番5号","lat":35.7097768766749,"lon":139.755467637217},{"name":"たんぽぽ保育園","province":"東京都","city":"文京区","address":"東京都文京区本郷7丁目3番1号","lat":35.7126949999999,"lon":139.764011},{"name":"たんぽぽ保育園第３分園","province":"東京都","city":"文京区","address":"東京都文京区湯島2丁目31番1号","lat":35.706999,"lon":139.766839},{"name":"どんぐり保育園","province":"東京都","city":"文京区","address":"東京都文京区千駄木2丁目48番4号","lat":35.721702,"lon":139.762326999999},{"name":"どんぐり保育園ラゴム","province":"東京都","city":"文京区","address":"東京都文京区根津2丁目33番17号","lat":35.720749,"lon":139.76411},{"name":"キッズハーモニー ・白山","province":"東京都","city":"文京区","address":"東京都文京区白山4丁目36番13号","lat":35.7223219999999,"lon":139.747858},{"name":"まなびの森保育園茗荷谷","province":"東京都","city":"文京区","address":"東京都文京区大塚3丁目20番5号アネックス茗荷谷2F","lat":35.72167,"lon":139.734689},{"name":"こころの保育園文京西片","province":"東京都","city":"文京区","address":"東京都文京区西片2丁目1番1号","lat":35.714328,"lon":139.757039999999},{"name":"小学館アカデミー小石川保育園","province":"東京都","city":"文京区","address":"東京都文京区小石川2丁目1番12号","lat":35.709102,"lon":139.751516},{"name":"ＳＯＭＰＯスマイルキッズﾞ江戸川橋保育園","province":"東京都","city":"文京区","address":"東京都文京区関口1丁目45番15号","lat":35.7097359999999,"lon":139.729961},{"name":"白山ひかり保育園","province":"東京都","city":"文京区","address":"東京都文京区白山2丁目29番9号","lat":35.717646,"lon":139.751},{"name":"小学館アカデミー茗荷谷保育園","province":"東京都","city":"文京区","address":"東京都文京区大塚1丁目4番15号2F","lat":35.7175989999999,"lon":139.736098999999},{"name":"グローバルキッズ後楽二丁目園","province":"東京都","city":"文京区","address":"東京都文京区後楽2丁目20番15号2F","lat":35.707317,"lon":139.745549},{"name":"グローバルキッズ後楽二丁目園分園","province":"東京都","city":"文京区","address":"東京都文京区後楽2丁目6番1号","lat":35.705204,"lon":139.74508},{"name":"アスク本駒込保育園","province":"東京都","city":"文京区","address":"東京都文京区本駒込2丁目1番23号","lat":35.725656,"lon":139.749149999999},{"name":"ベネッセかごまち保育園","province":"東京都","city":"文京区","address":"東京都文京区白山5丁目17番17号","lat":35.7283619999999,"lon":139.7458},{"name":"ベネッセ千石保育園","province":"東京都","city":"文京区","address":"東京都文京区千石4丁目45番2号","lat":35.729095,"lon":139.742649},{"name":"キッズガーデン文京春日","province":"東京都","city":"文京区","address":"東京都文京区西片1丁目17番8号2F","lat":35.7136459999999,"lon":139.752728999999},{"name":"グローバルキッズ新大塚園","province":"東京都","city":"文京区","address":"東京都文京区大塚5丁目3番13号2F","lat":35.723005,"lon":139.730828},{"name":"ポピンズナーサリースクール千駄木","province":"東京都","city":"文京区","address":"東京都文京区千駄木2丁目16番7号プライムアーバン千駄木","lat":35.723362,"lon":139.761574999999},{"name":"東京こども保育園","province":"東京都","city":"文京区","address":"東京都文京区湯島2丁目29番1号","lat":35.706271,"lon":139.765487},{"name":"ミアヘルサ保育園ひびき湯島","province":"東京都","city":"文京区","address":"東京都文京区湯島4丁目1番12号","lat":35.7075659999999,"lon":139.764571999999},{"name":"にじのいるか保育園小石川","province":"東京都","city":"文京区","address":"東京都文京区小石川1丁目24番3号","lat":35.7140449999999,"lon":139.749875},{"name":"テンダーラビング保育園茗荷谷","province":"東京都","city":"文京区","address":"東京都文京区大塚4丁目41番12号","lat":35.721944,"lon":139.733981},{"name":"ハッピーマム茗荷谷","province":"東京都","city":"文京区","address":"東京都文京区小石川5丁目4番1号","lat":35.7170419999999,"lon":139.736612},{"name":"ちゃいれっく新大塚駅前保育園","province":"東京都","city":"文京区","address":"東京都文京区大塚4丁目48番7号キュラーズ新大塚2F","lat":35.7238979999999,"lon":139.730965999999},{"name":"同仁美登里保育園","province":"東京都","city":"文京区","address":"東京都文京区目白台3丁目10番9号","lat":35.7162799999999,"lon":139.72548},{"name":"本駒込プチ・クレイシュ","province":"東京都","city":"文京区","address":"東京都文京区本駒込3丁目22番4号駒込地域活動センター2F","lat":35.7285329999999,"lon":139.752232999999},{"name":"保育所まぁむ東大前園","province":"東京都","city":"文京区","address":"東京都文京区向丘1丁目16番26号","lat":35.718918,"lon":139.756823999999},{"name":"ポピンズナーサリースクール本郷","province":"東京都","city":"文京区","address":"東京都文京区本郷4丁目15番14号(区民センター内1F)","lat":35.723362,"lon":139.761574999999},{"name":"にじのいるか保育園千石","province":"東京都","city":"文京区","address":"東京都文京区千石2丁目8番9号","lat":35.7228423,"lon":139.737887},{"name":"えがおの森保育園・せんごく","province":"東京都","city":"文京区","address":"東京都文京区千石1丁目29番4号","lat":35.7271576999999,"lon":139.7447324},{"name":"富坂まきば保育園","province":"東京都","city":"文京区","address":"東京都文京区小石川2丁目17番40号","lat":35.711134,"lon":139.748537},{"name":"ﾃﾝﾀﾞｰﾗﾋﾞﾝｸﾞ保育園千駄木","province":"東京都","city":"文京区","address":"東京都文京区千駄木2丁目11番3号","lat":35.722592,"lon":139.760859},{"name":"クオリスキッズ駒込保育園","province":"東京都","city":"文京区","address":"東京都文京区本駒込5丁目71番6号","lat":35.733789,"lon":139.750646},{"name":"モニカ茗荷谷駅前園","province":"東京都","city":"文京区","address":"東京都文京区小石川5丁目3番2号","lat":35.716567,"lon":139.738962},{"name":"ソラストお茶の水第一保育園","province":"東京都","city":"文京区","address":"東京都文京区湯島1丁目10番5号1F","lat":35.702576,"lon":139.765466},{"name":"ソラストお茶の水第二保育園","province":"東京都","city":"文京区","address":"東京都文京区湯島1丁目10番5号2F","lat":35.702587,"lon":139.765445},{"name":"にじのいるか保育園千石第二","province":"東京都","city":"文京区","address":"東京都文京区千石3丁目39番15号","lat":35.726077,"lon":139.739945},{"name":"ﾃﾝﾀﾞｰﾗﾋﾞﾝｸﾞ保育園小石川","province":"東京都","city":"文京区","address":"東京都文京区後楽1丁目8番13号","lat":35.703982,"lon":139.747123},{"name":"さくらさくみらい　小日向","province":"東京都","city":"文京区","address":"東京都文京区小日向2丁目18番3号","lat":35.711303,"lon":139.733574},{"name":"モニカ本駒込園","province":"東京都","city":"文京区","address":"東京都文京区本駒込3丁目20番3号","lat":35.728017,"lon":139.752544},{"name":"こどもヶ丘保育園本駒込園","province":"東京都","city":"文京区","address":"東京都文京区本駒込4丁目42番14号","lat":35.732568,"lon":139.75825},{"name":"さくらさくみらい　護国寺","province":"東京都","city":"文京区","address":"東京都文京区大塚6丁目37番5号","lat":35.723617,"lon":139.723253},{"name":"茗荷谷ここわ保育園","province":"東京都","city":"文京区","address":"東京都文京区小石川5丁目8番1号","lat":35.717458,"lon":139.738534},{"name":"大空と大地のなーさりぃ茗荷谷園","province":"東京都","city":"文京区","address":"東京都文京区大塚3丁目27番1号","lat":35.722318,"lon":139.735899},{"name":"テンダーラビング保育園音羽","province":"東京都","city":"文京区","address":"東京都文京区目白台3丁目4番14号","lat":35.721958,"lon":139.733962},{"name":"グローバルキッズ茗荷谷園","province":"東京都","city":"文京区","address":"東京都文京区小石川5丁目38番11号","lat":35.718418,"lon":139.742956},{"name":"木下の保育園白山","province":"東京都","city":"文京区","address":"東京都文京区白山2丁目15番12号","lat":35.717775,"lon":139.747103},{"name":"ソラスト小石川保育園","province":"東京都","city":"文京区","address":"東京都文京区白山3丁目3番3号","lat":35.719126,"lon":139.74244},{"name":"さくらさくみらい　水道","province":"東京都","city":"文京区","address":"東京都文京区水道2丁目14番10号","lat":35.710148,"lon":139.736084},{"name":"グローバルキッズ大塚四丁目園","province":"東京都","city":"文京区","address":"東京都文京区大塚4丁目11番2号","lat":35.722871,"lon":139.735619},{"name":"キッズパートナー文京関口","province":"東京都","city":"文京区","address":"東京都文京区関口1丁目20番6号","lat":35.709328,"lon":139.733196},{"name":"こどもヶ丘保育園第二本駒込園","province":"東京都","city":"文京区","address":"東京都文京区本駒込4丁目3番1号","lat":35.732568,"lon":139.75825},{"name":"うぃず千駄木保育園","province":"東京都","city":"文京区","address":"東京都文京区千駄木1丁目15番12号","lat":35.723775,"lon":139.759373},{"name":"AIAI NURSERY 新大塚","province":"東京都","city":"文京区","address":"東京都文京区大塚6丁目23番9号","lat":35.724054,"lon":139.725809},{"name":"キッズパートナー文京千石","province":"東京都","city":"文京区","address":"東京都文京区千石1丁目18番19号","lat":35.726912,"lon":139.743025},{"name":"小石川ちとせ保育園","province":"東京都","city":"文京区","address":"東京都文京区小石川2丁目4番12号","lat":35.708922,"lon":139.750545},{"name":"ちゃいれっく小石川保育園","province":"東京都","city":"文京区","address":"東京都文京区小石川2丁目6番9号","lat":35.709309,"lon":139.749407},{"name":"文京白山雲母保育園","province":"東京都","city":"文京区","address":"東京都文京区白山2丁目15番5号","lat":35.717199,"lon":139.747221},{"name":"千石すきっぷ保育園","province":"東京都","city":"文京区","address":"東京都文京区千石1丁目5番15号","lat":35.725402,"lon":139.742842},{"name":"神田川ほとりに花咲く保育園","province":"東京都","city":"文京区","address":"東京都文京区水道2丁目9番6号","lat":35.710579,"lon":139.732416},{"name":"クオリスキッズ江戸川橋保育園","province":"東京都","city":"文京区","address":"東京都文京区水道2丁目10番3号","lat":35.710595,"lon":139.733043},{"name":"テンダーラビング保育園関口","province":"東京都","city":"文京区","address":"東京都文京区関口2丁目4番11号","lat":35.711695,"lon":139.727781},{"name":"クオリスキッズ水道橋保育園","province":"東京都","city":"文京区","address":"東京都文京区本郷1丁目14番7号","lat":35.704128,"lon":139.755436},{"name":"MIRATZ本郷第二保育園","province":"東京都","city":"文京区","address":"東京都文京区本郷2丁目36番4号LaMaisondeEspoir1・2F","lat":35.707097,"lon":139.757272},{"name":"明日葉保育園西片園","province":"東京都","city":"文京区","address":"東京都文京区西片1丁目8番15号","lat":35.712319,"lon":139.754084},{"name":"キッズパートナー文京本駒込","province":"東京都","city":"文京区","address":"東京都文京区本駒込1丁目11番15号","lat":35.725428,"lon":139.750811},{"name":"このえ本駒込保育園","province":"東京都","city":"文京区","address":"東京都文京区本駒込1丁目20番19号","lat":35.726427,"lon":139.753219},{"name":"にじいろ保育園千駄木","province":"東京都","city":"文京区","address":"東京都文京区千駄木2丁目6番3号","lat":35.721748,"lon":139.761608},{"name":"このえ第二本駒込保育園","province":"東京都","city":"文京区","address":"東京都文京区本駒込1丁目20番21号","lat":35.726123,"lon":139.753289},{"name":"本郷ちとせ保育園","province":"東京都","city":"文京区","address":"東京都文京区本郷6丁目16番3号","lat":35.71298,"lon":139.75838},{"name":"文京ガーデンひかり保育園","province":"東京都","city":"文京区","address":"東京都文京区小石川1丁目1番7号","lat":35.708673,"lon":139.75291},{"name":"クオリスキッズ小石川保育園","province":"東京都","city":"文京区","address":"東京都文京区小石川2丁目2番6号","lat":35.709604,"lon":139.751253},{"name":"大空と大地のなーさりぃ文京千石園","province":"東京都","city":"文京区","address":"東京都文京区千石4丁目2番15号","lat":35.727212,"lon":139.741802},{"name":"キッズラボ千石園","province":"東京都","city":"文京区","address":"東京都文京区本駒込2丁目9-8","lat":35.72713459,"lon":139.74663847},{"name":"ぽけっとランド本郷保育園","province":"東京都","city":"文京区","address":"東京都文京区湯島2丁目20番10号","lat":35.706056,"lon":139.765248},{"name":"マジオひまわり保育園本郷","province":"東京都","city":"文京区","address":"東京都文京区本郷2丁目18番11号","lat":35.705033,"lon":139.758413},{"name":"小石川ここわ保育園","province":"東京都","city":"文京区","address":"東京都文京区小石川3丁目19番7号","lat":35.71277,"lon":139.749269},{"name":"ソラスト茗荷谷保育園","province":"東京都","city":"文京区","address":"東京都文京区大塚1丁目4番1号","lat":35.71796,"lon":139.73605},{"name":"このえ本郷三丁目小規模保育園","province":"東京都","city":"文京区","address":"東京都文京区本郷五丁目25番16号","lat":35.709723,"lon":139.760047},{"name":"ｷｯｽﾞﾊﾟｰﾄﾅｰ文京駕籠町","province":"東京都","city":"文京区","address":"東京都文京区本駒込6丁目1番22号ヒューリックレジデンス駒込1F","lat":35.729161,"lon":139.744067},{"name":"ちいさいおうち小石川","province":"東京都","city":"文京区","address":"東京都文京区小石川5丁目38番2号クレストヒルズ小石川1F","lat":35.718174,"lon":139.742949},{"name":"ｻﾝﾗｲｽﾞｷｯｽﾞ保育園白山園","province":"東京都","city":"文京区","address":"東京都文京区白山1丁目7番11号小澤第一ビル1F","lat":35.716262,"lon":139.752235},{"name":"ＭＩＲＡＴＺ目白台保育園","province":"東京都","city":"文京区","address":"東京都文京区目白台2丁目13番2号","lat":35.718563,"lon":139.722291},{"name":"ｷｭｰﾋﾟｰﾙｰﾑ新大塚園","province":"東京都","city":"文京区","address":"東京都文京区大塚4丁目46番5号アトラスアベニュー文京大塚1F","lat":35.722395,"lon":139.731633},{"name":"繭の糸おとわ小規模保育園","province":"東京都","city":"文京区","address":"東京都文京区音羽1丁目1番7号正進社ホールディングスビル1F","lat":35.711084,"lon":139.732098},{"name":"みらいつばさ千駄木保育園","province":"東京都","city":"文京区","address":"東京都文京区千駄木2丁目13番1号","lat":35.723248,"lon":139.762253},{"name":"赤門小規模保育園","province":"東京都","city":"文京区","address":"東京都文京区本郷3丁目30番8号","lat":35.706834,"lon":139.761624},{"name":"ＭＩＲＡＴＺ本郷保育園","province":"東京都","city":"文京区","address":"東京都文京区本郷4丁目9番7号","lat":35.707591,"lon":139.756259},{"name":"こどもヶ丘保育園本駒込小規模園","province":"東京都","city":"文京区","address":"東京都文京区本駒込4丁目3番1号","lat":35.732225,"lon":139.758179},{"name":"洛和大塚みどり保育園","province":"東京都","city":"文京区","address":"東京都文京区大塚4丁目50番1号(文京大塚みどりの郷内)","lat":35.724759,"lon":139.730835},{"name":"ちいさいおうち大塚仲町","province":"東京都","city":"文京区","address":"東京都文京区大塚3丁目43番3号小石川ハイツ星座101号室","lat":35.722953,"lon":139.736862},{"name":"MIRATZ白山保育園","province":"東京都","city":"文京区","address":"東京都文京区白山1丁目32番4号","lat":35.719584,"lon":139.751872},{"name":"ハッピーナーサリー千駄木小規模保育園","province":"東京都","city":"文京区","address":"東京都文京区千駄木4丁目1番14号","lat":35.731171,"lon":139.760087},{"name":"家庭的保育ぽっかぽか保育室","province":"東京都","city":"文京区","address":"東京都文京区本駒込3丁目38番9号","lat":35.730361,"lon":139.753129},{"name":"家庭的保育室Sandy’s","province":"東京都","city":"文京区","address":"東京都文京区本駒込4丁目27番3号103","lat":35.733083,"lon":139.75613},{"name":"Nursery room Coco","province":"東京都","city":"文京区","address":"東京都文京区白山5丁目17番25号","lat":35.726245,"lon":139.747253},{"name":"家庭的保育室プチ・アンジュ","province":"東京都","city":"文京区","address":"東京都文京区春日2丁目4番15号スタート21103号室","lat":35.710143,"lon":139.743409},{"name":"とことこ保育ルーム","province":"東京都","city":"文京区","address":"東京都文京区白山4丁目26番10号ラポール103","lat":35.721399,"lon":139.747666},{"name":"国立大学法人東京医科歯科大学わくわく保育園","province":"東京都","city":"文京区","address":"東京都文京区湯島1丁目5番45号6号館","lat":35.701696,"lon":139.764209},{"name":"ちいさいおうち春日とモーハウス","province":"東京都","city":"文京区","address":"東京都文京区春日2丁目25番3号","lat":35.709932,"lon":139.745678},{"name":"モニカ茗荷谷","province":"東京都","city":"文京区","address":"東京都文京区小石川4丁目20番5号グリーンヒル小石川2F","lat":35.714611,"lon":139.740818},{"name":"グローバルキッズ春日園","province":"東京都","city":"文京区","address":"東京都文京区春日1丁目11番18号","lat":35.709876,"lon":139.747398},{"name":"青柳保育園","province":"東京都","city":"文京区","address":"東京都文京区関口3丁目2番5号","lat":35.713468,"lon":139.729158},{"name":"根津保育園","province":"東京都","city":"文京区","address":"東京都文京区根津1丁目15番12号","lat":35.718635,"lon":139.763557},{"name":"慈愛会保育園","province":"東京都","city":"文京区","address":"東京都文京区本郷4丁目12番5号","lat":35.70977688,"lon":139.7554676},{"name":"たんぽぽ保育園","province":"東京都","city":"文京区","address":"東京都文京区本郷7丁目3番1号","lat":35.712695,"lon":139.764011},{"name":"どんぐり保育園","province":"東京都","city":"文京区","address":"東京都文京区千駄木2丁目48番4号","lat":35.721702,"lon":139.762327},{"name":"キッズハーモニー ・白山","province":"東京都","city":"文京区","address":"東京都文京区白山4丁目36番13号","lat":35.722322,"lon":139.747858},{"name":"こころの保育園文京西片","province":"東京都","city":"文京区","address":"東京都文京区西片2丁目1番1号","lat":35.714328,"lon":139.75704},{"name":"ＳＯＭＰＯスマイルキッズﾞ江戸川橋保育園","province":"東京都","city":"文京区","address":"東京都文京区関口1丁目45番15号","lat":35.709736,"lon":139.729961},{"name":"小学館アカデミー茗荷谷保育園","province":"東京都","city":"文京区","address":"東京都文京区大塚1丁目4番15号2F","lat":35.717599,"lon":139.736099},{"name":"アスク本駒込保育園","province":"東京都","city":"文京区","address":"東京都文京区本駒込2丁目1番23号","lat":35.725656,"lon":139.74915},{"name":"ベネッセかごまち保育園","province":"東京都","city":"文京区","address":"東京都文京区白山5丁目17番17号","lat":35.728362,"lon":139.7458},{"name":"キッズガーデン文京春日","province":"東京都","city":"文京区","address":"東京都文京区西片1丁目17番8号2F","lat":35.713646,"lon":139.752729},{"name":"ポピンズナーサリースクール千駄木","province":"東京都","city":"文京区","address":"東京都文京区千駄木2丁目16番7号プライムアーバン千駄木","lat":35.723362,"lon":139.761575},{"name":"ミアヘルサ保育園ひびき湯島","province":"東京都","city":"文京区","address":"東京都文京区湯島4丁目1番12号","lat":35.707566,"lon":139.764572},{"name":"にじのいるか保育園小石川","province":"東京都","city":"文京区","address":"東京都文京区小石川1丁目24番3号","lat":35.714045,"lon":139.749875},{"name":"ハッピーマム茗荷谷","province":"東京都","city":"文京区","address":"東京都文京区小石川5丁目4番1号","lat":35.717042,"lon":139.736612},{"name":"ちゃいれっく新大塚駅前保育園","province":"東京都","city":"文京区","address":"東京都文京区大塚4丁目48番7号キュラーズ新大塚2F","lat":35.723898,"lon":139.730966},{"name":"同仁美登里保育園","province":"東京都","city":"文京区","address":"東京都文京区目白台3丁目10番9号","lat":35.71628,"lon":139.72548},{"name":"本駒込プチ・クレイシュ","province":"東京都","city":"文京区","address":"東京都文京区本駒込3丁目22番4号駒込地域活動センター2F","lat":35.728533,"lon":139.752233},{"name":"保育所まぁむ東大前園","province":"東京都","city":"文京区","address":"東京都文京区向丘1丁目16番26号","lat":35.718918,"lon":139.756824},{"name":"ポピンズナーサリースクール本郷","province":"東京都","city":"文京区","address":"東京都文京区本郷4丁目15番14号(区民センター内1F)","lat":35.723362,"lon":139.761575},{"name":"えがおの森保育園・せんごく","province":"東京都","city":"文京区","address":"東京都文京区千石1丁目29番4号","lat":35.7271577,"lon":139.7447324}]}