{"keyword":"土のう","data":[{"name":"関口一丁目２３（江戸川橋バス停横）","province":"東京都","city":"文京区","address":"東京都文京区関口1丁目23","lat":35.71041104,"lon":139.73096819},{"name":"関口一丁目２１（華水橋右岸下流）","province":"東京都","city":"文京区","address":"東京都文京区関口1丁目21","lat":35.70997223,"lon":139.7323653},{"name":"関口一丁目１８（掃部橋右岸下流）","province":"東京都","city":"文京区","address":"東京都文京区関口1丁目18-9","lat":35.70886685,"lon":139.73467624},{"name":"関口一丁目１８（古川橋右岸上流）","province":"東京都","city":"文京区","address":"東京都文京区関口1丁目18-9","lat":35.70886685,"lon":139.73467624},{"name":"水道二丁目５（石切橋左岸下流植込内）","province":"東京都","city":"文京区","address":"東京都文京区水道2丁目5","lat":35.70954739,"lon":139.73687325},{"name":"水道二丁目１（小桜橋左岸上流）","province":"東京都","city":"文京区","address":"東京都文京区水道2丁目1","lat":35.70920026,"lon":139.73898973},{"name":"水道一丁目３（中ノ橋左岸上流植込内）","province":"東京都","city":"文京区","address":"東京都文京区水道1丁目3-3","lat":35.70923087,"lon":139.74159505},{"name":"後楽二丁目１６（新隆慶橋左岸上流）","province":"東京都","city":"文京区","address":"東京都文京区後楽2丁目16","lat":35.70637014,"lon":139.74436713},{"name":"後楽二丁目３（隆慶橋脇左岸下流）","province":"東京都","city":"文京区","address":"東京都文京区後楽2丁目3","lat":35.70440095,"lon":139.74573652},{"name":"後楽二丁目３（隆慶橋左岸下流）","province":"東京都","city":"文京区","address":"東京都文京区後楽2丁目3","lat":35.70440095,"lon":139.74573652},{"name":"後楽一丁目１（後楽園歩道橋下）","province":"東京都","city":"文京区","address":"東京都文京区後楽1丁目1","lat":35.7024847,"lon":139.75387761},{"name":"大塚四丁目２（健生病院前歩道）","province":"東京都","city":"文京区","address":"東京都文京区大塚4丁目2","lat":35.72377079,"lon":139.7359895},{"name":"小石川五丁目４１（播磨坂最下部）","province":"東京都","city":"文京区","address":"東京都文京区小石川5丁目41","lat":35.71781332,"lon":139.7433474},{"name":"後楽一丁目８（小石川運動場内）","province":"東京都","city":"文京区","address":"東京都文京区後楽1丁目8","lat":35.70462595,"lon":139.74661143},{"name":"根津一丁目１７（八重垣第一児童遊園内）","province":"東京都","city":"文京区","address":"東京都文京区根津1丁目17-1","lat":35.71888335,"lon":139.76379583},{"name":"根津二丁目２７（都道拡幅予定地内）","province":"東京都","city":"文京区","address":"東京都文京区根津2丁目27","lat":35.71925554,"lon":139.76392915},{"name":"本駒込四丁目３５（勤労福祉会館内）","province":"東京都","city":"文京区","address":"東京都文京区本駒込4丁目35","lat":35.73335648,"lon":139.75564872},{"name":"音羽一丁目１８（首都高高架下）","province":"東京都","city":"文京区","address":"東京都文京区音羽1丁目18","lat":35.71624921,"lon":139.72823766},{"name":"音羽一丁目１９（関口台公園前）","province":"東京都","city":"文京区","address":"東京都文京区音羽1丁目19","lat":35.71495214,"lon":139.7289071},{"name":"音羽一丁目２３（第一自転車保管所横）","province":"東京都","city":"文京区","address":"東京都文京区音羽1丁目23","lat":35.71392172,"lon":139.72940709},{"name":"音羽一丁目２３（関口三丁目公園前）","province":"東京都","city":"文京区","address":"東京都文京区音羽1丁目23","lat":35.71392172,"lon":139.72940709},{"name":"千駄木二丁目1（千駄木二丁目交差点）","province":"東京都","city":"文京区","address":"東京都文京区千駄木2丁目1","lat":35.72146079,"lon":139.76161812},{"name":"本駒込四丁目３６（不忍通り歩道）","province":"東京都","city":"文京区","address":"東京都文京区本駒込4丁目36-10","lat":35.73314266,"lon":139.75658756},{"name":"本駒込四丁目４０（動坂下交差点歩道）","province":"東京都","city":"文京区","address":"東京都文京区本駒込4丁目40-3","lat":35.73222894,"lon":139.75798194},{"name":"千駄木三丁目４８（道灌山下交差点歩道）","province":"東京都","city":"文京区","address":"東京都文京区千駄木3丁目48","lat":35.72987948,"lon":139.76302896},{"name":"千駄木三丁目３７（団子坂下交差点歩道）","province":"東京都","city":"文京区","address":"東京都文京区千駄木3丁目37","lat":35.72502722,"lon":139.76380959},{"name":"大塚六丁目１６（豊島区事業用地）","province":"東京都","city":"文京区","address":"東京都文京区大塚6丁目16","lat":35.72671739,"lon":139.72564582},{"name":"本駒込四丁目３９（不忍通り歩道）","province":"東京都","city":"文京区","address":"東京都文京区本駒込4丁目39-2","lat":35.73260943,"lon":139.75752362},{"name":"千石二丁目１（千川通り歩道）","province":"東京都","city":"文京区","address":"東京都文京区千石2丁目1","lat":35.72118231,"lon":139.74018368},{"name":"小石川四丁目１５（播磨坂最下部）","province":"東京都","city":"文京区","address":"東京都文京区小石川4丁目15","lat":35.7168051,"lon":139.74363906},{"name":"音羽一丁目１９（首都高高架下）","province":"東京都","city":"文京区","address":"東京都文京区音羽1丁目19","lat":35.71495214,"lon":139.7289071},{"name":"関口一丁目２５（一休橋右岸下流階段下）","province":"東京都","city":"文京区","address":"東京都文京区関口1丁目25-2","lat":35.70996378,"lon":139.72746573},{"name":"音羽一丁目２７（首都高高架下）","province":"東京都","city":"文京区","address":"東京都文京区音羽1丁目27","lat":35.71184976,"lon":139.73034597},{"name":"大塚五丁目１８（吹上稲荷神社鳥居裏）","province":"東京都","city":"文京区","address":"東京都文京区大塚5丁目18","lat":35.7215681,"lon":139.72972902}]}