{"keyword":"幼稚園","data":[{"name":"第一幼稚園","province":"東京都","city":"文京区","address":"東京都文京区西片2丁目17番6号","lat":35.7174499999999,"lon":139.755034999999},{"name":"柳町こどもの森(柳町幼稚園)","province":"東京都","city":"文京区","address":"東京都文京区小石川1丁目23番6号","lat":35.713695,"lon":139.750496999999},{"name":"明化幼稚園","province":"東京都","city":"文京区","address":"東京都文京区千石1丁目13番9号","lat":35.7248329999999,"lon":139.744880999999},{"name":"青柳幼稚園","province":"東京都","city":"文京区","address":"東京都文京区大塚5丁目40番18号","lat":35.7204169999999,"lon":139.725097},{"name":"根津幼稚園","province":"東京都","city":"文京区","address":"東京都文京区根津1丁目14番2号","lat":35.718575,"lon":139.763037999999},{"name":"小日向台町幼稚園","province":"東京都","city":"文京区","address":"東京都文京区小日向2丁目2番2号","lat":35.7129979999999,"lon":139.734867},{"name":"本駒込幼稚園","province":"東京都","city":"文京区","address":"東京都文京区本駒込4丁目35番15号","lat":35.7332759999999,"lon":139.755369},{"name":"千駄木幼稚園","province":"東京都","city":"文京区","address":"東京都文京区千駄木5丁目43番3号","lat":35.72867,"lon":139.758015999999},{"name":"後楽幼稚園","province":"東京都","city":"文京区","address":"東京都文京区後楽1丁目7番7号","lat":35.7063619999999,"lon":139.746769999999},{"name":"湯島幼稚園","province":"東京都","city":"文京区","address":"東京都文京区本郷3丁目10番18号","lat":35.7040119999999,"lon":139.763645999999},{"name":"愛星幼稚園","province":"東京都","city":"文京区","address":"東京都文京区白山2丁目37番3号","lat":35.718823,"lon":139.749376},{"name":"音羽幼稚園","province":"東京都","city":"文京区","address":"東京都文京区大塚5丁目40番1号","lat":35.721578,"lon":139.725761},{"name":"京北幼稚園","province":"東京都","city":"文京区","address":"東京都文京区本駒込2丁目13番5号","lat":35.727938,"lon":139.747805999999},{"name":"彰栄幼稚園","province":"東京都","city":"文京区","address":"東京都文京区白山4丁目14番15号","lat":35.7232709999999,"lon":139.745733},{"name":"聖園幼稚園","province":"東京都","city":"文京区","address":"東京都文京区関口3丁目16番15号","lat":35.714216,"lon":139.726609999999},{"name":"共立大日坂幼稚園","province":"東京都","city":"文京区","address":"東京都文京区小日向2丁目17番7号","lat":35.7112899999999,"lon":139.733893999999},{"name":"中央会堂幼稚園","province":"東京都","city":"文京区","address":"東京都文京区本郷3丁目37番9号","lat":35.7073279999999,"lon":139.762378},{"name":"貞静幼稚園","province":"東京都","city":"文京区","address":"東京都文京区大塚1丁目2番10号","lat":35.7162819999999,"lon":139.735251},{"name":"同仁美登里幼稚園","province":"東京都","city":"文京区","address":"東京都文京区目白台3丁目10番9号","lat":35.7166169999999,"lon":139.725517999999},{"name":"日本女子大学附属豊明幼稚園","province":"東京都","city":"文京区","address":"東京都文京区目白台1丁目18番14号","lat":35.7155109999999,"lon":139.719765999999},{"name":"福寿幼稚園","province":"東京都","city":"文京区","address":"東京都文京区小石川3丁目2番23号","lat":35.7117939999999,"lon":139.746419},{"name":"文京学院大学文京幼稚園","province":"東京都","city":"文京区","address":"東京都文京区向丘2丁目4番1号","lat":35.7189989999999,"lon":139.758048},{"name":"明照幼稚園","province":"東京都","city":"文京区","address":"東京都文京区小石川4丁目12番8号","lat":35.7153619999999,"lon":139.744983999999},{"name":"大和郷幼稚園","province":"東京都","city":"文京区","address":"東京都文京区本駒込6丁目9番7号","lat":35.731304,"lon":139.743959999999},{"name":"弓町本郷幼稚園","province":"東京都","city":"文京区","address":"東京都文京区本郷2丁目35番14号","lat":35.7067899999999,"lon":139.757459},{"name":"第一幼稚園","province":"東京都","city":"文京区","address":"東京都文京区西片2丁目17番6号","lat":35.71745,"lon":139.755035},{"name":"柳町こどもの森(柳町幼稚園)","province":"東京都","city":"文京区","address":"東京都文京区小石川1丁目23番6号","lat":35.713695,"lon":139.750497},{"name":"明化幼稚園","province":"東京都","city":"文京区","address":"東京都文京区千石1丁目13番9号","lat":35.724833,"lon":139.744881},{"name":"青柳幼稚園","province":"東京都","city":"文京区","address":"東京都文京区大塚5丁目40番18号","lat":35.720417,"lon":139.725097},{"name":"根津幼稚園","province":"東京都","city":"文京区","address":"東京都文京区根津1丁目14番2号","lat":35.718575,"lon":139.763038},{"name":"小日向台町幼稚園","province":"東京都","city":"文京区","address":"東京都文京区小日向2丁目2番2号","lat":35.712998,"lon":139.734867},{"name":"本駒込幼稚園","province":"東京都","city":"文京区","address":"東京都文京区本駒込4丁目35番15号","lat":35.733276,"lon":139.755369},{"name":"千駄木幼稚園","province":"東京都","city":"文京区","address":"東京都文京区千駄木5丁目43番3号","lat":35.72867,"lon":139.758016},{"name":"後楽幼稚園","province":"東京都","city":"文京区","address":"東京都文京区後楽1丁目7番7号","lat":35.706362,"lon":139.74677},{"name":"湯島幼稚園","province":"東京都","city":"文京区","address":"東京都文京区本郷3丁目10番18号","lat":35.704012,"lon":139.763646},{"name":"京北幼稚園","province":"東京都","city":"文京区","address":"東京都文京区本駒込2丁目13番5号","lat":35.727938,"lon":139.747806},{"name":"彰栄幼稚園","province":"東京都","city":"文京区","address":"東京都文京区白山4丁目14番15号","lat":35.723271,"lon":139.745733},{"name":"聖園幼稚園","province":"東京都","city":"文京区","address":"東京都文京区関口3丁目16番15号","lat":35.714216,"lon":139.72661},{"name":"共立大日坂幼稚園","province":"東京都","city":"文京区","address":"東京都文京区小日向2丁目17番7号","lat":35.71129,"lon":139.733894},{"name":"中央会堂幼稚園","province":"東京都","city":"文京区","address":"東京都文京区本郷3丁目37番9号","lat":35.707328,"lon":139.762378},{"name":"貞静幼稚園","province":"東京都","city":"文京区","address":"東京都文京区大塚1丁目2番10号","lat":35.716282,"lon":139.735251},{"name":"同仁美登里幼稚園","province":"東京都","city":"文京区","address":"東京都文京区目白台3丁目10番9号","lat":35.716617,"lon":139.725518},{"name":"日本女子大学附属豊明幼稚園","province":"東京都","city":"文京区","address":"東京都文京区目白台1丁目18番14号","lat":35.715511,"lon":139.719766},{"name":"福寿幼稚園","province":"東京都","city":"文京区","address":"東京都文京区小石川3丁目2番23号","lat":35.711794,"lon":139.746419},{"name":"文京学院大学文京幼稚園","province":"東京都","city":"文京区","address":"東京都文京区向丘2丁目4番1号","lat":35.718999,"lon":139.758048},{"name":"明照幼稚園","province":"東京都","city":"文京区","address":"東京都文京区小石川4丁目12番8号","lat":35.715362,"lon":139.744984},{"name":"大和郷幼稚園","province":"東京都","city":"文京区","address":"東京都文京区本駒込6丁目9番7号","lat":35.731304,"lon":139.74396},{"name":"弓町本郷幼稚園","province":"東京都","city":"文京区","address":"東京都文京区本郷2丁目35番14号","lat":35.70679,"lon":139.757459}]}