{"keyword":"拠点","data":[{"name":"子育てひろば西片","province":"東京都","city":"文京区","address":"東京都文京区西片1丁目8番15号","lat":35.712588,"lon":139.754057},{"name":"子育てひろば汐見","province":"東京都","city":"文京区","address":"東京都文京区千駄木2丁目19番23号(汐見小学校内)","lat":35.724296,"lon":139.760809},{"name":"子育てひろば江戸川橋","province":"東京都","city":"文京区","address":"東京都文京区小日向2丁目16番15号(文京総合福祉センター3階)","lat":35.710662,"lon":139.734753},{"name":"子育てひろば水道","province":"東京都","city":"文京区","address":"東京都文京区水道1-3-26(水道保育園内)","lat":35.7095669999999,"lon":139.742295},{"name":"子育てひろば千石","province":"東京都","city":"文京区","address":"東京都文京区千石1丁目4番3号(千石児童館内)","lat":35.7248149999999,"lon":139.743264},{"name":"こまぴよのおうち","province":"東京都","city":"文京区","address":"東京都文京区本駒込五丁目11番6号","lat":35.731435,"lon":139.75271},{"name":"こそだておうえんまちぷら","province":"東京都","city":"文京区","address":"東京都文京区本郷三丁目9番5号NK本郷ビル4階","lat":35.704574,"lon":139.763083},{"name":"さきちゃんちpetit","province":"東京都","city":"文京区","address":"東京都文京区白山二丁目14番17号1階","lat":35.717548,"lon":139.746094},{"name":"子育てひろば水道","province":"東京都","city":"文京区","address":"東京都文京区水道1-3-26(水道保育園内)","lat":35.709567,"lon":139.742295},{"name":"子育てひろば千石","province":"東京都","city":"文京区","address":"東京都文京区千石1丁目4番3号(千石児童館内)","lat":35.724815,"lon":139.743264},{"name":"文京スポーツセンター","province":"東京都","city":"文京区","address":"東京都文京区大塚3丁目29-2","lat":35.72054062,"lon":139.73641181}]}