{"keyword":"放課後","data":[{"name":"運動発達支援スタジオＵＮＩＭＯ後楽園","province":"東京都","city":"文京区","address":"文京区小石川2-25-10","lat":35.712211,"lon":139.750652},{"name":"富坂子どもの家","province":"東京都","city":"文京区","address":"文京区小石川2-17-41","lat":35.711125,"lon":139.748361},{"name":"発達支援ルーム　ぽけっと","province":"東京都","city":"文京区","address":"文京区小石川5-38-2クレストヒルズ小石川2階","lat":35.718166,"lon":139.742953},{"name":"放課後等デイサービス　びおら","province":"東京都","city":"文京区","address":"文京区小日向2丁目16-15","lat":35.710581,"lon":139.734582},{"name":"運動発達支援スタジオＵＮＩＭＯ文京千石","province":"東京都","city":"文京区","address":"文京区千石1-29-12千石片岡ビル101","lat":35.727271,"lon":139.74518},{"name":"放課後等デイサービス　あんプラス江戸川橋","province":"東京都","city":"文京区","address":"文京区関口1-48-6日火江戸川橋ビル第2201","lat":35.709486,"lon":139.730463},{"name":"エデュクエスト","province":"東京都","city":"文京区","address":"文京区白山1-18-7石川ビル202号室","lat":35.717747,"lon":139.752236},{"name":"放課後等デイサービス　カリタス翼","province":"東京都","city":"文京区","address":"文京区本駒込5-4-4","lat":35.732379,"lon":139.750074},{"name":"文京区放課後等デイサービスＪＯＹ","province":"東京都","city":"文京区","address":"文京区本駒込四丁目35番15号文京区勤労福祉会館2階","lat":35.733468,"lon":139.75514},{"name":"ハッピーテラス千駄木教室","province":"東京都","city":"文京区","address":"文京区根津2-37-8","lat":35.72118,"lon":139.76241},{"name":"文京区児童発達支援センター","province":"東京都","city":"文京区","address":"文京区湯島4-7-10","lat":35.708848,"lon":139.765768}]}