{"keyword":"月間","data":[{"name":"六義園","province":"東京都","city":"文京区","address":"東京都文京区本駒込6丁目16-3","lat":35.7323312,"lon":139.74696603},{"name":"東京大学","province":"東京都","city":"文京区","address":"東京都文京区本郷7丁目","lat":35.71343101,"lon":139.76231265},{"name":"後楽園一帯","province":"東京都","city":"文京区","address":"東京都文京区春日1丁目","lat":35.70791725,"lon":139.74644188},{"name":"お茶の水女子大学一帯・教育の森公園一帯","province":"東京都","city":"文京区","address":"東京都文京区大塚2丁目","lat":35.72012384,"lon":139.7304068},{"name":"護国寺一帯","province":"東京都","city":"文京区","address":"東京都文京区大塚5丁目","lat":35.72432056,"lon":139.72975112},{"name":"小石川植物園","province":"東京都","city":"文京区","address":"東京都文京区白山3丁目7-1","lat":35.71847994,"lon":139.74435284},{"name":"目白台運動公園付近一帯","province":"東京都","city":"文京区","address":"東京都文京区関口2丁目","lat":35.71124979,"lon":139.72915442},{"name":"礫川小学校","province":"東京都","city":"文京区","address":"文京区小石川2丁目13番2号","lat":35.710834,"lon":139.747575},{"name":"柳町小学校","province":"東京都","city":"文京区","address":"文京区小石川1丁目23番16号","lat":35.714459,"lon":139.750138},{"name":"指ケ谷小学校","province":"東京都","city":"文京区","address":"文京区白山2丁目28番4号","lat":35.717306,"lon":139.750767},{"name":"林町小学校","province":"東京都","city":"文京区","address":"文京区千石2丁目36番3号","lat":35.724322,"lon":139.742248},{"name":"明化小学校","province":"東京都","city":"文京区","address":"文京区千石1丁目13番9号","lat":35.724833,"lon":139.744881},{"name":"青柳小学校","province":"東京都","city":"文京区","address":"文京区大塚5丁目40番18号","lat":35.720417,"lon":139.725097},{"name":"関口台町小学校","province":"東京都","city":"文京区","address":"文京区関口2丁目6番1号","lat":35.711867,"lon":139.726757},{"name":"小日向台町小学校","province":"東京都","city":"文京区","address":"文京区小日向2丁目3番8号","lat":35.713213,"lon":139.735631},{"name":"金富小学校","province":"東京都","city":"文京区","address":"文京区春日2丁目6番15号","lat":35.710831,"lon":139.741619},{"name":"窪町小学校","province":"東京都","city":"文京区","address":"文京区大塚3丁目2番3号","lat":35.718877,"lon":139.735629},{"name":"大塚小学校","province":"東京都","city":"文京区","address":"文京区大塚4丁目1番7号","lat":35.723729,"lon":139.73638},{"name":"湯島小学校","province":"東京都","city":"文京区","address":"文京区湯島2丁目28番14号","lat":35.706572,"lon":139.766568},{"name":"誠之小学校","province":"東京都","city":"文京区","address":"文京区西片2丁目14番6号","lat":35.717943,"lon":139.754029},{"name":"根津小学校","province":"東京都","city":"文京区","address":"文京区根津1丁目14番3号","lat":35.718439,"lon":139.763222},{"name":"千駄木小学校","province":"東京都","city":"文京区","address":"文京区千駄木5丁目44番2号","lat":35.72914,"lon":139.758951},{"name":"汐見小学校","province":"東京都","city":"文京区","address":"文京区千駄木2丁目19番23号","lat":35.723733,"lon":139.760914},{"name":"昭和小学校","province":"東京都","city":"文京区","address":"文京区本駒込2丁目28番31号","lat":35.731554,"lon":139.749485},{"name":"駒本小学校","province":"東京都","city":"文京区","address":"文京区向丘2丁目37番5号","lat":35.724618,"lon":139.754577},{"name":"駕籠町小学校","province":"東京都","city":"文京区","address":"文京区本駒込2丁目29番6号","lat":35.728362,"lon":139.7458},{"name":"本郷小学校","province":"東京都","city":"文京区","address":"文京区本郷4丁目5番15号","lat":35.708093,"lon":139.758136},{"name":"旧元町小学校","province":"東京都","city":"文京区","address":"文京区本郷1丁目1番19号","lat":35.703038,"lon":139.757922},{"name":"第一中学校","province":"東京都","city":"文京区","address":"文京区小石川5丁目8番9号","lat":35.718013,"lon":139.738682},{"name":"第三中学校","province":"東京都","city":"文京区","address":"文京区春日1丁目9番31号","lat":35.709151,"lon":139.746671},{"name":"第六中学校","province":"東京都","city":"文京区","address":"文京区向丘1丁目2番2号","lat":35.717074,"lon":139.757726},{"name":"第八中学校","province":"東京都","city":"文京区","address":"文京区千駄木2丁目19番22号","lat":35.724322,"lon":139.761015},{"name":"第九中学校","province":"東京都","city":"文京区","address":"文京区本駒込3丁目28番9号","lat":35.729654,"lon":139.75278},{"name":"第十中学校","province":"東京都","city":"文京区","address":"文京区千石2丁目40番17号","lat":35.723516,"lon":139.742538},{"name":"文林中学校","province":"東京都","city":"文京区","address":"文京区千駄木5丁目25番10号","lat":35.728052,"lon":139.758572},{"name":"茗台中学校","province":"東京都","city":"文京区","address":"文京区春日2丁目9番5号","lat":35.713539,"lon":139.741205},{"name":"本郷台中学校","province":"東京都","city":"文京区","address":"文京区本郷2丁目38番23号","lat":35.706951,"lon":139.758938},{"name":"音羽中学校","province":"東京都","city":"文京区","address":"文京区大塚1丁目9番24号","lat":35.717217,"lon":139.73279},{"name":"文京江戸川橋体育館","province":"東京都","city":"文京区","address":"文京区小日向1丁目7番4号","lat":35.710603,"lon":139.73546},{"name":"教育センター","province":"東京都","city":"文京区","address":"文京区湯島4丁目7番10号","lat":35.708987,"lon":139.76575},{"name":"森鴎外記念館","province":"東京都","city":"文京区","address":"東京都文京区千駄木1丁目23番地4号","lat":35.724927,"lon":139.7606},{"name":"不忍通りふれあい館","province":"東京都","city":"文京区","address":"東京都文京区根津2丁目20番地7号","lat":35.719172,"lon":139.764146},{"name":"文京ふるさと歴史館","province":"東京都","city":"文京区","address":"東京都文京区本郷4丁目9番地29号","lat":35.708014,"lon":139.756669},{"name":"文京シビックセンターアトリウム","province":"東京都","city":"文京区","address":"東京都文京区春日1丁目16番地21号地下2階から3階まで","lat":35.707932,"lon":139.752085},{"name":"文京シビックセンター25階展望ラウンジ","province":"東京都","city":"文京区","address":"東京都文京区春日1丁目16番地21号25階","lat":35.708132,"lon":139.752321},{"name":"松聲閣","province":"東京都","city":"文京区","address":"東京都文京区目白台1丁目1番地22号","lat":35.7131,"lon":139.721771},{"name":"江戸川公園","province":"東京都","city":"文京区","address":"東京都文京区関口2丁目-1番地","lat":35.711015,"lon":139.730893},{"name":"小石川運動場","province":"東京都","city":"文京区","address":"東京都文京区後楽1丁目‐8番地‐23","lat":35.705146,"lon":139.746479},{"name":"目白台運動公園","province":"東京都","city":"文京区","address":"東京都文京区目白台1丁目20番地","lat":35.715366,"lon":139.721551},{"name":"教育の森公園","province":"東京都","city":"文京区","address":"東京都文京区大塚3丁目29番地","lat":35.720479,"lon":139.735401},{"name":"江戸川橋体育館","province":"東京都","city":"文京区","address":"東京都文京区小日向1丁目7番地4号","lat":35.710603,"lon":139.735485},{"name":"教育センター","province":"東京都","city":"文京区","address":"東京都文京区湯島4丁目7番地10号","lat":35.708668,"lon":139.765461},{"name":"文京総合体育館","province":"東京都","city":"文京区","address":"東京都文京区本郷7丁目1番地2号","lat":35.708137,"lon":139.763335},{"name":"文京スポーツセンター","province":"東京都","city":"文京区","address":"東京都文京区大塚3丁目29番地2号","lat":35.72054,"lon":139.736595},{"name":"男女平等センター","province":"東京都","city":"文京区","address":"東京都文京区本郷4丁目8番地3号","lat":35.708605,"lon":139.757683},{"name":"区民センター","province":"東京都","city":"文京区","address":"東京都文京区本郷4丁目15番地14号","lat":35.709057,"lon":139.754146},{"name":"六義公園運動場","province":"東京都","city":"文京区","address":"東京都文京区本駒込6丁目16番地10号","lat":35.73165,"lon":139.746452},{"name":"礫川地域活動センター","province":"東京都","city":"文京区","address":"東京都文京区小石川2丁目18番地18号","lat":35.712128,"lon":139.750306},{"name":"大原地域活動センター","province":"東京都","city":"文京区","address":"東京都文京区千石1丁目4番地3号","lat":35.724675,"lon":139.743343},{"name":"大塚地域活動センター","province":"東京都","city":"文京区","address":"東京都文京区大塚1丁目5番地17号","lat":35.71879,"lon":139.734637},{"name":"音羽地域活動センター","province":"東京都","city":"文京区","address":"東京都文京区音羽1丁目22番地14号","lat":35.714074,"lon":139.729812},{"name":"湯島地域活動センター","province":"東京都","city":"文京区","address":"東京都文京区本郷7丁目1番地2号","lat":35.708311,"lon":139.763317},{"name":"向丘地域活動センター","province":"東京都","city":"文京区","address":"東京都文京区向丘1丁目20番地8号","lat":35.717508,"lon":139.757945},{"name":"根津地域活動センター","province":"東京都","city":"文京区","address":"東京都文京区根津2丁目20番地7号","lat":35.719417,"lon":139.764144},{"name":"汐見地域活動センター","province":"東京都","city":"文京区","address":"東京都文京区千駄木3丁目2番地6号","lat":35.725755,"lon":139.76147},{"name":"駒込地域活動センター","province":"東京都","city":"文京区","address":"東京都文京区本駒込3丁目22番地4号","lat":35.728779,"lon":139.752266},{"name":"勤労福祉会館","province":"東京都","city":"文京区","address":"東京都文京区本駒込4丁目35番地15号","lat":35.734396,"lon":139.755422},{"name":"文京総合福祉センター","province":"東京都","city":"文京区","address":"東京都文京区小日向2丁目16番地15号","lat":35.71058,"lon":139.734474},{"name":"保健サービスセンター本郷支所","province":"東京都","city":"文京区","address":"東京都文京区千駄木5丁目20番地18号","lat":35.727059,"lon":139.76046},{"name":"福祉センター湯島","province":"東京都","city":"文京区","address":"東京都文京区本郷3丁目10番地18号","lat":35.704254,"lon":139.763506},{"name":"福祉センター江戸川橋","province":"東京都","city":"文京区","address":"東京都文京区小日向2丁目16番地15号","lat":35.71058,"lon":139.734474},{"name":"髪ファッション四季　音羽店","province":"東京都","city":"文京区","address":"東京都文京区音羽2丁目2番地2号アベニュー音羽107号","lat":35.718481,"lon":139.728018},{"name":"ごはん茶々","province":"東京都","city":"文京区","address":"東京都文京区音羽1丁目25番地12号中銀第2音羽マンション1階","lat":35.71266,"lon":139.730451},{"name":"高崎屋商店","province":"東京都","city":"文京区","address":"東京都文京区向丘1丁目1番地17号","lat":35.716243,"lon":139.758335},{"name":"大坂や茶店","province":"東京都","city":"文京区","address":"東京都文京区向丘1丁目9番地22号","lat":35.722349,"lon":139.752954},{"name":"東京新聞千石専売所","province":"東京都","city":"文京区","address":"東京都文京区千石4丁目4番地1号永瀬ビル1階","lat":35.728494,"lon":139.742046},{"name":"田上商店","province":"東京都","city":"文京区","address":"東京都文京区千石1丁目9番地19号","lat":35.725156,"lon":139.744718},{"name":"近藤クリニック","province":"東京都","city":"文京区","address":"東京都文京区千石4丁目3番地16号Tハウス1階","lat":35.727655,"lon":139.740958},{"name":"大むら　そば店","province":"東京都","city":"文京区","address":"東京都文京区白山5丁目3番地7号","lat":35.720561,"lon":139.750782},{"name":"白山オステオパシー","province":"東京都","city":"文京区","address":"東京都文京区白山1丁目31番地7号鈴木ビル2階","lat":35.719207,"lon":139.751603},{"name":"株式会社平田工業所","province":"東京都","city":"文京区","address":"東京都文京区白山3丁目6番地4号","lat":35.720182,"lon":139.74117},{"name":"文京不動産レジデンシャル株式会社","province":"東京都","city":"文京区","address":"東京都文京区春日1丁目12番地6号パーク白木1階","lat":35.709692,"lon":139.747778},{"name":"痛くないハリ治療　みょうが鍼灸店","province":"東京都","city":"文京区","address":"東京都文京区小石川5丁目3番地2号エイト第2ビル1階","lat":35.716447,"lon":139.739034},{"name":"リラクゼーション整体サロンSILKY","province":"東京都","city":"文京区","address":"東京都文京区小石川1丁目3番地23号ル・ビジュー306号","lat":35.709514,"lon":139.753036},{"name":"cafeBASE","province":"東京都","city":"文京区","address":"東京都文京区小石川4丁目21番地4号小石川安田ビル1階","lat":35.715065,"lon":139.740386},{"name":"岩佐歯科クリニック","province":"東京都","city":"文京区","address":"東京都文京区小日向4丁目4番地3号カーネ小日向101号","lat":35.715955,"lon":139.739082},{"name":"ハギデンキ","province":"東京都","city":"文京区","address":"東京都文京区小日向4丁目5番地16号ツインヒルズ茗荷谷102号","lat":35.716227,"lon":139.738787},{"name":"坪田デンタルクリニック","province":"東京都","city":"文京区","address":"東京都文京区小日向4丁目7番地14号坪田ビル1階","lat":35.716757,"lon":139.737111},{"name":"中川青果店","province":"東京都","city":"文京区","address":"東京都文京区千駄木2丁目39番地8号","lat":35.723155,"lon":139.763206},{"name":"貸し工房　創作CLUB","province":"東京都","city":"文京区","address":"東京都文京区千駄木3丁目44番地9号パレドール千駄木2101号","lat":35.728893,"lon":139.764241},{"name":"JewelSelect","province":"東京都","city":"文京区","address":"東京都文京区千駄木2丁目33番地4号ウイン千駄木104号","lat":35.723845,"lon":139.76298},{"name":"麺や　ひだまり","province":"東京都","city":"文京区","address":"東京都文京区千駄木3丁目43番地9号","lat":35.728611,"lon":139.764389},{"name":"wish","province":"東京都","city":"文京区","address":"東京都文京区千駄木3丁目34番地9号パークウェル千駄木駅前1階","lat":35.725654,"lon":139.763101},{"name":"工房東京窯志舎","province":"東京都","city":"文京区","address":"東京都文京区本駒込3丁目5番地6号ライオンズMS本駒込101号","lat":35.726275,"lon":139.753565},{"name":"Tippi","province":"東京都","city":"文京区","address":"東京都文京区本駒込4丁目39番地2号リーラ文京本駒込108号","lat":35.732656,"lon":139.757581},{"name":"アオアシ　カフェ","province":"東京都","city":"文京区","address":"東京都文京区本駒込1丁目2番地5号ルネ文京白山1階","lat":35.723144,"lon":139.752901},{"name":"板倉茶屋　要","province":"東京都","city":"文京区","address":"東京都文京区湯島3丁目44番地9号湯島要ビル5階","lat":35.709053,"lon":139.771374},{"name":"BistroKouzo","province":"東京都","city":"文京区","address":"東京都文京区湯島4丁目6番地17号","lat":35.707973,"lon":139.767387},{"name":"クラブMINT","province":"東京都","city":"文京区","address":"東京都文京区湯島3丁目38番地11号エスパス上野広小路ビル8階","lat":35.708055,"lon":139.771102},{"name":"こいけ鍼灸整骨院","province":"東京都","city":"文京区","address":"東京都文京区本郷5丁目1番地3号コーポ菊坂101号","lat":35.708331,"lon":139.759905},{"name":"めがね工房なかじま","province":"東京都","city":"文京区","address":"東京都文京区本郷3丁目38番地10号さかえビル1階","lat":35.707444,"lon":139.762838},{"name":"hairiota","province":"東京都","city":"文京区","address":"東京都文京区本郷4丁目27番地11号中村ビル102号","lat":35.71129,"lon":139.75503},{"name":"99ルート・デュ・ショコラ　本郷店","province":"東京都","city":"文京区","address":"東京都文京区本郷2丁目13番地10号湯浅ビル1階","lat":35.704016,"lon":139.761567},{"name":"MEGRO","province":"東京都","city":"文京区","address":"東京都文京区本郷2丁目40番地13号本郷コーポレイション104号","lat":35.707145,"lon":139.76045},{"name":"やさしい野菜屋さん","province":"東京都","city":"文京区","address":"東京都文京区本郷3丁目41番地10号矢作ビル1階","lat":35.707146,"lon":139.763892},{"name":"シャリエ本郷管理組合","province":"東京都","city":"文京区","address":"東京都文京区本郷1丁目34番地1号シャリエ本郷管理室","lat":35.706805,"lon":139.754369},{"name":"マックフォトサービス","province":"東京都","city":"文京区","address":"東京都文京区本郷2丁目31番地1号","lat":35.705255,"lon":139.758614},{"name":"いごこちDININGたかの家","province":"東京都","city":"文京区","address":"東京都文京区本郷1丁目15番地2号三沢第一ビル地下1階","lat":35.70423,"lon":139.755289},{"name":"おにぎりカフェ利さく","province":"東京都","city":"文京区","address":"東京都文京区千駄木2丁目31番地6号","lat":35.724333,"lon":139.762774},{"name":"SAKE&WINEtono;4122","province":"東京都","city":"文京区","address":"東京都文京区千駄木4丁目1番地22号","lat":35.730574,"lon":139.761139},{"name":"hairsalonancal","province":"東京都","city":"文京区","address":"東京都文京区大塚3丁目34番地9号ライオンズMS小石川植物園105号","lat":35.721341,"lon":139.739618},{"name":"風のやすみば","province":"東京都","city":"文京区","address":"東京都文京区千石4丁目5-2水野ビル1階","lat":35.727963,"lon":139.739508},{"name":"常心亭","province":"東京都","city":"文京区","address":"東京都文京区水道2丁目6-4マ・メゾン小日向101号","lat":35.709539,"lon":139.735496},{"name":"鳥勝","province":"東京都","city":"文京区","address":"東京都文京区根津2丁目20-17","lat":35.718789,"lon":139.764989},{"name":"運動発達支援スタジオＵＮＩＭＯ後楽園","province":"東京都","city":"文京区","address":"文京区小石川2-25-10","lat":35.712211,"lon":139.750652},{"name":"富坂子どもの家","province":"東京都","city":"文京区","address":"文京区小石川2-17-41","lat":35.711125,"lon":139.748361},{"name":"発達支援ルーム　ぽけっと","province":"東京都","city":"文京区","address":"文京区小石川5-38-2クレストヒルズ小石川2階","lat":35.718166,"lon":139.742953},{"name":"放課後等デイサービス　びおら","province":"東京都","city":"文京区","address":"文京区小日向2丁目16-15","lat":35.710581,"lon":139.734582},{"name":"運動発達支援スタジオＵＮＩＭＯ文京千石","province":"東京都","city":"文京区","address":"文京区千石1-29-12千石片岡ビル101","lat":35.727271,"lon":139.74518},{"name":"放課後等デイサービス　あんプラス江戸川橋","province":"東京都","city":"文京区","address":"文京区関口1-48-6日火江戸川橋ビル第2201","lat":35.709486,"lon":139.730463},{"name":"エデュクエスト","province":"東京都","city":"文京区","address":"文京区白山1-18-7石川ビル202号室","lat":35.717747,"lon":139.752236},{"name":"放課後等デイサービス　カリタス翼","province":"東京都","city":"文京区","address":"文京区本駒込5-4-4","lat":35.732379,"lon":139.750074},{"name":"文京区放課後等デイサービスＪＯＹ","province":"東京都","city":"文京区","address":"文京区本駒込四丁目35番15号文京区勤労福祉会館2階","lat":35.733468,"lon":139.75514},{"name":"ハッピーテラス千駄木教室","province":"東京都","city":"文京区","address":"文京区根津2-37-8","lat":35.72118,"lon":139.76241},{"name":"文京区児童発達支援センター","province":"東京都","city":"文京区","address":"文京区湯島4-7-10","lat":35.708848,"lon":139.765768},{"name":"文京区子ども家庭支援センター","province":"東京都","city":"文京区","address":"文京区春日1-16-21シビックセンター5階","lat":35.707951,"lon":139.75243},{"name":"文京区子ども家庭支援センター","province":"東京都","city":"文京区","address":"文京区春日1-16-21シビックセンター5階","lat":35.70794,"lon":139.75278},{"name":"壱岐坂下","province":"東京都","city":"文京区","address":"東京都文京区後楽1丁目3-61","lat":35.70486136,"lon":139.75272149},{"name":"伝通院前","province":"東京都","city":"文京区","address":"東京都文京区小石川3丁目1-1","lat":35.71078082,"lon":139.74631679},{"name":"西片","province":"東京都","city":"文京区","address":"東京都文京区小石川1丁目9-1","lat":35.71130314,"lon":139.75246066},{"name":"富坂下","province":"東京都","city":"文京区","address":"東京都文京区小石川2丁目1-1","lat":35.7087284,"lon":139.7515803},{"name":"水道橋","province":"東京都","city":"文京区","address":"東京都文京区後楽1丁目3-61","lat":35.70486136,"lon":139.75272149},{"name":"春日町","province":"東京都","city":"文京区","address":"東京都文京区春日1丁目16-27","lat":35.70812018,"lon":139.75333017},{"name":"千石一丁目","province":"東京都","city":"文京区","address":"東京都文京区本駒込2丁目29-27","lat":35.72887043,"lon":139.74438305},{"name":"安藤坂","province":"東京都","city":"文京区","address":"東京都文京区春日1丁目8-3","lat":35.70796444,"lon":139.74531698},{"name":"白山下","province":"東京都","city":"文京区","address":"東京都文京区白山2丁目39-8","lat":35.71970225,"lon":139.75146054},{"name":"後楽園駅前","province":"東京都","city":"文京区","address":"東京都文京区春日1丁目2-3","lat":35.70735077,"lon":139.75114429},{"name":"窪町東公園前","province":"東京都","city":"文京区","address":"東京都文京区大塚3丁目32","lat":35.72059904,"lon":139.73987817},{"name":"こんにゃくえんま前","province":"東京都","city":"文京区","address":"東京都文京区小石川2丁目23-14","lat":35.71069206,"lon":139.75136356},{"name":"牛天神下","province":"東京都","city":"文京区","address":"東京都文京区後楽2丁目5-1","lat":35.70552861,"lon":139.74602812},{"name":"茗台中学校前","province":"東京都","city":"文京区","address":"東京都文京区春日2丁目9-5","lat":35.71346374,"lon":139.74103385},{"name":"明化小学校入口","province":"東京都","city":"文京区","address":"東京都文京区千石1丁目6-19","lat":35.72699281,"lon":139.74224719},{"name":"小石川植物園前","province":"東京都","city":"文京区","address":"東京都文京区白山2丁目14-6","lat":35.71733564,"lon":139.74502781},{"name":"竹早小学校入口","province":"東京都","city":"文京区","address":"東京都文京区小石川4丁目17-1","lat":35.71536633,"lon":139.74236978},{"name":"小石川税務署前","province":"東京都","city":"文京区","address":"東京都文京区後楽1丁目7-19","lat":35.70662298,"lon":139.74766961},{"name":"白山三丁目","province":"東京都","city":"文京区","address":"東京都文京区小石川5丁目37-6","lat":35.71893261,"lon":139.74201414},{"name":"小石川五丁目","province":"東京都","city":"文京区","address":"東京都文京区小石川5丁目1-12","lat":35.7156718,"lon":139.7399061},{"name":"千石三丁目第二","province":"東京都","city":"文京区","address":"東京都文京区千石3丁目3-7","lat":35.72480123,"lon":139.73621722},{"name":"飯田橋職安前","province":"東京都","city":"文京区","address":"東京都文京区後楽1丁目9-20","lat":35.70364551,"lon":139.74712809},{"name":"白山二丁目","province":"東京都","city":"文京区","address":"東京都文京区白山1丁目6-4","lat":35.71557769,"lon":139.75229946},{"name":"隆慶橋東詰","province":"東京都","city":"文京区","address":"東京都文京区後楽2丁目3-13","lat":35.70475922,"lon":139.74478104},{"name":"第十中学校入口","province":"東京都","city":"文京区","address":"東京都文京区千石1丁目6-12","lat":35.72598458,"lon":139.74184447},{"name":"金富小学校前","province":"東京都","city":"文京区","address":"東京都文京区春日2丁目6-15","lat":35.7108307,"lon":139.74161999},{"name":"白山交番西","province":"東京都","city":"文京区","address":"東京都文京区白山2丁目39-5","lat":35.71968002,"lon":139.751355},{"name":"白山四丁目第一","province":"東京都","city":"文京区","address":"東京都文京区白山4丁目36-12","lat":35.72254903,"lon":139.7476191},{"name":"小石川保健所前","province":"東京都","city":"文京区","address":"東京都文京区春日1丁目9-21","lat":35.70814221,"lon":139.74611413},{"name":"窪町東公園北","province":"東京都","city":"文京区","address":"東京都文京区大塚3丁目38-12","lat":35.72186276,"lon":139.73882267},{"name":"中通り入口","province":"東京都","city":"文京区","address":"東京都文京区春日1丁目7-12","lat":35.7074534,"lon":139.74605861},{"name":"小石川運動場前","province":"東京都","city":"文京区","address":"東京都文京区後楽1丁目8","lat":35.70462595,"lon":139.74661143},{"name":"柳町小学校入口","province":"東京都","city":"文京区","address":"東京都文京区小石川1丁目23-6","lat":35.71370563,"lon":139.75092185},{"name":"白山四丁目","province":"東京都","city":"文京区","address":"東京都文京区白山4丁目34-12","lat":35.72080483,"lon":139.74934402},{"name":"白山交番南","province":"東京都","city":"文京区","address":"東京都文京区白山1丁目31-6","lat":35.71904121,"lon":139.75161333},{"name":"小石川後楽園入口","province":"東京都","city":"文京区","address":"東京都文京区後楽1丁目8","lat":35.70462595,"lon":139.74661143},{"name":"大塚特別支援学校前","province":"東京都","city":"文京区","address":"東京都文京区春日1丁目9-9","lat":35.70802281,"lon":139.7472307},{"name":"新隆慶橋東詰","province":"東京都","city":"文京区","address":"東京都文京区後楽2丁目6-1","lat":35.70525084,"lon":139.74505878},{"name":"茗荷谷駅前","province":"東京都","city":"文京区","address":"東京都文京区小石川5丁目5-5","lat":35.71791038,"lon":139.73713962},{"name":"古川橋","province":"東京都","city":"文京区","address":"東京都文京区関口1丁目17","lat":35.70882798,"lon":139.73519287},{"name":"目白坂下","province":"東京都","city":"文京区","address":"東京都文京区音羽1丁目25-15","lat":35.71244413,"lon":139.73040427},{"name":"目白台二丁目","province":"東京都","city":"文京区","address":"東京都文京区目白台1丁目15-9","lat":35.71664333,"lon":139.7181413},{"name":"大塚三丁目","province":"東京都","city":"文京区","address":"東京都文京区大塚4丁目45-11","lat":35.72181258,"lon":139.73188993},{"name":"護国寺前","province":"東京都","city":"文京区","address":"東京都文京区大塚5丁目40-8","lat":35.72028204,"lon":139.72657655},{"name":"大塚警察署前","province":"東京都","city":"文京区","address":"東京都文京区音羽2丁目12-26","lat":35.71707411,"lon":139.727996},{"name":"護国寺南","province":"東京都","city":"文京区","address":"東京都文京区音羽2丁目11-25","lat":35.71900999,"lon":139.72723488},{"name":"大塚五丁目","province":"東京都","city":"文京区","address":"東京都文京区大塚4丁目51-5","lat":35.72531213,"lon":139.73044825},{"name":"目白台郵便局前","province":"東京都","city":"文京区","address":"東京都文京区目白台2丁目7-8","lat":35.71785996,"lon":139.72162984},{"name":"護国寺西","province":"東京都","city":"文京区","address":"東京都文京区音羽2丁目12","lat":35.71938771,"lon":139.72674046},{"name":"大塚四丁目","province":"東京都","city":"文京区","address":"東京都文京区大塚3丁目11-7","lat":35.72153767,"lon":139.733887},{"name":"大塚一丁目","province":"東京都","city":"文京区","address":"東京都文京区大塚3丁目3-14","lat":35.71920185,"lon":139.73525363},{"name":"江戸川公園前","province":"東京都","city":"文京区","address":"東京都文京区音羽1丁目1-1","lat":35.71119986,"lon":139.73157366},{"name":"目白台三丁目","province":"東京都","city":"文京区","address":"東京都文京区目白台1丁目23-7","lat":35.71500202,"lon":139.72446581},{"name":"音羽一丁目","province":"東京都","city":"文京区","address":"東京都文京区音羽1丁目20-2","lat":35.71510769,"lon":139.72913762},{"name":"音羽一丁目南","province":"東京都","city":"文京区","address":"東京都文京区音羽1丁目22-14","lat":35.71390228,"lon":139.72967651},{"name":"坂下通り入口","province":"東京都","city":"文京区","address":"東京都文京区大塚5丁目17-3","lat":35.72129314,"lon":139.73017899},{"name":"目白台二丁目第三","province":"東京都","city":"文京区","address":"東京都文京区目白台2丁目14-11","lat":35.7188571,"lon":139.72284637},{"name":"小日向一丁目","province":"東京都","city":"文京区","address":"東京都文京区春日2丁目8-13","lat":35.71093066,"lon":139.74042843},{"name":"大日坂下","province":"東京都","city":"文京区","address":"東京都文京区小日向2丁目18-5","lat":35.71097493,"lon":139.73351794},{"name":"華水橋","province":"東京都","city":"文京区","address":"東京都文京区関口1丁目20-6","lat":35.70939454,"lon":139.73325691},{"name":"大塚四丁目第二","province":"東京都","city":"文京区","address":"東京都文京区大塚3丁目27-2","lat":35.72224318,"lon":139.73566737},{"name":"大塚公園入口","province":"東京都","city":"文京区","address":"東京都文京区大塚4丁目49","lat":35.72415396,"lon":139.73177596},{"name":"跡見学園前","province":"東京都","city":"文京区","address":"東京都文京区大塚2丁目1-18","lat":35.71814638,"lon":139.73367881},{"name":"開運坂下","province":"東京都","city":"文京区","address":"東京都文京区大塚5丁目13-11","lat":35.7252593,"lon":139.72848453},{"name":"目白台運動場前","province":"東京都","city":"文京区","address":"東京都文京区目白台2丁目3-2","lat":35.71597961,"lon":139.72155769},{"name":"筑波大附属小学校入口","province":"東京都","city":"文京区","address":"東京都文京区大塚3丁目6-7","lat":35.72031559,"lon":139.73425369},{"name":"筑波大附属中学校前","province":"東京都","city":"文京区","address":"東京都文京区大塚2丁目1-1","lat":35.71878795,"lon":139.73262888},{"name":"目白台三丁目第二","province":"東京都","city":"文京区","address":"東京都文京区目白台1丁目21-2","lat":35.71430764,"lon":139.72373535},{"name":"筑波大学正門前","province":"東京都","city":"文京区","address":"東京都文京区大塚3丁目30","lat":35.71982964,"lon":139.73842},{"name":"茗荷谷駅前交番前","province":"東京都","city":"文京区","address":"東京都文京区小石川5丁目5-7","lat":35.71808257,"lon":139.73667576},{"name":"根津一丁目","province":"東京都","city":"文京区","address":"東京都文京区根津2丁目12-7","lat":35.71785574,"lon":139.76550131},{"name":"東大農学部前","province":"東京都","city":"文京区","address":"東京都文京区弥生1丁目1-1","lat":35.71678895,"lon":139.76026548},{"name":"東大正門前","province":"東京都","city":"文京区","address":"東京都文京区本郷7丁目3-1","lat":35.71203394,"lon":139.76277932},{"name":"湯島五差路","province":"東京都","city":"文京区","address":"東京都文京区本郷3丁目3-12","lat":35.70305157,"lon":139.76312697},{"name":"本郷二丁目","province":"東京都","city":"文京区","address":"東京都文京区本郷3丁目15-1","lat":35.70460969,"lon":139.76178529},{"name":"順天堂前","province":"東京都","city":"文京区","address":"東京都文京区本郷3丁目1-3","lat":35.70250161,"lon":139.76261313},{"name":"根津小学校入口","province":"東京都","city":"文京区","address":"東京都文京区根津2丁目20-7","lat":35.71920834,"lon":139.76417635},{"name":"本郷弥生","province":"東京都","city":"文京区","address":"東京都文京区弥生1丁目1-1","lat":35.71678895,"lon":139.76026548},{"name":"お茶の水","province":"東京都","city":"文京区","address":"東京都文京区湯島1丁目5-45","lat":35.70099629,"lon":139.76491864},{"name":"本郷三丁目","province":"東京都","city":"文京区","address":"東京都文京区本郷4丁目2-1","lat":35.70765375,"lon":139.76038242},{"name":"壱岐坂上","province":"東京都","city":"文京区","address":"東京都文京区本郷2丁目26-1","lat":35.7048763,"lon":139.76080755},{"name":"清水坂下","province":"東京都","city":"文京区","address":"東京都文京区湯島2丁目1-1","lat":35.70305723,"lon":139.76642959},{"name":"三組坂下","province":"東京都","city":"文京区","address":"東京都文京区湯島3丁目14-10","lat":35.7048766,"lon":139.7696349},{"name":"本郷追分","province":"東京都","city":"文京区","address":"東京都文京区向丘2丁目8-7","lat":35.71949969,"lon":139.75717399},{"name":"本郷消防署前","province":"東京都","city":"文京区","address":"東京都文京区本郷7丁目1-11","lat":35.70785938,"lon":139.76294619},{"name":"壱岐坂通り","province":"東京都","city":"文京区","address":"東京都文京区本郷2丁目21-4","lat":35.70448739,"lon":139.75906877},{"name":"根津神社入口","province":"東京都","city":"文京区","address":"東京都文京区根津2丁目29-2","lat":35.71998601,"lon":139.76328195},{"name":"本郷小学校前","province":"東京都","city":"文京区","address":"東京都文京区本郷4丁目5-10","lat":35.70759814,"lon":139.7581409},{"name":"三組坂上","province":"東京都","city":"文京区","address":"東京都文京区湯島3丁目4-7","lat":35.70481819,"lon":139.76739057},{"name":"湯島二丁目","province":"東京都","city":"文京区","address":"東京都文京区湯島2丁目18-6","lat":35.70556525,"lon":139.76474622},{"name":"湯島中坂下","province":"東京都","city":"文京区","address":"東京都文京区湯島3丁目25-11","lat":35.70662919,"lon":139.76975705},{"name":"本郷消防署前第二","province":"東京都","city":"文京区","address":"東京都文京区本郷3丁目27-1","lat":35.70596234,"lon":139.76226576},{"name":"大横丁出口","province":"東京都","city":"文京区","address":"東京都文京区本郷3丁目16-9","lat":35.70557623,"lon":139.7611825},{"name":"天神町交番前","province":"東京都","city":"文京区","address":"東京都文京区湯島3丁目33-9","lat":35.70753467,"lon":139.76979589},{"name":"真砂坂上","province":"東京都","city":"文京区","address":"東京都文京区本郷4丁目7-2","lat":35.70754256,"lon":139.75721876},{"name":"文京第六中学校裏","province":"東京都","city":"文京区","address":"東京都文京区向丘1丁目20-7","lat":35.71741103,"lon":139.75792952},{"name":"順天堂横","province":"東京都","city":"文京区","address":"東京都文京区本郷2丁目9-8","lat":35.7028932,"lon":139.76171872},{"name":"清水坂下第二","province":"東京都","city":"文京区","address":"東京都文京区湯島2丁目1-5","lat":35.70317665,"lon":139.7660796},{"name":"慈愛病院前","province":"東京都","city":"文京区","address":"東京都文京区本郷6丁目12-5","lat":35.71313919,"lon":139.75682411},{"name":"中坂上","province":"東京都","city":"文京区","address":"東京都文京区湯島3丁目29-3","lat":35.70686245,"lon":139.76810988},{"name":"弥生門入口","province":"東京都","city":"文京区","address":"東京都文京区本郷7丁目3-1","lat":35.71203394,"lon":139.76277932},{"name":"本郷三丁目金助町","province":"東京都","city":"文京区","address":"東京都文京区本郷3丁目24-3","lat":35.70570963,"lon":139.76352682},{"name":"本郷郵便局前","province":"東京都","city":"文京区","address":"東京都文京区本郷6丁目1-15","lat":35.71227821,"lon":139.75908503},{"name":"湯島二丁目郵便局前","province":"東京都","city":"文京区","address":"東京都文京区湯島2丁目22-4","lat":35.70526257,"lon":139.76665448},{"name":"団子坂下","province":"東京都","city":"文京区","address":"東京都文京区千駄木3丁目37-20","lat":35.72495777,"lon":139.76346517},{"name":"上富士前","province":"東京都","city":"文京区","address":"東京都文京区本駒込5丁目3-3","lat":35.73214247,"lon":139.74994361},{"name":"道灌山下","province":"東京都","city":"文京区","address":"東京都文京区千駄木3丁目49-10","lat":35.73017663,"lon":139.76239287},{"name":"駒本小学校前","province":"東京都","city":"文京区","address":"東京都文京区本駒込1丁目6-14","lat":35.72467957,"lon":139.75342415},{"name":"千駄木二丁目","province":"東京都","city":"文京区","address":"東京都文京区根津1丁目27-5","lat":35.72104417,"lon":139.76182089},{"name":"文京グリーンコート前","province":"東京都","city":"文京区","address":"東京都文京区本駒込2丁目28-10","lat":35.73072031,"lon":139.74744106},{"name":"本駒込五丁目坂下","province":"東京都","city":"文京区","address":"東京都文京区本駒込5丁目40-5","lat":35.73331196,"lon":139.75373775},{"name":"駒込橋","province":"東京都","city":"文京区","address":"東京都文京区本駒込6丁目24-6","lat":35.73534474,"lon":139.74733257},{"name":"東洋大学前","province":"東京都","city":"文京区","address":"東京都文京区白山5丁目28-20","lat":35.72357121,"lon":139.74971335},{"name":"向丘一丁目","province":"東京都","city":"文京区","address":"東京都文京区向丘1丁目13-2","lat":35.72026069,"lon":139.75599352},{"name":"動坂上","province":"東京都","city":"文京区","address":"東京都文京区本駒込3丁目18-16","lat":35.73070131,"lon":139.75746536},{"name":"富士神社入口","province":"東京都","city":"文京区","address":"東京都文京区本駒込3丁目31-5","lat":35.73043718,"lon":139.75133247},{"name":"徳源院前","province":"東京都","city":"文京区","address":"東京都文京区本駒込3丁目7-14","lat":35.72652111,"lon":139.75494345},{"name":"駒込日医大前","province":"東京都","city":"文京区","address":"東京都文京区千駄木1丁目1-5","lat":35.72107737,"lon":139.75886828},{"name":"道灌山下東","province":"東京都","city":"文京区","address":"東京都文京区千駄木3丁目50-12","lat":35.73053219,"lon":139.76296227},{"name":"駒込稲荷坂下","province":"東京都","city":"文京区","address":"東京都文京区本駒込5丁目41-7","lat":35.73339253,"lon":139.75439326},{"name":"団子坂東","province":"東京都","city":"文京区","address":"東京都文京区千駄木2丁目35-7","lat":35.72446896,"lon":139.7641457},{"name":"勤労福祉会館前","province":"東京都","city":"文京区","address":"東京都文京区本駒込4丁目46-2","lat":35.73377311,"lon":139.75567094},{"name":"駒込病院前","province":"東京都","city":"文京区","address":"東京都文京区千駄木5丁目49-4","lat":35.72997639,"lon":139.75756816},{"name":"日本医科大学付属病院","province":"東京都","city":"文京区","address":"東京都文京区千駄木1丁目1-5","lat":35.72107737,"lon":139.75886828},{"name":"都立駒込病院","province":"東京都","city":"文京区","address":"東京都文京区本駒込3丁目18-22","lat":35.72994856,"lon":139.75609048},{"name":"順天堂大学医学部附属順天堂医院","province":"東京都","city":"文京区","address":"東京都文京区本郷3丁目1-3","lat":35.70250161,"lon":139.76261313},{"name":"東京医科歯科大学医学部附属病院","province":"東京都","city":"文京区","address":"東京都文京区湯島1丁目5-45","lat":35.70099629,"lon":139.76491864},{"name":"東京大学医学部付属病院","province":"東京都","city":"文京区","address":"東京都文京区本郷7丁目3-1","lat":35.71203394,"lon":139.76277932},{"name":"区立教育の森公園","province":"東京都","city":"文京区","address":"東京都文京区大塚3丁目29-1","lat":35.71964352,"lon":139.73724511},{"name":"東京医科歯科大学医学部付属病院","province":"東京都","city":"文京区","address":"東京都文京区湯島1丁目5-45","lat":35.70099629,"lon":139.76491864},{"name":"区立教育の森公園（注２）","province":"東京都","city":"文京区","address":"東京都文京区大塚3丁目29-1","lat":35.71964352,"lon":139.73724511},{"name":"東京大学御殿下グラウンド","province":"東京都","city":"文京区","address":"東京都文京区本郷7丁目3-1","lat":35.71203394,"lon":139.76277932},{"name":"東京大学医学部附属病院ヘリポート","province":"東京都","city":"文京区","address":"東京都文京区本郷7丁目3-1","lat":35.71203394,"lon":139.76277932},{"name":"東京大学農学部グラウンド","province":"東京都","city":"文京区","address":"東京都文京区弥生1丁目1","lat":35.71893042,"lon":139.76032934},{"name":"順天堂大学医学部附属順天堂医院ヘリポート","province":"東京都","city":"文京区","address":"東京都文京区本郷3丁目1-3","lat":35.70250161,"lon":139.76261313},{"name":"東京医科歯科大学医学部附属病院ヘリポート","province":"東京都","city":"文京区","address":"東京都文京区湯島1丁目5-45","lat":35.70099629,"lon":139.76491864},{"name":"目白台運動公園","province":"東京都","city":"文京区","address":"東京都文京区目白台1丁目20-2","lat":35.71545467,"lon":139.72151883},{"name":"文京シビックセンター","province":"東京都","city":"文京区","address":"東京都文京区春日1丁目16-21","lat":35.70794517,"lon":139.75242748},{"name":"(特定非営利活動法人)東京都子ども会連合会","province":"東京都","city":"文京区","address":"東京都文京区大塚6丁目1-14","lat":35.7254565,"lon":139.72843453},{"name":"（一財）インターネット協会","province":"東京都","city":"文京区","address":"東京都文京区湯島2丁目21-1","lat":35.7051709,"lon":139.76638504},{"name":"＊?文京区男女平等センター","province":"東京都","city":"文京区","address":"文京区本郷4-8-3","lat":35.708552,"lon":139.757477},{"name":"中央・城北職業能力開発センター","province":"東京都","city":"文京区","address":"東京都文京区後楽1丁目9-5","lat":35.70352608,"lon":139.74679479},{"name":"小石川中等教育学校","province":"東京都","city":"文京区","address":"東京都文京区本駒込2丁目29-29","lat":35.72883159,"lon":139.74594681},{"name":"教職員研修センター","province":"東京都","city":"文京区","address":"東京都文京区本郷1丁目3-3","lat":35.702432,"lon":139.75672739},{"name":"竹早高等学校","province":"東京都","city":"文京区","address":"東京都文京区小石川4丁目2-1","lat":35.71336381,"lon":139.74350307},{"name":"向丘高等学校","province":"東京都","city":"文京区","address":"東京都文京区向丘1丁目11-18","lat":35.72185769,"lon":139.7545297},{"name":"工芸高等学校","province":"東京都","city":"文京区","address":"東京都文京区本郷1丁目3-9","lat":35.70258197,"lon":139.75616354},{"name":"文京スポーツセンター","province":"東京都","city":"文京区","address":"東京都文京区大塚3丁目29-2","lat":35.72054062,"lon":139.73641181},{"name":"文京区本庁舎","province":"東京都","city":"文京区","address":"文京区春日1-16-21","lat":35.707951,"lon":139.752431},{"name":"第五方面交通機動隊","province":"東京都","city":"文京区","address":"文京区春日1-5-12","lat":35.70814,"lon":139.7478},{"name":"第五方面本部","province":"東京都","city":"文京区","address":"文京区春日1-5-12","lat":35.70814,"lon":139.7478},{"name":"大塚警察署","province":"東京都","city":"文京区","address":"文京区目白台3-28-3/(平成27年8月まで)","lat":35.71681,"lon":139.7263},{"name":"駒込警察署","province":"東京都","city":"文京区","address":"文京区本駒込2-28-18","lat":35.7311,"lon":139.7483},{"name":"富坂警察署","province":"東京都","city":"文京区","address":"文京区小石川2-14-2","lat":35.7105,"lon":139.747},{"name":"本富士警察署","province":"東京都","city":"文京区","address":"文京区本郷7-1-7","lat":35.70775,"lon":139.7634},{"name":"小石川消防署","province":"東京都","city":"文京区","address":"文京区白山3-3-1","lat":35.7191,"lon":139.7428},{"name":"本郷消防署","province":"東京都","city":"文京区","address":"文京区本郷7-1-11","lat":35.70786,"lon":139.7629},{"name":"東京大学御殿下グラウンド","province":"東京都","city":"文京区","address":"文京区本郷7-3-1","lat":35.712062,"lon":139.762697},{"name":"東京大学医学部付属病院ヘリポート","province":"東京都","city":"文京区","address":"文京区本郷7-3-1","lat":35.712062,"lon":139.762697},{"name":"順天堂大学医学部附属順天堂医院ヘリポート","province":"東京都","city":"文京区","address":"文京区本郷3-1-3","lat":35.702238,"lon":139.762486},{"name":"東京医科歯科大学医学部附属病院ヘリポート","province":"東京都","city":"文京区","address":"文京区湯島1-5-45","lat":35.700977,"lon":139.764941},{"name":"市兵衛河岸","province":"東京都","city":"文京区","address":"文京区後楽1丁目","lat":35.7053,"lon":139.7519},{"name":"六義園","province":"東京都","city":"文京区","address":"東京都文京区本駒込6丁目16-3","lat":35.7323312,"lon":139.74696603},{"name":"東京大学","province":"東京都","city":"文京区","address":"東京都文京区本郷7丁目","lat":35.71343101,"lon":139.76231265},{"name":"後楽園一帯","province":"東京都","city":"文京区","address":"東京都文京区春日1丁目","lat":35.70791725,"lon":139.74644188},{"name":"お茶の水女子大学一帯・教育の森公園一帯","province":"東京都","city":"文京区","address":"東京都文京区大塚2丁目","lat":35.72012384,"lon":139.7304068},{"name":"護国寺一帯","province":"東京都","city":"文京区","address":"東京都文京区大塚5丁目","lat":35.72432056,"lon":139.72975112},{"name":"小石川植物園","province":"東京都","city":"文京区","address":"東京都文京区白山3丁目7-1","lat":35.71847994,"lon":139.74435284},{"name":"目白台運動公園付近一帯","province":"東京都","city":"文京区","address":"東京都文京区関口2丁目","lat":35.71124979,"lon":139.72915442},{"name":"礫川小学校","province":"東京都","city":"文京区","address":"文京区小石川2丁目13番2号","lat":35.710834,"lon":139.747575},{"name":"柳町小学校","province":"東京都","city":"文京区","address":"文京区小石川1丁目23番16号","lat":35.714459,"lon":139.750138},{"name":"指ケ谷小学校","province":"東京都","city":"文京区","address":"文京区白山2丁目28番4号","lat":35.717306,"lon":139.750767},{"name":"林町小学校","province":"東京都","city":"文京区","address":"文京区千石2丁目36番3号","lat":35.724322,"lon":139.742248},{"name":"明化小学校","province":"東京都","city":"文京区","address":"文京区千石1丁目13番9号","lat":35.724833,"lon":139.744881},{"name":"青柳小学校","province":"東京都","city":"文京区","address":"文京区大塚5丁目40番18号","lat":35.720417,"lon":139.725097},{"name":"関口台町小学校","province":"東京都","city":"文京区","address":"文京区関口2丁目6番1号","lat":35.711867,"lon":139.726757},{"name":"小日向台町小学校","province":"東京都","city":"文京区","address":"文京区小日向2丁目3番8号","lat":35.713213,"lon":139.735631},{"name":"金富小学校","province":"東京都","city":"文京区","address":"文京区春日2丁目6番15号","lat":35.710831,"lon":139.741619},{"name":"窪町小学校","province":"東京都","city":"文京区","address":"文京区大塚3丁目2番3号","lat":35.718877,"lon":139.735629},{"name":"大塚小学校","province":"東京都","city":"文京区","address":"文京区大塚4丁目1番7号","lat":35.723729,"lon":139.73638},{"name":"湯島小学校","province":"東京都","city":"文京区","address":"文京区湯島2丁目28番14号","lat":35.706572,"lon":139.766568},{"name":"誠之小学校","province":"東京都","city":"文京区","address":"文京区西片2丁目14番6号","lat":35.717943,"lon":139.754029},{"name":"根津小学校","province":"東京都","city":"文京区","address":"文京区根津1丁目14番3号","lat":35.718439,"lon":139.763222},{"name":"千駄木小学校","province":"東京都","city":"文京区","address":"文京区千駄木5丁目44番2号","lat":35.72914,"lon":139.758951},{"name":"汐見小学校","province":"東京都","city":"文京区","address":"文京区千駄木2丁目19番23号","lat":35.723733,"lon":139.760914},{"name":"昭和小学校","province":"東京都","city":"文京区","address":"文京区本駒込2丁目28番31号","lat":35.731554,"lon":139.749485},{"name":"駒本小学校","province":"東京都","city":"文京区","address":"文京区向丘2丁目37番5号","lat":35.724618,"lon":139.754577},{"name":"駕籠町小学校","province":"東京都","city":"文京区","address":"文京区本駒込2丁目29番6号","lat":35.728362,"lon":139.7458},{"name":"本郷小学校","province":"東京都","city":"文京区","address":"文京区本郷4丁目5番15号","lat":35.708093,"lon":139.758136},{"name":"旧元町小学校","province":"東京都","city":"文京区","address":"文京区本郷1丁目1番19号","lat":35.703038,"lon":139.757922},{"name":"第一中学校","province":"東京都","city":"文京区","address":"文京区小石川5丁目8番9号","lat":35.718013,"lon":139.738682},{"name":"第三中学校","province":"東京都","city":"文京区","address":"文京区春日1丁目9番31号","lat":35.709151,"lon":139.746671},{"name":"第六中学校","province":"東京都","city":"文京区","address":"文京区向丘1丁目2番2号","lat":35.717074,"lon":139.757726},{"name":"第八中学校","province":"東京都","city":"文京区","address":"文京区千駄木2丁目19番22号","lat":35.724322,"lon":139.761015},{"name":"第九中学校","province":"東京都","city":"文京区","address":"文京区本駒込3丁目28番9号","lat":35.729654,"lon":139.75278},{"name":"第十中学校","province":"東京都","city":"文京区","address":"文京区千石2丁目40番17号","lat":35.723516,"lon":139.742538},{"name":"文林中学校","province":"東京都","city":"文京区","address":"文京区千駄木5丁目25番10号","lat":35.728052,"lon":139.758572},{"name":"茗台中学校","province":"東京都","city":"文京区","address":"文京区春日2丁目9番5号","lat":35.713539,"lon":139.741205},{"name":"本郷台中学校","province":"東京都","city":"文京区","address":"文京区本郷2丁目38番23号","lat":35.706951,"lon":139.758938},{"name":"音羽中学校","province":"東京都","city":"文京区","address":"文京区大塚1丁目9番24号","lat":35.717217,"lon":139.73279},{"name":"文京江戸川橋体育館","province":"東京都","city":"文京区","address":"文京区小日向1丁目7番4号","lat":35.710603,"lon":139.73546},{"name":"教育センター","province":"東京都","city":"文京区","address":"文京区湯島4丁目7番10号","lat":35.708987,"lon":139.76575},{"name":"森鴎外記念館","province":"東京都","city":"文京区","address":"東京都文京区千駄木1丁目23番地4号","lat":35.724927,"lon":139.7606},{"name":"不忍通りふれあい館","province":"東京都","city":"文京区","address":"東京都文京区根津2丁目20番地7号","lat":35.719172,"lon":139.764146},{"name":"文京ふるさと歴史館","province":"東京都","city":"文京区","address":"東京都文京区本郷4丁目9番地29号","lat":35.708014,"lon":139.756669},{"name":"文京シビックセンターアトリウム","province":"東京都","city":"文京区","address":"東京都文京区春日1丁目16番地21号地下2階から3階まで","lat":35.707932,"lon":139.752085},{"name":"文京シビックセンター25階展望ラウンジ","province":"東京都","city":"文京区","address":"東京都文京区春日1丁目16番地21号25階","lat":35.708132,"lon":139.752321},{"name":"松聲閣","province":"東京都","city":"文京区","address":"東京都文京区目白台1丁目1番地22号","lat":35.7131,"lon":139.721771},{"name":"江戸川公園","province":"東京都","city":"文京区","address":"東京都文京区関口2丁目-1番地","lat":35.711015,"lon":139.730893},{"name":"小石川運動場","province":"東京都","city":"文京区","address":"東京都文京区後楽1丁目‐8番地‐23","lat":35.705146,"lon":139.746479},{"name":"目白台運動公園","province":"東京都","city":"文京区","address":"東京都文京区目白台1丁目20番地","lat":35.715366,"lon":139.721551},{"name":"教育の森公園","province":"東京都","city":"文京区","address":"東京都文京区大塚3丁目29番地","lat":35.720479,"lon":139.735401},{"name":"江戸川橋体育館","province":"東京都","city":"文京区","address":"東京都文京区小日向1丁目7番地4号","lat":35.710603,"lon":139.735485},{"name":"教育センター","province":"東京都","city":"文京区","address":"東京都文京区湯島4丁目7番地10号","lat":35.708668,"lon":139.765461},{"name":"文京総合体育館","province":"東京都","city":"文京区","address":"東京都文京区本郷7丁目1番地2号","lat":35.708137,"lon":139.763335},{"name":"文京スポーツセンター","province":"東京都","city":"文京区","address":"東京都文京区大塚3丁目29番地2号","lat":35.72054,"lon":139.736595},{"name":"男女平等センター","province":"東京都","city":"文京区","address":"東京都文京区本郷4丁目8番地3号","lat":35.708605,"lon":139.757683},{"name":"区民センター","province":"東京都","city":"文京区","address":"東京都文京区本郷4丁目15番地14号","lat":35.709057,"lon":139.754146},{"name":"六義公園運動場","province":"東京都","city":"文京区","address":"東京都文京区本駒込6丁目16番地10号","lat":35.73165,"lon":139.746452},{"name":"礫川地域活動センター","province":"東京都","city":"文京区","address":"東京都文京区小石川2丁目18番地18号","lat":35.712128,"lon":139.750306},{"name":"大原地域活動センター","province":"東京都","city":"文京区","address":"東京都文京区千石1丁目4番地3号","lat":35.724675,"lon":139.743343},{"name":"大塚地域活動センター","province":"東京都","city":"文京区","address":"東京都文京区大塚1丁目5番地17号","lat":35.71879,"lon":139.734637},{"name":"音羽地域活動センター","province":"東京都","city":"文京区","address":"東京都文京区音羽1丁目22番地14号","lat":35.714074,"lon":139.729812},{"name":"湯島地域活動センター","province":"東京都","city":"文京区","address":"東京都文京区本郷7丁目1番地2号","lat":35.708311,"lon":139.763317},{"name":"向丘地域活動センター","province":"東京都","city":"文京区","address":"東京都文京区向丘1丁目20番地8号","lat":35.717508,"lon":139.757945},{"name":"根津地域活動センター","province":"東京都","city":"文京区","address":"東京都文京区根津2丁目20番地7号","lat":35.719417,"lon":139.764144},{"name":"汐見地域活動センター","province":"東京都","city":"文京区","address":"東京都文京区千駄木3丁目2番地6号","lat":35.725755,"lon":139.76147},{"name":"駒込地域活動センター","province":"東京都","city":"文京区","address":"東京都文京区本駒込3丁目22番地4号","lat":35.728779,"lon":139.752266},{"name":"勤労福祉会館","province":"東京都","city":"文京区","address":"東京都文京区本駒込4丁目35番地15号","lat":35.734396,"lon":139.755422},{"name":"文京総合福祉センター","province":"東京都","city":"文京区","address":"東京都文京区小日向2丁目16番地15号","lat":35.71058,"lon":139.734474},{"name":"保健サービスセンター本郷支所","province":"東京都","city":"文京区","address":"東京都文京区千駄木5丁目20番地18号","lat":35.727059,"lon":139.76046},{"name":"福祉センター湯島","province":"東京都","city":"文京区","address":"東京都文京区本郷3丁目10番地18号","lat":35.704254,"lon":139.763506},{"name":"福祉センター江戸川橋","province":"東京都","city":"文京区","address":"東京都文京区小日向2丁目16番地15号","lat":35.71058,"lon":139.734474},{"name":"髪ファッション四季　音羽店","province":"東京都","city":"文京区","address":"東京都文京区音羽2丁目2番地2号アベニュー音羽107号","lat":35.718481,"lon":139.728018},{"name":"ごはん茶々","province":"東京都","city":"文京区","address":"東京都文京区音羽1丁目25番地12号中銀第2音羽マンション1階","lat":35.71266,"lon":139.730451},{"name":"高崎屋商店","province":"東京都","city":"文京区","address":"東京都文京区向丘1丁目1番地17号","lat":35.716243,"lon":139.758335},{"name":"大坂や茶店","province":"東京都","city":"文京区","address":"東京都文京区向丘1丁目9番地22号","lat":35.722349,"lon":139.752954},{"name":"東京新聞千石専売所","province":"東京都","city":"文京区","address":"東京都文京区千石4丁目4番地1号永瀬ビル1階","lat":35.728494,"lon":139.742046},{"name":"田上商店","province":"東京都","city":"文京区","address":"東京都文京区千石1丁目9番地19号","lat":35.725156,"lon":139.744718},{"name":"近藤クリニック","province":"東京都","city":"文京区","address":"東京都文京区千石4丁目3番地16号Tハウス1階","lat":35.727655,"lon":139.740958},{"name":"大むら　そば店","province":"東京都","city":"文京区","address":"東京都文京区白山5丁目3番地7号","lat":35.720561,"lon":139.750782},{"name":"白山オステオパシー","province":"東京都","city":"文京区","address":"東京都文京区白山1丁目31番地7号鈴木ビル2階","lat":35.719207,"lon":139.751603},{"name":"株式会社平田工業所","province":"東京都","city":"文京区","address":"東京都文京区白山3丁目6番地4号","lat":35.720182,"lon":139.74117},{"name":"文京不動産レジデンシャル株式会社","province":"東京都","city":"文京区","address":"東京都文京区春日1丁目12番地6号パーク白木1階","lat":35.709692,"lon":139.747778},{"name":"痛くないハリ治療　みょうが鍼灸店","province":"東京都","city":"文京区","address":"東京都文京区小石川5丁目3番地2号エイト第2ビル1階","lat":35.716447,"lon":139.739034},{"name":"リラクゼーション整体サロンSILKY","province":"東京都","city":"文京区","address":"東京都文京区小石川1丁目3番地23号ル・ビジュー306号","lat":35.709514,"lon":139.753036},{"name":"cafeBASE","province":"東京都","city":"文京区","address":"東京都文京区小石川4丁目21番地4号小石川安田ビル1階","lat":35.715065,"lon":139.740386},{"name":"岩佐歯科クリニック","province":"東京都","city":"文京区","address":"東京都文京区小日向4丁目4番地3号カーネ小日向101号","lat":35.715955,"lon":139.739082},{"name":"ハギデンキ","province":"東京都","city":"文京区","address":"東京都文京区小日向4丁目5番地16号ツインヒルズ茗荷谷102号","lat":35.716227,"lon":139.738787},{"name":"坪田デンタルクリニック","province":"東京都","city":"文京区","address":"東京都文京区小日向4丁目7番地14号坪田ビル1階","lat":35.716757,"lon":139.737111},{"name":"中川青果店","province":"東京都","city":"文京区","address":"東京都文京区千駄木2丁目39番地8号","lat":35.723155,"lon":139.763206},{"name":"貸し工房　創作CLUB","province":"東京都","city":"文京区","address":"東京都文京区千駄木3丁目44番地9号パレドール千駄木2101号","lat":35.728893,"lon":139.764241},{"name":"JewelSelect","province":"東京都","city":"文京区","address":"東京都文京区千駄木2丁目33番地4号ウイン千駄木104号","lat":35.723845,"lon":139.76298},{"name":"麺や　ひだまり","province":"東京都","city":"文京区","address":"東京都文京区千駄木3丁目43番地9号","lat":35.728611,"lon":139.764389},{"name":"wish","province":"東京都","city":"文京区","address":"東京都文京区千駄木3丁目34番地9号パークウェル千駄木駅前1階","lat":35.725654,"lon":139.763101},{"name":"工房東京窯志舎","province":"東京都","city":"文京区","address":"東京都文京区本駒込3丁目5番地6号ライオンズMS本駒込101号","lat":35.726275,"lon":139.753565},{"name":"Tippi","province":"東京都","city":"文京区","address":"東京都文京区本駒込4丁目39番地2号リーラ文京本駒込108号","lat":35.732656,"lon":139.757581},{"name":"アオアシ　カフェ","province":"東京都","city":"文京区","address":"東京都文京区本駒込1丁目2番地5号ルネ文京白山1階","lat":35.723144,"lon":139.752901},{"name":"板倉茶屋　要","province":"東京都","city":"文京区","address":"東京都文京区湯島3丁目44番地9号湯島要ビル5階","lat":35.709053,"lon":139.771374},{"name":"BistroKouzo","province":"東京都","city":"文京区","address":"東京都文京区湯島4丁目6番地17号","lat":35.707973,"lon":139.767387},{"name":"クラブMINT","province":"東京都","city":"文京区","address":"東京都文京区湯島3丁目38番地11号エスパス上野広小路ビル8階","lat":35.708055,"lon":139.771102},{"name":"こいけ鍼灸整骨院","province":"東京都","city":"文京区","address":"東京都文京区本郷5丁目1番地3号コーポ菊坂101号","lat":35.708331,"lon":139.759905},{"name":"めがね工房なかじま","province":"東京都","city":"文京区","address":"東京都文京区本郷3丁目38番地10号さかえビル1階","lat":35.707444,"lon":139.762838},{"name":"hairiota","province":"東京都","city":"文京区","address":"東京都文京区本郷4丁目27番地11号中村ビル102号","lat":35.71129,"lon":139.75503},{"name":"99ルート・デュ・ショコラ　本郷店","province":"東京都","city":"文京区","address":"東京都文京区本郷2丁目13番地10号湯浅ビル1階","lat":35.704016,"lon":139.761567},{"name":"MEGRO","province":"東京都","city":"文京区","address":"東京都文京区本郷2丁目40番地13号本郷コーポレイション104号","lat":35.707145,"lon":139.76045},{"name":"やさしい野菜屋さん","province":"東京都","city":"文京区","address":"東京都文京区本郷3丁目41番地10号矢作ビル1階","lat":35.707146,"lon":139.763892},{"name":"シャリエ本郷管理組合","province":"東京都","city":"文京区","address":"東京都文京区本郷1丁目34番地1号シャリエ本郷管理室","lat":35.706805,"lon":139.754369},{"name":"マックフォトサービス","province":"東京都","city":"文京区","address":"東京都文京区本郷2丁目31番地1号","lat":35.705255,"lon":139.758614},{"name":"いごこちDININGたかの家","province":"東京都","city":"文京区","address":"東京都文京区本郷1丁目15番地2号三沢第一ビル地下1階","lat":35.70423,"lon":139.755289},{"name":"おにぎりカフェ利さく","province":"東京都","city":"文京区","address":"東京都文京区千駄木2丁目31番地6号","lat":35.724333,"lon":139.762774},{"name":"SAKE&WINEtono;4122","province":"東京都","city":"文京区","address":"東京都文京区千駄木4丁目1番地22号","lat":35.730574,"lon":139.761139},{"name":"hairsalonancal","province":"東京都","city":"文京区","address":"東京都文京区大塚3丁目34番地9号ライオンズMS小石川植物園105号","lat":35.721341,"lon":139.739618},{"name":"風のやすみば","province":"東京都","city":"文京区","address":"東京都文京区千石4丁目5-2水野ビル1階","lat":35.727963,"lon":139.739508},{"name":"常心亭","province":"東京都","city":"文京区","address":"東京都文京区水道2丁目6-4マ・メゾン小日向101号","lat":35.709539,"lon":139.735496},{"name":"鳥勝","province":"東京都","city":"文京区","address":"東京都文京区根津2丁目20-17","lat":35.718789,"lon":139.764989},{"name":"運動発達支援スタジオＵＮＩＭＯ後楽園","province":"東京都","city":"文京区","address":"文京区小石川2-25-10","lat":35.712211,"lon":139.750652},{"name":"富坂子どもの家","province":"東京都","city":"文京区","address":"文京区小石川2-17-41","lat":35.711125,"lon":139.748361},{"name":"発達支援ルーム　ぽけっと","province":"東京都","city":"文京区","address":"文京区小石川5-38-2クレストヒルズ小石川2階","lat":35.718166,"lon":139.742953},{"name":"放課後等デイサービス　びおら","province":"東京都","city":"文京区","address":"文京区小日向2丁目16-15","lat":35.710581,"lon":139.734582},{"name":"運動発達支援スタジオＵＮＩＭＯ文京千石","province":"東京都","city":"文京区","address":"文京区千石1-29-12千石片岡ビル101","lat":35.727271,"lon":139.74518},{"name":"放課後等デイサービス　あんプラス江戸川橋","province":"東京都","city":"文京区","address":"文京区関口1-48-6日火江戸川橋ビル第2201","lat":35.709486,"lon":139.730463},{"name":"エデュクエスト","province":"東京都","city":"文京区","address":"文京区白山1-18-7石川ビル202号室","lat":35.717747,"lon":139.752236},{"name":"放課後等デイサービス　カリタス翼","province":"東京都","city":"文京区","address":"文京区本駒込5-4-4","lat":35.732379,"lon":139.750074},{"name":"文京区放課後等デイサービスＪＯＹ","province":"東京都","city":"文京区","address":"文京区本駒込四丁目35番15号文京区勤労福祉会館2階","lat":35.733468,"lon":139.75514},{"name":"ハッピーテラス千駄木教室","province":"東京都","city":"文京区","address":"文京区根津2-37-8","lat":35.72118,"lon":139.76241},{"name":"文京区児童発達支援センター","province":"東京都","city":"文京区","address":"文京区湯島4-7-10","lat":35.708848,"lon":139.765768},{"name":"文京区子ども家庭支援センター","province":"東京都","city":"文京区","address":"文京区春日1-16-21シビックセンター5階","lat":35.707951,"lon":139.75243},{"name":"文京区子ども家庭支援センター","province":"東京都","city":"文京区","address":"文京区春日1-16-21シビックセンター5階","lat":35.70794,"lon":139.75278},{"name":"壱岐坂下","province":"東京都","city":"文京区","address":"東京都文京区後楽1丁目3-61","lat":35.70486136,"lon":139.75272149},{"name":"伝通院前","province":"東京都","city":"文京区","address":"東京都文京区小石川3丁目1-1","lat":35.71078082,"lon":139.74631679},{"name":"西片","province":"東京都","city":"文京区","address":"東京都文京区小石川1丁目9-1","lat":35.71130314,"lon":139.75246066},{"name":"富坂下","province":"東京都","city":"文京区","address":"東京都文京区小石川2丁目1-1","lat":35.7087284,"lon":139.7515803},{"name":"水道橋","province":"東京都","city":"文京区","address":"東京都文京区後楽1丁目3-61","lat":35.70486136,"lon":139.75272149},{"name":"春日町","province":"東京都","city":"文京区","address":"東京都文京区春日1丁目16-27","lat":35.70812018,"lon":139.75333017},{"name":"千石一丁目","province":"東京都","city":"文京区","address":"東京都文京区本駒込2丁目29-27","lat":35.72887043,"lon":139.74438305},{"name":"安藤坂","province":"東京都","city":"文京区","address":"東京都文京区春日1丁目8-3","lat":35.70796444,"lon":139.74531698},{"name":"白山下","province":"東京都","city":"文京区","address":"東京都文京区白山2丁目39-8","lat":35.71970225,"lon":139.75146054},{"name":"後楽園駅前","province":"東京都","city":"文京区","address":"東京都文京区春日1丁目2-3","lat":35.70735077,"lon":139.75114429},{"name":"窪町東公園前","province":"東京都","city":"文京区","address":"東京都文京区大塚3丁目32","lat":35.72059904,"lon":139.73987817},{"name":"こんにゃくえんま前","province":"東京都","city":"文京区","address":"東京都文京区小石川2丁目23-14","lat":35.71069206,"lon":139.75136356},{"name":"牛天神下","province":"東京都","city":"文京区","address":"東京都文京区後楽2丁目5-1","lat":35.70552861,"lon":139.74602812},{"name":"茗台中学校前","province":"東京都","city":"文京区","address":"東京都文京区春日2丁目9-5","lat":35.71346374,"lon":139.74103385},{"name":"明化小学校入口","province":"東京都","city":"文京区","address":"東京都文京区千石1丁目6-19","lat":35.72699281,"lon":139.74224719},{"name":"小石川植物園前","province":"東京都","city":"文京区","address":"東京都文京区白山2丁目14-6","lat":35.71733564,"lon":139.74502781},{"name":"竹早小学校入口","province":"東京都","city":"文京区","address":"東京都文京区小石川4丁目17-1","lat":35.71536633,"lon":139.74236978},{"name":"小石川税務署前","province":"東京都","city":"文京区","address":"東京都文京区後楽1丁目7-19","lat":35.70662298,"lon":139.74766961},{"name":"白山三丁目","province":"東京都","city":"文京区","address":"東京都文京区小石川5丁目37-6","lat":35.71893261,"lon":139.74201414},{"name":"小石川五丁目","province":"東京都","city":"文京区","address":"東京都文京区小石川5丁目1-12","lat":35.7156718,"lon":139.7399061},{"name":"千石三丁目第二","province":"東京都","city":"文京区","address":"東京都文京区千石3丁目3-7","lat":35.72480123,"lon":139.73621722},{"name":"飯田橋職安前","province":"東京都","city":"文京区","address":"東京都文京区後楽1丁目9-20","lat":35.70364551,"lon":139.74712809},{"name":"白山二丁目","province":"東京都","city":"文京区","address":"東京都文京区白山1丁目6-4","lat":35.71557769,"lon":139.75229946},{"name":"隆慶橋東詰","province":"東京都","city":"文京区","address":"東京都文京区後楽2丁目3-13","lat":35.70475922,"lon":139.74478104},{"name":"第十中学校入口","province":"東京都","city":"文京区","address":"東京都文京区千石1丁目6-12","lat":35.72598458,"lon":139.74184447},{"name":"金富小学校前","province":"東京都","city":"文京区","address":"東京都文京区春日2丁目6-15","lat":35.7108307,"lon":139.74161999},{"name":"白山交番西","province":"東京都","city":"文京区","address":"東京都文京区白山2丁目39-5","lat":35.71968002,"lon":139.751355},{"name":"白山四丁目第一","province":"東京都","city":"文京区","address":"東京都文京区白山4丁目36-12","lat":35.72254903,"lon":139.7476191},{"name":"小石川保健所前","province":"東京都","city":"文京区","address":"東京都文京区春日1丁目9-21","lat":35.70814221,"lon":139.74611413},{"name":"窪町東公園北","province":"東京都","city":"文京区","address":"東京都文京区大塚3丁目38-12","lat":35.72186276,"lon":139.73882267},{"name":"中通り入口","province":"東京都","city":"文京区","address":"東京都文京区春日1丁目7-12","lat":35.7074534,"lon":139.74605861},{"name":"小石川運動場前","province":"東京都","city":"文京区","address":"東京都文京区後楽1丁目8","lat":35.70462595,"lon":139.74661143},{"name":"柳町小学校入口","province":"東京都","city":"文京区","address":"東京都文京区小石川1丁目23-6","lat":35.71370563,"lon":139.75092185},{"name":"白山四丁目","province":"東京都","city":"文京区","address":"東京都文京区白山4丁目34-12","lat":35.72080483,"lon":139.74934402},{"name":"白山交番南","province":"東京都","city":"文京区","address":"東京都文京区白山1丁目31-6","lat":35.71904121,"lon":139.75161333},{"name":"小石川後楽園入口","province":"東京都","city":"文京区","address":"東京都文京区後楽1丁目8","lat":35.70462595,"lon":139.74661143},{"name":"大塚特別支援学校前","province":"東京都","city":"文京区","address":"東京都文京区春日1丁目9-9","lat":35.70802281,"lon":139.7472307},{"name":"新隆慶橋東詰","province":"東京都","city":"文京区","address":"東京都文京区後楽2丁目6-1","lat":35.70525084,"lon":139.74505878},{"name":"茗荷谷駅前","province":"東京都","city":"文京区","address":"東京都文京区小石川5丁目5-5","lat":35.71791038,"lon":139.73713962},{"name":"古川橋","province":"東京都","city":"文京区","address":"東京都文京区関口1丁目17","lat":35.70882798,"lon":139.73519287},{"name":"目白坂下","province":"東京都","city":"文京区","address":"東京都文京区音羽1丁目25-15","lat":35.71244413,"lon":139.73040427},{"name":"目白台二丁目","province":"東京都","city":"文京区","address":"東京都文京区目白台1丁目15-9","lat":35.71664333,"lon":139.7181413},{"name":"大塚三丁目","province":"東京都","city":"文京区","address":"東京都文京区大塚4丁目45-11","lat":35.72181258,"lon":139.73188993},{"name":"護国寺前","province":"東京都","city":"文京区","address":"東京都文京区大塚5丁目40-8","lat":35.72028204,"lon":139.72657655},{"name":"大塚警察署前","province":"東京都","city":"文京区","address":"東京都文京区音羽2丁目12-26","lat":35.71707411,"lon":139.727996},{"name":"護国寺南","province":"東京都","city":"文京区","address":"東京都文京区音羽2丁目11-25","lat":35.71900999,"lon":139.72723488},{"name":"大塚五丁目","province":"東京都","city":"文京区","address":"東京都文京区大塚4丁目51-5","lat":35.72531213,"lon":139.73044825},{"name":"目白台郵便局前","province":"東京都","city":"文京区","address":"東京都文京区目白台2丁目7-8","lat":35.71785996,"lon":139.72162984},{"name":"護国寺西","province":"東京都","city":"文京区","address":"東京都文京区音羽2丁目12","lat":35.71938771,"lon":139.72674046},{"name":"大塚四丁目","province":"東京都","city":"文京区","address":"東京都文京区大塚3丁目11-7","lat":35.72153767,"lon":139.733887},{"name":"大塚一丁目","province":"東京都","city":"文京区","address":"東京都文京区大塚3丁目3-14","lat":35.71920185,"lon":139.73525363},{"name":"江戸川公園前","province":"東京都","city":"文京区","address":"東京都文京区音羽1丁目1-1","lat":35.71119986,"lon":139.73157366},{"name":"目白台三丁目","province":"東京都","city":"文京区","address":"東京都文京区目白台1丁目23-7","lat":35.71500202,"lon":139.72446581},{"name":"音羽一丁目","province":"東京都","city":"文京区","address":"東京都文京区音羽1丁目20-2","lat":35.71510769,"lon":139.72913762},{"name":"音羽一丁目南","province":"東京都","city":"文京区","address":"東京都文京区音羽1丁目22-14","lat":35.71390228,"lon":139.72967651},{"name":"坂下通り入口","province":"東京都","city":"文京区","address":"東京都文京区大塚5丁目17-3","lat":35.72129314,"lon":139.73017899},{"name":"目白台二丁目第三","province":"東京都","city":"文京区","address":"東京都文京区目白台2丁目14-11","lat":35.7188571,"lon":139.72284637},{"name":"小日向一丁目","province":"東京都","city":"文京区","address":"東京都文京区春日2丁目8-13","lat":35.71093066,"lon":139.74042843},{"name":"大日坂下","province":"東京都","city":"文京区","address":"東京都文京区小日向2丁目18-5","lat":35.71097493,"lon":139.73351794},{"name":"華水橋","province":"東京都","city":"文京区","address":"東京都文京区関口1丁目20-6","lat":35.70939454,"lon":139.73325691},{"name":"大塚四丁目第二","province":"東京都","city":"文京区","address":"東京都文京区大塚3丁目27-2","lat":35.72224318,"lon":139.73566737},{"name":"大塚公園入口","province":"東京都","city":"文京区","address":"東京都文京区大塚4丁目49","lat":35.72415396,"lon":139.73177596},{"name":"跡見学園前","province":"東京都","city":"文京区","address":"東京都文京区大塚2丁目1-18","lat":35.71814638,"lon":139.73367881},{"name":"開運坂下","province":"東京都","city":"文京区","address":"東京都文京区大塚5丁目13-11","lat":35.7252593,"lon":139.72848453},{"name":"目白台運動場前","province":"東京都","city":"文京区","address":"東京都文京区目白台2丁目3-2","lat":35.71597961,"lon":139.72155769},{"name":"筑波大附属小学校入口","province":"東京都","city":"文京区","address":"東京都文京区大塚3丁目6-7","lat":35.72031559,"lon":139.73425369},{"name":"筑波大附属中学校前","province":"東京都","city":"文京区","address":"東京都文京区大塚2丁目1-1","lat":35.71878795,"lon":139.73262888},{"name":"目白台三丁目第二","province":"東京都","city":"文京区","address":"東京都文京区目白台1丁目21-2","lat":35.71430764,"lon":139.72373535},{"name":"筑波大学正門前","province":"東京都","city":"文京区","address":"東京都文京区大塚3丁目30","lat":35.71982964,"lon":139.73842},{"name":"茗荷谷駅前交番前","province":"東京都","city":"文京区","address":"東京都文京区小石川5丁目5-7","lat":35.71808257,"lon":139.73667576},{"name":"根津一丁目","province":"東京都","city":"文京区","address":"東京都文京区根津2丁目12-7","lat":35.71785574,"lon":139.76550131},{"name":"東大農学部前","province":"東京都","city":"文京区","address":"東京都文京区弥生1丁目1-1","lat":35.71678895,"lon":139.76026548},{"name":"東大正門前","province":"東京都","city":"文京区","address":"東京都文京区本郷7丁目3-1","lat":35.71203394,"lon":139.76277932},{"name":"湯島五差路","province":"東京都","city":"文京区","address":"東京都文京区本郷3丁目3-12","lat":35.70305157,"lon":139.76312697},{"name":"本郷二丁目","province":"東京都","city":"文京区","address":"東京都文京区本郷3丁目15-1","lat":35.70460969,"lon":139.76178529},{"name":"順天堂前","province":"東京都","city":"文京区","address":"東京都文京区本郷3丁目1-3","lat":35.70250161,"lon":139.76261313},{"name":"根津小学校入口","province":"東京都","city":"文京区","address":"東京都文京区根津2丁目20-7","lat":35.71920834,"lon":139.76417635},{"name":"本郷弥生","province":"東京都","city":"文京区","address":"東京都文京区弥生1丁目1-1","lat":35.71678895,"lon":139.76026548},{"name":"お茶の水","province":"東京都","city":"文京区","address":"東京都文京区湯島1丁目5-45","lat":35.70099629,"lon":139.76491864},{"name":"本郷三丁目","province":"東京都","city":"文京区","address":"東京都文京区本郷4丁目2-1","lat":35.70765375,"lon":139.76038242},{"name":"壱岐坂上","province":"東京都","city":"文京区","address":"東京都文京区本郷2丁目26-1","lat":35.7048763,"lon":139.76080755},{"name":"清水坂下","province":"東京都","city":"文京区","address":"東京都文京区湯島2丁目1-1","lat":35.70305723,"lon":139.76642959},{"name":"三組坂下","province":"東京都","city":"文京区","address":"東京都文京区湯島3丁目14-10","lat":35.7048766,"lon":139.7696349},{"name":"本郷追分","province":"東京都","city":"文京区","address":"東京都文京区向丘2丁目8-7","lat":35.71949969,"lon":139.75717399},{"name":"本郷消防署前","province":"東京都","city":"文京区","address":"東京都文京区本郷7丁目1-11","lat":35.70785938,"lon":139.76294619},{"name":"壱岐坂通り","province":"東京都","city":"文京区","address":"東京都文京区本郷2丁目21-4","lat":35.70448739,"lon":139.75906877},{"name":"根津神社入口","province":"東京都","city":"文京区","address":"東京都文京区根津2丁目29-2","lat":35.71998601,"lon":139.76328195},{"name":"本郷小学校前","province":"東京都","city":"文京区","address":"東京都文京区本郷4丁目5-10","lat":35.70759814,"lon":139.7581409},{"name":"三組坂上","province":"東京都","city":"文京区","address":"東京都文京区湯島3丁目4-7","lat":35.70481819,"lon":139.76739057},{"name":"湯島二丁目","province":"東京都","city":"文京区","address":"東京都文京区湯島2丁目18-6","lat":35.70556525,"lon":139.76474622},{"name":"湯島中坂下","province":"東京都","city":"文京区","address":"東京都文京区湯島3丁目25-11","lat":35.70662919,"lon":139.76975705},{"name":"本郷消防署前第二","province":"東京都","city":"文京区","address":"東京都文京区本郷3丁目27-1","lat":35.70596234,"lon":139.76226576},{"name":"大横丁出口","province":"東京都","city":"文京区","address":"東京都文京区本郷3丁目16-9","lat":35.70557623,"lon":139.7611825},{"name":"天神町交番前","province":"東京都","city":"文京区","address":"東京都文京区湯島3丁目33-9","lat":35.70753467,"lon":139.76979589},{"name":"真砂坂上","province":"東京都","city":"文京区","address":"東京都文京区本郷4丁目7-2","lat":35.70754256,"lon":139.75721876},{"name":"文京第六中学校裏","province":"東京都","city":"文京区","address":"東京都文京区向丘1丁目20-7","lat":35.71741103,"lon":139.75792952},{"name":"順天堂横","province":"東京都","city":"文京区","address":"東京都文京区本郷2丁目9-8","lat":35.7028932,"lon":139.76171872},{"name":"清水坂下第二","province":"東京都","city":"文京区","address":"東京都文京区湯島2丁目1-5","lat":35.70317665,"lon":139.7660796},{"name":"慈愛病院前","province":"東京都","city":"文京区","address":"東京都文京区本郷6丁目12-5","lat":35.71313919,"lon":139.75682411},{"name":"中坂上","province":"東京都","city":"文京区","address":"東京都文京区湯島3丁目29-3","lat":35.70686245,"lon":139.76810988},{"name":"弥生門入口","province":"東京都","city":"文京区","address":"東京都文京区本郷7丁目3-1","lat":35.71203394,"lon":139.76277932},{"name":"本郷三丁目金助町","province":"東京都","city":"文京区","address":"東京都文京区本郷3丁目24-3","lat":35.70570963,"lon":139.76352682},{"name":"本郷郵便局前","province":"東京都","city":"文京区","address":"東京都文京区本郷6丁目1-15","lat":35.71227821,"lon":139.75908503},{"name":"湯島二丁目郵便局前","province":"東京都","city":"文京区","address":"東京都文京区湯島2丁目22-4","lat":35.70526257,"lon":139.76665448},{"name":"団子坂下","province":"東京都","city":"文京区","address":"東京都文京区千駄木3丁目37-20","lat":35.72495777,"lon":139.76346517},{"name":"上富士前","province":"東京都","city":"文京区","address":"東京都文京区本駒込5丁目3-3","lat":35.73214247,"lon":139.74994361},{"name":"道灌山下","province":"東京都","city":"文京区","address":"東京都文京区千駄木3丁目49-10","lat":35.73017663,"lon":139.76239287},{"name":"駒本小学校前","province":"東京都","city":"文京区","address":"東京都文京区本駒込1丁目6-14","lat":35.72467957,"lon":139.75342415},{"name":"千駄木二丁目","province":"東京都","city":"文京区","address":"東京都文京区根津1丁目27-5","lat":35.72104417,"lon":139.76182089},{"name":"文京グリーンコート前","province":"東京都","city":"文京区","address":"東京都文京区本駒込2丁目28-10","lat":35.73072031,"lon":139.74744106},{"name":"本駒込五丁目坂下","province":"東京都","city":"文京区","address":"東京都文京区本駒込5丁目40-5","lat":35.73331196,"lon":139.75373775},{"name":"駒込橋","province":"東京都","city":"文京区","address":"東京都文京区本駒込6丁目24-6","lat":35.73534474,"lon":139.74733257},{"name":"東洋大学前","province":"東京都","city":"文京区","address":"東京都文京区白山5丁目28-20","lat":35.72357121,"lon":139.74971335},{"name":"向丘一丁目","province":"東京都","city":"文京区","address":"東京都文京区向丘1丁目13-2","lat":35.72026069,"lon":139.75599352},{"name":"動坂上","province":"東京都","city":"文京区","address":"東京都文京区本駒込3丁目18-16","lat":35.73070131,"lon":139.75746536},{"name":"富士神社入口","province":"東京都","city":"文京区","address":"東京都文京区本駒込3丁目31-5","lat":35.73043718,"lon":139.75133247},{"name":"徳源院前","province":"東京都","city":"文京区","address":"東京都文京区本駒込3丁目7-14","lat":35.72652111,"lon":139.75494345},{"name":"駒込日医大前","province":"東京都","city":"文京区","address":"東京都文京区千駄木1丁目1-5","lat":35.72107737,"lon":139.75886828},{"name":"道灌山下東","province":"東京都","city":"文京区","address":"東京都文京区千駄木3丁目50-12","lat":35.73053219,"lon":139.76296227},{"name":"駒込稲荷坂下","province":"東京都","city":"文京区","address":"東京都文京区本駒込5丁目41-7","lat":35.73339253,"lon":139.75439326},{"name":"団子坂東","province":"東京都","city":"文京区","address":"東京都文京区千駄木2丁目35-7","lat":35.72446896,"lon":139.7641457},{"name":"勤労福祉会館前","province":"東京都","city":"文京区","address":"東京都文京区本駒込4丁目46-2","lat":35.73377311,"lon":139.75567094},{"name":"駒込病院前","province":"東京都","city":"文京区","address":"東京都文京区千駄木5丁目49-4","lat":35.72997639,"lon":139.75756816},{"name":"日本医科大学付属病院","province":"東京都","city":"文京区","address":"東京都文京区千駄木1丁目1-5","lat":35.72107737,"lon":139.75886828},{"name":"都立駒込病院","province":"東京都","city":"文京区","address":"東京都文京区本駒込3丁目18-22","lat":35.72994856,"lon":139.75609048},{"name":"順天堂大学医学部附属順天堂医院","province":"東京都","city":"文京区","address":"東京都文京区本郷3丁目1-3","lat":35.70250161,"lon":139.76261313},{"name":"東京医科歯科大学医学部附属病院","province":"東京都","city":"文京区","address":"東京都文京区湯島1丁目5-45","lat":35.70099629,"lon":139.76491864},{"name":"東京大学医学部付属病院","province":"東京都","city":"文京区","address":"東京都文京区本郷7丁目3-1","lat":35.71203394,"lon":139.76277932},{"name":"区立教育の森公園","province":"東京都","city":"文京区","address":"東京都文京区大塚3丁目29-1","lat":35.71964352,"lon":139.73724511},{"name":"東京医科歯科大学医学部付属病院","province":"東京都","city":"文京区","address":"東京都文京区湯島1丁目5-45","lat":35.70099629,"lon":139.76491864},{"name":"区立教育の森公園（注２）","province":"東京都","city":"文京区","address":"東京都文京区大塚3丁目29-1","lat":35.71964352,"lon":139.73724511},{"name":"東京大学御殿下グラウンド","province":"東京都","city":"文京区","address":"東京都文京区本郷7丁目3-1","lat":35.71203394,"lon":139.76277932},{"name":"東京大学医学部附属病院ヘリポート","province":"東京都","city":"文京区","address":"東京都文京区本郷7丁目3-1","lat":35.71203394,"lon":139.76277932},{"name":"東京大学農学部グラウンド","province":"東京都","city":"文京区","address":"東京都文京区弥生1丁目1","lat":35.71893042,"lon":139.76032934},{"name":"順天堂大学医学部附属順天堂医院ヘリポート","province":"東京都","city":"文京区","address":"東京都文京区本郷3丁目1-3","lat":35.70250161,"lon":139.76261313},{"name":"東京医科歯科大学医学部附属病院ヘリポート","province":"東京都","city":"文京区","address":"東京都文京区湯島1丁目5-45","lat":35.70099629,"lon":139.76491864},{"name":"目白台運動公園","province":"東京都","city":"文京区","address":"東京都文京区目白台1丁目20-2","lat":35.71545467,"lon":139.72151883},{"name":"文京シビックセンター","province":"東京都","city":"文京区","address":"東京都文京区春日1丁目16-21","lat":35.70794517,"lon":139.75242748},{"name":"(特定非営利活動法人)東京都子ども会連合会","province":"東京都","city":"文京区","address":"東京都文京区大塚6丁目1-14","lat":35.7254565,"lon":139.72843453},{"name":"（一財）インターネット協会","province":"東京都","city":"文京区","address":"東京都文京区湯島2丁目21-1","lat":35.7051709,"lon":139.76638504},{"name":"＊?文京区男女平等センター","province":"東京都","city":"文京区","address":"文京区本郷4-8-3","lat":35.708552,"lon":139.757477},{"name":"中央・城北職業能力開発センター","province":"東京都","city":"文京区","address":"東京都文京区後楽1丁目9-5","lat":35.70352608,"lon":139.74679479},{"name":"小石川中等教育学校","province":"東京都","city":"文京区","address":"東京都文京区本駒込2丁目29-29","lat":35.72883159,"lon":139.74594681},{"name":"教職員研修センター","province":"東京都","city":"文京区","address":"東京都文京区本郷1丁目3-3","lat":35.702432,"lon":139.75672739},{"name":"竹早高等学校","province":"東京都","city":"文京区","address":"東京都文京区小石川4丁目2-1","lat":35.71336381,"lon":139.74350307},{"name":"向丘高等学校","province":"東京都","city":"文京区","address":"東京都文京区向丘1丁目11-18","lat":35.72185769,"lon":139.7545297},{"name":"工芸高等学校","province":"東京都","city":"文京区","address":"東京都文京区本郷1丁目3-9","lat":35.70258197,"lon":139.75616354},{"name":"六義園","province":"東京都","city":"文京区","address":"東京都文京区本駒込6丁目16-3","lat":35.7323312,"lon":139.74696603},{"name":"東京大学","province":"東京都","city":"文京区","address":"東京都文京区本郷7丁目","lat":35.71343101,"lon":139.76231265},{"name":"後楽園一帯","province":"東京都","city":"文京区","address":"東京都文京区春日1丁目","lat":35.70791725,"lon":139.74644188},{"name":"お茶の水女子大学一帯・教育の森公園一帯","province":"東京都","city":"文京区","address":"東京都文京区大塚2丁目","lat":35.72012384,"lon":139.7304068},{"name":"護国寺一帯","province":"東京都","city":"文京区","address":"東京都文京区大塚5丁目","lat":35.72432056,"lon":139.72975112},{"name":"小石川植物園","province":"東京都","city":"文京区","address":"東京都文京区白山3丁目7-1","lat":35.71847994,"lon":139.74435284},{"name":"目白台運動公園付近一帯","province":"東京都","city":"文京区","address":"東京都文京区関口2丁目","lat":35.71124979,"lon":139.72915442},{"name":"礫川小学校","province":"東京都","city":"文京区","address":"文京区小石川2丁目13番2号","lat":35.710834,"lon":139.747575},{"name":"柳町小学校","province":"東京都","city":"文京区","address":"文京区小石川1丁目23番16号","lat":35.714459,"lon":139.750138},{"name":"指ケ谷小学校","province":"東京都","city":"文京区","address":"文京区白山2丁目28番4号","lat":35.717306,"lon":139.750767},{"name":"林町小学校","province":"東京都","city":"文京区","address":"文京区千石2丁目36番3号","lat":35.724322,"lon":139.742248},{"name":"明化小学校","province":"東京都","city":"文京区","address":"文京区千石1丁目13番9号","lat":35.724833,"lon":139.744881},{"name":"青柳小学校","province":"東京都","city":"文京区","address":"文京区大塚5丁目40番18号","lat":35.720417,"lon":139.725097},{"name":"関口台町小学校","province":"東京都","city":"文京区","address":"文京区関口2丁目6番1号","lat":35.711867,"lon":139.726757},{"name":"小日向台町小学校","province":"東京都","city":"文京区","address":"文京区小日向2丁目3番8号","lat":35.713213,"lon":139.735631},{"name":"金富小学校","province":"東京都","city":"文京区","address":"文京区春日2丁目6番15号","lat":35.710831,"lon":139.741619},{"name":"窪町小学校","province":"東京都","city":"文京区","address":"文京区大塚3丁目2番3号","lat":35.718877,"lon":139.735629},{"name":"大塚小学校","province":"東京都","city":"文京区","address":"文京区大塚4丁目1番7号","lat":35.723729,"lon":139.73638},{"name":"湯島小学校","province":"東京都","city":"文京区","address":"文京区湯島2丁目28番14号","lat":35.706572,"lon":139.766568},{"name":"誠之小学校","province":"東京都","city":"文京区","address":"文京区西片2丁目14番6号","lat":35.717943,"lon":139.754029},{"name":"根津小学校","province":"東京都","city":"文京区","address":"文京区根津1丁目14番3号","lat":35.718439,"lon":139.763222},{"name":"千駄木小学校","province":"東京都","city":"文京区","address":"文京区千駄木5丁目44番2号","lat":35.72914,"lon":139.758951},{"name":"汐見小学校","province":"東京都","city":"文京区","address":"文京区千駄木2丁目19番23号","lat":35.723733,"lon":139.760914},{"name":"昭和小学校","province":"東京都","city":"文京区","address":"文京区本駒込2丁目28番31号","lat":35.731554,"lon":139.749485},{"name":"駒本小学校","province":"東京都","city":"文京区","address":"文京区向丘2丁目37番5号","lat":35.724618,"lon":139.754577},{"name":"駕籠町小学校","province":"東京都","city":"文京区","address":"文京区本駒込2丁目29番6号","lat":35.728362,"lon":139.7458},{"name":"本郷小学校","province":"東京都","city":"文京区","address":"文京区本郷4丁目5番15号","lat":35.708093,"lon":139.758136},{"name":"旧元町小学校","province":"東京都","city":"文京区","address":"文京区本郷1丁目1番19号","lat":35.703038,"lon":139.757922},{"name":"第一中学校","province":"東京都","city":"文京区","address":"文京区小石川5丁目8番9号","lat":35.718013,"lon":139.738682},{"name":"第三中学校","province":"東京都","city":"文京区","address":"文京区春日1丁目9番31号","lat":35.709151,"lon":139.746671},{"name":"第六中学校","province":"東京都","city":"文京区","address":"文京区向丘1丁目2番2号","lat":35.717074,"lon":139.757726},{"name":"第八中学校","province":"東京都","city":"文京区","address":"文京区千駄木2丁目19番22号","lat":35.724322,"lon":139.761015},{"name":"第九中学校","province":"東京都","city":"文京区","address":"文京区本駒込3丁目28番9号","lat":35.729654,"lon":139.75278},{"name":"第十中学校","province":"東京都","city":"文京区","address":"文京区千石2丁目40番17号","lat":35.723516,"lon":139.742538},{"name":"文林中学校","province":"東京都","city":"文京区","address":"文京区千駄木5丁目25番10号","lat":35.728052,"lon":139.758572},{"name":"茗台中学校","province":"東京都","city":"文京区","address":"文京区春日2丁目9番5号","lat":35.713539,"lon":139.741205},{"name":"本郷台中学校","province":"東京都","city":"文京区","address":"文京区本郷2丁目38番23号","lat":35.706951,"lon":139.758938},{"name":"音羽中学校","province":"東京都","city":"文京区","address":"文京区大塚1丁目9番24号","lat":35.717217,"lon":139.73279},{"name":"文京江戸川橋体育館","province":"東京都","city":"文京区","address":"文京区小日向1丁目7番4号","lat":35.710603,"lon":139.73546},{"name":"教育センター","province":"東京都","city":"文京区","address":"文京区湯島4丁目7番10号","lat":35.708987,"lon":139.76575},{"name":"森鴎外記念館","province":"東京都","city":"文京区","address":"東京都文京区千駄木1丁目23番地4号","lat":35.724927,"lon":139.7606},{"name":"不忍通りふれあい館","province":"東京都","city":"文京区","address":"東京都文京区根津2丁目20番地7号","lat":35.719172,"lon":139.764146},{"name":"文京ふるさと歴史館","province":"東京都","city":"文京区","address":"東京都文京区本郷4丁目9番地29号","lat":35.708014,"lon":139.756669},{"name":"文京シビックセンターアトリウム","province":"東京都","city":"文京区","address":"東京都文京区春日1丁目16番地21号地下2階から3階まで","lat":35.707932,"lon":139.752085},{"name":"文京シビックセンター25階展望ラウンジ","province":"東京都","city":"文京区","address":"東京都文京区春日1丁目16番地21号25階","lat":35.708132,"lon":139.752321},{"name":"松聲閣","province":"東京都","city":"文京区","address":"東京都文京区目白台1丁目1番地22号","lat":35.7131,"lon":139.721771},{"name":"江戸川公園","province":"東京都","city":"文京区","address":"東京都文京区関口2丁目-1番地","lat":35.711015,"lon":139.730893},{"name":"小石川運動場","province":"東京都","city":"文京区","address":"東京都文京区後楽1丁目‐8番地‐23","lat":35.705146,"lon":139.746479},{"name":"目白台運動公園","province":"東京都","city":"文京区","address":"東京都文京区目白台1丁目20番地","lat":35.715366,"lon":139.721551},{"name":"教育の森公園","province":"東京都","city":"文京区","address":"東京都文京区大塚3丁目29番地","lat":35.720479,"lon":139.735401},{"name":"江戸川橋体育館","province":"東京都","city":"文京区","address":"東京都文京区小日向1丁目7番地4号","lat":35.710603,"lon":139.735485},{"name":"教育センター","province":"東京都","city":"文京区","address":"東京都文京区湯島4丁目7番地10号","lat":35.708668,"lon":139.765461},{"name":"文京総合体育館","province":"東京都","city":"文京区","address":"東京都文京区本郷7丁目1番地2号","lat":35.708137,"lon":139.763335},{"name":"文京スポーツセンター","province":"東京都","city":"文京区","address":"東京都文京区大塚3丁目29番地2号","lat":35.72054,"lon":139.736595},{"name":"男女平等センター","province":"東京都","city":"文京区","address":"東京都文京区本郷4丁目8番地3号","lat":35.708605,"lon":139.757683},{"name":"区民センター","province":"東京都","city":"文京区","address":"東京都文京区本郷4丁目15番地14号","lat":35.709057,"lon":139.754146},{"name":"六義公園運動場","province":"東京都","city":"文京区","address":"東京都文京区本駒込6丁目16番地10号","lat":35.73165,"lon":139.746452},{"name":"礫川地域活動センター","province":"東京都","city":"文京区","address":"東京都文京区小石川2丁目18番地18号","lat":35.712128,"lon":139.750306},{"name":"大原地域活動センター","province":"東京都","city":"文京区","address":"東京都文京区千石1丁目4番地3号","lat":35.724675,"lon":139.743343},{"name":"大塚地域活動センター","province":"東京都","city":"文京区","address":"東京都文京区大塚1丁目5番地17号","lat":35.71879,"lon":139.734637},{"name":"音羽地域活動センター","province":"東京都","city":"文京区","address":"東京都文京区音羽1丁目22番地14号","lat":35.714074,"lon":139.729812},{"name":"湯島地域活動センター","province":"東京都","city":"文京区","address":"東京都文京区本郷7丁目1番地2号","lat":35.708311,"lon":139.763317},{"name":"向丘地域活動センター","province":"東京都","city":"文京区","address":"東京都文京区向丘1丁目20番地8号","lat":35.717508,"lon":139.757945},{"name":"根津地域活動センター","province":"東京都","city":"文京区","address":"東京都文京区根津2丁目20番地7号","lat":35.719417,"lon":139.764144},{"name":"汐見地域活動センター","province":"東京都","city":"文京区","address":"東京都文京区千駄木3丁目2番地6号","lat":35.725755,"lon":139.76147},{"name":"駒込地域活動センター","province":"東京都","city":"文京区","address":"東京都文京区本駒込3丁目22番地4号","lat":35.728779,"lon":139.752266},{"name":"勤労福祉会館","province":"東京都","city":"文京区","address":"東京都文京区本駒込4丁目35番地15号","lat":35.734396,"lon":139.755422},{"name":"文京総合福祉センター","province":"東京都","city":"文京区","address":"東京都文京区小日向2丁目16番地15号","lat":35.71058,"lon":139.734474},{"name":"保健サービスセンター本郷支所","province":"東京都","city":"文京区","address":"東京都文京区千駄木5丁目20番地18号","lat":35.727059,"lon":139.76046},{"name":"福祉センター湯島","province":"東京都","city":"文京区","address":"東京都文京区本郷3丁目10番地18号","lat":35.704254,"lon":139.763506},{"name":"福祉センター江戸川橋","province":"東京都","city":"文京区","address":"東京都文京区小日向2丁目16番地15号","lat":35.71058,"lon":139.734474},{"name":"髪ファッション四季　音羽店","province":"東京都","city":"文京区","address":"東京都文京区音羽2丁目2番地2号アベニュー音羽107号","lat":35.718481,"lon":139.728018},{"name":"ごはん茶々","province":"東京都","city":"文京区","address":"東京都文京区音羽1丁目25番地12号中銀第2音羽マンション1階","lat":35.71266,"lon":139.730451},{"name":"高崎屋商店","province":"東京都","city":"文京区","address":"東京都文京区向丘1丁目1番地17号","lat":35.716243,"lon":139.758335},{"name":"大坂や茶店","province":"東京都","city":"文京区","address":"東京都文京区向丘1丁目9番地22号","lat":35.722349,"lon":139.752954},{"name":"東京新聞千石専売所","province":"東京都","city":"文京区","address":"東京都文京区千石4丁目4番地1号永瀬ビル1階","lat":35.728494,"lon":139.742046},{"name":"田上商店","province":"東京都","city":"文京区","address":"東京都文京区千石1丁目9番地19号","lat":35.725156,"lon":139.744718},{"name":"近藤クリニック","province":"東京都","city":"文京区","address":"東京都文京区千石4丁目3番地16号Tハウス1階","lat":35.727655,"lon":139.740958},{"name":"大むら　そば店","province":"東京都","city":"文京区","address":"東京都文京区白山5丁目3番地7号","lat":35.720561,"lon":139.750782},{"name":"白山オステオパシー","province":"東京都","city":"文京区","address":"東京都文京区白山1丁目31番地7号鈴木ビル2階","lat":35.719207,"lon":139.751603},{"name":"株式会社平田工業所","province":"東京都","city":"文京区","address":"東京都文京区白山3丁目6番地4号","lat":35.720182,"lon":139.74117},{"name":"文京不動産レジデンシャル株式会社","province":"東京都","city":"文京区","address":"東京都文京区春日1丁目12番地6号パーク白木1階","lat":35.709692,"lon":139.747778},{"name":"痛くないハリ治療　みょうが鍼灸店","province":"東京都","city":"文京区","address":"東京都文京区小石川5丁目3番地2号エイト第2ビル1階","lat":35.716447,"lon":139.739034},{"name":"リラクゼーション整体サロンSILKY","province":"東京都","city":"文京区","address":"東京都文京区小石川1丁目3番地23号ル・ビジュー306号","lat":35.709514,"lon":139.753036},{"name":"cafeBASE","province":"東京都","city":"文京区","address":"東京都文京区小石川4丁目21番地4号小石川安田ビル1階","lat":35.715065,"lon":139.740386},{"name":"岩佐歯科クリニック","province":"東京都","city":"文京区","address":"東京都文京区小日向4丁目4番地3号カーネ小日向101号","lat":35.715955,"lon":139.739082},{"name":"ハギデンキ","province":"東京都","city":"文京区","address":"東京都文京区小日向4丁目5番地16号ツインヒルズ茗荷谷102号","lat":35.716227,"lon":139.738787},{"name":"坪田デンタルクリニック","province":"東京都","city":"文京区","address":"東京都文京区小日向4丁目7番地14号坪田ビル1階","lat":35.716757,"lon":139.737111},{"name":"中川青果店","province":"東京都","city":"文京区","address":"東京都文京区千駄木2丁目39番地8号","lat":35.723155,"lon":139.763206},{"name":"貸し工房　創作CLUB","province":"東京都","city":"文京区","address":"東京都文京区千駄木3丁目44番地9号パレドール千駄木2101号","lat":35.728893,"lon":139.764241},{"name":"JewelSelect","province":"東京都","city":"文京区","address":"東京都文京区千駄木2丁目33番地4号ウイン千駄木104号","lat":35.723845,"lon":139.76298},{"name":"麺や　ひだまり","province":"東京都","city":"文京区","address":"東京都文京区千駄木3丁目43番地9号","lat":35.728611,"lon":139.764389},{"name":"wish","province":"東京都","city":"文京区","address":"東京都文京区千駄木3丁目34番地9号パークウェル千駄木駅前1階","lat":35.725654,"lon":139.763101},{"name":"工房東京窯志舎","province":"東京都","city":"文京区","address":"東京都文京区本駒込3丁目5番地6号ライオンズMS本駒込101号","lat":35.726275,"lon":139.753565},{"name":"Tippi","province":"東京都","city":"文京区","address":"東京都文京区本駒込4丁目39番地2号リーラ文京本駒込108号","lat":35.732656,"lon":139.757581},{"name":"アオアシ　カフェ","province":"東京都","city":"文京区","address":"東京都文京区本駒込1丁目2番地5号ルネ文京白山1階","lat":35.723144,"lon":139.752901},{"name":"板倉茶屋　要","province":"東京都","city":"文京区","address":"東京都文京区湯島3丁目44番地9号湯島要ビル5階","lat":35.709053,"lon":139.771374},{"name":"BistroKouzo","province":"東京都","city":"文京区","address":"東京都文京区湯島4丁目6番地17号","lat":35.707973,"lon":139.767387},{"name":"クラブMINT","province":"東京都","city":"文京区","address":"東京都文京区湯島3丁目38番地11号エスパス上野広小路ビル8階","lat":35.708055,"lon":139.771102},{"name":"こいけ鍼灸整骨院","province":"東京都","city":"文京区","address":"東京都文京区本郷5丁目1番地3号コーポ菊坂101号","lat":35.708331,"lon":139.759905},{"name":"めがね工房なかじま","province":"東京都","city":"文京区","address":"東京都文京区本郷3丁目38番地10号さかえビル1階","lat":35.707444,"lon":139.762838},{"name":"hairiota","province":"東京都","city":"文京区","address":"東京都文京区本郷4丁目27番地11号中村ビル102号","lat":35.71129,"lon":139.75503},{"name":"99ルート・デュ・ショコラ　本郷店","province":"東京都","city":"文京区","address":"東京都文京区本郷2丁目13番地10号湯浅ビル1階","lat":35.704016,"lon":139.761567},{"name":"MEGRO","province":"東京都","city":"文京区","address":"東京都文京区本郷2丁目40番地13号本郷コーポレイション104号","lat":35.707145,"lon":139.76045},{"name":"やさしい野菜屋さん","province":"東京都","city":"文京区","address":"東京都文京区本郷3丁目41番地10号矢作ビル1階","lat":35.707146,"lon":139.763892},{"name":"シャリエ本郷管理組合","province":"東京都","city":"文京区","address":"東京都文京区本郷1丁目34番地1号シャリエ本郷管理室","lat":35.706805,"lon":139.754369},{"name":"マックフォトサービス","province":"東京都","city":"文京区","address":"東京都文京区本郷2丁目31番地1号","lat":35.705255,"lon":139.758614},{"name":"いごこちDININGたかの家","province":"東京都","city":"文京区","address":"東京都文京区本郷1丁目15番地2号三沢第一ビル地下1階","lat":35.70423,"lon":139.755289},{"name":"おにぎりカフェ利さく","province":"東京都","city":"文京区","address":"東京都文京区千駄木2丁目31番地6号","lat":35.724333,"lon":139.762774},{"name":"SAKE&WINEtono;4122","province":"東京都","city":"文京区","address":"東京都文京区千駄木4丁目1番地22号","lat":35.730574,"lon":139.761139},{"name":"hairsalonancal","province":"東京都","city":"文京区","address":"東京都文京区大塚3丁目34番地9号ライオンズMS小石川植物園105号","lat":35.721341,"lon":139.739618},{"name":"風のやすみば","province":"東京都","city":"文京区","address":"東京都文京区千石4丁目5-2水野ビル1階","lat":35.727963,"lon":139.739508},{"name":"常心亭","province":"東京都","city":"文京区","address":"東京都文京区水道2丁目6-4マ・メゾン小日向101号","lat":35.709539,"lon":139.735496},{"name":"鳥勝","province":"東京都","city":"文京区","address":"東京都文京区根津2丁目20-17","lat":35.718789,"lon":139.764989},{"name":"運動発達支援スタジオＵＮＩＭＯ後楽園","province":"東京都","city":"文京区","address":"文京区小石川2-25-10","lat":35.712211,"lon":139.750652},{"name":"富坂子どもの家","province":"東京都","city":"文京区","address":"文京区小石川2-17-41","lat":35.711125,"lon":139.748361},{"name":"発達支援ルーム　ぽけっと","province":"東京都","city":"文京区","address":"文京区小石川5-38-2クレストヒルズ小石川2階","lat":35.718166,"lon":139.742953},{"name":"放課後等デイサービス　びおら","province":"東京都","city":"文京区","address":"文京区小日向2丁目16-15","lat":35.710581,"lon":139.734582},{"name":"運動発達支援スタジオＵＮＩＭＯ文京千石","province":"東京都","city":"文京区","address":"文京区千石1-29-12千石片岡ビル101","lat":35.727271,"lon":139.74518},{"name":"放課後等デイサービス　あんプラス江戸川橋","province":"東京都","city":"文京区","address":"文京区関口1-48-6日火江戸川橋ビル第2201","lat":35.709486,"lon":139.730463},{"name":"エデュクエスト","province":"東京都","city":"文京区","address":"文京区白山1-18-7石川ビル202号室","lat":35.717747,"lon":139.752236},{"name":"放課後等デイサービス　カリタス翼","province":"東京都","city":"文京区","address":"文京区本駒込5-4-4","lat":35.732379,"lon":139.750074},{"name":"文京区放課後等デイサービスＪＯＹ","province":"東京都","city":"文京区","address":"文京区本駒込四丁目35番15号文京区勤労福祉会館2階","lat":35.733468,"lon":139.75514},{"name":"ハッピーテラス千駄木教室","province":"東京都","city":"文京区","address":"文京区根津2-37-8","lat":35.72118,"lon":139.76241},{"name":"文京区児童発達支援センター","province":"東京都","city":"文京区","address":"文京区湯島4-7-10","lat":35.708848,"lon":139.765768},{"name":"文京区子ども家庭支援センター","province":"東京都","city":"文京区","address":"文京区春日1-16-21シビックセンター5階","lat":35.707951,"lon":139.75243},{"name":"文京区子ども家庭支援センター","province":"東京都","city":"文京区","address":"文京区春日1-16-21シビックセンター5階","lat":35.70794,"lon":139.75278},{"name":"壱岐坂下","province":"東京都","city":"文京区","address":"東京都文京区後楽1丁目3-61","lat":35.70486136,"lon":139.75272149},{"name":"伝通院前","province":"東京都","city":"文京区","address":"東京都文京区小石川3丁目1-1","lat":35.71078082,"lon":139.74631679},{"name":"西片","province":"東京都","city":"文京区","address":"東京都文京区小石川1丁目9-1","lat":35.71130314,"lon":139.75246066},{"name":"富坂下","province":"東京都","city":"文京区","address":"東京都文京区小石川2丁目1-1","lat":35.7087284,"lon":139.7515803},{"name":"水道橋","province":"東京都","city":"文京区","address":"東京都文京区後楽1丁目3-61","lat":35.70486136,"lon":139.75272149},{"name":"春日町","province":"東京都","city":"文京区","address":"東京都文京区春日1丁目16-27","lat":35.70812018,"lon":139.75333017},{"name":"千石一丁目","province":"東京都","city":"文京区","address":"東京都文京区本駒込2丁目29-27","lat":35.72887043,"lon":139.74438305},{"name":"安藤坂","province":"東京都","city":"文京区","address":"東京都文京区春日1丁目8-3","lat":35.70796444,"lon":139.74531698},{"name":"白山下","province":"東京都","city":"文京区","address":"東京都文京区白山2丁目39-8","lat":35.71970225,"lon":139.75146054},{"name":"後楽園駅前","province":"東京都","city":"文京区","address":"東京都文京区春日1丁目2-3","lat":35.70735077,"lon":139.75114429},{"name":"窪町東公園前","province":"東京都","city":"文京区","address":"東京都文京区大塚3丁目32","lat":35.72059904,"lon":139.73987817},{"name":"こんにゃくえんま前","province":"東京都","city":"文京区","address":"東京都文京区小石川2丁目23-14","lat":35.71069206,"lon":139.75136356},{"name":"牛天神下","province":"東京都","city":"文京区","address":"東京都文京区後楽2丁目5-1","lat":35.70552861,"lon":139.74602812},{"name":"茗台中学校前","province":"東京都","city":"文京区","address":"東京都文京区春日2丁目9-5","lat":35.71346374,"lon":139.74103385},{"name":"明化小学校入口","province":"東京都","city":"文京区","address":"東京都文京区千石1丁目6-19","lat":35.72699281,"lon":139.74224719},{"name":"小石川植物園前","province":"東京都","city":"文京区","address":"東京都文京区白山2丁目14-6","lat":35.71733564,"lon":139.74502781},{"name":"竹早小学校入口","province":"東京都","city":"文京区","address":"東京都文京区小石川4丁目17-1","lat":35.71536633,"lon":139.74236978},{"name":"小石川税務署前","province":"東京都","city":"文京区","address":"東京都文京区後楽1丁目7-19","lat":35.70662298,"lon":139.74766961},{"name":"白山三丁目","province":"東京都","city":"文京区","address":"東京都文京区小石川5丁目37-6","lat":35.71893261,"lon":139.74201414},{"name":"小石川五丁目","province":"東京都","city":"文京区","address":"東京都文京区小石川5丁目1-12","lat":35.7156718,"lon":139.7399061},{"name":"千石三丁目第二","province":"東京都","city":"文京区","address":"東京都文京区千石3丁目3-7","lat":35.72480123,"lon":139.73621722},{"name":"飯田橋職安前","province":"東京都","city":"文京区","address":"東京都文京区後楽1丁目9-20","lat":35.70364551,"lon":139.74712809},{"name":"白山二丁目","province":"東京都","city":"文京区","address":"東京都文京区白山1丁目6-4","lat":35.71557769,"lon":139.75229946},{"name":"隆慶橋東詰","province":"東京都","city":"文京区","address":"東京都文京区後楽2丁目3-13","lat":35.70475922,"lon":139.74478104},{"name":"第十中学校入口","province":"東京都","city":"文京区","address":"東京都文京区千石1丁目6-12","lat":35.72598458,"lon":139.74184447},{"name":"金富小学校前","province":"東京都","city":"文京区","address":"東京都文京区春日2丁目6-15","lat":35.7108307,"lon":139.74161999},{"name":"白山交番西","province":"東京都","city":"文京区","address":"東京都文京区白山2丁目39-5","lat":35.71968002,"lon":139.751355},{"name":"白山四丁目第一","province":"東京都","city":"文京区","address":"東京都文京区白山4丁目36-12","lat":35.72254903,"lon":139.7476191},{"name":"小石川保健所前","province":"東京都","city":"文京区","address":"東京都文京区春日1丁目9-21","lat":35.70814221,"lon":139.74611413},{"name":"窪町東公園北","province":"東京都","city":"文京区","address":"東京都文京区大塚3丁目38-12","lat":35.72186276,"lon":139.73882267},{"name":"中通り入口","province":"東京都","city":"文京区","address":"東京都文京区春日1丁目7-12","lat":35.7074534,"lon":139.74605861},{"name":"小石川運動場前","province":"東京都","city":"文京区","address":"東京都文京区後楽1丁目8","lat":35.70462595,"lon":139.74661143},{"name":"柳町小学校入口","province":"東京都","city":"文京区","address":"東京都文京区小石川1丁目23-6","lat":35.71370563,"lon":139.75092185},{"name":"白山四丁目","province":"東京都","city":"文京区","address":"東京都文京区白山4丁目34-12","lat":35.72080483,"lon":139.74934402},{"name":"白山交番南","province":"東京都","city":"文京区","address":"東京都文京区白山1丁目31-6","lat":35.71904121,"lon":139.75161333},{"name":"小石川後楽園入口","province":"東京都","city":"文京区","address":"東京都文京区後楽1丁目8","lat":35.70462595,"lon":139.74661143},{"name":"大塚特別支援学校前","province":"東京都","city":"文京区","address":"東京都文京区春日1丁目9-9","lat":35.70802281,"lon":139.7472307},{"name":"新隆慶橋東詰","province":"東京都","city":"文京区","address":"東京都文京区後楽2丁目6-1","lat":35.70525084,"lon":139.74505878},{"name":"茗荷谷駅前","province":"東京都","city":"文京区","address":"東京都文京区小石川5丁目5-5","lat":35.71791038,"lon":139.73713962},{"name":"古川橋","province":"東京都","city":"文京区","address":"東京都文京区関口1丁目17","lat":35.70882798,"lon":139.73519287},{"name":"目白坂下","province":"東京都","city":"文京区","address":"東京都文京区音羽1丁目25-15","lat":35.71244413,"lon":139.73040427},{"name":"目白台二丁目","province":"東京都","city":"文京区","address":"東京都文京区目白台1丁目15-9","lat":35.71664333,"lon":139.7181413},{"name":"大塚三丁目","province":"東京都","city":"文京区","address":"東京都文京区大塚4丁目45-11","lat":35.72181258,"lon":139.73188993},{"name":"護国寺前","province":"東京都","city":"文京区","address":"東京都文京区大塚5丁目40-8","lat":35.72028204,"lon":139.72657655},{"name":"大塚警察署前","province":"東京都","city":"文京区","address":"東京都文京区音羽2丁目12-26","lat":35.71707411,"lon":139.727996},{"name":"護国寺南","province":"東京都","city":"文京区","address":"東京都文京区音羽2丁目11-25","lat":35.71900999,"lon":139.72723488},{"name":"大塚五丁目","province":"東京都","city":"文京区","address":"東京都文京区大塚4丁目51-5","lat":35.72531213,"lon":139.73044825},{"name":"目白台郵便局前","province":"東京都","city":"文京区","address":"東京都文京区目白台2丁目7-8","lat":35.71785996,"lon":139.72162984},{"name":"護国寺西","province":"東京都","city":"文京区","address":"東京都文京区音羽2丁目12","lat":35.71938771,"lon":139.72674046},{"name":"大塚四丁目","province":"東京都","city":"文京区","address":"東京都文京区大塚3丁目11-7","lat":35.72153767,"lon":139.733887},{"name":"大塚一丁目","province":"東京都","city":"文京区","address":"東京都文京区大塚3丁目3-14","lat":35.71920185,"lon":139.73525363},{"name":"江戸川公園前","province":"東京都","city":"文京区","address":"東京都文京区音羽1丁目1-1","lat":35.71119986,"lon":139.73157366},{"name":"目白台三丁目","province":"東京都","city":"文京区","address":"東京都文京区目白台1丁目23-7","lat":35.71500202,"lon":139.72446581},{"name":"音羽一丁目","province":"東京都","city":"文京区","address":"東京都文京区音羽1丁目20-2","lat":35.71510769,"lon":139.72913762},{"name":"音羽一丁目南","province":"東京都","city":"文京区","address":"東京都文京区音羽1丁目22-14","lat":35.71390228,"lon":139.72967651},{"name":"坂下通り入口","province":"東京都","city":"文京区","address":"東京都文京区大塚5丁目17-3","lat":35.72129314,"lon":139.73017899},{"name":"目白台二丁目第三","province":"東京都","city":"文京区","address":"東京都文京区目白台2丁目14-11","lat":35.7188571,"lon":139.72284637},{"name":"小日向一丁目","province":"東京都","city":"文京区","address":"東京都文京区春日2丁目8-13","lat":35.71093066,"lon":139.74042843},{"name":"大日坂下","province":"東京都","city":"文京区","address":"東京都文京区小日向2丁目18-5","lat":35.71097493,"lon":139.73351794},{"name":"華水橋","province":"東京都","city":"文京区","address":"東京都文京区関口1丁目20-6","lat":35.70939454,"lon":139.73325691},{"name":"大塚四丁目第二","province":"東京都","city":"文京区","address":"東京都文京区大塚3丁目27-2","lat":35.72224318,"lon":139.73566737},{"name":"大塚公園入口","province":"東京都","city":"文京区","address":"東京都文京区大塚4丁目49","lat":35.72415396,"lon":139.73177596},{"name":"跡見学園前","province":"東京都","city":"文京区","address":"東京都文京区大塚2丁目1-18","lat":35.71814638,"lon":139.73367881},{"name":"開運坂下","province":"東京都","city":"文京区","address":"東京都文京区大塚5丁目13-11","lat":35.7252593,"lon":139.72848453},{"name":"目白台運動場前","province":"東京都","city":"文京区","address":"東京都文京区目白台2丁目3-2","lat":35.71597961,"lon":139.72155769},{"name":"筑波大附属小学校入口","province":"東京都","city":"文京区","address":"東京都文京区大塚3丁目6-7","lat":35.72031559,"lon":139.73425369},{"name":"筑波大附属中学校前","province":"東京都","city":"文京区","address":"東京都文京区大塚2丁目1-1","lat":35.71878795,"lon":139.73262888},{"name":"目白台三丁目第二","province":"東京都","city":"文京区","address":"東京都文京区目白台1丁目21-2","lat":35.71430764,"lon":139.72373535},{"name":"筑波大学正門前","province":"東京都","city":"文京区","address":"東京都文京区大塚3丁目30","lat":35.71982964,"lon":139.73842},{"name":"茗荷谷駅前交番前","province":"東京都","city":"文京区","address":"東京都文京区小石川5丁目5-7","lat":35.71808257,"lon":139.73667576},{"name":"根津一丁目","province":"東京都","city":"文京区","address":"東京都文京区根津2丁目12-7","lat":35.71785574,"lon":139.76550131},{"name":"東大農学部前","province":"東京都","city":"文京区","address":"東京都文京区弥生1丁目1-1","lat":35.71678895,"lon":139.76026548},{"name":"東大正門前","province":"東京都","city":"文京区","address":"東京都文京区本郷7丁目3-1","lat":35.71203394,"lon":139.76277932},{"name":"湯島五差路","province":"東京都","city":"文京区","address":"東京都文京区本郷3丁目3-12","lat":35.70305157,"lon":139.76312697},{"name":"本郷二丁目","province":"東京都","city":"文京区","address":"東京都文京区本郷3丁目15-1","lat":35.70460969,"lon":139.76178529},{"name":"順天堂前","province":"東京都","city":"文京区","address":"東京都文京区本郷3丁目1-3","lat":35.70250161,"lon":139.76261313},{"name":"根津小学校入口","province":"東京都","city":"文京区","address":"東京都文京区根津2丁目20-7","lat":35.71920834,"lon":139.76417635},{"name":"本郷弥生","province":"東京都","city":"文京区","address":"東京都文京区弥生1丁目1-1","lat":35.71678895,"lon":139.76026548},{"name":"お茶の水","province":"東京都","city":"文京区","address":"東京都文京区湯島1丁目5-45","lat":35.70099629,"lon":139.76491864},{"name":"本郷三丁目","province":"東京都","city":"文京区","address":"東京都文京区本郷4丁目2-1","lat":35.70765375,"lon":139.76038242},{"name":"壱岐坂上","province":"東京都","city":"文京区","address":"東京都文京区本郷2丁目26-1","lat":35.7048763,"lon":139.76080755},{"name":"清水坂下","province":"東京都","city":"文京区","address":"東京都文京区湯島2丁目1-1","lat":35.70305723,"lon":139.76642959},{"name":"三組坂下","province":"東京都","city":"文京区","address":"東京都文京区湯島3丁目14-10","lat":35.7048766,"lon":139.7696349},{"name":"本郷追分","province":"東京都","city":"文京区","address":"東京都文京区向丘2丁目8-7","lat":35.71949969,"lon":139.75717399},{"name":"本郷消防署前","province":"東京都","city":"文京区","address":"東京都文京区本郷7丁目1-11","lat":35.70785938,"lon":139.76294619},{"name":"壱岐坂通り","province":"東京都","city":"文京区","address":"東京都文京区本郷2丁目21-4","lat":35.70448739,"lon":139.75906877},{"name":"根津神社入口","province":"東京都","city":"文京区","address":"東京都文京区根津2丁目29-2","lat":35.71998601,"lon":139.76328195},{"name":"本郷小学校前","province":"東京都","city":"文京区","address":"東京都文京区本郷4丁目5-10","lat":35.70759814,"lon":139.7581409},{"name":"三組坂上","province":"東京都","city":"文京区","address":"東京都文京区湯島3丁目4-7","lat":35.70481819,"lon":139.76739057},{"name":"湯島二丁目","province":"東京都","city":"文京区","address":"東京都文京区湯島2丁目18-6","lat":35.70556525,"lon":139.76474622},{"name":"湯島中坂下","province":"東京都","city":"文京区","address":"東京都文京区湯島3丁目25-11","lat":35.70662919,"lon":139.76975705},{"name":"本郷消防署前第二","province":"東京都","city":"文京区","address":"東京都文京区本郷3丁目27-1","lat":35.70596234,"lon":139.76226576},{"name":"大横丁出口","province":"東京都","city":"文京区","address":"東京都文京区本郷3丁目16-9","lat":35.70557623,"lon":139.7611825},{"name":"天神町交番前","province":"東京都","city":"文京区","address":"東京都文京区湯島3丁目33-9","lat":35.70753467,"lon":139.76979589},{"name":"真砂坂上","province":"東京都","city":"文京区","address":"東京都文京区本郷4丁目7-2","lat":35.70754256,"lon":139.75721876},{"name":"文京第六中学校裏","province":"東京都","city":"文京区","address":"東京都文京区向丘1丁目20-7","lat":35.71741103,"lon":139.75792952},{"name":"順天堂横","province":"東京都","city":"文京区","address":"東京都文京区本郷2丁目9-8","lat":35.7028932,"lon":139.76171872},{"name":"清水坂下第二","province":"東京都","city":"文京区","address":"東京都文京区湯島2丁目1-5","lat":35.70317665,"lon":139.7660796},{"name":"慈愛病院前","province":"東京都","city":"文京区","address":"東京都文京区本郷6丁目12-5","lat":35.71313919,"lon":139.75682411},{"name":"中坂上","province":"東京都","city":"文京区","address":"東京都文京区湯島3丁目29-3","lat":35.70686245,"lon":139.76810988},{"name":"弥生門入口","province":"東京都","city":"文京区","address":"東京都文京区本郷7丁目3-1","lat":35.71203394,"lon":139.76277932},{"name":"本郷三丁目金助町","province":"東京都","city":"文京区","address":"東京都文京区本郷3丁目24-3","lat":35.70570963,"lon":139.76352682},{"name":"本郷郵便局前","province":"東京都","city":"文京区","address":"東京都文京区本郷6丁目1-15","lat":35.71227821,"lon":139.75908503},{"name":"湯島二丁目郵便局前","province":"東京都","city":"文京区","address":"東京都文京区湯島2丁目22-4","lat":35.70526257,"lon":139.76665448},{"name":"団子坂下","province":"東京都","city":"文京区","address":"東京都文京区千駄木3丁目37-20","lat":35.72495777,"lon":139.76346517},{"name":"上富士前","province":"東京都","city":"文京区","address":"東京都文京区本駒込5丁目3-3","lat":35.73214247,"lon":139.74994361},{"name":"道灌山下","province":"東京都","city":"文京区","address":"東京都文京区千駄木3丁目49-10","lat":35.73017663,"lon":139.76239287},{"name":"駒本小学校前","province":"東京都","city":"文京区","address":"東京都文京区本駒込1丁目6-14","lat":35.72467957,"lon":139.75342415},{"name":"千駄木二丁目","province":"東京都","city":"文京区","address":"東京都文京区根津1丁目27-5","lat":35.72104417,"lon":139.76182089},{"name":"文京グリーンコート前","province":"東京都","city":"文京区","address":"東京都文京区本駒込2丁目28-10","lat":35.73072031,"lon":139.74744106},{"name":"本駒込五丁目坂下","province":"東京都","city":"文京区","address":"東京都文京区本駒込5丁目40-5","lat":35.73331196,"lon":139.75373775},{"name":"駒込橋","province":"東京都","city":"文京区","address":"東京都文京区本駒込6丁目24-6","lat":35.73534474,"lon":139.74733257},{"name":"東洋大学前","province":"東京都","city":"文京区","address":"東京都文京区白山5丁目28-20","lat":35.72357121,"lon":139.74971335},{"name":"向丘一丁目","province":"東京都","city":"文京区","address":"東京都文京区向丘1丁目13-2","lat":35.72026069,"lon":139.75599352},{"name":"動坂上","province":"東京都","city":"文京区","address":"東京都文京区本駒込3丁目18-16","lat":35.73070131,"lon":139.75746536},{"name":"富士神社入口","province":"東京都","city":"文京区","address":"東京都文京区本駒込3丁目31-5","lat":35.73043718,"lon":139.75133247},{"name":"徳源院前","province":"東京都","city":"文京区","address":"東京都文京区本駒込3丁目7-14","lat":35.72652111,"lon":139.75494345},{"name":"駒込日医大前","province":"東京都","city":"文京区","address":"東京都文京区千駄木1丁目1-5","lat":35.72107737,"lon":139.75886828},{"name":"道灌山下東","province":"東京都","city":"文京区","address":"東京都文京区千駄木3丁目50-12","lat":35.73053219,"lon":139.76296227},{"name":"駒込稲荷坂下","province":"東京都","city":"文京区","address":"東京都文京区本駒込5丁目41-7","lat":35.73339253,"lon":139.75439326},{"name":"団子坂東","province":"東京都","city":"文京区","address":"東京都文京区千駄木2丁目35-7","lat":35.72446896,"lon":139.7641457},{"name":"勤労福祉会館前","province":"東京都","city":"文京区","address":"東京都文京区本駒込4丁目46-2","lat":35.73377311,"lon":139.75567094},{"name":"駒込病院前","province":"東京都","city":"文京区","address":"東京都文京区千駄木5丁目49-4","lat":35.72997639,"lon":139.75756816},{"name":"日本医科大学付属病院","province":"東京都","city":"文京区","address":"東京都文京区千駄木1丁目1-5","lat":35.72107737,"lon":139.75886828},{"name":"都立駒込病院","province":"東京都","city":"文京区","address":"東京都文京区本駒込3丁目18-22","lat":35.72994856,"lon":139.75609048},{"name":"順天堂大学医学部附属順天堂医院","province":"東京都","city":"文京区","address":"東京都文京区本郷3丁目1-3","lat":35.70250161,"lon":139.76261313},{"name":"東京医科歯科大学医学部附属病院","province":"東京都","city":"文京区","address":"東京都文京区湯島1丁目5-45","lat":35.70099629,"lon":139.76491864},{"name":"東京大学医学部付属病院","province":"東京都","city":"文京区","address":"東京都文京区本郷7丁目3-1","lat":35.71203394,"lon":139.76277932},{"name":"区立教育の森公園","province":"東京都","city":"文京区","address":"東京都文京区大塚3丁目29-1","lat":35.71964352,"lon":139.73724511},{"name":"東京医科歯科大学医学部付属病院","province":"東京都","city":"文京区","address":"東京都文京区湯島1丁目5-45","lat":35.70099629,"lon":139.76491864},{"name":"区立教育の森公園（注２）","province":"東京都","city":"文京区","address":"東京都文京区大塚3丁目29-1","lat":35.71964352,"lon":139.73724511},{"name":"東京大学御殿下グラウンド","province":"東京都","city":"文京区","address":"東京都文京区本郷7丁目3-1","lat":35.71203394,"lon":139.76277932},{"name":"東京大学医学部附属病院ヘリポート","province":"東京都","city":"文京区","address":"東京都文京区本郷7丁目3-1","lat":35.71203394,"lon":139.76277932},{"name":"東京大学農学部グラウンド","province":"東京都","city":"文京区","address":"東京都文京区弥生1丁目1","lat":35.71893042,"lon":139.76032934},{"name":"順天堂大学医学部附属順天堂医院ヘリポート","province":"東京都","city":"文京区","address":"東京都文京区本郷3丁目1-3","lat":35.70250161,"lon":139.76261313},{"name":"東京医科歯科大学医学部附属病院ヘリポート","province":"東京都","city":"文京区","address":"東京都文京区湯島1丁目5-45","lat":35.70099629,"lon":139.76491864},{"name":"目白台運動公園","province":"東京都","city":"文京区","address":"東京都文京区目白台1丁目20-2","lat":35.71545467,"lon":139.72151883},{"name":"文京シビックセンター","province":"東京都","city":"文京区","address":"東京都文京区春日1丁目16-21","lat":35.70794517,"lon":139.75242748},{"name":"(特定非営利活動法人)東京都子ども会連合会","province":"東京都","city":"文京区","address":"東京都文京区大塚6丁目1-14","lat":35.7254565,"lon":139.72843453},{"name":"（一財）インターネット協会","province":"東京都","city":"文京区","address":"東京都文京区湯島2丁目21-1","lat":35.7051709,"lon":139.76638504},{"name":"＊?文京区男女平等センター","province":"東京都","city":"文京区","address":"文京区本郷4-8-3","lat":35.708552,"lon":139.757477},{"name":"中央・城北職業能力開発センター","province":"東京都","city":"文京区","address":"東京都文京区後楽1丁目9-5","lat":35.70352608,"lon":139.74679479},{"name":"小石川中等教育学校","province":"東京都","city":"文京区","address":"東京都文京区本駒込2丁目29-29","lat":35.72883159,"lon":139.74594681},{"name":"教職員研修センター","province":"東京都","city":"文京区","address":"東京都文京区本郷1丁目3-3","lat":35.702432,"lon":139.75672739},{"name":"竹早高等学校","province":"東京都","city":"文京区","address":"東京都文京区小石川4丁目2-1","lat":35.71336381,"lon":139.74350307},{"name":"向丘高等学校","province":"東京都","city":"文京区","address":"東京都文京区向丘1丁目11-18","lat":35.72185769,"lon":139.7545297},{"name":"工芸高等学校","province":"東京都","city":"文京区","address":"東京都文京区本郷1丁目3-9","lat":35.70258197,"lon":139.75616354},{"name":"運動発達支援スタジオＵＮＩＭＯ後楽園","province":"東京都","city":"文京区","address":"文京区小石川2-25-10","lat":35.712211,"lon":139.750652},{"name":"富坂子どもの家","province":"東京都","city":"文京区","address":"文京区小石川2-17-41","lat":35.711125,"lon":139.748361},{"name":"発達支援ルーム　ぽけっと","province":"東京都","city":"文京区","address":"文京区小石川5-38-2クレストヒルズ小石川2階","lat":35.718166,"lon":139.742953},{"name":"放課後等デイサービス　びおら","province":"東京都","city":"文京区","address":"文京区小日向2丁目16-15","lat":35.710581,"lon":139.734582},{"name":"運動発達支援スタジオＵＮＩＭＯ文京千石","province":"東京都","city":"文京区","address":"文京区千石1-29-12千石片岡ビル101","lat":35.727271,"lon":139.74518},{"name":"放課後等デイサービス　あんプラス江戸川橋","province":"東京都","city":"文京区","address":"文京区関口1-48-6日火江戸川橋ビル第2201","lat":35.709486,"lon":139.730463},{"name":"エデュクエスト","province":"東京都","city":"文京区","address":"文京区白山1-18-7石川ビル202号室","lat":35.717747,"lon":139.752236},{"name":"放課後等デイサービス　カリタス翼","province":"東京都","city":"文京区","address":"文京区本駒込5-4-4","lat":35.732379,"lon":139.750074},{"name":"文京区放課後等デイサービスＪＯＹ","province":"東京都","city":"文京区","address":"文京区本駒込四丁目35番15号文京区勤労福祉会館2階","lat":35.733468,"lon":139.75514},{"name":"ハッピーテラス千駄木教室","province":"東京都","city":"文京区","address":"文京区根津2-37-8","lat":35.72118,"lon":139.76241},{"name":"文京区児童発達支援センター","province":"東京都","city":"文京区","address":"文京区湯島4-7-10","lat":35.708848,"lon":139.765768},{"name":"文京区子ども家庭支援センター","province":"東京都","city":"文京区","address":"文京区春日1-16-21シビックセンター5階","lat":35.707951,"lon":139.75243},{"name":"文京区子ども家庭支援センター","province":"東京都","city":"文京区","address":"文京区春日1-16-21シビックセンター5階","lat":35.70794,"lon":139.75278},{"name":"東京大学御殿下グラウンド","province":"東京都","city":"文京区","address":"東京都文京区本郷7丁目3-1","lat":35.71203394,"lon":139.76277932},{"name":"東京大学医学部附属病院ヘリポート","province":"東京都","city":"文京区","address":"東京都文京区本郷7丁目3-1","lat":35.71203394,"lon":139.76277932},{"name":"東京大学農学部グラウンド","province":"東京都","city":"文京区","address":"東京都文京区弥生1丁目1","lat":35.71893042,"lon":139.76032934},{"name":"順天堂大学医学部附属順天堂医院ヘリポート","province":"東京都","city":"文京区","address":"東京都文京区本郷3丁目1-3","lat":35.70250161,"lon":139.76261313},{"name":"東京医科歯科大学医学部附属病院ヘリポート","province":"東京都","city":"文京区","address":"東京都文京区湯島1丁目5-45","lat":35.70099629,"lon":139.76491864},{"name":"目白台運動公園","province":"東京都","city":"文京区","address":"東京都文京区目白台1丁目20-2","lat":35.71545467,"lon":139.72151883},{"name":"文京シビックセンター","province":"東京都","city":"文京区","address":"東京都文京区春日1丁目16-21","lat":35.70794517,"lon":139.75242748},{"name":"(特定非営利活動法人)東京都子ども会連合会","province":"東京都","city":"文京区","address":"東京都文京区大塚6丁目1-14","lat":35.7254565,"lon":139.72843453},{"name":"（一財）インターネット協会","province":"東京都","city":"文京区","address":"東京都文京区湯島2丁目21-1","lat":35.7051709,"lon":139.76638504},{"name":"＊?文京区男女平等センター","province":"東京都","city":"文京区","address":"文京区本郷4-8-3","lat":35.708552,"lon":139.757477},{"name":"中央・城北職業能力開発センター","province":"東京都","city":"文京区","address":"東京都文京区後楽1丁目9-5","lat":35.70352608,"lon":139.74679479},{"name":"小石川中等教育学校","province":"東京都","city":"文京区","address":"東京都文京区本駒込2丁目29-29","lat":35.72883159,"lon":139.74594681},{"name":"教職員研修センター","province":"東京都","city":"文京区","address":"東京都文京区本郷1丁目3-3","lat":35.702432,"lon":139.75672739},{"name":"竹早高等学校","province":"東京都","city":"文京区","address":"東京都文京区小石川4丁目2-1","lat":35.71336381,"lon":139.74350307},{"name":"向丘高等学校","province":"東京都","city":"文京区","address":"東京都文京区向丘1丁目11-18","lat":35.72185769,"lon":139.7545297},{"name":"工芸高等学校","province":"東京都","city":"文京区","address":"東京都文京区本郷1丁目3-9","lat":35.70258197,"lon":139.75616354},{"name":"運動発達支援スタジオＵＮＩＭＯ後楽園","province":"東京都","city":"文京区","address":"文京区小石川2-25-10","lat":35.712211,"lon":139.750652},{"name":"富坂子どもの家","province":"東京都","city":"文京区","address":"文京区小石川2-17-41","lat":35.711125,"lon":139.748361},{"name":"発達支援ルーム　ぽけっと","province":"東京都","city":"文京区","address":"文京区小石川5-38-2クレストヒルズ小石川2階","lat":35.718166,"lon":139.742953},{"name":"放課後等デイサービス　びおら","province":"東京都","city":"文京区","address":"文京区小日向2丁目16-15","lat":35.710581,"lon":139.734582},{"name":"運動発達支援スタジオＵＮＩＭＯ文京千石","province":"東京都","city":"文京区","address":"文京区千石1-29-12千石片岡ビル101","lat":35.727271,"lon":139.74518},{"name":"放課後等デイサービス　あんプラス江戸川橋","province":"東京都","city":"文京区","address":"文京区関口1-48-6日火江戸川橋ビル第2201","lat":35.709486,"lon":139.730463},{"name":"エデュクエスト","province":"東京都","city":"文京区","address":"文京区白山1-18-7石川ビル202号室","lat":35.717747,"lon":139.752236},{"name":"放課後等デイサービス　カリタス翼","province":"東京都","city":"文京区","address":"文京区本駒込5-4-4","lat":35.732379,"lon":139.750074},{"name":"文京区放課後等デイサービスＪＯＹ","province":"東京都","city":"文京区","address":"文京区本駒込四丁目35番15号文京区勤労福祉会館2階","lat":35.733468,"lon":139.75514},{"name":"ハッピーテラス千駄木教室","province":"東京都","city":"文京区","address":"文京区根津2-37-8","lat":35.72118,"lon":139.76241},{"name":"文京区児童発達支援センター","province":"東京都","city":"文京区","address":"文京区湯島4-7-10","lat":35.708848,"lon":139.765768},{"name":"文京区子ども家庭支援センター","province":"東京都","city":"文京区","address":"文京区春日1-16-21シビックセンター5階","lat":35.707951,"lon":139.75243},{"name":"文京区子ども家庭支援センター","province":"東京都","city":"文京区","address":"文京区春日1-16-21シビックセンター5階","lat":35.70794,"lon":139.75278},{"name":"(特定非営利活動法人)東京都子ども会連合会","province":"東京都","city":"文京区","address":"東京都文京区大塚6丁目1-14","lat":35.7254565,"lon":139.72843453},{"name":"（一財）インターネット協会","province":"東京都","city":"文京区","address":"東京都文京区湯島2丁目21-1","lat":35.7051709,"lon":139.76638504},{"name":"＊?文京区男女平等センター","province":"東京都","city":"文京区","address":"文京区本郷4-8-3","lat":35.708552,"lon":139.757477},{"name":"中央・城北職業能力開発センター","province":"東京都","city":"文京区","address":"東京都文京区後楽1丁目9-5","lat":35.70352608,"lon":139.74679479},{"name":"小石川中等教育学校","province":"東京都","city":"文京区","address":"東京都文京区本駒込2丁目29-29","lat":35.72883159,"lon":139.74594681},{"name":"教職員研修センター","province":"東京都","city":"文京区","address":"東京都文京区本郷1丁目3-3","lat":35.702432,"lon":139.75672739},{"name":"竹早高等学校","province":"東京都","city":"文京区","address":"東京都文京区小石川4丁目2-1","lat":35.71336381,"lon":139.74350307},{"name":"向丘高等学校","province":"東京都","city":"文京区","address":"東京都文京区向丘1丁目11-18","lat":35.72185769,"lon":139.7545297},{"name":"工芸高等学校","province":"東京都","city":"文京区","address":"東京都文京区本郷1丁目3-9","lat":35.70258197,"lon":139.75616354},{"name":"運動発達支援スタジオＵＮＩＭＯ後楽園","province":"東京都","city":"文京区","address":"文京区小石川2-25-10","lat":35.712211,"lon":139.750652},{"name":"富坂子どもの家","province":"東京都","city":"文京区","address":"文京区小石川2-17-41","lat":35.711125,"lon":139.748361},{"name":"発達支援ルーム　ぽけっと","province":"東京都","city":"文京区","address":"文京区小石川5-38-2クレストヒルズ小石川2階","lat":35.718166,"lon":139.742953},{"name":"放課後等デイサービス　びおら","province":"東京都","city":"文京区","address":"文京区小日向2丁目16-15","lat":35.710581,"lon":139.734582},{"name":"運動発達支援スタジオＵＮＩＭＯ文京千石","province":"東京都","city":"文京区","address":"文京区千石1-29-12千石片岡ビル101","lat":35.727271,"lon":139.74518},{"name":"放課後等デイサービス　あんプラス江戸川橋","province":"東京都","city":"文京区","address":"文京区関口1-48-6日火江戸川橋ビル第2201","lat":35.709486,"lon":139.730463},{"name":"エデュクエスト","province":"東京都","city":"文京区","address":"文京区白山1-18-7石川ビル202号室","lat":35.717747,"lon":139.752236},{"name":"放課後等デイサービス　カリタス翼","province":"東京都","city":"文京区","address":"文京区本駒込5-4-4","lat":35.732379,"lon":139.750074},{"name":"文京区放課後等デイサービスＪＯＹ","province":"東京都","city":"文京区","address":"文京区本駒込四丁目35番15号文京区勤労福祉会館2階","lat":35.733468,"lon":139.75514},{"name":"ハッピーテラス千駄木教室","province":"東京都","city":"文京区","address":"文京区根津2-37-8","lat":35.72118,"lon":139.76241},{"name":"文京区児童発達支援センター","province":"東京都","city":"文京区","address":"文京区湯島4-7-10","lat":35.708848,"lon":139.765768},{"name":"文京区子ども家庭支援センター","province":"東京都","city":"文京区","address":"文京区春日1-16-21シビックセンター5階","lat":35.707951,"lon":139.75243},{"name":"文京区子ども家庭支援センター","province":"東京都","city":"文京区","address":"文京区春日1-16-21シビックセンター5階","lat":35.70794,"lon":139.75278},{"name":"(特定非営利活動法人)東京都子ども会連合会","province":"東京都","city":"文京区","address":"東京都文京区大塚6丁目1-14","lat":35.7254565,"lon":139.72843453},{"name":"（一財）インターネット協会","province":"東京都","city":"文京区","address":"東京都文京区湯島2丁目21-1","lat":35.7051709,"lon":139.76638504},{"name":"＊?文京区男女平等センター","province":"東京都","city":"文京区","address":"文京区本郷4-8-3","lat":35.708552,"lon":139.757477},{"name":"中央・城北職業能力開発センター","province":"東京都","city":"文京区","address":"東京都文京区後楽1丁目9-5","lat":35.70352608,"lon":139.74679479},{"name":"小石川中等教育学校","province":"東京都","city":"文京区","address":"東京都文京区本駒込2丁目29-29","lat":35.72883159,"lon":139.74594681},{"name":"教職員研修センター","province":"東京都","city":"文京区","address":"東京都文京区本郷1丁目3-3","lat":35.702432,"lon":139.75672739},{"name":"竹早高等学校","province":"東京都","city":"文京区","address":"東京都文京区小石川4丁目2-1","lat":35.71336381,"lon":139.74350307},{"name":"向丘高等学校","province":"東京都","city":"文京区","address":"東京都文京区向丘1丁目11-18","lat":35.72185769,"lon":139.7545297},{"name":"工芸高等学校","province":"東京都","city":"文京区","address":"東京都文京区本郷1丁目3-9","lat":35.70258197,"lon":139.75616354},{"name":"運動発達支援スタジオＵＮＩＭＯ後楽園","province":"東京都","city":"文京区","address":"文京区小石川2-25-10","lat":35.712211,"lon":139.750652},{"name":"富坂子どもの家","province":"東京都","city":"文京区","address":"文京区小石川2-17-41","lat":35.711125,"lon":139.748361},{"name":"発達支援ルーム　ぽけっと","province":"東京都","city":"文京区","address":"文京区小石川5-38-2クレストヒルズ小石川2階","lat":35.718166,"lon":139.742953},{"name":"放課後等デイサービス　びおら","province":"東京都","city":"文京区","address":"文京区小日向2丁目16-15","lat":35.710581,"lon":139.734582},{"name":"運動発達支援スタジオＵＮＩＭＯ文京千石","province":"東京都","city":"文京区","address":"文京区千石1-29-12千石片岡ビル101","lat":35.727271,"lon":139.74518},{"name":"放課後等デイサービス　あんプラス江戸川橋","province":"東京都","city":"文京区","address":"文京区関口1-48-6日火江戸川橋ビル第2201","lat":35.709486,"lon":139.730463},{"name":"エデュクエスト","province":"東京都","city":"文京区","address":"文京区白山1-18-7石川ビル202号室","lat":35.717747,"lon":139.752236},{"name":"放課後等デイサービス　カリタス翼","province":"東京都","city":"文京区","address":"文京区本駒込5-4-4","lat":35.732379,"lon":139.750074},{"name":"文京区放課後等デイサービスＪＯＹ","province":"東京都","city":"文京区","address":"文京区本駒込四丁目35番15号文京区勤労福祉会館2階","lat":35.733468,"lon":139.75514},{"name":"ハッピーテラス千駄木教室","province":"東京都","city":"文京区","address":"文京区根津2-37-8","lat":35.72118,"lon":139.76241},{"name":"文京区児童発達支援センター","province":"東京都","city":"文京区","address":"文京区湯島4-7-10","lat":35.708848,"lon":139.765768},{"name":"文京区子ども家庭支援センター","province":"東京都","city":"文京区","address":"文京区春日1-16-21シビックセンター5階","lat":35.707951,"lon":139.75243},{"name":"文京区子ども家庭支援センター","province":"東京都","city":"文京区","address":"文京区春日1-16-21シビックセンター5階","lat":35.70794,"lon":139.75278},{"name":"＊?文京区男女平等センター","province":"東京都","city":"文京区","address":"文京区本郷4-8-3","lat":35.708552,"lon":139.757477},{"name":"中央・城北職業能力開発センター","province":"東京都","city":"文京区","address":"東京都文京区後楽1丁目9-5","lat":35.70352608,"lon":139.74679479},{"name":"小石川中等教育学校","province":"東京都","city":"文京区","address":"東京都文京区本駒込2丁目29-29","lat":35.72883159,"lon":139.74594681},{"name":"教職員研修センター","province":"東京都","city":"文京区","address":"東京都文京区本郷1丁目3-3","lat":35.702432,"lon":139.75672739},{"name":"竹早高等学校","province":"東京都","city":"文京区","address":"東京都文京区小石川4丁目2-1","lat":35.71336381,"lon":139.74350307},{"name":"向丘高等学校","province":"東京都","city":"文京区","address":"東京都文京区向丘1丁目11-18","lat":35.72185769,"lon":139.7545297},{"name":"工芸高等学校","province":"東京都","city":"文京区","address":"東京都文京区本郷1丁目3-9","lat":35.70258197,"lon":139.75616354},{"name":"運動発達支援スタジオＵＮＩＭＯ後楽園","province":"東京都","city":"文京区","address":"文京区小石川2-25-10","lat":35.712211,"lon":139.750652},{"name":"富坂子どもの家","province":"東京都","city":"文京区","address":"文京区小石川2-17-41","lat":35.711125,"lon":139.748361},{"name":"発達支援ルーム　ぽけっと","province":"東京都","city":"文京区","address":"文京区小石川5-38-2クレストヒルズ小石川2階","lat":35.718166,"lon":139.742953},{"name":"放課後等デイサービス　びおら","province":"東京都","city":"文京区","address":"文京区小日向2丁目16-15","lat":35.710581,"lon":139.734582},{"name":"運動発達支援スタジオＵＮＩＭＯ文京千石","province":"東京都","city":"文京区","address":"文京区千石1-29-12千石片岡ビル101","lat":35.727271,"lon":139.74518},{"name":"放課後等デイサービス　あんプラス江戸川橋","province":"東京都","city":"文京区","address":"文京区関口1-48-6日火江戸川橋ビル第2201","lat":35.709486,"lon":139.730463},{"name":"エデュクエスト","province":"東京都","city":"文京区","address":"文京区白山1-18-7石川ビル202号室","lat":35.717747,"lon":139.752236},{"name":"放課後等デイサービス　カリタス翼","province":"東京都","city":"文京区","address":"文京区本駒込5-4-4","lat":35.732379,"lon":139.750074},{"name":"文京区放課後等デイサービスＪＯＹ","province":"東京都","city":"文京区","address":"文京区本駒込四丁目35番15号文京区勤労福祉会館2階","lat":35.733468,"lon":139.75514},{"name":"ハッピーテラス千駄木教室","province":"東京都","city":"文京区","address":"文京区根津2-37-8","lat":35.72118,"lon":139.76241},{"name":"文京区児童発達支援センター","province":"東京都","city":"文京区","address":"文京区湯島4-7-10","lat":35.708848,"lon":139.765768},{"name":"文京区子ども家庭支援センター","province":"東京都","city":"文京区","address":"文京区春日1-16-21シビックセンター5階","lat":35.707951,"lon":139.75243},{"name":"文京区子ども家庭支援センター","province":"東京都","city":"文京区","address":"文京区春日1-16-21シビックセンター5階","lat":35.70794,"lon":139.75278},{"name":"＊?文京区男女平等センター","province":"東京都","city":"文京区","address":"文京区本郷4-8-3","lat":35.708552,"lon":139.757477},{"name":"中央・城北職業能力開発センター","province":"東京都","city":"文京区","address":"東京都文京区後楽1丁目9-5","lat":35.70352608,"lon":139.74679479},{"name":"小石川中等教育学校","province":"東京都","city":"文京区","address":"東京都文京区本駒込2丁目29-29","lat":35.72883159,"lon":139.74594681},{"name":"教職員研修センター","province":"東京都","city":"文京区","address":"東京都文京区本郷1丁目3-3","lat":35.702432,"lon":139.75672739},{"name":"竹早高等学校","province":"東京都","city":"文京区","address":"東京都文京区小石川4丁目2-1","lat":35.71336381,"lon":139.74350307},{"name":"向丘高等学校","province":"東京都","city":"文京区","address":"東京都文京区向丘1丁目11-18","lat":35.72185769,"lon":139.7545297},{"name":"工芸高等学校","province":"東京都","city":"文京区","address":"東京都文京区本郷1丁目3-9","lat":35.70258197,"lon":139.75616354},{"name":"運動発達支援スタジオＵＮＩＭＯ後楽園","province":"東京都","city":"文京区","address":"文京区小石川2-25-10","lat":35.712211,"lon":139.750652},{"name":"富坂子どもの家","province":"東京都","city":"文京区","address":"文京区小石川2-17-41","lat":35.711125,"lon":139.748361},{"name":"発達支援ルーム　ぽけっと","province":"東京都","city":"文京区","address":"文京区小石川5-38-2クレストヒルズ小石川2階","lat":35.718166,"lon":139.742953},{"name":"放課後等デイサービス　びおら","province":"東京都","city":"文京区","address":"文京区小日向2丁目16-15","lat":35.710581,"lon":139.734582},{"name":"運動発達支援スタジオＵＮＩＭＯ文京千石","province":"東京都","city":"文京区","address":"文京区千石1-29-12千石片岡ビル101","lat":35.727271,"lon":139.74518},{"name":"放課後等デイサービス　あんプラス江戸川橋","province":"東京都","city":"文京区","address":"文京区関口1-48-6日火江戸川橋ビル第2201","lat":35.709486,"lon":139.730463},{"name":"エデュクエスト","province":"東京都","city":"文京区","address":"文京区白山1-18-7石川ビル202号室","lat":35.717747,"lon":139.752236},{"name":"放課後等デイサービス　カリタス翼","province":"東京都","city":"文京区","address":"文京区本駒込5-4-4","lat":35.732379,"lon":139.750074},{"name":"文京区放課後等デイサービスＪＯＹ","province":"東京都","city":"文京区","address":"文京区本駒込四丁目35番15号文京区勤労福祉会館2階","lat":35.733468,"lon":139.75514},{"name":"ハッピーテラス千駄木教室","province":"東京都","city":"文京区","address":"文京区根津2-37-8","lat":35.72118,"lon":139.76241},{"name":"文京区児童発達支援センター","province":"東京都","city":"文京区","address":"文京区湯島4-7-10","lat":35.708848,"lon":139.765768},{"name":"文京区子ども家庭支援センター","province":"東京都","city":"文京区","address":"文京区春日1-16-21シビックセンター5階","lat":35.707951,"lon":139.75243},{"name":"文京区子ども家庭支援センター","province":"東京都","city":"文京区","address":"文京区春日1-16-21シビックセンター5階","lat":35.70794,"lon":139.75278},{"name":"＊?文京区男女平等センター","province":"東京都","city":"文京区","address":"文京区本郷4-8-3","lat":35.708552,"lon":139.757477},{"name":"中央・城北職業能力開発センター","province":"東京都","city":"文京区","address":"東京都文京区後楽1丁目9-5","lat":35.70352608,"lon":139.74679479},{"name":"小石川中等教育学校","province":"東京都","city":"文京区","address":"東京都文京区本駒込2丁目29-29","lat":35.72883159,"lon":139.74594681},{"name":"教職員研修センター","province":"東京都","city":"文京区","address":"東京都文京区本郷1丁目3-3","lat":35.702432,"lon":139.75672739},{"name":"竹早高等学校","province":"東京都","city":"文京区","address":"東京都文京区小石川4丁目2-1","lat":35.71336381,"lon":139.74350307},{"name":"向丘高等学校","province":"東京都","city":"文京区","address":"東京都文京区向丘1丁目11-18","lat":35.72185769,"lon":139.7545297},{"name":"工芸高等学校","province":"東京都","city":"文京区","address":"東京都文京区本郷1丁目3-9","lat":35.70258197,"lon":139.75616354},{"name":"運動発達支援スタジオＵＮＩＭＯ後楽園","province":"東京都","city":"文京区","address":"文京区小石川2-25-10","lat":35.712211,"lon":139.750652},{"name":"富坂子どもの家","province":"東京都","city":"文京区","address":"文京区小石川2-17-41","lat":35.711125,"lon":139.748361},{"name":"発達支援ルーム　ぽけっと","province":"東京都","city":"文京区","address":"文京区小石川5-38-2クレストヒルズ小石川2階","lat":35.718166,"lon":139.742953},{"name":"放課後等デイサービス　びおら","province":"東京都","city":"文京区","address":"文京区小日向2丁目16-15","lat":35.710581,"lon":139.734582},{"name":"運動発達支援スタジオＵＮＩＭＯ文京千石","province":"東京都","city":"文京区","address":"文京区千石1-29-12千石片岡ビル101","lat":35.727271,"lon":139.74518},{"name":"放課後等デイサービス　あんプラス江戸川橋","province":"東京都","city":"文京区","address":"文京区関口1-48-6日火江戸川橋ビル第2201","lat":35.709486,"lon":139.730463},{"name":"エデュクエスト","province":"東京都","city":"文京区","address":"文京区白山1-18-7石川ビル202号室","lat":35.717747,"lon":139.752236},{"name":"放課後等デイサービス　カリタス翼","province":"東京都","city":"文京区","address":"文京区本駒込5-4-4","lat":35.732379,"lon":139.750074},{"name":"文京区放課後等デイサービスＪＯＹ","province":"東京都","city":"文京区","address":"文京区本駒込四丁目35番15号文京区勤労福祉会館2階","lat":35.733468,"lon":139.75514},{"name":"ハッピーテラス千駄木教室","province":"東京都","city":"文京区","address":"文京区根津2-37-8","lat":35.72118,"lon":139.76241},{"name":"文京区児童発達支援センター","province":"東京都","city":"文京区","address":"文京区湯島4-7-10","lat":35.708848,"lon":139.765768},{"name":"文京区子ども家庭支援センター","province":"東京都","city":"文京区","address":"文京区春日1-16-21シビックセンター5階","lat":35.707951,"lon":139.75243},{"name":"文京区子ども家庭支援センター","province":"東京都","city":"文京区","address":"文京区春日1-16-21シビックセンター5階","lat":35.70794,"lon":139.75278},{"name":"＊?文京区男女平等センター","province":"東京都","city":"文京区","address":"文京区本郷4-8-3","lat":35.708552,"lon":139.757477},{"name":"中央・城北職業能力開発センター","province":"東京都","city":"文京区","address":"東京都文京区後楽1丁目9-5","lat":35.70352608,"lon":139.74679479},{"name":"小石川中等教育学校","province":"東京都","city":"文京区","address":"東京都文京区本駒込2丁目29-29","lat":35.72883159,"lon":139.74594681},{"name":"教職員研修センター","province":"東京都","city":"文京区","address":"東京都文京区本郷1丁目3-3","lat":35.702432,"lon":139.75672739},{"name":"竹早高等学校","province":"東京都","city":"文京区","address":"東京都文京区小石川4丁目2-1","lat":35.71336381,"lon":139.74350307},{"name":"向丘高等学校","province":"東京都","city":"文京区","address":"東京都文京区向丘1丁目11-18","lat":35.72185769,"lon":139.7545297},{"name":"工芸高等学校","province":"東京都","city":"文京区","address":"東京都文京区本郷1丁目3-9","lat":35.70258197,"lon":139.75616354},{"name":"運動発達支援スタジオＵＮＩＭＯ後楽園","province":"東京都","city":"文京区","address":"文京区小石川2-25-10","lat":35.712211,"lon":139.750652},{"name":"富坂子どもの家","province":"東京都","city":"文京区","address":"文京区小石川2-17-41","lat":35.711125,"lon":139.748361},{"name":"発達支援ルーム　ぽけっと","province":"東京都","city":"文京区","address":"文京区小石川5-38-2クレストヒルズ小石川2階","lat":35.718166,"lon":139.742953},{"name":"放課後等デイサービス　びおら","province":"東京都","city":"文京区","address":"文京区小日向2丁目16-15","lat":35.710581,"lon":139.734582},{"name":"運動発達支援スタジオＵＮＩＭＯ文京千石","province":"東京都","city":"文京区","address":"文京区千石1-29-12千石片岡ビル101","lat":35.727271,"lon":139.74518},{"name":"放課後等デイサービス　あんプラス江戸川橋","province":"東京都","city":"文京区","address":"文京区関口1-48-6日火江戸川橋ビル第2201","lat":35.709486,"lon":139.730463},{"name":"エデュクエスト","province":"東京都","city":"文京区","address":"文京区白山1-18-7石川ビル202号室","lat":35.717747,"lon":139.752236},{"name":"放課後等デイサービス　カリタス翼","province":"東京都","city":"文京区","address":"文京区本駒込5-4-4","lat":35.732379,"lon":139.750074},{"name":"文京区放課後等デイサービスＪＯＹ","province":"東京都","city":"文京区","address":"文京区本駒込四丁目35番15号文京区勤労福祉会館2階","lat":35.733468,"lon":139.75514},{"name":"ハッピーテラス千駄木教室","province":"東京都","city":"文京区","address":"文京区根津2-37-8","lat":35.72118,"lon":139.76241},{"name":"文京区児童発達支援センター","province":"東京都","city":"文京区","address":"文京区湯島4-7-10","lat":35.708848,"lon":139.765768},{"name":"文京区子ども家庭支援センター","province":"東京都","city":"文京区","address":"文京区春日1-16-21シビックセンター5階","lat":35.707951,"lon":139.75243},{"name":"文京区子ども家庭支援センター","province":"東京都","city":"文京区","address":"文京区春日1-16-21シビックセンター5階","lat":35.70794,"lon":139.75278},{"name":"＊?文京区男女平等センター","province":"東京都","city":"文京区","address":"文京区本郷4-8-3","lat":35.708552,"lon":139.757477},{"name":"中央・城北職業能力開発センター","province":"東京都","city":"文京区","address":"東京都文京区後楽1丁目9-5","lat":35.70352608,"lon":139.74679479},{"name":"小石川中等教育学校","province":"東京都","city":"文京区","address":"東京都文京区本駒込2丁目29-29","lat":35.72883159,"lon":139.74594681},{"name":"教職員研修センター","province":"東京都","city":"文京区","address":"東京都文京区本郷1丁目3-3","lat":35.702432,"lon":139.75672739},{"name":"竹早高等学校","province":"東京都","city":"文京区","address":"東京都文京区小石川4丁目2-1","lat":35.71336381,"lon":139.74350307},{"name":"向丘高等学校","province":"東京都","city":"文京区","address":"東京都文京区向丘1丁目11-18","lat":35.72185769,"lon":139.7545297},{"name":"工芸高等学校","province":"東京都","city":"文京区","address":"東京都文京区本郷1丁目3-9","lat":35.70258197,"lon":139.75616354},{"name":"運動発達支援スタジオＵＮＩＭＯ後楽園","province":"東京都","city":"文京区","address":"文京区小石川2-25-10","lat":35.712211,"lon":139.750652},{"name":"富坂子どもの家","province":"東京都","city":"文京区","address":"文京区小石川2-17-41","lat":35.711125,"lon":139.748361},{"name":"発達支援ルーム　ぽけっと","province":"東京都","city":"文京区","address":"文京区小石川5-38-2クレストヒルズ小石川2階","lat":35.718166,"lon":139.742953},{"name":"放課後等デイサービス　びおら","province":"東京都","city":"文京区","address":"文京区小日向2丁目16-15","lat":35.710581,"lon":139.734582},{"name":"運動発達支援スタジオＵＮＩＭＯ文京千石","province":"東京都","city":"文京区","address":"文京区千石1-29-12千石片岡ビル101","lat":35.727271,"lon":139.74518},{"name":"放課後等デイサービス　あんプラス江戸川橋","province":"東京都","city":"文京区","address":"文京区関口1-48-6日火江戸川橋ビル第2201","lat":35.709486,"lon":139.730463},{"name":"エデュクエスト","province":"東京都","city":"文京区","address":"文京区白山1-18-7石川ビル202号室","lat":35.717747,"lon":139.752236},{"name":"放課後等デイサービス　カリタス翼","province":"東京都","city":"文京区","address":"文京区本駒込5-4-4","lat":35.732379,"lon":139.750074},{"name":"文京区放課後等デイサービスＪＯＹ","province":"東京都","city":"文京区","address":"文京区本駒込四丁目35番15号文京区勤労福祉会館2階","lat":35.733468,"lon":139.75514},{"name":"ハッピーテラス千駄木教室","province":"東京都","city":"文京区","address":"文京区根津2-37-8","lat":35.72118,"lon":139.76241},{"name":"文京区児童発達支援センター","province":"東京都","city":"文京区","address":"文京区湯島4-7-10","lat":35.708848,"lon":139.765768},{"name":"文京区子ども家庭支援センター","province":"東京都","city":"文京区","address":"文京区春日1-16-21シビックセンター5階","lat":35.707951,"lon":139.75243},{"name":"文京区子ども家庭支援センター","province":"東京都","city":"文京区","address":"文京区春日1-16-21シビックセンター5階","lat":35.70794,"lon":139.75278},{"name":"＊?文京区男女平等センター","province":"東京都","city":"文京区","address":"文京区本郷4-8-3","lat":35.708552,"lon":139.757477},{"name":"中央・城北職業能力開発センター","province":"東京都","city":"文京区","address":"東京都文京区後楽1丁目9-5","lat":35.70352608,"lon":139.74679479},{"name":"小石川中等教育学校","province":"東京都","city":"文京区","address":"東京都文京区本駒込2丁目29-29","lat":35.72883159,"lon":139.74594681},{"name":"教職員研修センター","province":"東京都","city":"文京区","address":"東京都文京区本郷1丁目3-3","lat":35.702432,"lon":139.75672739},{"name":"竹早高等学校","province":"東京都","city":"文京区","address":"東京都文京区小石川4丁目2-1","lat":35.71336381,"lon":139.74350307},{"name":"向丘高等学校","province":"東京都","city":"文京区","address":"東京都文京区向丘1丁目11-18","lat":35.72185769,"lon":139.7545297},{"name":"工芸高等学校","province":"東京都","city":"文京区","address":"東京都文京区本郷1丁目3-9","lat":35.70258197,"lon":139.75616354},{"name":"運動発達支援スタジオＵＮＩＭＯ後楽園","province":"東京都","city":"文京区","address":"文京区小石川2-25-10","lat":35.712211,"lon":139.750652},{"name":"富坂子どもの家","province":"東京都","city":"文京区","address":"文京区小石川2-17-41","lat":35.711125,"lon":139.748361},{"name":"発達支援ルーム　ぽけっと","province":"東京都","city":"文京区","address":"文京区小石川5-38-2クレストヒルズ小石川2階","lat":35.718166,"lon":139.742953},{"name":"放課後等デイサービス　びおら","province":"東京都","city":"文京区","address":"文京区小日向2丁目16-15","lat":35.710581,"lon":139.734582},{"name":"運動発達支援スタジオＵＮＩＭＯ文京千石","province":"東京都","city":"文京区","address":"文京区千石1-29-12千石片岡ビル101","lat":35.727271,"lon":139.74518},{"name":"放課後等デイサービス　あんプラス江戸川橋","province":"東京都","city":"文京区","address":"文京区関口1-48-6日火江戸川橋ビル第2201","lat":35.709486,"lon":139.730463},{"name":"エデュクエスト","province":"東京都","city":"文京区","address":"文京区白山1-18-7石川ビル202号室","lat":35.717747,"lon":139.752236},{"name":"放課後等デイサービス　カリタス翼","province":"東京都","city":"文京区","address":"文京区本駒込5-4-4","lat":35.732379,"lon":139.750074},{"name":"文京区放課後等デイサービスＪＯＹ","province":"東京都","city":"文京区","address":"文京区本駒込四丁目35番15号文京区勤労福祉会館2階","lat":35.733468,"lon":139.75514},{"name":"ハッピーテラス千駄木教室","province":"東京都","city":"文京区","address":"文京区根津2-37-8","lat":35.72118,"lon":139.76241},{"name":"文京区児童発達支援センター","province":"東京都","city":"文京区","address":"文京区湯島4-7-10","lat":35.708848,"lon":139.765768},{"name":"文京区子ども家庭支援センター","province":"東京都","city":"文京区","address":"文京区春日1-16-21シビックセンター5階","lat":35.707951,"lon":139.75243},{"name":"文京区子ども家庭支援センター","province":"東京都","city":"文京区","address":"文京区春日1-16-21シビックセンター5階","lat":35.70794,"lon":139.75278},{"name":"＊?文京区男女平等センター","province":"東京都","city":"文京区","address":"文京区本郷4-8-3","lat":35.708552,"lon":139.757477},{"name":"中央・城北職業能力開発センター","province":"東京都","city":"文京区","address":"東京都文京区後楽1丁目9-5","lat":35.70352608,"lon":139.74679479},{"name":"小石川中等教育学校","province":"東京都","city":"文京区","address":"東京都文京区本駒込2丁目29-29","lat":35.72883159,"lon":139.74594681},{"name":"教職員研修センター","province":"東京都","city":"文京区","address":"東京都文京区本郷1丁目3-3","lat":35.702432,"lon":139.75672739},{"name":"竹早高等学校","province":"東京都","city":"文京区","address":"東京都文京区小石川4丁目2-1","lat":35.71336381,"lon":139.74350307},{"name":"向丘高等学校","province":"東京都","city":"文京区","address":"東京都文京区向丘1丁目11-18","lat":35.72185769,"lon":139.7545297},{"name":"工芸高等学校","province":"東京都","city":"文京区","address":"東京都文京区本郷1丁目3-9","lat":35.70258197,"lon":139.75616354},{"name":"運動発達支援スタジオＵＮＩＭＯ後楽園","province":"東京都","city":"文京区","address":"文京区小石川2-25-10","lat":35.712211,"lon":139.750652},{"name":"富坂子どもの家","province":"東京都","city":"文京区","address":"文京区小石川2-17-41","lat":35.711125,"lon":139.748361},{"name":"発達支援ルーム　ぽけっと","province":"東京都","city":"文京区","address":"文京区小石川5-38-2クレストヒルズ小石川2階","lat":35.718166,"lon":139.742953},{"name":"放課後等デイサービス　びおら","province":"東京都","city":"文京区","address":"文京区小日向2丁目16-15","lat":35.710581,"lon":139.734582},{"name":"運動発達支援スタジオＵＮＩＭＯ文京千石","province":"東京都","city":"文京区","address":"文京区千石1-29-12千石片岡ビル101","lat":35.727271,"lon":139.74518},{"name":"放課後等デイサービス　あんプラス江戸川橋","province":"東京都","city":"文京区","address":"文京区関口1-48-6日火江戸川橋ビル第2201","lat":35.709486,"lon":139.730463},{"name":"エデュクエスト","province":"東京都","city":"文京区","address":"文京区白山1-18-7石川ビル202号室","lat":35.717747,"lon":139.752236},{"name":"放課後等デイサービス　カリタス翼","province":"東京都","city":"文京区","address":"文京区本駒込5-4-4","lat":35.732379,"lon":139.750074},{"name":"文京区放課後等デイサービスＪＯＹ","province":"東京都","city":"文京区","address":"文京区本駒込四丁目35番15号文京区勤労福祉会館2階","lat":35.733468,"lon":139.75514},{"name":"ハッピーテラス千駄木教室","province":"東京都","city":"文京区","address":"文京区根津2-37-8","lat":35.72118,"lon":139.76241},{"name":"文京区児童発達支援センター","province":"東京都","city":"文京区","address":"文京区湯島4-7-10","lat":35.708848,"lon":139.765768},{"name":"文京区子ども家庭支援センター","province":"東京都","city":"文京区","address":"文京区春日1-16-21シビックセンター5階","lat":35.707951,"lon":139.75243},{"name":"文京区子ども家庭支援センター","province":"東京都","city":"文京区","address":"文京区春日1-16-21シビックセンター5階","lat":35.70794,"lon":139.75278},{"name":"＊?文京区男女平等センター","province":"東京都","city":"文京区","address":"文京区本郷4-8-3","lat":35.708552,"lon":139.757477},{"name":"中央・城北職業能力開発センター","province":"東京都","city":"文京区","address":"東京都文京区後楽1丁目9-5","lat":35.70352608,"lon":139.74679479},{"name":"小石川中等教育学校","province":"東京都","city":"文京区","address":"東京都文京区本駒込2丁目29-29","lat":35.72883159,"lon":139.74594681},{"name":"教職員研修センター","province":"東京都","city":"文京区","address":"東京都文京区本郷1丁目3-3","lat":35.702432,"lon":139.75672739},{"name":"竹早高等学校","province":"東京都","city":"文京区","address":"東京都文京区小石川4丁目2-1","lat":35.71336381,"lon":139.74350307},{"name":"向丘高等学校","province":"東京都","city":"文京区","address":"東京都文京区向丘1丁目11-18","lat":35.72185769,"lon":139.7545297},{"name":"工芸高等学校","province":"東京都","city":"文京区","address":"東京都文京区本郷1丁目3-9","lat":35.70258197,"lon":139.75616354},{"name":"運動発達支援スタジオＵＮＩＭＯ後楽園","province":"東京都","city":"文京区","address":"文京区小石川2-25-10","lat":35.712211,"lon":139.750652},{"name":"富坂子どもの家","province":"東京都","city":"文京区","address":"文京区小石川2-17-41","lat":35.711125,"lon":139.748361},{"name":"発達支援ルーム　ぽけっと","province":"東京都","city":"文京区","address":"文京区小石川5-38-2クレストヒルズ小石川2階","lat":35.718166,"lon":139.742953},{"name":"放課後等デイサービス　びおら","province":"東京都","city":"文京区","address":"文京区小日向2丁目16-15","lat":35.710581,"lon":139.734582},{"name":"運動発達支援スタジオＵＮＩＭＯ文京千石","province":"東京都","city":"文京区","address":"文京区千石1-29-12千石片岡ビル101","lat":35.727271,"lon":139.74518},{"name":"放課後等デイサービス　あんプラス江戸川橋","province":"東京都","city":"文京区","address":"文京区関口1-48-6日火江戸川橋ビル第2201","lat":35.709486,"lon":139.730463},{"name":"エデュクエスト","province":"東京都","city":"文京区","address":"文京区白山1-18-7石川ビル202号室","lat":35.717747,"lon":139.752236},{"name":"放課後等デイサービス　カリタス翼","province":"東京都","city":"文京区","address":"文京区本駒込5-4-4","lat":35.732379,"lon":139.750074},{"name":"文京区放課後等デイサービスＪＯＹ","province":"東京都","city":"文京区","address":"文京区本駒込四丁目35番15号文京区勤労福祉会館2階","lat":35.733468,"lon":139.75514},{"name":"ハッピーテラス千駄木教室","province":"東京都","city":"文京区","address":"文京区根津2-37-8","lat":35.72118,"lon":139.76241},{"name":"文京区児童発達支援センター","province":"東京都","city":"文京区","address":"文京区湯島4-7-10","lat":35.708848,"lon":139.765768},{"name":"文京区子ども家庭支援センター","province":"東京都","city":"文京区","address":"文京区春日1-16-21シビックセンター5階","lat":35.707951,"lon":139.75243},{"name":"文京区子ども家庭支援センター","province":"東京都","city":"文京区","address":"文京区春日1-16-21シビックセンター5階","lat":35.70794,"lon":139.75278},{"name":"＊?文京区男女平等センター","province":"東京都","city":"文京区","address":"文京区本郷4-8-3","lat":35.708552,"lon":139.757477},{"name":"中央・城北職業能力開発センター","province":"東京都","city":"文京区","address":"東京都文京区後楽1丁目9-5","lat":35.70352608,"lon":139.74679479},{"name":"小石川中等教育学校","province":"東京都","city":"文京区","address":"東京都文京区本駒込2丁目29-29","lat":35.72883159,"lon":139.74594681},{"name":"教職員研修センター","province":"東京都","city":"文京区","address":"東京都文京区本郷1丁目3-3","lat":35.702432,"lon":139.75672739},{"name":"竹早高等学校","province":"東京都","city":"文京区","address":"東京都文京区小石川4丁目2-1","lat":35.71336381,"lon":139.74350307},{"name":"向丘高等学校","province":"東京都","city":"文京区","address":"東京都文京区向丘1丁目11-18","lat":35.72185769,"lon":139.7545297},{"name":"工芸高等学校","province":"東京都","city":"文京区","address":"東京都文京区本郷1丁目3-9","lat":35.70258197,"lon":139.75616354},{"name":"運動発達支援スタジオＵＮＩＭＯ後楽園","province":"東京都","city":"文京区","address":"文京区小石川2-25-10","lat":35.712211,"lon":139.750652},{"name":"富坂子どもの家","province":"東京都","city":"文京区","address":"文京区小石川2-17-41","lat":35.711125,"lon":139.748361},{"name":"発達支援ルーム　ぽけっと","province":"東京都","city":"文京区","address":"文京区小石川5-38-2クレストヒルズ小石川2階","lat":35.718166,"lon":139.742953},{"name":"放課後等デイサービス　びおら","province":"東京都","city":"文京区","address":"文京区小日向2丁目16-15","lat":35.710581,"lon":139.734582},{"name":"運動発達支援スタジオＵＮＩＭＯ文京千石","province":"東京都","city":"文京区","address":"文京区千石1-29-12千石片岡ビル101","lat":35.727271,"lon":139.74518},{"name":"放課後等デイサービス　あんプラス江戸川橋","province":"東京都","city":"文京区","address":"文京区関口1-48-6日火江戸川橋ビル第2201","lat":35.709486,"lon":139.730463},{"name":"エデュクエスト","province":"東京都","city":"文京区","address":"文京区白山1-18-7石川ビル202号室","lat":35.717747,"lon":139.752236},{"name":"放課後等デイサービス　カリタス翼","province":"東京都","city":"文京区","address":"文京区本駒込5-4-4","lat":35.732379,"lon":139.750074},{"name":"文京区放課後等デイサービスＪＯＹ","province":"東京都","city":"文京区","address":"文京区本駒込四丁目35番15号文京区勤労福祉会館2階","lat":35.733468,"lon":139.75514},{"name":"ハッピーテラス千駄木教室","province":"東京都","city":"文京区","address":"文京区根津2-37-8","lat":35.72118,"lon":139.76241},{"name":"文京区児童発達支援センター","province":"東京都","city":"文京区","address":"文京区湯島4-7-10","lat":35.708848,"lon":139.765768},{"name":"文京区子ども家庭支援センター","province":"東京都","city":"文京区","address":"文京区春日1-16-21シビックセンター5階","lat":35.707951,"lon":139.75243},{"name":"文京区子ども家庭支援センター","province":"東京都","city":"文京区","address":"文京区春日1-16-21シビックセンター5階","lat":35.70794,"lon":139.75278},{"name":"＊?文京区男女平等センター","province":"東京都","city":"文京区","address":"文京区本郷4-8-3","lat":35.708552,"lon":139.757477},{"name":"中央・城北職業能力開発センター","province":"東京都","city":"文京区","address":"東京都文京区後楽1丁目9-5","lat":35.70352608,"lon":139.74679479},{"name":"小石川中等教育学校","province":"東京都","city":"文京区","address":"東京都文京区本駒込2丁目29-29","lat":35.72883159,"lon":139.74594681},{"name":"教職員研修センター","province":"東京都","city":"文京区","address":"東京都文京区本郷1丁目3-3","lat":35.702432,"lon":139.75672739},{"name":"竹早高等学校","province":"東京都","city":"文京区","address":"東京都文京区小石川4丁目2-1","lat":35.71336381,"lon":139.74350307},{"name":"向丘高等学校","province":"東京都","city":"文京区","address":"東京都文京区向丘1丁目11-18","lat":35.72185769,"lon":139.7545297},{"name":"工芸高等学校","province":"東京都","city":"文京区","address":"東京都文京区本郷1丁目3-9","lat":35.70258197,"lon":139.75616354},{"name":"運動発達支援スタジオＵＮＩＭＯ後楽園","province":"東京都","city":"文京区","address":"文京区小石川2-25-10","lat":35.712211,"lon":139.750652},{"name":"富坂子どもの家","province":"東京都","city":"文京区","address":"文京区小石川2-17-41","lat":35.711125,"lon":139.748361},{"name":"発達支援ルーム　ぽけっと","province":"東京都","city":"文京区","address":"文京区小石川5-38-2クレストヒルズ小石川2階","lat":35.718166,"lon":139.742953},{"name":"放課後等デイサービス　びおら","province":"東京都","city":"文京区","address":"文京区小日向2丁目16-15","lat":35.710581,"lon":139.734582},{"name":"運動発達支援スタジオＵＮＩＭＯ文京千石","province":"東京都","city":"文京区","address":"文京区千石1-29-12千石片岡ビル101","lat":35.727271,"lon":139.74518},{"name":"放課後等デイサービス　あんプラス江戸川橋","province":"東京都","city":"文京区","address":"文京区関口1-48-6日火江戸川橋ビル第2201","lat":35.709486,"lon":139.730463},{"name":"エデュクエスト","province":"東京都","city":"文京区","address":"文京区白山1-18-7石川ビル202号室","lat":35.717747,"lon":139.752236},{"name":"放課後等デイサービス　カリタス翼","province":"東京都","city":"文京区","address":"文京区本駒込5-4-4","lat":35.732379,"lon":139.750074},{"name":"文京区放課後等デイサービスＪＯＹ","province":"東京都","city":"文京区","address":"文京区本駒込四丁目35番15号文京区勤労福祉会館2階","lat":35.733468,"lon":139.75514},{"name":"ハッピーテラス千駄木教室","province":"東京都","city":"文京区","address":"文京区根津2-37-8","lat":35.72118,"lon":139.76241},{"name":"文京区児童発達支援センター","province":"東京都","city":"文京区","address":"文京区湯島4-7-10","lat":35.708848,"lon":139.765768},{"name":"文京区子ども家庭支援センター","province":"東京都","city":"文京区","address":"文京区春日1-16-21シビックセンター5階","lat":35.707951,"lon":139.75243},{"name":"文京区子ども家庭支援センター","province":"東京都","city":"文京区","address":"文京区春日1-16-21シビックセンター5階","lat":35.70794,"lon":139.75278},{"name":"＊?文京区男女平等センター","province":"東京都","city":"文京区","address":"文京区本郷4-8-3","lat":35.708552,"lon":139.757477},{"name":"中央・城北職業能力開発センター","province":"東京都","city":"文京区","address":"東京都文京区後楽1丁目9-5","lat":35.70352608,"lon":139.74679479},{"name":"小石川中等教育学校","province":"東京都","city":"文京区","address":"東京都文京区本駒込2丁目29-29","lat":35.72883159,"lon":139.74594681},{"name":"教職員研修センター","province":"東京都","city":"文京区","address":"東京都文京区本郷1丁目3-3","lat":35.702432,"lon":139.75672739},{"name":"竹早高等学校","province":"東京都","city":"文京区","address":"東京都文京区小石川4丁目2-1","lat":35.71336381,"lon":139.74350307},{"name":"向丘高等学校","province":"東京都","city":"文京区","address":"東京都文京区向丘1丁目11-18","lat":35.72185769,"lon":139.7545297},{"name":"工芸高等学校","province":"東京都","city":"文京区","address":"東京都文京区本郷1丁目3-9","lat":35.70258197,"lon":139.75616354},{"name":"運動発達支援スタジオＵＮＩＭＯ後楽園","province":"東京都","city":"文京区","address":"文京区小石川2-25-10","lat":35.712211,"lon":139.750652},{"name":"富坂子どもの家","province":"東京都","city":"文京区","address":"文京区小石川2-17-41","lat":35.711125,"lon":139.748361},{"name":"発達支援ルーム　ぽけっと","province":"東京都","city":"文京区","address":"文京区小石川5-38-2クレストヒルズ小石川2階","lat":35.718166,"lon":139.742953},{"name":"放課後等デイサービス　びおら","province":"東京都","city":"文京区","address":"文京区小日向2丁目16-15","lat":35.710581,"lon":139.734582},{"name":"運動発達支援スタジオＵＮＩＭＯ文京千石","province":"東京都","city":"文京区","address":"文京区千石1-29-12千石片岡ビル101","lat":35.727271,"lon":139.74518},{"name":"放課後等デイサービス　あんプラス江戸川橋","province":"東京都","city":"文京区","address":"文京区関口1-48-6日火江戸川橋ビル第2201","lat":35.709486,"lon":139.730463},{"name":"エデュクエスト","province":"東京都","city":"文京区","address":"文京区白山1-18-7石川ビル202号室","lat":35.717747,"lon":139.752236},{"name":"放課後等デイサービス　カリタス翼","province":"東京都","city":"文京区","address":"文京区本駒込5-4-4","lat":35.732379,"lon":139.750074},{"name":"文京区放課後等デイサービスＪＯＹ","province":"東京都","city":"文京区","address":"文京区本駒込四丁目35番15号文京区勤労福祉会館2階","lat":35.733468,"lon":139.75514},{"name":"ハッピーテラス千駄木教室","province":"東京都","city":"文京区","address":"文京区根津2-37-8","lat":35.72118,"lon":139.76241},{"name":"文京区児童発達支援センター","province":"東京都","city":"文京区","address":"文京区湯島4-7-10","lat":35.708848,"lon":139.765768},{"name":"文京区子ども家庭支援センター","province":"東京都","city":"文京区","address":"文京区春日1-16-21シビックセンター5階","lat":35.707951,"lon":139.75243},{"name":"文京区子ども家庭支援センター","province":"東京都","city":"文京区","address":"文京区春日1-16-21シビックセンター5階","lat":35.70794,"lon":139.75278},{"name":"＊?文京区男女平等センター","province":"東京都","city":"文京区","address":"文京区本郷4-8-3","lat":35.708552,"lon":139.757477},{"name":"中央・城北職業能力開発センター","province":"東京都","city":"文京区","address":"東京都文京区後楽1丁目9-5","lat":35.70352608,"lon":139.74679479},{"name":"小石川中等教育学校","province":"東京都","city":"文京区","address":"東京都文京区本駒込2丁目29-29","lat":35.72883159,"lon":139.74594681},{"name":"教職員研修センター","province":"東京都","city":"文京区","address":"東京都文京区本郷1丁目3-3","lat":35.702432,"lon":139.75672739},{"name":"竹早高等学校","province":"東京都","city":"文京区","address":"東京都文京区小石川4丁目2-1","lat":35.71336381,"lon":139.74350307},{"name":"向丘高等学校","province":"東京都","city":"文京区","address":"東京都文京区向丘1丁目11-18","lat":35.72185769,"lon":139.7545297},{"name":"工芸高等学校","province":"東京都","city":"文京区","address":"東京都文京区本郷1丁目3-9","lat":35.70258197,"lon":139.75616354},{"name":"運動発達支援スタジオＵＮＩＭＯ後楽園","province":"東京都","city":"文京区","address":"文京区小石川2-25-10","lat":35.712211,"lon":139.750652},{"name":"富坂子どもの家","province":"東京都","city":"文京区","address":"文京区小石川2-17-41","lat":35.711125,"lon":139.748361},{"name":"発達支援ルーム　ぽけっと","province":"東京都","city":"文京区","address":"文京区小石川5-38-2クレストヒルズ小石川2階","lat":35.718166,"lon":139.742953},{"name":"放課後等デイサービス　びおら","province":"東京都","city":"文京区","address":"文京区小日向2丁目16-15","lat":35.710581,"lon":139.734582},{"name":"運動発達支援スタジオＵＮＩＭＯ文京千石","province":"東京都","city":"文京区","address":"文京区千石1-29-12千石片岡ビル101","lat":35.727271,"lon":139.74518},{"name":"放課後等デイサービス　あんプラス江戸川橋","province":"東京都","city":"文京区","address":"文京区関口1-48-6日火江戸川橋ビル第2201","lat":35.709486,"lon":139.730463},{"name":"エデュクエスト","province":"東京都","city":"文京区","address":"文京区白山1-18-7石川ビル202号室","lat":35.717747,"lon":139.752236},{"name":"放課後等デイサービス　カリタス翼","province":"東京都","city":"文京区","address":"文京区本駒込5-4-4","lat":35.732379,"lon":139.750074},{"name":"文京区放課後等デイサービスＪＯＹ","province":"東京都","city":"文京区","address":"文京区本駒込四丁目35番15号文京区勤労福祉会館2階","lat":35.733468,"lon":139.75514},{"name":"ハッピーテラス千駄木教室","province":"東京都","city":"文京区","address":"文京区根津2-37-8","lat":35.72118,"lon":139.76241},{"name":"文京区児童発達支援センター","province":"東京都","city":"文京区","address":"文京区湯島4-7-10","lat":35.708848,"lon":139.765768},{"name":"文京区子ども家庭支援センター","province":"東京都","city":"文京区","address":"文京区春日1-16-21シビックセンター5階","lat":35.707951,"lon":139.75243},{"name":"文京区子ども家庭支援センター","province":"東京都","city":"文京区","address":"文京区春日1-16-21シビックセンター5階","lat":35.70794,"lon":139.75278},{"name":"＊?文京区男女平等センター","province":"東京都","city":"文京区","address":"文京区本郷4-8-3","lat":35.708552,"lon":139.757477},{"name":"運動発達支援スタジオＵＮＩＭＯ後楽園","province":"東京都","city":"文京区","address":"文京区小石川2-25-10","lat":35.712211,"lon":139.750652},{"name":"富坂子どもの家","province":"東京都","city":"文京区","address":"文京区小石川2-17-41","lat":35.711125,"lon":139.748361},{"name":"発達支援ルーム　ぽけっと","province":"東京都","city":"文京区","address":"文京区小石川5-38-2クレストヒルズ小石川2階","lat":35.718166,"lon":139.742953},{"name":"放課後等デイサービス　びおら","province":"東京都","city":"文京区","address":"文京区小日向2丁目16-15","lat":35.710581,"lon":139.734582},{"name":"運動発達支援スタジオＵＮＩＭＯ文京千石","province":"東京都","city":"文京区","address":"文京区千石1-29-12千石片岡ビル101","lat":35.727271,"lon":139.74518},{"name":"放課後等デイサービス　あんプラス江戸川橋","province":"東京都","city":"文京区","address":"文京区関口1-48-6日火江戸川橋ビル第2201","lat":35.709486,"lon":139.730463},{"name":"エデュクエスト","province":"東京都","city":"文京区","address":"文京区白山1-18-7石川ビル202号室","lat":35.717747,"lon":139.752236},{"name":"放課後等デイサービス　カリタス翼","province":"東京都","city":"文京区","address":"文京区本駒込5-4-4","lat":35.732379,"lon":139.750074},{"name":"文京区放課後等デイサービスＪＯＹ","province":"東京都","city":"文京区","address":"文京区本駒込四丁目35番15号文京区勤労福祉会館2階","lat":35.733468,"lon":139.75514},{"name":"ハッピーテラス千駄木教室","province":"東京都","city":"文京区","address":"文京区根津2-37-8","lat":35.72118,"lon":139.76241},{"name":"文京区児童発達支援センター","province":"東京都","city":"文京区","address":"文京区湯島4-7-10","lat":35.708848,"lon":139.765768},{"name":"文京区子ども家庭支援センター","province":"東京都","city":"文京区","address":"文京区春日1-16-21シビックセンター5階","lat":35.707951,"lon":139.75243},{"name":"文京区子ども家庭支援センター","province":"東京都","city":"文京区","address":"文京区春日1-16-21シビックセンター5階","lat":35.70794,"lon":139.75278},{"name":"＊?文京区男女平等センター","province":"東京都","city":"文京区","address":"文京区本郷4-8-3","lat":35.708552,"lon":139.757477},{"name":"運動発達支援スタジオＵＮＩＭＯ後楽園","province":"東京都","city":"文京区","address":"文京区小石川2-25-10","lat":35.712211,"lon":139.750652},{"name":"富坂子どもの家","province":"東京都","city":"文京区","address":"文京区小石川2-17-41","lat":35.711125,"lon":139.748361},{"name":"発達支援ルーム　ぽけっと","province":"東京都","city":"文京区","address":"文京区小石川5-38-2クレストヒルズ小石川2階","lat":35.718166,"lon":139.742953},{"name":"放課後等デイサービス　びおら","province":"東京都","city":"文京区","address":"文京区小日向2丁目16-15","lat":35.710581,"lon":139.734582},{"name":"運動発達支援スタジオＵＮＩＭＯ文京千石","province":"東京都","city":"文京区","address":"文京区千石1-29-12千石片岡ビル101","lat":35.727271,"lon":139.74518},{"name":"放課後等デイサービス　あんプラス江戸川橋","province":"東京都","city":"文京区","address":"文京区関口1-48-6日火江戸川橋ビル第2201","lat":35.709486,"lon":139.730463},{"name":"エデュクエスト","province":"東京都","city":"文京区","address":"文京区白山1-18-7石川ビル202号室","lat":35.717747,"lon":139.752236},{"name":"放課後等デイサービス　カリタス翼","province":"東京都","city":"文京区","address":"文京区本駒込5-4-4","lat":35.732379,"lon":139.750074},{"name":"文京区放課後等デイサービスＪＯＹ","province":"東京都","city":"文京区","address":"文京区本駒込四丁目35番15号文京区勤労福祉会館2階","lat":35.733468,"lon":139.75514},{"name":"ハッピーテラス千駄木教室","province":"東京都","city":"文京区","address":"文京区根津2-37-8","lat":35.72118,"lon":139.76241},{"name":"文京区児童発達支援センター","province":"東京都","city":"文京区","address":"文京区湯島4-7-10","lat":35.708848,"lon":139.765768},{"name":"文京区子ども家庭支援センター","province":"東京都","city":"文京区","address":"文京区春日1-16-21シビックセンター5階","lat":35.707951,"lon":139.75243},{"name":"文京区子ども家庭支援センター","province":"東京都","city":"文京区","address":"文京区春日1-16-21シビックセンター5階","lat":35.70794,"lon":139.75278},{"name":"＊?文京区男女平等センター","province":"東京都","city":"文京区","address":"文京区本郷4-8-3","lat":35.708552,"lon":139.757477},{"name":"運動発達支援スタジオＵＮＩＭＯ後楽園","province":"東京都","city":"文京区","address":"文京区小石川2-25-10","lat":35.712211,"lon":139.750652},{"name":"富坂子どもの家","province":"東京都","city":"文京区","address":"文京区小石川2-17-41","lat":35.711125,"lon":139.748361},{"name":"発達支援ルーム　ぽけっと","province":"東京都","city":"文京区","address":"文京区小石川5-38-2クレストヒルズ小石川2階","lat":35.718166,"lon":139.742953},{"name":"放課後等デイサービス　びおら","province":"東京都","city":"文京区","address":"文京区小日向2丁目16-15","lat":35.710581,"lon":139.734582},{"name":"運動発達支援スタジオＵＮＩＭＯ文京千石","province":"東京都","city":"文京区","address":"文京区千石1-29-12千石片岡ビル101","lat":35.727271,"lon":139.74518},{"name":"放課後等デイサービス　あんプラス江戸川橋","province":"東京都","city":"文京区","address":"文京区関口1-48-6日火江戸川橋ビル第2201","lat":35.709486,"lon":139.730463},{"name":"エデュクエスト","province":"東京都","city":"文京区","address":"文京区白山1-18-7石川ビル202号室","lat":35.717747,"lon":139.752236},{"name":"放課後等デイサービス　カリタス翼","province":"東京都","city":"文京区","address":"文京区本駒込5-4-4","lat":35.732379,"lon":139.750074},{"name":"文京区放課後等デイサービスＪＯＹ","province":"東京都","city":"文京区","address":"文京区本駒込四丁目35番15号文京区勤労福祉会館2階","lat":35.733468,"lon":139.75514},{"name":"ハッピーテラス千駄木教室","province":"東京都","city":"文京区","address":"文京区根津2-37-8","lat":35.72118,"lon":139.76241},{"name":"文京区児童発達支援センター","province":"東京都","city":"文京区","address":"文京区湯島4-7-10","lat":35.708848,"lon":139.765768},{"name":"文京区子ども家庭支援センター","province":"東京都","city":"文京区","address":"文京区春日1-16-21シビックセンター5階","lat":35.707951,"lon":139.75243},{"name":"文京区子ども家庭支援センター","province":"東京都","city":"文京区","address":"文京区春日1-16-21シビックセンター5階","lat":35.70794,"lon":139.75278},{"name":"＊?文京区男女平等センター","province":"東京都","city":"文京区","address":"文京区本郷4-8-3","lat":35.708552,"lon":139.757477},{"name":"運動発達支援スタジオＵＮＩＭＯ後楽園","province":"東京都","city":"文京区","address":"文京区小石川2-25-10","lat":35.712211,"lon":139.750652},{"name":"富坂子どもの家","province":"東京都","city":"文京区","address":"文京区小石川2-17-41","lat":35.711125,"lon":139.748361},{"name":"発達支援ルーム　ぽけっと","province":"東京都","city":"文京区","address":"文京区小石川5-38-2クレストヒルズ小石川2階","lat":35.718166,"lon":139.742953},{"name":"放課後等デイサービス　びおら","province":"東京都","city":"文京区","address":"文京区小日向2丁目16-15","lat":35.710581,"lon":139.734582},{"name":"運動発達支援スタジオＵＮＩＭＯ文京千石","province":"東京都","city":"文京区","address":"文京区千石1-29-12千石片岡ビル101","lat":35.727271,"lon":139.74518},{"name":"放課後等デイサービス　あんプラス江戸川橋","province":"東京都","city":"文京区","address":"文京区関口1-48-6日火江戸川橋ビル第2201","lat":35.709486,"lon":139.730463},{"name":"エデュクエスト","province":"東京都","city":"文京区","address":"文京区白山1-18-7石川ビル202号室","lat":35.717747,"lon":139.752236},{"name":"放課後等デイサービス　カリタス翼","province":"東京都","city":"文京区","address":"文京区本駒込5-4-4","lat":35.732379,"lon":139.750074},{"name":"文京区放課後等デイサービスＪＯＹ","province":"東京都","city":"文京区","address":"文京区本駒込四丁目35番15号文京区勤労福祉会館2階","lat":35.733468,"lon":139.75514},{"name":"ハッピーテラス千駄木教室","province":"東京都","city":"文京区","address":"文京区根津2-37-8","lat":35.72118,"lon":139.76241},{"name":"文京区児童発達支援センター","province":"東京都","city":"文京区","address":"文京区湯島4-7-10","lat":35.708848,"lon":139.765768},{"name":"文京区子ども家庭支援センター","province":"東京都","city":"文京区","address":"文京区春日1-16-21シビックセンター5階","lat":35.707951,"lon":139.75243},{"name":"文京区子ども家庭支援センター","province":"東京都","city":"文京区","address":"文京区春日1-16-21シビックセンター5階","lat":35.70794,"lon":139.75278},{"name":"＊?文京区男女平等センター","province":"東京都","city":"文京区","address":"文京区本郷4-8-3","lat":35.708552,"lon":139.757477},{"name":"運動発達支援スタジオＵＮＩＭＯ後楽園","province":"東京都","city":"文京区","address":"文京区小石川2-25-10","lat":35.712211,"lon":139.750652},{"name":"富坂子どもの家","province":"東京都","city":"文京区","address":"文京区小石川2-17-41","lat":35.711125,"lon":139.748361},{"name":"発達支援ルーム　ぽけっと","province":"東京都","city":"文京区","address":"文京区小石川5-38-2クレストヒルズ小石川2階","lat":35.718166,"lon":139.742953},{"name":"放課後等デイサービス　びおら","province":"東京都","city":"文京区","address":"文京区小日向2丁目16-15","lat":35.710581,"lon":139.734582},{"name":"運動発達支援スタジオＵＮＩＭＯ文京千石","province":"東京都","city":"文京区","address":"文京区千石1-29-12千石片岡ビル101","lat":35.727271,"lon":139.74518},{"name":"放課後等デイサービス　あんプラス江戸川橋","province":"東京都","city":"文京区","address":"文京区関口1-48-6日火江戸川橋ビル第2201","lat":35.709486,"lon":139.730463},{"name":"エデュクエスト","province":"東京都","city":"文京区","address":"文京区白山1-18-7石川ビル202号室","lat":35.717747,"lon":139.752236},{"name":"放課後等デイサービス　カリタス翼","province":"東京都","city":"文京区","address":"文京区本駒込5-4-4","lat":35.732379,"lon":139.750074},{"name":"文京区放課後等デイサービスＪＯＹ","province":"東京都","city":"文京区","address":"文京区本駒込四丁目35番15号文京区勤労福祉会館2階","lat":35.733468,"lon":139.75514},{"name":"ハッピーテラス千駄木教室","province":"東京都","city":"文京区","address":"文京区根津2-37-8","lat":35.72118,"lon":139.76241},{"name":"文京区児童発達支援センター","province":"東京都","city":"文京区","address":"文京区湯島4-7-10","lat":35.708848,"lon":139.765768},{"name":"文京区子ども家庭支援センター","province":"東京都","city":"文京区","address":"文京区春日1-16-21シビックセンター5階","lat":35.707951,"lon":139.75243},{"name":"文京区子ども家庭支援センター","province":"東京都","city":"文京区","address":"文京区春日1-16-21シビックセンター5階","lat":35.70794,"lon":139.75278},{"name":"＊?文京区男女平等センター","province":"東京都","city":"文京区","address":"文京区本郷4-8-3","lat":35.708552,"lon":139.757477},{"name":"運動発達支援スタジオＵＮＩＭＯ後楽園","province":"東京都","city":"文京区","address":"文京区小石川2-25-10","lat":35.712211,"lon":139.750652},{"name":"富坂子どもの家","province":"東京都","city":"文京区","address":"文京区小石川2-17-41","lat":35.711125,"lon":139.748361},{"name":"発達支援ルーム　ぽけっと","province":"東京都","city":"文京区","address":"文京区小石川5-38-2クレストヒルズ小石川2階","lat":35.718166,"lon":139.742953},{"name":"放課後等デイサービス　びおら","province":"東京都","city":"文京区","address":"文京区小日向2丁目16-15","lat":35.710581,"lon":139.734582},{"name":"運動発達支援スタジオＵＮＩＭＯ文京千石","province":"東京都","city":"文京区","address":"文京区千石1-29-12千石片岡ビル101","lat":35.727271,"lon":139.74518},{"name":"放課後等デイサービス　あんプラス江戸川橋","province":"東京都","city":"文京区","address":"文京区関口1-48-6日火江戸川橋ビル第2201","lat":35.709486,"lon":139.730463},{"name":"エデュクエスト","province":"東京都","city":"文京区","address":"文京区白山1-18-7石川ビル202号室","lat":35.717747,"lon":139.752236},{"name":"放課後等デイサービス　カリタス翼","province":"東京都","city":"文京区","address":"文京区本駒込5-4-4","lat":35.732379,"lon":139.750074},{"name":"文京区放課後等デイサービスＪＯＹ","province":"東京都","city":"文京区","address":"文京区本駒込四丁目35番15号文京区勤労福祉会館2階","lat":35.733468,"lon":139.75514},{"name":"ハッピーテラス千駄木教室","province":"東京都","city":"文京区","address":"文京区根津2-37-8","lat":35.72118,"lon":139.76241},{"name":"文京区児童発達支援センター","province":"東京都","city":"文京区","address":"文京区湯島4-7-10","lat":35.708848,"lon":139.765768},{"name":"文京区子ども家庭支援センター","province":"東京都","city":"文京区","address":"文京区春日1-16-21シビックセンター5階","lat":35.707951,"lon":139.75243},{"name":"文京区子ども家庭支援センター","province":"東京都","city":"文京区","address":"文京区春日1-16-21シビックセンター5階","lat":35.70794,"lon":139.75278},{"name":"＊?文京区男女平等センター","province":"東京都","city":"文京区","address":"文京区本郷4-8-3","lat":35.708552,"lon":139.757477},{"name":"運動発達支援スタジオＵＮＩＭＯ後楽園","province":"東京都","city":"文京区","address":"文京区小石川2-25-10","lat":35.712211,"lon":139.750652},{"name":"富坂子どもの家","province":"東京都","city":"文京区","address":"文京区小石川2-17-41","lat":35.711125,"lon":139.748361},{"name":"発達支援ルーム　ぽけっと","province":"東京都","city":"文京区","address":"文京区小石川5-38-2クレストヒルズ小石川2階","lat":35.718166,"lon":139.742953},{"name":"放課後等デイサービス　びおら","province":"東京都","city":"文京区","address":"文京区小日向2丁目16-15","lat":35.710581,"lon":139.734582},{"name":"運動発達支援スタジオＵＮＩＭＯ文京千石","province":"東京都","city":"文京区","address":"文京区千石1-29-12千石片岡ビル101","lat":35.727271,"lon":139.74518},{"name":"放課後等デイサービス　あんプラス江戸川橋","province":"東京都","city":"文京区","address":"文京区関口1-48-6日火江戸川橋ビル第2201","lat":35.709486,"lon":139.730463},{"name":"エデュクエスト","province":"東京都","city":"文京区","address":"文京区白山1-18-7石川ビル202号室","lat":35.717747,"lon":139.752236},{"name":"放課後等デイサービス　カリタス翼","province":"東京都","city":"文京区","address":"文京区本駒込5-4-4","lat":35.732379,"lon":139.750074},{"name":"文京区放課後等デイサービスＪＯＹ","province":"東京都","city":"文京区","address":"文京区本駒込四丁目35番15号文京区勤労福祉会館2階","lat":35.733468,"lon":139.75514},{"name":"ハッピーテラス千駄木教室","province":"東京都","city":"文京区","address":"文京区根津2-37-8","lat":35.72118,"lon":139.76241},{"name":"文京区児童発達支援センター","province":"東京都","city":"文京区","address":"文京区湯島4-7-10","lat":35.708848,"lon":139.765768},{"name":"文京区子ども家庭支援センター","province":"東京都","city":"文京区","address":"文京区春日1-16-21シビックセンター5階","lat":35.707951,"lon":139.75243},{"name":"文京区子ども家庭支援センター","province":"東京都","city":"文京区","address":"文京区春日1-16-21シビックセンター5階","lat":35.70794,"lon":139.75278},{"name":"＊?文京区男女平等センター","province":"東京都","city":"文京区","address":"文京区本郷4-8-3","lat":35.708552,"lon":139.757477},{"name":"運動発達支援スタジオＵＮＩＭＯ後楽園","province":"東京都","city":"文京区","address":"文京区小石川2-25-10","lat":35.712211,"lon":139.750652},{"name":"富坂子どもの家","province":"東京都","city":"文京区","address":"文京区小石川2-17-41","lat":35.711125,"lon":139.748361},{"name":"発達支援ルーム　ぽけっと","province":"東京都","city":"文京区","address":"文京区小石川5-38-2クレストヒルズ小石川2階","lat":35.718166,"lon":139.742953},{"name":"放課後等デイサービス　びおら","province":"東京都","city":"文京区","address":"文京区小日向2丁目16-15","lat":35.710581,"lon":139.734582},{"name":"運動発達支援スタジオＵＮＩＭＯ文京千石","province":"東京都","city":"文京区","address":"文京区千石1-29-12千石片岡ビル101","lat":35.727271,"lon":139.74518},{"name":"放課後等デイサービス　あんプラス江戸川橋","province":"東京都","city":"文京区","address":"文京区関口1-48-6日火江戸川橋ビル第2201","lat":35.709486,"lon":139.730463},{"name":"エデュクエスト","province":"東京都","city":"文京区","address":"文京区白山1-18-7石川ビル202号室","lat":35.717747,"lon":139.752236},{"name":"放課後等デイサービス　カリタス翼","province":"東京都","city":"文京区","address":"文京区本駒込5-4-4","lat":35.732379,"lon":139.750074},{"name":"文京区放課後等デイサービスＪＯＹ","province":"東京都","city":"文京区","address":"文京区本駒込四丁目35番15号文京区勤労福祉会館2階","lat":35.733468,"lon":139.75514},{"name":"ハッピーテラス千駄木教室","province":"東京都","city":"文京区","address":"文京区根津2-37-8","lat":35.72118,"lon":139.76241},{"name":"文京区児童発達支援センター","province":"東京都","city":"文京区","address":"文京区湯島4-7-10","lat":35.708848,"lon":139.765768},{"name":"文京区子ども家庭支援センター","province":"東京都","city":"文京区","address":"文京区春日1-16-21シビックセンター5階","lat":35.707951,"lon":139.75243},{"name":"文京区子ども家庭支援センター","province":"東京都","city":"文京区","address":"文京区春日1-16-21シビックセンター5階","lat":35.70794,"lon":139.75278},{"name":"＊?文京区男女平等センター","province":"東京都","city":"文京区","address":"文京区本郷4-8-3","lat":35.708552,"lon":139.757477},{"name":"運動発達支援スタジオＵＮＩＭＯ後楽園","province":"東京都","city":"文京区","address":"文京区小石川2-25-10","lat":35.712211,"lon":139.750652},{"name":"富坂子どもの家","province":"東京都","city":"文京区","address":"文京区小石川2-17-41","lat":35.711125,"lon":139.748361},{"name":"発達支援ルーム　ぽけっと","province":"東京都","city":"文京区","address":"文京区小石川5-38-2クレストヒルズ小石川2階","lat":35.718166,"lon":139.742953},{"name":"放課後等デイサービス　びおら","province":"東京都","city":"文京区","address":"文京区小日向2丁目16-15","lat":35.710581,"lon":139.734582},{"name":"運動発達支援スタジオＵＮＩＭＯ文京千石","province":"東京都","city":"文京区","address":"文京区千石1-29-12千石片岡ビル101","lat":35.727271,"lon":139.74518},{"name":"放課後等デイサービス　あんプラス江戸川橋","province":"東京都","city":"文京区","address":"文京区関口1-48-6日火江戸川橋ビル第2201","lat":35.709486,"lon":139.730463},{"name":"エデュクエスト","province":"東京都","city":"文京区","address":"文京区白山1-18-7石川ビル202号室","lat":35.717747,"lon":139.752236},{"name":"放課後等デイサービス　カリタス翼","province":"東京都","city":"文京区","address":"文京区本駒込5-4-4","lat":35.732379,"lon":139.750074},{"name":"文京区放課後等デイサービスＪＯＹ","province":"東京都","city":"文京区","address":"文京区本駒込四丁目35番15号文京区勤労福祉会館2階","lat":35.733468,"lon":139.75514},{"name":"ハッピーテラス千駄木教室","province":"東京都","city":"文京区","address":"文京区根津2-37-8","lat":35.72118,"lon":139.76241},{"name":"文京区児童発達支援センター","province":"東京都","city":"文京区","address":"文京区湯島4-7-10","lat":35.708848,"lon":139.765768},{"name":"文京区子ども家庭支援センター","province":"東京都","city":"文京区","address":"文京区春日1-16-21シビックセンター5階","lat":35.707951,"lon":139.75243},{"name":"文京区子ども家庭支援センター","province":"東京都","city":"文京区","address":"文京区春日1-16-21シビックセンター5階","lat":35.70794,"lon":139.75278},{"name":"＊?文京区男女平等センター","province":"東京都","city":"文京区","address":"文京区本郷4-8-3","lat":35.708552,"lon":139.757477},{"name":"運動発達支援スタジオＵＮＩＭＯ後楽園","province":"東京都","city":"文京区","address":"文京区小石川2-25-10","lat":35.712211,"lon":139.750652},{"name":"富坂子どもの家","province":"東京都","city":"文京区","address":"文京区小石川2-17-41","lat":35.711125,"lon":139.748361},{"name":"発達支援ルーム　ぽけっと","province":"東京都","city":"文京区","address":"文京区小石川5-38-2クレストヒルズ小石川2階","lat":35.718166,"lon":139.742953},{"name":"放課後等デイサービス　びおら","province":"東京都","city":"文京区","address":"文京区小日向2丁目16-15","lat":35.710581,"lon":139.734582},{"name":"運動発達支援スタジオＵＮＩＭＯ文京千石","province":"東京都","city":"文京区","address":"文京区千石1-29-12千石片岡ビル101","lat":35.727271,"lon":139.74518},{"name":"放課後等デイサービス　あんプラス江戸川橋","province":"東京都","city":"文京区","address":"文京区関口1-48-6日火江戸川橋ビル第2201","lat":35.709486,"lon":139.730463},{"name":"エデュクエスト","province":"東京都","city":"文京区","address":"文京区白山1-18-7石川ビル202号室","lat":35.717747,"lon":139.752236},{"name":"放課後等デイサービス　カリタス翼","province":"東京都","city":"文京区","address":"文京区本駒込5-4-4","lat":35.732379,"lon":139.750074},{"name":"文京区放課後等デイサービスＪＯＹ","province":"東京都","city":"文京区","address":"文京区本駒込四丁目35番15号文京区勤労福祉会館2階","lat":35.733468,"lon":139.75514},{"name":"ハッピーテラス千駄木教室","province":"東京都","city":"文京区","address":"文京区根津2-37-8","lat":35.72118,"lon":139.76241},{"name":"文京区児童発達支援センター","province":"東京都","city":"文京区","address":"文京区湯島4-7-10","lat":35.708848,"lon":139.765768},{"name":"文京区子ども家庭支援センター","province":"東京都","city":"文京区","address":"文京区春日1-16-21シビックセンター5階","lat":35.707951,"lon":139.75243},{"name":"文京区子ども家庭支援センター","province":"東京都","city":"文京区","address":"文京区春日1-16-21シビックセンター5階","lat":35.70794,"lon":139.75278},{"name":"＊?文京区男女平等センター","province":"東京都","city":"文京区","address":"文京区本郷4-8-3","lat":35.708552,"lon":139.757477},{"name":"運動発達支援スタジオＵＮＩＭＯ後楽園","province":"東京都","city":"文京区","address":"文京区小石川2-25-10","lat":35.712211,"lon":139.750652},{"name":"富坂子どもの家","province":"東京都","city":"文京区","address":"文京区小石川2-17-41","lat":35.711125,"lon":139.748361},{"name":"発達支援ルーム　ぽけっと","province":"東京都","city":"文京区","address":"文京区小石川5-38-2クレストヒルズ小石川2階","lat":35.718166,"lon":139.742953},{"name":"放課後等デイサービス　びおら","province":"東京都","city":"文京区","address":"文京区小日向2丁目16-15","lat":35.710581,"lon":139.734582},{"name":"運動発達支援スタジオＵＮＩＭＯ文京千石","province":"東京都","city":"文京区","address":"文京区千石1-29-12千石片岡ビル101","lat":35.727271,"lon":139.74518},{"name":"放課後等デイサービス　あんプラス江戸川橋","province":"東京都","city":"文京区","address":"文京区関口1-48-6日火江戸川橋ビル第2201","lat":35.709486,"lon":139.730463},{"name":"エデュクエスト","province":"東京都","city":"文京区","address":"文京区白山1-18-7石川ビル202号室","lat":35.717747,"lon":139.752236},{"name":"放課後等デイサービス　カリタス翼","province":"東京都","city":"文京区","address":"文京区本駒込5-4-4","lat":35.732379,"lon":139.750074},{"name":"文京区放課後等デイサービスＪＯＹ","province":"東京都","city":"文京区","address":"文京区本駒込四丁目35番15号文京区勤労福祉会館2階","lat":35.733468,"lon":139.75514},{"name":"ハッピーテラス千駄木教室","province":"東京都","city":"文京区","address":"文京区根津2-37-8","lat":35.72118,"lon":139.76241},{"name":"文京区児童発達支援センター","province":"東京都","city":"文京区","address":"文京区湯島4-7-10","lat":35.708848,"lon":139.765768},{"name":"文京区子ども家庭支援センター","province":"東京都","city":"文京区","address":"文京区春日1-16-21シビックセンター5階","lat":35.707951,"lon":139.75243},{"name":"文京区子ども家庭支援センター","province":"東京都","city":"文京区","address":"文京区春日1-16-21シビックセンター5階","lat":35.70794,"lon":139.75278},{"name":"＊?文京区男女平等センター","province":"東京都","city":"文京区","address":"文京区本郷4-8-3","lat":35.708552,"lon":139.757477},{"name":"運動発達支援スタジオＵＮＩＭＯ後楽園","province":"東京都","city":"文京区","address":"文京区小石川2-25-10","lat":35.712211,"lon":139.750652},{"name":"富坂子どもの家","province":"東京都","city":"文京区","address":"文京区小石川2-17-41","lat":35.711125,"lon":139.748361},{"name":"発達支援ルーム　ぽけっと","province":"東京都","city":"文京区","address":"文京区小石川5-38-2クレストヒルズ小石川2階","lat":35.718166,"lon":139.742953},{"name":"放課後等デイサービス　びおら","province":"東京都","city":"文京区","address":"文京区小日向2丁目16-15","lat":35.710581,"lon":139.734582},{"name":"運動発達支援スタジオＵＮＩＭＯ文京千石","province":"東京都","city":"文京区","address":"文京区千石1-29-12千石片岡ビル101","lat":35.727271,"lon":139.74518},{"name":"放課後等デイサービス　あんプラス江戸川橋","province":"東京都","city":"文京区","address":"文京区関口1-48-6日火江戸川橋ビル第2201","lat":35.709486,"lon":139.730463},{"name":"エデュクエスト","province":"東京都","city":"文京区","address":"文京区白山1-18-7石川ビル202号室","lat":35.717747,"lon":139.752236},{"name":"放課後等デイサービス　カリタス翼","province":"東京都","city":"文京区","address":"文京区本駒込5-4-4","lat":35.732379,"lon":139.750074},{"name":"文京区放課後等デイサービスＪＯＹ","province":"東京都","city":"文京区","address":"文京区本駒込四丁目35番15号文京区勤労福祉会館2階","lat":35.733468,"lon":139.75514},{"name":"ハッピーテラス千駄木教室","province":"東京都","city":"文京区","address":"文京区根津2-37-8","lat":35.72118,"lon":139.76241},{"name":"文京区児童発達支援センター","province":"東京都","city":"文京区","address":"文京区湯島4-7-10","lat":35.708848,"lon":139.765768},{"name":"文京区子ども家庭支援センター","province":"東京都","city":"文京区","address":"文京区春日1-16-21シビックセンター5階","lat":35.707951,"lon":139.75243},{"name":"文京区子ども家庭支援センター","province":"東京都","city":"文京区","address":"文京区春日1-16-21シビックセンター5階","lat":35.70794,"lon":139.75278},{"name":"＊?文京区男女平等センター","province":"東京都","city":"文京区","address":"文京区本郷4-8-3","lat":35.708552,"lon":139.757477},{"name":"運動発達支援スタジオＵＮＩＭＯ後楽園","province":"東京都","city":"文京区","address":"文京区小石川2-25-10","lat":35.712211,"lon":139.750652},{"name":"富坂子どもの家","province":"東京都","city":"文京区","address":"文京区小石川2-17-41","lat":35.711125,"lon":139.748361},{"name":"発達支援ルーム　ぽけっと","province":"東京都","city":"文京区","address":"文京区小石川5-38-2クレストヒルズ小石川2階","lat":35.718166,"lon":139.742953},{"name":"放課後等デイサービス　びおら","province":"東京都","city":"文京区","address":"文京区小日向2丁目16-15","lat":35.710581,"lon":139.734582},{"name":"運動発達支援スタジオＵＮＩＭＯ文京千石","province":"東京都","city":"文京区","address":"文京区千石1-29-12千石片岡ビル101","lat":35.727271,"lon":139.74518},{"name":"放課後等デイサービス　あんプラス江戸川橋","province":"東京都","city":"文京区","address":"文京区関口1-48-6日火江戸川橋ビル第2201","lat":35.709486,"lon":139.730463},{"name":"エデュクエスト","province":"東京都","city":"文京区","address":"文京区白山1-18-7石川ビル202号室","lat":35.717747,"lon":139.752236},{"name":"放課後等デイサービス　カリタス翼","province":"東京都","city":"文京区","address":"文京区本駒込5-4-4","lat":35.732379,"lon":139.750074},{"name":"文京区放課後等デイサービスＪＯＹ","province":"東京都","city":"文京区","address":"文京区本駒込四丁目35番15号文京区勤労福祉会館2階","lat":35.733468,"lon":139.75514},{"name":"ハッピーテラス千駄木教室","province":"東京都","city":"文京区","address":"文京区根津2-37-8","lat":35.72118,"lon":139.76241},{"name":"文京区児童発達支援センター","province":"東京都","city":"文京区","address":"文京区湯島4-7-10","lat":35.708848,"lon":139.765768},{"name":"文京区子ども家庭支援センター","province":"東京都","city":"文京区","address":"文京区春日1-16-21シビックセンター5階","lat":35.707951,"lon":139.75243},{"name":"文京区子ども家庭支援センター","province":"東京都","city":"文京区","address":"文京区春日1-16-21シビックセンター5階","lat":35.70794,"lon":139.75278},{"name":"＊?文京区男女平等センター","province":"東京都","city":"文京区","address":"文京区本郷4-8-3","lat":35.708552,"lon":139.757477},{"name":"運動発達支援スタジオＵＮＩＭＯ後楽園","province":"東京都","city":"文京区","address":"文京区小石川2-25-10","lat":35.712211,"lon":139.750652},{"name":"富坂子どもの家","province":"東京都","city":"文京区","address":"文京区小石川2-17-41","lat":35.711125,"lon":139.748361},{"name":"発達支援ルーム　ぽけっと","province":"東京都","city":"文京区","address":"文京区小石川5-38-2クレストヒルズ小石川2階","lat":35.718166,"lon":139.742953},{"name":"放課後等デイサービス　びおら","province":"東京都","city":"文京区","address":"文京区小日向2丁目16-15","lat":35.710581,"lon":139.734582},{"name":"運動発達支援スタジオＵＮＩＭＯ文京千石","province":"東京都","city":"文京区","address":"文京区千石1-29-12千石片岡ビル101","lat":35.727271,"lon":139.74518},{"name":"放課後等デイサービス　あんプラス江戸川橋","province":"東京都","city":"文京区","address":"文京区関口1-48-6日火江戸川橋ビル第2201","lat":35.709486,"lon":139.730463},{"name":"エデュクエスト","province":"東京都","city":"文京区","address":"文京区白山1-18-7石川ビル202号室","lat":35.717747,"lon":139.752236},{"name":"放課後等デイサービス　カリタス翼","province":"東京都","city":"文京区","address":"文京区本駒込5-4-4","lat":35.732379,"lon":139.750074},{"name":"文京区放課後等デイサービスＪＯＹ","province":"東京都","city":"文京区","address":"文京区本駒込四丁目35番15号文京区勤労福祉会館2階","lat":35.733468,"lon":139.75514},{"name":"ハッピーテラス千駄木教室","province":"東京都","city":"文京区","address":"文京区根津2-37-8","lat":35.72118,"lon":139.76241},{"name":"文京区児童発達支援センター","province":"東京都","city":"文京区","address":"文京区湯島4-7-10","lat":35.708848,"lon":139.765768},{"name":"文京区子ども家庭支援センター","province":"東京都","city":"文京区","address":"文京区春日1-16-21シビックセンター5階","lat":35.707951,"lon":139.75243},{"name":"文京区子ども家庭支援センター","province":"東京都","city":"文京区","address":"文京区春日1-16-21シビックセンター5階","lat":35.70794,"lon":139.75278},{"name":"＊?文京区男女平等センター","province":"東京都","city":"文京区","address":"文京区本郷4-8-3","lat":35.708552,"lon":139.757477},{"name":"運動発達支援スタジオＵＮＩＭＯ後楽園","province":"東京都","city":"文京区","address":"文京区小石川2-25-10","lat":35.712211,"lon":139.750652},{"name":"富坂子どもの家","province":"東京都","city":"文京区","address":"文京区小石川2-17-41","lat":35.711125,"lon":139.748361},{"name":"発達支援ルーム　ぽけっと","province":"東京都","city":"文京区","address":"文京区小石川5-38-2クレストヒルズ小石川2階","lat":35.718166,"lon":139.742953},{"name":"放課後等デイサービス　びおら","province":"東京都","city":"文京区","address":"文京区小日向2丁目16-15","lat":35.710581,"lon":139.734582},{"name":"運動発達支援スタジオＵＮＩＭＯ文京千石","province":"東京都","city":"文京区","address":"文京区千石1-29-12千石片岡ビル101","lat":35.727271,"lon":139.74518},{"name":"放課後等デイサービス　あんプラス江戸川橋","province":"東京都","city":"文京区","address":"文京区関口1-48-6日火江戸川橋ビル第2201","lat":35.709486,"lon":139.730463},{"name":"エデュクエスト","province":"東京都","city":"文京区","address":"文京区白山1-18-7石川ビル202号室","lat":35.717747,"lon":139.752236},{"name":"放課後等デイサービス　カリタス翼","province":"東京都","city":"文京区","address":"文京区本駒込5-4-4","lat":35.732379,"lon":139.750074},{"name":"文京区放課後等デイサービスＪＯＹ","province":"東京都","city":"文京区","address":"文京区本駒込四丁目35番15号文京区勤労福祉会館2階","lat":35.733468,"lon":139.75514},{"name":"ハッピーテラス千駄木教室","province":"東京都","city":"文京区","address":"文京区根津2-37-8","lat":35.72118,"lon":139.76241},{"name":"文京区児童発達支援センター","province":"東京都","city":"文京区","address":"文京区湯島4-7-10","lat":35.708848,"lon":139.765768},{"name":"文京区子ども家庭支援センター","province":"東京都","city":"文京区","address":"文京区春日1-16-21シビックセンター5階","lat":35.707951,"lon":139.75243},{"name":"文京区子ども家庭支援センター","province":"東京都","city":"文京区","address":"文京区春日1-16-21シビックセンター5階","lat":35.70794,"lon":139.75278},{"name":"＊?文京区男女平等センター","province":"東京都","city":"文京区","address":"文京区本郷4-8-3","lat":35.708552,"lon":139.757477},{"name":"運動発達支援スタジオＵＮＩＭＯ後楽園","province":"東京都","city":"文京区","address":"文京区小石川2-25-10","lat":35.712211,"lon":139.750652},{"name":"富坂子どもの家","province":"東京都","city":"文京区","address":"文京区小石川2-17-41","lat":35.711125,"lon":139.748361},{"name":"発達支援ルーム　ぽけっと","province":"東京都","city":"文京区","address":"文京区小石川5-38-2クレストヒルズ小石川2階","lat":35.718166,"lon":139.742953},{"name":"放課後等デイサービス　びおら","province":"東京都","city":"文京区","address":"文京区小日向2丁目16-15","lat":35.710581,"lon":139.734582},{"name":"運動発達支援スタジオＵＮＩＭＯ文京千石","province":"東京都","city":"文京区","address":"文京区千石1-29-12千石片岡ビル101","lat":35.727271,"lon":139.74518},{"name":"放課後等デイサービス　あんプラス江戸川橋","province":"東京都","city":"文京区","address":"文京区関口1-48-6日火江戸川橋ビル第2201","lat":35.709486,"lon":139.730463},{"name":"エデュクエスト","province":"東京都","city":"文京区","address":"文京区白山1-18-7石川ビル202号室","lat":35.717747,"lon":139.752236},{"name":"放課後等デイサービス　カリタス翼","province":"東京都","city":"文京区","address":"文京区本駒込5-4-4","lat":35.732379,"lon":139.750074},{"name":"文京区放課後等デイサービスＪＯＹ","province":"東京都","city":"文京区","address":"文京区本駒込四丁目35番15号文京区勤労福祉会館2階","lat":35.733468,"lon":139.75514},{"name":"ハッピーテラス千駄木教室","province":"東京都","city":"文京区","address":"文京区根津2-37-8","lat":35.72118,"lon":139.76241},{"name":"文京区児童発達支援センター","province":"東京都","city":"文京区","address":"文京区湯島4-7-10","lat":35.708848,"lon":139.765768},{"name":"文京区子ども家庭支援センター","province":"東京都","city":"文京区","address":"文京区春日1-16-21シビックセンター5階","lat":35.707951,"lon":139.75243},{"name":"文京区子ども家庭支援センター","province":"東京都","city":"文京区","address":"文京区春日1-16-21シビックセンター5階","lat":35.70794,"lon":139.75278},{"name":"＊?文京区男女平等センター","province":"東京都","city":"文京区","address":"文京区本郷4-8-3","lat":35.708552,"lon":139.757477},{"name":"運動発達支援スタジオＵＮＩＭＯ後楽園","province":"東京都","city":"文京区","address":"文京区小石川2-25-10","lat":35.712211,"lon":139.750652},{"name":"富坂子どもの家","province":"東京都","city":"文京区","address":"文京区小石川2-17-41","lat":35.711125,"lon":139.748361},{"name":"発達支援ルーム　ぽけっと","province":"東京都","city":"文京区","address":"文京区小石川5-38-2クレストヒルズ小石川2階","lat":35.718166,"lon":139.742953},{"name":"放課後等デイサービス　びおら","province":"東京都","city":"文京区","address":"文京区小日向2丁目16-15","lat":35.710581,"lon":139.734582},{"name":"運動発達支援スタジオＵＮＩＭＯ文京千石","province":"東京都","city":"文京区","address":"文京区千石1-29-12千石片岡ビル101","lat":35.727271,"lon":139.74518},{"name":"放課後等デイサービス　あんプラス江戸川橋","province":"東京都","city":"文京区","address":"文京区関口1-48-6日火江戸川橋ビル第2201","lat":35.709486,"lon":139.730463},{"name":"エデュクエスト","province":"東京都","city":"文京区","address":"文京区白山1-18-7石川ビル202号室","lat":35.717747,"lon":139.752236},{"name":"放課後等デイサービス　カリタス翼","province":"東京都","city":"文京区","address":"文京区本駒込5-4-4","lat":35.732379,"lon":139.750074},{"name":"文京区放課後等デイサービスＪＯＹ","province":"東京都","city":"文京区","address":"文京区本駒込四丁目35番15号文京区勤労福祉会館2階","lat":35.733468,"lon":139.75514},{"name":"ハッピーテラス千駄木教室","province":"東京都","city":"文京区","address":"文京区根津2-37-8","lat":35.72118,"lon":139.76241},{"name":"文京区児童発達支援センター","province":"東京都","city":"文京区","address":"文京区湯島4-7-10","lat":35.708848,"lon":139.765768},{"name":"文京区子ども家庭支援センター","province":"東京都","city":"文京区","address":"文京区春日1-16-21シビックセンター5階","lat":35.707951,"lon":139.75243},{"name":"文京区子ども家庭支援センター","province":"東京都","city":"文京区","address":"文京区春日1-16-21シビックセンター5階","lat":35.70794,"lon":139.75278},{"name":"＊?文京区男女平等センター","province":"東京都","city":"文京区","address":"文京区本郷4-8-3","lat":35.708552,"lon":139.757477},{"name":"運動発達支援スタジオＵＮＩＭＯ後楽園","province":"東京都","city":"文京区","address":"文京区小石川2-25-10","lat":35.712211,"lon":139.750652},{"name":"富坂子どもの家","province":"東京都","city":"文京区","address":"文京区小石川2-17-41","lat":35.711125,"lon":139.748361},{"name":"発達支援ルーム　ぽけっと","province":"東京都","city":"文京区","address":"文京区小石川5-38-2クレストヒルズ小石川2階","lat":35.718166,"lon":139.742953},{"name":"放課後等デイサービス　びおら","province":"東京都","city":"文京区","address":"文京区小日向2丁目16-15","lat":35.710581,"lon":139.734582},{"name":"運動発達支援スタジオＵＮＩＭＯ文京千石","province":"東京都","city":"文京区","address":"文京区千石1-29-12千石片岡ビル101","lat":35.727271,"lon":139.74518},{"name":"放課後等デイサービス　あんプラス江戸川橋","province":"東京都","city":"文京区","address":"文京区関口1-48-6日火江戸川橋ビル第2201","lat":35.709486,"lon":139.730463},{"name":"エデュクエスト","province":"東京都","city":"文京区","address":"文京区白山1-18-7石川ビル202号室","lat":35.717747,"lon":139.752236},{"name":"放課後等デイサービス　カリタス翼","province":"東京都","city":"文京区","address":"文京区本駒込5-4-4","lat":35.732379,"lon":139.750074},{"name":"文京区放課後等デイサービスＪＯＹ","province":"東京都","city":"文京区","address":"文京区本駒込四丁目35番15号文京区勤労福祉会館2階","lat":35.733468,"lon":139.75514},{"name":"ハッピーテラス千駄木教室","province":"東京都","city":"文京区","address":"文京区根津2-37-8","lat":35.72118,"lon":139.76241},{"name":"文京区児童発達支援センター","province":"東京都","city":"文京区","address":"文京区湯島4-7-10","lat":35.708848,"lon":139.765768},{"name":"文京区子ども家庭支援センター","province":"東京都","city":"文京区","address":"文京区春日1-16-21シビックセンター5階","lat":35.707951,"lon":139.75243},{"name":"文京区子ども家庭支援センター","province":"東京都","city":"文京区","address":"文京区春日1-16-21シビックセンター5階","lat":35.70794,"lon":139.75278},{"name":"＊?文京区男女平等センター","province":"東京都","city":"文京区","address":"文京区本郷4-8-3","lat":35.708552,"lon":139.757477},{"name":"運動発達支援スタジオＵＮＩＭＯ後楽園","province":"東京都","city":"文京区","address":"文京区小石川2-25-10","lat":35.712211,"lon":139.750652},{"name":"富坂子どもの家","province":"東京都","city":"文京区","address":"文京区小石川2-17-41","lat":35.711125,"lon":139.748361},{"name":"発達支援ルーム　ぽけっと","province":"東京都","city":"文京区","address":"文京区小石川5-38-2クレストヒルズ小石川2階","lat":35.718166,"lon":139.742953},{"name":"放課後等デイサービス　びおら","province":"東京都","city":"文京区","address":"文京区小日向2丁目16-15","lat":35.710581,"lon":139.734582},{"name":"運動発達支援スタジオＵＮＩＭＯ文京千石","province":"東京都","city":"文京区","address":"文京区千石1-29-12千石片岡ビル101","lat":35.727271,"lon":139.74518},{"name":"放課後等デイサービス　あんプラス江戸川橋","province":"東京都","city":"文京区","address":"文京区関口1-48-6日火江戸川橋ビル第2201","lat":35.709486,"lon":139.730463},{"name":"エデュクエスト","province":"東京都","city":"文京区","address":"文京区白山1-18-7石川ビル202号室","lat":35.717747,"lon":139.752236},{"name":"放課後等デイサービス　カリタス翼","province":"東京都","city":"文京区","address":"文京区本駒込5-4-4","lat":35.732379,"lon":139.750074},{"name":"文京区放課後等デイサービスＪＯＹ","province":"東京都","city":"文京区","address":"文京区本駒込四丁目35番15号文京区勤労福祉会館2階","lat":35.733468,"lon":139.75514},{"name":"ハッピーテラス千駄木教室","province":"東京都","city":"文京区","address":"文京区根津2-37-8","lat":35.72118,"lon":139.76241},{"name":"文京区児童発達支援センター","province":"東京都","city":"文京区","address":"文京区湯島4-7-10","lat":35.708848,"lon":139.765768},{"name":"文京区子ども家庭支援センター","province":"東京都","city":"文京区","address":"文京区春日1-16-21シビックセンター5階","lat":35.707951,"lon":139.75243},{"name":"文京区子ども家庭支援センター","province":"東京都","city":"文京区","address":"文京区春日1-16-21シビックセンター5階","lat":35.70794,"lon":139.75278},{"name":"＊?文京区男女平等センター","province":"東京都","city":"文京区","address":"文京区本郷4-8-3","lat":35.708552,"lon":139.757477},{"name":"運動発達支援スタジオＵＮＩＭＯ後楽園","province":"東京都","city":"文京区","address":"文京区小石川2-25-10","lat":35.712211,"lon":139.750652},{"name":"富坂子どもの家","province":"東京都","city":"文京区","address":"文京区小石川2-17-41","lat":35.711125,"lon":139.748361},{"name":"発達支援ルーム　ぽけっと","province":"東京都","city":"文京区","address":"文京区小石川5-38-2クレストヒルズ小石川2階","lat":35.718166,"lon":139.742953},{"name":"放課後等デイサービス　びおら","province":"東京都","city":"文京区","address":"文京区小日向2丁目16-15","lat":35.710581,"lon":139.734582},{"name":"運動発達支援スタジオＵＮＩＭＯ文京千石","province":"東京都","city":"文京区","address":"文京区千石1-29-12千石片岡ビル101","lat":35.727271,"lon":139.74518},{"name":"放課後等デイサービス　あんプラス江戸川橋","province":"東京都","city":"文京区","address":"文京区関口1-48-6日火江戸川橋ビル第2201","lat":35.709486,"lon":139.730463},{"name":"エデュクエスト","province":"東京都","city":"文京区","address":"文京区白山1-18-7石川ビル202号室","lat":35.717747,"lon":139.752236},{"name":"放課後等デイサービス　カリタス翼","province":"東京都","city":"文京区","address":"文京区本駒込5-4-4","lat":35.732379,"lon":139.750074},{"name":"文京区放課後等デイサービスＪＯＹ","province":"東京都","city":"文京区","address":"文京区本駒込四丁目35番15号文京区勤労福祉会館2階","lat":35.733468,"lon":139.75514},{"name":"ハッピーテラス千駄木教室","province":"東京都","city":"文京区","address":"文京区根津2-37-8","lat":35.72118,"lon":139.76241},{"name":"文京区児童発達支援センター","province":"東京都","city":"文京区","address":"文京区湯島4-7-10","lat":35.708848,"lon":139.765768},{"name":"文京区子ども家庭支援センター","province":"東京都","city":"文京区","address":"文京区春日1-16-21シビックセンター5階","lat":35.707951,"lon":139.75243},{"name":"文京区子ども家庭支援センター","province":"東京都","city":"文京区","address":"文京区春日1-16-21シビックセンター5階","lat":35.70794,"lon":139.75278},{"name":"＊?文京区男女平等センター","province":"東京都","city":"文京区","address":"文京区本郷4-8-3","lat":35.708552,"lon":139.757477},{"name":"運動発達支援スタジオＵＮＩＭＯ後楽園","province":"東京都","city":"文京区","address":"文京区小石川2-25-10","lat":35.712211,"lon":139.750652},{"name":"富坂子どもの家","province":"東京都","city":"文京区","address":"文京区小石川2-17-41","lat":35.711125,"lon":139.748361},{"name":"発達支援ルーム　ぽけっと","province":"東京都","city":"文京区","address":"文京区小石川5-38-2クレストヒルズ小石川2階","lat":35.718166,"lon":139.742953},{"name":"放課後等デイサービス　びおら","province":"東京都","city":"文京区","address":"文京区小日向2丁目16-15","lat":35.710581,"lon":139.734582},{"name":"運動発達支援スタジオＵＮＩＭＯ文京千石","province":"東京都","city":"文京区","address":"文京区千石1-29-12千石片岡ビル101","lat":35.727271,"lon":139.74518},{"name":"放課後等デイサービス　あんプラス江戸川橋","province":"東京都","city":"文京区","address":"文京区関口1-48-6日火江戸川橋ビル第2201","lat":35.709486,"lon":139.730463},{"name":"エデュクエスト","province":"東京都","city":"文京区","address":"文京区白山1-18-7石川ビル202号室","lat":35.717747,"lon":139.752236},{"name":"放課後等デイサービス　カリタス翼","province":"東京都","city":"文京区","address":"文京区本駒込5-4-4","lat":35.732379,"lon":139.750074},{"name":"文京区放課後等デイサービスＪＯＹ","province":"東京都","city":"文京区","address":"文京区本駒込四丁目35番15号文京区勤労福祉会館2階","lat":35.733468,"lon":139.75514},{"name":"ハッピーテラス千駄木教室","province":"東京都","city":"文京区","address":"文京区根津2-37-8","lat":35.72118,"lon":139.76241},{"name":"文京区児童発達支援センター","province":"東京都","city":"文京区","address":"文京区湯島4-7-10","lat":35.708848,"lon":139.765768},{"name":"文京区子ども家庭支援センター","province":"東京都","city":"文京区","address":"文京区春日1-16-21シビックセンター5階","lat":35.707951,"lon":139.75243},{"name":"文京区子ども家庭支援センター","province":"東京都","city":"文京区","address":"文京区春日1-16-21シビックセンター5階","lat":35.70794,"lon":139.75278},{"name":"＊?文京区男女平等センター","province":"東京都","city":"文京区","address":"文京区本郷4-8-3","lat":35.708552,"lon":139.757477},{"name":"運動発達支援スタジオＵＮＩＭＯ後楽園","province":"東京都","city":"文京区","address":"文京区小石川2-25-10","lat":35.712211,"lon":139.750652},{"name":"富坂子どもの家","province":"東京都","city":"文京区","address":"文京区小石川2-17-41","lat":35.711125,"lon":139.748361},{"name":"発達支援ルーム　ぽけっと","province":"東京都","city":"文京区","address":"文京区小石川5-38-2クレストヒルズ小石川2階","lat":35.718166,"lon":139.742953},{"name":"放課後等デイサービス　びおら","province":"東京都","city":"文京区","address":"文京区小日向2丁目16-15","lat":35.710581,"lon":139.734582},{"name":"運動発達支援スタジオＵＮＩＭＯ文京千石","province":"東京都","city":"文京区","address":"文京区千石1-29-12千石片岡ビル101","lat":35.727271,"lon":139.74518},{"name":"放課後等デイサービス　あんプラス江戸川橋","province":"東京都","city":"文京区","address":"文京区関口1-48-6日火江戸川橋ビル第2201","lat":35.709486,"lon":139.730463},{"name":"エデュクエスト","province":"東京都","city":"文京区","address":"文京区白山1-18-7石川ビル202号室","lat":35.717747,"lon":139.752236},{"name":"放課後等デイサービス　カリタス翼","province":"東京都","city":"文京区","address":"文京区本駒込5-4-4","lat":35.732379,"lon":139.750074},{"name":"文京区放課後等デイサービスＪＯＹ","province":"東京都","city":"文京区","address":"文京区本駒込四丁目35番15号文京区勤労福祉会館2階","lat":35.733468,"lon":139.75514},{"name":"ハッピーテラス千駄木教室","province":"東京都","city":"文京区","address":"文京区根津2-37-8","lat":35.72118,"lon":139.76241},{"name":"文京区児童発達支援センター","province":"東京都","city":"文京区","address":"文京区湯島4-7-10","lat":35.708848,"lon":139.765768},{"name":"文京区子ども家庭支援センター","province":"東京都","city":"文京区","address":"文京区春日1-16-21シビックセンター5階","lat":35.707951,"lon":139.75243},{"name":"文京区子ども家庭支援センター","province":"東京都","city":"文京区","address":"文京区春日1-16-21シビックセンター5階","lat":35.70794,"lon":139.75278},{"name":"＊?文京区男女平等センター","province":"東京都","city":"文京区","address":"文京区本郷4-8-3","lat":35.708552,"lon":139.757477},{"name":"運動発達支援スタジオＵＮＩＭＯ後楽園","province":"東京都","city":"文京区","address":"文京区小石川2-25-10","lat":35.712211,"lon":139.750652},{"name":"富坂子どもの家","province":"東京都","city":"文京区","address":"文京区小石川2-17-41","lat":35.711125,"lon":139.748361},{"name":"発達支援ルーム　ぽけっと","province":"東京都","city":"文京区","address":"文京区小石川5-38-2クレストヒルズ小石川2階","lat":35.718166,"lon":139.742953},{"name":"放課後等デイサービス　びおら","province":"東京都","city":"文京区","address":"文京区小日向2丁目16-15","lat":35.710581,"lon":139.734582},{"name":"運動発達支援スタジオＵＮＩＭＯ文京千石","province":"東京都","city":"文京区","address":"文京区千石1-29-12千石片岡ビル101","lat":35.727271,"lon":139.74518},{"name":"放課後等デイサービス　あんプラス江戸川橋","province":"東京都","city":"文京区","address":"文京区関口1-48-6日火江戸川橋ビル第2201","lat":35.709486,"lon":139.730463},{"name":"エデュクエスト","province":"東京都","city":"文京区","address":"文京区白山1-18-7石川ビル202号室","lat":35.717747,"lon":139.752236},{"name":"放課後等デイサービス　カリタス翼","province":"東京都","city":"文京区","address":"文京区本駒込5-4-4","lat":35.732379,"lon":139.750074},{"name":"文京区放課後等デイサービスＪＯＹ","province":"東京都","city":"文京区","address":"文京区本駒込四丁目35番15号文京区勤労福祉会館2階","lat":35.733468,"lon":139.75514},{"name":"ハッピーテラス千駄木教室","province":"東京都","city":"文京区","address":"文京区根津2-37-8","lat":35.72118,"lon":139.76241},{"name":"文京区児童発達支援センター","province":"東京都","city":"文京区","address":"文京区湯島4-7-10","lat":35.708848,"lon":139.765768},{"name":"文京区子ども家庭支援センター","province":"東京都","city":"文京区","address":"文京区春日1-16-21シビックセンター5階","lat":35.707951,"lon":139.75243},{"name":"文京区子ども家庭支援センター","province":"東京都","city":"文京区","address":"文京区春日1-16-21シビックセンター5階","lat":35.70794,"lon":139.75278},{"name":"＊?文京区男女平等センター","province":"東京都","city":"文京区","address":"文京区本郷4-8-3","lat":35.708552,"lon":139.757477},{"name":"運動発達支援スタジオＵＮＩＭＯ後楽園","province":"東京都","city":"文京区","address":"文京区小石川2-25-10","lat":35.712211,"lon":139.750652},{"name":"富坂子どもの家","province":"東京都","city":"文京区","address":"文京区小石川2-17-41","lat":35.711125,"lon":139.748361},{"name":"発達支援ルーム　ぽけっと","province":"東京都","city":"文京区","address":"文京区小石川5-38-2クレストヒルズ小石川2階","lat":35.718166,"lon":139.742953},{"name":"放課後等デイサービス　びおら","province":"東京都","city":"文京区","address":"文京区小日向2丁目16-15","lat":35.710581,"lon":139.734582},{"name":"運動発達支援スタジオＵＮＩＭＯ文京千石","province":"東京都","city":"文京区","address":"文京区千石1-29-12千石片岡ビル101","lat":35.727271,"lon":139.74518},{"name":"放課後等デイサービス　あんプラス江戸川橋","province":"東京都","city":"文京区","address":"文京区関口1-48-6日火江戸川橋ビル第2201","lat":35.709486,"lon":139.730463},{"name":"エデュクエスト","province":"東京都","city":"文京区","address":"文京区白山1-18-7石川ビル202号室","lat":35.717747,"lon":139.752236},{"name":"放課後等デイサービス　カリタス翼","province":"東京都","city":"文京区","address":"文京区本駒込5-4-4","lat":35.732379,"lon":139.750074},{"name":"文京区放課後等デイサービスＪＯＹ","province":"東京都","city":"文京区","address":"文京区本駒込四丁目35番15号文京区勤労福祉会館2階","lat":35.733468,"lon":139.75514},{"name":"ハッピーテラス千駄木教室","province":"東京都","city":"文京区","address":"文京区根津2-37-8","lat":35.72118,"lon":139.76241},{"name":"文京区児童発達支援センター","province":"東京都","city":"文京区","address":"文京区湯島4-7-10","lat":35.708848,"lon":139.765768},{"name":"文京区子ども家庭支援センター","province":"東京都","city":"文京区","address":"文京区春日1-16-21シビックセンター5階","lat":35.707951,"lon":139.75243},{"name":"文京区子ども家庭支援センター","province":"東京都","city":"文京区","address":"文京区春日1-16-21シビックセンター5階","lat":35.70794,"lon":139.75278},{"name":"＊?文京区男女平等センター","province":"東京都","city":"文京区","address":"文京区本郷4-8-3","lat":35.708552,"lon":139.757477},{"name":"運動発達支援スタジオＵＮＩＭＯ後楽園","province":"東京都","city":"文京区","address":"文京区小石川2-25-10","lat":35.712211,"lon":139.750652},{"name":"富坂子どもの家","province":"東京都","city":"文京区","address":"文京区小石川2-17-41","lat":35.711125,"lon":139.748361},{"name":"発達支援ルーム　ぽけっと","province":"東京都","city":"文京区","address":"文京区小石川5-38-2クレストヒルズ小石川2階","lat":35.718166,"lon":139.742953},{"name":"放課後等デイサービス　びおら","province":"東京都","city":"文京区","address":"文京区小日向2丁目16-15","lat":35.710581,"lon":139.734582},{"name":"運動発達支援スタジオＵＮＩＭＯ文京千石","province":"東京都","city":"文京区","address":"文京区千石1-29-12千石片岡ビル101","lat":35.727271,"lon":139.74518},{"name":"放課後等デイサービス　あんプラス江戸川橋","province":"東京都","city":"文京区","address":"文京区関口1-48-6日火江戸川橋ビル第2201","lat":35.709486,"lon":139.730463},{"name":"エデュクエスト","province":"東京都","city":"文京区","address":"文京区白山1-18-7石川ビル202号室","lat":35.717747,"lon":139.752236},{"name":"放課後等デイサービス　カリタス翼","province":"東京都","city":"文京区","address":"文京区本駒込5-4-4","lat":35.732379,"lon":139.750074},{"name":"文京区放課後等デイサービスＪＯＹ","province":"東京都","city":"文京区","address":"文京区本駒込四丁目35番15号文京区勤労福祉会館2階","lat":35.733468,"lon":139.75514},{"name":"ハッピーテラス千駄木教室","province":"東京都","city":"文京区","address":"文京区根津2-37-8","lat":35.72118,"lon":139.76241},{"name":"文京区児童発達支援センター","province":"東京都","city":"文京区","address":"文京区湯島4-7-10","lat":35.708848,"lon":139.765768},{"name":"文京区子ども家庭支援センター","province":"東京都","city":"文京区","address":"文京区春日1-16-21シビックセンター5階","lat":35.707951,"lon":139.75243},{"name":"文京区子ども家庭支援センター","province":"東京都","city":"文京区","address":"文京区春日1-16-21シビックセンター5階","lat":35.70794,"lon":139.75278},{"name":"＊?文京区男女平等センター","province":"東京都","city":"文京区","address":"文京区本郷4-8-3","lat":35.708552,"lon":139.757477},{"name":"運動発達支援スタジオＵＮＩＭＯ後楽園","province":"東京都","city":"文京区","address":"文京区小石川2-25-10","lat":35.712211,"lon":139.750652},{"name":"富坂子どもの家","province":"東京都","city":"文京区","address":"文京区小石川2-17-41","lat":35.711125,"lon":139.748361},{"name":"発達支援ルーム　ぽけっと","province":"東京都","city":"文京区","address":"文京区小石川5-38-2クレストヒルズ小石川2階","lat":35.718166,"lon":139.742953},{"name":"放課後等デイサービス　びおら","province":"東京都","city":"文京区","address":"文京区小日向2丁目16-15","lat":35.710581,"lon":139.734582},{"name":"運動発達支援スタジオＵＮＩＭＯ文京千石","province":"東京都","city":"文京区","address":"文京区千石1-29-12千石片岡ビル101","lat":35.727271,"lon":139.74518},{"name":"放課後等デイサービス　あんプラス江戸川橋","province":"東京都","city":"文京区","address":"文京区関口1-48-6日火江戸川橋ビル第2201","lat":35.709486,"lon":139.730463},{"name":"エデュクエスト","province":"東京都","city":"文京区","address":"文京区白山1-18-7石川ビル202号室","lat":35.717747,"lon":139.752236},{"name":"放課後等デイサービス　カリタス翼","province":"東京都","city":"文京区","address":"文京区本駒込5-4-4","lat":35.732379,"lon":139.750074},{"name":"文京区放課後等デイサービスＪＯＹ","province":"東京都","city":"文京区","address":"文京区本駒込四丁目35番15号文京区勤労福祉会館2階","lat":35.733468,"lon":139.75514},{"name":"ハッピーテラス千駄木教室","province":"東京都","city":"文京区","address":"文京区根津2-37-8","lat":35.72118,"lon":139.76241},{"name":"文京区児童発達支援センター","province":"東京都","city":"文京区","address":"文京区湯島4-7-10","lat":35.708848,"lon":139.765768},{"name":"文京区子ども家庭支援センター","province":"東京都","city":"文京区","address":"文京区春日1-16-21シビックセンター5階","lat":35.707951,"lon":139.75243},{"name":"文京区子ども家庭支援センター","province":"東京都","city":"文京区","address":"文京区春日1-16-21シビックセンター5階","lat":35.70794,"lon":139.75278},{"name":"＊?文京区男女平等センター","province":"東京都","city":"文京区","address":"文京区本郷4-8-3","lat":35.708552,"lon":139.757477},{"name":"運動発達支援スタジオＵＮＩＭＯ後楽園","province":"東京都","city":"文京区","address":"文京区小石川2-25-10","lat":35.712211,"lon":139.750652},{"name":"富坂子どもの家","province":"東京都","city":"文京区","address":"文京区小石川2-17-41","lat":35.711125,"lon":139.748361},{"name":"発達支援ルーム　ぽけっと","province":"東京都","city":"文京区","address":"文京区小石川5-38-2クレストヒルズ小石川2階","lat":35.718166,"lon":139.742953},{"name":"放課後等デイサービス　びおら","province":"東京都","city":"文京区","address":"文京区小日向2丁目16-15","lat":35.710581,"lon":139.734582},{"name":"運動発達支援スタジオＵＮＩＭＯ文京千石","province":"東京都","city":"文京区","address":"文京区千石1-29-12千石片岡ビル101","lat":35.727271,"lon":139.74518},{"name":"放課後等デイサービス　あんプラス江戸川橋","province":"東京都","city":"文京区","address":"文京区関口1-48-6日火江戸川橋ビル第2201","lat":35.709486,"lon":139.730463},{"name":"エデュクエスト","province":"東京都","city":"文京区","address":"文京区白山1-18-7石川ビル202号室","lat":35.717747,"lon":139.752236},{"name":"放課後等デイサービス　カリタス翼","province":"東京都","city":"文京区","address":"文京区本駒込5-4-4","lat":35.732379,"lon":139.750074},{"name":"文京区放課後等デイサービスＪＯＹ","province":"東京都","city":"文京区","address":"文京区本駒込四丁目35番15号文京区勤労福祉会館2階","lat":35.733468,"lon":139.75514},{"name":"ハッピーテラス千駄木教室","province":"東京都","city":"文京区","address":"文京区根津2-37-8","lat":35.72118,"lon":139.76241},{"name":"文京区児童発達支援センター","province":"東京都","city":"文京区","address":"文京区湯島4-7-10","lat":35.708848,"lon":139.765768},{"name":"文京区子ども家庭支援センター","province":"東京都","city":"文京区","address":"文京区春日1-16-21シビックセンター5階","lat":35.707951,"lon":139.75243},{"name":"文京区子ども家庭支援センター","province":"東京都","city":"文京区","address":"文京区春日1-16-21シビックセンター5階","lat":35.70794,"lon":139.75278},{"name":"＊?文京区男女平等センター","province":"東京都","city":"文京区","address":"文京区本郷4-8-3","lat":35.708552,"lon":139.757477},{"name":"運動発達支援スタジオＵＮＩＭＯ後楽園","province":"東京都","city":"文京区","address":"文京区小石川2-25-10","lat":35.712211,"lon":139.750652},{"name":"富坂子どもの家","province":"東京都","city":"文京区","address":"文京区小石川2-17-41","lat":35.711125,"lon":139.748361},{"name":"発達支援ルーム　ぽけっと","province":"東京都","city":"文京区","address":"文京区小石川5-38-2クレストヒルズ小石川2階","lat":35.718166,"lon":139.742953},{"name":"放課後等デイサービス　びおら","province":"東京都","city":"文京区","address":"文京区小日向2丁目16-15","lat":35.710581,"lon":139.734582},{"name":"運動発達支援スタジオＵＮＩＭＯ文京千石","province":"東京都","city":"文京区","address":"文京区千石1-29-12千石片岡ビル101","lat":35.727271,"lon":139.74518},{"name":"放課後等デイサービス　あんプラス江戸川橋","province":"東京都","city":"文京区","address":"文京区関口1-48-6日火江戸川橋ビル第2201","lat":35.709486,"lon":139.730463},{"name":"エデュクエスト","province":"東京都","city":"文京区","address":"文京区白山1-18-7石川ビル202号室","lat":35.717747,"lon":139.752236},{"name":"放課後等デイサービス　カリタス翼","province":"東京都","city":"文京区","address":"文京区本駒込5-4-4","lat":35.732379,"lon":139.750074},{"name":"文京区放課後等デイサービスＪＯＹ","province":"東京都","city":"文京区","address":"文京区本駒込四丁目35番15号文京区勤労福祉会館2階","lat":35.733468,"lon":139.75514},{"name":"ハッピーテラス千駄木教室","province":"東京都","city":"文京区","address":"文京区根津2-37-8","lat":35.72118,"lon":139.76241},{"name":"文京区児童発達支援センター","province":"東京都","city":"文京区","address":"文京区湯島4-7-10","lat":35.708848,"lon":139.765768},{"name":"文京区子ども家庭支援センター","province":"東京都","city":"文京区","address":"文京区春日1-16-21シビックセンター5階","lat":35.707951,"lon":139.75243},{"name":"文京区子ども家庭支援センター","province":"東京都","city":"文京区","address":"文京区春日1-16-21シビックセンター5階","lat":35.70794,"lon":139.75278},{"name":"＊?文京区男女平等センター","province":"東京都","city":"文京区","address":"文京区本郷4-8-3","lat":35.708552,"lon":139.757477},{"name":"運動発達支援スタジオＵＮＩＭＯ後楽園","province":"東京都","city":"文京区","address":"文京区小石川2-25-10","lat":35.712211,"lon":139.750652},{"name":"富坂子どもの家","province":"東京都","city":"文京区","address":"文京区小石川2-17-41","lat":35.711125,"lon":139.748361},{"name":"発達支援ルーム　ぽけっと","province":"東京都","city":"文京区","address":"文京区小石川5-38-2クレストヒルズ小石川2階","lat":35.718166,"lon":139.742953},{"name":"放課後等デイサービス　びおら","province":"東京都","city":"文京区","address":"文京区小日向2丁目16-15","lat":35.710581,"lon":139.734582},{"name":"運動発達支援スタジオＵＮＩＭＯ文京千石","province":"東京都","city":"文京区","address":"文京区千石1-29-12千石片岡ビル101","lat":35.727271,"lon":139.74518},{"name":"放課後等デイサービス　あんプラス江戸川橋","province":"東京都","city":"文京区","address":"文京区関口1-48-6日火江戸川橋ビル第2201","lat":35.709486,"lon":139.730463},{"name":"エデュクエスト","province":"東京都","city":"文京区","address":"文京区白山1-18-7石川ビル202号室","lat":35.717747,"lon":139.752236},{"name":"放課後等デイサービス　カリタス翼","province":"東京都","city":"文京区","address":"文京区本駒込5-4-4","lat":35.732379,"lon":139.750074},{"name":"文京区放課後等デイサービスＪＯＹ","province":"東京都","city":"文京区","address":"文京区本駒込四丁目35番15号文京区勤労福祉会館2階","lat":35.733468,"lon":139.75514},{"name":"ハッピーテラス千駄木教室","province":"東京都","city":"文京区","address":"文京区根津2-37-8","lat":35.72118,"lon":139.76241},{"name":"文京区児童発達支援センター","province":"東京都","city":"文京区","address":"文京区湯島4-7-10","lat":35.708848,"lon":139.765768},{"name":"文京区子ども家庭支援センター","province":"東京都","city":"文京区","address":"文京区春日1-16-21シビックセンター5階","lat":35.707951,"lon":139.75243},{"name":"文京区子ども家庭支援センター","province":"東京都","city":"文京区","address":"文京区春日1-16-21シビックセンター5階","lat":35.70794,"lon":139.75278},{"name":"＊?文京区男女平等センター","province":"東京都","city":"文京区","address":"文京区本郷4-8-3","lat":35.708552,"lon":139.757477},{"name":"運動発達支援スタジオＵＮＩＭＯ後楽園","province":"東京都","city":"文京区","address":"文京区小石川2-25-10","lat":35.712211,"lon":139.750652},{"name":"富坂子どもの家","province":"東京都","city":"文京区","address":"文京区小石川2-17-41","lat":35.711125,"lon":139.748361},{"name":"発達支援ルーム　ぽけっと","province":"東京都","city":"文京区","address":"文京区小石川5-38-2クレストヒルズ小石川2階","lat":35.718166,"lon":139.742953},{"name":"放課後等デイサービス　びおら","province":"東京都","city":"文京区","address":"文京区小日向2丁目16-15","lat":35.710581,"lon":139.734582},{"name":"運動発達支援スタジオＵＮＩＭＯ文京千石","province":"東京都","city":"文京区","address":"文京区千石1-29-12千石片岡ビル101","lat":35.727271,"lon":139.74518},{"name":"放課後等デイサービス　あんプラス江戸川橋","province":"東京都","city":"文京区","address":"文京区関口1-48-6日火江戸川橋ビル第2201","lat":35.709486,"lon":139.730463},{"name":"エデュクエスト","province":"東京都","city":"文京区","address":"文京区白山1-18-7石川ビル202号室","lat":35.717747,"lon":139.752236},{"name":"放課後等デイサービス　カリタス翼","province":"東京都","city":"文京区","address":"文京区本駒込5-4-4","lat":35.732379,"lon":139.750074},{"name":"文京区放課後等デイサービスＪＯＹ","province":"東京都","city":"文京区","address":"文京区本駒込四丁目35番15号文京区勤労福祉会館2階","lat":35.733468,"lon":139.75514},{"name":"ハッピーテラス千駄木教室","province":"東京都","city":"文京区","address":"文京区根津2-37-8","lat":35.72118,"lon":139.76241},{"name":"文京区児童発達支援センター","province":"東京都","city":"文京区","address":"文京区湯島4-7-10","lat":35.708848,"lon":139.765768},{"name":"文京区子ども家庭支援センター","province":"東京都","city":"文京区","address":"文京区春日1-16-21シビックセンター5階","lat":35.707951,"lon":139.75243},{"name":"文京区子ども家庭支援センター","province":"東京都","city":"文京区","address":"文京区春日1-16-21シビックセンター5階","lat":35.70794,"lon":139.75278},{"name":"＊?文京区男女平等センター","province":"東京都","city":"文京区","address":"文京区本郷4-8-3","lat":35.708552,"lon":139.757477},{"name":"運動発達支援スタジオＵＮＩＭＯ後楽園","province":"東京都","city":"文京区","address":"文京区小石川2-25-10","lat":35.712211,"lon":139.750652},{"name":"富坂子どもの家","province":"東京都","city":"文京区","address":"文京区小石川2-17-41","lat":35.711125,"lon":139.748361},{"name":"発達支援ルーム　ぽけっと","province":"東京都","city":"文京区","address":"文京区小石川5-38-2クレストヒルズ小石川2階","lat":35.718166,"lon":139.742953},{"name":"放課後等デイサービス　びおら","province":"東京都","city":"文京区","address":"文京区小日向2丁目16-15","lat":35.710581,"lon":139.734582},{"name":"運動発達支援スタジオＵＮＩＭＯ文京千石","province":"東京都","city":"文京区","address":"文京区千石1-29-12千石片岡ビル101","lat":35.727271,"lon":139.74518},{"name":"放課後等デイサービス　あんプラス江戸川橋","province":"東京都","city":"文京区","address":"文京区関口1-48-6日火江戸川橋ビル第2201","lat":35.709486,"lon":139.730463},{"name":"エデュクエスト","province":"東京都","city":"文京区","address":"文京区白山1-18-7石川ビル202号室","lat":35.717747,"lon":139.752236},{"name":"放課後等デイサービス　カリタス翼","province":"東京都","city":"文京区","address":"文京区本駒込5-4-4","lat":35.732379,"lon":139.750074},{"name":"文京区放課後等デイサービスＪＯＹ","province":"東京都","city":"文京区","address":"文京区本駒込四丁目35番15号文京区勤労福祉会館2階","lat":35.733468,"lon":139.75514},{"name":"ハッピーテラス千駄木教室","province":"東京都","city":"文京区","address":"文京区根津2-37-8","lat":35.72118,"lon":139.76241},{"name":"文京区児童発達支援センター","province":"東京都","city":"文京区","address":"文京区湯島4-7-10","lat":35.708848,"lon":139.765768},{"name":"文京区子ども家庭支援センター","province":"東京都","city":"文京区","address":"文京区春日1-16-21シビックセンター5階","lat":35.707951,"lon":139.75243},{"name":"文京区子ども家庭支援センター","province":"東京都","city":"文京区","address":"文京区春日1-16-21シビックセンター5階","lat":35.70794,"lon":139.75278},{"name":"＊?文京区男女平等センター","province":"東京都","city":"文京区","address":"文京区本郷4-8-3","lat":35.708552,"lon":139.757477}]}