{"keyword":"朝","data":[{"name":"有限会社　鈴木商店","province":"東京都","city":"文京区","address":"東京都文京区小石川1丁目22-8","lat":35.71478886,"lon":139.75101348},{"name":"有限会社　矢口葬祭","province":"東京都","city":"文京区","address":"東京都文京区大塚5丁目18-1","lat":35.72120703,"lon":139.72992901},{"name":"有限会社　神谷商店","province":"東京都","city":"文京区","address":"東京都文京区根津2丁目20-4","lat":35.71886949,"lon":139.76449023},{"name":"本郷金子商店　株式会社","province":"東京都","city":"文京区","address":"東京都文京区本郷2丁目14-9","lat":35.70450689,"lon":139.76079368},{"name":"磯辺葬儀社","province":"東京都","city":"文京区","address":"東京都文京区目白台2丁目9-6","lat":35.71664613,"lon":139.71887734},{"name":"株式会社　杉元","province":"東京都","city":"文京区","address":"東京都文京区本郷4丁目34-17","lat":35.70900075,"lon":139.75771586},{"name":"おもてなし食堂","province":"東京都","city":"文京区","address":"東京都文京区小石川3丁目4-14","lat":35.71253894,"lon":139.74521961},{"name":"氷川下子ども食堂","province":"東京都","city":"文京区","address":"東京都文京区千石3丁目3-7","lat":35.72480123,"lon":139.73621722},{"name":"おたがいさま食堂せんごく","province":"東京都","city":"文京区","address":"東京都文京区白山2丁目13-6","lat":35.71696348,"lon":139.74601384},{"name":"文京BASE子ども食堂","province":"東京都","city":"文京区","address":"東京都文京区小石川3丁目28-14","lat":35.71350562,"lon":139.75000249},{"name":"おかえりごはん","province":"東京都","city":"文京区","address":"東京都文京区千駄木3丁目42-4","lat":35.72785754,"lon":139.76420951},{"name":"定泉寺こども食堂","province":"東京都","city":"文京区","address":"東京都文京区本駒込1丁目7-12","lat":35.72574333,"lon":139.75300194},{"name":"動坂ごはん","province":"東京都","city":"文京区","address":"東京都文京区本駒込4丁目21-7","lat":35.73209839,"lon":139.75776529},{"name":"壱岐坂下","province":"東京都","city":"文京区","address":"東京都文京区後楽1丁目3-61","lat":35.70486136,"lon":139.75272149},{"name":"伝通院前","province":"東京都","city":"文京区","address":"東京都文京区小石川3丁目1-1","lat":35.71078082,"lon":139.74631679},{"name":"西片","province":"東京都","city":"文京区","address":"東京都文京区小石川1丁目9-1","lat":35.71130314,"lon":139.75246066},{"name":"富坂下","province":"東京都","city":"文京区","address":"東京都文京区小石川2丁目1-1","lat":35.7087284,"lon":139.7515803},{"name":"水道橋","province":"東京都","city":"文京区","address":"東京都文京区後楽1丁目3-61","lat":35.70486136,"lon":139.75272149},{"name":"春日町","province":"東京都","city":"文京区","address":"東京都文京区春日1丁目16-27","lat":35.70812018,"lon":139.75333017},{"name":"千石一丁目","province":"東京都","city":"文京区","address":"東京都文京区本駒込2丁目29-27","lat":35.72887043,"lon":139.74438305},{"name":"安藤坂","province":"東京都","city":"文京区","address":"東京都文京区春日1丁目8-3","lat":35.70796444,"lon":139.74531698},{"name":"白山下","province":"東京都","city":"文京区","address":"東京都文京区白山2丁目39-8","lat":35.71970225,"lon":139.75146054},{"name":"後楽園駅前","province":"東京都","city":"文京区","address":"東京都文京区春日1丁目2-3","lat":35.70735077,"lon":139.75114429},{"name":"窪町東公園前","province":"東京都","city":"文京区","address":"東京都文京区大塚3丁目32","lat":35.72059904,"lon":139.73987817},{"name":"こんにゃくえんま前","province":"東京都","city":"文京区","address":"東京都文京区小石川2丁目23-14","lat":35.71069206,"lon":139.75136356},{"name":"牛天神下","province":"東京都","city":"文京区","address":"東京都文京区後楽2丁目5-1","lat":35.70552861,"lon":139.74602812},{"name":"茗台中学校前","province":"東京都","city":"文京区","address":"東京都文京区春日2丁目9-5","lat":35.71346374,"lon":139.74103385},{"name":"明化小学校入口","province":"東京都","city":"文京区","address":"東京都文京区千石1丁目6-19","lat":35.72699281,"lon":139.74224719},{"name":"小石川植物園前","province":"東京都","city":"文京区","address":"東京都文京区白山2丁目14-6","lat":35.71733564,"lon":139.74502781},{"name":"竹早小学校入口","province":"東京都","city":"文京区","address":"東京都文京区小石川4丁目17-1","lat":35.71536633,"lon":139.74236978},{"name":"小石川税務署前","province":"東京都","city":"文京区","address":"東京都文京区後楽1丁目7-19","lat":35.70662298,"lon":139.74766961},{"name":"白山三丁目","province":"東京都","city":"文京区","address":"東京都文京区小石川5丁目37-6","lat":35.71893261,"lon":139.74201414},{"name":"小石川五丁目","province":"東京都","city":"文京区","address":"東京都文京区小石川5丁目1-12","lat":35.7156718,"lon":139.7399061},{"name":"千石三丁目第二","province":"東京都","city":"文京区","address":"東京都文京区千石3丁目3-7","lat":35.72480123,"lon":139.73621722},{"name":"飯田橋職安前","province":"東京都","city":"文京区","address":"東京都文京区後楽1丁目9-20","lat":35.70364551,"lon":139.74712809},{"name":"白山二丁目","province":"東京都","city":"文京区","address":"東京都文京区白山1丁目6-4","lat":35.71557769,"lon":139.75229946},{"name":"隆慶橋東詰","province":"東京都","city":"文京区","address":"東京都文京区後楽2丁目3-13","lat":35.70475922,"lon":139.74478104},{"name":"第十中学校入口","province":"東京都","city":"文京区","address":"東京都文京区千石1丁目6-12","lat":35.72598458,"lon":139.74184447},{"name":"金富小学校前","province":"東京都","city":"文京区","address":"東京都文京区春日2丁目6-15","lat":35.7108307,"lon":139.74161999},{"name":"白山交番西","province":"東京都","city":"文京区","address":"東京都文京区白山2丁目39-5","lat":35.71968002,"lon":139.751355},{"name":"白山四丁目第一","province":"東京都","city":"文京区","address":"東京都文京区白山4丁目36-12","lat":35.72254903,"lon":139.7476191},{"name":"小石川保健所前","province":"東京都","city":"文京区","address":"東京都文京区春日1丁目9-21","lat":35.70814221,"lon":139.74611413},{"name":"窪町東公園北","province":"東京都","city":"文京区","address":"東京都文京区大塚3丁目38-12","lat":35.72186276,"lon":139.73882267},{"name":"中通り入口","province":"東京都","city":"文京区","address":"東京都文京区春日1丁目7-12","lat":35.7074534,"lon":139.74605861},{"name":"小石川運動場前","province":"東京都","city":"文京区","address":"東京都文京区後楽1丁目8","lat":35.70462595,"lon":139.74661143},{"name":"柳町小学校入口","province":"東京都","city":"文京区","address":"東京都文京区小石川1丁目23-6","lat":35.71370563,"lon":139.75092185},{"name":"白山四丁目","province":"東京都","city":"文京区","address":"東京都文京区白山4丁目34-12","lat":35.72080483,"lon":139.74934402},{"name":"白山交番南","province":"東京都","city":"文京区","address":"東京都文京区白山1丁目31-6","lat":35.71904121,"lon":139.75161333},{"name":"小石川後楽園入口","province":"東京都","city":"文京区","address":"東京都文京区後楽1丁目8","lat":35.70462595,"lon":139.74661143},{"name":"大塚特別支援学校前","province":"東京都","city":"文京区","address":"東京都文京区春日1丁目9-9","lat":35.70802281,"lon":139.7472307},{"name":"新隆慶橋東詰","province":"東京都","city":"文京区","address":"東京都文京区後楽2丁目6-1","lat":35.70525084,"lon":139.74505878},{"name":"茗荷谷駅前","province":"東京都","city":"文京区","address":"東京都文京区小石川5丁目5-5","lat":35.71791038,"lon":139.73713962},{"name":"古川橋","province":"東京都","city":"文京区","address":"東京都文京区関口1丁目17","lat":35.70882798,"lon":139.73519287},{"name":"目白坂下","province":"東京都","city":"文京区","address":"東京都文京区音羽1丁目25-15","lat":35.71244413,"lon":139.73040427},{"name":"目白台二丁目","province":"東京都","city":"文京区","address":"東京都文京区目白台1丁目15-9","lat":35.71664333,"lon":139.7181413},{"name":"大塚三丁目","province":"東京都","city":"文京区","address":"東京都文京区大塚4丁目45-11","lat":35.72181258,"lon":139.73188993},{"name":"護国寺前","province":"東京都","city":"文京区","address":"東京都文京区大塚5丁目40-8","lat":35.72028204,"lon":139.72657655},{"name":"大塚警察署前","province":"東京都","city":"文京区","address":"東京都文京区音羽2丁目12-26","lat":35.71707411,"lon":139.727996},{"name":"護国寺南","province":"東京都","city":"文京区","address":"東京都文京区音羽2丁目11-25","lat":35.71900999,"lon":139.72723488},{"name":"大塚五丁目","province":"東京都","city":"文京区","address":"東京都文京区大塚4丁目51-5","lat":35.72531213,"lon":139.73044825},{"name":"目白台郵便局前","province":"東京都","city":"文京区","address":"東京都文京区目白台2丁目7-8","lat":35.71785996,"lon":139.72162984},{"name":"護国寺西","province":"東京都","city":"文京区","address":"東京都文京区音羽2丁目12","lat":35.71938771,"lon":139.72674046},{"name":"大塚四丁目","province":"東京都","city":"文京区","address":"東京都文京区大塚3丁目11-7","lat":35.72153767,"lon":139.733887},{"name":"大塚一丁目","province":"東京都","city":"文京区","address":"東京都文京区大塚3丁目3-14","lat":35.71920185,"lon":139.73525363},{"name":"江戸川公園前","province":"東京都","city":"文京区","address":"東京都文京区音羽1丁目1-1","lat":35.71119986,"lon":139.73157366},{"name":"目白台三丁目","province":"東京都","city":"文京区","address":"東京都文京区目白台1丁目23-7","lat":35.71500202,"lon":139.72446581},{"name":"音羽一丁目","province":"東京都","city":"文京区","address":"東京都文京区音羽1丁目20-2","lat":35.71510769,"lon":139.72913762},{"name":"音羽一丁目南","province":"東京都","city":"文京区","address":"東京都文京区音羽1丁目22-14","lat":35.71390228,"lon":139.72967651},{"name":"坂下通り入口","province":"東京都","city":"文京区","address":"東京都文京区大塚5丁目17-3","lat":35.72129314,"lon":139.73017899},{"name":"目白台二丁目第三","province":"東京都","city":"文京区","address":"東京都文京区目白台2丁目14-11","lat":35.7188571,"lon":139.72284637},{"name":"小日向一丁目","province":"東京都","city":"文京区","address":"東京都文京区春日2丁目8-13","lat":35.71093066,"lon":139.74042843},{"name":"大日坂下","province":"東京都","city":"文京区","address":"東京都文京区小日向2丁目18-5","lat":35.71097493,"lon":139.73351794},{"name":"華水橋","province":"東京都","city":"文京区","address":"東京都文京区関口1丁目20-6","lat":35.70939454,"lon":139.73325691},{"name":"大塚四丁目第二","province":"東京都","city":"文京区","address":"東京都文京区大塚3丁目27-2","lat":35.72224318,"lon":139.73566737},{"name":"大塚公園入口","province":"東京都","city":"文京区","address":"東京都文京区大塚4丁目49","lat":35.72415396,"lon":139.73177596},{"name":"跡見学園前","province":"東京都","city":"文京区","address":"東京都文京区大塚2丁目1-18","lat":35.71814638,"lon":139.73367881},{"name":"開運坂下","province":"東京都","city":"文京区","address":"東京都文京区大塚5丁目13-11","lat":35.7252593,"lon":139.72848453},{"name":"目白台運動場前","province":"東京都","city":"文京区","address":"東京都文京区目白台2丁目3-2","lat":35.71597961,"lon":139.72155769},{"name":"筑波大附属小学校入口","province":"東京都","city":"文京区","address":"東京都文京区大塚3丁目6-7","lat":35.72031559,"lon":139.73425369},{"name":"筑波大附属中学校前","province":"東京都","city":"文京区","address":"東京都文京区大塚2丁目1-1","lat":35.71878795,"lon":139.73262888},{"name":"目白台三丁目第二","province":"東京都","city":"文京区","address":"東京都文京区目白台1丁目21-2","lat":35.71430764,"lon":139.72373535},{"name":"筑波大学正門前","province":"東京都","city":"文京区","address":"東京都文京区大塚3丁目30","lat":35.71982964,"lon":139.73842},{"name":"茗荷谷駅前交番前","province":"東京都","city":"文京区","address":"東京都文京区小石川5丁目5-7","lat":35.71808257,"lon":139.73667576},{"name":"根津一丁目","province":"東京都","city":"文京区","address":"東京都文京区根津2丁目12-7","lat":35.71785574,"lon":139.76550131},{"name":"東大農学部前","province":"東京都","city":"文京区","address":"東京都文京区弥生1丁目1-1","lat":35.71678895,"lon":139.76026548},{"name":"東大正門前","province":"東京都","city":"文京区","address":"東京都文京区本郷7丁目3-1","lat":35.71203394,"lon":139.76277932},{"name":"湯島五差路","province":"東京都","city":"文京区","address":"東京都文京区本郷3丁目3-12","lat":35.70305157,"lon":139.76312697},{"name":"本郷二丁目","province":"東京都","city":"文京区","address":"東京都文京区本郷3丁目15-1","lat":35.70460969,"lon":139.76178529},{"name":"順天堂前","province":"東京都","city":"文京区","address":"東京都文京区本郷3丁目1-3","lat":35.70250161,"lon":139.76261313},{"name":"根津小学校入口","province":"東京都","city":"文京区","address":"東京都文京区根津2丁目20-7","lat":35.71920834,"lon":139.76417635},{"name":"本郷弥生","province":"東京都","city":"文京区","address":"東京都文京区弥生1丁目1-1","lat":35.71678895,"lon":139.76026548},{"name":"お茶の水","province":"東京都","city":"文京区","address":"東京都文京区湯島1丁目5-45","lat":35.70099629,"lon":139.76491864},{"name":"本郷三丁目","province":"東京都","city":"文京区","address":"東京都文京区本郷4丁目2-1","lat":35.70765375,"lon":139.76038242},{"name":"壱岐坂上","province":"東京都","city":"文京区","address":"東京都文京区本郷2丁目26-1","lat":35.7048763,"lon":139.76080755},{"name":"清水坂下","province":"東京都","city":"文京区","address":"東京都文京区湯島2丁目1-1","lat":35.70305723,"lon":139.76642959},{"name":"三組坂下","province":"東京都","city":"文京区","address":"東京都文京区湯島3丁目14-10","lat":35.7048766,"lon":139.7696349},{"name":"本郷追分","province":"東京都","city":"文京区","address":"東京都文京区向丘2丁目8-7","lat":35.71949969,"lon":139.75717399},{"name":"本郷消防署前","province":"東京都","city":"文京区","address":"東京都文京区本郷7丁目1-11","lat":35.70785938,"lon":139.76294619},{"name":"壱岐坂通り","province":"東京都","city":"文京区","address":"東京都文京区本郷2丁目21-4","lat":35.70448739,"lon":139.75906877},{"name":"根津神社入口","province":"東京都","city":"文京区","address":"東京都文京区根津2丁目29-2","lat":35.71998601,"lon":139.76328195},{"name":"本郷小学校前","province":"東京都","city":"文京区","address":"東京都文京区本郷4丁目5-10","lat":35.70759814,"lon":139.7581409},{"name":"三組坂上","province":"東京都","city":"文京区","address":"東京都文京区湯島3丁目4-7","lat":35.70481819,"lon":139.76739057},{"name":"湯島二丁目","province":"東京都","city":"文京区","address":"東京都文京区湯島2丁目18-6","lat":35.70556525,"lon":139.76474622},{"name":"湯島中坂下","province":"東京都","city":"文京区","address":"東京都文京区湯島3丁目25-11","lat":35.70662919,"lon":139.76975705},{"name":"本郷消防署前第二","province":"東京都","city":"文京区","address":"東京都文京区本郷3丁目27-1","lat":35.70596234,"lon":139.76226576},{"name":"大横丁出口","province":"東京都","city":"文京区","address":"東京都文京区本郷3丁目16-9","lat":35.70557623,"lon":139.7611825},{"name":"天神町交番前","province":"東京都","city":"文京区","address":"東京都文京区湯島3丁目33-9","lat":35.70753467,"lon":139.76979589},{"name":"真砂坂上","province":"東京都","city":"文京区","address":"東京都文京区本郷4丁目7-2","lat":35.70754256,"lon":139.75721876},{"name":"文京第六中学校裏","province":"東京都","city":"文京区","address":"東京都文京区向丘1丁目20-7","lat":35.71741103,"lon":139.75792952},{"name":"順天堂横","province":"東京都","city":"文京区","address":"東京都文京区本郷2丁目9-8","lat":35.7028932,"lon":139.76171872},{"name":"清水坂下第二","province":"東京都","city":"文京区","address":"東京都文京区湯島2丁目1-5","lat":35.70317665,"lon":139.7660796},{"name":"慈愛病院前","province":"東京都","city":"文京区","address":"東京都文京区本郷6丁目12-5","lat":35.71313919,"lon":139.75682411},{"name":"中坂上","province":"東京都","city":"文京区","address":"東京都文京区湯島3丁目29-3","lat":35.70686245,"lon":139.76810988},{"name":"弥生門入口","province":"東京都","city":"文京区","address":"東京都文京区本郷7丁目3-1","lat":35.71203394,"lon":139.76277932},{"name":"本郷三丁目金助町","province":"東京都","city":"文京区","address":"東京都文京区本郷3丁目24-3","lat":35.70570963,"lon":139.76352682},{"name":"本郷郵便局前","province":"東京都","city":"文京区","address":"東京都文京区本郷6丁目1-15","lat":35.71227821,"lon":139.75908503},{"name":"湯島二丁目郵便局前","province":"東京都","city":"文京区","address":"東京都文京区湯島2丁目22-4","lat":35.70526257,"lon":139.76665448},{"name":"団子坂下","province":"東京都","city":"文京区","address":"東京都文京区千駄木3丁目37-20","lat":35.72495777,"lon":139.76346517},{"name":"上富士前","province":"東京都","city":"文京区","address":"東京都文京区本駒込5丁目3-3","lat":35.73214247,"lon":139.74994361},{"name":"道灌山下","province":"東京都","city":"文京区","address":"東京都文京区千駄木3丁目49-10","lat":35.73017663,"lon":139.76239287},{"name":"駒本小学校前","province":"東京都","city":"文京区","address":"東京都文京区本駒込1丁目6-14","lat":35.72467957,"lon":139.75342415},{"name":"千駄木二丁目","province":"東京都","city":"文京区","address":"東京都文京区根津1丁目27-5","lat":35.72104417,"lon":139.76182089},{"name":"文京グリーンコート前","province":"東京都","city":"文京区","address":"東京都文京区本駒込2丁目28-10","lat":35.73072031,"lon":139.74744106},{"name":"本駒込五丁目坂下","province":"東京都","city":"文京区","address":"東京都文京区本駒込5丁目40-5","lat":35.73331196,"lon":139.75373775},{"name":"駒込橋","province":"東京都","city":"文京区","address":"東京都文京区本駒込6丁目24-6","lat":35.73534474,"lon":139.74733257},{"name":"東洋大学前","province":"東京都","city":"文京区","address":"東京都文京区白山5丁目28-20","lat":35.72357121,"lon":139.74971335},{"name":"向丘一丁目","province":"東京都","city":"文京区","address":"東京都文京区向丘1丁目13-2","lat":35.72026069,"lon":139.75599352},{"name":"動坂上","province":"東京都","city":"文京区","address":"東京都文京区本駒込3丁目18-16","lat":35.73070131,"lon":139.75746536},{"name":"富士神社入口","province":"東京都","city":"文京区","address":"東京都文京区本駒込3丁目31-5","lat":35.73043718,"lon":139.75133247},{"name":"徳源院前","province":"東京都","city":"文京区","address":"東京都文京区本駒込3丁目7-14","lat":35.72652111,"lon":139.75494345},{"name":"駒込日医大前","province":"東京都","city":"文京区","address":"東京都文京区千駄木1丁目1-5","lat":35.72107737,"lon":139.75886828},{"name":"道灌山下東","province":"東京都","city":"文京区","address":"東京都文京区千駄木3丁目50-12","lat":35.73053219,"lon":139.76296227},{"name":"駒込稲荷坂下","province":"東京都","city":"文京区","address":"東京都文京区本駒込5丁目41-7","lat":35.73339253,"lon":139.75439326},{"name":"団子坂東","province":"東京都","city":"文京区","address":"東京都文京区千駄木2丁目35-7","lat":35.72446896,"lon":139.7641457},{"name":"勤労福祉会館前","province":"東京都","city":"文京区","address":"東京都文京区本駒込4丁目46-2","lat":35.73377311,"lon":139.75567094},{"name":"駒込病院前","province":"東京都","city":"文京区","address":"東京都文京区千駄木5丁目49-4","lat":35.72997639,"lon":139.75756816},{"name":"区立教育の森公園","province":"東京都","city":"文京区","address":"東京都文京区大塚3丁目29-1","lat":35.71964352,"lon":139.73724511},{"name":"区立教育の森公園（注２）","province":"東京都","city":"文京区","address":"東京都文京区大塚3丁目29-1","lat":35.71964352,"lon":139.73724511},{"name":"有限会社　鈴木商店","province":"東京都","city":"文京区","address":"東京都文京区小石川1丁目22-8","lat":35.71478886,"lon":139.75101348},{"name":"有限会社　矢口葬祭","province":"東京都","city":"文京区","address":"東京都文京区大塚5丁目18-1","lat":35.72120703,"lon":139.72992901},{"name":"有限会社　神谷商店","province":"東京都","city":"文京区","address":"東京都文京区根津2丁目20-4","lat":35.71886949,"lon":139.76449023},{"name":"本郷金子商店　株式会社","province":"東京都","city":"文京区","address":"東京都文京区本郷2丁目14-9","lat":35.70450689,"lon":139.76079368},{"name":"磯辺葬儀社","province":"東京都","city":"文京区","address":"東京都文京区目白台2丁目9-6","lat":35.71664613,"lon":139.71887734},{"name":"株式会社　杉元","province":"東京都","city":"文京区","address":"東京都文京区本郷4丁目34-17","lat":35.70900075,"lon":139.75771586},{"name":"おもてなし食堂","province":"東京都","city":"文京区","address":"東京都文京区小石川3丁目4-14","lat":35.71253894,"lon":139.74521961},{"name":"氷川下子ども食堂","province":"東京都","city":"文京区","address":"東京都文京区千石3丁目3-7","lat":35.72480123,"lon":139.73621722},{"name":"おたがいさま食堂せんごく","province":"東京都","city":"文京区","address":"東京都文京区白山2丁目13-6","lat":35.71696348,"lon":139.74601384},{"name":"文京BASE子ども食堂","province":"東京都","city":"文京区","address":"東京都文京区小石川3丁目28-14","lat":35.71350562,"lon":139.75000249},{"name":"おかえりごはん","province":"東京都","city":"文京区","address":"東京都文京区千駄木3丁目42-4","lat":35.72785754,"lon":139.76420951},{"name":"定泉寺こども食堂","province":"東京都","city":"文京区","address":"東京都文京区本駒込1丁目7-12","lat":35.72574333,"lon":139.75300194},{"name":"動坂ごはん","province":"東京都","city":"文京区","address":"東京都文京区本駒込4丁目21-7","lat":35.73209839,"lon":139.75776529},{"name":"壱岐坂下","province":"東京都","city":"文京区","address":"東京都文京区後楽1丁目3-61","lat":35.70486136,"lon":139.75272149},{"name":"伝通院前","province":"東京都","city":"文京区","address":"東京都文京区小石川3丁目1-1","lat":35.71078082,"lon":139.74631679},{"name":"西片","province":"東京都","city":"文京区","address":"東京都文京区小石川1丁目9-1","lat":35.71130314,"lon":139.75246066},{"name":"富坂下","province":"東京都","city":"文京区","address":"東京都文京区小石川2丁目1-1","lat":35.7087284,"lon":139.7515803},{"name":"水道橋","province":"東京都","city":"文京区","address":"東京都文京区後楽1丁目3-61","lat":35.70486136,"lon":139.75272149},{"name":"春日町","province":"東京都","city":"文京区","address":"東京都文京区春日1丁目16-27","lat":35.70812018,"lon":139.75333017},{"name":"千石一丁目","province":"東京都","city":"文京区","address":"東京都文京区本駒込2丁目29-27","lat":35.72887043,"lon":139.74438305},{"name":"安藤坂","province":"東京都","city":"文京区","address":"東京都文京区春日1丁目8-3","lat":35.70796444,"lon":139.74531698},{"name":"白山下","province":"東京都","city":"文京区","address":"東京都文京区白山2丁目39-8","lat":35.71970225,"lon":139.75146054},{"name":"後楽園駅前","province":"東京都","city":"文京区","address":"東京都文京区春日1丁目2-3","lat":35.70735077,"lon":139.75114429},{"name":"窪町東公園前","province":"東京都","city":"文京区","address":"東京都文京区大塚3丁目32","lat":35.72059904,"lon":139.73987817},{"name":"こんにゃくえんま前","province":"東京都","city":"文京区","address":"東京都文京区小石川2丁目23-14","lat":35.71069206,"lon":139.75136356},{"name":"牛天神下","province":"東京都","city":"文京区","address":"東京都文京区後楽2丁目5-1","lat":35.70552861,"lon":139.74602812},{"name":"茗台中学校前","province":"東京都","city":"文京区","address":"東京都文京区春日2丁目9-5","lat":35.71346374,"lon":139.74103385},{"name":"明化小学校入口","province":"東京都","city":"文京区","address":"東京都文京区千石1丁目6-19","lat":35.72699281,"lon":139.74224719},{"name":"小石川植物園前","province":"東京都","city":"文京区","address":"東京都文京区白山2丁目14-6","lat":35.71733564,"lon":139.74502781},{"name":"竹早小学校入口","province":"東京都","city":"文京区","address":"東京都文京区小石川4丁目17-1","lat":35.71536633,"lon":139.74236978},{"name":"小石川税務署前","province":"東京都","city":"文京区","address":"東京都文京区後楽1丁目7-19","lat":35.70662298,"lon":139.74766961},{"name":"白山三丁目","province":"東京都","city":"文京区","address":"東京都文京区小石川5丁目37-6","lat":35.71893261,"lon":139.74201414},{"name":"小石川五丁目","province":"東京都","city":"文京区","address":"東京都文京区小石川5丁目1-12","lat":35.7156718,"lon":139.7399061},{"name":"千石三丁目第二","province":"東京都","city":"文京区","address":"東京都文京区千石3丁目3-7","lat":35.72480123,"lon":139.73621722},{"name":"飯田橋職安前","province":"東京都","city":"文京区","address":"東京都文京区後楽1丁目9-20","lat":35.70364551,"lon":139.74712809},{"name":"白山二丁目","province":"東京都","city":"文京区","address":"東京都文京区白山1丁目6-4","lat":35.71557769,"lon":139.75229946},{"name":"隆慶橋東詰","province":"東京都","city":"文京区","address":"東京都文京区後楽2丁目3-13","lat":35.70475922,"lon":139.74478104},{"name":"第十中学校入口","province":"東京都","city":"文京区","address":"東京都文京区千石1丁目6-12","lat":35.72598458,"lon":139.74184447},{"name":"金富小学校前","province":"東京都","city":"文京区","address":"東京都文京区春日2丁目6-15","lat":35.7108307,"lon":139.74161999},{"name":"白山交番西","province":"東京都","city":"文京区","address":"東京都文京区白山2丁目39-5","lat":35.71968002,"lon":139.751355},{"name":"白山四丁目第一","province":"東京都","city":"文京区","address":"東京都文京区白山4丁目36-12","lat":35.72254903,"lon":139.7476191},{"name":"小石川保健所前","province":"東京都","city":"文京区","address":"東京都文京区春日1丁目9-21","lat":35.70814221,"lon":139.74611413},{"name":"窪町東公園北","province":"東京都","city":"文京区","address":"東京都文京区大塚3丁目38-12","lat":35.72186276,"lon":139.73882267},{"name":"中通り入口","province":"東京都","city":"文京区","address":"東京都文京区春日1丁目7-12","lat":35.7074534,"lon":139.74605861},{"name":"小石川運動場前","province":"東京都","city":"文京区","address":"東京都文京区後楽1丁目8","lat":35.70462595,"lon":139.74661143},{"name":"柳町小学校入口","province":"東京都","city":"文京区","address":"東京都文京区小石川1丁目23-6","lat":35.71370563,"lon":139.75092185},{"name":"白山四丁目","province":"東京都","city":"文京区","address":"東京都文京区白山4丁目34-12","lat":35.72080483,"lon":139.74934402},{"name":"白山交番南","province":"東京都","city":"文京区","address":"東京都文京区白山1丁目31-6","lat":35.71904121,"lon":139.75161333},{"name":"小石川後楽園入口","province":"東京都","city":"文京区","address":"東京都文京区後楽1丁目8","lat":35.70462595,"lon":139.74661143},{"name":"大塚特別支援学校前","province":"東京都","city":"文京区","address":"東京都文京区春日1丁目9-9","lat":35.70802281,"lon":139.7472307},{"name":"新隆慶橋東詰","province":"東京都","city":"文京区","address":"東京都文京区後楽2丁目6-1","lat":35.70525084,"lon":139.74505878},{"name":"茗荷谷駅前","province":"東京都","city":"文京区","address":"東京都文京区小石川5丁目5-5","lat":35.71791038,"lon":139.73713962},{"name":"古川橋","province":"東京都","city":"文京区","address":"東京都文京区関口1丁目17","lat":35.70882798,"lon":139.73519287},{"name":"目白坂下","province":"東京都","city":"文京区","address":"東京都文京区音羽1丁目25-15","lat":35.71244413,"lon":139.73040427},{"name":"目白台二丁目","province":"東京都","city":"文京区","address":"東京都文京区目白台1丁目15-9","lat":35.71664333,"lon":139.7181413},{"name":"大塚三丁目","province":"東京都","city":"文京区","address":"東京都文京区大塚4丁目45-11","lat":35.72181258,"lon":139.73188993},{"name":"護国寺前","province":"東京都","city":"文京区","address":"東京都文京区大塚5丁目40-8","lat":35.72028204,"lon":139.72657655},{"name":"大塚警察署前","province":"東京都","city":"文京区","address":"東京都文京区音羽2丁目12-26","lat":35.71707411,"lon":139.727996},{"name":"護国寺南","province":"東京都","city":"文京区","address":"東京都文京区音羽2丁目11-25","lat":35.71900999,"lon":139.72723488},{"name":"大塚五丁目","province":"東京都","city":"文京区","address":"東京都文京区大塚4丁目51-5","lat":35.72531213,"lon":139.73044825},{"name":"目白台郵便局前","province":"東京都","city":"文京区","address":"東京都文京区目白台2丁目7-8","lat":35.71785996,"lon":139.72162984},{"name":"護国寺西","province":"東京都","city":"文京区","address":"東京都文京区音羽2丁目12","lat":35.71938771,"lon":139.72674046},{"name":"大塚四丁目","province":"東京都","city":"文京区","address":"東京都文京区大塚3丁目11-7","lat":35.72153767,"lon":139.733887},{"name":"大塚一丁目","province":"東京都","city":"文京区","address":"東京都文京区大塚3丁目3-14","lat":35.71920185,"lon":139.73525363},{"name":"江戸川公園前","province":"東京都","city":"文京区","address":"東京都文京区音羽1丁目1-1","lat":35.71119986,"lon":139.73157366},{"name":"目白台三丁目","province":"東京都","city":"文京区","address":"東京都文京区目白台1丁目23-7","lat":35.71500202,"lon":139.72446581},{"name":"音羽一丁目","province":"東京都","city":"文京区","address":"東京都文京区音羽1丁目20-2","lat":35.71510769,"lon":139.72913762},{"name":"音羽一丁目南","province":"東京都","city":"文京区","address":"東京都文京区音羽1丁目22-14","lat":35.71390228,"lon":139.72967651},{"name":"坂下通り入口","province":"東京都","city":"文京区","address":"東京都文京区大塚5丁目17-3","lat":35.72129314,"lon":139.73017899},{"name":"目白台二丁目第三","province":"東京都","city":"文京区","address":"東京都文京区目白台2丁目14-11","lat":35.7188571,"lon":139.72284637},{"name":"小日向一丁目","province":"東京都","city":"文京区","address":"東京都文京区春日2丁目8-13","lat":35.71093066,"lon":139.74042843},{"name":"大日坂下","province":"東京都","city":"文京区","address":"東京都文京区小日向2丁目18-5","lat":35.71097493,"lon":139.73351794},{"name":"華水橋","province":"東京都","city":"文京区","address":"東京都文京区関口1丁目20-6","lat":35.70939454,"lon":139.73325691},{"name":"大塚四丁目第二","province":"東京都","city":"文京区","address":"東京都文京区大塚3丁目27-2","lat":35.72224318,"lon":139.73566737},{"name":"大塚公園入口","province":"東京都","city":"文京区","address":"東京都文京区大塚4丁目49","lat":35.72415396,"lon":139.73177596},{"name":"跡見学園前","province":"東京都","city":"文京区","address":"東京都文京区大塚2丁目1-18","lat":35.71814638,"lon":139.73367881},{"name":"開運坂下","province":"東京都","city":"文京区","address":"東京都文京区大塚5丁目13-11","lat":35.7252593,"lon":139.72848453},{"name":"目白台運動場前","province":"東京都","city":"文京区","address":"東京都文京区目白台2丁目3-2","lat":35.71597961,"lon":139.72155769},{"name":"筑波大附属小学校入口","province":"東京都","city":"文京区","address":"東京都文京区大塚3丁目6-7","lat":35.72031559,"lon":139.73425369},{"name":"筑波大附属中学校前","province":"東京都","city":"文京区","address":"東京都文京区大塚2丁目1-1","lat":35.71878795,"lon":139.73262888},{"name":"目白台三丁目第二","province":"東京都","city":"文京区","address":"東京都文京区目白台1丁目21-2","lat":35.71430764,"lon":139.72373535},{"name":"筑波大学正門前","province":"東京都","city":"文京区","address":"東京都文京区大塚3丁目30","lat":35.71982964,"lon":139.73842},{"name":"茗荷谷駅前交番前","province":"東京都","city":"文京区","address":"東京都文京区小石川5丁目5-7","lat":35.71808257,"lon":139.73667576},{"name":"根津一丁目","province":"東京都","city":"文京区","address":"東京都文京区根津2丁目12-7","lat":35.71785574,"lon":139.76550131},{"name":"東大農学部前","province":"東京都","city":"文京区","address":"東京都文京区弥生1丁目1-1","lat":35.71678895,"lon":139.76026548},{"name":"東大正門前","province":"東京都","city":"文京区","address":"東京都文京区本郷7丁目3-1","lat":35.71203394,"lon":139.76277932},{"name":"湯島五差路","province":"東京都","city":"文京区","address":"東京都文京区本郷3丁目3-12","lat":35.70305157,"lon":139.76312697},{"name":"本郷二丁目","province":"東京都","city":"文京区","address":"東京都文京区本郷3丁目15-1","lat":35.70460969,"lon":139.76178529},{"name":"順天堂前","province":"東京都","city":"文京区","address":"東京都文京区本郷3丁目1-3","lat":35.70250161,"lon":139.76261313},{"name":"根津小学校入口","province":"東京都","city":"文京区","address":"東京都文京区根津2丁目20-7","lat":35.71920834,"lon":139.76417635},{"name":"本郷弥生","province":"東京都","city":"文京区","address":"東京都文京区弥生1丁目1-1","lat":35.71678895,"lon":139.76026548},{"name":"お茶の水","province":"東京都","city":"文京区","address":"東京都文京区湯島1丁目5-45","lat":35.70099629,"lon":139.76491864},{"name":"本郷三丁目","province":"東京都","city":"文京区","address":"東京都文京区本郷4丁目2-1","lat":35.70765375,"lon":139.76038242},{"name":"壱岐坂上","province":"東京都","city":"文京区","address":"東京都文京区本郷2丁目26-1","lat":35.7048763,"lon":139.76080755},{"name":"清水坂下","province":"東京都","city":"文京区","address":"東京都文京区湯島2丁目1-1","lat":35.70305723,"lon":139.76642959},{"name":"三組坂下","province":"東京都","city":"文京区","address":"東京都文京区湯島3丁目14-10","lat":35.7048766,"lon":139.7696349},{"name":"本郷追分","province":"東京都","city":"文京区","address":"東京都文京区向丘2丁目8-7","lat":35.71949969,"lon":139.75717399},{"name":"本郷消防署前","province":"東京都","city":"文京区","address":"東京都文京区本郷7丁目1-11","lat":35.70785938,"lon":139.76294619},{"name":"壱岐坂通り","province":"東京都","city":"文京区","address":"東京都文京区本郷2丁目21-4","lat":35.70448739,"lon":139.75906877},{"name":"根津神社入口","province":"東京都","city":"文京区","address":"東京都文京区根津2丁目29-2","lat":35.71998601,"lon":139.76328195},{"name":"本郷小学校前","province":"東京都","city":"文京区","address":"東京都文京区本郷4丁目5-10","lat":35.70759814,"lon":139.7581409},{"name":"三組坂上","province":"東京都","city":"文京区","address":"東京都文京区湯島3丁目4-7","lat":35.70481819,"lon":139.76739057},{"name":"湯島二丁目","province":"東京都","city":"文京区","address":"東京都文京区湯島2丁目18-6","lat":35.70556525,"lon":139.76474622},{"name":"湯島中坂下","province":"東京都","city":"文京区","address":"東京都文京区湯島3丁目25-11","lat":35.70662919,"lon":139.76975705},{"name":"本郷消防署前第二","province":"東京都","city":"文京区","address":"東京都文京区本郷3丁目27-1","lat":35.70596234,"lon":139.76226576},{"name":"大横丁出口","province":"東京都","city":"文京区","address":"東京都文京区本郷3丁目16-9","lat":35.70557623,"lon":139.7611825},{"name":"天神町交番前","province":"東京都","city":"文京区","address":"東京都文京区湯島3丁目33-9","lat":35.70753467,"lon":139.76979589},{"name":"真砂坂上","province":"東京都","city":"文京区","address":"東京都文京区本郷4丁目7-2","lat":35.70754256,"lon":139.75721876},{"name":"文京第六中学校裏","province":"東京都","city":"文京区","address":"東京都文京区向丘1丁目20-7","lat":35.71741103,"lon":139.75792952},{"name":"順天堂横","province":"東京都","city":"文京区","address":"東京都文京区本郷2丁目9-8","lat":35.7028932,"lon":139.76171872},{"name":"清水坂下第二","province":"東京都","city":"文京区","address":"東京都文京区湯島2丁目1-5","lat":35.70317665,"lon":139.7660796},{"name":"慈愛病院前","province":"東京都","city":"文京区","address":"東京都文京区本郷6丁目12-5","lat":35.71313919,"lon":139.75682411},{"name":"中坂上","province":"東京都","city":"文京区","address":"東京都文京区湯島3丁目29-3","lat":35.70686245,"lon":139.76810988},{"name":"弥生門入口","province":"東京都","city":"文京区","address":"東京都文京区本郷7丁目3-1","lat":35.71203394,"lon":139.76277932},{"name":"本郷三丁目金助町","province":"東京都","city":"文京区","address":"東京都文京区本郷3丁目24-3","lat":35.70570963,"lon":139.76352682},{"name":"本郷郵便局前","province":"東京都","city":"文京区","address":"東京都文京区本郷6丁目1-15","lat":35.71227821,"lon":139.75908503},{"name":"湯島二丁目郵便局前","province":"東京都","city":"文京区","address":"東京都文京区湯島2丁目22-4","lat":35.70526257,"lon":139.76665448},{"name":"団子坂下","province":"東京都","city":"文京区","address":"東京都文京区千駄木3丁目37-20","lat":35.72495777,"lon":139.76346517},{"name":"上富士前","province":"東京都","city":"文京区","address":"東京都文京区本駒込5丁目3-3","lat":35.73214247,"lon":139.74994361},{"name":"道灌山下","province":"東京都","city":"文京区","address":"東京都文京区千駄木3丁目49-10","lat":35.73017663,"lon":139.76239287},{"name":"駒本小学校前","province":"東京都","city":"文京区","address":"東京都文京区本駒込1丁目6-14","lat":35.72467957,"lon":139.75342415},{"name":"千駄木二丁目","province":"東京都","city":"文京区","address":"東京都文京区根津1丁目27-5","lat":35.72104417,"lon":139.76182089},{"name":"文京グリーンコート前","province":"東京都","city":"文京区","address":"東京都文京区本駒込2丁目28-10","lat":35.73072031,"lon":139.74744106},{"name":"本駒込五丁目坂下","province":"東京都","city":"文京区","address":"東京都文京区本駒込5丁目40-5","lat":35.73331196,"lon":139.75373775},{"name":"駒込橋","province":"東京都","city":"文京区","address":"東京都文京区本駒込6丁目24-6","lat":35.73534474,"lon":139.74733257},{"name":"東洋大学前","province":"東京都","city":"文京区","address":"東京都文京区白山5丁目28-20","lat":35.72357121,"lon":139.74971335},{"name":"向丘一丁目","province":"東京都","city":"文京区","address":"東京都文京区向丘1丁目13-2","lat":35.72026069,"lon":139.75599352},{"name":"動坂上","province":"東京都","city":"文京区","address":"東京都文京区本駒込3丁目18-16","lat":35.73070131,"lon":139.75746536},{"name":"富士神社入口","province":"東京都","city":"文京区","address":"東京都文京区本駒込3丁目31-5","lat":35.73043718,"lon":139.75133247},{"name":"徳源院前","province":"東京都","city":"文京区","address":"東京都文京区本駒込3丁目7-14","lat":35.72652111,"lon":139.75494345},{"name":"駒込日医大前","province":"東京都","city":"文京区","address":"東京都文京区千駄木1丁目1-5","lat":35.72107737,"lon":139.75886828},{"name":"道灌山下東","province":"東京都","city":"文京区","address":"東京都文京区千駄木3丁目50-12","lat":35.73053219,"lon":139.76296227},{"name":"駒込稲荷坂下","province":"東京都","city":"文京区","address":"東京都文京区本駒込5丁目41-7","lat":35.73339253,"lon":139.75439326},{"name":"団子坂東","province":"東京都","city":"文京区","address":"東京都文京区千駄木2丁目35-7","lat":35.72446896,"lon":139.7641457},{"name":"勤労福祉会館前","province":"東京都","city":"文京区","address":"東京都文京区本駒込4丁目46-2","lat":35.73377311,"lon":139.75567094},{"name":"駒込病院前","province":"東京都","city":"文京区","address":"東京都文京区千駄木5丁目49-4","lat":35.72997639,"lon":139.75756816},{"name":"区立教育の森公園","province":"東京都","city":"文京区","address":"東京都文京区大塚3丁目29-1","lat":35.71964352,"lon":139.73724511},{"name":"区立教育の森公園（注２）","province":"東京都","city":"文京区","address":"東京都文京区大塚3丁目29-1","lat":35.71964352,"lon":139.73724511},{"name":"有限会社　鈴木商店","province":"東京都","city":"文京区","address":"東京都文京区小石川1丁目22-8","lat":35.71478886,"lon":139.75101348},{"name":"有限会社　矢口葬祭","province":"東京都","city":"文京区","address":"東京都文京区大塚5丁目18-1","lat":35.72120703,"lon":139.72992901},{"name":"有限会社　神谷商店","province":"東京都","city":"文京区","address":"東京都文京区根津2丁目20-4","lat":35.71886949,"lon":139.76449023},{"name":"本郷金子商店　株式会社","province":"東京都","city":"文京区","address":"東京都文京区本郷2丁目14-9","lat":35.70450689,"lon":139.76079368},{"name":"磯辺葬儀社","province":"東京都","city":"文京区","address":"東京都文京区目白台2丁目9-6","lat":35.71664613,"lon":139.71887734},{"name":"株式会社　杉元","province":"東京都","city":"文京区","address":"東京都文京区本郷4丁目34-17","lat":35.70900075,"lon":139.75771586},{"name":"おもてなし食堂","province":"東京都","city":"文京区","address":"東京都文京区小石川3丁目4-14","lat":35.71253894,"lon":139.74521961},{"name":"氷川下子ども食堂","province":"東京都","city":"文京区","address":"東京都文京区千石3丁目3-7","lat":35.72480123,"lon":139.73621722},{"name":"おたがいさま食堂せんごく","province":"東京都","city":"文京区","address":"東京都文京区白山2丁目13-6","lat":35.71696348,"lon":139.74601384},{"name":"文京BASE子ども食堂","province":"東京都","city":"文京区","address":"東京都文京区小石川3丁目28-14","lat":35.71350562,"lon":139.75000249},{"name":"おかえりごはん","province":"東京都","city":"文京区","address":"東京都文京区千駄木3丁目42-4","lat":35.72785754,"lon":139.76420951},{"name":"定泉寺こども食堂","province":"東京都","city":"文京区","address":"東京都文京区本駒込1丁目7-12","lat":35.72574333,"lon":139.75300194},{"name":"動坂ごはん","province":"東京都","city":"文京区","address":"東京都文京区本駒込4丁目21-7","lat":35.73209839,"lon":139.75776529},{"name":"壱岐坂下","province":"東京都","city":"文京区","address":"東京都文京区後楽1丁目3-61","lat":35.70486136,"lon":139.75272149},{"name":"伝通院前","province":"東京都","city":"文京区","address":"東京都文京区小石川3丁目1-1","lat":35.71078082,"lon":139.74631679},{"name":"西片","province":"東京都","city":"文京区","address":"東京都文京区小石川1丁目9-1","lat":35.71130314,"lon":139.75246066},{"name":"富坂下","province":"東京都","city":"文京区","address":"東京都文京区小石川2丁目1-1","lat":35.7087284,"lon":139.7515803},{"name":"水道橋","province":"東京都","city":"文京区","address":"東京都文京区後楽1丁目3-61","lat":35.70486136,"lon":139.75272149},{"name":"春日町","province":"東京都","city":"文京区","address":"東京都文京区春日1丁目16-27","lat":35.70812018,"lon":139.75333017},{"name":"千石一丁目","province":"東京都","city":"文京区","address":"東京都文京区本駒込2丁目29-27","lat":35.72887043,"lon":139.74438305},{"name":"安藤坂","province":"東京都","city":"文京区","address":"東京都文京区春日1丁目8-3","lat":35.70796444,"lon":139.74531698},{"name":"白山下","province":"東京都","city":"文京区","address":"東京都文京区白山2丁目39-8","lat":35.71970225,"lon":139.75146054},{"name":"後楽園駅前","province":"東京都","city":"文京区","address":"東京都文京区春日1丁目2-3","lat":35.70735077,"lon":139.75114429},{"name":"窪町東公園前","province":"東京都","city":"文京区","address":"東京都文京区大塚3丁目32","lat":35.72059904,"lon":139.73987817},{"name":"こんにゃくえんま前","province":"東京都","city":"文京区","address":"東京都文京区小石川2丁目23-14","lat":35.71069206,"lon":139.75136356},{"name":"牛天神下","province":"東京都","city":"文京区","address":"東京都文京区後楽2丁目5-1","lat":35.70552861,"lon":139.74602812},{"name":"茗台中学校前","province":"東京都","city":"文京区","address":"東京都文京区春日2丁目9-5","lat":35.71346374,"lon":139.74103385},{"name":"明化小学校入口","province":"東京都","city":"文京区","address":"東京都文京区千石1丁目6-19","lat":35.72699281,"lon":139.74224719},{"name":"小石川植物園前","province":"東京都","city":"文京区","address":"東京都文京区白山2丁目14-6","lat":35.71733564,"lon":139.74502781},{"name":"竹早小学校入口","province":"東京都","city":"文京区","address":"東京都文京区小石川4丁目17-1","lat":35.71536633,"lon":139.74236978},{"name":"小石川税務署前","province":"東京都","city":"文京区","address":"東京都文京区後楽1丁目7-19","lat":35.70662298,"lon":139.74766961},{"name":"白山三丁目","province":"東京都","city":"文京区","address":"東京都文京区小石川5丁目37-6","lat":35.71893261,"lon":139.74201414},{"name":"小石川五丁目","province":"東京都","city":"文京区","address":"東京都文京区小石川5丁目1-12","lat":35.7156718,"lon":139.7399061},{"name":"千石三丁目第二","province":"東京都","city":"文京区","address":"東京都文京区千石3丁目3-7","lat":35.72480123,"lon":139.73621722},{"name":"飯田橋職安前","province":"東京都","city":"文京区","address":"東京都文京区後楽1丁目9-20","lat":35.70364551,"lon":139.74712809},{"name":"白山二丁目","province":"東京都","city":"文京区","address":"東京都文京区白山1丁目6-4","lat":35.71557769,"lon":139.75229946},{"name":"隆慶橋東詰","province":"東京都","city":"文京区","address":"東京都文京区後楽2丁目3-13","lat":35.70475922,"lon":139.74478104},{"name":"第十中学校入口","province":"東京都","city":"文京区","address":"東京都文京区千石1丁目6-12","lat":35.72598458,"lon":139.74184447},{"name":"金富小学校前","province":"東京都","city":"文京区","address":"東京都文京区春日2丁目6-15","lat":35.7108307,"lon":139.74161999},{"name":"白山交番西","province":"東京都","city":"文京区","address":"東京都文京区白山2丁目39-5","lat":35.71968002,"lon":139.751355},{"name":"白山四丁目第一","province":"東京都","city":"文京区","address":"東京都文京区白山4丁目36-12","lat":35.72254903,"lon":139.7476191},{"name":"小石川保健所前","province":"東京都","city":"文京区","address":"東京都文京区春日1丁目9-21","lat":35.70814221,"lon":139.74611413},{"name":"窪町東公園北","province":"東京都","city":"文京区","address":"東京都文京区大塚3丁目38-12","lat":35.72186276,"lon":139.73882267},{"name":"中通り入口","province":"東京都","city":"文京区","address":"東京都文京区春日1丁目7-12","lat":35.7074534,"lon":139.74605861},{"name":"小石川運動場前","province":"東京都","city":"文京区","address":"東京都文京区後楽1丁目8","lat":35.70462595,"lon":139.74661143},{"name":"柳町小学校入口","province":"東京都","city":"文京区","address":"東京都文京区小石川1丁目23-6","lat":35.71370563,"lon":139.75092185},{"name":"白山四丁目","province":"東京都","city":"文京区","address":"東京都文京区白山4丁目34-12","lat":35.72080483,"lon":139.74934402},{"name":"白山交番南","province":"東京都","city":"文京区","address":"東京都文京区白山1丁目31-6","lat":35.71904121,"lon":139.75161333},{"name":"小石川後楽園入口","province":"東京都","city":"文京区","address":"東京都文京区後楽1丁目8","lat":35.70462595,"lon":139.74661143},{"name":"大塚特別支援学校前","province":"東京都","city":"文京区","address":"東京都文京区春日1丁目9-9","lat":35.70802281,"lon":139.7472307},{"name":"新隆慶橋東詰","province":"東京都","city":"文京区","address":"東京都文京区後楽2丁目6-1","lat":35.70525084,"lon":139.74505878},{"name":"茗荷谷駅前","province":"東京都","city":"文京区","address":"東京都文京区小石川5丁目5-5","lat":35.71791038,"lon":139.73713962},{"name":"古川橋","province":"東京都","city":"文京区","address":"東京都文京区関口1丁目17","lat":35.70882798,"lon":139.73519287},{"name":"目白坂下","province":"東京都","city":"文京区","address":"東京都文京区音羽1丁目25-15","lat":35.71244413,"lon":139.73040427},{"name":"目白台二丁目","province":"東京都","city":"文京区","address":"東京都文京区目白台1丁目15-9","lat":35.71664333,"lon":139.7181413},{"name":"大塚三丁目","province":"東京都","city":"文京区","address":"東京都文京区大塚4丁目45-11","lat":35.72181258,"lon":139.73188993},{"name":"護国寺前","province":"東京都","city":"文京区","address":"東京都文京区大塚5丁目40-8","lat":35.72028204,"lon":139.72657655},{"name":"大塚警察署前","province":"東京都","city":"文京区","address":"東京都文京区音羽2丁目12-26","lat":35.71707411,"lon":139.727996},{"name":"護国寺南","province":"東京都","city":"文京区","address":"東京都文京区音羽2丁目11-25","lat":35.71900999,"lon":139.72723488},{"name":"大塚五丁目","province":"東京都","city":"文京区","address":"東京都文京区大塚4丁目51-5","lat":35.72531213,"lon":139.73044825},{"name":"目白台郵便局前","province":"東京都","city":"文京区","address":"東京都文京区目白台2丁目7-8","lat":35.71785996,"lon":139.72162984},{"name":"護国寺西","province":"東京都","city":"文京区","address":"東京都文京区音羽2丁目12","lat":35.71938771,"lon":139.72674046},{"name":"大塚四丁目","province":"東京都","city":"文京区","address":"東京都文京区大塚3丁目11-7","lat":35.72153767,"lon":139.733887},{"name":"大塚一丁目","province":"東京都","city":"文京区","address":"東京都文京区大塚3丁目3-14","lat":35.71920185,"lon":139.73525363},{"name":"江戸川公園前","province":"東京都","city":"文京区","address":"東京都文京区音羽1丁目1-1","lat":35.71119986,"lon":139.73157366},{"name":"目白台三丁目","province":"東京都","city":"文京区","address":"東京都文京区目白台1丁目23-7","lat":35.71500202,"lon":139.72446581},{"name":"音羽一丁目","province":"東京都","city":"文京区","address":"東京都文京区音羽1丁目20-2","lat":35.71510769,"lon":139.72913762},{"name":"音羽一丁目南","province":"東京都","city":"文京区","address":"東京都文京区音羽1丁目22-14","lat":35.71390228,"lon":139.72967651},{"name":"坂下通り入口","province":"東京都","city":"文京区","address":"東京都文京区大塚5丁目17-3","lat":35.72129314,"lon":139.73017899},{"name":"目白台二丁目第三","province":"東京都","city":"文京区","address":"東京都文京区目白台2丁目14-11","lat":35.7188571,"lon":139.72284637},{"name":"小日向一丁目","province":"東京都","city":"文京区","address":"東京都文京区春日2丁目8-13","lat":35.71093066,"lon":139.74042843},{"name":"大日坂下","province":"東京都","city":"文京区","address":"東京都文京区小日向2丁目18-5","lat":35.71097493,"lon":139.73351794},{"name":"華水橋","province":"東京都","city":"文京区","address":"東京都文京区関口1丁目20-6","lat":35.70939454,"lon":139.73325691},{"name":"大塚四丁目第二","province":"東京都","city":"文京区","address":"東京都文京区大塚3丁目27-2","lat":35.72224318,"lon":139.73566737},{"name":"大塚公園入口","province":"東京都","city":"文京区","address":"東京都文京区大塚4丁目49","lat":35.72415396,"lon":139.73177596},{"name":"跡見学園前","province":"東京都","city":"文京区","address":"東京都文京区大塚2丁目1-18","lat":35.71814638,"lon":139.73367881},{"name":"開運坂下","province":"東京都","city":"文京区","address":"東京都文京区大塚5丁目13-11","lat":35.7252593,"lon":139.72848453},{"name":"目白台運動場前","province":"東京都","city":"文京区","address":"東京都文京区目白台2丁目3-2","lat":35.71597961,"lon":139.72155769},{"name":"筑波大附属小学校入口","province":"東京都","city":"文京区","address":"東京都文京区大塚3丁目6-7","lat":35.72031559,"lon":139.73425369},{"name":"筑波大附属中学校前","province":"東京都","city":"文京区","address":"東京都文京区大塚2丁目1-1","lat":35.71878795,"lon":139.73262888},{"name":"目白台三丁目第二","province":"東京都","city":"文京区","address":"東京都文京区目白台1丁目21-2","lat":35.71430764,"lon":139.72373535},{"name":"筑波大学正門前","province":"東京都","city":"文京区","address":"東京都文京区大塚3丁目30","lat":35.71982964,"lon":139.73842},{"name":"茗荷谷駅前交番前","province":"東京都","city":"文京区","address":"東京都文京区小石川5丁目5-7","lat":35.71808257,"lon":139.73667576},{"name":"根津一丁目","province":"東京都","city":"文京区","address":"東京都文京区根津2丁目12-7","lat":35.71785574,"lon":139.76550131},{"name":"東大農学部前","province":"東京都","city":"文京区","address":"東京都文京区弥生1丁目1-1","lat":35.71678895,"lon":139.76026548},{"name":"東大正門前","province":"東京都","city":"文京区","address":"東京都文京区本郷7丁目3-1","lat":35.71203394,"lon":139.76277932},{"name":"湯島五差路","province":"東京都","city":"文京区","address":"東京都文京区本郷3丁目3-12","lat":35.70305157,"lon":139.76312697},{"name":"本郷二丁目","province":"東京都","city":"文京区","address":"東京都文京区本郷3丁目15-1","lat":35.70460969,"lon":139.76178529},{"name":"順天堂前","province":"東京都","city":"文京区","address":"東京都文京区本郷3丁目1-3","lat":35.70250161,"lon":139.76261313},{"name":"根津小学校入口","province":"東京都","city":"文京区","address":"東京都文京区根津2丁目20-7","lat":35.71920834,"lon":139.76417635},{"name":"本郷弥生","province":"東京都","city":"文京区","address":"東京都文京区弥生1丁目1-1","lat":35.71678895,"lon":139.76026548},{"name":"お茶の水","province":"東京都","city":"文京区","address":"東京都文京区湯島1丁目5-45","lat":35.70099629,"lon":139.76491864},{"name":"本郷三丁目","province":"東京都","city":"文京区","address":"東京都文京区本郷4丁目2-1","lat":35.70765375,"lon":139.76038242},{"name":"壱岐坂上","province":"東京都","city":"文京区","address":"東京都文京区本郷2丁目26-1","lat":35.7048763,"lon":139.76080755},{"name":"清水坂下","province":"東京都","city":"文京区","address":"東京都文京区湯島2丁目1-1","lat":35.70305723,"lon":139.76642959},{"name":"三組坂下","province":"東京都","city":"文京区","address":"東京都文京区湯島3丁目14-10","lat":35.7048766,"lon":139.7696349},{"name":"本郷追分","province":"東京都","city":"文京区","address":"東京都文京区向丘2丁目8-7","lat":35.71949969,"lon":139.75717399},{"name":"本郷消防署前","province":"東京都","city":"文京区","address":"東京都文京区本郷7丁目1-11","lat":35.70785938,"lon":139.76294619},{"name":"壱岐坂通り","province":"東京都","city":"文京区","address":"東京都文京区本郷2丁目21-4","lat":35.70448739,"lon":139.75906877},{"name":"根津神社入口","province":"東京都","city":"文京区","address":"東京都文京区根津2丁目29-2","lat":35.71998601,"lon":139.76328195},{"name":"本郷小学校前","province":"東京都","city":"文京区","address":"東京都文京区本郷4丁目5-10","lat":35.70759814,"lon":139.7581409},{"name":"三組坂上","province":"東京都","city":"文京区","address":"東京都文京区湯島3丁目4-7","lat":35.70481819,"lon":139.76739057},{"name":"湯島二丁目","province":"東京都","city":"文京区","address":"東京都文京区湯島2丁目18-6","lat":35.70556525,"lon":139.76474622},{"name":"湯島中坂下","province":"東京都","city":"文京区","address":"東京都文京区湯島3丁目25-11","lat":35.70662919,"lon":139.76975705},{"name":"本郷消防署前第二","province":"東京都","city":"文京区","address":"東京都文京区本郷3丁目27-1","lat":35.70596234,"lon":139.76226576},{"name":"大横丁出口","province":"東京都","city":"文京区","address":"東京都文京区本郷3丁目16-9","lat":35.70557623,"lon":139.7611825},{"name":"天神町交番前","province":"東京都","city":"文京区","address":"東京都文京区湯島3丁目33-9","lat":35.70753467,"lon":139.76979589},{"name":"真砂坂上","province":"東京都","city":"文京区","address":"東京都文京区本郷4丁目7-2","lat":35.70754256,"lon":139.75721876},{"name":"文京第六中学校裏","province":"東京都","city":"文京区","address":"東京都文京区向丘1丁目20-7","lat":35.71741103,"lon":139.75792952},{"name":"順天堂横","province":"東京都","city":"文京区","address":"東京都文京区本郷2丁目9-8","lat":35.7028932,"lon":139.76171872},{"name":"清水坂下第二","province":"東京都","city":"文京区","address":"東京都文京区湯島2丁目1-5","lat":35.70317665,"lon":139.7660796},{"name":"慈愛病院前","province":"東京都","city":"文京区","address":"東京都文京区本郷6丁目12-5","lat":35.71313919,"lon":139.75682411},{"name":"中坂上","province":"東京都","city":"文京区","address":"東京都文京区湯島3丁目29-3","lat":35.70686245,"lon":139.76810988},{"name":"弥生門入口","province":"東京都","city":"文京区","address":"東京都文京区本郷7丁目3-1","lat":35.71203394,"lon":139.76277932},{"name":"本郷三丁目金助町","province":"東京都","city":"文京区","address":"東京都文京区本郷3丁目24-3","lat":35.70570963,"lon":139.76352682},{"name":"本郷郵便局前","province":"東京都","city":"文京区","address":"東京都文京区本郷6丁目1-15","lat":35.71227821,"lon":139.75908503},{"name":"湯島二丁目郵便局前","province":"東京都","city":"文京区","address":"東京都文京区湯島2丁目22-4","lat":35.70526257,"lon":139.76665448},{"name":"団子坂下","province":"東京都","city":"文京区","address":"東京都文京区千駄木3丁目37-20","lat":35.72495777,"lon":139.76346517},{"name":"上富士前","province":"東京都","city":"文京区","address":"東京都文京区本駒込5丁目3-3","lat":35.73214247,"lon":139.74994361},{"name":"道灌山下","province":"東京都","city":"文京区","address":"東京都文京区千駄木3丁目49-10","lat":35.73017663,"lon":139.76239287},{"name":"駒本小学校前","province":"東京都","city":"文京区","address":"東京都文京区本駒込1丁目6-14","lat":35.72467957,"lon":139.75342415},{"name":"千駄木二丁目","province":"東京都","city":"文京区","address":"東京都文京区根津1丁目27-5","lat":35.72104417,"lon":139.76182089},{"name":"文京グリーンコート前","province":"東京都","city":"文京区","address":"東京都文京区本駒込2丁目28-10","lat":35.73072031,"lon":139.74744106},{"name":"本駒込五丁目坂下","province":"東京都","city":"文京区","address":"東京都文京区本駒込5丁目40-5","lat":35.73331196,"lon":139.75373775},{"name":"駒込橋","province":"東京都","city":"文京区","address":"東京都文京区本駒込6丁目24-6","lat":35.73534474,"lon":139.74733257},{"name":"東洋大学前","province":"東京都","city":"文京区","address":"東京都文京区白山5丁目28-20","lat":35.72357121,"lon":139.74971335},{"name":"向丘一丁目","province":"東京都","city":"文京区","address":"東京都文京区向丘1丁目13-2","lat":35.72026069,"lon":139.75599352},{"name":"動坂上","province":"東京都","city":"文京区","address":"東京都文京区本駒込3丁目18-16","lat":35.73070131,"lon":139.75746536},{"name":"富士神社入口","province":"東京都","city":"文京区","address":"東京都文京区本駒込3丁目31-5","lat":35.73043718,"lon":139.75133247},{"name":"徳源院前","province":"東京都","city":"文京区","address":"東京都文京区本駒込3丁目7-14","lat":35.72652111,"lon":139.75494345},{"name":"駒込日医大前","province":"東京都","city":"文京区","address":"東京都文京区千駄木1丁目1-5","lat":35.72107737,"lon":139.75886828},{"name":"道灌山下東","province":"東京都","city":"文京区","address":"東京都文京区千駄木3丁目50-12","lat":35.73053219,"lon":139.76296227},{"name":"駒込稲荷坂下","province":"東京都","city":"文京区","address":"東京都文京区本駒込5丁目41-7","lat":35.73339253,"lon":139.75439326},{"name":"団子坂東","province":"東京都","city":"文京区","address":"東京都文京区千駄木2丁目35-7","lat":35.72446896,"lon":139.7641457},{"name":"勤労福祉会館前","province":"東京都","city":"文京区","address":"東京都文京区本駒込4丁目46-2","lat":35.73377311,"lon":139.75567094},{"name":"駒込病院前","province":"東京都","city":"文京区","address":"東京都文京区千駄木5丁目49-4","lat":35.72997639,"lon":139.75756816},{"name":"区立教育の森公園","province":"東京都","city":"文京区","address":"東京都文京区大塚3丁目29-1","lat":35.71964352,"lon":139.73724511},{"name":"区立教育の森公園（注２）","province":"東京都","city":"文京区","address":"東京都文京区大塚3丁目29-1","lat":35.71964352,"lon":139.73724511},{"name":"有限会社　鈴木商店","province":"東京都","city":"文京区","address":"東京都文京区小石川1丁目22-8","lat":35.71478886,"lon":139.75101348},{"name":"有限会社　矢口葬祭","province":"東京都","city":"文京区","address":"東京都文京区大塚5丁目18-1","lat":35.72120703,"lon":139.72992901},{"name":"有限会社　神谷商店","province":"東京都","city":"文京区","address":"東京都文京区根津2丁目20-4","lat":35.71886949,"lon":139.76449023},{"name":"本郷金子商店　株式会社","province":"東京都","city":"文京区","address":"東京都文京区本郷2丁目14-9","lat":35.70450689,"lon":139.76079368},{"name":"磯辺葬儀社","province":"東京都","city":"文京区","address":"東京都文京区目白台2丁目9-6","lat":35.71664613,"lon":139.71887734},{"name":"株式会社　杉元","province":"東京都","city":"文京区","address":"東京都文京区本郷4丁目34-17","lat":35.70900075,"lon":139.75771586},{"name":"おもてなし食堂","province":"東京都","city":"文京区","address":"東京都文京区小石川3丁目4-14","lat":35.71253894,"lon":139.74521961},{"name":"氷川下子ども食堂","province":"東京都","city":"文京区","address":"東京都文京区千石3丁目3-7","lat":35.72480123,"lon":139.73621722},{"name":"おたがいさま食堂せんごく","province":"東京都","city":"文京区","address":"東京都文京区白山2丁目13-6","lat":35.71696348,"lon":139.74601384},{"name":"文京BASE子ども食堂","province":"東京都","city":"文京区","address":"東京都文京区小石川3丁目28-14","lat":35.71350562,"lon":139.75000249},{"name":"おかえりごはん","province":"東京都","city":"文京区","address":"東京都文京区千駄木3丁目42-4","lat":35.72785754,"lon":139.76420951},{"name":"定泉寺こども食堂","province":"東京都","city":"文京区","address":"東京都文京区本駒込1丁目7-12","lat":35.72574333,"lon":139.75300194},{"name":"動坂ごはん","province":"東京都","city":"文京区","address":"東京都文京区本駒込4丁目21-7","lat":35.73209839,"lon":139.75776529},{"name":"壱岐坂下","province":"東京都","city":"文京区","address":"東京都文京区後楽1丁目3-61","lat":35.70486136,"lon":139.75272149},{"name":"伝通院前","province":"東京都","city":"文京区","address":"東京都文京区小石川3丁目1-1","lat":35.71078082,"lon":139.74631679},{"name":"西片","province":"東京都","city":"文京区","address":"東京都文京区小石川1丁目9-1","lat":35.71130314,"lon":139.75246066},{"name":"富坂下","province":"東京都","city":"文京区","address":"東京都文京区小石川2丁目1-1","lat":35.7087284,"lon":139.7515803},{"name":"水道橋","province":"東京都","city":"文京区","address":"東京都文京区後楽1丁目3-61","lat":35.70486136,"lon":139.75272149},{"name":"春日町","province":"東京都","city":"文京区","address":"東京都文京区春日1丁目16-27","lat":35.70812018,"lon":139.75333017},{"name":"千石一丁目","province":"東京都","city":"文京区","address":"東京都文京区本駒込2丁目29-27","lat":35.72887043,"lon":139.74438305},{"name":"安藤坂","province":"東京都","city":"文京区","address":"東京都文京区春日1丁目8-3","lat":35.70796444,"lon":139.74531698},{"name":"白山下","province":"東京都","city":"文京区","address":"東京都文京区白山2丁目39-8","lat":35.71970225,"lon":139.75146054},{"name":"後楽園駅前","province":"東京都","city":"文京区","address":"東京都文京区春日1丁目2-3","lat":35.70735077,"lon":139.75114429},{"name":"窪町東公園前","province":"東京都","city":"文京区","address":"東京都文京区大塚3丁目32","lat":35.72059904,"lon":139.73987817},{"name":"こんにゃくえんま前","province":"東京都","city":"文京区","address":"東京都文京区小石川2丁目23-14","lat":35.71069206,"lon":139.75136356},{"name":"牛天神下","province":"東京都","city":"文京区","address":"東京都文京区後楽2丁目5-1","lat":35.70552861,"lon":139.74602812},{"name":"茗台中学校前","province":"東京都","city":"文京区","address":"東京都文京区春日2丁目9-5","lat":35.71346374,"lon":139.74103385},{"name":"明化小学校入口","province":"東京都","city":"文京区","address":"東京都文京区千石1丁目6-19","lat":35.72699281,"lon":139.74224719},{"name":"小石川植物園前","province":"東京都","city":"文京区","address":"東京都文京区白山2丁目14-6","lat":35.71733564,"lon":139.74502781},{"name":"竹早小学校入口","province":"東京都","city":"文京区","address":"東京都文京区小石川4丁目17-1","lat":35.71536633,"lon":139.74236978},{"name":"小石川税務署前","province":"東京都","city":"文京区","address":"東京都文京区後楽1丁目7-19","lat":35.70662298,"lon":139.74766961},{"name":"白山三丁目","province":"東京都","city":"文京区","address":"東京都文京区小石川5丁目37-6","lat":35.71893261,"lon":139.74201414},{"name":"小石川五丁目","province":"東京都","city":"文京区","address":"東京都文京区小石川5丁目1-12","lat":35.7156718,"lon":139.7399061},{"name":"千石三丁目第二","province":"東京都","city":"文京区","address":"東京都文京区千石3丁目3-7","lat":35.72480123,"lon":139.73621722},{"name":"飯田橋職安前","province":"東京都","city":"文京区","address":"東京都文京区後楽1丁目9-20","lat":35.70364551,"lon":139.74712809},{"name":"白山二丁目","province":"東京都","city":"文京区","address":"東京都文京区白山1丁目6-4","lat":35.71557769,"lon":139.75229946},{"name":"隆慶橋東詰","province":"東京都","city":"文京区","address":"東京都文京区後楽2丁目3-13","lat":35.70475922,"lon":139.74478104},{"name":"第十中学校入口","province":"東京都","city":"文京区","address":"東京都文京区千石1丁目6-12","lat":35.72598458,"lon":139.74184447},{"name":"金富小学校前","province":"東京都","city":"文京区","address":"東京都文京区春日2丁目6-15","lat":35.7108307,"lon":139.74161999},{"name":"白山交番西","province":"東京都","city":"文京区","address":"東京都文京区白山2丁目39-5","lat":35.71968002,"lon":139.751355},{"name":"白山四丁目第一","province":"東京都","city":"文京区","address":"東京都文京区白山4丁目36-12","lat":35.72254903,"lon":139.7476191},{"name":"小石川保健所前","province":"東京都","city":"文京区","address":"東京都文京区春日1丁目9-21","lat":35.70814221,"lon":139.74611413},{"name":"窪町東公園北","province":"東京都","city":"文京区","address":"東京都文京区大塚3丁目38-12","lat":35.72186276,"lon":139.73882267},{"name":"中通り入口","province":"東京都","city":"文京区","address":"東京都文京区春日1丁目7-12","lat":35.7074534,"lon":139.74605861},{"name":"小石川運動場前","province":"東京都","city":"文京区","address":"東京都文京区後楽1丁目8","lat":35.70462595,"lon":139.74661143},{"name":"柳町小学校入口","province":"東京都","city":"文京区","address":"東京都文京区小石川1丁目23-6","lat":35.71370563,"lon":139.75092185},{"name":"白山四丁目","province":"東京都","city":"文京区","address":"東京都文京区白山4丁目34-12","lat":35.72080483,"lon":139.74934402},{"name":"白山交番南","province":"東京都","city":"文京区","address":"東京都文京区白山1丁目31-6","lat":35.71904121,"lon":139.75161333},{"name":"小石川後楽園入口","province":"東京都","city":"文京区","address":"東京都文京区後楽1丁目8","lat":35.70462595,"lon":139.74661143},{"name":"大塚特別支援学校前","province":"東京都","city":"文京区","address":"東京都文京区春日1丁目9-9","lat":35.70802281,"lon":139.7472307},{"name":"新隆慶橋東詰","province":"東京都","city":"文京区","address":"東京都文京区後楽2丁目6-1","lat":35.70525084,"lon":139.74505878},{"name":"茗荷谷駅前","province":"東京都","city":"文京区","address":"東京都文京区小石川5丁目5-5","lat":35.71791038,"lon":139.73713962},{"name":"古川橋","province":"東京都","city":"文京区","address":"東京都文京区関口1丁目17","lat":35.70882798,"lon":139.73519287},{"name":"目白坂下","province":"東京都","city":"文京区","address":"東京都文京区音羽1丁目25-15","lat":35.71244413,"lon":139.73040427},{"name":"目白台二丁目","province":"東京都","city":"文京区","address":"東京都文京区目白台1丁目15-9","lat":35.71664333,"lon":139.7181413},{"name":"大塚三丁目","province":"東京都","city":"文京区","address":"東京都文京区大塚4丁目45-11","lat":35.72181258,"lon":139.73188993},{"name":"護国寺前","province":"東京都","city":"文京区","address":"東京都文京区大塚5丁目40-8","lat":35.72028204,"lon":139.72657655},{"name":"大塚警察署前","province":"東京都","city":"文京区","address":"東京都文京区音羽2丁目12-26","lat":35.71707411,"lon":139.727996},{"name":"護国寺南","province":"東京都","city":"文京区","address":"東京都文京区音羽2丁目11-25","lat":35.71900999,"lon":139.72723488},{"name":"大塚五丁目","province":"東京都","city":"文京区","address":"東京都文京区大塚4丁目51-5","lat":35.72531213,"lon":139.73044825},{"name":"目白台郵便局前","province":"東京都","city":"文京区","address":"東京都文京区目白台2丁目7-8","lat":35.71785996,"lon":139.72162984},{"name":"護国寺西","province":"東京都","city":"文京区","address":"東京都文京区音羽2丁目12","lat":35.71938771,"lon":139.72674046},{"name":"大塚四丁目","province":"東京都","city":"文京区","address":"東京都文京区大塚3丁目11-7","lat":35.72153767,"lon":139.733887},{"name":"大塚一丁目","province":"東京都","city":"文京区","address":"東京都文京区大塚3丁目3-14","lat":35.71920185,"lon":139.73525363},{"name":"江戸川公園前","province":"東京都","city":"文京区","address":"東京都文京区音羽1丁目1-1","lat":35.71119986,"lon":139.73157366},{"name":"目白台三丁目","province":"東京都","city":"文京区","address":"東京都文京区目白台1丁目23-7","lat":35.71500202,"lon":139.72446581},{"name":"音羽一丁目","province":"東京都","city":"文京区","address":"東京都文京区音羽1丁目20-2","lat":35.71510769,"lon":139.72913762},{"name":"音羽一丁目南","province":"東京都","city":"文京区","address":"東京都文京区音羽1丁目22-14","lat":35.71390228,"lon":139.72967651},{"name":"坂下通り入口","province":"東京都","city":"文京区","address":"東京都文京区大塚5丁目17-3","lat":35.72129314,"lon":139.73017899},{"name":"目白台二丁目第三","province":"東京都","city":"文京区","address":"東京都文京区目白台2丁目14-11","lat":35.7188571,"lon":139.72284637},{"name":"小日向一丁目","province":"東京都","city":"文京区","address":"東京都文京区春日2丁目8-13","lat":35.71093066,"lon":139.74042843},{"name":"大日坂下","province":"東京都","city":"文京区","address":"東京都文京区小日向2丁目18-5","lat":35.71097493,"lon":139.73351794},{"name":"華水橋","province":"東京都","city":"文京区","address":"東京都文京区関口1丁目20-6","lat":35.70939454,"lon":139.73325691},{"name":"大塚四丁目第二","province":"東京都","city":"文京区","address":"東京都文京区大塚3丁目27-2","lat":35.72224318,"lon":139.73566737},{"name":"大塚公園入口","province":"東京都","city":"文京区","address":"東京都文京区大塚4丁目49","lat":35.72415396,"lon":139.73177596},{"name":"跡見学園前","province":"東京都","city":"文京区","address":"東京都文京区大塚2丁目1-18","lat":35.71814638,"lon":139.73367881},{"name":"開運坂下","province":"東京都","city":"文京区","address":"東京都文京区大塚5丁目13-11","lat":35.7252593,"lon":139.72848453},{"name":"目白台運動場前","province":"東京都","city":"文京区","address":"東京都文京区目白台2丁目3-2","lat":35.71597961,"lon":139.72155769},{"name":"筑波大附属小学校入口","province":"東京都","city":"文京区","address":"東京都文京区大塚3丁目6-7","lat":35.72031559,"lon":139.73425369},{"name":"筑波大附属中学校前","province":"東京都","city":"文京区","address":"東京都文京区大塚2丁目1-1","lat":35.71878795,"lon":139.73262888},{"name":"目白台三丁目第二","province":"東京都","city":"文京区","address":"東京都文京区目白台1丁目21-2","lat":35.71430764,"lon":139.72373535},{"name":"筑波大学正門前","province":"東京都","city":"文京区","address":"東京都文京区大塚3丁目30","lat":35.71982964,"lon":139.73842},{"name":"茗荷谷駅前交番前","province":"東京都","city":"文京区","address":"東京都文京区小石川5丁目5-7","lat":35.71808257,"lon":139.73667576},{"name":"根津一丁目","province":"東京都","city":"文京区","address":"東京都文京区根津2丁目12-7","lat":35.71785574,"lon":139.76550131},{"name":"東大農学部前","province":"東京都","city":"文京区","address":"東京都文京区弥生1丁目1-1","lat":35.71678895,"lon":139.76026548},{"name":"東大正門前","province":"東京都","city":"文京区","address":"東京都文京区本郷7丁目3-1","lat":35.71203394,"lon":139.76277932},{"name":"湯島五差路","province":"東京都","city":"文京区","address":"東京都文京区本郷3丁目3-12","lat":35.70305157,"lon":139.76312697},{"name":"本郷二丁目","province":"東京都","city":"文京区","address":"東京都文京区本郷3丁目15-1","lat":35.70460969,"lon":139.76178529},{"name":"順天堂前","province":"東京都","city":"文京区","address":"東京都文京区本郷3丁目1-3","lat":35.70250161,"lon":139.76261313},{"name":"根津小学校入口","province":"東京都","city":"文京区","address":"東京都文京区根津2丁目20-7","lat":35.71920834,"lon":139.76417635},{"name":"本郷弥生","province":"東京都","city":"文京区","address":"東京都文京区弥生1丁目1-1","lat":35.71678895,"lon":139.76026548},{"name":"お茶の水","province":"東京都","city":"文京区","address":"東京都文京区湯島1丁目5-45","lat":35.70099629,"lon":139.76491864},{"name":"本郷三丁目","province":"東京都","city":"文京区","address":"東京都文京区本郷4丁目2-1","lat":35.70765375,"lon":139.76038242},{"name":"壱岐坂上","province":"東京都","city":"文京区","address":"東京都文京区本郷2丁目26-1","lat":35.7048763,"lon":139.76080755},{"name":"清水坂下","province":"東京都","city":"文京区","address":"東京都文京区湯島2丁目1-1","lat":35.70305723,"lon":139.76642959},{"name":"三組坂下","province":"東京都","city":"文京区","address":"東京都文京区湯島3丁目14-10","lat":35.7048766,"lon":139.7696349},{"name":"本郷追分","province":"東京都","city":"文京区","address":"東京都文京区向丘2丁目8-7","lat":35.71949969,"lon":139.75717399},{"name":"本郷消防署前","province":"東京都","city":"文京区","address":"東京都文京区本郷7丁目1-11","lat":35.70785938,"lon":139.76294619},{"name":"壱岐坂通り","province":"東京都","city":"文京区","address":"東京都文京区本郷2丁目21-4","lat":35.70448739,"lon":139.75906877},{"name":"根津神社入口","province":"東京都","city":"文京区","address":"東京都文京区根津2丁目29-2","lat":35.71998601,"lon":139.76328195},{"name":"本郷小学校前","province":"東京都","city":"文京区","address":"東京都文京区本郷4丁目5-10","lat":35.70759814,"lon":139.7581409},{"name":"三組坂上","province":"東京都","city":"文京区","address":"東京都文京区湯島3丁目4-7","lat":35.70481819,"lon":139.76739057},{"name":"湯島二丁目","province":"東京都","city":"文京区","address":"東京都文京区湯島2丁目18-6","lat":35.70556525,"lon":139.76474622},{"name":"湯島中坂下","province":"東京都","city":"文京区","address":"東京都文京区湯島3丁目25-11","lat":35.70662919,"lon":139.76975705},{"name":"本郷消防署前第二","province":"東京都","city":"文京区","address":"東京都文京区本郷3丁目27-1","lat":35.70596234,"lon":139.76226576},{"name":"大横丁出口","province":"東京都","city":"文京区","address":"東京都文京区本郷3丁目16-9","lat":35.70557623,"lon":139.7611825},{"name":"天神町交番前","province":"東京都","city":"文京区","address":"東京都文京区湯島3丁目33-9","lat":35.70753467,"lon":139.76979589},{"name":"真砂坂上","province":"東京都","city":"文京区","address":"東京都文京区本郷4丁目7-2","lat":35.70754256,"lon":139.75721876},{"name":"文京第六中学校裏","province":"東京都","city":"文京区","address":"東京都文京区向丘1丁目20-7","lat":35.71741103,"lon":139.75792952},{"name":"順天堂横","province":"東京都","city":"文京区","address":"東京都文京区本郷2丁目9-8","lat":35.7028932,"lon":139.76171872},{"name":"清水坂下第二","province":"東京都","city":"文京区","address":"東京都文京区湯島2丁目1-5","lat":35.70317665,"lon":139.7660796},{"name":"慈愛病院前","province":"東京都","city":"文京区","address":"東京都文京区本郷6丁目12-5","lat":35.71313919,"lon":139.75682411},{"name":"中坂上","province":"東京都","city":"文京区","address":"東京都文京区湯島3丁目29-3","lat":35.70686245,"lon":139.76810988},{"name":"弥生門入口","province":"東京都","city":"文京区","address":"東京都文京区本郷7丁目3-1","lat":35.71203394,"lon":139.76277932},{"name":"本郷三丁目金助町","province":"東京都","city":"文京区","address":"東京都文京区本郷3丁目24-3","lat":35.70570963,"lon":139.76352682},{"name":"本郷郵便局前","province":"東京都","city":"文京区","address":"東京都文京区本郷6丁目1-15","lat":35.71227821,"lon":139.75908503},{"name":"湯島二丁目郵便局前","province":"東京都","city":"文京区","address":"東京都文京区湯島2丁目22-4","lat":35.70526257,"lon":139.76665448},{"name":"団子坂下","province":"東京都","city":"文京区","address":"東京都文京区千駄木3丁目37-20","lat":35.72495777,"lon":139.76346517},{"name":"上富士前","province":"東京都","city":"文京区","address":"東京都文京区本駒込5丁目3-3","lat":35.73214247,"lon":139.74994361},{"name":"道灌山下","province":"東京都","city":"文京区","address":"東京都文京区千駄木3丁目49-10","lat":35.73017663,"lon":139.76239287},{"name":"駒本小学校前","province":"東京都","city":"文京区","address":"東京都文京区本駒込1丁目6-14","lat":35.72467957,"lon":139.75342415},{"name":"千駄木二丁目","province":"東京都","city":"文京区","address":"東京都文京区根津1丁目27-5","lat":35.72104417,"lon":139.76182089},{"name":"文京グリーンコート前","province":"東京都","city":"文京区","address":"東京都文京区本駒込2丁目28-10","lat":35.73072031,"lon":139.74744106},{"name":"本駒込五丁目坂下","province":"東京都","city":"文京区","address":"東京都文京区本駒込5丁目40-5","lat":35.73331196,"lon":139.75373775},{"name":"駒込橋","province":"東京都","city":"文京区","address":"東京都文京区本駒込6丁目24-6","lat":35.73534474,"lon":139.74733257},{"name":"東洋大学前","province":"東京都","city":"文京区","address":"東京都文京区白山5丁目28-20","lat":35.72357121,"lon":139.74971335},{"name":"向丘一丁目","province":"東京都","city":"文京区","address":"東京都文京区向丘1丁目13-2","lat":35.72026069,"lon":139.75599352},{"name":"動坂上","province":"東京都","city":"文京区","address":"東京都文京区本駒込3丁目18-16","lat":35.73070131,"lon":139.75746536},{"name":"富士神社入口","province":"東京都","city":"文京区","address":"東京都文京区本駒込3丁目31-5","lat":35.73043718,"lon":139.75133247},{"name":"徳源院前","province":"東京都","city":"文京区","address":"東京都文京区本駒込3丁目7-14","lat":35.72652111,"lon":139.75494345},{"name":"駒込日医大前","province":"東京都","city":"文京区","address":"東京都文京区千駄木1丁目1-5","lat":35.72107737,"lon":139.75886828},{"name":"道灌山下東","province":"東京都","city":"文京区","address":"東京都文京区千駄木3丁目50-12","lat":35.73053219,"lon":139.76296227},{"name":"駒込稲荷坂下","province":"東京都","city":"文京区","address":"東京都文京区本駒込5丁目41-7","lat":35.73339253,"lon":139.75439326},{"name":"団子坂東","province":"東京都","city":"文京区","address":"東京都文京区千駄木2丁目35-7","lat":35.72446896,"lon":139.7641457},{"name":"勤労福祉会館前","province":"東京都","city":"文京区","address":"東京都文京区本駒込4丁目46-2","lat":35.73377311,"lon":139.75567094},{"name":"駒込病院前","province":"東京都","city":"文京区","address":"東京都文京区千駄木5丁目49-4","lat":35.72997639,"lon":139.75756816},{"name":"区立教育の森公園","province":"東京都","city":"文京区","address":"東京都文京区大塚3丁目29-1","lat":35.71964352,"lon":139.73724511},{"name":"区立教育の森公園（注２）","province":"東京都","city":"文京区","address":"東京都文京区大塚3丁目29-1","lat":35.71964352,"lon":139.73724511},{"name":"有限会社　鈴木商店","province":"東京都","city":"文京区","address":"東京都文京区小石川1丁目22-8","lat":35.71478886,"lon":139.75101348},{"name":"有限会社　矢口葬祭","province":"東京都","city":"文京区","address":"東京都文京区大塚5丁目18-1","lat":35.72120703,"lon":139.72992901},{"name":"有限会社　神谷商店","province":"東京都","city":"文京区","address":"東京都文京区根津2丁目20-4","lat":35.71886949,"lon":139.76449023},{"name":"本郷金子商店　株式会社","province":"東京都","city":"文京区","address":"東京都文京区本郷2丁目14-9","lat":35.70450689,"lon":139.76079368},{"name":"磯辺葬儀社","province":"東京都","city":"文京区","address":"東京都文京区目白台2丁目9-6","lat":35.71664613,"lon":139.71887734},{"name":"株式会社　杉元","province":"東京都","city":"文京区","address":"東京都文京区本郷4丁目34-17","lat":35.70900075,"lon":139.75771586},{"name":"おもてなし食堂","province":"東京都","city":"文京区","address":"東京都文京区小石川3丁目4-14","lat":35.71253894,"lon":139.74521961},{"name":"氷川下子ども食堂","province":"東京都","city":"文京区","address":"東京都文京区千石3丁目3-7","lat":35.72480123,"lon":139.73621722},{"name":"おたがいさま食堂せんごく","province":"東京都","city":"文京区","address":"東京都文京区白山2丁目13-6","lat":35.71696348,"lon":139.74601384},{"name":"文京BASE子ども食堂","province":"東京都","city":"文京区","address":"東京都文京区小石川3丁目28-14","lat":35.71350562,"lon":139.75000249},{"name":"おかえりごはん","province":"東京都","city":"文京区","address":"東京都文京区千駄木3丁目42-4","lat":35.72785754,"lon":139.76420951},{"name":"定泉寺こども食堂","province":"東京都","city":"文京区","address":"東京都文京区本駒込1丁目7-12","lat":35.72574333,"lon":139.75300194},{"name":"動坂ごはん","province":"東京都","city":"文京区","address":"東京都文京区本駒込4丁目21-7","lat":35.73209839,"lon":139.75776529},{"name":"壱岐坂下","province":"東京都","city":"文京区","address":"東京都文京区後楽1丁目3-61","lat":35.70486136,"lon":139.75272149},{"name":"伝通院前","province":"東京都","city":"文京区","address":"東京都文京区小石川3丁目1-1","lat":35.71078082,"lon":139.74631679},{"name":"西片","province":"東京都","city":"文京区","address":"東京都文京区小石川1丁目9-1","lat":35.71130314,"lon":139.75246066},{"name":"富坂下","province":"東京都","city":"文京区","address":"東京都文京区小石川2丁目1-1","lat":35.7087284,"lon":139.7515803},{"name":"水道橋","province":"東京都","city":"文京区","address":"東京都文京区後楽1丁目3-61","lat":35.70486136,"lon":139.75272149},{"name":"春日町","province":"東京都","city":"文京区","address":"東京都文京区春日1丁目16-27","lat":35.70812018,"lon":139.75333017},{"name":"千石一丁目","province":"東京都","city":"文京区","address":"東京都文京区本駒込2丁目29-27","lat":35.72887043,"lon":139.74438305},{"name":"安藤坂","province":"東京都","city":"文京区","address":"東京都文京区春日1丁目8-3","lat":35.70796444,"lon":139.74531698},{"name":"白山下","province":"東京都","city":"文京区","address":"東京都文京区白山2丁目39-8","lat":35.71970225,"lon":139.75146054},{"name":"後楽園駅前","province":"東京都","city":"文京区","address":"東京都文京区春日1丁目2-3","lat":35.70735077,"lon":139.75114429},{"name":"窪町東公園前","province":"東京都","city":"文京区","address":"東京都文京区大塚3丁目32","lat":35.72059904,"lon":139.73987817},{"name":"こんにゃくえんま前","province":"東京都","city":"文京区","address":"東京都文京区小石川2丁目23-14","lat":35.71069206,"lon":139.75136356},{"name":"牛天神下","province":"東京都","city":"文京区","address":"東京都文京区後楽2丁目5-1","lat":35.70552861,"lon":139.74602812},{"name":"茗台中学校前","province":"東京都","city":"文京区","address":"東京都文京区春日2丁目9-5","lat":35.71346374,"lon":139.74103385},{"name":"明化小学校入口","province":"東京都","city":"文京区","address":"東京都文京区千石1丁目6-19","lat":35.72699281,"lon":139.74224719},{"name":"小石川植物園前","province":"東京都","city":"文京区","address":"東京都文京区白山2丁目14-6","lat":35.71733564,"lon":139.74502781},{"name":"竹早小学校入口","province":"東京都","city":"文京区","address":"東京都文京区小石川4丁目17-1","lat":35.71536633,"lon":139.74236978},{"name":"小石川税務署前","province":"東京都","city":"文京区","address":"東京都文京区後楽1丁目7-19","lat":35.70662298,"lon":139.74766961},{"name":"白山三丁目","province":"東京都","city":"文京区","address":"東京都文京区小石川5丁目37-6","lat":35.71893261,"lon":139.74201414},{"name":"小石川五丁目","province":"東京都","city":"文京区","address":"東京都文京区小石川5丁目1-12","lat":35.7156718,"lon":139.7399061},{"name":"千石三丁目第二","province":"東京都","city":"文京区","address":"東京都文京区千石3丁目3-7","lat":35.72480123,"lon":139.73621722},{"name":"飯田橋職安前","province":"東京都","city":"文京区","address":"東京都文京区後楽1丁目9-20","lat":35.70364551,"lon":139.74712809},{"name":"白山二丁目","province":"東京都","city":"文京区","address":"東京都文京区白山1丁目6-4","lat":35.71557769,"lon":139.75229946},{"name":"隆慶橋東詰","province":"東京都","city":"文京区","address":"東京都文京区後楽2丁目3-13","lat":35.70475922,"lon":139.74478104},{"name":"第十中学校入口","province":"東京都","city":"文京区","address":"東京都文京区千石1丁目6-12","lat":35.72598458,"lon":139.74184447},{"name":"金富小学校前","province":"東京都","city":"文京区","address":"東京都文京区春日2丁目6-15","lat":35.7108307,"lon":139.74161999},{"name":"白山交番西","province":"東京都","city":"文京区","address":"東京都文京区白山2丁目39-5","lat":35.71968002,"lon":139.751355},{"name":"白山四丁目第一","province":"東京都","city":"文京区","address":"東京都文京区白山4丁目36-12","lat":35.72254903,"lon":139.7476191},{"name":"小石川保健所前","province":"東京都","city":"文京区","address":"東京都文京区春日1丁目9-21","lat":35.70814221,"lon":139.74611413},{"name":"窪町東公園北","province":"東京都","city":"文京区","address":"東京都文京区大塚3丁目38-12","lat":35.72186276,"lon":139.73882267},{"name":"中通り入口","province":"東京都","city":"文京区","address":"東京都文京区春日1丁目7-12","lat":35.7074534,"lon":139.74605861},{"name":"小石川運動場前","province":"東京都","city":"文京区","address":"東京都文京区後楽1丁目8","lat":35.70462595,"lon":139.74661143},{"name":"柳町小学校入口","province":"東京都","city":"文京区","address":"東京都文京区小石川1丁目23-6","lat":35.71370563,"lon":139.75092185},{"name":"白山四丁目","province":"東京都","city":"文京区","address":"東京都文京区白山4丁目34-12","lat":35.72080483,"lon":139.74934402},{"name":"白山交番南","province":"東京都","city":"文京区","address":"東京都文京区白山1丁目31-6","lat":35.71904121,"lon":139.75161333},{"name":"小石川後楽園入口","province":"東京都","city":"文京区","address":"東京都文京区後楽1丁目8","lat":35.70462595,"lon":139.74661143},{"name":"大塚特別支援学校前","province":"東京都","city":"文京区","address":"東京都文京区春日1丁目9-9","lat":35.70802281,"lon":139.7472307},{"name":"新隆慶橋東詰","province":"東京都","city":"文京区","address":"東京都文京区後楽2丁目6-1","lat":35.70525084,"lon":139.74505878},{"name":"茗荷谷駅前","province":"東京都","city":"文京区","address":"東京都文京区小石川5丁目5-5","lat":35.71791038,"lon":139.73713962},{"name":"古川橋","province":"東京都","city":"文京区","address":"東京都文京区関口1丁目17","lat":35.70882798,"lon":139.73519287},{"name":"目白坂下","province":"東京都","city":"文京区","address":"東京都文京区音羽1丁目25-15","lat":35.71244413,"lon":139.73040427},{"name":"目白台二丁目","province":"東京都","city":"文京区","address":"東京都文京区目白台1丁目15-9","lat":35.71664333,"lon":139.7181413},{"name":"大塚三丁目","province":"東京都","city":"文京区","address":"東京都文京区大塚4丁目45-11","lat":35.72181258,"lon":139.73188993},{"name":"護国寺前","province":"東京都","city":"文京区","address":"東京都文京区大塚5丁目40-8","lat":35.72028204,"lon":139.72657655},{"name":"大塚警察署前","province":"東京都","city":"文京区","address":"東京都文京区音羽2丁目12-26","lat":35.71707411,"lon":139.727996},{"name":"護国寺南","province":"東京都","city":"文京区","address":"東京都文京区音羽2丁目11-25","lat":35.71900999,"lon":139.72723488},{"name":"大塚五丁目","province":"東京都","city":"文京区","address":"東京都文京区大塚4丁目51-5","lat":35.72531213,"lon":139.73044825},{"name":"目白台郵便局前","province":"東京都","city":"文京区","address":"東京都文京区目白台2丁目7-8","lat":35.71785996,"lon":139.72162984},{"name":"護国寺西","province":"東京都","city":"文京区","address":"東京都文京区音羽2丁目12","lat":35.71938771,"lon":139.72674046},{"name":"大塚四丁目","province":"東京都","city":"文京区","address":"東京都文京区大塚3丁目11-7","lat":35.72153767,"lon":139.733887},{"name":"大塚一丁目","province":"東京都","city":"文京区","address":"東京都文京区大塚3丁目3-14","lat":35.71920185,"lon":139.73525363},{"name":"江戸川公園前","province":"東京都","city":"文京区","address":"東京都文京区音羽1丁目1-1","lat":35.71119986,"lon":139.73157366},{"name":"目白台三丁目","province":"東京都","city":"文京区","address":"東京都文京区目白台1丁目23-7","lat":35.71500202,"lon":139.72446581},{"name":"音羽一丁目","province":"東京都","city":"文京区","address":"東京都文京区音羽1丁目20-2","lat":35.71510769,"lon":139.72913762},{"name":"音羽一丁目南","province":"東京都","city":"文京区","address":"東京都文京区音羽1丁目22-14","lat":35.71390228,"lon":139.72967651},{"name":"坂下通り入口","province":"東京都","city":"文京区","address":"東京都文京区大塚5丁目17-3","lat":35.72129314,"lon":139.73017899},{"name":"目白台二丁目第三","province":"東京都","city":"文京区","address":"東京都文京区目白台2丁目14-11","lat":35.7188571,"lon":139.72284637},{"name":"小日向一丁目","province":"東京都","city":"文京区","address":"東京都文京区春日2丁目8-13","lat":35.71093066,"lon":139.74042843},{"name":"大日坂下","province":"東京都","city":"文京区","address":"東京都文京区小日向2丁目18-5","lat":35.71097493,"lon":139.73351794},{"name":"華水橋","province":"東京都","city":"文京区","address":"東京都文京区関口1丁目20-6","lat":35.70939454,"lon":139.73325691},{"name":"大塚四丁目第二","province":"東京都","city":"文京区","address":"東京都文京区大塚3丁目27-2","lat":35.72224318,"lon":139.73566737},{"name":"大塚公園入口","province":"東京都","city":"文京区","address":"東京都文京区大塚4丁目49","lat":35.72415396,"lon":139.73177596},{"name":"跡見学園前","province":"東京都","city":"文京区","address":"東京都文京区大塚2丁目1-18","lat":35.71814638,"lon":139.73367881},{"name":"開運坂下","province":"東京都","city":"文京区","address":"東京都文京区大塚5丁目13-11","lat":35.7252593,"lon":139.72848453},{"name":"目白台運動場前","province":"東京都","city":"文京区","address":"東京都文京区目白台2丁目3-2","lat":35.71597961,"lon":139.72155769},{"name":"筑波大附属小学校入口","province":"東京都","city":"文京区","address":"東京都文京区大塚3丁目6-7","lat":35.72031559,"lon":139.73425369},{"name":"筑波大附属中学校前","province":"東京都","city":"文京区","address":"東京都文京区大塚2丁目1-1","lat":35.71878795,"lon":139.73262888},{"name":"目白台三丁目第二","province":"東京都","city":"文京区","address":"東京都文京区目白台1丁目21-2","lat":35.71430764,"lon":139.72373535},{"name":"筑波大学正門前","province":"東京都","city":"文京区","address":"東京都文京区大塚3丁目30","lat":35.71982964,"lon":139.73842},{"name":"茗荷谷駅前交番前","province":"東京都","city":"文京区","address":"東京都文京区小石川5丁目5-7","lat":35.71808257,"lon":139.73667576},{"name":"根津一丁目","province":"東京都","city":"文京区","address":"東京都文京区根津2丁目12-7","lat":35.71785574,"lon":139.76550131},{"name":"東大農学部前","province":"東京都","city":"文京区","address":"東京都文京区弥生1丁目1-1","lat":35.71678895,"lon":139.76026548},{"name":"東大正門前","province":"東京都","city":"文京区","address":"東京都文京区本郷7丁目3-1","lat":35.71203394,"lon":139.76277932},{"name":"湯島五差路","province":"東京都","city":"文京区","address":"東京都文京区本郷3丁目3-12","lat":35.70305157,"lon":139.76312697},{"name":"本郷二丁目","province":"東京都","city":"文京区","address":"東京都文京区本郷3丁目15-1","lat":35.70460969,"lon":139.76178529},{"name":"順天堂前","province":"東京都","city":"文京区","address":"東京都文京区本郷3丁目1-3","lat":35.70250161,"lon":139.76261313},{"name":"根津小学校入口","province":"東京都","city":"文京区","address":"東京都文京区根津2丁目20-7","lat":35.71920834,"lon":139.76417635},{"name":"本郷弥生","province":"東京都","city":"文京区","address":"東京都文京区弥生1丁目1-1","lat":35.71678895,"lon":139.76026548},{"name":"お茶の水","province":"東京都","city":"文京区","address":"東京都文京区湯島1丁目5-45","lat":35.70099629,"lon":139.76491864},{"name":"本郷三丁目","province":"東京都","city":"文京区","address":"東京都文京区本郷4丁目2-1","lat":35.70765375,"lon":139.76038242},{"name":"壱岐坂上","province":"東京都","city":"文京区","address":"東京都文京区本郷2丁目26-1","lat":35.7048763,"lon":139.76080755},{"name":"清水坂下","province":"東京都","city":"文京区","address":"東京都文京区湯島2丁目1-1","lat":35.70305723,"lon":139.76642959},{"name":"三組坂下","province":"東京都","city":"文京区","address":"東京都文京区湯島3丁目14-10","lat":35.7048766,"lon":139.7696349},{"name":"本郷追分","province":"東京都","city":"文京区","address":"東京都文京区向丘2丁目8-7","lat":35.71949969,"lon":139.75717399},{"name":"本郷消防署前","province":"東京都","city":"文京区","address":"東京都文京区本郷7丁目1-11","lat":35.70785938,"lon":139.76294619},{"name":"壱岐坂通り","province":"東京都","city":"文京区","address":"東京都文京区本郷2丁目21-4","lat":35.70448739,"lon":139.75906877},{"name":"根津神社入口","province":"東京都","city":"文京区","address":"東京都文京区根津2丁目29-2","lat":35.71998601,"lon":139.76328195},{"name":"本郷小学校前","province":"東京都","city":"文京区","address":"東京都文京区本郷4丁目5-10","lat":35.70759814,"lon":139.7581409},{"name":"三組坂上","province":"東京都","city":"文京区","address":"東京都文京区湯島3丁目4-7","lat":35.70481819,"lon":139.76739057},{"name":"湯島二丁目","province":"東京都","city":"文京区","address":"東京都文京区湯島2丁目18-6","lat":35.70556525,"lon":139.76474622},{"name":"湯島中坂下","province":"東京都","city":"文京区","address":"東京都文京区湯島3丁目25-11","lat":35.70662919,"lon":139.76975705},{"name":"本郷消防署前第二","province":"東京都","city":"文京区","address":"東京都文京区本郷3丁目27-1","lat":35.70596234,"lon":139.76226576},{"name":"大横丁出口","province":"東京都","city":"文京区","address":"東京都文京区本郷3丁目16-9","lat":35.70557623,"lon":139.7611825},{"name":"天神町交番前","province":"東京都","city":"文京区","address":"東京都文京区湯島3丁目33-9","lat":35.70753467,"lon":139.76979589},{"name":"真砂坂上","province":"東京都","city":"文京区","address":"東京都文京区本郷4丁目7-2","lat":35.70754256,"lon":139.75721876},{"name":"文京第六中学校裏","province":"東京都","city":"文京区","address":"東京都文京区向丘1丁目20-7","lat":35.71741103,"lon":139.75792952},{"name":"順天堂横","province":"東京都","city":"文京区","address":"東京都文京区本郷2丁目9-8","lat":35.7028932,"lon":139.76171872},{"name":"清水坂下第二","province":"東京都","city":"文京区","address":"東京都文京区湯島2丁目1-5","lat":35.70317665,"lon":139.7660796},{"name":"慈愛病院前","province":"東京都","city":"文京区","address":"東京都文京区本郷6丁目12-5","lat":35.71313919,"lon":139.75682411},{"name":"中坂上","province":"東京都","city":"文京区","address":"東京都文京区湯島3丁目29-3","lat":35.70686245,"lon":139.76810988},{"name":"弥生門入口","province":"東京都","city":"文京区","address":"東京都文京区本郷7丁目3-1","lat":35.71203394,"lon":139.76277932},{"name":"本郷三丁目金助町","province":"東京都","city":"文京区","address":"東京都文京区本郷3丁目24-3","lat":35.70570963,"lon":139.76352682},{"name":"本郷郵便局前","province":"東京都","city":"文京区","address":"東京都文京区本郷6丁目1-15","lat":35.71227821,"lon":139.75908503},{"name":"湯島二丁目郵便局前","province":"東京都","city":"文京区","address":"東京都文京区湯島2丁目22-4","lat":35.70526257,"lon":139.76665448},{"name":"団子坂下","province":"東京都","city":"文京区","address":"東京都文京区千駄木3丁目37-20","lat":35.72495777,"lon":139.76346517},{"name":"上富士前","province":"東京都","city":"文京区","address":"東京都文京区本駒込5丁目3-3","lat":35.73214247,"lon":139.74994361},{"name":"道灌山下","province":"東京都","city":"文京区","address":"東京都文京区千駄木3丁目49-10","lat":35.73017663,"lon":139.76239287},{"name":"駒本小学校前","province":"東京都","city":"文京区","address":"東京都文京区本駒込1丁目6-14","lat":35.72467957,"lon":139.75342415},{"name":"千駄木二丁目","province":"東京都","city":"文京区","address":"東京都文京区根津1丁目27-5","lat":35.72104417,"lon":139.76182089},{"name":"文京グリーンコート前","province":"東京都","city":"文京区","address":"東京都文京区本駒込2丁目28-10","lat":35.73072031,"lon":139.74744106},{"name":"本駒込五丁目坂下","province":"東京都","city":"文京区","address":"東京都文京区本駒込5丁目40-5","lat":35.73331196,"lon":139.75373775},{"name":"駒込橋","province":"東京都","city":"文京区","address":"東京都文京区本駒込6丁目24-6","lat":35.73534474,"lon":139.74733257},{"name":"東洋大学前","province":"東京都","city":"文京区","address":"東京都文京区白山5丁目28-20","lat":35.72357121,"lon":139.74971335},{"name":"向丘一丁目","province":"東京都","city":"文京区","address":"東京都文京区向丘1丁目13-2","lat":35.72026069,"lon":139.75599352},{"name":"動坂上","province":"東京都","city":"文京区","address":"東京都文京区本駒込3丁目18-16","lat":35.73070131,"lon":139.75746536},{"name":"富士神社入口","province":"東京都","city":"文京区","address":"東京都文京区本駒込3丁目31-5","lat":35.73043718,"lon":139.75133247},{"name":"徳源院前","province":"東京都","city":"文京区","address":"東京都文京区本駒込3丁目7-14","lat":35.72652111,"lon":139.75494345},{"name":"駒込日医大前","province":"東京都","city":"文京区","address":"東京都文京区千駄木1丁目1-5","lat":35.72107737,"lon":139.75886828},{"name":"道灌山下東","province":"東京都","city":"文京区","address":"東京都文京区千駄木3丁目50-12","lat":35.73053219,"lon":139.76296227},{"name":"駒込稲荷坂下","province":"東京都","city":"文京区","address":"東京都文京区本駒込5丁目41-7","lat":35.73339253,"lon":139.75439326},{"name":"団子坂東","province":"東京都","city":"文京区","address":"東京都文京区千駄木2丁目35-7","lat":35.72446896,"lon":139.7641457},{"name":"勤労福祉会館前","province":"東京都","city":"文京区","address":"東京都文京区本駒込4丁目46-2","lat":35.73377311,"lon":139.75567094},{"name":"駒込病院前","province":"東京都","city":"文京区","address":"東京都文京区千駄木5丁目49-4","lat":35.72997639,"lon":139.75756816},{"name":"区立教育の森公園","province":"東京都","city":"文京区","address":"東京都文京区大塚3丁目29-1","lat":35.71964352,"lon":139.73724511},{"name":"区立教育の森公園（注２）","province":"東京都","city":"文京区","address":"東京都文京区大塚3丁目29-1","lat":35.71964352,"lon":139.73724511},{"name":"有限会社　鈴木商店","province":"東京都","city":"文京区","address":"東京都文京区小石川1丁目22-8","lat":35.71478886,"lon":139.75101348},{"name":"有限会社　矢口葬祭","province":"東京都","city":"文京区","address":"東京都文京区大塚5丁目18-1","lat":35.72120703,"lon":139.72992901},{"name":"有限会社　神谷商店","province":"東京都","city":"文京区","address":"東京都文京区根津2丁目20-4","lat":35.71886949,"lon":139.76449023},{"name":"本郷金子商店　株式会社","province":"東京都","city":"文京区","address":"東京都文京区本郷2丁目14-9","lat":35.70450689,"lon":139.76079368},{"name":"磯辺葬儀社","province":"東京都","city":"文京区","address":"東京都文京区目白台2丁目9-6","lat":35.71664613,"lon":139.71887734},{"name":"株式会社　杉元","province":"東京都","city":"文京区","address":"東京都文京区本郷4丁目34-17","lat":35.70900075,"lon":139.75771586},{"name":"おもてなし食堂","province":"東京都","city":"文京区","address":"東京都文京区小石川3丁目4-14","lat":35.71253894,"lon":139.74521961},{"name":"氷川下子ども食堂","province":"東京都","city":"文京区","address":"東京都文京区千石3丁目3-7","lat":35.72480123,"lon":139.73621722},{"name":"おたがいさま食堂せんごく","province":"東京都","city":"文京区","address":"東京都文京区白山2丁目13-6","lat":35.71696348,"lon":139.74601384},{"name":"文京BASE子ども食堂","province":"東京都","city":"文京区","address":"東京都文京区小石川3丁目28-14","lat":35.71350562,"lon":139.75000249},{"name":"おかえりごはん","province":"東京都","city":"文京区","address":"東京都文京区千駄木3丁目42-4","lat":35.72785754,"lon":139.76420951},{"name":"定泉寺こども食堂","province":"東京都","city":"文京区","address":"東京都文京区本駒込1丁目7-12","lat":35.72574333,"lon":139.75300194},{"name":"動坂ごはん","province":"東京都","city":"文京区","address":"東京都文京区本駒込4丁目21-7","lat":35.73209839,"lon":139.75776529},{"name":"壱岐坂下","province":"東京都","city":"文京区","address":"東京都文京区後楽1丁目3-61","lat":35.70486136,"lon":139.75272149},{"name":"伝通院前","province":"東京都","city":"文京区","address":"東京都文京区小石川3丁目1-1","lat":35.71078082,"lon":139.74631679},{"name":"西片","province":"東京都","city":"文京区","address":"東京都文京区小石川1丁目9-1","lat":35.71130314,"lon":139.75246066},{"name":"富坂下","province":"東京都","city":"文京区","address":"東京都文京区小石川2丁目1-1","lat":35.7087284,"lon":139.7515803},{"name":"水道橋","province":"東京都","city":"文京区","address":"東京都文京区後楽1丁目3-61","lat":35.70486136,"lon":139.75272149},{"name":"春日町","province":"東京都","city":"文京区","address":"東京都文京区春日1丁目16-27","lat":35.70812018,"lon":139.75333017},{"name":"千石一丁目","province":"東京都","city":"文京区","address":"東京都文京区本駒込2丁目29-27","lat":35.72887043,"lon":139.74438305},{"name":"安藤坂","province":"東京都","city":"文京区","address":"東京都文京区春日1丁目8-3","lat":35.70796444,"lon":139.74531698},{"name":"白山下","province":"東京都","city":"文京区","address":"東京都文京区白山2丁目39-8","lat":35.71970225,"lon":139.75146054},{"name":"後楽園駅前","province":"東京都","city":"文京区","address":"東京都文京区春日1丁目2-3","lat":35.70735077,"lon":139.75114429},{"name":"窪町東公園前","province":"東京都","city":"文京区","address":"東京都文京区大塚3丁目32","lat":35.72059904,"lon":139.73987817},{"name":"こんにゃくえんま前","province":"東京都","city":"文京区","address":"東京都文京区小石川2丁目23-14","lat":35.71069206,"lon":139.75136356},{"name":"牛天神下","province":"東京都","city":"文京区","address":"東京都文京区後楽2丁目5-1","lat":35.70552861,"lon":139.74602812},{"name":"茗台中学校前","province":"東京都","city":"文京区","address":"東京都文京区春日2丁目9-5","lat":35.71346374,"lon":139.74103385},{"name":"明化小学校入口","province":"東京都","city":"文京区","address":"東京都文京区千石1丁目6-19","lat":35.72699281,"lon":139.74224719},{"name":"小石川植物園前","province":"東京都","city":"文京区","address":"東京都文京区白山2丁目14-6","lat":35.71733564,"lon":139.74502781},{"name":"竹早小学校入口","province":"東京都","city":"文京区","address":"東京都文京区小石川4丁目17-1","lat":35.71536633,"lon":139.74236978},{"name":"小石川税務署前","province":"東京都","city":"文京区","address":"東京都文京区後楽1丁目7-19","lat":35.70662298,"lon":139.74766961},{"name":"白山三丁目","province":"東京都","city":"文京区","address":"東京都文京区小石川5丁目37-6","lat":35.71893261,"lon":139.74201414},{"name":"小石川五丁目","province":"東京都","city":"文京区","address":"東京都文京区小石川5丁目1-12","lat":35.7156718,"lon":139.7399061},{"name":"千石三丁目第二","province":"東京都","city":"文京区","address":"東京都文京区千石3丁目3-7","lat":35.72480123,"lon":139.73621722},{"name":"飯田橋職安前","province":"東京都","city":"文京区","address":"東京都文京区後楽1丁目9-20","lat":35.70364551,"lon":139.74712809},{"name":"白山二丁目","province":"東京都","city":"文京区","address":"東京都文京区白山1丁目6-4","lat":35.71557769,"lon":139.75229946},{"name":"隆慶橋東詰","province":"東京都","city":"文京区","address":"東京都文京区後楽2丁目3-13","lat":35.70475922,"lon":139.74478104},{"name":"第十中学校入口","province":"東京都","city":"文京区","address":"東京都文京区千石1丁目6-12","lat":35.72598458,"lon":139.74184447},{"name":"金富小学校前","province":"東京都","city":"文京区","address":"東京都文京区春日2丁目6-15","lat":35.7108307,"lon":139.74161999},{"name":"白山交番西","province":"東京都","city":"文京区","address":"東京都文京区白山2丁目39-5","lat":35.71968002,"lon":139.751355},{"name":"白山四丁目第一","province":"東京都","city":"文京区","address":"東京都文京区白山4丁目36-12","lat":35.72254903,"lon":139.7476191},{"name":"小石川保健所前","province":"東京都","city":"文京区","address":"東京都文京区春日1丁目9-21","lat":35.70814221,"lon":139.74611413},{"name":"窪町東公園北","province":"東京都","city":"文京区","address":"東京都文京区大塚3丁目38-12","lat":35.72186276,"lon":139.73882267},{"name":"中通り入口","province":"東京都","city":"文京区","address":"東京都文京区春日1丁目7-12","lat":35.7074534,"lon":139.74605861},{"name":"小石川運動場前","province":"東京都","city":"文京区","address":"東京都文京区後楽1丁目8","lat":35.70462595,"lon":139.74661143},{"name":"柳町小学校入口","province":"東京都","city":"文京区","address":"東京都文京区小石川1丁目23-6","lat":35.71370563,"lon":139.75092185},{"name":"白山四丁目","province":"東京都","city":"文京区","address":"東京都文京区白山4丁目34-12","lat":35.72080483,"lon":139.74934402},{"name":"白山交番南","province":"東京都","city":"文京区","address":"東京都文京区白山1丁目31-6","lat":35.71904121,"lon":139.75161333},{"name":"小石川後楽園入口","province":"東京都","city":"文京区","address":"東京都文京区後楽1丁目8","lat":35.70462595,"lon":139.74661143},{"name":"大塚特別支援学校前","province":"東京都","city":"文京区","address":"東京都文京区春日1丁目9-9","lat":35.70802281,"lon":139.7472307},{"name":"新隆慶橋東詰","province":"東京都","city":"文京区","address":"東京都文京区後楽2丁目6-1","lat":35.70525084,"lon":139.74505878},{"name":"茗荷谷駅前","province":"東京都","city":"文京区","address":"東京都文京区小石川5丁目5-5","lat":35.71791038,"lon":139.73713962},{"name":"古川橋","province":"東京都","city":"文京区","address":"東京都文京区関口1丁目17","lat":35.70882798,"lon":139.73519287},{"name":"目白坂下","province":"東京都","city":"文京区","address":"東京都文京区音羽1丁目25-15","lat":35.71244413,"lon":139.73040427},{"name":"目白台二丁目","province":"東京都","city":"文京区","address":"東京都文京区目白台1丁目15-9","lat":35.71664333,"lon":139.7181413},{"name":"大塚三丁目","province":"東京都","city":"文京区","address":"東京都文京区大塚4丁目45-11","lat":35.72181258,"lon":139.73188993},{"name":"護国寺前","province":"東京都","city":"文京区","address":"東京都文京区大塚5丁目40-8","lat":35.72028204,"lon":139.72657655},{"name":"大塚警察署前","province":"東京都","city":"文京区","address":"東京都文京区音羽2丁目12-26","lat":35.71707411,"lon":139.727996},{"name":"護国寺南","province":"東京都","city":"文京区","address":"東京都文京区音羽2丁目11-25","lat":35.71900999,"lon":139.72723488},{"name":"大塚五丁目","province":"東京都","city":"文京区","address":"東京都文京区大塚4丁目51-5","lat":35.72531213,"lon":139.73044825},{"name":"目白台郵便局前","province":"東京都","city":"文京区","address":"東京都文京区目白台2丁目7-8","lat":35.71785996,"lon":139.72162984},{"name":"護国寺西","province":"東京都","city":"文京区","address":"東京都文京区音羽2丁目12","lat":35.71938771,"lon":139.72674046},{"name":"大塚四丁目","province":"東京都","city":"文京区","address":"東京都文京区大塚3丁目11-7","lat":35.72153767,"lon":139.733887},{"name":"大塚一丁目","province":"東京都","city":"文京区","address":"東京都文京区大塚3丁目3-14","lat":35.71920185,"lon":139.73525363},{"name":"江戸川公園前","province":"東京都","city":"文京区","address":"東京都文京区音羽1丁目1-1","lat":35.71119986,"lon":139.73157366},{"name":"目白台三丁目","province":"東京都","city":"文京区","address":"東京都文京区目白台1丁目23-7","lat":35.71500202,"lon":139.72446581},{"name":"音羽一丁目","province":"東京都","city":"文京区","address":"東京都文京区音羽1丁目20-2","lat":35.71510769,"lon":139.72913762},{"name":"音羽一丁目南","province":"東京都","city":"文京区","address":"東京都文京区音羽1丁目22-14","lat":35.71390228,"lon":139.72967651},{"name":"坂下通り入口","province":"東京都","city":"文京区","address":"東京都文京区大塚5丁目17-3","lat":35.72129314,"lon":139.73017899},{"name":"目白台二丁目第三","province":"東京都","city":"文京区","address":"東京都文京区目白台2丁目14-11","lat":35.7188571,"lon":139.72284637},{"name":"小日向一丁目","province":"東京都","city":"文京区","address":"東京都文京区春日2丁目8-13","lat":35.71093066,"lon":139.74042843},{"name":"大日坂下","province":"東京都","city":"文京区","address":"東京都文京区小日向2丁目18-5","lat":35.71097493,"lon":139.73351794},{"name":"華水橋","province":"東京都","city":"文京区","address":"東京都文京区関口1丁目20-6","lat":35.70939454,"lon":139.73325691},{"name":"大塚四丁目第二","province":"東京都","city":"文京区","address":"東京都文京区大塚3丁目27-2","lat":35.72224318,"lon":139.73566737},{"name":"大塚公園入口","province":"東京都","city":"文京区","address":"東京都文京区大塚4丁目49","lat":35.72415396,"lon":139.73177596},{"name":"跡見学園前","province":"東京都","city":"文京区","address":"東京都文京区大塚2丁目1-18","lat":35.71814638,"lon":139.73367881},{"name":"開運坂下","province":"東京都","city":"文京区","address":"東京都文京区大塚5丁目13-11","lat":35.7252593,"lon":139.72848453},{"name":"目白台運動場前","province":"東京都","city":"文京区","address":"東京都文京区目白台2丁目3-2","lat":35.71597961,"lon":139.72155769},{"name":"筑波大附属小学校入口","province":"東京都","city":"文京区","address":"東京都文京区大塚3丁目6-7","lat":35.72031559,"lon":139.73425369},{"name":"筑波大附属中学校前","province":"東京都","city":"文京区","address":"東京都文京区大塚2丁目1-1","lat":35.71878795,"lon":139.73262888},{"name":"目白台三丁目第二","province":"東京都","city":"文京区","address":"東京都文京区目白台1丁目21-2","lat":35.71430764,"lon":139.72373535},{"name":"筑波大学正門前","province":"東京都","city":"文京区","address":"東京都文京区大塚3丁目30","lat":35.71982964,"lon":139.73842},{"name":"茗荷谷駅前交番前","province":"東京都","city":"文京区","address":"東京都文京区小石川5丁目5-7","lat":35.71808257,"lon":139.73667576},{"name":"根津一丁目","province":"東京都","city":"文京区","address":"東京都文京区根津2丁目12-7","lat":35.71785574,"lon":139.76550131},{"name":"東大農学部前","province":"東京都","city":"文京区","address":"東京都文京区弥生1丁目1-1","lat":35.71678895,"lon":139.76026548},{"name":"東大正門前","province":"東京都","city":"文京区","address":"東京都文京区本郷7丁目3-1","lat":35.71203394,"lon":139.76277932},{"name":"湯島五差路","province":"東京都","city":"文京区","address":"東京都文京区本郷3丁目3-12","lat":35.70305157,"lon":139.76312697},{"name":"本郷二丁目","province":"東京都","city":"文京区","address":"東京都文京区本郷3丁目15-1","lat":35.70460969,"lon":139.76178529},{"name":"順天堂前","province":"東京都","city":"文京区","address":"東京都文京区本郷3丁目1-3","lat":35.70250161,"lon":139.76261313},{"name":"根津小学校入口","province":"東京都","city":"文京区","address":"東京都文京区根津2丁目20-7","lat":35.71920834,"lon":139.76417635},{"name":"本郷弥生","province":"東京都","city":"文京区","address":"東京都文京区弥生1丁目1-1","lat":35.71678895,"lon":139.76026548},{"name":"お茶の水","province":"東京都","city":"文京区","address":"東京都文京区湯島1丁目5-45","lat":35.70099629,"lon":139.76491864},{"name":"本郷三丁目","province":"東京都","city":"文京区","address":"東京都文京区本郷4丁目2-1","lat":35.70765375,"lon":139.76038242},{"name":"壱岐坂上","province":"東京都","city":"文京区","address":"東京都文京区本郷2丁目26-1","lat":35.7048763,"lon":139.76080755},{"name":"清水坂下","province":"東京都","city":"文京区","address":"東京都文京区湯島2丁目1-1","lat":35.70305723,"lon":139.76642959},{"name":"三組坂下","province":"東京都","city":"文京区","address":"東京都文京区湯島3丁目14-10","lat":35.7048766,"lon":139.7696349},{"name":"本郷追分","province":"東京都","city":"文京区","address":"東京都文京区向丘2丁目8-7","lat":35.71949969,"lon":139.75717399},{"name":"本郷消防署前","province":"東京都","city":"文京区","address":"東京都文京区本郷7丁目1-11","lat":35.70785938,"lon":139.76294619},{"name":"壱岐坂通り","province":"東京都","city":"文京区","address":"東京都文京区本郷2丁目21-4","lat":35.70448739,"lon":139.75906877},{"name":"根津神社入口","province":"東京都","city":"文京区","address":"東京都文京区根津2丁目29-2","lat":35.71998601,"lon":139.76328195},{"name":"本郷小学校前","province":"東京都","city":"文京区","address":"東京都文京区本郷4丁目5-10","lat":35.70759814,"lon":139.7581409},{"name":"三組坂上","province":"東京都","city":"文京区","address":"東京都文京区湯島3丁目4-7","lat":35.70481819,"lon":139.76739057},{"name":"湯島二丁目","province":"東京都","city":"文京区","address":"東京都文京区湯島2丁目18-6","lat":35.70556525,"lon":139.76474622},{"name":"湯島中坂下","province":"東京都","city":"文京区","address":"東京都文京区湯島3丁目25-11","lat":35.70662919,"lon":139.76975705},{"name":"本郷消防署前第二","province":"東京都","city":"文京区","address":"東京都文京区本郷3丁目27-1","lat":35.70596234,"lon":139.76226576},{"name":"大横丁出口","province":"東京都","city":"文京区","address":"東京都文京区本郷3丁目16-9","lat":35.70557623,"lon":139.7611825},{"name":"天神町交番前","province":"東京都","city":"文京区","address":"東京都文京区湯島3丁目33-9","lat":35.70753467,"lon":139.76979589},{"name":"真砂坂上","province":"東京都","city":"文京区","address":"東京都文京区本郷4丁目7-2","lat":35.70754256,"lon":139.75721876},{"name":"文京第六中学校裏","province":"東京都","city":"文京区","address":"東京都文京区向丘1丁目20-7","lat":35.71741103,"lon":139.75792952},{"name":"順天堂横","province":"東京都","city":"文京区","address":"東京都文京区本郷2丁目9-8","lat":35.7028932,"lon":139.76171872},{"name":"清水坂下第二","province":"東京都","city":"文京区","address":"東京都文京区湯島2丁目1-5","lat":35.70317665,"lon":139.7660796},{"name":"慈愛病院前","province":"東京都","city":"文京区","address":"東京都文京区本郷6丁目12-5","lat":35.71313919,"lon":139.75682411},{"name":"中坂上","province":"東京都","city":"文京区","address":"東京都文京区湯島3丁目29-3","lat":35.70686245,"lon":139.76810988},{"name":"弥生門入口","province":"東京都","city":"文京区","address":"東京都文京区本郷7丁目3-1","lat":35.71203394,"lon":139.76277932},{"name":"本郷三丁目金助町","province":"東京都","city":"文京区","address":"東京都文京区本郷3丁目24-3","lat":35.70570963,"lon":139.76352682},{"name":"本郷郵便局前","province":"東京都","city":"文京区","address":"東京都文京区本郷6丁目1-15","lat":35.71227821,"lon":139.75908503},{"name":"湯島二丁目郵便局前","province":"東京都","city":"文京区","address":"東京都文京区湯島2丁目22-4","lat":35.70526257,"lon":139.76665448},{"name":"団子坂下","province":"東京都","city":"文京区","address":"東京都文京区千駄木3丁目37-20","lat":35.72495777,"lon":139.76346517},{"name":"上富士前","province":"東京都","city":"文京区","address":"東京都文京区本駒込5丁目3-3","lat":35.73214247,"lon":139.74994361},{"name":"道灌山下","province":"東京都","city":"文京区","address":"東京都文京区千駄木3丁目49-10","lat":35.73017663,"lon":139.76239287},{"name":"駒本小学校前","province":"東京都","city":"文京区","address":"東京都文京区本駒込1丁目6-14","lat":35.72467957,"lon":139.75342415},{"name":"千駄木二丁目","province":"東京都","city":"文京区","address":"東京都文京区根津1丁目27-5","lat":35.72104417,"lon":139.76182089},{"name":"文京グリーンコート前","province":"東京都","city":"文京区","address":"東京都文京区本駒込2丁目28-10","lat":35.73072031,"lon":139.74744106},{"name":"本駒込五丁目坂下","province":"東京都","city":"文京区","address":"東京都文京区本駒込5丁目40-5","lat":35.73331196,"lon":139.75373775},{"name":"駒込橋","province":"東京都","city":"文京区","address":"東京都文京区本駒込6丁目24-6","lat":35.73534474,"lon":139.74733257},{"name":"東洋大学前","province":"東京都","city":"文京区","address":"東京都文京区白山5丁目28-20","lat":35.72357121,"lon":139.74971335},{"name":"向丘一丁目","province":"東京都","city":"文京区","address":"東京都文京区向丘1丁目13-2","lat":35.72026069,"lon":139.75599352},{"name":"動坂上","province":"東京都","city":"文京区","address":"東京都文京区本駒込3丁目18-16","lat":35.73070131,"lon":139.75746536},{"name":"富士神社入口","province":"東京都","city":"文京区","address":"東京都文京区本駒込3丁目31-5","lat":35.73043718,"lon":139.75133247},{"name":"徳源院前","province":"東京都","city":"文京区","address":"東京都文京区本駒込3丁目7-14","lat":35.72652111,"lon":139.75494345},{"name":"駒込日医大前","province":"東京都","city":"文京区","address":"東京都文京区千駄木1丁目1-5","lat":35.72107737,"lon":139.75886828},{"name":"道灌山下東","province":"東京都","city":"文京区","address":"東京都文京区千駄木3丁目50-12","lat":35.73053219,"lon":139.76296227},{"name":"駒込稲荷坂下","province":"東京都","city":"文京区","address":"東京都文京区本駒込5丁目41-7","lat":35.73339253,"lon":139.75439326},{"name":"団子坂東","province":"東京都","city":"文京区","address":"東京都文京区千駄木2丁目35-7","lat":35.72446896,"lon":139.7641457},{"name":"勤労福祉会館前","province":"東京都","city":"文京区","address":"東京都文京区本駒込4丁目46-2","lat":35.73377311,"lon":139.75567094},{"name":"駒込病院前","province":"東京都","city":"文京区","address":"東京都文京区千駄木5丁目49-4","lat":35.72997639,"lon":139.75756816},{"name":"区立教育の森公園","province":"東京都","city":"文京区","address":"東京都文京区大塚3丁目29-1","lat":35.71964352,"lon":139.73724511},{"name":"区立教育の森公園（注２）","province":"東京都","city":"文京区","address":"東京都文京区大塚3丁目29-1","lat":35.71964352,"lon":139.73724511},{"name":"有限会社　鈴木商店","province":"東京都","city":"文京区","address":"東京都文京区小石川1丁目22-8","lat":35.71478886,"lon":139.75101348},{"name":"有限会社　矢口葬祭","province":"東京都","city":"文京区","address":"東京都文京区大塚5丁目18-1","lat":35.72120703,"lon":139.72992901},{"name":"有限会社　神谷商店","province":"東京都","city":"文京区","address":"東京都文京区根津2丁目20-4","lat":35.71886949,"lon":139.76449023},{"name":"本郷金子商店　株式会社","province":"東京都","city":"文京区","address":"東京都文京区本郷2丁目14-9","lat":35.70450689,"lon":139.76079368},{"name":"磯辺葬儀社","province":"東京都","city":"文京区","address":"東京都文京区目白台2丁目9-6","lat":35.71664613,"lon":139.71887734},{"name":"株式会社　杉元","province":"東京都","city":"文京区","address":"東京都文京区本郷4丁目34-17","lat":35.70900075,"lon":139.75771586},{"name":"おもてなし食堂","province":"東京都","city":"文京区","address":"東京都文京区小石川3丁目4-14","lat":35.71253894,"lon":139.74521961},{"name":"氷川下子ども食堂","province":"東京都","city":"文京区","address":"東京都文京区千石3丁目3-7","lat":35.72480123,"lon":139.73621722},{"name":"おたがいさま食堂せんごく","province":"東京都","city":"文京区","address":"東京都文京区白山2丁目13-6","lat":35.71696348,"lon":139.74601384},{"name":"文京BASE子ども食堂","province":"東京都","city":"文京区","address":"東京都文京区小石川3丁目28-14","lat":35.71350562,"lon":139.75000249},{"name":"おかえりごはん","province":"東京都","city":"文京区","address":"東京都文京区千駄木3丁目42-4","lat":35.72785754,"lon":139.76420951},{"name":"定泉寺こども食堂","province":"東京都","city":"文京区","address":"東京都文京区本駒込1丁目7-12","lat":35.72574333,"lon":139.75300194},{"name":"動坂ごはん","province":"東京都","city":"文京区","address":"東京都文京区本駒込4丁目21-7","lat":35.73209839,"lon":139.75776529},{"name":"壱岐坂下","province":"東京都","city":"文京区","address":"東京都文京区後楽1丁目3-61","lat":35.70486136,"lon":139.75272149},{"name":"伝通院前","province":"東京都","city":"文京区","address":"東京都文京区小石川3丁目1-1","lat":35.71078082,"lon":139.74631679},{"name":"西片","province":"東京都","city":"文京区","address":"東京都文京区小石川1丁目9-1","lat":35.71130314,"lon":139.75246066},{"name":"富坂下","province":"東京都","city":"文京区","address":"東京都文京区小石川2丁目1-1","lat":35.7087284,"lon":139.7515803},{"name":"水道橋","province":"東京都","city":"文京区","address":"東京都文京区後楽1丁目3-61","lat":35.70486136,"lon":139.75272149},{"name":"春日町","province":"東京都","city":"文京区","address":"東京都文京区春日1丁目16-27","lat":35.70812018,"lon":139.75333017},{"name":"千石一丁目","province":"東京都","city":"文京区","address":"東京都文京区本駒込2丁目29-27","lat":35.72887043,"lon":139.74438305},{"name":"安藤坂","province":"東京都","city":"文京区","address":"東京都文京区春日1丁目8-3","lat":35.70796444,"lon":139.74531698},{"name":"白山下","province":"東京都","city":"文京区","address":"東京都文京区白山2丁目39-8","lat":35.71970225,"lon":139.75146054},{"name":"後楽園駅前","province":"東京都","city":"文京区","address":"東京都文京区春日1丁目2-3","lat":35.70735077,"lon":139.75114429},{"name":"窪町東公園前","province":"東京都","city":"文京区","address":"東京都文京区大塚3丁目32","lat":35.72059904,"lon":139.73987817},{"name":"こんにゃくえんま前","province":"東京都","city":"文京区","address":"東京都文京区小石川2丁目23-14","lat":35.71069206,"lon":139.75136356},{"name":"牛天神下","province":"東京都","city":"文京区","address":"東京都文京区後楽2丁目5-1","lat":35.70552861,"lon":139.74602812},{"name":"茗台中学校前","province":"東京都","city":"文京区","address":"東京都文京区春日2丁目9-5","lat":35.71346374,"lon":139.74103385},{"name":"明化小学校入口","province":"東京都","city":"文京区","address":"東京都文京区千石1丁目6-19","lat":35.72699281,"lon":139.74224719},{"name":"小石川植物園前","province":"東京都","city":"文京区","address":"東京都文京区白山2丁目14-6","lat":35.71733564,"lon":139.74502781},{"name":"竹早小学校入口","province":"東京都","city":"文京区","address":"東京都文京区小石川4丁目17-1","lat":35.71536633,"lon":139.74236978},{"name":"小石川税務署前","province":"東京都","city":"文京区","address":"東京都文京区後楽1丁目7-19","lat":35.70662298,"lon":139.74766961},{"name":"白山三丁目","province":"東京都","city":"文京区","address":"東京都文京区小石川5丁目37-6","lat":35.71893261,"lon":139.74201414},{"name":"小石川五丁目","province":"東京都","city":"文京区","address":"東京都文京区小石川5丁目1-12","lat":35.7156718,"lon":139.7399061},{"name":"千石三丁目第二","province":"東京都","city":"文京区","address":"東京都文京区千石3丁目3-7","lat":35.72480123,"lon":139.73621722},{"name":"飯田橋職安前","province":"東京都","city":"文京区","address":"東京都文京区後楽1丁目9-20","lat":35.70364551,"lon":139.74712809},{"name":"白山二丁目","province":"東京都","city":"文京区","address":"東京都文京区白山1丁目6-4","lat":35.71557769,"lon":139.75229946},{"name":"隆慶橋東詰","province":"東京都","city":"文京区","address":"東京都文京区後楽2丁目3-13","lat":35.70475922,"lon":139.74478104},{"name":"第十中学校入口","province":"東京都","city":"文京区","address":"東京都文京区千石1丁目6-12","lat":35.72598458,"lon":139.74184447},{"name":"金富小学校前","province":"東京都","city":"文京区","address":"東京都文京区春日2丁目6-15","lat":35.7108307,"lon":139.74161999},{"name":"白山交番西","province":"東京都","city":"文京区","address":"東京都文京区白山2丁目39-5","lat":35.71968002,"lon":139.751355},{"name":"白山四丁目第一","province":"東京都","city":"文京区","address":"東京都文京区白山4丁目36-12","lat":35.72254903,"lon":139.7476191},{"name":"小石川保健所前","province":"東京都","city":"文京区","address":"東京都文京区春日1丁目9-21","lat":35.70814221,"lon":139.74611413},{"name":"窪町東公園北","province":"東京都","city":"文京区","address":"東京都文京区大塚3丁目38-12","lat":35.72186276,"lon":139.73882267},{"name":"中通り入口","province":"東京都","city":"文京区","address":"東京都文京区春日1丁目7-12","lat":35.7074534,"lon":139.74605861},{"name":"小石川運動場前","province":"東京都","city":"文京区","address":"東京都文京区後楽1丁目8","lat":35.70462595,"lon":139.74661143},{"name":"柳町小学校入口","province":"東京都","city":"文京区","address":"東京都文京区小石川1丁目23-6","lat":35.71370563,"lon":139.75092185},{"name":"白山四丁目","province":"東京都","city":"文京区","address":"東京都文京区白山4丁目34-12","lat":35.72080483,"lon":139.74934402},{"name":"白山交番南","province":"東京都","city":"文京区","address":"東京都文京区白山1丁目31-6","lat":35.71904121,"lon":139.75161333},{"name":"小石川後楽園入口","province":"東京都","city":"文京区","address":"東京都文京区後楽1丁目8","lat":35.70462595,"lon":139.74661143},{"name":"大塚特別支援学校前","province":"東京都","city":"文京区","address":"東京都文京区春日1丁目9-9","lat":35.70802281,"lon":139.7472307},{"name":"新隆慶橋東詰","province":"東京都","city":"文京区","address":"東京都文京区後楽2丁目6-1","lat":35.70525084,"lon":139.74505878},{"name":"茗荷谷駅前","province":"東京都","city":"文京区","address":"東京都文京区小石川5丁目5-5","lat":35.71791038,"lon":139.73713962},{"name":"古川橋","province":"東京都","city":"文京区","address":"東京都文京区関口1丁目17","lat":35.70882798,"lon":139.73519287},{"name":"目白坂下","province":"東京都","city":"文京区","address":"東京都文京区音羽1丁目25-15","lat":35.71244413,"lon":139.73040427},{"name":"目白台二丁目","province":"東京都","city":"文京区","address":"東京都文京区目白台1丁目15-9","lat":35.71664333,"lon":139.7181413},{"name":"大塚三丁目","province":"東京都","city":"文京区","address":"東京都文京区大塚4丁目45-11","lat":35.72181258,"lon":139.73188993},{"name":"護国寺前","province":"東京都","city":"文京区","address":"東京都文京区大塚5丁目40-8","lat":35.72028204,"lon":139.72657655},{"name":"大塚警察署前","province":"東京都","city":"文京区","address":"東京都文京区音羽2丁目12-26","lat":35.71707411,"lon":139.727996},{"name":"護国寺南","province":"東京都","city":"文京区","address":"東京都文京区音羽2丁目11-25","lat":35.71900999,"lon":139.72723488},{"name":"大塚五丁目","province":"東京都","city":"文京区","address":"東京都文京区大塚4丁目51-5","lat":35.72531213,"lon":139.73044825},{"name":"目白台郵便局前","province":"東京都","city":"文京区","address":"東京都文京区目白台2丁目7-8","lat":35.71785996,"lon":139.72162984},{"name":"護国寺西","province":"東京都","city":"文京区","address":"東京都文京区音羽2丁目12","lat":35.71938771,"lon":139.72674046},{"name":"大塚四丁目","province":"東京都","city":"文京区","address":"東京都文京区大塚3丁目11-7","lat":35.72153767,"lon":139.733887},{"name":"大塚一丁目","province":"東京都","city":"文京区","address":"東京都文京区大塚3丁目3-14","lat":35.71920185,"lon":139.73525363},{"name":"江戸川公園前","province":"東京都","city":"文京区","address":"東京都文京区音羽1丁目1-1","lat":35.71119986,"lon":139.73157366},{"name":"目白台三丁目","province":"東京都","city":"文京区","address":"東京都文京区目白台1丁目23-7","lat":35.71500202,"lon":139.72446581},{"name":"音羽一丁目","province":"東京都","city":"文京区","address":"東京都文京区音羽1丁目20-2","lat":35.71510769,"lon":139.72913762},{"name":"音羽一丁目南","province":"東京都","city":"文京区","address":"東京都文京区音羽1丁目22-14","lat":35.71390228,"lon":139.72967651},{"name":"坂下通り入口","province":"東京都","city":"文京区","address":"東京都文京区大塚5丁目17-3","lat":35.72129314,"lon":139.73017899},{"name":"目白台二丁目第三","province":"東京都","city":"文京区","address":"東京都文京区目白台2丁目14-11","lat":35.7188571,"lon":139.72284637},{"name":"小日向一丁目","province":"東京都","city":"文京区","address":"東京都文京区春日2丁目8-13","lat":35.71093066,"lon":139.74042843},{"name":"大日坂下","province":"東京都","city":"文京区","address":"東京都文京区小日向2丁目18-5","lat":35.71097493,"lon":139.73351794},{"name":"華水橋","province":"東京都","city":"文京区","address":"東京都文京区関口1丁目20-6","lat":35.70939454,"lon":139.73325691},{"name":"大塚四丁目第二","province":"東京都","city":"文京区","address":"東京都文京区大塚3丁目27-2","lat":35.72224318,"lon":139.73566737},{"name":"大塚公園入口","province":"東京都","city":"文京区","address":"東京都文京区大塚4丁目49","lat":35.72415396,"lon":139.73177596},{"name":"跡見学園前","province":"東京都","city":"文京区","address":"東京都文京区大塚2丁目1-18","lat":35.71814638,"lon":139.73367881},{"name":"開運坂下","province":"東京都","city":"文京区","address":"東京都文京区大塚5丁目13-11","lat":35.7252593,"lon":139.72848453},{"name":"目白台運動場前","province":"東京都","city":"文京区","address":"東京都文京区目白台2丁目3-2","lat":35.71597961,"lon":139.72155769},{"name":"筑波大附属小学校入口","province":"東京都","city":"文京区","address":"東京都文京区大塚3丁目6-7","lat":35.72031559,"lon":139.73425369},{"name":"筑波大附属中学校前","province":"東京都","city":"文京区","address":"東京都文京区大塚2丁目1-1","lat":35.71878795,"lon":139.73262888},{"name":"目白台三丁目第二","province":"東京都","city":"文京区","address":"東京都文京区目白台1丁目21-2","lat":35.71430764,"lon":139.72373535},{"name":"筑波大学正門前","province":"東京都","city":"文京区","address":"東京都文京区大塚3丁目30","lat":35.71982964,"lon":139.73842},{"name":"茗荷谷駅前交番前","province":"東京都","city":"文京区","address":"東京都文京区小石川5丁目5-7","lat":35.71808257,"lon":139.73667576},{"name":"根津一丁目","province":"東京都","city":"文京区","address":"東京都文京区根津2丁目12-7","lat":35.71785574,"lon":139.76550131},{"name":"東大農学部前","province":"東京都","city":"文京区","address":"東京都文京区弥生1丁目1-1","lat":35.71678895,"lon":139.76026548},{"name":"東大正門前","province":"東京都","city":"文京区","address":"東京都文京区本郷7丁目3-1","lat":35.71203394,"lon":139.76277932},{"name":"湯島五差路","province":"東京都","city":"文京区","address":"東京都文京区本郷3丁目3-12","lat":35.70305157,"lon":139.76312697},{"name":"本郷二丁目","province":"東京都","city":"文京区","address":"東京都文京区本郷3丁目15-1","lat":35.70460969,"lon":139.76178529},{"name":"順天堂前","province":"東京都","city":"文京区","address":"東京都文京区本郷3丁目1-3","lat":35.70250161,"lon":139.76261313},{"name":"根津小学校入口","province":"東京都","city":"文京区","address":"東京都文京区根津2丁目20-7","lat":35.71920834,"lon":139.76417635},{"name":"本郷弥生","province":"東京都","city":"文京区","address":"東京都文京区弥生1丁目1-1","lat":35.71678895,"lon":139.76026548},{"name":"お茶の水","province":"東京都","city":"文京区","address":"東京都文京区湯島1丁目5-45","lat":35.70099629,"lon":139.76491864},{"name":"本郷三丁目","province":"東京都","city":"文京区","address":"東京都文京区本郷4丁目2-1","lat":35.70765375,"lon":139.76038242},{"name":"壱岐坂上","province":"東京都","city":"文京区","address":"東京都文京区本郷2丁目26-1","lat":35.7048763,"lon":139.76080755},{"name":"清水坂下","province":"東京都","city":"文京区","address":"東京都文京区湯島2丁目1-1","lat":35.70305723,"lon":139.76642959},{"name":"三組坂下","province":"東京都","city":"文京区","address":"東京都文京区湯島3丁目14-10","lat":35.7048766,"lon":139.7696349},{"name":"本郷追分","province":"東京都","city":"文京区","address":"東京都文京区向丘2丁目8-7","lat":35.71949969,"lon":139.75717399},{"name":"本郷消防署前","province":"東京都","city":"文京区","address":"東京都文京区本郷7丁目1-11","lat":35.70785938,"lon":139.76294619},{"name":"壱岐坂通り","province":"東京都","city":"文京区","address":"東京都文京区本郷2丁目21-4","lat":35.70448739,"lon":139.75906877},{"name":"根津神社入口","province":"東京都","city":"文京区","address":"東京都文京区根津2丁目29-2","lat":35.71998601,"lon":139.76328195},{"name":"本郷小学校前","province":"東京都","city":"文京区","address":"東京都文京区本郷4丁目5-10","lat":35.70759814,"lon":139.7581409},{"name":"三組坂上","province":"東京都","city":"文京区","address":"東京都文京区湯島3丁目4-7","lat":35.70481819,"lon":139.76739057},{"name":"湯島二丁目","province":"東京都","city":"文京区","address":"東京都文京区湯島2丁目18-6","lat":35.70556525,"lon":139.76474622},{"name":"湯島中坂下","province":"東京都","city":"文京区","address":"東京都文京区湯島3丁目25-11","lat":35.70662919,"lon":139.76975705},{"name":"本郷消防署前第二","province":"東京都","city":"文京区","address":"東京都文京区本郷3丁目27-1","lat":35.70596234,"lon":139.76226576},{"name":"大横丁出口","province":"東京都","city":"文京区","address":"東京都文京区本郷3丁目16-9","lat":35.70557623,"lon":139.7611825},{"name":"天神町交番前","province":"東京都","city":"文京区","address":"東京都文京区湯島3丁目33-9","lat":35.70753467,"lon":139.76979589},{"name":"真砂坂上","province":"東京都","city":"文京区","address":"東京都文京区本郷4丁目7-2","lat":35.70754256,"lon":139.75721876},{"name":"文京第六中学校裏","province":"東京都","city":"文京区","address":"東京都文京区向丘1丁目20-7","lat":35.71741103,"lon":139.75792952},{"name":"順天堂横","province":"東京都","city":"文京区","address":"東京都文京区本郷2丁目9-8","lat":35.7028932,"lon":139.76171872},{"name":"清水坂下第二","province":"東京都","city":"文京区","address":"東京都文京区湯島2丁目1-5","lat":35.70317665,"lon":139.7660796},{"name":"慈愛病院前","province":"東京都","city":"文京区","address":"東京都文京区本郷6丁目12-5","lat":35.71313919,"lon":139.75682411},{"name":"中坂上","province":"東京都","city":"文京区","address":"東京都文京区湯島3丁目29-3","lat":35.70686245,"lon":139.76810988},{"name":"弥生門入口","province":"東京都","city":"文京区","address":"東京都文京区本郷7丁目3-1","lat":35.71203394,"lon":139.76277932},{"name":"本郷三丁目金助町","province":"東京都","city":"文京区","address":"東京都文京区本郷3丁目24-3","lat":35.70570963,"lon":139.76352682},{"name":"本郷郵便局前","province":"東京都","city":"文京区","address":"東京都文京区本郷6丁目1-15","lat":35.71227821,"lon":139.75908503},{"name":"湯島二丁目郵便局前","province":"東京都","city":"文京区","address":"東京都文京区湯島2丁目22-4","lat":35.70526257,"lon":139.76665448},{"name":"団子坂下","province":"東京都","city":"文京区","address":"東京都文京区千駄木3丁目37-20","lat":35.72495777,"lon":139.76346517},{"name":"上富士前","province":"東京都","city":"文京区","address":"東京都文京区本駒込5丁目3-3","lat":35.73214247,"lon":139.74994361},{"name":"道灌山下","province":"東京都","city":"文京区","address":"東京都文京区千駄木3丁目49-10","lat":35.73017663,"lon":139.76239287},{"name":"駒本小学校前","province":"東京都","city":"文京区","address":"東京都文京区本駒込1丁目6-14","lat":35.72467957,"lon":139.75342415},{"name":"千駄木二丁目","province":"東京都","city":"文京区","address":"東京都文京区根津1丁目27-5","lat":35.72104417,"lon":139.76182089},{"name":"文京グリーンコート前","province":"東京都","city":"文京区","address":"東京都文京区本駒込2丁目28-10","lat":35.73072031,"lon":139.74744106},{"name":"本駒込五丁目坂下","province":"東京都","city":"文京区","address":"東京都文京区本駒込5丁目40-5","lat":35.73331196,"lon":139.75373775},{"name":"駒込橋","province":"東京都","city":"文京区","address":"東京都文京区本駒込6丁目24-6","lat":35.73534474,"lon":139.74733257},{"name":"東洋大学前","province":"東京都","city":"文京区","address":"東京都文京区白山5丁目28-20","lat":35.72357121,"lon":139.74971335},{"name":"向丘一丁目","province":"東京都","city":"文京区","address":"東京都文京区向丘1丁目13-2","lat":35.72026069,"lon":139.75599352},{"name":"動坂上","province":"東京都","city":"文京区","address":"東京都文京区本駒込3丁目18-16","lat":35.73070131,"lon":139.75746536},{"name":"富士神社入口","province":"東京都","city":"文京区","address":"東京都文京区本駒込3丁目31-5","lat":35.73043718,"lon":139.75133247},{"name":"徳源院前","province":"東京都","city":"文京区","address":"東京都文京区本駒込3丁目7-14","lat":35.72652111,"lon":139.75494345},{"name":"駒込日医大前","province":"東京都","city":"文京区","address":"東京都文京区千駄木1丁目1-5","lat":35.72107737,"lon":139.75886828},{"name":"道灌山下東","province":"東京都","city":"文京区","address":"東京都文京区千駄木3丁目50-12","lat":35.73053219,"lon":139.76296227},{"name":"駒込稲荷坂下","province":"東京都","city":"文京区","address":"東京都文京区本駒込5丁目41-7","lat":35.73339253,"lon":139.75439326},{"name":"団子坂東","province":"東京都","city":"文京区","address":"東京都文京区千駄木2丁目35-7","lat":35.72446896,"lon":139.7641457},{"name":"勤労福祉会館前","province":"東京都","city":"文京区","address":"東京都文京区本駒込4丁目46-2","lat":35.73377311,"lon":139.75567094},{"name":"駒込病院前","province":"東京都","city":"文京区","address":"東京都文京区千駄木5丁目49-4","lat":35.72997639,"lon":139.75756816},{"name":"区立教育の森公園","province":"東京都","city":"文京区","address":"東京都文京区大塚3丁目29-1","lat":35.71964352,"lon":139.73724511},{"name":"区立教育の森公園（注２）","province":"東京都","city":"文京区","address":"東京都文京区大塚3丁目29-1","lat":35.71964352,"lon":139.73724511},{"name":"有限会社　鈴木商店","province":"東京都","city":"文京区","address":"東京都文京区小石川1丁目22-8","lat":35.71478886,"lon":139.75101348},{"name":"有限会社　矢口葬祭","province":"東京都","city":"文京区","address":"東京都文京区大塚5丁目18-1","lat":35.72120703,"lon":139.72992901},{"name":"有限会社　神谷商店","province":"東京都","city":"文京区","address":"東京都文京区根津2丁目20-4","lat":35.71886949,"lon":139.76449023},{"name":"本郷金子商店　株式会社","province":"東京都","city":"文京区","address":"東京都文京区本郷2丁目14-9","lat":35.70450689,"lon":139.76079368},{"name":"磯辺葬儀社","province":"東京都","city":"文京区","address":"東京都文京区目白台2丁目9-6","lat":35.71664613,"lon":139.71887734},{"name":"株式会社　杉元","province":"東京都","city":"文京区","address":"東京都文京区本郷4丁目34-17","lat":35.70900075,"lon":139.75771586},{"name":"おもてなし食堂","province":"東京都","city":"文京区","address":"東京都文京区小石川3丁目4-14","lat":35.71253894,"lon":139.74521961},{"name":"氷川下子ども食堂","province":"東京都","city":"文京区","address":"東京都文京区千石3丁目3-7","lat":35.72480123,"lon":139.73621722},{"name":"おたがいさま食堂せんごく","province":"東京都","city":"文京区","address":"東京都文京区白山2丁目13-6","lat":35.71696348,"lon":139.74601384},{"name":"文京BASE子ども食堂","province":"東京都","city":"文京区","address":"東京都文京区小石川3丁目28-14","lat":35.71350562,"lon":139.75000249},{"name":"おかえりごはん","province":"東京都","city":"文京区","address":"東京都文京区千駄木3丁目42-4","lat":35.72785754,"lon":139.76420951},{"name":"定泉寺こども食堂","province":"東京都","city":"文京区","address":"東京都文京区本駒込1丁目7-12","lat":35.72574333,"lon":139.75300194},{"name":"動坂ごはん","province":"東京都","city":"文京区","address":"東京都文京区本駒込4丁目21-7","lat":35.73209839,"lon":139.75776529},{"name":"壱岐坂下","province":"東京都","city":"文京区","address":"東京都文京区後楽1丁目3-61","lat":35.70486136,"lon":139.75272149},{"name":"伝通院前","province":"東京都","city":"文京区","address":"東京都文京区小石川3丁目1-1","lat":35.71078082,"lon":139.74631679},{"name":"西片","province":"東京都","city":"文京区","address":"東京都文京区小石川1丁目9-1","lat":35.71130314,"lon":139.75246066},{"name":"富坂下","province":"東京都","city":"文京区","address":"東京都文京区小石川2丁目1-1","lat":35.7087284,"lon":139.7515803},{"name":"水道橋","province":"東京都","city":"文京区","address":"東京都文京区後楽1丁目3-61","lat":35.70486136,"lon":139.75272149},{"name":"春日町","province":"東京都","city":"文京区","address":"東京都文京区春日1丁目16-27","lat":35.70812018,"lon":139.75333017},{"name":"千石一丁目","province":"東京都","city":"文京区","address":"東京都文京区本駒込2丁目29-27","lat":35.72887043,"lon":139.74438305},{"name":"安藤坂","province":"東京都","city":"文京区","address":"東京都文京区春日1丁目8-3","lat":35.70796444,"lon":139.74531698},{"name":"白山下","province":"東京都","city":"文京区","address":"東京都文京区白山2丁目39-8","lat":35.71970225,"lon":139.75146054},{"name":"後楽園駅前","province":"東京都","city":"文京区","address":"東京都文京区春日1丁目2-3","lat":35.70735077,"lon":139.75114429},{"name":"窪町東公園前","province":"東京都","city":"文京区","address":"東京都文京区大塚3丁目32","lat":35.72059904,"lon":139.73987817},{"name":"こんにゃくえんま前","province":"東京都","city":"文京区","address":"東京都文京区小石川2丁目23-14","lat":35.71069206,"lon":139.75136356},{"name":"牛天神下","province":"東京都","city":"文京区","address":"東京都文京区後楽2丁目5-1","lat":35.70552861,"lon":139.74602812},{"name":"茗台中学校前","province":"東京都","city":"文京区","address":"東京都文京区春日2丁目9-5","lat":35.71346374,"lon":139.74103385},{"name":"明化小学校入口","province":"東京都","city":"文京区","address":"東京都文京区千石1丁目6-19","lat":35.72699281,"lon":139.74224719},{"name":"小石川植物園前","province":"東京都","city":"文京区","address":"東京都文京区白山2丁目14-6","lat":35.71733564,"lon":139.74502781},{"name":"竹早小学校入口","province":"東京都","city":"文京区","address":"東京都文京区小石川4丁目17-1","lat":35.71536633,"lon":139.74236978},{"name":"小石川税務署前","province":"東京都","city":"文京区","address":"東京都文京区後楽1丁目7-19","lat":35.70662298,"lon":139.74766961},{"name":"白山三丁目","province":"東京都","city":"文京区","address":"東京都文京区小石川5丁目37-6","lat":35.71893261,"lon":139.74201414},{"name":"小石川五丁目","province":"東京都","city":"文京区","address":"東京都文京区小石川5丁目1-12","lat":35.7156718,"lon":139.7399061},{"name":"千石三丁目第二","province":"東京都","city":"文京区","address":"東京都文京区千石3丁目3-7","lat":35.72480123,"lon":139.73621722},{"name":"飯田橋職安前","province":"東京都","city":"文京区","address":"東京都文京区後楽1丁目9-20","lat":35.70364551,"lon":139.74712809},{"name":"白山二丁目","province":"東京都","city":"文京区","address":"東京都文京区白山1丁目6-4","lat":35.71557769,"lon":139.75229946},{"name":"隆慶橋東詰","province":"東京都","city":"文京区","address":"東京都文京区後楽2丁目3-13","lat":35.70475922,"lon":139.74478104},{"name":"第十中学校入口","province":"東京都","city":"文京区","address":"東京都文京区千石1丁目6-12","lat":35.72598458,"lon":139.74184447},{"name":"金富小学校前","province":"東京都","city":"文京区","address":"東京都文京区春日2丁目6-15","lat":35.7108307,"lon":139.74161999},{"name":"白山交番西","province":"東京都","city":"文京区","address":"東京都文京区白山2丁目39-5","lat":35.71968002,"lon":139.751355},{"name":"白山四丁目第一","province":"東京都","city":"文京区","address":"東京都文京区白山4丁目36-12","lat":35.72254903,"lon":139.7476191},{"name":"小石川保健所前","province":"東京都","city":"文京区","address":"東京都文京区春日1丁目9-21","lat":35.70814221,"lon":139.74611413},{"name":"窪町東公園北","province":"東京都","city":"文京区","address":"東京都文京区大塚3丁目38-12","lat":35.72186276,"lon":139.73882267},{"name":"中通り入口","province":"東京都","city":"文京区","address":"東京都文京区春日1丁目7-12","lat":35.7074534,"lon":139.74605861},{"name":"小石川運動場前","province":"東京都","city":"文京区","address":"東京都文京区後楽1丁目8","lat":35.70462595,"lon":139.74661143},{"name":"柳町小学校入口","province":"東京都","city":"文京区","address":"東京都文京区小石川1丁目23-6","lat":35.71370563,"lon":139.75092185},{"name":"白山四丁目","province":"東京都","city":"文京区","address":"東京都文京区白山4丁目34-12","lat":35.72080483,"lon":139.74934402},{"name":"白山交番南","province":"東京都","city":"文京区","address":"東京都文京区白山1丁目31-6","lat":35.71904121,"lon":139.75161333},{"name":"小石川後楽園入口","province":"東京都","city":"文京区","address":"東京都文京区後楽1丁目8","lat":35.70462595,"lon":139.74661143},{"name":"大塚特別支援学校前","province":"東京都","city":"文京区","address":"東京都文京区春日1丁目9-9","lat":35.70802281,"lon":139.7472307},{"name":"新隆慶橋東詰","province":"東京都","city":"文京区","address":"東京都文京区後楽2丁目6-1","lat":35.70525084,"lon":139.74505878},{"name":"茗荷谷駅前","province":"東京都","city":"文京区","address":"東京都文京区小石川5丁目5-5","lat":35.71791038,"lon":139.73713962},{"name":"古川橋","province":"東京都","city":"文京区","address":"東京都文京区関口1丁目17","lat":35.70882798,"lon":139.73519287},{"name":"目白坂下","province":"東京都","city":"文京区","address":"東京都文京区音羽1丁目25-15","lat":35.71244413,"lon":139.73040427},{"name":"目白台二丁目","province":"東京都","city":"文京区","address":"東京都文京区目白台1丁目15-9","lat":35.71664333,"lon":139.7181413},{"name":"大塚三丁目","province":"東京都","city":"文京区","address":"東京都文京区大塚4丁目45-11","lat":35.72181258,"lon":139.73188993},{"name":"護国寺前","province":"東京都","city":"文京区","address":"東京都文京区大塚5丁目40-8","lat":35.72028204,"lon":139.72657655},{"name":"大塚警察署前","province":"東京都","city":"文京区","address":"東京都文京区音羽2丁目12-26","lat":35.71707411,"lon":139.727996},{"name":"護国寺南","province":"東京都","city":"文京区","address":"東京都文京区音羽2丁目11-25","lat":35.71900999,"lon":139.72723488},{"name":"大塚五丁目","province":"東京都","city":"文京区","address":"東京都文京区大塚4丁目51-5","lat":35.72531213,"lon":139.73044825},{"name":"目白台郵便局前","province":"東京都","city":"文京区","address":"東京都文京区目白台2丁目7-8","lat":35.71785996,"lon":139.72162984},{"name":"護国寺西","province":"東京都","city":"文京区","address":"東京都文京区音羽2丁目12","lat":35.71938771,"lon":139.72674046},{"name":"大塚四丁目","province":"東京都","city":"文京区","address":"東京都文京区大塚3丁目11-7","lat":35.72153767,"lon":139.733887},{"name":"大塚一丁目","province":"東京都","city":"文京区","address":"東京都文京区大塚3丁目3-14","lat":35.71920185,"lon":139.73525363},{"name":"江戸川公園前","province":"東京都","city":"文京区","address":"東京都文京区音羽1丁目1-1","lat":35.71119986,"lon":139.73157366},{"name":"目白台三丁目","province":"東京都","city":"文京区","address":"東京都文京区目白台1丁目23-7","lat":35.71500202,"lon":139.72446581},{"name":"音羽一丁目","province":"東京都","city":"文京区","address":"東京都文京区音羽1丁目20-2","lat":35.71510769,"lon":139.72913762},{"name":"音羽一丁目南","province":"東京都","city":"文京区","address":"東京都文京区音羽1丁目22-14","lat":35.71390228,"lon":139.72967651},{"name":"坂下通り入口","province":"東京都","city":"文京区","address":"東京都文京区大塚5丁目17-3","lat":35.72129314,"lon":139.73017899},{"name":"目白台二丁目第三","province":"東京都","city":"文京区","address":"東京都文京区目白台2丁目14-11","lat":35.7188571,"lon":139.72284637},{"name":"小日向一丁目","province":"東京都","city":"文京区","address":"東京都文京区春日2丁目8-13","lat":35.71093066,"lon":139.74042843},{"name":"大日坂下","province":"東京都","city":"文京区","address":"東京都文京区小日向2丁目18-5","lat":35.71097493,"lon":139.73351794},{"name":"華水橋","province":"東京都","city":"文京区","address":"東京都文京区関口1丁目20-6","lat":35.70939454,"lon":139.73325691},{"name":"大塚四丁目第二","province":"東京都","city":"文京区","address":"東京都文京区大塚3丁目27-2","lat":35.72224318,"lon":139.73566737},{"name":"大塚公園入口","province":"東京都","city":"文京区","address":"東京都文京区大塚4丁目49","lat":35.72415396,"lon":139.73177596},{"name":"跡見学園前","province":"東京都","city":"文京区","address":"東京都文京区大塚2丁目1-18","lat":35.71814638,"lon":139.73367881},{"name":"開運坂下","province":"東京都","city":"文京区","address":"東京都文京区大塚5丁目13-11","lat":35.7252593,"lon":139.72848453},{"name":"目白台運動場前","province":"東京都","city":"文京区","address":"東京都文京区目白台2丁目3-2","lat":35.71597961,"lon":139.72155769},{"name":"筑波大附属小学校入口","province":"東京都","city":"文京区","address":"東京都文京区大塚3丁目6-7","lat":35.72031559,"lon":139.73425369},{"name":"筑波大附属中学校前","province":"東京都","city":"文京区","address":"東京都文京区大塚2丁目1-1","lat":35.71878795,"lon":139.73262888},{"name":"目白台三丁目第二","province":"東京都","city":"文京区","address":"東京都文京区目白台1丁目21-2","lat":35.71430764,"lon":139.72373535},{"name":"筑波大学正門前","province":"東京都","city":"文京区","address":"東京都文京区大塚3丁目30","lat":35.71982964,"lon":139.73842},{"name":"茗荷谷駅前交番前","province":"東京都","city":"文京区","address":"東京都文京区小石川5丁目5-7","lat":35.71808257,"lon":139.73667576},{"name":"根津一丁目","province":"東京都","city":"文京区","address":"東京都文京区根津2丁目12-7","lat":35.71785574,"lon":139.76550131},{"name":"東大農学部前","province":"東京都","city":"文京区","address":"東京都文京区弥生1丁目1-1","lat":35.71678895,"lon":139.76026548},{"name":"東大正門前","province":"東京都","city":"文京区","address":"東京都文京区本郷7丁目3-1","lat":35.71203394,"lon":139.76277932},{"name":"湯島五差路","province":"東京都","city":"文京区","address":"東京都文京区本郷3丁目3-12","lat":35.70305157,"lon":139.76312697},{"name":"本郷二丁目","province":"東京都","city":"文京区","address":"東京都文京区本郷3丁目15-1","lat":35.70460969,"lon":139.76178529},{"name":"順天堂前","province":"東京都","city":"文京区","address":"東京都文京区本郷3丁目1-3","lat":35.70250161,"lon":139.76261313},{"name":"根津小学校入口","province":"東京都","city":"文京区","address":"東京都文京区根津2丁目20-7","lat":35.71920834,"lon":139.76417635},{"name":"本郷弥生","province":"東京都","city":"文京区","address":"東京都文京区弥生1丁目1-1","lat":35.71678895,"lon":139.76026548},{"name":"お茶の水","province":"東京都","city":"文京区","address":"東京都文京区湯島1丁目5-45","lat":35.70099629,"lon":139.76491864},{"name":"本郷三丁目","province":"東京都","city":"文京区","address":"東京都文京区本郷4丁目2-1","lat":35.70765375,"lon":139.76038242},{"name":"壱岐坂上","province":"東京都","city":"文京区","address":"東京都文京区本郷2丁目26-1","lat":35.7048763,"lon":139.76080755},{"name":"清水坂下","province":"東京都","city":"文京区","address":"東京都文京区湯島2丁目1-1","lat":35.70305723,"lon":139.76642959},{"name":"三組坂下","province":"東京都","city":"文京区","address":"東京都文京区湯島3丁目14-10","lat":35.7048766,"lon":139.7696349},{"name":"本郷追分","province":"東京都","city":"文京区","address":"東京都文京区向丘2丁目8-7","lat":35.71949969,"lon":139.75717399},{"name":"本郷消防署前","province":"東京都","city":"文京区","address":"東京都文京区本郷7丁目1-11","lat":35.70785938,"lon":139.76294619},{"name":"壱岐坂通り","province":"東京都","city":"文京区","address":"東京都文京区本郷2丁目21-4","lat":35.70448739,"lon":139.75906877},{"name":"根津神社入口","province":"東京都","city":"文京区","address":"東京都文京区根津2丁目29-2","lat":35.71998601,"lon":139.76328195},{"name":"本郷小学校前","province":"東京都","city":"文京区","address":"東京都文京区本郷4丁目5-10","lat":35.70759814,"lon":139.7581409},{"name":"三組坂上","province":"東京都","city":"文京区","address":"東京都文京区湯島3丁目4-7","lat":35.70481819,"lon":139.76739057},{"name":"湯島二丁目","province":"東京都","city":"文京区","address":"東京都文京区湯島2丁目18-6","lat":35.70556525,"lon":139.76474622},{"name":"湯島中坂下","province":"東京都","city":"文京区","address":"東京都文京区湯島3丁目25-11","lat":35.70662919,"lon":139.76975705},{"name":"本郷消防署前第二","province":"東京都","city":"文京区","address":"東京都文京区本郷3丁目27-1","lat":35.70596234,"lon":139.76226576},{"name":"大横丁出口","province":"東京都","city":"文京区","address":"東京都文京区本郷3丁目16-9","lat":35.70557623,"lon":139.7611825},{"name":"天神町交番前","province":"東京都","city":"文京区","address":"東京都文京区湯島3丁目33-9","lat":35.70753467,"lon":139.76979589},{"name":"真砂坂上","province":"東京都","city":"文京区","address":"東京都文京区本郷4丁目7-2","lat":35.70754256,"lon":139.75721876},{"name":"文京第六中学校裏","province":"東京都","city":"文京区","address":"東京都文京区向丘1丁目20-7","lat":35.71741103,"lon":139.75792952},{"name":"順天堂横","province":"東京都","city":"文京区","address":"東京都文京区本郷2丁目9-8","lat":35.7028932,"lon":139.76171872},{"name":"清水坂下第二","province":"東京都","city":"文京区","address":"東京都文京区湯島2丁目1-5","lat":35.70317665,"lon":139.7660796},{"name":"慈愛病院前","province":"東京都","city":"文京区","address":"東京都文京区本郷6丁目12-5","lat":35.71313919,"lon":139.75682411},{"name":"中坂上","province":"東京都","city":"文京区","address":"東京都文京区湯島3丁目29-3","lat":35.70686245,"lon":139.76810988},{"name":"弥生門入口","province":"東京都","city":"文京区","address":"東京都文京区本郷7丁目3-1","lat":35.71203394,"lon":139.76277932},{"name":"本郷三丁目金助町","province":"東京都","city":"文京区","address":"東京都文京区本郷3丁目24-3","lat":35.70570963,"lon":139.76352682},{"name":"本郷郵便局前","province":"東京都","city":"文京区","address":"東京都文京区本郷6丁目1-15","lat":35.71227821,"lon":139.75908503},{"name":"湯島二丁目郵便局前","province":"東京都","city":"文京区","address":"東京都文京区湯島2丁目22-4","lat":35.70526257,"lon":139.76665448},{"name":"団子坂下","province":"東京都","city":"文京区","address":"東京都文京区千駄木3丁目37-20","lat":35.72495777,"lon":139.76346517},{"name":"上富士前","province":"東京都","city":"文京区","address":"東京都文京区本駒込5丁目3-3","lat":35.73214247,"lon":139.74994361},{"name":"道灌山下","province":"東京都","city":"文京区","address":"東京都文京区千駄木3丁目49-10","lat":35.73017663,"lon":139.76239287},{"name":"駒本小学校前","province":"東京都","city":"文京区","address":"東京都文京区本駒込1丁目6-14","lat":35.72467957,"lon":139.75342415},{"name":"千駄木二丁目","province":"東京都","city":"文京区","address":"東京都文京区根津1丁目27-5","lat":35.72104417,"lon":139.76182089},{"name":"文京グリーンコート前","province":"東京都","city":"文京区","address":"東京都文京区本駒込2丁目28-10","lat":35.73072031,"lon":139.74744106},{"name":"本駒込五丁目坂下","province":"東京都","city":"文京区","address":"東京都文京区本駒込5丁目40-5","lat":35.73331196,"lon":139.75373775},{"name":"駒込橋","province":"東京都","city":"文京区","address":"東京都文京区本駒込6丁目24-6","lat":35.73534474,"lon":139.74733257},{"name":"東洋大学前","province":"東京都","city":"文京区","address":"東京都文京区白山5丁目28-20","lat":35.72357121,"lon":139.74971335},{"name":"向丘一丁目","province":"東京都","city":"文京区","address":"東京都文京区向丘1丁目13-2","lat":35.72026069,"lon":139.75599352},{"name":"動坂上","province":"東京都","city":"文京区","address":"東京都文京区本駒込3丁目18-16","lat":35.73070131,"lon":139.75746536},{"name":"富士神社入口","province":"東京都","city":"文京区","address":"東京都文京区本駒込3丁目31-5","lat":35.73043718,"lon":139.75133247},{"name":"徳源院前","province":"東京都","city":"文京区","address":"東京都文京区本駒込3丁目7-14","lat":35.72652111,"lon":139.75494345},{"name":"駒込日医大前","province":"東京都","city":"文京区","address":"東京都文京区千駄木1丁目1-5","lat":35.72107737,"lon":139.75886828},{"name":"道灌山下東","province":"東京都","city":"文京区","address":"東京都文京区千駄木3丁目50-12","lat":35.73053219,"lon":139.76296227},{"name":"駒込稲荷坂下","province":"東京都","city":"文京区","address":"東京都文京区本駒込5丁目41-7","lat":35.73339253,"lon":139.75439326},{"name":"団子坂東","province":"東京都","city":"文京区","address":"東京都文京区千駄木2丁目35-7","lat":35.72446896,"lon":139.7641457},{"name":"勤労福祉会館前","province":"東京都","city":"文京区","address":"東京都文京区本駒込4丁目46-2","lat":35.73377311,"lon":139.75567094},{"name":"駒込病院前","province":"東京都","city":"文京区","address":"東京都文京区千駄木5丁目49-4","lat":35.72997639,"lon":139.75756816},{"name":"区立教育の森公園","province":"東京都","city":"文京区","address":"東京都文京区大塚3丁目29-1","lat":35.71964352,"lon":139.73724511},{"name":"区立教育の森公園（注２）","province":"東京都","city":"文京区","address":"東京都文京区大塚3丁目29-1","lat":35.71964352,"lon":139.73724511},{"name":"有限会社　鈴木商店","province":"東京都","city":"文京区","address":"東京都文京区小石川1丁目22-8","lat":35.71478886,"lon":139.75101348},{"name":"有限会社　矢口葬祭","province":"東京都","city":"文京区","address":"東京都文京区大塚5丁目18-1","lat":35.72120703,"lon":139.72992901},{"name":"有限会社　神谷商店","province":"東京都","city":"文京区","address":"東京都文京区根津2丁目20-4","lat":35.71886949,"lon":139.76449023},{"name":"本郷金子商店　株式会社","province":"東京都","city":"文京区","address":"東京都文京区本郷2丁目14-9","lat":35.70450689,"lon":139.76079368},{"name":"磯辺葬儀社","province":"東京都","city":"文京区","address":"東京都文京区目白台2丁目9-6","lat":35.71664613,"lon":139.71887734},{"name":"株式会社　杉元","province":"東京都","city":"文京区","address":"東京都文京区本郷4丁目34-17","lat":35.70900075,"lon":139.75771586},{"name":"おもてなし食堂","province":"東京都","city":"文京区","address":"東京都文京区小石川3丁目4-14","lat":35.71253894,"lon":139.74521961},{"name":"氷川下子ども食堂","province":"東京都","city":"文京区","address":"東京都文京区千石3丁目3-7","lat":35.72480123,"lon":139.73621722},{"name":"おたがいさま食堂せんごく","province":"東京都","city":"文京区","address":"東京都文京区白山2丁目13-6","lat":35.71696348,"lon":139.74601384},{"name":"文京BASE子ども食堂","province":"東京都","city":"文京区","address":"東京都文京区小石川3丁目28-14","lat":35.71350562,"lon":139.75000249},{"name":"おかえりごはん","province":"東京都","city":"文京区","address":"東京都文京区千駄木3丁目42-4","lat":35.72785754,"lon":139.76420951},{"name":"定泉寺こども食堂","province":"東京都","city":"文京区","address":"東京都文京区本駒込1丁目7-12","lat":35.72574333,"lon":139.75300194},{"name":"動坂ごはん","province":"東京都","city":"文京区","address":"東京都文京区本駒込4丁目21-7","lat":35.73209839,"lon":139.75776529},{"name":"壱岐坂下","province":"東京都","city":"文京区","address":"東京都文京区後楽1丁目3-61","lat":35.70486136,"lon":139.75272149},{"name":"伝通院前","province":"東京都","city":"文京区","address":"東京都文京区小石川3丁目1-1","lat":35.71078082,"lon":139.74631679},{"name":"西片","province":"東京都","city":"文京区","address":"東京都文京区小石川1丁目9-1","lat":35.71130314,"lon":139.75246066},{"name":"富坂下","province":"東京都","city":"文京区","address":"東京都文京区小石川2丁目1-1","lat":35.7087284,"lon":139.7515803},{"name":"水道橋","province":"東京都","city":"文京区","address":"東京都文京区後楽1丁目3-61","lat":35.70486136,"lon":139.75272149},{"name":"春日町","province":"東京都","city":"文京区","address":"東京都文京区春日1丁目16-27","lat":35.70812018,"lon":139.75333017},{"name":"千石一丁目","province":"東京都","city":"文京区","address":"東京都文京区本駒込2丁目29-27","lat":35.72887043,"lon":139.74438305},{"name":"安藤坂","province":"東京都","city":"文京区","address":"東京都文京区春日1丁目8-3","lat":35.70796444,"lon":139.74531698},{"name":"白山下","province":"東京都","city":"文京区","address":"東京都文京区白山2丁目39-8","lat":35.71970225,"lon":139.75146054},{"name":"後楽園駅前","province":"東京都","city":"文京区","address":"東京都文京区春日1丁目2-3","lat":35.70735077,"lon":139.75114429},{"name":"窪町東公園前","province":"東京都","city":"文京区","address":"東京都文京区大塚3丁目32","lat":35.72059904,"lon":139.73987817},{"name":"こんにゃくえんま前","province":"東京都","city":"文京区","address":"東京都文京区小石川2丁目23-14","lat":35.71069206,"lon":139.75136356},{"name":"牛天神下","province":"東京都","city":"文京区","address":"東京都文京区後楽2丁目5-1","lat":35.70552861,"lon":139.74602812},{"name":"茗台中学校前","province":"東京都","city":"文京区","address":"東京都文京区春日2丁目9-5","lat":35.71346374,"lon":139.74103385},{"name":"明化小学校入口","province":"東京都","city":"文京区","address":"東京都文京区千石1丁目6-19","lat":35.72699281,"lon":139.74224719},{"name":"小石川植物園前","province":"東京都","city":"文京区","address":"東京都文京区白山2丁目14-6","lat":35.71733564,"lon":139.74502781},{"name":"竹早小学校入口","province":"東京都","city":"文京区","address":"東京都文京区小石川4丁目17-1","lat":35.71536633,"lon":139.74236978},{"name":"小石川税務署前","province":"東京都","city":"文京区","address":"東京都文京区後楽1丁目7-19","lat":35.70662298,"lon":139.74766961},{"name":"白山三丁目","province":"東京都","city":"文京区","address":"東京都文京区小石川5丁目37-6","lat":35.71893261,"lon":139.74201414},{"name":"小石川五丁目","province":"東京都","city":"文京区","address":"東京都文京区小石川5丁目1-12","lat":35.7156718,"lon":139.7399061},{"name":"千石三丁目第二","province":"東京都","city":"文京区","address":"東京都文京区千石3丁目3-7","lat":35.72480123,"lon":139.73621722},{"name":"飯田橋職安前","province":"東京都","city":"文京区","address":"東京都文京区後楽1丁目9-20","lat":35.70364551,"lon":139.74712809},{"name":"白山二丁目","province":"東京都","city":"文京区","address":"東京都文京区白山1丁目6-4","lat":35.71557769,"lon":139.75229946},{"name":"隆慶橋東詰","province":"東京都","city":"文京区","address":"東京都文京区後楽2丁目3-13","lat":35.70475922,"lon":139.74478104},{"name":"第十中学校入口","province":"東京都","city":"文京区","address":"東京都文京区千石1丁目6-12","lat":35.72598458,"lon":139.74184447},{"name":"金富小学校前","province":"東京都","city":"文京区","address":"東京都文京区春日2丁目6-15","lat":35.7108307,"lon":139.74161999},{"name":"白山交番西","province":"東京都","city":"文京区","address":"東京都文京区白山2丁目39-5","lat":35.71968002,"lon":139.751355},{"name":"白山四丁目第一","province":"東京都","city":"文京区","address":"東京都文京区白山4丁目36-12","lat":35.72254903,"lon":139.7476191},{"name":"小石川保健所前","province":"東京都","city":"文京区","address":"東京都文京区春日1丁目9-21","lat":35.70814221,"lon":139.74611413},{"name":"窪町東公園北","province":"東京都","city":"文京区","address":"東京都文京区大塚3丁目38-12","lat":35.72186276,"lon":139.73882267},{"name":"中通り入口","province":"東京都","city":"文京区","address":"東京都文京区春日1丁目7-12","lat":35.7074534,"lon":139.74605861},{"name":"小石川運動場前","province":"東京都","city":"文京区","address":"東京都文京区後楽1丁目8","lat":35.70462595,"lon":139.74661143},{"name":"柳町小学校入口","province":"東京都","city":"文京区","address":"東京都文京区小石川1丁目23-6","lat":35.71370563,"lon":139.75092185},{"name":"白山四丁目","province":"東京都","city":"文京区","address":"東京都文京区白山4丁目34-12","lat":35.72080483,"lon":139.74934402},{"name":"白山交番南","province":"東京都","city":"文京区","address":"東京都文京区白山1丁目31-6","lat":35.71904121,"lon":139.75161333},{"name":"小石川後楽園入口","province":"東京都","city":"文京区","address":"東京都文京区後楽1丁目8","lat":35.70462595,"lon":139.74661143},{"name":"大塚特別支援学校前","province":"東京都","city":"文京区","address":"東京都文京区春日1丁目9-9","lat":35.70802281,"lon":139.7472307},{"name":"新隆慶橋東詰","province":"東京都","city":"文京区","address":"東京都文京区後楽2丁目6-1","lat":35.70525084,"lon":139.74505878},{"name":"茗荷谷駅前","province":"東京都","city":"文京区","address":"東京都文京区小石川5丁目5-5","lat":35.71791038,"lon":139.73713962},{"name":"古川橋","province":"東京都","city":"文京区","address":"東京都文京区関口1丁目17","lat":35.70882798,"lon":139.73519287},{"name":"目白坂下","province":"東京都","city":"文京区","address":"東京都文京区音羽1丁目25-15","lat":35.71244413,"lon":139.73040427},{"name":"目白台二丁目","province":"東京都","city":"文京区","address":"東京都文京区目白台1丁目15-9","lat":35.71664333,"lon":139.7181413},{"name":"大塚三丁目","province":"東京都","city":"文京区","address":"東京都文京区大塚4丁目45-11","lat":35.72181258,"lon":139.73188993},{"name":"護国寺前","province":"東京都","city":"文京区","address":"東京都文京区大塚5丁目40-8","lat":35.72028204,"lon":139.72657655},{"name":"大塚警察署前","province":"東京都","city":"文京区","address":"東京都文京区音羽2丁目12-26","lat":35.71707411,"lon":139.727996},{"name":"護国寺南","province":"東京都","city":"文京区","address":"東京都文京区音羽2丁目11-25","lat":35.71900999,"lon":139.72723488},{"name":"大塚五丁目","province":"東京都","city":"文京区","address":"東京都文京区大塚4丁目51-5","lat":35.72531213,"lon":139.73044825},{"name":"目白台郵便局前","province":"東京都","city":"文京区","address":"東京都文京区目白台2丁目7-8","lat":35.71785996,"lon":139.72162984},{"name":"護国寺西","province":"東京都","city":"文京区","address":"東京都文京区音羽2丁目12","lat":35.71938771,"lon":139.72674046},{"name":"大塚四丁目","province":"東京都","city":"文京区","address":"東京都文京区大塚3丁目11-7","lat":35.72153767,"lon":139.733887},{"name":"大塚一丁目","province":"東京都","city":"文京区","address":"東京都文京区大塚3丁目3-14","lat":35.71920185,"lon":139.73525363},{"name":"江戸川公園前","province":"東京都","city":"文京区","address":"東京都文京区音羽1丁目1-1","lat":35.71119986,"lon":139.73157366},{"name":"目白台三丁目","province":"東京都","city":"文京区","address":"東京都文京区目白台1丁目23-7","lat":35.71500202,"lon":139.72446581},{"name":"音羽一丁目","province":"東京都","city":"文京区","address":"東京都文京区音羽1丁目20-2","lat":35.71510769,"lon":139.72913762},{"name":"音羽一丁目南","province":"東京都","city":"文京区","address":"東京都文京区音羽1丁目22-14","lat":35.71390228,"lon":139.72967651},{"name":"坂下通り入口","province":"東京都","city":"文京区","address":"東京都文京区大塚5丁目17-3","lat":35.72129314,"lon":139.73017899},{"name":"目白台二丁目第三","province":"東京都","city":"文京区","address":"東京都文京区目白台2丁目14-11","lat":35.7188571,"lon":139.72284637},{"name":"小日向一丁目","province":"東京都","city":"文京区","address":"東京都文京区春日2丁目8-13","lat":35.71093066,"lon":139.74042843},{"name":"大日坂下","province":"東京都","city":"文京区","address":"東京都文京区小日向2丁目18-5","lat":35.71097493,"lon":139.73351794},{"name":"華水橋","province":"東京都","city":"文京区","address":"東京都文京区関口1丁目20-6","lat":35.70939454,"lon":139.73325691},{"name":"大塚四丁目第二","province":"東京都","city":"文京区","address":"東京都文京区大塚3丁目27-2","lat":35.72224318,"lon":139.73566737},{"name":"大塚公園入口","province":"東京都","city":"文京区","address":"東京都文京区大塚4丁目49","lat":35.72415396,"lon":139.73177596},{"name":"跡見学園前","province":"東京都","city":"文京区","address":"東京都文京区大塚2丁目1-18","lat":35.71814638,"lon":139.73367881},{"name":"開運坂下","province":"東京都","city":"文京区","address":"東京都文京区大塚5丁目13-11","lat":35.7252593,"lon":139.72848453},{"name":"目白台運動場前","province":"東京都","city":"文京区","address":"東京都文京区目白台2丁目3-2","lat":35.71597961,"lon":139.72155769},{"name":"筑波大附属小学校入口","province":"東京都","city":"文京区","address":"東京都文京区大塚3丁目6-7","lat":35.72031559,"lon":139.73425369},{"name":"筑波大附属中学校前","province":"東京都","city":"文京区","address":"東京都文京区大塚2丁目1-1","lat":35.71878795,"lon":139.73262888},{"name":"目白台三丁目第二","province":"東京都","city":"文京区","address":"東京都文京区目白台1丁目21-2","lat":35.71430764,"lon":139.72373535},{"name":"筑波大学正門前","province":"東京都","city":"文京区","address":"東京都文京区大塚3丁目30","lat":35.71982964,"lon":139.73842},{"name":"茗荷谷駅前交番前","province":"東京都","city":"文京区","address":"東京都文京区小石川5丁目5-7","lat":35.71808257,"lon":139.73667576},{"name":"根津一丁目","province":"東京都","city":"文京区","address":"東京都文京区根津2丁目12-7","lat":35.71785574,"lon":139.76550131},{"name":"東大農学部前","province":"東京都","city":"文京区","address":"東京都文京区弥生1丁目1-1","lat":35.71678895,"lon":139.76026548},{"name":"東大正門前","province":"東京都","city":"文京区","address":"東京都文京区本郷7丁目3-1","lat":35.71203394,"lon":139.76277932},{"name":"湯島五差路","province":"東京都","city":"文京区","address":"東京都文京区本郷3丁目3-12","lat":35.70305157,"lon":139.76312697},{"name":"本郷二丁目","province":"東京都","city":"文京区","address":"東京都文京区本郷3丁目15-1","lat":35.70460969,"lon":139.76178529},{"name":"順天堂前","province":"東京都","city":"文京区","address":"東京都文京区本郷3丁目1-3","lat":35.70250161,"lon":139.76261313},{"name":"根津小学校入口","province":"東京都","city":"文京区","address":"東京都文京区根津2丁目20-7","lat":35.71920834,"lon":139.76417635},{"name":"本郷弥生","province":"東京都","city":"文京区","address":"東京都文京区弥生1丁目1-1","lat":35.71678895,"lon":139.76026548},{"name":"お茶の水","province":"東京都","city":"文京区","address":"東京都文京区湯島1丁目5-45","lat":35.70099629,"lon":139.76491864},{"name":"本郷三丁目","province":"東京都","city":"文京区","address":"東京都文京区本郷4丁目2-1","lat":35.70765375,"lon":139.76038242},{"name":"壱岐坂上","province":"東京都","city":"文京区","address":"東京都文京区本郷2丁目26-1","lat":35.7048763,"lon":139.76080755},{"name":"清水坂下","province":"東京都","city":"文京区","address":"東京都文京区湯島2丁目1-1","lat":35.70305723,"lon":139.76642959},{"name":"三組坂下","province":"東京都","city":"文京区","address":"東京都文京区湯島3丁目14-10","lat":35.7048766,"lon":139.7696349},{"name":"本郷追分","province":"東京都","city":"文京区","address":"東京都文京区向丘2丁目8-7","lat":35.71949969,"lon":139.75717399},{"name":"本郷消防署前","province":"東京都","city":"文京区","address":"東京都文京区本郷7丁目1-11","lat":35.70785938,"lon":139.76294619},{"name":"壱岐坂通り","province":"東京都","city":"文京区","address":"東京都文京区本郷2丁目21-4","lat":35.70448739,"lon":139.75906877},{"name":"根津神社入口","province":"東京都","city":"文京区","address":"東京都文京区根津2丁目29-2","lat":35.71998601,"lon":139.76328195},{"name":"本郷小学校前","province":"東京都","city":"文京区","address":"東京都文京区本郷4丁目5-10","lat":35.70759814,"lon":139.7581409},{"name":"三組坂上","province":"東京都","city":"文京区","address":"東京都文京区湯島3丁目4-7","lat":35.70481819,"lon":139.76739057},{"name":"湯島二丁目","province":"東京都","city":"文京区","address":"東京都文京区湯島2丁目18-6","lat":35.70556525,"lon":139.76474622},{"name":"湯島中坂下","province":"東京都","city":"文京区","address":"東京都文京区湯島3丁目25-11","lat":35.70662919,"lon":139.76975705},{"name":"本郷消防署前第二","province":"東京都","city":"文京区","address":"東京都文京区本郷3丁目27-1","lat":35.70596234,"lon":139.76226576},{"name":"大横丁出口","province":"東京都","city":"文京区","address":"東京都文京区本郷3丁目16-9","lat":35.70557623,"lon":139.7611825},{"name":"天神町交番前","province":"東京都","city":"文京区","address":"東京都文京区湯島3丁目33-9","lat":35.70753467,"lon":139.76979589},{"name":"真砂坂上","province":"東京都","city":"文京区","address":"東京都文京区本郷4丁目7-2","lat":35.70754256,"lon":139.75721876},{"name":"文京第六中学校裏","province":"東京都","city":"文京区","address":"東京都文京区向丘1丁目20-7","lat":35.71741103,"lon":139.75792952},{"name":"順天堂横","province":"東京都","city":"文京区","address":"東京都文京区本郷2丁目9-8","lat":35.7028932,"lon":139.76171872},{"name":"清水坂下第二","province":"東京都","city":"文京区","address":"東京都文京区湯島2丁目1-5","lat":35.70317665,"lon":139.7660796},{"name":"慈愛病院前","province":"東京都","city":"文京区","address":"東京都文京区本郷6丁目12-5","lat":35.71313919,"lon":139.75682411},{"name":"中坂上","province":"東京都","city":"文京区","address":"東京都文京区湯島3丁目29-3","lat":35.70686245,"lon":139.76810988},{"name":"弥生門入口","province":"東京都","city":"文京区","address":"東京都文京区本郷7丁目3-1","lat":35.71203394,"lon":139.76277932},{"name":"本郷三丁目金助町","province":"東京都","city":"文京区","address":"東京都文京区本郷3丁目24-3","lat":35.70570963,"lon":139.76352682},{"name":"本郷郵便局前","province":"東京都","city":"文京区","address":"東京都文京区本郷6丁目1-15","lat":35.71227821,"lon":139.75908503},{"name":"湯島二丁目郵便局前","province":"東京都","city":"文京区","address":"東京都文京区湯島2丁目22-4","lat":35.70526257,"lon":139.76665448},{"name":"団子坂下","province":"東京都","city":"文京区","address":"東京都文京区千駄木3丁目37-20","lat":35.72495777,"lon":139.76346517},{"name":"上富士前","province":"東京都","city":"文京区","address":"東京都文京区本駒込5丁目3-3","lat":35.73214247,"lon":139.74994361},{"name":"道灌山下","province":"東京都","city":"文京区","address":"東京都文京区千駄木3丁目49-10","lat":35.73017663,"lon":139.76239287},{"name":"駒本小学校前","province":"東京都","city":"文京区","address":"東京都文京区本駒込1丁目6-14","lat":35.72467957,"lon":139.75342415},{"name":"千駄木二丁目","province":"東京都","city":"文京区","address":"東京都文京区根津1丁目27-5","lat":35.72104417,"lon":139.76182089},{"name":"文京グリーンコート前","province":"東京都","city":"文京区","address":"東京都文京区本駒込2丁目28-10","lat":35.73072031,"lon":139.74744106},{"name":"本駒込五丁目坂下","province":"東京都","city":"文京区","address":"東京都文京区本駒込5丁目40-5","lat":35.73331196,"lon":139.75373775},{"name":"駒込橋","province":"東京都","city":"文京区","address":"東京都文京区本駒込6丁目24-6","lat":35.73534474,"lon":139.74733257},{"name":"東洋大学前","province":"東京都","city":"文京区","address":"東京都文京区白山5丁目28-20","lat":35.72357121,"lon":139.74971335},{"name":"向丘一丁目","province":"東京都","city":"文京区","address":"東京都文京区向丘1丁目13-2","lat":35.72026069,"lon":139.75599352},{"name":"動坂上","province":"東京都","city":"文京区","address":"東京都文京区本駒込3丁目18-16","lat":35.73070131,"lon":139.75746536},{"name":"富士神社入口","province":"東京都","city":"文京区","address":"東京都文京区本駒込3丁目31-5","lat":35.73043718,"lon":139.75133247},{"name":"徳源院前","province":"東京都","city":"文京区","address":"東京都文京区本駒込3丁目7-14","lat":35.72652111,"lon":139.75494345},{"name":"駒込日医大前","province":"東京都","city":"文京区","address":"東京都文京区千駄木1丁目1-5","lat":35.72107737,"lon":139.75886828},{"name":"道灌山下東","province":"東京都","city":"文京区","address":"東京都文京区千駄木3丁目50-12","lat":35.73053219,"lon":139.76296227},{"name":"駒込稲荷坂下","province":"東京都","city":"文京区","address":"東京都文京区本駒込5丁目41-7","lat":35.73339253,"lon":139.75439326},{"name":"団子坂東","province":"東京都","city":"文京区","address":"東京都文京区千駄木2丁目35-7","lat":35.72446896,"lon":139.7641457},{"name":"勤労福祉会館前","province":"東京都","city":"文京区","address":"東京都文京区本駒込4丁目46-2","lat":35.73377311,"lon":139.75567094},{"name":"駒込病院前","province":"東京都","city":"文京区","address":"東京都文京区千駄木5丁目49-4","lat":35.72997639,"lon":139.75756816},{"name":"区立教育の森公園","province":"東京都","city":"文京区","address":"東京都文京区大塚3丁目29-1","lat":35.71964352,"lon":139.73724511},{"name":"区立教育の森公園（注２）","province":"東京都","city":"文京区","address":"東京都文京区大塚3丁目29-1","lat":35.71964352,"lon":139.73724511},{"name":"有限会社　鈴木商店","province":"東京都","city":"文京区","address":"東京都文京区小石川1丁目22-8","lat":35.71478886,"lon":139.75101348},{"name":"有限会社　矢口葬祭","province":"東京都","city":"文京区","address":"東京都文京区大塚5丁目18-1","lat":35.72120703,"lon":139.72992901},{"name":"有限会社　神谷商店","province":"東京都","city":"文京区","address":"東京都文京区根津2丁目20-4","lat":35.71886949,"lon":139.76449023},{"name":"本郷金子商店　株式会社","province":"東京都","city":"文京区","address":"東京都文京区本郷2丁目14-9","lat":35.70450689,"lon":139.76079368},{"name":"磯辺葬儀社","province":"東京都","city":"文京区","address":"東京都文京区目白台2丁目9-6","lat":35.71664613,"lon":139.71887734},{"name":"株式会社　杉元","province":"東京都","city":"文京区","address":"東京都文京区本郷4丁目34-17","lat":35.70900075,"lon":139.75771586},{"name":"おもてなし食堂","province":"東京都","city":"文京区","address":"東京都文京区小石川3丁目4-14","lat":35.71253894,"lon":139.74521961},{"name":"氷川下子ども食堂","province":"東京都","city":"文京区","address":"東京都文京区千石3丁目3-7","lat":35.72480123,"lon":139.73621722},{"name":"おたがいさま食堂せんごく","province":"東京都","city":"文京区","address":"東京都文京区白山2丁目13-6","lat":35.71696348,"lon":139.74601384},{"name":"文京BASE子ども食堂","province":"東京都","city":"文京区","address":"東京都文京区小石川3丁目28-14","lat":35.71350562,"lon":139.75000249},{"name":"おかえりごはん","province":"東京都","city":"文京区","address":"東京都文京区千駄木3丁目42-4","lat":35.72785754,"lon":139.76420951},{"name":"定泉寺こども食堂","province":"東京都","city":"文京区","address":"東京都文京区本駒込1丁目7-12","lat":35.72574333,"lon":139.75300194},{"name":"動坂ごはん","province":"東京都","city":"文京区","address":"東京都文京区本駒込4丁目21-7","lat":35.73209839,"lon":139.75776529},{"name":"有限会社　鈴木商店","province":"東京都","city":"文京区","address":"東京都文京区小石川1丁目22-8","lat":35.71478886,"lon":139.75101348},{"name":"有限会社　矢口葬祭","province":"東京都","city":"文京区","address":"東京都文京区大塚5丁目18-1","lat":35.72120703,"lon":139.72992901},{"name":"有限会社　神谷商店","province":"東京都","city":"文京区","address":"東京都文京区根津2丁目20-4","lat":35.71886949,"lon":139.76449023},{"name":"本郷金子商店　株式会社","province":"東京都","city":"文京区","address":"東京都文京区本郷2丁目14-9","lat":35.70450689,"lon":139.76079368},{"name":"磯辺葬儀社","province":"東京都","city":"文京区","address":"東京都文京区目白台2丁目9-6","lat":35.71664613,"lon":139.71887734},{"name":"株式会社　杉元","province":"東京都","city":"文京区","address":"東京都文京区本郷4丁目34-17","lat":35.70900075,"lon":139.75771586},{"name":"おもてなし食堂","province":"東京都","city":"文京区","address":"東京都文京区小石川3丁目4-14","lat":35.71253894,"lon":139.74521961},{"name":"氷川下子ども食堂","province":"東京都","city":"文京区","address":"東京都文京区千石3丁目3-7","lat":35.72480123,"lon":139.73621722},{"name":"おたがいさま食堂せんごく","province":"東京都","city":"文京区","address":"東京都文京区白山2丁目13-6","lat":35.71696348,"lon":139.74601384},{"name":"文京BASE子ども食堂","province":"東京都","city":"文京区","address":"東京都文京区小石川3丁目28-14","lat":35.71350562,"lon":139.75000249},{"name":"おかえりごはん","province":"東京都","city":"文京区","address":"東京都文京区千駄木3丁目42-4","lat":35.72785754,"lon":139.76420951},{"name":"定泉寺こども食堂","province":"東京都","city":"文京区","address":"東京都文京区本駒込1丁目7-12","lat":35.72574333,"lon":139.75300194},{"name":"動坂ごはん","province":"東京都","city":"文京区","address":"東京都文京区本駒込4丁目21-7","lat":35.73209839,"lon":139.75776529},{"name":"有限会社　鈴木商店","province":"東京都","city":"文京区","address":"東京都文京区小石川1丁目22-8","lat":35.71478886,"lon":139.75101348},{"name":"有限会社　矢口葬祭","province":"東京都","city":"文京区","address":"東京都文京区大塚5丁目18-1","lat":35.72120703,"lon":139.72992901},{"name":"有限会社　神谷商店","province":"東京都","city":"文京区","address":"東京都文京区根津2丁目20-4","lat":35.71886949,"lon":139.76449023},{"name":"本郷金子商店　株式会社","province":"東京都","city":"文京区","address":"東京都文京区本郷2丁目14-9","lat":35.70450689,"lon":139.76079368},{"name":"磯辺葬儀社","province":"東京都","city":"文京区","address":"東京都文京区目白台2丁目9-6","lat":35.71664613,"lon":139.71887734},{"name":"株式会社　杉元","province":"東京都","city":"文京区","address":"東京都文京区本郷4丁目34-17","lat":35.70900075,"lon":139.75771586},{"name":"おもてなし食堂","province":"東京都","city":"文京区","address":"東京都文京区小石川3丁目4-14","lat":35.71253894,"lon":139.74521961},{"name":"氷川下子ども食堂","province":"東京都","city":"文京区","address":"東京都文京区千石3丁目3-7","lat":35.72480123,"lon":139.73621722},{"name":"おたがいさま食堂せんごく","province":"東京都","city":"文京区","address":"東京都文京区白山2丁目13-6","lat":35.71696348,"lon":139.74601384},{"name":"文京BASE子ども食堂","province":"東京都","city":"文京区","address":"東京都文京区小石川3丁目28-14","lat":35.71350562,"lon":139.75000249},{"name":"おかえりごはん","province":"東京都","city":"文京区","address":"東京都文京区千駄木3丁目42-4","lat":35.72785754,"lon":139.76420951},{"name":"定泉寺こども食堂","province":"東京都","city":"文京区","address":"東京都文京区本駒込1丁目7-12","lat":35.72574333,"lon":139.75300194},{"name":"動坂ごはん","province":"東京都","city":"文京区","address":"東京都文京区本駒込4丁目21-7","lat":35.73209839,"lon":139.75776529},{"name":"有限会社　鈴木商店","province":"東京都","city":"文京区","address":"東京都文京区小石川1丁目22-8","lat":35.71478886,"lon":139.75101348},{"name":"有限会社　矢口葬祭","province":"東京都","city":"文京区","address":"東京都文京区大塚5丁目18-1","lat":35.72120703,"lon":139.72992901},{"name":"有限会社　神谷商店","province":"東京都","city":"文京区","address":"東京都文京区根津2丁目20-4","lat":35.71886949,"lon":139.76449023},{"name":"本郷金子商店　株式会社","province":"東京都","city":"文京区","address":"東京都文京区本郷2丁目14-9","lat":35.70450689,"lon":139.76079368},{"name":"磯辺葬儀社","province":"東京都","city":"文京区","address":"東京都文京区目白台2丁目9-6","lat":35.71664613,"lon":139.71887734},{"name":"株式会社　杉元","province":"東京都","city":"文京区","address":"東京都文京区本郷4丁目34-17","lat":35.70900075,"lon":139.75771586},{"name":"おもてなし食堂","province":"東京都","city":"文京区","address":"東京都文京区小石川3丁目4-14","lat":35.71253894,"lon":139.74521961},{"name":"氷川下子ども食堂","province":"東京都","city":"文京区","address":"東京都文京区千石3丁目3-7","lat":35.72480123,"lon":139.73621722},{"name":"おたがいさま食堂せんごく","province":"東京都","city":"文京区","address":"東京都文京区白山2丁目13-6","lat":35.71696348,"lon":139.74601384},{"name":"文京BASE子ども食堂","province":"東京都","city":"文京区","address":"東京都文京区小石川3丁目28-14","lat":35.71350562,"lon":139.75000249},{"name":"おかえりごはん","province":"東京都","city":"文京区","address":"東京都文京区千駄木3丁目42-4","lat":35.72785754,"lon":139.76420951},{"name":"定泉寺こども食堂","province":"東京都","city":"文京区","address":"東京都文京区本駒込1丁目7-12","lat":35.72574333,"lon":139.75300194},{"name":"動坂ごはん","province":"東京都","city":"文京区","address":"東京都文京区本駒込4丁目21-7","lat":35.73209839,"lon":139.75776529},{"name":"有限会社　鈴木商店","province":"東京都","city":"文京区","address":"東京都文京区小石川1丁目22-8","lat":35.71478886,"lon":139.75101348},{"name":"有限会社　矢口葬祭","province":"東京都","city":"文京区","address":"東京都文京区大塚5丁目18-1","lat":35.72120703,"lon":139.72992901},{"name":"有限会社　神谷商店","province":"東京都","city":"文京区","address":"東京都文京区根津2丁目20-4","lat":35.71886949,"lon":139.76449023},{"name":"本郷金子商店　株式会社","province":"東京都","city":"文京区","address":"東京都文京区本郷2丁目14-9","lat":35.70450689,"lon":139.76079368},{"name":"磯辺葬儀社","province":"東京都","city":"文京区","address":"東京都文京区目白台2丁目9-6","lat":35.71664613,"lon":139.71887734},{"name":"株式会社　杉元","province":"東京都","city":"文京区","address":"東京都文京区本郷4丁目34-17","lat":35.70900075,"lon":139.75771586},{"name":"おもてなし食堂","province":"東京都","city":"文京区","address":"東京都文京区小石川3丁目4-14","lat":35.71253894,"lon":139.74521961},{"name":"氷川下子ども食堂","province":"東京都","city":"文京区","address":"東京都文京区千石3丁目3-7","lat":35.72480123,"lon":139.73621722},{"name":"おたがいさま食堂せんごく","province":"東京都","city":"文京区","address":"東京都文京区白山2丁目13-6","lat":35.71696348,"lon":139.74601384},{"name":"文京BASE子ども食堂","province":"東京都","city":"文京区","address":"東京都文京区小石川3丁目28-14","lat":35.71350562,"lon":139.75000249},{"name":"おかえりごはん","province":"東京都","city":"文京区","address":"東京都文京区千駄木3丁目42-4","lat":35.72785754,"lon":139.76420951},{"name":"定泉寺こども食堂","province":"東京都","city":"文京区","address":"東京都文京区本駒込1丁目7-12","lat":35.72574333,"lon":139.75300194},{"name":"動坂ごはん","province":"東京都","city":"文京区","address":"東京都文京区本駒込4丁目21-7","lat":35.73209839,"lon":139.75776529},{"name":"有限会社　鈴木商店","province":"東京都","city":"文京区","address":"東京都文京区小石川1丁目22-8","lat":35.71478886,"lon":139.75101348},{"name":"有限会社　矢口葬祭","province":"東京都","city":"文京区","address":"東京都文京区大塚5丁目18-1","lat":35.72120703,"lon":139.72992901},{"name":"有限会社　神谷商店","province":"東京都","city":"文京区","address":"東京都文京区根津2丁目20-4","lat":35.71886949,"lon":139.76449023},{"name":"本郷金子商店　株式会社","province":"東京都","city":"文京区","address":"東京都文京区本郷2丁目14-9","lat":35.70450689,"lon":139.76079368},{"name":"磯辺葬儀社","province":"東京都","city":"文京区","address":"東京都文京区目白台2丁目9-6","lat":35.71664613,"lon":139.71887734},{"name":"株式会社　杉元","province":"東京都","city":"文京区","address":"東京都文京区本郷4丁目34-17","lat":35.70900075,"lon":139.75771586},{"name":"おもてなし食堂","province":"東京都","city":"文京区","address":"東京都文京区小石川3丁目4-14","lat":35.71253894,"lon":139.74521961},{"name":"氷川下子ども食堂","province":"東京都","city":"文京区","address":"東京都文京区千石3丁目3-7","lat":35.72480123,"lon":139.73621722},{"name":"おたがいさま食堂せんごく","province":"東京都","city":"文京区","address":"東京都文京区白山2丁目13-6","lat":35.71696348,"lon":139.74601384},{"name":"文京BASE子ども食堂","province":"東京都","city":"文京区","address":"東京都文京区小石川3丁目28-14","lat":35.71350562,"lon":139.75000249},{"name":"おかえりごはん","province":"東京都","city":"文京区","address":"東京都文京区千駄木3丁目42-4","lat":35.72785754,"lon":139.76420951},{"name":"定泉寺こども食堂","province":"東京都","city":"文京区","address":"東京都文京区本駒込1丁目7-12","lat":35.72574333,"lon":139.75300194},{"name":"動坂ごはん","province":"東京都","city":"文京区","address":"東京都文京区本駒込4丁目21-7","lat":35.73209839,"lon":139.75776529},{"name":"有限会社　鈴木商店","province":"東京都","city":"文京区","address":"東京都文京区小石川1丁目22-8","lat":35.71478886,"lon":139.75101348},{"name":"有限会社　矢口葬祭","province":"東京都","city":"文京区","address":"東京都文京区大塚5丁目18-1","lat":35.72120703,"lon":139.72992901},{"name":"有限会社　神谷商店","province":"東京都","city":"文京区","address":"東京都文京区根津2丁目20-4","lat":35.71886949,"lon":139.76449023},{"name":"本郷金子商店　株式会社","province":"東京都","city":"文京区","address":"東京都文京区本郷2丁目14-9","lat":35.70450689,"lon":139.76079368},{"name":"磯辺葬儀社","province":"東京都","city":"文京区","address":"東京都文京区目白台2丁目9-6","lat":35.71664613,"lon":139.71887734},{"name":"株式会社　杉元","province":"東京都","city":"文京区","address":"東京都文京区本郷4丁目34-17","lat":35.70900075,"lon":139.75771586},{"name":"おもてなし食堂","province":"東京都","city":"文京区","address":"東京都文京区小石川3丁目4-14","lat":35.71253894,"lon":139.74521961},{"name":"氷川下子ども食堂","province":"東京都","city":"文京区","address":"東京都文京区千石3丁目3-7","lat":35.72480123,"lon":139.73621722},{"name":"おたがいさま食堂せんごく","province":"東京都","city":"文京区","address":"東京都文京区白山2丁目13-6","lat":35.71696348,"lon":139.74601384},{"name":"文京BASE子ども食堂","province":"東京都","city":"文京区","address":"東京都文京区小石川3丁目28-14","lat":35.71350562,"lon":139.75000249},{"name":"おかえりごはん","province":"東京都","city":"文京区","address":"東京都文京区千駄木3丁目42-4","lat":35.72785754,"lon":139.76420951},{"name":"定泉寺こども食堂","province":"東京都","city":"文京区","address":"東京都文京区本駒込1丁目7-12","lat":35.72574333,"lon":139.75300194},{"name":"動坂ごはん","province":"東京都","city":"文京区","address":"東京都文京区本駒込4丁目21-7","lat":35.73209839,"lon":139.75776529},{"name":"有限会社　鈴木商店","province":"東京都","city":"文京区","address":"東京都文京区小石川1丁目22-8","lat":35.71478886,"lon":139.75101348},{"name":"有限会社　矢口葬祭","province":"東京都","city":"文京区","address":"東京都文京区大塚5丁目18-1","lat":35.72120703,"lon":139.72992901},{"name":"有限会社　神谷商店","province":"東京都","city":"文京区","address":"東京都文京区根津2丁目20-4","lat":35.71886949,"lon":139.76449023},{"name":"本郷金子商店　株式会社","province":"東京都","city":"文京区","address":"東京都文京区本郷2丁目14-9","lat":35.70450689,"lon":139.76079368},{"name":"磯辺葬儀社","province":"東京都","city":"文京区","address":"東京都文京区目白台2丁目9-6","lat":35.71664613,"lon":139.71887734},{"name":"株式会社　杉元","province":"東京都","city":"文京区","address":"東京都文京区本郷4丁目34-17","lat":35.70900075,"lon":139.75771586},{"name":"おもてなし食堂","province":"東京都","city":"文京区","address":"東京都文京区小石川3丁目4-14","lat":35.71253894,"lon":139.74521961},{"name":"氷川下子ども食堂","province":"東京都","city":"文京区","address":"東京都文京区千石3丁目3-7","lat":35.72480123,"lon":139.73621722},{"name":"おたがいさま食堂せんごく","province":"東京都","city":"文京区","address":"東京都文京区白山2丁目13-6","lat":35.71696348,"lon":139.74601384},{"name":"文京BASE子ども食堂","province":"東京都","city":"文京区","address":"東京都文京区小石川3丁目28-14","lat":35.71350562,"lon":139.75000249},{"name":"おかえりごはん","province":"東京都","city":"文京区","address":"東京都文京区千駄木3丁目42-4","lat":35.72785754,"lon":139.76420951},{"name":"定泉寺こども食堂","province":"東京都","city":"文京区","address":"東京都文京区本駒込1丁目7-12","lat":35.72574333,"lon":139.75300194},{"name":"動坂ごはん","province":"東京都","city":"文京区","address":"東京都文京区本駒込4丁目21-7","lat":35.73209839,"lon":139.75776529},{"name":"有限会社　鈴木商店","province":"東京都","city":"文京区","address":"東京都文京区小石川1丁目22-8","lat":35.71478886,"lon":139.75101348},{"name":"有限会社　矢口葬祭","province":"東京都","city":"文京区","address":"東京都文京区大塚5丁目18-1","lat":35.72120703,"lon":139.72992901},{"name":"有限会社　神谷商店","province":"東京都","city":"文京区","address":"東京都文京区根津2丁目20-4","lat":35.71886949,"lon":139.76449023},{"name":"本郷金子商店　株式会社","province":"東京都","city":"文京区","address":"東京都文京区本郷2丁目14-9","lat":35.70450689,"lon":139.76079368},{"name":"磯辺葬儀社","province":"東京都","city":"文京区","address":"東京都文京区目白台2丁目9-6","lat":35.71664613,"lon":139.71887734},{"name":"株式会社　杉元","province":"東京都","city":"文京区","address":"東京都文京区本郷4丁目34-17","lat":35.70900075,"lon":139.75771586},{"name":"おもてなし食堂","province":"東京都","city":"文京区","address":"東京都文京区小石川3丁目4-14","lat":35.71253894,"lon":139.74521961},{"name":"氷川下子ども食堂","province":"東京都","city":"文京区","address":"東京都文京区千石3丁目3-7","lat":35.72480123,"lon":139.73621722},{"name":"おたがいさま食堂せんごく","province":"東京都","city":"文京区","address":"東京都文京区白山2丁目13-6","lat":35.71696348,"lon":139.74601384},{"name":"文京BASE子ども食堂","province":"東京都","city":"文京区","address":"東京都文京区小石川3丁目28-14","lat":35.71350562,"lon":139.75000249},{"name":"おかえりごはん","province":"東京都","city":"文京区","address":"東京都文京区千駄木3丁目42-4","lat":35.72785754,"lon":139.76420951},{"name":"定泉寺こども食堂","province":"東京都","city":"文京区","address":"東京都文京区本駒込1丁目7-12","lat":35.72574333,"lon":139.75300194},{"name":"動坂ごはん","province":"東京都","city":"文京区","address":"東京都文京区本駒込4丁目21-7","lat":35.73209839,"lon":139.75776529},{"name":"有限会社　鈴木商店","province":"東京都","city":"文京区","address":"東京都文京区小石川1丁目22-8","lat":35.71478886,"lon":139.75101348},{"name":"有限会社　矢口葬祭","province":"東京都","city":"文京区","address":"東京都文京区大塚5丁目18-1","lat":35.72120703,"lon":139.72992901},{"name":"有限会社　神谷商店","province":"東京都","city":"文京区","address":"東京都文京区根津2丁目20-4","lat":35.71886949,"lon":139.76449023},{"name":"本郷金子商店　株式会社","province":"東京都","city":"文京区","address":"東京都文京区本郷2丁目14-9","lat":35.70450689,"lon":139.76079368},{"name":"磯辺葬儀社","province":"東京都","city":"文京区","address":"東京都文京区目白台2丁目9-6","lat":35.71664613,"lon":139.71887734},{"name":"株式会社　杉元","province":"東京都","city":"文京区","address":"東京都文京区本郷4丁目34-17","lat":35.70900075,"lon":139.75771586},{"name":"おもてなし食堂","province":"東京都","city":"文京区","address":"東京都文京区小石川3丁目4-14","lat":35.71253894,"lon":139.74521961},{"name":"氷川下子ども食堂","province":"東京都","city":"文京区","address":"東京都文京区千石3丁目3-7","lat":35.72480123,"lon":139.73621722},{"name":"おたがいさま食堂せんごく","province":"東京都","city":"文京区","address":"東京都文京区白山2丁目13-6","lat":35.71696348,"lon":139.74601384},{"name":"文京BASE子ども食堂","province":"東京都","city":"文京区","address":"東京都文京区小石川3丁目28-14","lat":35.71350562,"lon":139.75000249},{"name":"おかえりごはん","province":"東京都","city":"文京区","address":"東京都文京区千駄木3丁目42-4","lat":35.72785754,"lon":139.76420951},{"name":"定泉寺こども食堂","province":"東京都","city":"文京区","address":"東京都文京区本駒込1丁目7-12","lat":35.72574333,"lon":139.75300194},{"name":"動坂ごはん","province":"東京都","city":"文京区","address":"東京都文京区本駒込4丁目21-7","lat":35.73209839,"lon":139.75776529},{"name":"有限会社　鈴木商店","province":"東京都","city":"文京区","address":"東京都文京区小石川1丁目22-8","lat":35.71478886,"lon":139.75101348},{"name":"有限会社　矢口葬祭","province":"東京都","city":"文京区","address":"東京都文京区大塚5丁目18-1","lat":35.72120703,"lon":139.72992901},{"name":"有限会社　神谷商店","province":"東京都","city":"文京区","address":"東京都文京区根津2丁目20-4","lat":35.71886949,"lon":139.76449023},{"name":"本郷金子商店　株式会社","province":"東京都","city":"文京区","address":"東京都文京区本郷2丁目14-9","lat":35.70450689,"lon":139.76079368},{"name":"磯辺葬儀社","province":"東京都","city":"文京区","address":"東京都文京区目白台2丁目9-6","lat":35.71664613,"lon":139.71887734},{"name":"株式会社　杉元","province":"東京都","city":"文京区","address":"東京都文京区本郷4丁目34-17","lat":35.70900075,"lon":139.75771586},{"name":"おもてなし食堂","province":"東京都","city":"文京区","address":"東京都文京区小石川3丁目4-14","lat":35.71253894,"lon":139.74521961},{"name":"氷川下子ども食堂","province":"東京都","city":"文京区","address":"東京都文京区千石3丁目3-7","lat":35.72480123,"lon":139.73621722},{"name":"おたがいさま食堂せんごく","province":"東京都","city":"文京区","address":"東京都文京区白山2丁目13-6","lat":35.71696348,"lon":139.74601384},{"name":"文京BASE子ども食堂","province":"東京都","city":"文京区","address":"東京都文京区小石川3丁目28-14","lat":35.71350562,"lon":139.75000249},{"name":"おかえりごはん","province":"東京都","city":"文京区","address":"東京都文京区千駄木3丁目42-4","lat":35.72785754,"lon":139.76420951},{"name":"定泉寺こども食堂","province":"東京都","city":"文京区","address":"東京都文京区本駒込1丁目7-12","lat":35.72574333,"lon":139.75300194},{"name":"動坂ごはん","province":"東京都","city":"文京区","address":"東京都文京区本駒込4丁目21-7","lat":35.73209839,"lon":139.75776529},{"name":"有限会社　鈴木商店","province":"東京都","city":"文京区","address":"東京都文京区小石川1丁目22-8","lat":35.71478886,"lon":139.75101348},{"name":"有限会社　矢口葬祭","province":"東京都","city":"文京区","address":"東京都文京区大塚5丁目18-1","lat":35.72120703,"lon":139.72992901},{"name":"有限会社　神谷商店","province":"東京都","city":"文京区","address":"東京都文京区根津2丁目20-4","lat":35.71886949,"lon":139.76449023},{"name":"本郷金子商店　株式会社","province":"東京都","city":"文京区","address":"東京都文京区本郷2丁目14-9","lat":35.70450689,"lon":139.76079368},{"name":"磯辺葬儀社","province":"東京都","city":"文京区","address":"東京都文京区目白台2丁目9-6","lat":35.71664613,"lon":139.71887734},{"name":"株式会社　杉元","province":"東京都","city":"文京区","address":"東京都文京区本郷4丁目34-17","lat":35.70900075,"lon":139.75771586},{"name":"おもてなし食堂","province":"東京都","city":"文京区","address":"東京都文京区小石川3丁目4-14","lat":35.71253894,"lon":139.74521961},{"name":"氷川下子ども食堂","province":"東京都","city":"文京区","address":"東京都文京区千石3丁目3-7","lat":35.72480123,"lon":139.73621722},{"name":"おたがいさま食堂せんごく","province":"東京都","city":"文京区","address":"東京都文京区白山2丁目13-6","lat":35.71696348,"lon":139.74601384},{"name":"文京BASE子ども食堂","province":"東京都","city":"文京区","address":"東京都文京区小石川3丁目28-14","lat":35.71350562,"lon":139.75000249},{"name":"おかえりごはん","province":"東京都","city":"文京区","address":"東京都文京区千駄木3丁目42-4","lat":35.72785754,"lon":139.76420951},{"name":"定泉寺こども食堂","province":"東京都","city":"文京区","address":"東京都文京区本駒込1丁目7-12","lat":35.72574333,"lon":139.75300194},{"name":"動坂ごはん","province":"東京都","city":"文京区","address":"東京都文京区本駒込4丁目21-7","lat":35.73209839,"lon":139.75776529},{"name":"有限会社　鈴木商店","province":"東京都","city":"文京区","address":"東京都文京区小石川1丁目22-8","lat":35.71478886,"lon":139.75101348},{"name":"有限会社　矢口葬祭","province":"東京都","city":"文京区","address":"東京都文京区大塚5丁目18-1","lat":35.72120703,"lon":139.72992901},{"name":"有限会社　神谷商店","province":"東京都","city":"文京区","address":"東京都文京区根津2丁目20-4","lat":35.71886949,"lon":139.76449023},{"name":"本郷金子商店　株式会社","province":"東京都","city":"文京区","address":"東京都文京区本郷2丁目14-9","lat":35.70450689,"lon":139.76079368},{"name":"磯辺葬儀社","province":"東京都","city":"文京区","address":"東京都文京区目白台2丁目9-6","lat":35.71664613,"lon":139.71887734},{"name":"株式会社　杉元","province":"東京都","city":"文京区","address":"東京都文京区本郷4丁目34-17","lat":35.70900075,"lon":139.75771586},{"name":"おもてなし食堂","province":"東京都","city":"文京区","address":"東京都文京区小石川3丁目4-14","lat":35.71253894,"lon":139.74521961},{"name":"氷川下子ども食堂","province":"東京都","city":"文京区","address":"東京都文京区千石3丁目3-7","lat":35.72480123,"lon":139.73621722},{"name":"おたがいさま食堂せんごく","province":"東京都","city":"文京区","address":"東京都文京区白山2丁目13-6","lat":35.71696348,"lon":139.74601384},{"name":"文京BASE子ども食堂","province":"東京都","city":"文京区","address":"東京都文京区小石川3丁目28-14","lat":35.71350562,"lon":139.75000249},{"name":"おかえりごはん","province":"東京都","city":"文京区","address":"東京都文京区千駄木3丁目42-4","lat":35.72785754,"lon":139.76420951},{"name":"定泉寺こども食堂","province":"東京都","city":"文京区","address":"東京都文京区本駒込1丁目7-12","lat":35.72574333,"lon":139.75300194},{"name":"動坂ごはん","province":"東京都","city":"文京区","address":"東京都文京区本駒込4丁目21-7","lat":35.73209839,"lon":139.75776529},{"name":"有限会社　鈴木商店","province":"東京都","city":"文京区","address":"東京都文京区小石川1丁目22-8","lat":35.71478886,"lon":139.75101348},{"name":"有限会社　矢口葬祭","province":"東京都","city":"文京区","address":"東京都文京区大塚5丁目18-1","lat":35.72120703,"lon":139.72992901},{"name":"有限会社　神谷商店","province":"東京都","city":"文京区","address":"東京都文京区根津2丁目20-4","lat":35.71886949,"lon":139.76449023},{"name":"本郷金子商店　株式会社","province":"東京都","city":"文京区","address":"東京都文京区本郷2丁目14-9","lat":35.70450689,"lon":139.76079368},{"name":"磯辺葬儀社","province":"東京都","city":"文京区","address":"東京都文京区目白台2丁目9-6","lat":35.71664613,"lon":139.71887734},{"name":"株式会社　杉元","province":"東京都","city":"文京区","address":"東京都文京区本郷4丁目34-17","lat":35.70900075,"lon":139.75771586},{"name":"おもてなし食堂","province":"東京都","city":"文京区","address":"東京都文京区小石川3丁目4-14","lat":35.71253894,"lon":139.74521961},{"name":"氷川下子ども食堂","province":"東京都","city":"文京区","address":"東京都文京区千石3丁目3-7","lat":35.72480123,"lon":139.73621722},{"name":"おたがいさま食堂せんごく","province":"東京都","city":"文京区","address":"東京都文京区白山2丁目13-6","lat":35.71696348,"lon":139.74601384},{"name":"文京BASE子ども食堂","province":"東京都","city":"文京区","address":"東京都文京区小石川3丁目28-14","lat":35.71350562,"lon":139.75000249},{"name":"おかえりごはん","province":"東京都","city":"文京区","address":"東京都文京区千駄木3丁目42-4","lat":35.72785754,"lon":139.76420951},{"name":"定泉寺こども食堂","province":"東京都","city":"文京区","address":"東京都文京区本駒込1丁目7-12","lat":35.72574333,"lon":139.75300194},{"name":"動坂ごはん","province":"東京都","city":"文京区","address":"東京都文京区本駒込4丁目21-7","lat":35.73209839,"lon":139.75776529},{"name":"有限会社　鈴木商店","province":"東京都","city":"文京区","address":"東京都文京区小石川1丁目22-8","lat":35.71478886,"lon":139.75101348},{"name":"有限会社　矢口葬祭","province":"東京都","city":"文京区","address":"東京都文京区大塚5丁目18-1","lat":35.72120703,"lon":139.72992901},{"name":"有限会社　神谷商店","province":"東京都","city":"文京区","address":"東京都文京区根津2丁目20-4","lat":35.71886949,"lon":139.76449023},{"name":"本郷金子商店　株式会社","province":"東京都","city":"文京区","address":"東京都文京区本郷2丁目14-9","lat":35.70450689,"lon":139.76079368},{"name":"磯辺葬儀社","province":"東京都","city":"文京区","address":"東京都文京区目白台2丁目9-6","lat":35.71664613,"lon":139.71887734},{"name":"株式会社　杉元","province":"東京都","city":"文京区","address":"東京都文京区本郷4丁目34-17","lat":35.70900075,"lon":139.75771586},{"name":"おもてなし食堂","province":"東京都","city":"文京区","address":"東京都文京区小石川3丁目4-14","lat":35.71253894,"lon":139.74521961},{"name":"氷川下子ども食堂","province":"東京都","city":"文京区","address":"東京都文京区千石3丁目3-7","lat":35.72480123,"lon":139.73621722},{"name":"おたがいさま食堂せんごく","province":"東京都","city":"文京区","address":"東京都文京区白山2丁目13-6","lat":35.71696348,"lon":139.74601384},{"name":"文京BASE子ども食堂","province":"東京都","city":"文京区","address":"東京都文京区小石川3丁目28-14","lat":35.71350562,"lon":139.75000249},{"name":"おかえりごはん","province":"東京都","city":"文京区","address":"東京都文京区千駄木3丁目42-4","lat":35.72785754,"lon":139.76420951},{"name":"定泉寺こども食堂","province":"東京都","city":"文京区","address":"東京都文京区本駒込1丁目7-12","lat":35.72574333,"lon":139.75300194},{"name":"動坂ごはん","province":"東京都","city":"文京区","address":"東京都文京区本駒込4丁目21-7","lat":35.73209839,"lon":139.75776529},{"name":"有限会社　鈴木商店","province":"東京都","city":"文京区","address":"東京都文京区小石川1丁目22-8","lat":35.71478886,"lon":139.75101348},{"name":"有限会社　矢口葬祭","province":"東京都","city":"文京区","address":"東京都文京区大塚5丁目18-1","lat":35.72120703,"lon":139.72992901},{"name":"有限会社　神谷商店","province":"東京都","city":"文京区","address":"東京都文京区根津2丁目20-4","lat":35.71886949,"lon":139.76449023},{"name":"本郷金子商店　株式会社","province":"東京都","city":"文京区","address":"東京都文京区本郷2丁目14-9","lat":35.70450689,"lon":139.76079368},{"name":"磯辺葬儀社","province":"東京都","city":"文京区","address":"東京都文京区目白台2丁目9-6","lat":35.71664613,"lon":139.71887734},{"name":"株式会社　杉元","province":"東京都","city":"文京区","address":"東京都文京区本郷4丁目34-17","lat":35.70900075,"lon":139.75771586},{"name":"おもてなし食堂","province":"東京都","city":"文京区","address":"東京都文京区小石川3丁目4-14","lat":35.71253894,"lon":139.74521961},{"name":"氷川下子ども食堂","province":"東京都","city":"文京区","address":"東京都文京区千石3丁目3-7","lat":35.72480123,"lon":139.73621722},{"name":"おたがいさま食堂せんごく","province":"東京都","city":"文京区","address":"東京都文京区白山2丁目13-6","lat":35.71696348,"lon":139.74601384},{"name":"文京BASE子ども食堂","province":"東京都","city":"文京区","address":"東京都文京区小石川3丁目28-14","lat":35.71350562,"lon":139.75000249},{"name":"おかえりごはん","province":"東京都","city":"文京区","address":"東京都文京区千駄木3丁目42-4","lat":35.72785754,"lon":139.76420951},{"name":"定泉寺こども食堂","province":"東京都","city":"文京区","address":"東京都文京区本駒込1丁目7-12","lat":35.72574333,"lon":139.75300194},{"name":"動坂ごはん","province":"東京都","city":"文京区","address":"東京都文京区本駒込4丁目21-7","lat":35.73209839,"lon":139.75776529},{"name":"有限会社　鈴木商店","province":"東京都","city":"文京区","address":"東京都文京区小石川1丁目22-8","lat":35.71478886,"lon":139.75101348},{"name":"有限会社　矢口葬祭","province":"東京都","city":"文京区","address":"東京都文京区大塚5丁目18-1","lat":35.72120703,"lon":139.72992901},{"name":"有限会社　神谷商店","province":"東京都","city":"文京区","address":"東京都文京区根津2丁目20-4","lat":35.71886949,"lon":139.76449023},{"name":"本郷金子商店　株式会社","province":"東京都","city":"文京区","address":"東京都文京区本郷2丁目14-9","lat":35.70450689,"lon":139.76079368},{"name":"磯辺葬儀社","province":"東京都","city":"文京区","address":"東京都文京区目白台2丁目9-6","lat":35.71664613,"lon":139.71887734},{"name":"株式会社　杉元","province":"東京都","city":"文京区","address":"東京都文京区本郷4丁目34-17","lat":35.70900075,"lon":139.75771586},{"name":"おもてなし食堂","province":"東京都","city":"文京区","address":"東京都文京区小石川3丁目4-14","lat":35.71253894,"lon":139.74521961},{"name":"氷川下子ども食堂","province":"東京都","city":"文京区","address":"東京都文京区千石3丁目3-7","lat":35.72480123,"lon":139.73621722},{"name":"おたがいさま食堂せんごく","province":"東京都","city":"文京区","address":"東京都文京区白山2丁目13-6","lat":35.71696348,"lon":139.74601384},{"name":"文京BASE子ども食堂","province":"東京都","city":"文京区","address":"東京都文京区小石川3丁目28-14","lat":35.71350562,"lon":139.75000249},{"name":"おかえりごはん","province":"東京都","city":"文京区","address":"東京都文京区千駄木3丁目42-4","lat":35.72785754,"lon":139.76420951},{"name":"定泉寺こども食堂","province":"東京都","city":"文京区","address":"東京都文京区本駒込1丁目7-12","lat":35.72574333,"lon":139.75300194},{"name":"動坂ごはん","province":"東京都","city":"文京区","address":"東京都文京区本駒込4丁目21-7","lat":35.73209839,"lon":139.75776529},{"name":"有限会社　鈴木商店","province":"東京都","city":"文京区","address":"東京都文京区小石川1丁目22-8","lat":35.71478886,"lon":139.75101348},{"name":"有限会社　矢口葬祭","province":"東京都","city":"文京区","address":"東京都文京区大塚5丁目18-1","lat":35.72120703,"lon":139.72992901},{"name":"有限会社　神谷商店","province":"東京都","city":"文京区","address":"東京都文京区根津2丁目20-4","lat":35.71886949,"lon":139.76449023},{"name":"本郷金子商店　株式会社","province":"東京都","city":"文京区","address":"東京都文京区本郷2丁目14-9","lat":35.70450689,"lon":139.76079368},{"name":"磯辺葬儀社","province":"東京都","city":"文京区","address":"東京都文京区目白台2丁目9-6","lat":35.71664613,"lon":139.71887734},{"name":"株式会社　杉元","province":"東京都","city":"文京区","address":"東京都文京区本郷4丁目34-17","lat":35.70900075,"lon":139.75771586},{"name":"おもてなし食堂","province":"東京都","city":"文京区","address":"東京都文京区小石川3丁目4-14","lat":35.71253894,"lon":139.74521961},{"name":"氷川下子ども食堂","province":"東京都","city":"文京区","address":"東京都文京区千石3丁目3-7","lat":35.72480123,"lon":139.73621722},{"name":"おたがいさま食堂せんごく","province":"東京都","city":"文京区","address":"東京都文京区白山2丁目13-6","lat":35.71696348,"lon":139.74601384},{"name":"文京BASE子ども食堂","province":"東京都","city":"文京区","address":"東京都文京区小石川3丁目28-14","lat":35.71350562,"lon":139.75000249},{"name":"おかえりごはん","province":"東京都","city":"文京区","address":"東京都文京区千駄木3丁目42-4","lat":35.72785754,"lon":139.76420951},{"name":"定泉寺こども食堂","province":"東京都","city":"文京区","address":"東京都文京区本駒込1丁目7-12","lat":35.72574333,"lon":139.75300194},{"name":"動坂ごはん","province":"東京都","city":"文京区","address":"東京都文京区本駒込4丁目21-7","lat":35.73209839,"lon":139.75776529},{"name":"有限会社　鈴木商店","province":"東京都","city":"文京区","address":"東京都文京区小石川1丁目22-8","lat":35.71478886,"lon":139.75101348},{"name":"有限会社　矢口葬祭","province":"東京都","city":"文京区","address":"東京都文京区大塚5丁目18-1","lat":35.72120703,"lon":139.72992901},{"name":"有限会社　神谷商店","province":"東京都","city":"文京区","address":"東京都文京区根津2丁目20-4","lat":35.71886949,"lon":139.76449023},{"name":"本郷金子商店　株式会社","province":"東京都","city":"文京区","address":"東京都文京区本郷2丁目14-9","lat":35.70450689,"lon":139.76079368},{"name":"磯辺葬儀社","province":"東京都","city":"文京区","address":"東京都文京区目白台2丁目9-6","lat":35.71664613,"lon":139.71887734},{"name":"株式会社　杉元","province":"東京都","city":"文京区","address":"東京都文京区本郷4丁目34-17","lat":35.70900075,"lon":139.75771586},{"name":"おもてなし食堂","province":"東京都","city":"文京区","address":"東京都文京区小石川3丁目4-14","lat":35.71253894,"lon":139.74521961},{"name":"氷川下子ども食堂","province":"東京都","city":"文京区","address":"東京都文京区千石3丁目3-7","lat":35.72480123,"lon":139.73621722},{"name":"おたがいさま食堂せんごく","province":"東京都","city":"文京区","address":"東京都文京区白山2丁目13-6","lat":35.71696348,"lon":139.74601384},{"name":"文京BASE子ども食堂","province":"東京都","city":"文京区","address":"東京都文京区小石川3丁目28-14","lat":35.71350562,"lon":139.75000249},{"name":"おかえりごはん","province":"東京都","city":"文京区","address":"東京都文京区千駄木3丁目42-4","lat":35.72785754,"lon":139.76420951},{"name":"定泉寺こども食堂","province":"東京都","city":"文京区","address":"東京都文京区本駒込1丁目7-12","lat":35.72574333,"lon":139.75300194},{"name":"動坂ごはん","province":"東京都","city":"文京区","address":"東京都文京区本駒込4丁目21-7","lat":35.73209839,"lon":139.75776529},{"name":"有限会社　鈴木商店","province":"東京都","city":"文京区","address":"東京都文京区小石川1丁目22-8","lat":35.71478886,"lon":139.75101348},{"name":"有限会社　矢口葬祭","province":"東京都","city":"文京区","address":"東京都文京区大塚5丁目18-1","lat":35.72120703,"lon":139.72992901},{"name":"有限会社　神谷商店","province":"東京都","city":"文京区","address":"東京都文京区根津2丁目20-4","lat":35.71886949,"lon":139.76449023},{"name":"本郷金子商店　株式会社","province":"東京都","city":"文京区","address":"東京都文京区本郷2丁目14-9","lat":35.70450689,"lon":139.76079368},{"name":"磯辺葬儀社","province":"東京都","city":"文京区","address":"東京都文京区目白台2丁目9-6","lat":35.71664613,"lon":139.71887734},{"name":"株式会社　杉元","province":"東京都","city":"文京区","address":"東京都文京区本郷4丁目34-17","lat":35.70900075,"lon":139.75771586},{"name":"おもてなし食堂","province":"東京都","city":"文京区","address":"東京都文京区小石川3丁目4-14","lat":35.71253894,"lon":139.74521961},{"name":"氷川下子ども食堂","province":"東京都","city":"文京区","address":"東京都文京区千石3丁目3-7","lat":35.72480123,"lon":139.73621722},{"name":"おたがいさま食堂せんごく","province":"東京都","city":"文京区","address":"東京都文京区白山2丁目13-6","lat":35.71696348,"lon":139.74601384},{"name":"文京BASE子ども食堂","province":"東京都","city":"文京区","address":"東京都文京区小石川3丁目28-14","lat":35.71350562,"lon":139.75000249},{"name":"おかえりごはん","province":"東京都","city":"文京区","address":"東京都文京区千駄木3丁目42-4","lat":35.72785754,"lon":139.76420951},{"name":"定泉寺こども食堂","province":"東京都","city":"文京区","address":"東京都文京区本駒込1丁目7-12","lat":35.72574333,"lon":139.75300194},{"name":"動坂ごはん","province":"東京都","city":"文京区","address":"東京都文京区本駒込4丁目21-7","lat":35.73209839,"lon":139.75776529},{"name":"有限会社　鈴木商店","province":"東京都","city":"文京区","address":"東京都文京区小石川1丁目22-8","lat":35.71478886,"lon":139.75101348},{"name":"有限会社　矢口葬祭","province":"東京都","city":"文京区","address":"東京都文京区大塚5丁目18-1","lat":35.72120703,"lon":139.72992901},{"name":"有限会社　神谷商店","province":"東京都","city":"文京区","address":"東京都文京区根津2丁目20-4","lat":35.71886949,"lon":139.76449023},{"name":"本郷金子商店　株式会社","province":"東京都","city":"文京区","address":"東京都文京区本郷2丁目14-9","lat":35.70450689,"lon":139.76079368},{"name":"磯辺葬儀社","province":"東京都","city":"文京区","address":"東京都文京区目白台2丁目9-6","lat":35.71664613,"lon":139.71887734},{"name":"株式会社　杉元","province":"東京都","city":"文京区","address":"東京都文京区本郷4丁目34-17","lat":35.70900075,"lon":139.75771586},{"name":"おもてなし食堂","province":"東京都","city":"文京区","address":"東京都文京区小石川3丁目4-14","lat":35.71253894,"lon":139.74521961},{"name":"氷川下子ども食堂","province":"東京都","city":"文京区","address":"東京都文京区千石3丁目3-7","lat":35.72480123,"lon":139.73621722},{"name":"おたがいさま食堂せんごく","province":"東京都","city":"文京区","address":"東京都文京区白山2丁目13-6","lat":35.71696348,"lon":139.74601384},{"name":"文京BASE子ども食堂","province":"東京都","city":"文京区","address":"東京都文京区小石川3丁目28-14","lat":35.71350562,"lon":139.75000249},{"name":"おかえりごはん","province":"東京都","city":"文京区","address":"東京都文京区千駄木3丁目42-4","lat":35.72785754,"lon":139.76420951},{"name":"定泉寺こども食堂","province":"東京都","city":"文京区","address":"東京都文京区本駒込1丁目7-12","lat":35.72574333,"lon":139.75300194},{"name":"動坂ごはん","province":"東京都","city":"文京区","address":"東京都文京区本駒込4丁目21-7","lat":35.73209839,"lon":139.75776529},{"name":"有限会社　鈴木商店","province":"東京都","city":"文京区","address":"東京都文京区小石川1丁目22-8","lat":35.71478886,"lon":139.75101348},{"name":"有限会社　矢口葬祭","province":"東京都","city":"文京区","address":"東京都文京区大塚5丁目18-1","lat":35.72120703,"lon":139.72992901},{"name":"有限会社　神谷商店","province":"東京都","city":"文京区","address":"東京都文京区根津2丁目20-4","lat":35.71886949,"lon":139.76449023},{"name":"本郷金子商店　株式会社","province":"東京都","city":"文京区","address":"東京都文京区本郷2丁目14-9","lat":35.70450689,"lon":139.76079368},{"name":"磯辺葬儀社","province":"東京都","city":"文京区","address":"東京都文京区目白台2丁目9-6","lat":35.71664613,"lon":139.71887734},{"name":"株式会社　杉元","province":"東京都","city":"文京区","address":"東京都文京区本郷4丁目34-17","lat":35.70900075,"lon":139.75771586},{"name":"おもてなし食堂","province":"東京都","city":"文京区","address":"東京都文京区小石川3丁目4-14","lat":35.71253894,"lon":139.74521961},{"name":"氷川下子ども食堂","province":"東京都","city":"文京区","address":"東京都文京区千石3丁目3-7","lat":35.72480123,"lon":139.73621722},{"name":"おたがいさま食堂せんごく","province":"東京都","city":"文京区","address":"東京都文京区白山2丁目13-6","lat":35.71696348,"lon":139.74601384},{"name":"文京BASE子ども食堂","province":"東京都","city":"文京区","address":"東京都文京区小石川3丁目28-14","lat":35.71350562,"lon":139.75000249},{"name":"おかえりごはん","province":"東京都","city":"文京区","address":"東京都文京区千駄木3丁目42-4","lat":35.72785754,"lon":139.76420951},{"name":"定泉寺こども食堂","province":"東京都","city":"文京区","address":"東京都文京区本駒込1丁目7-12","lat":35.72574333,"lon":139.75300194},{"name":"動坂ごはん","province":"東京都","city":"文京区","address":"東京都文京区本駒込4丁目21-7","lat":35.73209839,"lon":139.75776529},{"name":"有限会社　鈴木商店","province":"東京都","city":"文京区","address":"東京都文京区小石川1丁目22-8","lat":35.71478886,"lon":139.75101348},{"name":"有限会社　矢口葬祭","province":"東京都","city":"文京区","address":"東京都文京区大塚5丁目18-1","lat":35.72120703,"lon":139.72992901},{"name":"有限会社　神谷商店","province":"東京都","city":"文京区","address":"東京都文京区根津2丁目20-4","lat":35.71886949,"lon":139.76449023},{"name":"本郷金子商店　株式会社","province":"東京都","city":"文京区","address":"東京都文京区本郷2丁目14-9","lat":35.70450689,"lon":139.76079368},{"name":"磯辺葬儀社","province":"東京都","city":"文京区","address":"東京都文京区目白台2丁目9-6","lat":35.71664613,"lon":139.71887734},{"name":"株式会社　杉元","province":"東京都","city":"文京区","address":"東京都文京区本郷4丁目34-17","lat":35.70900075,"lon":139.75771586},{"name":"おもてなし食堂","province":"東京都","city":"文京区","address":"東京都文京区小石川3丁目4-14","lat":35.71253894,"lon":139.74521961},{"name":"氷川下子ども食堂","province":"東京都","city":"文京区","address":"東京都文京区千石3丁目3-7","lat":35.72480123,"lon":139.73621722},{"name":"おたがいさま食堂せんごく","province":"東京都","city":"文京区","address":"東京都文京区白山2丁目13-6","lat":35.71696348,"lon":139.74601384},{"name":"文京BASE子ども食堂","province":"東京都","city":"文京区","address":"東京都文京区小石川3丁目28-14","lat":35.71350562,"lon":139.75000249},{"name":"おかえりごはん","province":"東京都","city":"文京区","address":"東京都文京区千駄木3丁目42-4","lat":35.72785754,"lon":139.76420951},{"name":"定泉寺こども食堂","province":"東京都","city":"文京区","address":"東京都文京区本駒込1丁目7-12","lat":35.72574333,"lon":139.75300194},{"name":"動坂ごはん","province":"東京都","city":"文京区","address":"東京都文京区本駒込4丁目21-7","lat":35.73209839,"lon":139.75776529},{"name":"有限会社　鈴木商店","province":"東京都","city":"文京区","address":"東京都文京区小石川1丁目22-8","lat":35.71478886,"lon":139.75101348},{"name":"有限会社　矢口葬祭","province":"東京都","city":"文京区","address":"東京都文京区大塚5丁目18-1","lat":35.72120703,"lon":139.72992901},{"name":"有限会社　神谷商店","province":"東京都","city":"文京区","address":"東京都文京区根津2丁目20-4","lat":35.71886949,"lon":139.76449023},{"name":"本郷金子商店　株式会社","province":"東京都","city":"文京区","address":"東京都文京区本郷2丁目14-9","lat":35.70450689,"lon":139.76079368},{"name":"磯辺葬儀社","province":"東京都","city":"文京区","address":"東京都文京区目白台2丁目9-6","lat":35.71664613,"lon":139.71887734},{"name":"株式会社　杉元","province":"東京都","city":"文京区","address":"東京都文京区本郷4丁目34-17","lat":35.70900075,"lon":139.75771586},{"name":"おもてなし食堂","province":"東京都","city":"文京区","address":"東京都文京区小石川3丁目4-14","lat":35.71253894,"lon":139.74521961},{"name":"氷川下子ども食堂","province":"東京都","city":"文京区","address":"東京都文京区千石3丁目3-7","lat":35.72480123,"lon":139.73621722},{"name":"おたがいさま食堂せんごく","province":"東京都","city":"文京区","address":"東京都文京区白山2丁目13-6","lat":35.71696348,"lon":139.74601384},{"name":"文京BASE子ども食堂","province":"東京都","city":"文京区","address":"東京都文京区小石川3丁目28-14","lat":35.71350562,"lon":139.75000249},{"name":"おかえりごはん","province":"東京都","city":"文京区","address":"東京都文京区千駄木3丁目42-4","lat":35.72785754,"lon":139.76420951},{"name":"定泉寺こども食堂","province":"東京都","city":"文京区","address":"東京都文京区本駒込1丁目7-12","lat":35.72574333,"lon":139.75300194},{"name":"動坂ごはん","province":"東京都","city":"文京区","address":"東京都文京区本駒込4丁目21-7","lat":35.73209839,"lon":139.75776529},{"name":"有限会社　鈴木商店","province":"東京都","city":"文京区","address":"東京都文京区小石川1丁目22-8","lat":35.71478886,"lon":139.75101348},{"name":"有限会社　矢口葬祭","province":"東京都","city":"文京区","address":"東京都文京区大塚5丁目18-1","lat":35.72120703,"lon":139.72992901},{"name":"有限会社　神谷商店","province":"東京都","city":"文京区","address":"東京都文京区根津2丁目20-4","lat":35.71886949,"lon":139.76449023},{"name":"本郷金子商店　株式会社","province":"東京都","city":"文京区","address":"東京都文京区本郷2丁目14-9","lat":35.70450689,"lon":139.76079368},{"name":"磯辺葬儀社","province":"東京都","city":"文京区","address":"東京都文京区目白台2丁目9-6","lat":35.71664613,"lon":139.71887734},{"name":"株式会社　杉元","province":"東京都","city":"文京区","address":"東京都文京区本郷4丁目34-17","lat":35.70900075,"lon":139.75771586},{"name":"おもてなし食堂","province":"東京都","city":"文京区","address":"東京都文京区小石川3丁目4-14","lat":35.71253894,"lon":139.74521961},{"name":"氷川下子ども食堂","province":"東京都","city":"文京区","address":"東京都文京区千石3丁目3-7","lat":35.72480123,"lon":139.73621722},{"name":"おたがいさま食堂せんごく","province":"東京都","city":"文京区","address":"東京都文京区白山2丁目13-6","lat":35.71696348,"lon":139.74601384},{"name":"文京BASE子ども食堂","province":"東京都","city":"文京区","address":"東京都文京区小石川3丁目28-14","lat":35.71350562,"lon":139.75000249},{"name":"おかえりごはん","province":"東京都","city":"文京区","address":"東京都文京区千駄木3丁目42-4","lat":35.72785754,"lon":139.76420951},{"name":"定泉寺こども食堂","province":"東京都","city":"文京区","address":"東京都文京区本駒込1丁目7-12","lat":35.72574333,"lon":139.75300194},{"name":"動坂ごはん","province":"東京都","city":"文京区","address":"東京都文京区本駒込4丁目21-7","lat":35.73209839,"lon":139.75776529},{"name":"有限会社　鈴木商店","province":"東京都","city":"文京区","address":"東京都文京区小石川1丁目22-8","lat":35.71478886,"lon":139.75101348},{"name":"有限会社　矢口葬祭","province":"東京都","city":"文京区","address":"東京都文京区大塚5丁目18-1","lat":35.72120703,"lon":139.72992901},{"name":"有限会社　神谷商店","province":"東京都","city":"文京区","address":"東京都文京区根津2丁目20-4","lat":35.71886949,"lon":139.76449023},{"name":"本郷金子商店　株式会社","province":"東京都","city":"文京区","address":"東京都文京区本郷2丁目14-9","lat":35.70450689,"lon":139.76079368},{"name":"磯辺葬儀社","province":"東京都","city":"文京区","address":"東京都文京区目白台2丁目9-6","lat":35.71664613,"lon":139.71887734},{"name":"株式会社　杉元","province":"東京都","city":"文京区","address":"東京都文京区本郷4丁目34-17","lat":35.70900075,"lon":139.75771586},{"name":"おもてなし食堂","province":"東京都","city":"文京区","address":"東京都文京区小石川3丁目4-14","lat":35.71253894,"lon":139.74521961},{"name":"氷川下子ども食堂","province":"東京都","city":"文京区","address":"東京都文京区千石3丁目3-7","lat":35.72480123,"lon":139.73621722},{"name":"おたがいさま食堂せんごく","province":"東京都","city":"文京区","address":"東京都文京区白山2丁目13-6","lat":35.71696348,"lon":139.74601384},{"name":"文京BASE子ども食堂","province":"東京都","city":"文京区","address":"東京都文京区小石川3丁目28-14","lat":35.71350562,"lon":139.75000249},{"name":"おかえりごはん","province":"東京都","city":"文京区","address":"東京都文京区千駄木3丁目42-4","lat":35.72785754,"lon":139.76420951},{"name":"定泉寺こども食堂","province":"東京都","city":"文京区","address":"東京都文京区本駒込1丁目7-12","lat":35.72574333,"lon":139.75300194},{"name":"動坂ごはん","province":"東京都","city":"文京区","address":"東京都文京区本駒込4丁目21-7","lat":35.73209839,"lon":139.75776529},{"name":"有限会社　鈴木商店","province":"東京都","city":"文京区","address":"東京都文京区小石川1丁目22-8","lat":35.71478886,"lon":139.75101348},{"name":"有限会社　矢口葬祭","province":"東京都","city":"文京区","address":"東京都文京区大塚5丁目18-1","lat":35.72120703,"lon":139.72992901},{"name":"有限会社　神谷商店","province":"東京都","city":"文京区","address":"東京都文京区根津2丁目20-4","lat":35.71886949,"lon":139.76449023},{"name":"本郷金子商店　株式会社","province":"東京都","city":"文京区","address":"東京都文京区本郷2丁目14-9","lat":35.70450689,"lon":139.76079368},{"name":"磯辺葬儀社","province":"東京都","city":"文京区","address":"東京都文京区目白台2丁目9-6","lat":35.71664613,"lon":139.71887734},{"name":"株式会社　杉元","province":"東京都","city":"文京区","address":"東京都文京区本郷4丁目34-17","lat":35.70900075,"lon":139.75771586},{"name":"おもてなし食堂","province":"東京都","city":"文京区","address":"東京都文京区小石川3丁目4-14","lat":35.71253894,"lon":139.74521961},{"name":"氷川下子ども食堂","province":"東京都","city":"文京区","address":"東京都文京区千石3丁目3-7","lat":35.72480123,"lon":139.73621722},{"name":"おたがいさま食堂せんごく","province":"東京都","city":"文京区","address":"東京都文京区白山2丁目13-6","lat":35.71696348,"lon":139.74601384},{"name":"文京BASE子ども食堂","province":"東京都","city":"文京区","address":"東京都文京区小石川3丁目28-14","lat":35.71350562,"lon":139.75000249},{"name":"おかえりごはん","province":"東京都","city":"文京区","address":"東京都文京区千駄木3丁目42-4","lat":35.72785754,"lon":139.76420951},{"name":"定泉寺こども食堂","province":"東京都","city":"文京区","address":"東京都文京区本駒込1丁目7-12","lat":35.72574333,"lon":139.75300194},{"name":"動坂ごはん","province":"東京都","city":"文京区","address":"東京都文京区本駒込4丁目21-7","lat":35.73209839,"lon":139.75776529},{"name":"有限会社　鈴木商店","province":"東京都","city":"文京区","address":"東京都文京区小石川1丁目22-8","lat":35.71478886,"lon":139.75101348},{"name":"有限会社　矢口葬祭","province":"東京都","city":"文京区","address":"東京都文京区大塚5丁目18-1","lat":35.72120703,"lon":139.72992901},{"name":"有限会社　神谷商店","province":"東京都","city":"文京区","address":"東京都文京区根津2丁目20-4","lat":35.71886949,"lon":139.76449023},{"name":"本郷金子商店　株式会社","province":"東京都","city":"文京区","address":"東京都文京区本郷2丁目14-9","lat":35.70450689,"lon":139.76079368},{"name":"磯辺葬儀社","province":"東京都","city":"文京区","address":"東京都文京区目白台2丁目9-6","lat":35.71664613,"lon":139.71887734},{"name":"株式会社　杉元","province":"東京都","city":"文京区","address":"東京都文京区本郷4丁目34-17","lat":35.70900075,"lon":139.75771586},{"name":"おもてなし食堂","province":"東京都","city":"文京区","address":"東京都文京区小石川3丁目4-14","lat":35.71253894,"lon":139.74521961},{"name":"氷川下子ども食堂","province":"東京都","city":"文京区","address":"東京都文京区千石3丁目3-7","lat":35.72480123,"lon":139.73621722},{"name":"おたがいさま食堂せんごく","province":"東京都","city":"文京区","address":"東京都文京区白山2丁目13-6","lat":35.71696348,"lon":139.74601384},{"name":"文京BASE子ども食堂","province":"東京都","city":"文京区","address":"東京都文京区小石川3丁目28-14","lat":35.71350562,"lon":139.75000249},{"name":"おかえりごはん","province":"東京都","city":"文京区","address":"東京都文京区千駄木3丁目42-4","lat":35.72785754,"lon":139.76420951},{"name":"定泉寺こども食堂","province":"東京都","city":"文京区","address":"東京都文京区本駒込1丁目7-12","lat":35.72574333,"lon":139.75300194},{"name":"動坂ごはん","province":"東京都","city":"文京区","address":"東京都文京区本駒込4丁目21-7","lat":35.73209839,"lon":139.75776529},{"name":"有限会社　鈴木商店","province":"東京都","city":"文京区","address":"東京都文京区小石川1丁目22-8","lat":35.71478886,"lon":139.75101348},{"name":"有限会社　矢口葬祭","province":"東京都","city":"文京区","address":"東京都文京区大塚5丁目18-1","lat":35.72120703,"lon":139.72992901},{"name":"有限会社　神谷商店","province":"東京都","city":"文京区","address":"東京都文京区根津2丁目20-4","lat":35.71886949,"lon":139.76449023},{"name":"本郷金子商店　株式会社","province":"東京都","city":"文京区","address":"東京都文京区本郷2丁目14-9","lat":35.70450689,"lon":139.76079368},{"name":"磯辺葬儀社","province":"東京都","city":"文京区","address":"東京都文京区目白台2丁目9-6","lat":35.71664613,"lon":139.71887734},{"name":"株式会社　杉元","province":"東京都","city":"文京区","address":"東京都文京区本郷4丁目34-17","lat":35.70900075,"lon":139.75771586},{"name":"おもてなし食堂","province":"東京都","city":"文京区","address":"東京都文京区小石川3丁目4-14","lat":35.71253894,"lon":139.74521961},{"name":"氷川下子ども食堂","province":"東京都","city":"文京区","address":"東京都文京区千石3丁目3-7","lat":35.72480123,"lon":139.73621722},{"name":"おたがいさま食堂せんごく","province":"東京都","city":"文京区","address":"東京都文京区白山2丁目13-6","lat":35.71696348,"lon":139.74601384},{"name":"文京BASE子ども食堂","province":"東京都","city":"文京区","address":"東京都文京区小石川3丁目28-14","lat":35.71350562,"lon":139.75000249},{"name":"おかえりごはん","province":"東京都","city":"文京区","address":"東京都文京区千駄木3丁目42-4","lat":35.72785754,"lon":139.76420951},{"name":"定泉寺こども食堂","province":"東京都","city":"文京区","address":"東京都文京区本駒込1丁目7-12","lat":35.72574333,"lon":139.75300194},{"name":"動坂ごはん","province":"東京都","city":"文京区","address":"東京都文京区本駒込4丁目21-7","lat":35.73209839,"lon":139.75776529},{"name":"有限会社　鈴木商店","province":"東京都","city":"文京区","address":"東京都文京区小石川1丁目22-8","lat":35.71478886,"lon":139.75101348},{"name":"有限会社　矢口葬祭","province":"東京都","city":"文京区","address":"東京都文京区大塚5丁目18-1","lat":35.72120703,"lon":139.72992901},{"name":"有限会社　神谷商店","province":"東京都","city":"文京区","address":"東京都文京区根津2丁目20-4","lat":35.71886949,"lon":139.76449023},{"name":"本郷金子商店　株式会社","province":"東京都","city":"文京区","address":"東京都文京区本郷2丁目14-9","lat":35.70450689,"lon":139.76079368},{"name":"磯辺葬儀社","province":"東京都","city":"文京区","address":"東京都文京区目白台2丁目9-6","lat":35.71664613,"lon":139.71887734},{"name":"株式会社　杉元","province":"東京都","city":"文京区","address":"東京都文京区本郷4丁目34-17","lat":35.70900075,"lon":139.75771586},{"name":"おもてなし食堂","province":"東京都","city":"文京区","address":"東京都文京区小石川3丁目4-14","lat":35.71253894,"lon":139.74521961},{"name":"氷川下子ども食堂","province":"東京都","city":"文京区","address":"東京都文京区千石3丁目3-7","lat":35.72480123,"lon":139.73621722},{"name":"おたがいさま食堂せんごく","province":"東京都","city":"文京区","address":"東京都文京区白山2丁目13-6","lat":35.71696348,"lon":139.74601384},{"name":"文京BASE子ども食堂","province":"東京都","city":"文京区","address":"東京都文京区小石川3丁目28-14","lat":35.71350562,"lon":139.75000249},{"name":"おかえりごはん","province":"東京都","city":"文京区","address":"東京都文京区千駄木3丁目42-4","lat":35.72785754,"lon":139.76420951},{"name":"定泉寺こども食堂","province":"東京都","city":"文京区","address":"東京都文京区本駒込1丁目7-12","lat":35.72574333,"lon":139.75300194},{"name":"動坂ごはん","province":"東京都","city":"文京区","address":"東京都文京区本駒込4丁目21-7","lat":35.73209839,"lon":139.75776529},{"name":"有限会社　鈴木商店","province":"東京都","city":"文京区","address":"東京都文京区小石川1丁目22-8","lat":35.71478886,"lon":139.75101348},{"name":"有限会社　矢口葬祭","province":"東京都","city":"文京区","address":"東京都文京区大塚5丁目18-1","lat":35.72120703,"lon":139.72992901},{"name":"有限会社　神谷商店","province":"東京都","city":"文京区","address":"東京都文京区根津2丁目20-4","lat":35.71886949,"lon":139.76449023},{"name":"本郷金子商店　株式会社","province":"東京都","city":"文京区","address":"東京都文京区本郷2丁目14-9","lat":35.70450689,"lon":139.76079368},{"name":"磯辺葬儀社","province":"東京都","city":"文京区","address":"東京都文京区目白台2丁目9-6","lat":35.71664613,"lon":139.71887734},{"name":"株式会社　杉元","province":"東京都","city":"文京区","address":"東京都文京区本郷4丁目34-17","lat":35.70900075,"lon":139.75771586},{"name":"おもてなし食堂","province":"東京都","city":"文京区","address":"東京都文京区小石川3丁目4-14","lat":35.71253894,"lon":139.74521961},{"name":"氷川下子ども食堂","province":"東京都","city":"文京区","address":"東京都文京区千石3丁目3-7","lat":35.72480123,"lon":139.73621722},{"name":"おたがいさま食堂せんごく","province":"東京都","city":"文京区","address":"東京都文京区白山2丁目13-6","lat":35.71696348,"lon":139.74601384},{"name":"文京BASE子ども食堂","province":"東京都","city":"文京区","address":"東京都文京区小石川3丁目28-14","lat":35.71350562,"lon":139.75000249},{"name":"おかえりごはん","province":"東京都","city":"文京区","address":"東京都文京区千駄木3丁目42-4","lat":35.72785754,"lon":139.76420951},{"name":"定泉寺こども食堂","province":"東京都","city":"文京区","address":"東京都文京区本駒込1丁目7-12","lat":35.72574333,"lon":139.75300194},{"name":"動坂ごはん","province":"東京都","city":"文京区","address":"東京都文京区本駒込4丁目21-7","lat":35.73209839,"lon":139.75776529},{"name":"有限会社　鈴木商店","province":"東京都","city":"文京区","address":"東京都文京区小石川1丁目22-8","lat":35.71478886,"lon":139.75101348},{"name":"有限会社　矢口葬祭","province":"東京都","city":"文京区","address":"東京都文京区大塚5丁目18-1","lat":35.72120703,"lon":139.72992901},{"name":"有限会社　神谷商店","province":"東京都","city":"文京区","address":"東京都文京区根津2丁目20-4","lat":35.71886949,"lon":139.76449023},{"name":"本郷金子商店　株式会社","province":"東京都","city":"文京区","address":"東京都文京区本郷2丁目14-9","lat":35.70450689,"lon":139.76079368},{"name":"磯辺葬儀社","province":"東京都","city":"文京区","address":"東京都文京区目白台2丁目9-6","lat":35.71664613,"lon":139.71887734},{"name":"株式会社　杉元","province":"東京都","city":"文京区","address":"東京都文京区本郷4丁目34-17","lat":35.70900075,"lon":139.75771586},{"name":"おもてなし食堂","province":"東京都","city":"文京区","address":"東京都文京区小石川3丁目4-14","lat":35.71253894,"lon":139.74521961},{"name":"氷川下子ども食堂","province":"東京都","city":"文京区","address":"東京都文京区千石3丁目3-7","lat":35.72480123,"lon":139.73621722},{"name":"おたがいさま食堂せんごく","province":"東京都","city":"文京区","address":"東京都文京区白山2丁目13-6","lat":35.71696348,"lon":139.74601384},{"name":"文京BASE子ども食堂","province":"東京都","city":"文京区","address":"東京都文京区小石川3丁目28-14","lat":35.71350562,"lon":139.75000249},{"name":"おかえりごはん","province":"東京都","city":"文京区","address":"東京都文京区千駄木3丁目42-4","lat":35.72785754,"lon":139.76420951},{"name":"定泉寺こども食堂","province":"東京都","city":"文京区","address":"東京都文京区本駒込1丁目7-12","lat":35.72574333,"lon":139.75300194},{"name":"動坂ごはん","province":"東京都","city":"文京区","address":"東京都文京区本駒込4丁目21-7","lat":35.73209839,"lon":139.75776529},{"name":"有限会社　鈴木商店","province":"東京都","city":"文京区","address":"東京都文京区小石川1丁目22-8","lat":35.71478886,"lon":139.75101348},{"name":"有限会社　矢口葬祭","province":"東京都","city":"文京区","address":"東京都文京区大塚5丁目18-1","lat":35.72120703,"lon":139.72992901},{"name":"有限会社　神谷商店","province":"東京都","city":"文京区","address":"東京都文京区根津2丁目20-4","lat":35.71886949,"lon":139.76449023},{"name":"本郷金子商店　株式会社","province":"東京都","city":"文京区","address":"東京都文京区本郷2丁目14-9","lat":35.70450689,"lon":139.76079368},{"name":"磯辺葬儀社","province":"東京都","city":"文京区","address":"東京都文京区目白台2丁目9-6","lat":35.71664613,"lon":139.71887734},{"name":"株式会社　杉元","province":"東京都","city":"文京区","address":"東京都文京区本郷4丁目34-17","lat":35.70900075,"lon":139.75771586},{"name":"おもてなし食堂","province":"東京都","city":"文京区","address":"東京都文京区小石川3丁目4-14","lat":35.71253894,"lon":139.74521961},{"name":"氷川下子ども食堂","province":"東京都","city":"文京区","address":"東京都文京区千石3丁目3-7","lat":35.72480123,"lon":139.73621722},{"name":"おたがいさま食堂せんごく","province":"東京都","city":"文京区","address":"東京都文京区白山2丁目13-6","lat":35.71696348,"lon":139.74601384},{"name":"文京BASE子ども食堂","province":"東京都","city":"文京区","address":"東京都文京区小石川3丁目28-14","lat":35.71350562,"lon":139.75000249},{"name":"おかえりごはん","province":"東京都","city":"文京区","address":"東京都文京区千駄木3丁目42-4","lat":35.72785754,"lon":139.76420951},{"name":"定泉寺こども食堂","province":"東京都","city":"文京区","address":"東京都文京区本駒込1丁目7-12","lat":35.72574333,"lon":139.75300194},{"name":"動坂ごはん","province":"東京都","city":"文京区","address":"東京都文京区本駒込4丁目21-7","lat":35.73209839,"lon":139.75776529}]}