{"keyword":"箇所","data":[{"name":"文京ふるさと歴史館","province":"東京都","city":"文京区","address":"東京都文京区本郷4-9-29","lat":35.7080142,"lon":139.7566697},{"name":"指ケ谷小学校","province":"東京都","city":"文京区","address":"東京都文京区白山2-28-4","lat":35.717306,"lon":139.750766999999},{"name":"根津幼稚園","province":"東京都","city":"文京区","address":"東京都文京区根津1-14-2","lat":35.7174499999999,"lon":139.755034999999},{"name":"本駒込幼稚園","province":"東京都","city":"文京区","address":"東京都文京区本駒込4-35-15","lat":35.718575,"lon":139.763037999999},{"name":"柳町こどもの森（幼稚園+保育園）","province":"東京都","city":"文京区","address":"東京都文京区小石川1-23-6","lat":35.713695,"lon":139.750496999999},{"name":"教育センター","province":"東京都","city":"文京区","address":"東京都文京区湯島4-7-10","lat":35.708987,"lon":139.765749999999},{"name":"大塚北会館","province":"東京都","city":"文京区","address":"東京都文京区大塚6丁目15-3","lat":35.7260258,"lon":139.72576806},{"name":"文京区民センター","province":"東京都","city":"文京区","address":"東京都文京区本郷4-15-14","lat":35.708818,"lon":139.754155999999},{"name":"動坂会館","province":"東京都","city":"文京区","address":"東京都文京区千駄木4丁目8-14","lat":35.73101246,"lon":139.75908746},{"name":"白山東会館","province":"東京都","city":"文京区","address":"東京都文京区白山1丁目29-10","lat":35.71913292,"lon":139.75308266},{"name":"本郷会館","province":"東京都","city":"文京区","address":"東京都文京区本郷2丁目21-7","lat":35.70465959,"lon":139.75909098},{"name":"根津総合センター","province":"東京都","city":"文京区","address":"東京都文京区根津1丁目14-3","lat":35.71832228,"lon":139.76341252},{"name":"目白台総合センター","province":"東京都","city":"文京区","address":"東京都文京区目白台3丁目18-7","lat":35.71719341,"lon":139.72340193},{"name":"大塚地域活動センター","province":"東京都","city":"文京区","address":"東京都文京区大塚1-5-17","lat":35.718634,"lon":139.734636999999},{"name":"根津地域活動センター\n（不忍通りふれあい館）","province":"東京都","city":"文京区","address":"東京都文京区根津2-20-7","lat":35.7191919999999,"lon":139.764204},{"name":"勤労福祉会館","province":"東京都","city":"文京区","address":"東京都文京区本駒込4丁目35-15","lat":35.73346756,"lon":139.75514043},{"name":"湯島小学校育成室","province":"東京都","city":"文京区","address":"東京都文京区湯島2-28-14","lat":35.706572,"lon":139.766568},{"name":"大塚小学校育成室","province":"東京都","city":"文京区","address":"東京都文京区大塚4-1-7","lat":35.72375,"lon":139.736374},{"name":"駕籠町小学校育成室","province":"東京都","city":"文京区","address":"東京都文京区本駒込2-29-6","lat":35.728631,"lon":139.745992999999},{"name":"神明育成室","province":"東京都","city":"文京区","address":"東京都文京区本駒込4-35-15","lat":35.7332759999999,"lon":139.755369},{"name":"窪町育成室","province":"東京都","city":"文京区","address":"東京都文京区大塚3-2-3","lat":35.7188769999999,"lon":139.735628999999},{"name":"駒本育成室","province":"東京都","city":"文京区","address":"東京都文京区向丘2-37-5","lat":35.7246179999999,"lon":139.754577},{"name":"汐見育成室","province":"東京都","city":"文京区","address":"東京都文京区千駄木2-19-23","lat":35.723733,"lon":139.760914},{"name":"千駄木育成室","province":"東京都","city":"文京区","address":"東京都文京区千駄木5-44-2","lat":35.72914,"lon":139.758950999999},{"name":"文林中学校育成室","province":"東京都","city":"文京区","address":"東京都文京区千駄木5-44-12","lat":35.728461,"lon":139.758484},{"name":"本郷第三育成室","province":"東京都","city":"文京区","address":"東京都文京区本郷4-5-15","lat":35.7077689999999,"lon":139.758134},{"name":"本郷第二育成室","province":"東京都","city":"文京区","address":"東京都文京区本郷4-5-15","lat":35.7080929999999,"lon":139.758136},{"name":"誠之育成室","province":"東京都","city":"文京区","address":"東京都文京区向丘2-5-7","lat":35.7173349999999,"lon":139.75788},{"name":"茗台育成室","province":"東京都","city":"文京区","address":"東京都文京区春日2-9-5","lat":35.7133979999999,"lon":139.741275999999},{"name":"向丘育成室","province":"東京都","city":"文京区","address":"東京都文京区向丘1-3-13","lat":35.71751494,"lon":139.7565222},{"name":"柳町第二育成室","province":"東京都","city":"文京区","address":"東京都文京区小石川1-23-16","lat":35.7139319999999,"lon":139.750324},{"name":"指ヶ谷育成室","province":"東京都","city":"文京区","address":"東京都文京区白山2-28-4","lat":35.717306,"lon":139.750766999999},{"name":"柳町第三育成室","province":"東京都","city":"文京区","address":"東京都文京区小石川1-23-16","lat":35.7139319999999,"lon":139.750324},{"name":"目白台運動公園","province":"東京都","city":"文京区","address":"東京都文京区目白台1-20-2","lat":35.717258,"lon":139.723396},{"name":"高齢者あんしん相談センター\n大塚","province":"東京都","city":"文京区","address":"東京都文京区大塚4-50-1","lat":35.724654,"lon":139.730809},{"name":"高齢者あんしん相談センター\n大塚分室","province":"東京都","city":"文京区","address":"東京都文京区音羽1-15-12","lat":35.715336,"lon":139.729627},{"name":"文京白山の郷","province":"東京都","city":"文京区","address":"東京都文京区白山5丁目16-3","lat":35.72467931,"lon":139.74676075},{"name":"高齢者あんしん相談センター\n富坂分室","province":"東京都","city":"文京区","address":"東京都文京区小石川2-11-11","lat":35.711945,"lon":139.750345},{"name":"高齢者あんしん相談センター\n本富士","province":"東京都","city":"文京区","address":"東京都文京区湯島4-9-8","lat":35.709565,"lon":139.764591},{"name":"高齢者あんしん相談センター\n本富士分室","province":"東京都","city":"文京区","address":"東京都文京区本郷2-21-3","lat":35.704504,"lon":139.759142},{"name":"福祉センター江戸川橋","province":"東京都","city":"文京区","address":"東京都文京区小日向2-16-15","lat":35.710602,"lon":139.734647},{"name":"本郷福祉センター若駒の里","province":"東京都","city":"文京区","address":"東京都文京区本駒込4丁目35-15","lat":35.73346756,"lon":139.75514043},{"name":"大塚福祉作業所","province":"東京都","city":"文京区","address":"東京都文京区大塚4丁目50-1","lat":35.72475665,"lon":139.7308038},{"name":"小石川福祉作業所","province":"東京都","city":"文京区","address":"東京都文京区小石川3丁目30-6","lat":35.71408886,"lon":139.74864981},{"name":"播磨坂清掃事業所","province":"東京都","city":"文京区","address":"東京都文京区小石川5丁目40-21","lat":35.71723559,"lon":139.74281134},{"name":"文京清掃事務所","province":"東京都","city":"文京区","address":"東京都文京区後楽1丁目7-29","lat":35.70537865,"lon":139.74703915},{"name":"文京清掃事務所本郷分室","province":"東京都","city":"文京区","address":"東京都文京区湯島4丁目1-14","lat":35.70769001,"lon":139.76429613},{"name":"藍染保育園","province":"東京都","city":"文京区","address":"東京都文京区根津2-34-15","lat":35.721173,"lon":139.763272999999},{"name":"青柳保育園","province":"東京都","city":"文京区","address":"東京都文京区水道2-9-6\n※仮園舎住所","lat":35.7134679999999,"lon":139.729158},{"name":"大塚保育園","province":"東京都","city":"文京区","address":"東京都文京区大塚6-22-19","lat":35.7246349999999,"lon":139.725646},{"name":"こひなた保育園","province":"東京都","city":"文京区","address":"東京都文京区小日向1-21-1","lat":35.714013,"lon":139.736124999999},{"name":"駒込保育園","province":"東京都","city":"文京区","address":"東京都文京区千駄木3-19-17","lat":35.729655,"lon":139.760629999999},{"name":"さしがや保育園","province":"東京都","city":"文京区","address":"東京都文京区白山2-32-6","lat":35.7181039999999,"lon":139.749759},{"name":"しおみ保育園","province":"東京都","city":"文京区","address":"東京都文京区千駄木2-27-8","lat":35.724935,"lon":139.761908},{"name":"水道保育園","province":"東京都","city":"文京区","address":"東京都文京区水道1-3-26","lat":35.7095669999999,"lon":139.742295},{"name":"千石西保育園","province":"東京都","city":"文京区","address":"東京都文京区千石3-15-15","lat":35.7249139999999,"lon":139.738225999999},{"name":"千石保育園","province":"東京都","city":"文京区","address":"東京都文京区千石1-4-3","lat":35.7248149999999,"lon":139.743264},{"name":"久堅保育園","province":"東京都","city":"文京区","address":"東京都文京区小石川5-27-7","lat":35.718614,"lon":139.741553},{"name":"本郷保育園","province":"東京都","city":"文京区","address":"東京都文京区本郷1-28-12","lat":35.70644,"lon":139.756699999999},{"name":"本駒込西保育園","province":"東京都","city":"文京区","address":"東京都文京区本駒込2-9-16","lat":35.7276159999999,"lon":139.74753},{"name":"本駒込保育園","province":"東京都","city":"文京区","address":"東京都文京区本駒込5-63-2","lat":35.733842,"lon":139.752436999999},{"name":"本駒込南保育園","province":"東京都","city":"文京区","address":"東京都文京区本駒込3-11-14","lat":35.727715,"lon":139.755128},{"name":"向丘保育園","province":"東京都","city":"文京区","address":"東京都文京区向丘1-3-11","lat":35.7174869999999,"lon":139.756614},{"name":"目白台保育園","province":"東京都","city":"文京区","address":"東京都文京区目白台1-5-1","lat":35.7138309999999,"lon":139.720661},{"name":"保健サービスセンター\n本郷支所","province":"東京都","city":"文京区","address":"東京都文京区千駄木5丁目20-18","lat":35.72709628,"lon":139.76017919},{"name":"肥後細川庭園","province":"東京都","city":"文京区","address":"東京都文京区目白台1-1-22","lat":35.71313,"lon":139.721985},{"name":"豊川浴泉","province":"東京都","city":"文京区","address":"東京都文京区目白台1丁目13-1","lat":35.71446301,"lon":139.71767476},{"name":"富士見湯","province":"東京都","city":"文京区","address":"東京都文京区白山1丁目3-5","lat":35.71559439,"lon":139.75324938},{"name":"ふくの湯","province":"東京都","city":"文京区","address":"東京都文京区千駄木5丁目41-5","lat":35.7280988,"lon":139.75677383},{"name":"根津幼稚園","province":"東京都","city":"文京区","address":"東京都文京区根津1-14-2","lat":35.71745,"lon":139.755035},{"name":"本駒込幼稚園","province":"東京都","city":"文京区","address":"東京都文京区本駒込4-35-15","lat":35.718575,"lon":139.763038},{"name":"柳町こどもの森（幼稚園+保育園）","province":"東京都","city":"文京区","address":"東京都文京区小石川1-23-6","lat":35.713695,"lon":139.750497},{"name":"文京区民センター","province":"東京都","city":"文京区","address":"東京都文京区本郷4-15-14","lat":35.708818,"lon":139.754156},{"name":"大塚地域活動センター","province":"東京都","city":"文京区","address":"東京都文京区大塚1-5-17","lat":35.718634,"lon":139.734637},{"name":"文京シビックセンター","province":"東京都","city":"文京区","address":"東京都文京区春日1-16-21","lat":35.708065,"lon":139.752174},{"name":"駕籠町小学校育成室","province":"東京都","city":"文京区","address":"東京都文京区本駒込2-29-6","lat":35.728631,"lon":139.745993},{"name":"神明育成室","province":"東京都","city":"文京区","address":"東京都文京区本駒込4-35-15","lat":35.733276,"lon":139.755369},{"name":"窪町育成室","province":"東京都","city":"文京区","address":"東京都文京区大塚3-2-3","lat":35.718877,"lon":139.735629},{"name":"駒本育成室","province":"東京都","city":"文京区","address":"東京都文京区向丘2-37-5","lat":35.724618,"lon":139.754577},{"name":"千駄木育成室","province":"東京都","city":"文京区","address":"東京都文京区千駄木5-44-2","lat":35.72914,"lon":139.758951},{"name":"本郷第三育成室","province":"東京都","city":"文京区","address":"東京都文京区本郷4-5-15","lat":35.707769,"lon":139.758134},{"name":"本郷第二育成室","province":"東京都","city":"文京区","address":"東京都文京区本郷4-5-15","lat":35.708093,"lon":139.758136},{"name":"誠之育成室","province":"東京都","city":"文京区","address":"東京都文京区向丘2-5-7","lat":35.717335,"lon":139.75788},{"name":"茗台育成室","province":"東京都","city":"文京区","address":"東京都文京区春日2-9-5","lat":35.713398,"lon":139.741276},{"name":"柳町第二育成室","province":"東京都","city":"文京区","address":"東京都文京区小石川1-23-16","lat":35.713932,"lon":139.750324},{"name":"指ヶ谷育成室","province":"東京都","city":"文京区","address":"東京都文京区白山2-28-4","lat":35.717306,"lon":139.750767},{"name":"柳町第三育成室","province":"東京都","city":"文京区","address":"東京都文京区小石川1-23-16","lat":35.713932,"lon":139.750324},{"name":"藍染保育園","province":"東京都","city":"文京区","address":"東京都文京区根津2-34-15","lat":35.721173,"lon":139.763273},{"name":"大塚保育園","province":"東京都","city":"文京区","address":"東京都文京区大塚6-22-19","lat":35.724635,"lon":139.725646},{"name":"こひなた保育園","province":"東京都","city":"文京区","address":"東京都文京区小日向1-21-1","lat":35.714013,"lon":139.736125},{"name":"駒込保育園","province":"東京都","city":"文京区","address":"東京都文京区千駄木3-19-17","lat":35.729655,"lon":139.76063},{"name":"さしがや保育園","province":"東京都","city":"文京区","address":"東京都文京区白山2-32-6","lat":35.718104,"lon":139.749759},{"name":"水道保育園","province":"東京都","city":"文京区","address":"東京都文京区水道1-3-26","lat":35.709567,"lon":139.742295},{"name":"千石西保育園","province":"東京都","city":"文京区","address":"東京都文京区千石3-15-15","lat":35.724914,"lon":139.738226},{"name":"千石保育園","province":"東京都","city":"文京区","address":"東京都文京区千石1-4-3","lat":35.724815,"lon":139.743264},{"name":"本郷保育園","province":"東京都","city":"文京区","address":"東京都文京区本郷1-28-12","lat":35.70644,"lon":139.7567},{"name":"本駒込西保育園","province":"東京都","city":"文京区","address":"東京都文京区本駒込2-9-16","lat":35.727616,"lon":139.74753},{"name":"本駒込保育園","province":"東京都","city":"文京区","address":"東京都文京区本駒込5-63-2","lat":35.733842,"lon":139.752437},{"name":"向丘保育園","province":"東京都","city":"文京区","address":"東京都文京区向丘1-3-11","lat":35.717487,"lon":139.756614},{"name":"目白台保育園","province":"東京都","city":"文京区","address":"東京都文京区目白台1-5-1","lat":35.713831,"lon":139.720661}]}