{"keyword":"総務","data":[{"name":"東京大学御殿下グラウンド","province":"東京都","city":"文京区","address":"東京都文京区本郷7丁目3-1","lat":35.71203394,"lon":139.76277932},{"name":"東京大学医学部附属病院ヘリポート","province":"東京都","city":"文京区","address":"東京都文京区本郷7丁目3-1","lat":35.71203394,"lon":139.76277932},{"name":"東京大学農学部グラウンド","province":"東京都","city":"文京区","address":"東京都文京区弥生1丁目1","lat":35.71893042,"lon":139.76032934},{"name":"順天堂大学医学部附属順天堂医院ヘリポート","province":"東京都","city":"文京区","address":"東京都文京区本郷3丁目1-3","lat":35.70250161,"lon":139.76261313},{"name":"東京医科歯科大学医学部附属病院ヘリポート","province":"東京都","city":"文京区","address":"東京都文京区湯島1丁目5-45","lat":35.70099629,"lon":139.76491864},{"name":"目白台運動公園","province":"東京都","city":"文京区","address":"東京都文京区目白台1丁目20-2","lat":35.71545467,"lon":139.72151883},{"name":"文京シビックセンター","province":"東京都","city":"文京区","address":"東京都文京区春日1丁目16-21","lat":35.70794517,"lon":139.75242748},{"name":"中央・城北職業能力開発センター","province":"東京都","city":"文京区","address":"東京都文京区後楽1丁目9-5","lat":35.70352608,"lon":139.74679479},{"name":"小石川中等教育学校","province":"東京都","city":"文京区","address":"東京都文京区本駒込2丁目29-29","lat":35.72883159,"lon":139.74594681},{"name":"教職員研修センター","province":"東京都","city":"文京区","address":"東京都文京区本郷1丁目3-3","lat":35.702432,"lon":139.75672739},{"name":"竹早高等学校","province":"東京都","city":"文京区","address":"東京都文京区小石川4丁目2-1","lat":35.71336381,"lon":139.74350307},{"name":"向丘高等学校","province":"東京都","city":"文京区","address":"東京都文京区向丘1丁目11-18","lat":35.72185769,"lon":139.7545297},{"name":"工芸高等学校","province":"東京都","city":"文京区","address":"東京都文京区本郷1丁目3-9","lat":35.70258197,"lon":139.75616354}]}