{"keyword":"自転車","data":[{"name":"水道橋B","province":"東京都","city":"文京区","address":"東京都文京区本郷1丁目3","lat":35.702049,"lon":139.755575},{"name":"湯島","province":"東京都","city":"文京区","address":"東京都文京区湯島4丁目6","lat":35.708501,"lon":139.769144},{"name":"江戸川橋A","province":"東京都","city":"文京区","address":"東京都文京区関口1丁目21","lat":35.709648,"lon":139.733015},{"name":"江戸川橋B","province":"東京都","city":"文京区","address":"東京都文京区関口1丁目21","lat":35.710128,"lon":139.732739},{"name":"江戸川公園前","province":"東京都","city":"文京区","address":"東京都文京区関口2丁目2","lat":35.711034,"lon":139.730869},{"name":"茗荷谷Ａ","province":"東京都","city":"文京区","address":"東京都文京区小石川5丁目6","lat":35.718416,"lon":139.736748},{"name":"茗荷谷Ｂ","province":"東京都","city":"文京区","address":"東京都文京区大塚3丁目29","lat":35.719231,"lon":139.737497},{"name":"茗荷谷駅","province":"東京都","city":"文京区","address":"東京都文京区小日向4丁目6","lat":35.716951,"lon":139.737062},{"name":"飯田橋","province":"東京都","city":"文京区","address":"東京都文京区後楽2丁目1","lat":35.703275,"lon":139.745112},{"name":"飯田橋臨時","province":"東京都","city":"文京区","address":"東京都文京区後楽1丁目10","lat":35.702844,"lon":139.745739},{"name":"東大前","province":"東京都","city":"文京区","address":"東京都文京区弥生1丁目1","lat":35.716868,"lon":139.758636},{"name":"根津一丁目","province":"東京都","city":"文京区","address":"東京都文京区根津1丁目17","lat":35.718974,"lon":139.763654},{"name":"根津二丁目","province":"東京都","city":"文京区","address":"東京都文京区根津2丁目12","lat":35.718009,"lon":139.765507},{"name":"本郷三丁目","province":"東京都","city":"文京区","address":"東京都文京区本郷3丁目36","lat":35.707436,"lon":139.761297},{"name":"本郷三丁目駅","province":"東京都","city":"文京区","address":"東京都文京区本郷2丁目39","lat":35.706467,"lon":139.759819},{"name":"本郷三丁目臨時","province":"東京都","city":"文京区","address":"東京都文京区本郷2丁目40","lat":35.707351,"lon":139.760314},{"name":"本駒込Ａ","province":"東京都","city":"文京区","address":"東京都文京区向丘2丁目37","lat":35.724491,"lon":139.753941},{"name":"本駒込Ｂ","province":"東京都","city":"文京区","address":"東京都文京区本駒込1丁目6","lat":35.724588,"lon":139.753628},{"name":"白山上","province":"東京都","city":"文京区","address":"東京都文京区白山5丁目34","lat":35.721746,"lon":139.752223},{"name":"白山下","province":"東京都","city":"文京区","address":"東京都文京区白山5丁目1","lat":35.719938,"lon":139.751012},{"name":"白山京華","province":"東京都","city":"文京区","address":"東京都文京区白山5丁目1","lat":35.720831,"lon":139.750084},{"name":"千石南","province":"東京都","city":"文京区","address":"東京都文京区白山5丁目17","lat":35.726979,"lon":139.746008},{"name":"シビックセンター幼児2人同乗用","province":"東京都","city":"文京区","address":"東京都文京区春日1丁目16-21","lat":35.707662,"lon":139.75209},{"name":"春日","province":"東京都","city":"文京区","address":"東京都文京区本郷4丁目15","lat":35.708209,"lon":139.753432},{"name":"後楽園","province":"東京都","city":"文京区","address":"東京都文京区春日1丁目15","lat":35.707595,"lon":139.751705},{"name":"礫川公園前","province":"東京都","city":"文京区","address":"東京都文京区春日1丁目15","lat":35.70797,"lon":139.750939},{"name":"後楽園駅前","province":"東京都","city":"文京区","address":"東京都文京区春日1丁目15","lat":35.707697,"lon":139.751639},{"name":"千石東","province":"東京都","city":"文京区","address":"東京都文京区本駒込2丁目29-20","lat":35.728207,"lon":139.744849},{"name":"千石西","province":"東京都","city":"文京区","address":"東京都文京区千石1丁目27","lat":35.728181,"lon":139.744195},{"name":"護国寺駅西","province":"東京都","city":"文京区","address":"東京都文京区音羽2丁目12","lat":35.719349,"lon":139.725312},{"name":"茗荷谷中央第一","province":"東京都","city":"文京区","address":"東京都文京区大塚1丁目4","lat":35.717556,"lon":139.736175},{"name":"茗荷谷中央第二","province":"東京都","city":"文京区","address":"東京都文京区大塚1丁目4","lat":35.717556,"lon":139.736175},{"name":"江戸川橋交番横","province":"東京都","city":"文京区","address":"東京都文京区関口1丁目23-1","lat":35.710355,"lon":139.731218},{"name":"江戸川橋新目白通り","province":"東京都","city":"文京区","address":"東京都文京区関口1丁目23-6","lat":35.71034,"lon":139.7304},{"name":"春日自転車駐車場","province":"東京都","city":"文京区","address":"東京都文京区春日1丁目16","lat":35.70794518,"lon":139.75268024},{"name":"後楽園自転車駐車場","province":"東京都","city":"文京区","address":"東京都文京区春日1丁目15","lat":35.70792292,"lon":139.75088317},{"name":"千石東自転車駐車場","province":"東京都","city":"文京区","address":"東京都文京区本駒込2丁目29-17","lat":35.72801223,"lon":139.74517467},{"name":"千石西自転車駐車場","province":"東京都","city":"文京区","address":"東京都文京区千石1丁目27-12","lat":35.72804831,"lon":139.74426086},{"name":"千石南自転車駐車場","province":"東京都","city":"文京区","address":"東京都文京区白山5丁目17-13","lat":35.72679572,"lon":139.7461663},{"name":"護国寺駅西自転車駐車場","province":"東京都","city":"文京区","address":"東京都文京区音羽2丁目12","lat":35.71938771,"lon":139.72674046},{"name":"茗荷谷中央第一自転車駐車場","province":"東京都","city":"文京区","address":"東京都文京区大塚1丁目4-15","lat":35.71752984,"lon":139.73614528},{"name":"東大前自転車駐車場","province":"東京都","city":"文京区","address":"東京都文京区向丘2丁目2-1","lat":35.71711663,"lon":139.75877945},{"name":"本郷三丁目自転車駐車場","province":"東京都","city":"文京区","address":"東京都文京区本郷3丁目36-8","lat":35.70743715,"lon":139.76149071},{"name":"礫川公園前自転車駐車場","province":"東京都","city":"文京区","address":"東京都文京区春日1丁目15","lat":35.70792292,"lon":139.75088317},{"name":"江戸川橋交番横自転車駐車場","province":"東京都","city":"文京区","address":"東京都文京区関口1丁目23-1","lat":35.71038049,"lon":139.73109596},{"name":"茗荷谷中央第二自転車駐車場","province":"東京都","city":"文京区","address":"東京都文京区大塚1丁目4-15","lat":35.71752984,"lon":139.73614528},{"name":"水道橋A自転車駐車場","province":"東京都","city":"文京区","address":"東京都文京区後楽1丁目1-18","lat":35.70227919,"lon":139.75494976},{"name":"水道橋B自転車駐車場","province":"東京都","city":"文京区","address":"東京都文京区本郷1丁目3-9","lat":35.70258197,"lon":139.75616354},{"name":"湯島自転車駐車場","province":"東京都","city":"文京区","address":"東京都文京区湯島3丁目47-3","lat":35.70840956,"lon":139.76932088},{"name":"江戸川橋A自転車駐車場","province":"東京都","city":"文京区","address":"東京都文京区関口1丁目21-19","lat":35.70956951,"lon":139.73298748},{"name":"江戸川橋Ｂ自転車駐車場","province":"東京都","city":"文京区","address":"東京都文京区関口1丁目19-6","lat":35.70911681,"lon":139.73412907},{"name":"江戸川公園前自転車駐車場","province":"東京都","city":"文京区","address":"東京都文京区関口2丁目2","lat":35.71076097,"lon":139.7296294},{"name":"茗荷谷A自転車駐車場","province":"東京都","city":"文京区","address":"東京都文京区小石川5丁目5-7","lat":35.71808257,"lon":139.73667576},{"name":"茗荷谷Ｂ自転車駐車場","province":"東京都","city":"文京区","address":"東京都文京区大塚3丁目30","lat":35.71982964,"lon":139.73842},{"name":"茗荷谷駅自転車駐車場","province":"東京都","city":"文京区","address":"東京都文京区小日向4丁目6-15","lat":35.71735487,"lon":139.73680355},{"name":"飯田橋自転車駐車場","province":"東京都","city":"文京区","address":"東京都文京区後楽2丁目1-8","lat":35.70333995,"lon":139.74522549},{"name":"根津一丁目自転車駐車場","province":"東京都","city":"文京区","address":"東京都文京区根津1丁目17-1","lat":35.71888335,"lon":139.76379583},{"name":"根津二丁目自転車駐車場","province":"東京都","city":"文京区","address":"東京都文京区根津2丁目12-7","lat":35.71785574,"lon":139.76550131},{"name":"本郷三丁目駅自転車駐車場","province":"東京都","city":"文京区","address":"東京都文京区本郷2丁目39-1","lat":35.70662885,"lon":139.75992139},{"name":"本郷三丁目臨時自転車駐車場","province":"東京都","city":"文京区","address":"東京都文京区本郷2丁目40-11","lat":35.70723714,"lon":139.76037966},{"name":"本駒込A自転車駐車場","province":"東京都","city":"文京区","address":"東京都文京区向丘2丁目36-13","lat":35.72435185,"lon":139.75401579},{"name":"本駒込Ｂ自転車駐車場","province":"東京都","city":"文京区","address":"東京都文京区本駒込1丁目6-15","lat":35.72459347,"lon":139.75353526},{"name":"白山下自転車駐車場","province":"東京都","city":"文京区","address":"東京都文京区白山5丁目1-3","lat":35.72018275,"lon":139.75119667},{"name":"白山京華自転車駐車場","province":"東京都","city":"文京区","address":"東京都文京区白山5丁目1-9","lat":35.72079098,"lon":139.75023006},{"name":"シビックセンター幼児二人同乗用自転車駐車場","province":"東京都","city":"文京区","address":"東京都文京区春日1丁目16-21","lat":35.70794517,"lon":139.75242748},{"name":"後楽園駅前自転車駐車場","province":"東京都","city":"文京区","address":"東京都文京区春日1丁目15","lat":35.70792292,"lon":139.75088317},{"name":"江戸川橋新目白通り自転車駐車場","province":"東京都","city":"文京区","address":"東京都文京区関口1丁目23","lat":35.71041104,"lon":139.73096819},{"name":"飯田橋臨時自転車駐車場","province":"東京都","city":"文京区","address":"東京都文京区後楽1丁目10","lat":35.70279834,"lon":139.74546994},{"name":"中央大学茗荷谷キャンパス内自転車駐車場","province":"東京都","city":"文京区","address":"東京都文京区大塚1丁目4-1","lat":35.71787978,"lon":139.73560642}]}