{"keyword":"認可","data":[{"name":"大空と大地のなーさりぃ茗荷谷園","province":"東京都","city":"文京区","address":"文京区大塚3丁目27番1号","lat":35.72286409,"lon":139.7359083},{"name":"AIAI NURSERY 新大塚","province":"東京都","city":"文京区","address":"文京区大塚6丁目23番9号","lat":35.72403,"lon":139.7258},{"name":"八千代保育園（休園中）","province":"東京都","city":"文京区","address":"文京区音羽1-19-18","lat":35.71568,"lon":139.72856},{"name":"慈愛会保育園","province":"東京都","city":"文京区","address":"文京区本郷6-12-5","lat":35.71312,"lon":139.757},{"name":"こころおちゃのみず第一保育園","province":"東京都","city":"文京区","address":"文京区湯島1丁目10番5号湯島D&Aビル1階","lat":35.70279933,"lon":139.7655},{"name":"八千代保育園","province":"東京都","city":"文京区","address":"文京区音羽1-19-18","lat":35.71568,"lon":139.72856},{"name":"キッズソフィア・白山保育園","province":"東京都","city":"文京区","address":"文京区白山4-36-13","lat":35.72227,"lon":139.74788},{"name":"あい・あい保育園　新大塚園","province":"東京都","city":"文京区","address":"文京区大塚6-23-9","lat":35.72403,"lon":139.7258},{"name":"日生湯島保育園ひびき","province":"東京都","city":"文京区","address":"文京区湯島4-1-12","lat":35.70805,"lon":139.76439},{"name":"文京ガーデンひかり保育園","province":"東京都","city":"文京区","address":"文京区小石川1-1-7","lat":35.70878,"lon":139.75291},{"name":"小石川ちとせ保育園","province":"東京都","city":"文京区","address":"文京区小石川2-4-12","lat":35.70931,"lon":139.75041},{"name":"文京区立千石保育園","province":"東京都","city":"文京区","address":"文京区千石1-4-3","lat":35.72475,"lon":139.7432},{"name":"テンダーラビング保育園茗荷谷園","province":"東京都","city":"文京区","address":"文京区大塚4-41-12","lat":35.72206,"lon":139.73377},{"name":"保育所ま?anitize]む東大前園","province":"東京都","city":"文京区","address":"文京区向丘1-16-26","lat":35.71851,"lon":139.75633},{"name":"こころの保育園文京西片","province":"東京都","city":"文京区","address":"文京区西片2-1-1","lat":35.71396,"lon":139.75693},{"name":"キッズガーデン文京春日","province":"東京都","city":"文京区","address":"文京区西片1-17-8","lat":35.71364,"lon":139.75263},{"name":"こころおちゃのみず第一保育園","province":"東京都","city":"文京区","address":"文京区湯島1-10-5湯島D&Aビル1階","lat":35.70141,"lon":139.76462},{"name":"こころおちゃのみず第二保育園","province":"東京都","city":"文京区","address":"文京区湯島1-10-5湯島D&Aビル2階","lat":35.7052,"lon":139.76591}]}