{"keyword":"谷沢","data":[{"name":"社会福祉法人武蔵野会リアン文京","province":"東京都","city":"文京区","address":"東京都文京区小日向2丁目16-15","lat":35.71058055,"lon":139.73458175},{"name":"東西(鶯谷駅経由・日医大回りルート)13千駄木駅","province":"東京都","city":"文京区","address":"東京都文京区千駄木3丁目37","lat":35.72519273,"lon":139.7631852},{"name":"東西(鶯谷駅経由・日医大回りルート)12谷中銀座・よみせ通り","province":"東京都","city":"文京区","address":"東京都文京区千駄木3丁目40","lat":35.72657268,"lon":139.7645051},{"name":"東西(上野公園経由・三崎坂往復ルート)13千駄木駅","province":"東京都","city":"文京区","address":"東京都文京区千駄木3丁目37","lat":35.72519273,"lon":139.7631852},{"name":"東西(上野公園経由・三崎坂往復ルート)12谷中銀座・よみせ通り","province":"東京都","city":"文京区","address":"東京都文京区千駄木3丁目40","lat":35.72657268,"lon":139.7645051},{"name":"東西(鶯谷駅経由・日医大回りルート)14-1日本医科大学付属病院下","province":"東京都","city":"文京区","address":"東京都文京区根津2丁目37","lat":35.72097345,"lon":139.7623266},{"name":"東西(鶯谷駅経由・日医大回りルート)15-1根津駅前","province":"東京都","city":"文京区","address":"東京都文京区根津2丁目19","lat":35.71810966,"lon":139.7653779},{"name":"社会福祉法人武蔵野会リアン文京","province":"東京都","city":"文京区","address":"東京都文京区小日向2丁目16-15","lat":35.71058055,"lon":139.73458175},{"name":"社会福祉法人武蔵野会リアン文京","province":"東京都","city":"文京区","address":"東京都文京区小日向2丁目16-15","lat":35.71058055,"lon":139.73458175},{"name":"社会福祉法人武蔵野会リアン文京","province":"東京都","city":"文京区","address":"東京都文京区小日向2丁目16-15","lat":35.71058055,"lon":139.73458175},{"name":"社会福祉法人武蔵野会リアン文京","province":"東京都","city":"文京区","address":"東京都文京区小日向2丁目16-15","lat":35.71058055,"lon":139.73458175},{"name":"社会福祉法人武蔵野会リアン文京","province":"東京都","city":"文京区","address":"東京都文京区小日向2丁目16-15","lat":35.71058055,"lon":139.73458175},{"name":"社会福祉法人武蔵野会リアン文京","province":"東京都","city":"文京区","address":"東京都文京区小日向2丁目16-15","lat":35.71058055,"lon":139.73458175},{"name":"社会福祉法人武蔵野会リアン文京","province":"東京都","city":"文京区","address":"東京都文京区小日向2丁目16-15","lat":35.71058055,"lon":139.73458175},{"name":"社会福祉法人武蔵野会リアン文京","province":"東京都","city":"文京区","address":"東京都文京区小日向2丁目16-15","lat":35.71058055,"lon":139.73458175},{"name":"社会福祉法人武蔵野会リアン文京","province":"東京都","city":"文京区","address":"東京都文京区小日向2丁目16-15","lat":35.71058055,"lon":139.73458175},{"name":"社会福祉法人武蔵野会リアン文京","province":"東京都","city":"文京区","address":"東京都文京区小日向2丁目16-15","lat":35.71058055,"lon":139.73458175},{"name":"社会福祉法人武蔵野会リアン文京","province":"東京都","city":"文京区","address":"東京都文京区小日向2丁目16-15","lat":35.71058055,"lon":139.73458175},{"name":"社会福祉法人武蔵野会リアン文京","province":"東京都","city":"文京区","address":"東京都文京区小日向2丁目16-15","lat":35.71058055,"lon":139.73458175},{"name":"社会福祉法人武蔵野会リアン文京","province":"東京都","city":"文京区","address":"東京都文京区小日向2丁目16-15","lat":35.71058055,"lon":139.73458175},{"name":"社会福祉法人武蔵野会リアン文京","province":"東京都","city":"文京区","address":"東京都文京区小日向2丁目16-15","lat":35.71058055,"lon":139.73458175},{"name":"社会福祉法人武蔵野会リアン文京","province":"東京都","city":"文京区","address":"東京都文京区小日向2丁目16-15","lat":35.71058055,"lon":139.73458175},{"name":"社会福祉法人武蔵野会リアン文京","province":"東京都","city":"文京区","address":"東京都文京区小日向2丁目16-15","lat":35.71058055,"lon":139.73458175},{"name":"社会福祉法人武蔵野会リアン文京","province":"東京都","city":"文京区","address":"東京都文京区小日向2丁目16-15","lat":35.71058055,"lon":139.73458175},{"name":"社会福祉法人武蔵野会リアン文京","province":"東京都","city":"文京区","address":"東京都文京区小日向2丁目16-15","lat":35.71058055,"lon":139.73458175},{"name":"社会福祉法人武蔵野会リアン文京","province":"東京都","city":"文京区","address":"東京都文京区小日向2丁目16-15","lat":35.71058055,"lon":139.73458175}]}