{"keyword":"遊び場","data":[{"name":"大塚公園","province":"東京都","city":"文京区","address":"東京都文京区大塚4丁目49番","lat":35.723756,"lon":139.732258},{"name":"元町公園","province":"東京都","city":"文京区","address":"東京都文京区本郷1丁目1番","lat":35.702267,"lon":139.758281},{"name":"須藤公園","province":"東京都","city":"文京区","address":"東京都文京区千駄木3丁目4番","lat":35.726423,"lon":139.762697},{"name":"駒込公園","province":"東京都","city":"文京区","address":"東京都文京区本駒込3丁目18番","lat":35.730609,"lon":139.757271},{"name":"新花公園","province":"東京都","city":"文京区","address":"東京都文京区湯島2丁目31番","lat":35.706991,"lon":139.766385},{"name":"清和公園","province":"東京都","city":"文京区","address":"東京都文京区本郷4丁目22番","lat":35.710122,"lon":139.754358},{"name":"白山公園","province":"東京都","city":"文京区","address":"東京都文京区白山5丁目31番","lat":35.722223,"lon":139.750368},{"name":"江戸川公園","province":"東京都","city":"文京区","address":"東京都文京区関口2丁目1番","lat":35.710753,"lon":139.730818},{"name":"大塚窪町公園","province":"東京都","city":"文京区","address":"東京都文京区大塚3丁目26番","lat":35.722183,"lon":139.73622},{"name":"久堅公園","province":"東京都","city":"文京区","address":"東京都文京区小石川5丁目27番","lat":35.718334,"lon":139.741811},{"name":"竹早公園","province":"東京都","city":"文京区","address":"東京都文京区小石川5丁目9番","lat":35.717058,"lon":139.739872},{"name":"窪町東公園","province":"東京都","city":"文京区","address":"東京都文京区大塚3丁目30番","lat":35.71983,"lon":139.73842},{"name":"大塚仲町公園","province":"東京都","city":"文京区","address":"東京都文京区大塚3丁目12番","lat":35.72096,"lon":139.733318},{"name":"富士前公園","province":"東京都","city":"文京区","address":"東京都文京区本駒込5丁目17番","lat":35.732237,"lon":139.750955},{"name":"礫川公園","province":"東京都","city":"文京区","address":"東京都文京区春日1丁目15番","lat":35.707952,"lon":139.751074},{"name":"切通公園","province":"東京都","city":"文京区","address":"東京都文京区湯島4丁目6番","lat":35.708488,"lon":139.766489},{"name":"神明公園","province":"東京都","city":"文京区","address":"東京都文京区本駒込4丁目13番","lat":35.731354,"lon":139.754238},{"name":"動坂公園","province":"東京都","city":"文京区","address":"東京都文京区本駒込4丁目18番","lat":35.731857,"lon":139.756366},{"name":"新大塚公園","province":"東京都","city":"文京区","address":"東京都文京区大塚1丁目8番","lat":35.717377,"lon":139.733563},{"name":"文京宮下公園","province":"東京都","city":"文京区","address":"東京都文京区千石4丁目23番","lat":35.730051,"lon":139.738792},{"name":"神明北公園","province":"東京都","city":"文京区","address":"東京都文京区本駒込5丁目67番","lat":35.734292,"lon":139.751158},{"name":"お茶の水公園","province":"東京都","city":"文京区","address":"東京都文京区湯島1丁目4番","lat":35.701164,"lon":139.766243},{"name":"千石公園","province":"東京都","city":"文京区","address":"東京都文京区千石1丁目4番","lat":35.724723,"lon":139.743248},{"name":"関口台公園","province":"東京都","city":"文京区","address":"東京都文京区関口3丁目11番","lat":35.714333,"lon":139.728363},{"name":"神明都電車庫跡公園","province":"東京都","city":"文京区","address":"東京都文京区本駒込4丁目35番","lat":35.733064,"lon":139.755051},{"name":"肥後細川庭園","province":"東京都","city":"文京区","address":"東京都文京区目白台1丁目1番","lat":35.713052,"lon":139.72188},{"name":"小日向公園","province":"東京都","city":"文京区","address":"東京都文京区小日向1丁目11番","lat":35.711993,"lon":139.737338},{"name":"駕籠町公園","province":"東京都","city":"文京区","address":"東京都文京区本駒込2丁目10番","lat":35.728084,"lon":139.746384},{"name":"本郷給水所公苑","province":"東京都","city":"文京区","address":"東京都文京区本郷2丁目7番","lat":35.703443,"lon":139.760328},{"name":"六義公園","province":"東京都","city":"文京区","address":"東京都文京区本駒込6丁目16番","lat":35.731692,"lon":139.746498},{"name":"後楽公園","province":"東京都","city":"文京区","address":"東京都文京区後楽1丁目6番","lat":35.706659,"lon":139.749001},{"name":"千駄木公園","province":"東京都","city":"文京区","address":"東京都文京区千駄木5丁目43番","lat":35.728321,"lon":139.757698},{"name":"教育の森公園","province":"東京都","city":"文京区","address":"東京都文京区大塚3丁目29番","lat":35.72023702,"lon":139.7369535},{"name":"駒込林町公園","province":"東京都","city":"文京区","address":"東京都文京区千駄木3丁目15番","lat":35.729014,"lon":139.760874},{"name":"西片公園","province":"東京都","city":"文京区","address":"東京都文京区西片2丁目3番","lat":35.714005,"lon":139.755472},{"name":"関口三丁目公園","province":"東京都","city":"文京区","address":"東京都文京区関口3丁目2番","lat":35.71304,"lon":139.729409},{"name":"千石緑地","province":"東京都","city":"文京区","address":"東京都文京区千石1丁目6番","lat":35.72652,"lon":139.742625},{"name":"春木町公園","province":"東京都","city":"文京区","address":"東京都文京区本郷3丁目43番","lat":35.706667,"lon":139.764342},{"name":"大塚坂下町公園","province":"東京都","city":"文京区","address":"東京都文京区大塚6丁目10番","lat":35.725609,"lon":139.726654},{"name":"はつね広場","province":"東京都","city":"文京区","address":"東京都文京区小石川1丁目9番","lat":35.71117,"lon":139.751934},{"name":"小石川三丁目緑地","province":"東京都","city":"文京区","address":"東京都文京区小石川3丁目22・24番","lat":35.714672,"lon":139.745361},{"name":"団子坂上広場","province":"東京都","city":"文京区","address":"東京都文京区千駄木5丁目4番","lat":35.72497757,"lon":139.7590488},{"name":"目白台運動公園","province":"東京都","city":"文京区","address":"東京都文京区目白台1丁目19・20番","lat":35.7153677,"lon":139.7214711},{"name":"井上公園","province":"東京都","city":"文京区","address":"東京都文京区小石川3丁目20番","lat":35.713447,"lon":139.747692},{"name":"丸山新町公園","province":"東京都","city":"文京区","address":"東京都文京区白山1丁目27番","lat":35.719445,"lon":139.753629},{"name":"千駄木ふれあいの杜","province":"東京都","city":"文京区","address":"東京都文京区千駄木1丁目11番","lat":35.722897,"lon":139.759067},{"name":"八千代町児童遊園","province":"東京都","city":"文京区","address":"東京都文京区小石川3丁目30番","lat":35.714337,"lon":139.748778},{"name":"西原町児童遊園","province":"東京都","city":"文京区","address":"東京都文京区千石4丁目34番","lat":35.728751,"lon":139.74068},{"name":"八重垣第一児童遊園","province":"東京都","city":"文京区","address":"東京都文京区根津1丁目17番","lat":35.718966,"lon":139.763657},{"name":"丸山福山児童遊園","province":"東京都","city":"文京区","address":"東京都文京区西片1丁目20番","lat":35.714927,"lon":139.752999},{"name":"大観音児童遊園","province":"東京都","city":"文京区","address":"東京都文京区向丘2丁目38番","lat":35.724493,"lon":139.756594},{"name":"台町児童遊園","province":"東京都","city":"文京区","address":"東京都文京区本郷5丁目13番","lat":35.711346,"lon":139.758222},{"name":"小日向台町児童遊園","province":"東京都","city":"文京区","address":"東京都文京区小日向2丁目8番","lat":35.714945,"lon":139.733594},{"name":"春日園児童遊園","province":"東京都","city":"文京区","address":"東京都文京区本郷1丁目33番","lat":35.706768,"lon":139.754688},{"name":"茗荷谷児童遊園","province":"東京都","city":"文京区","address":"東京都文京区小日向1丁目19番","lat":35.713855,"lon":139.736377},{"name":"竜光寺児童遊園","province":"東京都","city":"文京区","address":"東京都文京区本駒込1丁目5番","lat":35.724127,"lon":139.752802},{"name":"汐見児童遊園","province":"東京都","city":"文京区","address":"東京都文京区千駄木2丁目19番","lat":35.72401,"lon":139.760423},{"name":"氷川下児童遊園","province":"東京都","city":"文京区","address":"東京都文京区千石3丁目5番","lat":35.725003,"lon":139.736207},{"name":"大塚児童遊園","province":"東京都","city":"文京区","address":"東京都文京区大塚6丁目22番","lat":35.724447,"lon":139.72586},{"name":"千駄木児童遊園","province":"東京都","city":"文京区","address":"東京都文京区千駄木5丁目17番","lat":35.726431,"lon":139.758822},{"name":"台町第二児童遊園","province":"東京都","city":"文京区","address":"東京都文京区本郷5丁目18番","lat":35.711077,"lon":139.758357},{"name":"大塚五丁目児童遊園","province":"東京都","city":"文京区","address":"東京都文京区大塚5丁目16番","lat":35.721837,"lon":139.730423},{"name":"目白台児童遊園","province":"東京都","city":"文京区","address":"東京都文京区目白台3丁目13番","lat":35.715289,"lon":139.724581},{"name":"森川町児童遊園","province":"東京都","city":"文京区","address":"東京都文京区本郷6丁目10番","lat":35.71226,"lon":139.756876},{"name":"関口一丁目児童遊園","province":"東京都","city":"文京区","address":"東京都文京区関口1丁目9番","lat":35.708778,"lon":139.7326},{"name":"千駄木二丁目児童遊園","province":"東京都","city":"文京区","address":"東京都文京区千駄木2丁目38番","lat":35.724002,"lon":139.76345},{"name":"本駒込二丁目児童遊園","province":"東京都","city":"文京区","address":"東京都文京区本駒込2丁目9番","lat":35.726697,"lon":139.747524},{"name":"春日一丁目児童遊園","province":"東京都","city":"文京区","address":"東京都文京区春日1丁目9番","lat":35.709226,"lon":139.746194},{"name":"千石四丁目児童遊園","province":"東京都","city":"文京区","address":"東京都文京区千石4丁目40番","lat":35.72928,"lon":139.742052},{"name":"西片二丁目児童遊園","province":"東京都","city":"文京区","address":"東京都文京区西片2丁目19番","lat":35.716296,"lon":139.756794},{"name":"千駄木三丁目児童遊園","province":"東京都","city":"文京区","address":"東京都文京区千駄木3丁目42番","lat":35.728051,"lon":139.764207},{"name":"目白台三丁目児童遊園","province":"東京都","city":"文京区","address":"東京都文京区目白台3丁目15番","lat":35.71621,"lon":139.723897},{"name":"本駒込一丁目児童遊園","province":"東京都","city":"文京区","address":"東京都文京区本駒込1丁目18番","lat":35.725651,"lon":139.752098},{"name":"白山三丁目児童遊園","province":"東京都","city":"文京区","address":"東京都文京区白山3丁目6番","lat":35.720374,"lon":139.740929},{"name":"音羽児童遊園","province":"東京都","city":"文京区","address":"東京都文京区音羽1丁目19番","lat":35.714947,"lon":139.728597},{"name":"本郷四丁目児童遊園","province":"東京都","city":"文京区","address":"東京都文京区本郷4丁目28番","lat":35.710722,"lon":139.75507},{"name":"白山五丁目児童遊園","province":"東京都","city":"文京区","address":"東京都文京区白山5丁目35番","lat":35.723797,"lon":139.748418},{"name":"春日二丁目児童遊園","province":"東京都","city":"文京区","address":"東京都文京区春日2丁目11番","lat":35.712426,"lon":139.74119},{"name":"千駄木三丁目第二児童遊園","province":"東京都","city":"文京区","address":"東京都文京区千駄木3丁目12番","lat":35.728172,"lon":139.762121},{"name":"本駒込三丁目児童遊園","province":"東京都","city":"文京区","address":"東京都文京区本駒込3丁目11番","lat":35.727606,"lon":139.755271},{"name":"白山四丁目児童遊園","province":"東京都","city":"文京区","address":"東京都文京区白山4丁目37番","lat":35.724057,"lon":139.746105},{"name":"白山二丁目児童遊園","province":"東京都","city":"文京区","address":"東京都文京区白山2丁目7番","lat":35.716059,"lon":139.748676},{"name":"本郷五丁目児童遊園","province":"東京都","city":"文京区","address":"東京都文京区本郷5丁目22番","lat":35.709559,"lon":139.759105},{"name":"白山一丁目児童遊園","province":"東京都","city":"文京区","address":"東京都文京区白山1丁目29番","lat":35.719275,"lon":139.752831},{"name":"本駒込一丁目第二児童遊園","province":"東京都","city":"文京区","address":"東京都文京区本駒込1丁目16番","lat":35.726141,"lon":139.750662},{"name":"根津二丁目児童遊園","province":"東京都","city":"文京区","address":"東京都文京区根津2丁目22番","lat":35.7191,"lon":139.765406},{"name":"水道二丁目児童遊園","province":"東京都","city":"文京区","address":"東京都文京区水道2丁目9番","lat":35.7107,"lon":139.732349},{"name":"白山五丁目第二児童遊園","province":"東京都","city":"文京区","address":"東京都文京区白山5丁目35番","lat":35.721846,"lon":139.752033},{"name":"白山二丁目第二児童遊園","province":"東京都","city":"文京区","address":"東京都文京区白山2丁目25番","lat":35.716134,"lon":139.751279},{"name":"根津二丁目第二児童遊園","province":"東京都","city":"文京区","address":"東京都文京区根津2丁目13番","lat":35.71772,"lon":139.766148},{"name":"白山四丁目第二児童遊園","province":"東京都","city":"文京区","address":"東京都文京区白山4丁目4番","lat":35.720384,"lon":139.746754},{"name":"水道一丁目児童遊園","province":"東京都","city":"文京区","address":"東京都文京区水道1丁目6番","lat":35.71024,"lon":139.74057},{"name":"弥生児童遊園","province":"東京都","city":"文京区","address":"東京都文京区弥生2丁目9番","lat":35.715126,"lon":139.764235},{"name":"真砂児童遊園","province":"東京都","city":"文京区","address":"東京都文京区本郷4丁目8番","lat":35.708403,"lon":139.756897},{"name":"向丘一丁目児童遊園","province":"東京都","city":"文京区","address":"東京都文京区向丘1丁目10番","lat":35.722198,"lon":139.754023},{"name":"千石一丁目児童遊園","province":"東京都","city":"文京区","address":"東京都文京区千石1丁目24番","lat":35.726892,"lon":139.744361},{"name":"本駒込二丁目第二児童遊園","province":"東京都","city":"文京区","address":"東京都文京区本駒込2丁目12番","lat":35.728778,"lon":139.748447},{"name":"林町児童遊園","province":"東京都","city":"文京区","address":"東京都文京区千石1丁目6番","lat":35.725637,"lon":139.741964},{"name":"向丘二丁目児童遊園","province":"東京都","city":"文京区","address":"東京都文京区向丘2丁目12番","lat":35.720253,"lon":139.756822},{"name":"小石川四丁目児童遊園","province":"東京都","city":"文京区","address":"東京都文京区小石川4丁目13番","lat":35.715676,"lon":139.744284},{"name":"小日向二丁目児童遊園","province":"東京都","city":"文京区","address":"東京都文京区小日向2丁目23番","lat":35.712163,"lon":139.733055},{"name":"小石川一丁目児童遊園","province":"東京都","city":"文京区","address":"東京都文京区小石川1丁目24番","lat":35.714281,"lon":139.749812},{"name":"湯島三丁目児童遊園","province":"東京都","city":"文京区","address":"東京都文京区湯島3丁目26番","lat":35.70724,"lon":139.769452},{"name":"本駒込児童遊園","province":"東京都","city":"文京区","address":"東京都文京区本駒込3丁目22番","lat":35.728557,"lon":139.75259},{"name":"小日向児童遊園","province":"東京都","city":"文京区","address":"東京都文京区小日向2丁目9番","lat":35.714237,"lon":139.733976},{"name":"根津一丁目児童遊園","province":"東京都","city":"文京区","address":"東京都文京区根津1丁目15番","lat":35.718295,"lon":139.763871},{"name":"えのき広場","province":"東京都","city":"文京区","address":"東京都文京区大塚6丁目19番","lat":35.725966,"lon":139.725129},{"name":"ひょうたん広場","province":"東京都","city":"文京区","address":"東京都文京区大塚6丁目33番","lat":35.725031,"lon":139.724179},{"name":"ポポー広場","province":"東京都","city":"文京区","address":"東京都文京区大塚5丁目13番","lat":35.725174,"lon":139.729026},{"name":"清水坂上児童遊園","province":"東京都","city":"文京区","address":"東京都文京区湯島3丁目2番","lat":35.703754,"lon":139.767302},{"name":"西林ひろば","province":"東京都","city":"文京区","address":"東京都文京区千駄木5丁目11番","lat":35.7266116,"lon":139.7577442},{"name":"文京雑司ヶ谷ひろば","province":"東京都","city":"文京区","address":"東京都文京区目白台3丁目29番","lat":35.716817,"lon":139.726989},{"name":"向丘一丁目遊び場","province":"東京都","city":"文京区","address":"東京都文京区向丘1丁目16番","lat":35.719233,"lon":139.757055},{"name":"目白台一丁目遊び場","province":"東京都","city":"文京区","address":"東京都文京区目白台1丁目16番","lat":35.71651,"lon":139.718586},{"name":"満足稲荷境内遊び場","province":"東京都","city":"文京区","address":"東京都文京区千駄木5丁目2番","lat":35.725437,"lon":139.76045},{"name":"諏訪神社境内遊び場","province":"東京都","city":"文京区","address":"東京都文京区後楽2丁目18番","lat":35.706869,"lon":139.745787},{"name":"本郷七丁目遊び場","province":"東京都","city":"文京区","address":"東京都文京区本郷7丁目2番","lat":35.707684,"lon":139.761904},{"name":"丸山町遊び場","province":"東京都","city":"文京区","address":"東京都文京区千石3丁目39番","lat":35.725973,"lon":139.739848},{"name":"水道二丁目遊び場","province":"東京都","city":"文京区","address":"東京都文京区水道2丁目9番","lat":35.71075,"lon":139.732302}]}