{"keyword":"避難","data":[{"name":"六義園","province":"東京都","city":"文京区","address":"東京都文京区本駒込6丁目16-3","lat":35.7323312,"lon":139.74696603},{"name":"東京大学","province":"東京都","city":"文京区","address":"東京都文京区本郷7丁目","lat":35.71343101,"lon":139.76231265},{"name":"後楽園一帯","province":"東京都","city":"文京区","address":"東京都文京区春日1丁目","lat":35.70791725,"lon":139.74644188},{"name":"お茶の水女子大学一帯・教育の森公園一帯","province":"東京都","city":"文京区","address":"東京都文京区大塚2丁目","lat":35.72012384,"lon":139.7304068},{"name":"護国寺一帯","province":"東京都","city":"文京区","address":"東京都文京区大塚5丁目","lat":35.72432056,"lon":139.72975112},{"name":"小石川植物園","province":"東京都","city":"文京区","address":"東京都文京区白山3丁目7-1","lat":35.71847994,"lon":139.74435284},{"name":"目白台運動公園付近一帯","province":"東京都","city":"文京区","address":"東京都文京区関口2丁目","lat":35.71124979,"lon":139.72915442},{"name":"礫川小学校","province":"東京都","city":"文京区","address":"文京区小石川2丁目13番2号","lat":35.710834,"lon":139.747575},{"name":"柳町小学校","province":"東京都","city":"文京区","address":"文京区小石川1丁目23番16号","lat":35.714459,"lon":139.750138},{"name":"指ケ谷小学校","province":"東京都","city":"文京区","address":"文京区白山2丁目28番4号","lat":35.717306,"lon":139.750767},{"name":"林町小学校","province":"東京都","city":"文京区","address":"文京区千石2丁目36番3号","lat":35.724322,"lon":139.742248},{"name":"明化小学校","province":"東京都","city":"文京区","address":"文京区千石1丁目13番9号","lat":35.724833,"lon":139.744881},{"name":"青柳小学校","province":"東京都","city":"文京区","address":"文京区大塚5丁目40番18号","lat":35.720417,"lon":139.725097},{"name":"関口台町小学校","province":"東京都","city":"文京区","address":"文京区関口2丁目6番1号","lat":35.711867,"lon":139.726757},{"name":"小日向台町小学校","province":"東京都","city":"文京区","address":"文京区小日向2丁目3番8号","lat":35.713213,"lon":139.735631},{"name":"金富小学校","province":"東京都","city":"文京区","address":"文京区春日2丁目6番15号","lat":35.710831,"lon":139.741619},{"name":"窪町小学校","province":"東京都","city":"文京区","address":"文京区大塚3丁目2番3号","lat":35.718877,"lon":139.735629},{"name":"大塚小学校","province":"東京都","city":"文京区","address":"文京区大塚4丁目1番7号","lat":35.723729,"lon":139.73638},{"name":"湯島小学校","province":"東京都","city":"文京区","address":"文京区湯島2丁目28番14号","lat":35.706572,"lon":139.766568},{"name":"誠之小学校","province":"東京都","city":"文京区","address":"文京区西片2丁目14番6号","lat":35.717943,"lon":139.754029},{"name":"根津小学校","province":"東京都","city":"文京区","address":"文京区根津1丁目14番3号","lat":35.718439,"lon":139.763222},{"name":"千駄木小学校","province":"東京都","city":"文京区","address":"文京区千駄木5丁目44番2号","lat":35.72914,"lon":139.758951},{"name":"汐見小学校","province":"東京都","city":"文京区","address":"文京区千駄木2丁目19番23号","lat":35.723733,"lon":139.760914},{"name":"昭和小学校","province":"東京都","city":"文京区","address":"文京区本駒込2丁目28番31号","lat":35.731554,"lon":139.749485},{"name":"駒本小学校","province":"東京都","city":"文京区","address":"文京区向丘2丁目37番5号","lat":35.724618,"lon":139.754577},{"name":"駕籠町小学校","province":"東京都","city":"文京区","address":"文京区本駒込2丁目29番6号","lat":35.728362,"lon":139.7458},{"name":"本郷小学校","province":"東京都","city":"文京区","address":"文京区本郷4丁目5番15号","lat":35.708093,"lon":139.758136},{"name":"旧元町小学校","province":"東京都","city":"文京区","address":"文京区本郷1丁目1番19号","lat":35.703038,"lon":139.757922},{"name":"第一中学校","province":"東京都","city":"文京区","address":"文京区小石川5丁目8番9号","lat":35.718013,"lon":139.738682},{"name":"第三中学校","province":"東京都","city":"文京区","address":"文京区春日1丁目9番31号","lat":35.709151,"lon":139.746671},{"name":"第六中学校","province":"東京都","city":"文京区","address":"文京区向丘1丁目2番2号","lat":35.717074,"lon":139.757726},{"name":"第八中学校","province":"東京都","city":"文京区","address":"文京区千駄木2丁目19番22号","lat":35.724322,"lon":139.761015},{"name":"第九中学校","province":"東京都","city":"文京区","address":"文京区本駒込3丁目28番9号","lat":35.729654,"lon":139.75278},{"name":"第十中学校","province":"東京都","city":"文京区","address":"文京区千石2丁目40番17号","lat":35.723516,"lon":139.742538},{"name":"文林中学校","province":"東京都","city":"文京区","address":"文京区千駄木5丁目25番10号","lat":35.728052,"lon":139.758572},{"name":"茗台中学校","province":"東京都","city":"文京区","address":"文京区春日2丁目9番5号","lat":35.713539,"lon":139.741205},{"name":"本郷台中学校","province":"東京都","city":"文京区","address":"文京区本郷2丁目38番23号","lat":35.706951,"lon":139.758938},{"name":"音羽中学校","province":"東京都","city":"文京区","address":"文京区大塚1丁目9番24号","lat":35.717217,"lon":139.73279},{"name":"文京江戸川橋体育館","province":"東京都","city":"文京区","address":"文京区小日向1丁目7番4号","lat":35.710603,"lon":139.73546},{"name":"教育センター","province":"東京都","city":"文京区","address":"文京区湯島4丁目7番10号","lat":35.708987,"lon":139.76575}]}