{"keyword":"集会","data":[{"name":"礫川地域活動センター","province":"東京都","city":"文京区","address":"東京都文京区小石川2丁目18番18号","lat":35.711995,"lon":139.750389},{"name":"大原地域活動センター","province":"東京都","city":"文京区","address":"東京都文京区千石1丁目4番3号","lat":35.7244689999999,"lon":139.743379},{"name":"大塚地域活動センター","province":"東京都","city":"文京区","address":"東京都文京区大塚1丁目4番1号","lat":35.71822,"lon":139.73587},{"name":"音羽地域活動センター","province":"東京都","city":"文京区","address":"東京都文京区音羽1丁目22番14号","lat":35.716467,"lon":139.727638},{"name":"湯島地域活動センター","province":"東京都","city":"文京区","address":"東京都文京区本郷7丁目1番2号","lat":35.708382,"lon":139.76318},{"name":"向丘地域活動センター","province":"東京都","city":"文京区","address":"東京都文京区向丘1丁目20番8号","lat":35.7173349999999,"lon":139.75788},{"name":"根津地域活動センター","province":"東京都","city":"文京区","address":"東京都文京区根津2丁目20番7号","lat":35.7191919999999,"lon":139.764204},{"name":"汐見地域活動センター","province":"東京都","city":"文京区","address":"東京都文京区千駄木3丁目2番6号","lat":35.72548057,"lon":139.761331399999},{"name":"駒込地域活動センター","province":"東京都","city":"文京区","address":"東京都文京区本駒込3丁目22番4号","lat":35.728624,"lon":139.752346999999},{"name":"不忍通りふれあい館","province":"東京都","city":"文京区","address":"東京都文京区根津2丁目20番7号","lat":35.7191919999999,"lon":139.764204},{"name":"白山東会館","province":"東京都","city":"文京区","address":"東京都文京区白山1丁目29番10号","lat":35.7191359999999,"lon":139.753069},{"name":"かるた記念大塚会館","province":"東京都","city":"文京区","address":"東京都文京区大塚4丁目13号5号","lat":35.722937,"lon":139.734838999999},{"name":"駕籠町会館","province":"東京都","city":"文京区","address":"東京都文京区本駒込6丁目2番5号","lat":35.729497,"lon":139.743617},{"name":"大塚北会館","province":"東京都","city":"文京区","address":"東京都文京区大塚6丁目15番3号","lat":35.7260293876244,"lon":139.725775204962},{"name":"本郷会館","province":"東京都","city":"文京区","address":"東京都文京区本郷2丁目21番7号","lat":35.704639,"lon":139.759132},{"name":"動坂会館","province":"東京都","city":"文京区","address":"東京都文京区千駄木4丁目8番14号","lat":35.731023,"lon":139.759101},{"name":"白山交流館","province":"東京都","city":"文京区","address":"東京都文京区白山4丁目27番11号","lat":35.7205739999999,"lon":139.748277999999},{"name":"千駄木交流館","province":"東京都","city":"文京区","address":"東京都文京区千駄木3丁目42番20号","lat":35.7274499999999,"lon":139.764117999999},{"name":"目白台交流館","province":"東京都","city":"文京区","address":"東京都文京区目白台3丁目18番7号","lat":35.717258,"lon":139.723396},{"name":"根津交流館","province":"東京都","city":"文京区","address":"東京都文京区根津1丁目14番3号","lat":35.7184389999999,"lon":139.763222},{"name":"区民センター","province":"東京都","city":"文京区","address":"東京都文京区本郷4丁目15番14号","lat":35.708818,"lon":139.754155999999},{"name":"男女平等センター","province":"東京都","city":"文京区","address":"東京都文京区本郷4丁目8番3号","lat":35.708578,"lon":139.757478999999},{"name":"大原地域活動センター","province":"東京都","city":"文京区","address":"東京都文京区千石1丁目4番3号","lat":35.724469,"lon":139.743379},{"name":"向丘地域活動センター","province":"東京都","city":"文京区","address":"東京都文京区向丘1丁目20番8号","lat":35.717335,"lon":139.75788},{"name":"根津地域活動センター","province":"東京都","city":"文京区","address":"東京都文京区根津2丁目20番7号","lat":35.719192,"lon":139.764204},{"name":"汐見地域活動センター","province":"東京都","city":"文京区","address":"東京都文京区千駄木3丁目2番6号","lat":35.72548057,"lon":139.7613314},{"name":"白山東会館","province":"東京都","city":"文京区","address":"東京都文京区白山1丁目29番10号","lat":35.719136,"lon":139.753069},{"name":"かるた記念大塚会館","province":"東京都","city":"文京区","address":"東京都文京区大塚4丁目13号5号","lat":35.722937,"lon":139.734839},{"name":"大塚北会館","province":"東京都","city":"文京区","address":"東京都文京区大塚6丁目15番3号","lat":35.72602939,"lon":139.7257752},{"name":"白山交流館","province":"東京都","city":"文京区","address":"東京都文京区白山4丁目27番11号","lat":35.720574,"lon":139.748278},{"name":"千駄木交流館","province":"東京都","city":"文京区","address":"東京都文京区千駄木3丁目42番20号","lat":35.72745,"lon":139.764118},{"name":"根津交流館","province":"東京都","city":"文京区","address":"東京都文京区根津1丁目14番3号","lat":35.718439,"lon":139.763222},{"name":"男女平等センター","province":"東京都","city":"文京区","address":"東京都文京区本郷4丁目8番3号","lat":35.708578,"lon":139.757479}]}