{"keyword":"館","data":[{"name":"大塚児童館","province":"東京都","city":"文京区","address":"東京都文京区大塚6丁目22番地19号","lat":35.7246349999999,"lon":139.725646},{"name":"しおみ児童館","province":"東京都","city":"文京区","address":"東京都文京区千駄木2丁目27番地8号","lat":35.724935,"lon":139.761908},{"name":"千石児童館","province":"東京都","city":"文京区","address":"東京都文京区千石1丁目4番地3号","lat":35.7248149999999,"lon":139.743264},{"name":"水道児童館","province":"東京都","city":"文京区","address":"東京都文京区水道1丁目3番地26号","lat":35.7095669999999,"lon":139.742295},{"name":"本駒込児童館","province":"東京都","city":"文京区","address":"東京都文京区本駒込5丁目63番地2号","lat":35.733842,"lon":139.752436999999},{"name":"本駒込南児童館","province":"東京都","city":"文京区","address":"東京都文京区本駒込3丁目11番地14号","lat":35.727715,"lon":139.755128},{"name":"久堅児童館","province":"東京都","city":"文京区","address":"東京都文京区小石川5丁目27番地7号","lat":35.718614,"lon":139.741553},{"name":"柳町児童館","province":"東京都","city":"文京区","address":"東京都文京区小石川1丁目23番地9号","lat":35.713709,"lon":139.750506},{"name":"千石西児童館","province":"東京都","city":"文京区","address":"東京都文京区千石3丁目15番地15号","lat":35.7249139999999,"lon":139.738225999999},{"name":"小日向台町児童館","province":"東京都","city":"文京区","address":"東京都文京区小日向2丁目2番地2号","lat":35.7129979999999,"lon":139.734867},{"name":"目白台児童館","province":"東京都","city":"文京区","address":"東京都文京区目白台1丁目5番地1号","lat":35.7138309999999,"lon":139.720661},{"name":"湯島児童館","province":"東京都","city":"文京区","address":"東京都文京区本郷3丁目10番地18号","lat":35.7040119999999,"lon":139.763645999999},{"name":"白山東児童館","province":"東京都","city":"文京区","address":"東京都文京区白山1丁目29番地10号","lat":35.7191359999999,"lon":139.753069},{"name":"根津児童館","province":"東京都","city":"文京区","address":"東京都文京区根津1丁目14番地3号","lat":35.7184389999999,"lon":139.763222},{"name":"目白台第二児童館","province":"東京都","city":"文京区","address":"東京都文京区目白台3丁目18番地7号","lat":35.717258,"lon":139.723396},{"name":"本郷児童館","province":"東京都","city":"文京区","address":"東京都文京区本郷5丁目30番地8号","lat":35.711666,"lon":139.758274999999},{"name":"久堅児童館","province":"東京都","city":"文京区","address":"文京区小石川5-27-7","lat":35.718613,"lon":139.741553},{"name":"柳町児童館","province":"東京都","city":"文京区","address":"文京区小石川1-23-9","lat":35.714183,"lon":139.750347},{"name":"水道児童館","province":"東京都","city":"文京区","address":"文京区水道1-3-26","lat":35.709575,"lon":139.742301},{"name":"小日向台町児童館","province":"東京都","city":"文京区","address":"文京区小日向2-2-2","lat":35.713019,"lon":139.734812},{"name":"千石児童館","province":"東京都","city":"文京区","address":"文京区千石1-4-3","lat":35.724504,"lon":139.743342},{"name":"千石西児童館","province":"東京都","city":"文京区","address":"文京区千石3-15-15","lat":35.724915,"lon":139.738225},{"name":"大塚児童館","province":"東京都","city":"文京区","address":"文京区大塚6-22-19","lat":35.724637,"lon":139.725646},{"name":"目白台児童館","province":"東京都","city":"文京区","address":"文京区目白台1-5-1","lat":35.713805,"lon":139.720575},{"name":"目日台第二児童館","province":"東京都","city":"文京区","address":"文京区目白台3-18-7","lat":35.717213,"lon":139.723377},{"name":"白山東児童館","province":"東京都","city":"文京区","address":"文京区白山1-29-10","lat":35.719072,"lon":139.752972},{"name":"本駒込児童館","province":"東京都","city":"文京区","address":"文京区本駒込5-63-2","lat":35.733809,"lon":139.752493},{"name":"本駒込南児童館","province":"東京都","city":"文京区","address":"文京区本駒込3-11-14","lat":35.72781,"lon":139.755141},{"name":"しおみ児童館","province":"東京都","city":"文京区","address":"文京区千駄木2-27-8","lat":35.725002,"lon":139.761935},{"name":"根津児童館","province":"東京都","city":"文京区","address":"文京区根津1-14-3","lat":35.718322,"lon":139.763413},{"name":"本郷児童館","province":"東京都","city":"文京区","address":"文京区本郷5-30-8","lat":35.711667,"lon":139.758274},{"name":"湯島児童館","province":"東京都","city":"文京区","address":"文京区本郷3-10-18","lat":35.70396,"lon":139.763674},{"name":"真砂中央図書館","province":"東京都","city":"文京区","address":"東京都文京区本郷4-8-15","lat":35.708554,"lon":139.756996},{"name":"小石川図書館","province":"東京都","city":"文京区","address":"東京都文京区小石川5-9-20","lat":35.716972,"lon":139.740124},{"name":"本駒込図書館","province":"東京都","city":"文京区","address":"東京都文京区本駒込4-35-15","lat":35.733276,"lon":139.755369},{"name":"水道端図書館","province":"東京都","city":"文京区","address":"東京都文京区水道2-16-14","lat":35.710636,"lon":139.737721},{"name":"目白台図書館","province":"東京都","city":"文京区","address":"東京都文京区関口3-17-9","lat":35.715148,"lon":139.72551},{"name":"千石図書館","province":"東京都","city":"文京区","address":"東京都文京区千石1-25-3","lat":35.727577,"lon":139.74375},{"name":"湯島図書館","province":"東京都","city":"文京区","address":"東京都文京区本郷3-10-18湯島総合センター4階","lat":35.704012,"lon":139.763646},{"name":"根津図書室","province":"東京都","city":"文京区","address":"東京都文京区根津2-20-7不忍通りふれあい館2階","lat":35.719192,"lon":139.764204},{"name":"大塚公園みどりの図書室","province":"東京都","city":"文京区","address":"東京都文京区大塚4-49-2大塚公園内","lat":35.72383,"lon":139.73245},{"name":"柳町児童館","province":"東京都","city":"文京区","address":"文京区小石川1-23-9","lat":35.71401,"lon":139.75053},{"name":"久堅児童館","province":"東京都","city":"文京区","address":"文京区小石川5-27-7","lat":35.71844,"lon":139.74146},{"name":"水道児童館","province":"東京都","city":"文京区","address":"文京区水道1-3-26","lat":35.70906,"lon":139.74171},{"name":"小日向台町児童館","province":"東京都","city":"文京区","address":"文京区小日向2-2-2","lat":35.71336,"lon":139.73482},{"name":"千石児童館","province":"東京都","city":"文京区","address":"文京区千石1-4-3","lat":35.72475,"lon":139.74319},{"name":"千石西児童館","province":"東京都","city":"文京区","address":"文京区千石3-15-15","lat":35.72508,"lon":139.73869},{"name":"大塚児童館","province":"東京都","city":"文京区","address":"文京区大塚6-22-19","lat":35.72487,"lon":139.72557},{"name":"目白台児童館","province":"東京都","city":"文京区","address":"文京区目白台1-5-1","lat":35.71376,"lon":139.7206},{"name":"目日台第二児童館","province":"東京都","city":"文京区","address":"文京区目白台3-18-7","lat":35.71765,"lon":139.72348},{"name":"白山東児童館","province":"東京都","city":"文京区","address":"文京区白山1-29-10","lat":35.71922,"lon":139.75258},{"name":"本駒込南児童館","province":"東京都","city":"文京区","address":"文京区本駒込3-11-14","lat":35.72791,"lon":139.75514},{"name":"本駒込児童館","province":"東京都","city":"文京区","address":"文京区本駒込5-63-2","lat":35.73381,"lon":139.75244},{"name":"しおみ児童館","province":"東京都","city":"文京区","address":"文京区千駄木2-27-8","lat":35.72475,"lon":139.76186},{"name":"根津児童館","province":"東京都","city":"文京区","address":"文京区根津1-14-3","lat":35.71834,"lon":139.76311},{"name":"湯島児童館","province":"東京都","city":"文京区","address":"文京区本郷3-10-18","lat":35.70407,"lon":139.76379},{"name":"本郷児童館","province":"東京都","city":"文京区","address":"文京区本郷5-30-8","lat":35.71175,"lon":139.75862},{"name":"千石児童館","province":"東京都","city":"文京区","address":"文京区千石1-4-3","lat":35.72475,"lon":139.7432},{"name":"湯島児童館","province":"東京都","city":"文京区","address":"文京区本郷3-10-18","lat":35.70408,"lon":139.76379},{"name":"＊?小石川図書館","province":"東京都","city":"文京区","address":"文京区小石川5-9-20","lat":35.71699,"lon":139.740126},{"name":"＊?湯島図書館","province":"東京都","city":"文京区","address":"文京区本郷3-10-18","lat":35.70393,"lon":139.763714},{"name":"＊?真砂中央図書館","province":"東京都","city":"文京区","address":"文京区本郷4-8-15","lat":35.70855,"lon":139.757085},{"name":"＊?根津図書室","province":"東京都","city":"文京区","address":"文京区根津2-20-7","lat":35.719214,"lon":139.764256},{"name":"＊?本郷図書館","province":"東京都","city":"文京区","address":"文京区千駄木3-2-6","lat":35.725545,"lon":139.761477},{"name":"＊?本駒込図書館","province":"東京都","city":"文京区","address":"文京区本駒込4-35-15","lat":35.733349,"lon":139.755447},{"name":"＊?目白台図書館","province":"東京都","city":"文京区","address":"文京区関口3-17-9","lat":35.715131,"lon":139.725508},{"name":"＊?大塚公園みどりの図書室","province":"東京都","city":"文京区","address":"文京区大塚4-49-2","lat":35.723788,"lon":139.732387},{"name":"＊?水道端図書館","province":"東京都","city":"文京区","address":"文京区水道2-16-14","lat":35.710629,"lon":139.737718},{"name":"＊?千石図書館","province":"東京都","city":"文京区","address":"文京区千石1-25-3","lat":35.727541,"lon":139.743701},{"name":"大塚児童館","province":"東京都","city":"文京区","address":"東京都文京区大塚6丁目22番地19号","lat":35.724635,"lon":139.725646},{"name":"千石児童館","province":"東京都","city":"文京区","address":"東京都文京区千石1丁目4番地3号","lat":35.724815,"lon":139.743264},{"name":"水道児童館","province":"東京都","city":"文京区","address":"東京都文京区水道1丁目3番地26号","lat":35.709567,"lon":139.742295},{"name":"本駒込児童館","province":"東京都","city":"文京区","address":"東京都文京区本駒込5丁目63番地2号","lat":35.733842,"lon":139.752437},{"name":"千石西児童館","province":"東京都","city":"文京区","address":"東京都文京区千石3丁目15番地15号","lat":35.724914,"lon":139.738226},{"name":"小日向台町児童館","province":"東京都","city":"文京区","address":"東京都文京区小日向2丁目2番地2号","lat":35.712998,"lon":139.734867},{"name":"目白台児童館","province":"東京都","city":"文京区","address":"東京都文京区目白台1丁目5番地1号","lat":35.713831,"lon":139.720661},{"name":"湯島児童館","province":"東京都","city":"文京区","address":"東京都文京区本郷3丁目10番地18号","lat":35.704012,"lon":139.763646},{"name":"白山東児童館","province":"東京都","city":"文京区","address":"東京都文京区白山1丁目29番地10号","lat":35.719136,"lon":139.753069},{"name":"根津児童館","province":"東京都","city":"文京区","address":"東京都文京区根津1丁目14番地3号","lat":35.718439,"lon":139.763222},{"name":"本郷児童館","province":"東京都","city":"文京区","address":"東京都文京区本郷5丁目30番地8号","lat":35.711666,"lon":139.758275}]}