{"keyword":"スモッグ","data":[{"name":"野川公園","province":"東京都","city":"調布市","address":"東京都調布市野水一・二丁目、小金井市東町一丁目、三鷹市大沢二・三・六丁目","lat":35.68334,"lon":139.525446},{"name":"上石原浄水所","province":"東京都","city":"調布市","address":"東京都調布市上石原1丁目34-7","lat":35.66130335,"lon":139.53174555},{"name":"深大寺浄水所","province":"東京都","city":"調布市","address":"東京都調布市深大寺南町5丁目56-1","lat":35.66896104,"lon":139.55556797},{"name":"調布市立調布市民野球場","province":"東京都","city":"調布市","address":"東京都調布市染地2丁目43-1","lat":35.64025186,"lon":139.54681004},{"name":"調布市立調布中学校校庭","province":"東京都","city":"調布市","address":"東京都調布市富士見町4丁目17-1","lat":35.66535009,"lon":139.53516172},{"name":"調布市立第八中学校校庭","province":"東京都","city":"調布市","address":"東京都調布市仙川町2丁目15-2","lat":35.66445108,"lon":139.58169365},{"name":"調布市立第四中学校校庭","province":"東京都","city":"調布市","address":"東京都調布市若葉町3丁目15-1","lat":35.65392455,"lon":139.58283002},{"name":"調布市立第三中学校校庭","province":"東京都","city":"調布市","address":"東京都調布市染地3丁目2-7","lat":35.6414069,"lon":139.55643366},{"name":"調布市立神代中学校校庭","province":"東京都","city":"調布市","address":"東京都調布市佐須町5丁目26-1","lat":35.66162316,"lon":139.5616816},{"name":"調布市立布田小学校校庭","province":"東京都","city":"調布市","address":"東京都調布市染地1丁目1-85","lat":35.64330667,"lon":139.54542083},{"name":"調布市立第三小学校校庭","province":"東京都","city":"調布市","address":"東京都調布市上石原2丁目19-13","lat":35.65473491,"lon":139.52783806},{"name":"調布市立北ノ台小学校校庭","province":"東京都","city":"調布市","address":"東京都調布市深大寺北町2丁目41-1","lat":35.67543247,"lon":139.55284301},{"name":"神代植物公園","province":"東京都","city":"調布市","address":"東京都調布市深大寺元町5丁目","lat":35.66837758,"lon":139.54571333},{"name":"大町スポーツ施設大運動場","province":"東京都","city":"調布市","address":"東京都調布市菊野台3丁目27-40","lat":35.65252451,"lon":139.5724838},{"name":"西部公民館","province":"東京都","city":"調布市","address":"調布市上石原3-21-6","lat":35.653053,"lon":139.522293},{"name":"東部公民館","province":"東京都","city":"調布市","address":"調布市若葉町1-29-21","lat":35.657906,"lon":139.583282},{"name":"北部公民館","province":"東京都","city":"調布市","address":"調布市柴崎2-5-18","lat":35.661114,"lon":139.562866},{"name":"調布市青少年交流館","province":"東京都","city":"調布市","address":"調布市飛田給1-52-1","lat":35.66135,"lon":139.526062},{"name":"調布市立図書館宮の下分館","province":"東京都","city":"調布市","address":"調布市上石原3-34-10","lat":35.651505,"lon":139.524765},{"name":"調布市立図書館国領分館","province":"東京都","city":"調布市","address":"調布市国領町3-12-1","lat":35.650814,"lon":139.561234},{"name":"調布市立図書館佐須分館","province":"東京都","city":"調布市","address":"調布市佐須町4-42-2","lat":35.658699,"lon":139.556183},{"name":"調布市立図書館若葉分館","province":"東京都","city":"調布市","address":"調布市若葉町3-16-13","lat":35.654602,"lon":139.583679},{"name":"調布市立図書館深大寺分館","province":"東京都","city":"調布市","address":"調布市深大寺北町5-17-3","lat":35.678112,"lon":139.550369},{"name":"調布市立図書館神代分館","province":"東京都","city":"調布市","address":"調布市西つつじケ丘1-40-5","lat":35.660809,"lon":139.570038},{"name":"調布市立図書館染地分館","province":"東京都","city":"調布市","address":"調布市染地3-3-1","lat":35.639153,"lon":139.555283},{"name":"調布市立図書館調和分館","province":"東京都","city":"調布市","address":"調布市西つつじケ丘4-22-6","lat":35.651386,"lon":139.57373},{"name":"調布市立図書館富士見分館","province":"東京都","city":"調布市","address":"調布市富士見町2-3-26","lat":35.658424,"lon":139.539062},{"name":"調布市立図書館緑ケ丘分館","province":"東京都","city":"調布市","address":"調布市緑ケ丘2-25","lat":35.666611,"lon":139.582993},{"name":"調布市立中央図書館","province":"東京都","city":"調布市","address":"調布市小島町2-33-1","lat":35.65147,"lon":139.541443},{"name":"調布市郷土博物館","province":"東京都","city":"調布市","address":"調布市小島町3-26-2","lat":35.646938,"lon":139.535858},{"name":"調布市郷土博物館分室","province":"東京都","city":"調布市","address":"調布市布田6-61","lat":35.643711,"lon":139.548828},{"name":"調布市深大寺水車館","province":"東京都","city":"調布市","address":"調布市深大寺元町5-10-6","lat":35.667656,"lon":139.548325},{"name":"調布市武者小路実篤記念館","province":"東京都","city":"調布市","address":"調布市若葉町1-8-30","lat":35.65633,"lon":139.581268},{"name":"調布市文化会館たづくり","province":"東京都","city":"調布市","address":"調布市小島町2-33-1","lat":35.65147,"lon":139.541443},{"name":"(有)土井壜店","province":"東京都","city":"調布市","address":"調布市布田6-47-4","lat":35.644402,"lon":139.550827},{"name":"(有)金沢商店","province":"東京都","city":"調布市","address":"調布市多摩川2-4-1","lat":35.647549,"lon":139.524261},{"name":"滝沢三男也  滝沢商店","province":"東京都","city":"調布市","address":"調布市深大寺東町5-16-22","lat":35.672882,"lon":139.555649},{"name":"(有)加藤商店  本店","province":"東京都","city":"調布市","address":"調布市深大寺北町6-60-14","lat":35.680981,"lon":139.54805},{"name":"野川公園","province":"東京都","city":"調布市","address":"東京都調布市野水一・二丁目、小金井市東町一丁目、三鷹市大沢二・三・六丁目","lat":35.68334,"lon":139.525446},{"name":"西部公民館","province":"東京都","city":"調布市","address":"調布市上石原3-21-6","lat":35.653053,"lon":139.522293},{"name":"東部公民館","province":"東京都","city":"調布市","address":"調布市若葉町1-29-21","lat":35.657906,"lon":139.583282},{"name":"北部公民館","province":"東京都","city":"調布市","address":"調布市柴崎2-5-18","lat":35.661114,"lon":139.562866},{"name":"調布市青少年交流館","province":"東京都","city":"調布市","address":"調布市飛田給1-52-1","lat":35.66135,"lon":139.526062},{"name":"調布市立図書館宮の下分館","province":"東京都","city":"調布市","address":"調布市上石原3-34-10","lat":35.651505,"lon":139.524765},{"name":"調布市立図書館国領分館","province":"東京都","city":"調布市","address":"調布市国領町3-12-1","lat":35.650814,"lon":139.561234},{"name":"調布市立図書館佐須分館","province":"東京都","city":"調布市","address":"調布市佐須町4-42-2","lat":35.658699,"lon":139.556183},{"name":"調布市立図書館若葉分館","province":"東京都","city":"調布市","address":"調布市若葉町3-16-13","lat":35.654602,"lon":139.583679},{"name":"調布市立図書館深大寺分館","province":"東京都","city":"調布市","address":"調布市深大寺北町5-17-3","lat":35.678112,"lon":139.550369},{"name":"調布市立図書館神代分館","province":"東京都","city":"調布市","address":"調布市西つつじケ丘1-40-5","lat":35.660809,"lon":139.570038},{"name":"調布市立図書館染地分館","province":"東京都","city":"調布市","address":"調布市染地3-3-1","lat":35.639153,"lon":139.555283},{"name":"調布市立図書館調和分館","province":"東京都","city":"調布市","address":"調布市西つつじケ丘4-22-6","lat":35.651386,"lon":139.57373},{"name":"調布市立図書館富士見分館","province":"東京都","city":"調布市","address":"調布市富士見町2-3-26","lat":35.658424,"lon":139.539062},{"name":"調布市立図書館緑ケ丘分館","province":"東京都","city":"調布市","address":"調布市緑ケ丘2-25","lat":35.666611,"lon":139.582993},{"name":"調布市立中央図書館","province":"東京都","city":"調布市","address":"調布市小島町2-33-1","lat":35.65147,"lon":139.541443},{"name":"調布市郷土博物館","province":"東京都","city":"調布市","address":"調布市小島町3-26-2","lat":35.646938,"lon":139.535858},{"name":"調布市郷土博物館分室","province":"東京都","city":"調布市","address":"調布市布田6-61","lat":35.643711,"lon":139.548828},{"name":"調布市深大寺水車館","province":"東京都","city":"調布市","address":"調布市深大寺元町5-10-6","lat":35.667656,"lon":139.548325},{"name":"調布市武者小路実篤記念館","province":"東京都","city":"調布市","address":"調布市若葉町1-8-30","lat":35.65633,"lon":139.581268},{"name":"調布市文化会館たづくり","province":"東京都","city":"調布市","address":"調布市小島町2-33-1","lat":35.65147,"lon":139.541443},{"name":"(有)土井壜店","province":"東京都","city":"調布市","address":"調布市布田6-47-4","lat":35.644402,"lon":139.550827},{"name":"(有)金沢商店","province":"東京都","city":"調布市","address":"調布市多摩川2-4-1","lat":35.647549,"lon":139.524261},{"name":"滝沢三男也  滝沢商店","province":"東京都","city":"調布市","address":"調布市深大寺東町5-16-22","lat":35.672882,"lon":139.555649},{"name":"(有)加藤商店  本店","province":"東京都","city":"調布市","address":"調布市深大寺北町6-60-14","lat":35.680981,"lon":139.54805},{"name":"野川公園","province":"東京都","city":"調布市","address":"東京都調布市野水一・二丁目、小金井市東町一丁目、三鷹市大沢二・三・六丁目","lat":35.68334,"lon":139.525446},{"name":"西部公民館","province":"東京都","city":"調布市","address":"調布市上石原3-21-6","lat":35.653053,"lon":139.522293},{"name":"東部公民館","province":"東京都","city":"調布市","address":"調布市若葉町1-29-21","lat":35.657906,"lon":139.583282},{"name":"北部公民館","province":"東京都","city":"調布市","address":"調布市柴崎2-5-18","lat":35.661114,"lon":139.562866},{"name":"調布市青少年交流館","province":"東京都","city":"調布市","address":"調布市飛田給1-52-1","lat":35.66135,"lon":139.526062},{"name":"調布市立図書館宮の下分館","province":"東京都","city":"調布市","address":"調布市上石原3-34-10","lat":35.651505,"lon":139.524765},{"name":"調布市立図書館国領分館","province":"東京都","city":"調布市","address":"調布市国領町3-12-1","lat":35.650814,"lon":139.561234},{"name":"調布市立図書館佐須分館","province":"東京都","city":"調布市","address":"調布市佐須町4-42-2","lat":35.658699,"lon":139.556183},{"name":"調布市立図書館若葉分館","province":"東京都","city":"調布市","address":"調布市若葉町3-16-13","lat":35.654602,"lon":139.583679},{"name":"調布市立図書館深大寺分館","province":"東京都","city":"調布市","address":"調布市深大寺北町5-17-3","lat":35.678112,"lon":139.550369},{"name":"調布市立図書館神代分館","province":"東京都","city":"調布市","address":"調布市西つつじケ丘1-40-5","lat":35.660809,"lon":139.570038},{"name":"調布市立図書館染地分館","province":"東京都","city":"調布市","address":"調布市染地3-3-1","lat":35.639153,"lon":139.555283},{"name":"調布市立図書館調和分館","province":"東京都","city":"調布市","address":"調布市西つつじケ丘4-22-6","lat":35.651386,"lon":139.57373},{"name":"調布市立図書館富士見分館","province":"東京都","city":"調布市","address":"調布市富士見町2-3-26","lat":35.658424,"lon":139.539062},{"name":"調布市立図書館緑ケ丘分館","province":"東京都","city":"調布市","address":"調布市緑ケ丘2-25","lat":35.666611,"lon":139.582993},{"name":"調布市立中央図書館","province":"東京都","city":"調布市","address":"調布市小島町2-33-1","lat":35.65147,"lon":139.541443},{"name":"調布市郷土博物館","province":"東京都","city":"調布市","address":"調布市小島町3-26-2","lat":35.646938,"lon":139.535858},{"name":"調布市郷土博物館分室","province":"東京都","city":"調布市","address":"調布市布田6-61","lat":35.643711,"lon":139.548828},{"name":"調布市深大寺水車館","province":"東京都","city":"調布市","address":"調布市深大寺元町5-10-6","lat":35.667656,"lon":139.548325},{"name":"調布市武者小路実篤記念館","province":"東京都","city":"調布市","address":"調布市若葉町1-8-30","lat":35.65633,"lon":139.581268},{"name":"調布市文化会館たづくり","province":"東京都","city":"調布市","address":"調布市小島町2-33-1","lat":35.65147,"lon":139.541443},{"name":"(有)土井壜店","province":"東京都","city":"調布市","address":"調布市布田6-47-4","lat":35.644402,"lon":139.550827},{"name":"(有)金沢商店","province":"東京都","city":"調布市","address":"調布市多摩川2-4-1","lat":35.647549,"lon":139.524261},{"name":"滝沢三男也  滝沢商店","province":"東京都","city":"調布市","address":"調布市深大寺東町5-16-22","lat":35.672882,"lon":139.555649},{"name":"(有)加藤商店  本店","province":"東京都","city":"調布市","address":"調布市深大寺北町6-60-14","lat":35.680981,"lon":139.54805},{"name":"野川公園","province":"東京都","city":"調布市","address":"東京都調布市野水一・二丁目、小金井市東町一丁目、三鷹市大沢二・三・六丁目","lat":35.68334,"lon":139.525446},{"name":"西部公民館","province":"東京都","city":"調布市","address":"調布市上石原3-21-6","lat":35.653053,"lon":139.522293},{"name":"東部公民館","province":"東京都","city":"調布市","address":"調布市若葉町1-29-21","lat":35.657906,"lon":139.583282},{"name":"北部公民館","province":"東京都","city":"調布市","address":"調布市柴崎2-5-18","lat":35.661114,"lon":139.562866},{"name":"調布市青少年交流館","province":"東京都","city":"調布市","address":"調布市飛田給1-52-1","lat":35.66135,"lon":139.526062},{"name":"調布市立図書館宮の下分館","province":"東京都","city":"調布市","address":"調布市上石原3-34-10","lat":35.651505,"lon":139.524765},{"name":"調布市立図書館国領分館","province":"東京都","city":"調布市","address":"調布市国領町3-12-1","lat":35.650814,"lon":139.561234},{"name":"調布市立図書館佐須分館","province":"東京都","city":"調布市","address":"調布市佐須町4-42-2","lat":35.658699,"lon":139.556183},{"name":"調布市立図書館若葉分館","province":"東京都","city":"調布市","address":"調布市若葉町3-16-13","lat":35.654602,"lon":139.583679},{"name":"調布市立図書館深大寺分館","province":"東京都","city":"調布市","address":"調布市深大寺北町5-17-3","lat":35.678112,"lon":139.550369},{"name":"調布市立図書館神代分館","province":"東京都","city":"調布市","address":"調布市西つつじケ丘1-40-5","lat":35.660809,"lon":139.570038},{"name":"調布市立図書館染地分館","province":"東京都","city":"調布市","address":"調布市染地3-3-1","lat":35.639153,"lon":139.555283},{"name":"調布市立図書館調和分館","province":"東京都","city":"調布市","address":"調布市西つつじケ丘4-22-6","lat":35.651386,"lon":139.57373},{"name":"調布市立図書館富士見分館","province":"東京都","city":"調布市","address":"調布市富士見町2-3-26","lat":35.658424,"lon":139.539062},{"name":"調布市立図書館緑ケ丘分館","province":"東京都","city":"調布市","address":"調布市緑ケ丘2-25","lat":35.666611,"lon":139.582993},{"name":"調布市立中央図書館","province":"東京都","city":"調布市","address":"調布市小島町2-33-1","lat":35.65147,"lon":139.541443},{"name":"調布市郷土博物館","province":"東京都","city":"調布市","address":"調布市小島町3-26-2","lat":35.646938,"lon":139.535858},{"name":"調布市郷土博物館分室","province":"東京都","city":"調布市","address":"調布市布田6-61","lat":35.643711,"lon":139.548828},{"name":"調布市深大寺水車館","province":"東京都","city":"調布市","address":"調布市深大寺元町5-10-6","lat":35.667656,"lon":139.548325},{"name":"調布市武者小路実篤記念館","province":"東京都","city":"調布市","address":"調布市若葉町1-8-30","lat":35.65633,"lon":139.581268},{"name":"調布市文化会館たづくり","province":"東京都","city":"調布市","address":"調布市小島町2-33-1","lat":35.65147,"lon":139.541443},{"name":"(有)土井壜店","province":"東京都","city":"調布市","address":"調布市布田6-47-4","lat":35.644402,"lon":139.550827},{"name":"(有)金沢商店","province":"東京都","city":"調布市","address":"調布市多摩川2-4-1","lat":35.647549,"lon":139.524261},{"name":"滝沢三男也  滝沢商店","province":"東京都","city":"調布市","address":"調布市深大寺東町5-16-22","lat":35.672882,"lon":139.555649},{"name":"(有)加藤商店  本店","province":"東京都","city":"調布市","address":"調布市深大寺北町6-60-14","lat":35.680981,"lon":139.54805},{"name":"野川公園","province":"東京都","city":"調布市","address":"東京都調布市野水一・二丁目、小金井市東町一丁目、三鷹市大沢二・三・六丁目","lat":35.68334,"lon":139.525446},{"name":"西部公民館","province":"東京都","city":"調布市","address":"調布市上石原3-21-6","lat":35.653053,"lon":139.522293},{"name":"東部公民館","province":"東京都","city":"調布市","address":"調布市若葉町1-29-21","lat":35.657906,"lon":139.583282},{"name":"北部公民館","province":"東京都","city":"調布市","address":"調布市柴崎2-5-18","lat":35.661114,"lon":139.562866},{"name":"調布市青少年交流館","province":"東京都","city":"調布市","address":"調布市飛田給1-52-1","lat":35.66135,"lon":139.526062},{"name":"調布市立図書館宮の下分館","province":"東京都","city":"調布市","address":"調布市上石原3-34-10","lat":35.651505,"lon":139.524765},{"name":"調布市立図書館国領分館","province":"東京都","city":"調布市","address":"調布市国領町3-12-1","lat":35.650814,"lon":139.561234},{"name":"調布市立図書館佐須分館","province":"東京都","city":"調布市","address":"調布市佐須町4-42-2","lat":35.658699,"lon":139.556183},{"name":"調布市立図書館若葉分館","province":"東京都","city":"調布市","address":"調布市若葉町3-16-13","lat":35.654602,"lon":139.583679},{"name":"調布市立図書館深大寺分館","province":"東京都","city":"調布市","address":"調布市深大寺北町5-17-3","lat":35.678112,"lon":139.550369},{"name":"調布市立図書館神代分館","province":"東京都","city":"調布市","address":"調布市西つつじケ丘1-40-5","lat":35.660809,"lon":139.570038},{"name":"調布市立図書館染地分館","province":"東京都","city":"調布市","address":"調布市染地3-3-1","lat":35.639153,"lon":139.555283},{"name":"調布市立図書館調和分館","province":"東京都","city":"調布市","address":"調布市西つつじケ丘4-22-6","lat":35.651386,"lon":139.57373},{"name":"調布市立図書館富士見分館","province":"東京都","city":"調布市","address":"調布市富士見町2-3-26","lat":35.658424,"lon":139.539062},{"name":"調布市立図書館緑ケ丘分館","province":"東京都","city":"調布市","address":"調布市緑ケ丘2-25","lat":35.666611,"lon":139.582993},{"name":"調布市立中央図書館","province":"東京都","city":"調布市","address":"調布市小島町2-33-1","lat":35.65147,"lon":139.541443},{"name":"調布市郷土博物館","province":"東京都","city":"調布市","address":"調布市小島町3-26-2","lat":35.646938,"lon":139.535858},{"name":"調布市郷土博物館分室","province":"東京都","city":"調布市","address":"調布市布田6-61","lat":35.643711,"lon":139.548828},{"name":"調布市深大寺水車館","province":"東京都","city":"調布市","address":"調布市深大寺元町5-10-6","lat":35.667656,"lon":139.548325},{"name":"調布市武者小路実篤記念館","province":"東京都","city":"調布市","address":"調布市若葉町1-8-30","lat":35.65633,"lon":139.581268},{"name":"調布市文化会館たづくり","province":"東京都","city":"調布市","address":"調布市小島町2-33-1","lat":35.65147,"lon":139.541443},{"name":"(有)土井壜店","province":"東京都","city":"調布市","address":"調布市布田6-47-4","lat":35.644402,"lon":139.550827},{"name":"(有)金沢商店","province":"東京都","city":"調布市","address":"調布市多摩川2-4-1","lat":35.647549,"lon":139.524261},{"name":"滝沢三男也  滝沢商店","province":"東京都","city":"調布市","address":"調布市深大寺東町5-16-22","lat":35.672882,"lon":139.555649},{"name":"(有)加藤商店  本店","province":"東京都","city":"調布市","address":"調布市深大寺北町6-60-14","lat":35.680981,"lon":139.54805},{"name":"野川公園","province":"東京都","city":"調布市","address":"東京都調布市野水一・二丁目、小金井市東町一丁目、三鷹市大沢二・三・六丁目","lat":35.68334,"lon":139.525446},{"name":"西部公民館","province":"東京都","city":"調布市","address":"調布市上石原3-21-6","lat":35.653053,"lon":139.522293},{"name":"東部公民館","province":"東京都","city":"調布市","address":"調布市若葉町1-29-21","lat":35.657906,"lon":139.583282},{"name":"北部公民館","province":"東京都","city":"調布市","address":"調布市柴崎2-5-18","lat":35.661114,"lon":139.562866},{"name":"調布市青少年交流館","province":"東京都","city":"調布市","address":"調布市飛田給1-52-1","lat":35.66135,"lon":139.526062},{"name":"調布市立図書館宮の下分館","province":"東京都","city":"調布市","address":"調布市上石原3-34-10","lat":35.651505,"lon":139.524765},{"name":"調布市立図書館国領分館","province":"東京都","city":"調布市","address":"調布市国領町3-12-1","lat":35.650814,"lon":139.561234},{"name":"調布市立図書館佐須分館","province":"東京都","city":"調布市","address":"調布市佐須町4-42-2","lat":35.658699,"lon":139.556183},{"name":"調布市立図書館若葉分館","province":"東京都","city":"調布市","address":"調布市若葉町3-16-13","lat":35.654602,"lon":139.583679},{"name":"調布市立図書館深大寺分館","province":"東京都","city":"調布市","address":"調布市深大寺北町5-17-3","lat":35.678112,"lon":139.550369},{"name":"調布市立図書館神代分館","province":"東京都","city":"調布市","address":"調布市西つつじケ丘1-40-5","lat":35.660809,"lon":139.570038},{"name":"調布市立図書館染地分館","province":"東京都","city":"調布市","address":"調布市染地3-3-1","lat":35.639153,"lon":139.555283},{"name":"調布市立図書館調和分館","province":"東京都","city":"調布市","address":"調布市西つつじケ丘4-22-6","lat":35.651386,"lon":139.57373},{"name":"調布市立図書館富士見分館","province":"東京都","city":"調布市","address":"調布市富士見町2-3-26","lat":35.658424,"lon":139.539062},{"name":"調布市立図書館緑ケ丘分館","province":"東京都","city":"調布市","address":"調布市緑ケ丘2-25","lat":35.666611,"lon":139.582993},{"name":"調布市立中央図書館","province":"東京都","city":"調布市","address":"調布市小島町2-33-1","lat":35.65147,"lon":139.541443},{"name":"調布市郷土博物館","province":"東京都","city":"調布市","address":"調布市小島町3-26-2","lat":35.646938,"lon":139.535858},{"name":"調布市郷土博物館分室","province":"東京都","city":"調布市","address":"調布市布田6-61","lat":35.643711,"lon":139.548828},{"name":"調布市深大寺水車館","province":"東京都","city":"調布市","address":"調布市深大寺元町5-10-6","lat":35.667656,"lon":139.548325},{"name":"調布市武者小路実篤記念館","province":"東京都","city":"調布市","address":"調布市若葉町1-8-30","lat":35.65633,"lon":139.581268},{"name":"調布市文化会館たづくり","province":"東京都","city":"調布市","address":"調布市小島町2-33-1","lat":35.65147,"lon":139.541443},{"name":"(有)土井壜店","province":"東京都","city":"調布市","address":"調布市布田6-47-4","lat":35.644402,"lon":139.550827},{"name":"(有)金沢商店","province":"東京都","city":"調布市","address":"調布市多摩川2-4-1","lat":35.647549,"lon":139.524261},{"name":"滝沢三男也  滝沢商店","province":"東京都","city":"調布市","address":"調布市深大寺東町5-16-22","lat":35.672882,"lon":139.555649},{"name":"(有)加藤商店  本店","province":"東京都","city":"調布市","address":"調布市深大寺北町6-60-14","lat":35.680981,"lon":139.54805},{"name":"野川公園","province":"東京都","city":"調布市","address":"東京都調布市野水一・二丁目、小金井市東町一丁目、三鷹市大沢二・三・六丁目","lat":35.68334,"lon":139.525446},{"name":"西部公民館","province":"東京都","city":"調布市","address":"調布市上石原3-21-6","lat":35.653053,"lon":139.522293},{"name":"東部公民館","province":"東京都","city":"調布市","address":"調布市若葉町1-29-21","lat":35.657906,"lon":139.583282},{"name":"北部公民館","province":"東京都","city":"調布市","address":"調布市柴崎2-5-18","lat":35.661114,"lon":139.562866},{"name":"調布市青少年交流館","province":"東京都","city":"調布市","address":"調布市飛田給1-52-1","lat":35.66135,"lon":139.526062},{"name":"調布市立図書館宮の下分館","province":"東京都","city":"調布市","address":"調布市上石原3-34-10","lat":35.651505,"lon":139.524765},{"name":"調布市立図書館国領分館","province":"東京都","city":"調布市","address":"調布市国領町3-12-1","lat":35.650814,"lon":139.561234},{"name":"調布市立図書館佐須分館","province":"東京都","city":"調布市","address":"調布市佐須町4-42-2","lat":35.658699,"lon":139.556183},{"name":"調布市立図書館若葉分館","province":"東京都","city":"調布市","address":"調布市若葉町3-16-13","lat":35.654602,"lon":139.583679},{"name":"調布市立図書館深大寺分館","province":"東京都","city":"調布市","address":"調布市深大寺北町5-17-3","lat":35.678112,"lon":139.550369},{"name":"調布市立図書館神代分館","province":"東京都","city":"調布市","address":"調布市西つつじケ丘1-40-5","lat":35.660809,"lon":139.570038},{"name":"調布市立図書館染地分館","province":"東京都","city":"調布市","address":"調布市染地3-3-1","lat":35.639153,"lon":139.555283},{"name":"調布市立図書館調和分館","province":"東京都","city":"調布市","address":"調布市西つつじケ丘4-22-6","lat":35.651386,"lon":139.57373},{"name":"調布市立図書館富士見分館","province":"東京都","city":"調布市","address":"調布市富士見町2-3-26","lat":35.658424,"lon":139.539062},{"name":"調布市立図書館緑ケ丘分館","province":"東京都","city":"調布市","address":"調布市緑ケ丘2-25","lat":35.666611,"lon":139.582993},{"name":"調布市立中央図書館","province":"東京都","city":"調布市","address":"調布市小島町2-33-1","lat":35.65147,"lon":139.541443},{"name":"調布市郷土博物館","province":"東京都","city":"調布市","address":"調布市小島町3-26-2","lat":35.646938,"lon":139.535858},{"name":"調布市郷土博物館分室","province":"東京都","city":"調布市","address":"調布市布田6-61","lat":35.643711,"lon":139.548828},{"name":"調布市深大寺水車館","province":"東京都","city":"調布市","address":"調布市深大寺元町5-10-6","lat":35.667656,"lon":139.548325},{"name":"調布市武者小路実篤記念館","province":"東京都","city":"調布市","address":"調布市若葉町1-8-30","lat":35.65633,"lon":139.581268},{"name":"調布市文化会館たづくり","province":"東京都","city":"調布市","address":"調布市小島町2-33-1","lat":35.65147,"lon":139.541443},{"name":"(有)土井壜店","province":"東京都","city":"調布市","address":"調布市布田6-47-4","lat":35.644402,"lon":139.550827},{"name":"(有)金沢商店","province":"東京都","city":"調布市","address":"調布市多摩川2-4-1","lat":35.647549,"lon":139.524261},{"name":"滝沢三男也  滝沢商店","province":"東京都","city":"調布市","address":"調布市深大寺東町5-16-22","lat":35.672882,"lon":139.555649},{"name":"(有)加藤商店  本店","province":"東京都","city":"調布市","address":"調布市深大寺北町6-60-14","lat":35.680981,"lon":139.54805},{"name":"野川公園","province":"東京都","city":"調布市","address":"東京都調布市野水一・二丁目、小金井市東町一丁目、三鷹市大沢二・三・六丁目","lat":35.68334,"lon":139.525446},{"name":"西部公民館","province":"東京都","city":"調布市","address":"調布市上石原3-21-6","lat":35.653053,"lon":139.522293},{"name":"東部公民館","province":"東京都","city":"調布市","address":"調布市若葉町1-29-21","lat":35.657906,"lon":139.583282},{"name":"北部公民館","province":"東京都","city":"調布市","address":"調布市柴崎2-5-18","lat":35.661114,"lon":139.562866},{"name":"調布市青少年交流館","province":"東京都","city":"調布市","address":"調布市飛田給1-52-1","lat":35.66135,"lon":139.526062},{"name":"調布市立図書館宮の下分館","province":"東京都","city":"調布市","address":"調布市上石原3-34-10","lat":35.651505,"lon":139.524765},{"name":"調布市立図書館国領分館","province":"東京都","city":"調布市","address":"調布市国領町3-12-1","lat":35.650814,"lon":139.561234},{"name":"調布市立図書館佐須分館","province":"東京都","city":"調布市","address":"調布市佐須町4-42-2","lat":35.658699,"lon":139.556183},{"name":"調布市立図書館若葉分館","province":"東京都","city":"調布市","address":"調布市若葉町3-16-13","lat":35.654602,"lon":139.583679},{"name":"調布市立図書館深大寺分館","province":"東京都","city":"調布市","address":"調布市深大寺北町5-17-3","lat":35.678112,"lon":139.550369},{"name":"調布市立図書館神代分館","province":"東京都","city":"調布市","address":"調布市西つつじケ丘1-40-5","lat":35.660809,"lon":139.570038},{"name":"調布市立図書館染地分館","province":"東京都","city":"調布市","address":"調布市染地3-3-1","lat":35.639153,"lon":139.555283},{"name":"調布市立図書館調和分館","province":"東京都","city":"調布市","address":"調布市西つつじケ丘4-22-6","lat":35.651386,"lon":139.57373},{"name":"調布市立図書館富士見分館","province":"東京都","city":"調布市","address":"調布市富士見町2-3-26","lat":35.658424,"lon":139.539062},{"name":"調布市立図書館緑ケ丘分館","province":"東京都","city":"調布市","address":"調布市緑ケ丘2-25","lat":35.666611,"lon":139.582993},{"name":"調布市立中央図書館","province":"東京都","city":"調布市","address":"調布市小島町2-33-1","lat":35.65147,"lon":139.541443},{"name":"調布市郷土博物館","province":"東京都","city":"調布市","address":"調布市小島町3-26-2","lat":35.646938,"lon":139.535858},{"name":"調布市郷土博物館分室","province":"東京都","city":"調布市","address":"調布市布田6-61","lat":35.643711,"lon":139.548828},{"name":"調布市深大寺水車館","province":"東京都","city":"調布市","address":"調布市深大寺元町5-10-6","lat":35.667656,"lon":139.548325},{"name":"調布市武者小路実篤記念館","province":"東京都","city":"調布市","address":"調布市若葉町1-8-30","lat":35.65633,"lon":139.581268},{"name":"調布市文化会館たづくり","province":"東京都","city":"調布市","address":"調布市小島町2-33-1","lat":35.65147,"lon":139.541443},{"name":"(有)土井壜店","province":"東京都","city":"調布市","address":"調布市布田6-47-4","lat":35.644402,"lon":139.550827},{"name":"(有)金沢商店","province":"東京都","city":"調布市","address":"調布市多摩川2-4-1","lat":35.647549,"lon":139.524261},{"name":"滝沢三男也  滝沢商店","province":"東京都","city":"調布市","address":"調布市深大寺東町5-16-22","lat":35.672882,"lon":139.555649},{"name":"(有)加藤商店  本店","province":"東京都","city":"調布市","address":"調布市深大寺北町6-60-14","lat":35.680981,"lon":139.54805},{"name":"野川公園","province":"東京都","city":"調布市","address":"東京都調布市野水一・二丁目、小金井市東町一丁目、三鷹市大沢二・三・六丁目","lat":35.68334,"lon":139.525446},{"name":"西部公民館","province":"東京都","city":"調布市","address":"調布市上石原3-21-6","lat":35.653053,"lon":139.522293},{"name":"東部公民館","province":"東京都","city":"調布市","address":"調布市若葉町1-29-21","lat":35.657906,"lon":139.583282},{"name":"北部公民館","province":"東京都","city":"調布市","address":"調布市柴崎2-5-18","lat":35.661114,"lon":139.562866},{"name":"調布市青少年交流館","province":"東京都","city":"調布市","address":"調布市飛田給1-52-1","lat":35.66135,"lon":139.526062},{"name":"調布市立図書館宮の下分館","province":"東京都","city":"調布市","address":"調布市上石原3-34-10","lat":35.651505,"lon":139.524765},{"name":"調布市立図書館国領分館","province":"東京都","city":"調布市","address":"調布市国領町3-12-1","lat":35.650814,"lon":139.561234},{"name":"調布市立図書館佐須分館","province":"東京都","city":"調布市","address":"調布市佐須町4-42-2","lat":35.658699,"lon":139.556183},{"name":"調布市立図書館若葉分館","province":"東京都","city":"調布市","address":"調布市若葉町3-16-13","lat":35.654602,"lon":139.583679},{"name":"調布市立図書館深大寺分館","province":"東京都","city":"調布市","address":"調布市深大寺北町5-17-3","lat":35.678112,"lon":139.550369},{"name":"調布市立図書館神代分館","province":"東京都","city":"調布市","address":"調布市西つつじケ丘1-40-5","lat":35.660809,"lon":139.570038},{"name":"調布市立図書館染地分館","province":"東京都","city":"調布市","address":"調布市染地3-3-1","lat":35.639153,"lon":139.555283},{"name":"調布市立図書館調和分館","province":"東京都","city":"調布市","address":"調布市西つつじケ丘4-22-6","lat":35.651386,"lon":139.57373},{"name":"調布市立図書館富士見分館","province":"東京都","city":"調布市","address":"調布市富士見町2-3-26","lat":35.658424,"lon":139.539062},{"name":"調布市立図書館緑ケ丘分館","province":"東京都","city":"調布市","address":"調布市緑ケ丘2-25","lat":35.666611,"lon":139.582993},{"name":"調布市立中央図書館","province":"東京都","city":"調布市","address":"調布市小島町2-33-1","lat":35.65147,"lon":139.541443},{"name":"調布市郷土博物館","province":"東京都","city":"調布市","address":"調布市小島町3-26-2","lat":35.646938,"lon":139.535858},{"name":"調布市郷土博物館分室","province":"東京都","city":"調布市","address":"調布市布田6-61","lat":35.643711,"lon":139.548828},{"name":"調布市深大寺水車館","province":"東京都","city":"調布市","address":"調布市深大寺元町5-10-6","lat":35.667656,"lon":139.548325},{"name":"調布市武者小路実篤記念館","province":"東京都","city":"調布市","address":"調布市若葉町1-8-30","lat":35.65633,"lon":139.581268},{"name":"調布市文化会館たづくり","province":"東京都","city":"調布市","address":"調布市小島町2-33-1","lat":35.65147,"lon":139.541443},{"name":"(有)土井壜店","province":"東京都","city":"調布市","address":"調布市布田6-47-4","lat":35.644402,"lon":139.550827},{"name":"(有)金沢商店","province":"東京都","city":"調布市","address":"調布市多摩川2-4-1","lat":35.647549,"lon":139.524261},{"name":"滝沢三男也  滝沢商店","province":"東京都","city":"調布市","address":"調布市深大寺東町5-16-22","lat":35.672882,"lon":139.555649},{"name":"(有)加藤商店  本店","province":"東京都","city":"調布市","address":"調布市深大寺北町6-60-14","lat":35.680981,"lon":139.54805},{"name":"野川公園","province":"東京都","city":"調布市","address":"東京都調布市野水一・二丁目、小金井市東町一丁目、三鷹市大沢二・三・六丁目","lat":35.68334,"lon":139.525446},{"name":"西部公民館","province":"東京都","city":"調布市","address":"調布市上石原3-21-6","lat":35.653053,"lon":139.522293},{"name":"東部公民館","province":"東京都","city":"調布市","address":"調布市若葉町1-29-21","lat":35.657906,"lon":139.583282},{"name":"北部公民館","province":"東京都","city":"調布市","address":"調布市柴崎2-5-18","lat":35.661114,"lon":139.562866},{"name":"調布市青少年交流館","province":"東京都","city":"調布市","address":"調布市飛田給1-52-1","lat":35.66135,"lon":139.526062},{"name":"調布市立図書館宮の下分館","province":"東京都","city":"調布市","address":"調布市上石原3-34-10","lat":35.651505,"lon":139.524765},{"name":"調布市立図書館国領分館","province":"東京都","city":"調布市","address":"調布市国領町3-12-1","lat":35.650814,"lon":139.561234},{"name":"調布市立図書館佐須分館","province":"東京都","city":"調布市","address":"調布市佐須町4-42-2","lat":35.658699,"lon":139.556183},{"name":"調布市立図書館若葉分館","province":"東京都","city":"調布市","address":"調布市若葉町3-16-13","lat":35.654602,"lon":139.583679},{"name":"調布市立図書館深大寺分館","province":"東京都","city":"調布市","address":"調布市深大寺北町5-17-3","lat":35.678112,"lon":139.550369},{"name":"調布市立図書館神代分館","province":"東京都","city":"調布市","address":"調布市西つつじケ丘1-40-5","lat":35.660809,"lon":139.570038},{"name":"調布市立図書館染地分館","province":"東京都","city":"調布市","address":"調布市染地3-3-1","lat":35.639153,"lon":139.555283},{"name":"調布市立図書館調和分館","province":"東京都","city":"調布市","address":"調布市西つつじケ丘4-22-6","lat":35.651386,"lon":139.57373},{"name":"調布市立図書館富士見分館","province":"東京都","city":"調布市","address":"調布市富士見町2-3-26","lat":35.658424,"lon":139.539062},{"name":"調布市立図書館緑ケ丘分館","province":"東京都","city":"調布市","address":"調布市緑ケ丘2-25","lat":35.666611,"lon":139.582993},{"name":"調布市立中央図書館","province":"東京都","city":"調布市","address":"調布市小島町2-33-1","lat":35.65147,"lon":139.541443},{"name":"調布市郷土博物館","province":"東京都","city":"調布市","address":"調布市小島町3-26-2","lat":35.646938,"lon":139.535858},{"name":"調布市郷土博物館分室","province":"東京都","city":"調布市","address":"調布市布田6-61","lat":35.643711,"lon":139.548828},{"name":"調布市深大寺水車館","province":"東京都","city":"調布市","address":"調布市深大寺元町5-10-6","lat":35.667656,"lon":139.548325},{"name":"調布市武者小路実篤記念館","province":"東京都","city":"調布市","address":"調布市若葉町1-8-30","lat":35.65633,"lon":139.581268},{"name":"調布市文化会館たづくり","province":"東京都","city":"調布市","address":"調布市小島町2-33-1","lat":35.65147,"lon":139.541443},{"name":"(有)土井壜店","province":"東京都","city":"調布市","address":"調布市布田6-47-4","lat":35.644402,"lon":139.550827},{"name":"(有)金沢商店","province":"東京都","city":"調布市","address":"調布市多摩川2-4-1","lat":35.647549,"lon":139.524261},{"name":"滝沢三男也  滝沢商店","province":"東京都","city":"調布市","address":"調布市深大寺東町5-16-22","lat":35.672882,"lon":139.555649},{"name":"(有)加藤商店  本店","province":"東京都","city":"調布市","address":"調布市深大寺北町6-60-14","lat":35.680981,"lon":139.54805},{"name":"野川公園","province":"東京都","city":"調布市","address":"東京都調布市野水一・二丁目、小金井市東町一丁目、三鷹市大沢二・三・六丁目","lat":35.68334,"lon":139.525446},{"name":"西部公民館","province":"東京都","city":"調布市","address":"調布市上石原3-21-6","lat":35.653053,"lon":139.522293},{"name":"東部公民館","province":"東京都","city":"調布市","address":"調布市若葉町1-29-21","lat":35.657906,"lon":139.583282},{"name":"北部公民館","province":"東京都","city":"調布市","address":"調布市柴崎2-5-18","lat":35.661114,"lon":139.562866},{"name":"調布市青少年交流館","province":"東京都","city":"調布市","address":"調布市飛田給1-52-1","lat":35.66135,"lon":139.526062},{"name":"調布市立図書館宮の下分館","province":"東京都","city":"調布市","address":"調布市上石原3-34-10","lat":35.651505,"lon":139.524765},{"name":"調布市立図書館国領分館","province":"東京都","city":"調布市","address":"調布市国領町3-12-1","lat":35.650814,"lon":139.561234},{"name":"調布市立図書館佐須分館","province":"東京都","city":"調布市","address":"調布市佐須町4-42-2","lat":35.658699,"lon":139.556183},{"name":"調布市立図書館若葉分館","province":"東京都","city":"調布市","address":"調布市若葉町3-16-13","lat":35.654602,"lon":139.583679},{"name":"調布市立図書館深大寺分館","province":"東京都","city":"調布市","address":"調布市深大寺北町5-17-3","lat":35.678112,"lon":139.550369},{"name":"調布市立図書館神代分館","province":"東京都","city":"調布市","address":"調布市西つつじケ丘1-40-5","lat":35.660809,"lon":139.570038},{"name":"調布市立図書館染地分館","province":"東京都","city":"調布市","address":"調布市染地3-3-1","lat":35.639153,"lon":139.555283},{"name":"調布市立図書館調和分館","province":"東京都","city":"調布市","address":"調布市西つつじケ丘4-22-6","lat":35.651386,"lon":139.57373},{"name":"調布市立図書館富士見分館","province":"東京都","city":"調布市","address":"調布市富士見町2-3-26","lat":35.658424,"lon":139.539062},{"name":"調布市立図書館緑ケ丘分館","province":"東京都","city":"調布市","address":"調布市緑ケ丘2-25","lat":35.666611,"lon":139.582993},{"name":"調布市立中央図書館","province":"東京都","city":"調布市","address":"調布市小島町2-33-1","lat":35.65147,"lon":139.541443},{"name":"調布市郷土博物館","province":"東京都","city":"調布市","address":"調布市小島町3-26-2","lat":35.646938,"lon":139.535858},{"name":"調布市郷土博物館分室","province":"東京都","city":"調布市","address":"調布市布田6-61","lat":35.643711,"lon":139.548828},{"name":"調布市深大寺水車館","province":"東京都","city":"調布市","address":"調布市深大寺元町5-10-6","lat":35.667656,"lon":139.548325},{"name":"調布市武者小路実篤記念館","province":"東京都","city":"調布市","address":"調布市若葉町1-8-30","lat":35.65633,"lon":139.581268},{"name":"調布市文化会館たづくり","province":"東京都","city":"調布市","address":"調布市小島町2-33-1","lat":35.65147,"lon":139.541443},{"name":"(有)土井壜店","province":"東京都","city":"調布市","address":"調布市布田6-47-4","lat":35.644402,"lon":139.550827},{"name":"(有)金沢商店","province":"東京都","city":"調布市","address":"調布市多摩川2-4-1","lat":35.647549,"lon":139.524261},{"name":"滝沢三男也  滝沢商店","province":"東京都","city":"調布市","address":"調布市深大寺東町5-16-22","lat":35.672882,"lon":139.555649},{"name":"(有)加藤商店  本店","province":"東京都","city":"調布市","address":"調布市深大寺北町6-60-14","lat":35.680981,"lon":139.54805},{"name":"野川公園","province":"東京都","city":"調布市","address":"東京都調布市野水一・二丁目、小金井市東町一丁目、三鷹市大沢二・三・六丁目","lat":35.68334,"lon":139.525446},{"name":"西部公民館","province":"東京都","city":"調布市","address":"調布市上石原3-21-6","lat":35.653053,"lon":139.522293},{"name":"東部公民館","province":"東京都","city":"調布市","address":"調布市若葉町1-29-21","lat":35.657906,"lon":139.583282},{"name":"北部公民館","province":"東京都","city":"調布市","address":"調布市柴崎2-5-18","lat":35.661114,"lon":139.562866},{"name":"調布市青少年交流館","province":"東京都","city":"調布市","address":"調布市飛田給1-52-1","lat":35.66135,"lon":139.526062},{"name":"調布市立図書館宮の下分館","province":"東京都","city":"調布市","address":"調布市上石原3-34-10","lat":35.651505,"lon":139.524765},{"name":"調布市立図書館国領分館","province":"東京都","city":"調布市","address":"調布市国領町3-12-1","lat":35.650814,"lon":139.561234},{"name":"調布市立図書館佐須分館","province":"東京都","city":"調布市","address":"調布市佐須町4-42-2","lat":35.658699,"lon":139.556183},{"name":"調布市立図書館若葉分館","province":"東京都","city":"調布市","address":"調布市若葉町3-16-13","lat":35.654602,"lon":139.583679},{"name":"調布市立図書館深大寺分館","province":"東京都","city":"調布市","address":"調布市深大寺北町5-17-3","lat":35.678112,"lon":139.550369},{"name":"調布市立図書館神代分館","province":"東京都","city":"調布市","address":"調布市西つつじケ丘1-40-5","lat":35.660809,"lon":139.570038},{"name":"調布市立図書館染地分館","province":"東京都","city":"調布市","address":"調布市染地3-3-1","lat":35.639153,"lon":139.555283},{"name":"調布市立図書館調和分館","province":"東京都","city":"調布市","address":"調布市西つつじケ丘4-22-6","lat":35.651386,"lon":139.57373},{"name":"調布市立図書館富士見分館","province":"東京都","city":"調布市","address":"調布市富士見町2-3-26","lat":35.658424,"lon":139.539062},{"name":"調布市立図書館緑ケ丘分館","province":"東京都","city":"調布市","address":"調布市緑ケ丘2-25","lat":35.666611,"lon":139.582993},{"name":"調布市立中央図書館","province":"東京都","city":"調布市","address":"調布市小島町2-33-1","lat":35.65147,"lon":139.541443},{"name":"調布市郷土博物館","province":"東京都","city":"調布市","address":"調布市小島町3-26-2","lat":35.646938,"lon":139.535858},{"name":"調布市郷土博物館分室","province":"東京都","city":"調布市","address":"調布市布田6-61","lat":35.643711,"lon":139.548828},{"name":"調布市深大寺水車館","province":"東京都","city":"調布市","address":"調布市深大寺元町5-10-6","lat":35.667656,"lon":139.548325},{"name":"調布市武者小路実篤記念館","province":"東京都","city":"調布市","address":"調布市若葉町1-8-30","lat":35.65633,"lon":139.581268},{"name":"調布市文化会館たづくり","province":"東京都","city":"調布市","address":"調布市小島町2-33-1","lat":35.65147,"lon":139.541443},{"name":"(有)土井壜店","province":"東京都","city":"調布市","address":"調布市布田6-47-4","lat":35.644402,"lon":139.550827},{"name":"(有)金沢商店","province":"東京都","city":"調布市","address":"調布市多摩川2-4-1","lat":35.647549,"lon":139.524261},{"name":"滝沢三男也  滝沢商店","province":"東京都","city":"調布市","address":"調布市深大寺東町5-16-22","lat":35.672882,"lon":139.555649},{"name":"(有)加藤商店  本店","province":"東京都","city":"調布市","address":"調布市深大寺北町6-60-14","lat":35.680981,"lon":139.54805},{"name":"野川公園","province":"東京都","city":"調布市","address":"東京都調布市野水一・二丁目、小金井市東町一丁目、三鷹市大沢二・三・六丁目","lat":35.68334,"lon":139.525446},{"name":"西部公民館","province":"東京都","city":"調布市","address":"調布市上石原3-21-6","lat":35.653053,"lon":139.522293},{"name":"東部公民館","province":"東京都","city":"調布市","address":"調布市若葉町1-29-21","lat":35.657906,"lon":139.583282},{"name":"北部公民館","province":"東京都","city":"調布市","address":"調布市柴崎2-5-18","lat":35.661114,"lon":139.562866},{"name":"調布市青少年交流館","province":"東京都","city":"調布市","address":"調布市飛田給1-52-1","lat":35.66135,"lon":139.526062},{"name":"調布市立図書館宮の下分館","province":"東京都","city":"調布市","address":"調布市上石原3-34-10","lat":35.651505,"lon":139.524765},{"name":"調布市立図書館国領分館","province":"東京都","city":"調布市","address":"調布市国領町3-12-1","lat":35.650814,"lon":139.561234},{"name":"調布市立図書館佐須分館","province":"東京都","city":"調布市","address":"調布市佐須町4-42-2","lat":35.658699,"lon":139.556183},{"name":"調布市立図書館若葉分館","province":"東京都","city":"調布市","address":"調布市若葉町3-16-13","lat":35.654602,"lon":139.583679},{"name":"調布市立図書館深大寺分館","province":"東京都","city":"調布市","address":"調布市深大寺北町5-17-3","lat":35.678112,"lon":139.550369},{"name":"調布市立図書館神代分館","province":"東京都","city":"調布市","address":"調布市西つつじケ丘1-40-5","lat":35.660809,"lon":139.570038},{"name":"調布市立図書館染地分館","province":"東京都","city":"調布市","address":"調布市染地3-3-1","lat":35.639153,"lon":139.555283},{"name":"調布市立図書館調和分館","province":"東京都","city":"調布市","address":"調布市西つつじケ丘4-22-6","lat":35.651386,"lon":139.57373},{"name":"調布市立図書館富士見分館","province":"東京都","city":"調布市","address":"調布市富士見町2-3-26","lat":35.658424,"lon":139.539062},{"name":"調布市立図書館緑ケ丘分館","province":"東京都","city":"調布市","address":"調布市緑ケ丘2-25","lat":35.666611,"lon":139.582993},{"name":"調布市立中央図書館","province":"東京都","city":"調布市","address":"調布市小島町2-33-1","lat":35.65147,"lon":139.541443},{"name":"調布市郷土博物館","province":"東京都","city":"調布市","address":"調布市小島町3-26-2","lat":35.646938,"lon":139.535858},{"name":"調布市郷土博物館分室","province":"東京都","city":"調布市","address":"調布市布田6-61","lat":35.643711,"lon":139.548828},{"name":"調布市深大寺水車館","province":"東京都","city":"調布市","address":"調布市深大寺元町5-10-6","lat":35.667656,"lon":139.548325},{"name":"調布市武者小路実篤記念館","province":"東京都","city":"調布市","address":"調布市若葉町1-8-30","lat":35.65633,"lon":139.581268},{"name":"調布市文化会館たづくり","province":"東京都","city":"調布市","address":"調布市小島町2-33-1","lat":35.65147,"lon":139.541443},{"name":"(有)土井壜店","province":"東京都","city":"調布市","address":"調布市布田6-47-4","lat":35.644402,"lon":139.550827},{"name":"(有)金沢商店","province":"東京都","city":"調布市","address":"調布市多摩川2-4-1","lat":35.647549,"lon":139.524261},{"name":"滝沢三男也  滝沢商店","province":"東京都","city":"調布市","address":"調布市深大寺東町5-16-22","lat":35.672882,"lon":139.555649},{"name":"(有)加藤商店  本店","province":"東京都","city":"調布市","address":"調布市深大寺北町6-60-14","lat":35.680981,"lon":139.54805},{"name":"野川公園","province":"東京都","city":"調布市","address":"東京都調布市野水一・二丁目、小金井市東町一丁目、三鷹市大沢二・三・六丁目","lat":35.68334,"lon":139.525446},{"name":"西部公民館","province":"東京都","city":"調布市","address":"調布市上石原3-21-6","lat":35.653053,"lon":139.522293},{"name":"東部公民館","province":"東京都","city":"調布市","address":"調布市若葉町1-29-21","lat":35.657906,"lon":139.583282},{"name":"北部公民館","province":"東京都","city":"調布市","address":"調布市柴崎2-5-18","lat":35.661114,"lon":139.562866},{"name":"調布市青少年交流館","province":"東京都","city":"調布市","address":"調布市飛田給1-52-1","lat":35.66135,"lon":139.526062},{"name":"調布市立図書館宮の下分館","province":"東京都","city":"調布市","address":"調布市上石原3-34-10","lat":35.651505,"lon":139.524765},{"name":"調布市立図書館国領分館","province":"東京都","city":"調布市","address":"調布市国領町3-12-1","lat":35.650814,"lon":139.561234},{"name":"調布市立図書館佐須分館","province":"東京都","city":"調布市","address":"調布市佐須町4-42-2","lat":35.658699,"lon":139.556183},{"name":"調布市立図書館若葉分館","province":"東京都","city":"調布市","address":"調布市若葉町3-16-13","lat":35.654602,"lon":139.583679},{"name":"調布市立図書館深大寺分館","province":"東京都","city":"調布市","address":"調布市深大寺北町5-17-3","lat":35.678112,"lon":139.550369},{"name":"調布市立図書館神代分館","province":"東京都","city":"調布市","address":"調布市西つつじケ丘1-40-5","lat":35.660809,"lon":139.570038},{"name":"調布市立図書館染地分館","province":"東京都","city":"調布市","address":"調布市染地3-3-1","lat":35.639153,"lon":139.555283},{"name":"調布市立図書館調和分館","province":"東京都","city":"調布市","address":"調布市西つつじケ丘4-22-6","lat":35.651386,"lon":139.57373},{"name":"調布市立図書館富士見分館","province":"東京都","city":"調布市","address":"調布市富士見町2-3-26","lat":35.658424,"lon":139.539062},{"name":"調布市立図書館緑ケ丘分館","province":"東京都","city":"調布市","address":"調布市緑ケ丘2-25","lat":35.666611,"lon":139.582993},{"name":"調布市立中央図書館","province":"東京都","city":"調布市","address":"調布市小島町2-33-1","lat":35.65147,"lon":139.541443},{"name":"調布市郷土博物館","province":"東京都","city":"調布市","address":"調布市小島町3-26-2","lat":35.646938,"lon":139.535858},{"name":"調布市郷土博物館分室","province":"東京都","city":"調布市","address":"調布市布田6-61","lat":35.643711,"lon":139.548828},{"name":"調布市深大寺水車館","province":"東京都","city":"調布市","address":"調布市深大寺元町5-10-6","lat":35.667656,"lon":139.548325},{"name":"調布市武者小路実篤記念館","province":"東京都","city":"調布市","address":"調布市若葉町1-8-30","lat":35.65633,"lon":139.581268},{"name":"調布市文化会館たづくり","province":"東京都","city":"調布市","address":"調布市小島町2-33-1","lat":35.65147,"lon":139.541443},{"name":"(有)土井壜店","province":"東京都","city":"調布市","address":"調布市布田6-47-4","lat":35.644402,"lon":139.550827},{"name":"(有)金沢商店","province":"東京都","city":"調布市","address":"調布市多摩川2-4-1","lat":35.647549,"lon":139.524261},{"name":"滝沢三男也  滝沢商店","province":"東京都","city":"調布市","address":"調布市深大寺東町5-16-22","lat":35.672882,"lon":139.555649},{"name":"(有)加藤商店  本店","province":"東京都","city":"調布市","address":"調布市深大寺北町6-60-14","lat":35.680981,"lon":139.54805},{"name":"野川公園","province":"東京都","city":"調布市","address":"東京都調布市野水一・二丁目、小金井市東町一丁目、三鷹市大沢二・三・六丁目","lat":35.68334,"lon":139.525446},{"name":"西部公民館","province":"東京都","city":"調布市","address":"調布市上石原3-21-6","lat":35.653053,"lon":139.522293},{"name":"東部公民館","province":"東京都","city":"調布市","address":"調布市若葉町1-29-21","lat":35.657906,"lon":139.583282},{"name":"北部公民館","province":"東京都","city":"調布市","address":"調布市柴崎2-5-18","lat":35.661114,"lon":139.562866},{"name":"調布市青少年交流館","province":"東京都","city":"調布市","address":"調布市飛田給1-52-1","lat":35.66135,"lon":139.526062},{"name":"調布市立図書館宮の下分館","province":"東京都","city":"調布市","address":"調布市上石原3-34-10","lat":35.651505,"lon":139.524765},{"name":"調布市立図書館国領分館","province":"東京都","city":"調布市","address":"調布市国領町3-12-1","lat":35.650814,"lon":139.561234},{"name":"調布市立図書館佐須分館","province":"東京都","city":"調布市","address":"調布市佐須町4-42-2","lat":35.658699,"lon":139.556183},{"name":"調布市立図書館若葉分館","province":"東京都","city":"調布市","address":"調布市若葉町3-16-13","lat":35.654602,"lon":139.583679},{"name":"調布市立図書館深大寺分館","province":"東京都","city":"調布市","address":"調布市深大寺北町5-17-3","lat":35.678112,"lon":139.550369},{"name":"調布市立図書館神代分館","province":"東京都","city":"調布市","address":"調布市西つつじケ丘1-40-5","lat":35.660809,"lon":139.570038},{"name":"調布市立図書館染地分館","province":"東京都","city":"調布市","address":"調布市染地3-3-1","lat":35.639153,"lon":139.555283},{"name":"調布市立図書館調和分館","province":"東京都","city":"調布市","address":"調布市西つつじケ丘4-22-6","lat":35.651386,"lon":139.57373},{"name":"調布市立図書館富士見分館","province":"東京都","city":"調布市","address":"調布市富士見町2-3-26","lat":35.658424,"lon":139.539062},{"name":"調布市立図書館緑ケ丘分館","province":"東京都","city":"調布市","address":"調布市緑ケ丘2-25","lat":35.666611,"lon":139.582993},{"name":"調布市立中央図書館","province":"東京都","city":"調布市","address":"調布市小島町2-33-1","lat":35.65147,"lon":139.541443},{"name":"調布市郷土博物館","province":"東京都","city":"調布市","address":"調布市小島町3-26-2","lat":35.646938,"lon":139.535858},{"name":"調布市郷土博物館分室","province":"東京都","city":"調布市","address":"調布市布田6-61","lat":35.643711,"lon":139.548828},{"name":"調布市深大寺水車館","province":"東京都","city":"調布市","address":"調布市深大寺元町5-10-6","lat":35.667656,"lon":139.548325},{"name":"調布市武者小路実篤記念館","province":"東京都","city":"調布市","address":"調布市若葉町1-8-30","lat":35.65633,"lon":139.581268},{"name":"調布市文化会館たづくり","province":"東京都","city":"調布市","address":"調布市小島町2-33-1","lat":35.65147,"lon":139.541443},{"name":"(有)土井壜店","province":"東京都","city":"調布市","address":"調布市布田6-47-4","lat":35.644402,"lon":139.550827},{"name":"(有)金沢商店","province":"東京都","city":"調布市","address":"調布市多摩川2-4-1","lat":35.647549,"lon":139.524261},{"name":"滝沢三男也  滝沢商店","province":"東京都","city":"調布市","address":"調布市深大寺東町5-16-22","lat":35.672882,"lon":139.555649},{"name":"(有)加藤商店  本店","province":"東京都","city":"調布市","address":"調布市深大寺北町6-60-14","lat":35.680981,"lon":139.54805},{"name":"野川公園","province":"東京都","city":"調布市","address":"東京都調布市野水一・二丁目、小金井市東町一丁目、三鷹市大沢二・三・六丁目","lat":35.68334,"lon":139.525446},{"name":"西部公民館","province":"東京都","city":"調布市","address":"調布市上石原3-21-6","lat":35.653053,"lon":139.522293},{"name":"東部公民館","province":"東京都","city":"調布市","address":"調布市若葉町1-29-21","lat":35.657906,"lon":139.583282},{"name":"北部公民館","province":"東京都","city":"調布市","address":"調布市柴崎2-5-18","lat":35.661114,"lon":139.562866},{"name":"調布市青少年交流館","province":"東京都","city":"調布市","address":"調布市飛田給1-52-1","lat":35.66135,"lon":139.526062},{"name":"調布市立図書館宮の下分館","province":"東京都","city":"調布市","address":"調布市上石原3-34-10","lat":35.651505,"lon":139.524765},{"name":"調布市立図書館国領分館","province":"東京都","city":"調布市","address":"調布市国領町3-12-1","lat":35.650814,"lon":139.561234},{"name":"調布市立図書館佐須分館","province":"東京都","city":"調布市","address":"調布市佐須町4-42-2","lat":35.658699,"lon":139.556183},{"name":"調布市立図書館若葉分館","province":"東京都","city":"調布市","address":"調布市若葉町3-16-13","lat":35.654602,"lon":139.583679},{"name":"調布市立図書館深大寺分館","province":"東京都","city":"調布市","address":"調布市深大寺北町5-17-3","lat":35.678112,"lon":139.550369},{"name":"調布市立図書館神代分館","province":"東京都","city":"調布市","address":"調布市西つつじケ丘1-40-5","lat":35.660809,"lon":139.570038},{"name":"調布市立図書館染地分館","province":"東京都","city":"調布市","address":"調布市染地3-3-1","lat":35.639153,"lon":139.555283},{"name":"調布市立図書館調和分館","province":"東京都","city":"調布市","address":"調布市西つつじケ丘4-22-6","lat":35.651386,"lon":139.57373},{"name":"調布市立図書館富士見分館","province":"東京都","city":"調布市","address":"調布市富士見町2-3-26","lat":35.658424,"lon":139.539062},{"name":"調布市立図書館緑ケ丘分館","province":"東京都","city":"調布市","address":"調布市緑ケ丘2-25","lat":35.666611,"lon":139.582993},{"name":"調布市立中央図書館","province":"東京都","city":"調布市","address":"調布市小島町2-33-1","lat":35.65147,"lon":139.541443},{"name":"調布市郷土博物館","province":"東京都","city":"調布市","address":"調布市小島町3-26-2","lat":35.646938,"lon":139.535858},{"name":"調布市郷土博物館分室","province":"東京都","city":"調布市","address":"調布市布田6-61","lat":35.643711,"lon":139.548828},{"name":"調布市深大寺水車館","province":"東京都","city":"調布市","address":"調布市深大寺元町5-10-6","lat":35.667656,"lon":139.548325},{"name":"調布市武者小路実篤記念館","province":"東京都","city":"調布市","address":"調布市若葉町1-8-30","lat":35.65633,"lon":139.581268},{"name":"調布市文化会館たづくり","province":"東京都","city":"調布市","address":"調布市小島町2-33-1","lat":35.65147,"lon":139.541443},{"name":"(有)土井壜店","province":"東京都","city":"調布市","address":"調布市布田6-47-4","lat":35.644402,"lon":139.550827},{"name":"(有)金沢商店","province":"東京都","city":"調布市","address":"調布市多摩川2-4-1","lat":35.647549,"lon":139.524261},{"name":"滝沢三男也  滝沢商店","province":"東京都","city":"調布市","address":"調布市深大寺東町5-16-22","lat":35.672882,"lon":139.555649},{"name":"(有)加藤商店  本店","province":"東京都","city":"調布市","address":"調布市深大寺北町6-60-14","lat":35.680981,"lon":139.54805},{"name":"野川公園","province":"東京都","city":"調布市","address":"東京都調布市野水一・二丁目、小金井市東町一丁目、三鷹市大沢二・三・六丁目","lat":35.68334,"lon":139.525446},{"name":"西部公民館","province":"東京都","city":"調布市","address":"調布市上石原3-21-6","lat":35.653053,"lon":139.522293},{"name":"東部公民館","province":"東京都","city":"調布市","address":"調布市若葉町1-29-21","lat":35.657906,"lon":139.583282},{"name":"北部公民館","province":"東京都","city":"調布市","address":"調布市柴崎2-5-18","lat":35.661114,"lon":139.562866},{"name":"調布市青少年交流館","province":"東京都","city":"調布市","address":"調布市飛田給1-52-1","lat":35.66135,"lon":139.526062},{"name":"調布市立図書館宮の下分館","province":"東京都","city":"調布市","address":"調布市上石原3-34-10","lat":35.651505,"lon":139.524765},{"name":"調布市立図書館国領分館","province":"東京都","city":"調布市","address":"調布市国領町3-12-1","lat":35.650814,"lon":139.561234},{"name":"調布市立図書館佐須分館","province":"東京都","city":"調布市","address":"調布市佐須町4-42-2","lat":35.658699,"lon":139.556183},{"name":"調布市立図書館若葉分館","province":"東京都","city":"調布市","address":"調布市若葉町3-16-13","lat":35.654602,"lon":139.583679},{"name":"調布市立図書館深大寺分館","province":"東京都","city":"調布市","address":"調布市深大寺北町5-17-3","lat":35.678112,"lon":139.550369},{"name":"調布市立図書館神代分館","province":"東京都","city":"調布市","address":"調布市西つつじケ丘1-40-5","lat":35.660809,"lon":139.570038},{"name":"調布市立図書館染地分館","province":"東京都","city":"調布市","address":"調布市染地3-3-1","lat":35.639153,"lon":139.555283},{"name":"調布市立図書館調和分館","province":"東京都","city":"調布市","address":"調布市西つつじケ丘4-22-6","lat":35.651386,"lon":139.57373},{"name":"調布市立図書館富士見分館","province":"東京都","city":"調布市","address":"調布市富士見町2-3-26","lat":35.658424,"lon":139.539062},{"name":"調布市立図書館緑ケ丘分館","province":"東京都","city":"調布市","address":"調布市緑ケ丘2-25","lat":35.666611,"lon":139.582993},{"name":"調布市立中央図書館","province":"東京都","city":"調布市","address":"調布市小島町2-33-1","lat":35.65147,"lon":139.541443},{"name":"調布市郷土博物館","province":"東京都","city":"調布市","address":"調布市小島町3-26-2","lat":35.646938,"lon":139.535858},{"name":"調布市郷土博物館分室","province":"東京都","city":"調布市","address":"調布市布田6-61","lat":35.643711,"lon":139.548828},{"name":"調布市深大寺水車館","province":"東京都","city":"調布市","address":"調布市深大寺元町5-10-6","lat":35.667656,"lon":139.548325},{"name":"調布市武者小路実篤記念館","province":"東京都","city":"調布市","address":"調布市若葉町1-8-30","lat":35.65633,"lon":139.581268},{"name":"調布市文化会館たづくり","province":"東京都","city":"調布市","address":"調布市小島町2-33-1","lat":35.65147,"lon":139.541443},{"name":"(有)土井壜店","province":"東京都","city":"調布市","address":"調布市布田6-47-4","lat":35.644402,"lon":139.550827},{"name":"(有)金沢商店","province":"東京都","city":"調布市","address":"調布市多摩川2-4-1","lat":35.647549,"lon":139.524261},{"name":"滝沢三男也  滝沢商店","province":"東京都","city":"調布市","address":"調布市深大寺東町5-16-22","lat":35.672882,"lon":139.555649},{"name":"(有)加藤商店  本店","province":"東京都","city":"調布市","address":"調布市深大寺北町6-60-14","lat":35.680981,"lon":139.54805},{"name":"野川公園","province":"東京都","city":"調布市","address":"東京都調布市野水一・二丁目、小金井市東町一丁目、三鷹市大沢二・三・六丁目","lat":35.68334,"lon":139.525446},{"name":"西部公民館","province":"東京都","city":"調布市","address":"調布市上石原3-21-6","lat":35.653053,"lon":139.522293},{"name":"東部公民館","province":"東京都","city":"調布市","address":"調布市若葉町1-29-21","lat":35.657906,"lon":139.583282},{"name":"北部公民館","province":"東京都","city":"調布市","address":"調布市柴崎2-5-18","lat":35.661114,"lon":139.562866},{"name":"調布市青少年交流館","province":"東京都","city":"調布市","address":"調布市飛田給1-52-1","lat":35.66135,"lon":139.526062},{"name":"調布市立図書館宮の下分館","province":"東京都","city":"調布市","address":"調布市上石原3-34-10","lat":35.651505,"lon":139.524765},{"name":"調布市立図書館国領分館","province":"東京都","city":"調布市","address":"調布市国領町3-12-1","lat":35.650814,"lon":139.561234},{"name":"調布市立図書館佐須分館","province":"東京都","city":"調布市","address":"調布市佐須町4-42-2","lat":35.658699,"lon":139.556183},{"name":"調布市立図書館若葉分館","province":"東京都","city":"調布市","address":"調布市若葉町3-16-13","lat":35.654602,"lon":139.583679},{"name":"調布市立図書館深大寺分館","province":"東京都","city":"調布市","address":"調布市深大寺北町5-17-3","lat":35.678112,"lon":139.550369},{"name":"調布市立図書館神代分館","province":"東京都","city":"調布市","address":"調布市西つつじケ丘1-40-5","lat":35.660809,"lon":139.570038},{"name":"調布市立図書館染地分館","province":"東京都","city":"調布市","address":"調布市染地3-3-1","lat":35.639153,"lon":139.555283},{"name":"調布市立図書館調和分館","province":"東京都","city":"調布市","address":"調布市西つつじケ丘4-22-6","lat":35.651386,"lon":139.57373},{"name":"調布市立図書館富士見分館","province":"東京都","city":"調布市","address":"調布市富士見町2-3-26","lat":35.658424,"lon":139.539062},{"name":"調布市立図書館緑ケ丘分館","province":"東京都","city":"調布市","address":"調布市緑ケ丘2-25","lat":35.666611,"lon":139.582993},{"name":"調布市立中央図書館","province":"東京都","city":"調布市","address":"調布市小島町2-33-1","lat":35.65147,"lon":139.541443},{"name":"調布市郷土博物館","province":"東京都","city":"調布市","address":"調布市小島町3-26-2","lat":35.646938,"lon":139.535858},{"name":"調布市郷土博物館分室","province":"東京都","city":"調布市","address":"調布市布田6-61","lat":35.643711,"lon":139.548828},{"name":"調布市深大寺水車館","province":"東京都","city":"調布市","address":"調布市深大寺元町5-10-6","lat":35.667656,"lon":139.548325},{"name":"調布市武者小路実篤記念館","province":"東京都","city":"調布市","address":"調布市若葉町1-8-30","lat":35.65633,"lon":139.581268},{"name":"調布市文化会館たづくり","province":"東京都","city":"調布市","address":"調布市小島町2-33-1","lat":35.65147,"lon":139.541443},{"name":"(有)土井壜店","province":"東京都","city":"調布市","address":"調布市布田6-47-4","lat":35.644402,"lon":139.550827},{"name":"(有)金沢商店","province":"東京都","city":"調布市","address":"調布市多摩川2-4-1","lat":35.647549,"lon":139.524261},{"name":"滝沢三男也  滝沢商店","province":"東京都","city":"調布市","address":"調布市深大寺東町5-16-22","lat":35.672882,"lon":139.555649},{"name":"(有)加藤商店  本店","province":"東京都","city":"調布市","address":"調布市深大寺北町6-60-14","lat":35.680981,"lon":139.54805},{"name":"野川公園","province":"東京都","city":"調布市","address":"東京都調布市野水一・二丁目、小金井市東町一丁目、三鷹市大沢二・三・六丁目","lat":35.68334,"lon":139.525446},{"name":"西部公民館","province":"東京都","city":"調布市","address":"調布市上石原3-21-6","lat":35.653053,"lon":139.522293},{"name":"東部公民館","province":"東京都","city":"調布市","address":"調布市若葉町1-29-21","lat":35.657906,"lon":139.583282},{"name":"北部公民館","province":"東京都","city":"調布市","address":"調布市柴崎2-5-18","lat":35.661114,"lon":139.562866},{"name":"調布市青少年交流館","province":"東京都","city":"調布市","address":"調布市飛田給1-52-1","lat":35.66135,"lon":139.526062},{"name":"調布市立図書館宮の下分館","province":"東京都","city":"調布市","address":"調布市上石原3-34-10","lat":35.651505,"lon":139.524765},{"name":"調布市立図書館国領分館","province":"東京都","city":"調布市","address":"調布市国領町3-12-1","lat":35.650814,"lon":139.561234},{"name":"調布市立図書館佐須分館","province":"東京都","city":"調布市","address":"調布市佐須町4-42-2","lat":35.658699,"lon":139.556183},{"name":"調布市立図書館若葉分館","province":"東京都","city":"調布市","address":"調布市若葉町3-16-13","lat":35.654602,"lon":139.583679},{"name":"調布市立図書館深大寺分館","province":"東京都","city":"調布市","address":"調布市深大寺北町5-17-3","lat":35.678112,"lon":139.550369},{"name":"調布市立図書館神代分館","province":"東京都","city":"調布市","address":"調布市西つつじケ丘1-40-5","lat":35.660809,"lon":139.570038},{"name":"調布市立図書館染地分館","province":"東京都","city":"調布市","address":"調布市染地3-3-1","lat":35.639153,"lon":139.555283},{"name":"調布市立図書館調和分館","province":"東京都","city":"調布市","address":"調布市西つつじケ丘4-22-6","lat":35.651386,"lon":139.57373},{"name":"調布市立図書館富士見分館","province":"東京都","city":"調布市","address":"調布市富士見町2-3-26","lat":35.658424,"lon":139.539062},{"name":"調布市立図書館緑ケ丘分館","province":"東京都","city":"調布市","address":"調布市緑ケ丘2-25","lat":35.666611,"lon":139.582993},{"name":"調布市立中央図書館","province":"東京都","city":"調布市","address":"調布市小島町2-33-1","lat":35.65147,"lon":139.541443},{"name":"調布市郷土博物館","province":"東京都","city":"調布市","address":"調布市小島町3-26-2","lat":35.646938,"lon":139.535858},{"name":"調布市郷土博物館分室","province":"東京都","city":"調布市","address":"調布市布田6-61","lat":35.643711,"lon":139.548828},{"name":"調布市深大寺水車館","province":"東京都","city":"調布市","address":"調布市深大寺元町5-10-6","lat":35.667656,"lon":139.548325},{"name":"調布市武者小路実篤記念館","province":"東京都","city":"調布市","address":"調布市若葉町1-8-30","lat":35.65633,"lon":139.581268},{"name":"調布市文化会館たづくり","province":"東京都","city":"調布市","address":"調布市小島町2-33-1","lat":35.65147,"lon":139.541443},{"name":"(有)土井壜店","province":"東京都","city":"調布市","address":"調布市布田6-47-4","lat":35.644402,"lon":139.550827},{"name":"(有)金沢商店","province":"東京都","city":"調布市","address":"調布市多摩川2-4-1","lat":35.647549,"lon":139.524261},{"name":"滝沢三男也  滝沢商店","province":"東京都","city":"調布市","address":"調布市深大寺東町5-16-22","lat":35.672882,"lon":139.555649},{"name":"(有)加藤商店  本店","province":"東京都","city":"調布市","address":"調布市深大寺北町6-60-14","lat":35.680981,"lon":139.54805},{"name":"野川公園","province":"東京都","city":"調布市","address":"東京都調布市野水一・二丁目、小金井市東町一丁目、三鷹市大沢二・三・六丁目","lat":35.68334,"lon":139.525446},{"name":"西部公民館","province":"東京都","city":"調布市","address":"調布市上石原3-21-6","lat":35.653053,"lon":139.522293},{"name":"東部公民館","province":"東京都","city":"調布市","address":"調布市若葉町1-29-21","lat":35.657906,"lon":139.583282},{"name":"北部公民館","province":"東京都","city":"調布市","address":"調布市柴崎2-5-18","lat":35.661114,"lon":139.562866},{"name":"調布市青少年交流館","province":"東京都","city":"調布市","address":"調布市飛田給1-52-1","lat":35.66135,"lon":139.526062},{"name":"調布市立図書館宮の下分館","province":"東京都","city":"調布市","address":"調布市上石原3-34-10","lat":35.651505,"lon":139.524765},{"name":"調布市立図書館国領分館","province":"東京都","city":"調布市","address":"調布市国領町3-12-1","lat":35.650814,"lon":139.561234},{"name":"調布市立図書館佐須分館","province":"東京都","city":"調布市","address":"調布市佐須町4-42-2","lat":35.658699,"lon":139.556183},{"name":"調布市立図書館若葉分館","province":"東京都","city":"調布市","address":"調布市若葉町3-16-13","lat":35.654602,"lon":139.583679},{"name":"調布市立図書館深大寺分館","province":"東京都","city":"調布市","address":"調布市深大寺北町5-17-3","lat":35.678112,"lon":139.550369},{"name":"調布市立図書館神代分館","province":"東京都","city":"調布市","address":"調布市西つつじケ丘1-40-5","lat":35.660809,"lon":139.570038},{"name":"調布市立図書館染地分館","province":"東京都","city":"調布市","address":"調布市染地3-3-1","lat":35.639153,"lon":139.555283},{"name":"調布市立図書館調和分館","province":"東京都","city":"調布市","address":"調布市西つつじケ丘4-22-6","lat":35.651386,"lon":139.57373},{"name":"調布市立図書館富士見分館","province":"東京都","city":"調布市","address":"調布市富士見町2-3-26","lat":35.658424,"lon":139.539062},{"name":"調布市立図書館緑ケ丘分館","province":"東京都","city":"調布市","address":"調布市緑ケ丘2-25","lat":35.666611,"lon":139.582993},{"name":"調布市立中央図書館","province":"東京都","city":"調布市","address":"調布市小島町2-33-1","lat":35.65147,"lon":139.541443},{"name":"調布市郷土博物館","province":"東京都","city":"調布市","address":"調布市小島町3-26-2","lat":35.646938,"lon":139.535858},{"name":"調布市郷土博物館分室","province":"東京都","city":"調布市","address":"調布市布田6-61","lat":35.643711,"lon":139.548828},{"name":"調布市深大寺水車館","province":"東京都","city":"調布市","address":"調布市深大寺元町5-10-6","lat":35.667656,"lon":139.548325},{"name":"調布市武者小路実篤記念館","province":"東京都","city":"調布市","address":"調布市若葉町1-8-30","lat":35.65633,"lon":139.581268},{"name":"調布市文化会館たづくり","province":"東京都","city":"調布市","address":"調布市小島町2-33-1","lat":35.65147,"lon":139.541443},{"name":"(有)土井壜店","province":"東京都","city":"調布市","address":"調布市布田6-47-4","lat":35.644402,"lon":139.550827},{"name":"(有)金沢商店","province":"東京都","city":"調布市","address":"調布市多摩川2-4-1","lat":35.647549,"lon":139.524261},{"name":"滝沢三男也  滝沢商店","province":"東京都","city":"調布市","address":"調布市深大寺東町5-16-22","lat":35.672882,"lon":139.555649},{"name":"(有)加藤商店  本店","province":"東京都","city":"調布市","address":"調布市深大寺北町6-60-14","lat":35.680981,"lon":139.54805},{"name":"野川公園","province":"東京都","city":"調布市","address":"東京都調布市野水一・二丁目、小金井市東町一丁目、三鷹市大沢二・三・六丁目","lat":35.68334,"lon":139.525446},{"name":"西部公民館","province":"東京都","city":"調布市","address":"調布市上石原3-21-6","lat":35.653053,"lon":139.522293},{"name":"東部公民館","province":"東京都","city":"調布市","address":"調布市若葉町1-29-21","lat":35.657906,"lon":139.583282},{"name":"北部公民館","province":"東京都","city":"調布市","address":"調布市柴崎2-5-18","lat":35.661114,"lon":139.562866},{"name":"調布市青少年交流館","province":"東京都","city":"調布市","address":"調布市飛田給1-52-1","lat":35.66135,"lon":139.526062},{"name":"調布市立図書館宮の下分館","province":"東京都","city":"調布市","address":"調布市上石原3-34-10","lat":35.651505,"lon":139.524765},{"name":"調布市立図書館国領分館","province":"東京都","city":"調布市","address":"調布市国領町3-12-1","lat":35.650814,"lon":139.561234},{"name":"調布市立図書館佐須分館","province":"東京都","city":"調布市","address":"調布市佐須町4-42-2","lat":35.658699,"lon":139.556183},{"name":"調布市立図書館若葉分館","province":"東京都","city":"調布市","address":"調布市若葉町3-16-13","lat":35.654602,"lon":139.583679},{"name":"調布市立図書館深大寺分館","province":"東京都","city":"調布市","address":"調布市深大寺北町5-17-3","lat":35.678112,"lon":139.550369},{"name":"調布市立図書館神代分館","province":"東京都","city":"調布市","address":"調布市西つつじケ丘1-40-5","lat":35.660809,"lon":139.570038},{"name":"調布市立図書館染地分館","province":"東京都","city":"調布市","address":"調布市染地3-3-1","lat":35.639153,"lon":139.555283},{"name":"調布市立図書館調和分館","province":"東京都","city":"調布市","address":"調布市西つつじケ丘4-22-6","lat":35.651386,"lon":139.57373},{"name":"調布市立図書館富士見分館","province":"東京都","city":"調布市","address":"調布市富士見町2-3-26","lat":35.658424,"lon":139.539062},{"name":"調布市立図書館緑ケ丘分館","province":"東京都","city":"調布市","address":"調布市緑ケ丘2-25","lat":35.666611,"lon":139.582993},{"name":"調布市立中央図書館","province":"東京都","city":"調布市","address":"調布市小島町2-33-1","lat":35.65147,"lon":139.541443},{"name":"調布市郷土博物館","province":"東京都","city":"調布市","address":"調布市小島町3-26-2","lat":35.646938,"lon":139.535858},{"name":"調布市郷土博物館分室","province":"東京都","city":"調布市","address":"調布市布田6-61","lat":35.643711,"lon":139.548828},{"name":"調布市深大寺水車館","province":"東京都","city":"調布市","address":"調布市深大寺元町5-10-6","lat":35.667656,"lon":139.548325},{"name":"調布市武者小路実篤記念館","province":"東京都","city":"調布市","address":"調布市若葉町1-8-30","lat":35.65633,"lon":139.581268},{"name":"調布市文化会館たづくり","province":"東京都","city":"調布市","address":"調布市小島町2-33-1","lat":35.65147,"lon":139.541443},{"name":"(有)土井壜店","province":"東京都","city":"調布市","address":"調布市布田6-47-4","lat":35.644402,"lon":139.550827},{"name":"(有)金沢商店","province":"東京都","city":"調布市","address":"調布市多摩川2-4-1","lat":35.647549,"lon":139.524261},{"name":"滝沢三男也  滝沢商店","province":"東京都","city":"調布市","address":"調布市深大寺東町5-16-22","lat":35.672882,"lon":139.555649},{"name":"(有)加藤商店  本店","province":"東京都","city":"調布市","address":"調布市深大寺北町6-60-14","lat":35.680981,"lon":139.54805},{"name":"野川公園","province":"東京都","city":"調布市","address":"東京都調布市野水一・二丁目、小金井市東町一丁目、三鷹市大沢二・三・六丁目","lat":35.68334,"lon":139.525446},{"name":"西部公民館","province":"東京都","city":"調布市","address":"調布市上石原3-21-6","lat":35.653053,"lon":139.522293},{"name":"東部公民館","province":"東京都","city":"調布市","address":"調布市若葉町1-29-21","lat":35.657906,"lon":139.583282},{"name":"北部公民館","province":"東京都","city":"調布市","address":"調布市柴崎2-5-18","lat":35.661114,"lon":139.562866},{"name":"調布市青少年交流館","province":"東京都","city":"調布市","address":"調布市飛田給1-52-1","lat":35.66135,"lon":139.526062},{"name":"調布市立図書館宮の下分館","province":"東京都","city":"調布市","address":"調布市上石原3-34-10","lat":35.651505,"lon":139.524765},{"name":"調布市立図書館国領分館","province":"東京都","city":"調布市","address":"調布市国領町3-12-1","lat":35.650814,"lon":139.561234},{"name":"調布市立図書館佐須分館","province":"東京都","city":"調布市","address":"調布市佐須町4-42-2","lat":35.658699,"lon":139.556183},{"name":"調布市立図書館若葉分館","province":"東京都","city":"調布市","address":"調布市若葉町3-16-13","lat":35.654602,"lon":139.583679},{"name":"調布市立図書館深大寺分館","province":"東京都","city":"調布市","address":"調布市深大寺北町5-17-3","lat":35.678112,"lon":139.550369},{"name":"調布市立図書館神代分館","province":"東京都","city":"調布市","address":"調布市西つつじケ丘1-40-5","lat":35.660809,"lon":139.570038},{"name":"調布市立図書館染地分館","province":"東京都","city":"調布市","address":"調布市染地3-3-1","lat":35.639153,"lon":139.555283},{"name":"調布市立図書館調和分館","province":"東京都","city":"調布市","address":"調布市西つつじケ丘4-22-6","lat":35.651386,"lon":139.57373},{"name":"調布市立図書館富士見分館","province":"東京都","city":"調布市","address":"調布市富士見町2-3-26","lat":35.658424,"lon":139.539062},{"name":"調布市立図書館緑ケ丘分館","province":"東京都","city":"調布市","address":"調布市緑ケ丘2-25","lat":35.666611,"lon":139.582993},{"name":"調布市立中央図書館","province":"東京都","city":"調布市","address":"調布市小島町2-33-1","lat":35.65147,"lon":139.541443},{"name":"調布市郷土博物館","province":"東京都","city":"調布市","address":"調布市小島町3-26-2","lat":35.646938,"lon":139.535858},{"name":"調布市郷土博物館分室","province":"東京都","city":"調布市","address":"調布市布田6-61","lat":35.643711,"lon":139.548828},{"name":"調布市深大寺水車館","province":"東京都","city":"調布市","address":"調布市深大寺元町5-10-6","lat":35.667656,"lon":139.548325},{"name":"調布市武者小路実篤記念館","province":"東京都","city":"調布市","address":"調布市若葉町1-8-30","lat":35.65633,"lon":139.581268},{"name":"調布市文化会館たづくり","province":"東京都","city":"調布市","address":"調布市小島町2-33-1","lat":35.65147,"lon":139.541443},{"name":"(有)土井壜店","province":"東京都","city":"調布市","address":"調布市布田6-47-4","lat":35.644402,"lon":139.550827},{"name":"(有)金沢商店","province":"東京都","city":"調布市","address":"調布市多摩川2-4-1","lat":35.647549,"lon":139.524261},{"name":"滝沢三男也  滝沢商店","province":"東京都","city":"調布市","address":"調布市深大寺東町5-16-22","lat":35.672882,"lon":139.555649},{"name":"(有)加藤商店  本店","province":"東京都","city":"調布市","address":"調布市深大寺北町6-60-14","lat":35.680981,"lon":139.54805},{"name":"野川公園","province":"東京都","city":"調布市","address":"東京都調布市野水一・二丁目、小金井市東町一丁目、三鷹市大沢二・三・六丁目","lat":35.68334,"lon":139.525446},{"name":"西部公民館","province":"東京都","city":"調布市","address":"調布市上石原3-21-6","lat":35.653053,"lon":139.522293},{"name":"東部公民館","province":"東京都","city":"調布市","address":"調布市若葉町1-29-21","lat":35.657906,"lon":139.583282},{"name":"北部公民館","province":"東京都","city":"調布市","address":"調布市柴崎2-5-18","lat":35.661114,"lon":139.562866},{"name":"調布市青少年交流館","province":"東京都","city":"調布市","address":"調布市飛田給1-52-1","lat":35.66135,"lon":139.526062},{"name":"調布市立図書館宮の下分館","province":"東京都","city":"調布市","address":"調布市上石原3-34-10","lat":35.651505,"lon":139.524765},{"name":"調布市立図書館国領分館","province":"東京都","city":"調布市","address":"調布市国領町3-12-1","lat":35.650814,"lon":139.561234},{"name":"調布市立図書館佐須分館","province":"東京都","city":"調布市","address":"調布市佐須町4-42-2","lat":35.658699,"lon":139.556183},{"name":"調布市立図書館若葉分館","province":"東京都","city":"調布市","address":"調布市若葉町3-16-13","lat":35.654602,"lon":139.583679},{"name":"調布市立図書館深大寺分館","province":"東京都","city":"調布市","address":"調布市深大寺北町5-17-3","lat":35.678112,"lon":139.550369},{"name":"調布市立図書館神代分館","province":"東京都","city":"調布市","address":"調布市西つつじケ丘1-40-5","lat":35.660809,"lon":139.570038},{"name":"調布市立図書館染地分館","province":"東京都","city":"調布市","address":"調布市染地3-3-1","lat":35.639153,"lon":139.555283},{"name":"調布市立図書館調和分館","province":"東京都","city":"調布市","address":"調布市西つつじケ丘4-22-6","lat":35.651386,"lon":139.57373},{"name":"調布市立図書館富士見分館","province":"東京都","city":"調布市","address":"調布市富士見町2-3-26","lat":35.658424,"lon":139.539062},{"name":"調布市立図書館緑ケ丘分館","province":"東京都","city":"調布市","address":"調布市緑ケ丘2-25","lat":35.666611,"lon":139.582993},{"name":"調布市立中央図書館","province":"東京都","city":"調布市","address":"調布市小島町2-33-1","lat":35.65147,"lon":139.541443},{"name":"調布市郷土博物館","province":"東京都","city":"調布市","address":"調布市小島町3-26-2","lat":35.646938,"lon":139.535858},{"name":"調布市郷土博物館分室","province":"東京都","city":"調布市","address":"調布市布田6-61","lat":35.643711,"lon":139.548828},{"name":"調布市深大寺水車館","province":"東京都","city":"調布市","address":"調布市深大寺元町5-10-6","lat":35.667656,"lon":139.548325},{"name":"調布市武者小路実篤記念館","province":"東京都","city":"調布市","address":"調布市若葉町1-8-30","lat":35.65633,"lon":139.581268},{"name":"調布市文化会館たづくり","province":"東京都","city":"調布市","address":"調布市小島町2-33-1","lat":35.65147,"lon":139.541443},{"name":"(有)土井壜店","province":"東京都","city":"調布市","address":"調布市布田6-47-4","lat":35.644402,"lon":139.550827},{"name":"(有)金沢商店","province":"東京都","city":"調布市","address":"調布市多摩川2-4-1","lat":35.647549,"lon":139.524261},{"name":"滝沢三男也  滝沢商店","province":"東京都","city":"調布市","address":"調布市深大寺東町5-16-22","lat":35.672882,"lon":139.555649},{"name":"(有)加藤商店  本店","province":"東京都","city":"調布市","address":"調布市深大寺北町6-60-14","lat":35.680981,"lon":139.54805},{"name":"野川公園","province":"東京都","city":"調布市","address":"東京都調布市野水一・二丁目、小金井市東町一丁目、三鷹市大沢二・三・六丁目","lat":35.68334,"lon":139.525446},{"name":"西部公民館","province":"東京都","city":"調布市","address":"調布市上石原3-21-6","lat":35.653053,"lon":139.522293},{"name":"東部公民館","province":"東京都","city":"調布市","address":"調布市若葉町1-29-21","lat":35.657906,"lon":139.583282},{"name":"北部公民館","province":"東京都","city":"調布市","address":"調布市柴崎2-5-18","lat":35.661114,"lon":139.562866},{"name":"調布市青少年交流館","province":"東京都","city":"調布市","address":"調布市飛田給1-52-1","lat":35.66135,"lon":139.526062},{"name":"調布市立図書館宮の下分館","province":"東京都","city":"調布市","address":"調布市上石原3-34-10","lat":35.651505,"lon":139.524765},{"name":"調布市立図書館国領分館","province":"東京都","city":"調布市","address":"調布市国領町3-12-1","lat":35.650814,"lon":139.561234},{"name":"調布市立図書館佐須分館","province":"東京都","city":"調布市","address":"調布市佐須町4-42-2","lat":35.658699,"lon":139.556183},{"name":"調布市立図書館若葉分館","province":"東京都","city":"調布市","address":"調布市若葉町3-16-13","lat":35.654602,"lon":139.583679},{"name":"調布市立図書館深大寺分館","province":"東京都","city":"調布市","address":"調布市深大寺北町5-17-3","lat":35.678112,"lon":139.550369},{"name":"調布市立図書館神代分館","province":"東京都","city":"調布市","address":"調布市西つつじケ丘1-40-5","lat":35.660809,"lon":139.570038},{"name":"調布市立図書館染地分館","province":"東京都","city":"調布市","address":"調布市染地3-3-1","lat":35.639153,"lon":139.555283},{"name":"調布市立図書館調和分館","province":"東京都","city":"調布市","address":"調布市西つつじケ丘4-22-6","lat":35.651386,"lon":139.57373},{"name":"調布市立図書館富士見分館","province":"東京都","city":"調布市","address":"調布市富士見町2-3-26","lat":35.658424,"lon":139.539062},{"name":"調布市立図書館緑ケ丘分館","province":"東京都","city":"調布市","address":"調布市緑ケ丘2-25","lat":35.666611,"lon":139.582993},{"name":"調布市立中央図書館","province":"東京都","city":"調布市","address":"調布市小島町2-33-1","lat":35.65147,"lon":139.541443},{"name":"調布市郷土博物館","province":"東京都","city":"調布市","address":"調布市小島町3-26-2","lat":35.646938,"lon":139.535858},{"name":"調布市郷土博物館分室","province":"東京都","city":"調布市","address":"調布市布田6-61","lat":35.643711,"lon":139.548828},{"name":"調布市深大寺水車館","province":"東京都","city":"調布市","address":"調布市深大寺元町5-10-6","lat":35.667656,"lon":139.548325},{"name":"調布市武者小路実篤記念館","province":"東京都","city":"調布市","address":"調布市若葉町1-8-30","lat":35.65633,"lon":139.581268},{"name":"調布市文化会館たづくり","province":"東京都","city":"調布市","address":"調布市小島町2-33-1","lat":35.65147,"lon":139.541443},{"name":"(有)土井壜店","province":"東京都","city":"調布市","address":"調布市布田6-47-4","lat":35.644402,"lon":139.550827},{"name":"(有)金沢商店","province":"東京都","city":"調布市","address":"調布市多摩川2-4-1","lat":35.647549,"lon":139.524261},{"name":"滝沢三男也  滝沢商店","province":"東京都","city":"調布市","address":"調布市深大寺東町5-16-22","lat":35.672882,"lon":139.555649},{"name":"(有)加藤商店  本店","province":"東京都","city":"調布市","address":"調布市深大寺北町6-60-14","lat":35.680981,"lon":139.54805},{"name":"野川公園","province":"東京都","city":"調布市","address":"東京都調布市野水一・二丁目、小金井市東町一丁目、三鷹市大沢二・三・六丁目","lat":35.68334,"lon":139.525446},{"name":"西部公民館","province":"東京都","city":"調布市","address":"調布市上石原3-21-6","lat":35.653053,"lon":139.522293},{"name":"東部公民館","province":"東京都","city":"調布市","address":"調布市若葉町1-29-21","lat":35.657906,"lon":139.583282},{"name":"北部公民館","province":"東京都","city":"調布市","address":"調布市柴崎2-5-18","lat":35.661114,"lon":139.562866},{"name":"調布市青少年交流館","province":"東京都","city":"調布市","address":"調布市飛田給1-52-1","lat":35.66135,"lon":139.526062},{"name":"調布市立図書館宮の下分館","province":"東京都","city":"調布市","address":"調布市上石原3-34-10","lat":35.651505,"lon":139.524765},{"name":"調布市立図書館国領分館","province":"東京都","city":"調布市","address":"調布市国領町3-12-1","lat":35.650814,"lon":139.561234},{"name":"調布市立図書館佐須分館","province":"東京都","city":"調布市","address":"調布市佐須町4-42-2","lat":35.658699,"lon":139.556183},{"name":"調布市立図書館若葉分館","province":"東京都","city":"調布市","address":"調布市若葉町3-16-13","lat":35.654602,"lon":139.583679},{"name":"調布市立図書館深大寺分館","province":"東京都","city":"調布市","address":"調布市深大寺北町5-17-3","lat":35.678112,"lon":139.550369},{"name":"調布市立図書館神代分館","province":"東京都","city":"調布市","address":"調布市西つつじケ丘1-40-5","lat":35.660809,"lon":139.570038},{"name":"調布市立図書館染地分館","province":"東京都","city":"調布市","address":"調布市染地3-3-1","lat":35.639153,"lon":139.555283},{"name":"調布市立図書館調和分館","province":"東京都","city":"調布市","address":"調布市西つつじケ丘4-22-6","lat":35.651386,"lon":139.57373},{"name":"調布市立図書館富士見分館","province":"東京都","city":"調布市","address":"調布市富士見町2-3-26","lat":35.658424,"lon":139.539062},{"name":"調布市立図書館緑ケ丘分館","province":"東京都","city":"調布市","address":"調布市緑ケ丘2-25","lat":35.666611,"lon":139.582993},{"name":"調布市立中央図書館","province":"東京都","city":"調布市","address":"調布市小島町2-33-1","lat":35.65147,"lon":139.541443},{"name":"調布市郷土博物館","province":"東京都","city":"調布市","address":"調布市小島町3-26-2","lat":35.646938,"lon":139.535858},{"name":"調布市郷土博物館分室","province":"東京都","city":"調布市","address":"調布市布田6-61","lat":35.643711,"lon":139.548828},{"name":"調布市深大寺水車館","province":"東京都","city":"調布市","address":"調布市深大寺元町5-10-6","lat":35.667656,"lon":139.548325},{"name":"調布市武者小路実篤記念館","province":"東京都","city":"調布市","address":"調布市若葉町1-8-30","lat":35.65633,"lon":139.581268},{"name":"調布市文化会館たづくり","province":"東京都","city":"調布市","address":"調布市小島町2-33-1","lat":35.65147,"lon":139.541443},{"name":"(有)土井壜店","province":"東京都","city":"調布市","address":"調布市布田6-47-4","lat":35.644402,"lon":139.550827},{"name":"(有)金沢商店","province":"東京都","city":"調布市","address":"調布市多摩川2-4-1","lat":35.647549,"lon":139.524261},{"name":"滝沢三男也  滝沢商店","province":"東京都","city":"調布市","address":"調布市深大寺東町5-16-22","lat":35.672882,"lon":139.555649},{"name":"(有)加藤商店  本店","province":"東京都","city":"調布市","address":"調布市深大寺北町6-60-14","lat":35.680981,"lon":139.54805},{"name":"野川公園","province":"東京都","city":"調布市","address":"東京都調布市野水一・二丁目、小金井市東町一丁目、三鷹市大沢二・三・六丁目","lat":35.68334,"lon":139.525446},{"name":"西部公民館","province":"東京都","city":"調布市","address":"調布市上石原3-21-6","lat":35.653053,"lon":139.522293},{"name":"東部公民館","province":"東京都","city":"調布市","address":"調布市若葉町1-29-21","lat":35.657906,"lon":139.583282},{"name":"北部公民館","province":"東京都","city":"調布市","address":"調布市柴崎2-5-18","lat":35.661114,"lon":139.562866},{"name":"調布市青少年交流館","province":"東京都","city":"調布市","address":"調布市飛田給1-52-1","lat":35.66135,"lon":139.526062},{"name":"調布市立図書館宮の下分館","province":"東京都","city":"調布市","address":"調布市上石原3-34-10","lat":35.651505,"lon":139.524765},{"name":"調布市立図書館国領分館","province":"東京都","city":"調布市","address":"調布市国領町3-12-1","lat":35.650814,"lon":139.561234},{"name":"調布市立図書館佐須分館","province":"東京都","city":"調布市","address":"調布市佐須町4-42-2","lat":35.658699,"lon":139.556183},{"name":"調布市立図書館若葉分館","province":"東京都","city":"調布市","address":"調布市若葉町3-16-13","lat":35.654602,"lon":139.583679},{"name":"調布市立図書館深大寺分館","province":"東京都","city":"調布市","address":"調布市深大寺北町5-17-3","lat":35.678112,"lon":139.550369},{"name":"調布市立図書館神代分館","province":"東京都","city":"調布市","address":"調布市西つつじケ丘1-40-5","lat":35.660809,"lon":139.570038},{"name":"調布市立図書館染地分館","province":"東京都","city":"調布市","address":"調布市染地3-3-1","lat":35.639153,"lon":139.555283},{"name":"調布市立図書館調和分館","province":"東京都","city":"調布市","address":"調布市西つつじケ丘4-22-6","lat":35.651386,"lon":139.57373},{"name":"調布市立図書館富士見分館","province":"東京都","city":"調布市","address":"調布市富士見町2-3-26","lat":35.658424,"lon":139.539062},{"name":"調布市立図書館緑ケ丘分館","province":"東京都","city":"調布市","address":"調布市緑ケ丘2-25","lat":35.666611,"lon":139.582993},{"name":"調布市立中央図書館","province":"東京都","city":"調布市","address":"調布市小島町2-33-1","lat":35.65147,"lon":139.541443},{"name":"調布市郷土博物館","province":"東京都","city":"調布市","address":"調布市小島町3-26-2","lat":35.646938,"lon":139.535858},{"name":"調布市郷土博物館分室","province":"東京都","city":"調布市","address":"調布市布田6-61","lat":35.643711,"lon":139.548828},{"name":"調布市深大寺水車館","province":"東京都","city":"調布市","address":"調布市深大寺元町5-10-6","lat":35.667656,"lon":139.548325},{"name":"調布市武者小路実篤記念館","province":"東京都","city":"調布市","address":"調布市若葉町1-8-30","lat":35.65633,"lon":139.581268},{"name":"調布市文化会館たづくり","province":"東京都","city":"調布市","address":"調布市小島町2-33-1","lat":35.65147,"lon":139.541443},{"name":"(有)土井壜店","province":"東京都","city":"調布市","address":"調布市布田6-47-4","lat":35.644402,"lon":139.550827},{"name":"(有)金沢商店","province":"東京都","city":"調布市","address":"調布市多摩川2-4-1","lat":35.647549,"lon":139.524261},{"name":"滝沢三男也  滝沢商店","province":"東京都","city":"調布市","address":"調布市深大寺東町5-16-22","lat":35.672882,"lon":139.555649},{"name":"(有)加藤商店  本店","province":"東京都","city":"調布市","address":"調布市深大寺北町6-60-14","lat":35.680981,"lon":139.54805},{"name":"野川公園","province":"東京都","city":"調布市","address":"東京都調布市野水一・二丁目、小金井市東町一丁目、三鷹市大沢二・三・六丁目","lat":35.68334,"lon":139.525446},{"name":"西部公民館","province":"東京都","city":"調布市","address":"調布市上石原3-21-6","lat":35.653053,"lon":139.522293},{"name":"東部公民館","province":"東京都","city":"調布市","address":"調布市若葉町1-29-21","lat":35.657906,"lon":139.583282},{"name":"北部公民館","province":"東京都","city":"調布市","address":"調布市柴崎2-5-18","lat":35.661114,"lon":139.562866},{"name":"調布市青少年交流館","province":"東京都","city":"調布市","address":"調布市飛田給1-52-1","lat":35.66135,"lon":139.526062},{"name":"調布市立図書館宮の下分館","province":"東京都","city":"調布市","address":"調布市上石原3-34-10","lat":35.651505,"lon":139.524765},{"name":"調布市立図書館国領分館","province":"東京都","city":"調布市","address":"調布市国領町3-12-1","lat":35.650814,"lon":139.561234},{"name":"調布市立図書館佐須分館","province":"東京都","city":"調布市","address":"調布市佐須町4-42-2","lat":35.658699,"lon":139.556183},{"name":"調布市立図書館若葉分館","province":"東京都","city":"調布市","address":"調布市若葉町3-16-13","lat":35.654602,"lon":139.583679},{"name":"調布市立図書館深大寺分館","province":"東京都","city":"調布市","address":"調布市深大寺北町5-17-3","lat":35.678112,"lon":139.550369},{"name":"調布市立図書館神代分館","province":"東京都","city":"調布市","address":"調布市西つつじケ丘1-40-5","lat":35.660809,"lon":139.570038},{"name":"調布市立図書館染地分館","province":"東京都","city":"調布市","address":"調布市染地3-3-1","lat":35.639153,"lon":139.555283},{"name":"調布市立図書館調和分館","province":"東京都","city":"調布市","address":"調布市西つつじケ丘4-22-6","lat":35.651386,"lon":139.57373},{"name":"調布市立図書館富士見分館","province":"東京都","city":"調布市","address":"調布市富士見町2-3-26","lat":35.658424,"lon":139.539062},{"name":"調布市立図書館緑ケ丘分館","province":"東京都","city":"調布市","address":"調布市緑ケ丘2-25","lat":35.666611,"lon":139.582993},{"name":"調布市立中央図書館","province":"東京都","city":"調布市","address":"調布市小島町2-33-1","lat":35.65147,"lon":139.541443},{"name":"調布市郷土博物館","province":"東京都","city":"調布市","address":"調布市小島町3-26-2","lat":35.646938,"lon":139.535858},{"name":"調布市郷土博物館分室","province":"東京都","city":"調布市","address":"調布市布田6-61","lat":35.643711,"lon":139.548828},{"name":"調布市深大寺水車館","province":"東京都","city":"調布市","address":"調布市深大寺元町5-10-6","lat":35.667656,"lon":139.548325},{"name":"調布市武者小路実篤記念館","province":"東京都","city":"調布市","address":"調布市若葉町1-8-30","lat":35.65633,"lon":139.581268},{"name":"調布市文化会館たづくり","province":"東京都","city":"調布市","address":"調布市小島町2-33-1","lat":35.65147,"lon":139.541443},{"name":"(有)土井壜店","province":"東京都","city":"調布市","address":"調布市布田6-47-4","lat":35.644402,"lon":139.550827},{"name":"(有)金沢商店","province":"東京都","city":"調布市","address":"調布市多摩川2-4-1","lat":35.647549,"lon":139.524261},{"name":"滝沢三男也  滝沢商店","province":"東京都","city":"調布市","address":"調布市深大寺東町5-16-22","lat":35.672882,"lon":139.555649},{"name":"(有)加藤商店  本店","province":"東京都","city":"調布市","address":"調布市深大寺北町6-60-14","lat":35.680981,"lon":139.54805},{"name":"野川公園","province":"東京都","city":"調布市","address":"東京都調布市野水一・二丁目、小金井市東町一丁目、三鷹市大沢二・三・六丁目","lat":35.68334,"lon":139.525446},{"name":"西部公民館","province":"東京都","city":"調布市","address":"調布市上石原3-21-6","lat":35.653053,"lon":139.522293},{"name":"東部公民館","province":"東京都","city":"調布市","address":"調布市若葉町1-29-21","lat":35.657906,"lon":139.583282},{"name":"北部公民館","province":"東京都","city":"調布市","address":"調布市柴崎2-5-18","lat":35.661114,"lon":139.562866},{"name":"調布市青少年交流館","province":"東京都","city":"調布市","address":"調布市飛田給1-52-1","lat":35.66135,"lon":139.526062},{"name":"調布市立図書館宮の下分館","province":"東京都","city":"調布市","address":"調布市上石原3-34-10","lat":35.651505,"lon":139.524765},{"name":"調布市立図書館国領分館","province":"東京都","city":"調布市","address":"調布市国領町3-12-1","lat":35.650814,"lon":139.561234},{"name":"調布市立図書館佐須分館","province":"東京都","city":"調布市","address":"調布市佐須町4-42-2","lat":35.658699,"lon":139.556183},{"name":"調布市立図書館若葉分館","province":"東京都","city":"調布市","address":"調布市若葉町3-16-13","lat":35.654602,"lon":139.583679},{"name":"調布市立図書館深大寺分館","province":"東京都","city":"調布市","address":"調布市深大寺北町5-17-3","lat":35.678112,"lon":139.550369},{"name":"調布市立図書館神代分館","province":"東京都","city":"調布市","address":"調布市西つつじケ丘1-40-5","lat":35.660809,"lon":139.570038},{"name":"調布市立図書館染地分館","province":"東京都","city":"調布市","address":"調布市染地3-3-1","lat":35.639153,"lon":139.555283},{"name":"調布市立図書館調和分館","province":"東京都","city":"調布市","address":"調布市西つつじケ丘4-22-6","lat":35.651386,"lon":139.57373},{"name":"調布市立図書館富士見分館","province":"東京都","city":"調布市","address":"調布市富士見町2-3-26","lat":35.658424,"lon":139.539062},{"name":"調布市立図書館緑ケ丘分館","province":"東京都","city":"調布市","address":"調布市緑ケ丘2-25","lat":35.666611,"lon":139.582993},{"name":"調布市立中央図書館","province":"東京都","city":"調布市","address":"調布市小島町2-33-1","lat":35.65147,"lon":139.541443},{"name":"調布市郷土博物館","province":"東京都","city":"調布市","address":"調布市小島町3-26-2","lat":35.646938,"lon":139.535858},{"name":"調布市郷土博物館分室","province":"東京都","city":"調布市","address":"調布市布田6-61","lat":35.643711,"lon":139.548828},{"name":"調布市深大寺水車館","province":"東京都","city":"調布市","address":"調布市深大寺元町5-10-6","lat":35.667656,"lon":139.548325},{"name":"調布市武者小路実篤記念館","province":"東京都","city":"調布市","address":"調布市若葉町1-8-30","lat":35.65633,"lon":139.581268},{"name":"調布市文化会館たづくり","province":"東京都","city":"調布市","address":"調布市小島町2-33-1","lat":35.65147,"lon":139.541443},{"name":"(有)土井壜店","province":"東京都","city":"調布市","address":"調布市布田6-47-4","lat":35.644402,"lon":139.550827},{"name":"(有)金沢商店","province":"東京都","city":"調布市","address":"調布市多摩川2-4-1","lat":35.647549,"lon":139.524261},{"name":"滝沢三男也  滝沢商店","province":"東京都","city":"調布市","address":"調布市深大寺東町5-16-22","lat":35.672882,"lon":139.555649},{"name":"(有)加藤商店  本店","province":"東京都","city":"調布市","address":"調布市深大寺北町6-60-14","lat":35.680981,"lon":139.54805},{"name":"野川公園","province":"東京都","city":"調布市","address":"東京都調布市野水一・二丁目、小金井市東町一丁目、三鷹市大沢二・三・六丁目","lat":35.68334,"lon":139.525446},{"name":"西部公民館","province":"東京都","city":"調布市","address":"調布市上石原3-21-6","lat":35.653053,"lon":139.522293},{"name":"東部公民館","province":"東京都","city":"調布市","address":"調布市若葉町1-29-21","lat":35.657906,"lon":139.583282},{"name":"北部公民館","province":"東京都","city":"調布市","address":"調布市柴崎2-5-18","lat":35.661114,"lon":139.562866},{"name":"調布市青少年交流館","province":"東京都","city":"調布市","address":"調布市飛田給1-52-1","lat":35.66135,"lon":139.526062},{"name":"調布市立図書館宮の下分館","province":"東京都","city":"調布市","address":"調布市上石原3-34-10","lat":35.651505,"lon":139.524765},{"name":"調布市立図書館国領分館","province":"東京都","city":"調布市","address":"調布市国領町3-12-1","lat":35.650814,"lon":139.561234},{"name":"調布市立図書館佐須分館","province":"東京都","city":"調布市","address":"調布市佐須町4-42-2","lat":35.658699,"lon":139.556183},{"name":"調布市立図書館若葉分館","province":"東京都","city":"調布市","address":"調布市若葉町3-16-13","lat":35.654602,"lon":139.583679},{"name":"調布市立図書館深大寺分館","province":"東京都","city":"調布市","address":"調布市深大寺北町5-17-3","lat":35.678112,"lon":139.550369},{"name":"調布市立図書館神代分館","province":"東京都","city":"調布市","address":"調布市西つつじケ丘1-40-5","lat":35.660809,"lon":139.570038},{"name":"調布市立図書館染地分館","province":"東京都","city":"調布市","address":"調布市染地3-3-1","lat":35.639153,"lon":139.555283},{"name":"調布市立図書館調和分館","province":"東京都","city":"調布市","address":"調布市西つつじケ丘4-22-6","lat":35.651386,"lon":139.57373},{"name":"調布市立図書館富士見分館","province":"東京都","city":"調布市","address":"調布市富士見町2-3-26","lat":35.658424,"lon":139.539062},{"name":"調布市立図書館緑ケ丘分館","province":"東京都","city":"調布市","address":"調布市緑ケ丘2-25","lat":35.666611,"lon":139.582993},{"name":"調布市立中央図書館","province":"東京都","city":"調布市","address":"調布市小島町2-33-1","lat":35.65147,"lon":139.541443},{"name":"調布市郷土博物館","province":"東京都","city":"調布市","address":"調布市小島町3-26-2","lat":35.646938,"lon":139.535858},{"name":"調布市郷土博物館分室","province":"東京都","city":"調布市","address":"調布市布田6-61","lat":35.643711,"lon":139.548828},{"name":"調布市深大寺水車館","province":"東京都","city":"調布市","address":"調布市深大寺元町5-10-6","lat":35.667656,"lon":139.548325},{"name":"調布市武者小路実篤記念館","province":"東京都","city":"調布市","address":"調布市若葉町1-8-30","lat":35.65633,"lon":139.581268},{"name":"調布市文化会館たづくり","province":"東京都","city":"調布市","address":"調布市小島町2-33-1","lat":35.65147,"lon":139.541443},{"name":"(有)土井壜店","province":"東京都","city":"調布市","address":"調布市布田6-47-4","lat":35.644402,"lon":139.550827},{"name":"(有)金沢商店","province":"東京都","city":"調布市","address":"調布市多摩川2-4-1","lat":35.647549,"lon":139.524261},{"name":"滝沢三男也  滝沢商店","province":"東京都","city":"調布市","address":"調布市深大寺東町5-16-22","lat":35.672882,"lon":139.555649},{"name":"(有)加藤商店  本店","province":"東京都","city":"調布市","address":"調布市深大寺北町6-60-14","lat":35.680981,"lon":139.54805},{"name":"野川公園","province":"東京都","city":"調布市","address":"東京都調布市野水一・二丁目、小金井市東町一丁目、三鷹市大沢二・三・六丁目","lat":35.68334,"lon":139.525446},{"name":"西部公民館","province":"東京都","city":"調布市","address":"調布市上石原3-21-6","lat":35.653053,"lon":139.522293},{"name":"東部公民館","province":"東京都","city":"調布市","address":"調布市若葉町1-29-21","lat":35.657906,"lon":139.583282},{"name":"北部公民館","province":"東京都","city":"調布市","address":"調布市柴崎2-5-18","lat":35.661114,"lon":139.562866},{"name":"調布市青少年交流館","province":"東京都","city":"調布市","address":"調布市飛田給1-52-1","lat":35.66135,"lon":139.526062},{"name":"調布市立図書館宮の下分館","province":"東京都","city":"調布市","address":"調布市上石原3-34-10","lat":35.651505,"lon":139.524765},{"name":"調布市立図書館国領分館","province":"東京都","city":"調布市","address":"調布市国領町3-12-1","lat":35.650814,"lon":139.561234},{"name":"調布市立図書館佐須分館","province":"東京都","city":"調布市","address":"調布市佐須町4-42-2","lat":35.658699,"lon":139.556183},{"name":"調布市立図書館若葉分館","province":"東京都","city":"調布市","address":"調布市若葉町3-16-13","lat":35.654602,"lon":139.583679},{"name":"調布市立図書館深大寺分館","province":"東京都","city":"調布市","address":"調布市深大寺北町5-17-3","lat":35.678112,"lon":139.550369},{"name":"調布市立図書館神代分館","province":"東京都","city":"調布市","address":"調布市西つつじケ丘1-40-5","lat":35.660809,"lon":139.570038},{"name":"調布市立図書館染地分館","province":"東京都","city":"調布市","address":"調布市染地3-3-1","lat":35.639153,"lon":139.555283},{"name":"調布市立図書館調和分館","province":"東京都","city":"調布市","address":"調布市西つつじケ丘4-22-6","lat":35.651386,"lon":139.57373},{"name":"調布市立図書館富士見分館","province":"東京都","city":"調布市","address":"調布市富士見町2-3-26","lat":35.658424,"lon":139.539062},{"name":"調布市立図書館緑ケ丘分館","province":"東京都","city":"調布市","address":"調布市緑ケ丘2-25","lat":35.666611,"lon":139.582993},{"name":"調布市立中央図書館","province":"東京都","city":"調布市","address":"調布市小島町2-33-1","lat":35.65147,"lon":139.541443},{"name":"調布市郷土博物館","province":"東京都","city":"調布市","address":"調布市小島町3-26-2","lat":35.646938,"lon":139.535858},{"name":"調布市郷土博物館分室","province":"東京都","city":"調布市","address":"調布市布田6-61","lat":35.643711,"lon":139.548828},{"name":"調布市深大寺水車館","province":"東京都","city":"調布市","address":"調布市深大寺元町5-10-6","lat":35.667656,"lon":139.548325},{"name":"調布市武者小路実篤記念館","province":"東京都","city":"調布市","address":"調布市若葉町1-8-30","lat":35.65633,"lon":139.581268},{"name":"調布市文化会館たづくり","province":"東京都","city":"調布市","address":"調布市小島町2-33-1","lat":35.65147,"lon":139.541443},{"name":"(有)土井壜店","province":"東京都","city":"調布市","address":"調布市布田6-47-4","lat":35.644402,"lon":139.550827},{"name":"(有)金沢商店","province":"東京都","city":"調布市","address":"調布市多摩川2-4-1","lat":35.647549,"lon":139.524261},{"name":"滝沢三男也  滝沢商店","province":"東京都","city":"調布市","address":"調布市深大寺東町5-16-22","lat":35.672882,"lon":139.555649},{"name":"(有)加藤商店  本店","province":"東京都","city":"調布市","address":"調布市深大寺北町6-60-14","lat":35.680981,"lon":139.54805},{"name":"野川公園","province":"東京都","city":"調布市","address":"東京都調布市野水一・二丁目、小金井市東町一丁目、三鷹市大沢二・三・六丁目","lat":35.68334,"lon":139.525446},{"name":"西部公民館","province":"東京都","city":"調布市","address":"調布市上石原3-21-6","lat":35.653053,"lon":139.522293},{"name":"東部公民館","province":"東京都","city":"調布市","address":"調布市若葉町1-29-21","lat":35.657906,"lon":139.583282},{"name":"北部公民館","province":"東京都","city":"調布市","address":"調布市柴崎2-5-18","lat":35.661114,"lon":139.562866},{"name":"調布市青少年交流館","province":"東京都","city":"調布市","address":"調布市飛田給1-52-1","lat":35.66135,"lon":139.526062},{"name":"調布市立図書館宮の下分館","province":"東京都","city":"調布市","address":"調布市上石原3-34-10","lat":35.651505,"lon":139.524765},{"name":"調布市立図書館国領分館","province":"東京都","city":"調布市","address":"調布市国領町3-12-1","lat":35.650814,"lon":139.561234},{"name":"調布市立図書館佐須分館","province":"東京都","city":"調布市","address":"調布市佐須町4-42-2","lat":35.658699,"lon":139.556183},{"name":"調布市立図書館若葉分館","province":"東京都","city":"調布市","address":"調布市若葉町3-16-13","lat":35.654602,"lon":139.583679},{"name":"調布市立図書館深大寺分館","province":"東京都","city":"調布市","address":"調布市深大寺北町5-17-3","lat":35.678112,"lon":139.550369},{"name":"調布市立図書館神代分館","province":"東京都","city":"調布市","address":"調布市西つつじケ丘1-40-5","lat":35.660809,"lon":139.570038},{"name":"調布市立図書館染地分館","province":"東京都","city":"調布市","address":"調布市染地3-3-1","lat":35.639153,"lon":139.555283},{"name":"調布市立図書館調和分館","province":"東京都","city":"調布市","address":"調布市西つつじケ丘4-22-6","lat":35.651386,"lon":139.57373},{"name":"調布市立図書館富士見分館","province":"東京都","city":"調布市","address":"調布市富士見町2-3-26","lat":35.658424,"lon":139.539062},{"name":"調布市立図書館緑ケ丘分館","province":"東京都","city":"調布市","address":"調布市緑ケ丘2-25","lat":35.666611,"lon":139.582993},{"name":"調布市立中央図書館","province":"東京都","city":"調布市","address":"調布市小島町2-33-1","lat":35.65147,"lon":139.541443},{"name":"調布市郷土博物館","province":"東京都","city":"調布市","address":"調布市小島町3-26-2","lat":35.646938,"lon":139.535858},{"name":"調布市郷土博物館分室","province":"東京都","city":"調布市","address":"調布市布田6-61","lat":35.643711,"lon":139.548828},{"name":"調布市深大寺水車館","province":"東京都","city":"調布市","address":"調布市深大寺元町5-10-6","lat":35.667656,"lon":139.548325},{"name":"調布市武者小路実篤記念館","province":"東京都","city":"調布市","address":"調布市若葉町1-8-30","lat":35.65633,"lon":139.581268},{"name":"調布市文化会館たづくり","province":"東京都","city":"調布市","address":"調布市小島町2-33-1","lat":35.65147,"lon":139.541443},{"name":"(有)土井壜店","province":"東京都","city":"調布市","address":"調布市布田6-47-4","lat":35.644402,"lon":139.550827},{"name":"(有)金沢商店","province":"東京都","city":"調布市","address":"調布市多摩川2-4-1","lat":35.647549,"lon":139.524261},{"name":"滝沢三男也  滝沢商店","province":"東京都","city":"調布市","address":"調布市深大寺東町5-16-22","lat":35.672882,"lon":139.555649},{"name":"(有)加藤商店  本店","province":"東京都","city":"調布市","address":"調布市深大寺北町6-60-14","lat":35.680981,"lon":139.54805},{"name":"野川公園","province":"東京都","city":"調布市","address":"東京都調布市野水一・二丁目、小金井市東町一丁目、三鷹市大沢二・三・六丁目","lat":35.68334,"lon":139.525446},{"name":"西部公民館","province":"東京都","city":"調布市","address":"調布市上石原3-21-6","lat":35.653053,"lon":139.522293},{"name":"東部公民館","province":"東京都","city":"調布市","address":"調布市若葉町1-29-21","lat":35.657906,"lon":139.583282},{"name":"北部公民館","province":"東京都","city":"調布市","address":"調布市柴崎2-5-18","lat":35.661114,"lon":139.562866},{"name":"調布市青少年交流館","province":"東京都","city":"調布市","address":"調布市飛田給1-52-1","lat":35.66135,"lon":139.526062},{"name":"調布市立図書館宮の下分館","province":"東京都","city":"調布市","address":"調布市上石原3-34-10","lat":35.651505,"lon":139.524765},{"name":"調布市立図書館国領分館","province":"東京都","city":"調布市","address":"調布市国領町3-12-1","lat":35.650814,"lon":139.561234},{"name":"調布市立図書館佐須分館","province":"東京都","city":"調布市","address":"調布市佐須町4-42-2","lat":35.658699,"lon":139.556183},{"name":"調布市立図書館若葉分館","province":"東京都","city":"調布市","address":"調布市若葉町3-16-13","lat":35.654602,"lon":139.583679},{"name":"調布市立図書館深大寺分館","province":"東京都","city":"調布市","address":"調布市深大寺北町5-17-3","lat":35.678112,"lon":139.550369},{"name":"調布市立図書館神代分館","province":"東京都","city":"調布市","address":"調布市西つつじケ丘1-40-5","lat":35.660809,"lon":139.570038},{"name":"調布市立図書館染地分館","province":"東京都","city":"調布市","address":"調布市染地3-3-1","lat":35.639153,"lon":139.555283},{"name":"調布市立図書館調和分館","province":"東京都","city":"調布市","address":"調布市西つつじケ丘4-22-6","lat":35.651386,"lon":139.57373},{"name":"調布市立図書館富士見分館","province":"東京都","city":"調布市","address":"調布市富士見町2-3-26","lat":35.658424,"lon":139.539062},{"name":"調布市立図書館緑ケ丘分館","province":"東京都","city":"調布市","address":"調布市緑ケ丘2-25","lat":35.666611,"lon":139.582993},{"name":"調布市立中央図書館","province":"東京都","city":"調布市","address":"調布市小島町2-33-1","lat":35.65147,"lon":139.541443},{"name":"調布市郷土博物館","province":"東京都","city":"調布市","address":"調布市小島町3-26-2","lat":35.646938,"lon":139.535858},{"name":"調布市郷土博物館分室","province":"東京都","city":"調布市","address":"調布市布田6-61","lat":35.643711,"lon":139.548828},{"name":"調布市深大寺水車館","province":"東京都","city":"調布市","address":"調布市深大寺元町5-10-6","lat":35.667656,"lon":139.548325},{"name":"調布市武者小路実篤記念館","province":"東京都","city":"調布市","address":"調布市若葉町1-8-30","lat":35.65633,"lon":139.581268},{"name":"調布市文化会館たづくり","province":"東京都","city":"調布市","address":"調布市小島町2-33-1","lat":35.65147,"lon":139.541443},{"name":"(有)土井壜店","province":"東京都","city":"調布市","address":"調布市布田6-47-4","lat":35.644402,"lon":139.550827},{"name":"(有)金沢商店","province":"東京都","city":"調布市","address":"調布市多摩川2-4-1","lat":35.647549,"lon":139.524261},{"name":"滝沢三男也  滝沢商店","province":"東京都","city":"調布市","address":"調布市深大寺東町5-16-22","lat":35.672882,"lon":139.555649},{"name":"(有)加藤商店  本店","province":"東京都","city":"調布市","address":"調布市深大寺北町6-60-14","lat":35.680981,"lon":139.54805},{"name":"野川公園","province":"東京都","city":"調布市","address":"東京都調布市野水一・二丁目、小金井市東町一丁目、三鷹市大沢二・三・六丁目","lat":35.68334,"lon":139.525446},{"name":"西部公民館","province":"東京都","city":"調布市","address":"調布市上石原3-21-6","lat":35.653053,"lon":139.522293},{"name":"東部公民館","province":"東京都","city":"調布市","address":"調布市若葉町1-29-21","lat":35.657906,"lon":139.583282},{"name":"北部公民館","province":"東京都","city":"調布市","address":"調布市柴崎2-5-18","lat":35.661114,"lon":139.562866},{"name":"調布市青少年交流館","province":"東京都","city":"調布市","address":"調布市飛田給1-52-1","lat":35.66135,"lon":139.526062},{"name":"調布市立図書館宮の下分館","province":"東京都","city":"調布市","address":"調布市上石原3-34-10","lat":35.651505,"lon":139.524765},{"name":"調布市立図書館国領分館","province":"東京都","city":"調布市","address":"調布市国領町3-12-1","lat":35.650814,"lon":139.561234},{"name":"調布市立図書館佐須分館","province":"東京都","city":"調布市","address":"調布市佐須町4-42-2","lat":35.658699,"lon":139.556183},{"name":"調布市立図書館若葉分館","province":"東京都","city":"調布市","address":"調布市若葉町3-16-13","lat":35.654602,"lon":139.583679},{"name":"調布市立図書館深大寺分館","province":"東京都","city":"調布市","address":"調布市深大寺北町5-17-3","lat":35.678112,"lon":139.550369},{"name":"調布市立図書館神代分館","province":"東京都","city":"調布市","address":"調布市西つつじケ丘1-40-5","lat":35.660809,"lon":139.570038},{"name":"調布市立図書館染地分館","province":"東京都","city":"調布市","address":"調布市染地3-3-1","lat":35.639153,"lon":139.555283},{"name":"調布市立図書館調和分館","province":"東京都","city":"調布市","address":"調布市西つつじケ丘4-22-6","lat":35.651386,"lon":139.57373},{"name":"調布市立図書館富士見分館","province":"東京都","city":"調布市","address":"調布市富士見町2-3-26","lat":35.658424,"lon":139.539062},{"name":"調布市立図書館緑ケ丘分館","province":"東京都","city":"調布市","address":"調布市緑ケ丘2-25","lat":35.666611,"lon":139.582993},{"name":"調布市立中央図書館","province":"東京都","city":"調布市","address":"調布市小島町2-33-1","lat":35.65147,"lon":139.541443},{"name":"調布市郷土博物館","province":"東京都","city":"調布市","address":"調布市小島町3-26-2","lat":35.646938,"lon":139.535858},{"name":"調布市郷土博物館分室","province":"東京都","city":"調布市","address":"調布市布田6-61","lat":35.643711,"lon":139.548828},{"name":"調布市深大寺水車館","province":"東京都","city":"調布市","address":"調布市深大寺元町5-10-6","lat":35.667656,"lon":139.548325},{"name":"調布市武者小路実篤記念館","province":"東京都","city":"調布市","address":"調布市若葉町1-8-30","lat":35.65633,"lon":139.581268},{"name":"調布市文化会館たづくり","province":"東京都","city":"調布市","address":"調布市小島町2-33-1","lat":35.65147,"lon":139.541443},{"name":"(有)土井壜店","province":"東京都","city":"調布市","address":"調布市布田6-47-4","lat":35.644402,"lon":139.550827},{"name":"(有)金沢商店","province":"東京都","city":"調布市","address":"調布市多摩川2-4-1","lat":35.647549,"lon":139.524261},{"name":"滝沢三男也  滝沢商店","province":"東京都","city":"調布市","address":"調布市深大寺東町5-16-22","lat":35.672882,"lon":139.555649},{"name":"(有)加藤商店  本店","province":"東京都","city":"調布市","address":"調布市深大寺北町6-60-14","lat":35.680981,"lon":139.54805},{"name":"野川公園","province":"東京都","city":"調布市","address":"東京都調布市野水一・二丁目、小金井市東町一丁目、三鷹市大沢二・三・六丁目","lat":35.68334,"lon":139.525446},{"name":"西部公民館","province":"東京都","city":"調布市","address":"調布市上石原3-21-6","lat":35.653053,"lon":139.522293},{"name":"東部公民館","province":"東京都","city":"調布市","address":"調布市若葉町1-29-21","lat":35.657906,"lon":139.583282},{"name":"北部公民館","province":"東京都","city":"調布市","address":"調布市柴崎2-5-18","lat":35.661114,"lon":139.562866},{"name":"調布市青少年交流館","province":"東京都","city":"調布市","address":"調布市飛田給1-52-1","lat":35.66135,"lon":139.526062},{"name":"調布市立図書館宮の下分館","province":"東京都","city":"調布市","address":"調布市上石原3-34-10","lat":35.651505,"lon":139.524765},{"name":"調布市立図書館国領分館","province":"東京都","city":"調布市","address":"調布市国領町3-12-1","lat":35.650814,"lon":139.561234},{"name":"調布市立図書館佐須分館","province":"東京都","city":"調布市","address":"調布市佐須町4-42-2","lat":35.658699,"lon":139.556183},{"name":"調布市立図書館若葉分館","province":"東京都","city":"調布市","address":"調布市若葉町3-16-13","lat":35.654602,"lon":139.583679},{"name":"調布市立図書館深大寺分館","province":"東京都","city":"調布市","address":"調布市深大寺北町5-17-3","lat":35.678112,"lon":139.550369},{"name":"調布市立図書館神代分館","province":"東京都","city":"調布市","address":"調布市西つつじケ丘1-40-5","lat":35.660809,"lon":139.570038},{"name":"調布市立図書館染地分館","province":"東京都","city":"調布市","address":"調布市染地3-3-1","lat":35.639153,"lon":139.555283},{"name":"調布市立図書館調和分館","province":"東京都","city":"調布市","address":"調布市西つつじケ丘4-22-6","lat":35.651386,"lon":139.57373},{"name":"調布市立図書館富士見分館","province":"東京都","city":"調布市","address":"調布市富士見町2-3-26","lat":35.658424,"lon":139.539062},{"name":"調布市立図書館緑ケ丘分館","province":"東京都","city":"調布市","address":"調布市緑ケ丘2-25","lat":35.666611,"lon":139.582993},{"name":"調布市立中央図書館","province":"東京都","city":"調布市","address":"調布市小島町2-33-1","lat":35.65147,"lon":139.541443},{"name":"調布市郷土博物館","province":"東京都","city":"調布市","address":"調布市小島町3-26-2","lat":35.646938,"lon":139.535858},{"name":"調布市郷土博物館分室","province":"東京都","city":"調布市","address":"調布市布田6-61","lat":35.643711,"lon":139.548828},{"name":"調布市深大寺水車館","province":"東京都","city":"調布市","address":"調布市深大寺元町5-10-6","lat":35.667656,"lon":139.548325},{"name":"調布市武者小路実篤記念館","province":"東京都","city":"調布市","address":"調布市若葉町1-8-30","lat":35.65633,"lon":139.581268},{"name":"調布市文化会館たづくり","province":"東京都","city":"調布市","address":"調布市小島町2-33-1","lat":35.65147,"lon":139.541443},{"name":"(有)土井壜店","province":"東京都","city":"調布市","address":"調布市布田6-47-4","lat":35.644402,"lon":139.550827},{"name":"(有)金沢商店","province":"東京都","city":"調布市","address":"調布市多摩川2-4-1","lat":35.647549,"lon":139.524261},{"name":"滝沢三男也  滝沢商店","province":"東京都","city":"調布市","address":"調布市深大寺東町5-16-22","lat":35.672882,"lon":139.555649},{"name":"(有)加藤商店  本店","province":"東京都","city":"調布市","address":"調布市深大寺北町6-60-14","lat":35.680981,"lon":139.54805},{"name":"野川公園","province":"東京都","city":"調布市","address":"東京都調布市野水一・二丁目、小金井市東町一丁目、三鷹市大沢二・三・六丁目","lat":35.68334,"lon":139.525446},{"name":"西部公民館","province":"東京都","city":"調布市","address":"調布市上石原3-21-6","lat":35.653053,"lon":139.522293},{"name":"東部公民館","province":"東京都","city":"調布市","address":"調布市若葉町1-29-21","lat":35.657906,"lon":139.583282},{"name":"北部公民館","province":"東京都","city":"調布市","address":"調布市柴崎2-5-18","lat":35.661114,"lon":139.562866},{"name":"調布市青少年交流館","province":"東京都","city":"調布市","address":"調布市飛田給1-52-1","lat":35.66135,"lon":139.526062},{"name":"調布市立図書館宮の下分館","province":"東京都","city":"調布市","address":"調布市上石原3-34-10","lat":35.651505,"lon":139.524765},{"name":"調布市立図書館国領分館","province":"東京都","city":"調布市","address":"調布市国領町3-12-1","lat":35.650814,"lon":139.561234},{"name":"調布市立図書館佐須分館","province":"東京都","city":"調布市","address":"調布市佐須町4-42-2","lat":35.658699,"lon":139.556183},{"name":"調布市立図書館若葉分館","province":"東京都","city":"調布市","address":"調布市若葉町3-16-13","lat":35.654602,"lon":139.583679},{"name":"調布市立図書館深大寺分館","province":"東京都","city":"調布市","address":"調布市深大寺北町5-17-3","lat":35.678112,"lon":139.550369},{"name":"調布市立図書館神代分館","province":"東京都","city":"調布市","address":"調布市西つつじケ丘1-40-5","lat":35.660809,"lon":139.570038},{"name":"調布市立図書館染地分館","province":"東京都","city":"調布市","address":"調布市染地3-3-1","lat":35.639153,"lon":139.555283},{"name":"調布市立図書館調和分館","province":"東京都","city":"調布市","address":"調布市西つつじケ丘4-22-6","lat":35.651386,"lon":139.57373},{"name":"調布市立図書館富士見分館","province":"東京都","city":"調布市","address":"調布市富士見町2-3-26","lat":35.658424,"lon":139.539062},{"name":"調布市立図書館緑ケ丘分館","province":"東京都","city":"調布市","address":"調布市緑ケ丘2-25","lat":35.666611,"lon":139.582993},{"name":"調布市立中央図書館","province":"東京都","city":"調布市","address":"調布市小島町2-33-1","lat":35.65147,"lon":139.541443},{"name":"調布市郷土博物館","province":"東京都","city":"調布市","address":"調布市小島町3-26-2","lat":35.646938,"lon":139.535858},{"name":"調布市郷土博物館分室","province":"東京都","city":"調布市","address":"調布市布田6-61","lat":35.643711,"lon":139.548828},{"name":"調布市深大寺水車館","province":"東京都","city":"調布市","address":"調布市深大寺元町5-10-6","lat":35.667656,"lon":139.548325},{"name":"調布市武者小路実篤記念館","province":"東京都","city":"調布市","address":"調布市若葉町1-8-30","lat":35.65633,"lon":139.581268},{"name":"調布市文化会館たづくり","province":"東京都","city":"調布市","address":"調布市小島町2-33-1","lat":35.65147,"lon":139.541443},{"name":"(有)土井壜店","province":"東京都","city":"調布市","address":"調布市布田6-47-4","lat":35.644402,"lon":139.550827},{"name":"(有)金沢商店","province":"東京都","city":"調布市","address":"調布市多摩川2-4-1","lat":35.647549,"lon":139.524261},{"name":"滝沢三男也  滝沢商店","province":"東京都","city":"調布市","address":"調布市深大寺東町5-16-22","lat":35.672882,"lon":139.555649},{"name":"(有)加藤商店  本店","province":"東京都","city":"調布市","address":"調布市深大寺北町6-60-14","lat":35.680981,"lon":139.54805},{"name":"野川公園","province":"東京都","city":"調布市","address":"東京都調布市野水一・二丁目、小金井市東町一丁目、三鷹市大沢二・三・六丁目","lat":35.68334,"lon":139.525446},{"name":"西部公民館","province":"東京都","city":"調布市","address":"調布市上石原3-21-6","lat":35.653053,"lon":139.522293},{"name":"東部公民館","province":"東京都","city":"調布市","address":"調布市若葉町1-29-21","lat":35.657906,"lon":139.583282},{"name":"北部公民館","province":"東京都","city":"調布市","address":"調布市柴崎2-5-18","lat":35.661114,"lon":139.562866},{"name":"調布市青少年交流館","province":"東京都","city":"調布市","address":"調布市飛田給1-52-1","lat":35.66135,"lon":139.526062},{"name":"調布市立図書館宮の下分館","province":"東京都","city":"調布市","address":"調布市上石原3-34-10","lat":35.651505,"lon":139.524765},{"name":"調布市立図書館国領分館","province":"東京都","city":"調布市","address":"調布市国領町3-12-1","lat":35.650814,"lon":139.561234},{"name":"調布市立図書館佐須分館","province":"東京都","city":"調布市","address":"調布市佐須町4-42-2","lat":35.658699,"lon":139.556183},{"name":"調布市立図書館若葉分館","province":"東京都","city":"調布市","address":"調布市若葉町3-16-13","lat":35.654602,"lon":139.583679},{"name":"調布市立図書館深大寺分館","province":"東京都","city":"調布市","address":"調布市深大寺北町5-17-3","lat":35.678112,"lon":139.550369},{"name":"調布市立図書館神代分館","province":"東京都","city":"調布市","address":"調布市西つつじケ丘1-40-5","lat":35.660809,"lon":139.570038},{"name":"調布市立図書館染地分館","province":"東京都","city":"調布市","address":"調布市染地3-3-1","lat":35.639153,"lon":139.555283},{"name":"調布市立図書館調和分館","province":"東京都","city":"調布市","address":"調布市西つつじケ丘4-22-6","lat":35.651386,"lon":139.57373},{"name":"調布市立図書館富士見分館","province":"東京都","city":"調布市","address":"調布市富士見町2-3-26","lat":35.658424,"lon":139.539062},{"name":"調布市立図書館緑ケ丘分館","province":"東京都","city":"調布市","address":"調布市緑ケ丘2-25","lat":35.666611,"lon":139.582993},{"name":"調布市立中央図書館","province":"東京都","city":"調布市","address":"調布市小島町2-33-1","lat":35.65147,"lon":139.541443},{"name":"調布市郷土博物館","province":"東京都","city":"調布市","address":"調布市小島町3-26-2","lat":35.646938,"lon":139.535858},{"name":"調布市郷土博物館分室","province":"東京都","city":"調布市","address":"調布市布田6-61","lat":35.643711,"lon":139.548828},{"name":"調布市深大寺水車館","province":"東京都","city":"調布市","address":"調布市深大寺元町5-10-6","lat":35.667656,"lon":139.548325},{"name":"調布市武者小路実篤記念館","province":"東京都","city":"調布市","address":"調布市若葉町1-8-30","lat":35.65633,"lon":139.581268},{"name":"調布市文化会館たづくり","province":"東京都","city":"調布市","address":"調布市小島町2-33-1","lat":35.65147,"lon":139.541443},{"name":"(有)土井壜店","province":"東京都","city":"調布市","address":"調布市布田6-47-4","lat":35.644402,"lon":139.550827},{"name":"(有)金沢商店","province":"東京都","city":"調布市","address":"調布市多摩川2-4-1","lat":35.647549,"lon":139.524261},{"name":"滝沢三男也  滝沢商店","province":"東京都","city":"調布市","address":"調布市深大寺東町5-16-22","lat":35.672882,"lon":139.555649},{"name":"(有)加藤商店  本店","province":"東京都","city":"調布市","address":"調布市深大寺北町6-60-14","lat":35.680981,"lon":139.54805},{"name":"野川公園","province":"東京都","city":"調布市","address":"東京都調布市野水一・二丁目、小金井市東町一丁目、三鷹市大沢二・三・六丁目","lat":35.68334,"lon":139.525446},{"name":"西部公民館","province":"東京都","city":"調布市","address":"調布市上石原3-21-6","lat":35.653053,"lon":139.522293},{"name":"東部公民館","province":"東京都","city":"調布市","address":"調布市若葉町1-29-21","lat":35.657906,"lon":139.583282},{"name":"北部公民館","province":"東京都","city":"調布市","address":"調布市柴崎2-5-18","lat":35.661114,"lon":139.562866},{"name":"調布市青少年交流館","province":"東京都","city":"調布市","address":"調布市飛田給1-52-1","lat":35.66135,"lon":139.526062},{"name":"調布市立図書館宮の下分館","province":"東京都","city":"調布市","address":"調布市上石原3-34-10","lat":35.651505,"lon":139.524765},{"name":"調布市立図書館国領分館","province":"東京都","city":"調布市","address":"調布市国領町3-12-1","lat":35.650814,"lon":139.561234},{"name":"調布市立図書館佐須分館","province":"東京都","city":"調布市","address":"調布市佐須町4-42-2","lat":35.658699,"lon":139.556183},{"name":"調布市立図書館若葉分館","province":"東京都","city":"調布市","address":"調布市若葉町3-16-13","lat":35.654602,"lon":139.583679},{"name":"調布市立図書館深大寺分館","province":"東京都","city":"調布市","address":"調布市深大寺北町5-17-3","lat":35.678112,"lon":139.550369},{"name":"調布市立図書館神代分館","province":"東京都","city":"調布市","address":"調布市西つつじケ丘1-40-5","lat":35.660809,"lon":139.570038},{"name":"調布市立図書館染地分館","province":"東京都","city":"調布市","address":"調布市染地3-3-1","lat":35.639153,"lon":139.555283},{"name":"調布市立図書館調和分館","province":"東京都","city":"調布市","address":"調布市西つつじケ丘4-22-6","lat":35.651386,"lon":139.57373},{"name":"調布市立図書館富士見分館","province":"東京都","city":"調布市","address":"調布市富士見町2-3-26","lat":35.658424,"lon":139.539062},{"name":"調布市立図書館緑ケ丘分館","province":"東京都","city":"調布市","address":"調布市緑ケ丘2-25","lat":35.666611,"lon":139.582993},{"name":"調布市立中央図書館","province":"東京都","city":"調布市","address":"調布市小島町2-33-1","lat":35.65147,"lon":139.541443},{"name":"調布市郷土博物館","province":"東京都","city":"調布市","address":"調布市小島町3-26-2","lat":35.646938,"lon":139.535858},{"name":"調布市郷土博物館分室","province":"東京都","city":"調布市","address":"調布市布田6-61","lat":35.643711,"lon":139.548828},{"name":"調布市深大寺水車館","province":"東京都","city":"調布市","address":"調布市深大寺元町5-10-6","lat":35.667656,"lon":139.548325},{"name":"調布市武者小路実篤記念館","province":"東京都","city":"調布市","address":"調布市若葉町1-8-30","lat":35.65633,"lon":139.581268},{"name":"調布市文化会館たづくり","province":"東京都","city":"調布市","address":"調布市小島町2-33-1","lat":35.65147,"lon":139.541443},{"name":"(有)土井壜店","province":"東京都","city":"調布市","address":"調布市布田6-47-4","lat":35.644402,"lon":139.550827},{"name":"(有)金沢商店","province":"東京都","city":"調布市","address":"調布市多摩川2-4-1","lat":35.647549,"lon":139.524261},{"name":"滝沢三男也  滝沢商店","province":"東京都","city":"調布市","address":"調布市深大寺東町5-16-22","lat":35.672882,"lon":139.555649},{"name":"(有)加藤商店  本店","province":"東京都","city":"調布市","address":"調布市深大寺北町6-60-14","lat":35.680981,"lon":139.54805},{"name":"野川公園","province":"東京都","city":"調布市","address":"東京都調布市野水一・二丁目、小金井市東町一丁目、三鷹市大沢二・三・六丁目","lat":35.68334,"lon":139.525446},{"name":"西部公民館","province":"東京都","city":"調布市","address":"調布市上石原3-21-6","lat":35.653053,"lon":139.522293},{"name":"東部公民館","province":"東京都","city":"調布市","address":"調布市若葉町1-29-21","lat":35.657906,"lon":139.583282},{"name":"北部公民館","province":"東京都","city":"調布市","address":"調布市柴崎2-5-18","lat":35.661114,"lon":139.562866},{"name":"調布市青少年交流館","province":"東京都","city":"調布市","address":"調布市飛田給1-52-1","lat":35.66135,"lon":139.526062},{"name":"調布市立図書館宮の下分館","province":"東京都","city":"調布市","address":"調布市上石原3-34-10","lat":35.651505,"lon":139.524765},{"name":"調布市立図書館国領分館","province":"東京都","city":"調布市","address":"調布市国領町3-12-1","lat":35.650814,"lon":139.561234},{"name":"調布市立図書館佐須分館","province":"東京都","city":"調布市","address":"調布市佐須町4-42-2","lat":35.658699,"lon":139.556183},{"name":"調布市立図書館若葉分館","province":"東京都","city":"調布市","address":"調布市若葉町3-16-13","lat":35.654602,"lon":139.583679},{"name":"調布市立図書館深大寺分館","province":"東京都","city":"調布市","address":"調布市深大寺北町5-17-3","lat":35.678112,"lon":139.550369},{"name":"調布市立図書館神代分館","province":"東京都","city":"調布市","address":"調布市西つつじケ丘1-40-5","lat":35.660809,"lon":139.570038},{"name":"調布市立図書館染地分館","province":"東京都","city":"調布市","address":"調布市染地3-3-1","lat":35.639153,"lon":139.555283},{"name":"調布市立図書館調和分館","province":"東京都","city":"調布市","address":"調布市西つつじケ丘4-22-6","lat":35.651386,"lon":139.57373},{"name":"調布市立図書館富士見分館","province":"東京都","city":"調布市","address":"調布市富士見町2-3-26","lat":35.658424,"lon":139.539062},{"name":"調布市立図書館緑ケ丘分館","province":"東京都","city":"調布市","address":"調布市緑ケ丘2-25","lat":35.666611,"lon":139.582993},{"name":"調布市立中央図書館","province":"東京都","city":"調布市","address":"調布市小島町2-33-1","lat":35.65147,"lon":139.541443},{"name":"調布市郷土博物館","province":"東京都","city":"調布市","address":"調布市小島町3-26-2","lat":35.646938,"lon":139.535858},{"name":"調布市郷土博物館分室","province":"東京都","city":"調布市","address":"調布市布田6-61","lat":35.643711,"lon":139.548828},{"name":"調布市深大寺水車館","province":"東京都","city":"調布市","address":"調布市深大寺元町5-10-6","lat":35.667656,"lon":139.548325},{"name":"調布市武者小路実篤記念館","province":"東京都","city":"調布市","address":"調布市若葉町1-8-30","lat":35.65633,"lon":139.581268},{"name":"調布市文化会館たづくり","province":"東京都","city":"調布市","address":"調布市小島町2-33-1","lat":35.65147,"lon":139.541443},{"name":"(有)土井壜店","province":"東京都","city":"調布市","address":"調布市布田6-47-4","lat":35.644402,"lon":139.550827},{"name":"(有)金沢商店","province":"東京都","city":"調布市","address":"調布市多摩川2-4-1","lat":35.647549,"lon":139.524261},{"name":"滝沢三男也  滝沢商店","province":"東京都","city":"調布市","address":"調布市深大寺東町5-16-22","lat":35.672882,"lon":139.555649},{"name":"(有)加藤商店  本店","province":"東京都","city":"調布市","address":"調布市深大寺北町6-60-14","lat":35.680981,"lon":139.54805},{"name":"野川公園","province":"東京都","city":"調布市","address":"東京都調布市野水一・二丁目、小金井市東町一丁目、三鷹市大沢二・三・六丁目","lat":35.68334,"lon":139.525446},{"name":"西部公民館","province":"東京都","city":"調布市","address":"調布市上石原3-21-6","lat":35.653053,"lon":139.522293},{"name":"東部公民館","province":"東京都","city":"調布市","address":"調布市若葉町1-29-21","lat":35.657906,"lon":139.583282},{"name":"北部公民館","province":"東京都","city":"調布市","address":"調布市柴崎2-5-18","lat":35.661114,"lon":139.562866},{"name":"調布市青少年交流館","province":"東京都","city":"調布市","address":"調布市飛田給1-52-1","lat":35.66135,"lon":139.526062},{"name":"調布市立図書館宮の下分館","province":"東京都","city":"調布市","address":"調布市上石原3-34-10","lat":35.651505,"lon":139.524765},{"name":"調布市立図書館国領分館","province":"東京都","city":"調布市","address":"調布市国領町3-12-1","lat":35.650814,"lon":139.561234},{"name":"調布市立図書館佐須分館","province":"東京都","city":"調布市","address":"調布市佐須町4-42-2","lat":35.658699,"lon":139.556183},{"name":"調布市立図書館若葉分館","province":"東京都","city":"調布市","address":"調布市若葉町3-16-13","lat":35.654602,"lon":139.583679},{"name":"調布市立図書館深大寺分館","province":"東京都","city":"調布市","address":"調布市深大寺北町5-17-3","lat":35.678112,"lon":139.550369},{"name":"調布市立図書館神代分館","province":"東京都","city":"調布市","address":"調布市西つつじケ丘1-40-5","lat":35.660809,"lon":139.570038},{"name":"調布市立図書館染地分館","province":"東京都","city":"調布市","address":"調布市染地3-3-1","lat":35.639153,"lon":139.555283},{"name":"調布市立図書館調和分館","province":"東京都","city":"調布市","address":"調布市西つつじケ丘4-22-6","lat":35.651386,"lon":139.57373},{"name":"調布市立図書館富士見分館","province":"東京都","city":"調布市","address":"調布市富士見町2-3-26","lat":35.658424,"lon":139.539062},{"name":"調布市立図書館緑ケ丘分館","province":"東京都","city":"調布市","address":"調布市緑ケ丘2-25","lat":35.666611,"lon":139.582993},{"name":"調布市立中央図書館","province":"東京都","city":"調布市","address":"調布市小島町2-33-1","lat":35.65147,"lon":139.541443},{"name":"調布市郷土博物館","province":"東京都","city":"調布市","address":"調布市小島町3-26-2","lat":35.646938,"lon":139.535858},{"name":"調布市郷土博物館分室","province":"東京都","city":"調布市","address":"調布市布田6-61","lat":35.643711,"lon":139.548828},{"name":"調布市深大寺水車館","province":"東京都","city":"調布市","address":"調布市深大寺元町5-10-6","lat":35.667656,"lon":139.548325},{"name":"調布市武者小路実篤記念館","province":"東京都","city":"調布市","address":"調布市若葉町1-8-30","lat":35.65633,"lon":139.581268},{"name":"調布市文化会館たづくり","province":"東京都","city":"調布市","address":"調布市小島町2-33-1","lat":35.65147,"lon":139.541443},{"name":"(有)土井壜店","province":"東京都","city":"調布市","address":"調布市布田6-47-4","lat":35.644402,"lon":139.550827},{"name":"(有)金沢商店","province":"東京都","city":"調布市","address":"調布市多摩川2-4-1","lat":35.647549,"lon":139.524261},{"name":"滝沢三男也  滝沢商店","province":"東京都","city":"調布市","address":"調布市深大寺東町5-16-22","lat":35.672882,"lon":139.555649},{"name":"(有)加藤商店  本店","province":"東京都","city":"調布市","address":"調布市深大寺北町6-60-14","lat":35.680981,"lon":139.54805},{"name":"野川公園","province":"東京都","city":"調布市","address":"東京都調布市野水一・二丁目、小金井市東町一丁目、三鷹市大沢二・三・六丁目","lat":35.68334,"lon":139.525446},{"name":"西部公民館","province":"東京都","city":"調布市","address":"調布市上石原3-21-6","lat":35.653053,"lon":139.522293},{"name":"東部公民館","province":"東京都","city":"調布市","address":"調布市若葉町1-29-21","lat":35.657906,"lon":139.583282},{"name":"北部公民館","province":"東京都","city":"調布市","address":"調布市柴崎2-5-18","lat":35.661114,"lon":139.562866},{"name":"調布市青少年交流館","province":"東京都","city":"調布市","address":"調布市飛田給1-52-1","lat":35.66135,"lon":139.526062},{"name":"調布市立図書館宮の下分館","province":"東京都","city":"調布市","address":"調布市上石原3-34-10","lat":35.651505,"lon":139.524765},{"name":"調布市立図書館国領分館","province":"東京都","city":"調布市","address":"調布市国領町3-12-1","lat":35.650814,"lon":139.561234},{"name":"調布市立図書館佐須分館","province":"東京都","city":"調布市","address":"調布市佐須町4-42-2","lat":35.658699,"lon":139.556183},{"name":"調布市立図書館若葉分館","province":"東京都","city":"調布市","address":"調布市若葉町3-16-13","lat":35.654602,"lon":139.583679},{"name":"調布市立図書館深大寺分館","province":"東京都","city":"調布市","address":"調布市深大寺北町5-17-3","lat":35.678112,"lon":139.550369},{"name":"調布市立図書館神代分館","province":"東京都","city":"調布市","address":"調布市西つつじケ丘1-40-5","lat":35.660809,"lon":139.570038},{"name":"調布市立図書館染地分館","province":"東京都","city":"調布市","address":"調布市染地3-3-1","lat":35.639153,"lon":139.555283},{"name":"調布市立図書館調和分館","province":"東京都","city":"調布市","address":"調布市西つつじケ丘4-22-6","lat":35.651386,"lon":139.57373},{"name":"調布市立図書館富士見分館","province":"東京都","city":"調布市","address":"調布市富士見町2-3-26","lat":35.658424,"lon":139.539062},{"name":"調布市立図書館緑ケ丘分館","province":"東京都","city":"調布市","address":"調布市緑ケ丘2-25","lat":35.666611,"lon":139.582993},{"name":"調布市立中央図書館","province":"東京都","city":"調布市","address":"調布市小島町2-33-1","lat":35.65147,"lon":139.541443},{"name":"調布市郷土博物館","province":"東京都","city":"調布市","address":"調布市小島町3-26-2","lat":35.646938,"lon":139.535858},{"name":"調布市郷土博物館分室","province":"東京都","city":"調布市","address":"調布市布田6-61","lat":35.643711,"lon":139.548828},{"name":"調布市深大寺水車館","province":"東京都","city":"調布市","address":"調布市深大寺元町5-10-6","lat":35.667656,"lon":139.548325},{"name":"調布市武者小路実篤記念館","province":"東京都","city":"調布市","address":"調布市若葉町1-8-30","lat":35.65633,"lon":139.581268},{"name":"調布市文化会館たづくり","province":"東京都","city":"調布市","address":"調布市小島町2-33-1","lat":35.65147,"lon":139.541443},{"name":"(有)土井壜店","province":"東京都","city":"調布市","address":"調布市布田6-47-4","lat":35.644402,"lon":139.550827},{"name":"(有)金沢商店","province":"東京都","city":"調布市","address":"調布市多摩川2-4-1","lat":35.647549,"lon":139.524261},{"name":"滝沢三男也  滝沢商店","province":"東京都","city":"調布市","address":"調布市深大寺東町5-16-22","lat":35.672882,"lon":139.555649},{"name":"(有)加藤商店  本店","province":"東京都","city":"調布市","address":"調布市深大寺北町6-60-14","lat":35.680981,"lon":139.54805},{"name":"野川公園","province":"東京都","city":"調布市","address":"東京都調布市野水一・二丁目、小金井市東町一丁目、三鷹市大沢二・三・六丁目","lat":35.68334,"lon":139.525446},{"name":"西部公民館","province":"東京都","city":"調布市","address":"調布市上石原3-21-6","lat":35.653053,"lon":139.522293},{"name":"東部公民館","province":"東京都","city":"調布市","address":"調布市若葉町1-29-21","lat":35.657906,"lon":139.583282},{"name":"北部公民館","province":"東京都","city":"調布市","address":"調布市柴崎2-5-18","lat":35.661114,"lon":139.562866},{"name":"調布市青少年交流館","province":"東京都","city":"調布市","address":"調布市飛田給1-52-1","lat":35.66135,"lon":139.526062},{"name":"調布市立図書館宮の下分館","province":"東京都","city":"調布市","address":"調布市上石原3-34-10","lat":35.651505,"lon":139.524765},{"name":"調布市立図書館国領分館","province":"東京都","city":"調布市","address":"調布市国領町3-12-1","lat":35.650814,"lon":139.561234},{"name":"調布市立図書館佐須分館","province":"東京都","city":"調布市","address":"調布市佐須町4-42-2","lat":35.658699,"lon":139.556183},{"name":"調布市立図書館若葉分館","province":"東京都","city":"調布市","address":"調布市若葉町3-16-13","lat":35.654602,"lon":139.583679},{"name":"調布市立図書館深大寺分館","province":"東京都","city":"調布市","address":"調布市深大寺北町5-17-3","lat":35.678112,"lon":139.550369},{"name":"調布市立図書館神代分館","province":"東京都","city":"調布市","address":"調布市西つつじケ丘1-40-5","lat":35.660809,"lon":139.570038},{"name":"調布市立図書館染地分館","province":"東京都","city":"調布市","address":"調布市染地3-3-1","lat":35.639153,"lon":139.555283},{"name":"調布市立図書館調和分館","province":"東京都","city":"調布市","address":"調布市西つつじケ丘4-22-6","lat":35.651386,"lon":139.57373},{"name":"調布市立図書館富士見分館","province":"東京都","city":"調布市","address":"調布市富士見町2-3-26","lat":35.658424,"lon":139.539062},{"name":"調布市立図書館緑ケ丘分館","province":"東京都","city":"調布市","address":"調布市緑ケ丘2-25","lat":35.666611,"lon":139.582993},{"name":"調布市立中央図書館","province":"東京都","city":"調布市","address":"調布市小島町2-33-1","lat":35.65147,"lon":139.541443},{"name":"調布市郷土博物館","province":"東京都","city":"調布市","address":"調布市小島町3-26-2","lat":35.646938,"lon":139.535858},{"name":"調布市郷土博物館分室","province":"東京都","city":"調布市","address":"調布市布田6-61","lat":35.643711,"lon":139.548828},{"name":"調布市深大寺水車館","province":"東京都","city":"調布市","address":"調布市深大寺元町5-10-6","lat":35.667656,"lon":139.548325},{"name":"調布市武者小路実篤記念館","province":"東京都","city":"調布市","address":"調布市若葉町1-8-30","lat":35.65633,"lon":139.581268},{"name":"調布市文化会館たづくり","province":"東京都","city":"調布市","address":"調布市小島町2-33-1","lat":35.65147,"lon":139.541443},{"name":"(有)土井壜店","province":"東京都","city":"調布市","address":"調布市布田6-47-4","lat":35.644402,"lon":139.550827},{"name":"(有)金沢商店","province":"東京都","city":"調布市","address":"調布市多摩川2-4-1","lat":35.647549,"lon":139.524261},{"name":"滝沢三男也  滝沢商店","province":"東京都","city":"調布市","address":"調布市深大寺東町5-16-22","lat":35.672882,"lon":139.555649},{"name":"(有)加藤商店  本店","province":"東京都","city":"調布市","address":"調布市深大寺北町6-60-14","lat":35.680981,"lon":139.54805},{"name":"野川公園","province":"東京都","city":"調布市","address":"東京都調布市野水一・二丁目、小金井市東町一丁目、三鷹市大沢二・三・六丁目","lat":35.68334,"lon":139.525446},{"name":"西部公民館","province":"東京都","city":"調布市","address":"調布市上石原3-21-6","lat":35.653053,"lon":139.522293},{"name":"東部公民館","province":"東京都","city":"調布市","address":"調布市若葉町1-29-21","lat":35.657906,"lon":139.583282},{"name":"北部公民館","province":"東京都","city":"調布市","address":"調布市柴崎2-5-18","lat":35.661114,"lon":139.562866},{"name":"調布市青少年交流館","province":"東京都","city":"調布市","address":"調布市飛田給1-52-1","lat":35.66135,"lon":139.526062},{"name":"調布市立図書館宮の下分館","province":"東京都","city":"調布市","address":"調布市上石原3-34-10","lat":35.651505,"lon":139.524765},{"name":"調布市立図書館国領分館","province":"東京都","city":"調布市","address":"調布市国領町3-12-1","lat":35.650814,"lon":139.561234},{"name":"調布市立図書館佐須分館","province":"東京都","city":"調布市","address":"調布市佐須町4-42-2","lat":35.658699,"lon":139.556183},{"name":"調布市立図書館若葉分館","province":"東京都","city":"調布市","address":"調布市若葉町3-16-13","lat":35.654602,"lon":139.583679},{"name":"調布市立図書館深大寺分館","province":"東京都","city":"調布市","address":"調布市深大寺北町5-17-3","lat":35.678112,"lon":139.550369},{"name":"調布市立図書館神代分館","province":"東京都","city":"調布市","address":"調布市西つつじケ丘1-40-5","lat":35.660809,"lon":139.570038},{"name":"調布市立図書館染地分館","province":"東京都","city":"調布市","address":"調布市染地3-3-1","lat":35.639153,"lon":139.555283},{"name":"調布市立図書館調和分館","province":"東京都","city":"調布市","address":"調布市西つつじケ丘4-22-6","lat":35.651386,"lon":139.57373},{"name":"調布市立図書館富士見分館","province":"東京都","city":"調布市","address":"調布市富士見町2-3-26","lat":35.658424,"lon":139.539062},{"name":"調布市立図書館緑ケ丘分館","province":"東京都","city":"調布市","address":"調布市緑ケ丘2-25","lat":35.666611,"lon":139.582993},{"name":"調布市立中央図書館","province":"東京都","city":"調布市","address":"調布市小島町2-33-1","lat":35.65147,"lon":139.541443},{"name":"調布市郷土博物館","province":"東京都","city":"調布市","address":"調布市小島町3-26-2","lat":35.646938,"lon":139.535858},{"name":"調布市郷土博物館分室","province":"東京都","city":"調布市","address":"調布市布田6-61","lat":35.643711,"lon":139.548828},{"name":"調布市深大寺水車館","province":"東京都","city":"調布市","address":"調布市深大寺元町5-10-6","lat":35.667656,"lon":139.548325},{"name":"調布市武者小路実篤記念館","province":"東京都","city":"調布市","address":"調布市若葉町1-8-30","lat":35.65633,"lon":139.581268},{"name":"調布市文化会館たづくり","province":"東京都","city":"調布市","address":"調布市小島町2-33-1","lat":35.65147,"lon":139.541443},{"name":"(有)土井壜店","province":"東京都","city":"調布市","address":"調布市布田6-47-4","lat":35.644402,"lon":139.550827},{"name":"(有)金沢商店","province":"東京都","city":"調布市","address":"調布市多摩川2-4-1","lat":35.647549,"lon":139.524261},{"name":"滝沢三男也  滝沢商店","province":"東京都","city":"調布市","address":"調布市深大寺東町5-16-22","lat":35.672882,"lon":139.555649},{"name":"(有)加藤商店  本店","province":"東京都","city":"調布市","address":"調布市深大寺北町6-60-14","lat":35.680981,"lon":139.54805},{"name":"野川公園","province":"東京都","city":"調布市","address":"東京都調布市野水一・二丁目、小金井市東町一丁目、三鷹市大沢二・三・六丁目","lat":35.68334,"lon":139.525446},{"name":"西部公民館","province":"東京都","city":"調布市","address":"調布市上石原3-21-6","lat":35.653053,"lon":139.522293},{"name":"東部公民館","province":"東京都","city":"調布市","address":"調布市若葉町1-29-21","lat":35.657906,"lon":139.583282},{"name":"北部公民館","province":"東京都","city":"調布市","address":"調布市柴崎2-5-18","lat":35.661114,"lon":139.562866},{"name":"調布市青少年交流館","province":"東京都","city":"調布市","address":"調布市飛田給1-52-1","lat":35.66135,"lon":139.526062},{"name":"調布市立図書館宮の下分館","province":"東京都","city":"調布市","address":"調布市上石原3-34-10","lat":35.651505,"lon":139.524765},{"name":"調布市立図書館国領分館","province":"東京都","city":"調布市","address":"調布市国領町3-12-1","lat":35.650814,"lon":139.561234},{"name":"調布市立図書館佐須分館","province":"東京都","city":"調布市","address":"調布市佐須町4-42-2","lat":35.658699,"lon":139.556183},{"name":"調布市立図書館若葉分館","province":"東京都","city":"調布市","address":"調布市若葉町3-16-13","lat":35.654602,"lon":139.583679},{"name":"調布市立図書館深大寺分館","province":"東京都","city":"調布市","address":"調布市深大寺北町5-17-3","lat":35.678112,"lon":139.550369},{"name":"調布市立図書館神代分館","province":"東京都","city":"調布市","address":"調布市西つつじケ丘1-40-5","lat":35.660809,"lon":139.570038},{"name":"調布市立図書館染地分館","province":"東京都","city":"調布市","address":"調布市染地3-3-1","lat":35.639153,"lon":139.555283},{"name":"調布市立図書館調和分館","province":"東京都","city":"調布市","address":"調布市西つつじケ丘4-22-6","lat":35.651386,"lon":139.57373},{"name":"調布市立図書館富士見分館","province":"東京都","city":"調布市","address":"調布市富士見町2-3-26","lat":35.658424,"lon":139.539062},{"name":"調布市立図書館緑ケ丘分館","province":"東京都","city":"調布市","address":"調布市緑ケ丘2-25","lat":35.666611,"lon":139.582993},{"name":"調布市立中央図書館","province":"東京都","city":"調布市","address":"調布市小島町2-33-1","lat":35.65147,"lon":139.541443},{"name":"調布市郷土博物館","province":"東京都","city":"調布市","address":"調布市小島町3-26-2","lat":35.646938,"lon":139.535858},{"name":"調布市郷土博物館分室","province":"東京都","city":"調布市","address":"調布市布田6-61","lat":35.643711,"lon":139.548828},{"name":"調布市深大寺水車館","province":"東京都","city":"調布市","address":"調布市深大寺元町5-10-6","lat":35.667656,"lon":139.548325},{"name":"調布市武者小路実篤記念館","province":"東京都","city":"調布市","address":"調布市若葉町1-8-30","lat":35.65633,"lon":139.581268},{"name":"調布市文化会館たづくり","province":"東京都","city":"調布市","address":"調布市小島町2-33-1","lat":35.65147,"lon":139.541443},{"name":"(有)土井壜店","province":"東京都","city":"調布市","address":"調布市布田6-47-4","lat":35.644402,"lon":139.550827},{"name":"(有)金沢商店","province":"東京都","city":"調布市","address":"調布市多摩川2-4-1","lat":35.647549,"lon":139.524261},{"name":"滝沢三男也  滝沢商店","province":"東京都","city":"調布市","address":"調布市深大寺東町5-16-22","lat":35.672882,"lon":139.555649},{"name":"(有)加藤商店  本店","province":"東京都","city":"調布市","address":"調布市深大寺北町6-60-14","lat":35.680981,"lon":139.54805},{"name":"野川公園","province":"東京都","city":"調布市","address":"東京都調布市野水一・二丁目、小金井市東町一丁目、三鷹市大沢二・三・六丁目","lat":35.68334,"lon":139.525446},{"name":"西部公民館","province":"東京都","city":"調布市","address":"調布市上石原3-21-6","lat":35.653053,"lon":139.522293},{"name":"東部公民館","province":"東京都","city":"調布市","address":"調布市若葉町1-29-21","lat":35.657906,"lon":139.583282},{"name":"北部公民館","province":"東京都","city":"調布市","address":"調布市柴崎2-5-18","lat":35.661114,"lon":139.562866},{"name":"調布市青少年交流館","province":"東京都","city":"調布市","address":"調布市飛田給1-52-1","lat":35.66135,"lon":139.526062},{"name":"調布市立図書館宮の下分館","province":"東京都","city":"調布市","address":"調布市上石原3-34-10","lat":35.651505,"lon":139.524765},{"name":"調布市立図書館国領分館","province":"東京都","city":"調布市","address":"調布市国領町3-12-1","lat":35.650814,"lon":139.561234},{"name":"調布市立図書館佐須分館","province":"東京都","city":"調布市","address":"調布市佐須町4-42-2","lat":35.658699,"lon":139.556183},{"name":"調布市立図書館若葉分館","province":"東京都","city":"調布市","address":"調布市若葉町3-16-13","lat":35.654602,"lon":139.583679},{"name":"調布市立図書館深大寺分館","province":"東京都","city":"調布市","address":"調布市深大寺北町5-17-3","lat":35.678112,"lon":139.550369},{"name":"調布市立図書館神代分館","province":"東京都","city":"調布市","address":"調布市西つつじケ丘1-40-5","lat":35.660809,"lon":139.570038},{"name":"調布市立図書館染地分館","province":"東京都","city":"調布市","address":"調布市染地3-3-1","lat":35.639153,"lon":139.555283},{"name":"調布市立図書館調和分館","province":"東京都","city":"調布市","address":"調布市西つつじケ丘4-22-6","lat":35.651386,"lon":139.57373},{"name":"調布市立図書館富士見分館","province":"東京都","city":"調布市","address":"調布市富士見町2-3-26","lat":35.658424,"lon":139.539062},{"name":"調布市立図書館緑ケ丘分館","province":"東京都","city":"調布市","address":"調布市緑ケ丘2-25","lat":35.666611,"lon":139.582993},{"name":"調布市立中央図書館","province":"東京都","city":"調布市","address":"調布市小島町2-33-1","lat":35.65147,"lon":139.541443},{"name":"調布市郷土博物館","province":"東京都","city":"調布市","address":"調布市小島町3-26-2","lat":35.646938,"lon":139.535858},{"name":"調布市郷土博物館分室","province":"東京都","city":"調布市","address":"調布市布田6-61","lat":35.643711,"lon":139.548828},{"name":"調布市深大寺水車館","province":"東京都","city":"調布市","address":"調布市深大寺元町5-10-6","lat":35.667656,"lon":139.548325},{"name":"調布市武者小路実篤記念館","province":"東京都","city":"調布市","address":"調布市若葉町1-8-30","lat":35.65633,"lon":139.581268},{"name":"調布市文化会館たづくり","province":"東京都","city":"調布市","address":"調布市小島町2-33-1","lat":35.65147,"lon":139.541443},{"name":"(有)土井壜店","province":"東京都","city":"調布市","address":"調布市布田6-47-4","lat":35.644402,"lon":139.550827},{"name":"(有)金沢商店","province":"東京都","city":"調布市","address":"調布市多摩川2-4-1","lat":35.647549,"lon":139.524261},{"name":"滝沢三男也  滝沢商店","province":"東京都","city":"調布市","address":"調布市深大寺東町5-16-22","lat":35.672882,"lon":139.555649},{"name":"(有)加藤商店  本店","province":"東京都","city":"調布市","address":"調布市深大寺北町6-60-14","lat":35.680981,"lon":139.54805},{"name":"野川公園","province":"東京都","city":"調布市","address":"東京都調布市野水一・二丁目、小金井市東町一丁目、三鷹市大沢二・三・六丁目","lat":35.68334,"lon":139.525446},{"name":"西部公民館","province":"東京都","city":"調布市","address":"調布市上石原3-21-6","lat":35.653053,"lon":139.522293},{"name":"東部公民館","province":"東京都","city":"調布市","address":"調布市若葉町1-29-21","lat":35.657906,"lon":139.583282},{"name":"北部公民館","province":"東京都","city":"調布市","address":"調布市柴崎2-5-18","lat":35.661114,"lon":139.562866},{"name":"調布市青少年交流館","province":"東京都","city":"調布市","address":"調布市飛田給1-52-1","lat":35.66135,"lon":139.526062},{"name":"調布市立図書館宮の下分館","province":"東京都","city":"調布市","address":"調布市上石原3-34-10","lat":35.651505,"lon":139.524765},{"name":"調布市立図書館国領分館","province":"東京都","city":"調布市","address":"調布市国領町3-12-1","lat":35.650814,"lon":139.561234},{"name":"調布市立図書館佐須分館","province":"東京都","city":"調布市","address":"調布市佐須町4-42-2","lat":35.658699,"lon":139.556183},{"name":"調布市立図書館若葉分館","province":"東京都","city":"調布市","address":"調布市若葉町3-16-13","lat":35.654602,"lon":139.583679},{"name":"調布市立図書館深大寺分館","province":"東京都","city":"調布市","address":"調布市深大寺北町5-17-3","lat":35.678112,"lon":139.550369},{"name":"調布市立図書館神代分館","province":"東京都","city":"調布市","address":"調布市西つつじケ丘1-40-5","lat":35.660809,"lon":139.570038},{"name":"調布市立図書館染地分館","province":"東京都","city":"調布市","address":"調布市染地3-3-1","lat":35.639153,"lon":139.555283},{"name":"調布市立図書館調和分館","province":"東京都","city":"調布市","address":"調布市西つつじケ丘4-22-6","lat":35.651386,"lon":139.57373},{"name":"調布市立図書館富士見分館","province":"東京都","city":"調布市","address":"調布市富士見町2-3-26","lat":35.658424,"lon":139.539062},{"name":"調布市立図書館緑ケ丘分館","province":"東京都","city":"調布市","address":"調布市緑ケ丘2-25","lat":35.666611,"lon":139.582993},{"name":"調布市立中央図書館","province":"東京都","city":"調布市","address":"調布市小島町2-33-1","lat":35.65147,"lon":139.541443},{"name":"調布市郷土博物館","province":"東京都","city":"調布市","address":"調布市小島町3-26-2","lat":35.646938,"lon":139.535858},{"name":"調布市郷土博物館分室","province":"東京都","city":"調布市","address":"調布市布田6-61","lat":35.643711,"lon":139.548828},{"name":"調布市深大寺水車館","province":"東京都","city":"調布市","address":"調布市深大寺元町5-10-6","lat":35.667656,"lon":139.548325},{"name":"調布市武者小路実篤記念館","province":"東京都","city":"調布市","address":"調布市若葉町1-8-30","lat":35.65633,"lon":139.581268},{"name":"調布市文化会館たづくり","province":"東京都","city":"調布市","address":"調布市小島町2-33-1","lat":35.65147,"lon":139.541443},{"name":"(有)土井壜店","province":"東京都","city":"調布市","address":"調布市布田6-47-4","lat":35.644402,"lon":139.550827},{"name":"(有)金沢商店","province":"東京都","city":"調布市","address":"調布市多摩川2-4-1","lat":35.647549,"lon":139.524261},{"name":"滝沢三男也  滝沢商店","province":"東京都","city":"調布市","address":"調布市深大寺東町5-16-22","lat":35.672882,"lon":139.555649},{"name":"(有)加藤商店  本店","province":"東京都","city":"調布市","address":"調布市深大寺北町6-60-14","lat":35.680981,"lon":139.54805},{"name":"野川公園","province":"東京都","city":"調布市","address":"東京都調布市野水一・二丁目、小金井市東町一丁目、三鷹市大沢二・三・六丁目","lat":35.68334,"lon":139.525446},{"name":"西部公民館","province":"東京都","city":"調布市","address":"調布市上石原3-21-6","lat":35.653053,"lon":139.522293},{"name":"東部公民館","province":"東京都","city":"調布市","address":"調布市若葉町1-29-21","lat":35.657906,"lon":139.583282},{"name":"北部公民館","province":"東京都","city":"調布市","address":"調布市柴崎2-5-18","lat":35.661114,"lon":139.562866},{"name":"調布市青少年交流館","province":"東京都","city":"調布市","address":"調布市飛田給1-52-1","lat":35.66135,"lon":139.526062},{"name":"調布市立図書館宮の下分館","province":"東京都","city":"調布市","address":"調布市上石原3-34-10","lat":35.651505,"lon":139.524765},{"name":"調布市立図書館国領分館","province":"東京都","city":"調布市","address":"調布市国領町3-12-1","lat":35.650814,"lon":139.561234},{"name":"調布市立図書館佐須分館","province":"東京都","city":"調布市","address":"調布市佐須町4-42-2","lat":35.658699,"lon":139.556183},{"name":"調布市立図書館若葉分館","province":"東京都","city":"調布市","address":"調布市若葉町3-16-13","lat":35.654602,"lon":139.583679},{"name":"調布市立図書館深大寺分館","province":"東京都","city":"調布市","address":"調布市深大寺北町5-17-3","lat":35.678112,"lon":139.550369},{"name":"調布市立図書館神代分館","province":"東京都","city":"調布市","address":"調布市西つつじケ丘1-40-5","lat":35.660809,"lon":139.570038},{"name":"調布市立図書館染地分館","province":"東京都","city":"調布市","address":"調布市染地3-3-1","lat":35.639153,"lon":139.555283},{"name":"調布市立図書館調和分館","province":"東京都","city":"調布市","address":"調布市西つつじケ丘4-22-6","lat":35.651386,"lon":139.57373},{"name":"調布市立図書館富士見分館","province":"東京都","city":"調布市","address":"調布市富士見町2-3-26","lat":35.658424,"lon":139.539062},{"name":"調布市立図書館緑ケ丘分館","province":"東京都","city":"調布市","address":"調布市緑ケ丘2-25","lat":35.666611,"lon":139.582993},{"name":"調布市立中央図書館","province":"東京都","city":"調布市","address":"調布市小島町2-33-1","lat":35.65147,"lon":139.541443},{"name":"調布市郷土博物館","province":"東京都","city":"調布市","address":"調布市小島町3-26-2","lat":35.646938,"lon":139.535858},{"name":"調布市郷土博物館分室","province":"東京都","city":"調布市","address":"調布市布田6-61","lat":35.643711,"lon":139.548828},{"name":"調布市深大寺水車館","province":"東京都","city":"調布市","address":"調布市深大寺元町5-10-6","lat":35.667656,"lon":139.548325},{"name":"調布市武者小路実篤記念館","province":"東京都","city":"調布市","address":"調布市若葉町1-8-30","lat":35.65633,"lon":139.581268},{"name":"調布市文化会館たづくり","province":"東京都","city":"調布市","address":"調布市小島町2-33-1","lat":35.65147,"lon":139.541443},{"name":"(有)土井壜店","province":"東京都","city":"調布市","address":"調布市布田6-47-4","lat":35.644402,"lon":139.550827},{"name":"(有)金沢商店","province":"東京都","city":"調布市","address":"調布市多摩川2-4-1","lat":35.647549,"lon":139.524261},{"name":"滝沢三男也  滝沢商店","province":"東京都","city":"調布市","address":"調布市深大寺東町5-16-22","lat":35.672882,"lon":139.555649},{"name":"(有)加藤商店  本店","province":"東京都","city":"調布市","address":"調布市深大寺北町6-60-14","lat":35.680981,"lon":139.54805}]}