{"keyword":"一覧","data":[{"name":"調布市郷土博物館","province":"東京都","city":"調布市","address":"東京都調布市小島町3丁目26-2","lat":35.64689761,"lon":139.53619082},{"name":"調布市民西調布体育館","province":"東京都","city":"調布市","address":"東京都調布市上石原2丁目4-1","lat":35.65753445,"lon":139.5274851},{"name":"北部公民館","province":"東京都","city":"調布市","address":"東京都調布市柴崎2丁目5-18","lat":35.66157875,"lon":139.56272874},{"name":"神代植物公園","province":"東京都","city":"調布市","address":"東京都調布市深大寺北町1丁目4-6","lat":35.67326872,"lon":139.547663},{"name":"調布市総合体育館","province":"東京都","city":"調布市","address":"東京都調布市深大寺北町2丁目1-65","lat":35.67244946,"lon":139.55178487},{"name":"図書館深大寺分館","province":"東京都","city":"調布市","address":"東京都調布市深大寺北町5丁目17-3","lat":35.6780988,"lon":139.55037926},{"name":"神代植物公園","province":"東京都","city":"調布市","address":"東京都調布市深大寺元町5丁目31-10","lat":35.67232991,"lon":139.54589097},{"name":"神代出張所","province":"東京都","city":"調布市","address":"東京都調布市西つつじケ丘3丁目19-1","lat":35.65785165,"lon":139.57107542},{"name":"武蔵野の森総合スポーツプラザ","province":"東京都","city":"調布市","address":"東京都調布市西町290-11","lat":35.66494159,"lon":139.52389608},{"name":"調布市東部公民館","province":"東京都","city":"調布市","address":"東京都調布市若葉町1丁目29-21","lat":35.65819627,"lon":139.58298542}]}