{"keyword":"保育","data":[{"name":"緑ケ丘保育園","province":"東京都","city":"調布市","address":"調布市緑ヶ丘2-25","lat":35.66684,"lon":139.586732},{"name":"仙川ちとせ保育園","province":"東京都","city":"調布市","address":"調布市緑ヶ丘2-56-3","lat":35.665065,"lon":139.588157},{"name":"調布市立仙川保育園","province":"東京都","city":"調布市","address":"調布市仙川町1-21-5","lat":35.661449,"lon":139.586877},{"name":"アートチャイルドケア仙川","province":"東京都","city":"調布市","address":"調布市仙川町1丁目16番7号ライオンズマンション仙川2F","lat":35.661163,"lon":139.585152},{"name":"パイオニアキッズ第２仙川園","province":"東京都","city":"調布市","address":"調布市仙川町2-12-9","lat":35.662012,"lon":139.582394},{"name":"ブライト保育園調布仙川","province":"東京都","city":"調布市","address":"調布市仙川町3-17-6","lat":35.665001,"lon":139.587476},{"name":"調布市立東部保育園","province":"東京都","city":"調布市","address":"調布市若葉町1-29-21","lat":35.658196,"lon":139.582985},{"name":"パイオニアキッズ仙川園","province":"東京都","city":"調布市","address":"調布市若葉町1-27-31","lat":35.659316,"lon":139.582924},{"name":"パイオニアキッズつつじヶ丘園","province":"東京都","city":"調布市","address":"調布市東つつじヶ丘2-4-4","lat":35.656691,"lon":139.576553},{"name":"つつじヶ丘どろんこ保育園","province":"東京都","city":"調布市","address":"調布市東つつじヶ丘1-6-25","lat":35.659935,"lon":139.577116},{"name":"調布市立金子保育園","province":"東京都","city":"調布市","address":"調布市西つつじヶ丘4-16-7","lat":35.655352,"lon":139.57342},{"name":"調布市立神代保育園","province":"東京都","city":"調布市","address":"調布市西つつじヶ丘1-40-5","lat":35.660748,"lon":139.570012},{"name":"ポピンズナーサリースクール調布保育園","province":"東京都","city":"調布市","address":"調布市西つつじヶ丘エストライフつつじヶ丘一番館2F","lat":35.650615,"lon":139.540694},{"name":"ピノキオ幼児舎つつじヶ丘保育園","province":"東京都","city":"調布市","address":"調布市西つつじヶ丘3-30-1ハイツ鹿嶋1階","lat":35.658963,"lon":139.573447},{"name":"太陽の子つつじヶ丘保育園","province":"東京都","city":"調布市","address":"調布市西つつじヶ丘4-29-1","lat":35.655327,"lon":139.575183},{"name":"リトルキッズスター","province":"東京都","city":"調布市","address":"調布市西つつじヶ丘4-16-8","lat":35.655246,"lon":139.573261},{"name":"パイオニアキッズ菊野台園","province":"東京都","city":"調布市","address":"調布市菊野台3-26-17","lat":35.653438,"lon":139.571692},{"name":"リトルキッズ","province":"東京都","city":"調布市","address":"調布市菊野台3-21-16","lat":35.655371,"lon":139.572467},{"name":"菊野台かしのみ保育園","province":"東京都","city":"調布市","address":"調布市菊野台1-34-18","lat":35.657274,"lon":139.56717},{"name":"パイオニアキッズ柴崎園","province":"東京都","city":"調布市","address":"調布市菊野台2-23-5サニーアイランドビル2階","lat":35.653602,"lon":139.568301},{"name":"調布市立深大寺保育園","province":"東京都","city":"調布市","address":"調布市深大寺北町3-31-8","lat":35.676882,"lon":139.550913},{"name":"うぃず調布深大寺保育園","province":"東京都","city":"調布市","address":"調布市深大寺東町5-34-3","lat":35.676555,"lon":139.554387},{"name":"深大寺東町ちとせ保育園","province":"東京都","city":"調布市","address":"調布市深大寺東町1-14-1","lat":35.669794,"lon":139.558729},{"name":"調布城山保育園","province":"東京都","city":"調布市","address":"調布市深大寺南町3-17-35","lat":35.663451,"lon":139.562265},{"name":"ぽけっとランド深大寺保育園","province":"東京都","city":"調布市","address":"調布市深大寺南町4-9-1","lat":35.665081,"lon":139.553102},{"name":"調布上ノ原保育園","province":"東京都","city":"調布市","address":"調布市柴崎2-24-4","lat":35.663292,"lon":139.564592},{"name":"にじいろ保育園柴崎","province":"東京都","city":"調布市","address":"調布市柴崎1-2-1","lat":35.653933,"lon":139.563062},{"name":"八雲台保育園","province":"東京都","city":"調布市","address":"調布市八雲台1-32-1","lat":35.655865,"lon":139.553241},{"name":"オリンピア保育園","province":"東京都","city":"調布市","address":"調布市佐須町3-1-5","lat":35.65691,"lon":139.552149},{"name":"調布もみじの森保育園","province":"東京都","city":"調布市","address":"調布市佐須町4-11-2","lat":35.656801,"lon":139.558254},{"name":"深大寺元町ちとせ保育園","province":"東京都","city":"調布市","address":"調布市深大寺元町1-10-8","lat":35.662587,"lon":139.546822},{"name":"調布市立上布田保育園","province":"東京都","city":"調布市","address":"調布市調布ケ丘1-20-1","lat":35.65609,"lon":139.545983},{"name":"調布ヶ丘ちとせ保育園","province":"東京都","city":"調布市","address":"調布市調布ヶ丘3丁目7番7号","lat":35.657412,"lon":139.548755},{"name":"調布エンジェル保育園","province":"東京都","city":"調布市","address":"調布市調布ヶ丘1-23-1","lat":35.654938,"lon":139.545989},{"name":"調布市立第五保育園","province":"東京都","city":"調布市","address":"調布市国領町3-12-1","lat":35.650877,"lon":139.560163},{"name":"二葉くすのき保育園","province":"東京都","city":"調布市","address":"調布市国領町3-8-151号棟","lat":35.648614,"lon":139.560591},{"name":"みゆき保育園","province":"東京都","city":"調布市","address":"調布市国領町8-1-356号棟","lat":35.647608,"lon":139.563107},{"name":"ときわぎ国領保育園","province":"東京都","city":"調布市","address":"調布市国領町8-2-65","lat":35.646261,"lon":139.564732},{"name":"調布クオレ保育園","province":"東京都","city":"調布市","address":"調布市国領町4-13-42","lat":35.648053,"lon":139.556686},{"name":"東京ＹＷＣＡまきば保育園","province":"東京都","city":"調布市","address":"調布市国領町7-11-1","lat":35.644015,"lon":139.557678},{"name":"ココファン・ナーサリー国領","province":"東京都","city":"調布市","address":"調布市国領町7-17-3","lat":35.64462,"lon":139.558775},{"name":"京王キッズプラッツ国領","province":"東京都","city":"調布市","address":"調布市国領町2丁目17番3号","lat":35.651369,"lon":139.55991},{"name":"レオ保育園","province":"東京都","city":"調布市","address":"調布市染地2-8-30","lat":35.641185,"lon":139.552276},{"name":"調布市立下布田保育園","province":"東京都","city":"調布市","address":"調布市布田2-27-4","lat":35.653035,"lon":139.548161},{"name":"エンゼルランド","province":"東京都","city":"調布市","address":"調布市布田6-23-8","lat":35.6468,"lon":139.547484},{"name":"エンゼルシー","province":"東京都","city":"調布市","address":"調布市布田3-21-2","lat":35.647217,"lon":139.548223},{"name":"小学館アカデミーちょうふ保育園","province":"東京都","city":"調布市","address":"調布市布田4-25-8","lat":35.648717,"lon":139.544806},{"name":"グローバルキッズ調布園","province":"東京都","city":"調布市","address":"調布市布田5-17-6","lat":35.646736,"lon":139.543451},{"name":"ちょうふのぞみ保育園","province":"東京都","city":"調布市","address":"調布市布田4-5-34","lat":35.651135,"lon":139.545759},{"name":"調布なないろ保育園","province":"東京都","city":"調布市","address":"調布市多摩川1-15-2","lat":35.650466,"lon":139.528011},{"name":"ヒューマンアカデミー調布多摩川保育園","province":"東京都","city":"調布市","address":"調布市多摩川3丁目8番2号","lat":35.648039,"lon":139.533069},{"name":"調布市立ひまわり保育園","province":"東京都","city":"調布市","address":"調布市小島町2-53-5","lat":35.649653,"lon":139.542762},{"name":"皐月保育園","province":"東京都","city":"調布市","address":"調布市小島町2-20-3","lat":35.651177,"lon":139.539326},{"name":"双葉保育園","province":"東京都","city":"調布市","address":"調布市小島町3-28-1","lat":35.646817,"lon":139.536844},{"name":"みずべの保育園","province":"東京都","city":"調布市","address":"調布市小島町3丁目49番15号","lat":35.645761,"lon":139.538321},{"name":"レイモンド調布保育園","province":"東京都","city":"調布市","address":"調布市小島町3丁目16番8号","lat":35.649753,"lon":139.538699},{"name":"調布市立富士見保育園","province":"東京都","city":"調布市","address":"調布市富士見町2-3-26","lat":35.658454,"lon":139.539409},{"name":"保恵学園保育所","province":"東京都","city":"調布市","address":"調布市富士見町3-1","lat":35.662764,"lon":139.53667},{"name":"こんぺいとう保育園","province":"東京都","city":"調布市","address":"調布市富士見町1-39-54","lat":35.66087,"lon":139.537434},{"name":"しきの森保育園","province":"東京都","city":"調布市","address":"調布市下石原2-54-1","lat":35.653985,"lon":139.536979},{"name":"調布市立上石原保育園","province":"東京都","city":"調布市","address":"調布市上石原2-8-3","lat":35.656671,"lon":139.527141},{"name":"調布市立宮の下保育園","province":"東京都","city":"調布市","address":"調布市上石原3-34-10","lat":35.651483,"lon":139.524664},{"name":"子供の家こすずめ保育園","province":"東京都","city":"調布市","address":"調布市上石原1-20-16","lat":35.659312,"lon":139.529932},{"name":"城山保育園上石原","province":"東京都","city":"調布市","address":"調布市上石原3-8-10","lat":35.653516,"lon":139.526238},{"name":"ヒューマンアカデミー上石原保育園","province":"東京都","city":"調布市","address":"調布市上石原3-21-3","lat":35.653157,"lon":139.522453}]}