{"keyword":"包括","data":[{"name":"地域包括支援センター　つつじケ丘","province":"東京都","city":"調布市","address":"東京都調布市東つつじケ丘1丁目5-2","lat":35.65966264,"lon":139.57605267},{"name":"地域包括支援センター　仙川","province":"東京都","city":"調布市","address":"東京都調布市若葉町2丁目22-2","lat":35.65607722,"lon":139.58863778},{"name":"地域包括支援センター　至誠しばさき","province":"東京都","city":"調布市","address":"東京都調布市柴崎1丁目6-8","lat":35.65465466,"lon":139.56391507},{"name":"地域包括支援センター　はなみずき","province":"東京都","city":"調布市","address":"東京都調布市深大寺北町4丁目17-7","lat":35.67945701,"lon":139.55199852},{"name":"地域包括支援センター　ゆうあいサブセンター","province":"東京都","city":"調布市","address":"東京都調布市八雲台1丁目22-1","lat":35.65435444,"lon":139.55306875},{"name":"地域包括支援センター　ちょうふ花園","province":"東京都","city":"調布市","address":"東京都調布市小島町2丁目45-22","lat":35.65048844,"lon":139.54219245},{"name":"地域包括支援センター　ちょうふの里","province":"東京都","city":"調布市","address":"東京都調布市西町290-5","lat":35.66764677,"lon":139.52306547},{"name":"地域包括支援センター　ちょうふの里サブセンター","province":"東京都","city":"調布市","address":"東京都調布市上石原3丁目54-2","lat":35.65003018,"lon":139.52506096}]}