{"keyword":"収蔵","data":[{"name":"調布基地跡地運動広場及び大沢総合グラウンド一部","province":"東京都","city":"調布市","address":"東京都調布市西町","lat":35.66389176,"lon":139.5250488},{"name":"都立神代植物公園周辺及び自由広場","province":"東京都","city":"調布市","address":"東京都調布市深大寺元町5丁目31-10","lat":35.67232991,"lon":139.54589097},{"name":"多摩川河川敷（第１区）周辺（府中市境～多摩川原橋）","province":"東京都","city":"調布市","address":"東京都調布市多摩川2丁目7","lat":35.64668361,"lon":139.52516685},{"name":"多摩川河川敷（第２区）周辺（多摩川原橋～二ヶ領堰）","province":"東京都","city":"調布市","address":"東京都調布市多摩川5丁目32","lat":35.64222084,"lon":139.5374996},{"name":"多摩川河川敷（第３区）周辺（二ヶ領堰～狛江市境）","province":"東京都","city":"調布市","address":"東京都調布市染地2丁目51","lat":35.63780777,"lon":139.55282904},{"name":"市立調和小学校周辺","province":"東京都","city":"調布市","address":"東京都調布市菊野台3丁目27-40","lat":35.65252451,"lon":139.5724838},{"name":"市立神代中学校・上ノ原小学校周辺","province":"東京都","city":"調布市","address":"東京都調布市佐須町5丁目26-1","lat":35.66162316,"lon":139.5616816},{"name":"市立緑ケ丘小学校周辺","province":"東京都","city":"調布市","address":"東京都調布市緑ケ丘2丁目16-1","lat":35.66996995,"lon":139.58474318},{"name":"ＮＴＴ中央研修センター","province":"東京都","city":"調布市","address":"東京都調布市入間町2丁目","lat":35.64862239,"lon":139.58154701},{"name":"市立第４中学校・若葉小学校周辺","province":"東京都","city":"調布市","address":"東京都調布市若葉町3丁目15-1","lat":35.65392455,"lon":139.58283002},{"name":"上石原配水所","province":"東京都","city":"調布市","address":"東京都調布市上石原1-34-7","lat":35.661306,"lon":139.531746},{"name":"仙川配水所","province":"東京都","city":"調布市","address":"東京都調布市仙川町3-6-27","lat":35.665028,"lon":139.585263},{"name":"深大寺給水所","province":"東京都","city":"調布市","address":"東京都調布市深大寺南町5-56-1","lat":35.6693259,"lon":139.555504},{"name":"調布西町給水所","province":"東京都","city":"調布市","address":"東京都調布市西町717","lat":35.66183,"lon":139.531668},{"name":"上石原浄水所","province":"東京都","city":"調布市","address":"東京都調布市上石原1丁目34-7","lat":35.66130335,"lon":139.53174555},{"name":"深大寺浄水所","province":"東京都","city":"調布市","address":"東京都調布市深大寺南町5丁目56-1","lat":35.66896104,"lon":139.55556797},{"name":"調布市立調布市民野球場","province":"東京都","city":"調布市","address":"東京都調布市染地2丁目43-1","lat":35.64025186,"lon":139.54681004},{"name":"調布市立調布中学校校庭","province":"東京都","city":"調布市","address":"東京都調布市富士見町4丁目17-1","lat":35.66535009,"lon":139.53516172},{"name":"調布市立第八中学校校庭","province":"東京都","city":"調布市","address":"東京都調布市仙川町2丁目15-2","lat":35.66445108,"lon":139.58169365},{"name":"調布市立第四中学校校庭","province":"東京都","city":"調布市","address":"東京都調布市若葉町3丁目15-1","lat":35.65392455,"lon":139.58283002},{"name":"調布市立第三中学校校庭","province":"東京都","city":"調布市","address":"東京都調布市染地3丁目2-7","lat":35.6414069,"lon":139.55643366},{"name":"調布市立神代中学校校庭","province":"東京都","city":"調布市","address":"東京都調布市佐須町5丁目26-1","lat":35.66162316,"lon":139.5616816},{"name":"調布市立布田小学校校庭","province":"東京都","city":"調布市","address":"東京都調布市染地1丁目1-85","lat":35.64330667,"lon":139.54542083},{"name":"調布市立第三小学校校庭","province":"東京都","city":"調布市","address":"東京都調布市上石原2丁目19-13","lat":35.65473491,"lon":139.52783806},{"name":"調布市立北ノ台小学校校庭","province":"東京都","city":"調布市","address":"東京都調布市深大寺北町2丁目41-1","lat":35.67543247,"lon":139.55284301},{"name":"神代植物公園","province":"東京都","city":"調布市","address":"東京都調布市深大寺元町5丁目","lat":35.66837758,"lon":139.54571333},{"name":"大町スポーツ施設大運動場","province":"東京都","city":"調布市","address":"東京都調布市菊野台3丁目27-40","lat":35.65252451,"lon":139.5724838},{"name":"＊?東部公民館","province":"東京都","city":"調布市","address":"調布市若葉町1-29-21","lat":35.658248,"lon":139.582821},{"name":"＊?西部公民館","province":"東京都","city":"調布市","address":"調布市上石原3-21-6","lat":35.652956,"lon":139.522212},{"name":"＊?北部公民館","province":"東京都","city":"調布市","address":"調布市柴崎2-5-18","lat":35.661597,"lon":139.562758},{"name":"東京都調布飛行場","province":"東京都","city":"調布市","address":"東京都調布市西町290-3","lat":35.66754795,"lon":139.52569635},{"name":"調布基地跡地運動広場及び大沢総合グラウンド一部","province":"東京都","city":"調布市","address":"東京都調布市西町","lat":35.66389176,"lon":139.5250488},{"name":"都立神代植物公園周辺及び自由広場","province":"東京都","city":"調布市","address":"東京都調布市深大寺元町5丁目31-10","lat":35.67232991,"lon":139.54589097},{"name":"多摩川河川敷（第１区）周辺（府中市境～多摩川原橋）","province":"東京都","city":"調布市","address":"東京都調布市多摩川2丁目7","lat":35.64668361,"lon":139.52516685},{"name":"多摩川河川敷（第２区）周辺（多摩川原橋～二ヶ領堰）","province":"東京都","city":"調布市","address":"東京都調布市多摩川5丁目32","lat":35.64222084,"lon":139.5374996},{"name":"多摩川河川敷（第３区）周辺（二ヶ領堰～狛江市境）","province":"東京都","city":"調布市","address":"東京都調布市染地2丁目51","lat":35.63780777,"lon":139.55282904},{"name":"市立調和小学校周辺","province":"東京都","city":"調布市","address":"東京都調布市菊野台3丁目27-40","lat":35.65252451,"lon":139.5724838},{"name":"市立神代中学校・上ノ原小学校周辺","province":"東京都","city":"調布市","address":"東京都調布市佐須町5丁目26-1","lat":35.66162316,"lon":139.5616816},{"name":"市立緑ケ丘小学校周辺","province":"東京都","city":"調布市","address":"東京都調布市緑ケ丘2丁目16-1","lat":35.66996995,"lon":139.58474318},{"name":"ＮＴＴ中央研修センター","province":"東京都","city":"調布市","address":"東京都調布市入間町2丁目","lat":35.64862239,"lon":139.58154701},{"name":"市立第４中学校・若葉小学校周辺","province":"東京都","city":"調布市","address":"東京都調布市若葉町3丁目15-1","lat":35.65392455,"lon":139.58283002},{"name":"上石原配水所","province":"東京都","city":"調布市","address":"東京都調布市上石原1-34-7","lat":35.661306,"lon":139.531746},{"name":"仙川配水所","province":"東京都","city":"調布市","address":"東京都調布市仙川町3-6-27","lat":35.665028,"lon":139.585263},{"name":"深大寺給水所","province":"東京都","city":"調布市","address":"東京都調布市深大寺南町5-56-1","lat":35.6693259,"lon":139.555504},{"name":"調布西町給水所","province":"東京都","city":"調布市","address":"東京都調布市西町717","lat":35.66183,"lon":139.531668},{"name":"上石原浄水所","province":"東京都","city":"調布市","address":"東京都調布市上石原1丁目34-7","lat":35.66130335,"lon":139.53174555},{"name":"深大寺浄水所","province":"東京都","city":"調布市","address":"東京都調布市深大寺南町5丁目56-1","lat":35.66896104,"lon":139.55556797},{"name":"調布市立調布市民野球場","province":"東京都","city":"調布市","address":"東京都調布市染地2丁目43-1","lat":35.64025186,"lon":139.54681004},{"name":"調布市立調布中学校校庭","province":"東京都","city":"調布市","address":"東京都調布市富士見町4丁目17-1","lat":35.66535009,"lon":139.53516172},{"name":"調布市立第八中学校校庭","province":"東京都","city":"調布市","address":"東京都調布市仙川町2丁目15-2","lat":35.66445108,"lon":139.58169365},{"name":"調布市立第四中学校校庭","province":"東京都","city":"調布市","address":"東京都調布市若葉町3丁目15-1","lat":35.65392455,"lon":139.58283002},{"name":"調布市立第三中学校校庭","province":"東京都","city":"調布市","address":"東京都調布市染地3丁目2-7","lat":35.6414069,"lon":139.55643366},{"name":"調布市立神代中学校校庭","province":"東京都","city":"調布市","address":"東京都調布市佐須町5丁目26-1","lat":35.66162316,"lon":139.5616816},{"name":"調布市立布田小学校校庭","province":"東京都","city":"調布市","address":"東京都調布市染地1丁目1-85","lat":35.64330667,"lon":139.54542083},{"name":"調布市立第三小学校校庭","province":"東京都","city":"調布市","address":"東京都調布市上石原2丁目19-13","lat":35.65473491,"lon":139.52783806},{"name":"調布市立北ノ台小学校校庭","province":"東京都","city":"調布市","address":"東京都調布市深大寺北町2丁目41-1","lat":35.67543247,"lon":139.55284301},{"name":"神代植物公園","province":"東京都","city":"調布市","address":"東京都調布市深大寺元町5丁目","lat":35.66837758,"lon":139.54571333},{"name":"大町スポーツ施設大運動場","province":"東京都","city":"調布市","address":"東京都調布市菊野台3丁目27-40","lat":35.65252451,"lon":139.5724838},{"name":"＊?東部公民館","province":"東京都","city":"調布市","address":"調布市若葉町1-29-21","lat":35.658248,"lon":139.582821},{"name":"＊?西部公民館","province":"東京都","city":"調布市","address":"調布市上石原3-21-6","lat":35.652956,"lon":139.522212},{"name":"＊?北部公民館","province":"東京都","city":"調布市","address":"調布市柴崎2-5-18","lat":35.661597,"lon":139.562758},{"name":"調布基地跡地運動広場及び大沢総合グラウンド一部","province":"東京都","city":"調布市","address":"東京都調布市西町","lat":35.66389176,"lon":139.5250488},{"name":"都立神代植物公園周辺及び自由広場","province":"東京都","city":"調布市","address":"東京都調布市深大寺元町5丁目31-10","lat":35.67232991,"lon":139.54589097},{"name":"多摩川河川敷（第１区）周辺（府中市境～多摩川原橋）","province":"東京都","city":"調布市","address":"東京都調布市多摩川2丁目7","lat":35.64668361,"lon":139.52516685},{"name":"多摩川河川敷（第２区）周辺（多摩川原橋～二ヶ領堰）","province":"東京都","city":"調布市","address":"東京都調布市多摩川5丁目32","lat":35.64222084,"lon":139.5374996},{"name":"多摩川河川敷（第３区）周辺（二ヶ領堰～狛江市境）","province":"東京都","city":"調布市","address":"東京都調布市染地2丁目51","lat":35.63780777,"lon":139.55282904},{"name":"市立調和小学校周辺","province":"東京都","city":"調布市","address":"東京都調布市菊野台3丁目27-40","lat":35.65252451,"lon":139.5724838},{"name":"市立神代中学校・上ノ原小学校周辺","province":"東京都","city":"調布市","address":"東京都調布市佐須町5丁目26-1","lat":35.66162316,"lon":139.5616816},{"name":"市立緑ケ丘小学校周辺","province":"東京都","city":"調布市","address":"東京都調布市緑ケ丘2丁目16-1","lat":35.66996995,"lon":139.58474318},{"name":"ＮＴＴ中央研修センター","province":"東京都","city":"調布市","address":"東京都調布市入間町2丁目","lat":35.64862239,"lon":139.58154701},{"name":"市立第４中学校・若葉小学校周辺","province":"東京都","city":"調布市","address":"東京都調布市若葉町3丁目15-1","lat":35.65392455,"lon":139.58283002},{"name":"上石原配水所","province":"東京都","city":"調布市","address":"東京都調布市上石原1-34-7","lat":35.661306,"lon":139.531746},{"name":"仙川配水所","province":"東京都","city":"調布市","address":"東京都調布市仙川町3-6-27","lat":35.665028,"lon":139.585263},{"name":"深大寺給水所","province":"東京都","city":"調布市","address":"東京都調布市深大寺南町5-56-1","lat":35.6693259,"lon":139.555504},{"name":"調布西町給水所","province":"東京都","city":"調布市","address":"東京都調布市西町717","lat":35.66183,"lon":139.531668},{"name":"上石原浄水所","province":"東京都","city":"調布市","address":"東京都調布市上石原1丁目34-7","lat":35.66130335,"lon":139.53174555},{"name":"深大寺浄水所","province":"東京都","city":"調布市","address":"東京都調布市深大寺南町5丁目56-1","lat":35.66896104,"lon":139.55556797},{"name":"調布市立調布市民野球場","province":"東京都","city":"調布市","address":"東京都調布市染地2丁目43-1","lat":35.64025186,"lon":139.54681004},{"name":"調布市立調布中学校校庭","province":"東京都","city":"調布市","address":"東京都調布市富士見町4丁目17-1","lat":35.66535009,"lon":139.53516172},{"name":"調布市立第八中学校校庭","province":"東京都","city":"調布市","address":"東京都調布市仙川町2丁目15-2","lat":35.66445108,"lon":139.58169365},{"name":"調布市立第四中学校校庭","province":"東京都","city":"調布市","address":"東京都調布市若葉町3丁目15-1","lat":35.65392455,"lon":139.58283002},{"name":"調布市立第三中学校校庭","province":"東京都","city":"調布市","address":"東京都調布市染地3丁目2-7","lat":35.6414069,"lon":139.55643366},{"name":"調布市立神代中学校校庭","province":"東京都","city":"調布市","address":"東京都調布市佐須町5丁目26-1","lat":35.66162316,"lon":139.5616816},{"name":"調布市立布田小学校校庭","province":"東京都","city":"調布市","address":"東京都調布市染地1丁目1-85","lat":35.64330667,"lon":139.54542083},{"name":"調布市立第三小学校校庭","province":"東京都","city":"調布市","address":"東京都調布市上石原2丁目19-13","lat":35.65473491,"lon":139.52783806},{"name":"調布市立北ノ台小学校校庭","province":"東京都","city":"調布市","address":"東京都調布市深大寺北町2丁目41-1","lat":35.67543247,"lon":139.55284301},{"name":"神代植物公園","province":"東京都","city":"調布市","address":"東京都調布市深大寺元町5丁目","lat":35.66837758,"lon":139.54571333},{"name":"大町スポーツ施設大運動場","province":"東京都","city":"調布市","address":"東京都調布市菊野台3丁目27-40","lat":35.65252451,"lon":139.5724838},{"name":"＊?東部公民館","province":"東京都","city":"調布市","address":"調布市若葉町1-29-21","lat":35.658248,"lon":139.582821},{"name":"＊?西部公民館","province":"東京都","city":"調布市","address":"調布市上石原3-21-6","lat":35.652956,"lon":139.522212},{"name":"＊?北部公民館","province":"東京都","city":"調布市","address":"調布市柴崎2-5-18","lat":35.661597,"lon":139.562758},{"name":"調布基地跡地運動広場及び大沢総合グラウンド一部","province":"東京都","city":"調布市","address":"東京都調布市西町","lat":35.66389176,"lon":139.5250488},{"name":"都立神代植物公園周辺及び自由広場","province":"東京都","city":"調布市","address":"東京都調布市深大寺元町5丁目31-10","lat":35.67232991,"lon":139.54589097},{"name":"多摩川河川敷（第１区）周辺（府中市境～多摩川原橋）","province":"東京都","city":"調布市","address":"東京都調布市多摩川2丁目7","lat":35.64668361,"lon":139.52516685},{"name":"多摩川河川敷（第２区）周辺（多摩川原橋～二ヶ領堰）","province":"東京都","city":"調布市","address":"東京都調布市多摩川5丁目32","lat":35.64222084,"lon":139.5374996},{"name":"多摩川河川敷（第３区）周辺（二ヶ領堰～狛江市境）","province":"東京都","city":"調布市","address":"東京都調布市染地2丁目51","lat":35.63780777,"lon":139.55282904},{"name":"市立調和小学校周辺","province":"東京都","city":"調布市","address":"東京都調布市菊野台3丁目27-40","lat":35.65252451,"lon":139.5724838},{"name":"市立神代中学校・上ノ原小学校周辺","province":"東京都","city":"調布市","address":"東京都調布市佐須町5丁目26-1","lat":35.66162316,"lon":139.5616816},{"name":"市立緑ケ丘小学校周辺","province":"東京都","city":"調布市","address":"東京都調布市緑ケ丘2丁目16-1","lat":35.66996995,"lon":139.58474318},{"name":"ＮＴＴ中央研修センター","province":"東京都","city":"調布市","address":"東京都調布市入間町2丁目","lat":35.64862239,"lon":139.58154701},{"name":"市立第４中学校・若葉小学校周辺","province":"東京都","city":"調布市","address":"東京都調布市若葉町3丁目15-1","lat":35.65392455,"lon":139.58283002},{"name":"上石原配水所","province":"東京都","city":"調布市","address":"東京都調布市上石原1-34-7","lat":35.661306,"lon":139.531746},{"name":"仙川配水所","province":"東京都","city":"調布市","address":"東京都調布市仙川町3-6-27","lat":35.665028,"lon":139.585263},{"name":"深大寺給水所","province":"東京都","city":"調布市","address":"東京都調布市深大寺南町5-56-1","lat":35.6693259,"lon":139.555504},{"name":"調布西町給水所","province":"東京都","city":"調布市","address":"東京都調布市西町717","lat":35.66183,"lon":139.531668},{"name":"調布市立調布市民野球場","province":"東京都","city":"調布市","address":"東京都調布市染地2丁目43-1","lat":35.64025186,"lon":139.54681004},{"name":"調布市立調布中学校校庭","province":"東京都","city":"調布市","address":"東京都調布市富士見町4丁目17-1","lat":35.66535009,"lon":139.53516172},{"name":"調布市立第八中学校校庭","province":"東京都","city":"調布市","address":"東京都調布市仙川町2丁目15-2","lat":35.66445108,"lon":139.58169365},{"name":"調布市立第四中学校校庭","province":"東京都","city":"調布市","address":"東京都調布市若葉町3丁目15-1","lat":35.65392455,"lon":139.58283002},{"name":"調布市立第三中学校校庭","province":"東京都","city":"調布市","address":"東京都調布市染地3丁目2-7","lat":35.6414069,"lon":139.55643366},{"name":"調布市立神代中学校校庭","province":"東京都","city":"調布市","address":"東京都調布市佐須町5丁目26-1","lat":35.66162316,"lon":139.5616816},{"name":"調布市立布田小学校校庭","province":"東京都","city":"調布市","address":"東京都調布市染地1丁目1-85","lat":35.64330667,"lon":139.54542083},{"name":"調布市立第三小学校校庭","province":"東京都","city":"調布市","address":"東京都調布市上石原2丁目19-13","lat":35.65473491,"lon":139.52783806},{"name":"調布市立北ノ台小学校校庭","province":"東京都","city":"調布市","address":"東京都調布市深大寺北町2丁目41-1","lat":35.67543247,"lon":139.55284301},{"name":"神代植物公園","province":"東京都","city":"調布市","address":"東京都調布市深大寺元町5丁目","lat":35.66837758,"lon":139.54571333},{"name":"大町スポーツ施設大運動場","province":"東京都","city":"調布市","address":"東京都調布市菊野台3丁目27-40","lat":35.65252451,"lon":139.5724838},{"name":"＊?東部公民館","province":"東京都","city":"調布市","address":"調布市若葉町1-29-21","lat":35.658248,"lon":139.582821},{"name":"＊?西部公民館","province":"東京都","city":"調布市","address":"調布市上石原3-21-6","lat":35.652956,"lon":139.522212},{"name":"＊?北部公民館","province":"東京都","city":"調布市","address":"調布市柴崎2-5-18","lat":35.661597,"lon":139.562758},{"name":"調布基地跡地運動広場及び大沢総合グラウンド一部","province":"東京都","city":"調布市","address":"東京都調布市西町","lat":35.66389176,"lon":139.5250488},{"name":"都立神代植物公園周辺及び自由広場","province":"東京都","city":"調布市","address":"東京都調布市深大寺元町5丁目31-10","lat":35.67232991,"lon":139.54589097},{"name":"多摩川河川敷（第１区）周辺（府中市境～多摩川原橋）","province":"東京都","city":"調布市","address":"東京都調布市多摩川2丁目7","lat":35.64668361,"lon":139.52516685},{"name":"多摩川河川敷（第２区）周辺（多摩川原橋～二ヶ領堰）","province":"東京都","city":"調布市","address":"東京都調布市多摩川5丁目32","lat":35.64222084,"lon":139.5374996},{"name":"多摩川河川敷（第３区）周辺（二ヶ領堰～狛江市境）","province":"東京都","city":"調布市","address":"東京都調布市染地2丁目51","lat":35.63780777,"lon":139.55282904},{"name":"市立調和小学校周辺","province":"東京都","city":"調布市","address":"東京都調布市菊野台3丁目27-40","lat":35.65252451,"lon":139.5724838},{"name":"市立神代中学校・上ノ原小学校周辺","province":"東京都","city":"調布市","address":"東京都調布市佐須町5丁目26-1","lat":35.66162316,"lon":139.5616816},{"name":"市立緑ケ丘小学校周辺","province":"東京都","city":"調布市","address":"東京都調布市緑ケ丘2丁目16-1","lat":35.66996995,"lon":139.58474318},{"name":"ＮＴＴ中央研修センター","province":"東京都","city":"調布市","address":"東京都調布市入間町2丁目","lat":35.64862239,"lon":139.58154701},{"name":"市立第４中学校・若葉小学校周辺","province":"東京都","city":"調布市","address":"東京都調布市若葉町3丁目15-1","lat":35.65392455,"lon":139.58283002},{"name":"上石原配水所","province":"東京都","city":"調布市","address":"東京都調布市上石原1-34-7","lat":35.661306,"lon":139.531746},{"name":"仙川配水所","province":"東京都","city":"調布市","address":"東京都調布市仙川町3-6-27","lat":35.665028,"lon":139.585263},{"name":"深大寺給水所","province":"東京都","city":"調布市","address":"東京都調布市深大寺南町5-56-1","lat":35.6693259,"lon":139.555504},{"name":"調布西町給水所","province":"東京都","city":"調布市","address":"東京都調布市西町717","lat":35.66183,"lon":139.531668},{"name":"＊?東部公民館","province":"東京都","city":"調布市","address":"調布市若葉町1-29-21","lat":35.658248,"lon":139.582821},{"name":"＊?西部公民館","province":"東京都","city":"調布市","address":"調布市上石原3-21-6","lat":35.652956,"lon":139.522212},{"name":"＊?北部公民館","province":"東京都","city":"調布市","address":"調布市柴崎2-5-18","lat":35.661597,"lon":139.562758},{"name":"調布基地跡地運動広場及び大沢総合グラウンド一部","province":"東京都","city":"調布市","address":"東京都調布市西町","lat":35.66389176,"lon":139.5250488},{"name":"都立神代植物公園周辺及び自由広場","province":"東京都","city":"調布市","address":"東京都調布市深大寺元町5丁目31-10","lat":35.67232991,"lon":139.54589097},{"name":"多摩川河川敷（第１区）周辺（府中市境～多摩川原橋）","province":"東京都","city":"調布市","address":"東京都調布市多摩川2丁目7","lat":35.64668361,"lon":139.52516685},{"name":"多摩川河川敷（第２区）周辺（多摩川原橋～二ヶ領堰）","province":"東京都","city":"調布市","address":"東京都調布市多摩川5丁目32","lat":35.64222084,"lon":139.5374996},{"name":"多摩川河川敷（第３区）周辺（二ヶ領堰～狛江市境）","province":"東京都","city":"調布市","address":"東京都調布市染地2丁目51","lat":35.63780777,"lon":139.55282904},{"name":"市立調和小学校周辺","province":"東京都","city":"調布市","address":"東京都調布市菊野台3丁目27-40","lat":35.65252451,"lon":139.5724838},{"name":"市立神代中学校・上ノ原小学校周辺","province":"東京都","city":"調布市","address":"東京都調布市佐須町5丁目26-1","lat":35.66162316,"lon":139.5616816},{"name":"市立緑ケ丘小学校周辺","province":"東京都","city":"調布市","address":"東京都調布市緑ケ丘2丁目16-1","lat":35.66996995,"lon":139.58474318},{"name":"ＮＴＴ中央研修センター","province":"東京都","city":"調布市","address":"東京都調布市入間町2丁目","lat":35.64862239,"lon":139.58154701},{"name":"市立第４中学校・若葉小学校周辺","province":"東京都","city":"調布市","address":"東京都調布市若葉町3丁目15-1","lat":35.65392455,"lon":139.58283002},{"name":"上石原配水所","province":"東京都","city":"調布市","address":"東京都調布市上石原1-34-7","lat":35.661306,"lon":139.531746},{"name":"仙川配水所","province":"東京都","city":"調布市","address":"東京都調布市仙川町3-6-27","lat":35.665028,"lon":139.585263},{"name":"深大寺給水所","province":"東京都","city":"調布市","address":"東京都調布市深大寺南町5-56-1","lat":35.6693259,"lon":139.555504},{"name":"調布西町給水所","province":"東京都","city":"調布市","address":"東京都調布市西町717","lat":35.66183,"lon":139.531668},{"name":"＊?東部公民館","province":"東京都","city":"調布市","address":"調布市若葉町1-29-21","lat":35.658248,"lon":139.582821},{"name":"＊?西部公民館","province":"東京都","city":"調布市","address":"調布市上石原3-21-6","lat":35.652956,"lon":139.522212},{"name":"＊?北部公民館","province":"東京都","city":"調布市","address":"調布市柴崎2-5-18","lat":35.661597,"lon":139.562758},{"name":"調布基地跡地運動広場及び大沢総合グラウンド一部","province":"東京都","city":"調布市","address":"東京都調布市西町","lat":35.66389176,"lon":139.5250488},{"name":"都立神代植物公園周辺及び自由広場","province":"東京都","city":"調布市","address":"東京都調布市深大寺元町5丁目31-10","lat":35.67232991,"lon":139.54589097},{"name":"多摩川河川敷（第１区）周辺（府中市境～多摩川原橋）","province":"東京都","city":"調布市","address":"東京都調布市多摩川2丁目7","lat":35.64668361,"lon":139.52516685},{"name":"多摩川河川敷（第２区）周辺（多摩川原橋～二ヶ領堰）","province":"東京都","city":"調布市","address":"東京都調布市多摩川5丁目32","lat":35.64222084,"lon":139.5374996},{"name":"多摩川河川敷（第３区）周辺（二ヶ領堰～狛江市境）","province":"東京都","city":"調布市","address":"東京都調布市染地2丁目51","lat":35.63780777,"lon":139.55282904},{"name":"市立調和小学校周辺","province":"東京都","city":"調布市","address":"東京都調布市菊野台3丁目27-40","lat":35.65252451,"lon":139.5724838},{"name":"市立神代中学校・上ノ原小学校周辺","province":"東京都","city":"調布市","address":"東京都調布市佐須町5丁目26-1","lat":35.66162316,"lon":139.5616816},{"name":"市立緑ケ丘小学校周辺","province":"東京都","city":"調布市","address":"東京都調布市緑ケ丘2丁目16-1","lat":35.66996995,"lon":139.58474318},{"name":"ＮＴＴ中央研修センター","province":"東京都","city":"調布市","address":"東京都調布市入間町2丁目","lat":35.64862239,"lon":139.58154701},{"name":"市立第４中学校・若葉小学校周辺","province":"東京都","city":"調布市","address":"東京都調布市若葉町3丁目15-1","lat":35.65392455,"lon":139.58283002},{"name":"上石原配水所","province":"東京都","city":"調布市","address":"東京都調布市上石原1-34-7","lat":35.661306,"lon":139.531746},{"name":"仙川配水所","province":"東京都","city":"調布市","address":"東京都調布市仙川町3-6-27","lat":35.665028,"lon":139.585263},{"name":"深大寺給水所","province":"東京都","city":"調布市","address":"東京都調布市深大寺南町5-56-1","lat":35.6693259,"lon":139.555504},{"name":"調布西町給水所","province":"東京都","city":"調布市","address":"東京都調布市西町717","lat":35.66183,"lon":139.531668},{"name":"＊?東部公民館","province":"東京都","city":"調布市","address":"調布市若葉町1-29-21","lat":35.658248,"lon":139.582821},{"name":"＊?西部公民館","province":"東京都","city":"調布市","address":"調布市上石原3-21-6","lat":35.652956,"lon":139.522212},{"name":"＊?北部公民館","province":"東京都","city":"調布市","address":"調布市柴崎2-5-18","lat":35.661597,"lon":139.562758},{"name":"調布基地跡地運動広場及び大沢総合グラウンド一部","province":"東京都","city":"調布市","address":"東京都調布市西町","lat":35.66389176,"lon":139.5250488},{"name":"都立神代植物公園周辺及び自由広場","province":"東京都","city":"調布市","address":"東京都調布市深大寺元町5丁目31-10","lat":35.67232991,"lon":139.54589097},{"name":"多摩川河川敷（第１区）周辺（府中市境～多摩川原橋）","province":"東京都","city":"調布市","address":"東京都調布市多摩川2丁目7","lat":35.64668361,"lon":139.52516685},{"name":"多摩川河川敷（第２区）周辺（多摩川原橋～二ヶ領堰）","province":"東京都","city":"調布市","address":"東京都調布市多摩川5丁目32","lat":35.64222084,"lon":139.5374996},{"name":"多摩川河川敷（第３区）周辺（二ヶ領堰～狛江市境）","province":"東京都","city":"調布市","address":"東京都調布市染地2丁目51","lat":35.63780777,"lon":139.55282904},{"name":"市立調和小学校周辺","province":"東京都","city":"調布市","address":"東京都調布市菊野台3丁目27-40","lat":35.65252451,"lon":139.5724838},{"name":"市立神代中学校・上ノ原小学校周辺","province":"東京都","city":"調布市","address":"東京都調布市佐須町5丁目26-1","lat":35.66162316,"lon":139.5616816},{"name":"市立緑ケ丘小学校周辺","province":"東京都","city":"調布市","address":"東京都調布市緑ケ丘2丁目16-1","lat":35.66996995,"lon":139.58474318},{"name":"ＮＴＴ中央研修センター","province":"東京都","city":"調布市","address":"東京都調布市入間町2丁目","lat":35.64862239,"lon":139.58154701},{"name":"市立第４中学校・若葉小学校周辺","province":"東京都","city":"調布市","address":"東京都調布市若葉町3丁目15-1","lat":35.65392455,"lon":139.58283002},{"name":"上石原配水所","province":"東京都","city":"調布市","address":"東京都調布市上石原1-34-7","lat":35.661306,"lon":139.531746},{"name":"仙川配水所","province":"東京都","city":"調布市","address":"東京都調布市仙川町3-6-27","lat":35.665028,"lon":139.585263},{"name":"深大寺給水所","province":"東京都","city":"調布市","address":"東京都調布市深大寺南町5-56-1","lat":35.6693259,"lon":139.555504},{"name":"調布西町給水所","province":"東京都","city":"調布市","address":"東京都調布市西町717","lat":35.66183,"lon":139.531668},{"name":"＊?東部公民館","province":"東京都","city":"調布市","address":"調布市若葉町1-29-21","lat":35.658248,"lon":139.582821},{"name":"＊?西部公民館","province":"東京都","city":"調布市","address":"調布市上石原3-21-6","lat":35.652956,"lon":139.522212},{"name":"＊?北部公民館","province":"東京都","city":"調布市","address":"調布市柴崎2-5-18","lat":35.661597,"lon":139.562758},{"name":"調布基地跡地運動広場及び大沢総合グラウンド一部","province":"東京都","city":"調布市","address":"東京都調布市西町","lat":35.66389176,"lon":139.5250488},{"name":"都立神代植物公園周辺及び自由広場","province":"東京都","city":"調布市","address":"東京都調布市深大寺元町5丁目31-10","lat":35.67232991,"lon":139.54589097},{"name":"多摩川河川敷（第１区）周辺（府中市境～多摩川原橋）","province":"東京都","city":"調布市","address":"東京都調布市多摩川2丁目7","lat":35.64668361,"lon":139.52516685},{"name":"多摩川河川敷（第２区）周辺（多摩川原橋～二ヶ領堰）","province":"東京都","city":"調布市","address":"東京都調布市多摩川5丁目32","lat":35.64222084,"lon":139.5374996},{"name":"多摩川河川敷（第３区）周辺（二ヶ領堰～狛江市境）","province":"東京都","city":"調布市","address":"東京都調布市染地2丁目51","lat":35.63780777,"lon":139.55282904},{"name":"市立調和小学校周辺","province":"東京都","city":"調布市","address":"東京都調布市菊野台3丁目27-40","lat":35.65252451,"lon":139.5724838},{"name":"市立神代中学校・上ノ原小学校周辺","province":"東京都","city":"調布市","address":"東京都調布市佐須町5丁目26-1","lat":35.66162316,"lon":139.5616816},{"name":"市立緑ケ丘小学校周辺","province":"東京都","city":"調布市","address":"東京都調布市緑ケ丘2丁目16-1","lat":35.66996995,"lon":139.58474318},{"name":"ＮＴＴ中央研修センター","province":"東京都","city":"調布市","address":"東京都調布市入間町2丁目","lat":35.64862239,"lon":139.58154701},{"name":"市立第４中学校・若葉小学校周辺","province":"東京都","city":"調布市","address":"東京都調布市若葉町3丁目15-1","lat":35.65392455,"lon":139.58283002},{"name":"上石原配水所","province":"東京都","city":"調布市","address":"東京都調布市上石原1-34-7","lat":35.661306,"lon":139.531746},{"name":"仙川配水所","province":"東京都","city":"調布市","address":"東京都調布市仙川町3-6-27","lat":35.665028,"lon":139.585263},{"name":"深大寺給水所","province":"東京都","city":"調布市","address":"東京都調布市深大寺南町5-56-1","lat":35.6693259,"lon":139.555504},{"name":"調布西町給水所","province":"東京都","city":"調布市","address":"東京都調布市西町717","lat":35.66183,"lon":139.531668},{"name":"＊?東部公民館","province":"東京都","city":"調布市","address":"調布市若葉町1-29-21","lat":35.658248,"lon":139.582821},{"name":"＊?西部公民館","province":"東京都","city":"調布市","address":"調布市上石原3-21-6","lat":35.652956,"lon":139.522212},{"name":"＊?北部公民館","province":"東京都","city":"調布市","address":"調布市柴崎2-5-18","lat":35.661597,"lon":139.562758},{"name":"調布基地跡地運動広場及び大沢総合グラウンド一部","province":"東京都","city":"調布市","address":"東京都調布市西町","lat":35.66389176,"lon":139.5250488},{"name":"都立神代植物公園周辺及び自由広場","province":"東京都","city":"調布市","address":"東京都調布市深大寺元町5丁目31-10","lat":35.67232991,"lon":139.54589097},{"name":"多摩川河川敷（第１区）周辺（府中市境～多摩川原橋）","province":"東京都","city":"調布市","address":"東京都調布市多摩川2丁目7","lat":35.64668361,"lon":139.52516685},{"name":"多摩川河川敷（第２区）周辺（多摩川原橋～二ヶ領堰）","province":"東京都","city":"調布市","address":"東京都調布市多摩川5丁目32","lat":35.64222084,"lon":139.5374996},{"name":"多摩川河川敷（第３区）周辺（二ヶ領堰～狛江市境）","province":"東京都","city":"調布市","address":"東京都調布市染地2丁目51","lat":35.63780777,"lon":139.55282904},{"name":"市立調和小学校周辺","province":"東京都","city":"調布市","address":"東京都調布市菊野台3丁目27-40","lat":35.65252451,"lon":139.5724838},{"name":"市立神代中学校・上ノ原小学校周辺","province":"東京都","city":"調布市","address":"東京都調布市佐須町5丁目26-1","lat":35.66162316,"lon":139.5616816},{"name":"市立緑ケ丘小学校周辺","province":"東京都","city":"調布市","address":"東京都調布市緑ケ丘2丁目16-1","lat":35.66996995,"lon":139.58474318},{"name":"ＮＴＴ中央研修センター","province":"東京都","city":"調布市","address":"東京都調布市入間町2丁目","lat":35.64862239,"lon":139.58154701},{"name":"市立第４中学校・若葉小学校周辺","province":"東京都","city":"調布市","address":"東京都調布市若葉町3丁目15-1","lat":35.65392455,"lon":139.58283002},{"name":"上石原配水所","province":"東京都","city":"調布市","address":"東京都調布市上石原1-34-7","lat":35.661306,"lon":139.531746},{"name":"仙川配水所","province":"東京都","city":"調布市","address":"東京都調布市仙川町3-6-27","lat":35.665028,"lon":139.585263},{"name":"深大寺給水所","province":"東京都","city":"調布市","address":"東京都調布市深大寺南町5-56-1","lat":35.6693259,"lon":139.555504},{"name":"調布西町給水所","province":"東京都","city":"調布市","address":"東京都調布市西町717","lat":35.66183,"lon":139.531668},{"name":"＊?東部公民館","province":"東京都","city":"調布市","address":"調布市若葉町1-29-21","lat":35.658248,"lon":139.582821},{"name":"＊?西部公民館","province":"東京都","city":"調布市","address":"調布市上石原3-21-6","lat":35.652956,"lon":139.522212},{"name":"＊?北部公民館","province":"東京都","city":"調布市","address":"調布市柴崎2-5-18","lat":35.661597,"lon":139.562758},{"name":"調布基地跡地運動広場及び大沢総合グラウンド一部","province":"東京都","city":"調布市","address":"東京都調布市西町","lat":35.66389176,"lon":139.5250488},{"name":"都立神代植物公園周辺及び自由広場","province":"東京都","city":"調布市","address":"東京都調布市深大寺元町5丁目31-10","lat":35.67232991,"lon":139.54589097},{"name":"多摩川河川敷（第１区）周辺（府中市境～多摩川原橋）","province":"東京都","city":"調布市","address":"東京都調布市多摩川2丁目7","lat":35.64668361,"lon":139.52516685},{"name":"多摩川河川敷（第２区）周辺（多摩川原橋～二ヶ領堰）","province":"東京都","city":"調布市","address":"東京都調布市多摩川5丁目32","lat":35.64222084,"lon":139.5374996},{"name":"多摩川河川敷（第３区）周辺（二ヶ領堰～狛江市境）","province":"東京都","city":"調布市","address":"東京都調布市染地2丁目51","lat":35.63780777,"lon":139.55282904},{"name":"市立調和小学校周辺","province":"東京都","city":"調布市","address":"東京都調布市菊野台3丁目27-40","lat":35.65252451,"lon":139.5724838},{"name":"市立神代中学校・上ノ原小学校周辺","province":"東京都","city":"調布市","address":"東京都調布市佐須町5丁目26-1","lat":35.66162316,"lon":139.5616816},{"name":"市立緑ケ丘小学校周辺","province":"東京都","city":"調布市","address":"東京都調布市緑ケ丘2丁目16-1","lat":35.66996995,"lon":139.58474318},{"name":"ＮＴＴ中央研修センター","province":"東京都","city":"調布市","address":"東京都調布市入間町2丁目","lat":35.64862239,"lon":139.58154701},{"name":"市立第４中学校・若葉小学校周辺","province":"東京都","city":"調布市","address":"東京都調布市若葉町3丁目15-1","lat":35.65392455,"lon":139.58283002},{"name":"上石原配水所","province":"東京都","city":"調布市","address":"東京都調布市上石原1-34-7","lat":35.661306,"lon":139.531746},{"name":"仙川配水所","province":"東京都","city":"調布市","address":"東京都調布市仙川町3-6-27","lat":35.665028,"lon":139.585263},{"name":"深大寺給水所","province":"東京都","city":"調布市","address":"東京都調布市深大寺南町5-56-1","lat":35.6693259,"lon":139.555504},{"name":"調布西町給水所","province":"東京都","city":"調布市","address":"東京都調布市西町717","lat":35.66183,"lon":139.531668},{"name":"＊?東部公民館","province":"東京都","city":"調布市","address":"調布市若葉町1-29-21","lat":35.658248,"lon":139.582821},{"name":"＊?西部公民館","province":"東京都","city":"調布市","address":"調布市上石原3-21-6","lat":35.652956,"lon":139.522212},{"name":"＊?北部公民館","province":"東京都","city":"調布市","address":"調布市柴崎2-5-18","lat":35.661597,"lon":139.562758},{"name":"調布基地跡地運動広場及び大沢総合グラウンド一部","province":"東京都","city":"調布市","address":"東京都調布市西町","lat":35.66389176,"lon":139.5250488},{"name":"都立神代植物公園周辺及び自由広場","province":"東京都","city":"調布市","address":"東京都調布市深大寺元町5丁目31-10","lat":35.67232991,"lon":139.54589097},{"name":"多摩川河川敷（第１区）周辺（府中市境～多摩川原橋）","province":"東京都","city":"調布市","address":"東京都調布市多摩川2丁目7","lat":35.64668361,"lon":139.52516685},{"name":"多摩川河川敷（第２区）周辺（多摩川原橋～二ヶ領堰）","province":"東京都","city":"調布市","address":"東京都調布市多摩川5丁目32","lat":35.64222084,"lon":139.5374996},{"name":"多摩川河川敷（第３区）周辺（二ヶ領堰～狛江市境）","province":"東京都","city":"調布市","address":"東京都調布市染地2丁目51","lat":35.63780777,"lon":139.55282904},{"name":"市立調和小学校周辺","province":"東京都","city":"調布市","address":"東京都調布市菊野台3丁目27-40","lat":35.65252451,"lon":139.5724838},{"name":"市立神代中学校・上ノ原小学校周辺","province":"東京都","city":"調布市","address":"東京都調布市佐須町5丁目26-1","lat":35.66162316,"lon":139.5616816},{"name":"市立緑ケ丘小学校周辺","province":"東京都","city":"調布市","address":"東京都調布市緑ケ丘2丁目16-1","lat":35.66996995,"lon":139.58474318},{"name":"ＮＴＴ中央研修センター","province":"東京都","city":"調布市","address":"東京都調布市入間町2丁目","lat":35.64862239,"lon":139.58154701},{"name":"市立第４中学校・若葉小学校周辺","province":"東京都","city":"調布市","address":"東京都調布市若葉町3丁目15-1","lat":35.65392455,"lon":139.58283002},{"name":"上石原配水所","province":"東京都","city":"調布市","address":"東京都調布市上石原1-34-7","lat":35.661306,"lon":139.531746},{"name":"仙川配水所","province":"東京都","city":"調布市","address":"東京都調布市仙川町3-6-27","lat":35.665028,"lon":139.585263},{"name":"深大寺給水所","province":"東京都","city":"調布市","address":"東京都調布市深大寺南町5-56-1","lat":35.6693259,"lon":139.555504},{"name":"調布西町給水所","province":"東京都","city":"調布市","address":"東京都調布市西町717","lat":35.66183,"lon":139.531668},{"name":"＊?東部公民館","province":"東京都","city":"調布市","address":"調布市若葉町1-29-21","lat":35.658248,"lon":139.582821},{"name":"＊?西部公民館","province":"東京都","city":"調布市","address":"調布市上石原3-21-6","lat":35.652956,"lon":139.522212},{"name":"＊?北部公民館","province":"東京都","city":"調布市","address":"調布市柴崎2-5-18","lat":35.661597,"lon":139.562758},{"name":"調布基地跡地運動広場及び大沢総合グラウンド一部","province":"東京都","city":"調布市","address":"東京都調布市西町","lat":35.66389176,"lon":139.5250488},{"name":"都立神代植物公園周辺及び自由広場","province":"東京都","city":"調布市","address":"東京都調布市深大寺元町5丁目31-10","lat":35.67232991,"lon":139.54589097},{"name":"多摩川河川敷（第１区）周辺（府中市境～多摩川原橋）","province":"東京都","city":"調布市","address":"東京都調布市多摩川2丁目7","lat":35.64668361,"lon":139.52516685},{"name":"多摩川河川敷（第２区）周辺（多摩川原橋～二ヶ領堰）","province":"東京都","city":"調布市","address":"東京都調布市多摩川5丁目32","lat":35.64222084,"lon":139.5374996},{"name":"多摩川河川敷（第３区）周辺（二ヶ領堰～狛江市境）","province":"東京都","city":"調布市","address":"東京都調布市染地2丁目51","lat":35.63780777,"lon":139.55282904},{"name":"市立調和小学校周辺","province":"東京都","city":"調布市","address":"東京都調布市菊野台3丁目27-40","lat":35.65252451,"lon":139.5724838},{"name":"市立神代中学校・上ノ原小学校周辺","province":"東京都","city":"調布市","address":"東京都調布市佐須町5丁目26-1","lat":35.66162316,"lon":139.5616816},{"name":"市立緑ケ丘小学校周辺","province":"東京都","city":"調布市","address":"東京都調布市緑ケ丘2丁目16-1","lat":35.66996995,"lon":139.58474318},{"name":"ＮＴＴ中央研修センター","province":"東京都","city":"調布市","address":"東京都調布市入間町2丁目","lat":35.64862239,"lon":139.58154701},{"name":"市立第４中学校・若葉小学校周辺","province":"東京都","city":"調布市","address":"東京都調布市若葉町3丁目15-1","lat":35.65392455,"lon":139.58283002},{"name":"上石原配水所","province":"東京都","city":"調布市","address":"東京都調布市上石原1-34-7","lat":35.661306,"lon":139.531746},{"name":"仙川配水所","province":"東京都","city":"調布市","address":"東京都調布市仙川町3-6-27","lat":35.665028,"lon":139.585263},{"name":"深大寺給水所","province":"東京都","city":"調布市","address":"東京都調布市深大寺南町5-56-1","lat":35.6693259,"lon":139.555504},{"name":"調布西町給水所","province":"東京都","city":"調布市","address":"東京都調布市西町717","lat":35.66183,"lon":139.531668},{"name":"＊?東部公民館","province":"東京都","city":"調布市","address":"調布市若葉町1-29-21","lat":35.658248,"lon":139.582821},{"name":"＊?西部公民館","province":"東京都","city":"調布市","address":"調布市上石原3-21-6","lat":35.652956,"lon":139.522212},{"name":"＊?北部公民館","province":"東京都","city":"調布市","address":"調布市柴崎2-5-18","lat":35.661597,"lon":139.562758},{"name":"調布基地跡地運動広場及び大沢総合グラウンド一部","province":"東京都","city":"調布市","address":"東京都調布市西町","lat":35.66389176,"lon":139.5250488},{"name":"都立神代植物公園周辺及び自由広場","province":"東京都","city":"調布市","address":"東京都調布市深大寺元町5丁目31-10","lat":35.67232991,"lon":139.54589097},{"name":"多摩川河川敷（第１区）周辺（府中市境～多摩川原橋）","province":"東京都","city":"調布市","address":"東京都調布市多摩川2丁目7","lat":35.64668361,"lon":139.52516685},{"name":"多摩川河川敷（第２区）周辺（多摩川原橋～二ヶ領堰）","province":"東京都","city":"調布市","address":"東京都調布市多摩川5丁目32","lat":35.64222084,"lon":139.5374996},{"name":"多摩川河川敷（第３区）周辺（二ヶ領堰～狛江市境）","province":"東京都","city":"調布市","address":"東京都調布市染地2丁目51","lat":35.63780777,"lon":139.55282904},{"name":"市立調和小学校周辺","province":"東京都","city":"調布市","address":"東京都調布市菊野台3丁目27-40","lat":35.65252451,"lon":139.5724838},{"name":"市立神代中学校・上ノ原小学校周辺","province":"東京都","city":"調布市","address":"東京都調布市佐須町5丁目26-1","lat":35.66162316,"lon":139.5616816},{"name":"市立緑ケ丘小学校周辺","province":"東京都","city":"調布市","address":"東京都調布市緑ケ丘2丁目16-1","lat":35.66996995,"lon":139.58474318},{"name":"ＮＴＴ中央研修センター","province":"東京都","city":"調布市","address":"東京都調布市入間町2丁目","lat":35.64862239,"lon":139.58154701},{"name":"市立第４中学校・若葉小学校周辺","province":"東京都","city":"調布市","address":"東京都調布市若葉町3丁目15-1","lat":35.65392455,"lon":139.58283002},{"name":"上石原配水所","province":"東京都","city":"調布市","address":"東京都調布市上石原1-34-7","lat":35.661306,"lon":139.531746},{"name":"仙川配水所","province":"東京都","city":"調布市","address":"東京都調布市仙川町3-6-27","lat":35.665028,"lon":139.585263},{"name":"深大寺給水所","province":"東京都","city":"調布市","address":"東京都調布市深大寺南町5-56-1","lat":35.6693259,"lon":139.555504},{"name":"調布西町給水所","province":"東京都","city":"調布市","address":"東京都調布市西町717","lat":35.66183,"lon":139.531668},{"name":"＊?東部公民館","province":"東京都","city":"調布市","address":"調布市若葉町1-29-21","lat":35.658248,"lon":139.582821},{"name":"＊?西部公民館","province":"東京都","city":"調布市","address":"調布市上石原3-21-6","lat":35.652956,"lon":139.522212},{"name":"＊?北部公民館","province":"東京都","city":"調布市","address":"調布市柴崎2-5-18","lat":35.661597,"lon":139.562758},{"name":"調布基地跡地運動広場及び大沢総合グラウンド一部","province":"東京都","city":"調布市","address":"東京都調布市西町","lat":35.66389176,"lon":139.5250488},{"name":"都立神代植物公園周辺及び自由広場","province":"東京都","city":"調布市","address":"東京都調布市深大寺元町5丁目31-10","lat":35.67232991,"lon":139.54589097},{"name":"多摩川河川敷（第１区）周辺（府中市境～多摩川原橋）","province":"東京都","city":"調布市","address":"東京都調布市多摩川2丁目7","lat":35.64668361,"lon":139.52516685},{"name":"多摩川河川敷（第２区）周辺（多摩川原橋～二ヶ領堰）","province":"東京都","city":"調布市","address":"東京都調布市多摩川5丁目32","lat":35.64222084,"lon":139.5374996},{"name":"多摩川河川敷（第３区）周辺（二ヶ領堰～狛江市境）","province":"東京都","city":"調布市","address":"東京都調布市染地2丁目51","lat":35.63780777,"lon":139.55282904},{"name":"市立調和小学校周辺","province":"東京都","city":"調布市","address":"東京都調布市菊野台3丁目27-40","lat":35.65252451,"lon":139.5724838},{"name":"市立神代中学校・上ノ原小学校周辺","province":"東京都","city":"調布市","address":"東京都調布市佐須町5丁目26-1","lat":35.66162316,"lon":139.5616816},{"name":"市立緑ケ丘小学校周辺","province":"東京都","city":"調布市","address":"東京都調布市緑ケ丘2丁目16-1","lat":35.66996995,"lon":139.58474318},{"name":"ＮＴＴ中央研修センター","province":"東京都","city":"調布市","address":"東京都調布市入間町2丁目","lat":35.64862239,"lon":139.58154701},{"name":"市立第４中学校・若葉小学校周辺","province":"東京都","city":"調布市","address":"東京都調布市若葉町3丁目15-1","lat":35.65392455,"lon":139.58283002},{"name":"上石原配水所","province":"東京都","city":"調布市","address":"東京都調布市上石原1-34-7","lat":35.661306,"lon":139.531746},{"name":"仙川配水所","province":"東京都","city":"調布市","address":"東京都調布市仙川町3-6-27","lat":35.665028,"lon":139.585263},{"name":"深大寺給水所","province":"東京都","city":"調布市","address":"東京都調布市深大寺南町5-56-1","lat":35.6693259,"lon":139.555504},{"name":"調布西町給水所","province":"東京都","city":"調布市","address":"東京都調布市西町717","lat":35.66183,"lon":139.531668},{"name":"＊?東部公民館","province":"東京都","city":"調布市","address":"調布市若葉町1-29-21","lat":35.658248,"lon":139.582821},{"name":"＊?西部公民館","province":"東京都","city":"調布市","address":"調布市上石原3-21-6","lat":35.652956,"lon":139.522212},{"name":"＊?北部公民館","province":"東京都","city":"調布市","address":"調布市柴崎2-5-18","lat":35.661597,"lon":139.562758},{"name":"調布基地跡地運動広場及び大沢総合グラウンド一部","province":"東京都","city":"調布市","address":"東京都調布市西町","lat":35.66389176,"lon":139.5250488},{"name":"都立神代植物公園周辺及び自由広場","province":"東京都","city":"調布市","address":"東京都調布市深大寺元町5丁目31-10","lat":35.67232991,"lon":139.54589097},{"name":"多摩川河川敷（第１区）周辺（府中市境～多摩川原橋）","province":"東京都","city":"調布市","address":"東京都調布市多摩川2丁目7","lat":35.64668361,"lon":139.52516685},{"name":"多摩川河川敷（第２区）周辺（多摩川原橋～二ヶ領堰）","province":"東京都","city":"調布市","address":"東京都調布市多摩川5丁目32","lat":35.64222084,"lon":139.5374996},{"name":"多摩川河川敷（第３区）周辺（二ヶ領堰～狛江市境）","province":"東京都","city":"調布市","address":"東京都調布市染地2丁目51","lat":35.63780777,"lon":139.55282904},{"name":"市立調和小学校周辺","province":"東京都","city":"調布市","address":"東京都調布市菊野台3丁目27-40","lat":35.65252451,"lon":139.5724838},{"name":"市立神代中学校・上ノ原小学校周辺","province":"東京都","city":"調布市","address":"東京都調布市佐須町5丁目26-1","lat":35.66162316,"lon":139.5616816},{"name":"市立緑ケ丘小学校周辺","province":"東京都","city":"調布市","address":"東京都調布市緑ケ丘2丁目16-1","lat":35.66996995,"lon":139.58474318},{"name":"ＮＴＴ中央研修センター","province":"東京都","city":"調布市","address":"東京都調布市入間町2丁目","lat":35.64862239,"lon":139.58154701},{"name":"市立第４中学校・若葉小学校周辺","province":"東京都","city":"調布市","address":"東京都調布市若葉町3丁目15-1","lat":35.65392455,"lon":139.58283002},{"name":"上石原配水所","province":"東京都","city":"調布市","address":"東京都調布市上石原1-34-7","lat":35.661306,"lon":139.531746},{"name":"仙川配水所","province":"東京都","city":"調布市","address":"東京都調布市仙川町3-6-27","lat":35.665028,"lon":139.585263},{"name":"深大寺給水所","province":"東京都","city":"調布市","address":"東京都調布市深大寺南町5-56-1","lat":35.6693259,"lon":139.555504},{"name":"調布西町給水所","province":"東京都","city":"調布市","address":"東京都調布市西町717","lat":35.66183,"lon":139.531668},{"name":"＊?東部公民館","province":"東京都","city":"調布市","address":"調布市若葉町1-29-21","lat":35.658248,"lon":139.582821},{"name":"＊?西部公民館","province":"東京都","city":"調布市","address":"調布市上石原3-21-6","lat":35.652956,"lon":139.522212},{"name":"＊?北部公民館","province":"東京都","city":"調布市","address":"調布市柴崎2-5-18","lat":35.661597,"lon":139.562758},{"name":"調布基地跡地運動広場及び大沢総合グラウンド一部","province":"東京都","city":"調布市","address":"東京都調布市西町","lat":35.66389176,"lon":139.5250488},{"name":"都立神代植物公園周辺及び自由広場","province":"東京都","city":"調布市","address":"東京都調布市深大寺元町5丁目31-10","lat":35.67232991,"lon":139.54589097},{"name":"多摩川河川敷（第１区）周辺（府中市境～多摩川原橋）","province":"東京都","city":"調布市","address":"東京都調布市多摩川2丁目7","lat":35.64668361,"lon":139.52516685},{"name":"多摩川河川敷（第２区）周辺（多摩川原橋～二ヶ領堰）","province":"東京都","city":"調布市","address":"東京都調布市多摩川5丁目32","lat":35.64222084,"lon":139.5374996},{"name":"多摩川河川敷（第３区）周辺（二ヶ領堰～狛江市境）","province":"東京都","city":"調布市","address":"東京都調布市染地2丁目51","lat":35.63780777,"lon":139.55282904},{"name":"市立調和小学校周辺","province":"東京都","city":"調布市","address":"東京都調布市菊野台3丁目27-40","lat":35.65252451,"lon":139.5724838},{"name":"市立神代中学校・上ノ原小学校周辺","province":"東京都","city":"調布市","address":"東京都調布市佐須町5丁目26-1","lat":35.66162316,"lon":139.5616816},{"name":"市立緑ケ丘小学校周辺","province":"東京都","city":"調布市","address":"東京都調布市緑ケ丘2丁目16-1","lat":35.66996995,"lon":139.58474318},{"name":"ＮＴＴ中央研修センター","province":"東京都","city":"調布市","address":"東京都調布市入間町2丁目","lat":35.64862239,"lon":139.58154701},{"name":"市立第４中学校・若葉小学校周辺","province":"東京都","city":"調布市","address":"東京都調布市若葉町3丁目15-1","lat":35.65392455,"lon":139.58283002},{"name":"上石原配水所","province":"東京都","city":"調布市","address":"東京都調布市上石原1-34-7","lat":35.661306,"lon":139.531746},{"name":"仙川配水所","province":"東京都","city":"調布市","address":"東京都調布市仙川町3-6-27","lat":35.665028,"lon":139.585263},{"name":"深大寺給水所","province":"東京都","city":"調布市","address":"東京都調布市深大寺南町5-56-1","lat":35.6693259,"lon":139.555504},{"name":"調布西町給水所","province":"東京都","city":"調布市","address":"東京都調布市西町717","lat":35.66183,"lon":139.531668},{"name":"＊?東部公民館","province":"東京都","city":"調布市","address":"調布市若葉町1-29-21","lat":35.658248,"lon":139.582821},{"name":"＊?西部公民館","province":"東京都","city":"調布市","address":"調布市上石原3-21-6","lat":35.652956,"lon":139.522212},{"name":"＊?北部公民館","province":"東京都","city":"調布市","address":"調布市柴崎2-5-18","lat":35.661597,"lon":139.562758},{"name":"調布基地跡地運動広場及び大沢総合グラウンド一部","province":"東京都","city":"調布市","address":"東京都調布市西町","lat":35.66389176,"lon":139.5250488},{"name":"都立神代植物公園周辺及び自由広場","province":"東京都","city":"調布市","address":"東京都調布市深大寺元町5丁目31-10","lat":35.67232991,"lon":139.54589097},{"name":"多摩川河川敷（第１区）周辺（府中市境～多摩川原橋）","province":"東京都","city":"調布市","address":"東京都調布市多摩川2丁目7","lat":35.64668361,"lon":139.52516685},{"name":"多摩川河川敷（第２区）周辺（多摩川原橋～二ヶ領堰）","province":"東京都","city":"調布市","address":"東京都調布市多摩川5丁目32","lat":35.64222084,"lon":139.5374996},{"name":"多摩川河川敷（第３区）周辺（二ヶ領堰～狛江市境）","province":"東京都","city":"調布市","address":"東京都調布市染地2丁目51","lat":35.63780777,"lon":139.55282904},{"name":"市立調和小学校周辺","province":"東京都","city":"調布市","address":"東京都調布市菊野台3丁目27-40","lat":35.65252451,"lon":139.5724838},{"name":"市立神代中学校・上ノ原小学校周辺","province":"東京都","city":"調布市","address":"東京都調布市佐須町5丁目26-1","lat":35.66162316,"lon":139.5616816},{"name":"市立緑ケ丘小学校周辺","province":"東京都","city":"調布市","address":"東京都調布市緑ケ丘2丁目16-1","lat":35.66996995,"lon":139.58474318},{"name":"ＮＴＴ中央研修センター","province":"東京都","city":"調布市","address":"東京都調布市入間町2丁目","lat":35.64862239,"lon":139.58154701},{"name":"市立第４中学校・若葉小学校周辺","province":"東京都","city":"調布市","address":"東京都調布市若葉町3丁目15-1","lat":35.65392455,"lon":139.58283002},{"name":"上石原配水所","province":"東京都","city":"調布市","address":"東京都調布市上石原1-34-7","lat":35.661306,"lon":139.531746},{"name":"仙川配水所","province":"東京都","city":"調布市","address":"東京都調布市仙川町3-6-27","lat":35.665028,"lon":139.585263},{"name":"深大寺給水所","province":"東京都","city":"調布市","address":"東京都調布市深大寺南町5-56-1","lat":35.6693259,"lon":139.555504},{"name":"調布西町給水所","province":"東京都","city":"調布市","address":"東京都調布市西町717","lat":35.66183,"lon":139.531668},{"name":"＊?東部公民館","province":"東京都","city":"調布市","address":"調布市若葉町1-29-21","lat":35.658248,"lon":139.582821},{"name":"＊?西部公民館","province":"東京都","city":"調布市","address":"調布市上石原3-21-6","lat":35.652956,"lon":139.522212},{"name":"＊?北部公民館","province":"東京都","city":"調布市","address":"調布市柴崎2-5-18","lat":35.661597,"lon":139.562758},{"name":"調布基地跡地運動広場及び大沢総合グラウンド一部","province":"東京都","city":"調布市","address":"東京都調布市西町","lat":35.66389176,"lon":139.5250488},{"name":"都立神代植物公園周辺及び自由広場","province":"東京都","city":"調布市","address":"東京都調布市深大寺元町5丁目31-10","lat":35.67232991,"lon":139.54589097},{"name":"多摩川河川敷（第１区）周辺（府中市境～多摩川原橋）","province":"東京都","city":"調布市","address":"東京都調布市多摩川2丁目7","lat":35.64668361,"lon":139.52516685},{"name":"多摩川河川敷（第２区）周辺（多摩川原橋～二ヶ領堰）","province":"東京都","city":"調布市","address":"東京都調布市多摩川5丁目32","lat":35.64222084,"lon":139.5374996},{"name":"多摩川河川敷（第３区）周辺（二ヶ領堰～狛江市境）","province":"東京都","city":"調布市","address":"東京都調布市染地2丁目51","lat":35.63780777,"lon":139.55282904},{"name":"市立調和小学校周辺","province":"東京都","city":"調布市","address":"東京都調布市菊野台3丁目27-40","lat":35.65252451,"lon":139.5724838},{"name":"市立神代中学校・上ノ原小学校周辺","province":"東京都","city":"調布市","address":"東京都調布市佐須町5丁目26-1","lat":35.66162316,"lon":139.5616816},{"name":"市立緑ケ丘小学校周辺","province":"東京都","city":"調布市","address":"東京都調布市緑ケ丘2丁目16-1","lat":35.66996995,"lon":139.58474318},{"name":"ＮＴＴ中央研修センター","province":"東京都","city":"調布市","address":"東京都調布市入間町2丁目","lat":35.64862239,"lon":139.58154701},{"name":"市立第４中学校・若葉小学校周辺","province":"東京都","city":"調布市","address":"東京都調布市若葉町3丁目15-1","lat":35.65392455,"lon":139.58283002},{"name":"上石原配水所","province":"東京都","city":"調布市","address":"東京都調布市上石原1-34-7","lat":35.661306,"lon":139.531746},{"name":"仙川配水所","province":"東京都","city":"調布市","address":"東京都調布市仙川町3-6-27","lat":35.665028,"lon":139.585263},{"name":"深大寺給水所","province":"東京都","city":"調布市","address":"東京都調布市深大寺南町5-56-1","lat":35.6693259,"lon":139.555504},{"name":"調布西町給水所","province":"東京都","city":"調布市","address":"東京都調布市西町717","lat":35.66183,"lon":139.531668},{"name":"＊?東部公民館","province":"東京都","city":"調布市","address":"調布市若葉町1-29-21","lat":35.658248,"lon":139.582821},{"name":"＊?西部公民館","province":"東京都","city":"調布市","address":"調布市上石原3-21-6","lat":35.652956,"lon":139.522212},{"name":"＊?北部公民館","province":"東京都","city":"調布市","address":"調布市柴崎2-5-18","lat":35.661597,"lon":139.562758},{"name":"調布基地跡地運動広場及び大沢総合グラウンド一部","province":"東京都","city":"調布市","address":"東京都調布市西町","lat":35.66389176,"lon":139.5250488},{"name":"都立神代植物公園周辺及び自由広場","province":"東京都","city":"調布市","address":"東京都調布市深大寺元町5丁目31-10","lat":35.67232991,"lon":139.54589097},{"name":"多摩川河川敷（第１区）周辺（府中市境～多摩川原橋）","province":"東京都","city":"調布市","address":"東京都調布市多摩川2丁目7","lat":35.64668361,"lon":139.52516685},{"name":"多摩川河川敷（第２区）周辺（多摩川原橋～二ヶ領堰）","province":"東京都","city":"調布市","address":"東京都調布市多摩川5丁目32","lat":35.64222084,"lon":139.5374996},{"name":"多摩川河川敷（第３区）周辺（二ヶ領堰～狛江市境）","province":"東京都","city":"調布市","address":"東京都調布市染地2丁目51","lat":35.63780777,"lon":139.55282904},{"name":"市立調和小学校周辺","province":"東京都","city":"調布市","address":"東京都調布市菊野台3丁目27-40","lat":35.65252451,"lon":139.5724838},{"name":"市立神代中学校・上ノ原小学校周辺","province":"東京都","city":"調布市","address":"東京都調布市佐須町5丁目26-1","lat":35.66162316,"lon":139.5616816},{"name":"市立緑ケ丘小学校周辺","province":"東京都","city":"調布市","address":"東京都調布市緑ケ丘2丁目16-1","lat":35.66996995,"lon":139.58474318},{"name":"ＮＴＴ中央研修センター","province":"東京都","city":"調布市","address":"東京都調布市入間町2丁目","lat":35.64862239,"lon":139.58154701},{"name":"市立第４中学校・若葉小学校周辺","province":"東京都","city":"調布市","address":"東京都調布市若葉町3丁目15-1","lat":35.65392455,"lon":139.58283002},{"name":"上石原配水所","province":"東京都","city":"調布市","address":"東京都調布市上石原1-34-7","lat":35.661306,"lon":139.531746},{"name":"仙川配水所","province":"東京都","city":"調布市","address":"東京都調布市仙川町3-6-27","lat":35.665028,"lon":139.585263},{"name":"深大寺給水所","province":"東京都","city":"調布市","address":"東京都調布市深大寺南町5-56-1","lat":35.6693259,"lon":139.555504},{"name":"調布西町給水所","province":"東京都","city":"調布市","address":"東京都調布市西町717","lat":35.66183,"lon":139.531668},{"name":"＊?東部公民館","province":"東京都","city":"調布市","address":"調布市若葉町1-29-21","lat":35.658248,"lon":139.582821},{"name":"＊?西部公民館","province":"東京都","city":"調布市","address":"調布市上石原3-21-6","lat":35.652956,"lon":139.522212},{"name":"＊?北部公民館","province":"東京都","city":"調布市","address":"調布市柴崎2-5-18","lat":35.661597,"lon":139.562758},{"name":"調布基地跡地運動広場及び大沢総合グラウンド一部","province":"東京都","city":"調布市","address":"東京都調布市西町","lat":35.66389176,"lon":139.5250488},{"name":"都立神代植物公園周辺及び自由広場","province":"東京都","city":"調布市","address":"東京都調布市深大寺元町5丁目31-10","lat":35.67232991,"lon":139.54589097},{"name":"多摩川河川敷（第１区）周辺（府中市境～多摩川原橋）","province":"東京都","city":"調布市","address":"東京都調布市多摩川2丁目7","lat":35.64668361,"lon":139.52516685},{"name":"多摩川河川敷（第２区）周辺（多摩川原橋～二ヶ領堰）","province":"東京都","city":"調布市","address":"東京都調布市多摩川5丁目32","lat":35.64222084,"lon":139.5374996},{"name":"多摩川河川敷（第３区）周辺（二ヶ領堰～狛江市境）","province":"東京都","city":"調布市","address":"東京都調布市染地2丁目51","lat":35.63780777,"lon":139.55282904},{"name":"市立調和小学校周辺","province":"東京都","city":"調布市","address":"東京都調布市菊野台3丁目27-40","lat":35.65252451,"lon":139.5724838},{"name":"市立神代中学校・上ノ原小学校周辺","province":"東京都","city":"調布市","address":"東京都調布市佐須町5丁目26-1","lat":35.66162316,"lon":139.5616816},{"name":"市立緑ケ丘小学校周辺","province":"東京都","city":"調布市","address":"東京都調布市緑ケ丘2丁目16-1","lat":35.66996995,"lon":139.58474318},{"name":"ＮＴＴ中央研修センター","province":"東京都","city":"調布市","address":"東京都調布市入間町2丁目","lat":35.64862239,"lon":139.58154701},{"name":"市立第４中学校・若葉小学校周辺","province":"東京都","city":"調布市","address":"東京都調布市若葉町3丁目15-1","lat":35.65392455,"lon":139.58283002},{"name":"上石原配水所","province":"東京都","city":"調布市","address":"東京都調布市上石原1-34-7","lat":35.661306,"lon":139.531746},{"name":"仙川配水所","province":"東京都","city":"調布市","address":"東京都調布市仙川町3-6-27","lat":35.665028,"lon":139.585263},{"name":"深大寺給水所","province":"東京都","city":"調布市","address":"東京都調布市深大寺南町5-56-1","lat":35.6693259,"lon":139.555504},{"name":"調布西町給水所","province":"東京都","city":"調布市","address":"東京都調布市西町717","lat":35.66183,"lon":139.531668},{"name":"＊?東部公民館","province":"東京都","city":"調布市","address":"調布市若葉町1-29-21","lat":35.658248,"lon":139.582821},{"name":"＊?西部公民館","province":"東京都","city":"調布市","address":"調布市上石原3-21-6","lat":35.652956,"lon":139.522212},{"name":"＊?北部公民館","province":"東京都","city":"調布市","address":"調布市柴崎2-5-18","lat":35.661597,"lon":139.562758},{"name":"調布基地跡地運動広場及び大沢総合グラウンド一部","province":"東京都","city":"調布市","address":"東京都調布市西町","lat":35.66389176,"lon":139.5250488},{"name":"都立神代植物公園周辺及び自由広場","province":"東京都","city":"調布市","address":"東京都調布市深大寺元町5丁目31-10","lat":35.67232991,"lon":139.54589097},{"name":"多摩川河川敷（第１区）周辺（府中市境～多摩川原橋）","province":"東京都","city":"調布市","address":"東京都調布市多摩川2丁目7","lat":35.64668361,"lon":139.52516685},{"name":"多摩川河川敷（第２区）周辺（多摩川原橋～二ヶ領堰）","province":"東京都","city":"調布市","address":"東京都調布市多摩川5丁目32","lat":35.64222084,"lon":139.5374996},{"name":"多摩川河川敷（第３区）周辺（二ヶ領堰～狛江市境）","province":"東京都","city":"調布市","address":"東京都調布市染地2丁目51","lat":35.63780777,"lon":139.55282904},{"name":"市立調和小学校周辺","province":"東京都","city":"調布市","address":"東京都調布市菊野台3丁目27-40","lat":35.65252451,"lon":139.5724838},{"name":"市立神代中学校・上ノ原小学校周辺","province":"東京都","city":"調布市","address":"東京都調布市佐須町5丁目26-1","lat":35.66162316,"lon":139.5616816},{"name":"市立緑ケ丘小学校周辺","province":"東京都","city":"調布市","address":"東京都調布市緑ケ丘2丁目16-1","lat":35.66996995,"lon":139.58474318},{"name":"ＮＴＴ中央研修センター","province":"東京都","city":"調布市","address":"東京都調布市入間町2丁目","lat":35.64862239,"lon":139.58154701},{"name":"市立第４中学校・若葉小学校周辺","province":"東京都","city":"調布市","address":"東京都調布市若葉町3丁目15-1","lat":35.65392455,"lon":139.58283002},{"name":"上石原配水所","province":"東京都","city":"調布市","address":"東京都調布市上石原1-34-7","lat":35.661306,"lon":139.531746},{"name":"仙川配水所","province":"東京都","city":"調布市","address":"東京都調布市仙川町3-6-27","lat":35.665028,"lon":139.585263},{"name":"深大寺給水所","province":"東京都","city":"調布市","address":"東京都調布市深大寺南町5-56-1","lat":35.6693259,"lon":139.555504},{"name":"調布西町給水所","province":"東京都","city":"調布市","address":"東京都調布市西町717","lat":35.66183,"lon":139.531668},{"name":"＊?東部公民館","province":"東京都","city":"調布市","address":"調布市若葉町1-29-21","lat":35.658248,"lon":139.582821},{"name":"＊?西部公民館","province":"東京都","city":"調布市","address":"調布市上石原3-21-6","lat":35.652956,"lon":139.522212},{"name":"＊?北部公民館","province":"東京都","city":"調布市","address":"調布市柴崎2-5-18","lat":35.661597,"lon":139.562758},{"name":"調布基地跡地運動広場及び大沢総合グラウンド一部","province":"東京都","city":"調布市","address":"東京都調布市西町","lat":35.66389176,"lon":139.5250488},{"name":"都立神代植物公園周辺及び自由広場","province":"東京都","city":"調布市","address":"東京都調布市深大寺元町5丁目31-10","lat":35.67232991,"lon":139.54589097},{"name":"多摩川河川敷（第１区）周辺（府中市境～多摩川原橋）","province":"東京都","city":"調布市","address":"東京都調布市多摩川2丁目7","lat":35.64668361,"lon":139.52516685},{"name":"多摩川河川敷（第２区）周辺（多摩川原橋～二ヶ領堰）","province":"東京都","city":"調布市","address":"東京都調布市多摩川5丁目32","lat":35.64222084,"lon":139.5374996},{"name":"多摩川河川敷（第３区）周辺（二ヶ領堰～狛江市境）","province":"東京都","city":"調布市","address":"東京都調布市染地2丁目51","lat":35.63780777,"lon":139.55282904},{"name":"市立調和小学校周辺","province":"東京都","city":"調布市","address":"東京都調布市菊野台3丁目27-40","lat":35.65252451,"lon":139.5724838},{"name":"市立神代中学校・上ノ原小学校周辺","province":"東京都","city":"調布市","address":"東京都調布市佐須町5丁目26-1","lat":35.66162316,"lon":139.5616816},{"name":"市立緑ケ丘小学校周辺","province":"東京都","city":"調布市","address":"東京都調布市緑ケ丘2丁目16-1","lat":35.66996995,"lon":139.58474318},{"name":"ＮＴＴ中央研修センター","province":"東京都","city":"調布市","address":"東京都調布市入間町2丁目","lat":35.64862239,"lon":139.58154701},{"name":"市立第４中学校・若葉小学校周辺","province":"東京都","city":"調布市","address":"東京都調布市若葉町3丁目15-1","lat":35.65392455,"lon":139.58283002},{"name":"上石原配水所","province":"東京都","city":"調布市","address":"東京都調布市上石原1-34-7","lat":35.661306,"lon":139.531746},{"name":"仙川配水所","province":"東京都","city":"調布市","address":"東京都調布市仙川町3-6-27","lat":35.665028,"lon":139.585263},{"name":"深大寺給水所","province":"東京都","city":"調布市","address":"東京都調布市深大寺南町5-56-1","lat":35.6693259,"lon":139.555504},{"name":"調布西町給水所","province":"東京都","city":"調布市","address":"東京都調布市西町717","lat":35.66183,"lon":139.531668},{"name":"＊?東部公民館","province":"東京都","city":"調布市","address":"調布市若葉町1-29-21","lat":35.658248,"lon":139.582821},{"name":"＊?西部公民館","province":"東京都","city":"調布市","address":"調布市上石原3-21-6","lat":35.652956,"lon":139.522212},{"name":"＊?北部公民館","province":"東京都","city":"調布市","address":"調布市柴崎2-5-18","lat":35.661597,"lon":139.562758},{"name":"調布基地跡地運動広場及び大沢総合グラウンド一部","province":"東京都","city":"調布市","address":"東京都調布市西町","lat":35.66389176,"lon":139.5250488},{"name":"都立神代植物公園周辺及び自由広場","province":"東京都","city":"調布市","address":"東京都調布市深大寺元町5丁目31-10","lat":35.67232991,"lon":139.54589097},{"name":"多摩川河川敷（第１区）周辺（府中市境～多摩川原橋）","province":"東京都","city":"調布市","address":"東京都調布市多摩川2丁目7","lat":35.64668361,"lon":139.52516685},{"name":"多摩川河川敷（第２区）周辺（多摩川原橋～二ヶ領堰）","province":"東京都","city":"調布市","address":"東京都調布市多摩川5丁目32","lat":35.64222084,"lon":139.5374996},{"name":"多摩川河川敷（第３区）周辺（二ヶ領堰～狛江市境）","province":"東京都","city":"調布市","address":"東京都調布市染地2丁目51","lat":35.63780777,"lon":139.55282904},{"name":"市立調和小学校周辺","province":"東京都","city":"調布市","address":"東京都調布市菊野台3丁目27-40","lat":35.65252451,"lon":139.5724838},{"name":"市立神代中学校・上ノ原小学校周辺","province":"東京都","city":"調布市","address":"東京都調布市佐須町5丁目26-1","lat":35.66162316,"lon":139.5616816},{"name":"市立緑ケ丘小学校周辺","province":"東京都","city":"調布市","address":"東京都調布市緑ケ丘2丁目16-1","lat":35.66996995,"lon":139.58474318},{"name":"ＮＴＴ中央研修センター","province":"東京都","city":"調布市","address":"東京都調布市入間町2丁目","lat":35.64862239,"lon":139.58154701},{"name":"市立第４中学校・若葉小学校周辺","province":"東京都","city":"調布市","address":"東京都調布市若葉町3丁目15-1","lat":35.65392455,"lon":139.58283002},{"name":"上石原配水所","province":"東京都","city":"調布市","address":"東京都調布市上石原1-34-7","lat":35.661306,"lon":139.531746},{"name":"仙川配水所","province":"東京都","city":"調布市","address":"東京都調布市仙川町3-6-27","lat":35.665028,"lon":139.585263},{"name":"深大寺給水所","province":"東京都","city":"調布市","address":"東京都調布市深大寺南町5-56-1","lat":35.6693259,"lon":139.555504},{"name":"調布西町給水所","province":"東京都","city":"調布市","address":"東京都調布市西町717","lat":35.66183,"lon":139.531668},{"name":"＊?東部公民館","province":"東京都","city":"調布市","address":"調布市若葉町1-29-21","lat":35.658248,"lon":139.582821},{"name":"＊?西部公民館","province":"東京都","city":"調布市","address":"調布市上石原3-21-6","lat":35.652956,"lon":139.522212},{"name":"＊?北部公民館","province":"東京都","city":"調布市","address":"調布市柴崎2-5-18","lat":35.661597,"lon":139.562758},{"name":"調布基地跡地運動広場及び大沢総合グラウンド一部","province":"東京都","city":"調布市","address":"東京都調布市西町","lat":35.66389176,"lon":139.5250488},{"name":"都立神代植物公園周辺及び自由広場","province":"東京都","city":"調布市","address":"東京都調布市深大寺元町5丁目31-10","lat":35.67232991,"lon":139.54589097},{"name":"多摩川河川敷（第１区）周辺（府中市境～多摩川原橋）","province":"東京都","city":"調布市","address":"東京都調布市多摩川2丁目7","lat":35.64668361,"lon":139.52516685},{"name":"多摩川河川敷（第２区）周辺（多摩川原橋～二ヶ領堰）","province":"東京都","city":"調布市","address":"東京都調布市多摩川5丁目32","lat":35.64222084,"lon":139.5374996},{"name":"多摩川河川敷（第３区）周辺（二ヶ領堰～狛江市境）","province":"東京都","city":"調布市","address":"東京都調布市染地2丁目51","lat":35.63780777,"lon":139.55282904},{"name":"市立調和小学校周辺","province":"東京都","city":"調布市","address":"東京都調布市菊野台3丁目27-40","lat":35.65252451,"lon":139.5724838},{"name":"市立神代中学校・上ノ原小学校周辺","province":"東京都","city":"調布市","address":"東京都調布市佐須町5丁目26-1","lat":35.66162316,"lon":139.5616816},{"name":"市立緑ケ丘小学校周辺","province":"東京都","city":"調布市","address":"東京都調布市緑ケ丘2丁目16-1","lat":35.66996995,"lon":139.58474318},{"name":"ＮＴＴ中央研修センター","province":"東京都","city":"調布市","address":"東京都調布市入間町2丁目","lat":35.64862239,"lon":139.58154701},{"name":"市立第４中学校・若葉小学校周辺","province":"東京都","city":"調布市","address":"東京都調布市若葉町3丁目15-1","lat":35.65392455,"lon":139.58283002},{"name":"上石原配水所","province":"東京都","city":"調布市","address":"東京都調布市上石原1-34-7","lat":35.661306,"lon":139.531746},{"name":"仙川配水所","province":"東京都","city":"調布市","address":"東京都調布市仙川町3-6-27","lat":35.665028,"lon":139.585263},{"name":"深大寺給水所","province":"東京都","city":"調布市","address":"東京都調布市深大寺南町5-56-1","lat":35.6693259,"lon":139.555504},{"name":"調布西町給水所","province":"東京都","city":"調布市","address":"東京都調布市西町717","lat":35.66183,"lon":139.531668},{"name":"＊?東部公民館","province":"東京都","city":"調布市","address":"調布市若葉町1-29-21","lat":35.658248,"lon":139.582821},{"name":"＊?西部公民館","province":"東京都","city":"調布市","address":"調布市上石原3-21-6","lat":35.652956,"lon":139.522212},{"name":"＊?北部公民館","province":"東京都","city":"調布市","address":"調布市柴崎2-5-18","lat":35.661597,"lon":139.562758},{"name":"調布基地跡地運動広場及び大沢総合グラウンド一部","province":"東京都","city":"調布市","address":"東京都調布市西町","lat":35.66389176,"lon":139.5250488},{"name":"都立神代植物公園周辺及び自由広場","province":"東京都","city":"調布市","address":"東京都調布市深大寺元町5丁目31-10","lat":35.67232991,"lon":139.54589097},{"name":"多摩川河川敷（第１区）周辺（府中市境～多摩川原橋）","province":"東京都","city":"調布市","address":"東京都調布市多摩川2丁目7","lat":35.64668361,"lon":139.52516685},{"name":"多摩川河川敷（第２区）周辺（多摩川原橋～二ヶ領堰）","province":"東京都","city":"調布市","address":"東京都調布市多摩川5丁目32","lat":35.64222084,"lon":139.5374996},{"name":"多摩川河川敷（第３区）周辺（二ヶ領堰～狛江市境）","province":"東京都","city":"調布市","address":"東京都調布市染地2丁目51","lat":35.63780777,"lon":139.55282904},{"name":"市立調和小学校周辺","province":"東京都","city":"調布市","address":"東京都調布市菊野台3丁目27-40","lat":35.65252451,"lon":139.5724838},{"name":"市立神代中学校・上ノ原小学校周辺","province":"東京都","city":"調布市","address":"東京都調布市佐須町5丁目26-1","lat":35.66162316,"lon":139.5616816},{"name":"市立緑ケ丘小学校周辺","province":"東京都","city":"調布市","address":"東京都調布市緑ケ丘2丁目16-1","lat":35.66996995,"lon":139.58474318},{"name":"ＮＴＴ中央研修センター","province":"東京都","city":"調布市","address":"東京都調布市入間町2丁目","lat":35.64862239,"lon":139.58154701},{"name":"市立第４中学校・若葉小学校周辺","province":"東京都","city":"調布市","address":"東京都調布市若葉町3丁目15-1","lat":35.65392455,"lon":139.58283002},{"name":"上石原配水所","province":"東京都","city":"調布市","address":"東京都調布市上石原1-34-7","lat":35.661306,"lon":139.531746},{"name":"仙川配水所","province":"東京都","city":"調布市","address":"東京都調布市仙川町3-6-27","lat":35.665028,"lon":139.585263},{"name":"深大寺給水所","province":"東京都","city":"調布市","address":"東京都調布市深大寺南町5-56-1","lat":35.6693259,"lon":139.555504},{"name":"調布西町給水所","province":"東京都","city":"調布市","address":"東京都調布市西町717","lat":35.66183,"lon":139.531668},{"name":"＊?東部公民館","province":"東京都","city":"調布市","address":"調布市若葉町1-29-21","lat":35.658248,"lon":139.582821},{"name":"＊?西部公民館","province":"東京都","city":"調布市","address":"調布市上石原3-21-6","lat":35.652956,"lon":139.522212},{"name":"＊?北部公民館","province":"東京都","city":"調布市","address":"調布市柴崎2-5-18","lat":35.661597,"lon":139.562758},{"name":"調布基地跡地運動広場及び大沢総合グラウンド一部","province":"東京都","city":"調布市","address":"東京都調布市西町","lat":35.66389176,"lon":139.5250488},{"name":"都立神代植物公園周辺及び自由広場","province":"東京都","city":"調布市","address":"東京都調布市深大寺元町5丁目31-10","lat":35.67232991,"lon":139.54589097},{"name":"多摩川河川敷（第１区）周辺（府中市境～多摩川原橋）","province":"東京都","city":"調布市","address":"東京都調布市多摩川2丁目7","lat":35.64668361,"lon":139.52516685},{"name":"多摩川河川敷（第２区）周辺（多摩川原橋～二ヶ領堰）","province":"東京都","city":"調布市","address":"東京都調布市多摩川5丁目32","lat":35.64222084,"lon":139.5374996},{"name":"多摩川河川敷（第３区）周辺（二ヶ領堰～狛江市境）","province":"東京都","city":"調布市","address":"東京都調布市染地2丁目51","lat":35.63780777,"lon":139.55282904},{"name":"市立調和小学校周辺","province":"東京都","city":"調布市","address":"東京都調布市菊野台3丁目27-40","lat":35.65252451,"lon":139.5724838},{"name":"市立神代中学校・上ノ原小学校周辺","province":"東京都","city":"調布市","address":"東京都調布市佐須町5丁目26-1","lat":35.66162316,"lon":139.5616816},{"name":"市立緑ケ丘小学校周辺","province":"東京都","city":"調布市","address":"東京都調布市緑ケ丘2丁目16-1","lat":35.66996995,"lon":139.58474318},{"name":"ＮＴＴ中央研修センター","province":"東京都","city":"調布市","address":"東京都調布市入間町2丁目","lat":35.64862239,"lon":139.58154701},{"name":"市立第４中学校・若葉小学校周辺","province":"東京都","city":"調布市","address":"東京都調布市若葉町3丁目15-1","lat":35.65392455,"lon":139.58283002},{"name":"上石原配水所","province":"東京都","city":"調布市","address":"東京都調布市上石原1-34-7","lat":35.661306,"lon":139.531746},{"name":"仙川配水所","province":"東京都","city":"調布市","address":"東京都調布市仙川町3-6-27","lat":35.665028,"lon":139.585263},{"name":"深大寺給水所","province":"東京都","city":"調布市","address":"東京都調布市深大寺南町5-56-1","lat":35.6693259,"lon":139.555504},{"name":"調布西町給水所","province":"東京都","city":"調布市","address":"東京都調布市西町717","lat":35.66183,"lon":139.531668},{"name":"＊?東部公民館","province":"東京都","city":"調布市","address":"調布市若葉町1-29-21","lat":35.658248,"lon":139.582821},{"name":"＊?西部公民館","province":"東京都","city":"調布市","address":"調布市上石原3-21-6","lat":35.652956,"lon":139.522212},{"name":"＊?北部公民館","province":"東京都","city":"調布市","address":"調布市柴崎2-5-18","lat":35.661597,"lon":139.562758},{"name":"調布基地跡地運動広場及び大沢総合グラウンド一部","province":"東京都","city":"調布市","address":"東京都調布市西町","lat":35.66389176,"lon":139.5250488},{"name":"都立神代植物公園周辺及び自由広場","province":"東京都","city":"調布市","address":"東京都調布市深大寺元町5丁目31-10","lat":35.67232991,"lon":139.54589097},{"name":"多摩川河川敷（第１区）周辺（府中市境～多摩川原橋）","province":"東京都","city":"調布市","address":"東京都調布市多摩川2丁目7","lat":35.64668361,"lon":139.52516685},{"name":"多摩川河川敷（第２区）周辺（多摩川原橋～二ヶ領堰）","province":"東京都","city":"調布市","address":"東京都調布市多摩川5丁目32","lat":35.64222084,"lon":139.5374996},{"name":"多摩川河川敷（第３区）周辺（二ヶ領堰～狛江市境）","province":"東京都","city":"調布市","address":"東京都調布市染地2丁目51","lat":35.63780777,"lon":139.55282904},{"name":"市立調和小学校周辺","province":"東京都","city":"調布市","address":"東京都調布市菊野台3丁目27-40","lat":35.65252451,"lon":139.5724838},{"name":"市立神代中学校・上ノ原小学校周辺","province":"東京都","city":"調布市","address":"東京都調布市佐須町5丁目26-1","lat":35.66162316,"lon":139.5616816},{"name":"市立緑ケ丘小学校周辺","province":"東京都","city":"調布市","address":"東京都調布市緑ケ丘2丁目16-1","lat":35.66996995,"lon":139.58474318},{"name":"ＮＴＴ中央研修センター","province":"東京都","city":"調布市","address":"東京都調布市入間町2丁目","lat":35.64862239,"lon":139.58154701},{"name":"市立第４中学校・若葉小学校周辺","province":"東京都","city":"調布市","address":"東京都調布市若葉町3丁目15-1","lat":35.65392455,"lon":139.58283002},{"name":"上石原配水所","province":"東京都","city":"調布市","address":"東京都調布市上石原1-34-7","lat":35.661306,"lon":139.531746},{"name":"仙川配水所","province":"東京都","city":"調布市","address":"東京都調布市仙川町3-6-27","lat":35.665028,"lon":139.585263},{"name":"深大寺給水所","province":"東京都","city":"調布市","address":"東京都調布市深大寺南町5-56-1","lat":35.6693259,"lon":139.555504},{"name":"調布西町給水所","province":"東京都","city":"調布市","address":"東京都調布市西町717","lat":35.66183,"lon":139.531668},{"name":"＊?東部公民館","province":"東京都","city":"調布市","address":"調布市若葉町1-29-21","lat":35.658248,"lon":139.582821},{"name":"＊?西部公民館","province":"東京都","city":"調布市","address":"調布市上石原3-21-6","lat":35.652956,"lon":139.522212},{"name":"＊?北部公民館","province":"東京都","city":"調布市","address":"調布市柴崎2-5-18","lat":35.661597,"lon":139.562758},{"name":"調布基地跡地運動広場及び大沢総合グラウンド一部","province":"東京都","city":"調布市","address":"東京都調布市西町","lat":35.66389176,"lon":139.5250488},{"name":"都立神代植物公園周辺及び自由広場","province":"東京都","city":"調布市","address":"東京都調布市深大寺元町5丁目31-10","lat":35.67232991,"lon":139.54589097},{"name":"多摩川河川敷（第１区）周辺（府中市境～多摩川原橋）","province":"東京都","city":"調布市","address":"東京都調布市多摩川2丁目7","lat":35.64668361,"lon":139.52516685},{"name":"多摩川河川敷（第２区）周辺（多摩川原橋～二ヶ領堰）","province":"東京都","city":"調布市","address":"東京都調布市多摩川5丁目32","lat":35.64222084,"lon":139.5374996},{"name":"多摩川河川敷（第３区）周辺（二ヶ領堰～狛江市境）","province":"東京都","city":"調布市","address":"東京都調布市染地2丁目51","lat":35.63780777,"lon":139.55282904},{"name":"市立調和小学校周辺","province":"東京都","city":"調布市","address":"東京都調布市菊野台3丁目27-40","lat":35.65252451,"lon":139.5724838},{"name":"市立神代中学校・上ノ原小学校周辺","province":"東京都","city":"調布市","address":"東京都調布市佐須町5丁目26-1","lat":35.66162316,"lon":139.5616816},{"name":"市立緑ケ丘小学校周辺","province":"東京都","city":"調布市","address":"東京都調布市緑ケ丘2丁目16-1","lat":35.66996995,"lon":139.58474318},{"name":"ＮＴＴ中央研修センター","province":"東京都","city":"調布市","address":"東京都調布市入間町2丁目","lat":35.64862239,"lon":139.58154701},{"name":"市立第４中学校・若葉小学校周辺","province":"東京都","city":"調布市","address":"東京都調布市若葉町3丁目15-1","lat":35.65392455,"lon":139.58283002},{"name":"上石原配水所","province":"東京都","city":"調布市","address":"東京都調布市上石原1-34-7","lat":35.661306,"lon":139.531746},{"name":"仙川配水所","province":"東京都","city":"調布市","address":"東京都調布市仙川町3-6-27","lat":35.665028,"lon":139.585263},{"name":"深大寺給水所","province":"東京都","city":"調布市","address":"東京都調布市深大寺南町5-56-1","lat":35.6693259,"lon":139.555504},{"name":"調布西町給水所","province":"東京都","city":"調布市","address":"東京都調布市西町717","lat":35.66183,"lon":139.531668},{"name":"＊?東部公民館","province":"東京都","city":"調布市","address":"調布市若葉町1-29-21","lat":35.658248,"lon":139.582821},{"name":"＊?西部公民館","province":"東京都","city":"調布市","address":"調布市上石原3-21-6","lat":35.652956,"lon":139.522212},{"name":"＊?北部公民館","province":"東京都","city":"調布市","address":"調布市柴崎2-5-18","lat":35.661597,"lon":139.562758},{"name":"調布基地跡地運動広場及び大沢総合グラウンド一部","province":"東京都","city":"調布市","address":"東京都調布市西町","lat":35.66389176,"lon":139.5250488},{"name":"都立神代植物公園周辺及び自由広場","province":"東京都","city":"調布市","address":"東京都調布市深大寺元町5丁目31-10","lat":35.67232991,"lon":139.54589097},{"name":"多摩川河川敷（第１区）周辺（府中市境～多摩川原橋）","province":"東京都","city":"調布市","address":"東京都調布市多摩川2丁目7","lat":35.64668361,"lon":139.52516685},{"name":"多摩川河川敷（第２区）周辺（多摩川原橋～二ヶ領堰）","province":"東京都","city":"調布市","address":"東京都調布市多摩川5丁目32","lat":35.64222084,"lon":139.5374996},{"name":"多摩川河川敷（第３区）周辺（二ヶ領堰～狛江市境）","province":"東京都","city":"調布市","address":"東京都調布市染地2丁目51","lat":35.63780777,"lon":139.55282904},{"name":"市立調和小学校周辺","province":"東京都","city":"調布市","address":"東京都調布市菊野台3丁目27-40","lat":35.65252451,"lon":139.5724838},{"name":"市立神代中学校・上ノ原小学校周辺","province":"東京都","city":"調布市","address":"東京都調布市佐須町5丁目26-1","lat":35.66162316,"lon":139.5616816},{"name":"市立緑ケ丘小学校周辺","province":"東京都","city":"調布市","address":"東京都調布市緑ケ丘2丁目16-1","lat":35.66996995,"lon":139.58474318},{"name":"ＮＴＴ中央研修センター","province":"東京都","city":"調布市","address":"東京都調布市入間町2丁目","lat":35.64862239,"lon":139.58154701},{"name":"市立第４中学校・若葉小学校周辺","province":"東京都","city":"調布市","address":"東京都調布市若葉町3丁目15-1","lat":35.65392455,"lon":139.58283002},{"name":"上石原配水所","province":"東京都","city":"調布市","address":"東京都調布市上石原1-34-7","lat":35.661306,"lon":139.531746},{"name":"仙川配水所","province":"東京都","city":"調布市","address":"東京都調布市仙川町3-6-27","lat":35.665028,"lon":139.585263},{"name":"深大寺給水所","province":"東京都","city":"調布市","address":"東京都調布市深大寺南町5-56-1","lat":35.6693259,"lon":139.555504},{"name":"調布西町給水所","province":"東京都","city":"調布市","address":"東京都調布市西町717","lat":35.66183,"lon":139.531668},{"name":"＊?東部公民館","province":"東京都","city":"調布市","address":"調布市若葉町1-29-21","lat":35.658248,"lon":139.582821},{"name":"＊?西部公民館","province":"東京都","city":"調布市","address":"調布市上石原3-21-6","lat":35.652956,"lon":139.522212},{"name":"＊?北部公民館","province":"東京都","city":"調布市","address":"調布市柴崎2-5-18","lat":35.661597,"lon":139.562758},{"name":"調布基地跡地運動広場及び大沢総合グラウンド一部","province":"東京都","city":"調布市","address":"東京都調布市西町","lat":35.66389176,"lon":139.5250488},{"name":"都立神代植物公園周辺及び自由広場","province":"東京都","city":"調布市","address":"東京都調布市深大寺元町5丁目31-10","lat":35.67232991,"lon":139.54589097},{"name":"多摩川河川敷（第１区）周辺（府中市境～多摩川原橋）","province":"東京都","city":"調布市","address":"東京都調布市多摩川2丁目7","lat":35.64668361,"lon":139.52516685},{"name":"多摩川河川敷（第２区）周辺（多摩川原橋～二ヶ領堰）","province":"東京都","city":"調布市","address":"東京都調布市多摩川5丁目32","lat":35.64222084,"lon":139.5374996},{"name":"多摩川河川敷（第３区）周辺（二ヶ領堰～狛江市境）","province":"東京都","city":"調布市","address":"東京都調布市染地2丁目51","lat":35.63780777,"lon":139.55282904},{"name":"市立調和小学校周辺","province":"東京都","city":"調布市","address":"東京都調布市菊野台3丁目27-40","lat":35.65252451,"lon":139.5724838},{"name":"市立神代中学校・上ノ原小学校周辺","province":"東京都","city":"調布市","address":"東京都調布市佐須町5丁目26-1","lat":35.66162316,"lon":139.5616816},{"name":"市立緑ケ丘小学校周辺","province":"東京都","city":"調布市","address":"東京都調布市緑ケ丘2丁目16-1","lat":35.66996995,"lon":139.58474318},{"name":"ＮＴＴ中央研修センター","province":"東京都","city":"調布市","address":"東京都調布市入間町2丁目","lat":35.64862239,"lon":139.58154701},{"name":"市立第４中学校・若葉小学校周辺","province":"東京都","city":"調布市","address":"東京都調布市若葉町3丁目15-1","lat":35.65392455,"lon":139.58283002},{"name":"上石原配水所","province":"東京都","city":"調布市","address":"東京都調布市上石原1-34-7","lat":35.661306,"lon":139.531746},{"name":"仙川配水所","province":"東京都","city":"調布市","address":"東京都調布市仙川町3-6-27","lat":35.665028,"lon":139.585263},{"name":"深大寺給水所","province":"東京都","city":"調布市","address":"東京都調布市深大寺南町5-56-1","lat":35.6693259,"lon":139.555504},{"name":"調布西町給水所","province":"東京都","city":"調布市","address":"東京都調布市西町717","lat":35.66183,"lon":139.531668},{"name":"＊?東部公民館","province":"東京都","city":"調布市","address":"調布市若葉町1-29-21","lat":35.658248,"lon":139.582821},{"name":"＊?西部公民館","province":"東京都","city":"調布市","address":"調布市上石原3-21-6","lat":35.652956,"lon":139.522212},{"name":"＊?北部公民館","province":"東京都","city":"調布市","address":"調布市柴崎2-5-18","lat":35.661597,"lon":139.562758},{"name":"調布基地跡地運動広場及び大沢総合グラウンド一部","province":"東京都","city":"調布市","address":"東京都調布市西町","lat":35.66389176,"lon":139.5250488},{"name":"都立神代植物公園周辺及び自由広場","province":"東京都","city":"調布市","address":"東京都調布市深大寺元町5丁目31-10","lat":35.67232991,"lon":139.54589097},{"name":"多摩川河川敷（第１区）周辺（府中市境～多摩川原橋）","province":"東京都","city":"調布市","address":"東京都調布市多摩川2丁目7","lat":35.64668361,"lon":139.52516685},{"name":"多摩川河川敷（第２区）周辺（多摩川原橋～二ヶ領堰）","province":"東京都","city":"調布市","address":"東京都調布市多摩川5丁目32","lat":35.64222084,"lon":139.5374996},{"name":"多摩川河川敷（第３区）周辺（二ヶ領堰～狛江市境）","province":"東京都","city":"調布市","address":"東京都調布市染地2丁目51","lat":35.63780777,"lon":139.55282904},{"name":"市立調和小学校周辺","province":"東京都","city":"調布市","address":"東京都調布市菊野台3丁目27-40","lat":35.65252451,"lon":139.5724838},{"name":"市立神代中学校・上ノ原小学校周辺","province":"東京都","city":"調布市","address":"東京都調布市佐須町5丁目26-1","lat":35.66162316,"lon":139.5616816},{"name":"市立緑ケ丘小学校周辺","province":"東京都","city":"調布市","address":"東京都調布市緑ケ丘2丁目16-1","lat":35.66996995,"lon":139.58474318},{"name":"ＮＴＴ中央研修センター","province":"東京都","city":"調布市","address":"東京都調布市入間町2丁目","lat":35.64862239,"lon":139.58154701},{"name":"市立第４中学校・若葉小学校周辺","province":"東京都","city":"調布市","address":"東京都調布市若葉町3丁目15-1","lat":35.65392455,"lon":139.58283002},{"name":"上石原配水所","province":"東京都","city":"調布市","address":"東京都調布市上石原1-34-7","lat":35.661306,"lon":139.531746},{"name":"仙川配水所","province":"東京都","city":"調布市","address":"東京都調布市仙川町3-6-27","lat":35.665028,"lon":139.585263},{"name":"深大寺給水所","province":"東京都","city":"調布市","address":"東京都調布市深大寺南町5-56-1","lat":35.6693259,"lon":139.555504},{"name":"調布西町給水所","province":"東京都","city":"調布市","address":"東京都調布市西町717","lat":35.66183,"lon":139.531668},{"name":"＊?東部公民館","province":"東京都","city":"調布市","address":"調布市若葉町1-29-21","lat":35.658248,"lon":139.582821},{"name":"＊?西部公民館","province":"東京都","city":"調布市","address":"調布市上石原3-21-6","lat":35.652956,"lon":139.522212},{"name":"＊?北部公民館","province":"東京都","city":"調布市","address":"調布市柴崎2-5-18","lat":35.661597,"lon":139.562758},{"name":"調布基地跡地運動広場及び大沢総合グラウンド一部","province":"東京都","city":"調布市","address":"東京都調布市西町","lat":35.66389176,"lon":139.5250488},{"name":"都立神代植物公園周辺及び自由広場","province":"東京都","city":"調布市","address":"東京都調布市深大寺元町5丁目31-10","lat":35.67232991,"lon":139.54589097},{"name":"多摩川河川敷（第１区）周辺（府中市境～多摩川原橋）","province":"東京都","city":"調布市","address":"東京都調布市多摩川2丁目7","lat":35.64668361,"lon":139.52516685},{"name":"多摩川河川敷（第２区）周辺（多摩川原橋～二ヶ領堰）","province":"東京都","city":"調布市","address":"東京都調布市多摩川5丁目32","lat":35.64222084,"lon":139.5374996},{"name":"多摩川河川敷（第３区）周辺（二ヶ領堰～狛江市境）","province":"東京都","city":"調布市","address":"東京都調布市染地2丁目51","lat":35.63780777,"lon":139.55282904},{"name":"市立調和小学校周辺","province":"東京都","city":"調布市","address":"東京都調布市菊野台3丁目27-40","lat":35.65252451,"lon":139.5724838},{"name":"市立神代中学校・上ノ原小学校周辺","province":"東京都","city":"調布市","address":"東京都調布市佐須町5丁目26-1","lat":35.66162316,"lon":139.5616816},{"name":"市立緑ケ丘小学校周辺","province":"東京都","city":"調布市","address":"東京都調布市緑ケ丘2丁目16-1","lat":35.66996995,"lon":139.58474318},{"name":"ＮＴＴ中央研修センター","province":"東京都","city":"調布市","address":"東京都調布市入間町2丁目","lat":35.64862239,"lon":139.58154701},{"name":"市立第４中学校・若葉小学校周辺","province":"東京都","city":"調布市","address":"東京都調布市若葉町3丁目15-1","lat":35.65392455,"lon":139.58283002},{"name":"上石原配水所","province":"東京都","city":"調布市","address":"東京都調布市上石原1-34-7","lat":35.661306,"lon":139.531746},{"name":"仙川配水所","province":"東京都","city":"調布市","address":"東京都調布市仙川町3-6-27","lat":35.665028,"lon":139.585263},{"name":"深大寺給水所","province":"東京都","city":"調布市","address":"東京都調布市深大寺南町5-56-1","lat":35.6693259,"lon":139.555504},{"name":"調布西町給水所","province":"東京都","city":"調布市","address":"東京都調布市西町717","lat":35.66183,"lon":139.531668},{"name":"＊?東部公民館","province":"東京都","city":"調布市","address":"調布市若葉町1-29-21","lat":35.658248,"lon":139.582821},{"name":"＊?西部公民館","province":"東京都","city":"調布市","address":"調布市上石原3-21-6","lat":35.652956,"lon":139.522212},{"name":"＊?北部公民館","province":"東京都","city":"調布市","address":"調布市柴崎2-5-18","lat":35.661597,"lon":139.562758},{"name":"調布基地跡地運動広場及び大沢総合グラウンド一部","province":"東京都","city":"調布市","address":"東京都調布市西町","lat":35.66389176,"lon":139.5250488},{"name":"都立神代植物公園周辺及び自由広場","province":"東京都","city":"調布市","address":"東京都調布市深大寺元町5丁目31-10","lat":35.67232991,"lon":139.54589097},{"name":"多摩川河川敷（第１区）周辺（府中市境～多摩川原橋）","province":"東京都","city":"調布市","address":"東京都調布市多摩川2丁目7","lat":35.64668361,"lon":139.52516685},{"name":"多摩川河川敷（第２区）周辺（多摩川原橋～二ヶ領堰）","province":"東京都","city":"調布市","address":"東京都調布市多摩川5丁目32","lat":35.64222084,"lon":139.5374996},{"name":"多摩川河川敷（第３区）周辺（二ヶ領堰～狛江市境）","province":"東京都","city":"調布市","address":"東京都調布市染地2丁目51","lat":35.63780777,"lon":139.55282904},{"name":"市立調和小学校周辺","province":"東京都","city":"調布市","address":"東京都調布市菊野台3丁目27-40","lat":35.65252451,"lon":139.5724838},{"name":"市立神代中学校・上ノ原小学校周辺","province":"東京都","city":"調布市","address":"東京都調布市佐須町5丁目26-1","lat":35.66162316,"lon":139.5616816},{"name":"市立緑ケ丘小学校周辺","province":"東京都","city":"調布市","address":"東京都調布市緑ケ丘2丁目16-1","lat":35.66996995,"lon":139.58474318},{"name":"ＮＴＴ中央研修センター","province":"東京都","city":"調布市","address":"東京都調布市入間町2丁目","lat":35.64862239,"lon":139.58154701},{"name":"市立第４中学校・若葉小学校周辺","province":"東京都","city":"調布市","address":"東京都調布市若葉町3丁目15-1","lat":35.65392455,"lon":139.58283002},{"name":"上石原配水所","province":"東京都","city":"調布市","address":"東京都調布市上石原1-34-7","lat":35.661306,"lon":139.531746},{"name":"仙川配水所","province":"東京都","city":"調布市","address":"東京都調布市仙川町3-6-27","lat":35.665028,"lon":139.585263},{"name":"深大寺給水所","province":"東京都","city":"調布市","address":"東京都調布市深大寺南町5-56-1","lat":35.6693259,"lon":139.555504},{"name":"調布西町給水所","province":"東京都","city":"調布市","address":"東京都調布市西町717","lat":35.66183,"lon":139.531668},{"name":"＊?東部公民館","province":"東京都","city":"調布市","address":"調布市若葉町1-29-21","lat":35.658248,"lon":139.582821},{"name":"＊?西部公民館","province":"東京都","city":"調布市","address":"調布市上石原3-21-6","lat":35.652956,"lon":139.522212},{"name":"＊?北部公民館","province":"東京都","city":"調布市","address":"調布市柴崎2-5-18","lat":35.661597,"lon":139.562758},{"name":"調布基地跡地運動広場及び大沢総合グラウンド一部","province":"東京都","city":"調布市","address":"東京都調布市西町","lat":35.66389176,"lon":139.5250488},{"name":"都立神代植物公園周辺及び自由広場","province":"東京都","city":"調布市","address":"東京都調布市深大寺元町5丁目31-10","lat":35.67232991,"lon":139.54589097},{"name":"多摩川河川敷（第１区）周辺（府中市境～多摩川原橋）","province":"東京都","city":"調布市","address":"東京都調布市多摩川2丁目7","lat":35.64668361,"lon":139.52516685},{"name":"多摩川河川敷（第２区）周辺（多摩川原橋～二ヶ領堰）","province":"東京都","city":"調布市","address":"東京都調布市多摩川5丁目32","lat":35.64222084,"lon":139.5374996},{"name":"多摩川河川敷（第３区）周辺（二ヶ領堰～狛江市境）","province":"東京都","city":"調布市","address":"東京都調布市染地2丁目51","lat":35.63780777,"lon":139.55282904},{"name":"市立調和小学校周辺","province":"東京都","city":"調布市","address":"東京都調布市菊野台3丁目27-40","lat":35.65252451,"lon":139.5724838},{"name":"市立神代中学校・上ノ原小学校周辺","province":"東京都","city":"調布市","address":"東京都調布市佐須町5丁目26-1","lat":35.66162316,"lon":139.5616816},{"name":"市立緑ケ丘小学校周辺","province":"東京都","city":"調布市","address":"東京都調布市緑ケ丘2丁目16-1","lat":35.66996995,"lon":139.58474318},{"name":"ＮＴＴ中央研修センター","province":"東京都","city":"調布市","address":"東京都調布市入間町2丁目","lat":35.64862239,"lon":139.58154701},{"name":"市立第４中学校・若葉小学校周辺","province":"東京都","city":"調布市","address":"東京都調布市若葉町3丁目15-1","lat":35.65392455,"lon":139.58283002},{"name":"上石原配水所","province":"東京都","city":"調布市","address":"東京都調布市上石原1-34-7","lat":35.661306,"lon":139.531746},{"name":"仙川配水所","province":"東京都","city":"調布市","address":"東京都調布市仙川町3-6-27","lat":35.665028,"lon":139.585263},{"name":"深大寺給水所","province":"東京都","city":"調布市","address":"東京都調布市深大寺南町5-56-1","lat":35.6693259,"lon":139.555504},{"name":"調布西町給水所","province":"東京都","city":"調布市","address":"東京都調布市西町717","lat":35.66183,"lon":139.531668},{"name":"＊?東部公民館","province":"東京都","city":"調布市","address":"調布市若葉町1-29-21","lat":35.658248,"lon":139.582821},{"name":"＊?西部公民館","province":"東京都","city":"調布市","address":"調布市上石原3-21-6","lat":35.652956,"lon":139.522212},{"name":"＊?北部公民館","province":"東京都","city":"調布市","address":"調布市柴崎2-5-18","lat":35.661597,"lon":139.562758},{"name":"調布基地跡地運動広場及び大沢総合グラウンド一部","province":"東京都","city":"調布市","address":"東京都調布市西町","lat":35.66389176,"lon":139.5250488},{"name":"都立神代植物公園周辺及び自由広場","province":"東京都","city":"調布市","address":"東京都調布市深大寺元町5丁目31-10","lat":35.67232991,"lon":139.54589097},{"name":"多摩川河川敷（第１区）周辺（府中市境～多摩川原橋）","province":"東京都","city":"調布市","address":"東京都調布市多摩川2丁目7","lat":35.64668361,"lon":139.52516685},{"name":"多摩川河川敷（第２区）周辺（多摩川原橋～二ヶ領堰）","province":"東京都","city":"調布市","address":"東京都調布市多摩川5丁目32","lat":35.64222084,"lon":139.5374996},{"name":"多摩川河川敷（第３区）周辺（二ヶ領堰～狛江市境）","province":"東京都","city":"調布市","address":"東京都調布市染地2丁目51","lat":35.63780777,"lon":139.55282904},{"name":"市立調和小学校周辺","province":"東京都","city":"調布市","address":"東京都調布市菊野台3丁目27-40","lat":35.65252451,"lon":139.5724838},{"name":"市立神代中学校・上ノ原小学校周辺","province":"東京都","city":"調布市","address":"東京都調布市佐須町5丁目26-1","lat":35.66162316,"lon":139.5616816},{"name":"市立緑ケ丘小学校周辺","province":"東京都","city":"調布市","address":"東京都調布市緑ケ丘2丁目16-1","lat":35.66996995,"lon":139.58474318},{"name":"ＮＴＴ中央研修センター","province":"東京都","city":"調布市","address":"東京都調布市入間町2丁目","lat":35.64862239,"lon":139.58154701},{"name":"市立第４中学校・若葉小学校周辺","province":"東京都","city":"調布市","address":"東京都調布市若葉町3丁目15-1","lat":35.65392455,"lon":139.58283002},{"name":"上石原配水所","province":"東京都","city":"調布市","address":"東京都調布市上石原1-34-7","lat":35.661306,"lon":139.531746},{"name":"仙川配水所","province":"東京都","city":"調布市","address":"東京都調布市仙川町3-6-27","lat":35.665028,"lon":139.585263},{"name":"深大寺給水所","province":"東京都","city":"調布市","address":"東京都調布市深大寺南町5-56-1","lat":35.6693259,"lon":139.555504},{"name":"調布西町給水所","province":"東京都","city":"調布市","address":"東京都調布市西町717","lat":35.66183,"lon":139.531668},{"name":"＊?東部公民館","province":"東京都","city":"調布市","address":"調布市若葉町1-29-21","lat":35.658248,"lon":139.582821},{"name":"＊?西部公民館","province":"東京都","city":"調布市","address":"調布市上石原3-21-6","lat":35.652956,"lon":139.522212},{"name":"＊?北部公民館","province":"東京都","city":"調布市","address":"調布市柴崎2-5-18","lat":35.661597,"lon":139.562758},{"name":"調布基地跡地運動広場及び大沢総合グラウンド一部","province":"東京都","city":"調布市","address":"東京都調布市西町","lat":35.66389176,"lon":139.5250488},{"name":"都立神代植物公園周辺及び自由広場","province":"東京都","city":"調布市","address":"東京都調布市深大寺元町5丁目31-10","lat":35.67232991,"lon":139.54589097},{"name":"多摩川河川敷（第１区）周辺（府中市境～多摩川原橋）","province":"東京都","city":"調布市","address":"東京都調布市多摩川2丁目7","lat":35.64668361,"lon":139.52516685},{"name":"多摩川河川敷（第２区）周辺（多摩川原橋～二ヶ領堰）","province":"東京都","city":"調布市","address":"東京都調布市多摩川5丁目32","lat":35.64222084,"lon":139.5374996},{"name":"多摩川河川敷（第３区）周辺（二ヶ領堰～狛江市境）","province":"東京都","city":"調布市","address":"東京都調布市染地2丁目51","lat":35.63780777,"lon":139.55282904},{"name":"市立調和小学校周辺","province":"東京都","city":"調布市","address":"東京都調布市菊野台3丁目27-40","lat":35.65252451,"lon":139.5724838},{"name":"市立神代中学校・上ノ原小学校周辺","province":"東京都","city":"調布市","address":"東京都調布市佐須町5丁目26-1","lat":35.66162316,"lon":139.5616816},{"name":"市立緑ケ丘小学校周辺","province":"東京都","city":"調布市","address":"東京都調布市緑ケ丘2丁目16-1","lat":35.66996995,"lon":139.58474318},{"name":"ＮＴＴ中央研修センター","province":"東京都","city":"調布市","address":"東京都調布市入間町2丁目","lat":35.64862239,"lon":139.58154701},{"name":"市立第４中学校・若葉小学校周辺","province":"東京都","city":"調布市","address":"東京都調布市若葉町3丁目15-1","lat":35.65392455,"lon":139.58283002},{"name":"上石原配水所","province":"東京都","city":"調布市","address":"東京都調布市上石原1-34-7","lat":35.661306,"lon":139.531746},{"name":"仙川配水所","province":"東京都","city":"調布市","address":"東京都調布市仙川町3-6-27","lat":35.665028,"lon":139.585263},{"name":"深大寺給水所","province":"東京都","city":"調布市","address":"東京都調布市深大寺南町5-56-1","lat":35.6693259,"lon":139.555504},{"name":"調布西町給水所","province":"東京都","city":"調布市","address":"東京都調布市西町717","lat":35.66183,"lon":139.531668},{"name":"＊?東部公民館","province":"東京都","city":"調布市","address":"調布市若葉町1-29-21","lat":35.658248,"lon":139.582821},{"name":"＊?西部公民館","province":"東京都","city":"調布市","address":"調布市上石原3-21-6","lat":35.652956,"lon":139.522212},{"name":"＊?北部公民館","province":"東京都","city":"調布市","address":"調布市柴崎2-5-18","lat":35.661597,"lon":139.562758},{"name":"調布基地跡地運動広場及び大沢総合グラウンド一部","province":"東京都","city":"調布市","address":"東京都調布市西町","lat":35.66389176,"lon":139.5250488},{"name":"都立神代植物公園周辺及び自由広場","province":"東京都","city":"調布市","address":"東京都調布市深大寺元町5丁目31-10","lat":35.67232991,"lon":139.54589097},{"name":"多摩川河川敷（第１区）周辺（府中市境～多摩川原橋）","province":"東京都","city":"調布市","address":"東京都調布市多摩川2丁目7","lat":35.64668361,"lon":139.52516685},{"name":"多摩川河川敷（第２区）周辺（多摩川原橋～二ヶ領堰）","province":"東京都","city":"調布市","address":"東京都調布市多摩川5丁目32","lat":35.64222084,"lon":139.5374996},{"name":"多摩川河川敷（第３区）周辺（二ヶ領堰～狛江市境）","province":"東京都","city":"調布市","address":"東京都調布市染地2丁目51","lat":35.63780777,"lon":139.55282904},{"name":"市立調和小学校周辺","province":"東京都","city":"調布市","address":"東京都調布市菊野台3丁目27-40","lat":35.65252451,"lon":139.5724838},{"name":"市立神代中学校・上ノ原小学校周辺","province":"東京都","city":"調布市","address":"東京都調布市佐須町5丁目26-1","lat":35.66162316,"lon":139.5616816},{"name":"市立緑ケ丘小学校周辺","province":"東京都","city":"調布市","address":"東京都調布市緑ケ丘2丁目16-1","lat":35.66996995,"lon":139.58474318},{"name":"ＮＴＴ中央研修センター","province":"東京都","city":"調布市","address":"東京都調布市入間町2丁目","lat":35.64862239,"lon":139.58154701},{"name":"市立第４中学校・若葉小学校周辺","province":"東京都","city":"調布市","address":"東京都調布市若葉町3丁目15-1","lat":35.65392455,"lon":139.58283002},{"name":"上石原配水所","province":"東京都","city":"調布市","address":"東京都調布市上石原1-34-7","lat":35.661306,"lon":139.531746},{"name":"仙川配水所","province":"東京都","city":"調布市","address":"東京都調布市仙川町3-6-27","lat":35.665028,"lon":139.585263},{"name":"深大寺給水所","province":"東京都","city":"調布市","address":"東京都調布市深大寺南町5-56-1","lat":35.6693259,"lon":139.555504},{"name":"調布西町給水所","province":"東京都","city":"調布市","address":"東京都調布市西町717","lat":35.66183,"lon":139.531668},{"name":"＊?東部公民館","province":"東京都","city":"調布市","address":"調布市若葉町1-29-21","lat":35.658248,"lon":139.582821},{"name":"＊?西部公民館","province":"東京都","city":"調布市","address":"調布市上石原3-21-6","lat":35.652956,"lon":139.522212},{"name":"＊?北部公民館","province":"東京都","city":"調布市","address":"調布市柴崎2-5-18","lat":35.661597,"lon":139.562758},{"name":"調布基地跡地運動広場及び大沢総合グラウンド一部","province":"東京都","city":"調布市","address":"東京都調布市西町","lat":35.66389176,"lon":139.5250488},{"name":"都立神代植物公園周辺及び自由広場","province":"東京都","city":"調布市","address":"東京都調布市深大寺元町5丁目31-10","lat":35.67232991,"lon":139.54589097},{"name":"多摩川河川敷（第１区）周辺（府中市境～多摩川原橋）","province":"東京都","city":"調布市","address":"東京都調布市多摩川2丁目7","lat":35.64668361,"lon":139.52516685},{"name":"多摩川河川敷（第２区）周辺（多摩川原橋～二ヶ領堰）","province":"東京都","city":"調布市","address":"東京都調布市多摩川5丁目32","lat":35.64222084,"lon":139.5374996},{"name":"多摩川河川敷（第３区）周辺（二ヶ領堰～狛江市境）","province":"東京都","city":"調布市","address":"東京都調布市染地2丁目51","lat":35.63780777,"lon":139.55282904},{"name":"市立調和小学校周辺","province":"東京都","city":"調布市","address":"東京都調布市菊野台3丁目27-40","lat":35.65252451,"lon":139.5724838},{"name":"市立神代中学校・上ノ原小学校周辺","province":"東京都","city":"調布市","address":"東京都調布市佐須町5丁目26-1","lat":35.66162316,"lon":139.5616816},{"name":"市立緑ケ丘小学校周辺","province":"東京都","city":"調布市","address":"東京都調布市緑ケ丘2丁目16-1","lat":35.66996995,"lon":139.58474318},{"name":"ＮＴＴ中央研修センター","province":"東京都","city":"調布市","address":"東京都調布市入間町2丁目","lat":35.64862239,"lon":139.58154701},{"name":"市立第４中学校・若葉小学校周辺","province":"東京都","city":"調布市","address":"東京都調布市若葉町3丁目15-1","lat":35.65392455,"lon":139.58283002},{"name":"上石原配水所","province":"東京都","city":"調布市","address":"東京都調布市上石原1-34-7","lat":35.661306,"lon":139.531746},{"name":"仙川配水所","province":"東京都","city":"調布市","address":"東京都調布市仙川町3-6-27","lat":35.665028,"lon":139.585263},{"name":"深大寺給水所","province":"東京都","city":"調布市","address":"東京都調布市深大寺南町5-56-1","lat":35.6693259,"lon":139.555504},{"name":"調布西町給水所","province":"東京都","city":"調布市","address":"東京都調布市西町717","lat":35.66183,"lon":139.531668},{"name":"＊?東部公民館","province":"東京都","city":"調布市","address":"調布市若葉町1-29-21","lat":35.658248,"lon":139.582821},{"name":"＊?西部公民館","province":"東京都","city":"調布市","address":"調布市上石原3-21-6","lat":35.652956,"lon":139.522212},{"name":"＊?北部公民館","province":"東京都","city":"調布市","address":"調布市柴崎2-5-18","lat":35.661597,"lon":139.562758},{"name":"調布基地跡地運動広場及び大沢総合グラウンド一部","province":"東京都","city":"調布市","address":"東京都調布市西町","lat":35.66389176,"lon":139.5250488},{"name":"都立神代植物公園周辺及び自由広場","province":"東京都","city":"調布市","address":"東京都調布市深大寺元町5丁目31-10","lat":35.67232991,"lon":139.54589097},{"name":"多摩川河川敷（第１区）周辺（府中市境～多摩川原橋）","province":"東京都","city":"調布市","address":"東京都調布市多摩川2丁目7","lat":35.64668361,"lon":139.52516685},{"name":"多摩川河川敷（第２区）周辺（多摩川原橋～二ヶ領堰）","province":"東京都","city":"調布市","address":"東京都調布市多摩川5丁目32","lat":35.64222084,"lon":139.5374996},{"name":"多摩川河川敷（第３区）周辺（二ヶ領堰～狛江市境）","province":"東京都","city":"調布市","address":"東京都調布市染地2丁目51","lat":35.63780777,"lon":139.55282904},{"name":"市立調和小学校周辺","province":"東京都","city":"調布市","address":"東京都調布市菊野台3丁目27-40","lat":35.65252451,"lon":139.5724838},{"name":"市立神代中学校・上ノ原小学校周辺","province":"東京都","city":"調布市","address":"東京都調布市佐須町5丁目26-1","lat":35.66162316,"lon":139.5616816},{"name":"市立緑ケ丘小学校周辺","province":"東京都","city":"調布市","address":"東京都調布市緑ケ丘2丁目16-1","lat":35.66996995,"lon":139.58474318},{"name":"ＮＴＴ中央研修センター","province":"東京都","city":"調布市","address":"東京都調布市入間町2丁目","lat":35.64862239,"lon":139.58154701},{"name":"市立第４中学校・若葉小学校周辺","province":"東京都","city":"調布市","address":"東京都調布市若葉町3丁目15-1","lat":35.65392455,"lon":139.58283002},{"name":"上石原配水所","province":"東京都","city":"調布市","address":"東京都調布市上石原1-34-7","lat":35.661306,"lon":139.531746},{"name":"仙川配水所","province":"東京都","city":"調布市","address":"東京都調布市仙川町3-6-27","lat":35.665028,"lon":139.585263},{"name":"深大寺給水所","province":"東京都","city":"調布市","address":"東京都調布市深大寺南町5-56-1","lat":35.6693259,"lon":139.555504},{"name":"調布西町給水所","province":"東京都","city":"調布市","address":"東京都調布市西町717","lat":35.66183,"lon":139.531668},{"name":"＊?東部公民館","province":"東京都","city":"調布市","address":"調布市若葉町1-29-21","lat":35.658248,"lon":139.582821},{"name":"＊?西部公民館","province":"東京都","city":"調布市","address":"調布市上石原3-21-6","lat":35.652956,"lon":139.522212},{"name":"＊?北部公民館","province":"東京都","city":"調布市","address":"調布市柴崎2-5-18","lat":35.661597,"lon":139.562758},{"name":"調布基地跡地運動広場及び大沢総合グラウンド一部","province":"東京都","city":"調布市","address":"東京都調布市西町","lat":35.66389176,"lon":139.5250488},{"name":"都立神代植物公園周辺及び自由広場","province":"東京都","city":"調布市","address":"東京都調布市深大寺元町5丁目31-10","lat":35.67232991,"lon":139.54589097},{"name":"多摩川河川敷（第１区）周辺（府中市境～多摩川原橋）","province":"東京都","city":"調布市","address":"東京都調布市多摩川2丁目7","lat":35.64668361,"lon":139.52516685},{"name":"多摩川河川敷（第２区）周辺（多摩川原橋～二ヶ領堰）","province":"東京都","city":"調布市","address":"東京都調布市多摩川5丁目32","lat":35.64222084,"lon":139.5374996},{"name":"多摩川河川敷（第３区）周辺（二ヶ領堰～狛江市境）","province":"東京都","city":"調布市","address":"東京都調布市染地2丁目51","lat":35.63780777,"lon":139.55282904},{"name":"市立調和小学校周辺","province":"東京都","city":"調布市","address":"東京都調布市菊野台3丁目27-40","lat":35.65252451,"lon":139.5724838},{"name":"市立神代中学校・上ノ原小学校周辺","province":"東京都","city":"調布市","address":"東京都調布市佐須町5丁目26-1","lat":35.66162316,"lon":139.5616816},{"name":"市立緑ケ丘小学校周辺","province":"東京都","city":"調布市","address":"東京都調布市緑ケ丘2丁目16-1","lat":35.66996995,"lon":139.58474318},{"name":"ＮＴＴ中央研修センター","province":"東京都","city":"調布市","address":"東京都調布市入間町2丁目","lat":35.64862239,"lon":139.58154701},{"name":"市立第４中学校・若葉小学校周辺","province":"東京都","city":"調布市","address":"東京都調布市若葉町3丁目15-1","lat":35.65392455,"lon":139.58283002},{"name":"上石原配水所","province":"東京都","city":"調布市","address":"東京都調布市上石原1-34-7","lat":35.661306,"lon":139.531746},{"name":"仙川配水所","province":"東京都","city":"調布市","address":"東京都調布市仙川町3-6-27","lat":35.665028,"lon":139.585263},{"name":"深大寺給水所","province":"東京都","city":"調布市","address":"東京都調布市深大寺南町5-56-1","lat":35.6693259,"lon":139.555504},{"name":"調布西町給水所","province":"東京都","city":"調布市","address":"東京都調布市西町717","lat":35.66183,"lon":139.531668},{"name":"＊?東部公民館","province":"東京都","city":"調布市","address":"調布市若葉町1-29-21","lat":35.658248,"lon":139.582821},{"name":"＊?西部公民館","province":"東京都","city":"調布市","address":"調布市上石原3-21-6","lat":35.652956,"lon":139.522212},{"name":"＊?北部公民館","province":"東京都","city":"調布市","address":"調布市柴崎2-5-18","lat":35.661597,"lon":139.562758},{"name":"調布基地跡地運動広場及び大沢総合グラウンド一部","province":"東京都","city":"調布市","address":"東京都調布市西町","lat":35.66389176,"lon":139.5250488},{"name":"都立神代植物公園周辺及び自由広場","province":"東京都","city":"調布市","address":"東京都調布市深大寺元町5丁目31-10","lat":35.67232991,"lon":139.54589097},{"name":"多摩川河川敷（第１区）周辺（府中市境～多摩川原橋）","province":"東京都","city":"調布市","address":"東京都調布市多摩川2丁目7","lat":35.64668361,"lon":139.52516685},{"name":"多摩川河川敷（第２区）周辺（多摩川原橋～二ヶ領堰）","province":"東京都","city":"調布市","address":"東京都調布市多摩川5丁目32","lat":35.64222084,"lon":139.5374996},{"name":"多摩川河川敷（第３区）周辺（二ヶ領堰～狛江市境）","province":"東京都","city":"調布市","address":"東京都調布市染地2丁目51","lat":35.63780777,"lon":139.55282904},{"name":"市立調和小学校周辺","province":"東京都","city":"調布市","address":"東京都調布市菊野台3丁目27-40","lat":35.65252451,"lon":139.5724838},{"name":"市立神代中学校・上ノ原小学校周辺","province":"東京都","city":"調布市","address":"東京都調布市佐須町5丁目26-1","lat":35.66162316,"lon":139.5616816},{"name":"市立緑ケ丘小学校周辺","province":"東京都","city":"調布市","address":"東京都調布市緑ケ丘2丁目16-1","lat":35.66996995,"lon":139.58474318},{"name":"ＮＴＴ中央研修センター","province":"東京都","city":"調布市","address":"東京都調布市入間町2丁目","lat":35.64862239,"lon":139.58154701},{"name":"市立第４中学校・若葉小学校周辺","province":"東京都","city":"調布市","address":"東京都調布市若葉町3丁目15-1","lat":35.65392455,"lon":139.58283002},{"name":"上石原配水所","province":"東京都","city":"調布市","address":"東京都調布市上石原1-34-7","lat":35.661306,"lon":139.531746},{"name":"仙川配水所","province":"東京都","city":"調布市","address":"東京都調布市仙川町3-6-27","lat":35.665028,"lon":139.585263},{"name":"深大寺給水所","province":"東京都","city":"調布市","address":"東京都調布市深大寺南町5-56-1","lat":35.6693259,"lon":139.555504},{"name":"調布西町給水所","province":"東京都","city":"調布市","address":"東京都調布市西町717","lat":35.66183,"lon":139.531668},{"name":"＊?東部公民館","province":"東京都","city":"調布市","address":"調布市若葉町1-29-21","lat":35.658248,"lon":139.582821},{"name":"＊?西部公民館","province":"東京都","city":"調布市","address":"調布市上石原3-21-6","lat":35.652956,"lon":139.522212},{"name":"＊?北部公民館","province":"東京都","city":"調布市","address":"調布市柴崎2-5-18","lat":35.661597,"lon":139.562758},{"name":"調布基地跡地運動広場及び大沢総合グラウンド一部","province":"東京都","city":"調布市","address":"東京都調布市西町","lat":35.66389176,"lon":139.5250488},{"name":"都立神代植物公園周辺及び自由広場","province":"東京都","city":"調布市","address":"東京都調布市深大寺元町5丁目31-10","lat":35.67232991,"lon":139.54589097},{"name":"多摩川河川敷（第１区）周辺（府中市境～多摩川原橋）","province":"東京都","city":"調布市","address":"東京都調布市多摩川2丁目7","lat":35.64668361,"lon":139.52516685},{"name":"多摩川河川敷（第２区）周辺（多摩川原橋～二ヶ領堰）","province":"東京都","city":"調布市","address":"東京都調布市多摩川5丁目32","lat":35.64222084,"lon":139.5374996},{"name":"多摩川河川敷（第３区）周辺（二ヶ領堰～狛江市境）","province":"東京都","city":"調布市","address":"東京都調布市染地2丁目51","lat":35.63780777,"lon":139.55282904},{"name":"市立調和小学校周辺","province":"東京都","city":"調布市","address":"東京都調布市菊野台3丁目27-40","lat":35.65252451,"lon":139.5724838},{"name":"市立神代中学校・上ノ原小学校周辺","province":"東京都","city":"調布市","address":"東京都調布市佐須町5丁目26-1","lat":35.66162316,"lon":139.5616816},{"name":"市立緑ケ丘小学校周辺","province":"東京都","city":"調布市","address":"東京都調布市緑ケ丘2丁目16-1","lat":35.66996995,"lon":139.58474318},{"name":"ＮＴＴ中央研修センター","province":"東京都","city":"調布市","address":"東京都調布市入間町2丁目","lat":35.64862239,"lon":139.58154701},{"name":"市立第４中学校・若葉小学校周辺","province":"東京都","city":"調布市","address":"東京都調布市若葉町3丁目15-1","lat":35.65392455,"lon":139.58283002},{"name":"上石原配水所","province":"東京都","city":"調布市","address":"東京都調布市上石原1-34-7","lat":35.661306,"lon":139.531746},{"name":"仙川配水所","province":"東京都","city":"調布市","address":"東京都調布市仙川町3-6-27","lat":35.665028,"lon":139.585263},{"name":"深大寺給水所","province":"東京都","city":"調布市","address":"東京都調布市深大寺南町5-56-1","lat":35.6693259,"lon":139.555504},{"name":"調布西町給水所","province":"東京都","city":"調布市","address":"東京都調布市西町717","lat":35.66183,"lon":139.531668},{"name":"＊?東部公民館","province":"東京都","city":"調布市","address":"調布市若葉町1-29-21","lat":35.658248,"lon":139.582821},{"name":"＊?西部公民館","province":"東京都","city":"調布市","address":"調布市上石原3-21-6","lat":35.652956,"lon":139.522212},{"name":"＊?北部公民館","province":"東京都","city":"調布市","address":"調布市柴崎2-5-18","lat":35.661597,"lon":139.562758},{"name":"調布基地跡地運動広場及び大沢総合グラウンド一部","province":"東京都","city":"調布市","address":"東京都調布市西町","lat":35.66389176,"lon":139.5250488},{"name":"都立神代植物公園周辺及び自由広場","province":"東京都","city":"調布市","address":"東京都調布市深大寺元町5丁目31-10","lat":35.67232991,"lon":139.54589097},{"name":"多摩川河川敷（第１区）周辺（府中市境～多摩川原橋）","province":"東京都","city":"調布市","address":"東京都調布市多摩川2丁目7","lat":35.64668361,"lon":139.52516685},{"name":"多摩川河川敷（第２区）周辺（多摩川原橋～二ヶ領堰）","province":"東京都","city":"調布市","address":"東京都調布市多摩川5丁目32","lat":35.64222084,"lon":139.5374996},{"name":"多摩川河川敷（第３区）周辺（二ヶ領堰～狛江市境）","province":"東京都","city":"調布市","address":"東京都調布市染地2丁目51","lat":35.63780777,"lon":139.55282904},{"name":"市立調和小学校周辺","province":"東京都","city":"調布市","address":"東京都調布市菊野台3丁目27-40","lat":35.65252451,"lon":139.5724838},{"name":"市立神代中学校・上ノ原小学校周辺","province":"東京都","city":"調布市","address":"東京都調布市佐須町5丁目26-1","lat":35.66162316,"lon":139.5616816},{"name":"市立緑ケ丘小学校周辺","province":"東京都","city":"調布市","address":"東京都調布市緑ケ丘2丁目16-1","lat":35.66996995,"lon":139.58474318},{"name":"ＮＴＴ中央研修センター","province":"東京都","city":"調布市","address":"東京都調布市入間町2丁目","lat":35.64862239,"lon":139.58154701},{"name":"市立第４中学校・若葉小学校周辺","province":"東京都","city":"調布市","address":"東京都調布市若葉町3丁目15-1","lat":35.65392455,"lon":139.58283002},{"name":"上石原配水所","province":"東京都","city":"調布市","address":"東京都調布市上石原1-34-7","lat":35.661306,"lon":139.531746},{"name":"仙川配水所","province":"東京都","city":"調布市","address":"東京都調布市仙川町3-6-27","lat":35.665028,"lon":139.585263},{"name":"深大寺給水所","province":"東京都","city":"調布市","address":"東京都調布市深大寺南町5-56-1","lat":35.6693259,"lon":139.555504},{"name":"調布西町給水所","province":"東京都","city":"調布市","address":"東京都調布市西町717","lat":35.66183,"lon":139.531668},{"name":"＊?東部公民館","province":"東京都","city":"調布市","address":"調布市若葉町1-29-21","lat":35.658248,"lon":139.582821},{"name":"＊?西部公民館","province":"東京都","city":"調布市","address":"調布市上石原3-21-6","lat":35.652956,"lon":139.522212},{"name":"＊?北部公民館","province":"東京都","city":"調布市","address":"調布市柴崎2-5-18","lat":35.661597,"lon":139.562758},{"name":"調布基地跡地運動広場及び大沢総合グラウンド一部","province":"東京都","city":"調布市","address":"東京都調布市西町","lat":35.66389176,"lon":139.5250488},{"name":"都立神代植物公園周辺及び自由広場","province":"東京都","city":"調布市","address":"東京都調布市深大寺元町5丁目31-10","lat":35.67232991,"lon":139.54589097},{"name":"多摩川河川敷（第１区）周辺（府中市境～多摩川原橋）","province":"東京都","city":"調布市","address":"東京都調布市多摩川2丁目7","lat":35.64668361,"lon":139.52516685},{"name":"多摩川河川敷（第２区）周辺（多摩川原橋～二ヶ領堰）","province":"東京都","city":"調布市","address":"東京都調布市多摩川5丁目32","lat":35.64222084,"lon":139.5374996},{"name":"多摩川河川敷（第３区）周辺（二ヶ領堰～狛江市境）","province":"東京都","city":"調布市","address":"東京都調布市染地2丁目51","lat":35.63780777,"lon":139.55282904},{"name":"市立調和小学校周辺","province":"東京都","city":"調布市","address":"東京都調布市菊野台3丁目27-40","lat":35.65252451,"lon":139.5724838},{"name":"市立神代中学校・上ノ原小学校周辺","province":"東京都","city":"調布市","address":"東京都調布市佐須町5丁目26-1","lat":35.66162316,"lon":139.5616816},{"name":"市立緑ケ丘小学校周辺","province":"東京都","city":"調布市","address":"東京都調布市緑ケ丘2丁目16-1","lat":35.66996995,"lon":139.58474318},{"name":"ＮＴＴ中央研修センター","province":"東京都","city":"調布市","address":"東京都調布市入間町2丁目","lat":35.64862239,"lon":139.58154701},{"name":"市立第４中学校・若葉小学校周辺","province":"東京都","city":"調布市","address":"東京都調布市若葉町3丁目15-1","lat":35.65392455,"lon":139.58283002},{"name":"上石原配水所","province":"東京都","city":"調布市","address":"東京都調布市上石原1-34-7","lat":35.661306,"lon":139.531746},{"name":"仙川配水所","province":"東京都","city":"調布市","address":"東京都調布市仙川町3-6-27","lat":35.665028,"lon":139.585263},{"name":"深大寺給水所","province":"東京都","city":"調布市","address":"東京都調布市深大寺南町5-56-1","lat":35.6693259,"lon":139.555504},{"name":"調布西町給水所","province":"東京都","city":"調布市","address":"東京都調布市西町717","lat":35.66183,"lon":139.531668},{"name":"＊?東部公民館","province":"東京都","city":"調布市","address":"調布市若葉町1-29-21","lat":35.658248,"lon":139.582821},{"name":"＊?西部公民館","province":"東京都","city":"調布市","address":"調布市上石原3-21-6","lat":35.652956,"lon":139.522212},{"name":"＊?北部公民館","province":"東京都","city":"調布市","address":"調布市柴崎2-5-18","lat":35.661597,"lon":139.562758}]}