{"keyword":"子ども","data":[{"name":"武蔵野の森総合スポーツプラザ","province":"東京都","city":"調布市","address":"東京都調布市西町","lat":35.664416,"lon":139.524487},{"name":"武蔵野の森総合スポーツプラザ","province":"東京都","city":"調布市","address":"東京都調布市西町","lat":35.664844,"lon":139.524122},{"name":"武蔵野の森総合スポーツプラザ","province":"東京都","city":"調布市","address":"東京都調布市西町290-11","lat":35.665917,"lon":139.524208},{"name":"武蔵野の森総合スポーツプラザ","province":"東京都","city":"調布市","address":"東京都調布市西町290-11","lat":35.665509,"lon":139.524359},{"name":"武蔵野の森総合スポーツプラザ","province":"東京都","city":"調布市","address":"東京都調布市西町290-11","lat":35.66529,"lon":139.524436},{"name":"武蔵野の森総合スポーツプラザ","province":"東京都","city":"調布市","address":"東京都調布市西町290-11","lat":35.665272,"lon":139.525025},{"name":"武蔵野の森総合スポーツプラザ","province":"東京都","city":"調布市","address":"東京都調布市西町290-11","lat":35.66607,"lon":139.524932},{"name":"武蔵野の森総合スポーツプラザ","province":"東京都","city":"調布市","address":"東京都調布市西町","lat":35.664313,"lon":139.524595},{"name":"武蔵野の森総合スポーツプラザ","province":"東京都","city":"調布市","address":"東京都調布市西町","lat":35.664149,"lon":139.524663},{"name":"武蔵野の森総合スポーツプラザ","province":"東京都","city":"調布市","address":"東京都調布市西町","lat":35.664214,"lon":139.524696},{"name":"武蔵野の森総合スポーツプラザ","province":"東京都","city":"調布市","address":"東京都調布市西町","lat":35.664722,"lon":139.524862},{"name":"武蔵野の森総合スポーツプラザ","province":"東京都","city":"調布市","address":"東京都調布市西町","lat":35.664781,"lon":139.524128},{"name":"武蔵野の森総合スポーツプラザ","province":"東京都","city":"調布市","address":"東京都調布市西町290-11","lat":35.665602,"lon":139.524314},{"name":"武蔵野の森総合スポーツプラザ","province":"東京都","city":"調布市","address":"東京都調布市西町290-11","lat":35.665337,"lon":139.524736},{"name":"武蔵野の森総合スポーツプラザ","province":"東京都","city":"調布市","address":"東京都調布市西町290-11","lat":35.665627,"lon":139.525123},{"name":"武蔵野の森総合スポーツプラザ","province":"東京都","city":"調布市","address":"東京都調布市西町290-11","lat":35.665731,"lon":139.525072},{"name":"武蔵野の森総合スポーツプラザ","province":"東京都","city":"調布市","address":"東京都調布市西町","lat":35.66493,"lon":139.524506},{"name":"東京スタジアム","province":"東京都","city":"調布市","address":"東京都調布市西町","lat":35.663671,"lon":139.525175},{"name":"東京スタジアム","province":"東京都","city":"調布市","address":"東京都調布市西町","lat":35.663952,"lon":139.525431},{"name":"東京スタジアム","province":"東京都","city":"調布市","address":"東京都調布市西町","lat":35.664613,"lon":139.528603},{"name":"東京スタジアム","province":"東京都","city":"調布市","address":"東京都調布市西町","lat":35.664338,"lon":139.526267},{"name":"東京スタジアム","province":"東京都","city":"調布市","address":"東京都調布市西町","lat":35.663781,"lon":139.526449},{"name":"東京スタジアム","province":"東京都","city":"調布市","address":"東京都調布市西町","lat":35.663693,"lon":139.528123},{"name":"東京スタジアム","province":"東京都","city":"調布市","address":"東京都調布市西町","lat":35.665154,"lon":139.527607},{"name":"東京スタジアム","province":"東京都","city":"調布市","address":"東京都調布市西町","lat":35.665438,"lon":139.52609},{"name":"東京スタジアム","province":"東京都","city":"調布市","address":"東京都調布市西町","lat":35.663965,"lon":139.528323},{"name":"東京スタジアム","province":"東京都","city":"調布市","address":"東京都調布市西町","lat":35.664711,"lon":139.5261},{"name":"東京スタジアム","province":"東京都","city":"調布市","address":"東京都調布市西町","lat":35.66343,"lon":139.526562},{"name":"東京スタジアム","province":"東京都","city":"調布市","address":"東京都調布市西町","lat":35.665416,"lon":139.526912},{"name":"東京スタジアム","province":"東京都","city":"調布市","address":"東京都調布市西町","lat":35.665417,"lon":139.526856},{"name":"東京スタジアム","province":"東京都","city":"調布市","address":"東京都調布市西町","lat":35.664597,"lon":139.525851},{"name":"東京スタジアム","province":"東京都","city":"調布市","address":"東京都調布市西町","lat":35.663815,"lon":139.526267},{"name":"東京スタジアム","province":"東京都","city":"調布市","address":"東京都調布市西町","lat":35.663416,"lon":139.526289},{"name":"東京スタジアム","province":"東京都","city":"調布市","address":"東京都調布市西町","lat":35.663184,"lon":139.527697},{"name":"東京スタジアム","province":"東京都","city":"調布市","address":"東京都調布市西町","lat":35.663197,"lon":139.527734},{"name":"東京スタジアム","province":"東京都","city":"調布市","address":"東京都調布市西町","lat":35.663998,"lon":139.526058},{"name":"東京都パラスポーツトレーニングセンター","province":"東京都","city":"調布市","address":"東京都調布市西町","lat":35.6641475,"lon":139.5282107},{"name":"東京都パラスポーツトレーニングセンター","province":"東京都","city":"調布市","address":"東京都調布市西町","lat":35.664222,"lon":139.528245},{"name":"野川公園","province":"東京都","city":"調布市","address":"東京都調布市野水2丁目2","lat":35.684859,"lon":139.525346},{"name":"野川公園","province":"東京都","city":"調布市","address":"東京都調布市野水1丁目3","lat":35.680074,"lon":139.524851},{"name":"野川公園","province":"東京都","city":"調布市","address":"東京都調布市野水1丁目3","lat":35.684158,"lon":139.523903},{"name":"武蔵野の森公園","province":"東京都","city":"調布市","address":"東京都調布市西町","lat":35.6695,"lon":139.531701},{"name":"武蔵野の森公園","province":"東京都","city":"調布市","address":"東京都調布市西町","lat":35.666573,"lon":139.532343},{"name":"武蔵野の森公園","province":"東京都","city":"調布市","address":"東京都調布市西町","lat":35.664665,"lon":139.532353},{"name":"神代植物公園","province":"東京都","city":"調布市","address":"東京都調布市深大寺元町5丁目18","lat":35.667854,"lon":139.552594},{"name":"神代植物公園","province":"東京都","city":"調布市","address":"東京都調布市深大寺元町5丁目31","lat":35.671712,"lon":139.549053},{"name":"神代植物公園","province":"東京都","city":"調布市","address":"東京都調布市深大寺元町5丁目31","lat":35.669687,"lon":139.548265},{"name":"神代植物公園","province":"東京都","city":"調布市","address":"東京都調布市深大寺元町5丁目31","lat":35.670252,"lon":139.545487},{"name":"神代植物公園","province":"東京都","city":"調布市","address":"東京都調布市深大寺元町5丁目31","lat":35.670571,"lon":139.550707},{"name":"神代植物公園","province":"東京都","city":"調布市","address":"東京都調布市深大寺北町2丁目1","lat":35.672316,"lon":139.549279},{"name":"神代植物公園","province":"東京都","city":"調布市","address":"東京都調布市深大寺北町1丁目4","lat":35.672608,"lon":139.547135},{"name":"神代植物公園","province":"東京都","city":"調布市","address":"東京都調布市深大寺北町1丁目4","lat":35.673361,"lon":139.547788},{"name":"神代植物公園","province":"東京都","city":"調布市","address":"東京都調布市深大寺元町5丁目31","lat":35.668744,"lon":139.550211},{"name":"神代植物公園","province":"東京都","city":"調布市","address":"東京都調布市深大寺元町5丁目31","lat":35.671378,"lon":139.545551},{"name":"神代植物公園","province":"東京都","city":"調布市","address":"東京都調布市深大寺元町5丁目31","lat":35.671393,"lon":139.545743},{"name":"神代植物公園","province":"東京都","city":"調布市","address":"東京都調布市深大寺元町5丁目31","lat":35.669592,"lon":139.545463},{"name":"神代植物公園","province":"東京都","city":"調布市","address":"東京都調布市深大寺北町1丁目4","lat":35.672782,"lon":139.546294},{"name":"神代植物公園","province":"東京都","city":"調布市","address":"東京都調布市深大寺元町5丁目31","lat":35.67219,"lon":139.546022},{"name":"東京都港湾局離島港湾部調布飛行場ターミナルビル","province":"東京都","city":"調布市","address":"東京都調布市西町290-3","lat":35.672414,"lon":139.529565},{"name":"調布サービスステーション","province":"東京都","city":"調布市","address":"東京都調布市国領町7丁目29-5","lat":35.644449,"lon":139.559861},{"name":"調布消防署国領出張所","province":"東京都","city":"調布市","address":"東京都調布市国領町7丁目50-1","lat":35.645554,"lon":139.561971},{"name":"調布消防署","province":"東京都","city":"調布市","address":"東京都調布市下石原1丁目16-1","lat":35.656026,"lon":139.539101},{"name":"調布市役所","province":"東京都","city":"調布市","address":"東京都調布市小島町2丁目35-1","lat":35.650603,"lon":139.540644},{"name":"調布市役所　神代出張所","province":"東京都","city":"調布市","address":"東京都調布市西つつじケ丘3丁目19-1","lat":35.65798,"lon":139.571046},{"name":"調布市教育会館","province":"東京都","city":"調布市","address":"東京都調布市小島町2丁目36-1","lat":35.650225,"lon":139.541709},{"name":"調布市教育会館","province":"東京都","city":"調布市","address":"東京都調布市小島町2丁目36-1","lat":35.65024,"lon":139.541713},{"name":"調布市青少年交流館","province":"東京都","city":"調布市","address":"東京都調布市飛田給1丁目52-1","lat":35.661131,"lon":139.525529},{"name":"調布市北部公民館","province":"東京都","city":"調布市","address":"東京都調布市柴崎2丁目5-18","lat":35.661634,"lon":139.562822},{"name":"調布市西部公民館","province":"東京都","city":"調布市","address":"東京都調布市上石原3丁目21-6","lat":35.652962,"lon":139.522204},{"name":"調布市金子地域福祉センター","province":"東京都","city":"調布市","address":"東京都調布市西つつじケ丘4丁目43-3","lat":35.651087,"lon":139.579051},{"name":"調布市西部地域福祉センター","province":"東京都","city":"調布市","address":"東京都調布市上石原2丁目15-6","lat":35.655587,"lon":139.525419},{"name":"調布市調布ケ丘地域福祉センター","province":"東京都","city":"調布市","address":"東京都調布市調布ケ丘3丁目58-2","lat":35.659904,"lon":139.5503},{"name":"調布市染地地域福祉センター","province":"東京都","city":"調布市","address":"東京都調布市染地3丁目3-1","lat":35.639725,"lon":139.556476},{"name":"調布市緑ケ丘地域福祉センター","province":"東京都","city":"調布市","address":"東京都調布市緑ケ丘2丁目18-49","lat":35.669357,"lon":139.584004},{"name":"調布市菊野台地域福祉センター","province":"東京都","city":"調布市","address":"東京都調布市菊野台1丁目38-1","lat":35.657554,"lon":139.566114},{"name":"調布市富士見地域福祉センター","province":"東京都","city":"調布市","address":"東京都調布市富士見町4丁目15-6","lat":35.663977,"lon":139.534579},{"name":"調布市下石原地域福祉センター","province":"東京都","city":"調布市","address":"東京都調布市下石原3丁目72-1","lat":35.647616,"lon":139.534736},{"name":"調布市入間地域福祉センター","province":"東京都","city":"調布市","address":"東京都調布市入間町1丁目13-2","lat":35.653799,"lon":139.58729},{"name":"調布市深大寺地域福祉センター","province":"東京都","city":"調布市","address":"東京都調布市深大寺北町2丁目40-1","lat":35.67483,"lon":139.551596},{"name":"布田駅南ふれあいの家","province":"東京都","city":"調布市","address":"東京都調布市国領町5丁目76-3","lat":35.648669,"lon":139.551429},{"name":"飛田給ふれあいの家","province":"東京都","city":"調布市","address":"東京都調布市飛田給1丁目3","lat":35.663006,"lon":139.522683},{"name":"国領ふれあいの家","province":"東京都","city":"調布市","address":"東京都調布市国領町8丁目1-59","lat":35.647028,"lon":139.56169},{"name":"上石原ふれあいの家","province":"東京都","city":"調布市","address":"東京都調布市上石原2丁目6","lat":35.656513,"lon":139.527597},{"name":"国領駅北ふれあいの家","province":"東京都","city":"調布市","address":"東京都調布市国領町2丁目5-15","lat":35.650537,"lon":139.558469},{"name":"小島町ふれあいの家","province":"東京都","city":"調布市","address":"東京都調布市小島町3丁目56-1","lat":35.647505,"lon":139.540092},{"name":"大町ふれあいの家","province":"東京都","city":"調布市","address":"東京都調布市菊野台3丁目27-39","lat":35.651946,"lon":139.571678},{"name":"上ノ原ふれあいの家","province":"東京都","city":"調布市","address":"東京都調布市柴崎2丁目27-25","lat":35.664029,"lon":139.564555},{"name":"調布市立図書館深大寺分館","province":"東京都","city":"調布市","address":"東京都調布市深大寺北町5丁目17-3","lat":35.678148,"lon":139.550446},{"name":"調布市立図書館佐須分館","province":"東京都","city":"調布市","address":"東京都調布市佐須町4丁目42-2","lat":35.658647,"lon":139.556039},{"name":"調布市郷土博物館","province":"東京都","city":"調布市","address":"東京都調布市小島町3丁目26-2","lat":35.646978,"lon":139.536123},{"name":"調布市武者小路実篤記念館","province":"東京都","city":"調布市","address":"東京都調布市若葉町1丁目8-30","lat":35.656733,"lon":139.581276},{"name":"調布市市民プラザあくろす","province":"東京都","city":"調布市","address":"東京都調布市国領町2丁目5-15","lat":35.650536,"lon":139.557973},{"name":"調布市多摩川自然情報館","province":"東京都","city":"調布市","address":"東京都調布市染地3丁目8-26","lat":35.637205,"lon":139.557506},{"name":"調布市市民プラザあくろす","province":"東京都","city":"調布市","address":"東京都調布市国領町2丁目5-15","lat":35.650615,"lon":139.557833},{"name":"調布市せんがわ劇場","province":"東京都","city":"調布市","address":"東京都調布市仙川町1丁目21-5","lat":35.661698,"lon":139.58688},{"name":"調布市文化会館たづくり","province":"東京都","city":"調布市","address":"東京都調布市小島町2丁目33-1","lat":35.650994,"lon":139.54187},{"name":"調布市文化会館たづくり","province":"東京都","city":"調布市","address":"東京都調布市小島町2丁目33-1","lat":35.651083,"lon":139.541424},{"name":"調布市文化会館たづくり","province":"東京都","city":"調布市","address":"東京都調布市小島町2丁目33-1","lat":35.651066,"lon":139.54084},{"name":"調布市文化会館たづくり","province":"東京都","city":"調布市","address":"東京都調布市小島町2丁目33-1","lat":35.650983,"lon":139.541284},{"name":"調布市文化会館たづくり","province":"東京都","city":"調布市","address":"東京都調布市小島町2丁目33-1","lat":35.651028,"lon":139.541294},{"name":"調布市文化会館たづくり","province":"東京都","city":"調布市","address":"東京都調布市小島町2丁目33-1","lat":35.65099,"lon":139.54191},{"name":"調布市グリーンホール","province":"東京都","city":"調布市","address":"東京都調布市小島町2丁目47-1","lat":35.651339,"lon":139.542753},{"name":"調布市グリーンホール","province":"東京都","city":"調布市","address":"東京都調布市小島町2丁目47-1","lat":35.651516,"lon":139.542882},{"name":"調布市せんがわ劇場","province":"東京都","city":"調布市","address":"東京都調布市仙川町1丁目21-5","lat":35.661405,"lon":139.586964},{"name":"調布市せんがわ劇場","province":"東京都","city":"調布市","address":"東京都調布市仙川町1丁目21-5","lat":35.661357,"lon":139.586897},{"name":"上ノ原公園","province":"東京都","city":"調布市","address":"東京都調布市柴崎2丁目6","lat":35.661461,"lon":139.562626},{"name":"ぬの多公園","province":"東京都","city":"調布市","address":"東京都調布市染地2丁目8","lat":35.640057,"lon":139.55295},{"name":"入間公園","province":"東京都","city":"調布市","address":"東京都調布市入間町3丁目6","lat":35.64818,"lon":139.588588},{"name":"とりで公園","province":"東京都","city":"調布市","address":"東京都調布市深大寺東町8丁目24","lat":35.680293,"lon":139.556603},{"name":"実篤公園","province":"東京都","city":"調布市","address":"東京都調布市若葉町1丁目23","lat":35.657877,"lon":139.581702},{"name":"多摩川市民広場","province":"東京都","city":"調布市","address":"東京都調布市染地2丁目51","lat":35.637642,"lon":139.552931},{"name":"西町公園","province":"東京都","city":"調布市","address":"東京都調布市西町","lat":35.662536,"lon":139.532486},{"name":"高速第2児童遊園","province":"東京都","city":"調布市","address":"東京都調布市上石原1丁目20","lat":35.658812,"lon":139.530124},{"name":"高速第3児童遊園","province":"東京都","city":"調布市","address":"東京都調布市富士見町3丁目8","lat":35.662673,"lon":139.539172},{"name":"深大寺自然広場","province":"東京都","city":"調布市","address":"東京都調布市深大寺南町1丁目24","lat":35.662726,"lon":139.556694},{"name":"鬼太郎ひろば","province":"東京都","city":"調布市","address":"東京都調布市下石原1丁目58","lat":35.653981,"lon":139.537833},{"name":"（仮称）鉄道敷地公園（相模原線）","province":"東京都","city":"調布市","address":"東京都調布市小島町2丁目62","lat":35.650894,"lon":139.540293},{"name":"又住橋緑地","province":"東京都","city":"調布市","address":"東京都調布市調布ケ丘3丁目68","lat":35.6619,"lon":139.548573},{"name":"多摩川さくら緑地公衆トイレ","province":"東京都","city":"調布市","address":"東京都調布市多摩川5丁目37","lat":35.641877,"lon":139.535784},{"name":"飛田給駅北公衆トイレ","province":"東京都","city":"調布市","address":"東京都調布市飛田給1丁目42","lat":35.660388,"lon":139.523283},{"name":"深大寺前公衆トイレ","province":"東京都","city":"調布市","address":"東京都調布市深大寺元町5丁目12","lat":35.666859,"lon":139.549327},{"name":"布多天神南公衆トイレ","province":"東京都","city":"調布市","address":"東京都調布市調布ケ丘1丁目7","lat":35.655963,"lon":139.545107},{"name":"多摩川児童公園","province":"東京都","city":"調布市","address":"東京都調布市多摩川4丁目30","lat":35.642685,"lon":139.531562},{"name":"野川橋緑地","province":"東京都","city":"調布市","address":"東京都調布市菊野台3丁目51","lat":35.648852,"lon":139.568447},{"name":"調布市総合体育館","province":"東京都","city":"調布市","address":"東京都調布市深大寺北町2丁目1","lat":35.672693,"lon":139.551802},{"name":"つつじヶ丘駅北公衆トイレ","province":"東京都","city":"調布市","address":"東京都調布市西つつじケ丘3丁目35","lat":35.658284,"lon":139.57452},{"name":"調布駅前広場暫定公衆トイレ","province":"東京都","city":"調布市","address":"東京都調布市布田4丁目1","lat":35.651493,"lon":139.544141},{"name":"調布市総合体育館","province":"東京都","city":"調布市","address":"東京都調布市深大寺北町2丁目1","lat":35.672813,"lon":139.551406},{"name":"調布市民西調布体育館","province":"東京都","city":"調布市","address":"東京都調布市上石原2丁目4-1","lat":35.657449,"lon":139.527321},{"name":"調布市民大町スポーツ施設","province":"東京都","city":"調布市","address":"東京都調布市菊野台3丁目27-40","lat":35.652436,"lon":139.572471},{"name":"調布市民大町スポーツ施設","province":"東京都","city":"調布市","address":"東京都調布市菊野台3丁目27-40","lat":35.652443,"lon":139.57244},{"name":"調布市民大町スポーツ施設","province":"東京都","city":"調布市","address":"東京都調布市菊野台3丁目27-40","lat":35.652449,"lon":139.572409},{"name":"調布市民プール","province":"東京都","city":"調布市","address":"東京都調布市染地2丁目43-1","lat":35.640085,"lon":139.546856},{"name":"調布市民深大寺テニスコート","province":"東京都","city":"調布市","address":"東京都調布市深大寺北町4丁目4","lat":35.677759,"lon":139.553275},{"name":"調布基地跡地運動広場","province":"東京都","city":"調布市","address":"東京都調布市西町","lat":35.667935,"lon":139.525577},{"name":"調布基地跡地運動広場","province":"東京都","city":"調布市","address":"東京都調布市西町","lat":35.667856,"lon":139.525603},{"name":"調布市子ども家庭支援センターすこやか","province":"東京都","city":"調布市","address":"東京都調布市国領町3丁目1-38","lat":35.649492,"lon":139.558688},{"name":"調布市総合福祉センター","province":"東京都","city":"調布市","address":"東京都調布市小島町2丁目47-1","lat":35.65125,"lon":139.54255},{"name":"調布市総合福祉センター","province":"東京都","city":"調布市","address":"東京都調布市小島町2丁目47-1","lat":35.651232,"lon":139.542667},{"name":"調布市総合福祉センター","province":"東京都","city":"調布市","address":"東京都調布市小島町2丁目47-1","lat":35.651227,"lon":139.542594},{"name":"調布市総合福祉センター","province":"東京都","city":"調布市","address":"東京都調布市小島町2丁目47-1","lat":35.651218,"lon":139.542648},{"name":"調布市子ども家庭支援センターすこやか","province":"東京都","city":"調布市","address":"東京都調布市国領町3丁目1-38","lat":35.649617,"lon":139.558578},{"name":"調布市ちょうふだぞう・すまいる分室","province":"東京都","city":"調布市","address":"東京都調布市国領町3丁目19","lat":35.651168,"lon":139.560372},{"name":"調布市ちょうふだぞう・すまいる分室","province":"東京都","city":"調布市","address":"東京都調布市国領町3丁目19","lat":35.650951,"lon":139.55994},{"name":"調布市こころの健康支援センター","province":"東京都","city":"調布市","address":"東京都調布市布田5丁目46-1","lat":35.645704,"lon":139.541739},{"name":"調布市国領駅南口市営駐車場","province":"東京都","city":"調布市","address":"東京都調布市国領町3丁目1-38","lat":35.649654,"lon":139.558991},{"name":"緑ヶ丘こどもフリースペースごりら","province":"東京都","city":"調布市","address":"東京都調布市緑ケ丘2丁目18-49","lat":35.66934778,"lon":139.58393216},{"name":"みんな食堂「仙川スープ」","province":"東京都","city":"調布市","address":"東京都調布市仙川町1丁目19-10","lat":35.66190703,"lon":139.58617112},{"name":"坂の上のばあちゃん家","province":"東京都","city":"調布市","address":"東京都調布市入間町3丁目22-5","lat":35.64650615,"lon":139.58803264},{"name":"子ども食堂深大寺東町","province":"東京都","city":"調布市","address":"東京都調布市深大寺東町6丁目26-15","lat":35.67562424,"lon":139.5587508},{"name":"ハナこども食堂","province":"東京都","city":"調布市","address":"東京都調布市深大寺東町7丁目23-2","lat":35.67628527,"lon":139.55891188},{"name":"絵堂なかよし子ども食堂","province":"東京都","city":"調布市","address":"東京都調布市深大寺南町5丁目9","lat":35.66653636,"lon":139.55753733},{"name":"しばさき彩こども食堂","province":"東京都","city":"調布市","address":"東京都調布市柴崎1丁目64-9","lat":35.6572738,"lon":139.56494541},{"name":"さくら子育てステーション","province":"東京都","city":"調布市","address":"東京都調布市八雲台1丁目22-1","lat":35.65435444,"lon":139.55306875},{"name":"かしわの食堂（まい・夢）","province":"東京都","city":"調布市","address":"東京都調布市佐須町2丁目18-1","lat":35.65938997,"lon":139.55534612},{"name":"深大寺カフェ子ども食堂","province":"東京都","city":"調布市","address":"東京都調布市深大寺元町1丁目11-1","lat":35.66248107,"lon":139.54792163},{"name":"そらなかBASE","province":"東京都","city":"調布市","address":"東京都調布市深大寺元町1丁目11-1","lat":35.66248107,"lon":139.54792163},{"name":"まごじば","province":"東京都","city":"調布市","address":"東京都調布市国領町1丁目7-1","lat":35.65279632,"lon":139.55237724},{"name":"こくりょう子ども食堂わいわい","province":"東京都","city":"調布市","address":"東京都調布市国領町3丁目8-15","lat":35.64856666,"lon":139.56058525},{"name":"二小地区もりあげ隊","province":"東京都","city":"調布市","address":"東京都調布市国領町5丁目76-3","lat":35.64864714,"lon":139.55144724},{"name":"ウナパウザ","province":"東京都","city":"調布市","address":"東京都調布市染地3丁目8-26","lat":35.63719661,"lon":139.55749791},{"name":"みさとや子ども食堂","province":"東京都","city":"調布市","address":"東京都調布市布田2丁目2-6","lat":35.65352939,"lon":139.54781918},{"name":"ちょうふ子ども食堂","province":"東京都","city":"調布市","address":"東京都調布市布田2丁目5-4","lat":35.65335444,"lon":139.54889689},{"name":"ハッピーこども食堂","province":"東京都","city":"調布市","address":"東京都調布市布田5丁目32-3","lat":35.64607548,"lon":139.54485383},{"name":"電気通信大学こども食堂","province":"東京都","city":"調布市","address":"東京都調布市調布ケ丘1丁目5-1","lat":35.65564303,"lon":139.54430838},{"name":"こども食堂かくしょうじ","province":"東京都","city":"調布市","address":"東京都調布市富士見町1丁目35-5","lat":35.66023412,"lon":139.53743394},{"name":"富士見あおぞら子ども食堂","province":"東京都","city":"調布市","address":"東京都調布市富士見町2丁目13-5","lat":35.65921758,"lon":139.54185572},{"name":"風のテーブル","province":"東京都","city":"調布市","address":"東京都調布市上石原1丁目36-7","lat":35.65909816,"lon":139.53207068},{"name":"子ども食堂かみいしわらたんぽぽ","province":"東京都","city":"調布市","address":"東京都調布市上石原3丁目21-6","lat":35.65290458,"lon":139.52214705},{"name":"調布市立調布市民野球場","province":"東京都","city":"調布市","address":"東京都調布市染地2丁目43-1","lat":35.64025186,"lon":139.54681004},{"name":"調布市立調布中学校校庭","province":"東京都","city":"調布市","address":"東京都調布市富士見町4丁目17-1","lat":35.66535009,"lon":139.53516172},{"name":"調布市立第八中学校校庭","province":"東京都","city":"調布市","address":"東京都調布市仙川町2丁目15-2","lat":35.66445108,"lon":139.58169365},{"name":"調布市立第四中学校校庭","province":"東京都","city":"調布市","address":"東京都調布市若葉町3丁目15-1","lat":35.65392455,"lon":139.58283002},{"name":"調布市立第三中学校校庭","province":"東京都","city":"調布市","address":"東京都調布市染地3丁目2-7","lat":35.6414069,"lon":139.55643366},{"name":"調布市立神代中学校校庭","province":"東京都","city":"調布市","address":"東京都調布市佐須町5丁目26-1","lat":35.66162316,"lon":139.5616816},{"name":"調布市立布田小学校校庭","province":"東京都","city":"調布市","address":"東京都調布市染地1丁目1-85","lat":35.64330667,"lon":139.54542083},{"name":"調布市立第三小学校校庭","province":"東京都","city":"調布市","address":"東京都調布市上石原2丁目19-13","lat":35.65473491,"lon":139.52783806},{"name":"調布市立北ノ台小学校校庭","province":"東京都","city":"調布市","address":"東京都調布市深大寺北町2丁目41-1","lat":35.67543247,"lon":139.55284301},{"name":"神代植物公園","province":"東京都","city":"調布市","address":"東京都調布市深大寺元町5丁目","lat":35.66837758,"lon":139.54571333},{"name":"大町スポーツ施設大運動場","province":"東京都","city":"調布市","address":"東京都調布市菊野台3丁目27-40","lat":35.65252451,"lon":139.5724838},{"name":"大町備蓄倉庫（大町スポーツセンター）","province":"東京都","city":"調布市","address":"東京都調布市菊野台3丁目27-40","lat":35.65252451,"lon":139.5724838},{"name":"東京都調布飛行場管理事務所","province":"東京都","city":"調布市","address":"調布市西町290-3","lat":35.668886,"lon":139.530212},{"name":"東京都調布飛行場","province":"東京都","city":"調布市","address":"東京都調布市西町290-3","lat":35.66754795,"lon":139.52569635},{"name":"武蔵野の森総合スポーツプラザ","province":"東京都","city":"調布市","address":"東京都調布市西町","lat":35.664416,"lon":139.524487},{"name":"武蔵野の森総合スポーツプラザ","province":"東京都","city":"調布市","address":"東京都調布市西町","lat":35.664844,"lon":139.524122},{"name":"武蔵野の森総合スポーツプラザ","province":"東京都","city":"調布市","address":"東京都調布市西町290-11","lat":35.665917,"lon":139.524208},{"name":"武蔵野の森総合スポーツプラザ","province":"東京都","city":"調布市","address":"東京都調布市西町290-11","lat":35.665509,"lon":139.524359},{"name":"武蔵野の森総合スポーツプラザ","province":"東京都","city":"調布市","address":"東京都調布市西町290-11","lat":35.66529,"lon":139.524436},{"name":"武蔵野の森総合スポーツプラザ","province":"東京都","city":"調布市","address":"東京都調布市西町290-11","lat":35.665272,"lon":139.525025},{"name":"武蔵野の森総合スポーツプラザ","province":"東京都","city":"調布市","address":"東京都調布市西町290-11","lat":35.66607,"lon":139.524932},{"name":"武蔵野の森総合スポーツプラザ","province":"東京都","city":"調布市","address":"東京都調布市西町","lat":35.664313,"lon":139.524595},{"name":"武蔵野の森総合スポーツプラザ","province":"東京都","city":"調布市","address":"東京都調布市西町","lat":35.664149,"lon":139.524663},{"name":"武蔵野の森総合スポーツプラザ","province":"東京都","city":"調布市","address":"東京都調布市西町","lat":35.664214,"lon":139.524696},{"name":"武蔵野の森総合スポーツプラザ","province":"東京都","city":"調布市","address":"東京都調布市西町","lat":35.664722,"lon":139.524862},{"name":"武蔵野の森総合スポーツプラザ","province":"東京都","city":"調布市","address":"東京都調布市西町","lat":35.664781,"lon":139.524128},{"name":"武蔵野の森総合スポーツプラザ","province":"東京都","city":"調布市","address":"東京都調布市西町290-11","lat":35.665602,"lon":139.524314},{"name":"武蔵野の森総合スポーツプラザ","province":"東京都","city":"調布市","address":"東京都調布市西町290-11","lat":35.665337,"lon":139.524736},{"name":"武蔵野の森総合スポーツプラザ","province":"東京都","city":"調布市","address":"東京都調布市西町290-11","lat":35.665627,"lon":139.525123},{"name":"武蔵野の森総合スポーツプラザ","province":"東京都","city":"調布市","address":"東京都調布市西町290-11","lat":35.665731,"lon":139.525072},{"name":"武蔵野の森総合スポーツプラザ","province":"東京都","city":"調布市","address":"東京都調布市西町","lat":35.66493,"lon":139.524506},{"name":"東京スタジアム","province":"東京都","city":"調布市","address":"東京都調布市西町","lat":35.663671,"lon":139.525175},{"name":"東京スタジアム","province":"東京都","city":"調布市","address":"東京都調布市西町","lat":35.663952,"lon":139.525431},{"name":"東京スタジアム","province":"東京都","city":"調布市","address":"東京都調布市西町","lat":35.664613,"lon":139.528603},{"name":"東京スタジアム","province":"東京都","city":"調布市","address":"東京都調布市西町","lat":35.664338,"lon":139.526267},{"name":"東京スタジアム","province":"東京都","city":"調布市","address":"東京都調布市西町","lat":35.663781,"lon":139.526449},{"name":"東京スタジアム","province":"東京都","city":"調布市","address":"東京都調布市西町","lat":35.663693,"lon":139.528123},{"name":"東京スタジアム","province":"東京都","city":"調布市","address":"東京都調布市西町","lat":35.665154,"lon":139.527607},{"name":"東京スタジアム","province":"東京都","city":"調布市","address":"東京都調布市西町","lat":35.665438,"lon":139.52609},{"name":"東京スタジアム","province":"東京都","city":"調布市","address":"東京都調布市西町","lat":35.663965,"lon":139.528323},{"name":"東京スタジアム","province":"東京都","city":"調布市","address":"東京都調布市西町","lat":35.664711,"lon":139.5261},{"name":"東京スタジアム","province":"東京都","city":"調布市","address":"東京都調布市西町","lat":35.66343,"lon":139.526562},{"name":"東京スタジアム","province":"東京都","city":"調布市","address":"東京都調布市西町","lat":35.665416,"lon":139.526912},{"name":"東京スタジアム","province":"東京都","city":"調布市","address":"東京都調布市西町","lat":35.665417,"lon":139.526856},{"name":"東京スタジアム","province":"東京都","city":"調布市","address":"東京都調布市西町","lat":35.664597,"lon":139.525851},{"name":"東京スタジアム","province":"東京都","city":"調布市","address":"東京都調布市西町","lat":35.663815,"lon":139.526267},{"name":"東京スタジアム","province":"東京都","city":"調布市","address":"東京都調布市西町","lat":35.663416,"lon":139.526289},{"name":"東京スタジアム","province":"東京都","city":"調布市","address":"東京都調布市西町","lat":35.663184,"lon":139.527697},{"name":"東京スタジアム","province":"東京都","city":"調布市","address":"東京都調布市西町","lat":35.663197,"lon":139.527734},{"name":"東京スタジアム","province":"東京都","city":"調布市","address":"東京都調布市西町","lat":35.663998,"lon":139.526058},{"name":"東京都パラスポーツトレーニングセンター","province":"東京都","city":"調布市","address":"東京都調布市西町","lat":35.6641475,"lon":139.5282107},{"name":"東京都パラスポーツトレーニングセンター","province":"東京都","city":"調布市","address":"東京都調布市西町","lat":35.664222,"lon":139.528245},{"name":"野川公園","province":"東京都","city":"調布市","address":"東京都調布市野水2丁目2","lat":35.684859,"lon":139.525346},{"name":"野川公園","province":"東京都","city":"調布市","address":"東京都調布市野水1丁目3","lat":35.680074,"lon":139.524851},{"name":"野川公園","province":"東京都","city":"調布市","address":"東京都調布市野水1丁目3","lat":35.684158,"lon":139.523903},{"name":"武蔵野の森公園","province":"東京都","city":"調布市","address":"東京都調布市西町","lat":35.6695,"lon":139.531701},{"name":"武蔵野の森公園","province":"東京都","city":"調布市","address":"東京都調布市西町","lat":35.666573,"lon":139.532343},{"name":"武蔵野の森公園","province":"東京都","city":"調布市","address":"東京都調布市西町","lat":35.664665,"lon":139.532353},{"name":"神代植物公園","province":"東京都","city":"調布市","address":"東京都調布市深大寺元町5丁目18","lat":35.667854,"lon":139.552594},{"name":"神代植物公園","province":"東京都","city":"調布市","address":"東京都調布市深大寺元町5丁目31","lat":35.671712,"lon":139.549053},{"name":"神代植物公園","province":"東京都","city":"調布市","address":"東京都調布市深大寺元町5丁目31","lat":35.669687,"lon":139.548265},{"name":"神代植物公園","province":"東京都","city":"調布市","address":"東京都調布市深大寺元町5丁目31","lat":35.670252,"lon":139.545487},{"name":"神代植物公園","province":"東京都","city":"調布市","address":"東京都調布市深大寺元町5丁目31","lat":35.670571,"lon":139.550707},{"name":"神代植物公園","province":"東京都","city":"調布市","address":"東京都調布市深大寺北町2丁目1","lat":35.672316,"lon":139.549279},{"name":"神代植物公園","province":"東京都","city":"調布市","address":"東京都調布市深大寺北町1丁目4","lat":35.672608,"lon":139.547135},{"name":"神代植物公園","province":"東京都","city":"調布市","address":"東京都調布市深大寺北町1丁目4","lat":35.673361,"lon":139.547788},{"name":"神代植物公園","province":"東京都","city":"調布市","address":"東京都調布市深大寺元町5丁目31","lat":35.668744,"lon":139.550211},{"name":"神代植物公園","province":"東京都","city":"調布市","address":"東京都調布市深大寺元町5丁目31","lat":35.671378,"lon":139.545551},{"name":"神代植物公園","province":"東京都","city":"調布市","address":"東京都調布市深大寺元町5丁目31","lat":35.671393,"lon":139.545743},{"name":"神代植物公園","province":"東京都","city":"調布市","address":"東京都調布市深大寺元町5丁目31","lat":35.669592,"lon":139.545463},{"name":"神代植物公園","province":"東京都","city":"調布市","address":"東京都調布市深大寺北町1丁目4","lat":35.672782,"lon":139.546294},{"name":"神代植物公園","province":"東京都","city":"調布市","address":"東京都調布市深大寺元町5丁目31","lat":35.67219,"lon":139.546022},{"name":"東京都港湾局離島港湾部調布飛行場ターミナルビル","province":"東京都","city":"調布市","address":"東京都調布市西町290-3","lat":35.672414,"lon":139.529565},{"name":"調布サービスステーション","province":"東京都","city":"調布市","address":"東京都調布市国領町7丁目29-5","lat":35.644449,"lon":139.559861},{"name":"調布消防署国領出張所","province":"東京都","city":"調布市","address":"東京都調布市国領町7丁目50-1","lat":35.645554,"lon":139.561971},{"name":"調布消防署","province":"東京都","city":"調布市","address":"東京都調布市下石原1丁目16-1","lat":35.656026,"lon":139.539101},{"name":"調布市役所","province":"東京都","city":"調布市","address":"東京都調布市小島町2丁目35-1","lat":35.650603,"lon":139.540644},{"name":"調布市役所　神代出張所","province":"東京都","city":"調布市","address":"東京都調布市西つつじケ丘3丁目19-1","lat":35.65798,"lon":139.571046},{"name":"調布市教育会館","province":"東京都","city":"調布市","address":"東京都調布市小島町2丁目36-1","lat":35.650225,"lon":139.541709},{"name":"調布市教育会館","province":"東京都","city":"調布市","address":"東京都調布市小島町2丁目36-1","lat":35.65024,"lon":139.541713},{"name":"調布市青少年交流館","province":"東京都","city":"調布市","address":"東京都調布市飛田給1丁目52-1","lat":35.661131,"lon":139.525529},{"name":"調布市北部公民館","province":"東京都","city":"調布市","address":"東京都調布市柴崎2丁目5-18","lat":35.661634,"lon":139.562822},{"name":"調布市西部公民館","province":"東京都","city":"調布市","address":"東京都調布市上石原3丁目21-6","lat":35.652962,"lon":139.522204},{"name":"調布市金子地域福祉センター","province":"東京都","city":"調布市","address":"東京都調布市西つつじケ丘4丁目43-3","lat":35.651087,"lon":139.579051},{"name":"調布市西部地域福祉センター","province":"東京都","city":"調布市","address":"東京都調布市上石原2丁目15-6","lat":35.655587,"lon":139.525419},{"name":"調布市調布ケ丘地域福祉センター","province":"東京都","city":"調布市","address":"東京都調布市調布ケ丘3丁目58-2","lat":35.659904,"lon":139.5503},{"name":"調布市染地地域福祉センター","province":"東京都","city":"調布市","address":"東京都調布市染地3丁目3-1","lat":35.639725,"lon":139.556476},{"name":"調布市緑ケ丘地域福祉センター","province":"東京都","city":"調布市","address":"東京都調布市緑ケ丘2丁目18-49","lat":35.669357,"lon":139.584004},{"name":"調布市菊野台地域福祉センター","province":"東京都","city":"調布市","address":"東京都調布市菊野台1丁目38-1","lat":35.657554,"lon":139.566114},{"name":"調布市富士見地域福祉センター","province":"東京都","city":"調布市","address":"東京都調布市富士見町4丁目15-6","lat":35.663977,"lon":139.534579},{"name":"調布市下石原地域福祉センター","province":"東京都","city":"調布市","address":"東京都調布市下石原3丁目72-1","lat":35.647616,"lon":139.534736},{"name":"調布市入間地域福祉センター","province":"東京都","city":"調布市","address":"東京都調布市入間町1丁目13-2","lat":35.653799,"lon":139.58729},{"name":"調布市深大寺地域福祉センター","province":"東京都","city":"調布市","address":"東京都調布市深大寺北町2丁目40-1","lat":35.67483,"lon":139.551596},{"name":"布田駅南ふれあいの家","province":"東京都","city":"調布市","address":"東京都調布市国領町5丁目76-3","lat":35.648669,"lon":139.551429},{"name":"飛田給ふれあいの家","province":"東京都","city":"調布市","address":"東京都調布市飛田給1丁目3","lat":35.663006,"lon":139.522683},{"name":"国領ふれあいの家","province":"東京都","city":"調布市","address":"東京都調布市国領町8丁目1-59","lat":35.647028,"lon":139.56169},{"name":"上石原ふれあいの家","province":"東京都","city":"調布市","address":"東京都調布市上石原2丁目6","lat":35.656513,"lon":139.527597},{"name":"国領駅北ふれあいの家","province":"東京都","city":"調布市","address":"東京都調布市国領町2丁目5-15","lat":35.650537,"lon":139.558469},{"name":"小島町ふれあいの家","province":"東京都","city":"調布市","address":"東京都調布市小島町3丁目56-1","lat":35.647505,"lon":139.540092},{"name":"大町ふれあいの家","province":"東京都","city":"調布市","address":"東京都調布市菊野台3丁目27-39","lat":35.651946,"lon":139.571678},{"name":"上ノ原ふれあいの家","province":"東京都","city":"調布市","address":"東京都調布市柴崎2丁目27-25","lat":35.664029,"lon":139.564555},{"name":"調布市立図書館深大寺分館","province":"東京都","city":"調布市","address":"東京都調布市深大寺北町5丁目17-3","lat":35.678148,"lon":139.550446},{"name":"調布市立図書館佐須分館","province":"東京都","city":"調布市","address":"東京都調布市佐須町4丁目42-2","lat":35.658647,"lon":139.556039},{"name":"調布市郷土博物館","province":"東京都","city":"調布市","address":"東京都調布市小島町3丁目26-2","lat":35.646978,"lon":139.536123},{"name":"調布市武者小路実篤記念館","province":"東京都","city":"調布市","address":"東京都調布市若葉町1丁目8-30","lat":35.656733,"lon":139.581276},{"name":"調布市市民プラザあくろす","province":"東京都","city":"調布市","address":"東京都調布市国領町2丁目5-15","lat":35.650536,"lon":139.557973},{"name":"調布市多摩川自然情報館","province":"東京都","city":"調布市","address":"東京都調布市染地3丁目8-26","lat":35.637205,"lon":139.557506},{"name":"調布市市民プラザあくろす","province":"東京都","city":"調布市","address":"東京都調布市国領町2丁目5-15","lat":35.650615,"lon":139.557833},{"name":"調布市せんがわ劇場","province":"東京都","city":"調布市","address":"東京都調布市仙川町1丁目21-5","lat":35.661698,"lon":139.58688},{"name":"調布市文化会館たづくり","province":"東京都","city":"調布市","address":"東京都調布市小島町2丁目33-1","lat":35.650994,"lon":139.54187},{"name":"調布市文化会館たづくり","province":"東京都","city":"調布市","address":"東京都調布市小島町2丁目33-1","lat":35.651083,"lon":139.541424},{"name":"調布市文化会館たづくり","province":"東京都","city":"調布市","address":"東京都調布市小島町2丁目33-1","lat":35.651066,"lon":139.54084},{"name":"調布市文化会館たづくり","province":"東京都","city":"調布市","address":"東京都調布市小島町2丁目33-1","lat":35.650983,"lon":139.541284},{"name":"調布市文化会館たづくり","province":"東京都","city":"調布市","address":"東京都調布市小島町2丁目33-1","lat":35.651028,"lon":139.541294},{"name":"調布市文化会館たづくり","province":"東京都","city":"調布市","address":"東京都調布市小島町2丁目33-1","lat":35.65099,"lon":139.54191},{"name":"調布市グリーンホール","province":"東京都","city":"調布市","address":"東京都調布市小島町2丁目47-1","lat":35.651339,"lon":139.542753},{"name":"調布市グリーンホール","province":"東京都","city":"調布市","address":"東京都調布市小島町2丁目47-1","lat":35.651516,"lon":139.542882},{"name":"調布市せんがわ劇場","province":"東京都","city":"調布市","address":"東京都調布市仙川町1丁目21-5","lat":35.661405,"lon":139.586964},{"name":"調布市せんがわ劇場","province":"東京都","city":"調布市","address":"東京都調布市仙川町1丁目21-5","lat":35.661357,"lon":139.586897},{"name":"上ノ原公園","province":"東京都","city":"調布市","address":"東京都調布市柴崎2丁目6","lat":35.661461,"lon":139.562626},{"name":"ぬの多公園","province":"東京都","city":"調布市","address":"東京都調布市染地2丁目8","lat":35.640057,"lon":139.55295},{"name":"入間公園","province":"東京都","city":"調布市","address":"東京都調布市入間町3丁目6","lat":35.64818,"lon":139.588588},{"name":"とりで公園","province":"東京都","city":"調布市","address":"東京都調布市深大寺東町8丁目24","lat":35.680293,"lon":139.556603},{"name":"実篤公園","province":"東京都","city":"調布市","address":"東京都調布市若葉町1丁目23","lat":35.657877,"lon":139.581702},{"name":"多摩川市民広場","province":"東京都","city":"調布市","address":"東京都調布市染地2丁目51","lat":35.637642,"lon":139.552931},{"name":"西町公園","province":"東京都","city":"調布市","address":"東京都調布市西町","lat":35.662536,"lon":139.532486},{"name":"高速第2児童遊園","province":"東京都","city":"調布市","address":"東京都調布市上石原1丁目20","lat":35.658812,"lon":139.530124},{"name":"高速第3児童遊園","province":"東京都","city":"調布市","address":"東京都調布市富士見町3丁目8","lat":35.662673,"lon":139.539172},{"name":"深大寺自然広場","province":"東京都","city":"調布市","address":"東京都調布市深大寺南町1丁目24","lat":35.662726,"lon":139.556694},{"name":"鬼太郎ひろば","province":"東京都","city":"調布市","address":"東京都調布市下石原1丁目58","lat":35.653981,"lon":139.537833},{"name":"（仮称）鉄道敷地公園（相模原線）","province":"東京都","city":"調布市","address":"東京都調布市小島町2丁目62","lat":35.650894,"lon":139.540293},{"name":"又住橋緑地","province":"東京都","city":"調布市","address":"東京都調布市調布ケ丘3丁目68","lat":35.6619,"lon":139.548573},{"name":"多摩川さくら緑地公衆トイレ","province":"東京都","city":"調布市","address":"東京都調布市多摩川5丁目37","lat":35.641877,"lon":139.535784},{"name":"飛田給駅北公衆トイレ","province":"東京都","city":"調布市","address":"東京都調布市飛田給1丁目42","lat":35.660388,"lon":139.523283},{"name":"深大寺前公衆トイレ","province":"東京都","city":"調布市","address":"東京都調布市深大寺元町5丁目12","lat":35.666859,"lon":139.549327},{"name":"布多天神南公衆トイレ","province":"東京都","city":"調布市","address":"東京都調布市調布ケ丘1丁目7","lat":35.655963,"lon":139.545107},{"name":"多摩川児童公園","province":"東京都","city":"調布市","address":"東京都調布市多摩川4丁目30","lat":35.642685,"lon":139.531562},{"name":"野川橋緑地","province":"東京都","city":"調布市","address":"東京都調布市菊野台3丁目51","lat":35.648852,"lon":139.568447},{"name":"調布市総合体育館","province":"東京都","city":"調布市","address":"東京都調布市深大寺北町2丁目1","lat":35.672693,"lon":139.551802},{"name":"つつじヶ丘駅北公衆トイレ","province":"東京都","city":"調布市","address":"東京都調布市西つつじケ丘3丁目35","lat":35.658284,"lon":139.57452},{"name":"調布駅前広場暫定公衆トイレ","province":"東京都","city":"調布市","address":"東京都調布市布田4丁目1","lat":35.651493,"lon":139.544141},{"name":"調布市総合体育館","province":"東京都","city":"調布市","address":"東京都調布市深大寺北町2丁目1","lat":35.672813,"lon":139.551406},{"name":"調布市民西調布体育館","province":"東京都","city":"調布市","address":"東京都調布市上石原2丁目4-1","lat":35.657449,"lon":139.527321},{"name":"調布市民大町スポーツ施設","province":"東京都","city":"調布市","address":"東京都調布市菊野台3丁目27-40","lat":35.652436,"lon":139.572471},{"name":"調布市民大町スポーツ施設","province":"東京都","city":"調布市","address":"東京都調布市菊野台3丁目27-40","lat":35.652443,"lon":139.57244},{"name":"調布市民大町スポーツ施設","province":"東京都","city":"調布市","address":"東京都調布市菊野台3丁目27-40","lat":35.652449,"lon":139.572409},{"name":"調布市民プール","province":"東京都","city":"調布市","address":"東京都調布市染地2丁目43-1","lat":35.640085,"lon":139.546856},{"name":"調布市民深大寺テニスコート","province":"東京都","city":"調布市","address":"東京都調布市深大寺北町4丁目4","lat":35.677759,"lon":139.553275},{"name":"調布基地跡地運動広場","province":"東京都","city":"調布市","address":"東京都調布市西町","lat":35.667935,"lon":139.525577},{"name":"調布基地跡地運動広場","province":"東京都","city":"調布市","address":"東京都調布市西町","lat":35.667856,"lon":139.525603},{"name":"調布市子ども家庭支援センターすこやか","province":"東京都","city":"調布市","address":"東京都調布市国領町3丁目1-38","lat":35.649492,"lon":139.558688},{"name":"調布市総合福祉センター","province":"東京都","city":"調布市","address":"東京都調布市小島町2丁目47-1","lat":35.65125,"lon":139.54255},{"name":"調布市総合福祉センター","province":"東京都","city":"調布市","address":"東京都調布市小島町2丁目47-1","lat":35.651232,"lon":139.542667},{"name":"調布市総合福祉センター","province":"東京都","city":"調布市","address":"東京都調布市小島町2丁目47-1","lat":35.651227,"lon":139.542594},{"name":"調布市総合福祉センター","province":"東京都","city":"調布市","address":"東京都調布市小島町2丁目47-1","lat":35.651218,"lon":139.542648},{"name":"調布市子ども家庭支援センターすこやか","province":"東京都","city":"調布市","address":"東京都調布市国領町3丁目1-38","lat":35.649617,"lon":139.558578},{"name":"調布市ちょうふだぞう・すまいる分室","province":"東京都","city":"調布市","address":"東京都調布市国領町3丁目19","lat":35.651168,"lon":139.560372},{"name":"調布市ちょうふだぞう・すまいる分室","province":"東京都","city":"調布市","address":"東京都調布市国領町3丁目19","lat":35.650951,"lon":139.55994},{"name":"調布市こころの健康支援センター","province":"東京都","city":"調布市","address":"東京都調布市布田5丁目46-1","lat":35.645704,"lon":139.541739},{"name":"調布市国領駅南口市営駐車場","province":"東京都","city":"調布市","address":"東京都調布市国領町3丁目1-38","lat":35.649654,"lon":139.558991},{"name":"緑ヶ丘こどもフリースペースごりら","province":"東京都","city":"調布市","address":"東京都調布市緑ケ丘2丁目18-49","lat":35.66934778,"lon":139.58393216},{"name":"みんな食堂「仙川スープ」","province":"東京都","city":"調布市","address":"東京都調布市仙川町1丁目19-10","lat":35.66190703,"lon":139.58617112},{"name":"坂の上のばあちゃん家","province":"東京都","city":"調布市","address":"東京都調布市入間町3丁目22-5","lat":35.64650615,"lon":139.58803264},{"name":"子ども食堂深大寺東町","province":"東京都","city":"調布市","address":"東京都調布市深大寺東町6丁目26-15","lat":35.67562424,"lon":139.5587508},{"name":"ハナこども食堂","province":"東京都","city":"調布市","address":"東京都調布市深大寺東町7丁目23-2","lat":35.67628527,"lon":139.55891188},{"name":"絵堂なかよし子ども食堂","province":"東京都","city":"調布市","address":"東京都調布市深大寺南町5丁目9","lat":35.66653636,"lon":139.55753733},{"name":"しばさき彩こども食堂","province":"東京都","city":"調布市","address":"東京都調布市柴崎1丁目64-9","lat":35.6572738,"lon":139.56494541},{"name":"さくら子育てステーション","province":"東京都","city":"調布市","address":"東京都調布市八雲台1丁目22-1","lat":35.65435444,"lon":139.55306875},{"name":"かしわの食堂（まい・夢）","province":"東京都","city":"調布市","address":"東京都調布市佐須町2丁目18-1","lat":35.65938997,"lon":139.55534612},{"name":"深大寺カフェ子ども食堂","province":"東京都","city":"調布市","address":"東京都調布市深大寺元町1丁目11-1","lat":35.66248107,"lon":139.54792163},{"name":"そらなかBASE","province":"東京都","city":"調布市","address":"東京都調布市深大寺元町1丁目11-1","lat":35.66248107,"lon":139.54792163},{"name":"まごじば","province":"東京都","city":"調布市","address":"東京都調布市国領町1丁目7-1","lat":35.65279632,"lon":139.55237724},{"name":"こくりょう子ども食堂わいわい","province":"東京都","city":"調布市","address":"東京都調布市国領町3丁目8-15","lat":35.64856666,"lon":139.56058525},{"name":"二小地区もりあげ隊","province":"東京都","city":"調布市","address":"東京都調布市国領町5丁目76-3","lat":35.64864714,"lon":139.55144724},{"name":"ウナパウザ","province":"東京都","city":"調布市","address":"東京都調布市染地3丁目8-26","lat":35.63719661,"lon":139.55749791},{"name":"みさとや子ども食堂","province":"東京都","city":"調布市","address":"東京都調布市布田2丁目2-6","lat":35.65352939,"lon":139.54781918},{"name":"ちょうふ子ども食堂","province":"東京都","city":"調布市","address":"東京都調布市布田2丁目5-4","lat":35.65335444,"lon":139.54889689},{"name":"ハッピーこども食堂","province":"東京都","city":"調布市","address":"東京都調布市布田5丁目32-3","lat":35.64607548,"lon":139.54485383},{"name":"電気通信大学こども食堂","province":"東京都","city":"調布市","address":"東京都調布市調布ケ丘1丁目5-1","lat":35.65564303,"lon":139.54430838},{"name":"こども食堂かくしょうじ","province":"東京都","city":"調布市","address":"東京都調布市富士見町1丁目35-5","lat":35.66023412,"lon":139.53743394},{"name":"富士見あおぞら子ども食堂","province":"東京都","city":"調布市","address":"東京都調布市富士見町2丁目13-5","lat":35.65921758,"lon":139.54185572},{"name":"風のテーブル","province":"東京都","city":"調布市","address":"東京都調布市上石原1丁目36-7","lat":35.65909816,"lon":139.53207068},{"name":"子ども食堂かみいしわらたんぽぽ","province":"東京都","city":"調布市","address":"東京都調布市上石原3丁目21-6","lat":35.65290458,"lon":139.52214705},{"name":"武蔵野の森総合スポーツプラザ","province":"東京都","city":"調布市","address":"東京都調布市西町","lat":35.664416,"lon":139.524487},{"name":"武蔵野の森総合スポーツプラザ","province":"東京都","city":"調布市","address":"東京都調布市西町","lat":35.664844,"lon":139.524122},{"name":"武蔵野の森総合スポーツプラザ","province":"東京都","city":"調布市","address":"東京都調布市西町290-11","lat":35.665917,"lon":139.524208},{"name":"武蔵野の森総合スポーツプラザ","province":"東京都","city":"調布市","address":"東京都調布市西町290-11","lat":35.665509,"lon":139.524359},{"name":"武蔵野の森総合スポーツプラザ","province":"東京都","city":"調布市","address":"東京都調布市西町290-11","lat":35.66529,"lon":139.524436},{"name":"武蔵野の森総合スポーツプラザ","province":"東京都","city":"調布市","address":"東京都調布市西町290-11","lat":35.665272,"lon":139.525025},{"name":"武蔵野の森総合スポーツプラザ","province":"東京都","city":"調布市","address":"東京都調布市西町290-11","lat":35.66607,"lon":139.524932},{"name":"武蔵野の森総合スポーツプラザ","province":"東京都","city":"調布市","address":"東京都調布市西町","lat":35.664313,"lon":139.524595},{"name":"武蔵野の森総合スポーツプラザ","province":"東京都","city":"調布市","address":"東京都調布市西町","lat":35.664149,"lon":139.524663},{"name":"武蔵野の森総合スポーツプラザ","province":"東京都","city":"調布市","address":"東京都調布市西町","lat":35.664214,"lon":139.524696},{"name":"武蔵野の森総合スポーツプラザ","province":"東京都","city":"調布市","address":"東京都調布市西町","lat":35.664722,"lon":139.524862},{"name":"武蔵野の森総合スポーツプラザ","province":"東京都","city":"調布市","address":"東京都調布市西町","lat":35.664781,"lon":139.524128},{"name":"武蔵野の森総合スポーツプラザ","province":"東京都","city":"調布市","address":"東京都調布市西町290-11","lat":35.665602,"lon":139.524314},{"name":"武蔵野の森総合スポーツプラザ","province":"東京都","city":"調布市","address":"東京都調布市西町290-11","lat":35.665337,"lon":139.524736},{"name":"武蔵野の森総合スポーツプラザ","province":"東京都","city":"調布市","address":"東京都調布市西町290-11","lat":35.665627,"lon":139.525123},{"name":"武蔵野の森総合スポーツプラザ","province":"東京都","city":"調布市","address":"東京都調布市西町290-11","lat":35.665731,"lon":139.525072},{"name":"武蔵野の森総合スポーツプラザ","province":"東京都","city":"調布市","address":"東京都調布市西町","lat":35.66493,"lon":139.524506},{"name":"東京スタジアム","province":"東京都","city":"調布市","address":"東京都調布市西町","lat":35.663671,"lon":139.525175},{"name":"東京スタジアム","province":"東京都","city":"調布市","address":"東京都調布市西町","lat":35.663952,"lon":139.525431},{"name":"東京スタジアム","province":"東京都","city":"調布市","address":"東京都調布市西町","lat":35.664613,"lon":139.528603},{"name":"東京スタジアム","province":"東京都","city":"調布市","address":"東京都調布市西町","lat":35.664338,"lon":139.526267},{"name":"東京スタジアム","province":"東京都","city":"調布市","address":"東京都調布市西町","lat":35.663781,"lon":139.526449},{"name":"東京スタジアム","province":"東京都","city":"調布市","address":"東京都調布市西町","lat":35.663693,"lon":139.528123},{"name":"東京スタジアム","province":"東京都","city":"調布市","address":"東京都調布市西町","lat":35.665154,"lon":139.527607},{"name":"東京スタジアム","province":"東京都","city":"調布市","address":"東京都調布市西町","lat":35.665438,"lon":139.52609},{"name":"東京スタジアム","province":"東京都","city":"調布市","address":"東京都調布市西町","lat":35.663965,"lon":139.528323},{"name":"東京スタジアム","province":"東京都","city":"調布市","address":"東京都調布市西町","lat":35.664711,"lon":139.5261},{"name":"東京スタジアム","province":"東京都","city":"調布市","address":"東京都調布市西町","lat":35.66343,"lon":139.526562},{"name":"東京スタジアム","province":"東京都","city":"調布市","address":"東京都調布市西町","lat":35.665416,"lon":139.526912},{"name":"東京スタジアム","province":"東京都","city":"調布市","address":"東京都調布市西町","lat":35.665417,"lon":139.526856},{"name":"東京スタジアム","province":"東京都","city":"調布市","address":"東京都調布市西町","lat":35.664597,"lon":139.525851},{"name":"東京スタジアム","province":"東京都","city":"調布市","address":"東京都調布市西町","lat":35.663815,"lon":139.526267},{"name":"東京スタジアム","province":"東京都","city":"調布市","address":"東京都調布市西町","lat":35.663416,"lon":139.526289},{"name":"東京スタジアム","province":"東京都","city":"調布市","address":"東京都調布市西町","lat":35.663184,"lon":139.527697},{"name":"東京スタジアム","province":"東京都","city":"調布市","address":"東京都調布市西町","lat":35.663197,"lon":139.527734},{"name":"東京スタジアム","province":"東京都","city":"調布市","address":"東京都調布市西町","lat":35.663998,"lon":139.526058},{"name":"東京都パラスポーツトレーニングセンター","province":"東京都","city":"調布市","address":"東京都調布市西町","lat":35.6641475,"lon":139.5282107},{"name":"東京都パラスポーツトレーニングセンター","province":"東京都","city":"調布市","address":"東京都調布市西町","lat":35.664222,"lon":139.528245},{"name":"野川公園","province":"東京都","city":"調布市","address":"東京都調布市野水2丁目2","lat":35.684859,"lon":139.525346},{"name":"野川公園","province":"東京都","city":"調布市","address":"東京都調布市野水1丁目3","lat":35.680074,"lon":139.524851},{"name":"野川公園","province":"東京都","city":"調布市","address":"東京都調布市野水1丁目3","lat":35.684158,"lon":139.523903},{"name":"武蔵野の森公園","province":"東京都","city":"調布市","address":"東京都調布市西町","lat":35.6695,"lon":139.531701},{"name":"武蔵野の森公園","province":"東京都","city":"調布市","address":"東京都調布市西町","lat":35.666573,"lon":139.532343},{"name":"武蔵野の森公園","province":"東京都","city":"調布市","address":"東京都調布市西町","lat":35.664665,"lon":139.532353},{"name":"神代植物公園","province":"東京都","city":"調布市","address":"東京都調布市深大寺元町5丁目18","lat":35.667854,"lon":139.552594},{"name":"神代植物公園","province":"東京都","city":"調布市","address":"東京都調布市深大寺元町5丁目31","lat":35.671712,"lon":139.549053},{"name":"神代植物公園","province":"東京都","city":"調布市","address":"東京都調布市深大寺元町5丁目31","lat":35.669687,"lon":139.548265},{"name":"神代植物公園","province":"東京都","city":"調布市","address":"東京都調布市深大寺元町5丁目31","lat":35.670252,"lon":139.545487},{"name":"神代植物公園","province":"東京都","city":"調布市","address":"東京都調布市深大寺元町5丁目31","lat":35.670571,"lon":139.550707},{"name":"神代植物公園","province":"東京都","city":"調布市","address":"東京都調布市深大寺北町2丁目1","lat":35.672316,"lon":139.549279},{"name":"神代植物公園","province":"東京都","city":"調布市","address":"東京都調布市深大寺北町1丁目4","lat":35.672608,"lon":139.547135},{"name":"神代植物公園","province":"東京都","city":"調布市","address":"東京都調布市深大寺北町1丁目4","lat":35.673361,"lon":139.547788},{"name":"神代植物公園","province":"東京都","city":"調布市","address":"東京都調布市深大寺元町5丁目31","lat":35.668744,"lon":139.550211},{"name":"神代植物公園","province":"東京都","city":"調布市","address":"東京都調布市深大寺元町5丁目31","lat":35.671378,"lon":139.545551},{"name":"神代植物公園","province":"東京都","city":"調布市","address":"東京都調布市深大寺元町5丁目31","lat":35.671393,"lon":139.545743},{"name":"神代植物公園","province":"東京都","city":"調布市","address":"東京都調布市深大寺元町5丁目31","lat":35.669592,"lon":139.545463},{"name":"神代植物公園","province":"東京都","city":"調布市","address":"東京都調布市深大寺北町1丁目4","lat":35.672782,"lon":139.546294},{"name":"神代植物公園","province":"東京都","city":"調布市","address":"東京都調布市深大寺元町5丁目31","lat":35.67219,"lon":139.546022},{"name":"東京都港湾局離島港湾部調布飛行場ターミナルビル","province":"東京都","city":"調布市","address":"東京都調布市西町290-3","lat":35.672414,"lon":139.529565},{"name":"調布サービスステーション","province":"東京都","city":"調布市","address":"東京都調布市国領町7丁目29-5","lat":35.644449,"lon":139.559861},{"name":"調布消防署国領出張所","province":"東京都","city":"調布市","address":"東京都調布市国領町7丁目50-1","lat":35.645554,"lon":139.561971},{"name":"調布消防署","province":"東京都","city":"調布市","address":"東京都調布市下石原1丁目16-1","lat":35.656026,"lon":139.539101},{"name":"調布市役所","province":"東京都","city":"調布市","address":"東京都調布市小島町2丁目35-1","lat":35.650603,"lon":139.540644},{"name":"調布市役所　神代出張所","province":"東京都","city":"調布市","address":"東京都調布市西つつじケ丘3丁目19-1","lat":35.65798,"lon":139.571046},{"name":"調布市教育会館","province":"東京都","city":"調布市","address":"東京都調布市小島町2丁目36-1","lat":35.650225,"lon":139.541709},{"name":"調布市教育会館","province":"東京都","city":"調布市","address":"東京都調布市小島町2丁目36-1","lat":35.65024,"lon":139.541713},{"name":"調布市青少年交流館","province":"東京都","city":"調布市","address":"東京都調布市飛田給1丁目52-1","lat":35.661131,"lon":139.525529},{"name":"調布市北部公民館","province":"東京都","city":"調布市","address":"東京都調布市柴崎2丁目5-18","lat":35.661634,"lon":139.562822},{"name":"調布市西部公民館","province":"東京都","city":"調布市","address":"東京都調布市上石原3丁目21-6","lat":35.652962,"lon":139.522204},{"name":"調布市金子地域福祉センター","province":"東京都","city":"調布市","address":"東京都調布市西つつじケ丘4丁目43-3","lat":35.651087,"lon":139.579051},{"name":"調布市西部地域福祉センター","province":"東京都","city":"調布市","address":"東京都調布市上石原2丁目15-6","lat":35.655587,"lon":139.525419},{"name":"調布市調布ケ丘地域福祉センター","province":"東京都","city":"調布市","address":"東京都調布市調布ケ丘3丁目58-2","lat":35.659904,"lon":139.5503},{"name":"調布市染地地域福祉センター","province":"東京都","city":"調布市","address":"東京都調布市染地3丁目3-1","lat":35.639725,"lon":139.556476},{"name":"調布市緑ケ丘地域福祉センター","province":"東京都","city":"調布市","address":"東京都調布市緑ケ丘2丁目18-49","lat":35.669357,"lon":139.584004},{"name":"調布市菊野台地域福祉センター","province":"東京都","city":"調布市","address":"東京都調布市菊野台1丁目38-1","lat":35.657554,"lon":139.566114},{"name":"調布市富士見地域福祉センター","province":"東京都","city":"調布市","address":"東京都調布市富士見町4丁目15-6","lat":35.663977,"lon":139.534579},{"name":"調布市下石原地域福祉センター","province":"東京都","city":"調布市","address":"東京都調布市下石原3丁目72-1","lat":35.647616,"lon":139.534736},{"name":"調布市入間地域福祉センター","province":"東京都","city":"調布市","address":"東京都調布市入間町1丁目13-2","lat":35.653799,"lon":139.58729},{"name":"調布市深大寺地域福祉センター","province":"東京都","city":"調布市","address":"東京都調布市深大寺北町2丁目40-1","lat":35.67483,"lon":139.551596},{"name":"布田駅南ふれあいの家","province":"東京都","city":"調布市","address":"東京都調布市国領町5丁目76-3","lat":35.648669,"lon":139.551429},{"name":"飛田給ふれあいの家","province":"東京都","city":"調布市","address":"東京都調布市飛田給1丁目3","lat":35.663006,"lon":139.522683},{"name":"国領ふれあいの家","province":"東京都","city":"調布市","address":"東京都調布市国領町8丁目1-59","lat":35.647028,"lon":139.56169},{"name":"上石原ふれあいの家","province":"東京都","city":"調布市","address":"東京都調布市上石原2丁目6","lat":35.656513,"lon":139.527597},{"name":"国領駅北ふれあいの家","province":"東京都","city":"調布市","address":"東京都調布市国領町2丁目5-15","lat":35.650537,"lon":139.558469},{"name":"小島町ふれあいの家","province":"東京都","city":"調布市","address":"東京都調布市小島町3丁目56-1","lat":35.647505,"lon":139.540092},{"name":"大町ふれあいの家","province":"東京都","city":"調布市","address":"東京都調布市菊野台3丁目27-39","lat":35.651946,"lon":139.571678},{"name":"上ノ原ふれあいの家","province":"東京都","city":"調布市","address":"東京都調布市柴崎2丁目27-25","lat":35.664029,"lon":139.564555},{"name":"調布市立図書館深大寺分館","province":"東京都","city":"調布市","address":"東京都調布市深大寺北町5丁目17-3","lat":35.678148,"lon":139.550446},{"name":"調布市立図書館佐須分館","province":"東京都","city":"調布市","address":"東京都調布市佐須町4丁目42-2","lat":35.658647,"lon":139.556039},{"name":"調布市郷土博物館","province":"東京都","city":"調布市","address":"東京都調布市小島町3丁目26-2","lat":35.646978,"lon":139.536123},{"name":"調布市武者小路実篤記念館","province":"東京都","city":"調布市","address":"東京都調布市若葉町1丁目8-30","lat":35.656733,"lon":139.581276},{"name":"調布市市民プラザあくろす","province":"東京都","city":"調布市","address":"東京都調布市国領町2丁目5-15","lat":35.650536,"lon":139.557973},{"name":"調布市多摩川自然情報館","province":"東京都","city":"調布市","address":"東京都調布市染地3丁目8-26","lat":35.637205,"lon":139.557506},{"name":"調布市市民プラザあくろす","province":"東京都","city":"調布市","address":"東京都調布市国領町2丁目5-15","lat":35.650615,"lon":139.557833},{"name":"調布市せんがわ劇場","province":"東京都","city":"調布市","address":"東京都調布市仙川町1丁目21-5","lat":35.661698,"lon":139.58688},{"name":"調布市文化会館たづくり","province":"東京都","city":"調布市","address":"東京都調布市小島町2丁目33-1","lat":35.650994,"lon":139.54187},{"name":"調布市文化会館たづくり","province":"東京都","city":"調布市","address":"東京都調布市小島町2丁目33-1","lat":35.651083,"lon":139.541424},{"name":"調布市文化会館たづくり","province":"東京都","city":"調布市","address":"東京都調布市小島町2丁目33-1","lat":35.651066,"lon":139.54084},{"name":"調布市文化会館たづくり","province":"東京都","city":"調布市","address":"東京都調布市小島町2丁目33-1","lat":35.650983,"lon":139.541284},{"name":"調布市文化会館たづくり","province":"東京都","city":"調布市","address":"東京都調布市小島町2丁目33-1","lat":35.651028,"lon":139.541294},{"name":"調布市文化会館たづくり","province":"東京都","city":"調布市","address":"東京都調布市小島町2丁目33-1","lat":35.65099,"lon":139.54191},{"name":"調布市グリーンホール","province":"東京都","city":"調布市","address":"東京都調布市小島町2丁目47-1","lat":35.651339,"lon":139.542753},{"name":"調布市グリーンホール","province":"東京都","city":"調布市","address":"東京都調布市小島町2丁目47-1","lat":35.651516,"lon":139.542882},{"name":"調布市せんがわ劇場","province":"東京都","city":"調布市","address":"東京都調布市仙川町1丁目21-5","lat":35.661405,"lon":139.586964},{"name":"調布市せんがわ劇場","province":"東京都","city":"調布市","address":"東京都調布市仙川町1丁目21-5","lat":35.661357,"lon":139.586897},{"name":"上ノ原公園","province":"東京都","city":"調布市","address":"東京都調布市柴崎2丁目6","lat":35.661461,"lon":139.562626},{"name":"ぬの多公園","province":"東京都","city":"調布市","address":"東京都調布市染地2丁目8","lat":35.640057,"lon":139.55295},{"name":"入間公園","province":"東京都","city":"調布市","address":"東京都調布市入間町3丁目6","lat":35.64818,"lon":139.588588},{"name":"とりで公園","province":"東京都","city":"調布市","address":"東京都調布市深大寺東町8丁目24","lat":35.680293,"lon":139.556603},{"name":"実篤公園","province":"東京都","city":"調布市","address":"東京都調布市若葉町1丁目23","lat":35.657877,"lon":139.581702},{"name":"多摩川市民広場","province":"東京都","city":"調布市","address":"東京都調布市染地2丁目51","lat":35.637642,"lon":139.552931},{"name":"西町公園","province":"東京都","city":"調布市","address":"東京都調布市西町","lat":35.662536,"lon":139.532486},{"name":"高速第2児童遊園","province":"東京都","city":"調布市","address":"東京都調布市上石原1丁目20","lat":35.658812,"lon":139.530124},{"name":"高速第3児童遊園","province":"東京都","city":"調布市","address":"東京都調布市富士見町3丁目8","lat":35.662673,"lon":139.539172},{"name":"深大寺自然広場","province":"東京都","city":"調布市","address":"東京都調布市深大寺南町1丁目24","lat":35.662726,"lon":139.556694},{"name":"鬼太郎ひろば","province":"東京都","city":"調布市","address":"東京都調布市下石原1丁目58","lat":35.653981,"lon":139.537833},{"name":"（仮称）鉄道敷地公園（相模原線）","province":"東京都","city":"調布市","address":"東京都調布市小島町2丁目62","lat":35.650894,"lon":139.540293},{"name":"又住橋緑地","province":"東京都","city":"調布市","address":"東京都調布市調布ケ丘3丁目68","lat":35.6619,"lon":139.548573},{"name":"多摩川さくら緑地公衆トイレ","province":"東京都","city":"調布市","address":"東京都調布市多摩川5丁目37","lat":35.641877,"lon":139.535784},{"name":"飛田給駅北公衆トイレ","province":"東京都","city":"調布市","address":"東京都調布市飛田給1丁目42","lat":35.660388,"lon":139.523283},{"name":"深大寺前公衆トイレ","province":"東京都","city":"調布市","address":"東京都調布市深大寺元町5丁目12","lat":35.666859,"lon":139.549327},{"name":"布多天神南公衆トイレ","province":"東京都","city":"調布市","address":"東京都調布市調布ケ丘1丁目7","lat":35.655963,"lon":139.545107},{"name":"多摩川児童公園","province":"東京都","city":"調布市","address":"東京都調布市多摩川4丁目30","lat":35.642685,"lon":139.531562},{"name":"野川橋緑地","province":"東京都","city":"調布市","address":"東京都調布市菊野台3丁目51","lat":35.648852,"lon":139.568447},{"name":"調布市総合体育館","province":"東京都","city":"調布市","address":"東京都調布市深大寺北町2丁目1","lat":35.672693,"lon":139.551802},{"name":"つつじヶ丘駅北公衆トイレ","province":"東京都","city":"調布市","address":"東京都調布市西つつじケ丘3丁目35","lat":35.658284,"lon":139.57452},{"name":"調布駅前広場暫定公衆トイレ","province":"東京都","city":"調布市","address":"東京都調布市布田4丁目1","lat":35.651493,"lon":139.544141},{"name":"調布市総合体育館","province":"東京都","city":"調布市","address":"東京都調布市深大寺北町2丁目1","lat":35.672813,"lon":139.551406},{"name":"調布市民西調布体育館","province":"東京都","city":"調布市","address":"東京都調布市上石原2丁目4-1","lat":35.657449,"lon":139.527321},{"name":"調布市民大町スポーツ施設","province":"東京都","city":"調布市","address":"東京都調布市菊野台3丁目27-40","lat":35.652436,"lon":139.572471},{"name":"調布市民大町スポーツ施設","province":"東京都","city":"調布市","address":"東京都調布市菊野台3丁目27-40","lat":35.652443,"lon":139.57244},{"name":"調布市民大町スポーツ施設","province":"東京都","city":"調布市","address":"東京都調布市菊野台3丁目27-40","lat":35.652449,"lon":139.572409},{"name":"調布市民プール","province":"東京都","city":"調布市","address":"東京都調布市染地2丁目43-1","lat":35.640085,"lon":139.546856},{"name":"調布市民深大寺テニスコート","province":"東京都","city":"調布市","address":"東京都調布市深大寺北町4丁目4","lat":35.677759,"lon":139.553275},{"name":"調布基地跡地運動広場","province":"東京都","city":"調布市","address":"東京都調布市西町","lat":35.667935,"lon":139.525577},{"name":"調布基地跡地運動広場","province":"東京都","city":"調布市","address":"東京都調布市西町","lat":35.667856,"lon":139.525603},{"name":"調布市子ども家庭支援センターすこやか","province":"東京都","city":"調布市","address":"東京都調布市国領町3丁目1-38","lat":35.649492,"lon":139.558688},{"name":"調布市総合福祉センター","province":"東京都","city":"調布市","address":"東京都調布市小島町2丁目47-1","lat":35.65125,"lon":139.54255},{"name":"調布市総合福祉センター","province":"東京都","city":"調布市","address":"東京都調布市小島町2丁目47-1","lat":35.651232,"lon":139.542667},{"name":"調布市総合福祉センター","province":"東京都","city":"調布市","address":"東京都調布市小島町2丁目47-1","lat":35.651227,"lon":139.542594},{"name":"調布市総合福祉センター","province":"東京都","city":"調布市","address":"東京都調布市小島町2丁目47-1","lat":35.651218,"lon":139.542648},{"name":"調布市子ども家庭支援センターすこやか","province":"東京都","city":"調布市","address":"東京都調布市国領町3丁目1-38","lat":35.649617,"lon":139.558578},{"name":"調布市ちょうふだぞう・すまいる分室","province":"東京都","city":"調布市","address":"東京都調布市国領町3丁目19","lat":35.651168,"lon":139.560372},{"name":"調布市ちょうふだぞう・すまいる分室","province":"東京都","city":"調布市","address":"東京都調布市国領町3丁目19","lat":35.650951,"lon":139.55994},{"name":"調布市こころの健康支援センター","province":"東京都","city":"調布市","address":"東京都調布市布田5丁目46-1","lat":35.645704,"lon":139.541739},{"name":"調布市国領駅南口市営駐車場","province":"東京都","city":"調布市","address":"東京都調布市国領町3丁目1-38","lat":35.649654,"lon":139.558991},{"name":"緑ヶ丘こどもフリースペースごりら","province":"東京都","city":"調布市","address":"東京都調布市緑ケ丘2丁目18-49","lat":35.66934778,"lon":139.58393216},{"name":"みんな食堂「仙川スープ」","province":"東京都","city":"調布市","address":"東京都調布市仙川町1丁目19-10","lat":35.66190703,"lon":139.58617112},{"name":"坂の上のばあちゃん家","province":"東京都","city":"調布市","address":"東京都調布市入間町3丁目22-5","lat":35.64650615,"lon":139.58803264},{"name":"子ども食堂深大寺東町","province":"東京都","city":"調布市","address":"東京都調布市深大寺東町6丁目26-15","lat":35.67562424,"lon":139.5587508},{"name":"ハナこども食堂","province":"東京都","city":"調布市","address":"東京都調布市深大寺東町7丁目23-2","lat":35.67628527,"lon":139.55891188},{"name":"絵堂なかよし子ども食堂","province":"東京都","city":"調布市","address":"東京都調布市深大寺南町5丁目9","lat":35.66653636,"lon":139.55753733},{"name":"しばさき彩こども食堂","province":"東京都","city":"調布市","address":"東京都調布市柴崎1丁目64-9","lat":35.6572738,"lon":139.56494541},{"name":"さくら子育てステーション","province":"東京都","city":"調布市","address":"東京都調布市八雲台1丁目22-1","lat":35.65435444,"lon":139.55306875},{"name":"かしわの食堂（まい・夢）","province":"東京都","city":"調布市","address":"東京都調布市佐須町2丁目18-1","lat":35.65938997,"lon":139.55534612},{"name":"深大寺カフェ子ども食堂","province":"東京都","city":"調布市","address":"東京都調布市深大寺元町1丁目11-1","lat":35.66248107,"lon":139.54792163},{"name":"そらなかBASE","province":"東京都","city":"調布市","address":"東京都調布市深大寺元町1丁目11-1","lat":35.66248107,"lon":139.54792163},{"name":"まごじば","province":"東京都","city":"調布市","address":"東京都調布市国領町1丁目7-1","lat":35.65279632,"lon":139.55237724},{"name":"こくりょう子ども食堂わいわい","province":"東京都","city":"調布市","address":"東京都調布市国領町3丁目8-15","lat":35.64856666,"lon":139.56058525},{"name":"二小地区もりあげ隊","province":"東京都","city":"調布市","address":"東京都調布市国領町5丁目76-3","lat":35.64864714,"lon":139.55144724},{"name":"ウナパウザ","province":"東京都","city":"調布市","address":"東京都調布市染地3丁目8-26","lat":35.63719661,"lon":139.55749791},{"name":"みさとや子ども食堂","province":"東京都","city":"調布市","address":"東京都調布市布田2丁目2-6","lat":35.65352939,"lon":139.54781918},{"name":"ちょうふ子ども食堂","province":"東京都","city":"調布市","address":"東京都調布市布田2丁目5-4","lat":35.65335444,"lon":139.54889689},{"name":"ハッピーこども食堂","province":"東京都","city":"調布市","address":"東京都調布市布田5丁目32-3","lat":35.64607548,"lon":139.54485383},{"name":"電気通信大学こども食堂","province":"東京都","city":"調布市","address":"東京都調布市調布ケ丘1丁目5-1","lat":35.65564303,"lon":139.54430838},{"name":"こども食堂かくしょうじ","province":"東京都","city":"調布市","address":"東京都調布市富士見町1丁目35-5","lat":35.66023412,"lon":139.53743394},{"name":"富士見あおぞら子ども食堂","province":"東京都","city":"調布市","address":"東京都調布市富士見町2丁目13-5","lat":35.65921758,"lon":139.54185572},{"name":"風のテーブル","province":"東京都","city":"調布市","address":"東京都調布市上石原1丁目36-7","lat":35.65909816,"lon":139.53207068},{"name":"子ども食堂かみいしわらたんぽぽ","province":"東京都","city":"調布市","address":"東京都調布市上石原3丁目21-6","lat":35.65290458,"lon":139.52214705},{"name":"武蔵野の森総合スポーツプラザ","province":"東京都","city":"調布市","address":"東京都調布市西町","lat":35.664416,"lon":139.524487},{"name":"武蔵野の森総合スポーツプラザ","province":"東京都","city":"調布市","address":"東京都調布市西町","lat":35.664844,"lon":139.524122},{"name":"武蔵野の森総合スポーツプラザ","province":"東京都","city":"調布市","address":"東京都調布市西町290-11","lat":35.665917,"lon":139.524208},{"name":"武蔵野の森総合スポーツプラザ","province":"東京都","city":"調布市","address":"東京都調布市西町290-11","lat":35.665509,"lon":139.524359},{"name":"武蔵野の森総合スポーツプラザ","province":"東京都","city":"調布市","address":"東京都調布市西町290-11","lat":35.66529,"lon":139.524436},{"name":"武蔵野の森総合スポーツプラザ","province":"東京都","city":"調布市","address":"東京都調布市西町290-11","lat":35.665272,"lon":139.525025},{"name":"武蔵野の森総合スポーツプラザ","province":"東京都","city":"調布市","address":"東京都調布市西町290-11","lat":35.66607,"lon":139.524932},{"name":"武蔵野の森総合スポーツプラザ","province":"東京都","city":"調布市","address":"東京都調布市西町","lat":35.664313,"lon":139.524595},{"name":"武蔵野の森総合スポーツプラザ","province":"東京都","city":"調布市","address":"東京都調布市西町","lat":35.664149,"lon":139.524663},{"name":"武蔵野の森総合スポーツプラザ","province":"東京都","city":"調布市","address":"東京都調布市西町","lat":35.664214,"lon":139.524696},{"name":"武蔵野の森総合スポーツプラザ","province":"東京都","city":"調布市","address":"東京都調布市西町","lat":35.664722,"lon":139.524862},{"name":"武蔵野の森総合スポーツプラザ","province":"東京都","city":"調布市","address":"東京都調布市西町","lat":35.664781,"lon":139.524128},{"name":"武蔵野の森総合スポーツプラザ","province":"東京都","city":"調布市","address":"東京都調布市西町290-11","lat":35.665602,"lon":139.524314},{"name":"武蔵野の森総合スポーツプラザ","province":"東京都","city":"調布市","address":"東京都調布市西町290-11","lat":35.665337,"lon":139.524736},{"name":"武蔵野の森総合スポーツプラザ","province":"東京都","city":"調布市","address":"東京都調布市西町290-11","lat":35.665627,"lon":139.525123},{"name":"武蔵野の森総合スポーツプラザ","province":"東京都","city":"調布市","address":"東京都調布市西町290-11","lat":35.665731,"lon":139.525072},{"name":"武蔵野の森総合スポーツプラザ","province":"東京都","city":"調布市","address":"東京都調布市西町","lat":35.66493,"lon":139.524506},{"name":"東京スタジアム","province":"東京都","city":"調布市","address":"東京都調布市西町","lat":35.663671,"lon":139.525175},{"name":"東京スタジアム","province":"東京都","city":"調布市","address":"東京都調布市西町","lat":35.663952,"lon":139.525431},{"name":"東京スタジアム","province":"東京都","city":"調布市","address":"東京都調布市西町","lat":35.664613,"lon":139.528603},{"name":"東京スタジアム","province":"東京都","city":"調布市","address":"東京都調布市西町","lat":35.664338,"lon":139.526267},{"name":"東京スタジアム","province":"東京都","city":"調布市","address":"東京都調布市西町","lat":35.663781,"lon":139.526449},{"name":"東京スタジアム","province":"東京都","city":"調布市","address":"東京都調布市西町","lat":35.663693,"lon":139.528123},{"name":"東京スタジアム","province":"東京都","city":"調布市","address":"東京都調布市西町","lat":35.665154,"lon":139.527607},{"name":"東京スタジアム","province":"東京都","city":"調布市","address":"東京都調布市西町","lat":35.665438,"lon":139.52609},{"name":"東京スタジアム","province":"東京都","city":"調布市","address":"東京都調布市西町","lat":35.663965,"lon":139.528323},{"name":"東京スタジアム","province":"東京都","city":"調布市","address":"東京都調布市西町","lat":35.664711,"lon":139.5261},{"name":"東京スタジアム","province":"東京都","city":"調布市","address":"東京都調布市西町","lat":35.66343,"lon":139.526562},{"name":"東京スタジアム","province":"東京都","city":"調布市","address":"東京都調布市西町","lat":35.665416,"lon":139.526912},{"name":"東京スタジアム","province":"東京都","city":"調布市","address":"東京都調布市西町","lat":35.665417,"lon":139.526856},{"name":"東京スタジアム","province":"東京都","city":"調布市","address":"東京都調布市西町","lat":35.664597,"lon":139.525851},{"name":"東京スタジアム","province":"東京都","city":"調布市","address":"東京都調布市西町","lat":35.663815,"lon":139.526267},{"name":"東京スタジアム","province":"東京都","city":"調布市","address":"東京都調布市西町","lat":35.663416,"lon":139.526289},{"name":"東京スタジアム","province":"東京都","city":"調布市","address":"東京都調布市西町","lat":35.663184,"lon":139.527697},{"name":"東京スタジアム","province":"東京都","city":"調布市","address":"東京都調布市西町","lat":35.663197,"lon":139.527734},{"name":"東京スタジアム","province":"東京都","city":"調布市","address":"東京都調布市西町","lat":35.663998,"lon":139.526058},{"name":"東京都パラスポーツトレーニングセンター","province":"東京都","city":"調布市","address":"東京都調布市西町","lat":35.6641475,"lon":139.5282107},{"name":"東京都パラスポーツトレーニングセンター","province":"東京都","city":"調布市","address":"東京都調布市西町","lat":35.664222,"lon":139.528245},{"name":"野川公園","province":"東京都","city":"調布市","address":"東京都調布市野水2丁目2","lat":35.684859,"lon":139.525346},{"name":"野川公園","province":"東京都","city":"調布市","address":"東京都調布市野水1丁目3","lat":35.680074,"lon":139.524851},{"name":"野川公園","province":"東京都","city":"調布市","address":"東京都調布市野水1丁目3","lat":35.684158,"lon":139.523903},{"name":"武蔵野の森公園","province":"東京都","city":"調布市","address":"東京都調布市西町","lat":35.6695,"lon":139.531701},{"name":"武蔵野の森公園","province":"東京都","city":"調布市","address":"東京都調布市西町","lat":35.666573,"lon":139.532343},{"name":"武蔵野の森公園","province":"東京都","city":"調布市","address":"東京都調布市西町","lat":35.664665,"lon":139.532353},{"name":"神代植物公園","province":"東京都","city":"調布市","address":"東京都調布市深大寺元町5丁目18","lat":35.667854,"lon":139.552594},{"name":"神代植物公園","province":"東京都","city":"調布市","address":"東京都調布市深大寺元町5丁目31","lat":35.671712,"lon":139.549053},{"name":"神代植物公園","province":"東京都","city":"調布市","address":"東京都調布市深大寺元町5丁目31","lat":35.669687,"lon":139.548265},{"name":"神代植物公園","province":"東京都","city":"調布市","address":"東京都調布市深大寺元町5丁目31","lat":35.670252,"lon":139.545487},{"name":"神代植物公園","province":"東京都","city":"調布市","address":"東京都調布市深大寺元町5丁目31","lat":35.670571,"lon":139.550707},{"name":"神代植物公園","province":"東京都","city":"調布市","address":"東京都調布市深大寺北町2丁目1","lat":35.672316,"lon":139.549279},{"name":"神代植物公園","province":"東京都","city":"調布市","address":"東京都調布市深大寺北町1丁目4","lat":35.672608,"lon":139.547135},{"name":"神代植物公園","province":"東京都","city":"調布市","address":"東京都調布市深大寺北町1丁目4","lat":35.673361,"lon":139.547788},{"name":"神代植物公園","province":"東京都","city":"調布市","address":"東京都調布市深大寺元町5丁目31","lat":35.668744,"lon":139.550211},{"name":"神代植物公園","province":"東京都","city":"調布市","address":"東京都調布市深大寺元町5丁目31","lat":35.671378,"lon":139.545551},{"name":"神代植物公園","province":"東京都","city":"調布市","address":"東京都調布市深大寺元町5丁目31","lat":35.671393,"lon":139.545743},{"name":"神代植物公園","province":"東京都","city":"調布市","address":"東京都調布市深大寺元町5丁目31","lat":35.669592,"lon":139.545463},{"name":"神代植物公園","province":"東京都","city":"調布市","address":"東京都調布市深大寺北町1丁目4","lat":35.672782,"lon":139.546294},{"name":"神代植物公園","province":"東京都","city":"調布市","address":"東京都調布市深大寺元町5丁目31","lat":35.67219,"lon":139.546022},{"name":"東京都港湾局離島港湾部調布飛行場ターミナルビル","province":"東京都","city":"調布市","address":"東京都調布市西町290-3","lat":35.672414,"lon":139.529565},{"name":"調布サービスステーション","province":"東京都","city":"調布市","address":"東京都調布市国領町7丁目29-5","lat":35.644449,"lon":139.559861},{"name":"調布消防署国領出張所","province":"東京都","city":"調布市","address":"東京都調布市国領町7丁目50-1","lat":35.645554,"lon":139.561971},{"name":"調布消防署","province":"東京都","city":"調布市","address":"東京都調布市下石原1丁目16-1","lat":35.656026,"lon":139.539101},{"name":"調布市役所","province":"東京都","city":"調布市","address":"東京都調布市小島町2丁目35-1","lat":35.650603,"lon":139.540644},{"name":"調布市役所　神代出張所","province":"東京都","city":"調布市","address":"東京都調布市西つつじケ丘3丁目19-1","lat":35.65798,"lon":139.571046},{"name":"調布市教育会館","province":"東京都","city":"調布市","address":"東京都調布市小島町2丁目36-1","lat":35.650225,"lon":139.541709},{"name":"調布市教育会館","province":"東京都","city":"調布市","address":"東京都調布市小島町2丁目36-1","lat":35.65024,"lon":139.541713},{"name":"調布市青少年交流館","province":"東京都","city":"調布市","address":"東京都調布市飛田給1丁目52-1","lat":35.661131,"lon":139.525529},{"name":"調布市北部公民館","province":"東京都","city":"調布市","address":"東京都調布市柴崎2丁目5-18","lat":35.661634,"lon":139.562822},{"name":"調布市西部公民館","province":"東京都","city":"調布市","address":"東京都調布市上石原3丁目21-6","lat":35.652962,"lon":139.522204},{"name":"調布市金子地域福祉センター","province":"東京都","city":"調布市","address":"東京都調布市西つつじケ丘4丁目43-3","lat":35.651087,"lon":139.579051},{"name":"調布市西部地域福祉センター","province":"東京都","city":"調布市","address":"東京都調布市上石原2丁目15-6","lat":35.655587,"lon":139.525419},{"name":"調布市調布ケ丘地域福祉センター","province":"東京都","city":"調布市","address":"東京都調布市調布ケ丘3丁目58-2","lat":35.659904,"lon":139.5503},{"name":"調布市染地地域福祉センター","province":"東京都","city":"調布市","address":"東京都調布市染地3丁目3-1","lat":35.639725,"lon":139.556476},{"name":"調布市緑ケ丘地域福祉センター","province":"東京都","city":"調布市","address":"東京都調布市緑ケ丘2丁目18-49","lat":35.669357,"lon":139.584004},{"name":"調布市菊野台地域福祉センター","province":"東京都","city":"調布市","address":"東京都調布市菊野台1丁目38-1","lat":35.657554,"lon":139.566114},{"name":"調布市富士見地域福祉センター","province":"東京都","city":"調布市","address":"東京都調布市富士見町4丁目15-6","lat":35.663977,"lon":139.534579},{"name":"調布市下石原地域福祉センター","province":"東京都","city":"調布市","address":"東京都調布市下石原3丁目72-1","lat":35.647616,"lon":139.534736},{"name":"調布市入間地域福祉センター","province":"東京都","city":"調布市","address":"東京都調布市入間町1丁目13-2","lat":35.653799,"lon":139.58729},{"name":"調布市深大寺地域福祉センター","province":"東京都","city":"調布市","address":"東京都調布市深大寺北町2丁目40-1","lat":35.67483,"lon":139.551596},{"name":"布田駅南ふれあいの家","province":"東京都","city":"調布市","address":"東京都調布市国領町5丁目76-3","lat":35.648669,"lon":139.551429},{"name":"飛田給ふれあいの家","province":"東京都","city":"調布市","address":"東京都調布市飛田給1丁目3","lat":35.663006,"lon":139.522683},{"name":"国領ふれあいの家","province":"東京都","city":"調布市","address":"東京都調布市国領町8丁目1-59","lat":35.647028,"lon":139.56169},{"name":"上石原ふれあいの家","province":"東京都","city":"調布市","address":"東京都調布市上石原2丁目6","lat":35.656513,"lon":139.527597},{"name":"国領駅北ふれあいの家","province":"東京都","city":"調布市","address":"東京都調布市国領町2丁目5-15","lat":35.650537,"lon":139.558469},{"name":"小島町ふれあいの家","province":"東京都","city":"調布市","address":"東京都調布市小島町3丁目56-1","lat":35.647505,"lon":139.540092},{"name":"大町ふれあいの家","province":"東京都","city":"調布市","address":"東京都調布市菊野台3丁目27-39","lat":35.651946,"lon":139.571678},{"name":"上ノ原ふれあいの家","province":"東京都","city":"調布市","address":"東京都調布市柴崎2丁目27-25","lat":35.664029,"lon":139.564555},{"name":"調布市立図書館深大寺分館","province":"東京都","city":"調布市","address":"東京都調布市深大寺北町5丁目17-3","lat":35.678148,"lon":139.550446},{"name":"調布市立図書館佐須分館","province":"東京都","city":"調布市","address":"東京都調布市佐須町4丁目42-2","lat":35.658647,"lon":139.556039},{"name":"調布市郷土博物館","province":"東京都","city":"調布市","address":"東京都調布市小島町3丁目26-2","lat":35.646978,"lon":139.536123},{"name":"調布市武者小路実篤記念館","province":"東京都","city":"調布市","address":"東京都調布市若葉町1丁目8-30","lat":35.656733,"lon":139.581276},{"name":"調布市市民プラザあくろす","province":"東京都","city":"調布市","address":"東京都調布市国領町2丁目5-15","lat":35.650536,"lon":139.557973},{"name":"調布市多摩川自然情報館","province":"東京都","city":"調布市","address":"東京都調布市染地3丁目8-26","lat":35.637205,"lon":139.557506},{"name":"調布市市民プラザあくろす","province":"東京都","city":"調布市","address":"東京都調布市国領町2丁目5-15","lat":35.650615,"lon":139.557833},{"name":"調布市せんがわ劇場","province":"東京都","city":"調布市","address":"東京都調布市仙川町1丁目21-5","lat":35.661698,"lon":139.58688},{"name":"調布市文化会館たづくり","province":"東京都","city":"調布市","address":"東京都調布市小島町2丁目33-1","lat":35.650994,"lon":139.54187},{"name":"調布市文化会館たづくり","province":"東京都","city":"調布市","address":"東京都調布市小島町2丁目33-1","lat":35.651083,"lon":139.541424},{"name":"調布市文化会館たづくり","province":"東京都","city":"調布市","address":"東京都調布市小島町2丁目33-1","lat":35.651066,"lon":139.54084},{"name":"調布市文化会館たづくり","province":"東京都","city":"調布市","address":"東京都調布市小島町2丁目33-1","lat":35.650983,"lon":139.541284},{"name":"調布市文化会館たづくり","province":"東京都","city":"調布市","address":"東京都調布市小島町2丁目33-1","lat":35.651028,"lon":139.541294},{"name":"調布市文化会館たづくり","province":"東京都","city":"調布市","address":"東京都調布市小島町2丁目33-1","lat":35.65099,"lon":139.54191},{"name":"調布市グリーンホール","province":"東京都","city":"調布市","address":"東京都調布市小島町2丁目47-1","lat":35.651339,"lon":139.542753},{"name":"調布市グリーンホール","province":"東京都","city":"調布市","address":"東京都調布市小島町2丁目47-1","lat":35.651516,"lon":139.542882},{"name":"調布市せんがわ劇場","province":"東京都","city":"調布市","address":"東京都調布市仙川町1丁目21-5","lat":35.661405,"lon":139.586964},{"name":"調布市せんがわ劇場","province":"東京都","city":"調布市","address":"東京都調布市仙川町1丁目21-5","lat":35.661357,"lon":139.586897},{"name":"上ノ原公園","province":"東京都","city":"調布市","address":"東京都調布市柴崎2丁目6","lat":35.661461,"lon":139.562626},{"name":"ぬの多公園","province":"東京都","city":"調布市","address":"東京都調布市染地2丁目8","lat":35.640057,"lon":139.55295},{"name":"入間公園","province":"東京都","city":"調布市","address":"東京都調布市入間町3丁目6","lat":35.64818,"lon":139.588588},{"name":"とりで公園","province":"東京都","city":"調布市","address":"東京都調布市深大寺東町8丁目24","lat":35.680293,"lon":139.556603},{"name":"実篤公園","province":"東京都","city":"調布市","address":"東京都調布市若葉町1丁目23","lat":35.657877,"lon":139.581702},{"name":"多摩川市民広場","province":"東京都","city":"調布市","address":"東京都調布市染地2丁目51","lat":35.637642,"lon":139.552931},{"name":"西町公園","province":"東京都","city":"調布市","address":"東京都調布市西町","lat":35.662536,"lon":139.532486},{"name":"高速第2児童遊園","province":"東京都","city":"調布市","address":"東京都調布市上石原1丁目20","lat":35.658812,"lon":139.530124},{"name":"高速第3児童遊園","province":"東京都","city":"調布市","address":"東京都調布市富士見町3丁目8","lat":35.662673,"lon":139.539172},{"name":"深大寺自然広場","province":"東京都","city":"調布市","address":"東京都調布市深大寺南町1丁目24","lat":35.662726,"lon":139.556694},{"name":"鬼太郎ひろば","province":"東京都","city":"調布市","address":"東京都調布市下石原1丁目58","lat":35.653981,"lon":139.537833},{"name":"（仮称）鉄道敷地公園（相模原線）","province":"東京都","city":"調布市","address":"東京都調布市小島町2丁目62","lat":35.650894,"lon":139.540293},{"name":"又住橋緑地","province":"東京都","city":"調布市","address":"東京都調布市調布ケ丘3丁目68","lat":35.6619,"lon":139.548573},{"name":"多摩川さくら緑地公衆トイレ","province":"東京都","city":"調布市","address":"東京都調布市多摩川5丁目37","lat":35.641877,"lon":139.535784},{"name":"飛田給駅北公衆トイレ","province":"東京都","city":"調布市","address":"東京都調布市飛田給1丁目42","lat":35.660388,"lon":139.523283},{"name":"深大寺前公衆トイレ","province":"東京都","city":"調布市","address":"東京都調布市深大寺元町5丁目12","lat":35.666859,"lon":139.549327},{"name":"布多天神南公衆トイレ","province":"東京都","city":"調布市","address":"東京都調布市調布ケ丘1丁目7","lat":35.655963,"lon":139.545107},{"name":"多摩川児童公園","province":"東京都","city":"調布市","address":"東京都調布市多摩川4丁目30","lat":35.642685,"lon":139.531562},{"name":"野川橋緑地","province":"東京都","city":"調布市","address":"東京都調布市菊野台3丁目51","lat":35.648852,"lon":139.568447},{"name":"調布市総合体育館","province":"東京都","city":"調布市","address":"東京都調布市深大寺北町2丁目1","lat":35.672693,"lon":139.551802},{"name":"つつじヶ丘駅北公衆トイレ","province":"東京都","city":"調布市","address":"東京都調布市西つつじケ丘3丁目35","lat":35.658284,"lon":139.57452},{"name":"調布駅前広場暫定公衆トイレ","province":"東京都","city":"調布市","address":"東京都調布市布田4丁目1","lat":35.651493,"lon":139.544141},{"name":"調布市総合体育館","province":"東京都","city":"調布市","address":"東京都調布市深大寺北町2丁目1","lat":35.672813,"lon":139.551406},{"name":"調布市民西調布体育館","province":"東京都","city":"調布市","address":"東京都調布市上石原2丁目4-1","lat":35.657449,"lon":139.527321},{"name":"調布市民大町スポーツ施設","province":"東京都","city":"調布市","address":"東京都調布市菊野台3丁目27-40","lat":35.652436,"lon":139.572471},{"name":"調布市民大町スポーツ施設","province":"東京都","city":"調布市","address":"東京都調布市菊野台3丁目27-40","lat":35.652443,"lon":139.57244},{"name":"調布市民大町スポーツ施設","province":"東京都","city":"調布市","address":"東京都調布市菊野台3丁目27-40","lat":35.652449,"lon":139.572409},{"name":"調布市民プール","province":"東京都","city":"調布市","address":"東京都調布市染地2丁目43-1","lat":35.640085,"lon":139.546856},{"name":"調布市民深大寺テニスコート","province":"東京都","city":"調布市","address":"東京都調布市深大寺北町4丁目4","lat":35.677759,"lon":139.553275},{"name":"調布基地跡地運動広場","province":"東京都","city":"調布市","address":"東京都調布市西町","lat":35.667935,"lon":139.525577},{"name":"調布基地跡地運動広場","province":"東京都","city":"調布市","address":"東京都調布市西町","lat":35.667856,"lon":139.525603},{"name":"調布市子ども家庭支援センターすこやか","province":"東京都","city":"調布市","address":"東京都調布市国領町3丁目1-38","lat":35.649492,"lon":139.558688},{"name":"調布市総合福祉センター","province":"東京都","city":"調布市","address":"東京都調布市小島町2丁目47-1","lat":35.65125,"lon":139.54255},{"name":"調布市総合福祉センター","province":"東京都","city":"調布市","address":"東京都調布市小島町2丁目47-1","lat":35.651232,"lon":139.542667},{"name":"調布市総合福祉センター","province":"東京都","city":"調布市","address":"東京都調布市小島町2丁目47-1","lat":35.651227,"lon":139.542594},{"name":"調布市総合福祉センター","province":"東京都","city":"調布市","address":"東京都調布市小島町2丁目47-1","lat":35.651218,"lon":139.542648},{"name":"調布市子ども家庭支援センターすこやか","province":"東京都","city":"調布市","address":"東京都調布市国領町3丁目1-38","lat":35.649617,"lon":139.558578},{"name":"調布市ちょうふだぞう・すまいる分室","province":"東京都","city":"調布市","address":"東京都調布市国領町3丁目19","lat":35.651168,"lon":139.560372},{"name":"調布市ちょうふだぞう・すまいる分室","province":"東京都","city":"調布市","address":"東京都調布市国領町3丁目19","lat":35.650951,"lon":139.55994},{"name":"調布市こころの健康支援センター","province":"東京都","city":"調布市","address":"東京都調布市布田5丁目46-1","lat":35.645704,"lon":139.541739},{"name":"調布市国領駅南口市営駐車場","province":"東京都","city":"調布市","address":"東京都調布市国領町3丁目1-38","lat":35.649654,"lon":139.558991},{"name":"緑ヶ丘こどもフリースペースごりら","province":"東京都","city":"調布市","address":"東京都調布市緑ケ丘2丁目18-49","lat":35.66934778,"lon":139.58393216},{"name":"みんな食堂「仙川スープ」","province":"東京都","city":"調布市","address":"東京都調布市仙川町1丁目19-10","lat":35.66190703,"lon":139.58617112},{"name":"坂の上のばあちゃん家","province":"東京都","city":"調布市","address":"東京都調布市入間町3丁目22-5","lat":35.64650615,"lon":139.58803264},{"name":"子ども食堂深大寺東町","province":"東京都","city":"調布市","address":"東京都調布市深大寺東町6丁目26-15","lat":35.67562424,"lon":139.5587508},{"name":"ハナこども食堂","province":"東京都","city":"調布市","address":"東京都調布市深大寺東町7丁目23-2","lat":35.67628527,"lon":139.55891188},{"name":"絵堂なかよし子ども食堂","province":"東京都","city":"調布市","address":"東京都調布市深大寺南町5丁目9","lat":35.66653636,"lon":139.55753733},{"name":"しばさき彩こども食堂","province":"東京都","city":"調布市","address":"東京都調布市柴崎1丁目64-9","lat":35.6572738,"lon":139.56494541},{"name":"さくら子育てステーション","province":"東京都","city":"調布市","address":"東京都調布市八雲台1丁目22-1","lat":35.65435444,"lon":139.55306875},{"name":"かしわの食堂（まい・夢）","province":"東京都","city":"調布市","address":"東京都調布市佐須町2丁目18-1","lat":35.65938997,"lon":139.55534612},{"name":"深大寺カフェ子ども食堂","province":"東京都","city":"調布市","address":"東京都調布市深大寺元町1丁目11-1","lat":35.66248107,"lon":139.54792163},{"name":"そらなかBASE","province":"東京都","city":"調布市","address":"東京都調布市深大寺元町1丁目11-1","lat":35.66248107,"lon":139.54792163},{"name":"まごじば","province":"東京都","city":"調布市","address":"東京都調布市国領町1丁目7-1","lat":35.65279632,"lon":139.55237724},{"name":"こくりょう子ども食堂わいわい","province":"東京都","city":"調布市","address":"東京都調布市国領町3丁目8-15","lat":35.64856666,"lon":139.56058525},{"name":"二小地区もりあげ隊","province":"東京都","city":"調布市","address":"東京都調布市国領町5丁目76-3","lat":35.64864714,"lon":139.55144724},{"name":"ウナパウザ","province":"東京都","city":"調布市","address":"東京都調布市染地3丁目8-26","lat":35.63719661,"lon":139.55749791},{"name":"みさとや子ども食堂","province":"東京都","city":"調布市","address":"東京都調布市布田2丁目2-6","lat":35.65352939,"lon":139.54781918},{"name":"ちょうふ子ども食堂","province":"東京都","city":"調布市","address":"東京都調布市布田2丁目5-4","lat":35.65335444,"lon":139.54889689},{"name":"ハッピーこども食堂","province":"東京都","city":"調布市","address":"東京都調布市布田5丁目32-3","lat":35.64607548,"lon":139.54485383},{"name":"電気通信大学こども食堂","province":"東京都","city":"調布市","address":"東京都調布市調布ケ丘1丁目5-1","lat":35.65564303,"lon":139.54430838},{"name":"こども食堂かくしょうじ","province":"東京都","city":"調布市","address":"東京都調布市富士見町1丁目35-5","lat":35.66023412,"lon":139.53743394},{"name":"富士見あおぞら子ども食堂","province":"東京都","city":"調布市","address":"東京都調布市富士見町2丁目13-5","lat":35.65921758,"lon":139.54185572},{"name":"風のテーブル","province":"東京都","city":"調布市","address":"東京都調布市上石原1丁目36-7","lat":35.65909816,"lon":139.53207068},{"name":"子ども食堂かみいしわらたんぽぽ","province":"東京都","city":"調布市","address":"東京都調布市上石原3丁目21-6","lat":35.65290458,"lon":139.52214705},{"name":"緑ヶ丘こどもフリースペースごりら","province":"東京都","city":"調布市","address":"東京都調布市緑ケ丘2丁目18-49","lat":35.66934778,"lon":139.58393216},{"name":"みんな食堂「仙川スープ」","province":"東京都","city":"調布市","address":"東京都調布市仙川町1丁目19-10","lat":35.66190703,"lon":139.58617112},{"name":"坂の上のばあちゃん家","province":"東京都","city":"調布市","address":"東京都調布市入間町3丁目22-5","lat":35.64650615,"lon":139.58803264},{"name":"子ども食堂深大寺東町","province":"東京都","city":"調布市","address":"東京都調布市深大寺東町6丁目26-15","lat":35.67562424,"lon":139.5587508},{"name":"ハナこども食堂","province":"東京都","city":"調布市","address":"東京都調布市深大寺東町7丁目23-2","lat":35.67628527,"lon":139.55891188},{"name":"絵堂なかよし子ども食堂","province":"東京都","city":"調布市","address":"東京都調布市深大寺南町5丁目9","lat":35.66653636,"lon":139.55753733},{"name":"しばさき彩こども食堂","province":"東京都","city":"調布市","address":"東京都調布市柴崎1丁目64-9","lat":35.6572738,"lon":139.56494541},{"name":"さくら子育てステーション","province":"東京都","city":"調布市","address":"東京都調布市八雲台1丁目22-1","lat":35.65435444,"lon":139.55306875},{"name":"かしわの食堂（まい・夢）","province":"東京都","city":"調布市","address":"東京都調布市佐須町2丁目18-1","lat":35.65938997,"lon":139.55534612},{"name":"深大寺カフェ子ども食堂","province":"東京都","city":"調布市","address":"東京都調布市深大寺元町1丁目11-1","lat":35.66248107,"lon":139.54792163},{"name":"そらなかBASE","province":"東京都","city":"調布市","address":"東京都調布市深大寺元町1丁目11-1","lat":35.66248107,"lon":139.54792163},{"name":"まごじば","province":"東京都","city":"調布市","address":"東京都調布市国領町1丁目7-1","lat":35.65279632,"lon":139.55237724},{"name":"こくりょう子ども食堂わいわい","province":"東京都","city":"調布市","address":"東京都調布市国領町3丁目8-15","lat":35.64856666,"lon":139.56058525},{"name":"二小地区もりあげ隊","province":"東京都","city":"調布市","address":"東京都調布市国領町5丁目76-3","lat":35.64864714,"lon":139.55144724},{"name":"ウナパウザ","province":"東京都","city":"調布市","address":"東京都調布市染地3丁目8-26","lat":35.63719661,"lon":139.55749791},{"name":"みさとや子ども食堂","province":"東京都","city":"調布市","address":"東京都調布市布田2丁目2-6","lat":35.65352939,"lon":139.54781918},{"name":"ちょうふ子ども食堂","province":"東京都","city":"調布市","address":"東京都調布市布田2丁目5-4","lat":35.65335444,"lon":139.54889689},{"name":"ハッピーこども食堂","province":"東京都","city":"調布市","address":"東京都調布市布田5丁目32-3","lat":35.64607548,"lon":139.54485383},{"name":"電気通信大学こども食堂","province":"東京都","city":"調布市","address":"東京都調布市調布ケ丘1丁目5-1","lat":35.65564303,"lon":139.54430838},{"name":"こども食堂かくしょうじ","province":"東京都","city":"調布市","address":"東京都調布市富士見町1丁目35-5","lat":35.66023412,"lon":139.53743394},{"name":"富士見あおぞら子ども食堂","province":"東京都","city":"調布市","address":"東京都調布市富士見町2丁目13-5","lat":35.65921758,"lon":139.54185572},{"name":"風のテーブル","province":"東京都","city":"調布市","address":"東京都調布市上石原1丁目36-7","lat":35.65909816,"lon":139.53207068},{"name":"子ども食堂かみいしわらたんぽぽ","province":"東京都","city":"調布市","address":"東京都調布市上石原3丁目21-6","lat":35.65290458,"lon":139.52214705},{"name":"緑ヶ丘こどもフリースペースごりら","province":"東京都","city":"調布市","address":"東京都調布市緑ケ丘2丁目18-49","lat":35.66934778,"lon":139.58393216},{"name":"みんな食堂「仙川スープ」","province":"東京都","city":"調布市","address":"東京都調布市仙川町1丁目19-10","lat":35.66190703,"lon":139.58617112},{"name":"坂の上のばあちゃん家","province":"東京都","city":"調布市","address":"東京都調布市入間町3丁目22-5","lat":35.64650615,"lon":139.58803264},{"name":"子ども食堂深大寺東町","province":"東京都","city":"調布市","address":"東京都調布市深大寺東町6丁目26-15","lat":35.67562424,"lon":139.5587508},{"name":"ハナこども食堂","province":"東京都","city":"調布市","address":"東京都調布市深大寺東町7丁目23-2","lat":35.67628527,"lon":139.55891188},{"name":"絵堂なかよし子ども食堂","province":"東京都","city":"調布市","address":"東京都調布市深大寺南町5丁目9","lat":35.66653636,"lon":139.55753733},{"name":"しばさき彩こども食堂","province":"東京都","city":"調布市","address":"東京都調布市柴崎1丁目64-9","lat":35.6572738,"lon":139.56494541},{"name":"さくら子育てステーション","province":"東京都","city":"調布市","address":"東京都調布市八雲台1丁目22-1","lat":35.65435444,"lon":139.55306875},{"name":"かしわの食堂（まい・夢）","province":"東京都","city":"調布市","address":"東京都調布市佐須町2丁目18-1","lat":35.65938997,"lon":139.55534612},{"name":"深大寺カフェ子ども食堂","province":"東京都","city":"調布市","address":"東京都調布市深大寺元町1丁目11-1","lat":35.66248107,"lon":139.54792163},{"name":"そらなかBASE","province":"東京都","city":"調布市","address":"東京都調布市深大寺元町1丁目11-1","lat":35.66248107,"lon":139.54792163},{"name":"まごじば","province":"東京都","city":"調布市","address":"東京都調布市国領町1丁目7-1","lat":35.65279632,"lon":139.55237724},{"name":"こくりょう子ども食堂わいわい","province":"東京都","city":"調布市","address":"東京都調布市国領町3丁目8-15","lat":35.64856666,"lon":139.56058525},{"name":"二小地区もりあげ隊","province":"東京都","city":"調布市","address":"東京都調布市国領町5丁目76-3","lat":35.64864714,"lon":139.55144724},{"name":"ウナパウザ","province":"東京都","city":"調布市","address":"東京都調布市染地3丁目8-26","lat":35.63719661,"lon":139.55749791},{"name":"みさとや子ども食堂","province":"東京都","city":"調布市","address":"東京都調布市布田2丁目2-6","lat":35.65352939,"lon":139.54781918},{"name":"ちょうふ子ども食堂","province":"東京都","city":"調布市","address":"東京都調布市布田2丁目5-4","lat":35.65335444,"lon":139.54889689},{"name":"ハッピーこども食堂","province":"東京都","city":"調布市","address":"東京都調布市布田5丁目32-3","lat":35.64607548,"lon":139.54485383},{"name":"電気通信大学こども食堂","province":"東京都","city":"調布市","address":"東京都調布市調布ケ丘1丁目5-1","lat":35.65564303,"lon":139.54430838},{"name":"こども食堂かくしょうじ","province":"東京都","city":"調布市","address":"東京都調布市富士見町1丁目35-5","lat":35.66023412,"lon":139.53743394},{"name":"富士見あおぞら子ども食堂","province":"東京都","city":"調布市","address":"東京都調布市富士見町2丁目13-5","lat":35.65921758,"lon":139.54185572},{"name":"風のテーブル","province":"東京都","city":"調布市","address":"東京都調布市上石原1丁目36-7","lat":35.65909816,"lon":139.53207068},{"name":"子ども食堂かみいしわらたんぽぽ","province":"東京都","city":"調布市","address":"東京都調布市上石原3丁目21-6","lat":35.65290458,"lon":139.52214705},{"name":"緑ヶ丘こどもフリースペースごりら","province":"東京都","city":"調布市","address":"東京都調布市緑ケ丘2丁目18-49","lat":35.66934778,"lon":139.58393216},{"name":"みんな食堂「仙川スープ」","province":"東京都","city":"調布市","address":"東京都調布市仙川町1丁目19-10","lat":35.66190703,"lon":139.58617112},{"name":"坂の上のばあちゃん家","province":"東京都","city":"調布市","address":"東京都調布市入間町3丁目22-5","lat":35.64650615,"lon":139.58803264},{"name":"子ども食堂深大寺東町","province":"東京都","city":"調布市","address":"東京都調布市深大寺東町6丁目26-15","lat":35.67562424,"lon":139.5587508},{"name":"ハナこども食堂","province":"東京都","city":"調布市","address":"東京都調布市深大寺東町7丁目23-2","lat":35.67628527,"lon":139.55891188},{"name":"絵堂なかよし子ども食堂","province":"東京都","city":"調布市","address":"東京都調布市深大寺南町5丁目9","lat":35.66653636,"lon":139.55753733},{"name":"しばさき彩こども食堂","province":"東京都","city":"調布市","address":"東京都調布市柴崎1丁目64-9","lat":35.6572738,"lon":139.56494541},{"name":"さくら子育てステーション","province":"東京都","city":"調布市","address":"東京都調布市八雲台1丁目22-1","lat":35.65435444,"lon":139.55306875},{"name":"かしわの食堂（まい・夢）","province":"東京都","city":"調布市","address":"東京都調布市佐須町2丁目18-1","lat":35.65938997,"lon":139.55534612},{"name":"深大寺カフェ子ども食堂","province":"東京都","city":"調布市","address":"東京都調布市深大寺元町1丁目11-1","lat":35.66248107,"lon":139.54792163},{"name":"そらなかBASE","province":"東京都","city":"調布市","address":"東京都調布市深大寺元町1丁目11-1","lat":35.66248107,"lon":139.54792163},{"name":"まごじば","province":"東京都","city":"調布市","address":"東京都調布市国領町1丁目7-1","lat":35.65279632,"lon":139.55237724},{"name":"こくりょう子ども食堂わいわい","province":"東京都","city":"調布市","address":"東京都調布市国領町3丁目8-15","lat":35.64856666,"lon":139.56058525},{"name":"二小地区もりあげ隊","province":"東京都","city":"調布市","address":"東京都調布市国領町5丁目76-3","lat":35.64864714,"lon":139.55144724},{"name":"ウナパウザ","province":"東京都","city":"調布市","address":"東京都調布市染地3丁目8-26","lat":35.63719661,"lon":139.55749791},{"name":"みさとや子ども食堂","province":"東京都","city":"調布市","address":"東京都調布市布田2丁目2-6","lat":35.65352939,"lon":139.54781918},{"name":"ちょうふ子ども食堂","province":"東京都","city":"調布市","address":"東京都調布市布田2丁目5-4","lat":35.65335444,"lon":139.54889689},{"name":"ハッピーこども食堂","province":"東京都","city":"調布市","address":"東京都調布市布田5丁目32-3","lat":35.64607548,"lon":139.54485383},{"name":"電気通信大学こども食堂","province":"東京都","city":"調布市","address":"東京都調布市調布ケ丘1丁目5-1","lat":35.65564303,"lon":139.54430838},{"name":"こども食堂かくしょうじ","province":"東京都","city":"調布市","address":"東京都調布市富士見町1丁目35-5","lat":35.66023412,"lon":139.53743394},{"name":"富士見あおぞら子ども食堂","province":"東京都","city":"調布市","address":"東京都調布市富士見町2丁目13-5","lat":35.65921758,"lon":139.54185572},{"name":"風のテーブル","province":"東京都","city":"調布市","address":"東京都調布市上石原1丁目36-7","lat":35.65909816,"lon":139.53207068},{"name":"子ども食堂かみいしわらたんぽぽ","province":"東京都","city":"調布市","address":"東京都調布市上石原3丁目21-6","lat":35.65290458,"lon":139.52214705},{"name":"緑ヶ丘こどもフリースペースごりら","province":"東京都","city":"調布市","address":"東京都調布市緑ケ丘2丁目18-49","lat":35.66934778,"lon":139.58393216},{"name":"みんな食堂「仙川スープ」","province":"東京都","city":"調布市","address":"東京都調布市仙川町1丁目19-10","lat":35.66190703,"lon":139.58617112},{"name":"坂の上のばあちゃん家","province":"東京都","city":"調布市","address":"東京都調布市入間町3丁目22-5","lat":35.64650615,"lon":139.58803264},{"name":"子ども食堂深大寺東町","province":"東京都","city":"調布市","address":"東京都調布市深大寺東町6丁目26-15","lat":35.67562424,"lon":139.5587508},{"name":"ハナこども食堂","province":"東京都","city":"調布市","address":"東京都調布市深大寺東町7丁目23-2","lat":35.67628527,"lon":139.55891188},{"name":"絵堂なかよし子ども食堂","province":"東京都","city":"調布市","address":"東京都調布市深大寺南町5丁目9","lat":35.66653636,"lon":139.55753733},{"name":"しばさき彩こども食堂","province":"東京都","city":"調布市","address":"東京都調布市柴崎1丁目64-9","lat":35.6572738,"lon":139.56494541},{"name":"さくら子育てステーション","province":"東京都","city":"調布市","address":"東京都調布市八雲台1丁目22-1","lat":35.65435444,"lon":139.55306875},{"name":"かしわの食堂（まい・夢）","province":"東京都","city":"調布市","address":"東京都調布市佐須町2丁目18-1","lat":35.65938997,"lon":139.55534612},{"name":"深大寺カフェ子ども食堂","province":"東京都","city":"調布市","address":"東京都調布市深大寺元町1丁目11-1","lat":35.66248107,"lon":139.54792163},{"name":"そらなかBASE","province":"東京都","city":"調布市","address":"東京都調布市深大寺元町1丁目11-1","lat":35.66248107,"lon":139.54792163},{"name":"まごじば","province":"東京都","city":"調布市","address":"東京都調布市国領町1丁目7-1","lat":35.65279632,"lon":139.55237724},{"name":"こくりょう子ども食堂わいわい","province":"東京都","city":"調布市","address":"東京都調布市国領町3丁目8-15","lat":35.64856666,"lon":139.56058525},{"name":"二小地区もりあげ隊","province":"東京都","city":"調布市","address":"東京都調布市国領町5丁目76-3","lat":35.64864714,"lon":139.55144724},{"name":"ウナパウザ","province":"東京都","city":"調布市","address":"東京都調布市染地3丁目8-26","lat":35.63719661,"lon":139.55749791},{"name":"みさとや子ども食堂","province":"東京都","city":"調布市","address":"東京都調布市布田2丁目2-6","lat":35.65352939,"lon":139.54781918},{"name":"ちょうふ子ども食堂","province":"東京都","city":"調布市","address":"東京都調布市布田2丁目5-4","lat":35.65335444,"lon":139.54889689},{"name":"ハッピーこども食堂","province":"東京都","city":"調布市","address":"東京都調布市布田5丁目32-3","lat":35.64607548,"lon":139.54485383},{"name":"電気通信大学こども食堂","province":"東京都","city":"調布市","address":"東京都調布市調布ケ丘1丁目5-1","lat":35.65564303,"lon":139.54430838},{"name":"こども食堂かくしょうじ","province":"東京都","city":"調布市","address":"東京都調布市富士見町1丁目35-5","lat":35.66023412,"lon":139.53743394},{"name":"富士見あおぞら子ども食堂","province":"東京都","city":"調布市","address":"東京都調布市富士見町2丁目13-5","lat":35.65921758,"lon":139.54185572},{"name":"風のテーブル","province":"東京都","city":"調布市","address":"東京都調布市上石原1丁目36-7","lat":35.65909816,"lon":139.53207068},{"name":"子ども食堂かみいしわらたんぽぽ","province":"東京都","city":"調布市","address":"東京都調布市上石原3丁目21-6","lat":35.65290458,"lon":139.52214705},{"name":"緑ヶ丘こどもフリースペースごりら","province":"東京都","city":"調布市","address":"東京都調布市緑ケ丘2丁目18-49","lat":35.66934778,"lon":139.58393216},{"name":"みんな食堂「仙川スープ」","province":"東京都","city":"調布市","address":"東京都調布市仙川町1丁目19-10","lat":35.66190703,"lon":139.58617112},{"name":"坂の上のばあちゃん家","province":"東京都","city":"調布市","address":"東京都調布市入間町3丁目22-5","lat":35.64650615,"lon":139.58803264},{"name":"子ども食堂深大寺東町","province":"東京都","city":"調布市","address":"東京都調布市深大寺東町6丁目26-15","lat":35.67562424,"lon":139.5587508},{"name":"ハナこども食堂","province":"東京都","city":"調布市","address":"東京都調布市深大寺東町7丁目23-2","lat":35.67628527,"lon":139.55891188},{"name":"絵堂なかよし子ども食堂","province":"東京都","city":"調布市","address":"東京都調布市深大寺南町5丁目9","lat":35.66653636,"lon":139.55753733},{"name":"しばさき彩こども食堂","province":"東京都","city":"調布市","address":"東京都調布市柴崎1丁目64-9","lat":35.6572738,"lon":139.56494541},{"name":"さくら子育てステーション","province":"東京都","city":"調布市","address":"東京都調布市八雲台1丁目22-1","lat":35.65435444,"lon":139.55306875},{"name":"かしわの食堂（まい・夢）","province":"東京都","city":"調布市","address":"東京都調布市佐須町2丁目18-1","lat":35.65938997,"lon":139.55534612},{"name":"深大寺カフェ子ども食堂","province":"東京都","city":"調布市","address":"東京都調布市深大寺元町1丁目11-1","lat":35.66248107,"lon":139.54792163},{"name":"そらなかBASE","province":"東京都","city":"調布市","address":"東京都調布市深大寺元町1丁目11-1","lat":35.66248107,"lon":139.54792163},{"name":"まごじば","province":"東京都","city":"調布市","address":"東京都調布市国領町1丁目7-1","lat":35.65279632,"lon":139.55237724},{"name":"こくりょう子ども食堂わいわい","province":"東京都","city":"調布市","address":"東京都調布市国領町3丁目8-15","lat":35.64856666,"lon":139.56058525},{"name":"二小地区もりあげ隊","province":"東京都","city":"調布市","address":"東京都調布市国領町5丁目76-3","lat":35.64864714,"lon":139.55144724},{"name":"ウナパウザ","province":"東京都","city":"調布市","address":"東京都調布市染地3丁目8-26","lat":35.63719661,"lon":139.55749791},{"name":"みさとや子ども食堂","province":"東京都","city":"調布市","address":"東京都調布市布田2丁目2-6","lat":35.65352939,"lon":139.54781918},{"name":"ちょうふ子ども食堂","province":"東京都","city":"調布市","address":"東京都調布市布田2丁目5-4","lat":35.65335444,"lon":139.54889689},{"name":"ハッピーこども食堂","province":"東京都","city":"調布市","address":"東京都調布市布田5丁目32-3","lat":35.64607548,"lon":139.54485383},{"name":"電気通信大学こども食堂","province":"東京都","city":"調布市","address":"東京都調布市調布ケ丘1丁目5-1","lat":35.65564303,"lon":139.54430838},{"name":"こども食堂かくしょうじ","province":"東京都","city":"調布市","address":"東京都調布市富士見町1丁目35-5","lat":35.66023412,"lon":139.53743394},{"name":"富士見あおぞら子ども食堂","province":"東京都","city":"調布市","address":"東京都調布市富士見町2丁目13-5","lat":35.65921758,"lon":139.54185572},{"name":"風のテーブル","province":"東京都","city":"調布市","address":"東京都調布市上石原1丁目36-7","lat":35.65909816,"lon":139.53207068},{"name":"子ども食堂かみいしわらたんぽぽ","province":"東京都","city":"調布市","address":"東京都調布市上石原3丁目21-6","lat":35.65290458,"lon":139.52214705}]}