{"keyword":"広域","data":[{"name":"調布基地跡地運動広場及び大沢総合グラウンド一部","province":"東京都","city":"調布市","address":"東京都調布市西町","lat":35.66389176,"lon":139.5250488},{"name":"都立神代植物公園周辺及び自由広場","province":"東京都","city":"調布市","address":"東京都調布市深大寺元町5丁目31-10","lat":35.67232991,"lon":139.54589097},{"name":"多摩川河川敷（第１区）周辺（府中市境～多摩川原橋）","province":"東京都","city":"調布市","address":"東京都調布市多摩川2丁目7","lat":35.64668361,"lon":139.52516685},{"name":"多摩川河川敷（第２区）周辺（多摩川原橋～二ヶ領堰）","province":"東京都","city":"調布市","address":"東京都調布市多摩川5丁目32","lat":35.64222084,"lon":139.5374996},{"name":"多摩川河川敷（第３区）周辺（二ヶ領堰～狛江市境）","province":"東京都","city":"調布市","address":"東京都調布市染地2丁目51","lat":35.63780777,"lon":139.55282904},{"name":"市立調和小学校周辺","province":"東京都","city":"調布市","address":"東京都調布市菊野台3丁目27-40","lat":35.65252451,"lon":139.5724838},{"name":"市立神代中学校・上ノ原小学校周辺","province":"東京都","city":"調布市","address":"東京都調布市佐須町5丁目26-1","lat":35.66162316,"lon":139.5616816},{"name":"市立緑ケ丘小学校周辺","province":"東京都","city":"調布市","address":"東京都調布市緑ケ丘2丁目16-1","lat":35.66996995,"lon":139.58474318},{"name":"ＮＴＴ中央研修センター","province":"東京都","city":"調布市","address":"東京都調布市入間町2丁目","lat":35.64862239,"lon":139.58154701},{"name":"市立第４中学校・若葉小学校周辺","province":"東京都","city":"調布市","address":"東京都調布市若葉町3丁目15-1","lat":35.65392455,"lon":139.58283002}]}