{"keyword":"店","data":[{"name":"（医社）桐光会　調布病院","province":"東京都","city":"調布市","address":"東京都調布市下石原3丁目45-1","lat":35.6509579,"lon":139.53269074},{"name":"（医社）東山会　調布東山病院","province":"東京都","city":"調布市","address":"東京都調布市小島町2丁目32-17","lat":35.65194368,"lon":139.54189507},{"name":"（医社）青山会　青木病院","province":"東京都","city":"調布市","address":"東京都調布市上石原3丁目33-17","lat":35.6504912,"lon":139.52462763},{"name":"（医社）飯野病院","province":"東京都","city":"調布市","address":"東京都調布市布田4丁目3-2","lat":35.65122433,"lon":139.545042},{"name":"（医社）大和会　多摩川病院","province":"東京都","city":"調布市","address":"東京都調布市国領町5丁目31-1","lat":35.64864994,"lon":139.55413032},{"name":"（医社）大坪会　北多摩病院","province":"東京都","city":"調布市","address":"東京都調布市調布ケ丘4丁目1-1","lat":35.65958141,"lon":139.54369162},{"name":"（医社）欣助会　吉祥寺病院","province":"東京都","city":"調布市","address":"東京都調布市深大寺北町4丁目17-1","lat":35.68020136,"lon":139.5514541},{"name":"調布市子ども発達センター保育所等訪問支援事業所","province":"東京都","city":"調布市","address":"調布市西町290-49","lat":35.666277,"lon":139.522529},{"name":"グッドライフ調布寮","province":"東京都","city":"調布市","address":"調布市深大寺東町1-26-5","lat":35.671014,"lon":139.558057},{"name":"飛田給荘","province":"東京都","city":"調布市","address":"東京都調布市","lat":35.65071619,"lon":139.54099257},{"name":"調布市社会福祉協議会","province":"東京都","city":"調布市","address":"調布市小島町2-47-1総合福祉センター2階","lat":35.651397,"lon":139.542753},{"name":"グッドライフ調布寮","province":"東京都","city":"調布市","address":"調布市深大寺東町1-26-5","lat":35.67124,"lon":139.55788},{"name":"SOGIサポートセンターLinMCGroup株式会社","province":"東京都","city":"調布市","address":"東京都調布市多摩川2丁目3-12","lat":35.64803332,"lon":139.52358352},{"name":"㈲和田葬儀社","province":"東京都","city":"調布市","address":"東京都調布市下石原1丁目60-2","lat":35.65478214,"lon":139.53833695},{"name":"㈱メモリード(ﾒﾓﾘｰﾄﾞﾎｰﾙ)","province":"東京都","city":"調布市","address":"東京都調布市菊野台1丁目10-2","lat":35.65449637,"lon":139.5649622},{"name":"㈱公益社","province":"東京都","city":"調布市","address":"東京都調布市仙川町3丁目1-3","lat":35.66295407,"lon":139.58419625},{"name":"京王フェアウェルサポート㈱（京王メモリアル）","province":"東京都","city":"調布市","address":"東京都調布市布田2丁目34-6","lat":35.65131595,"lon":139.54681677},{"name":"（有）和田葬儀社","province":"東京都","city":"調布市","address":"東京都調布市下石原1丁目60-2","lat":35.65478214,"lon":139.53833695},{"name":"（株）メモリード","province":"東京都","city":"調布市","address":"東京都調布市菊野台1丁目11-1","lat":35.65463524,"lon":139.56509551},{"name":"ライズケア調布","province":"東京都","city":"調布市","address":"調布市西つつじが丘1-16-8","lat":35.66085,"lon":139.56836},{"name":"調布市社会福祉協議会","province":"東京都","city":"調布市","address":"調布市小島町2-47-1総合福祉センター内","lat":35.65127,"lon":139.54263},{"name":"ＮＰＯ法人羽ばたく会めじろ作業所","province":"東京都","city":"調布市","address":"東京都調布市国領町1丁目3-1","lat":35.6510161,"lon":139.55118032},{"name":"特定非営利活動法人エクセルシアリサイクルショップ不思議屋","province":"東京都","city":"調布市","address":"東京都調布市下石原1丁目5-5","lat":35.65762065,"lon":139.53480109},{"name":"障害者地域活動支援センター「ドルチェ」","province":"東京都","city":"調布市","address":"東京都調布市小島町2丁目47-1","lat":35.65141877,"lon":139.54274781},{"name":"調布市総合福祉センター「アイビー」","province":"東京都","city":"調布市","address":"東京都調布市小島町2丁目47-1","lat":35.65141877,"lon":139.54274781},{"name":"特定非営利活動法人高次脳機能障がい者活動センター調布ドリーム","province":"東京都","city":"調布市","address":"東京都調布市飛田給1丁目50-1","lat":35.66023954,"lon":139.52622113},{"name":"特定非営利活動法人だいちだいち調布第３事業所","province":"東京都","city":"調布市","address":"東京都調布市東つつじケ丘2丁目27-4","lat":35.65667413,"lon":139.57754708},{"name":"社会福祉法人くすのき会調布くすの木作業所","province":"東京都","city":"調布市","address":"東京都調布市小島町3丁目72-26","lat":35.64828059,"lon":139.5413345},{"name":"特定非営利活動法人リフレッシュ工房","province":"東京都","city":"調布市","address":"東京都調布市小島町1丁目4-18","lat":35.65565418,"lon":139.54171426},{"name":"Cocorport調布Office","province":"東京都","city":"調布市","address":"東京都調布市小島町3丁目69-14","lat":35.64869437,"lon":139.54226211},{"name":"社会福祉法人檸檬会ＬＩＩＭＯ調布","province":"東京都","city":"調布市","address":"東京都調布市布田1丁目40-3","lat":35.65280731,"lon":139.54486681},{"name":"＊?調布市文化会館たづくり","province":"東京都","city":"調布市","address":"調布市小島町2-33-1","lat":35.650998,"lon":139.541309},{"name":"武蔵野の森総合スポーツ施設敷地","province":"東京都","city":"調布市","address":"東京都調布市","lat":35.65071619,"lon":139.54099257},{"name":"旧調布基地跡地整備関連事業用地","province":"東京都","city":"調布市","address":"東京都調布市","lat":35.65071619,"lon":139.54099257},{"name":"調布基地跡地整備関連事業用地","province":"東京都","city":"調布市","address":"東京都調布市","lat":35.65071619,"lon":139.54099257},{"name":"調布庁舎","province":"東京都","city":"調布市","address":"東京都調布市","lat":35.65071619,"lon":139.54099257},{"name":"（医社）桐光会　調布病院","province":"東京都","city":"調布市","address":"東京都調布市下石原3丁目45-1","lat":35.6509579,"lon":139.53269074},{"name":"（医社）東山会　調布東山病院","province":"東京都","city":"調布市","address":"東京都調布市小島町2丁目32-17","lat":35.65194368,"lon":139.54189507},{"name":"（医社）青山会　青木病院","province":"東京都","city":"調布市","address":"東京都調布市上石原3丁目33-17","lat":35.6504912,"lon":139.52462763},{"name":"（医社）飯野病院","province":"東京都","city":"調布市","address":"東京都調布市布田4丁目3-2","lat":35.65122433,"lon":139.545042},{"name":"（医社）大和会　多摩川病院","province":"東京都","city":"調布市","address":"東京都調布市国領町5丁目31-1","lat":35.64864994,"lon":139.55413032},{"name":"（医社）大坪会　北多摩病院","province":"東京都","city":"調布市","address":"東京都調布市調布ケ丘4丁目1-1","lat":35.65958141,"lon":139.54369162},{"name":"（医社）欣助会　吉祥寺病院","province":"東京都","city":"調布市","address":"東京都調布市深大寺北町4丁目17-1","lat":35.68020136,"lon":139.5514541},{"name":"調布市子ども発達センター保育所等訪問支援事業所","province":"東京都","city":"調布市","address":"調布市西町290-49","lat":35.666277,"lon":139.522529},{"name":"グッドライフ調布寮","province":"東京都","city":"調布市","address":"調布市深大寺東町1-26-5","lat":35.671014,"lon":139.558057},{"name":"飛田給荘","province":"東京都","city":"調布市","address":"東京都調布市","lat":35.65071619,"lon":139.54099257},{"name":"調布市社会福祉協議会","province":"東京都","city":"調布市","address":"調布市小島町2-47-1総合福祉センター2階","lat":35.651397,"lon":139.542753},{"name":"グッドライフ調布寮","province":"東京都","city":"調布市","address":"調布市深大寺東町1-26-5","lat":35.67124,"lon":139.55788},{"name":"SOGIサポートセンターLinMCGroup株式会社","province":"東京都","city":"調布市","address":"東京都調布市多摩川2丁目3-12","lat":35.64803332,"lon":139.52358352},{"name":"㈲和田葬儀社","province":"東京都","city":"調布市","address":"東京都調布市下石原1丁目60-2","lat":35.65478214,"lon":139.53833695},{"name":"㈱メモリード(ﾒﾓﾘｰﾄﾞﾎｰﾙ)","province":"東京都","city":"調布市","address":"東京都調布市菊野台1丁目10-2","lat":35.65449637,"lon":139.5649622},{"name":"㈱公益社","province":"東京都","city":"調布市","address":"東京都調布市仙川町3丁目1-3","lat":35.66295407,"lon":139.58419625},{"name":"京王フェアウェルサポート㈱（京王メモリアル）","province":"東京都","city":"調布市","address":"東京都調布市布田2丁目34-6","lat":35.65131595,"lon":139.54681677},{"name":"（有）和田葬儀社","province":"東京都","city":"調布市","address":"東京都調布市下石原1丁目60-2","lat":35.65478214,"lon":139.53833695},{"name":"（株）メモリード","province":"東京都","city":"調布市","address":"東京都調布市菊野台1丁目11-1","lat":35.65463524,"lon":139.56509551},{"name":"ライズケア調布","province":"東京都","city":"調布市","address":"調布市西つつじが丘1-16-8","lat":35.66085,"lon":139.56836},{"name":"調布市社会福祉協議会","province":"東京都","city":"調布市","address":"調布市小島町2-47-1総合福祉センター内","lat":35.65127,"lon":139.54263},{"name":"ＮＰＯ法人羽ばたく会めじろ作業所","province":"東京都","city":"調布市","address":"東京都調布市国領町1丁目3-1","lat":35.6510161,"lon":139.55118032},{"name":"特定非営利活動法人エクセルシアリサイクルショップ不思議屋","province":"東京都","city":"調布市","address":"東京都調布市下石原1丁目5-5","lat":35.65762065,"lon":139.53480109},{"name":"障害者地域活動支援センター「ドルチェ」","province":"東京都","city":"調布市","address":"東京都調布市小島町2丁目47-1","lat":35.65141877,"lon":139.54274781},{"name":"調布市総合福祉センター「アイビー」","province":"東京都","city":"調布市","address":"東京都調布市小島町2丁目47-1","lat":35.65141877,"lon":139.54274781},{"name":"特定非営利活動法人高次脳機能障がい者活動センター調布ドリーム","province":"東京都","city":"調布市","address":"東京都調布市飛田給1丁目50-1","lat":35.66023954,"lon":139.52622113},{"name":"特定非営利活動法人だいちだいち調布第３事業所","province":"東京都","city":"調布市","address":"東京都調布市東つつじケ丘2丁目27-4","lat":35.65667413,"lon":139.57754708},{"name":"社会福祉法人くすのき会調布くすの木作業所","province":"東京都","city":"調布市","address":"東京都調布市小島町3丁目72-26","lat":35.64828059,"lon":139.5413345},{"name":"特定非営利活動法人リフレッシュ工房","province":"東京都","city":"調布市","address":"東京都調布市小島町1丁目4-18","lat":35.65565418,"lon":139.54171426},{"name":"Cocorport調布Office","province":"東京都","city":"調布市","address":"東京都調布市小島町3丁目69-14","lat":35.64869437,"lon":139.54226211},{"name":"社会福祉法人檸檬会ＬＩＩＭＯ調布","province":"東京都","city":"調布市","address":"東京都調布市布田1丁目40-3","lat":35.65280731,"lon":139.54486681},{"name":"武蔵野の森総合スポーツ施設敷地","province":"東京都","city":"調布市","address":"東京都調布市","lat":35.65071619,"lon":139.54099257},{"name":"旧調布基地跡地整備関連事業用地","province":"東京都","city":"調布市","address":"東京都調布市","lat":35.65071619,"lon":139.54099257},{"name":"調布基地跡地整備関連事業用地","province":"東京都","city":"調布市","address":"東京都調布市","lat":35.65071619,"lon":139.54099257},{"name":"調布庁舎","province":"東京都","city":"調布市","address":"東京都調布市","lat":35.65071619,"lon":139.54099257},{"name":"（医社）桐光会　調布病院","province":"東京都","city":"調布市","address":"東京都調布市下石原3丁目45-1","lat":35.6509579,"lon":139.53269074},{"name":"（医社）東山会　調布東山病院","province":"東京都","city":"調布市","address":"東京都調布市小島町2丁目32-17","lat":35.65194368,"lon":139.54189507},{"name":"（医社）青山会　青木病院","province":"東京都","city":"調布市","address":"東京都調布市上石原3丁目33-17","lat":35.6504912,"lon":139.52462763},{"name":"（医社）飯野病院","province":"東京都","city":"調布市","address":"東京都調布市布田4丁目3-2","lat":35.65122433,"lon":139.545042},{"name":"（医社）大和会　多摩川病院","province":"東京都","city":"調布市","address":"東京都調布市国領町5丁目31-1","lat":35.64864994,"lon":139.55413032},{"name":"（医社）大坪会　北多摩病院","province":"東京都","city":"調布市","address":"東京都調布市調布ケ丘4丁目1-1","lat":35.65958141,"lon":139.54369162},{"name":"（医社）欣助会　吉祥寺病院","province":"東京都","city":"調布市","address":"東京都調布市深大寺北町4丁目17-1","lat":35.68020136,"lon":139.5514541},{"name":"調布市子ども発達センター保育所等訪問支援事業所","province":"東京都","city":"調布市","address":"調布市西町290-49","lat":35.666277,"lon":139.522529},{"name":"グッドライフ調布寮","province":"東京都","city":"調布市","address":"調布市深大寺東町1-26-5","lat":35.671014,"lon":139.558057},{"name":"飛田給荘","province":"東京都","city":"調布市","address":"東京都調布市","lat":35.65071619,"lon":139.54099257},{"name":"調布市社会福祉協議会","province":"東京都","city":"調布市","address":"調布市小島町2-47-1総合福祉センター2階","lat":35.651397,"lon":139.542753},{"name":"グッドライフ調布寮","province":"東京都","city":"調布市","address":"調布市深大寺東町1-26-5","lat":35.67124,"lon":139.55788},{"name":"SOGIサポートセンターLinMCGroup株式会社","province":"東京都","city":"調布市","address":"東京都調布市多摩川2丁目3-12","lat":35.64803332,"lon":139.52358352},{"name":"㈲和田葬儀社","province":"東京都","city":"調布市","address":"東京都調布市下石原1丁目60-2","lat":35.65478214,"lon":139.53833695},{"name":"㈱メモリード(ﾒﾓﾘｰﾄﾞﾎｰﾙ)","province":"東京都","city":"調布市","address":"東京都調布市菊野台1丁目10-2","lat":35.65449637,"lon":139.5649622},{"name":"㈱公益社","province":"東京都","city":"調布市","address":"東京都調布市仙川町3丁目1-3","lat":35.66295407,"lon":139.58419625},{"name":"京王フェアウェルサポート㈱（京王メモリアル）","province":"東京都","city":"調布市","address":"東京都調布市布田2丁目34-6","lat":35.65131595,"lon":139.54681677},{"name":"（有）和田葬儀社","province":"東京都","city":"調布市","address":"東京都調布市下石原1丁目60-2","lat":35.65478214,"lon":139.53833695},{"name":"（株）メモリード","province":"東京都","city":"調布市","address":"東京都調布市菊野台1丁目11-1","lat":35.65463524,"lon":139.56509551},{"name":"ライズケア調布","province":"東京都","city":"調布市","address":"調布市西つつじが丘1-16-8","lat":35.66085,"lon":139.56836},{"name":"調布市社会福祉協議会","province":"東京都","city":"調布市","address":"調布市小島町2-47-1総合福祉センター内","lat":35.65127,"lon":139.54263},{"name":"ＮＰＯ法人羽ばたく会めじろ作業所","province":"東京都","city":"調布市","address":"東京都調布市国領町1丁目3-1","lat":35.6510161,"lon":139.55118032},{"name":"特定非営利活動法人エクセルシアリサイクルショップ不思議屋","province":"東京都","city":"調布市","address":"東京都調布市下石原1丁目5-5","lat":35.65762065,"lon":139.53480109},{"name":"障害者地域活動支援センター「ドルチェ」","province":"東京都","city":"調布市","address":"東京都調布市小島町2丁目47-1","lat":35.65141877,"lon":139.54274781},{"name":"調布市総合福祉センター「アイビー」","province":"東京都","city":"調布市","address":"東京都調布市小島町2丁目47-1","lat":35.65141877,"lon":139.54274781},{"name":"特定非営利活動法人高次脳機能障がい者活動センター調布ドリーム","province":"東京都","city":"調布市","address":"東京都調布市飛田給1丁目50-1","lat":35.66023954,"lon":139.52622113},{"name":"特定非営利活動法人だいちだいち調布第３事業所","province":"東京都","city":"調布市","address":"東京都調布市東つつじケ丘2丁目27-4","lat":35.65667413,"lon":139.57754708},{"name":"社会福祉法人くすのき会調布くすの木作業所","province":"東京都","city":"調布市","address":"東京都調布市小島町3丁目72-26","lat":35.64828059,"lon":139.5413345},{"name":"特定非営利活動法人リフレッシュ工房","province":"東京都","city":"調布市","address":"東京都調布市小島町1丁目4-18","lat":35.65565418,"lon":139.54171426},{"name":"Cocorport調布Office","province":"東京都","city":"調布市","address":"東京都調布市小島町3丁目69-14","lat":35.64869437,"lon":139.54226211},{"name":"社会福祉法人檸檬会ＬＩＩＭＯ調布","province":"東京都","city":"調布市","address":"東京都調布市布田1丁目40-3","lat":35.65280731,"lon":139.54486681},{"name":"武蔵野の森総合スポーツ施設敷地","province":"東京都","city":"調布市","address":"東京都調布市","lat":35.65071619,"lon":139.54099257},{"name":"旧調布基地跡地整備関連事業用地","province":"東京都","city":"調布市","address":"東京都調布市","lat":35.65071619,"lon":139.54099257},{"name":"調布基地跡地整備関連事業用地","province":"東京都","city":"調布市","address":"東京都調布市","lat":35.65071619,"lon":139.54099257},{"name":"調布庁舎","province":"東京都","city":"調布市","address":"東京都調布市","lat":35.65071619,"lon":139.54099257},{"name":"（医社）桐光会　調布病院","province":"東京都","city":"調布市","address":"東京都調布市下石原3丁目45-1","lat":35.6509579,"lon":139.53269074},{"name":"（医社）東山会　調布東山病院","province":"東京都","city":"調布市","address":"東京都調布市小島町2丁目32-17","lat":35.65194368,"lon":139.54189507},{"name":"（医社）青山会　青木病院","province":"東京都","city":"調布市","address":"東京都調布市上石原3丁目33-17","lat":35.6504912,"lon":139.52462763},{"name":"（医社）飯野病院","province":"東京都","city":"調布市","address":"東京都調布市布田4丁目3-2","lat":35.65122433,"lon":139.545042},{"name":"（医社）大和会　多摩川病院","province":"東京都","city":"調布市","address":"東京都調布市国領町5丁目31-1","lat":35.64864994,"lon":139.55413032},{"name":"（医社）大坪会　北多摩病院","province":"東京都","city":"調布市","address":"東京都調布市調布ケ丘4丁目1-1","lat":35.65958141,"lon":139.54369162},{"name":"（医社）欣助会　吉祥寺病院","province":"東京都","city":"調布市","address":"東京都調布市深大寺北町4丁目17-1","lat":35.68020136,"lon":139.5514541},{"name":"調布市子ども発達センター保育所等訪問支援事業所","province":"東京都","city":"調布市","address":"調布市西町290-49","lat":35.666277,"lon":139.522529},{"name":"グッドライフ調布寮","province":"東京都","city":"調布市","address":"調布市深大寺東町1-26-5","lat":35.671014,"lon":139.558057},{"name":"飛田給荘","province":"東京都","city":"調布市","address":"東京都調布市","lat":35.65071619,"lon":139.54099257},{"name":"調布市社会福祉協議会","province":"東京都","city":"調布市","address":"調布市小島町2-47-1総合福祉センター2階","lat":35.651397,"lon":139.542753},{"name":"グッドライフ調布寮","province":"東京都","city":"調布市","address":"調布市深大寺東町1-26-5","lat":35.67124,"lon":139.55788},{"name":"SOGIサポートセンターLinMCGroup株式会社","province":"東京都","city":"調布市","address":"東京都調布市多摩川2丁目3-12","lat":35.64803332,"lon":139.52358352},{"name":"㈲和田葬儀社","province":"東京都","city":"調布市","address":"東京都調布市下石原1丁目60-2","lat":35.65478214,"lon":139.53833695},{"name":"㈱メモリード(ﾒﾓﾘｰﾄﾞﾎｰﾙ)","province":"東京都","city":"調布市","address":"東京都調布市菊野台1丁目10-2","lat":35.65449637,"lon":139.5649622},{"name":"㈱公益社","province":"東京都","city":"調布市","address":"東京都調布市仙川町3丁目1-3","lat":35.66295407,"lon":139.58419625},{"name":"京王フェアウェルサポート㈱（京王メモリアル）","province":"東京都","city":"調布市","address":"東京都調布市布田2丁目34-6","lat":35.65131595,"lon":139.54681677},{"name":"（有）和田葬儀社","province":"東京都","city":"調布市","address":"東京都調布市下石原1丁目60-2","lat":35.65478214,"lon":139.53833695},{"name":"（株）メモリード","province":"東京都","city":"調布市","address":"東京都調布市菊野台1丁目11-1","lat":35.65463524,"lon":139.56509551},{"name":"ライズケア調布","province":"東京都","city":"調布市","address":"調布市西つつじが丘1-16-8","lat":35.66085,"lon":139.56836},{"name":"調布市社会福祉協議会","province":"東京都","city":"調布市","address":"調布市小島町2-47-1総合福祉センター内","lat":35.65127,"lon":139.54263},{"name":"ＮＰＯ法人羽ばたく会めじろ作業所","province":"東京都","city":"調布市","address":"東京都調布市国領町1丁目3-1","lat":35.6510161,"lon":139.55118032},{"name":"特定非営利活動法人エクセルシアリサイクルショップ不思議屋","province":"東京都","city":"調布市","address":"東京都調布市下石原1丁目5-5","lat":35.65762065,"lon":139.53480109},{"name":"障害者地域活動支援センター「ドルチェ」","province":"東京都","city":"調布市","address":"東京都調布市小島町2丁目47-1","lat":35.65141877,"lon":139.54274781},{"name":"調布市総合福祉センター「アイビー」","province":"東京都","city":"調布市","address":"東京都調布市小島町2丁目47-1","lat":35.65141877,"lon":139.54274781},{"name":"特定非営利活動法人高次脳機能障がい者活動センター調布ドリーム","province":"東京都","city":"調布市","address":"東京都調布市飛田給1丁目50-1","lat":35.66023954,"lon":139.52622113},{"name":"特定非営利活動法人だいちだいち調布第３事業所","province":"東京都","city":"調布市","address":"東京都調布市東つつじケ丘2丁目27-4","lat":35.65667413,"lon":139.57754708},{"name":"社会福祉法人くすのき会調布くすの木作業所","province":"東京都","city":"調布市","address":"東京都調布市小島町3丁目72-26","lat":35.64828059,"lon":139.5413345},{"name":"特定非営利活動法人リフレッシュ工房","province":"東京都","city":"調布市","address":"東京都調布市小島町1丁目4-18","lat":35.65565418,"lon":139.54171426},{"name":"Cocorport調布Office","province":"東京都","city":"調布市","address":"東京都調布市小島町3丁目69-14","lat":35.64869437,"lon":139.54226211},{"name":"社会福祉法人檸檬会ＬＩＩＭＯ調布","province":"東京都","city":"調布市","address":"東京都調布市布田1丁目40-3","lat":35.65280731,"lon":139.54486681},{"name":"武蔵野の森総合スポーツ施設敷地","province":"東京都","city":"調布市","address":"東京都調布市","lat":35.65071619,"lon":139.54099257},{"name":"旧調布基地跡地整備関連事業用地","province":"東京都","city":"調布市","address":"東京都調布市","lat":35.65071619,"lon":139.54099257},{"name":"調布基地跡地整備関連事業用地","province":"東京都","city":"調布市","address":"東京都調布市","lat":35.65071619,"lon":139.54099257},{"name":"調布庁舎","province":"東京都","city":"調布市","address":"東京都調布市","lat":35.65071619,"lon":139.54099257},{"name":"（医社）桐光会　調布病院","province":"東京都","city":"調布市","address":"東京都調布市下石原3丁目45-1","lat":35.6509579,"lon":139.53269074},{"name":"（医社）東山会　調布東山病院","province":"東京都","city":"調布市","address":"東京都調布市小島町2丁目32-17","lat":35.65194368,"lon":139.54189507},{"name":"（医社）青山会　青木病院","province":"東京都","city":"調布市","address":"東京都調布市上石原3丁目33-17","lat":35.6504912,"lon":139.52462763},{"name":"（医社）飯野病院","province":"東京都","city":"調布市","address":"東京都調布市布田4丁目3-2","lat":35.65122433,"lon":139.545042},{"name":"（医社）大和会　多摩川病院","province":"東京都","city":"調布市","address":"東京都調布市国領町5丁目31-1","lat":35.64864994,"lon":139.55413032},{"name":"（医社）大坪会　北多摩病院","province":"東京都","city":"調布市","address":"東京都調布市調布ケ丘4丁目1-1","lat":35.65958141,"lon":139.54369162},{"name":"（医社）欣助会　吉祥寺病院","province":"東京都","city":"調布市","address":"東京都調布市深大寺北町4丁目17-1","lat":35.68020136,"lon":139.5514541},{"name":"調布市子ども発達センター保育所等訪問支援事業所","province":"東京都","city":"調布市","address":"調布市西町290-49","lat":35.666277,"lon":139.522529},{"name":"グッドライフ調布寮","province":"東京都","city":"調布市","address":"調布市深大寺東町1-26-5","lat":35.671014,"lon":139.558057},{"name":"飛田給荘","province":"東京都","city":"調布市","address":"東京都調布市","lat":35.65071619,"lon":139.54099257},{"name":"調布市社会福祉協議会","province":"東京都","city":"調布市","address":"調布市小島町2-47-1総合福祉センター2階","lat":35.651397,"lon":139.542753},{"name":"グッドライフ調布寮","province":"東京都","city":"調布市","address":"調布市深大寺東町1-26-5","lat":35.67124,"lon":139.55788},{"name":"SOGIサポートセンターLinMCGroup株式会社","province":"東京都","city":"調布市","address":"東京都調布市多摩川2丁目3-12","lat":35.64803332,"lon":139.52358352},{"name":"㈲和田葬儀社","province":"東京都","city":"調布市","address":"東京都調布市下石原1丁目60-2","lat":35.65478214,"lon":139.53833695},{"name":"㈱メモリード(ﾒﾓﾘｰﾄﾞﾎｰﾙ)","province":"東京都","city":"調布市","address":"東京都調布市菊野台1丁目10-2","lat":35.65449637,"lon":139.5649622},{"name":"㈱公益社","province":"東京都","city":"調布市","address":"東京都調布市仙川町3丁目1-3","lat":35.66295407,"lon":139.58419625},{"name":"京王フェアウェルサポート㈱（京王メモリアル）","province":"東京都","city":"調布市","address":"東京都調布市布田2丁目34-6","lat":35.65131595,"lon":139.54681677},{"name":"（有）和田葬儀社","province":"東京都","city":"調布市","address":"東京都調布市下石原1丁目60-2","lat":35.65478214,"lon":139.53833695},{"name":"（株）メモリード","province":"東京都","city":"調布市","address":"東京都調布市菊野台1丁目11-1","lat":35.65463524,"lon":139.56509551},{"name":"ライズケア調布","province":"東京都","city":"調布市","address":"調布市西つつじが丘1-16-8","lat":35.66085,"lon":139.56836},{"name":"調布市社会福祉協議会","province":"東京都","city":"調布市","address":"調布市小島町2-47-1総合福祉センター内","lat":35.65127,"lon":139.54263},{"name":"ＮＰＯ法人羽ばたく会めじろ作業所","province":"東京都","city":"調布市","address":"東京都調布市国領町1丁目3-1","lat":35.6510161,"lon":139.55118032},{"name":"特定非営利活動法人エクセルシアリサイクルショップ不思議屋","province":"東京都","city":"調布市","address":"東京都調布市下石原1丁目5-5","lat":35.65762065,"lon":139.53480109},{"name":"障害者地域活動支援センター「ドルチェ」","province":"東京都","city":"調布市","address":"東京都調布市小島町2丁目47-1","lat":35.65141877,"lon":139.54274781},{"name":"調布市総合福祉センター「アイビー」","province":"東京都","city":"調布市","address":"東京都調布市小島町2丁目47-1","lat":35.65141877,"lon":139.54274781},{"name":"特定非営利活動法人高次脳機能障がい者活動センター調布ドリーム","province":"東京都","city":"調布市","address":"東京都調布市飛田給1丁目50-1","lat":35.66023954,"lon":139.52622113},{"name":"特定非営利活動法人だいちだいち調布第３事業所","province":"東京都","city":"調布市","address":"東京都調布市東つつじケ丘2丁目27-4","lat":35.65667413,"lon":139.57754708},{"name":"社会福祉法人くすのき会調布くすの木作業所","province":"東京都","city":"調布市","address":"東京都調布市小島町3丁目72-26","lat":35.64828059,"lon":139.5413345},{"name":"特定非営利活動法人リフレッシュ工房","province":"東京都","city":"調布市","address":"東京都調布市小島町1丁目4-18","lat":35.65565418,"lon":139.54171426},{"name":"Cocorport調布Office","province":"東京都","city":"調布市","address":"東京都調布市小島町3丁目69-14","lat":35.64869437,"lon":139.54226211},{"name":"社会福祉法人檸檬会ＬＩＩＭＯ調布","province":"東京都","city":"調布市","address":"東京都調布市布田1丁目40-3","lat":35.65280731,"lon":139.54486681},{"name":"武蔵野の森総合スポーツ施設敷地","province":"東京都","city":"調布市","address":"東京都調布市","lat":35.65071619,"lon":139.54099257},{"name":"旧調布基地跡地整備関連事業用地","province":"東京都","city":"調布市","address":"東京都調布市","lat":35.65071619,"lon":139.54099257},{"name":"調布基地跡地整備関連事業用地","province":"東京都","city":"調布市","address":"東京都調布市","lat":35.65071619,"lon":139.54099257},{"name":"調布庁舎","province":"東京都","city":"調布市","address":"東京都調布市","lat":35.65071619,"lon":139.54099257},{"name":"（医社）桐光会　調布病院","province":"東京都","city":"調布市","address":"東京都調布市下石原3丁目45-1","lat":35.6509579,"lon":139.53269074},{"name":"（医社）東山会　調布東山病院","province":"東京都","city":"調布市","address":"東京都調布市小島町2丁目32-17","lat":35.65194368,"lon":139.54189507},{"name":"（医社）青山会　青木病院","province":"東京都","city":"調布市","address":"東京都調布市上石原3丁目33-17","lat":35.6504912,"lon":139.52462763},{"name":"（医社）飯野病院","province":"東京都","city":"調布市","address":"東京都調布市布田4丁目3-2","lat":35.65122433,"lon":139.545042},{"name":"（医社）大和会　多摩川病院","province":"東京都","city":"調布市","address":"東京都調布市国領町5丁目31-1","lat":35.64864994,"lon":139.55413032},{"name":"（医社）大坪会　北多摩病院","province":"東京都","city":"調布市","address":"東京都調布市調布ケ丘4丁目1-1","lat":35.65958141,"lon":139.54369162},{"name":"（医社）欣助会　吉祥寺病院","province":"東京都","city":"調布市","address":"東京都調布市深大寺北町4丁目17-1","lat":35.68020136,"lon":139.5514541},{"name":"調布市子ども発達センター保育所等訪問支援事業所","province":"東京都","city":"調布市","address":"調布市西町290-49","lat":35.666277,"lon":139.522529},{"name":"グッドライフ調布寮","province":"東京都","city":"調布市","address":"調布市深大寺東町1-26-5","lat":35.671014,"lon":139.558057},{"name":"飛田給荘","province":"東京都","city":"調布市","address":"東京都調布市","lat":35.65071619,"lon":139.54099257},{"name":"調布市社会福祉協議会","province":"東京都","city":"調布市","address":"調布市小島町2-47-1総合福祉センター2階","lat":35.651397,"lon":139.542753},{"name":"グッドライフ調布寮","province":"東京都","city":"調布市","address":"調布市深大寺東町1-26-5","lat":35.67124,"lon":139.55788},{"name":"ライズケア調布","province":"東京都","city":"調布市","address":"調布市西つつじが丘1-16-8","lat":35.66085,"lon":139.56836},{"name":"調布市社会福祉協議会","province":"東京都","city":"調布市","address":"調布市小島町2-47-1総合福祉センター内","lat":35.65127,"lon":139.54263},{"name":"ＮＰＯ法人羽ばたく会めじろ作業所","province":"東京都","city":"調布市","address":"東京都調布市国領町1丁目3-1","lat":35.6510161,"lon":139.55118032},{"name":"特定非営利活動法人エクセルシアリサイクルショップ不思議屋","province":"東京都","city":"調布市","address":"東京都調布市下石原1丁目5-5","lat":35.65762065,"lon":139.53480109},{"name":"障害者地域活動支援センター「ドルチェ」","province":"東京都","city":"調布市","address":"東京都調布市小島町2丁目47-1","lat":35.65141877,"lon":139.54274781},{"name":"調布市総合福祉センター「アイビー」","province":"東京都","city":"調布市","address":"東京都調布市小島町2丁目47-1","lat":35.65141877,"lon":139.54274781},{"name":"特定非営利活動法人高次脳機能障がい者活動センター調布ドリーム","province":"東京都","city":"調布市","address":"東京都調布市飛田給1丁目50-1","lat":35.66023954,"lon":139.52622113},{"name":"特定非営利活動法人だいちだいち調布第３事業所","province":"東京都","city":"調布市","address":"東京都調布市東つつじケ丘2丁目27-4","lat":35.65667413,"lon":139.57754708},{"name":"社会福祉法人くすのき会調布くすの木作業所","province":"東京都","city":"調布市","address":"東京都調布市小島町3丁目72-26","lat":35.64828059,"lon":139.5413345},{"name":"特定非営利活動法人リフレッシュ工房","province":"東京都","city":"調布市","address":"東京都調布市小島町1丁目4-18","lat":35.65565418,"lon":139.54171426},{"name":"Cocorport調布Office","province":"東京都","city":"調布市","address":"東京都調布市小島町3丁目69-14","lat":35.64869437,"lon":139.54226211},{"name":"社会福祉法人檸檬会ＬＩＩＭＯ調布","province":"東京都","city":"調布市","address":"東京都調布市布田1丁目40-3","lat":35.65280731,"lon":139.54486681},{"name":"武蔵野の森総合スポーツ施設敷地","province":"東京都","city":"調布市","address":"東京都調布市","lat":35.65071619,"lon":139.54099257},{"name":"旧調布基地跡地整備関連事業用地","province":"東京都","city":"調布市","address":"東京都調布市","lat":35.65071619,"lon":139.54099257},{"name":"調布基地跡地整備関連事業用地","province":"東京都","city":"調布市","address":"東京都調布市","lat":35.65071619,"lon":139.54099257},{"name":"調布庁舎","province":"東京都","city":"調布市","address":"東京都調布市","lat":35.65071619,"lon":139.54099257},{"name":"（医社）桐光会　調布病院","province":"東京都","city":"調布市","address":"東京都調布市下石原3丁目45-1","lat":35.6509579,"lon":139.53269074},{"name":"（医社）東山会　調布東山病院","province":"東京都","city":"調布市","address":"東京都調布市小島町2丁目32-17","lat":35.65194368,"lon":139.54189507},{"name":"（医社）青山会　青木病院","province":"東京都","city":"調布市","address":"東京都調布市上石原3丁目33-17","lat":35.6504912,"lon":139.52462763},{"name":"（医社）飯野病院","province":"東京都","city":"調布市","address":"東京都調布市布田4丁目3-2","lat":35.65122433,"lon":139.545042},{"name":"（医社）大和会　多摩川病院","province":"東京都","city":"調布市","address":"東京都調布市国領町5丁目31-1","lat":35.64864994,"lon":139.55413032},{"name":"（医社）大坪会　北多摩病院","province":"東京都","city":"調布市","address":"東京都調布市調布ケ丘4丁目1-1","lat":35.65958141,"lon":139.54369162},{"name":"（医社）欣助会　吉祥寺病院","province":"東京都","city":"調布市","address":"東京都調布市深大寺北町4丁目17-1","lat":35.68020136,"lon":139.5514541},{"name":"調布市子ども発達センター保育所等訪問支援事業所","province":"東京都","city":"調布市","address":"調布市西町290-49","lat":35.666277,"lon":139.522529},{"name":"グッドライフ調布寮","province":"東京都","city":"調布市","address":"調布市深大寺東町1-26-5","lat":35.671014,"lon":139.558057},{"name":"飛田給荘","province":"東京都","city":"調布市","address":"東京都調布市","lat":35.65071619,"lon":139.54099257},{"name":"調布市社会福祉協議会","province":"東京都","city":"調布市","address":"調布市小島町2-47-1総合福祉センター2階","lat":35.651397,"lon":139.542753},{"name":"グッドライフ調布寮","province":"東京都","city":"調布市","address":"調布市深大寺東町1-26-5","lat":35.67124,"lon":139.55788},{"name":"ライズケア調布","province":"東京都","city":"調布市","address":"調布市西つつじが丘1-16-8","lat":35.66085,"lon":139.56836},{"name":"調布市社会福祉協議会","province":"東京都","city":"調布市","address":"調布市小島町2-47-1総合福祉センター内","lat":35.65127,"lon":139.54263},{"name":"ＮＰＯ法人羽ばたく会めじろ作業所","province":"東京都","city":"調布市","address":"東京都調布市国領町1丁目3-1","lat":35.6510161,"lon":139.55118032},{"name":"特定非営利活動法人エクセルシアリサイクルショップ不思議屋","province":"東京都","city":"調布市","address":"東京都調布市下石原1丁目5-5","lat":35.65762065,"lon":139.53480109},{"name":"障害者地域活動支援センター「ドルチェ」","province":"東京都","city":"調布市","address":"東京都調布市小島町2丁目47-1","lat":35.65141877,"lon":139.54274781},{"name":"調布市総合福祉センター「アイビー」","province":"東京都","city":"調布市","address":"東京都調布市小島町2丁目47-1","lat":35.65141877,"lon":139.54274781},{"name":"特定非営利活動法人高次脳機能障がい者活動センター調布ドリーム","province":"東京都","city":"調布市","address":"東京都調布市飛田給1丁目50-1","lat":35.66023954,"lon":139.52622113},{"name":"特定非営利活動法人だいちだいち調布第３事業所","province":"東京都","city":"調布市","address":"東京都調布市東つつじケ丘2丁目27-4","lat":35.65667413,"lon":139.57754708},{"name":"社会福祉法人くすのき会調布くすの木作業所","province":"東京都","city":"調布市","address":"東京都調布市小島町3丁目72-26","lat":35.64828059,"lon":139.5413345},{"name":"特定非営利活動法人リフレッシュ工房","province":"東京都","city":"調布市","address":"東京都調布市小島町1丁目4-18","lat":35.65565418,"lon":139.54171426},{"name":"Cocorport調布Office","province":"東京都","city":"調布市","address":"東京都調布市小島町3丁目69-14","lat":35.64869437,"lon":139.54226211},{"name":"社会福祉法人檸檬会ＬＩＩＭＯ調布","province":"東京都","city":"調布市","address":"東京都調布市布田1丁目40-3","lat":35.65280731,"lon":139.54486681},{"name":"武蔵野の森総合スポーツ施設敷地","province":"東京都","city":"調布市","address":"東京都調布市","lat":35.65071619,"lon":139.54099257},{"name":"旧調布基地跡地整備関連事業用地","province":"東京都","city":"調布市","address":"東京都調布市","lat":35.65071619,"lon":139.54099257},{"name":"調布基地跡地整備関連事業用地","province":"東京都","city":"調布市","address":"東京都調布市","lat":35.65071619,"lon":139.54099257},{"name":"調布庁舎","province":"東京都","city":"調布市","address":"東京都調布市","lat":35.65071619,"lon":139.54099257},{"name":"（医社）桐光会　調布病院","province":"東京都","city":"調布市","address":"東京都調布市下石原3丁目45-1","lat":35.6509579,"lon":139.53269074},{"name":"（医社）東山会　調布東山病院","province":"東京都","city":"調布市","address":"東京都調布市小島町2丁目32-17","lat":35.65194368,"lon":139.54189507},{"name":"（医社）青山会　青木病院","province":"東京都","city":"調布市","address":"東京都調布市上石原3丁目33-17","lat":35.6504912,"lon":139.52462763},{"name":"（医社）飯野病院","province":"東京都","city":"調布市","address":"東京都調布市布田4丁目3-2","lat":35.65122433,"lon":139.545042},{"name":"（医社）大和会　多摩川病院","province":"東京都","city":"調布市","address":"東京都調布市国領町5丁目31-1","lat":35.64864994,"lon":139.55413032},{"name":"（医社）大坪会　北多摩病院","province":"東京都","city":"調布市","address":"東京都調布市調布ケ丘4丁目1-1","lat":35.65958141,"lon":139.54369162},{"name":"（医社）欣助会　吉祥寺病院","province":"東京都","city":"調布市","address":"東京都調布市深大寺北町4丁目17-1","lat":35.68020136,"lon":139.5514541},{"name":"調布市子ども発達センター保育所等訪問支援事業所","province":"東京都","city":"調布市","address":"調布市西町290-49","lat":35.666277,"lon":139.522529},{"name":"グッドライフ調布寮","province":"東京都","city":"調布市","address":"調布市深大寺東町1-26-5","lat":35.671014,"lon":139.558057},{"name":"飛田給荘","province":"東京都","city":"調布市","address":"東京都調布市","lat":35.65071619,"lon":139.54099257},{"name":"調布市社会福祉協議会","province":"東京都","city":"調布市","address":"調布市小島町2-47-1総合福祉センター2階","lat":35.651397,"lon":139.542753},{"name":"グッドライフ調布寮","province":"東京都","city":"調布市","address":"調布市深大寺東町1-26-5","lat":35.67124,"lon":139.55788},{"name":"ライズケア調布","province":"東京都","city":"調布市","address":"調布市西つつじが丘1-16-8","lat":35.66085,"lon":139.56836},{"name":"調布市社会福祉協議会","province":"東京都","city":"調布市","address":"調布市小島町2-47-1総合福祉センター内","lat":35.65127,"lon":139.54263},{"name":"ＮＰＯ法人羽ばたく会めじろ作業所","province":"東京都","city":"調布市","address":"東京都調布市国領町1丁目3-1","lat":35.6510161,"lon":139.55118032},{"name":"特定非営利活動法人エクセルシアリサイクルショップ不思議屋","province":"東京都","city":"調布市","address":"東京都調布市下石原1丁目5-5","lat":35.65762065,"lon":139.53480109},{"name":"障害者地域活動支援センター「ドルチェ」","province":"東京都","city":"調布市","address":"東京都調布市小島町2丁目47-1","lat":35.65141877,"lon":139.54274781},{"name":"調布市総合福祉センター「アイビー」","province":"東京都","city":"調布市","address":"東京都調布市小島町2丁目47-1","lat":35.65141877,"lon":139.54274781},{"name":"特定非営利活動法人高次脳機能障がい者活動センター調布ドリーム","province":"東京都","city":"調布市","address":"東京都調布市飛田給1丁目50-1","lat":35.66023954,"lon":139.52622113},{"name":"特定非営利活動法人だいちだいち調布第３事業所","province":"東京都","city":"調布市","address":"東京都調布市東つつじケ丘2丁目27-4","lat":35.65667413,"lon":139.57754708},{"name":"社会福祉法人くすのき会調布くすの木作業所","province":"東京都","city":"調布市","address":"東京都調布市小島町3丁目72-26","lat":35.64828059,"lon":139.5413345},{"name":"特定非営利活動法人リフレッシュ工房","province":"東京都","city":"調布市","address":"東京都調布市小島町1丁目4-18","lat":35.65565418,"lon":139.54171426},{"name":"Cocorport調布Office","province":"東京都","city":"調布市","address":"東京都調布市小島町3丁目69-14","lat":35.64869437,"lon":139.54226211},{"name":"社会福祉法人檸檬会ＬＩＩＭＯ調布","province":"東京都","city":"調布市","address":"東京都調布市布田1丁目40-3","lat":35.65280731,"lon":139.54486681},{"name":"武蔵野の森総合スポーツ施設敷地","province":"東京都","city":"調布市","address":"東京都調布市","lat":35.65071619,"lon":139.54099257},{"name":"旧調布基地跡地整備関連事業用地","province":"東京都","city":"調布市","address":"東京都調布市","lat":35.65071619,"lon":139.54099257},{"name":"調布基地跡地整備関連事業用地","province":"東京都","city":"調布市","address":"東京都調布市","lat":35.65071619,"lon":139.54099257},{"name":"調布庁舎","province":"東京都","city":"調布市","address":"東京都調布市","lat":35.65071619,"lon":139.54099257},{"name":"（医社）桐光会　調布病院","province":"東京都","city":"調布市","address":"東京都調布市下石原3丁目45-1","lat":35.6509579,"lon":139.53269074},{"name":"（医社）東山会　調布東山病院","province":"東京都","city":"調布市","address":"東京都調布市小島町2丁目32-17","lat":35.65194368,"lon":139.54189507},{"name":"（医社）青山会　青木病院","province":"東京都","city":"調布市","address":"東京都調布市上石原3丁目33-17","lat":35.6504912,"lon":139.52462763},{"name":"（医社）飯野病院","province":"東京都","city":"調布市","address":"東京都調布市布田4丁目3-2","lat":35.65122433,"lon":139.545042},{"name":"（医社）大和会　多摩川病院","province":"東京都","city":"調布市","address":"東京都調布市国領町5丁目31-1","lat":35.64864994,"lon":139.55413032},{"name":"（医社）大坪会　北多摩病院","province":"東京都","city":"調布市","address":"東京都調布市調布ケ丘4丁目1-1","lat":35.65958141,"lon":139.54369162},{"name":"（医社）欣助会　吉祥寺病院","province":"東京都","city":"調布市","address":"東京都調布市深大寺北町4丁目17-1","lat":35.68020136,"lon":139.5514541},{"name":"調布市子ども発達センター保育所等訪問支援事業所","province":"東京都","city":"調布市","address":"調布市西町290-49","lat":35.666277,"lon":139.522529},{"name":"グッドライフ調布寮","province":"東京都","city":"調布市","address":"調布市深大寺東町1-26-5","lat":35.671014,"lon":139.558057},{"name":"飛田給荘","province":"東京都","city":"調布市","address":"東京都調布市","lat":35.65071619,"lon":139.54099257},{"name":"調布市社会福祉協議会","province":"東京都","city":"調布市","address":"調布市小島町2-47-1総合福祉センター2階","lat":35.651397,"lon":139.542753},{"name":"グッドライフ調布寮","province":"東京都","city":"調布市","address":"調布市深大寺東町1-26-5","lat":35.67124,"lon":139.55788},{"name":"ライズケア調布","province":"東京都","city":"調布市","address":"調布市西つつじが丘1-16-8","lat":35.66085,"lon":139.56836},{"name":"調布市社会福祉協議会","province":"東京都","city":"調布市","address":"調布市小島町2-47-1総合福祉センター内","lat":35.65127,"lon":139.54263},{"name":"ＮＰＯ法人羽ばたく会めじろ作業所","province":"東京都","city":"調布市","address":"東京都調布市国領町1丁目3-1","lat":35.6510161,"lon":139.55118032},{"name":"特定非営利活動法人エクセルシアリサイクルショップ不思議屋","province":"東京都","city":"調布市","address":"東京都調布市下石原1丁目5-5","lat":35.65762065,"lon":139.53480109},{"name":"障害者地域活動支援センター「ドルチェ」","province":"東京都","city":"調布市","address":"東京都調布市小島町2丁目47-1","lat":35.65141877,"lon":139.54274781},{"name":"調布市総合福祉センター「アイビー」","province":"東京都","city":"調布市","address":"東京都調布市小島町2丁目47-1","lat":35.65141877,"lon":139.54274781},{"name":"特定非営利活動法人高次脳機能障がい者活動センター調布ドリーム","province":"東京都","city":"調布市","address":"東京都調布市飛田給1丁目50-1","lat":35.66023954,"lon":139.52622113},{"name":"特定非営利活動法人だいちだいち調布第３事業所","province":"東京都","city":"調布市","address":"東京都調布市東つつじケ丘2丁目27-4","lat":35.65667413,"lon":139.57754708},{"name":"社会福祉法人くすのき会調布くすの木作業所","province":"東京都","city":"調布市","address":"東京都調布市小島町3丁目72-26","lat":35.64828059,"lon":139.5413345},{"name":"特定非営利活動法人リフレッシュ工房","province":"東京都","city":"調布市","address":"東京都調布市小島町1丁目4-18","lat":35.65565418,"lon":139.54171426},{"name":"Cocorport調布Office","province":"東京都","city":"調布市","address":"東京都調布市小島町3丁目69-14","lat":35.64869437,"lon":139.54226211},{"name":"社会福祉法人檸檬会ＬＩＩＭＯ調布","province":"東京都","city":"調布市","address":"東京都調布市布田1丁目40-3","lat":35.65280731,"lon":139.54486681},{"name":"武蔵野の森総合スポーツ施設敷地","province":"東京都","city":"調布市","address":"東京都調布市","lat":35.65071619,"lon":139.54099257},{"name":"旧調布基地跡地整備関連事業用地","province":"東京都","city":"調布市","address":"東京都調布市","lat":35.65071619,"lon":139.54099257},{"name":"調布基地跡地整備関連事業用地","province":"東京都","city":"調布市","address":"東京都調布市","lat":35.65071619,"lon":139.54099257},{"name":"調布庁舎","province":"東京都","city":"調布市","address":"東京都調布市","lat":35.65071619,"lon":139.54099257},{"name":"（医社）桐光会　調布病院","province":"東京都","city":"調布市","address":"東京都調布市下石原3丁目45-1","lat":35.6509579,"lon":139.53269074},{"name":"（医社）東山会　調布東山病院","province":"東京都","city":"調布市","address":"東京都調布市小島町2丁目32-17","lat":35.65194368,"lon":139.54189507},{"name":"（医社）青山会　青木病院","province":"東京都","city":"調布市","address":"東京都調布市上石原3丁目33-17","lat":35.6504912,"lon":139.52462763},{"name":"（医社）飯野病院","province":"東京都","city":"調布市","address":"東京都調布市布田4丁目3-2","lat":35.65122433,"lon":139.545042},{"name":"（医社）大和会　多摩川病院","province":"東京都","city":"調布市","address":"東京都調布市国領町5丁目31-1","lat":35.64864994,"lon":139.55413032},{"name":"（医社）大坪会　北多摩病院","province":"東京都","city":"調布市","address":"東京都調布市調布ケ丘4丁目1-1","lat":35.65958141,"lon":139.54369162},{"name":"（医社）欣助会　吉祥寺病院","province":"東京都","city":"調布市","address":"東京都調布市深大寺北町4丁目17-1","lat":35.68020136,"lon":139.5514541},{"name":"調布市子ども発達センター保育所等訪問支援事業所","province":"東京都","city":"調布市","address":"調布市西町290-49","lat":35.666277,"lon":139.522529},{"name":"グッドライフ調布寮","province":"東京都","city":"調布市","address":"調布市深大寺東町1-26-5","lat":35.671014,"lon":139.558057},{"name":"飛田給荘","province":"東京都","city":"調布市","address":"東京都調布市","lat":35.65071619,"lon":139.54099257},{"name":"調布市社会福祉協議会","province":"東京都","city":"調布市","address":"調布市小島町2-47-1総合福祉センター2階","lat":35.651397,"lon":139.542753},{"name":"グッドライフ調布寮","province":"東京都","city":"調布市","address":"調布市深大寺東町1-26-5","lat":35.67124,"lon":139.55788},{"name":"ライズケア調布","province":"東京都","city":"調布市","address":"調布市西つつじが丘1-16-8","lat":35.66085,"lon":139.56836},{"name":"調布市社会福祉協議会","province":"東京都","city":"調布市","address":"調布市小島町2-47-1総合福祉センター内","lat":35.65127,"lon":139.54263},{"name":"ＮＰＯ法人羽ばたく会めじろ作業所","province":"東京都","city":"調布市","address":"東京都調布市国領町1丁目3-1","lat":35.6510161,"lon":139.55118032},{"name":"特定非営利活動法人エクセルシアリサイクルショップ不思議屋","province":"東京都","city":"調布市","address":"東京都調布市下石原1丁目5-5","lat":35.65762065,"lon":139.53480109},{"name":"障害者地域活動支援センター「ドルチェ」","province":"東京都","city":"調布市","address":"東京都調布市小島町2丁目47-1","lat":35.65141877,"lon":139.54274781},{"name":"調布市総合福祉センター「アイビー」","province":"東京都","city":"調布市","address":"東京都調布市小島町2丁目47-1","lat":35.65141877,"lon":139.54274781},{"name":"特定非営利活動法人高次脳機能障がい者活動センター調布ドリーム","province":"東京都","city":"調布市","address":"東京都調布市飛田給1丁目50-1","lat":35.66023954,"lon":139.52622113},{"name":"特定非営利活動法人だいちだいち調布第３事業所","province":"東京都","city":"調布市","address":"東京都調布市東つつじケ丘2丁目27-4","lat":35.65667413,"lon":139.57754708},{"name":"社会福祉法人くすのき会調布くすの木作業所","province":"東京都","city":"調布市","address":"東京都調布市小島町3丁目72-26","lat":35.64828059,"lon":139.5413345},{"name":"特定非営利活動法人リフレッシュ工房","province":"東京都","city":"調布市","address":"東京都調布市小島町1丁目4-18","lat":35.65565418,"lon":139.54171426},{"name":"Cocorport調布Office","province":"東京都","city":"調布市","address":"東京都調布市小島町3丁目69-14","lat":35.64869437,"lon":139.54226211},{"name":"社会福祉法人檸檬会ＬＩＩＭＯ調布","province":"東京都","city":"調布市","address":"東京都調布市布田1丁目40-3","lat":35.65280731,"lon":139.54486681},{"name":"武蔵野の森総合スポーツ施設敷地","province":"東京都","city":"調布市","address":"東京都調布市","lat":35.65071619,"lon":139.54099257},{"name":"旧調布基地跡地整備関連事業用地","province":"東京都","city":"調布市","address":"東京都調布市","lat":35.65071619,"lon":139.54099257},{"name":"調布基地跡地整備関連事業用地","province":"東京都","city":"調布市","address":"東京都調布市","lat":35.65071619,"lon":139.54099257},{"name":"調布庁舎","province":"東京都","city":"調布市","address":"東京都調布市","lat":35.65071619,"lon":139.54099257},{"name":"（医社）桐光会　調布病院","province":"東京都","city":"調布市","address":"東京都調布市下石原3丁目45-1","lat":35.6509579,"lon":139.53269074},{"name":"（医社）東山会　調布東山病院","province":"東京都","city":"調布市","address":"東京都調布市小島町2丁目32-17","lat":35.65194368,"lon":139.54189507},{"name":"（医社）青山会　青木病院","province":"東京都","city":"調布市","address":"東京都調布市上石原3丁目33-17","lat":35.6504912,"lon":139.52462763},{"name":"（医社）飯野病院","province":"東京都","city":"調布市","address":"東京都調布市布田4丁目3-2","lat":35.65122433,"lon":139.545042},{"name":"（医社）大和会　多摩川病院","province":"東京都","city":"調布市","address":"東京都調布市国領町5丁目31-1","lat":35.64864994,"lon":139.55413032},{"name":"（医社）大坪会　北多摩病院","province":"東京都","city":"調布市","address":"東京都調布市調布ケ丘4丁目1-1","lat":35.65958141,"lon":139.54369162},{"name":"（医社）欣助会　吉祥寺病院","province":"東京都","city":"調布市","address":"東京都調布市深大寺北町4丁目17-1","lat":35.68020136,"lon":139.5514541},{"name":"調布市子ども発達センター保育所等訪問支援事業所","province":"東京都","city":"調布市","address":"調布市西町290-49","lat":35.666277,"lon":139.522529},{"name":"グッドライフ調布寮","province":"東京都","city":"調布市","address":"調布市深大寺東町1-26-5","lat":35.671014,"lon":139.558057},{"name":"飛田給荘","province":"東京都","city":"調布市","address":"東京都調布市","lat":35.65071619,"lon":139.54099257},{"name":"調布市社会福祉協議会","province":"東京都","city":"調布市","address":"調布市小島町2-47-1総合福祉センター2階","lat":35.651397,"lon":139.542753},{"name":"グッドライフ調布寮","province":"東京都","city":"調布市","address":"調布市深大寺東町1-26-5","lat":35.67124,"lon":139.55788},{"name":"ライズケア調布","province":"東京都","city":"調布市","address":"調布市西つつじが丘1-16-8","lat":35.66085,"lon":139.56836},{"name":"調布市社会福祉協議会","province":"東京都","city":"調布市","address":"調布市小島町2-47-1総合福祉センター内","lat":35.65127,"lon":139.54263},{"name":"ＮＰＯ法人羽ばたく会めじろ作業所","province":"東京都","city":"調布市","address":"東京都調布市国領町1丁目3-1","lat":35.6510161,"lon":139.55118032},{"name":"特定非営利活動法人エクセルシアリサイクルショップ不思議屋","province":"東京都","city":"調布市","address":"東京都調布市下石原1丁目5-5","lat":35.65762065,"lon":139.53480109},{"name":"障害者地域活動支援センター「ドルチェ」","province":"東京都","city":"調布市","address":"東京都調布市小島町2丁目47-1","lat":35.65141877,"lon":139.54274781},{"name":"調布市総合福祉センター「アイビー」","province":"東京都","city":"調布市","address":"東京都調布市小島町2丁目47-1","lat":35.65141877,"lon":139.54274781},{"name":"特定非営利活動法人高次脳機能障がい者活動センター調布ドリーム","province":"東京都","city":"調布市","address":"東京都調布市飛田給1丁目50-1","lat":35.66023954,"lon":139.52622113},{"name":"特定非営利活動法人だいちだいち調布第３事業所","province":"東京都","city":"調布市","address":"東京都調布市東つつじケ丘2丁目27-4","lat":35.65667413,"lon":139.57754708},{"name":"社会福祉法人くすのき会調布くすの木作業所","province":"東京都","city":"調布市","address":"東京都調布市小島町3丁目72-26","lat":35.64828059,"lon":139.5413345},{"name":"特定非営利活動法人リフレッシュ工房","province":"東京都","city":"調布市","address":"東京都調布市小島町1丁目4-18","lat":35.65565418,"lon":139.54171426},{"name":"Cocorport調布Office","province":"東京都","city":"調布市","address":"東京都調布市小島町3丁目69-14","lat":35.64869437,"lon":139.54226211},{"name":"社会福祉法人檸檬会ＬＩＩＭＯ調布","province":"東京都","city":"調布市","address":"東京都調布市布田1丁目40-3","lat":35.65280731,"lon":139.54486681},{"name":"武蔵野の森総合スポーツ施設敷地","province":"東京都","city":"調布市","address":"東京都調布市","lat":35.65071619,"lon":139.54099257},{"name":"旧調布基地跡地整備関連事業用地","province":"東京都","city":"調布市","address":"東京都調布市","lat":35.65071619,"lon":139.54099257},{"name":"調布基地跡地整備関連事業用地","province":"東京都","city":"調布市","address":"東京都調布市","lat":35.65071619,"lon":139.54099257},{"name":"調布庁舎","province":"東京都","city":"調布市","address":"東京都調布市","lat":35.65071619,"lon":139.54099257},{"name":"（医社）桐光会　調布病院","province":"東京都","city":"調布市","address":"東京都調布市下石原3丁目45-1","lat":35.6509579,"lon":139.53269074},{"name":"（医社）東山会　調布東山病院","province":"東京都","city":"調布市","address":"東京都調布市小島町2丁目32-17","lat":35.65194368,"lon":139.54189507},{"name":"（医社）青山会　青木病院","province":"東京都","city":"調布市","address":"東京都調布市上石原3丁目33-17","lat":35.6504912,"lon":139.52462763},{"name":"（医社）飯野病院","province":"東京都","city":"調布市","address":"東京都調布市布田4丁目3-2","lat":35.65122433,"lon":139.545042},{"name":"（医社）大和会　多摩川病院","province":"東京都","city":"調布市","address":"東京都調布市国領町5丁目31-1","lat":35.64864994,"lon":139.55413032},{"name":"（医社）大坪会　北多摩病院","province":"東京都","city":"調布市","address":"東京都調布市調布ケ丘4丁目1-1","lat":35.65958141,"lon":139.54369162},{"name":"（医社）欣助会　吉祥寺病院","province":"東京都","city":"調布市","address":"東京都調布市深大寺北町4丁目17-1","lat":35.68020136,"lon":139.5514541},{"name":"調布市子ども発達センター保育所等訪問支援事業所","province":"東京都","city":"調布市","address":"調布市西町290-49","lat":35.666277,"lon":139.522529},{"name":"グッドライフ調布寮","province":"東京都","city":"調布市","address":"調布市深大寺東町1-26-5","lat":35.671014,"lon":139.558057},{"name":"飛田給荘","province":"東京都","city":"調布市","address":"東京都調布市","lat":35.65071619,"lon":139.54099257},{"name":"調布市社会福祉協議会","province":"東京都","city":"調布市","address":"調布市小島町2-47-1総合福祉センター2階","lat":35.651397,"lon":139.542753},{"name":"グッドライフ調布寮","province":"東京都","city":"調布市","address":"調布市深大寺東町1-26-5","lat":35.67124,"lon":139.55788},{"name":"ライズケア調布","province":"東京都","city":"調布市","address":"調布市西つつじが丘1-16-8","lat":35.66085,"lon":139.56836},{"name":"調布市社会福祉協議会","province":"東京都","city":"調布市","address":"調布市小島町2-47-1総合福祉センター内","lat":35.65127,"lon":139.54263},{"name":"ＮＰＯ法人羽ばたく会めじろ作業所","province":"東京都","city":"調布市","address":"東京都調布市国領町1丁目3-1","lat":35.6510161,"lon":139.55118032},{"name":"特定非営利活動法人エクセルシアリサイクルショップ不思議屋","province":"東京都","city":"調布市","address":"東京都調布市下石原1丁目5-5","lat":35.65762065,"lon":139.53480109},{"name":"障害者地域活動支援センター「ドルチェ」","province":"東京都","city":"調布市","address":"東京都調布市小島町2丁目47-1","lat":35.65141877,"lon":139.54274781},{"name":"調布市総合福祉センター「アイビー」","province":"東京都","city":"調布市","address":"東京都調布市小島町2丁目47-1","lat":35.65141877,"lon":139.54274781},{"name":"特定非営利活動法人高次脳機能障がい者活動センター調布ドリーム","province":"東京都","city":"調布市","address":"東京都調布市飛田給1丁目50-1","lat":35.66023954,"lon":139.52622113},{"name":"特定非営利活動法人だいちだいち調布第３事業所","province":"東京都","city":"調布市","address":"東京都調布市東つつじケ丘2丁目27-4","lat":35.65667413,"lon":139.57754708},{"name":"社会福祉法人くすのき会調布くすの木作業所","province":"東京都","city":"調布市","address":"東京都調布市小島町3丁目72-26","lat":35.64828059,"lon":139.5413345},{"name":"特定非営利活動法人リフレッシュ工房","province":"東京都","city":"調布市","address":"東京都調布市小島町1丁目4-18","lat":35.65565418,"lon":139.54171426},{"name":"Cocorport調布Office","province":"東京都","city":"調布市","address":"東京都調布市小島町3丁目69-14","lat":35.64869437,"lon":139.54226211},{"name":"社会福祉法人檸檬会ＬＩＩＭＯ調布","province":"東京都","city":"調布市","address":"東京都調布市布田1丁目40-3","lat":35.65280731,"lon":139.54486681},{"name":"武蔵野の森総合スポーツ施設敷地","province":"東京都","city":"調布市","address":"東京都調布市","lat":35.65071619,"lon":139.54099257},{"name":"旧調布基地跡地整備関連事業用地","province":"東京都","city":"調布市","address":"東京都調布市","lat":35.65071619,"lon":139.54099257},{"name":"調布基地跡地整備関連事業用地","province":"東京都","city":"調布市","address":"東京都調布市","lat":35.65071619,"lon":139.54099257},{"name":"調布庁舎","province":"東京都","city":"調布市","address":"東京都調布市","lat":35.65071619,"lon":139.54099257},{"name":"（医社）桐光会　調布病院","province":"東京都","city":"調布市","address":"東京都調布市下石原3丁目45-1","lat":35.6509579,"lon":139.53269074},{"name":"（医社）東山会　調布東山病院","province":"東京都","city":"調布市","address":"東京都調布市小島町2丁目32-17","lat":35.65194368,"lon":139.54189507},{"name":"（医社）青山会　青木病院","province":"東京都","city":"調布市","address":"東京都調布市上石原3丁目33-17","lat":35.6504912,"lon":139.52462763},{"name":"（医社）飯野病院","province":"東京都","city":"調布市","address":"東京都調布市布田4丁目3-2","lat":35.65122433,"lon":139.545042},{"name":"（医社）大和会　多摩川病院","province":"東京都","city":"調布市","address":"東京都調布市国領町5丁目31-1","lat":35.64864994,"lon":139.55413032},{"name":"（医社）大坪会　北多摩病院","province":"東京都","city":"調布市","address":"東京都調布市調布ケ丘4丁目1-1","lat":35.65958141,"lon":139.54369162},{"name":"（医社）欣助会　吉祥寺病院","province":"東京都","city":"調布市","address":"東京都調布市深大寺北町4丁目17-1","lat":35.68020136,"lon":139.5514541},{"name":"調布市子ども発達センター保育所等訪問支援事業所","province":"東京都","city":"調布市","address":"調布市西町290-49","lat":35.666277,"lon":139.522529},{"name":"グッドライフ調布寮","province":"東京都","city":"調布市","address":"調布市深大寺東町1-26-5","lat":35.671014,"lon":139.558057},{"name":"飛田給荘","province":"東京都","city":"調布市","address":"東京都調布市","lat":35.65071619,"lon":139.54099257},{"name":"調布市社会福祉協議会","province":"東京都","city":"調布市","address":"調布市小島町2-47-1総合福祉センター2階","lat":35.651397,"lon":139.542753},{"name":"グッドライフ調布寮","province":"東京都","city":"調布市","address":"調布市深大寺東町1-26-5","lat":35.67124,"lon":139.55788},{"name":"ライズケア調布","province":"東京都","city":"調布市","address":"調布市西つつじが丘1-16-8","lat":35.66085,"lon":139.56836},{"name":"調布市社会福祉協議会","province":"東京都","city":"調布市","address":"調布市小島町2-47-1総合福祉センター内","lat":35.65127,"lon":139.54263},{"name":"ＮＰＯ法人羽ばたく会めじろ作業所","province":"東京都","city":"調布市","address":"東京都調布市国領町1丁目3-1","lat":35.6510161,"lon":139.55118032},{"name":"特定非営利活動法人エクセルシアリサイクルショップ不思議屋","province":"東京都","city":"調布市","address":"東京都調布市下石原1丁目5-5","lat":35.65762065,"lon":139.53480109},{"name":"障害者地域活動支援センター「ドルチェ」","province":"東京都","city":"調布市","address":"東京都調布市小島町2丁目47-1","lat":35.65141877,"lon":139.54274781},{"name":"調布市総合福祉センター「アイビー」","province":"東京都","city":"調布市","address":"東京都調布市小島町2丁目47-1","lat":35.65141877,"lon":139.54274781},{"name":"特定非営利活動法人高次脳機能障がい者活動センター調布ドリーム","province":"東京都","city":"調布市","address":"東京都調布市飛田給1丁目50-1","lat":35.66023954,"lon":139.52622113},{"name":"特定非営利活動法人だいちだいち調布第３事業所","province":"東京都","city":"調布市","address":"東京都調布市東つつじケ丘2丁目27-4","lat":35.65667413,"lon":139.57754708},{"name":"社会福祉法人くすのき会調布くすの木作業所","province":"東京都","city":"調布市","address":"東京都調布市小島町3丁目72-26","lat":35.64828059,"lon":139.5413345},{"name":"特定非営利活動法人リフレッシュ工房","province":"東京都","city":"調布市","address":"東京都調布市小島町1丁目4-18","lat":35.65565418,"lon":139.54171426},{"name":"Cocorport調布Office","province":"東京都","city":"調布市","address":"東京都調布市小島町3丁目69-14","lat":35.64869437,"lon":139.54226211},{"name":"社会福祉法人檸檬会ＬＩＩＭＯ調布","province":"東京都","city":"調布市","address":"東京都調布市布田1丁目40-3","lat":35.65280731,"lon":139.54486681},{"name":"武蔵野の森総合スポーツ施設敷地","province":"東京都","city":"調布市","address":"東京都調布市","lat":35.65071619,"lon":139.54099257},{"name":"旧調布基地跡地整備関連事業用地","province":"東京都","city":"調布市","address":"東京都調布市","lat":35.65071619,"lon":139.54099257},{"name":"調布基地跡地整備関連事業用地","province":"東京都","city":"調布市","address":"東京都調布市","lat":35.65071619,"lon":139.54099257},{"name":"調布庁舎","province":"東京都","city":"調布市","address":"東京都調布市","lat":35.65071619,"lon":139.54099257},{"name":"（医社）桐光会　調布病院","province":"東京都","city":"調布市","address":"東京都調布市下石原3丁目45-1","lat":35.6509579,"lon":139.53269074},{"name":"（医社）東山会　調布東山病院","province":"東京都","city":"調布市","address":"東京都調布市小島町2丁目32-17","lat":35.65194368,"lon":139.54189507},{"name":"（医社）青山会　青木病院","province":"東京都","city":"調布市","address":"東京都調布市上石原3丁目33-17","lat":35.6504912,"lon":139.52462763},{"name":"（医社）飯野病院","province":"東京都","city":"調布市","address":"東京都調布市布田4丁目3-2","lat":35.65122433,"lon":139.545042},{"name":"（医社）大和会　多摩川病院","province":"東京都","city":"調布市","address":"東京都調布市国領町5丁目31-1","lat":35.64864994,"lon":139.55413032},{"name":"（医社）大坪会　北多摩病院","province":"東京都","city":"調布市","address":"東京都調布市調布ケ丘4丁目1-1","lat":35.65958141,"lon":139.54369162},{"name":"（医社）欣助会　吉祥寺病院","province":"東京都","city":"調布市","address":"東京都調布市深大寺北町4丁目17-1","lat":35.68020136,"lon":139.5514541},{"name":"調布市子ども発達センター保育所等訪問支援事業所","province":"東京都","city":"調布市","address":"調布市西町290-49","lat":35.666277,"lon":139.522529},{"name":"グッドライフ調布寮","province":"東京都","city":"調布市","address":"調布市深大寺東町1-26-5","lat":35.671014,"lon":139.558057},{"name":"飛田給荘","province":"東京都","city":"調布市","address":"東京都調布市","lat":35.65071619,"lon":139.54099257},{"name":"調布市社会福祉協議会","province":"東京都","city":"調布市","address":"調布市小島町2-47-1総合福祉センター2階","lat":35.651397,"lon":139.542753},{"name":"グッドライフ調布寮","province":"東京都","city":"調布市","address":"調布市深大寺東町1-26-5","lat":35.67124,"lon":139.55788},{"name":"ライズケア調布","province":"東京都","city":"調布市","address":"調布市西つつじが丘1-16-8","lat":35.66085,"lon":139.56836},{"name":"調布市社会福祉協議会","province":"東京都","city":"調布市","address":"調布市小島町2-47-1総合福祉センター内","lat":35.65127,"lon":139.54263},{"name":"ＮＰＯ法人羽ばたく会めじろ作業所","province":"東京都","city":"調布市","address":"東京都調布市国領町1丁目3-1","lat":35.6510161,"lon":139.55118032},{"name":"特定非営利活動法人エクセルシアリサイクルショップ不思議屋","province":"東京都","city":"調布市","address":"東京都調布市下石原1丁目5-5","lat":35.65762065,"lon":139.53480109},{"name":"障害者地域活動支援センター「ドルチェ」","province":"東京都","city":"調布市","address":"東京都調布市小島町2丁目47-1","lat":35.65141877,"lon":139.54274781},{"name":"調布市総合福祉センター「アイビー」","province":"東京都","city":"調布市","address":"東京都調布市小島町2丁目47-1","lat":35.65141877,"lon":139.54274781},{"name":"特定非営利活動法人高次脳機能障がい者活動センター調布ドリーム","province":"東京都","city":"調布市","address":"東京都調布市飛田給1丁目50-1","lat":35.66023954,"lon":139.52622113},{"name":"特定非営利活動法人だいちだいち調布第３事業所","province":"東京都","city":"調布市","address":"東京都調布市東つつじケ丘2丁目27-4","lat":35.65667413,"lon":139.57754708},{"name":"社会福祉法人くすのき会調布くすの木作業所","province":"東京都","city":"調布市","address":"東京都調布市小島町3丁目72-26","lat":35.64828059,"lon":139.5413345},{"name":"特定非営利活動法人リフレッシュ工房","province":"東京都","city":"調布市","address":"東京都調布市小島町1丁目4-18","lat":35.65565418,"lon":139.54171426},{"name":"Cocorport調布Office","province":"東京都","city":"調布市","address":"東京都調布市小島町3丁目69-14","lat":35.64869437,"lon":139.54226211},{"name":"社会福祉法人檸檬会ＬＩＩＭＯ調布","province":"東京都","city":"調布市","address":"東京都調布市布田1丁目40-3","lat":35.65280731,"lon":139.54486681},{"name":"武蔵野の森総合スポーツ施設敷地","province":"東京都","city":"調布市","address":"東京都調布市","lat":35.65071619,"lon":139.54099257},{"name":"旧調布基地跡地整備関連事業用地","province":"東京都","city":"調布市","address":"東京都調布市","lat":35.65071619,"lon":139.54099257},{"name":"調布基地跡地整備関連事業用地","province":"東京都","city":"調布市","address":"東京都調布市","lat":35.65071619,"lon":139.54099257},{"name":"調布庁舎","province":"東京都","city":"調布市","address":"東京都調布市","lat":35.65071619,"lon":139.54099257},{"name":"（医社）桐光会　調布病院","province":"東京都","city":"調布市","address":"東京都調布市下石原3丁目45-1","lat":35.6509579,"lon":139.53269074},{"name":"（医社）東山会　調布東山病院","province":"東京都","city":"調布市","address":"東京都調布市小島町2丁目32-17","lat":35.65194368,"lon":139.54189507},{"name":"（医社）青山会　青木病院","province":"東京都","city":"調布市","address":"東京都調布市上石原3丁目33-17","lat":35.6504912,"lon":139.52462763},{"name":"（医社）飯野病院","province":"東京都","city":"調布市","address":"東京都調布市布田4丁目3-2","lat":35.65122433,"lon":139.545042},{"name":"（医社）大和会　多摩川病院","province":"東京都","city":"調布市","address":"東京都調布市国領町5丁目31-1","lat":35.64864994,"lon":139.55413032},{"name":"（医社）大坪会　北多摩病院","province":"東京都","city":"調布市","address":"東京都調布市調布ケ丘4丁目1-1","lat":35.65958141,"lon":139.54369162},{"name":"（医社）欣助会　吉祥寺病院","province":"東京都","city":"調布市","address":"東京都調布市深大寺北町4丁目17-1","lat":35.68020136,"lon":139.5514541},{"name":"調布市子ども発達センター保育所等訪問支援事業所","province":"東京都","city":"調布市","address":"調布市西町290-49","lat":35.666277,"lon":139.522529},{"name":"グッドライフ調布寮","province":"東京都","city":"調布市","address":"調布市深大寺東町1-26-5","lat":35.671014,"lon":139.558057},{"name":"飛田給荘","province":"東京都","city":"調布市","address":"東京都調布市","lat":35.65071619,"lon":139.54099257},{"name":"調布市社会福祉協議会","province":"東京都","city":"調布市","address":"調布市小島町2-47-1総合福祉センター2階","lat":35.651397,"lon":139.542753},{"name":"グッドライフ調布寮","province":"東京都","city":"調布市","address":"調布市深大寺東町1-26-5","lat":35.67124,"lon":139.55788},{"name":"ライズケア調布","province":"東京都","city":"調布市","address":"調布市西つつじが丘1-16-8","lat":35.66085,"lon":139.56836},{"name":"調布市社会福祉協議会","province":"東京都","city":"調布市","address":"調布市小島町2-47-1総合福祉センター内","lat":35.65127,"lon":139.54263},{"name":"ＮＰＯ法人羽ばたく会めじろ作業所","province":"東京都","city":"調布市","address":"東京都調布市国領町1丁目3-1","lat":35.6510161,"lon":139.55118032},{"name":"特定非営利活動法人エクセルシアリサイクルショップ不思議屋","province":"東京都","city":"調布市","address":"東京都調布市下石原1丁目5-5","lat":35.65762065,"lon":139.53480109},{"name":"障害者地域活動支援センター「ドルチェ」","province":"東京都","city":"調布市","address":"東京都調布市小島町2丁目47-1","lat":35.65141877,"lon":139.54274781},{"name":"調布市総合福祉センター「アイビー」","province":"東京都","city":"調布市","address":"東京都調布市小島町2丁目47-1","lat":35.65141877,"lon":139.54274781},{"name":"特定非営利活動法人高次脳機能障がい者活動センター調布ドリーム","province":"東京都","city":"調布市","address":"東京都調布市飛田給1丁目50-1","lat":35.66023954,"lon":139.52622113},{"name":"特定非営利活動法人だいちだいち調布第３事業所","province":"東京都","city":"調布市","address":"東京都調布市東つつじケ丘2丁目27-4","lat":35.65667413,"lon":139.57754708},{"name":"社会福祉法人くすのき会調布くすの木作業所","province":"東京都","city":"調布市","address":"東京都調布市小島町3丁目72-26","lat":35.64828059,"lon":139.5413345},{"name":"特定非営利活動法人リフレッシュ工房","province":"東京都","city":"調布市","address":"東京都調布市小島町1丁目4-18","lat":35.65565418,"lon":139.54171426},{"name":"Cocorport調布Office","province":"東京都","city":"調布市","address":"東京都調布市小島町3丁目69-14","lat":35.64869437,"lon":139.54226211},{"name":"社会福祉法人檸檬会ＬＩＩＭＯ調布","province":"東京都","city":"調布市","address":"東京都調布市布田1丁目40-3","lat":35.65280731,"lon":139.54486681},{"name":"武蔵野の森総合スポーツ施設敷地","province":"東京都","city":"調布市","address":"東京都調布市","lat":35.65071619,"lon":139.54099257},{"name":"旧調布基地跡地整備関連事業用地","province":"東京都","city":"調布市","address":"東京都調布市","lat":35.65071619,"lon":139.54099257},{"name":"調布基地跡地整備関連事業用地","province":"東京都","city":"調布市","address":"東京都調布市","lat":35.65071619,"lon":139.54099257},{"name":"調布庁舎","province":"東京都","city":"調布市","address":"東京都調布市","lat":35.65071619,"lon":139.54099257},{"name":"（医社）桐光会　調布病院","province":"東京都","city":"調布市","address":"東京都調布市下石原3丁目45-1","lat":35.6509579,"lon":139.53269074},{"name":"（医社）東山会　調布東山病院","province":"東京都","city":"調布市","address":"東京都調布市小島町2丁目32-17","lat":35.65194368,"lon":139.54189507},{"name":"（医社）青山会　青木病院","province":"東京都","city":"調布市","address":"東京都調布市上石原3丁目33-17","lat":35.6504912,"lon":139.52462763},{"name":"（医社）飯野病院","province":"東京都","city":"調布市","address":"東京都調布市布田4丁目3-2","lat":35.65122433,"lon":139.545042},{"name":"（医社）大和会　多摩川病院","province":"東京都","city":"調布市","address":"東京都調布市国領町5丁目31-1","lat":35.64864994,"lon":139.55413032},{"name":"（医社）大坪会　北多摩病院","province":"東京都","city":"調布市","address":"東京都調布市調布ケ丘4丁目1-1","lat":35.65958141,"lon":139.54369162},{"name":"（医社）欣助会　吉祥寺病院","province":"東京都","city":"調布市","address":"東京都調布市深大寺北町4丁目17-1","lat":35.68020136,"lon":139.5514541},{"name":"調布市子ども発達センター保育所等訪問支援事業所","province":"東京都","city":"調布市","address":"調布市西町290-49","lat":35.666277,"lon":139.522529},{"name":"グッドライフ調布寮","province":"東京都","city":"調布市","address":"調布市深大寺東町1-26-5","lat":35.671014,"lon":139.558057},{"name":"飛田給荘","province":"東京都","city":"調布市","address":"東京都調布市","lat":35.65071619,"lon":139.54099257},{"name":"調布市社会福祉協議会","province":"東京都","city":"調布市","address":"調布市小島町2-47-1総合福祉センター2階","lat":35.651397,"lon":139.542753},{"name":"グッドライフ調布寮","province":"東京都","city":"調布市","address":"調布市深大寺東町1-26-5","lat":35.67124,"lon":139.55788},{"name":"ライズケア調布","province":"東京都","city":"調布市","address":"調布市西つつじが丘1-16-8","lat":35.66085,"lon":139.56836},{"name":"調布市社会福祉協議会","province":"東京都","city":"調布市","address":"調布市小島町2-47-1総合福祉センター内","lat":35.65127,"lon":139.54263},{"name":"ＮＰＯ法人羽ばたく会めじろ作業所","province":"東京都","city":"調布市","address":"東京都調布市国領町1丁目3-1","lat":35.6510161,"lon":139.55118032},{"name":"特定非営利活動法人エクセルシアリサイクルショップ不思議屋","province":"東京都","city":"調布市","address":"東京都調布市下石原1丁目5-5","lat":35.65762065,"lon":139.53480109},{"name":"障害者地域活動支援センター「ドルチェ」","province":"東京都","city":"調布市","address":"東京都調布市小島町2丁目47-1","lat":35.65141877,"lon":139.54274781},{"name":"調布市総合福祉センター「アイビー」","province":"東京都","city":"調布市","address":"東京都調布市小島町2丁目47-1","lat":35.65141877,"lon":139.54274781},{"name":"特定非営利活動法人高次脳機能障がい者活動センター調布ドリーム","province":"東京都","city":"調布市","address":"東京都調布市飛田給1丁目50-1","lat":35.66023954,"lon":139.52622113},{"name":"特定非営利活動法人だいちだいち調布第３事業所","province":"東京都","city":"調布市","address":"東京都調布市東つつじケ丘2丁目27-4","lat":35.65667413,"lon":139.57754708},{"name":"社会福祉法人くすのき会調布くすの木作業所","province":"東京都","city":"調布市","address":"東京都調布市小島町3丁目72-26","lat":35.64828059,"lon":139.5413345},{"name":"特定非営利活動法人リフレッシュ工房","province":"東京都","city":"調布市","address":"東京都調布市小島町1丁目4-18","lat":35.65565418,"lon":139.54171426},{"name":"Cocorport調布Office","province":"東京都","city":"調布市","address":"東京都調布市小島町3丁目69-14","lat":35.64869437,"lon":139.54226211},{"name":"社会福祉法人檸檬会ＬＩＩＭＯ調布","province":"東京都","city":"調布市","address":"東京都調布市布田1丁目40-3","lat":35.65280731,"lon":139.54486681},{"name":"武蔵野の森総合スポーツ施設敷地","province":"東京都","city":"調布市","address":"東京都調布市","lat":35.65071619,"lon":139.54099257},{"name":"旧調布基地跡地整備関連事業用地","province":"東京都","city":"調布市","address":"東京都調布市","lat":35.65071619,"lon":139.54099257},{"name":"調布基地跡地整備関連事業用地","province":"東京都","city":"調布市","address":"東京都調布市","lat":35.65071619,"lon":139.54099257},{"name":"調布庁舎","province":"東京都","city":"調布市","address":"東京都調布市","lat":35.65071619,"lon":139.54099257},{"name":"（医社）桐光会　調布病院","province":"東京都","city":"調布市","address":"東京都調布市下石原3丁目45-1","lat":35.6509579,"lon":139.53269074},{"name":"（医社）東山会　調布東山病院","province":"東京都","city":"調布市","address":"東京都調布市小島町2丁目32-17","lat":35.65194368,"lon":139.54189507},{"name":"（医社）青山会　青木病院","province":"東京都","city":"調布市","address":"東京都調布市上石原3丁目33-17","lat":35.6504912,"lon":139.52462763},{"name":"（医社）飯野病院","province":"東京都","city":"調布市","address":"東京都調布市布田4丁目3-2","lat":35.65122433,"lon":139.545042},{"name":"（医社）大和会　多摩川病院","province":"東京都","city":"調布市","address":"東京都調布市国領町5丁目31-1","lat":35.64864994,"lon":139.55413032},{"name":"（医社）大坪会　北多摩病院","province":"東京都","city":"調布市","address":"東京都調布市調布ケ丘4丁目1-1","lat":35.65958141,"lon":139.54369162},{"name":"（医社）欣助会　吉祥寺病院","province":"東京都","city":"調布市","address":"東京都調布市深大寺北町4丁目17-1","lat":35.68020136,"lon":139.5514541},{"name":"調布市子ども発達センター保育所等訪問支援事業所","province":"東京都","city":"調布市","address":"調布市西町290-49","lat":35.666277,"lon":139.522529},{"name":"グッドライフ調布寮","province":"東京都","city":"調布市","address":"調布市深大寺東町1-26-5","lat":35.671014,"lon":139.558057},{"name":"飛田給荘","province":"東京都","city":"調布市","address":"東京都調布市","lat":35.65071619,"lon":139.54099257},{"name":"調布市社会福祉協議会","province":"東京都","city":"調布市","address":"調布市小島町2-47-1総合福祉センター2階","lat":35.651397,"lon":139.542753},{"name":"グッドライフ調布寮","province":"東京都","city":"調布市","address":"調布市深大寺東町1-26-5","lat":35.67124,"lon":139.55788},{"name":"ライズケア調布","province":"東京都","city":"調布市","address":"調布市西つつじが丘1-16-8","lat":35.66085,"lon":139.56836},{"name":"調布市社会福祉協議会","province":"東京都","city":"調布市","address":"調布市小島町2-47-1総合福祉センター内","lat":35.65127,"lon":139.54263},{"name":"ＮＰＯ法人羽ばたく会めじろ作業所","province":"東京都","city":"調布市","address":"東京都調布市国領町1丁目3-1","lat":35.6510161,"lon":139.55118032},{"name":"特定非営利活動法人エクセルシアリサイクルショップ不思議屋","province":"東京都","city":"調布市","address":"東京都調布市下石原1丁目5-5","lat":35.65762065,"lon":139.53480109},{"name":"障害者地域活動支援センター「ドルチェ」","province":"東京都","city":"調布市","address":"東京都調布市小島町2丁目47-1","lat":35.65141877,"lon":139.54274781},{"name":"調布市総合福祉センター「アイビー」","province":"東京都","city":"調布市","address":"東京都調布市小島町2丁目47-1","lat":35.65141877,"lon":139.54274781},{"name":"特定非営利活動法人高次脳機能障がい者活動センター調布ドリーム","province":"東京都","city":"調布市","address":"東京都調布市飛田給1丁目50-1","lat":35.66023954,"lon":139.52622113},{"name":"特定非営利活動法人だいちだいち調布第３事業所","province":"東京都","city":"調布市","address":"東京都調布市東つつじケ丘2丁目27-4","lat":35.65667413,"lon":139.57754708},{"name":"社会福祉法人くすのき会調布くすの木作業所","province":"東京都","city":"調布市","address":"東京都調布市小島町3丁目72-26","lat":35.64828059,"lon":139.5413345},{"name":"特定非営利活動法人リフレッシュ工房","province":"東京都","city":"調布市","address":"東京都調布市小島町1丁目4-18","lat":35.65565418,"lon":139.54171426},{"name":"Cocorport調布Office","province":"東京都","city":"調布市","address":"東京都調布市小島町3丁目69-14","lat":35.64869437,"lon":139.54226211},{"name":"社会福祉法人檸檬会ＬＩＩＭＯ調布","province":"東京都","city":"調布市","address":"東京都調布市布田1丁目40-3","lat":35.65280731,"lon":139.54486681},{"name":"武蔵野の森総合スポーツ施設敷地","province":"東京都","city":"調布市","address":"東京都調布市","lat":35.65071619,"lon":139.54099257},{"name":"旧調布基地跡地整備関連事業用地","province":"東京都","city":"調布市","address":"東京都調布市","lat":35.65071619,"lon":139.54099257},{"name":"調布基地跡地整備関連事業用地","province":"東京都","city":"調布市","address":"東京都調布市","lat":35.65071619,"lon":139.54099257},{"name":"調布庁舎","province":"東京都","city":"調布市","address":"東京都調布市","lat":35.65071619,"lon":139.54099257},{"name":"（医社）桐光会　調布病院","province":"東京都","city":"調布市","address":"東京都調布市下石原3丁目45-1","lat":35.6509579,"lon":139.53269074},{"name":"（医社）東山会　調布東山病院","province":"東京都","city":"調布市","address":"東京都調布市小島町2丁目32-17","lat":35.65194368,"lon":139.54189507},{"name":"（医社）青山会　青木病院","province":"東京都","city":"調布市","address":"東京都調布市上石原3丁目33-17","lat":35.6504912,"lon":139.52462763},{"name":"（医社）飯野病院","province":"東京都","city":"調布市","address":"東京都調布市布田4丁目3-2","lat":35.65122433,"lon":139.545042},{"name":"（医社）大和会　多摩川病院","province":"東京都","city":"調布市","address":"東京都調布市国領町5丁目31-1","lat":35.64864994,"lon":139.55413032},{"name":"（医社）大坪会　北多摩病院","province":"東京都","city":"調布市","address":"東京都調布市調布ケ丘4丁目1-1","lat":35.65958141,"lon":139.54369162},{"name":"（医社）欣助会　吉祥寺病院","province":"東京都","city":"調布市","address":"東京都調布市深大寺北町4丁目17-1","lat":35.68020136,"lon":139.5514541},{"name":"調布市子ども発達センター保育所等訪問支援事業所","province":"東京都","city":"調布市","address":"調布市西町290-49","lat":35.666277,"lon":139.522529},{"name":"グッドライフ調布寮","province":"東京都","city":"調布市","address":"調布市深大寺東町1-26-5","lat":35.671014,"lon":139.558057},{"name":"飛田給荘","province":"東京都","city":"調布市","address":"東京都調布市","lat":35.65071619,"lon":139.54099257},{"name":"調布市社会福祉協議会","province":"東京都","city":"調布市","address":"調布市小島町2-47-1総合福祉センター2階","lat":35.651397,"lon":139.542753},{"name":"グッドライフ調布寮","province":"東京都","city":"調布市","address":"調布市深大寺東町1-26-5","lat":35.67124,"lon":139.55788},{"name":"ライズケア調布","province":"東京都","city":"調布市","address":"調布市西つつじが丘1-16-8","lat":35.66085,"lon":139.56836},{"name":"調布市社会福祉協議会","province":"東京都","city":"調布市","address":"調布市小島町2-47-1総合福祉センター内","lat":35.65127,"lon":139.54263},{"name":"ＮＰＯ法人羽ばたく会めじろ作業所","province":"東京都","city":"調布市","address":"東京都調布市国領町1丁目3-1","lat":35.6510161,"lon":139.55118032},{"name":"特定非営利活動法人エクセルシアリサイクルショップ不思議屋","province":"東京都","city":"調布市","address":"東京都調布市下石原1丁目5-5","lat":35.65762065,"lon":139.53480109},{"name":"障害者地域活動支援センター「ドルチェ」","province":"東京都","city":"調布市","address":"東京都調布市小島町2丁目47-1","lat":35.65141877,"lon":139.54274781},{"name":"調布市総合福祉センター「アイビー」","province":"東京都","city":"調布市","address":"東京都調布市小島町2丁目47-1","lat":35.65141877,"lon":139.54274781},{"name":"特定非営利活動法人高次脳機能障がい者活動センター調布ドリーム","province":"東京都","city":"調布市","address":"東京都調布市飛田給1丁目50-1","lat":35.66023954,"lon":139.52622113},{"name":"特定非営利活動法人だいちだいち調布第３事業所","province":"東京都","city":"調布市","address":"東京都調布市東つつじケ丘2丁目27-4","lat":35.65667413,"lon":139.57754708},{"name":"社会福祉法人くすのき会調布くすの木作業所","province":"東京都","city":"調布市","address":"東京都調布市小島町3丁目72-26","lat":35.64828059,"lon":139.5413345},{"name":"特定非営利活動法人リフレッシュ工房","province":"東京都","city":"調布市","address":"東京都調布市小島町1丁目4-18","lat":35.65565418,"lon":139.54171426},{"name":"Cocorport調布Office","province":"東京都","city":"調布市","address":"東京都調布市小島町3丁目69-14","lat":35.64869437,"lon":139.54226211},{"name":"社会福祉法人檸檬会ＬＩＩＭＯ調布","province":"東京都","city":"調布市","address":"東京都調布市布田1丁目40-3","lat":35.65280731,"lon":139.54486681},{"name":"武蔵野の森総合スポーツ施設敷地","province":"東京都","city":"調布市","address":"東京都調布市","lat":35.65071619,"lon":139.54099257},{"name":"旧調布基地跡地整備関連事業用地","province":"東京都","city":"調布市","address":"東京都調布市","lat":35.65071619,"lon":139.54099257},{"name":"調布基地跡地整備関連事業用地","province":"東京都","city":"調布市","address":"東京都調布市","lat":35.65071619,"lon":139.54099257},{"name":"調布庁舎","province":"東京都","city":"調布市","address":"東京都調布市","lat":35.65071619,"lon":139.54099257},{"name":"（医社）桐光会　調布病院","province":"東京都","city":"調布市","address":"東京都調布市下石原3丁目45-1","lat":35.6509579,"lon":139.53269074},{"name":"（医社）東山会　調布東山病院","province":"東京都","city":"調布市","address":"東京都調布市小島町2丁目32-17","lat":35.65194368,"lon":139.54189507},{"name":"（医社）青山会　青木病院","province":"東京都","city":"調布市","address":"東京都調布市上石原3丁目33-17","lat":35.6504912,"lon":139.52462763},{"name":"（医社）飯野病院","province":"東京都","city":"調布市","address":"東京都調布市布田4丁目3-2","lat":35.65122433,"lon":139.545042},{"name":"（医社）大和会　多摩川病院","province":"東京都","city":"調布市","address":"東京都調布市国領町5丁目31-1","lat":35.64864994,"lon":139.55413032},{"name":"（医社）大坪会　北多摩病院","province":"東京都","city":"調布市","address":"東京都調布市調布ケ丘4丁目1-1","lat":35.65958141,"lon":139.54369162},{"name":"（医社）欣助会　吉祥寺病院","province":"東京都","city":"調布市","address":"東京都調布市深大寺北町4丁目17-1","lat":35.68020136,"lon":139.5514541},{"name":"調布市子ども発達センター保育所等訪問支援事業所","province":"東京都","city":"調布市","address":"調布市西町290-49","lat":35.666277,"lon":139.522529},{"name":"グッドライフ調布寮","province":"東京都","city":"調布市","address":"調布市深大寺東町1-26-5","lat":35.671014,"lon":139.558057},{"name":"飛田給荘","province":"東京都","city":"調布市","address":"東京都調布市","lat":35.65071619,"lon":139.54099257},{"name":"調布市社会福祉協議会","province":"東京都","city":"調布市","address":"調布市小島町2-47-1総合福祉センター2階","lat":35.651397,"lon":139.542753},{"name":"グッドライフ調布寮","province":"東京都","city":"調布市","address":"調布市深大寺東町1-26-5","lat":35.67124,"lon":139.55788},{"name":"ライズケア調布","province":"東京都","city":"調布市","address":"調布市西つつじが丘1-16-8","lat":35.66085,"lon":139.56836},{"name":"調布市社会福祉協議会","province":"東京都","city":"調布市","address":"調布市小島町2-47-1総合福祉センター内","lat":35.65127,"lon":139.54263},{"name":"ＮＰＯ法人羽ばたく会めじろ作業所","province":"東京都","city":"調布市","address":"東京都調布市国領町1丁目3-1","lat":35.6510161,"lon":139.55118032},{"name":"特定非営利活動法人エクセルシアリサイクルショップ不思議屋","province":"東京都","city":"調布市","address":"東京都調布市下石原1丁目5-5","lat":35.65762065,"lon":139.53480109},{"name":"障害者地域活動支援センター「ドルチェ」","province":"東京都","city":"調布市","address":"東京都調布市小島町2丁目47-1","lat":35.65141877,"lon":139.54274781},{"name":"調布市総合福祉センター「アイビー」","province":"東京都","city":"調布市","address":"東京都調布市小島町2丁目47-1","lat":35.65141877,"lon":139.54274781},{"name":"特定非営利活動法人高次脳機能障がい者活動センター調布ドリーム","province":"東京都","city":"調布市","address":"東京都調布市飛田給1丁目50-1","lat":35.66023954,"lon":139.52622113},{"name":"特定非営利活動法人だいちだいち調布第３事業所","province":"東京都","city":"調布市","address":"東京都調布市東つつじケ丘2丁目27-4","lat":35.65667413,"lon":139.57754708},{"name":"社会福祉法人くすのき会調布くすの木作業所","province":"東京都","city":"調布市","address":"東京都調布市小島町3丁目72-26","lat":35.64828059,"lon":139.5413345},{"name":"特定非営利活動法人リフレッシュ工房","province":"東京都","city":"調布市","address":"東京都調布市小島町1丁目4-18","lat":35.65565418,"lon":139.54171426},{"name":"Cocorport調布Office","province":"東京都","city":"調布市","address":"東京都調布市小島町3丁目69-14","lat":35.64869437,"lon":139.54226211},{"name":"社会福祉法人檸檬会ＬＩＩＭＯ調布","province":"東京都","city":"調布市","address":"東京都調布市布田1丁目40-3","lat":35.65280731,"lon":139.54486681},{"name":"武蔵野の森総合スポーツ施設敷地","province":"東京都","city":"調布市","address":"東京都調布市","lat":35.65071619,"lon":139.54099257},{"name":"旧調布基地跡地整備関連事業用地","province":"東京都","city":"調布市","address":"東京都調布市","lat":35.65071619,"lon":139.54099257},{"name":"調布基地跡地整備関連事業用地","province":"東京都","city":"調布市","address":"東京都調布市","lat":35.65071619,"lon":139.54099257},{"name":"調布庁舎","province":"東京都","city":"調布市","address":"東京都調布市","lat":35.65071619,"lon":139.54099257},{"name":"（医社）桐光会　調布病院","province":"東京都","city":"調布市","address":"東京都調布市下石原3丁目45-1","lat":35.6509579,"lon":139.53269074},{"name":"（医社）東山会　調布東山病院","province":"東京都","city":"調布市","address":"東京都調布市小島町2丁目32-17","lat":35.65194368,"lon":139.54189507},{"name":"（医社）青山会　青木病院","province":"東京都","city":"調布市","address":"東京都調布市上石原3丁目33-17","lat":35.6504912,"lon":139.52462763},{"name":"（医社）飯野病院","province":"東京都","city":"調布市","address":"東京都調布市布田4丁目3-2","lat":35.65122433,"lon":139.545042},{"name":"（医社）大和会　多摩川病院","province":"東京都","city":"調布市","address":"東京都調布市国領町5丁目31-1","lat":35.64864994,"lon":139.55413032},{"name":"（医社）大坪会　北多摩病院","province":"東京都","city":"調布市","address":"東京都調布市調布ケ丘4丁目1-1","lat":35.65958141,"lon":139.54369162},{"name":"（医社）欣助会　吉祥寺病院","province":"東京都","city":"調布市","address":"東京都調布市深大寺北町4丁目17-1","lat":35.68020136,"lon":139.5514541},{"name":"調布市子ども発達センター保育所等訪問支援事業所","province":"東京都","city":"調布市","address":"調布市西町290-49","lat":35.666277,"lon":139.522529},{"name":"グッドライフ調布寮","province":"東京都","city":"調布市","address":"調布市深大寺東町1-26-5","lat":35.671014,"lon":139.558057},{"name":"飛田給荘","province":"東京都","city":"調布市","address":"東京都調布市","lat":35.65071619,"lon":139.54099257},{"name":"調布市社会福祉協議会","province":"東京都","city":"調布市","address":"調布市小島町2-47-1総合福祉センター2階","lat":35.651397,"lon":139.542753},{"name":"グッドライフ調布寮","province":"東京都","city":"調布市","address":"調布市深大寺東町1-26-5","lat":35.67124,"lon":139.55788},{"name":"ライズケア調布","province":"東京都","city":"調布市","address":"調布市西つつじが丘1-16-8","lat":35.66085,"lon":139.56836},{"name":"調布市社会福祉協議会","province":"東京都","city":"調布市","address":"調布市小島町2-47-1総合福祉センター内","lat":35.65127,"lon":139.54263},{"name":"ＮＰＯ法人羽ばたく会めじろ作業所","province":"東京都","city":"調布市","address":"東京都調布市国領町1丁目3-1","lat":35.6510161,"lon":139.55118032},{"name":"特定非営利活動法人エクセルシアリサイクルショップ不思議屋","province":"東京都","city":"調布市","address":"東京都調布市下石原1丁目5-5","lat":35.65762065,"lon":139.53480109},{"name":"障害者地域活動支援センター「ドルチェ」","province":"東京都","city":"調布市","address":"東京都調布市小島町2丁目47-1","lat":35.65141877,"lon":139.54274781},{"name":"調布市総合福祉センター「アイビー」","province":"東京都","city":"調布市","address":"東京都調布市小島町2丁目47-1","lat":35.65141877,"lon":139.54274781},{"name":"特定非営利活動法人高次脳機能障がい者活動センター調布ドリーム","province":"東京都","city":"調布市","address":"東京都調布市飛田給1丁目50-1","lat":35.66023954,"lon":139.52622113},{"name":"特定非営利活動法人だいちだいち調布第３事業所","province":"東京都","city":"調布市","address":"東京都調布市東つつじケ丘2丁目27-4","lat":35.65667413,"lon":139.57754708},{"name":"社会福祉法人くすのき会調布くすの木作業所","province":"東京都","city":"調布市","address":"東京都調布市小島町3丁目72-26","lat":35.64828059,"lon":139.5413345},{"name":"特定非営利活動法人リフレッシュ工房","province":"東京都","city":"調布市","address":"東京都調布市小島町1丁目4-18","lat":35.65565418,"lon":139.54171426},{"name":"Cocorport調布Office","province":"東京都","city":"調布市","address":"東京都調布市小島町3丁目69-14","lat":35.64869437,"lon":139.54226211},{"name":"社会福祉法人檸檬会ＬＩＩＭＯ調布","province":"東京都","city":"調布市","address":"東京都調布市布田1丁目40-3","lat":35.65280731,"lon":139.54486681},{"name":"武蔵野の森総合スポーツ施設敷地","province":"東京都","city":"調布市","address":"東京都調布市","lat":35.65071619,"lon":139.54099257},{"name":"旧調布基地跡地整備関連事業用地","province":"東京都","city":"調布市","address":"東京都調布市","lat":35.65071619,"lon":139.54099257},{"name":"調布基地跡地整備関連事業用地","province":"東京都","city":"調布市","address":"東京都調布市","lat":35.65071619,"lon":139.54099257},{"name":"調布庁舎","province":"東京都","city":"調布市","address":"東京都調布市","lat":35.65071619,"lon":139.54099257},{"name":"（医社）桐光会　調布病院","province":"東京都","city":"調布市","address":"東京都調布市下石原3丁目45-1","lat":35.6509579,"lon":139.53269074},{"name":"（医社）東山会　調布東山病院","province":"東京都","city":"調布市","address":"東京都調布市小島町2丁目32-17","lat":35.65194368,"lon":139.54189507},{"name":"（医社）青山会　青木病院","province":"東京都","city":"調布市","address":"東京都調布市上石原3丁目33-17","lat":35.6504912,"lon":139.52462763},{"name":"（医社）飯野病院","province":"東京都","city":"調布市","address":"東京都調布市布田4丁目3-2","lat":35.65122433,"lon":139.545042},{"name":"（医社）大和会　多摩川病院","province":"東京都","city":"調布市","address":"東京都調布市国領町5丁目31-1","lat":35.64864994,"lon":139.55413032},{"name":"（医社）大坪会　北多摩病院","province":"東京都","city":"調布市","address":"東京都調布市調布ケ丘4丁目1-1","lat":35.65958141,"lon":139.54369162},{"name":"（医社）欣助会　吉祥寺病院","province":"東京都","city":"調布市","address":"東京都調布市深大寺北町4丁目17-1","lat":35.68020136,"lon":139.5514541},{"name":"調布市子ども発達センター保育所等訪問支援事業所","province":"東京都","city":"調布市","address":"調布市西町290-49","lat":35.666277,"lon":139.522529},{"name":"グッドライフ調布寮","province":"東京都","city":"調布市","address":"調布市深大寺東町1-26-5","lat":35.671014,"lon":139.558057},{"name":"飛田給荘","province":"東京都","city":"調布市","address":"東京都調布市","lat":35.65071619,"lon":139.54099257},{"name":"調布市社会福祉協議会","province":"東京都","city":"調布市","address":"調布市小島町2-47-1総合福祉センター2階","lat":35.651397,"lon":139.542753},{"name":"グッドライフ調布寮","province":"東京都","city":"調布市","address":"調布市深大寺東町1-26-5","lat":35.67124,"lon":139.55788},{"name":"ライズケア調布","province":"東京都","city":"調布市","address":"調布市西つつじが丘1-16-8","lat":35.66085,"lon":139.56836},{"name":"調布市社会福祉協議会","province":"東京都","city":"調布市","address":"調布市小島町2-47-1総合福祉センター内","lat":35.65127,"lon":139.54263},{"name":"ＮＰＯ法人羽ばたく会めじろ作業所","province":"東京都","city":"調布市","address":"東京都調布市国領町1丁目3-1","lat":35.6510161,"lon":139.55118032},{"name":"特定非営利活動法人エクセルシアリサイクルショップ不思議屋","province":"東京都","city":"調布市","address":"東京都調布市下石原1丁目5-5","lat":35.65762065,"lon":139.53480109},{"name":"障害者地域活動支援センター「ドルチェ」","province":"東京都","city":"調布市","address":"東京都調布市小島町2丁目47-1","lat":35.65141877,"lon":139.54274781},{"name":"調布市総合福祉センター「アイビー」","province":"東京都","city":"調布市","address":"東京都調布市小島町2丁目47-1","lat":35.65141877,"lon":139.54274781},{"name":"特定非営利活動法人高次脳機能障がい者活動センター調布ドリーム","province":"東京都","city":"調布市","address":"東京都調布市飛田給1丁目50-1","lat":35.66023954,"lon":139.52622113},{"name":"特定非営利活動法人だいちだいち調布第３事業所","province":"東京都","city":"調布市","address":"東京都調布市東つつじケ丘2丁目27-4","lat":35.65667413,"lon":139.57754708},{"name":"社会福祉法人くすのき会調布くすの木作業所","province":"東京都","city":"調布市","address":"東京都調布市小島町3丁目72-26","lat":35.64828059,"lon":139.5413345},{"name":"特定非営利活動法人リフレッシュ工房","province":"東京都","city":"調布市","address":"東京都調布市小島町1丁目4-18","lat":35.65565418,"lon":139.54171426},{"name":"Cocorport調布Office","province":"東京都","city":"調布市","address":"東京都調布市小島町3丁目69-14","lat":35.64869437,"lon":139.54226211},{"name":"社会福祉法人檸檬会ＬＩＩＭＯ調布","province":"東京都","city":"調布市","address":"東京都調布市布田1丁目40-3","lat":35.65280731,"lon":139.54486681},{"name":"武蔵野の森総合スポーツ施設敷地","province":"東京都","city":"調布市","address":"東京都調布市","lat":35.65071619,"lon":139.54099257},{"name":"旧調布基地跡地整備関連事業用地","province":"東京都","city":"調布市","address":"東京都調布市","lat":35.65071619,"lon":139.54099257},{"name":"調布基地跡地整備関連事業用地","province":"東京都","city":"調布市","address":"東京都調布市","lat":35.65071619,"lon":139.54099257},{"name":"調布庁舎","province":"東京都","city":"調布市","address":"東京都調布市","lat":35.65071619,"lon":139.54099257},{"name":"（医社）桐光会　調布病院","province":"東京都","city":"調布市","address":"東京都調布市下石原3丁目45-1","lat":35.6509579,"lon":139.53269074},{"name":"（医社）東山会　調布東山病院","province":"東京都","city":"調布市","address":"東京都調布市小島町2丁目32-17","lat":35.65194368,"lon":139.54189507},{"name":"（医社）青山会　青木病院","province":"東京都","city":"調布市","address":"東京都調布市上石原3丁目33-17","lat":35.6504912,"lon":139.52462763},{"name":"（医社）飯野病院","province":"東京都","city":"調布市","address":"東京都調布市布田4丁目3-2","lat":35.65122433,"lon":139.545042},{"name":"（医社）大和会　多摩川病院","province":"東京都","city":"調布市","address":"東京都調布市国領町5丁目31-1","lat":35.64864994,"lon":139.55413032},{"name":"（医社）大坪会　北多摩病院","province":"東京都","city":"調布市","address":"東京都調布市調布ケ丘4丁目1-1","lat":35.65958141,"lon":139.54369162},{"name":"（医社）欣助会　吉祥寺病院","province":"東京都","city":"調布市","address":"東京都調布市深大寺北町4丁目17-1","lat":35.68020136,"lon":139.5514541},{"name":"調布市子ども発達センター保育所等訪問支援事業所","province":"東京都","city":"調布市","address":"調布市西町290-49","lat":35.666277,"lon":139.522529},{"name":"グッドライフ調布寮","province":"東京都","city":"調布市","address":"調布市深大寺東町1-26-5","lat":35.671014,"lon":139.558057},{"name":"飛田給荘","province":"東京都","city":"調布市","address":"東京都調布市","lat":35.65071619,"lon":139.54099257},{"name":"調布市社会福祉協議会","province":"東京都","city":"調布市","address":"調布市小島町2-47-1総合福祉センター2階","lat":35.651397,"lon":139.542753},{"name":"グッドライフ調布寮","province":"東京都","city":"調布市","address":"調布市深大寺東町1-26-5","lat":35.67124,"lon":139.55788},{"name":"ライズケア調布","province":"東京都","city":"調布市","address":"調布市西つつじが丘1-16-8","lat":35.66085,"lon":139.56836},{"name":"調布市社会福祉協議会","province":"東京都","city":"調布市","address":"調布市小島町2-47-1総合福祉センター内","lat":35.65127,"lon":139.54263},{"name":"ＮＰＯ法人羽ばたく会めじろ作業所","province":"東京都","city":"調布市","address":"東京都調布市国領町1丁目3-1","lat":35.6510161,"lon":139.55118032},{"name":"特定非営利活動法人エクセルシアリサイクルショップ不思議屋","province":"東京都","city":"調布市","address":"東京都調布市下石原1丁目5-5","lat":35.65762065,"lon":139.53480109},{"name":"障害者地域活動支援センター「ドルチェ」","province":"東京都","city":"調布市","address":"東京都調布市小島町2丁目47-1","lat":35.65141877,"lon":139.54274781},{"name":"調布市総合福祉センター「アイビー」","province":"東京都","city":"調布市","address":"東京都調布市小島町2丁目47-1","lat":35.65141877,"lon":139.54274781},{"name":"特定非営利活動法人高次脳機能障がい者活動センター調布ドリーム","province":"東京都","city":"調布市","address":"東京都調布市飛田給1丁目50-1","lat":35.66023954,"lon":139.52622113},{"name":"特定非営利活動法人だいちだいち調布第３事業所","province":"東京都","city":"調布市","address":"東京都調布市東つつじケ丘2丁目27-4","lat":35.65667413,"lon":139.57754708},{"name":"社会福祉法人くすのき会調布くすの木作業所","province":"東京都","city":"調布市","address":"東京都調布市小島町3丁目72-26","lat":35.64828059,"lon":139.5413345},{"name":"特定非営利活動法人リフレッシュ工房","province":"東京都","city":"調布市","address":"東京都調布市小島町1丁目4-18","lat":35.65565418,"lon":139.54171426},{"name":"Cocorport調布Office","province":"東京都","city":"調布市","address":"東京都調布市小島町3丁目69-14","lat":35.64869437,"lon":139.54226211},{"name":"社会福祉法人檸檬会ＬＩＩＭＯ調布","province":"東京都","city":"調布市","address":"東京都調布市布田1丁目40-3","lat":35.65280731,"lon":139.54486681},{"name":"武蔵野の森総合スポーツ施設敷地","province":"東京都","city":"調布市","address":"東京都調布市","lat":35.65071619,"lon":139.54099257},{"name":"旧調布基地跡地整備関連事業用地","province":"東京都","city":"調布市","address":"東京都調布市","lat":35.65071619,"lon":139.54099257},{"name":"調布基地跡地整備関連事業用地","province":"東京都","city":"調布市","address":"東京都調布市","lat":35.65071619,"lon":139.54099257},{"name":"調布庁舎","province":"東京都","city":"調布市","address":"東京都調布市","lat":35.65071619,"lon":139.54099257},{"name":"（医社）桐光会　調布病院","province":"東京都","city":"調布市","address":"東京都調布市下石原3丁目45-1","lat":35.6509579,"lon":139.53269074},{"name":"（医社）東山会　調布東山病院","province":"東京都","city":"調布市","address":"東京都調布市小島町2丁目32-17","lat":35.65194368,"lon":139.54189507},{"name":"（医社）青山会　青木病院","province":"東京都","city":"調布市","address":"東京都調布市上石原3丁目33-17","lat":35.6504912,"lon":139.52462763},{"name":"（医社）飯野病院","province":"東京都","city":"調布市","address":"東京都調布市布田4丁目3-2","lat":35.65122433,"lon":139.545042},{"name":"（医社）大和会　多摩川病院","province":"東京都","city":"調布市","address":"東京都調布市国領町5丁目31-1","lat":35.64864994,"lon":139.55413032},{"name":"（医社）大坪会　北多摩病院","province":"東京都","city":"調布市","address":"東京都調布市調布ケ丘4丁目1-1","lat":35.65958141,"lon":139.54369162},{"name":"（医社）欣助会　吉祥寺病院","province":"東京都","city":"調布市","address":"東京都調布市深大寺北町4丁目17-1","lat":35.68020136,"lon":139.5514541},{"name":"調布市子ども発達センター保育所等訪問支援事業所","province":"東京都","city":"調布市","address":"調布市西町290-49","lat":35.666277,"lon":139.522529},{"name":"グッドライフ調布寮","province":"東京都","city":"調布市","address":"調布市深大寺東町1-26-5","lat":35.671014,"lon":139.558057},{"name":"飛田給荘","province":"東京都","city":"調布市","address":"東京都調布市","lat":35.65071619,"lon":139.54099257},{"name":"調布市社会福祉協議会","province":"東京都","city":"調布市","address":"調布市小島町2-47-1総合福祉センター2階","lat":35.651397,"lon":139.542753},{"name":"グッドライフ調布寮","province":"東京都","city":"調布市","address":"調布市深大寺東町1-26-5","lat":35.67124,"lon":139.55788},{"name":"ライズケア調布","province":"東京都","city":"調布市","address":"調布市西つつじが丘1-16-8","lat":35.66085,"lon":139.56836},{"name":"調布市社会福祉協議会","province":"東京都","city":"調布市","address":"調布市小島町2-47-1総合福祉センター内","lat":35.65127,"lon":139.54263},{"name":"ＮＰＯ法人羽ばたく会めじろ作業所","province":"東京都","city":"調布市","address":"東京都調布市国領町1丁目3-1","lat":35.6510161,"lon":139.55118032},{"name":"特定非営利活動法人エクセルシアリサイクルショップ不思議屋","province":"東京都","city":"調布市","address":"東京都調布市下石原1丁目5-5","lat":35.65762065,"lon":139.53480109},{"name":"障害者地域活動支援センター「ドルチェ」","province":"東京都","city":"調布市","address":"東京都調布市小島町2丁目47-1","lat":35.65141877,"lon":139.54274781},{"name":"調布市総合福祉センター「アイビー」","province":"東京都","city":"調布市","address":"東京都調布市小島町2丁目47-1","lat":35.65141877,"lon":139.54274781},{"name":"特定非営利活動法人高次脳機能障がい者活動センター調布ドリーム","province":"東京都","city":"調布市","address":"東京都調布市飛田給1丁目50-1","lat":35.66023954,"lon":139.52622113},{"name":"特定非営利活動法人だいちだいち調布第３事業所","province":"東京都","city":"調布市","address":"東京都調布市東つつじケ丘2丁目27-4","lat":35.65667413,"lon":139.57754708},{"name":"社会福祉法人くすのき会調布くすの木作業所","province":"東京都","city":"調布市","address":"東京都調布市小島町3丁目72-26","lat":35.64828059,"lon":139.5413345},{"name":"特定非営利活動法人リフレッシュ工房","province":"東京都","city":"調布市","address":"東京都調布市小島町1丁目4-18","lat":35.65565418,"lon":139.54171426},{"name":"Cocorport調布Office","province":"東京都","city":"調布市","address":"東京都調布市小島町3丁目69-14","lat":35.64869437,"lon":139.54226211},{"name":"社会福祉法人檸檬会ＬＩＩＭＯ調布","province":"東京都","city":"調布市","address":"東京都調布市布田1丁目40-3","lat":35.65280731,"lon":139.54486681},{"name":"武蔵野の森総合スポーツ施設敷地","province":"東京都","city":"調布市","address":"東京都調布市","lat":35.65071619,"lon":139.54099257},{"name":"旧調布基地跡地整備関連事業用地","province":"東京都","city":"調布市","address":"東京都調布市","lat":35.65071619,"lon":139.54099257},{"name":"調布基地跡地整備関連事業用地","province":"東京都","city":"調布市","address":"東京都調布市","lat":35.65071619,"lon":139.54099257},{"name":"調布庁舎","province":"東京都","city":"調布市","address":"東京都調布市","lat":35.65071619,"lon":139.54099257},{"name":"（医社）桐光会　調布病院","province":"東京都","city":"調布市","address":"東京都調布市下石原3丁目45-1","lat":35.6509579,"lon":139.53269074},{"name":"（医社）東山会　調布東山病院","province":"東京都","city":"調布市","address":"東京都調布市小島町2丁目32-17","lat":35.65194368,"lon":139.54189507},{"name":"（医社）青山会　青木病院","province":"東京都","city":"調布市","address":"東京都調布市上石原3丁目33-17","lat":35.6504912,"lon":139.52462763},{"name":"（医社）飯野病院","province":"東京都","city":"調布市","address":"東京都調布市布田4丁目3-2","lat":35.65122433,"lon":139.545042},{"name":"（医社）大和会　多摩川病院","province":"東京都","city":"調布市","address":"東京都調布市国領町5丁目31-1","lat":35.64864994,"lon":139.55413032},{"name":"（医社）大坪会　北多摩病院","province":"東京都","city":"調布市","address":"東京都調布市調布ケ丘4丁目1-1","lat":35.65958141,"lon":139.54369162},{"name":"（医社）欣助会　吉祥寺病院","province":"東京都","city":"調布市","address":"東京都調布市深大寺北町4丁目17-1","lat":35.68020136,"lon":139.5514541},{"name":"調布市子ども発達センター保育所等訪問支援事業所","province":"東京都","city":"調布市","address":"調布市西町290-49","lat":35.666277,"lon":139.522529},{"name":"グッドライフ調布寮","province":"東京都","city":"調布市","address":"調布市深大寺東町1-26-5","lat":35.671014,"lon":139.558057},{"name":"飛田給荘","province":"東京都","city":"調布市","address":"東京都調布市","lat":35.65071619,"lon":139.54099257},{"name":"調布市社会福祉協議会","province":"東京都","city":"調布市","address":"調布市小島町2-47-1総合福祉センター2階","lat":35.651397,"lon":139.542753},{"name":"グッドライフ調布寮","province":"東京都","city":"調布市","address":"調布市深大寺東町1-26-5","lat":35.67124,"lon":139.55788},{"name":"ライズケア調布","province":"東京都","city":"調布市","address":"調布市西つつじが丘1-16-8","lat":35.66085,"lon":139.56836},{"name":"調布市社会福祉協議会","province":"東京都","city":"調布市","address":"調布市小島町2-47-1総合福祉センター内","lat":35.65127,"lon":139.54263},{"name":"ＮＰＯ法人羽ばたく会めじろ作業所","province":"東京都","city":"調布市","address":"東京都調布市国領町1丁目3-1","lat":35.6510161,"lon":139.55118032},{"name":"特定非営利活動法人エクセルシアリサイクルショップ不思議屋","province":"東京都","city":"調布市","address":"東京都調布市下石原1丁目5-5","lat":35.65762065,"lon":139.53480109},{"name":"障害者地域活動支援センター「ドルチェ」","province":"東京都","city":"調布市","address":"東京都調布市小島町2丁目47-1","lat":35.65141877,"lon":139.54274781},{"name":"調布市総合福祉センター「アイビー」","province":"東京都","city":"調布市","address":"東京都調布市小島町2丁目47-1","lat":35.65141877,"lon":139.54274781},{"name":"特定非営利活動法人高次脳機能障がい者活動センター調布ドリーム","province":"東京都","city":"調布市","address":"東京都調布市飛田給1丁目50-1","lat":35.66023954,"lon":139.52622113},{"name":"特定非営利活動法人だいちだいち調布第３事業所","province":"東京都","city":"調布市","address":"東京都調布市東つつじケ丘2丁目27-4","lat":35.65667413,"lon":139.57754708},{"name":"社会福祉法人くすのき会調布くすの木作業所","province":"東京都","city":"調布市","address":"東京都調布市小島町3丁目72-26","lat":35.64828059,"lon":139.5413345},{"name":"特定非営利活動法人リフレッシュ工房","province":"東京都","city":"調布市","address":"東京都調布市小島町1丁目4-18","lat":35.65565418,"lon":139.54171426},{"name":"Cocorport調布Office","province":"東京都","city":"調布市","address":"東京都調布市小島町3丁目69-14","lat":35.64869437,"lon":139.54226211},{"name":"社会福祉法人檸檬会ＬＩＩＭＯ調布","province":"東京都","city":"調布市","address":"東京都調布市布田1丁目40-3","lat":35.65280731,"lon":139.54486681},{"name":"武蔵野の森総合スポーツ施設敷地","province":"東京都","city":"調布市","address":"東京都調布市","lat":35.65071619,"lon":139.54099257},{"name":"旧調布基地跡地整備関連事業用地","province":"東京都","city":"調布市","address":"東京都調布市","lat":35.65071619,"lon":139.54099257},{"name":"調布基地跡地整備関連事業用地","province":"東京都","city":"調布市","address":"東京都調布市","lat":35.65071619,"lon":139.54099257},{"name":"調布庁舎","province":"東京都","city":"調布市","address":"東京都調布市","lat":35.65071619,"lon":139.54099257},{"name":"（医社）桐光会　調布病院","province":"東京都","city":"調布市","address":"東京都調布市下石原3丁目45-1","lat":35.6509579,"lon":139.53269074},{"name":"（医社）東山会　調布東山病院","province":"東京都","city":"調布市","address":"東京都調布市小島町2丁目32-17","lat":35.65194368,"lon":139.54189507},{"name":"（医社）青山会　青木病院","province":"東京都","city":"調布市","address":"東京都調布市上石原3丁目33-17","lat":35.6504912,"lon":139.52462763},{"name":"（医社）飯野病院","province":"東京都","city":"調布市","address":"東京都調布市布田4丁目3-2","lat":35.65122433,"lon":139.545042},{"name":"（医社）大和会　多摩川病院","province":"東京都","city":"調布市","address":"東京都調布市国領町5丁目31-1","lat":35.64864994,"lon":139.55413032},{"name":"（医社）大坪会　北多摩病院","province":"東京都","city":"調布市","address":"東京都調布市調布ケ丘4丁目1-1","lat":35.65958141,"lon":139.54369162},{"name":"（医社）欣助会　吉祥寺病院","province":"東京都","city":"調布市","address":"東京都調布市深大寺北町4丁目17-1","lat":35.68020136,"lon":139.5514541},{"name":"調布市子ども発達センター保育所等訪問支援事業所","province":"東京都","city":"調布市","address":"調布市西町290-49","lat":35.666277,"lon":139.522529},{"name":"グッドライフ調布寮","province":"東京都","city":"調布市","address":"調布市深大寺東町1-26-5","lat":35.671014,"lon":139.558057},{"name":"飛田給荘","province":"東京都","city":"調布市","address":"東京都調布市","lat":35.65071619,"lon":139.54099257},{"name":"調布市社会福祉協議会","province":"東京都","city":"調布市","address":"調布市小島町2-47-1総合福祉センター2階","lat":35.651397,"lon":139.542753},{"name":"グッドライフ調布寮","province":"東京都","city":"調布市","address":"調布市深大寺東町1-26-5","lat":35.67124,"lon":139.55788},{"name":"ライズケア調布","province":"東京都","city":"調布市","address":"調布市西つつじが丘1-16-8","lat":35.66085,"lon":139.56836},{"name":"調布市社会福祉協議会","province":"東京都","city":"調布市","address":"調布市小島町2-47-1総合福祉センター内","lat":35.65127,"lon":139.54263},{"name":"ＮＰＯ法人羽ばたく会めじろ作業所","province":"東京都","city":"調布市","address":"東京都調布市国領町1丁目3-1","lat":35.6510161,"lon":139.55118032},{"name":"特定非営利活動法人エクセルシアリサイクルショップ不思議屋","province":"東京都","city":"調布市","address":"東京都調布市下石原1丁目5-5","lat":35.65762065,"lon":139.53480109},{"name":"障害者地域活動支援センター「ドルチェ」","province":"東京都","city":"調布市","address":"東京都調布市小島町2丁目47-1","lat":35.65141877,"lon":139.54274781},{"name":"調布市総合福祉センター「アイビー」","province":"東京都","city":"調布市","address":"東京都調布市小島町2丁目47-1","lat":35.65141877,"lon":139.54274781},{"name":"特定非営利活動法人高次脳機能障がい者活動センター調布ドリーム","province":"東京都","city":"調布市","address":"東京都調布市飛田給1丁目50-1","lat":35.66023954,"lon":139.52622113},{"name":"特定非営利活動法人だいちだいち調布第３事業所","province":"東京都","city":"調布市","address":"東京都調布市東つつじケ丘2丁目27-4","lat":35.65667413,"lon":139.57754708},{"name":"社会福祉法人くすのき会調布くすの木作業所","province":"東京都","city":"調布市","address":"東京都調布市小島町3丁目72-26","lat":35.64828059,"lon":139.5413345},{"name":"特定非営利活動法人リフレッシュ工房","province":"東京都","city":"調布市","address":"東京都調布市小島町1丁目4-18","lat":35.65565418,"lon":139.54171426},{"name":"Cocorport調布Office","province":"東京都","city":"調布市","address":"東京都調布市小島町3丁目69-14","lat":35.64869437,"lon":139.54226211},{"name":"社会福祉法人檸檬会ＬＩＩＭＯ調布","province":"東京都","city":"調布市","address":"東京都調布市布田1丁目40-3","lat":35.65280731,"lon":139.54486681},{"name":"武蔵野の森総合スポーツ施設敷地","province":"東京都","city":"調布市","address":"東京都調布市","lat":35.65071619,"lon":139.54099257},{"name":"旧調布基地跡地整備関連事業用地","province":"東京都","city":"調布市","address":"東京都調布市","lat":35.65071619,"lon":139.54099257},{"name":"調布基地跡地整備関連事業用地","province":"東京都","city":"調布市","address":"東京都調布市","lat":35.65071619,"lon":139.54099257},{"name":"調布庁舎","province":"東京都","city":"調布市","address":"東京都調布市","lat":35.65071619,"lon":139.54099257},{"name":"（医社）桐光会　調布病院","province":"東京都","city":"調布市","address":"東京都調布市下石原3丁目45-1","lat":35.6509579,"lon":139.53269074},{"name":"（医社）東山会　調布東山病院","province":"東京都","city":"調布市","address":"東京都調布市小島町2丁目32-17","lat":35.65194368,"lon":139.54189507},{"name":"（医社）青山会　青木病院","province":"東京都","city":"調布市","address":"東京都調布市上石原3丁目33-17","lat":35.6504912,"lon":139.52462763},{"name":"（医社）飯野病院","province":"東京都","city":"調布市","address":"東京都調布市布田4丁目3-2","lat":35.65122433,"lon":139.545042},{"name":"（医社）大和会　多摩川病院","province":"東京都","city":"調布市","address":"東京都調布市国領町5丁目31-1","lat":35.64864994,"lon":139.55413032},{"name":"（医社）大坪会　北多摩病院","province":"東京都","city":"調布市","address":"東京都調布市調布ケ丘4丁目1-1","lat":35.65958141,"lon":139.54369162},{"name":"（医社）欣助会　吉祥寺病院","province":"東京都","city":"調布市","address":"東京都調布市深大寺北町4丁目17-1","lat":35.68020136,"lon":139.5514541},{"name":"調布市子ども発達センター保育所等訪問支援事業所","province":"東京都","city":"調布市","address":"調布市西町290-49","lat":35.666277,"lon":139.522529},{"name":"グッドライフ調布寮","province":"東京都","city":"調布市","address":"調布市深大寺東町1-26-5","lat":35.671014,"lon":139.558057},{"name":"飛田給荘","province":"東京都","city":"調布市","address":"東京都調布市","lat":35.65071619,"lon":139.54099257},{"name":"調布市社会福祉協議会","province":"東京都","city":"調布市","address":"調布市小島町2-47-1総合福祉センター2階","lat":35.651397,"lon":139.542753},{"name":"グッドライフ調布寮","province":"東京都","city":"調布市","address":"調布市深大寺東町1-26-5","lat":35.67124,"lon":139.55788},{"name":"ライズケア調布","province":"東京都","city":"調布市","address":"調布市西つつじが丘1-16-8","lat":35.66085,"lon":139.56836},{"name":"調布市社会福祉協議会","province":"東京都","city":"調布市","address":"調布市小島町2-47-1総合福祉センター内","lat":35.65127,"lon":139.54263},{"name":"ＮＰＯ法人羽ばたく会めじろ作業所","province":"東京都","city":"調布市","address":"東京都調布市国領町1丁目3-1","lat":35.6510161,"lon":139.55118032},{"name":"特定非営利活動法人エクセルシアリサイクルショップ不思議屋","province":"東京都","city":"調布市","address":"東京都調布市下石原1丁目5-5","lat":35.65762065,"lon":139.53480109},{"name":"障害者地域活動支援センター「ドルチェ」","province":"東京都","city":"調布市","address":"東京都調布市小島町2丁目47-1","lat":35.65141877,"lon":139.54274781},{"name":"調布市総合福祉センター「アイビー」","province":"東京都","city":"調布市","address":"東京都調布市小島町2丁目47-1","lat":35.65141877,"lon":139.54274781},{"name":"特定非営利活動法人高次脳機能障がい者活動センター調布ドリーム","province":"東京都","city":"調布市","address":"東京都調布市飛田給1丁目50-1","lat":35.66023954,"lon":139.52622113},{"name":"特定非営利活動法人だいちだいち調布第３事業所","province":"東京都","city":"調布市","address":"東京都調布市東つつじケ丘2丁目27-4","lat":35.65667413,"lon":139.57754708},{"name":"社会福祉法人くすのき会調布くすの木作業所","province":"東京都","city":"調布市","address":"東京都調布市小島町3丁目72-26","lat":35.64828059,"lon":139.5413345},{"name":"特定非営利活動法人リフレッシュ工房","province":"東京都","city":"調布市","address":"東京都調布市小島町1丁目4-18","lat":35.65565418,"lon":139.54171426},{"name":"Cocorport調布Office","province":"東京都","city":"調布市","address":"東京都調布市小島町3丁目69-14","lat":35.64869437,"lon":139.54226211},{"name":"社会福祉法人檸檬会ＬＩＩＭＯ調布","province":"東京都","city":"調布市","address":"東京都調布市布田1丁目40-3","lat":35.65280731,"lon":139.54486681},{"name":"武蔵野の森総合スポーツ施設敷地","province":"東京都","city":"調布市","address":"東京都調布市","lat":35.65071619,"lon":139.54099257},{"name":"旧調布基地跡地整備関連事業用地","province":"東京都","city":"調布市","address":"東京都調布市","lat":35.65071619,"lon":139.54099257},{"name":"調布基地跡地整備関連事業用地","province":"東京都","city":"調布市","address":"東京都調布市","lat":35.65071619,"lon":139.54099257},{"name":"調布庁舎","province":"東京都","city":"調布市","address":"東京都調布市","lat":35.65071619,"lon":139.54099257},{"name":"（医社）桐光会　調布病院","province":"東京都","city":"調布市","address":"東京都調布市下石原3丁目45-1","lat":35.6509579,"lon":139.53269074},{"name":"（医社）東山会　調布東山病院","province":"東京都","city":"調布市","address":"東京都調布市小島町2丁目32-17","lat":35.65194368,"lon":139.54189507},{"name":"（医社）青山会　青木病院","province":"東京都","city":"調布市","address":"東京都調布市上石原3丁目33-17","lat":35.6504912,"lon":139.52462763},{"name":"（医社）飯野病院","province":"東京都","city":"調布市","address":"東京都調布市布田4丁目3-2","lat":35.65122433,"lon":139.545042},{"name":"（医社）大和会　多摩川病院","province":"東京都","city":"調布市","address":"東京都調布市国領町5丁目31-1","lat":35.64864994,"lon":139.55413032},{"name":"（医社）大坪会　北多摩病院","province":"東京都","city":"調布市","address":"東京都調布市調布ケ丘4丁目1-1","lat":35.65958141,"lon":139.54369162},{"name":"（医社）欣助会　吉祥寺病院","province":"東京都","city":"調布市","address":"東京都調布市深大寺北町4丁目17-1","lat":35.68020136,"lon":139.5514541},{"name":"調布市子ども発達センター保育所等訪問支援事業所","province":"東京都","city":"調布市","address":"調布市西町290-49","lat":35.666277,"lon":139.522529},{"name":"グッドライフ調布寮","province":"東京都","city":"調布市","address":"調布市深大寺東町1-26-5","lat":35.671014,"lon":139.558057},{"name":"飛田給荘","province":"東京都","city":"調布市","address":"東京都調布市","lat":35.65071619,"lon":139.54099257},{"name":"調布市社会福祉協議会","province":"東京都","city":"調布市","address":"調布市小島町2-47-1総合福祉センター2階","lat":35.651397,"lon":139.542753},{"name":"グッドライフ調布寮","province":"東京都","city":"調布市","address":"調布市深大寺東町1-26-5","lat":35.67124,"lon":139.55788},{"name":"ライズケア調布","province":"東京都","city":"調布市","address":"調布市西つつじが丘1-16-8","lat":35.66085,"lon":139.56836},{"name":"調布市社会福祉協議会","province":"東京都","city":"調布市","address":"調布市小島町2-47-1総合福祉センター内","lat":35.65127,"lon":139.54263},{"name":"ＮＰＯ法人羽ばたく会めじろ作業所","province":"東京都","city":"調布市","address":"東京都調布市国領町1丁目3-1","lat":35.6510161,"lon":139.55118032},{"name":"特定非営利活動法人エクセルシアリサイクルショップ不思議屋","province":"東京都","city":"調布市","address":"東京都調布市下石原1丁目5-5","lat":35.65762065,"lon":139.53480109},{"name":"障害者地域活動支援センター「ドルチェ」","province":"東京都","city":"調布市","address":"東京都調布市小島町2丁目47-1","lat":35.65141877,"lon":139.54274781},{"name":"調布市総合福祉センター「アイビー」","province":"東京都","city":"調布市","address":"東京都調布市小島町2丁目47-1","lat":35.65141877,"lon":139.54274781},{"name":"特定非営利活動法人高次脳機能障がい者活動センター調布ドリーム","province":"東京都","city":"調布市","address":"東京都調布市飛田給1丁目50-1","lat":35.66023954,"lon":139.52622113},{"name":"特定非営利活動法人だいちだいち調布第３事業所","province":"東京都","city":"調布市","address":"東京都調布市東つつじケ丘2丁目27-4","lat":35.65667413,"lon":139.57754708},{"name":"社会福祉法人くすのき会調布くすの木作業所","province":"東京都","city":"調布市","address":"東京都調布市小島町3丁目72-26","lat":35.64828059,"lon":139.5413345},{"name":"特定非営利活動法人リフレッシュ工房","province":"東京都","city":"調布市","address":"東京都調布市小島町1丁目4-18","lat":35.65565418,"lon":139.54171426},{"name":"Cocorport調布Office","province":"東京都","city":"調布市","address":"東京都調布市小島町3丁目69-14","lat":35.64869437,"lon":139.54226211},{"name":"社会福祉法人檸檬会ＬＩＩＭＯ調布","province":"東京都","city":"調布市","address":"東京都調布市布田1丁目40-3","lat":35.65280731,"lon":139.54486681},{"name":"武蔵野の森総合スポーツ施設敷地","province":"東京都","city":"調布市","address":"東京都調布市","lat":35.65071619,"lon":139.54099257},{"name":"旧調布基地跡地整備関連事業用地","province":"東京都","city":"調布市","address":"東京都調布市","lat":35.65071619,"lon":139.54099257},{"name":"調布基地跡地整備関連事業用地","province":"東京都","city":"調布市","address":"東京都調布市","lat":35.65071619,"lon":139.54099257},{"name":"調布庁舎","province":"東京都","city":"調布市","address":"東京都調布市","lat":35.65071619,"lon":139.54099257},{"name":"（医社）桐光会　調布病院","province":"東京都","city":"調布市","address":"東京都調布市下石原3丁目45-1","lat":35.6509579,"lon":139.53269074},{"name":"（医社）東山会　調布東山病院","province":"東京都","city":"調布市","address":"東京都調布市小島町2丁目32-17","lat":35.65194368,"lon":139.54189507},{"name":"（医社）青山会　青木病院","province":"東京都","city":"調布市","address":"東京都調布市上石原3丁目33-17","lat":35.6504912,"lon":139.52462763},{"name":"（医社）飯野病院","province":"東京都","city":"調布市","address":"東京都調布市布田4丁目3-2","lat":35.65122433,"lon":139.545042},{"name":"（医社）大和会　多摩川病院","province":"東京都","city":"調布市","address":"東京都調布市国領町5丁目31-1","lat":35.64864994,"lon":139.55413032},{"name":"（医社）大坪会　北多摩病院","province":"東京都","city":"調布市","address":"東京都調布市調布ケ丘4丁目1-1","lat":35.65958141,"lon":139.54369162},{"name":"（医社）欣助会　吉祥寺病院","province":"東京都","city":"調布市","address":"東京都調布市深大寺北町4丁目17-1","lat":35.68020136,"lon":139.5514541},{"name":"調布市子ども発達センター保育所等訪問支援事業所","province":"東京都","city":"調布市","address":"調布市西町290-49","lat":35.666277,"lon":139.522529},{"name":"グッドライフ調布寮","province":"東京都","city":"調布市","address":"調布市深大寺東町1-26-5","lat":35.671014,"lon":139.558057},{"name":"飛田給荘","province":"東京都","city":"調布市","address":"東京都調布市","lat":35.65071619,"lon":139.54099257},{"name":"調布市社会福祉協議会","province":"東京都","city":"調布市","address":"調布市小島町2-47-1総合福祉センター2階","lat":35.651397,"lon":139.542753},{"name":"グッドライフ調布寮","province":"東京都","city":"調布市","address":"調布市深大寺東町1-26-5","lat":35.67124,"lon":139.55788},{"name":"ライズケア調布","province":"東京都","city":"調布市","address":"調布市西つつじが丘1-16-8","lat":35.66085,"lon":139.56836},{"name":"調布市社会福祉協議会","province":"東京都","city":"調布市","address":"調布市小島町2-47-1総合福祉センター内","lat":35.65127,"lon":139.54263},{"name":"ＮＰＯ法人羽ばたく会めじろ作業所","province":"東京都","city":"調布市","address":"東京都調布市国領町1丁目3-1","lat":35.6510161,"lon":139.55118032},{"name":"特定非営利活動法人エクセルシアリサイクルショップ不思議屋","province":"東京都","city":"調布市","address":"東京都調布市下石原1丁目5-5","lat":35.65762065,"lon":139.53480109},{"name":"障害者地域活動支援センター「ドルチェ」","province":"東京都","city":"調布市","address":"東京都調布市小島町2丁目47-1","lat":35.65141877,"lon":139.54274781},{"name":"調布市総合福祉センター「アイビー」","province":"東京都","city":"調布市","address":"東京都調布市小島町2丁目47-1","lat":35.65141877,"lon":139.54274781},{"name":"特定非営利活動法人高次脳機能障がい者活動センター調布ドリーム","province":"東京都","city":"調布市","address":"東京都調布市飛田給1丁目50-1","lat":35.66023954,"lon":139.52622113},{"name":"特定非営利活動法人だいちだいち調布第３事業所","province":"東京都","city":"調布市","address":"東京都調布市東つつじケ丘2丁目27-4","lat":35.65667413,"lon":139.57754708},{"name":"社会福祉法人くすのき会調布くすの木作業所","province":"東京都","city":"調布市","address":"東京都調布市小島町3丁目72-26","lat":35.64828059,"lon":139.5413345},{"name":"特定非営利活動法人リフレッシュ工房","province":"東京都","city":"調布市","address":"東京都調布市小島町1丁目4-18","lat":35.65565418,"lon":139.54171426},{"name":"Cocorport調布Office","province":"東京都","city":"調布市","address":"東京都調布市小島町3丁目69-14","lat":35.64869437,"lon":139.54226211},{"name":"社会福祉法人檸檬会ＬＩＩＭＯ調布","province":"東京都","city":"調布市","address":"東京都調布市布田1丁目40-3","lat":35.65280731,"lon":139.54486681},{"name":"武蔵野の森総合スポーツ施設敷地","province":"東京都","city":"調布市","address":"東京都調布市","lat":35.65071619,"lon":139.54099257},{"name":"旧調布基地跡地整備関連事業用地","province":"東京都","city":"調布市","address":"東京都調布市","lat":35.65071619,"lon":139.54099257},{"name":"調布基地跡地整備関連事業用地","province":"東京都","city":"調布市","address":"東京都調布市","lat":35.65071619,"lon":139.54099257},{"name":"調布庁舎","province":"東京都","city":"調布市","address":"東京都調布市","lat":35.65071619,"lon":139.54099257},{"name":"（医社）桐光会　調布病院","province":"東京都","city":"調布市","address":"東京都調布市下石原3丁目45-1","lat":35.6509579,"lon":139.53269074},{"name":"（医社）東山会　調布東山病院","province":"東京都","city":"調布市","address":"東京都調布市小島町2丁目32-17","lat":35.65194368,"lon":139.54189507},{"name":"（医社）青山会　青木病院","province":"東京都","city":"調布市","address":"東京都調布市上石原3丁目33-17","lat":35.6504912,"lon":139.52462763},{"name":"（医社）飯野病院","province":"東京都","city":"調布市","address":"東京都調布市布田4丁目3-2","lat":35.65122433,"lon":139.545042},{"name":"（医社）大和会　多摩川病院","province":"東京都","city":"調布市","address":"東京都調布市国領町5丁目31-1","lat":35.64864994,"lon":139.55413032},{"name":"（医社）大坪会　北多摩病院","province":"東京都","city":"調布市","address":"東京都調布市調布ケ丘4丁目1-1","lat":35.65958141,"lon":139.54369162},{"name":"（医社）欣助会　吉祥寺病院","province":"東京都","city":"調布市","address":"東京都調布市深大寺北町4丁目17-1","lat":35.68020136,"lon":139.5514541},{"name":"調布市子ども発達センター保育所等訪問支援事業所","province":"東京都","city":"調布市","address":"調布市西町290-49","lat":35.666277,"lon":139.522529},{"name":"グッドライフ調布寮","province":"東京都","city":"調布市","address":"調布市深大寺東町1-26-5","lat":35.671014,"lon":139.558057},{"name":"飛田給荘","province":"東京都","city":"調布市","address":"東京都調布市","lat":35.65071619,"lon":139.54099257},{"name":"調布市社会福祉協議会","province":"東京都","city":"調布市","address":"調布市小島町2-47-1総合福祉センター2階","lat":35.651397,"lon":139.542753},{"name":"グッドライフ調布寮","province":"東京都","city":"調布市","address":"調布市深大寺東町1-26-5","lat":35.67124,"lon":139.55788},{"name":"ライズケア調布","province":"東京都","city":"調布市","address":"調布市西つつじが丘1-16-8","lat":35.66085,"lon":139.56836},{"name":"調布市社会福祉協議会","province":"東京都","city":"調布市","address":"調布市小島町2-47-1総合福祉センター内","lat":35.65127,"lon":139.54263},{"name":"武蔵野の森総合スポーツ施設敷地","province":"東京都","city":"調布市","address":"東京都調布市","lat":35.65071619,"lon":139.54099257},{"name":"旧調布基地跡地整備関連事業用地","province":"東京都","city":"調布市","address":"東京都調布市","lat":35.65071619,"lon":139.54099257},{"name":"調布基地跡地整備関連事業用地","province":"東京都","city":"調布市","address":"東京都調布市","lat":35.65071619,"lon":139.54099257},{"name":"調布庁舎","province":"東京都","city":"調布市","address":"東京都調布市","lat":35.65071619,"lon":139.54099257},{"name":"（医社）桐光会　調布病院","province":"東京都","city":"調布市","address":"東京都調布市下石原3丁目45-1","lat":35.6509579,"lon":139.53269074},{"name":"（医社）東山会　調布東山病院","province":"東京都","city":"調布市","address":"東京都調布市小島町2丁目32-17","lat":35.65194368,"lon":139.54189507},{"name":"（医社）青山会　青木病院","province":"東京都","city":"調布市","address":"東京都調布市上石原3丁目33-17","lat":35.6504912,"lon":139.52462763},{"name":"（医社）飯野病院","province":"東京都","city":"調布市","address":"東京都調布市布田4丁目3-2","lat":35.65122433,"lon":139.545042},{"name":"（医社）大和会　多摩川病院","province":"東京都","city":"調布市","address":"東京都調布市国領町5丁目31-1","lat":35.64864994,"lon":139.55413032},{"name":"（医社）大坪会　北多摩病院","province":"東京都","city":"調布市","address":"東京都調布市調布ケ丘4丁目1-1","lat":35.65958141,"lon":139.54369162},{"name":"（医社）欣助会　吉祥寺病院","province":"東京都","city":"調布市","address":"東京都調布市深大寺北町4丁目17-1","lat":35.68020136,"lon":139.5514541},{"name":"調布市子ども発達センター保育所等訪問支援事業所","province":"東京都","city":"調布市","address":"調布市西町290-49","lat":35.666277,"lon":139.522529},{"name":"グッドライフ調布寮","province":"東京都","city":"調布市","address":"調布市深大寺東町1-26-5","lat":35.671014,"lon":139.558057},{"name":"飛田給荘","province":"東京都","city":"調布市","address":"東京都調布市","lat":35.65071619,"lon":139.54099257},{"name":"調布市社会福祉協議会","province":"東京都","city":"調布市","address":"調布市小島町2-47-1総合福祉センター2階","lat":35.651397,"lon":139.542753},{"name":"グッドライフ調布寮","province":"東京都","city":"調布市","address":"調布市深大寺東町1-26-5","lat":35.67124,"lon":139.55788},{"name":"ライズケア調布","province":"東京都","city":"調布市","address":"調布市西つつじが丘1-16-8","lat":35.66085,"lon":139.56836},{"name":"調布市社会福祉協議会","province":"東京都","city":"調布市","address":"調布市小島町2-47-1総合福祉センター内","lat":35.65127,"lon":139.54263},{"name":"武蔵野の森総合スポーツ施設敷地","province":"東京都","city":"調布市","address":"東京都調布市","lat":35.65071619,"lon":139.54099257},{"name":"旧調布基地跡地整備関連事業用地","province":"東京都","city":"調布市","address":"東京都調布市","lat":35.65071619,"lon":139.54099257},{"name":"調布基地跡地整備関連事業用地","province":"東京都","city":"調布市","address":"東京都調布市","lat":35.65071619,"lon":139.54099257},{"name":"調布庁舎","province":"東京都","city":"調布市","address":"東京都調布市","lat":35.65071619,"lon":139.54099257},{"name":"（医社）桐光会　調布病院","province":"東京都","city":"調布市","address":"東京都調布市下石原3丁目45-1","lat":35.6509579,"lon":139.53269074},{"name":"（医社）東山会　調布東山病院","province":"東京都","city":"調布市","address":"東京都調布市小島町2丁目32-17","lat":35.65194368,"lon":139.54189507},{"name":"（医社）青山会　青木病院","province":"東京都","city":"調布市","address":"東京都調布市上石原3丁目33-17","lat":35.6504912,"lon":139.52462763},{"name":"（医社）飯野病院","province":"東京都","city":"調布市","address":"東京都調布市布田4丁目3-2","lat":35.65122433,"lon":139.545042},{"name":"（医社）大和会　多摩川病院","province":"東京都","city":"調布市","address":"東京都調布市国領町5丁目31-1","lat":35.64864994,"lon":139.55413032},{"name":"（医社）大坪会　北多摩病院","province":"東京都","city":"調布市","address":"東京都調布市調布ケ丘4丁目1-1","lat":35.65958141,"lon":139.54369162},{"name":"（医社）欣助会　吉祥寺病院","province":"東京都","city":"調布市","address":"東京都調布市深大寺北町4丁目17-1","lat":35.68020136,"lon":139.5514541},{"name":"調布市子ども発達センター保育所等訪問支援事業所","province":"東京都","city":"調布市","address":"調布市西町290-49","lat":35.666277,"lon":139.522529},{"name":"グッドライフ調布寮","province":"東京都","city":"調布市","address":"調布市深大寺東町1-26-5","lat":35.671014,"lon":139.558057},{"name":"飛田給荘","province":"東京都","city":"調布市","address":"東京都調布市","lat":35.65071619,"lon":139.54099257},{"name":"調布市社会福祉協議会","province":"東京都","city":"調布市","address":"調布市小島町2-47-1総合福祉センター2階","lat":35.651397,"lon":139.542753},{"name":"グッドライフ調布寮","province":"東京都","city":"調布市","address":"調布市深大寺東町1-26-5","lat":35.67124,"lon":139.55788},{"name":"ライズケア調布","province":"東京都","city":"調布市","address":"調布市西つつじが丘1-16-8","lat":35.66085,"lon":139.56836},{"name":"調布市社会福祉協議会","province":"東京都","city":"調布市","address":"調布市小島町2-47-1総合福祉センター内","lat":35.65127,"lon":139.54263},{"name":"武蔵野の森総合スポーツ施設敷地","province":"東京都","city":"調布市","address":"東京都調布市","lat":35.65071619,"lon":139.54099257},{"name":"旧調布基地跡地整備関連事業用地","province":"東京都","city":"調布市","address":"東京都調布市","lat":35.65071619,"lon":139.54099257},{"name":"調布基地跡地整備関連事業用地","province":"東京都","city":"調布市","address":"東京都調布市","lat":35.65071619,"lon":139.54099257},{"name":"調布庁舎","province":"東京都","city":"調布市","address":"東京都調布市","lat":35.65071619,"lon":139.54099257},{"name":"（医社）桐光会　調布病院","province":"東京都","city":"調布市","address":"東京都調布市下石原3丁目45-1","lat":35.6509579,"lon":139.53269074},{"name":"（医社）東山会　調布東山病院","province":"東京都","city":"調布市","address":"東京都調布市小島町2丁目32-17","lat":35.65194368,"lon":139.54189507},{"name":"（医社）青山会　青木病院","province":"東京都","city":"調布市","address":"東京都調布市上石原3丁目33-17","lat":35.6504912,"lon":139.52462763},{"name":"（医社）飯野病院","province":"東京都","city":"調布市","address":"東京都調布市布田4丁目3-2","lat":35.65122433,"lon":139.545042},{"name":"（医社）大和会　多摩川病院","province":"東京都","city":"調布市","address":"東京都調布市国領町5丁目31-1","lat":35.64864994,"lon":139.55413032},{"name":"（医社）大坪会　北多摩病院","province":"東京都","city":"調布市","address":"東京都調布市調布ケ丘4丁目1-1","lat":35.65958141,"lon":139.54369162},{"name":"（医社）欣助会　吉祥寺病院","province":"東京都","city":"調布市","address":"東京都調布市深大寺北町4丁目17-1","lat":35.68020136,"lon":139.5514541},{"name":"調布市子ども発達センター保育所等訪問支援事業所","province":"東京都","city":"調布市","address":"調布市西町290-49","lat":35.666277,"lon":139.522529},{"name":"グッドライフ調布寮","province":"東京都","city":"調布市","address":"調布市深大寺東町1-26-5","lat":35.671014,"lon":139.558057},{"name":"飛田給荘","province":"東京都","city":"調布市","address":"東京都調布市","lat":35.65071619,"lon":139.54099257},{"name":"調布市社会福祉協議会","province":"東京都","city":"調布市","address":"調布市小島町2-47-1総合福祉センター2階","lat":35.651397,"lon":139.542753},{"name":"グッドライフ調布寮","province":"東京都","city":"調布市","address":"調布市深大寺東町1-26-5","lat":35.67124,"lon":139.55788},{"name":"ライズケア調布","province":"東京都","city":"調布市","address":"調布市西つつじが丘1-16-8","lat":35.66085,"lon":139.56836},{"name":"調布市社会福祉協議会","province":"東京都","city":"調布市","address":"調布市小島町2-47-1総合福祉センター内","lat":35.65127,"lon":139.54263},{"name":"武蔵野の森総合スポーツ施設敷地","province":"東京都","city":"調布市","address":"東京都調布市","lat":35.65071619,"lon":139.54099257},{"name":"旧調布基地跡地整備関連事業用地","province":"東京都","city":"調布市","address":"東京都調布市","lat":35.65071619,"lon":139.54099257},{"name":"調布基地跡地整備関連事業用地","province":"東京都","city":"調布市","address":"東京都調布市","lat":35.65071619,"lon":139.54099257},{"name":"調布庁舎","province":"東京都","city":"調布市","address":"東京都調布市","lat":35.65071619,"lon":139.54099257},{"name":"（医社）桐光会　調布病院","province":"東京都","city":"調布市","address":"東京都調布市下石原3丁目45-1","lat":35.6509579,"lon":139.53269074},{"name":"（医社）東山会　調布東山病院","province":"東京都","city":"調布市","address":"東京都調布市小島町2丁目32-17","lat":35.65194368,"lon":139.54189507},{"name":"（医社）青山会　青木病院","province":"東京都","city":"調布市","address":"東京都調布市上石原3丁目33-17","lat":35.6504912,"lon":139.52462763},{"name":"（医社）飯野病院","province":"東京都","city":"調布市","address":"東京都調布市布田4丁目3-2","lat":35.65122433,"lon":139.545042},{"name":"（医社）大和会　多摩川病院","province":"東京都","city":"調布市","address":"東京都調布市国領町5丁目31-1","lat":35.64864994,"lon":139.55413032},{"name":"（医社）大坪会　北多摩病院","province":"東京都","city":"調布市","address":"東京都調布市調布ケ丘4丁目1-1","lat":35.65958141,"lon":139.54369162},{"name":"（医社）欣助会　吉祥寺病院","province":"東京都","city":"調布市","address":"東京都調布市深大寺北町4丁目17-1","lat":35.68020136,"lon":139.5514541},{"name":"調布市子ども発達センター保育所等訪問支援事業所","province":"東京都","city":"調布市","address":"調布市西町290-49","lat":35.666277,"lon":139.522529},{"name":"グッドライフ調布寮","province":"東京都","city":"調布市","address":"調布市深大寺東町1-26-5","lat":35.671014,"lon":139.558057},{"name":"飛田給荘","province":"東京都","city":"調布市","address":"東京都調布市","lat":35.65071619,"lon":139.54099257},{"name":"調布市社会福祉協議会","province":"東京都","city":"調布市","address":"調布市小島町2-47-1総合福祉センター2階","lat":35.651397,"lon":139.542753},{"name":"グッドライフ調布寮","province":"東京都","city":"調布市","address":"調布市深大寺東町1-26-5","lat":35.67124,"lon":139.55788},{"name":"ライズケア調布","province":"東京都","city":"調布市","address":"調布市西つつじが丘1-16-8","lat":35.66085,"lon":139.56836},{"name":"調布市社会福祉協議会","province":"東京都","city":"調布市","address":"調布市小島町2-47-1総合福祉センター内","lat":35.65127,"lon":139.54263},{"name":"武蔵野の森総合スポーツ施設敷地","province":"東京都","city":"調布市","address":"東京都調布市","lat":35.65071619,"lon":139.54099257},{"name":"旧調布基地跡地整備関連事業用地","province":"東京都","city":"調布市","address":"東京都調布市","lat":35.65071619,"lon":139.54099257},{"name":"調布基地跡地整備関連事業用地","province":"東京都","city":"調布市","address":"東京都調布市","lat":35.65071619,"lon":139.54099257},{"name":"調布庁舎","province":"東京都","city":"調布市","address":"東京都調布市","lat":35.65071619,"lon":139.54099257},{"name":"（医社）桐光会　調布病院","province":"東京都","city":"調布市","address":"東京都調布市下石原3丁目45-1","lat":35.6509579,"lon":139.53269074},{"name":"（医社）東山会　調布東山病院","province":"東京都","city":"調布市","address":"東京都調布市小島町2丁目32-17","lat":35.65194368,"lon":139.54189507},{"name":"（医社）青山会　青木病院","province":"東京都","city":"調布市","address":"東京都調布市上石原3丁目33-17","lat":35.6504912,"lon":139.52462763},{"name":"（医社）飯野病院","province":"東京都","city":"調布市","address":"東京都調布市布田4丁目3-2","lat":35.65122433,"lon":139.545042},{"name":"（医社）大和会　多摩川病院","province":"東京都","city":"調布市","address":"東京都調布市国領町5丁目31-1","lat":35.64864994,"lon":139.55413032},{"name":"（医社）大坪会　北多摩病院","province":"東京都","city":"調布市","address":"東京都調布市調布ケ丘4丁目1-1","lat":35.65958141,"lon":139.54369162},{"name":"（医社）欣助会　吉祥寺病院","province":"東京都","city":"調布市","address":"東京都調布市深大寺北町4丁目17-1","lat":35.68020136,"lon":139.5514541},{"name":"調布市子ども発達センター保育所等訪問支援事業所","province":"東京都","city":"調布市","address":"調布市西町290-49","lat":35.666277,"lon":139.522529},{"name":"グッドライフ調布寮","province":"東京都","city":"調布市","address":"調布市深大寺東町1-26-5","lat":35.671014,"lon":139.558057},{"name":"飛田給荘","province":"東京都","city":"調布市","address":"東京都調布市","lat":35.65071619,"lon":139.54099257},{"name":"調布市社会福祉協議会","province":"東京都","city":"調布市","address":"調布市小島町2-47-1総合福祉センター2階","lat":35.651397,"lon":139.542753},{"name":"グッドライフ調布寮","province":"東京都","city":"調布市","address":"調布市深大寺東町1-26-5","lat":35.67124,"lon":139.55788},{"name":"ライズケア調布","province":"東京都","city":"調布市","address":"調布市西つつじが丘1-16-8","lat":35.66085,"lon":139.56836},{"name":"調布市社会福祉協議会","province":"東京都","city":"調布市","address":"調布市小島町2-47-1総合福祉センター内","lat":35.65127,"lon":139.54263},{"name":"武蔵野の森総合スポーツ施設敷地","province":"東京都","city":"調布市","address":"東京都調布市","lat":35.65071619,"lon":139.54099257},{"name":"旧調布基地跡地整備関連事業用地","province":"東京都","city":"調布市","address":"東京都調布市","lat":35.65071619,"lon":139.54099257},{"name":"調布基地跡地整備関連事業用地","province":"東京都","city":"調布市","address":"東京都調布市","lat":35.65071619,"lon":139.54099257},{"name":"調布庁舎","province":"東京都","city":"調布市","address":"東京都調布市","lat":35.65071619,"lon":139.54099257},{"name":"（医社）桐光会　調布病院","province":"東京都","city":"調布市","address":"東京都調布市下石原3丁目45-1","lat":35.6509579,"lon":139.53269074},{"name":"（医社）東山会　調布東山病院","province":"東京都","city":"調布市","address":"東京都調布市小島町2丁目32-17","lat":35.65194368,"lon":139.54189507},{"name":"（医社）青山会　青木病院","province":"東京都","city":"調布市","address":"東京都調布市上石原3丁目33-17","lat":35.6504912,"lon":139.52462763},{"name":"（医社）飯野病院","province":"東京都","city":"調布市","address":"東京都調布市布田4丁目3-2","lat":35.65122433,"lon":139.545042},{"name":"（医社）大和会　多摩川病院","province":"東京都","city":"調布市","address":"東京都調布市国領町5丁目31-1","lat":35.64864994,"lon":139.55413032},{"name":"（医社）大坪会　北多摩病院","province":"東京都","city":"調布市","address":"東京都調布市調布ケ丘4丁目1-1","lat":35.65958141,"lon":139.54369162},{"name":"（医社）欣助会　吉祥寺病院","province":"東京都","city":"調布市","address":"東京都調布市深大寺北町4丁目17-1","lat":35.68020136,"lon":139.5514541},{"name":"調布市子ども発達センター保育所等訪問支援事業所","province":"東京都","city":"調布市","address":"調布市西町290-49","lat":35.666277,"lon":139.522529},{"name":"グッドライフ調布寮","province":"東京都","city":"調布市","address":"調布市深大寺東町1-26-5","lat":35.671014,"lon":139.558057},{"name":"飛田給荘","province":"東京都","city":"調布市","address":"東京都調布市","lat":35.65071619,"lon":139.54099257},{"name":"調布市社会福祉協議会","province":"東京都","city":"調布市","address":"調布市小島町2-47-1総合福祉センター2階","lat":35.651397,"lon":139.542753},{"name":"グッドライフ調布寮","province":"東京都","city":"調布市","address":"調布市深大寺東町1-26-5","lat":35.67124,"lon":139.55788},{"name":"ライズケア調布","province":"東京都","city":"調布市","address":"調布市西つつじが丘1-16-8","lat":35.66085,"lon":139.56836},{"name":"調布市社会福祉協議会","province":"東京都","city":"調布市","address":"調布市小島町2-47-1総合福祉センター内","lat":35.65127,"lon":139.54263},{"name":"武蔵野の森総合スポーツ施設敷地","province":"東京都","city":"調布市","address":"東京都調布市","lat":35.65071619,"lon":139.54099257},{"name":"旧調布基地跡地整備関連事業用地","province":"東京都","city":"調布市","address":"東京都調布市","lat":35.65071619,"lon":139.54099257},{"name":"調布基地跡地整備関連事業用地","province":"東京都","city":"調布市","address":"東京都調布市","lat":35.65071619,"lon":139.54099257},{"name":"調布庁舎","province":"東京都","city":"調布市","address":"東京都調布市","lat":35.65071619,"lon":139.54099257},{"name":"（医社）桐光会　調布病院","province":"東京都","city":"調布市","address":"東京都調布市下石原3丁目45-1","lat":35.6509579,"lon":139.53269074},{"name":"（医社）東山会　調布東山病院","province":"東京都","city":"調布市","address":"東京都調布市小島町2丁目32-17","lat":35.65194368,"lon":139.54189507},{"name":"（医社）青山会　青木病院","province":"東京都","city":"調布市","address":"東京都調布市上石原3丁目33-17","lat":35.6504912,"lon":139.52462763},{"name":"（医社）飯野病院","province":"東京都","city":"調布市","address":"東京都調布市布田4丁目3-2","lat":35.65122433,"lon":139.545042},{"name":"（医社）大和会　多摩川病院","province":"東京都","city":"調布市","address":"東京都調布市国領町5丁目31-1","lat":35.64864994,"lon":139.55413032},{"name":"（医社）大坪会　北多摩病院","province":"東京都","city":"調布市","address":"東京都調布市調布ケ丘4丁目1-1","lat":35.65958141,"lon":139.54369162},{"name":"（医社）欣助会　吉祥寺病院","province":"東京都","city":"調布市","address":"東京都調布市深大寺北町4丁目17-1","lat":35.68020136,"lon":139.5514541},{"name":"調布市子ども発達センター保育所等訪問支援事業所","province":"東京都","city":"調布市","address":"調布市西町290-49","lat":35.666277,"lon":139.522529},{"name":"グッドライフ調布寮","province":"東京都","city":"調布市","address":"調布市深大寺東町1-26-5","lat":35.671014,"lon":139.558057},{"name":"飛田給荘","province":"東京都","city":"調布市","address":"東京都調布市","lat":35.65071619,"lon":139.54099257},{"name":"調布市社会福祉協議会","province":"東京都","city":"調布市","address":"調布市小島町2-47-1総合福祉センター2階","lat":35.651397,"lon":139.542753},{"name":"グッドライフ調布寮","province":"東京都","city":"調布市","address":"調布市深大寺東町1-26-5","lat":35.67124,"lon":139.55788},{"name":"ライズケア調布","province":"東京都","city":"調布市","address":"調布市西つつじが丘1-16-8","lat":35.66085,"lon":139.56836},{"name":"調布市社会福祉協議会","province":"東京都","city":"調布市","address":"調布市小島町2-47-1総合福祉センター内","lat":35.65127,"lon":139.54263},{"name":"武蔵野の森総合スポーツ施設敷地","province":"東京都","city":"調布市","address":"東京都調布市","lat":35.65071619,"lon":139.54099257},{"name":"旧調布基地跡地整備関連事業用地","province":"東京都","city":"調布市","address":"東京都調布市","lat":35.65071619,"lon":139.54099257},{"name":"調布基地跡地整備関連事業用地","province":"東京都","city":"調布市","address":"東京都調布市","lat":35.65071619,"lon":139.54099257},{"name":"調布庁舎","province":"東京都","city":"調布市","address":"東京都調布市","lat":35.65071619,"lon":139.54099257},{"name":"（医社）桐光会　調布病院","province":"東京都","city":"調布市","address":"東京都調布市下石原3丁目45-1","lat":35.6509579,"lon":139.53269074},{"name":"（医社）東山会　調布東山病院","province":"東京都","city":"調布市","address":"東京都調布市小島町2丁目32-17","lat":35.65194368,"lon":139.54189507},{"name":"（医社）青山会　青木病院","province":"東京都","city":"調布市","address":"東京都調布市上石原3丁目33-17","lat":35.6504912,"lon":139.52462763},{"name":"（医社）飯野病院","province":"東京都","city":"調布市","address":"東京都調布市布田4丁目3-2","lat":35.65122433,"lon":139.545042},{"name":"（医社）大和会　多摩川病院","province":"東京都","city":"調布市","address":"東京都調布市国領町5丁目31-1","lat":35.64864994,"lon":139.55413032},{"name":"（医社）大坪会　北多摩病院","province":"東京都","city":"調布市","address":"東京都調布市調布ケ丘4丁目1-1","lat":35.65958141,"lon":139.54369162},{"name":"（医社）欣助会　吉祥寺病院","province":"東京都","city":"調布市","address":"東京都調布市深大寺北町4丁目17-1","lat":35.68020136,"lon":139.5514541},{"name":"調布市子ども発達センター保育所等訪問支援事業所","province":"東京都","city":"調布市","address":"調布市西町290-49","lat":35.666277,"lon":139.522529},{"name":"グッドライフ調布寮","province":"東京都","city":"調布市","address":"調布市深大寺東町1-26-5","lat":35.671014,"lon":139.558057},{"name":"飛田給荘","province":"東京都","city":"調布市","address":"東京都調布市","lat":35.65071619,"lon":139.54099257},{"name":"調布市社会福祉協議会","province":"東京都","city":"調布市","address":"調布市小島町2-47-1総合福祉センター2階","lat":35.651397,"lon":139.542753},{"name":"グッドライフ調布寮","province":"東京都","city":"調布市","address":"調布市深大寺東町1-26-5","lat":35.67124,"lon":139.55788},{"name":"ライズケア調布","province":"東京都","city":"調布市","address":"調布市西つつじが丘1-16-8","lat":35.66085,"lon":139.56836},{"name":"調布市社会福祉協議会","province":"東京都","city":"調布市","address":"調布市小島町2-47-1総合福祉センター内","lat":35.65127,"lon":139.54263},{"name":"武蔵野の森総合スポーツ施設敷地","province":"東京都","city":"調布市","address":"東京都調布市","lat":35.65071619,"lon":139.54099257},{"name":"旧調布基地跡地整備関連事業用地","province":"東京都","city":"調布市","address":"東京都調布市","lat":35.65071619,"lon":139.54099257},{"name":"調布基地跡地整備関連事業用地","province":"東京都","city":"調布市","address":"東京都調布市","lat":35.65071619,"lon":139.54099257},{"name":"調布庁舎","province":"東京都","city":"調布市","address":"東京都調布市","lat":35.65071619,"lon":139.54099257},{"name":"（医社）桐光会　調布病院","province":"東京都","city":"調布市","address":"東京都調布市下石原3丁目45-1","lat":35.6509579,"lon":139.53269074},{"name":"（医社）東山会　調布東山病院","province":"東京都","city":"調布市","address":"東京都調布市小島町2丁目32-17","lat":35.65194368,"lon":139.54189507},{"name":"（医社）青山会　青木病院","province":"東京都","city":"調布市","address":"東京都調布市上石原3丁目33-17","lat":35.6504912,"lon":139.52462763},{"name":"（医社）飯野病院","province":"東京都","city":"調布市","address":"東京都調布市布田4丁目3-2","lat":35.65122433,"lon":139.545042},{"name":"（医社）大和会　多摩川病院","province":"東京都","city":"調布市","address":"東京都調布市国領町5丁目31-1","lat":35.64864994,"lon":139.55413032},{"name":"（医社）大坪会　北多摩病院","province":"東京都","city":"調布市","address":"東京都調布市調布ケ丘4丁目1-1","lat":35.65958141,"lon":139.54369162},{"name":"（医社）欣助会　吉祥寺病院","province":"東京都","city":"調布市","address":"東京都調布市深大寺北町4丁目17-1","lat":35.68020136,"lon":139.5514541},{"name":"調布市子ども発達センター保育所等訪問支援事業所","province":"東京都","city":"調布市","address":"調布市西町290-49","lat":35.666277,"lon":139.522529},{"name":"グッドライフ調布寮","province":"東京都","city":"調布市","address":"調布市深大寺東町1-26-5","lat":35.671014,"lon":139.558057},{"name":"飛田給荘","province":"東京都","city":"調布市","address":"東京都調布市","lat":35.65071619,"lon":139.54099257},{"name":"調布市社会福祉協議会","province":"東京都","city":"調布市","address":"調布市小島町2-47-1総合福祉センター2階","lat":35.651397,"lon":139.542753},{"name":"グッドライフ調布寮","province":"東京都","city":"調布市","address":"調布市深大寺東町1-26-5","lat":35.67124,"lon":139.55788},{"name":"ライズケア調布","province":"東京都","city":"調布市","address":"調布市西つつじが丘1-16-8","lat":35.66085,"lon":139.56836},{"name":"調布市社会福祉協議会","province":"東京都","city":"調布市","address":"調布市小島町2-47-1総合福祉センター内","lat":35.65127,"lon":139.54263},{"name":"武蔵野の森総合スポーツ施設敷地","province":"東京都","city":"調布市","address":"東京都調布市","lat":35.65071619,"lon":139.54099257},{"name":"旧調布基地跡地整備関連事業用地","province":"東京都","city":"調布市","address":"東京都調布市","lat":35.65071619,"lon":139.54099257},{"name":"調布基地跡地整備関連事業用地","province":"東京都","city":"調布市","address":"東京都調布市","lat":35.65071619,"lon":139.54099257},{"name":"調布庁舎","province":"東京都","city":"調布市","address":"東京都調布市","lat":35.65071619,"lon":139.54099257},{"name":"（医社）桐光会　調布病院","province":"東京都","city":"調布市","address":"東京都調布市下石原3丁目45-1","lat":35.6509579,"lon":139.53269074},{"name":"（医社）東山会　調布東山病院","province":"東京都","city":"調布市","address":"東京都調布市小島町2丁目32-17","lat":35.65194368,"lon":139.54189507},{"name":"（医社）青山会　青木病院","province":"東京都","city":"調布市","address":"東京都調布市上石原3丁目33-17","lat":35.6504912,"lon":139.52462763},{"name":"（医社）飯野病院","province":"東京都","city":"調布市","address":"東京都調布市布田4丁目3-2","lat":35.65122433,"lon":139.545042},{"name":"（医社）大和会　多摩川病院","province":"東京都","city":"調布市","address":"東京都調布市国領町5丁目31-1","lat":35.64864994,"lon":139.55413032},{"name":"（医社）大坪会　北多摩病院","province":"東京都","city":"調布市","address":"東京都調布市調布ケ丘4丁目1-1","lat":35.65958141,"lon":139.54369162},{"name":"（医社）欣助会　吉祥寺病院","province":"東京都","city":"調布市","address":"東京都調布市深大寺北町4丁目17-1","lat":35.68020136,"lon":139.5514541},{"name":"調布市子ども発達センター保育所等訪問支援事業所","province":"東京都","city":"調布市","address":"調布市西町290-49","lat":35.666277,"lon":139.522529},{"name":"グッドライフ調布寮","province":"東京都","city":"調布市","address":"調布市深大寺東町1-26-5","lat":35.671014,"lon":139.558057},{"name":"飛田給荘","province":"東京都","city":"調布市","address":"東京都調布市","lat":35.65071619,"lon":139.54099257},{"name":"調布市社会福祉協議会","province":"東京都","city":"調布市","address":"調布市小島町2-47-1総合福祉センター2階","lat":35.651397,"lon":139.542753},{"name":"グッドライフ調布寮","province":"東京都","city":"調布市","address":"調布市深大寺東町1-26-5","lat":35.67124,"lon":139.55788},{"name":"ライズケア調布","province":"東京都","city":"調布市","address":"調布市西つつじが丘1-16-8","lat":35.66085,"lon":139.56836},{"name":"調布市社会福祉協議会","province":"東京都","city":"調布市","address":"調布市小島町2-47-1総合福祉センター内","lat":35.65127,"lon":139.54263},{"name":"武蔵野の森総合スポーツ施設敷地","province":"東京都","city":"調布市","address":"東京都調布市","lat":35.65071619,"lon":139.54099257},{"name":"旧調布基地跡地整備関連事業用地","province":"東京都","city":"調布市","address":"東京都調布市","lat":35.65071619,"lon":139.54099257},{"name":"調布基地跡地整備関連事業用地","province":"東京都","city":"調布市","address":"東京都調布市","lat":35.65071619,"lon":139.54099257},{"name":"調布庁舎","province":"東京都","city":"調布市","address":"東京都調布市","lat":35.65071619,"lon":139.54099257},{"name":"（医社）桐光会　調布病院","province":"東京都","city":"調布市","address":"東京都調布市下石原3丁目45-1","lat":35.6509579,"lon":139.53269074},{"name":"（医社）東山会　調布東山病院","province":"東京都","city":"調布市","address":"東京都調布市小島町2丁目32-17","lat":35.65194368,"lon":139.54189507},{"name":"（医社）青山会　青木病院","province":"東京都","city":"調布市","address":"東京都調布市上石原3丁目33-17","lat":35.6504912,"lon":139.52462763},{"name":"（医社）飯野病院","province":"東京都","city":"調布市","address":"東京都調布市布田4丁目3-2","lat":35.65122433,"lon":139.545042},{"name":"（医社）大和会　多摩川病院","province":"東京都","city":"調布市","address":"東京都調布市国領町5丁目31-1","lat":35.64864994,"lon":139.55413032},{"name":"（医社）大坪会　北多摩病院","province":"東京都","city":"調布市","address":"東京都調布市調布ケ丘4丁目1-1","lat":35.65958141,"lon":139.54369162},{"name":"（医社）欣助会　吉祥寺病院","province":"東京都","city":"調布市","address":"東京都調布市深大寺北町4丁目17-1","lat":35.68020136,"lon":139.5514541},{"name":"調布市子ども発達センター保育所等訪問支援事業所","province":"東京都","city":"調布市","address":"調布市西町290-49","lat":35.666277,"lon":139.522529},{"name":"グッドライフ調布寮","province":"東京都","city":"調布市","address":"調布市深大寺東町1-26-5","lat":35.671014,"lon":139.558057},{"name":"飛田給荘","province":"東京都","city":"調布市","address":"東京都調布市","lat":35.65071619,"lon":139.54099257},{"name":"調布市社会福祉協議会","province":"東京都","city":"調布市","address":"調布市小島町2-47-1総合福祉センター2階","lat":35.651397,"lon":139.542753},{"name":"グッドライフ調布寮","province":"東京都","city":"調布市","address":"調布市深大寺東町1-26-5","lat":35.67124,"lon":139.55788},{"name":"ライズケア調布","province":"東京都","city":"調布市","address":"調布市西つつじが丘1-16-8","lat":35.66085,"lon":139.56836},{"name":"調布市社会福祉協議会","province":"東京都","city":"調布市","address":"調布市小島町2-47-1総合福祉センター内","lat":35.65127,"lon":139.54263},{"name":"武蔵野の森総合スポーツ施設敷地","province":"東京都","city":"調布市","address":"東京都調布市","lat":35.65071619,"lon":139.54099257},{"name":"旧調布基地跡地整備関連事業用地","province":"東京都","city":"調布市","address":"東京都調布市","lat":35.65071619,"lon":139.54099257},{"name":"調布基地跡地整備関連事業用地","province":"東京都","city":"調布市","address":"東京都調布市","lat":35.65071619,"lon":139.54099257},{"name":"調布庁舎","province":"東京都","city":"調布市","address":"東京都調布市","lat":35.65071619,"lon":139.54099257},{"name":"（医社）桐光会　調布病院","province":"東京都","city":"調布市","address":"東京都調布市下石原3丁目45-1","lat":35.6509579,"lon":139.53269074},{"name":"（医社）東山会　調布東山病院","province":"東京都","city":"調布市","address":"東京都調布市小島町2丁目32-17","lat":35.65194368,"lon":139.54189507},{"name":"（医社）青山会　青木病院","province":"東京都","city":"調布市","address":"東京都調布市上石原3丁目33-17","lat":35.6504912,"lon":139.52462763},{"name":"（医社）飯野病院","province":"東京都","city":"調布市","address":"東京都調布市布田4丁目3-2","lat":35.65122433,"lon":139.545042},{"name":"（医社）大和会　多摩川病院","province":"東京都","city":"調布市","address":"東京都調布市国領町5丁目31-1","lat":35.64864994,"lon":139.55413032},{"name":"（医社）大坪会　北多摩病院","province":"東京都","city":"調布市","address":"東京都調布市調布ケ丘4丁目1-1","lat":35.65958141,"lon":139.54369162},{"name":"（医社）欣助会　吉祥寺病院","province":"東京都","city":"調布市","address":"東京都調布市深大寺北町4丁目17-1","lat":35.68020136,"lon":139.5514541},{"name":"調布市子ども発達センター保育所等訪問支援事業所","province":"東京都","city":"調布市","address":"調布市西町290-49","lat":35.666277,"lon":139.522529},{"name":"グッドライフ調布寮","province":"東京都","city":"調布市","address":"調布市深大寺東町1-26-5","lat":35.671014,"lon":139.558057},{"name":"飛田給荘","province":"東京都","city":"調布市","address":"東京都調布市","lat":35.65071619,"lon":139.54099257},{"name":"調布市社会福祉協議会","province":"東京都","city":"調布市","address":"調布市小島町2-47-1総合福祉センター2階","lat":35.651397,"lon":139.542753},{"name":"グッドライフ調布寮","province":"東京都","city":"調布市","address":"調布市深大寺東町1-26-5","lat":35.67124,"lon":139.55788},{"name":"ライズケア調布","province":"東京都","city":"調布市","address":"調布市西つつじが丘1-16-8","lat":35.66085,"lon":139.56836},{"name":"調布市社会福祉協議会","province":"東京都","city":"調布市","address":"調布市小島町2-47-1総合福祉センター内","lat":35.65127,"lon":139.54263},{"name":"武蔵野の森総合スポーツ施設敷地","province":"東京都","city":"調布市","address":"東京都調布市","lat":35.65071619,"lon":139.54099257},{"name":"旧調布基地跡地整備関連事業用地","province":"東京都","city":"調布市","address":"東京都調布市","lat":35.65071619,"lon":139.54099257},{"name":"調布基地跡地整備関連事業用地","province":"東京都","city":"調布市","address":"東京都調布市","lat":35.65071619,"lon":139.54099257},{"name":"調布庁舎","province":"東京都","city":"調布市","address":"東京都調布市","lat":35.65071619,"lon":139.54099257},{"name":"（医社）桐光会　調布病院","province":"東京都","city":"調布市","address":"東京都調布市下石原3丁目45-1","lat":35.6509579,"lon":139.53269074},{"name":"（医社）東山会　調布東山病院","province":"東京都","city":"調布市","address":"東京都調布市小島町2丁目32-17","lat":35.65194368,"lon":139.54189507},{"name":"（医社）青山会　青木病院","province":"東京都","city":"調布市","address":"東京都調布市上石原3丁目33-17","lat":35.6504912,"lon":139.52462763},{"name":"（医社）飯野病院","province":"東京都","city":"調布市","address":"東京都調布市布田4丁目3-2","lat":35.65122433,"lon":139.545042},{"name":"（医社）大和会　多摩川病院","province":"東京都","city":"調布市","address":"東京都調布市国領町5丁目31-1","lat":35.64864994,"lon":139.55413032},{"name":"（医社）大坪会　北多摩病院","province":"東京都","city":"調布市","address":"東京都調布市調布ケ丘4丁目1-1","lat":35.65958141,"lon":139.54369162},{"name":"（医社）欣助会　吉祥寺病院","province":"東京都","city":"調布市","address":"東京都調布市深大寺北町4丁目17-1","lat":35.68020136,"lon":139.5514541},{"name":"調布市子ども発達センター保育所等訪問支援事業所","province":"東京都","city":"調布市","address":"調布市西町290-49","lat":35.666277,"lon":139.522529},{"name":"グッドライフ調布寮","province":"東京都","city":"調布市","address":"調布市深大寺東町1-26-5","lat":35.671014,"lon":139.558057},{"name":"飛田給荘","province":"東京都","city":"調布市","address":"東京都調布市","lat":35.65071619,"lon":139.54099257},{"name":"調布市社会福祉協議会","province":"東京都","city":"調布市","address":"調布市小島町2-47-1総合福祉センター2階","lat":35.651397,"lon":139.542753},{"name":"グッドライフ調布寮","province":"東京都","city":"調布市","address":"調布市深大寺東町1-26-5","lat":35.67124,"lon":139.55788},{"name":"ライズケア調布","province":"東京都","city":"調布市","address":"調布市西つつじが丘1-16-8","lat":35.66085,"lon":139.56836},{"name":"調布市社会福祉協議会","province":"東京都","city":"調布市","address":"調布市小島町2-47-1総合福祉センター内","lat":35.65127,"lon":139.54263},{"name":"武蔵野の森総合スポーツ施設敷地","province":"東京都","city":"調布市","address":"東京都調布市","lat":35.65071619,"lon":139.54099257},{"name":"旧調布基地跡地整備関連事業用地","province":"東京都","city":"調布市","address":"東京都調布市","lat":35.65071619,"lon":139.54099257},{"name":"調布基地跡地整備関連事業用地","province":"東京都","city":"調布市","address":"東京都調布市","lat":35.65071619,"lon":139.54099257},{"name":"調布庁舎","province":"東京都","city":"調布市","address":"東京都調布市","lat":35.65071619,"lon":139.54099257},{"name":"（医社）桐光会　調布病院","province":"東京都","city":"調布市","address":"東京都調布市下石原3丁目45-1","lat":35.6509579,"lon":139.53269074},{"name":"（医社）東山会　調布東山病院","province":"東京都","city":"調布市","address":"東京都調布市小島町2丁目32-17","lat":35.65194368,"lon":139.54189507},{"name":"（医社）青山会　青木病院","province":"東京都","city":"調布市","address":"東京都調布市上石原3丁目33-17","lat":35.6504912,"lon":139.52462763},{"name":"（医社）飯野病院","province":"東京都","city":"調布市","address":"東京都調布市布田4丁目3-2","lat":35.65122433,"lon":139.545042},{"name":"（医社）大和会　多摩川病院","province":"東京都","city":"調布市","address":"東京都調布市国領町5丁目31-1","lat":35.64864994,"lon":139.55413032},{"name":"（医社）大坪会　北多摩病院","province":"東京都","city":"調布市","address":"東京都調布市調布ケ丘4丁目1-1","lat":35.65958141,"lon":139.54369162},{"name":"（医社）欣助会　吉祥寺病院","province":"東京都","city":"調布市","address":"東京都調布市深大寺北町4丁目17-1","lat":35.68020136,"lon":139.5514541},{"name":"調布市子ども発達センター保育所等訪問支援事業所","province":"東京都","city":"調布市","address":"調布市西町290-49","lat":35.666277,"lon":139.522529},{"name":"グッドライフ調布寮","province":"東京都","city":"調布市","address":"調布市深大寺東町1-26-5","lat":35.671014,"lon":139.558057},{"name":"飛田給荘","province":"東京都","city":"調布市","address":"東京都調布市","lat":35.65071619,"lon":139.54099257},{"name":"調布市社会福祉協議会","province":"東京都","city":"調布市","address":"調布市小島町2-47-1総合福祉センター2階","lat":35.651397,"lon":139.542753},{"name":"グッドライフ調布寮","province":"東京都","city":"調布市","address":"調布市深大寺東町1-26-5","lat":35.67124,"lon":139.55788},{"name":"ライズケア調布","province":"東京都","city":"調布市","address":"調布市西つつじが丘1-16-8","lat":35.66085,"lon":139.56836},{"name":"調布市社会福祉協議会","province":"東京都","city":"調布市","address":"調布市小島町2-47-1総合福祉センター内","lat":35.65127,"lon":139.54263},{"name":"武蔵野の森総合スポーツ施設敷地","province":"東京都","city":"調布市","address":"東京都調布市","lat":35.65071619,"lon":139.54099257},{"name":"旧調布基地跡地整備関連事業用地","province":"東京都","city":"調布市","address":"東京都調布市","lat":35.65071619,"lon":139.54099257},{"name":"調布基地跡地整備関連事業用地","province":"東京都","city":"調布市","address":"東京都調布市","lat":35.65071619,"lon":139.54099257},{"name":"調布庁舎","province":"東京都","city":"調布市","address":"東京都調布市","lat":35.65071619,"lon":139.54099257},{"name":"（医社）桐光会　調布病院","province":"東京都","city":"調布市","address":"東京都調布市下石原3丁目45-1","lat":35.6509579,"lon":139.53269074},{"name":"（医社）東山会　調布東山病院","province":"東京都","city":"調布市","address":"東京都調布市小島町2丁目32-17","lat":35.65194368,"lon":139.54189507},{"name":"（医社）青山会　青木病院","province":"東京都","city":"調布市","address":"東京都調布市上石原3丁目33-17","lat":35.6504912,"lon":139.52462763},{"name":"（医社）飯野病院","province":"東京都","city":"調布市","address":"東京都調布市布田4丁目3-2","lat":35.65122433,"lon":139.545042},{"name":"（医社）大和会　多摩川病院","province":"東京都","city":"調布市","address":"東京都調布市国領町5丁目31-1","lat":35.64864994,"lon":139.55413032},{"name":"（医社）大坪会　北多摩病院","province":"東京都","city":"調布市","address":"東京都調布市調布ケ丘4丁目1-1","lat":35.65958141,"lon":139.54369162},{"name":"（医社）欣助会　吉祥寺病院","province":"東京都","city":"調布市","address":"東京都調布市深大寺北町4丁目17-1","lat":35.68020136,"lon":139.5514541},{"name":"調布市子ども発達センター保育所等訪問支援事業所","province":"東京都","city":"調布市","address":"調布市西町290-49","lat":35.666277,"lon":139.522529},{"name":"グッドライフ調布寮","province":"東京都","city":"調布市","address":"調布市深大寺東町1-26-5","lat":35.671014,"lon":139.558057},{"name":"飛田給荘","province":"東京都","city":"調布市","address":"東京都調布市","lat":35.65071619,"lon":139.54099257},{"name":"調布市社会福祉協議会","province":"東京都","city":"調布市","address":"調布市小島町2-47-1総合福祉センター2階","lat":35.651397,"lon":139.542753},{"name":"グッドライフ調布寮","province":"東京都","city":"調布市","address":"調布市深大寺東町1-26-5","lat":35.67124,"lon":139.55788},{"name":"ライズケア調布","province":"東京都","city":"調布市","address":"調布市西つつじが丘1-16-8","lat":35.66085,"lon":139.56836},{"name":"調布市社会福祉協議会","province":"東京都","city":"調布市","address":"調布市小島町2-47-1総合福祉センター内","lat":35.65127,"lon":139.54263},{"name":"武蔵野の森総合スポーツ施設敷地","province":"東京都","city":"調布市","address":"東京都調布市","lat":35.65071619,"lon":139.54099257},{"name":"旧調布基地跡地整備関連事業用地","province":"東京都","city":"調布市","address":"東京都調布市","lat":35.65071619,"lon":139.54099257},{"name":"調布基地跡地整備関連事業用地","province":"東京都","city":"調布市","address":"東京都調布市","lat":35.65071619,"lon":139.54099257},{"name":"調布庁舎","province":"東京都","city":"調布市","address":"東京都調布市","lat":35.65071619,"lon":139.54099257},{"name":"（医社）桐光会　調布病院","province":"東京都","city":"調布市","address":"東京都調布市下石原3丁目45-1","lat":35.6509579,"lon":139.53269074},{"name":"（医社）東山会　調布東山病院","province":"東京都","city":"調布市","address":"東京都調布市小島町2丁目32-17","lat":35.65194368,"lon":139.54189507},{"name":"（医社）青山会　青木病院","province":"東京都","city":"調布市","address":"東京都調布市上石原3丁目33-17","lat":35.6504912,"lon":139.52462763},{"name":"（医社）飯野病院","province":"東京都","city":"調布市","address":"東京都調布市布田4丁目3-2","lat":35.65122433,"lon":139.545042},{"name":"（医社）大和会　多摩川病院","province":"東京都","city":"調布市","address":"東京都調布市国領町5丁目31-1","lat":35.64864994,"lon":139.55413032},{"name":"（医社）大坪会　北多摩病院","province":"東京都","city":"調布市","address":"東京都調布市調布ケ丘4丁目1-1","lat":35.65958141,"lon":139.54369162},{"name":"（医社）欣助会　吉祥寺病院","province":"東京都","city":"調布市","address":"東京都調布市深大寺北町4丁目17-1","lat":35.68020136,"lon":139.5514541},{"name":"調布市子ども発達センター保育所等訪問支援事業所","province":"東京都","city":"調布市","address":"調布市西町290-49","lat":35.666277,"lon":139.522529},{"name":"グッドライフ調布寮","province":"東京都","city":"調布市","address":"調布市深大寺東町1-26-5","lat":35.671014,"lon":139.558057},{"name":"飛田給荘","province":"東京都","city":"調布市","address":"東京都調布市","lat":35.65071619,"lon":139.54099257},{"name":"調布市社会福祉協議会","province":"東京都","city":"調布市","address":"調布市小島町2-47-1総合福祉センター2階","lat":35.651397,"lon":139.542753},{"name":"グッドライフ調布寮","province":"東京都","city":"調布市","address":"調布市深大寺東町1-26-5","lat":35.67124,"lon":139.55788},{"name":"ライズケア調布","province":"東京都","city":"調布市","address":"調布市西つつじが丘1-16-8","lat":35.66085,"lon":139.56836},{"name":"調布市社会福祉協議会","province":"東京都","city":"調布市","address":"調布市小島町2-47-1総合福祉センター内","lat":35.65127,"lon":139.54263},{"name":"武蔵野の森総合スポーツ施設敷地","province":"東京都","city":"調布市","address":"東京都調布市","lat":35.65071619,"lon":139.54099257},{"name":"旧調布基地跡地整備関連事業用地","province":"東京都","city":"調布市","address":"東京都調布市","lat":35.65071619,"lon":139.54099257},{"name":"調布基地跡地整備関連事業用地","province":"東京都","city":"調布市","address":"東京都調布市","lat":35.65071619,"lon":139.54099257},{"name":"調布庁舎","province":"東京都","city":"調布市","address":"東京都調布市","lat":35.65071619,"lon":139.54099257},{"name":"（医社）桐光会　調布病院","province":"東京都","city":"調布市","address":"東京都調布市下石原3丁目45-1","lat":35.6509579,"lon":139.53269074},{"name":"（医社）東山会　調布東山病院","province":"東京都","city":"調布市","address":"東京都調布市小島町2丁目32-17","lat":35.65194368,"lon":139.54189507},{"name":"（医社）青山会　青木病院","province":"東京都","city":"調布市","address":"東京都調布市上石原3丁目33-17","lat":35.6504912,"lon":139.52462763},{"name":"（医社）飯野病院","province":"東京都","city":"調布市","address":"東京都調布市布田4丁目3-2","lat":35.65122433,"lon":139.545042},{"name":"（医社）大和会　多摩川病院","province":"東京都","city":"調布市","address":"東京都調布市国領町5丁目31-1","lat":35.64864994,"lon":139.55413032},{"name":"（医社）大坪会　北多摩病院","province":"東京都","city":"調布市","address":"東京都調布市調布ケ丘4丁目1-1","lat":35.65958141,"lon":139.54369162},{"name":"（医社）欣助会　吉祥寺病院","province":"東京都","city":"調布市","address":"東京都調布市深大寺北町4丁目17-1","lat":35.68020136,"lon":139.5514541},{"name":"調布市子ども発達センター保育所等訪問支援事業所","province":"東京都","city":"調布市","address":"調布市西町290-49","lat":35.666277,"lon":139.522529},{"name":"グッドライフ調布寮","province":"東京都","city":"調布市","address":"調布市深大寺東町1-26-5","lat":35.671014,"lon":139.558057},{"name":"飛田給荘","province":"東京都","city":"調布市","address":"東京都調布市","lat":35.65071619,"lon":139.54099257},{"name":"調布市社会福祉協議会","province":"東京都","city":"調布市","address":"調布市小島町2-47-1総合福祉センター2階","lat":35.651397,"lon":139.542753},{"name":"グッドライフ調布寮","province":"東京都","city":"調布市","address":"調布市深大寺東町1-26-5","lat":35.67124,"lon":139.55788},{"name":"ライズケア調布","province":"東京都","city":"調布市","address":"調布市西つつじが丘1-16-8","lat":35.66085,"lon":139.56836},{"name":"調布市社会福祉協議会","province":"東京都","city":"調布市","address":"調布市小島町2-47-1総合福祉センター内","lat":35.65127,"lon":139.54263},{"name":"武蔵野の森総合スポーツ施設敷地","province":"東京都","city":"調布市","address":"東京都調布市","lat":35.65071619,"lon":139.54099257},{"name":"旧調布基地跡地整備関連事業用地","province":"東京都","city":"調布市","address":"東京都調布市","lat":35.65071619,"lon":139.54099257},{"name":"調布基地跡地整備関連事業用地","province":"東京都","city":"調布市","address":"東京都調布市","lat":35.65071619,"lon":139.54099257},{"name":"調布庁舎","province":"東京都","city":"調布市","address":"東京都調布市","lat":35.65071619,"lon":139.54099257},{"name":"（医社）桐光会　調布病院","province":"東京都","city":"調布市","address":"東京都調布市下石原3丁目45-1","lat":35.6509579,"lon":139.53269074},{"name":"（医社）東山会　調布東山病院","province":"東京都","city":"調布市","address":"東京都調布市小島町2丁目32-17","lat":35.65194368,"lon":139.54189507},{"name":"（医社）青山会　青木病院","province":"東京都","city":"調布市","address":"東京都調布市上石原3丁目33-17","lat":35.6504912,"lon":139.52462763},{"name":"（医社）飯野病院","province":"東京都","city":"調布市","address":"東京都調布市布田4丁目3-2","lat":35.65122433,"lon":139.545042},{"name":"（医社）大和会　多摩川病院","province":"東京都","city":"調布市","address":"東京都調布市国領町5丁目31-1","lat":35.64864994,"lon":139.55413032},{"name":"（医社）大坪会　北多摩病院","province":"東京都","city":"調布市","address":"東京都調布市調布ケ丘4丁目1-1","lat":35.65958141,"lon":139.54369162},{"name":"（医社）欣助会　吉祥寺病院","province":"東京都","city":"調布市","address":"東京都調布市深大寺北町4丁目17-1","lat":35.68020136,"lon":139.5514541},{"name":"調布市子ども発達センター保育所等訪問支援事業所","province":"東京都","city":"調布市","address":"調布市西町290-49","lat":35.666277,"lon":139.522529},{"name":"グッドライフ調布寮","province":"東京都","city":"調布市","address":"調布市深大寺東町1-26-5","lat":35.671014,"lon":139.558057},{"name":"飛田給荘","province":"東京都","city":"調布市","address":"東京都調布市","lat":35.65071619,"lon":139.54099257},{"name":"調布市社会福祉協議会","province":"東京都","city":"調布市","address":"調布市小島町2-47-1総合福祉センター2階","lat":35.651397,"lon":139.542753},{"name":"グッドライフ調布寮","province":"東京都","city":"調布市","address":"調布市深大寺東町1-26-5","lat":35.67124,"lon":139.55788},{"name":"ライズケア調布","province":"東京都","city":"調布市","address":"調布市西つつじが丘1-16-8","lat":35.66085,"lon":139.56836},{"name":"調布市社会福祉協議会","province":"東京都","city":"調布市","address":"調布市小島町2-47-1総合福祉センター内","lat":35.65127,"lon":139.54263},{"name":"武蔵野の森総合スポーツ施設敷地","province":"東京都","city":"調布市","address":"東京都調布市","lat":35.65071619,"lon":139.54099257},{"name":"旧調布基地跡地整備関連事業用地","province":"東京都","city":"調布市","address":"東京都調布市","lat":35.65071619,"lon":139.54099257},{"name":"調布基地跡地整備関連事業用地","province":"東京都","city":"調布市","address":"東京都調布市","lat":35.65071619,"lon":139.54099257},{"name":"調布庁舎","province":"東京都","city":"調布市","address":"東京都調布市","lat":35.65071619,"lon":139.54099257},{"name":"（医社）桐光会　調布病院","province":"東京都","city":"調布市","address":"東京都調布市下石原3丁目45-1","lat":35.6509579,"lon":139.53269074},{"name":"（医社）東山会　調布東山病院","province":"東京都","city":"調布市","address":"東京都調布市小島町2丁目32-17","lat":35.65194368,"lon":139.54189507},{"name":"（医社）青山会　青木病院","province":"東京都","city":"調布市","address":"東京都調布市上石原3丁目33-17","lat":35.6504912,"lon":139.52462763},{"name":"（医社）飯野病院","province":"東京都","city":"調布市","address":"東京都調布市布田4丁目3-2","lat":35.65122433,"lon":139.545042},{"name":"（医社）大和会　多摩川病院","province":"東京都","city":"調布市","address":"東京都調布市国領町5丁目31-1","lat":35.64864994,"lon":139.55413032},{"name":"（医社）大坪会　北多摩病院","province":"東京都","city":"調布市","address":"東京都調布市調布ケ丘4丁目1-1","lat":35.65958141,"lon":139.54369162},{"name":"（医社）欣助会　吉祥寺病院","province":"東京都","city":"調布市","address":"東京都調布市深大寺北町4丁目17-1","lat":35.68020136,"lon":139.5514541},{"name":"調布市子ども発達センター保育所等訪問支援事業所","province":"東京都","city":"調布市","address":"調布市西町290-49","lat":35.666277,"lon":139.522529},{"name":"グッドライフ調布寮","province":"東京都","city":"調布市","address":"調布市深大寺東町1-26-5","lat":35.671014,"lon":139.558057},{"name":"飛田給荘","province":"東京都","city":"調布市","address":"東京都調布市","lat":35.65071619,"lon":139.54099257},{"name":"調布市社会福祉協議会","province":"東京都","city":"調布市","address":"調布市小島町2-47-1総合福祉センター2階","lat":35.651397,"lon":139.542753},{"name":"グッドライフ調布寮","province":"東京都","city":"調布市","address":"調布市深大寺東町1-26-5","lat":35.67124,"lon":139.55788},{"name":"ライズケア調布","province":"東京都","city":"調布市","address":"調布市西つつじが丘1-16-8","lat":35.66085,"lon":139.56836},{"name":"調布市社会福祉協議会","province":"東京都","city":"調布市","address":"調布市小島町2-47-1総合福祉センター内","lat":35.65127,"lon":139.54263},{"name":"武蔵野の森総合スポーツ施設敷地","province":"東京都","city":"調布市","address":"東京都調布市","lat":35.65071619,"lon":139.54099257},{"name":"旧調布基地跡地整備関連事業用地","province":"東京都","city":"調布市","address":"東京都調布市","lat":35.65071619,"lon":139.54099257},{"name":"調布基地跡地整備関連事業用地","province":"東京都","city":"調布市","address":"東京都調布市","lat":35.65071619,"lon":139.54099257},{"name":"調布庁舎","province":"東京都","city":"調布市","address":"東京都調布市","lat":35.65071619,"lon":139.54099257}]}