{"keyword":"戸数","data":[{"name":"調布市社会福祉協議会","province":"東京都","city":"調布市","address":"調布市小島町2-47-1総合福祉センター2階","lat":35.651397,"lon":139.542753},{"name":"調布市","province":"東京都","city":"調布市","address":"調布市小島町2-35-1","lat":35.6506283,"lon":139.5406825},{"name":"SOGIサポートセンターLinMCGroup株式会社","province":"東京都","city":"調布市","address":"東京都調布市多摩川2丁目3-12","lat":35.64803332,"lon":139.52358352},{"name":"㈲和田葬儀社","province":"東京都","city":"調布市","address":"東京都調布市下石原1丁目60-2","lat":35.65478214,"lon":139.53833695},{"name":"㈱メモリード(ﾒﾓﾘｰﾄﾞﾎｰﾙ)","province":"東京都","city":"調布市","address":"東京都調布市菊野台1丁目10-2","lat":35.65449637,"lon":139.5649622},{"name":"㈱公益社","province":"東京都","city":"調布市","address":"東京都調布市仙川町3丁目1-3","lat":35.66295407,"lon":139.58419625},{"name":"京王フェアウェルサポート㈱（京王メモリアル）","province":"東京都","city":"調布市","address":"東京都調布市布田2丁目34-6","lat":35.65131595,"lon":139.54681677},{"name":"（有）和田葬儀社","province":"東京都","city":"調布市","address":"東京都調布市下石原1丁目60-2","lat":35.65478214,"lon":139.53833695},{"name":"（株）メモリード","province":"東京都","city":"調布市","address":"東京都調布市菊野台1丁目11-1","lat":35.65463524,"lon":139.56509551},{"name":"調布市社会福祉協議会","province":"東京都","city":"調布市","address":"調布市小島町2-47-1総合福祉センター内","lat":35.65127,"lon":139.54263},{"name":"調布市地域包括支援センターはなみずき","province":"東京都","city":"調布市","address":"調布市深大寺北町4-17-7","lat":35.679989,"lon":139.551575},{"name":"調布市地域包括支援センターちょうふの里","province":"東京都","city":"調布市","address":"調布市西町290-5","lat":35.666344,"lon":139.52269},{"name":"調布市地域包括支援センターせいじゅ","province":"東京都","city":"調布市","address":"調布市上石原3-54-2","lat":35.65004,"lon":139.52478},{"name":"調布市地域包括支援センターちょうふ花園","province":"東京都","city":"調布市","address":"調布市下石原3-44-1","lat":35.651432,"lon":139.533188},{"name":"調布市地域包括支援センター調布八雲苑","province":"東京都","city":"調布市","address":"調布市八雲台1-22-11階","lat":35.654781,"lon":139.553162},{"name":"調布市地域包括支援センター至誠しばさき","province":"東京都","city":"調布市","address":"調布市菊野台1-52-4","lat":35.655369,"lon":139.565491},{"name":"調布市地域包括支援センターときわぎ国領","province":"東京都","city":"調布市","address":"調布市国領町7-32-2デュスモン国領101","lat":35.644749,"lon":139.560547},{"name":"調布市地域包括支援センターゆうあい","province":"東京都","city":"調布市","address":"調布市国領町3-8-1","lat":35.650097,"lon":139.560684},{"name":"調布市地域包括支援センターつつじヶ丘","province":"東京都","city":"調布市","address":"調布市東つつじヶ丘1-5-2","lat":35.659683,"lon":139.576248},{"name":"調布市地域包括支援センター仙川","province":"東京都","city":"調布市","address":"調布市若葉町2-22-21階","lat":35.655972,"lon":139.589172},{"name":"調布市消費生活センター","province":"東京都","city":"調布市","address":"調布市小島町2-35-1","lat":35.650593,"lon":139.540894},{"name":"上石原浄水所","province":"東京都","city":"調布市","address":"東京都調布市上石原1丁目34-7","lat":35.66130335,"lon":139.53174555},{"name":"深大寺浄水所","province":"東京都","city":"調布市","address":"東京都調布市深大寺南町5丁目56-1","lat":35.66896104,"lon":139.55556797},{"name":"調布市立調布市民野球場","province":"東京都","city":"調布市","address":"東京都調布市染地2丁目43-1","lat":35.64025186,"lon":139.54681004},{"name":"調布市立調布中学校校庭","province":"東京都","city":"調布市","address":"東京都調布市富士見町4丁目17-1","lat":35.66535009,"lon":139.53516172},{"name":"調布市立第八中学校校庭","province":"東京都","city":"調布市","address":"東京都調布市仙川町2丁目15-2","lat":35.66445108,"lon":139.58169365},{"name":"調布市立第四中学校校庭","province":"東京都","city":"調布市","address":"東京都調布市若葉町3丁目15-1","lat":35.65392455,"lon":139.58283002},{"name":"調布市立第三中学校校庭","province":"東京都","city":"調布市","address":"東京都調布市染地3丁目2-7","lat":35.6414069,"lon":139.55643366},{"name":"調布市立神代中学校校庭","province":"東京都","city":"調布市","address":"東京都調布市佐須町5丁目26-1","lat":35.66162316,"lon":139.5616816},{"name":"調布市立布田小学校校庭","province":"東京都","city":"調布市","address":"東京都調布市染地1丁目1-85","lat":35.64330667,"lon":139.54542083},{"name":"調布市立第三小学校校庭","province":"東京都","city":"調布市","address":"東京都調布市上石原2丁目19-13","lat":35.65473491,"lon":139.52783806},{"name":"調布市立北ノ台小学校校庭","province":"東京都","city":"調布市","address":"東京都調布市深大寺北町2丁目41-1","lat":35.67543247,"lon":139.55284301},{"name":"神代植物公園","province":"東京都","city":"調布市","address":"東京都調布市深大寺元町5丁目","lat":35.66837758,"lon":139.54571333},{"name":"大町スポーツ施設大運動場","province":"東京都","city":"調布市","address":"東京都調布市菊野台3丁目27-40","lat":35.65252451,"lon":139.5724838},{"name":"調布市選挙管理委員会","province":"東京都","city":"調布市","address":"調布市小島町2-35-1","lat":35.65063,"lon":139.540805},{"name":"武蔵野の森総合スポーツ施設敷地","province":"東京都","city":"調布市","address":"東京都調布市","lat":35.65071619,"lon":139.54099257},{"name":"旧調布基地跡地整備関連事業用地","province":"東京都","city":"調布市","address":"東京都調布市","lat":35.65071619,"lon":139.54099257},{"name":"調布基地跡地整備関連事業用地","province":"東京都","city":"調布市","address":"東京都調布市","lat":35.65071619,"lon":139.54099257},{"name":"調布庁舎","province":"東京都","city":"調布市","address":"東京都調布市","lat":35.65071619,"lon":139.54099257},{"name":"味の素スタジアム（調布庁舎）","province":"東京都","city":"調布市","address":"東京都調布市西町376-3","lat":35.66355292,"lon":139.52508771},{"name":"神代高等学校","province":"東京都","city":"調布市","address":"東京都調布市若葉町1丁目46-1","lat":35.65693817,"lon":139.58619907},{"name":"調布北高等学校","province":"東京都","city":"調布市","address":"東京都調布市深大寺北町5丁目39-1","lat":35.67999023,"lon":139.54936542},{"name":"調布南高等学校","province":"東京都","city":"調布市","address":"東京都調布市多摩川6丁目2-1","lat":35.64401209,"lon":139.53953247},{"name":"東京都調布飛行場管理事務所","province":"東京都","city":"調布市","address":"調布市西町290-3","lat":35.668886,"lon":139.530212},{"name":"調布市社会福祉協議会","province":"東京都","city":"調布市","address":"調布市小島町2-47-1総合福祉センター2階","lat":35.651397,"lon":139.542753},{"name":"調布市社会福祉協議会","province":"東京都","city":"調布市","address":"調布市小島町2-47-1総合福祉センター内","lat":35.65127,"lon":139.54263},{"name":"調布市地域包括支援センターはなみずき","province":"東京都","city":"調布市","address":"調布市深大寺北町4-17-7","lat":35.679989,"lon":139.551575},{"name":"調布市地域包括支援センターちょうふの里","province":"東京都","city":"調布市","address":"調布市西町290-5","lat":35.666344,"lon":139.52269},{"name":"調布市地域包括支援センターせいじゅ","province":"東京都","city":"調布市","address":"調布市上石原3-54-2","lat":35.65004,"lon":139.52478},{"name":"調布市地域包括支援センターちょうふ花園","province":"東京都","city":"調布市","address":"調布市下石原3-44-1","lat":35.651432,"lon":139.533188},{"name":"調布市地域包括支援センター調布八雲苑","province":"東京都","city":"調布市","address":"調布市八雲台1-22-11階","lat":35.654781,"lon":139.553162},{"name":"調布市地域包括支援センター至誠しばさき","province":"東京都","city":"調布市","address":"調布市菊野台1-52-4","lat":35.655369,"lon":139.565491},{"name":"調布市地域包括支援センターときわぎ国領","province":"東京都","city":"調布市","address":"調布市国領町7-32-2デュスモン国領101","lat":35.644749,"lon":139.560547},{"name":"調布市地域包括支援センターゆうあい","province":"東京都","city":"調布市","address":"調布市国領町3-8-1","lat":35.650097,"lon":139.560684},{"name":"調布市地域包括支援センターつつじヶ丘","province":"東京都","city":"調布市","address":"調布市東つつじヶ丘1-5-2","lat":35.659683,"lon":139.576248},{"name":"調布市地域包括支援センター仙川","province":"東京都","city":"調布市","address":"調布市若葉町2-22-21階","lat":35.655972,"lon":139.589172},{"name":"調布市消費生活センター","province":"東京都","city":"調布市","address":"調布市小島町2-35-1","lat":35.650593,"lon":139.540894},{"name":"上石原浄水所","province":"東京都","city":"調布市","address":"東京都調布市上石原1丁目34-7","lat":35.66130335,"lon":139.53174555},{"name":"深大寺浄水所","province":"東京都","city":"調布市","address":"東京都調布市深大寺南町5丁目56-1","lat":35.66896104,"lon":139.55556797},{"name":"調布市立調布市民野球場","province":"東京都","city":"調布市","address":"東京都調布市染地2丁目43-1","lat":35.64025186,"lon":139.54681004},{"name":"調布市立調布中学校校庭","province":"東京都","city":"調布市","address":"東京都調布市富士見町4丁目17-1","lat":35.66535009,"lon":139.53516172},{"name":"調布市立第八中学校校庭","province":"東京都","city":"調布市","address":"東京都調布市仙川町2丁目15-2","lat":35.66445108,"lon":139.58169365},{"name":"調布市立第四中学校校庭","province":"東京都","city":"調布市","address":"東京都調布市若葉町3丁目15-1","lat":35.65392455,"lon":139.58283002},{"name":"調布市立第三中学校校庭","province":"東京都","city":"調布市","address":"東京都調布市染地3丁目2-7","lat":35.6414069,"lon":139.55643366},{"name":"調布市立神代中学校校庭","province":"東京都","city":"調布市","address":"東京都調布市佐須町5丁目26-1","lat":35.66162316,"lon":139.5616816},{"name":"調布市立布田小学校校庭","province":"東京都","city":"調布市","address":"東京都調布市染地1丁目1-85","lat":35.64330667,"lon":139.54542083},{"name":"調布市立第三小学校校庭","province":"東京都","city":"調布市","address":"東京都調布市上石原2丁目19-13","lat":35.65473491,"lon":139.52783806},{"name":"調布市立北ノ台小学校校庭","province":"東京都","city":"調布市","address":"東京都調布市深大寺北町2丁目41-1","lat":35.67543247,"lon":139.55284301},{"name":"神代植物公園","province":"東京都","city":"調布市","address":"東京都調布市深大寺元町5丁目","lat":35.66837758,"lon":139.54571333},{"name":"大町スポーツ施設大運動場","province":"東京都","city":"調布市","address":"東京都調布市菊野台3丁目27-40","lat":35.65252451,"lon":139.5724838},{"name":"味の素スタジアム（調布庁舎）","province":"東京都","city":"調布市","address":"東京都調布市西町376-3","lat":35.66355292,"lon":139.52508771},{"name":"神代高等学校","province":"東京都","city":"調布市","address":"東京都調布市若葉町1丁目46-1","lat":35.65693817,"lon":139.58619907},{"name":"調布北高等学校","province":"東京都","city":"調布市","address":"東京都調布市深大寺北町5丁目39-1","lat":35.67999023,"lon":139.54936542},{"name":"調布南高等学校","province":"東京都","city":"調布市","address":"東京都調布市多摩川6丁目2-1","lat":35.64401209,"lon":139.53953247},{"name":"東京都調布飛行場管理事務所","province":"東京都","city":"調布市","address":"調布市西町290-3","lat":35.668886,"lon":139.530212},{"name":"調布市地域包括支援センターはなみずき","province":"東京都","city":"調布市","address":"調布市深大寺北町4-17-7","lat":35.679989,"lon":139.551575},{"name":"調布市地域包括支援センターちょうふの里","province":"東京都","city":"調布市","address":"調布市西町290-5","lat":35.666344,"lon":139.52269},{"name":"調布市地域包括支援センターせいじゅ","province":"東京都","city":"調布市","address":"調布市上石原3-54-2","lat":35.65004,"lon":139.52478},{"name":"調布市地域包括支援センターちょうふ花園","province":"東京都","city":"調布市","address":"調布市下石原3-44-1","lat":35.651432,"lon":139.533188},{"name":"調布市地域包括支援センター調布八雲苑","province":"東京都","city":"調布市","address":"調布市八雲台1-22-11階","lat":35.654781,"lon":139.553162},{"name":"調布市地域包括支援センター至誠しばさき","province":"東京都","city":"調布市","address":"調布市菊野台1-52-4","lat":35.655369,"lon":139.565491},{"name":"調布市地域包括支援センターときわぎ国領","province":"東京都","city":"調布市","address":"調布市国領町7-32-2デュスモン国領101","lat":35.644749,"lon":139.560547},{"name":"調布市地域包括支援センターゆうあい","province":"東京都","city":"調布市","address":"調布市国領町3-8-1","lat":35.650097,"lon":139.560684},{"name":"調布市地域包括支援センターつつじヶ丘","province":"東京都","city":"調布市","address":"調布市東つつじヶ丘1-5-2","lat":35.659683,"lon":139.576248},{"name":"調布市地域包括支援センター仙川","province":"東京都","city":"調布市","address":"調布市若葉町2-22-21階","lat":35.655972,"lon":139.589172},{"name":"調布市消費生活センター","province":"東京都","city":"調布市","address":"調布市小島町2-35-1","lat":35.650593,"lon":139.540894},{"name":"味の素スタジアム（調布庁舎）","province":"東京都","city":"調布市","address":"東京都調布市西町376-3","lat":35.66355292,"lon":139.52508771},{"name":"神代高等学校","province":"東京都","city":"調布市","address":"東京都調布市若葉町1丁目46-1","lat":35.65693817,"lon":139.58619907},{"name":"調布北高等学校","province":"東京都","city":"調布市","address":"東京都調布市深大寺北町5丁目39-1","lat":35.67999023,"lon":139.54936542},{"name":"調布南高等学校","province":"東京都","city":"調布市","address":"東京都調布市多摩川6丁目2-1","lat":35.64401209,"lon":139.53953247},{"name":"調布市地域包括支援センターはなみずき","province":"東京都","city":"調布市","address":"調布市深大寺北町4-17-7","lat":35.679989,"lon":139.551575},{"name":"調布市地域包括支援センターちょうふの里","province":"東京都","city":"調布市","address":"調布市西町290-5","lat":35.666344,"lon":139.52269},{"name":"調布市地域包括支援センターせいじゅ","province":"東京都","city":"調布市","address":"調布市上石原3-54-2","lat":35.65004,"lon":139.52478},{"name":"調布市地域包括支援センターちょうふ花園","province":"東京都","city":"調布市","address":"調布市下石原3-44-1","lat":35.651432,"lon":139.533188},{"name":"調布市地域包括支援センター調布八雲苑","province":"東京都","city":"調布市","address":"調布市八雲台1-22-11階","lat":35.654781,"lon":139.553162},{"name":"調布市地域包括支援センター至誠しばさき","province":"東京都","city":"調布市","address":"調布市菊野台1-52-4","lat":35.655369,"lon":139.565491},{"name":"調布市地域包括支援センターときわぎ国領","province":"東京都","city":"調布市","address":"調布市国領町7-32-2デュスモン国領101","lat":35.644749,"lon":139.560547},{"name":"調布市地域包括支援センターゆうあい","province":"東京都","city":"調布市","address":"調布市国領町3-8-1","lat":35.650097,"lon":139.560684},{"name":"調布市地域包括支援センターつつじヶ丘","province":"東京都","city":"調布市","address":"調布市東つつじヶ丘1-5-2","lat":35.659683,"lon":139.576248},{"name":"調布市地域包括支援センター仙川","province":"東京都","city":"調布市","address":"調布市若葉町2-22-21階","lat":35.655972,"lon":139.589172},{"name":"調布市消費生活センター","province":"東京都","city":"調布市","address":"調布市小島町2-35-1","lat":35.650593,"lon":139.540894},{"name":"味の素スタジアム（調布庁舎）","province":"東京都","city":"調布市","address":"東京都調布市西町376-3","lat":35.66355292,"lon":139.52508771},{"name":"神代高等学校","province":"東京都","city":"調布市","address":"東京都調布市若葉町1丁目46-1","lat":35.65693817,"lon":139.58619907},{"name":"調布北高等学校","province":"東京都","city":"調布市","address":"東京都調布市深大寺北町5丁目39-1","lat":35.67999023,"lon":139.54936542},{"name":"調布南高等学校","province":"東京都","city":"調布市","address":"東京都調布市多摩川6丁目2-1","lat":35.64401209,"lon":139.53953247},{"name":"調布市地域包括支援センターはなみずき","province":"東京都","city":"調布市","address":"調布市深大寺北町4-17-7","lat":35.679989,"lon":139.551575},{"name":"調布市地域包括支援センターちょうふの里","province":"東京都","city":"調布市","address":"調布市西町290-5","lat":35.666344,"lon":139.52269},{"name":"調布市地域包括支援センターせいじゅ","province":"東京都","city":"調布市","address":"調布市上石原3-54-2","lat":35.65004,"lon":139.52478},{"name":"調布市地域包括支援センターちょうふ花園","province":"東京都","city":"調布市","address":"調布市下石原3-44-1","lat":35.651432,"lon":139.533188},{"name":"調布市地域包括支援センター調布八雲苑","province":"東京都","city":"調布市","address":"調布市八雲台1-22-11階","lat":35.654781,"lon":139.553162},{"name":"調布市地域包括支援センター至誠しばさき","province":"東京都","city":"調布市","address":"調布市菊野台1-52-4","lat":35.655369,"lon":139.565491},{"name":"調布市地域包括支援センターときわぎ国領","province":"東京都","city":"調布市","address":"調布市国領町7-32-2デュスモン国領101","lat":35.644749,"lon":139.560547},{"name":"調布市地域包括支援センターゆうあい","province":"東京都","city":"調布市","address":"調布市国領町3-8-1","lat":35.650097,"lon":139.560684},{"name":"調布市地域包括支援センターつつじヶ丘","province":"東京都","city":"調布市","address":"調布市東つつじヶ丘1-5-2","lat":35.659683,"lon":139.576248},{"name":"調布市地域包括支援センター仙川","province":"東京都","city":"調布市","address":"調布市若葉町2-22-21階","lat":35.655972,"lon":139.589172},{"name":"調布市消費生活センター","province":"東京都","city":"調布市","address":"調布市小島町2-35-1","lat":35.650593,"lon":139.540894},{"name":"調布市地域包括支援センターはなみずき","province":"東京都","city":"調布市","address":"調布市深大寺北町4-17-7","lat":35.679989,"lon":139.551575},{"name":"調布市地域包括支援センターちょうふの里","province":"東京都","city":"調布市","address":"調布市西町290-5","lat":35.666344,"lon":139.52269},{"name":"調布市地域包括支援センターせいじゅ","province":"東京都","city":"調布市","address":"調布市上石原3-54-2","lat":35.65004,"lon":139.52478},{"name":"調布市地域包括支援センターちょうふ花園","province":"東京都","city":"調布市","address":"調布市下石原3-44-1","lat":35.651432,"lon":139.533188},{"name":"調布市地域包括支援センター調布八雲苑","province":"東京都","city":"調布市","address":"調布市八雲台1-22-11階","lat":35.654781,"lon":139.553162},{"name":"調布市地域包括支援センター至誠しばさき","province":"東京都","city":"調布市","address":"調布市菊野台1-52-4","lat":35.655369,"lon":139.565491},{"name":"調布市地域包括支援センターときわぎ国領","province":"東京都","city":"調布市","address":"調布市国領町7-32-2デュスモン国領101","lat":35.644749,"lon":139.560547},{"name":"調布市地域包括支援センターゆうあい","province":"東京都","city":"調布市","address":"調布市国領町3-8-1","lat":35.650097,"lon":139.560684},{"name":"調布市地域包括支援センターつつじヶ丘","province":"東京都","city":"調布市","address":"調布市東つつじヶ丘1-5-2","lat":35.659683,"lon":139.576248},{"name":"調布市地域包括支援センター仙川","province":"東京都","city":"調布市","address":"調布市若葉町2-22-21階","lat":35.655972,"lon":139.589172},{"name":"調布市消費生活センター","province":"東京都","city":"調布市","address":"調布市小島町2-35-1","lat":35.650593,"lon":139.540894},{"name":"調布市地域包括支援センターはなみずき","province":"東京都","city":"調布市","address":"調布市深大寺北町4-17-7","lat":35.679989,"lon":139.551575},{"name":"調布市地域包括支援センターちょうふの里","province":"東京都","city":"調布市","address":"調布市西町290-5","lat":35.666344,"lon":139.52269},{"name":"調布市地域包括支援センターせいじゅ","province":"東京都","city":"調布市","address":"調布市上石原3-54-2","lat":35.65004,"lon":139.52478},{"name":"調布市地域包括支援センターちょうふ花園","province":"東京都","city":"調布市","address":"調布市下石原3-44-1","lat":35.651432,"lon":139.533188},{"name":"調布市地域包括支援センター調布八雲苑","province":"東京都","city":"調布市","address":"調布市八雲台1-22-11階","lat":35.654781,"lon":139.553162},{"name":"調布市地域包括支援センター至誠しばさき","province":"東京都","city":"調布市","address":"調布市菊野台1-52-4","lat":35.655369,"lon":139.565491},{"name":"調布市地域包括支援センターときわぎ国領","province":"東京都","city":"調布市","address":"調布市国領町7-32-2デュスモン国領101","lat":35.644749,"lon":139.560547},{"name":"調布市地域包括支援センターゆうあい","province":"東京都","city":"調布市","address":"調布市国領町3-8-1","lat":35.650097,"lon":139.560684},{"name":"調布市地域包括支援センターつつじヶ丘","province":"東京都","city":"調布市","address":"調布市東つつじヶ丘1-5-2","lat":35.659683,"lon":139.576248},{"name":"調布市地域包括支援センター仙川","province":"東京都","city":"調布市","address":"調布市若葉町2-22-21階","lat":35.655972,"lon":139.589172},{"name":"調布市消費生活センター","province":"東京都","city":"調布市","address":"調布市小島町2-35-1","lat":35.650593,"lon":139.540894},{"name":"調布市地域包括支援センターはなみずき","province":"東京都","city":"調布市","address":"調布市深大寺北町4-17-7","lat":35.679989,"lon":139.551575},{"name":"調布市地域包括支援センターちょうふの里","province":"東京都","city":"調布市","address":"調布市西町290-5","lat":35.666344,"lon":139.52269},{"name":"調布市地域包括支援センターせいじゅ","province":"東京都","city":"調布市","address":"調布市上石原3-54-2","lat":35.65004,"lon":139.52478},{"name":"調布市地域包括支援センターちょうふ花園","province":"東京都","city":"調布市","address":"調布市下石原3-44-1","lat":35.651432,"lon":139.533188},{"name":"調布市地域包括支援センター調布八雲苑","province":"東京都","city":"調布市","address":"調布市八雲台1-22-11階","lat":35.654781,"lon":139.553162},{"name":"調布市地域包括支援センター至誠しばさき","province":"東京都","city":"調布市","address":"調布市菊野台1-52-4","lat":35.655369,"lon":139.565491},{"name":"調布市地域包括支援センターときわぎ国領","province":"東京都","city":"調布市","address":"調布市国領町7-32-2デュスモン国領101","lat":35.644749,"lon":139.560547},{"name":"調布市地域包括支援センターゆうあい","province":"東京都","city":"調布市","address":"調布市国領町3-8-1","lat":35.650097,"lon":139.560684},{"name":"調布市地域包括支援センターつつじヶ丘","province":"東京都","city":"調布市","address":"調布市東つつじヶ丘1-5-2","lat":35.659683,"lon":139.576248},{"name":"調布市地域包括支援センター仙川","province":"東京都","city":"調布市","address":"調布市若葉町2-22-21階","lat":35.655972,"lon":139.589172},{"name":"調布市消費生活センター","province":"東京都","city":"調布市","address":"調布市小島町2-35-1","lat":35.650593,"lon":139.540894},{"name":"調布市地域包括支援センターはなみずき","province":"東京都","city":"調布市","address":"調布市深大寺北町4-17-7","lat":35.679989,"lon":139.551575},{"name":"調布市地域包括支援センターちょうふの里","province":"東京都","city":"調布市","address":"調布市西町290-5","lat":35.666344,"lon":139.52269},{"name":"調布市地域包括支援センターせいじゅ","province":"東京都","city":"調布市","address":"調布市上石原3-54-2","lat":35.65004,"lon":139.52478},{"name":"調布市地域包括支援センターちょうふ花園","province":"東京都","city":"調布市","address":"調布市下石原3-44-1","lat":35.651432,"lon":139.533188},{"name":"調布市地域包括支援センター調布八雲苑","province":"東京都","city":"調布市","address":"調布市八雲台1-22-11階","lat":35.654781,"lon":139.553162},{"name":"調布市地域包括支援センター至誠しばさき","province":"東京都","city":"調布市","address":"調布市菊野台1-52-4","lat":35.655369,"lon":139.565491},{"name":"調布市地域包括支援センターときわぎ国領","province":"東京都","city":"調布市","address":"調布市国領町7-32-2デュスモン国領101","lat":35.644749,"lon":139.560547},{"name":"調布市地域包括支援センターゆうあい","province":"東京都","city":"調布市","address":"調布市国領町3-8-1","lat":35.650097,"lon":139.560684},{"name":"調布市地域包括支援センターつつじヶ丘","province":"東京都","city":"調布市","address":"調布市東つつじヶ丘1-5-2","lat":35.659683,"lon":139.576248},{"name":"調布市地域包括支援センター仙川","province":"東京都","city":"調布市","address":"調布市若葉町2-22-21階","lat":35.655972,"lon":139.589172},{"name":"調布市消費生活センター","province":"東京都","city":"調布市","address":"調布市小島町2-35-1","lat":35.650593,"lon":139.540894},{"name":"調布市地域包括支援センターはなみずき","province":"東京都","city":"調布市","address":"調布市深大寺北町4-17-7","lat":35.679989,"lon":139.551575},{"name":"調布市地域包括支援センターちょうふの里","province":"東京都","city":"調布市","address":"調布市西町290-5","lat":35.666344,"lon":139.52269},{"name":"調布市地域包括支援センターせいじゅ","province":"東京都","city":"調布市","address":"調布市上石原3-54-2","lat":35.65004,"lon":139.52478},{"name":"調布市地域包括支援センターちょうふ花園","province":"東京都","city":"調布市","address":"調布市下石原3-44-1","lat":35.651432,"lon":139.533188},{"name":"調布市地域包括支援センター調布八雲苑","province":"東京都","city":"調布市","address":"調布市八雲台1-22-11階","lat":35.654781,"lon":139.553162},{"name":"調布市地域包括支援センター至誠しばさき","province":"東京都","city":"調布市","address":"調布市菊野台1-52-4","lat":35.655369,"lon":139.565491},{"name":"調布市地域包括支援センターときわぎ国領","province":"東京都","city":"調布市","address":"調布市国領町7-32-2デュスモン国領101","lat":35.644749,"lon":139.560547},{"name":"調布市地域包括支援センターゆうあい","province":"東京都","city":"調布市","address":"調布市国領町3-8-1","lat":35.650097,"lon":139.560684},{"name":"調布市地域包括支援センターつつじヶ丘","province":"東京都","city":"調布市","address":"調布市東つつじヶ丘1-5-2","lat":35.659683,"lon":139.576248},{"name":"調布市地域包括支援センター仙川","province":"東京都","city":"調布市","address":"調布市若葉町2-22-21階","lat":35.655972,"lon":139.589172},{"name":"調布市消費生活センター","province":"東京都","city":"調布市","address":"調布市小島町2-35-1","lat":35.650593,"lon":139.540894},{"name":"調布市地域包括支援センターはなみずき","province":"東京都","city":"調布市","address":"調布市深大寺北町4-17-7","lat":35.679989,"lon":139.551575},{"name":"調布市地域包括支援センターちょうふの里","province":"東京都","city":"調布市","address":"調布市西町290-5","lat":35.666344,"lon":139.52269},{"name":"調布市地域包括支援センターせいじゅ","province":"東京都","city":"調布市","address":"調布市上石原3-54-2","lat":35.65004,"lon":139.52478},{"name":"調布市地域包括支援センターちょうふ花園","province":"東京都","city":"調布市","address":"調布市下石原3-44-1","lat":35.651432,"lon":139.533188},{"name":"調布市地域包括支援センター調布八雲苑","province":"東京都","city":"調布市","address":"調布市八雲台1-22-11階","lat":35.654781,"lon":139.553162},{"name":"調布市地域包括支援センター至誠しばさき","province":"東京都","city":"調布市","address":"調布市菊野台1-52-4","lat":35.655369,"lon":139.565491},{"name":"調布市地域包括支援センターときわぎ国領","province":"東京都","city":"調布市","address":"調布市国領町7-32-2デュスモン国領101","lat":35.644749,"lon":139.560547},{"name":"調布市地域包括支援センターゆうあい","province":"東京都","city":"調布市","address":"調布市国領町3-8-1","lat":35.650097,"lon":139.560684},{"name":"調布市地域包括支援センターつつじヶ丘","province":"東京都","city":"調布市","address":"調布市東つつじヶ丘1-5-2","lat":35.659683,"lon":139.576248},{"name":"調布市地域包括支援センター仙川","province":"東京都","city":"調布市","address":"調布市若葉町2-22-21階","lat":35.655972,"lon":139.589172},{"name":"調布市消費生活センター","province":"東京都","city":"調布市","address":"調布市小島町2-35-1","lat":35.650593,"lon":139.540894},{"name":"調布市地域包括支援センターはなみずき","province":"東京都","city":"調布市","address":"調布市深大寺北町4-17-7","lat":35.679989,"lon":139.551575},{"name":"調布市地域包括支援センターちょうふの里","province":"東京都","city":"調布市","address":"調布市西町290-5","lat":35.666344,"lon":139.52269},{"name":"調布市地域包括支援センターせいじゅ","province":"東京都","city":"調布市","address":"調布市上石原3-54-2","lat":35.65004,"lon":139.52478},{"name":"調布市地域包括支援センターちょうふ花園","province":"東京都","city":"調布市","address":"調布市下石原3-44-1","lat":35.651432,"lon":139.533188},{"name":"調布市地域包括支援センター調布八雲苑","province":"東京都","city":"調布市","address":"調布市八雲台1-22-11階","lat":35.654781,"lon":139.553162},{"name":"調布市地域包括支援センター至誠しばさき","province":"東京都","city":"調布市","address":"調布市菊野台1-52-4","lat":35.655369,"lon":139.565491},{"name":"調布市地域包括支援センターときわぎ国領","province":"東京都","city":"調布市","address":"調布市国領町7-32-2デュスモン国領101","lat":35.644749,"lon":139.560547},{"name":"調布市地域包括支援センターゆうあい","province":"東京都","city":"調布市","address":"調布市国領町3-8-1","lat":35.650097,"lon":139.560684},{"name":"調布市地域包括支援センターつつじヶ丘","province":"東京都","city":"調布市","address":"調布市東つつじヶ丘1-5-2","lat":35.659683,"lon":139.576248},{"name":"調布市地域包括支援センター仙川","province":"東京都","city":"調布市","address":"調布市若葉町2-22-21階","lat":35.655972,"lon":139.589172},{"name":"調布市消費生活センター","province":"東京都","city":"調布市","address":"調布市小島町2-35-1","lat":35.650593,"lon":139.540894},{"name":"調布市地域包括支援センターはなみずき","province":"東京都","city":"調布市","address":"調布市深大寺北町4-17-7","lat":35.679989,"lon":139.551575},{"name":"調布市地域包括支援センターちょうふの里","province":"東京都","city":"調布市","address":"調布市西町290-5","lat":35.666344,"lon":139.52269},{"name":"調布市地域包括支援センターせいじゅ","province":"東京都","city":"調布市","address":"調布市上石原3-54-2","lat":35.65004,"lon":139.52478},{"name":"調布市地域包括支援センターちょうふ花園","province":"東京都","city":"調布市","address":"調布市下石原3-44-1","lat":35.651432,"lon":139.533188},{"name":"調布市地域包括支援センター調布八雲苑","province":"東京都","city":"調布市","address":"調布市八雲台1-22-11階","lat":35.654781,"lon":139.553162},{"name":"調布市地域包括支援センター至誠しばさき","province":"東京都","city":"調布市","address":"調布市菊野台1-52-4","lat":35.655369,"lon":139.565491},{"name":"調布市地域包括支援センターときわぎ国領","province":"東京都","city":"調布市","address":"調布市国領町7-32-2デュスモン国領101","lat":35.644749,"lon":139.560547},{"name":"調布市地域包括支援センターゆうあい","province":"東京都","city":"調布市","address":"調布市国領町3-8-1","lat":35.650097,"lon":139.560684},{"name":"調布市地域包括支援センターつつじヶ丘","province":"東京都","city":"調布市","address":"調布市東つつじヶ丘1-5-2","lat":35.659683,"lon":139.576248},{"name":"調布市地域包括支援センター仙川","province":"東京都","city":"調布市","address":"調布市若葉町2-22-21階","lat":35.655972,"lon":139.589172},{"name":"調布市消費生活センター","province":"東京都","city":"調布市","address":"調布市小島町2-35-1","lat":35.650593,"lon":139.540894},{"name":"調布市地域包括支援センターはなみずき","province":"東京都","city":"調布市","address":"調布市深大寺北町4-17-7","lat":35.679989,"lon":139.551575},{"name":"調布市地域包括支援センターちょうふの里","province":"東京都","city":"調布市","address":"調布市西町290-5","lat":35.666344,"lon":139.52269},{"name":"調布市地域包括支援センターせいじゅ","province":"東京都","city":"調布市","address":"調布市上石原3-54-2","lat":35.65004,"lon":139.52478},{"name":"調布市地域包括支援センターちょうふ花園","province":"東京都","city":"調布市","address":"調布市下石原3-44-1","lat":35.651432,"lon":139.533188},{"name":"調布市地域包括支援センター調布八雲苑","province":"東京都","city":"調布市","address":"調布市八雲台1-22-11階","lat":35.654781,"lon":139.553162},{"name":"調布市地域包括支援センター至誠しばさき","province":"東京都","city":"調布市","address":"調布市菊野台1-52-4","lat":35.655369,"lon":139.565491},{"name":"調布市地域包括支援センターときわぎ国領","province":"東京都","city":"調布市","address":"調布市国領町7-32-2デュスモン国領101","lat":35.644749,"lon":139.560547},{"name":"調布市地域包括支援センターゆうあい","province":"東京都","city":"調布市","address":"調布市国領町3-8-1","lat":35.650097,"lon":139.560684},{"name":"調布市地域包括支援センターつつじヶ丘","province":"東京都","city":"調布市","address":"調布市東つつじヶ丘1-5-2","lat":35.659683,"lon":139.576248},{"name":"調布市地域包括支援センター仙川","province":"東京都","city":"調布市","address":"調布市若葉町2-22-21階","lat":35.655972,"lon":139.589172},{"name":"調布市消費生活センター","province":"東京都","city":"調布市","address":"調布市小島町2-35-1","lat":35.650593,"lon":139.540894},{"name":"調布市地域包括支援センターはなみずき","province":"東京都","city":"調布市","address":"調布市深大寺北町4-17-7","lat":35.679989,"lon":139.551575},{"name":"調布市地域包括支援センターちょうふの里","province":"東京都","city":"調布市","address":"調布市西町290-5","lat":35.666344,"lon":139.52269},{"name":"調布市地域包括支援センターせいじゅ","province":"東京都","city":"調布市","address":"調布市上石原3-54-2","lat":35.65004,"lon":139.52478},{"name":"調布市地域包括支援センターちょうふ花園","province":"東京都","city":"調布市","address":"調布市下石原3-44-1","lat":35.651432,"lon":139.533188},{"name":"調布市地域包括支援センター調布八雲苑","province":"東京都","city":"調布市","address":"調布市八雲台1-22-11階","lat":35.654781,"lon":139.553162},{"name":"調布市地域包括支援センター至誠しばさき","province":"東京都","city":"調布市","address":"調布市菊野台1-52-4","lat":35.655369,"lon":139.565491},{"name":"調布市地域包括支援センターときわぎ国領","province":"東京都","city":"調布市","address":"調布市国領町7-32-2デュスモン国領101","lat":35.644749,"lon":139.560547},{"name":"調布市地域包括支援センターゆうあい","province":"東京都","city":"調布市","address":"調布市国領町3-8-1","lat":35.650097,"lon":139.560684},{"name":"調布市地域包括支援センターつつじヶ丘","province":"東京都","city":"調布市","address":"調布市東つつじヶ丘1-5-2","lat":35.659683,"lon":139.576248},{"name":"調布市地域包括支援センター仙川","province":"東京都","city":"調布市","address":"調布市若葉町2-22-21階","lat":35.655972,"lon":139.589172},{"name":"調布市消費生活センター","province":"東京都","city":"調布市","address":"調布市小島町2-35-1","lat":35.650593,"lon":139.540894},{"name":"調布市地域包括支援センターはなみずき","province":"東京都","city":"調布市","address":"調布市深大寺北町4-17-7","lat":35.679989,"lon":139.551575},{"name":"調布市地域包括支援センターちょうふの里","province":"東京都","city":"調布市","address":"調布市西町290-5","lat":35.666344,"lon":139.52269},{"name":"調布市地域包括支援センターせいじゅ","province":"東京都","city":"調布市","address":"調布市上石原3-54-2","lat":35.65004,"lon":139.52478},{"name":"調布市地域包括支援センターちょうふ花園","province":"東京都","city":"調布市","address":"調布市下石原3-44-1","lat":35.651432,"lon":139.533188},{"name":"調布市地域包括支援センター調布八雲苑","province":"東京都","city":"調布市","address":"調布市八雲台1-22-11階","lat":35.654781,"lon":139.553162},{"name":"調布市地域包括支援センター至誠しばさき","province":"東京都","city":"調布市","address":"調布市菊野台1-52-4","lat":35.655369,"lon":139.565491},{"name":"調布市地域包括支援センターときわぎ国領","province":"東京都","city":"調布市","address":"調布市国領町7-32-2デュスモン国領101","lat":35.644749,"lon":139.560547},{"name":"調布市地域包括支援センターゆうあい","province":"東京都","city":"調布市","address":"調布市国領町3-8-1","lat":35.650097,"lon":139.560684},{"name":"調布市地域包括支援センターつつじヶ丘","province":"東京都","city":"調布市","address":"調布市東つつじヶ丘1-5-2","lat":35.659683,"lon":139.576248},{"name":"調布市地域包括支援センター仙川","province":"東京都","city":"調布市","address":"調布市若葉町2-22-21階","lat":35.655972,"lon":139.589172},{"name":"調布市消費生活センター","province":"東京都","city":"調布市","address":"調布市小島町2-35-1","lat":35.650593,"lon":139.540894},{"name":"調布市地域包括支援センターはなみずき","province":"東京都","city":"調布市","address":"調布市深大寺北町4-17-7","lat":35.679989,"lon":139.551575},{"name":"調布市地域包括支援センターちょうふの里","province":"東京都","city":"調布市","address":"調布市西町290-5","lat":35.666344,"lon":139.52269},{"name":"調布市地域包括支援センターせいじゅ","province":"東京都","city":"調布市","address":"調布市上石原3-54-2","lat":35.65004,"lon":139.52478},{"name":"調布市地域包括支援センターちょうふ花園","province":"東京都","city":"調布市","address":"調布市下石原3-44-1","lat":35.651432,"lon":139.533188},{"name":"調布市地域包括支援センター調布八雲苑","province":"東京都","city":"調布市","address":"調布市八雲台1-22-11階","lat":35.654781,"lon":139.553162},{"name":"調布市地域包括支援センター至誠しばさき","province":"東京都","city":"調布市","address":"調布市菊野台1-52-4","lat":35.655369,"lon":139.565491},{"name":"調布市地域包括支援センターときわぎ国領","province":"東京都","city":"調布市","address":"調布市国領町7-32-2デュスモン国領101","lat":35.644749,"lon":139.560547},{"name":"調布市地域包括支援センターゆうあい","province":"東京都","city":"調布市","address":"調布市国領町3-8-1","lat":35.650097,"lon":139.560684},{"name":"調布市地域包括支援センターつつじヶ丘","province":"東京都","city":"調布市","address":"調布市東つつじヶ丘1-5-2","lat":35.659683,"lon":139.576248},{"name":"調布市地域包括支援センター仙川","province":"東京都","city":"調布市","address":"調布市若葉町2-22-21階","lat":35.655972,"lon":139.589172},{"name":"調布市消費生活センター","province":"東京都","city":"調布市","address":"調布市小島町2-35-1","lat":35.650593,"lon":139.540894},{"name":"調布市地域包括支援センターはなみずき","province":"東京都","city":"調布市","address":"調布市深大寺北町4-17-7","lat":35.679989,"lon":139.551575},{"name":"調布市地域包括支援センターちょうふの里","province":"東京都","city":"調布市","address":"調布市西町290-5","lat":35.666344,"lon":139.52269},{"name":"調布市地域包括支援センターせいじゅ","province":"東京都","city":"調布市","address":"調布市上石原3-54-2","lat":35.65004,"lon":139.52478},{"name":"調布市地域包括支援センターちょうふ花園","province":"東京都","city":"調布市","address":"調布市下石原3-44-1","lat":35.651432,"lon":139.533188},{"name":"調布市地域包括支援センター調布八雲苑","province":"東京都","city":"調布市","address":"調布市八雲台1-22-11階","lat":35.654781,"lon":139.553162},{"name":"調布市地域包括支援センター至誠しばさき","province":"東京都","city":"調布市","address":"調布市菊野台1-52-4","lat":35.655369,"lon":139.565491},{"name":"調布市地域包括支援センターときわぎ国領","province":"東京都","city":"調布市","address":"調布市国領町7-32-2デュスモン国領101","lat":35.644749,"lon":139.560547},{"name":"調布市地域包括支援センターゆうあい","province":"東京都","city":"調布市","address":"調布市国領町3-8-1","lat":35.650097,"lon":139.560684},{"name":"調布市地域包括支援センターつつじヶ丘","province":"東京都","city":"調布市","address":"調布市東つつじヶ丘1-5-2","lat":35.659683,"lon":139.576248},{"name":"調布市地域包括支援センター仙川","province":"東京都","city":"調布市","address":"調布市若葉町2-22-21階","lat":35.655972,"lon":139.589172},{"name":"調布市消費生活センター","province":"東京都","city":"調布市","address":"調布市小島町2-35-1","lat":35.650593,"lon":139.540894},{"name":"調布市地域包括支援センターはなみずき","province":"東京都","city":"調布市","address":"調布市深大寺北町4-17-7","lat":35.679989,"lon":139.551575},{"name":"調布市地域包括支援センターちょうふの里","province":"東京都","city":"調布市","address":"調布市西町290-5","lat":35.666344,"lon":139.52269},{"name":"調布市地域包括支援センターせいじゅ","province":"東京都","city":"調布市","address":"調布市上石原3-54-2","lat":35.65004,"lon":139.52478},{"name":"調布市地域包括支援センターちょうふ花園","province":"東京都","city":"調布市","address":"調布市下石原3-44-1","lat":35.651432,"lon":139.533188},{"name":"調布市地域包括支援センター調布八雲苑","province":"東京都","city":"調布市","address":"調布市八雲台1-22-11階","lat":35.654781,"lon":139.553162},{"name":"調布市地域包括支援センター至誠しばさき","province":"東京都","city":"調布市","address":"調布市菊野台1-52-4","lat":35.655369,"lon":139.565491},{"name":"調布市地域包括支援センターときわぎ国領","province":"東京都","city":"調布市","address":"調布市国領町7-32-2デュスモン国領101","lat":35.644749,"lon":139.560547},{"name":"調布市地域包括支援センターゆうあい","province":"東京都","city":"調布市","address":"調布市国領町3-8-1","lat":35.650097,"lon":139.560684},{"name":"調布市地域包括支援センターつつじヶ丘","province":"東京都","city":"調布市","address":"調布市東つつじヶ丘1-5-2","lat":35.659683,"lon":139.576248},{"name":"調布市地域包括支援センター仙川","province":"東京都","city":"調布市","address":"調布市若葉町2-22-21階","lat":35.655972,"lon":139.589172},{"name":"調布市消費生活センター","province":"東京都","city":"調布市","address":"調布市小島町2-35-1","lat":35.650593,"lon":139.540894},{"name":"調布市地域包括支援センターはなみずき","province":"東京都","city":"調布市","address":"調布市深大寺北町4-17-7","lat":35.679989,"lon":139.551575},{"name":"調布市地域包括支援センターちょうふの里","province":"東京都","city":"調布市","address":"調布市西町290-5","lat":35.666344,"lon":139.52269},{"name":"調布市地域包括支援センターせいじゅ","province":"東京都","city":"調布市","address":"調布市上石原3-54-2","lat":35.65004,"lon":139.52478},{"name":"調布市地域包括支援センターちょうふ花園","province":"東京都","city":"調布市","address":"調布市下石原3-44-1","lat":35.651432,"lon":139.533188},{"name":"調布市地域包括支援センター調布八雲苑","province":"東京都","city":"調布市","address":"調布市八雲台1-22-11階","lat":35.654781,"lon":139.553162},{"name":"調布市地域包括支援センター至誠しばさき","province":"東京都","city":"調布市","address":"調布市菊野台1-52-4","lat":35.655369,"lon":139.565491},{"name":"調布市地域包括支援センターときわぎ国領","province":"東京都","city":"調布市","address":"調布市国領町7-32-2デュスモン国領101","lat":35.644749,"lon":139.560547},{"name":"調布市地域包括支援センターゆうあい","province":"東京都","city":"調布市","address":"調布市国領町3-8-1","lat":35.650097,"lon":139.560684},{"name":"調布市地域包括支援センターつつじヶ丘","province":"東京都","city":"調布市","address":"調布市東つつじヶ丘1-5-2","lat":35.659683,"lon":139.576248},{"name":"調布市地域包括支援センター仙川","province":"東京都","city":"調布市","address":"調布市若葉町2-22-21階","lat":35.655972,"lon":139.589172},{"name":"調布市消費生活センター","province":"東京都","city":"調布市","address":"調布市小島町2-35-1","lat":35.650593,"lon":139.540894},{"name":"調布市地域包括支援センターはなみずき","province":"東京都","city":"調布市","address":"調布市深大寺北町4-17-7","lat":35.679989,"lon":139.551575},{"name":"調布市地域包括支援センターちょうふの里","province":"東京都","city":"調布市","address":"調布市西町290-5","lat":35.666344,"lon":139.52269},{"name":"調布市地域包括支援センターせいじゅ","province":"東京都","city":"調布市","address":"調布市上石原3-54-2","lat":35.65004,"lon":139.52478},{"name":"調布市地域包括支援センターちょうふ花園","province":"東京都","city":"調布市","address":"調布市下石原3-44-1","lat":35.651432,"lon":139.533188},{"name":"調布市地域包括支援センター調布八雲苑","province":"東京都","city":"調布市","address":"調布市八雲台1-22-11階","lat":35.654781,"lon":139.553162},{"name":"調布市地域包括支援センター至誠しばさき","province":"東京都","city":"調布市","address":"調布市菊野台1-52-4","lat":35.655369,"lon":139.565491},{"name":"調布市地域包括支援センターときわぎ国領","province":"東京都","city":"調布市","address":"調布市国領町7-32-2デュスモン国領101","lat":35.644749,"lon":139.560547},{"name":"調布市地域包括支援センターゆうあい","province":"東京都","city":"調布市","address":"調布市国領町3-8-1","lat":35.650097,"lon":139.560684},{"name":"調布市地域包括支援センターつつじヶ丘","province":"東京都","city":"調布市","address":"調布市東つつじヶ丘1-5-2","lat":35.659683,"lon":139.576248},{"name":"調布市地域包括支援センター仙川","province":"東京都","city":"調布市","address":"調布市若葉町2-22-21階","lat":35.655972,"lon":139.589172},{"name":"調布市消費生活センター","province":"東京都","city":"調布市","address":"調布市小島町2-35-1","lat":35.650593,"lon":139.540894}]}