{"keyword":"放課後","data":[{"name":"放課後等デイサービス　わかば","province":"東京都","city":"調布市","address":"調布市若葉町二丁目26番29号ミタムラビル1階","lat":35.65698,"lon":139.589565},{"name":"ポコポコ・ホッピング神代団地","province":"東京都","city":"調布市","address":"調布市西つつじケ丘4-23神代団地33-103","lat":35.650103,"lon":139.576936},{"name":"アーリーバード　柴崎","province":"東京都","city":"調布市","address":"調布市菊野台一丁目52番地4三高家ビル2A","lat":35.655399,"lon":139.56567},{"name":"ゆうゆうくらぶ","province":"東京都","city":"調布市","address":"調布市柴崎1-56-1サニーハイツ1階","lat":35.659268,"lon":139.564973},{"name":"Green","province":"東京都","city":"調布市","address":"調布市調布ケ丘4-41-2","lat":35.662459,"lon":139.545539},{"name":"ちょうふの風","province":"東京都","city":"調布市","address":"調布市国領町3-8-15くすのきアパート5号棟114号","lat":35.648614,"lon":139.560591},{"name":"ふくふく","province":"東京都","city":"調布市","address":"調布市国領町5-74-1-103","lat":35.648969,"lon":139.551247},{"name":"ハッピーテラス調布教室","province":"東京都","city":"調布市","address":"調布市国領町1-9-3小谷田ビル1階103号室","lat":35.651158,"lon":139.551969},{"name":"ふみ月チャレンジ染地","province":"東京都","city":"調布市","address":"調布市染地1-17-15","lat":35.641979,"lon":139.548582},{"name":"クレヨンキッズ","province":"東京都","city":"調布市","address":"調布市布田2-4-10布田ビル1F","lat":35.65391,"lon":139.548575},{"name":"たんぽぽ","province":"東京都","city":"調布市","address":"調布市布田2-51-10トービル調布201","lat":35.650366,"lon":139.550092},{"name":"ドリームボックス　布田","province":"東京都","city":"調布市","address":"調布市布田3-55-17","lat":35.646725,"lon":139.550353},{"name":"アーリーバード","province":"東京都","city":"調布市","address":"調布市多摩川5-7-4","lat":35.644337,"lon":139.537185},{"name":"ふみ月チャレンジたま川","province":"東京都","city":"調布市","address":"調布市多摩川5-24-18","lat":35.643379,"lon":139.536647},{"name":"調布市総合福祉センター　放課後等デイサービス　ぴっころ","province":"東京都","city":"調布市","address":"調布市小島町2-47-1","lat":35.651397,"lon":139.542753},{"name":"通所運動療育障がい児リハビリセンター調布","province":"東京都","city":"調布市","address":"調布市小島町3-88-2","lat":35.645701,"lon":139.541104},{"name":"ポコポコ・ホッピング富士見町","province":"東京都","city":"調布市","address":"調布市富士見町2-17-17","lat":35.659376,"lon":139.54015},{"name":"れいんぼー","province":"東京都","city":"調布市","address":"調布市富士見町4-30-20","lat":35.668591,"lon":139.536136},{"name":"にこにこキッズルーム","province":"東京都","city":"調布市","address":"調布市下石原1-2-4ヤシマビル2階","lat":35.657687,"lon":139.53409},{"name":"ドリームボックス下石原","province":"東京都","city":"調布市","address":"調布市下石原一丁目32番地6下石原プラザ101号室","lat":35.656426,"lon":139.534535},{"name":"放課後等デイサービス　わかば　西調布店","province":"東京都","city":"調布市","address":"調布市下石原1-8-1西谷調布ビル102","lat":35.657979,"lon":139.536137}]}