{"keyword":"月間","data":[{"name":"金子地域福祉センター","province":"東京都","city":"調布市","address":"東京都調布市西つつじケ丘4丁目43-3","lat":35.65099983,"lon":139.57897493},{"name":"西部地域福祉センター","province":"東京都","city":"調布市","address":"東京都調布市上石原2丁目15-6","lat":35.65561806,"lon":139.52528822},{"name":"調布ケ丘地域福祉センター","province":"東京都","city":"調布市","address":"東京都調布市調布ケ丘3丁目58-2","lat":35.65984534,"lon":139.55029097},{"name":"染地地域福祉センター","province":"東京都","city":"調布市","address":"東京都調布市染地3丁目3-1","lat":35.6398517,"lon":139.55539232},{"name":"緑ケ丘地域福祉センター","province":"東京都","city":"調布市","address":"東京都調布市緑ケ丘2丁目18-49","lat":35.66934778,"lon":139.58393216},{"name":"菊野台地域福祉センター","province":"東京都","city":"調布市","address":"東京都調布市菊野台1丁目38-1","lat":35.6575349,"lon":139.56605641},{"name":"富士見地域福祉センター","province":"東京都","city":"調布市","address":"東京都調布市富士見町4丁目15-6","lat":35.66394193,"lon":139.53463406},{"name":"下石原地域福祉センター","province":"東京都","city":"調布市","address":"東京都調布市下石原3丁目72-1","lat":35.64757805,"lon":139.53469647},{"name":"入間地域福祉センター","province":"東京都","city":"調布市","address":"東京都調布市入間町1丁目13-2","lat":35.65381911,"lon":139.58733797},{"name":"深大寺地域福祉センター","province":"東京都","city":"調布市","address":"東京都調布市深大寺北町2丁目40-1","lat":35.67473531,"lon":139.55157926},{"name":"調布基地跡地運動広場及び大沢総合グラウンド一部","province":"東京都","city":"調布市","address":"東京都調布市西町","lat":35.66389176,"lon":139.5250488},{"name":"都立神代植物公園周辺及び自由広場","province":"東京都","city":"調布市","address":"東京都調布市深大寺元町5丁目31-10","lat":35.67232991,"lon":139.54589097},{"name":"多摩川河川敷（第１区）周辺（府中市境～多摩川原橋）","province":"東京都","city":"調布市","address":"東京都調布市多摩川2丁目7","lat":35.64668361,"lon":139.52516685},{"name":"多摩川河川敷（第２区）周辺（多摩川原橋～二ヶ領堰）","province":"東京都","city":"調布市","address":"東京都調布市多摩川5丁目32","lat":35.64222084,"lon":139.5374996},{"name":"多摩川河川敷（第３区）周辺（二ヶ領堰～狛江市境）","province":"東京都","city":"調布市","address":"東京都調布市染地2丁目51","lat":35.63780777,"lon":139.55282904},{"name":"市立調和小学校周辺","province":"東京都","city":"調布市","address":"東京都調布市菊野台3丁目27-40","lat":35.65252451,"lon":139.5724838},{"name":"市立神代中学校・上ノ原小学校周辺","province":"東京都","city":"調布市","address":"東京都調布市佐須町5丁目26-1","lat":35.66162316,"lon":139.5616816},{"name":"市立緑ケ丘小学校周辺","province":"東京都","city":"調布市","address":"東京都調布市緑ケ丘2丁目16-1","lat":35.66996995,"lon":139.58474318},{"name":"ＮＴＴ中央研修センター","province":"東京都","city":"調布市","address":"東京都調布市入間町2丁目","lat":35.64862239,"lon":139.58154701},{"name":"市立第４中学校・若葉小学校周辺","province":"東京都","city":"調布市","address":"東京都調布市若葉町3丁目15-1","lat":35.65392455,"lon":139.58283002},{"name":"放課後等デイサービス　わかば","province":"東京都","city":"調布市","address":"調布市若葉町二丁目26番29号ミタムラビル1階","lat":35.65698,"lon":139.589565},{"name":"ポコポコ・ホッピング神代団地","province":"東京都","city":"調布市","address":"調布市西つつじケ丘4-23神代団地33-103","lat":35.650103,"lon":139.576936},{"name":"アーリーバード　柴崎","province":"東京都","city":"調布市","address":"調布市菊野台一丁目52番地4三高家ビル2A","lat":35.655399,"lon":139.56567},{"name":"ゆうゆうくらぶ","province":"東京都","city":"調布市","address":"調布市柴崎1-56-1サニーハイツ1階","lat":35.659268,"lon":139.564973},{"name":"Green","province":"東京都","city":"調布市","address":"調布市調布ケ丘4-41-2","lat":35.662459,"lon":139.545539},{"name":"ちょうふの風","province":"東京都","city":"調布市","address":"調布市国領町3-8-15くすのきアパート5号棟114号","lat":35.648614,"lon":139.560591},{"name":"ふくふく","province":"東京都","city":"調布市","address":"調布市国領町5-74-1-103","lat":35.648969,"lon":139.551247},{"name":"ハッピーテラス調布教室","province":"東京都","city":"調布市","address":"調布市国領町1-9-3小谷田ビル1階103号室","lat":35.651158,"lon":139.551969},{"name":"ふみ月チャレンジ染地","province":"東京都","city":"調布市","address":"調布市染地1-17-15","lat":35.641979,"lon":139.548582},{"name":"クレヨンキッズ","province":"東京都","city":"調布市","address":"調布市布田2-4-10布田ビル1F","lat":35.65391,"lon":139.548575},{"name":"たんぽぽ","province":"東京都","city":"調布市","address":"調布市布田2-51-10トービル調布201","lat":35.650366,"lon":139.550092},{"name":"ドリームボックス　布田","province":"東京都","city":"調布市","address":"調布市布田3-55-17","lat":35.646725,"lon":139.550353},{"name":"アーリーバード","province":"東京都","city":"調布市","address":"調布市多摩川5-7-4","lat":35.644337,"lon":139.537185},{"name":"ふみ月チャレンジたま川","province":"東京都","city":"調布市","address":"調布市多摩川5-24-18","lat":35.643379,"lon":139.536647},{"name":"調布市総合福祉センター　放課後等デイサービス　ぴっころ","province":"東京都","city":"調布市","address":"調布市小島町2-47-1","lat":35.651397,"lon":139.542753},{"name":"通所運動療育障がい児リハビリセンター調布","province":"東京都","city":"調布市","address":"調布市小島町3-88-2","lat":35.645701,"lon":139.541104},{"name":"ポコポコ・ホッピング富士見町","province":"東京都","city":"調布市","address":"調布市富士見町2-17-17","lat":35.659376,"lon":139.54015},{"name":"れいんぼー","province":"東京都","city":"調布市","address":"調布市富士見町4-30-20","lat":35.668591,"lon":139.536136},{"name":"にこにこキッズルーム","province":"東京都","city":"調布市","address":"調布市下石原1-2-4ヤシマビル2階","lat":35.657687,"lon":139.53409},{"name":"ドリームボックス下石原","province":"東京都","city":"調布市","address":"調布市下石原一丁目32番地6下石原プラザ101号室","lat":35.656426,"lon":139.534535},{"name":"放課後等デイサービス　わかば　西調布店","province":"東京都","city":"調布市","address":"調布市下石原1-8-1西谷調布ビル102","lat":35.657979,"lon":139.536137},{"name":"調布市子ども家庭支援センターすこやか","province":"東京都","city":"調布市","address":"調布市国領町3-1-38ココスクエア2階","lat":35.649608,"lon":139.558644},{"name":"調布市子ども家庭支援センターすこやか","province":"東京都","city":"調布市","address":"調布市国領町3-1-38ココスクエア2階","lat":35.64957,"lon":139.55869},{"name":"御塔坂橋北","province":"東京都","city":"調布市","address":"東京都調布市深大寺元町3丁目1","lat":35.6658612,"lon":139.54374139},{"name":"旧甲州街道入口","province":"東京都","city":"調布市","address":"東京都調布市国領町2丁目18-4","lat":35.65227161,"lon":139.5597767},{"name":"国領駅入口","province":"東京都","city":"調布市","address":"東京都調布市国領町1丁目45-11","lat":35.65064961,"lon":139.55676599},{"name":"仙川駅入口","province":"東京都","city":"調布市","address":"東京都調布市仙川町2丁目19-5","lat":35.66328458,"lon":139.58346575},{"name":"上石原","province":"東京都","city":"調布市","address":"東京都調布市富士見町1丁目1","lat":35.66012856,"lon":139.53295109},{"name":"味の素スタジアム西","province":"東京都","city":"調布市","address":"東京都調布市西町290","lat":35.66924671,"lon":139.53010368},{"name":"調布駅西","province":"東京都","city":"調布市","address":"東京都調布市小島町1丁目36-16","lat":35.65269349,"lon":139.54303928},{"name":"布多天神前","province":"東京都","city":"調布市","address":"東京都調布市調布ケ丘1丁目6","lat":35.65539583,"lon":139.54488332},{"name":"不動前","province":"東京都","city":"調布市","address":"東京都調布市国領町1丁目2-8","lat":35.65169097,"lon":139.55134967},{"name":"国領町八丁目","province":"東京都","city":"調布市","address":"東京都調布市国領町4丁目51-1","lat":35.64605871,"lon":139.56218803},{"name":"深大寺北町一丁目","province":"東京都","city":"調布市","address":"東京都調布市深大寺北町7丁目27","lat":35.67532402,"lon":139.54521317},{"name":"つつじヶ丘交番前","province":"東京都","city":"調布市","address":"東京都調布市西つつじケ丘3丁目31-2","lat":35.65925155,"lon":139.57431952},{"name":"多摩川団地交番前","province":"東京都","city":"調布市","address":"東京都調布市染地3丁目1-498","lat":35.63967659,"lon":139.55987229},{"name":"調布駅南入口","province":"東京都","city":"調布市","address":"東京都調布市布田5丁目1","lat":35.64839998,"lon":139.54339535},{"name":"調布駅北","province":"東京都","city":"調布市","address":"東京都調布市布田1丁目37-16","lat":35.65298507,"lon":139.54419187},{"name":"調布中学校前","province":"東京都","city":"調布市","address":"東京都調布市富士見町4丁目17-1","lat":35.66535009,"lon":139.53516172},{"name":"仙川橋","province":"東京都","city":"調布市","address":"東京都調布市緑ケ丘2丁目56","lat":35.66533724,"lon":139.5879153},{"name":"国領駅南","province":"東京都","city":"調布市","address":"東京都調布市国領町3丁目1-38","lat":35.64966092,"lon":139.55874091},{"name":"調布第三小学校入口","province":"東京都","city":"調布市","address":"東京都調布市上石原2丁目41","lat":35.65508765,"lon":139.52915735},{"name":"飛田給小入口","province":"東京都","city":"調布市","address":"東京都調布市飛田給2丁目42-7","lat":35.65689285,"lon":139.52534091},{"name":"飛田給小入口第二","province":"東京都","city":"調布市","address":"東京都調布市飛田給2丁目42-7","lat":35.65689285,"lon":139.52534091},{"name":"野川馬橋西","province":"東京都","city":"調布市","address":"東京都調布市国領町2丁目26","lat":35.65327149,"lon":139.56242638},{"name":"調布市役所前","province":"東京都","city":"調布市","address":"東京都調布市小島町2丁目35-1","lat":35.65059399,"lon":139.5406704},{"name":"布田一丁目","province":"東京都","city":"調布市","address":"東京都調布市布田1丁目25-2","lat":35.65270176,"lon":139.54599168},{"name":"国領町三丁目","province":"東京都","city":"調布市","address":"東京都調布市国領町3丁目8","lat":35.64928321,"lon":139.5611518},{"name":"飛田給二丁目","province":"東京都","city":"調布市","address":"東京都調布市飛田給2丁目19","lat":35.65929519,"lon":139.52253264},{"name":"飛田給二丁目東","province":"東京都","city":"調布市","address":"東京都調布市飛田給2丁目24-7","lat":35.65814817,"lon":139.52361597},{"name":"飛田給駅南口","province":"東京都","city":"調布市","address":"東京都調布市飛田給2丁目13-12","lat":35.65893411,"lon":139.52149665},{"name":"調布総合体育館南","province":"東京都","city":"調布市","address":"東京都調布市深大寺北町2丁目2","lat":35.6716801,"lon":139.55205709},{"name":"調布郵便局前","province":"東京都","city":"調布市","address":"東京都調布市国領町2丁目14","lat":35.65227714,"lon":139.55834905},{"name":"調布ヶ丘一丁目","province":"東京都","city":"調布市","address":"東京都調布市調布ケ丘1丁目34-1","lat":35.65472366,"lon":139.54680532},{"name":"国領小学校西","province":"東京都","city":"調布市","address":"東京都調布市国領町8丁目1-55","lat":35.64866387,"lon":139.56351548},{"name":"調布駅入口","province":"東京都","city":"調布市","address":"東京都調布市調布ケ丘1丁目5-1","lat":35.65564303,"lon":139.54430838},{"name":"調布市文化プラザ前","province":"東京都","city":"調布市","address":"東京都調布市小島町2丁目34","lat":35.6508828,"lon":139.54196187},{"name":"調布警察署前","province":"東京都","city":"調布市","address":"東京都調布市国領町2丁目25-1","lat":35.65292432,"lon":139.56223197},{"name":"調布駅南","province":"東京都","city":"調布市","address":"東京都調布市布田4丁目17-10","lat":35.65041342,"lon":139.54403667},{"name":"調布駅南第二","province":"東京都","city":"調布市","address":"東京都調布市小島町2丁目52-1","lat":35.64983578,"lon":139.54309243},{"name":"東京スタジアム前","province":"東京都","city":"調布市","address":"東京都調布市飛田給1丁目34-17","lat":35.66310853,"lon":139.52479608},{"name":"飛田給駅入口","province":"東京都","city":"調布市","address":"東京都調布市飛田給1丁目26-1","lat":35.66123655,"lon":139.52347964},{"name":"飛田給小学校前","province":"東京都","city":"調布市","address":"東京都調布市上石原3丁目3","lat":35.65435992,"lon":139.52418564},{"name":"国領駅前","province":"東京都","city":"調布市","address":"東京都調布市国領町4丁目8-1","lat":35.64947482,"lon":139.5574827},{"name":"布田駅前第一","province":"東京都","city":"調布市","address":"東京都調布市国領町5丁目70-1","lat":35.64951641,"lon":139.55109439},{"name":"布田駅前第二","province":"東京都","city":"調布市","address":"東京都調布市布田2丁目51-6","lat":35.65026625,"lon":139.55079711},{"name":"上石原浄水所","province":"東京都","city":"調布市","address":"東京都調布市上石原1丁目34-7","lat":35.66130335,"lon":139.53174555},{"name":"深大寺浄水所","province":"東京都","city":"調布市","address":"東京都調布市深大寺南町5丁目56-1","lat":35.66896104,"lon":139.55556797},{"name":"調布市立調布市民野球場","province":"東京都","city":"調布市","address":"東京都調布市染地2丁目43-1","lat":35.64025186,"lon":139.54681004},{"name":"調布市立調布中学校校庭","province":"東京都","city":"調布市","address":"東京都調布市富士見町4丁目17-1","lat":35.66535009,"lon":139.53516172},{"name":"調布市立第八中学校校庭","province":"東京都","city":"調布市","address":"東京都調布市仙川町2丁目15-2","lat":35.66445108,"lon":139.58169365},{"name":"調布市立第四中学校校庭","province":"東京都","city":"調布市","address":"東京都調布市若葉町3丁目15-1","lat":35.65392455,"lon":139.58283002},{"name":"調布市立第三中学校校庭","province":"東京都","city":"調布市","address":"東京都調布市染地3丁目2-7","lat":35.6414069,"lon":139.55643366},{"name":"調布市立神代中学校校庭","province":"東京都","city":"調布市","address":"東京都調布市佐須町5丁目26-1","lat":35.66162316,"lon":139.5616816},{"name":"調布市立布田小学校校庭","province":"東京都","city":"調布市","address":"東京都調布市染地1丁目1-85","lat":35.64330667,"lon":139.54542083},{"name":"調布市立第三小学校校庭","province":"東京都","city":"調布市","address":"東京都調布市上石原2丁目19-13","lat":35.65473491,"lon":139.52783806},{"name":"調布市立北ノ台小学校校庭","province":"東京都","city":"調布市","address":"東京都調布市深大寺北町2丁目41-1","lat":35.67543247,"lon":139.55284301},{"name":"神代植物公園","province":"東京都","city":"調布市","address":"東京都調布市深大寺元町5丁目","lat":35.66837758,"lon":139.54571333},{"name":"大町スポーツ施設大運動場","province":"東京都","city":"調布市","address":"東京都調布市菊野台3丁目27-40","lat":35.65252451,"lon":139.5724838},{"name":"武蔵野の森総合スポーツ施設敷地","province":"東京都","city":"調布市","address":"東京都調布市","lat":35.65071619,"lon":139.54099257},{"name":"旧調布基地跡地整備関連事業用地","province":"東京都","city":"調布市","address":"東京都調布市","lat":35.65071619,"lon":139.54099257},{"name":"調布基地跡地整備関連事業用地","province":"東京都","city":"調布市","address":"東京都調布市","lat":35.65071619,"lon":139.54099257},{"name":"調布庁舎","province":"東京都","city":"調布市","address":"東京都調布市","lat":35.65071619,"lon":139.54099257},{"name":"味の素スタジアム（調布庁舎）","province":"東京都","city":"調布市","address":"東京都調布市西町376-3","lat":35.66355292,"lon":139.52508771},{"name":"神代高等学校","province":"東京都","city":"調布市","address":"東京都調布市若葉町1丁目46-1","lat":35.65693817,"lon":139.58619907},{"name":"調布北高等学校","province":"東京都","city":"調布市","address":"東京都調布市深大寺北町5丁目39-1","lat":35.67999023,"lon":139.54936542},{"name":"調布南高等学校","province":"東京都","city":"調布市","address":"東京都調布市多摩川6丁目2-1","lat":35.64401209,"lon":139.53953247},{"name":"大町備蓄倉庫（大町スポーツセンター）","province":"東京都","city":"調布市","address":"東京都調布市菊野台3丁目27-40","lat":35.65252451,"lon":139.5724838},{"name":"調布市本庁舎","province":"東京都","city":"調布市","address":"調布市小島町2-35-1","lat":35.650628,"lon":139.540683},{"name":"東京都調布飛行場管理事務所","province":"東京都","city":"調布市","address":"調布市西町290-3","lat":35.668886,"lon":139.530212},{"name":"調布警察署","province":"東京都","city":"調布市","address":"調布市国領町2-25-1","lat":35.65293,"lon":139.5622},{"name":"調布消防署","province":"東京都","city":"調布市","address":"調布市下石原1-16-1","lat":35.65618,"lon":139.5391},{"name":"都立神代植物公園","province":"東京都","city":"調布市","address":"調布市深大寺元町5","lat":35.66838,"lon":139.5457},{"name":"調布市立調布市民野球場","province":"東京都","city":"調布市","address":"調布市染地2-43-1","lat":35.64027,"lon":139.5468},{"name":"東京都調布飛行場","province":"東京都","city":"調布市","address":"東京都調布市西町290-3","lat":35.66754795,"lon":139.52569635},{"name":"金子地域福祉センター","province":"東京都","city":"調布市","address":"東京都調布市西つつじケ丘4丁目43-3","lat":35.65099983,"lon":139.57897493},{"name":"西部地域福祉センター","province":"東京都","city":"調布市","address":"東京都調布市上石原2丁目15-6","lat":35.65561806,"lon":139.52528822},{"name":"調布ケ丘地域福祉センター","province":"東京都","city":"調布市","address":"東京都調布市調布ケ丘3丁目58-2","lat":35.65984534,"lon":139.55029097},{"name":"染地地域福祉センター","province":"東京都","city":"調布市","address":"東京都調布市染地3丁目3-1","lat":35.6398517,"lon":139.55539232},{"name":"緑ケ丘地域福祉センター","province":"東京都","city":"調布市","address":"東京都調布市緑ケ丘2丁目18-49","lat":35.66934778,"lon":139.58393216},{"name":"菊野台地域福祉センター","province":"東京都","city":"調布市","address":"東京都調布市菊野台1丁目38-1","lat":35.6575349,"lon":139.56605641},{"name":"富士見地域福祉センター","province":"東京都","city":"調布市","address":"東京都調布市富士見町4丁目15-6","lat":35.66394193,"lon":139.53463406},{"name":"下石原地域福祉センター","province":"東京都","city":"調布市","address":"東京都調布市下石原3丁目72-1","lat":35.64757805,"lon":139.53469647},{"name":"入間地域福祉センター","province":"東京都","city":"調布市","address":"東京都調布市入間町1丁目13-2","lat":35.65381911,"lon":139.58733797},{"name":"深大寺地域福祉センター","province":"東京都","city":"調布市","address":"東京都調布市深大寺北町2丁目40-1","lat":35.67473531,"lon":139.55157926},{"name":"調布基地跡地運動広場及び大沢総合グラウンド一部","province":"東京都","city":"調布市","address":"東京都調布市西町","lat":35.66389176,"lon":139.5250488},{"name":"都立神代植物公園周辺及び自由広場","province":"東京都","city":"調布市","address":"東京都調布市深大寺元町5丁目31-10","lat":35.67232991,"lon":139.54589097},{"name":"多摩川河川敷（第１区）周辺（府中市境～多摩川原橋）","province":"東京都","city":"調布市","address":"東京都調布市多摩川2丁目7","lat":35.64668361,"lon":139.52516685},{"name":"多摩川河川敷（第２区）周辺（多摩川原橋～二ヶ領堰）","province":"東京都","city":"調布市","address":"東京都調布市多摩川5丁目32","lat":35.64222084,"lon":139.5374996},{"name":"多摩川河川敷（第３区）周辺（二ヶ領堰～狛江市境）","province":"東京都","city":"調布市","address":"東京都調布市染地2丁目51","lat":35.63780777,"lon":139.55282904},{"name":"市立調和小学校周辺","province":"東京都","city":"調布市","address":"東京都調布市菊野台3丁目27-40","lat":35.65252451,"lon":139.5724838},{"name":"市立神代中学校・上ノ原小学校周辺","province":"東京都","city":"調布市","address":"東京都調布市佐須町5丁目26-1","lat":35.66162316,"lon":139.5616816},{"name":"市立緑ケ丘小学校周辺","province":"東京都","city":"調布市","address":"東京都調布市緑ケ丘2丁目16-1","lat":35.66996995,"lon":139.58474318},{"name":"ＮＴＴ中央研修センター","province":"東京都","city":"調布市","address":"東京都調布市入間町2丁目","lat":35.64862239,"lon":139.58154701},{"name":"市立第４中学校・若葉小学校周辺","province":"東京都","city":"調布市","address":"東京都調布市若葉町3丁目15-1","lat":35.65392455,"lon":139.58283002},{"name":"放課後等デイサービス　わかば","province":"東京都","city":"調布市","address":"調布市若葉町二丁目26番29号ミタムラビル1階","lat":35.65698,"lon":139.589565},{"name":"ポコポコ・ホッピング神代団地","province":"東京都","city":"調布市","address":"調布市西つつじケ丘4-23神代団地33-103","lat":35.650103,"lon":139.576936},{"name":"アーリーバード　柴崎","province":"東京都","city":"調布市","address":"調布市菊野台一丁目52番地4三高家ビル2A","lat":35.655399,"lon":139.56567},{"name":"ゆうゆうくらぶ","province":"東京都","city":"調布市","address":"調布市柴崎1-56-1サニーハイツ1階","lat":35.659268,"lon":139.564973},{"name":"Green","province":"東京都","city":"調布市","address":"調布市調布ケ丘4-41-2","lat":35.662459,"lon":139.545539},{"name":"ちょうふの風","province":"東京都","city":"調布市","address":"調布市国領町3-8-15くすのきアパート5号棟114号","lat":35.648614,"lon":139.560591},{"name":"ふくふく","province":"東京都","city":"調布市","address":"調布市国領町5-74-1-103","lat":35.648969,"lon":139.551247},{"name":"ハッピーテラス調布教室","province":"東京都","city":"調布市","address":"調布市国領町1-9-3小谷田ビル1階103号室","lat":35.651158,"lon":139.551969},{"name":"ふみ月チャレンジ染地","province":"東京都","city":"調布市","address":"調布市染地1-17-15","lat":35.641979,"lon":139.548582},{"name":"クレヨンキッズ","province":"東京都","city":"調布市","address":"調布市布田2-4-10布田ビル1F","lat":35.65391,"lon":139.548575},{"name":"たんぽぽ","province":"東京都","city":"調布市","address":"調布市布田2-51-10トービル調布201","lat":35.650366,"lon":139.550092},{"name":"ドリームボックス　布田","province":"東京都","city":"調布市","address":"調布市布田3-55-17","lat":35.646725,"lon":139.550353},{"name":"アーリーバード","province":"東京都","city":"調布市","address":"調布市多摩川5-7-4","lat":35.644337,"lon":139.537185},{"name":"ふみ月チャレンジたま川","province":"東京都","city":"調布市","address":"調布市多摩川5-24-18","lat":35.643379,"lon":139.536647},{"name":"調布市総合福祉センター　放課後等デイサービス　ぴっころ","province":"東京都","city":"調布市","address":"調布市小島町2-47-1","lat":35.651397,"lon":139.542753},{"name":"通所運動療育障がい児リハビリセンター調布","province":"東京都","city":"調布市","address":"調布市小島町3-88-2","lat":35.645701,"lon":139.541104},{"name":"ポコポコ・ホッピング富士見町","province":"東京都","city":"調布市","address":"調布市富士見町2-17-17","lat":35.659376,"lon":139.54015},{"name":"れいんぼー","province":"東京都","city":"調布市","address":"調布市富士見町4-30-20","lat":35.668591,"lon":139.536136},{"name":"にこにこキッズルーム","province":"東京都","city":"調布市","address":"調布市下石原1-2-4ヤシマビル2階","lat":35.657687,"lon":139.53409},{"name":"ドリームボックス下石原","province":"東京都","city":"調布市","address":"調布市下石原一丁目32番地6下石原プラザ101号室","lat":35.656426,"lon":139.534535},{"name":"放課後等デイサービス　わかば　西調布店","province":"東京都","city":"調布市","address":"調布市下石原1-8-1西谷調布ビル102","lat":35.657979,"lon":139.536137},{"name":"調布市子ども家庭支援センターすこやか","province":"東京都","city":"調布市","address":"調布市国領町3-1-38ココスクエア2階","lat":35.649608,"lon":139.558644},{"name":"調布市子ども家庭支援センターすこやか","province":"東京都","city":"調布市","address":"調布市国領町3-1-38ココスクエア2階","lat":35.64957,"lon":139.55869},{"name":"御塔坂橋北","province":"東京都","city":"調布市","address":"東京都調布市深大寺元町3丁目1","lat":35.6658612,"lon":139.54374139},{"name":"旧甲州街道入口","province":"東京都","city":"調布市","address":"東京都調布市国領町2丁目18-4","lat":35.65227161,"lon":139.5597767},{"name":"国領駅入口","province":"東京都","city":"調布市","address":"東京都調布市国領町1丁目45-11","lat":35.65064961,"lon":139.55676599},{"name":"仙川駅入口","province":"東京都","city":"調布市","address":"東京都調布市仙川町2丁目19-5","lat":35.66328458,"lon":139.58346575},{"name":"上石原","province":"東京都","city":"調布市","address":"東京都調布市富士見町1丁目1","lat":35.66012856,"lon":139.53295109},{"name":"味の素スタジアム西","province":"東京都","city":"調布市","address":"東京都調布市西町290","lat":35.66924671,"lon":139.53010368},{"name":"調布駅西","province":"東京都","city":"調布市","address":"東京都調布市小島町1丁目36-16","lat":35.65269349,"lon":139.54303928},{"name":"布多天神前","province":"東京都","city":"調布市","address":"東京都調布市調布ケ丘1丁目6","lat":35.65539583,"lon":139.54488332},{"name":"不動前","province":"東京都","city":"調布市","address":"東京都調布市国領町1丁目2-8","lat":35.65169097,"lon":139.55134967},{"name":"国領町八丁目","province":"東京都","city":"調布市","address":"東京都調布市国領町4丁目51-1","lat":35.64605871,"lon":139.56218803},{"name":"深大寺北町一丁目","province":"東京都","city":"調布市","address":"東京都調布市深大寺北町7丁目27","lat":35.67532402,"lon":139.54521317},{"name":"つつじヶ丘交番前","province":"東京都","city":"調布市","address":"東京都調布市西つつじケ丘3丁目31-2","lat":35.65925155,"lon":139.57431952},{"name":"多摩川団地交番前","province":"東京都","city":"調布市","address":"東京都調布市染地3丁目1-498","lat":35.63967659,"lon":139.55987229},{"name":"調布駅南入口","province":"東京都","city":"調布市","address":"東京都調布市布田5丁目1","lat":35.64839998,"lon":139.54339535},{"name":"調布駅北","province":"東京都","city":"調布市","address":"東京都調布市布田1丁目37-16","lat":35.65298507,"lon":139.54419187},{"name":"調布中学校前","province":"東京都","city":"調布市","address":"東京都調布市富士見町4丁目17-1","lat":35.66535009,"lon":139.53516172},{"name":"仙川橋","province":"東京都","city":"調布市","address":"東京都調布市緑ケ丘2丁目56","lat":35.66533724,"lon":139.5879153},{"name":"国領駅南","province":"東京都","city":"調布市","address":"東京都調布市国領町3丁目1-38","lat":35.64966092,"lon":139.55874091},{"name":"調布第三小学校入口","province":"東京都","city":"調布市","address":"東京都調布市上石原2丁目41","lat":35.65508765,"lon":139.52915735},{"name":"飛田給小入口","province":"東京都","city":"調布市","address":"東京都調布市飛田給2丁目42-7","lat":35.65689285,"lon":139.52534091},{"name":"飛田給小入口第二","province":"東京都","city":"調布市","address":"東京都調布市飛田給2丁目42-7","lat":35.65689285,"lon":139.52534091},{"name":"野川馬橋西","province":"東京都","city":"調布市","address":"東京都調布市国領町2丁目26","lat":35.65327149,"lon":139.56242638},{"name":"調布市役所前","province":"東京都","city":"調布市","address":"東京都調布市小島町2丁目35-1","lat":35.65059399,"lon":139.5406704},{"name":"布田一丁目","province":"東京都","city":"調布市","address":"東京都調布市布田1丁目25-2","lat":35.65270176,"lon":139.54599168},{"name":"国領町三丁目","province":"東京都","city":"調布市","address":"東京都調布市国領町3丁目8","lat":35.64928321,"lon":139.5611518},{"name":"飛田給二丁目","province":"東京都","city":"調布市","address":"東京都調布市飛田給2丁目19","lat":35.65929519,"lon":139.52253264},{"name":"飛田給二丁目東","province":"東京都","city":"調布市","address":"東京都調布市飛田給2丁目24-7","lat":35.65814817,"lon":139.52361597},{"name":"飛田給駅南口","province":"東京都","city":"調布市","address":"東京都調布市飛田給2丁目13-12","lat":35.65893411,"lon":139.52149665},{"name":"調布総合体育館南","province":"東京都","city":"調布市","address":"東京都調布市深大寺北町2丁目2","lat":35.6716801,"lon":139.55205709},{"name":"調布郵便局前","province":"東京都","city":"調布市","address":"東京都調布市国領町2丁目14","lat":35.65227714,"lon":139.55834905},{"name":"調布ヶ丘一丁目","province":"東京都","city":"調布市","address":"東京都調布市調布ケ丘1丁目34-1","lat":35.65472366,"lon":139.54680532},{"name":"国領小学校西","province":"東京都","city":"調布市","address":"東京都調布市国領町8丁目1-55","lat":35.64866387,"lon":139.56351548},{"name":"調布駅入口","province":"東京都","city":"調布市","address":"東京都調布市調布ケ丘1丁目5-1","lat":35.65564303,"lon":139.54430838},{"name":"調布市文化プラザ前","province":"東京都","city":"調布市","address":"東京都調布市小島町2丁目34","lat":35.6508828,"lon":139.54196187},{"name":"調布警察署前","province":"東京都","city":"調布市","address":"東京都調布市国領町2丁目25-1","lat":35.65292432,"lon":139.56223197},{"name":"調布駅南","province":"東京都","city":"調布市","address":"東京都調布市布田4丁目17-10","lat":35.65041342,"lon":139.54403667},{"name":"調布駅南第二","province":"東京都","city":"調布市","address":"東京都調布市小島町2丁目52-1","lat":35.64983578,"lon":139.54309243},{"name":"東京スタジアム前","province":"東京都","city":"調布市","address":"東京都調布市飛田給1丁目34-17","lat":35.66310853,"lon":139.52479608},{"name":"飛田給駅入口","province":"東京都","city":"調布市","address":"東京都調布市飛田給1丁目26-1","lat":35.66123655,"lon":139.52347964},{"name":"飛田給小学校前","province":"東京都","city":"調布市","address":"東京都調布市上石原3丁目3","lat":35.65435992,"lon":139.52418564},{"name":"国領駅前","province":"東京都","city":"調布市","address":"東京都調布市国領町4丁目8-1","lat":35.64947482,"lon":139.5574827},{"name":"布田駅前第一","province":"東京都","city":"調布市","address":"東京都調布市国領町5丁目70-1","lat":35.64951641,"lon":139.55109439},{"name":"布田駅前第二","province":"東京都","city":"調布市","address":"東京都調布市布田2丁目51-6","lat":35.65026625,"lon":139.55079711},{"name":"上石原浄水所","province":"東京都","city":"調布市","address":"東京都調布市上石原1丁目34-7","lat":35.66130335,"lon":139.53174555},{"name":"深大寺浄水所","province":"東京都","city":"調布市","address":"東京都調布市深大寺南町5丁目56-1","lat":35.66896104,"lon":139.55556797},{"name":"調布市立調布市民野球場","province":"東京都","city":"調布市","address":"東京都調布市染地2丁目43-1","lat":35.64025186,"lon":139.54681004},{"name":"調布市立調布中学校校庭","province":"東京都","city":"調布市","address":"東京都調布市富士見町4丁目17-1","lat":35.66535009,"lon":139.53516172},{"name":"調布市立第八中学校校庭","province":"東京都","city":"調布市","address":"東京都調布市仙川町2丁目15-2","lat":35.66445108,"lon":139.58169365},{"name":"調布市立第四中学校校庭","province":"東京都","city":"調布市","address":"東京都調布市若葉町3丁目15-1","lat":35.65392455,"lon":139.58283002},{"name":"調布市立第三中学校校庭","province":"東京都","city":"調布市","address":"東京都調布市染地3丁目2-7","lat":35.6414069,"lon":139.55643366},{"name":"調布市立神代中学校校庭","province":"東京都","city":"調布市","address":"東京都調布市佐須町5丁目26-1","lat":35.66162316,"lon":139.5616816},{"name":"調布市立布田小学校校庭","province":"東京都","city":"調布市","address":"東京都調布市染地1丁目1-85","lat":35.64330667,"lon":139.54542083},{"name":"調布市立第三小学校校庭","province":"東京都","city":"調布市","address":"東京都調布市上石原2丁目19-13","lat":35.65473491,"lon":139.52783806},{"name":"調布市立北ノ台小学校校庭","province":"東京都","city":"調布市","address":"東京都調布市深大寺北町2丁目41-1","lat":35.67543247,"lon":139.55284301},{"name":"神代植物公園","province":"東京都","city":"調布市","address":"東京都調布市深大寺元町5丁目","lat":35.66837758,"lon":139.54571333},{"name":"大町スポーツ施設大運動場","province":"東京都","city":"調布市","address":"東京都調布市菊野台3丁目27-40","lat":35.65252451,"lon":139.5724838},{"name":"武蔵野の森総合スポーツ施設敷地","province":"東京都","city":"調布市","address":"東京都調布市","lat":35.65071619,"lon":139.54099257},{"name":"旧調布基地跡地整備関連事業用地","province":"東京都","city":"調布市","address":"東京都調布市","lat":35.65071619,"lon":139.54099257},{"name":"調布基地跡地整備関連事業用地","province":"東京都","city":"調布市","address":"東京都調布市","lat":35.65071619,"lon":139.54099257},{"name":"調布庁舎","province":"東京都","city":"調布市","address":"東京都調布市","lat":35.65071619,"lon":139.54099257},{"name":"味の素スタジアム（調布庁舎）","province":"東京都","city":"調布市","address":"東京都調布市西町376-3","lat":35.66355292,"lon":139.52508771},{"name":"神代高等学校","province":"東京都","city":"調布市","address":"東京都調布市若葉町1丁目46-1","lat":35.65693817,"lon":139.58619907},{"name":"調布北高等学校","province":"東京都","city":"調布市","address":"東京都調布市深大寺北町5丁目39-1","lat":35.67999023,"lon":139.54936542},{"name":"調布南高等学校","province":"東京都","city":"調布市","address":"東京都調布市多摩川6丁目2-1","lat":35.64401209,"lon":139.53953247},{"name":"金子地域福祉センター","province":"東京都","city":"調布市","address":"東京都調布市西つつじケ丘4丁目43-3","lat":35.65099983,"lon":139.57897493},{"name":"西部地域福祉センター","province":"東京都","city":"調布市","address":"東京都調布市上石原2丁目15-6","lat":35.65561806,"lon":139.52528822},{"name":"調布ケ丘地域福祉センター","province":"東京都","city":"調布市","address":"東京都調布市調布ケ丘3丁目58-2","lat":35.65984534,"lon":139.55029097},{"name":"染地地域福祉センター","province":"東京都","city":"調布市","address":"東京都調布市染地3丁目3-1","lat":35.6398517,"lon":139.55539232},{"name":"緑ケ丘地域福祉センター","province":"東京都","city":"調布市","address":"東京都調布市緑ケ丘2丁目18-49","lat":35.66934778,"lon":139.58393216},{"name":"菊野台地域福祉センター","province":"東京都","city":"調布市","address":"東京都調布市菊野台1丁目38-1","lat":35.6575349,"lon":139.56605641},{"name":"富士見地域福祉センター","province":"東京都","city":"調布市","address":"東京都調布市富士見町4丁目15-6","lat":35.66394193,"lon":139.53463406},{"name":"下石原地域福祉センター","province":"東京都","city":"調布市","address":"東京都調布市下石原3丁目72-1","lat":35.64757805,"lon":139.53469647},{"name":"入間地域福祉センター","province":"東京都","city":"調布市","address":"東京都調布市入間町1丁目13-2","lat":35.65381911,"lon":139.58733797},{"name":"深大寺地域福祉センター","province":"東京都","city":"調布市","address":"東京都調布市深大寺北町2丁目40-1","lat":35.67473531,"lon":139.55157926},{"name":"調布基地跡地運動広場及び大沢総合グラウンド一部","province":"東京都","city":"調布市","address":"東京都調布市西町","lat":35.66389176,"lon":139.5250488},{"name":"都立神代植物公園周辺及び自由広場","province":"東京都","city":"調布市","address":"東京都調布市深大寺元町5丁目31-10","lat":35.67232991,"lon":139.54589097},{"name":"多摩川河川敷（第１区）周辺（府中市境～多摩川原橋）","province":"東京都","city":"調布市","address":"東京都調布市多摩川2丁目7","lat":35.64668361,"lon":139.52516685},{"name":"多摩川河川敷（第２区）周辺（多摩川原橋～二ヶ領堰）","province":"東京都","city":"調布市","address":"東京都調布市多摩川5丁目32","lat":35.64222084,"lon":139.5374996},{"name":"多摩川河川敷（第３区）周辺（二ヶ領堰～狛江市境）","province":"東京都","city":"調布市","address":"東京都調布市染地2丁目51","lat":35.63780777,"lon":139.55282904},{"name":"市立調和小学校周辺","province":"東京都","city":"調布市","address":"東京都調布市菊野台3丁目27-40","lat":35.65252451,"lon":139.5724838},{"name":"市立神代中学校・上ノ原小学校周辺","province":"東京都","city":"調布市","address":"東京都調布市佐須町5丁目26-1","lat":35.66162316,"lon":139.5616816},{"name":"市立緑ケ丘小学校周辺","province":"東京都","city":"調布市","address":"東京都調布市緑ケ丘2丁目16-1","lat":35.66996995,"lon":139.58474318},{"name":"ＮＴＴ中央研修センター","province":"東京都","city":"調布市","address":"東京都調布市入間町2丁目","lat":35.64862239,"lon":139.58154701},{"name":"市立第４中学校・若葉小学校周辺","province":"東京都","city":"調布市","address":"東京都調布市若葉町3丁目15-1","lat":35.65392455,"lon":139.58283002},{"name":"放課後等デイサービス　わかば","province":"東京都","city":"調布市","address":"調布市若葉町二丁目26番29号ミタムラビル1階","lat":35.65698,"lon":139.589565},{"name":"ポコポコ・ホッピング神代団地","province":"東京都","city":"調布市","address":"調布市西つつじケ丘4-23神代団地33-103","lat":35.650103,"lon":139.576936},{"name":"アーリーバード　柴崎","province":"東京都","city":"調布市","address":"調布市菊野台一丁目52番地4三高家ビル2A","lat":35.655399,"lon":139.56567},{"name":"ゆうゆうくらぶ","province":"東京都","city":"調布市","address":"調布市柴崎1-56-1サニーハイツ1階","lat":35.659268,"lon":139.564973},{"name":"Green","province":"東京都","city":"調布市","address":"調布市調布ケ丘4-41-2","lat":35.662459,"lon":139.545539},{"name":"ちょうふの風","province":"東京都","city":"調布市","address":"調布市国領町3-8-15くすのきアパート5号棟114号","lat":35.648614,"lon":139.560591},{"name":"ふくふく","province":"東京都","city":"調布市","address":"調布市国領町5-74-1-103","lat":35.648969,"lon":139.551247},{"name":"ハッピーテラス調布教室","province":"東京都","city":"調布市","address":"調布市国領町1-9-3小谷田ビル1階103号室","lat":35.651158,"lon":139.551969},{"name":"ふみ月チャレンジ染地","province":"東京都","city":"調布市","address":"調布市染地1-17-15","lat":35.641979,"lon":139.548582},{"name":"クレヨンキッズ","province":"東京都","city":"調布市","address":"調布市布田2-4-10布田ビル1F","lat":35.65391,"lon":139.548575},{"name":"たんぽぽ","province":"東京都","city":"調布市","address":"調布市布田2-51-10トービル調布201","lat":35.650366,"lon":139.550092},{"name":"ドリームボックス　布田","province":"東京都","city":"調布市","address":"調布市布田3-55-17","lat":35.646725,"lon":139.550353},{"name":"アーリーバード","province":"東京都","city":"調布市","address":"調布市多摩川5-7-4","lat":35.644337,"lon":139.537185},{"name":"ふみ月チャレンジたま川","province":"東京都","city":"調布市","address":"調布市多摩川5-24-18","lat":35.643379,"lon":139.536647},{"name":"調布市総合福祉センター　放課後等デイサービス　ぴっころ","province":"東京都","city":"調布市","address":"調布市小島町2-47-1","lat":35.651397,"lon":139.542753},{"name":"通所運動療育障がい児リハビリセンター調布","province":"東京都","city":"調布市","address":"調布市小島町3-88-2","lat":35.645701,"lon":139.541104},{"name":"ポコポコ・ホッピング富士見町","province":"東京都","city":"調布市","address":"調布市富士見町2-17-17","lat":35.659376,"lon":139.54015},{"name":"れいんぼー","province":"東京都","city":"調布市","address":"調布市富士見町4-30-20","lat":35.668591,"lon":139.536136},{"name":"にこにこキッズルーム","province":"東京都","city":"調布市","address":"調布市下石原1-2-4ヤシマビル2階","lat":35.657687,"lon":139.53409},{"name":"ドリームボックス下石原","province":"東京都","city":"調布市","address":"調布市下石原一丁目32番地6下石原プラザ101号室","lat":35.656426,"lon":139.534535},{"name":"放課後等デイサービス　わかば　西調布店","province":"東京都","city":"調布市","address":"調布市下石原1-8-1西谷調布ビル102","lat":35.657979,"lon":139.536137},{"name":"調布市子ども家庭支援センターすこやか","province":"東京都","city":"調布市","address":"調布市国領町3-1-38ココスクエア2階","lat":35.649608,"lon":139.558644},{"name":"調布市子ども家庭支援センターすこやか","province":"東京都","city":"調布市","address":"調布市国領町3-1-38ココスクエア2階","lat":35.64957,"lon":139.55869},{"name":"御塔坂橋北","province":"東京都","city":"調布市","address":"東京都調布市深大寺元町3丁目1","lat":35.6658612,"lon":139.54374139},{"name":"旧甲州街道入口","province":"東京都","city":"調布市","address":"東京都調布市国領町2丁目18-4","lat":35.65227161,"lon":139.5597767},{"name":"国領駅入口","province":"東京都","city":"調布市","address":"東京都調布市国領町1丁目45-11","lat":35.65064961,"lon":139.55676599},{"name":"仙川駅入口","province":"東京都","city":"調布市","address":"東京都調布市仙川町2丁目19-5","lat":35.66328458,"lon":139.58346575},{"name":"上石原","province":"東京都","city":"調布市","address":"東京都調布市富士見町1丁目1","lat":35.66012856,"lon":139.53295109},{"name":"味の素スタジアム西","province":"東京都","city":"調布市","address":"東京都調布市西町290","lat":35.66924671,"lon":139.53010368},{"name":"調布駅西","province":"東京都","city":"調布市","address":"東京都調布市小島町1丁目36-16","lat":35.65269349,"lon":139.54303928},{"name":"布多天神前","province":"東京都","city":"調布市","address":"東京都調布市調布ケ丘1丁目6","lat":35.65539583,"lon":139.54488332},{"name":"不動前","province":"東京都","city":"調布市","address":"東京都調布市国領町1丁目2-8","lat":35.65169097,"lon":139.55134967},{"name":"国領町八丁目","province":"東京都","city":"調布市","address":"東京都調布市国領町4丁目51-1","lat":35.64605871,"lon":139.56218803},{"name":"深大寺北町一丁目","province":"東京都","city":"調布市","address":"東京都調布市深大寺北町7丁目27","lat":35.67532402,"lon":139.54521317},{"name":"つつじヶ丘交番前","province":"東京都","city":"調布市","address":"東京都調布市西つつじケ丘3丁目31-2","lat":35.65925155,"lon":139.57431952},{"name":"多摩川団地交番前","province":"東京都","city":"調布市","address":"東京都調布市染地3丁目1-498","lat":35.63967659,"lon":139.55987229},{"name":"調布駅南入口","province":"東京都","city":"調布市","address":"東京都調布市布田5丁目1","lat":35.64839998,"lon":139.54339535},{"name":"調布駅北","province":"東京都","city":"調布市","address":"東京都調布市布田1丁目37-16","lat":35.65298507,"lon":139.54419187},{"name":"調布中学校前","province":"東京都","city":"調布市","address":"東京都調布市富士見町4丁目17-1","lat":35.66535009,"lon":139.53516172},{"name":"仙川橋","province":"東京都","city":"調布市","address":"東京都調布市緑ケ丘2丁目56","lat":35.66533724,"lon":139.5879153},{"name":"国領駅南","province":"東京都","city":"調布市","address":"東京都調布市国領町3丁目1-38","lat":35.64966092,"lon":139.55874091},{"name":"調布第三小学校入口","province":"東京都","city":"調布市","address":"東京都調布市上石原2丁目41","lat":35.65508765,"lon":139.52915735},{"name":"飛田給小入口","province":"東京都","city":"調布市","address":"東京都調布市飛田給2丁目42-7","lat":35.65689285,"lon":139.52534091},{"name":"飛田給小入口第二","province":"東京都","city":"調布市","address":"東京都調布市飛田給2丁目42-7","lat":35.65689285,"lon":139.52534091},{"name":"野川馬橋西","province":"東京都","city":"調布市","address":"東京都調布市国領町2丁目26","lat":35.65327149,"lon":139.56242638},{"name":"調布市役所前","province":"東京都","city":"調布市","address":"東京都調布市小島町2丁目35-1","lat":35.65059399,"lon":139.5406704},{"name":"布田一丁目","province":"東京都","city":"調布市","address":"東京都調布市布田1丁目25-2","lat":35.65270176,"lon":139.54599168},{"name":"国領町三丁目","province":"東京都","city":"調布市","address":"東京都調布市国領町3丁目8","lat":35.64928321,"lon":139.5611518},{"name":"飛田給二丁目","province":"東京都","city":"調布市","address":"東京都調布市飛田給2丁目19","lat":35.65929519,"lon":139.52253264},{"name":"飛田給二丁目東","province":"東京都","city":"調布市","address":"東京都調布市飛田給2丁目24-7","lat":35.65814817,"lon":139.52361597},{"name":"飛田給駅南口","province":"東京都","city":"調布市","address":"東京都調布市飛田給2丁目13-12","lat":35.65893411,"lon":139.52149665},{"name":"調布総合体育館南","province":"東京都","city":"調布市","address":"東京都調布市深大寺北町2丁目2","lat":35.6716801,"lon":139.55205709},{"name":"調布郵便局前","province":"東京都","city":"調布市","address":"東京都調布市国領町2丁目14","lat":35.65227714,"lon":139.55834905},{"name":"調布ヶ丘一丁目","province":"東京都","city":"調布市","address":"東京都調布市調布ケ丘1丁目34-1","lat":35.65472366,"lon":139.54680532},{"name":"国領小学校西","province":"東京都","city":"調布市","address":"東京都調布市国領町8丁目1-55","lat":35.64866387,"lon":139.56351548},{"name":"調布駅入口","province":"東京都","city":"調布市","address":"東京都調布市調布ケ丘1丁目5-1","lat":35.65564303,"lon":139.54430838},{"name":"調布市文化プラザ前","province":"東京都","city":"調布市","address":"東京都調布市小島町2丁目34","lat":35.6508828,"lon":139.54196187},{"name":"調布警察署前","province":"東京都","city":"調布市","address":"東京都調布市国領町2丁目25-1","lat":35.65292432,"lon":139.56223197},{"name":"調布駅南","province":"東京都","city":"調布市","address":"東京都調布市布田4丁目17-10","lat":35.65041342,"lon":139.54403667},{"name":"調布駅南第二","province":"東京都","city":"調布市","address":"東京都調布市小島町2丁目52-1","lat":35.64983578,"lon":139.54309243},{"name":"東京スタジアム前","province":"東京都","city":"調布市","address":"東京都調布市飛田給1丁目34-17","lat":35.66310853,"lon":139.52479608},{"name":"飛田給駅入口","province":"東京都","city":"調布市","address":"東京都調布市飛田給1丁目26-1","lat":35.66123655,"lon":139.52347964},{"name":"飛田給小学校前","province":"東京都","city":"調布市","address":"東京都調布市上石原3丁目3","lat":35.65435992,"lon":139.52418564},{"name":"国領駅前","province":"東京都","city":"調布市","address":"東京都調布市国領町4丁目8-1","lat":35.64947482,"lon":139.5574827},{"name":"布田駅前第一","province":"東京都","city":"調布市","address":"東京都調布市国領町5丁目70-1","lat":35.64951641,"lon":139.55109439},{"name":"布田駅前第二","province":"東京都","city":"調布市","address":"東京都調布市布田2丁目51-6","lat":35.65026625,"lon":139.55079711},{"name":"上石原浄水所","province":"東京都","city":"調布市","address":"東京都調布市上石原1丁目34-7","lat":35.66130335,"lon":139.53174555},{"name":"深大寺浄水所","province":"東京都","city":"調布市","address":"東京都調布市深大寺南町5丁目56-1","lat":35.66896104,"lon":139.55556797},{"name":"調布市立調布市民野球場","province":"東京都","city":"調布市","address":"東京都調布市染地2丁目43-1","lat":35.64025186,"lon":139.54681004},{"name":"調布市立調布中学校校庭","province":"東京都","city":"調布市","address":"東京都調布市富士見町4丁目17-1","lat":35.66535009,"lon":139.53516172},{"name":"調布市立第八中学校校庭","province":"東京都","city":"調布市","address":"東京都調布市仙川町2丁目15-2","lat":35.66445108,"lon":139.58169365},{"name":"調布市立第四中学校校庭","province":"東京都","city":"調布市","address":"東京都調布市若葉町3丁目15-1","lat":35.65392455,"lon":139.58283002},{"name":"調布市立第三中学校校庭","province":"東京都","city":"調布市","address":"東京都調布市染地3丁目2-7","lat":35.6414069,"lon":139.55643366},{"name":"調布市立神代中学校校庭","province":"東京都","city":"調布市","address":"東京都調布市佐須町5丁目26-1","lat":35.66162316,"lon":139.5616816},{"name":"調布市立布田小学校校庭","province":"東京都","city":"調布市","address":"東京都調布市染地1丁目1-85","lat":35.64330667,"lon":139.54542083},{"name":"調布市立第三小学校校庭","province":"東京都","city":"調布市","address":"東京都調布市上石原2丁目19-13","lat":35.65473491,"lon":139.52783806},{"name":"調布市立北ノ台小学校校庭","province":"東京都","city":"調布市","address":"東京都調布市深大寺北町2丁目41-1","lat":35.67543247,"lon":139.55284301},{"name":"神代植物公園","province":"東京都","city":"調布市","address":"東京都調布市深大寺元町5丁目","lat":35.66837758,"lon":139.54571333},{"name":"大町スポーツ施設大運動場","province":"東京都","city":"調布市","address":"東京都調布市菊野台3丁目27-40","lat":35.65252451,"lon":139.5724838},{"name":"味の素スタジアム（調布庁舎）","province":"東京都","city":"調布市","address":"東京都調布市西町376-3","lat":35.66355292,"lon":139.52508771},{"name":"神代高等学校","province":"東京都","city":"調布市","address":"東京都調布市若葉町1丁目46-1","lat":35.65693817,"lon":139.58619907},{"name":"調布北高等学校","province":"東京都","city":"調布市","address":"東京都調布市深大寺北町5丁目39-1","lat":35.67999023,"lon":139.54936542},{"name":"調布南高等学校","province":"東京都","city":"調布市","address":"東京都調布市多摩川6丁目2-1","lat":35.64401209,"lon":139.53953247},{"name":"放課後等デイサービス　わかば","province":"東京都","city":"調布市","address":"調布市若葉町二丁目26番29号ミタムラビル1階","lat":35.65698,"lon":139.589565},{"name":"ポコポコ・ホッピング神代団地","province":"東京都","city":"調布市","address":"調布市西つつじケ丘4-23神代団地33-103","lat":35.650103,"lon":139.576936},{"name":"アーリーバード　柴崎","province":"東京都","city":"調布市","address":"調布市菊野台一丁目52番地4三高家ビル2A","lat":35.655399,"lon":139.56567},{"name":"ゆうゆうくらぶ","province":"東京都","city":"調布市","address":"調布市柴崎1-56-1サニーハイツ1階","lat":35.659268,"lon":139.564973},{"name":"Green","province":"東京都","city":"調布市","address":"調布市調布ケ丘4-41-2","lat":35.662459,"lon":139.545539},{"name":"ちょうふの風","province":"東京都","city":"調布市","address":"調布市国領町3-8-15くすのきアパート5号棟114号","lat":35.648614,"lon":139.560591},{"name":"ふくふく","province":"東京都","city":"調布市","address":"調布市国領町5-74-1-103","lat":35.648969,"lon":139.551247},{"name":"ハッピーテラス調布教室","province":"東京都","city":"調布市","address":"調布市国領町1-9-3小谷田ビル1階103号室","lat":35.651158,"lon":139.551969},{"name":"ふみ月チャレンジ染地","province":"東京都","city":"調布市","address":"調布市染地1-17-15","lat":35.641979,"lon":139.548582},{"name":"クレヨンキッズ","province":"東京都","city":"調布市","address":"調布市布田2-4-10布田ビル1F","lat":35.65391,"lon":139.548575},{"name":"たんぽぽ","province":"東京都","city":"調布市","address":"調布市布田2-51-10トービル調布201","lat":35.650366,"lon":139.550092},{"name":"ドリームボックス　布田","province":"東京都","city":"調布市","address":"調布市布田3-55-17","lat":35.646725,"lon":139.550353},{"name":"アーリーバード","province":"東京都","city":"調布市","address":"調布市多摩川5-7-4","lat":35.644337,"lon":139.537185},{"name":"ふみ月チャレンジたま川","province":"東京都","city":"調布市","address":"調布市多摩川5-24-18","lat":35.643379,"lon":139.536647},{"name":"調布市総合福祉センター　放課後等デイサービス　ぴっころ","province":"東京都","city":"調布市","address":"調布市小島町2-47-1","lat":35.651397,"lon":139.542753},{"name":"通所運動療育障がい児リハビリセンター調布","province":"東京都","city":"調布市","address":"調布市小島町3-88-2","lat":35.645701,"lon":139.541104},{"name":"ポコポコ・ホッピング富士見町","province":"東京都","city":"調布市","address":"調布市富士見町2-17-17","lat":35.659376,"lon":139.54015},{"name":"れいんぼー","province":"東京都","city":"調布市","address":"調布市富士見町4-30-20","lat":35.668591,"lon":139.536136},{"name":"にこにこキッズルーム","province":"東京都","city":"調布市","address":"調布市下石原1-2-4ヤシマビル2階","lat":35.657687,"lon":139.53409},{"name":"ドリームボックス下石原","province":"東京都","city":"調布市","address":"調布市下石原一丁目32番地6下石原プラザ101号室","lat":35.656426,"lon":139.534535},{"name":"放課後等デイサービス　わかば　西調布店","province":"東京都","city":"調布市","address":"調布市下石原1-8-1西谷調布ビル102","lat":35.657979,"lon":139.536137},{"name":"調布市子ども家庭支援センターすこやか","province":"東京都","city":"調布市","address":"調布市国領町3-1-38ココスクエア2階","lat":35.649608,"lon":139.558644},{"name":"調布市子ども家庭支援センターすこやか","province":"東京都","city":"調布市","address":"調布市国領町3-1-38ココスクエア2階","lat":35.64957,"lon":139.55869},{"name":"調布市立調布市民野球場","province":"東京都","city":"調布市","address":"東京都調布市染地2丁目43-1","lat":35.64025186,"lon":139.54681004},{"name":"調布市立調布中学校校庭","province":"東京都","city":"調布市","address":"東京都調布市富士見町4丁目17-1","lat":35.66535009,"lon":139.53516172},{"name":"調布市立第八中学校校庭","province":"東京都","city":"調布市","address":"東京都調布市仙川町2丁目15-2","lat":35.66445108,"lon":139.58169365},{"name":"調布市立第四中学校校庭","province":"東京都","city":"調布市","address":"東京都調布市若葉町3丁目15-1","lat":35.65392455,"lon":139.58283002},{"name":"調布市立第三中学校校庭","province":"東京都","city":"調布市","address":"東京都調布市染地3丁目2-7","lat":35.6414069,"lon":139.55643366},{"name":"調布市立神代中学校校庭","province":"東京都","city":"調布市","address":"東京都調布市佐須町5丁目26-1","lat":35.66162316,"lon":139.5616816},{"name":"調布市立布田小学校校庭","province":"東京都","city":"調布市","address":"東京都調布市染地1丁目1-85","lat":35.64330667,"lon":139.54542083},{"name":"調布市立第三小学校校庭","province":"東京都","city":"調布市","address":"東京都調布市上石原2丁目19-13","lat":35.65473491,"lon":139.52783806},{"name":"調布市立北ノ台小学校校庭","province":"東京都","city":"調布市","address":"東京都調布市深大寺北町2丁目41-1","lat":35.67543247,"lon":139.55284301},{"name":"神代植物公園","province":"東京都","city":"調布市","address":"東京都調布市深大寺元町5丁目","lat":35.66837758,"lon":139.54571333},{"name":"大町スポーツ施設大運動場","province":"東京都","city":"調布市","address":"東京都調布市菊野台3丁目27-40","lat":35.65252451,"lon":139.5724838},{"name":"味の素スタジアム（調布庁舎）","province":"東京都","city":"調布市","address":"東京都調布市西町376-3","lat":35.66355292,"lon":139.52508771},{"name":"神代高等学校","province":"東京都","city":"調布市","address":"東京都調布市若葉町1丁目46-1","lat":35.65693817,"lon":139.58619907},{"name":"調布北高等学校","province":"東京都","city":"調布市","address":"東京都調布市深大寺北町5丁目39-1","lat":35.67999023,"lon":139.54936542},{"name":"調布南高等学校","province":"東京都","city":"調布市","address":"東京都調布市多摩川6丁目2-1","lat":35.64401209,"lon":139.53953247},{"name":"放課後等デイサービス　わかば","province":"東京都","city":"調布市","address":"調布市若葉町二丁目26番29号ミタムラビル1階","lat":35.65698,"lon":139.589565},{"name":"ポコポコ・ホッピング神代団地","province":"東京都","city":"調布市","address":"調布市西つつじケ丘4-23神代団地33-103","lat":35.650103,"lon":139.576936},{"name":"アーリーバード　柴崎","province":"東京都","city":"調布市","address":"調布市菊野台一丁目52番地4三高家ビル2A","lat":35.655399,"lon":139.56567},{"name":"ゆうゆうくらぶ","province":"東京都","city":"調布市","address":"調布市柴崎1-56-1サニーハイツ1階","lat":35.659268,"lon":139.564973},{"name":"Green","province":"東京都","city":"調布市","address":"調布市調布ケ丘4-41-2","lat":35.662459,"lon":139.545539},{"name":"ちょうふの風","province":"東京都","city":"調布市","address":"調布市国領町3-8-15くすのきアパート5号棟114号","lat":35.648614,"lon":139.560591},{"name":"ふくふく","province":"東京都","city":"調布市","address":"調布市国領町5-74-1-103","lat":35.648969,"lon":139.551247},{"name":"ハッピーテラス調布教室","province":"東京都","city":"調布市","address":"調布市国領町1-9-3小谷田ビル1階103号室","lat":35.651158,"lon":139.551969},{"name":"ふみ月チャレンジ染地","province":"東京都","city":"調布市","address":"調布市染地1-17-15","lat":35.641979,"lon":139.548582},{"name":"クレヨンキッズ","province":"東京都","city":"調布市","address":"調布市布田2-4-10布田ビル1F","lat":35.65391,"lon":139.548575},{"name":"たんぽぽ","province":"東京都","city":"調布市","address":"調布市布田2-51-10トービル調布201","lat":35.650366,"lon":139.550092},{"name":"ドリームボックス　布田","province":"東京都","city":"調布市","address":"調布市布田3-55-17","lat":35.646725,"lon":139.550353},{"name":"アーリーバード","province":"東京都","city":"調布市","address":"調布市多摩川5-7-4","lat":35.644337,"lon":139.537185},{"name":"ふみ月チャレンジたま川","province":"東京都","city":"調布市","address":"調布市多摩川5-24-18","lat":35.643379,"lon":139.536647},{"name":"調布市総合福祉センター　放課後等デイサービス　ぴっころ","province":"東京都","city":"調布市","address":"調布市小島町2-47-1","lat":35.651397,"lon":139.542753},{"name":"通所運動療育障がい児リハビリセンター調布","province":"東京都","city":"調布市","address":"調布市小島町3-88-2","lat":35.645701,"lon":139.541104},{"name":"ポコポコ・ホッピング富士見町","province":"東京都","city":"調布市","address":"調布市富士見町2-17-17","lat":35.659376,"lon":139.54015},{"name":"れいんぼー","province":"東京都","city":"調布市","address":"調布市富士見町4-30-20","lat":35.668591,"lon":139.536136},{"name":"にこにこキッズルーム","province":"東京都","city":"調布市","address":"調布市下石原1-2-4ヤシマビル2階","lat":35.657687,"lon":139.53409},{"name":"ドリームボックス下石原","province":"東京都","city":"調布市","address":"調布市下石原一丁目32番地6下石原プラザ101号室","lat":35.656426,"lon":139.534535},{"name":"放課後等デイサービス　わかば　西調布店","province":"東京都","city":"調布市","address":"調布市下石原1-8-1西谷調布ビル102","lat":35.657979,"lon":139.536137},{"name":"調布市子ども家庭支援センターすこやか","province":"東京都","city":"調布市","address":"調布市国領町3-1-38ココスクエア2階","lat":35.649608,"lon":139.558644},{"name":"調布市子ども家庭支援センターすこやか","province":"東京都","city":"調布市","address":"調布市国領町3-1-38ココスクエア2階","lat":35.64957,"lon":139.55869},{"name":"味の素スタジアム（調布庁舎）","province":"東京都","city":"調布市","address":"東京都調布市西町376-3","lat":35.66355292,"lon":139.52508771},{"name":"神代高等学校","province":"東京都","city":"調布市","address":"東京都調布市若葉町1丁目46-1","lat":35.65693817,"lon":139.58619907},{"name":"調布北高等学校","province":"東京都","city":"調布市","address":"東京都調布市深大寺北町5丁目39-1","lat":35.67999023,"lon":139.54936542},{"name":"調布南高等学校","province":"東京都","city":"調布市","address":"東京都調布市多摩川6丁目2-1","lat":35.64401209,"lon":139.53953247},{"name":"放課後等デイサービス　わかば","province":"東京都","city":"調布市","address":"調布市若葉町二丁目26番29号ミタムラビル1階","lat":35.65698,"lon":139.589565},{"name":"ポコポコ・ホッピング神代団地","province":"東京都","city":"調布市","address":"調布市西つつじケ丘4-23神代団地33-103","lat":35.650103,"lon":139.576936},{"name":"アーリーバード　柴崎","province":"東京都","city":"調布市","address":"調布市菊野台一丁目52番地4三高家ビル2A","lat":35.655399,"lon":139.56567},{"name":"ゆうゆうくらぶ","province":"東京都","city":"調布市","address":"調布市柴崎1-56-1サニーハイツ1階","lat":35.659268,"lon":139.564973},{"name":"Green","province":"東京都","city":"調布市","address":"調布市調布ケ丘4-41-2","lat":35.662459,"lon":139.545539},{"name":"ちょうふの風","province":"東京都","city":"調布市","address":"調布市国領町3-8-15くすのきアパート5号棟114号","lat":35.648614,"lon":139.560591},{"name":"ふくふく","province":"東京都","city":"調布市","address":"調布市国領町5-74-1-103","lat":35.648969,"lon":139.551247},{"name":"ハッピーテラス調布教室","province":"東京都","city":"調布市","address":"調布市国領町1-9-3小谷田ビル1階103号室","lat":35.651158,"lon":139.551969},{"name":"ふみ月チャレンジ染地","province":"東京都","city":"調布市","address":"調布市染地1-17-15","lat":35.641979,"lon":139.548582},{"name":"クレヨンキッズ","province":"東京都","city":"調布市","address":"調布市布田2-4-10布田ビル1F","lat":35.65391,"lon":139.548575},{"name":"たんぽぽ","province":"東京都","city":"調布市","address":"調布市布田2-51-10トービル調布201","lat":35.650366,"lon":139.550092},{"name":"ドリームボックス　布田","province":"東京都","city":"調布市","address":"調布市布田3-55-17","lat":35.646725,"lon":139.550353},{"name":"アーリーバード","province":"東京都","city":"調布市","address":"調布市多摩川5-7-4","lat":35.644337,"lon":139.537185},{"name":"ふみ月チャレンジたま川","province":"東京都","city":"調布市","address":"調布市多摩川5-24-18","lat":35.643379,"lon":139.536647},{"name":"調布市総合福祉センター　放課後等デイサービス　ぴっころ","province":"東京都","city":"調布市","address":"調布市小島町2-47-1","lat":35.651397,"lon":139.542753},{"name":"通所運動療育障がい児リハビリセンター調布","province":"東京都","city":"調布市","address":"調布市小島町3-88-2","lat":35.645701,"lon":139.541104},{"name":"ポコポコ・ホッピング富士見町","province":"東京都","city":"調布市","address":"調布市富士見町2-17-17","lat":35.659376,"lon":139.54015},{"name":"れいんぼー","province":"東京都","city":"調布市","address":"調布市富士見町4-30-20","lat":35.668591,"lon":139.536136},{"name":"にこにこキッズルーム","province":"東京都","city":"調布市","address":"調布市下石原1-2-4ヤシマビル2階","lat":35.657687,"lon":139.53409},{"name":"ドリームボックス下石原","province":"東京都","city":"調布市","address":"調布市下石原一丁目32番地6下石原プラザ101号室","lat":35.656426,"lon":139.534535},{"name":"放課後等デイサービス　わかば　西調布店","province":"東京都","city":"調布市","address":"調布市下石原1-8-1西谷調布ビル102","lat":35.657979,"lon":139.536137},{"name":"調布市子ども家庭支援センターすこやか","province":"東京都","city":"調布市","address":"調布市国領町3-1-38ココスクエア2階","lat":35.649608,"lon":139.558644},{"name":"調布市子ども家庭支援センターすこやか","province":"東京都","city":"調布市","address":"調布市国領町3-1-38ココスクエア2階","lat":35.64957,"lon":139.55869},{"name":"味の素スタジアム（調布庁舎）","province":"東京都","city":"調布市","address":"東京都調布市西町376-3","lat":35.66355292,"lon":139.52508771},{"name":"神代高等学校","province":"東京都","city":"調布市","address":"東京都調布市若葉町1丁目46-1","lat":35.65693817,"lon":139.58619907},{"name":"調布北高等学校","province":"東京都","city":"調布市","address":"東京都調布市深大寺北町5丁目39-1","lat":35.67999023,"lon":139.54936542},{"name":"調布南高等学校","province":"東京都","city":"調布市","address":"東京都調布市多摩川6丁目2-1","lat":35.64401209,"lon":139.53953247},{"name":"放課後等デイサービス　わかば","province":"東京都","city":"調布市","address":"調布市若葉町二丁目26番29号ミタムラビル1階","lat":35.65698,"lon":139.589565},{"name":"ポコポコ・ホッピング神代団地","province":"東京都","city":"調布市","address":"調布市西つつじケ丘4-23神代団地33-103","lat":35.650103,"lon":139.576936},{"name":"アーリーバード　柴崎","province":"東京都","city":"調布市","address":"調布市菊野台一丁目52番地4三高家ビル2A","lat":35.655399,"lon":139.56567},{"name":"ゆうゆうくらぶ","province":"東京都","city":"調布市","address":"調布市柴崎1-56-1サニーハイツ1階","lat":35.659268,"lon":139.564973},{"name":"Green","province":"東京都","city":"調布市","address":"調布市調布ケ丘4-41-2","lat":35.662459,"lon":139.545539},{"name":"ちょうふの風","province":"東京都","city":"調布市","address":"調布市国領町3-8-15くすのきアパート5号棟114号","lat":35.648614,"lon":139.560591},{"name":"ふくふく","province":"東京都","city":"調布市","address":"調布市国領町5-74-1-103","lat":35.648969,"lon":139.551247},{"name":"ハッピーテラス調布教室","province":"東京都","city":"調布市","address":"調布市国領町1-9-3小谷田ビル1階103号室","lat":35.651158,"lon":139.551969},{"name":"ふみ月チャレンジ染地","province":"東京都","city":"調布市","address":"調布市染地1-17-15","lat":35.641979,"lon":139.548582},{"name":"クレヨンキッズ","province":"東京都","city":"調布市","address":"調布市布田2-4-10布田ビル1F","lat":35.65391,"lon":139.548575},{"name":"たんぽぽ","province":"東京都","city":"調布市","address":"調布市布田2-51-10トービル調布201","lat":35.650366,"lon":139.550092},{"name":"ドリームボックス　布田","province":"東京都","city":"調布市","address":"調布市布田3-55-17","lat":35.646725,"lon":139.550353},{"name":"アーリーバード","province":"東京都","city":"調布市","address":"調布市多摩川5-7-4","lat":35.644337,"lon":139.537185},{"name":"ふみ月チャレンジたま川","province":"東京都","city":"調布市","address":"調布市多摩川5-24-18","lat":35.643379,"lon":139.536647},{"name":"調布市総合福祉センター　放課後等デイサービス　ぴっころ","province":"東京都","city":"調布市","address":"調布市小島町2-47-1","lat":35.651397,"lon":139.542753},{"name":"通所運動療育障がい児リハビリセンター調布","province":"東京都","city":"調布市","address":"調布市小島町3-88-2","lat":35.645701,"lon":139.541104},{"name":"ポコポコ・ホッピング富士見町","province":"東京都","city":"調布市","address":"調布市富士見町2-17-17","lat":35.659376,"lon":139.54015},{"name":"れいんぼー","province":"東京都","city":"調布市","address":"調布市富士見町4-30-20","lat":35.668591,"lon":139.536136},{"name":"にこにこキッズルーム","province":"東京都","city":"調布市","address":"調布市下石原1-2-4ヤシマビル2階","lat":35.657687,"lon":139.53409},{"name":"ドリームボックス下石原","province":"東京都","city":"調布市","address":"調布市下石原一丁目32番地6下石原プラザ101号室","lat":35.656426,"lon":139.534535},{"name":"放課後等デイサービス　わかば　西調布店","province":"東京都","city":"調布市","address":"調布市下石原1-8-1西谷調布ビル102","lat":35.657979,"lon":139.536137},{"name":"調布市子ども家庭支援センターすこやか","province":"東京都","city":"調布市","address":"調布市国領町3-1-38ココスクエア2階","lat":35.649608,"lon":139.558644},{"name":"調布市子ども家庭支援センターすこやか","province":"東京都","city":"調布市","address":"調布市国領町3-1-38ココスクエア2階","lat":35.64957,"lon":139.55869},{"name":"味の素スタジアム（調布庁舎）","province":"東京都","city":"調布市","address":"東京都調布市西町376-3","lat":35.66355292,"lon":139.52508771},{"name":"神代高等学校","province":"東京都","city":"調布市","address":"東京都調布市若葉町1丁目46-1","lat":35.65693817,"lon":139.58619907},{"name":"調布北高等学校","province":"東京都","city":"調布市","address":"東京都調布市深大寺北町5丁目39-1","lat":35.67999023,"lon":139.54936542},{"name":"調布南高等学校","province":"東京都","city":"調布市","address":"東京都調布市多摩川6丁目2-1","lat":35.64401209,"lon":139.53953247},{"name":"放課後等デイサービス　わかば","province":"東京都","city":"調布市","address":"調布市若葉町二丁目26番29号ミタムラビル1階","lat":35.65698,"lon":139.589565},{"name":"ポコポコ・ホッピング神代団地","province":"東京都","city":"調布市","address":"調布市西つつじケ丘4-23神代団地33-103","lat":35.650103,"lon":139.576936},{"name":"アーリーバード　柴崎","province":"東京都","city":"調布市","address":"調布市菊野台一丁目52番地4三高家ビル2A","lat":35.655399,"lon":139.56567},{"name":"ゆうゆうくらぶ","province":"東京都","city":"調布市","address":"調布市柴崎1-56-1サニーハイツ1階","lat":35.659268,"lon":139.564973},{"name":"Green","province":"東京都","city":"調布市","address":"調布市調布ケ丘4-41-2","lat":35.662459,"lon":139.545539},{"name":"ちょうふの風","province":"東京都","city":"調布市","address":"調布市国領町3-8-15くすのきアパート5号棟114号","lat":35.648614,"lon":139.560591},{"name":"ふくふく","province":"東京都","city":"調布市","address":"調布市国領町5-74-1-103","lat":35.648969,"lon":139.551247},{"name":"ハッピーテラス調布教室","province":"東京都","city":"調布市","address":"調布市国領町1-9-3小谷田ビル1階103号室","lat":35.651158,"lon":139.551969},{"name":"ふみ月チャレンジ染地","province":"東京都","city":"調布市","address":"調布市染地1-17-15","lat":35.641979,"lon":139.548582},{"name":"クレヨンキッズ","province":"東京都","city":"調布市","address":"調布市布田2-4-10布田ビル1F","lat":35.65391,"lon":139.548575},{"name":"たんぽぽ","province":"東京都","city":"調布市","address":"調布市布田2-51-10トービル調布201","lat":35.650366,"lon":139.550092},{"name":"ドリームボックス　布田","province":"東京都","city":"調布市","address":"調布市布田3-55-17","lat":35.646725,"lon":139.550353},{"name":"アーリーバード","province":"東京都","city":"調布市","address":"調布市多摩川5-7-4","lat":35.644337,"lon":139.537185},{"name":"ふみ月チャレンジたま川","province":"東京都","city":"調布市","address":"調布市多摩川5-24-18","lat":35.643379,"lon":139.536647},{"name":"調布市総合福祉センター　放課後等デイサービス　ぴっころ","province":"東京都","city":"調布市","address":"調布市小島町2-47-1","lat":35.651397,"lon":139.542753},{"name":"通所運動療育障がい児リハビリセンター調布","province":"東京都","city":"調布市","address":"調布市小島町3-88-2","lat":35.645701,"lon":139.541104},{"name":"ポコポコ・ホッピング富士見町","province":"東京都","city":"調布市","address":"調布市富士見町2-17-17","lat":35.659376,"lon":139.54015},{"name":"れいんぼー","province":"東京都","city":"調布市","address":"調布市富士見町4-30-20","lat":35.668591,"lon":139.536136},{"name":"にこにこキッズルーム","province":"東京都","city":"調布市","address":"調布市下石原1-2-4ヤシマビル2階","lat":35.657687,"lon":139.53409},{"name":"ドリームボックス下石原","province":"東京都","city":"調布市","address":"調布市下石原一丁目32番地6下石原プラザ101号室","lat":35.656426,"lon":139.534535},{"name":"放課後等デイサービス　わかば　西調布店","province":"東京都","city":"調布市","address":"調布市下石原1-8-1西谷調布ビル102","lat":35.657979,"lon":139.536137},{"name":"調布市子ども家庭支援センターすこやか","province":"東京都","city":"調布市","address":"調布市国領町3-1-38ココスクエア2階","lat":35.649608,"lon":139.558644},{"name":"調布市子ども家庭支援センターすこやか","province":"東京都","city":"調布市","address":"調布市国領町3-1-38ココスクエア2階","lat":35.64957,"lon":139.55869},{"name":"味の素スタジアム（調布庁舎）","province":"東京都","city":"調布市","address":"東京都調布市西町376-3","lat":35.66355292,"lon":139.52508771},{"name":"神代高等学校","province":"東京都","city":"調布市","address":"東京都調布市若葉町1丁目46-1","lat":35.65693817,"lon":139.58619907},{"name":"調布北高等学校","province":"東京都","city":"調布市","address":"東京都調布市深大寺北町5丁目39-1","lat":35.67999023,"lon":139.54936542},{"name":"調布南高等学校","province":"東京都","city":"調布市","address":"東京都調布市多摩川6丁目2-1","lat":35.64401209,"lon":139.53953247},{"name":"放課後等デイサービス　わかば","province":"東京都","city":"調布市","address":"調布市若葉町二丁目26番29号ミタムラビル1階","lat":35.65698,"lon":139.589565},{"name":"ポコポコ・ホッピング神代団地","province":"東京都","city":"調布市","address":"調布市西つつじケ丘4-23神代団地33-103","lat":35.650103,"lon":139.576936},{"name":"アーリーバード　柴崎","province":"東京都","city":"調布市","address":"調布市菊野台一丁目52番地4三高家ビル2A","lat":35.655399,"lon":139.56567},{"name":"ゆうゆうくらぶ","province":"東京都","city":"調布市","address":"調布市柴崎1-56-1サニーハイツ1階","lat":35.659268,"lon":139.564973},{"name":"Green","province":"東京都","city":"調布市","address":"調布市調布ケ丘4-41-2","lat":35.662459,"lon":139.545539},{"name":"ちょうふの風","province":"東京都","city":"調布市","address":"調布市国領町3-8-15くすのきアパート5号棟114号","lat":35.648614,"lon":139.560591},{"name":"ふくふく","province":"東京都","city":"調布市","address":"調布市国領町5-74-1-103","lat":35.648969,"lon":139.551247},{"name":"ハッピーテラス調布教室","province":"東京都","city":"調布市","address":"調布市国領町1-9-3小谷田ビル1階103号室","lat":35.651158,"lon":139.551969},{"name":"ふみ月チャレンジ染地","province":"東京都","city":"調布市","address":"調布市染地1-17-15","lat":35.641979,"lon":139.548582},{"name":"クレヨンキッズ","province":"東京都","city":"調布市","address":"調布市布田2-4-10布田ビル1F","lat":35.65391,"lon":139.548575},{"name":"たんぽぽ","province":"東京都","city":"調布市","address":"調布市布田2-51-10トービル調布201","lat":35.650366,"lon":139.550092},{"name":"ドリームボックス　布田","province":"東京都","city":"調布市","address":"調布市布田3-55-17","lat":35.646725,"lon":139.550353},{"name":"アーリーバード","province":"東京都","city":"調布市","address":"調布市多摩川5-7-4","lat":35.644337,"lon":139.537185},{"name":"ふみ月チャレンジたま川","province":"東京都","city":"調布市","address":"調布市多摩川5-24-18","lat":35.643379,"lon":139.536647},{"name":"調布市総合福祉センター　放課後等デイサービス　ぴっころ","province":"東京都","city":"調布市","address":"調布市小島町2-47-1","lat":35.651397,"lon":139.542753},{"name":"通所運動療育障がい児リハビリセンター調布","province":"東京都","city":"調布市","address":"調布市小島町3-88-2","lat":35.645701,"lon":139.541104},{"name":"ポコポコ・ホッピング富士見町","province":"東京都","city":"調布市","address":"調布市富士見町2-17-17","lat":35.659376,"lon":139.54015},{"name":"れいんぼー","province":"東京都","city":"調布市","address":"調布市富士見町4-30-20","lat":35.668591,"lon":139.536136},{"name":"にこにこキッズルーム","province":"東京都","city":"調布市","address":"調布市下石原1-2-4ヤシマビル2階","lat":35.657687,"lon":139.53409},{"name":"ドリームボックス下石原","province":"東京都","city":"調布市","address":"調布市下石原一丁目32番地6下石原プラザ101号室","lat":35.656426,"lon":139.534535},{"name":"放課後等デイサービス　わかば　西調布店","province":"東京都","city":"調布市","address":"調布市下石原1-8-1西谷調布ビル102","lat":35.657979,"lon":139.536137},{"name":"調布市子ども家庭支援センターすこやか","province":"東京都","city":"調布市","address":"調布市国領町3-1-38ココスクエア2階","lat":35.649608,"lon":139.558644},{"name":"調布市子ども家庭支援センターすこやか","province":"東京都","city":"調布市","address":"調布市国領町3-1-38ココスクエア2階","lat":35.64957,"lon":139.55869},{"name":"味の素スタジアム（調布庁舎）","province":"東京都","city":"調布市","address":"東京都調布市西町376-3","lat":35.66355292,"lon":139.52508771},{"name":"神代高等学校","province":"東京都","city":"調布市","address":"東京都調布市若葉町1丁目46-1","lat":35.65693817,"lon":139.58619907},{"name":"調布北高等学校","province":"東京都","city":"調布市","address":"東京都調布市深大寺北町5丁目39-1","lat":35.67999023,"lon":139.54936542},{"name":"調布南高等学校","province":"東京都","city":"調布市","address":"東京都調布市多摩川6丁目2-1","lat":35.64401209,"lon":139.53953247},{"name":"放課後等デイサービス　わかば","province":"東京都","city":"調布市","address":"調布市若葉町二丁目26番29号ミタムラビル1階","lat":35.65698,"lon":139.589565},{"name":"ポコポコ・ホッピング神代団地","province":"東京都","city":"調布市","address":"調布市西つつじケ丘4-23神代団地33-103","lat":35.650103,"lon":139.576936},{"name":"アーリーバード　柴崎","province":"東京都","city":"調布市","address":"調布市菊野台一丁目52番地4三高家ビル2A","lat":35.655399,"lon":139.56567},{"name":"ゆうゆうくらぶ","province":"東京都","city":"調布市","address":"調布市柴崎1-56-1サニーハイツ1階","lat":35.659268,"lon":139.564973},{"name":"Green","province":"東京都","city":"調布市","address":"調布市調布ケ丘4-41-2","lat":35.662459,"lon":139.545539},{"name":"ちょうふの風","province":"東京都","city":"調布市","address":"調布市国領町3-8-15くすのきアパート5号棟114号","lat":35.648614,"lon":139.560591},{"name":"ふくふく","province":"東京都","city":"調布市","address":"調布市国領町5-74-1-103","lat":35.648969,"lon":139.551247},{"name":"ハッピーテラス調布教室","province":"東京都","city":"調布市","address":"調布市国領町1-9-3小谷田ビル1階103号室","lat":35.651158,"lon":139.551969},{"name":"ふみ月チャレンジ染地","province":"東京都","city":"調布市","address":"調布市染地1-17-15","lat":35.641979,"lon":139.548582},{"name":"クレヨンキッズ","province":"東京都","city":"調布市","address":"調布市布田2-4-10布田ビル1F","lat":35.65391,"lon":139.548575},{"name":"たんぽぽ","province":"東京都","city":"調布市","address":"調布市布田2-51-10トービル調布201","lat":35.650366,"lon":139.550092},{"name":"ドリームボックス　布田","province":"東京都","city":"調布市","address":"調布市布田3-55-17","lat":35.646725,"lon":139.550353},{"name":"アーリーバード","province":"東京都","city":"調布市","address":"調布市多摩川5-7-4","lat":35.644337,"lon":139.537185},{"name":"ふみ月チャレンジたま川","province":"東京都","city":"調布市","address":"調布市多摩川5-24-18","lat":35.643379,"lon":139.536647},{"name":"調布市総合福祉センター　放課後等デイサービス　ぴっころ","province":"東京都","city":"調布市","address":"調布市小島町2-47-1","lat":35.651397,"lon":139.542753},{"name":"通所運動療育障がい児リハビリセンター調布","province":"東京都","city":"調布市","address":"調布市小島町3-88-2","lat":35.645701,"lon":139.541104},{"name":"ポコポコ・ホッピング富士見町","province":"東京都","city":"調布市","address":"調布市富士見町2-17-17","lat":35.659376,"lon":139.54015},{"name":"れいんぼー","province":"東京都","city":"調布市","address":"調布市富士見町4-30-20","lat":35.668591,"lon":139.536136},{"name":"にこにこキッズルーム","province":"東京都","city":"調布市","address":"調布市下石原1-2-4ヤシマビル2階","lat":35.657687,"lon":139.53409},{"name":"ドリームボックス下石原","province":"東京都","city":"調布市","address":"調布市下石原一丁目32番地6下石原プラザ101号室","lat":35.656426,"lon":139.534535},{"name":"放課後等デイサービス　わかば　西調布店","province":"東京都","city":"調布市","address":"調布市下石原1-8-1西谷調布ビル102","lat":35.657979,"lon":139.536137},{"name":"調布市子ども家庭支援センターすこやか","province":"東京都","city":"調布市","address":"調布市国領町3-1-38ココスクエア2階","lat":35.649608,"lon":139.558644},{"name":"調布市子ども家庭支援センターすこやか","province":"東京都","city":"調布市","address":"調布市国領町3-1-38ココスクエア2階","lat":35.64957,"lon":139.55869},{"name":"味の素スタジアム（調布庁舎）","province":"東京都","city":"調布市","address":"東京都調布市西町376-3","lat":35.66355292,"lon":139.52508771},{"name":"神代高等学校","province":"東京都","city":"調布市","address":"東京都調布市若葉町1丁目46-1","lat":35.65693817,"lon":139.58619907},{"name":"調布北高等学校","province":"東京都","city":"調布市","address":"東京都調布市深大寺北町5丁目39-1","lat":35.67999023,"lon":139.54936542},{"name":"調布南高等学校","province":"東京都","city":"調布市","address":"東京都調布市多摩川6丁目2-1","lat":35.64401209,"lon":139.53953247},{"name":"放課後等デイサービス　わかば","province":"東京都","city":"調布市","address":"調布市若葉町二丁目26番29号ミタムラビル1階","lat":35.65698,"lon":139.589565},{"name":"ポコポコ・ホッピング神代団地","province":"東京都","city":"調布市","address":"調布市西つつじケ丘4-23神代団地33-103","lat":35.650103,"lon":139.576936},{"name":"アーリーバード　柴崎","province":"東京都","city":"調布市","address":"調布市菊野台一丁目52番地4三高家ビル2A","lat":35.655399,"lon":139.56567},{"name":"ゆうゆうくらぶ","province":"東京都","city":"調布市","address":"調布市柴崎1-56-1サニーハイツ1階","lat":35.659268,"lon":139.564973},{"name":"Green","province":"東京都","city":"調布市","address":"調布市調布ケ丘4-41-2","lat":35.662459,"lon":139.545539},{"name":"ちょうふの風","province":"東京都","city":"調布市","address":"調布市国領町3-8-15くすのきアパート5号棟114号","lat":35.648614,"lon":139.560591},{"name":"ふくふく","province":"東京都","city":"調布市","address":"調布市国領町5-74-1-103","lat":35.648969,"lon":139.551247},{"name":"ハッピーテラス調布教室","province":"東京都","city":"調布市","address":"調布市国領町1-9-3小谷田ビル1階103号室","lat":35.651158,"lon":139.551969},{"name":"ふみ月チャレンジ染地","province":"東京都","city":"調布市","address":"調布市染地1-17-15","lat":35.641979,"lon":139.548582},{"name":"クレヨンキッズ","province":"東京都","city":"調布市","address":"調布市布田2-4-10布田ビル1F","lat":35.65391,"lon":139.548575},{"name":"たんぽぽ","province":"東京都","city":"調布市","address":"調布市布田2-51-10トービル調布201","lat":35.650366,"lon":139.550092},{"name":"ドリームボックス　布田","province":"東京都","city":"調布市","address":"調布市布田3-55-17","lat":35.646725,"lon":139.550353},{"name":"アーリーバード","province":"東京都","city":"調布市","address":"調布市多摩川5-7-4","lat":35.644337,"lon":139.537185},{"name":"ふみ月チャレンジたま川","province":"東京都","city":"調布市","address":"調布市多摩川5-24-18","lat":35.643379,"lon":139.536647},{"name":"調布市総合福祉センター　放課後等デイサービス　ぴっころ","province":"東京都","city":"調布市","address":"調布市小島町2-47-1","lat":35.651397,"lon":139.542753},{"name":"通所運動療育障がい児リハビリセンター調布","province":"東京都","city":"調布市","address":"調布市小島町3-88-2","lat":35.645701,"lon":139.541104},{"name":"ポコポコ・ホッピング富士見町","province":"東京都","city":"調布市","address":"調布市富士見町2-17-17","lat":35.659376,"lon":139.54015},{"name":"れいんぼー","province":"東京都","city":"調布市","address":"調布市富士見町4-30-20","lat":35.668591,"lon":139.536136},{"name":"にこにこキッズルーム","province":"東京都","city":"調布市","address":"調布市下石原1-2-4ヤシマビル2階","lat":35.657687,"lon":139.53409},{"name":"ドリームボックス下石原","province":"東京都","city":"調布市","address":"調布市下石原一丁目32番地6下石原プラザ101号室","lat":35.656426,"lon":139.534535},{"name":"放課後等デイサービス　わかば　西調布店","province":"東京都","city":"調布市","address":"調布市下石原1-8-1西谷調布ビル102","lat":35.657979,"lon":139.536137},{"name":"調布市子ども家庭支援センターすこやか","province":"東京都","city":"調布市","address":"調布市国領町3-1-38ココスクエア2階","lat":35.649608,"lon":139.558644},{"name":"調布市子ども家庭支援センターすこやか","province":"東京都","city":"調布市","address":"調布市国領町3-1-38ココスクエア2階","lat":35.64957,"lon":139.55869},{"name":"味の素スタジアム（調布庁舎）","province":"東京都","city":"調布市","address":"東京都調布市西町376-3","lat":35.66355292,"lon":139.52508771},{"name":"神代高等学校","province":"東京都","city":"調布市","address":"東京都調布市若葉町1丁目46-1","lat":35.65693817,"lon":139.58619907},{"name":"調布北高等学校","province":"東京都","city":"調布市","address":"東京都調布市深大寺北町5丁目39-1","lat":35.67999023,"lon":139.54936542},{"name":"調布南高等学校","province":"東京都","city":"調布市","address":"東京都調布市多摩川6丁目2-1","lat":35.64401209,"lon":139.53953247},{"name":"放課後等デイサービス　わかば","province":"東京都","city":"調布市","address":"調布市若葉町二丁目26番29号ミタムラビル1階","lat":35.65698,"lon":139.589565},{"name":"ポコポコ・ホッピング神代団地","province":"東京都","city":"調布市","address":"調布市西つつじケ丘4-23神代団地33-103","lat":35.650103,"lon":139.576936},{"name":"アーリーバード　柴崎","province":"東京都","city":"調布市","address":"調布市菊野台一丁目52番地4三高家ビル2A","lat":35.655399,"lon":139.56567},{"name":"ゆうゆうくらぶ","province":"東京都","city":"調布市","address":"調布市柴崎1-56-1サニーハイツ1階","lat":35.659268,"lon":139.564973},{"name":"Green","province":"東京都","city":"調布市","address":"調布市調布ケ丘4-41-2","lat":35.662459,"lon":139.545539},{"name":"ちょうふの風","province":"東京都","city":"調布市","address":"調布市国領町3-8-15くすのきアパート5号棟114号","lat":35.648614,"lon":139.560591},{"name":"ふくふく","province":"東京都","city":"調布市","address":"調布市国領町5-74-1-103","lat":35.648969,"lon":139.551247},{"name":"ハッピーテラス調布教室","province":"東京都","city":"調布市","address":"調布市国領町1-9-3小谷田ビル1階103号室","lat":35.651158,"lon":139.551969},{"name":"ふみ月チャレンジ染地","province":"東京都","city":"調布市","address":"調布市染地1-17-15","lat":35.641979,"lon":139.548582},{"name":"クレヨンキッズ","province":"東京都","city":"調布市","address":"調布市布田2-4-10布田ビル1F","lat":35.65391,"lon":139.548575},{"name":"たんぽぽ","province":"東京都","city":"調布市","address":"調布市布田2-51-10トービル調布201","lat":35.650366,"lon":139.550092},{"name":"ドリームボックス　布田","province":"東京都","city":"調布市","address":"調布市布田3-55-17","lat":35.646725,"lon":139.550353},{"name":"アーリーバード","province":"東京都","city":"調布市","address":"調布市多摩川5-7-4","lat":35.644337,"lon":139.537185},{"name":"ふみ月チャレンジたま川","province":"東京都","city":"調布市","address":"調布市多摩川5-24-18","lat":35.643379,"lon":139.536647},{"name":"調布市総合福祉センター　放課後等デイサービス　ぴっころ","province":"東京都","city":"調布市","address":"調布市小島町2-47-1","lat":35.651397,"lon":139.542753},{"name":"通所運動療育障がい児リハビリセンター調布","province":"東京都","city":"調布市","address":"調布市小島町3-88-2","lat":35.645701,"lon":139.541104},{"name":"ポコポコ・ホッピング富士見町","province":"東京都","city":"調布市","address":"調布市富士見町2-17-17","lat":35.659376,"lon":139.54015},{"name":"れいんぼー","province":"東京都","city":"調布市","address":"調布市富士見町4-30-20","lat":35.668591,"lon":139.536136},{"name":"にこにこキッズルーム","province":"東京都","city":"調布市","address":"調布市下石原1-2-4ヤシマビル2階","lat":35.657687,"lon":139.53409},{"name":"ドリームボックス下石原","province":"東京都","city":"調布市","address":"調布市下石原一丁目32番地6下石原プラザ101号室","lat":35.656426,"lon":139.534535},{"name":"放課後等デイサービス　わかば　西調布店","province":"東京都","city":"調布市","address":"調布市下石原1-8-1西谷調布ビル102","lat":35.657979,"lon":139.536137},{"name":"調布市子ども家庭支援センターすこやか","province":"東京都","city":"調布市","address":"調布市国領町3-1-38ココスクエア2階","lat":35.649608,"lon":139.558644},{"name":"調布市子ども家庭支援センターすこやか","province":"東京都","city":"調布市","address":"調布市国領町3-1-38ココスクエア2階","lat":35.64957,"lon":139.55869},{"name":"味の素スタジアム（調布庁舎）","province":"東京都","city":"調布市","address":"東京都調布市西町376-3","lat":35.66355292,"lon":139.52508771},{"name":"神代高等学校","province":"東京都","city":"調布市","address":"東京都調布市若葉町1丁目46-1","lat":35.65693817,"lon":139.58619907},{"name":"調布北高等学校","province":"東京都","city":"調布市","address":"東京都調布市深大寺北町5丁目39-1","lat":35.67999023,"lon":139.54936542},{"name":"調布南高等学校","province":"東京都","city":"調布市","address":"東京都調布市多摩川6丁目2-1","lat":35.64401209,"lon":139.53953247},{"name":"放課後等デイサービス　わかば","province":"東京都","city":"調布市","address":"調布市若葉町二丁目26番29号ミタムラビル1階","lat":35.65698,"lon":139.589565},{"name":"ポコポコ・ホッピング神代団地","province":"東京都","city":"調布市","address":"調布市西つつじケ丘4-23神代団地33-103","lat":35.650103,"lon":139.576936},{"name":"アーリーバード　柴崎","province":"東京都","city":"調布市","address":"調布市菊野台一丁目52番地4三高家ビル2A","lat":35.655399,"lon":139.56567},{"name":"ゆうゆうくらぶ","province":"東京都","city":"調布市","address":"調布市柴崎1-56-1サニーハイツ1階","lat":35.659268,"lon":139.564973},{"name":"Green","province":"東京都","city":"調布市","address":"調布市調布ケ丘4-41-2","lat":35.662459,"lon":139.545539},{"name":"ちょうふの風","province":"東京都","city":"調布市","address":"調布市国領町3-8-15くすのきアパート5号棟114号","lat":35.648614,"lon":139.560591},{"name":"ふくふく","province":"東京都","city":"調布市","address":"調布市国領町5-74-1-103","lat":35.648969,"lon":139.551247},{"name":"ハッピーテラス調布教室","province":"東京都","city":"調布市","address":"調布市国領町1-9-3小谷田ビル1階103号室","lat":35.651158,"lon":139.551969},{"name":"ふみ月チャレンジ染地","province":"東京都","city":"調布市","address":"調布市染地1-17-15","lat":35.641979,"lon":139.548582},{"name":"クレヨンキッズ","province":"東京都","city":"調布市","address":"調布市布田2-4-10布田ビル1F","lat":35.65391,"lon":139.548575},{"name":"たんぽぽ","province":"東京都","city":"調布市","address":"調布市布田2-51-10トービル調布201","lat":35.650366,"lon":139.550092},{"name":"ドリームボックス　布田","province":"東京都","city":"調布市","address":"調布市布田3-55-17","lat":35.646725,"lon":139.550353},{"name":"アーリーバード","province":"東京都","city":"調布市","address":"調布市多摩川5-7-4","lat":35.644337,"lon":139.537185},{"name":"ふみ月チャレンジたま川","province":"東京都","city":"調布市","address":"調布市多摩川5-24-18","lat":35.643379,"lon":139.536647},{"name":"調布市総合福祉センター　放課後等デイサービス　ぴっころ","province":"東京都","city":"調布市","address":"調布市小島町2-47-1","lat":35.651397,"lon":139.542753},{"name":"通所運動療育障がい児リハビリセンター調布","province":"東京都","city":"調布市","address":"調布市小島町3-88-2","lat":35.645701,"lon":139.541104},{"name":"ポコポコ・ホッピング富士見町","province":"東京都","city":"調布市","address":"調布市富士見町2-17-17","lat":35.659376,"lon":139.54015},{"name":"れいんぼー","province":"東京都","city":"調布市","address":"調布市富士見町4-30-20","lat":35.668591,"lon":139.536136},{"name":"にこにこキッズルーム","province":"東京都","city":"調布市","address":"調布市下石原1-2-4ヤシマビル2階","lat":35.657687,"lon":139.53409},{"name":"ドリームボックス下石原","province":"東京都","city":"調布市","address":"調布市下石原一丁目32番地6下石原プラザ101号室","lat":35.656426,"lon":139.534535},{"name":"放課後等デイサービス　わかば　西調布店","province":"東京都","city":"調布市","address":"調布市下石原1-8-1西谷調布ビル102","lat":35.657979,"lon":139.536137},{"name":"調布市子ども家庭支援センターすこやか","province":"東京都","city":"調布市","address":"調布市国領町3-1-38ココスクエア2階","lat":35.649608,"lon":139.558644},{"name":"調布市子ども家庭支援センターすこやか","province":"東京都","city":"調布市","address":"調布市国領町3-1-38ココスクエア2階","lat":35.64957,"lon":139.55869},{"name":"味の素スタジアム（調布庁舎）","province":"東京都","city":"調布市","address":"東京都調布市西町376-3","lat":35.66355292,"lon":139.52508771},{"name":"神代高等学校","province":"東京都","city":"調布市","address":"東京都調布市若葉町1丁目46-1","lat":35.65693817,"lon":139.58619907},{"name":"調布北高等学校","province":"東京都","city":"調布市","address":"東京都調布市深大寺北町5丁目39-1","lat":35.67999023,"lon":139.54936542},{"name":"調布南高等学校","province":"東京都","city":"調布市","address":"東京都調布市多摩川6丁目2-1","lat":35.64401209,"lon":139.53953247},{"name":"放課後等デイサービス　わかば","province":"東京都","city":"調布市","address":"調布市若葉町二丁目26番29号ミタムラビル1階","lat":35.65698,"lon":139.589565},{"name":"ポコポコ・ホッピング神代団地","province":"東京都","city":"調布市","address":"調布市西つつじケ丘4-23神代団地33-103","lat":35.650103,"lon":139.576936},{"name":"アーリーバード　柴崎","province":"東京都","city":"調布市","address":"調布市菊野台一丁目52番地4三高家ビル2A","lat":35.655399,"lon":139.56567},{"name":"ゆうゆうくらぶ","province":"東京都","city":"調布市","address":"調布市柴崎1-56-1サニーハイツ1階","lat":35.659268,"lon":139.564973},{"name":"Green","province":"東京都","city":"調布市","address":"調布市調布ケ丘4-41-2","lat":35.662459,"lon":139.545539},{"name":"ちょうふの風","province":"東京都","city":"調布市","address":"調布市国領町3-8-15くすのきアパート5号棟114号","lat":35.648614,"lon":139.560591},{"name":"ふくふく","province":"東京都","city":"調布市","address":"調布市国領町5-74-1-103","lat":35.648969,"lon":139.551247},{"name":"ハッピーテラス調布教室","province":"東京都","city":"調布市","address":"調布市国領町1-9-3小谷田ビル1階103号室","lat":35.651158,"lon":139.551969},{"name":"ふみ月チャレンジ染地","province":"東京都","city":"調布市","address":"調布市染地1-17-15","lat":35.641979,"lon":139.548582},{"name":"クレヨンキッズ","province":"東京都","city":"調布市","address":"調布市布田2-4-10布田ビル1F","lat":35.65391,"lon":139.548575},{"name":"たんぽぽ","province":"東京都","city":"調布市","address":"調布市布田2-51-10トービル調布201","lat":35.650366,"lon":139.550092},{"name":"ドリームボックス　布田","province":"東京都","city":"調布市","address":"調布市布田3-55-17","lat":35.646725,"lon":139.550353},{"name":"アーリーバード","province":"東京都","city":"調布市","address":"調布市多摩川5-7-4","lat":35.644337,"lon":139.537185},{"name":"ふみ月チャレンジたま川","province":"東京都","city":"調布市","address":"調布市多摩川5-24-18","lat":35.643379,"lon":139.536647},{"name":"調布市総合福祉センター　放課後等デイサービス　ぴっころ","province":"東京都","city":"調布市","address":"調布市小島町2-47-1","lat":35.651397,"lon":139.542753},{"name":"通所運動療育障がい児リハビリセンター調布","province":"東京都","city":"調布市","address":"調布市小島町3-88-2","lat":35.645701,"lon":139.541104},{"name":"ポコポコ・ホッピング富士見町","province":"東京都","city":"調布市","address":"調布市富士見町2-17-17","lat":35.659376,"lon":139.54015},{"name":"れいんぼー","province":"東京都","city":"調布市","address":"調布市富士見町4-30-20","lat":35.668591,"lon":139.536136},{"name":"にこにこキッズルーム","province":"東京都","city":"調布市","address":"調布市下石原1-2-4ヤシマビル2階","lat":35.657687,"lon":139.53409},{"name":"ドリームボックス下石原","province":"東京都","city":"調布市","address":"調布市下石原一丁目32番地6下石原プラザ101号室","lat":35.656426,"lon":139.534535},{"name":"放課後等デイサービス　わかば　西調布店","province":"東京都","city":"調布市","address":"調布市下石原1-8-1西谷調布ビル102","lat":35.657979,"lon":139.536137},{"name":"調布市子ども家庭支援センターすこやか","province":"東京都","city":"調布市","address":"調布市国領町3-1-38ココスクエア2階","lat":35.649608,"lon":139.558644},{"name":"調布市子ども家庭支援センターすこやか","province":"東京都","city":"調布市","address":"調布市国領町3-1-38ココスクエア2階","lat":35.64957,"lon":139.55869},{"name":"味の素スタジアム（調布庁舎）","province":"東京都","city":"調布市","address":"東京都調布市西町376-3","lat":35.66355292,"lon":139.52508771},{"name":"神代高等学校","province":"東京都","city":"調布市","address":"東京都調布市若葉町1丁目46-1","lat":35.65693817,"lon":139.58619907},{"name":"調布北高等学校","province":"東京都","city":"調布市","address":"東京都調布市深大寺北町5丁目39-1","lat":35.67999023,"lon":139.54936542},{"name":"調布南高等学校","province":"東京都","city":"調布市","address":"東京都調布市多摩川6丁目2-1","lat":35.64401209,"lon":139.53953247},{"name":"放課後等デイサービス　わかば","province":"東京都","city":"調布市","address":"調布市若葉町二丁目26番29号ミタムラビル1階","lat":35.65698,"lon":139.589565},{"name":"ポコポコ・ホッピング神代団地","province":"東京都","city":"調布市","address":"調布市西つつじケ丘4-23神代団地33-103","lat":35.650103,"lon":139.576936},{"name":"アーリーバード　柴崎","province":"東京都","city":"調布市","address":"調布市菊野台一丁目52番地4三高家ビル2A","lat":35.655399,"lon":139.56567},{"name":"ゆうゆうくらぶ","province":"東京都","city":"調布市","address":"調布市柴崎1-56-1サニーハイツ1階","lat":35.659268,"lon":139.564973},{"name":"Green","province":"東京都","city":"調布市","address":"調布市調布ケ丘4-41-2","lat":35.662459,"lon":139.545539},{"name":"ちょうふの風","province":"東京都","city":"調布市","address":"調布市国領町3-8-15くすのきアパート5号棟114号","lat":35.648614,"lon":139.560591},{"name":"ふくふく","province":"東京都","city":"調布市","address":"調布市国領町5-74-1-103","lat":35.648969,"lon":139.551247},{"name":"ハッピーテラス調布教室","province":"東京都","city":"調布市","address":"調布市国領町1-9-3小谷田ビル1階103号室","lat":35.651158,"lon":139.551969},{"name":"ふみ月チャレンジ染地","province":"東京都","city":"調布市","address":"調布市染地1-17-15","lat":35.641979,"lon":139.548582},{"name":"クレヨンキッズ","province":"東京都","city":"調布市","address":"調布市布田2-4-10布田ビル1F","lat":35.65391,"lon":139.548575},{"name":"たんぽぽ","province":"東京都","city":"調布市","address":"調布市布田2-51-10トービル調布201","lat":35.650366,"lon":139.550092},{"name":"ドリームボックス　布田","province":"東京都","city":"調布市","address":"調布市布田3-55-17","lat":35.646725,"lon":139.550353},{"name":"アーリーバード","province":"東京都","city":"調布市","address":"調布市多摩川5-7-4","lat":35.644337,"lon":139.537185},{"name":"ふみ月チャレンジたま川","province":"東京都","city":"調布市","address":"調布市多摩川5-24-18","lat":35.643379,"lon":139.536647},{"name":"調布市総合福祉センター　放課後等デイサービス　ぴっころ","province":"東京都","city":"調布市","address":"調布市小島町2-47-1","lat":35.651397,"lon":139.542753},{"name":"通所運動療育障がい児リハビリセンター調布","province":"東京都","city":"調布市","address":"調布市小島町3-88-2","lat":35.645701,"lon":139.541104},{"name":"ポコポコ・ホッピング富士見町","province":"東京都","city":"調布市","address":"調布市富士見町2-17-17","lat":35.659376,"lon":139.54015},{"name":"れいんぼー","province":"東京都","city":"調布市","address":"調布市富士見町4-30-20","lat":35.668591,"lon":139.536136},{"name":"にこにこキッズルーム","province":"東京都","city":"調布市","address":"調布市下石原1-2-4ヤシマビル2階","lat":35.657687,"lon":139.53409},{"name":"ドリームボックス下石原","province":"東京都","city":"調布市","address":"調布市下石原一丁目32番地6下石原プラザ101号室","lat":35.656426,"lon":139.534535},{"name":"放課後等デイサービス　わかば　西調布店","province":"東京都","city":"調布市","address":"調布市下石原1-8-1西谷調布ビル102","lat":35.657979,"lon":139.536137},{"name":"調布市子ども家庭支援センターすこやか","province":"東京都","city":"調布市","address":"調布市国領町3-1-38ココスクエア2階","lat":35.649608,"lon":139.558644},{"name":"調布市子ども家庭支援センターすこやか","province":"東京都","city":"調布市","address":"調布市国領町3-1-38ココスクエア2階","lat":35.64957,"lon":139.55869},{"name":"味の素スタジアム（調布庁舎）","province":"東京都","city":"調布市","address":"東京都調布市西町376-3","lat":35.66355292,"lon":139.52508771},{"name":"神代高等学校","province":"東京都","city":"調布市","address":"東京都調布市若葉町1丁目46-1","lat":35.65693817,"lon":139.58619907},{"name":"調布北高等学校","province":"東京都","city":"調布市","address":"東京都調布市深大寺北町5丁目39-1","lat":35.67999023,"lon":139.54936542},{"name":"調布南高等学校","province":"東京都","city":"調布市","address":"東京都調布市多摩川6丁目2-1","lat":35.64401209,"lon":139.53953247},{"name":"放課後等デイサービス　わかば","province":"東京都","city":"調布市","address":"調布市若葉町二丁目26番29号ミタムラビル1階","lat":35.65698,"lon":139.589565},{"name":"ポコポコ・ホッピング神代団地","province":"東京都","city":"調布市","address":"調布市西つつじケ丘4-23神代団地33-103","lat":35.650103,"lon":139.576936},{"name":"アーリーバード　柴崎","province":"東京都","city":"調布市","address":"調布市菊野台一丁目52番地4三高家ビル2A","lat":35.655399,"lon":139.56567},{"name":"ゆうゆうくらぶ","province":"東京都","city":"調布市","address":"調布市柴崎1-56-1サニーハイツ1階","lat":35.659268,"lon":139.564973},{"name":"Green","province":"東京都","city":"調布市","address":"調布市調布ケ丘4-41-2","lat":35.662459,"lon":139.545539},{"name":"ちょうふの風","province":"東京都","city":"調布市","address":"調布市国領町3-8-15くすのきアパート5号棟114号","lat":35.648614,"lon":139.560591},{"name":"ふくふく","province":"東京都","city":"調布市","address":"調布市国領町5-74-1-103","lat":35.648969,"lon":139.551247},{"name":"ハッピーテラス調布教室","province":"東京都","city":"調布市","address":"調布市国領町1-9-3小谷田ビル1階103号室","lat":35.651158,"lon":139.551969},{"name":"ふみ月チャレンジ染地","province":"東京都","city":"調布市","address":"調布市染地1-17-15","lat":35.641979,"lon":139.548582},{"name":"クレヨンキッズ","province":"東京都","city":"調布市","address":"調布市布田2-4-10布田ビル1F","lat":35.65391,"lon":139.548575},{"name":"たんぽぽ","province":"東京都","city":"調布市","address":"調布市布田2-51-10トービル調布201","lat":35.650366,"lon":139.550092},{"name":"ドリームボックス　布田","province":"東京都","city":"調布市","address":"調布市布田3-55-17","lat":35.646725,"lon":139.550353},{"name":"アーリーバード","province":"東京都","city":"調布市","address":"調布市多摩川5-7-4","lat":35.644337,"lon":139.537185},{"name":"ふみ月チャレンジたま川","province":"東京都","city":"調布市","address":"調布市多摩川5-24-18","lat":35.643379,"lon":139.536647},{"name":"調布市総合福祉センター　放課後等デイサービス　ぴっころ","province":"東京都","city":"調布市","address":"調布市小島町2-47-1","lat":35.651397,"lon":139.542753},{"name":"通所運動療育障がい児リハビリセンター調布","province":"東京都","city":"調布市","address":"調布市小島町3-88-2","lat":35.645701,"lon":139.541104},{"name":"ポコポコ・ホッピング富士見町","province":"東京都","city":"調布市","address":"調布市富士見町2-17-17","lat":35.659376,"lon":139.54015},{"name":"れいんぼー","province":"東京都","city":"調布市","address":"調布市富士見町4-30-20","lat":35.668591,"lon":139.536136},{"name":"にこにこキッズルーム","province":"東京都","city":"調布市","address":"調布市下石原1-2-4ヤシマビル2階","lat":35.657687,"lon":139.53409},{"name":"ドリームボックス下石原","province":"東京都","city":"調布市","address":"調布市下石原一丁目32番地6下石原プラザ101号室","lat":35.656426,"lon":139.534535},{"name":"放課後等デイサービス　わかば　西調布店","province":"東京都","city":"調布市","address":"調布市下石原1-8-1西谷調布ビル102","lat":35.657979,"lon":139.536137},{"name":"調布市子ども家庭支援センターすこやか","province":"東京都","city":"調布市","address":"調布市国領町3-1-38ココスクエア2階","lat":35.649608,"lon":139.558644},{"name":"調布市子ども家庭支援センターすこやか","province":"東京都","city":"調布市","address":"調布市国領町3-1-38ココスクエア2階","lat":35.64957,"lon":139.55869},{"name":"味の素スタジアム（調布庁舎）","province":"東京都","city":"調布市","address":"東京都調布市西町376-3","lat":35.66355292,"lon":139.52508771},{"name":"神代高等学校","province":"東京都","city":"調布市","address":"東京都調布市若葉町1丁目46-1","lat":35.65693817,"lon":139.58619907},{"name":"調布北高等学校","province":"東京都","city":"調布市","address":"東京都調布市深大寺北町5丁目39-1","lat":35.67999023,"lon":139.54936542},{"name":"調布南高等学校","province":"東京都","city":"調布市","address":"東京都調布市多摩川6丁目2-1","lat":35.64401209,"lon":139.53953247},{"name":"放課後等デイサービス　わかば","province":"東京都","city":"調布市","address":"調布市若葉町二丁目26番29号ミタムラビル1階","lat":35.65698,"lon":139.589565},{"name":"ポコポコ・ホッピング神代団地","province":"東京都","city":"調布市","address":"調布市西つつじケ丘4-23神代団地33-103","lat":35.650103,"lon":139.576936},{"name":"アーリーバード　柴崎","province":"東京都","city":"調布市","address":"調布市菊野台一丁目52番地4三高家ビル2A","lat":35.655399,"lon":139.56567},{"name":"ゆうゆうくらぶ","province":"東京都","city":"調布市","address":"調布市柴崎1-56-1サニーハイツ1階","lat":35.659268,"lon":139.564973},{"name":"Green","province":"東京都","city":"調布市","address":"調布市調布ケ丘4-41-2","lat":35.662459,"lon":139.545539},{"name":"ちょうふの風","province":"東京都","city":"調布市","address":"調布市国領町3-8-15くすのきアパート5号棟114号","lat":35.648614,"lon":139.560591},{"name":"ふくふく","province":"東京都","city":"調布市","address":"調布市国領町5-74-1-103","lat":35.648969,"lon":139.551247},{"name":"ハッピーテラス調布教室","province":"東京都","city":"調布市","address":"調布市国領町1-9-3小谷田ビル1階103号室","lat":35.651158,"lon":139.551969},{"name":"ふみ月チャレンジ染地","province":"東京都","city":"調布市","address":"調布市染地1-17-15","lat":35.641979,"lon":139.548582},{"name":"クレヨンキッズ","province":"東京都","city":"調布市","address":"調布市布田2-4-10布田ビル1F","lat":35.65391,"lon":139.548575},{"name":"たんぽぽ","province":"東京都","city":"調布市","address":"調布市布田2-51-10トービル調布201","lat":35.650366,"lon":139.550092},{"name":"ドリームボックス　布田","province":"東京都","city":"調布市","address":"調布市布田3-55-17","lat":35.646725,"lon":139.550353},{"name":"アーリーバード","province":"東京都","city":"調布市","address":"調布市多摩川5-7-4","lat":35.644337,"lon":139.537185},{"name":"ふみ月チャレンジたま川","province":"東京都","city":"調布市","address":"調布市多摩川5-24-18","lat":35.643379,"lon":139.536647},{"name":"調布市総合福祉センター　放課後等デイサービス　ぴっころ","province":"東京都","city":"調布市","address":"調布市小島町2-47-1","lat":35.651397,"lon":139.542753},{"name":"通所運動療育障がい児リハビリセンター調布","province":"東京都","city":"調布市","address":"調布市小島町3-88-2","lat":35.645701,"lon":139.541104},{"name":"ポコポコ・ホッピング富士見町","province":"東京都","city":"調布市","address":"調布市富士見町2-17-17","lat":35.659376,"lon":139.54015},{"name":"れいんぼー","province":"東京都","city":"調布市","address":"調布市富士見町4-30-20","lat":35.668591,"lon":139.536136},{"name":"にこにこキッズルーム","province":"東京都","city":"調布市","address":"調布市下石原1-2-4ヤシマビル2階","lat":35.657687,"lon":139.53409},{"name":"ドリームボックス下石原","province":"東京都","city":"調布市","address":"調布市下石原一丁目32番地6下石原プラザ101号室","lat":35.656426,"lon":139.534535},{"name":"放課後等デイサービス　わかば　西調布店","province":"東京都","city":"調布市","address":"調布市下石原1-8-1西谷調布ビル102","lat":35.657979,"lon":139.536137},{"name":"調布市子ども家庭支援センターすこやか","province":"東京都","city":"調布市","address":"調布市国領町3-1-38ココスクエア2階","lat":35.649608,"lon":139.558644},{"name":"調布市子ども家庭支援センターすこやか","province":"東京都","city":"調布市","address":"調布市国領町3-1-38ココスクエア2階","lat":35.64957,"lon":139.55869},{"name":"味の素スタジアム（調布庁舎）","province":"東京都","city":"調布市","address":"東京都調布市西町376-3","lat":35.66355292,"lon":139.52508771},{"name":"神代高等学校","province":"東京都","city":"調布市","address":"東京都調布市若葉町1丁目46-1","lat":35.65693817,"lon":139.58619907},{"name":"調布北高等学校","province":"東京都","city":"調布市","address":"東京都調布市深大寺北町5丁目39-1","lat":35.67999023,"lon":139.54936542},{"name":"調布南高等学校","province":"東京都","city":"調布市","address":"東京都調布市多摩川6丁目2-1","lat":35.64401209,"lon":139.53953247},{"name":"放課後等デイサービス　わかば","province":"東京都","city":"調布市","address":"調布市若葉町二丁目26番29号ミタムラビル1階","lat":35.65698,"lon":139.589565},{"name":"ポコポコ・ホッピング神代団地","province":"東京都","city":"調布市","address":"調布市西つつじケ丘4-23神代団地33-103","lat":35.650103,"lon":139.576936},{"name":"アーリーバード　柴崎","province":"東京都","city":"調布市","address":"調布市菊野台一丁目52番地4三高家ビル2A","lat":35.655399,"lon":139.56567},{"name":"ゆうゆうくらぶ","province":"東京都","city":"調布市","address":"調布市柴崎1-56-1サニーハイツ1階","lat":35.659268,"lon":139.564973},{"name":"Green","province":"東京都","city":"調布市","address":"調布市調布ケ丘4-41-2","lat":35.662459,"lon":139.545539},{"name":"ちょうふの風","province":"東京都","city":"調布市","address":"調布市国領町3-8-15くすのきアパート5号棟114号","lat":35.648614,"lon":139.560591},{"name":"ふくふく","province":"東京都","city":"調布市","address":"調布市国領町5-74-1-103","lat":35.648969,"lon":139.551247},{"name":"ハッピーテラス調布教室","province":"東京都","city":"調布市","address":"調布市国領町1-9-3小谷田ビル1階103号室","lat":35.651158,"lon":139.551969},{"name":"ふみ月チャレンジ染地","province":"東京都","city":"調布市","address":"調布市染地1-17-15","lat":35.641979,"lon":139.548582},{"name":"クレヨンキッズ","province":"東京都","city":"調布市","address":"調布市布田2-4-10布田ビル1F","lat":35.65391,"lon":139.548575},{"name":"たんぽぽ","province":"東京都","city":"調布市","address":"調布市布田2-51-10トービル調布201","lat":35.650366,"lon":139.550092},{"name":"ドリームボックス　布田","province":"東京都","city":"調布市","address":"調布市布田3-55-17","lat":35.646725,"lon":139.550353},{"name":"アーリーバード","province":"東京都","city":"調布市","address":"調布市多摩川5-7-4","lat":35.644337,"lon":139.537185},{"name":"ふみ月チャレンジたま川","province":"東京都","city":"調布市","address":"調布市多摩川5-24-18","lat":35.643379,"lon":139.536647},{"name":"調布市総合福祉センター　放課後等デイサービス　ぴっころ","province":"東京都","city":"調布市","address":"調布市小島町2-47-1","lat":35.651397,"lon":139.542753},{"name":"通所運動療育障がい児リハビリセンター調布","province":"東京都","city":"調布市","address":"調布市小島町3-88-2","lat":35.645701,"lon":139.541104},{"name":"ポコポコ・ホッピング富士見町","province":"東京都","city":"調布市","address":"調布市富士見町2-17-17","lat":35.659376,"lon":139.54015},{"name":"れいんぼー","province":"東京都","city":"調布市","address":"調布市富士見町4-30-20","lat":35.668591,"lon":139.536136},{"name":"にこにこキッズルーム","province":"東京都","city":"調布市","address":"調布市下石原1-2-4ヤシマビル2階","lat":35.657687,"lon":139.53409},{"name":"ドリームボックス下石原","province":"東京都","city":"調布市","address":"調布市下石原一丁目32番地6下石原プラザ101号室","lat":35.656426,"lon":139.534535},{"name":"放課後等デイサービス　わかば　西調布店","province":"東京都","city":"調布市","address":"調布市下石原1-8-1西谷調布ビル102","lat":35.657979,"lon":139.536137},{"name":"調布市子ども家庭支援センターすこやか","province":"東京都","city":"調布市","address":"調布市国領町3-1-38ココスクエア2階","lat":35.649608,"lon":139.558644},{"name":"調布市子ども家庭支援センターすこやか","province":"東京都","city":"調布市","address":"調布市国領町3-1-38ココスクエア2階","lat":35.64957,"lon":139.55869},{"name":"味の素スタジアム（調布庁舎）","province":"東京都","city":"調布市","address":"東京都調布市西町376-3","lat":35.66355292,"lon":139.52508771},{"name":"神代高等学校","province":"東京都","city":"調布市","address":"東京都調布市若葉町1丁目46-1","lat":35.65693817,"lon":139.58619907},{"name":"調布北高等学校","province":"東京都","city":"調布市","address":"東京都調布市深大寺北町5丁目39-1","lat":35.67999023,"lon":139.54936542},{"name":"調布南高等学校","province":"東京都","city":"調布市","address":"東京都調布市多摩川6丁目2-1","lat":35.64401209,"lon":139.53953247},{"name":"放課後等デイサービス　わかば","province":"東京都","city":"調布市","address":"調布市若葉町二丁目26番29号ミタムラビル1階","lat":35.65698,"lon":139.589565},{"name":"ポコポコ・ホッピング神代団地","province":"東京都","city":"調布市","address":"調布市西つつじケ丘4-23神代団地33-103","lat":35.650103,"lon":139.576936},{"name":"アーリーバード　柴崎","province":"東京都","city":"調布市","address":"調布市菊野台一丁目52番地4三高家ビル2A","lat":35.655399,"lon":139.56567},{"name":"ゆうゆうくらぶ","province":"東京都","city":"調布市","address":"調布市柴崎1-56-1サニーハイツ1階","lat":35.659268,"lon":139.564973},{"name":"Green","province":"東京都","city":"調布市","address":"調布市調布ケ丘4-41-2","lat":35.662459,"lon":139.545539},{"name":"ちょうふの風","province":"東京都","city":"調布市","address":"調布市国領町3-8-15くすのきアパート5号棟114号","lat":35.648614,"lon":139.560591},{"name":"ふくふく","province":"東京都","city":"調布市","address":"調布市国領町5-74-1-103","lat":35.648969,"lon":139.551247},{"name":"ハッピーテラス調布教室","province":"東京都","city":"調布市","address":"調布市国領町1-9-3小谷田ビル1階103号室","lat":35.651158,"lon":139.551969},{"name":"ふみ月チャレンジ染地","province":"東京都","city":"調布市","address":"調布市染地1-17-15","lat":35.641979,"lon":139.548582},{"name":"クレヨンキッズ","province":"東京都","city":"調布市","address":"調布市布田2-4-10布田ビル1F","lat":35.65391,"lon":139.548575},{"name":"たんぽぽ","province":"東京都","city":"調布市","address":"調布市布田2-51-10トービル調布201","lat":35.650366,"lon":139.550092},{"name":"ドリームボックス　布田","province":"東京都","city":"調布市","address":"調布市布田3-55-17","lat":35.646725,"lon":139.550353},{"name":"アーリーバード","province":"東京都","city":"調布市","address":"調布市多摩川5-7-4","lat":35.644337,"lon":139.537185},{"name":"ふみ月チャレンジたま川","province":"東京都","city":"調布市","address":"調布市多摩川5-24-18","lat":35.643379,"lon":139.536647},{"name":"調布市総合福祉センター　放課後等デイサービス　ぴっころ","province":"東京都","city":"調布市","address":"調布市小島町2-47-1","lat":35.651397,"lon":139.542753},{"name":"通所運動療育障がい児リハビリセンター調布","province":"東京都","city":"調布市","address":"調布市小島町3-88-2","lat":35.645701,"lon":139.541104},{"name":"ポコポコ・ホッピング富士見町","province":"東京都","city":"調布市","address":"調布市富士見町2-17-17","lat":35.659376,"lon":139.54015},{"name":"れいんぼー","province":"東京都","city":"調布市","address":"調布市富士見町4-30-20","lat":35.668591,"lon":139.536136},{"name":"にこにこキッズルーム","province":"東京都","city":"調布市","address":"調布市下石原1-2-4ヤシマビル2階","lat":35.657687,"lon":139.53409},{"name":"ドリームボックス下石原","province":"東京都","city":"調布市","address":"調布市下石原一丁目32番地6下石原プラザ101号室","lat":35.656426,"lon":139.534535},{"name":"放課後等デイサービス　わかば　西調布店","province":"東京都","city":"調布市","address":"調布市下石原1-8-1西谷調布ビル102","lat":35.657979,"lon":139.536137},{"name":"調布市子ども家庭支援センターすこやか","province":"東京都","city":"調布市","address":"調布市国領町3-1-38ココスクエア2階","lat":35.649608,"lon":139.558644},{"name":"調布市子ども家庭支援センターすこやか","province":"東京都","city":"調布市","address":"調布市国領町3-1-38ココスクエア2階","lat":35.64957,"lon":139.55869},{"name":"放課後等デイサービス　わかば","province":"東京都","city":"調布市","address":"調布市若葉町二丁目26番29号ミタムラビル1階","lat":35.65698,"lon":139.589565},{"name":"ポコポコ・ホッピング神代団地","province":"東京都","city":"調布市","address":"調布市西つつじケ丘4-23神代団地33-103","lat":35.650103,"lon":139.576936},{"name":"アーリーバード　柴崎","province":"東京都","city":"調布市","address":"調布市菊野台一丁目52番地4三高家ビル2A","lat":35.655399,"lon":139.56567},{"name":"ゆうゆうくらぶ","province":"東京都","city":"調布市","address":"調布市柴崎1-56-1サニーハイツ1階","lat":35.659268,"lon":139.564973},{"name":"Green","province":"東京都","city":"調布市","address":"調布市調布ケ丘4-41-2","lat":35.662459,"lon":139.545539},{"name":"ちょうふの風","province":"東京都","city":"調布市","address":"調布市国領町3-8-15くすのきアパート5号棟114号","lat":35.648614,"lon":139.560591},{"name":"ふくふく","province":"東京都","city":"調布市","address":"調布市国領町5-74-1-103","lat":35.648969,"lon":139.551247},{"name":"ハッピーテラス調布教室","province":"東京都","city":"調布市","address":"調布市国領町1-9-3小谷田ビル1階103号室","lat":35.651158,"lon":139.551969},{"name":"ふみ月チャレンジ染地","province":"東京都","city":"調布市","address":"調布市染地1-17-15","lat":35.641979,"lon":139.548582},{"name":"クレヨンキッズ","province":"東京都","city":"調布市","address":"調布市布田2-4-10布田ビル1F","lat":35.65391,"lon":139.548575},{"name":"たんぽぽ","province":"東京都","city":"調布市","address":"調布市布田2-51-10トービル調布201","lat":35.650366,"lon":139.550092},{"name":"ドリームボックス　布田","province":"東京都","city":"調布市","address":"調布市布田3-55-17","lat":35.646725,"lon":139.550353},{"name":"アーリーバード","province":"東京都","city":"調布市","address":"調布市多摩川5-7-4","lat":35.644337,"lon":139.537185},{"name":"ふみ月チャレンジたま川","province":"東京都","city":"調布市","address":"調布市多摩川5-24-18","lat":35.643379,"lon":139.536647},{"name":"調布市総合福祉センター　放課後等デイサービス　ぴっころ","province":"東京都","city":"調布市","address":"調布市小島町2-47-1","lat":35.651397,"lon":139.542753},{"name":"通所運動療育障がい児リハビリセンター調布","province":"東京都","city":"調布市","address":"調布市小島町3-88-2","lat":35.645701,"lon":139.541104},{"name":"ポコポコ・ホッピング富士見町","province":"東京都","city":"調布市","address":"調布市富士見町2-17-17","lat":35.659376,"lon":139.54015},{"name":"れいんぼー","province":"東京都","city":"調布市","address":"調布市富士見町4-30-20","lat":35.668591,"lon":139.536136},{"name":"にこにこキッズルーム","province":"東京都","city":"調布市","address":"調布市下石原1-2-4ヤシマビル2階","lat":35.657687,"lon":139.53409},{"name":"ドリームボックス下石原","province":"東京都","city":"調布市","address":"調布市下石原一丁目32番地6下石原プラザ101号室","lat":35.656426,"lon":139.534535},{"name":"放課後等デイサービス　わかば　西調布店","province":"東京都","city":"調布市","address":"調布市下石原1-8-1西谷調布ビル102","lat":35.657979,"lon":139.536137},{"name":"調布市子ども家庭支援センターすこやか","province":"東京都","city":"調布市","address":"調布市国領町3-1-38ココスクエア2階","lat":35.649608,"lon":139.558644},{"name":"調布市子ども家庭支援センターすこやか","province":"東京都","city":"調布市","address":"調布市国領町3-1-38ココスクエア2階","lat":35.64957,"lon":139.55869},{"name":"放課後等デイサービス　わかば","province":"東京都","city":"調布市","address":"調布市若葉町二丁目26番29号ミタムラビル1階","lat":35.65698,"lon":139.589565},{"name":"ポコポコ・ホッピング神代団地","province":"東京都","city":"調布市","address":"調布市西つつじケ丘4-23神代団地33-103","lat":35.650103,"lon":139.576936},{"name":"アーリーバード　柴崎","province":"東京都","city":"調布市","address":"調布市菊野台一丁目52番地4三高家ビル2A","lat":35.655399,"lon":139.56567},{"name":"ゆうゆうくらぶ","province":"東京都","city":"調布市","address":"調布市柴崎1-56-1サニーハイツ1階","lat":35.659268,"lon":139.564973},{"name":"Green","province":"東京都","city":"調布市","address":"調布市調布ケ丘4-41-2","lat":35.662459,"lon":139.545539},{"name":"ちょうふの風","province":"東京都","city":"調布市","address":"調布市国領町3-8-15くすのきアパート5号棟114号","lat":35.648614,"lon":139.560591},{"name":"ふくふく","province":"東京都","city":"調布市","address":"調布市国領町5-74-1-103","lat":35.648969,"lon":139.551247},{"name":"ハッピーテラス調布教室","province":"東京都","city":"調布市","address":"調布市国領町1-9-3小谷田ビル1階103号室","lat":35.651158,"lon":139.551969},{"name":"ふみ月チャレンジ染地","province":"東京都","city":"調布市","address":"調布市染地1-17-15","lat":35.641979,"lon":139.548582},{"name":"クレヨンキッズ","province":"東京都","city":"調布市","address":"調布市布田2-4-10布田ビル1F","lat":35.65391,"lon":139.548575},{"name":"たんぽぽ","province":"東京都","city":"調布市","address":"調布市布田2-51-10トービル調布201","lat":35.650366,"lon":139.550092},{"name":"ドリームボックス　布田","province":"東京都","city":"調布市","address":"調布市布田3-55-17","lat":35.646725,"lon":139.550353},{"name":"アーリーバード","province":"東京都","city":"調布市","address":"調布市多摩川5-7-4","lat":35.644337,"lon":139.537185},{"name":"ふみ月チャレンジたま川","province":"東京都","city":"調布市","address":"調布市多摩川5-24-18","lat":35.643379,"lon":139.536647},{"name":"調布市総合福祉センター　放課後等デイサービス　ぴっころ","province":"東京都","city":"調布市","address":"調布市小島町2-47-1","lat":35.651397,"lon":139.542753},{"name":"通所運動療育障がい児リハビリセンター調布","province":"東京都","city":"調布市","address":"調布市小島町3-88-2","lat":35.645701,"lon":139.541104},{"name":"ポコポコ・ホッピング富士見町","province":"東京都","city":"調布市","address":"調布市富士見町2-17-17","lat":35.659376,"lon":139.54015},{"name":"れいんぼー","province":"東京都","city":"調布市","address":"調布市富士見町4-30-20","lat":35.668591,"lon":139.536136},{"name":"にこにこキッズルーム","province":"東京都","city":"調布市","address":"調布市下石原1-2-4ヤシマビル2階","lat":35.657687,"lon":139.53409},{"name":"ドリームボックス下石原","province":"東京都","city":"調布市","address":"調布市下石原一丁目32番地6下石原プラザ101号室","lat":35.656426,"lon":139.534535},{"name":"放課後等デイサービス　わかば　西調布店","province":"東京都","city":"調布市","address":"調布市下石原1-8-1西谷調布ビル102","lat":35.657979,"lon":139.536137},{"name":"調布市子ども家庭支援センターすこやか","province":"東京都","city":"調布市","address":"調布市国領町3-1-38ココスクエア2階","lat":35.649608,"lon":139.558644},{"name":"調布市子ども家庭支援センターすこやか","province":"東京都","city":"調布市","address":"調布市国領町3-1-38ココスクエア2階","lat":35.64957,"lon":139.55869},{"name":"放課後等デイサービス　わかば","province":"東京都","city":"調布市","address":"調布市若葉町二丁目26番29号ミタムラビル1階","lat":35.65698,"lon":139.589565},{"name":"ポコポコ・ホッピング神代団地","province":"東京都","city":"調布市","address":"調布市西つつじケ丘4-23神代団地33-103","lat":35.650103,"lon":139.576936},{"name":"アーリーバード　柴崎","province":"東京都","city":"調布市","address":"調布市菊野台一丁目52番地4三高家ビル2A","lat":35.655399,"lon":139.56567},{"name":"ゆうゆうくらぶ","province":"東京都","city":"調布市","address":"調布市柴崎1-56-1サニーハイツ1階","lat":35.659268,"lon":139.564973},{"name":"Green","province":"東京都","city":"調布市","address":"調布市調布ケ丘4-41-2","lat":35.662459,"lon":139.545539},{"name":"ちょうふの風","province":"東京都","city":"調布市","address":"調布市国領町3-8-15くすのきアパート5号棟114号","lat":35.648614,"lon":139.560591},{"name":"ふくふく","province":"東京都","city":"調布市","address":"調布市国領町5-74-1-103","lat":35.648969,"lon":139.551247},{"name":"ハッピーテラス調布教室","province":"東京都","city":"調布市","address":"調布市国領町1-9-3小谷田ビル1階103号室","lat":35.651158,"lon":139.551969},{"name":"ふみ月チャレンジ染地","province":"東京都","city":"調布市","address":"調布市染地1-17-15","lat":35.641979,"lon":139.548582},{"name":"クレヨンキッズ","province":"東京都","city":"調布市","address":"調布市布田2-4-10布田ビル1F","lat":35.65391,"lon":139.548575},{"name":"たんぽぽ","province":"東京都","city":"調布市","address":"調布市布田2-51-10トービル調布201","lat":35.650366,"lon":139.550092},{"name":"ドリームボックス　布田","province":"東京都","city":"調布市","address":"調布市布田3-55-17","lat":35.646725,"lon":139.550353},{"name":"アーリーバード","province":"東京都","city":"調布市","address":"調布市多摩川5-7-4","lat":35.644337,"lon":139.537185},{"name":"ふみ月チャレンジたま川","province":"東京都","city":"調布市","address":"調布市多摩川5-24-18","lat":35.643379,"lon":139.536647},{"name":"調布市総合福祉センター　放課後等デイサービス　ぴっころ","province":"東京都","city":"調布市","address":"調布市小島町2-47-1","lat":35.651397,"lon":139.542753},{"name":"通所運動療育障がい児リハビリセンター調布","province":"東京都","city":"調布市","address":"調布市小島町3-88-2","lat":35.645701,"lon":139.541104},{"name":"ポコポコ・ホッピング富士見町","province":"東京都","city":"調布市","address":"調布市富士見町2-17-17","lat":35.659376,"lon":139.54015},{"name":"れいんぼー","province":"東京都","city":"調布市","address":"調布市富士見町4-30-20","lat":35.668591,"lon":139.536136},{"name":"にこにこキッズルーム","province":"東京都","city":"調布市","address":"調布市下石原1-2-4ヤシマビル2階","lat":35.657687,"lon":139.53409},{"name":"ドリームボックス下石原","province":"東京都","city":"調布市","address":"調布市下石原一丁目32番地6下石原プラザ101号室","lat":35.656426,"lon":139.534535},{"name":"放課後等デイサービス　わかば　西調布店","province":"東京都","city":"調布市","address":"調布市下石原1-8-1西谷調布ビル102","lat":35.657979,"lon":139.536137},{"name":"調布市子ども家庭支援センターすこやか","province":"東京都","city":"調布市","address":"調布市国領町3-1-38ココスクエア2階","lat":35.649608,"lon":139.558644},{"name":"調布市子ども家庭支援センターすこやか","province":"東京都","city":"調布市","address":"調布市国領町3-1-38ココスクエア2階","lat":35.64957,"lon":139.55869},{"name":"放課後等デイサービス　わかば","province":"東京都","city":"調布市","address":"調布市若葉町二丁目26番29号ミタムラビル1階","lat":35.65698,"lon":139.589565},{"name":"ポコポコ・ホッピング神代団地","province":"東京都","city":"調布市","address":"調布市西つつじケ丘4-23神代団地33-103","lat":35.650103,"lon":139.576936},{"name":"アーリーバード　柴崎","province":"東京都","city":"調布市","address":"調布市菊野台一丁目52番地4三高家ビル2A","lat":35.655399,"lon":139.56567},{"name":"ゆうゆうくらぶ","province":"東京都","city":"調布市","address":"調布市柴崎1-56-1サニーハイツ1階","lat":35.659268,"lon":139.564973},{"name":"Green","province":"東京都","city":"調布市","address":"調布市調布ケ丘4-41-2","lat":35.662459,"lon":139.545539},{"name":"ちょうふの風","province":"東京都","city":"調布市","address":"調布市国領町3-8-15くすのきアパート5号棟114号","lat":35.648614,"lon":139.560591},{"name":"ふくふく","province":"東京都","city":"調布市","address":"調布市国領町5-74-1-103","lat":35.648969,"lon":139.551247},{"name":"ハッピーテラス調布教室","province":"東京都","city":"調布市","address":"調布市国領町1-9-3小谷田ビル1階103号室","lat":35.651158,"lon":139.551969},{"name":"ふみ月チャレンジ染地","province":"東京都","city":"調布市","address":"調布市染地1-17-15","lat":35.641979,"lon":139.548582},{"name":"クレヨンキッズ","province":"東京都","city":"調布市","address":"調布市布田2-4-10布田ビル1F","lat":35.65391,"lon":139.548575},{"name":"たんぽぽ","province":"東京都","city":"調布市","address":"調布市布田2-51-10トービル調布201","lat":35.650366,"lon":139.550092},{"name":"ドリームボックス　布田","province":"東京都","city":"調布市","address":"調布市布田3-55-17","lat":35.646725,"lon":139.550353},{"name":"アーリーバード","province":"東京都","city":"調布市","address":"調布市多摩川5-7-4","lat":35.644337,"lon":139.537185},{"name":"ふみ月チャレンジたま川","province":"東京都","city":"調布市","address":"調布市多摩川5-24-18","lat":35.643379,"lon":139.536647},{"name":"調布市総合福祉センター　放課後等デイサービス　ぴっころ","province":"東京都","city":"調布市","address":"調布市小島町2-47-1","lat":35.651397,"lon":139.542753},{"name":"通所運動療育障がい児リハビリセンター調布","province":"東京都","city":"調布市","address":"調布市小島町3-88-2","lat":35.645701,"lon":139.541104},{"name":"ポコポコ・ホッピング富士見町","province":"東京都","city":"調布市","address":"調布市富士見町2-17-17","lat":35.659376,"lon":139.54015},{"name":"れいんぼー","province":"東京都","city":"調布市","address":"調布市富士見町4-30-20","lat":35.668591,"lon":139.536136},{"name":"にこにこキッズルーム","province":"東京都","city":"調布市","address":"調布市下石原1-2-4ヤシマビル2階","lat":35.657687,"lon":139.53409},{"name":"ドリームボックス下石原","province":"東京都","city":"調布市","address":"調布市下石原一丁目32番地6下石原プラザ101号室","lat":35.656426,"lon":139.534535},{"name":"放課後等デイサービス　わかば　西調布店","province":"東京都","city":"調布市","address":"調布市下石原1-8-1西谷調布ビル102","lat":35.657979,"lon":139.536137},{"name":"調布市子ども家庭支援センターすこやか","province":"東京都","city":"調布市","address":"調布市国領町3-1-38ココスクエア2階","lat":35.649608,"lon":139.558644},{"name":"調布市子ども家庭支援センターすこやか","province":"東京都","city":"調布市","address":"調布市国領町3-1-38ココスクエア2階","lat":35.64957,"lon":139.55869},{"name":"放課後等デイサービス　わかば","province":"東京都","city":"調布市","address":"調布市若葉町二丁目26番29号ミタムラビル1階","lat":35.65698,"lon":139.589565},{"name":"ポコポコ・ホッピング神代団地","province":"東京都","city":"調布市","address":"調布市西つつじケ丘4-23神代団地33-103","lat":35.650103,"lon":139.576936},{"name":"アーリーバード　柴崎","province":"東京都","city":"調布市","address":"調布市菊野台一丁目52番地4三高家ビル2A","lat":35.655399,"lon":139.56567},{"name":"ゆうゆうくらぶ","province":"東京都","city":"調布市","address":"調布市柴崎1-56-1サニーハイツ1階","lat":35.659268,"lon":139.564973},{"name":"Green","province":"東京都","city":"調布市","address":"調布市調布ケ丘4-41-2","lat":35.662459,"lon":139.545539},{"name":"ちょうふの風","province":"東京都","city":"調布市","address":"調布市国領町3-8-15くすのきアパート5号棟114号","lat":35.648614,"lon":139.560591},{"name":"ふくふく","province":"東京都","city":"調布市","address":"調布市国領町5-74-1-103","lat":35.648969,"lon":139.551247},{"name":"ハッピーテラス調布教室","province":"東京都","city":"調布市","address":"調布市国領町1-9-3小谷田ビル1階103号室","lat":35.651158,"lon":139.551969},{"name":"ふみ月チャレンジ染地","province":"東京都","city":"調布市","address":"調布市染地1-17-15","lat":35.641979,"lon":139.548582},{"name":"クレヨンキッズ","province":"東京都","city":"調布市","address":"調布市布田2-4-10布田ビル1F","lat":35.65391,"lon":139.548575},{"name":"たんぽぽ","province":"東京都","city":"調布市","address":"調布市布田2-51-10トービル調布201","lat":35.650366,"lon":139.550092},{"name":"ドリームボックス　布田","province":"東京都","city":"調布市","address":"調布市布田3-55-17","lat":35.646725,"lon":139.550353},{"name":"アーリーバード","province":"東京都","city":"調布市","address":"調布市多摩川5-7-4","lat":35.644337,"lon":139.537185},{"name":"ふみ月チャレンジたま川","province":"東京都","city":"調布市","address":"調布市多摩川5-24-18","lat":35.643379,"lon":139.536647},{"name":"調布市総合福祉センター　放課後等デイサービス　ぴっころ","province":"東京都","city":"調布市","address":"調布市小島町2-47-1","lat":35.651397,"lon":139.542753},{"name":"通所運動療育障がい児リハビリセンター調布","province":"東京都","city":"調布市","address":"調布市小島町3-88-2","lat":35.645701,"lon":139.541104},{"name":"ポコポコ・ホッピング富士見町","province":"東京都","city":"調布市","address":"調布市富士見町2-17-17","lat":35.659376,"lon":139.54015},{"name":"れいんぼー","province":"東京都","city":"調布市","address":"調布市富士見町4-30-20","lat":35.668591,"lon":139.536136},{"name":"にこにこキッズルーム","province":"東京都","city":"調布市","address":"調布市下石原1-2-4ヤシマビル2階","lat":35.657687,"lon":139.53409},{"name":"ドリームボックス下石原","province":"東京都","city":"調布市","address":"調布市下石原一丁目32番地6下石原プラザ101号室","lat":35.656426,"lon":139.534535},{"name":"放課後等デイサービス　わかば　西調布店","province":"東京都","city":"調布市","address":"調布市下石原1-8-1西谷調布ビル102","lat":35.657979,"lon":139.536137},{"name":"調布市子ども家庭支援センターすこやか","province":"東京都","city":"調布市","address":"調布市国領町3-1-38ココスクエア2階","lat":35.649608,"lon":139.558644},{"name":"調布市子ども家庭支援センターすこやか","province":"東京都","city":"調布市","address":"調布市国領町3-1-38ココスクエア2階","lat":35.64957,"lon":139.55869},{"name":"放課後等デイサービス　わかば","province":"東京都","city":"調布市","address":"調布市若葉町二丁目26番29号ミタムラビル1階","lat":35.65698,"lon":139.589565},{"name":"ポコポコ・ホッピング神代団地","province":"東京都","city":"調布市","address":"調布市西つつじケ丘4-23神代団地33-103","lat":35.650103,"lon":139.576936},{"name":"アーリーバード　柴崎","province":"東京都","city":"調布市","address":"調布市菊野台一丁目52番地4三高家ビル2A","lat":35.655399,"lon":139.56567},{"name":"ゆうゆうくらぶ","province":"東京都","city":"調布市","address":"調布市柴崎1-56-1サニーハイツ1階","lat":35.659268,"lon":139.564973},{"name":"Green","province":"東京都","city":"調布市","address":"調布市調布ケ丘4-41-2","lat":35.662459,"lon":139.545539},{"name":"ちょうふの風","province":"東京都","city":"調布市","address":"調布市国領町3-8-15くすのきアパート5号棟114号","lat":35.648614,"lon":139.560591},{"name":"ふくふく","province":"東京都","city":"調布市","address":"調布市国領町5-74-1-103","lat":35.648969,"lon":139.551247},{"name":"ハッピーテラス調布教室","province":"東京都","city":"調布市","address":"調布市国領町1-9-3小谷田ビル1階103号室","lat":35.651158,"lon":139.551969},{"name":"ふみ月チャレンジ染地","province":"東京都","city":"調布市","address":"調布市染地1-17-15","lat":35.641979,"lon":139.548582},{"name":"クレヨンキッズ","province":"東京都","city":"調布市","address":"調布市布田2-4-10布田ビル1F","lat":35.65391,"lon":139.548575},{"name":"たんぽぽ","province":"東京都","city":"調布市","address":"調布市布田2-51-10トービル調布201","lat":35.650366,"lon":139.550092},{"name":"ドリームボックス　布田","province":"東京都","city":"調布市","address":"調布市布田3-55-17","lat":35.646725,"lon":139.550353},{"name":"アーリーバード","province":"東京都","city":"調布市","address":"調布市多摩川5-7-4","lat":35.644337,"lon":139.537185},{"name":"ふみ月チャレンジたま川","province":"東京都","city":"調布市","address":"調布市多摩川5-24-18","lat":35.643379,"lon":139.536647},{"name":"調布市総合福祉センター　放課後等デイサービス　ぴっころ","province":"東京都","city":"調布市","address":"調布市小島町2-47-1","lat":35.651397,"lon":139.542753},{"name":"通所運動療育障がい児リハビリセンター調布","province":"東京都","city":"調布市","address":"調布市小島町3-88-2","lat":35.645701,"lon":139.541104},{"name":"ポコポコ・ホッピング富士見町","province":"東京都","city":"調布市","address":"調布市富士見町2-17-17","lat":35.659376,"lon":139.54015},{"name":"れいんぼー","province":"東京都","city":"調布市","address":"調布市富士見町4-30-20","lat":35.668591,"lon":139.536136},{"name":"にこにこキッズルーム","province":"東京都","city":"調布市","address":"調布市下石原1-2-4ヤシマビル2階","lat":35.657687,"lon":139.53409},{"name":"ドリームボックス下石原","province":"東京都","city":"調布市","address":"調布市下石原一丁目32番地6下石原プラザ101号室","lat":35.656426,"lon":139.534535},{"name":"放課後等デイサービス　わかば　西調布店","province":"東京都","city":"調布市","address":"調布市下石原1-8-1西谷調布ビル102","lat":35.657979,"lon":139.536137},{"name":"調布市子ども家庭支援センターすこやか","province":"東京都","city":"調布市","address":"調布市国領町3-1-38ココスクエア2階","lat":35.649608,"lon":139.558644},{"name":"調布市子ども家庭支援センターすこやか","province":"東京都","city":"調布市","address":"調布市国領町3-1-38ココスクエア2階","lat":35.64957,"lon":139.55869},{"name":"放課後等デイサービス　わかば","province":"東京都","city":"調布市","address":"調布市若葉町二丁目26番29号ミタムラビル1階","lat":35.65698,"lon":139.589565},{"name":"ポコポコ・ホッピング神代団地","province":"東京都","city":"調布市","address":"調布市西つつじケ丘4-23神代団地33-103","lat":35.650103,"lon":139.576936},{"name":"アーリーバード　柴崎","province":"東京都","city":"調布市","address":"調布市菊野台一丁目52番地4三高家ビル2A","lat":35.655399,"lon":139.56567},{"name":"ゆうゆうくらぶ","province":"東京都","city":"調布市","address":"調布市柴崎1-56-1サニーハイツ1階","lat":35.659268,"lon":139.564973},{"name":"Green","province":"東京都","city":"調布市","address":"調布市調布ケ丘4-41-2","lat":35.662459,"lon":139.545539},{"name":"ちょうふの風","province":"東京都","city":"調布市","address":"調布市国領町3-8-15くすのきアパート5号棟114号","lat":35.648614,"lon":139.560591},{"name":"ふくふく","province":"東京都","city":"調布市","address":"調布市国領町5-74-1-103","lat":35.648969,"lon":139.551247},{"name":"ハッピーテラス調布教室","province":"東京都","city":"調布市","address":"調布市国領町1-9-3小谷田ビル1階103号室","lat":35.651158,"lon":139.551969},{"name":"ふみ月チャレンジ染地","province":"東京都","city":"調布市","address":"調布市染地1-17-15","lat":35.641979,"lon":139.548582},{"name":"クレヨンキッズ","province":"東京都","city":"調布市","address":"調布市布田2-4-10布田ビル1F","lat":35.65391,"lon":139.548575},{"name":"たんぽぽ","province":"東京都","city":"調布市","address":"調布市布田2-51-10トービル調布201","lat":35.650366,"lon":139.550092},{"name":"ドリームボックス　布田","province":"東京都","city":"調布市","address":"調布市布田3-55-17","lat":35.646725,"lon":139.550353},{"name":"アーリーバード","province":"東京都","city":"調布市","address":"調布市多摩川5-7-4","lat":35.644337,"lon":139.537185},{"name":"ふみ月チャレンジたま川","province":"東京都","city":"調布市","address":"調布市多摩川5-24-18","lat":35.643379,"lon":139.536647},{"name":"調布市総合福祉センター　放課後等デイサービス　ぴっころ","province":"東京都","city":"調布市","address":"調布市小島町2-47-1","lat":35.651397,"lon":139.542753},{"name":"通所運動療育障がい児リハビリセンター調布","province":"東京都","city":"調布市","address":"調布市小島町3-88-2","lat":35.645701,"lon":139.541104},{"name":"ポコポコ・ホッピング富士見町","province":"東京都","city":"調布市","address":"調布市富士見町2-17-17","lat":35.659376,"lon":139.54015},{"name":"れいんぼー","province":"東京都","city":"調布市","address":"調布市富士見町4-30-20","lat":35.668591,"lon":139.536136},{"name":"にこにこキッズルーム","province":"東京都","city":"調布市","address":"調布市下石原1-2-4ヤシマビル2階","lat":35.657687,"lon":139.53409},{"name":"ドリームボックス下石原","province":"東京都","city":"調布市","address":"調布市下石原一丁目32番地6下石原プラザ101号室","lat":35.656426,"lon":139.534535},{"name":"放課後等デイサービス　わかば　西調布店","province":"東京都","city":"調布市","address":"調布市下石原1-8-1西谷調布ビル102","lat":35.657979,"lon":139.536137},{"name":"調布市子ども家庭支援センターすこやか","province":"東京都","city":"調布市","address":"調布市国領町3-1-38ココスクエア2階","lat":35.649608,"lon":139.558644},{"name":"調布市子ども家庭支援センターすこやか","province":"東京都","city":"調布市","address":"調布市国領町3-1-38ココスクエア2階","lat":35.64957,"lon":139.55869},{"name":"放課後等デイサービス　わかば","province":"東京都","city":"調布市","address":"調布市若葉町二丁目26番29号ミタムラビル1階","lat":35.65698,"lon":139.589565},{"name":"ポコポコ・ホッピング神代団地","province":"東京都","city":"調布市","address":"調布市西つつじケ丘4-23神代団地33-103","lat":35.650103,"lon":139.576936},{"name":"アーリーバード　柴崎","province":"東京都","city":"調布市","address":"調布市菊野台一丁目52番地4三高家ビル2A","lat":35.655399,"lon":139.56567},{"name":"ゆうゆうくらぶ","province":"東京都","city":"調布市","address":"調布市柴崎1-56-1サニーハイツ1階","lat":35.659268,"lon":139.564973},{"name":"Green","province":"東京都","city":"調布市","address":"調布市調布ケ丘4-41-2","lat":35.662459,"lon":139.545539},{"name":"ちょうふの風","province":"東京都","city":"調布市","address":"調布市国領町3-8-15くすのきアパート5号棟114号","lat":35.648614,"lon":139.560591},{"name":"ふくふく","province":"東京都","city":"調布市","address":"調布市国領町5-74-1-103","lat":35.648969,"lon":139.551247},{"name":"ハッピーテラス調布教室","province":"東京都","city":"調布市","address":"調布市国領町1-9-3小谷田ビル1階103号室","lat":35.651158,"lon":139.551969},{"name":"ふみ月チャレンジ染地","province":"東京都","city":"調布市","address":"調布市染地1-17-15","lat":35.641979,"lon":139.548582},{"name":"クレヨンキッズ","province":"東京都","city":"調布市","address":"調布市布田2-4-10布田ビル1F","lat":35.65391,"lon":139.548575},{"name":"たんぽぽ","province":"東京都","city":"調布市","address":"調布市布田2-51-10トービル調布201","lat":35.650366,"lon":139.550092},{"name":"ドリームボックス　布田","province":"東京都","city":"調布市","address":"調布市布田3-55-17","lat":35.646725,"lon":139.550353},{"name":"アーリーバード","province":"東京都","city":"調布市","address":"調布市多摩川5-7-4","lat":35.644337,"lon":139.537185},{"name":"ふみ月チャレンジたま川","province":"東京都","city":"調布市","address":"調布市多摩川5-24-18","lat":35.643379,"lon":139.536647},{"name":"調布市総合福祉センター　放課後等デイサービス　ぴっころ","province":"東京都","city":"調布市","address":"調布市小島町2-47-1","lat":35.651397,"lon":139.542753},{"name":"通所運動療育障がい児リハビリセンター調布","province":"東京都","city":"調布市","address":"調布市小島町3-88-2","lat":35.645701,"lon":139.541104},{"name":"ポコポコ・ホッピング富士見町","province":"東京都","city":"調布市","address":"調布市富士見町2-17-17","lat":35.659376,"lon":139.54015},{"name":"れいんぼー","province":"東京都","city":"調布市","address":"調布市富士見町4-30-20","lat":35.668591,"lon":139.536136},{"name":"にこにこキッズルーム","province":"東京都","city":"調布市","address":"調布市下石原1-2-4ヤシマビル2階","lat":35.657687,"lon":139.53409},{"name":"ドリームボックス下石原","province":"東京都","city":"調布市","address":"調布市下石原一丁目32番地6下石原プラザ101号室","lat":35.656426,"lon":139.534535},{"name":"放課後等デイサービス　わかば　西調布店","province":"東京都","city":"調布市","address":"調布市下石原1-8-1西谷調布ビル102","lat":35.657979,"lon":139.536137},{"name":"調布市子ども家庭支援センターすこやか","province":"東京都","city":"調布市","address":"調布市国領町3-1-38ココスクエア2階","lat":35.649608,"lon":139.558644},{"name":"調布市子ども家庭支援センターすこやか","province":"東京都","city":"調布市","address":"調布市国領町3-1-38ココスクエア2階","lat":35.64957,"lon":139.55869},{"name":"放課後等デイサービス　わかば","province":"東京都","city":"調布市","address":"調布市若葉町二丁目26番29号ミタムラビル1階","lat":35.65698,"lon":139.589565},{"name":"ポコポコ・ホッピング神代団地","province":"東京都","city":"調布市","address":"調布市西つつじケ丘4-23神代団地33-103","lat":35.650103,"lon":139.576936},{"name":"アーリーバード　柴崎","province":"東京都","city":"調布市","address":"調布市菊野台一丁目52番地4三高家ビル2A","lat":35.655399,"lon":139.56567},{"name":"ゆうゆうくらぶ","province":"東京都","city":"調布市","address":"調布市柴崎1-56-1サニーハイツ1階","lat":35.659268,"lon":139.564973},{"name":"Green","province":"東京都","city":"調布市","address":"調布市調布ケ丘4-41-2","lat":35.662459,"lon":139.545539},{"name":"ちょうふの風","province":"東京都","city":"調布市","address":"調布市国領町3-8-15くすのきアパート5号棟114号","lat":35.648614,"lon":139.560591},{"name":"ふくふく","province":"東京都","city":"調布市","address":"調布市国領町5-74-1-103","lat":35.648969,"lon":139.551247},{"name":"ハッピーテラス調布教室","province":"東京都","city":"調布市","address":"調布市国領町1-9-3小谷田ビル1階103号室","lat":35.651158,"lon":139.551969},{"name":"ふみ月チャレンジ染地","province":"東京都","city":"調布市","address":"調布市染地1-17-15","lat":35.641979,"lon":139.548582},{"name":"クレヨンキッズ","province":"東京都","city":"調布市","address":"調布市布田2-4-10布田ビル1F","lat":35.65391,"lon":139.548575},{"name":"たんぽぽ","province":"東京都","city":"調布市","address":"調布市布田2-51-10トービル調布201","lat":35.650366,"lon":139.550092},{"name":"ドリームボックス　布田","province":"東京都","city":"調布市","address":"調布市布田3-55-17","lat":35.646725,"lon":139.550353},{"name":"アーリーバード","province":"東京都","city":"調布市","address":"調布市多摩川5-7-4","lat":35.644337,"lon":139.537185},{"name":"ふみ月チャレンジたま川","province":"東京都","city":"調布市","address":"調布市多摩川5-24-18","lat":35.643379,"lon":139.536647},{"name":"調布市総合福祉センター　放課後等デイサービス　ぴっころ","province":"東京都","city":"調布市","address":"調布市小島町2-47-1","lat":35.651397,"lon":139.542753},{"name":"通所運動療育障がい児リハビリセンター調布","province":"東京都","city":"調布市","address":"調布市小島町3-88-2","lat":35.645701,"lon":139.541104},{"name":"ポコポコ・ホッピング富士見町","province":"東京都","city":"調布市","address":"調布市富士見町2-17-17","lat":35.659376,"lon":139.54015},{"name":"れいんぼー","province":"東京都","city":"調布市","address":"調布市富士見町4-30-20","lat":35.668591,"lon":139.536136},{"name":"にこにこキッズルーム","province":"東京都","city":"調布市","address":"調布市下石原1-2-4ヤシマビル2階","lat":35.657687,"lon":139.53409},{"name":"ドリームボックス下石原","province":"東京都","city":"調布市","address":"調布市下石原一丁目32番地6下石原プラザ101号室","lat":35.656426,"lon":139.534535},{"name":"放課後等デイサービス　わかば　西調布店","province":"東京都","city":"調布市","address":"調布市下石原1-8-1西谷調布ビル102","lat":35.657979,"lon":139.536137},{"name":"調布市子ども家庭支援センターすこやか","province":"東京都","city":"調布市","address":"調布市国領町3-1-38ココスクエア2階","lat":35.649608,"lon":139.558644},{"name":"調布市子ども家庭支援センターすこやか","province":"東京都","city":"調布市","address":"調布市国領町3-1-38ココスクエア2階","lat":35.64957,"lon":139.55869},{"name":"放課後等デイサービス　わかば","province":"東京都","city":"調布市","address":"調布市若葉町二丁目26番29号ミタムラビル1階","lat":35.65698,"lon":139.589565},{"name":"ポコポコ・ホッピング神代団地","province":"東京都","city":"調布市","address":"調布市西つつじケ丘4-23神代団地33-103","lat":35.650103,"lon":139.576936},{"name":"アーリーバード　柴崎","province":"東京都","city":"調布市","address":"調布市菊野台一丁目52番地4三高家ビル2A","lat":35.655399,"lon":139.56567},{"name":"ゆうゆうくらぶ","province":"東京都","city":"調布市","address":"調布市柴崎1-56-1サニーハイツ1階","lat":35.659268,"lon":139.564973},{"name":"Green","province":"東京都","city":"調布市","address":"調布市調布ケ丘4-41-2","lat":35.662459,"lon":139.545539},{"name":"ちょうふの風","province":"東京都","city":"調布市","address":"調布市国領町3-8-15くすのきアパート5号棟114号","lat":35.648614,"lon":139.560591},{"name":"ふくふく","province":"東京都","city":"調布市","address":"調布市国領町5-74-1-103","lat":35.648969,"lon":139.551247},{"name":"ハッピーテラス調布教室","province":"東京都","city":"調布市","address":"調布市国領町1-9-3小谷田ビル1階103号室","lat":35.651158,"lon":139.551969},{"name":"ふみ月チャレンジ染地","province":"東京都","city":"調布市","address":"調布市染地1-17-15","lat":35.641979,"lon":139.548582},{"name":"クレヨンキッズ","province":"東京都","city":"調布市","address":"調布市布田2-4-10布田ビル1F","lat":35.65391,"lon":139.548575},{"name":"たんぽぽ","province":"東京都","city":"調布市","address":"調布市布田2-51-10トービル調布201","lat":35.650366,"lon":139.550092},{"name":"ドリームボックス　布田","province":"東京都","city":"調布市","address":"調布市布田3-55-17","lat":35.646725,"lon":139.550353},{"name":"アーリーバード","province":"東京都","city":"調布市","address":"調布市多摩川5-7-4","lat":35.644337,"lon":139.537185},{"name":"ふみ月チャレンジたま川","province":"東京都","city":"調布市","address":"調布市多摩川5-24-18","lat":35.643379,"lon":139.536647},{"name":"調布市総合福祉センター　放課後等デイサービス　ぴっころ","province":"東京都","city":"調布市","address":"調布市小島町2-47-1","lat":35.651397,"lon":139.542753},{"name":"通所運動療育障がい児リハビリセンター調布","province":"東京都","city":"調布市","address":"調布市小島町3-88-2","lat":35.645701,"lon":139.541104},{"name":"ポコポコ・ホッピング富士見町","province":"東京都","city":"調布市","address":"調布市富士見町2-17-17","lat":35.659376,"lon":139.54015},{"name":"れいんぼー","province":"東京都","city":"調布市","address":"調布市富士見町4-30-20","lat":35.668591,"lon":139.536136},{"name":"にこにこキッズルーム","province":"東京都","city":"調布市","address":"調布市下石原1-2-4ヤシマビル2階","lat":35.657687,"lon":139.53409},{"name":"ドリームボックス下石原","province":"東京都","city":"調布市","address":"調布市下石原一丁目32番地6下石原プラザ101号室","lat":35.656426,"lon":139.534535},{"name":"放課後等デイサービス　わかば　西調布店","province":"東京都","city":"調布市","address":"調布市下石原1-8-1西谷調布ビル102","lat":35.657979,"lon":139.536137},{"name":"調布市子ども家庭支援センターすこやか","province":"東京都","city":"調布市","address":"調布市国領町3-1-38ココスクエア2階","lat":35.649608,"lon":139.558644},{"name":"調布市子ども家庭支援センターすこやか","province":"東京都","city":"調布市","address":"調布市国領町3-1-38ココスクエア2階","lat":35.64957,"lon":139.55869},{"name":"放課後等デイサービス　わかば","province":"東京都","city":"調布市","address":"調布市若葉町二丁目26番29号ミタムラビル1階","lat":35.65698,"lon":139.589565},{"name":"ポコポコ・ホッピング神代団地","province":"東京都","city":"調布市","address":"調布市西つつじケ丘4-23神代団地33-103","lat":35.650103,"lon":139.576936},{"name":"アーリーバード　柴崎","province":"東京都","city":"調布市","address":"調布市菊野台一丁目52番地4三高家ビル2A","lat":35.655399,"lon":139.56567},{"name":"ゆうゆうくらぶ","province":"東京都","city":"調布市","address":"調布市柴崎1-56-1サニーハイツ1階","lat":35.659268,"lon":139.564973},{"name":"Green","province":"東京都","city":"調布市","address":"調布市調布ケ丘4-41-2","lat":35.662459,"lon":139.545539},{"name":"ちょうふの風","province":"東京都","city":"調布市","address":"調布市国領町3-8-15くすのきアパート5号棟114号","lat":35.648614,"lon":139.560591},{"name":"ふくふく","province":"東京都","city":"調布市","address":"調布市国領町5-74-1-103","lat":35.648969,"lon":139.551247},{"name":"ハッピーテラス調布教室","province":"東京都","city":"調布市","address":"調布市国領町1-9-3小谷田ビル1階103号室","lat":35.651158,"lon":139.551969},{"name":"ふみ月チャレンジ染地","province":"東京都","city":"調布市","address":"調布市染地1-17-15","lat":35.641979,"lon":139.548582},{"name":"クレヨンキッズ","province":"東京都","city":"調布市","address":"調布市布田2-4-10布田ビル1F","lat":35.65391,"lon":139.548575},{"name":"たんぽぽ","province":"東京都","city":"調布市","address":"調布市布田2-51-10トービル調布201","lat":35.650366,"lon":139.550092},{"name":"ドリームボックス　布田","province":"東京都","city":"調布市","address":"調布市布田3-55-17","lat":35.646725,"lon":139.550353},{"name":"アーリーバード","province":"東京都","city":"調布市","address":"調布市多摩川5-7-4","lat":35.644337,"lon":139.537185},{"name":"ふみ月チャレンジたま川","province":"東京都","city":"調布市","address":"調布市多摩川5-24-18","lat":35.643379,"lon":139.536647},{"name":"調布市総合福祉センター　放課後等デイサービス　ぴっころ","province":"東京都","city":"調布市","address":"調布市小島町2-47-1","lat":35.651397,"lon":139.542753},{"name":"通所運動療育障がい児リハビリセンター調布","province":"東京都","city":"調布市","address":"調布市小島町3-88-2","lat":35.645701,"lon":139.541104},{"name":"ポコポコ・ホッピング富士見町","province":"東京都","city":"調布市","address":"調布市富士見町2-17-17","lat":35.659376,"lon":139.54015},{"name":"れいんぼー","province":"東京都","city":"調布市","address":"調布市富士見町4-30-20","lat":35.668591,"lon":139.536136},{"name":"にこにこキッズルーム","province":"東京都","city":"調布市","address":"調布市下石原1-2-4ヤシマビル2階","lat":35.657687,"lon":139.53409},{"name":"ドリームボックス下石原","province":"東京都","city":"調布市","address":"調布市下石原一丁目32番地6下石原プラザ101号室","lat":35.656426,"lon":139.534535},{"name":"放課後等デイサービス　わかば　西調布店","province":"東京都","city":"調布市","address":"調布市下石原1-8-1西谷調布ビル102","lat":35.657979,"lon":139.536137},{"name":"調布市子ども家庭支援センターすこやか","province":"東京都","city":"調布市","address":"調布市国領町3-1-38ココスクエア2階","lat":35.649608,"lon":139.558644},{"name":"調布市子ども家庭支援センターすこやか","province":"東京都","city":"調布市","address":"調布市国領町3-1-38ココスクエア2階","lat":35.64957,"lon":139.55869},{"name":"放課後等デイサービス　わかば","province":"東京都","city":"調布市","address":"調布市若葉町二丁目26番29号ミタムラビル1階","lat":35.65698,"lon":139.589565},{"name":"ポコポコ・ホッピング神代団地","province":"東京都","city":"調布市","address":"調布市西つつじケ丘4-23神代団地33-103","lat":35.650103,"lon":139.576936},{"name":"アーリーバード　柴崎","province":"東京都","city":"調布市","address":"調布市菊野台一丁目52番地4三高家ビル2A","lat":35.655399,"lon":139.56567},{"name":"ゆうゆうくらぶ","province":"東京都","city":"調布市","address":"調布市柴崎1-56-1サニーハイツ1階","lat":35.659268,"lon":139.564973},{"name":"Green","province":"東京都","city":"調布市","address":"調布市調布ケ丘4-41-2","lat":35.662459,"lon":139.545539},{"name":"ちょうふの風","province":"東京都","city":"調布市","address":"調布市国領町3-8-15くすのきアパート5号棟114号","lat":35.648614,"lon":139.560591},{"name":"ふくふく","province":"東京都","city":"調布市","address":"調布市国領町5-74-1-103","lat":35.648969,"lon":139.551247},{"name":"ハッピーテラス調布教室","province":"東京都","city":"調布市","address":"調布市国領町1-9-3小谷田ビル1階103号室","lat":35.651158,"lon":139.551969},{"name":"ふみ月チャレンジ染地","province":"東京都","city":"調布市","address":"調布市染地1-17-15","lat":35.641979,"lon":139.548582},{"name":"クレヨンキッズ","province":"東京都","city":"調布市","address":"調布市布田2-4-10布田ビル1F","lat":35.65391,"lon":139.548575},{"name":"たんぽぽ","province":"東京都","city":"調布市","address":"調布市布田2-51-10トービル調布201","lat":35.650366,"lon":139.550092},{"name":"ドリームボックス　布田","province":"東京都","city":"調布市","address":"調布市布田3-55-17","lat":35.646725,"lon":139.550353},{"name":"アーリーバード","province":"東京都","city":"調布市","address":"調布市多摩川5-7-4","lat":35.644337,"lon":139.537185},{"name":"ふみ月チャレンジたま川","province":"東京都","city":"調布市","address":"調布市多摩川5-24-18","lat":35.643379,"lon":139.536647},{"name":"調布市総合福祉センター　放課後等デイサービス　ぴっころ","province":"東京都","city":"調布市","address":"調布市小島町2-47-1","lat":35.651397,"lon":139.542753},{"name":"通所運動療育障がい児リハビリセンター調布","province":"東京都","city":"調布市","address":"調布市小島町3-88-2","lat":35.645701,"lon":139.541104},{"name":"ポコポコ・ホッピング富士見町","province":"東京都","city":"調布市","address":"調布市富士見町2-17-17","lat":35.659376,"lon":139.54015},{"name":"れいんぼー","province":"東京都","city":"調布市","address":"調布市富士見町4-30-20","lat":35.668591,"lon":139.536136},{"name":"にこにこキッズルーム","province":"東京都","city":"調布市","address":"調布市下石原1-2-4ヤシマビル2階","lat":35.657687,"lon":139.53409},{"name":"ドリームボックス下石原","province":"東京都","city":"調布市","address":"調布市下石原一丁目32番地6下石原プラザ101号室","lat":35.656426,"lon":139.534535},{"name":"放課後等デイサービス　わかば　西調布店","province":"東京都","city":"調布市","address":"調布市下石原1-8-1西谷調布ビル102","lat":35.657979,"lon":139.536137},{"name":"調布市子ども家庭支援センターすこやか","province":"東京都","city":"調布市","address":"調布市国領町3-1-38ココスクエア2階","lat":35.649608,"lon":139.558644},{"name":"調布市子ども家庭支援センターすこやか","province":"東京都","city":"調布市","address":"調布市国領町3-1-38ココスクエア2階","lat":35.64957,"lon":139.55869},{"name":"放課後等デイサービス　わかば","province":"東京都","city":"調布市","address":"調布市若葉町二丁目26番29号ミタムラビル1階","lat":35.65698,"lon":139.589565},{"name":"ポコポコ・ホッピング神代団地","province":"東京都","city":"調布市","address":"調布市西つつじケ丘4-23神代団地33-103","lat":35.650103,"lon":139.576936},{"name":"アーリーバード　柴崎","province":"東京都","city":"調布市","address":"調布市菊野台一丁目52番地4三高家ビル2A","lat":35.655399,"lon":139.56567},{"name":"ゆうゆうくらぶ","province":"東京都","city":"調布市","address":"調布市柴崎1-56-1サニーハイツ1階","lat":35.659268,"lon":139.564973},{"name":"Green","province":"東京都","city":"調布市","address":"調布市調布ケ丘4-41-2","lat":35.662459,"lon":139.545539},{"name":"ちょうふの風","province":"東京都","city":"調布市","address":"調布市国領町3-8-15くすのきアパート5号棟114号","lat":35.648614,"lon":139.560591},{"name":"ふくふく","province":"東京都","city":"調布市","address":"調布市国領町5-74-1-103","lat":35.648969,"lon":139.551247},{"name":"ハッピーテラス調布教室","province":"東京都","city":"調布市","address":"調布市国領町1-9-3小谷田ビル1階103号室","lat":35.651158,"lon":139.551969},{"name":"ふみ月チャレンジ染地","province":"東京都","city":"調布市","address":"調布市染地1-17-15","lat":35.641979,"lon":139.548582},{"name":"クレヨンキッズ","province":"東京都","city":"調布市","address":"調布市布田2-4-10布田ビル1F","lat":35.65391,"lon":139.548575},{"name":"たんぽぽ","province":"東京都","city":"調布市","address":"調布市布田2-51-10トービル調布201","lat":35.650366,"lon":139.550092},{"name":"ドリームボックス　布田","province":"東京都","city":"調布市","address":"調布市布田3-55-17","lat":35.646725,"lon":139.550353},{"name":"アーリーバード","province":"東京都","city":"調布市","address":"調布市多摩川5-7-4","lat":35.644337,"lon":139.537185},{"name":"ふみ月チャレンジたま川","province":"東京都","city":"調布市","address":"調布市多摩川5-24-18","lat":35.643379,"lon":139.536647},{"name":"調布市総合福祉センター　放課後等デイサービス　ぴっころ","province":"東京都","city":"調布市","address":"調布市小島町2-47-1","lat":35.651397,"lon":139.542753},{"name":"通所運動療育障がい児リハビリセンター調布","province":"東京都","city":"調布市","address":"調布市小島町3-88-2","lat":35.645701,"lon":139.541104},{"name":"ポコポコ・ホッピング富士見町","province":"東京都","city":"調布市","address":"調布市富士見町2-17-17","lat":35.659376,"lon":139.54015},{"name":"れいんぼー","province":"東京都","city":"調布市","address":"調布市富士見町4-30-20","lat":35.668591,"lon":139.536136},{"name":"にこにこキッズルーム","province":"東京都","city":"調布市","address":"調布市下石原1-2-4ヤシマビル2階","lat":35.657687,"lon":139.53409},{"name":"ドリームボックス下石原","province":"東京都","city":"調布市","address":"調布市下石原一丁目32番地6下石原プラザ101号室","lat":35.656426,"lon":139.534535},{"name":"放課後等デイサービス　わかば　西調布店","province":"東京都","city":"調布市","address":"調布市下石原1-8-1西谷調布ビル102","lat":35.657979,"lon":139.536137},{"name":"調布市子ども家庭支援センターすこやか","province":"東京都","city":"調布市","address":"調布市国領町3-1-38ココスクエア2階","lat":35.649608,"lon":139.558644},{"name":"調布市子ども家庭支援センターすこやか","province":"東京都","city":"調布市","address":"調布市国領町3-1-38ココスクエア2階","lat":35.64957,"lon":139.55869},{"name":"放課後等デイサービス　わかば","province":"東京都","city":"調布市","address":"調布市若葉町二丁目26番29号ミタムラビル1階","lat":35.65698,"lon":139.589565},{"name":"ポコポコ・ホッピング神代団地","province":"東京都","city":"調布市","address":"調布市西つつじケ丘4-23神代団地33-103","lat":35.650103,"lon":139.576936},{"name":"アーリーバード　柴崎","province":"東京都","city":"調布市","address":"調布市菊野台一丁目52番地4三高家ビル2A","lat":35.655399,"lon":139.56567},{"name":"ゆうゆうくらぶ","province":"東京都","city":"調布市","address":"調布市柴崎1-56-1サニーハイツ1階","lat":35.659268,"lon":139.564973},{"name":"Green","province":"東京都","city":"調布市","address":"調布市調布ケ丘4-41-2","lat":35.662459,"lon":139.545539},{"name":"ちょうふの風","province":"東京都","city":"調布市","address":"調布市国領町3-8-15くすのきアパート5号棟114号","lat":35.648614,"lon":139.560591},{"name":"ふくふく","province":"東京都","city":"調布市","address":"調布市国領町5-74-1-103","lat":35.648969,"lon":139.551247},{"name":"ハッピーテラス調布教室","province":"東京都","city":"調布市","address":"調布市国領町1-9-3小谷田ビル1階103号室","lat":35.651158,"lon":139.551969},{"name":"ふみ月チャレンジ染地","province":"東京都","city":"調布市","address":"調布市染地1-17-15","lat":35.641979,"lon":139.548582},{"name":"クレヨンキッズ","province":"東京都","city":"調布市","address":"調布市布田2-4-10布田ビル1F","lat":35.65391,"lon":139.548575},{"name":"たんぽぽ","province":"東京都","city":"調布市","address":"調布市布田2-51-10トービル調布201","lat":35.650366,"lon":139.550092},{"name":"ドリームボックス　布田","province":"東京都","city":"調布市","address":"調布市布田3-55-17","lat":35.646725,"lon":139.550353},{"name":"アーリーバード","province":"東京都","city":"調布市","address":"調布市多摩川5-7-4","lat":35.644337,"lon":139.537185},{"name":"ふみ月チャレンジたま川","province":"東京都","city":"調布市","address":"調布市多摩川5-24-18","lat":35.643379,"lon":139.536647},{"name":"調布市総合福祉センター　放課後等デイサービス　ぴっころ","province":"東京都","city":"調布市","address":"調布市小島町2-47-1","lat":35.651397,"lon":139.542753},{"name":"通所運動療育障がい児リハビリセンター調布","province":"東京都","city":"調布市","address":"調布市小島町3-88-2","lat":35.645701,"lon":139.541104},{"name":"ポコポコ・ホッピング富士見町","province":"東京都","city":"調布市","address":"調布市富士見町2-17-17","lat":35.659376,"lon":139.54015},{"name":"れいんぼー","province":"東京都","city":"調布市","address":"調布市富士見町4-30-20","lat":35.668591,"lon":139.536136},{"name":"にこにこキッズルーム","province":"東京都","city":"調布市","address":"調布市下石原1-2-4ヤシマビル2階","lat":35.657687,"lon":139.53409},{"name":"ドリームボックス下石原","province":"東京都","city":"調布市","address":"調布市下石原一丁目32番地6下石原プラザ101号室","lat":35.656426,"lon":139.534535},{"name":"放課後等デイサービス　わかば　西調布店","province":"東京都","city":"調布市","address":"調布市下石原1-8-1西谷調布ビル102","lat":35.657979,"lon":139.536137},{"name":"調布市子ども家庭支援センターすこやか","province":"東京都","city":"調布市","address":"調布市国領町3-1-38ココスクエア2階","lat":35.649608,"lon":139.558644},{"name":"調布市子ども家庭支援センターすこやか","province":"東京都","city":"調布市","address":"調布市国領町3-1-38ココスクエア2階","lat":35.64957,"lon":139.55869},{"name":"放課後等デイサービス　わかば","province":"東京都","city":"調布市","address":"調布市若葉町二丁目26番29号ミタムラビル1階","lat":35.65698,"lon":139.589565},{"name":"ポコポコ・ホッピング神代団地","province":"東京都","city":"調布市","address":"調布市西つつじケ丘4-23神代団地33-103","lat":35.650103,"lon":139.576936},{"name":"アーリーバード　柴崎","province":"東京都","city":"調布市","address":"調布市菊野台一丁目52番地4三高家ビル2A","lat":35.655399,"lon":139.56567},{"name":"ゆうゆうくらぶ","province":"東京都","city":"調布市","address":"調布市柴崎1-56-1サニーハイツ1階","lat":35.659268,"lon":139.564973},{"name":"Green","province":"東京都","city":"調布市","address":"調布市調布ケ丘4-41-2","lat":35.662459,"lon":139.545539},{"name":"ちょうふの風","province":"東京都","city":"調布市","address":"調布市国領町3-8-15くすのきアパート5号棟114号","lat":35.648614,"lon":139.560591},{"name":"ふくふく","province":"東京都","city":"調布市","address":"調布市国領町5-74-1-103","lat":35.648969,"lon":139.551247},{"name":"ハッピーテラス調布教室","province":"東京都","city":"調布市","address":"調布市国領町1-9-3小谷田ビル1階103号室","lat":35.651158,"lon":139.551969},{"name":"ふみ月チャレンジ染地","province":"東京都","city":"調布市","address":"調布市染地1-17-15","lat":35.641979,"lon":139.548582},{"name":"クレヨンキッズ","province":"東京都","city":"調布市","address":"調布市布田2-4-10布田ビル1F","lat":35.65391,"lon":139.548575},{"name":"たんぽぽ","province":"東京都","city":"調布市","address":"調布市布田2-51-10トービル調布201","lat":35.650366,"lon":139.550092},{"name":"ドリームボックス　布田","province":"東京都","city":"調布市","address":"調布市布田3-55-17","lat":35.646725,"lon":139.550353},{"name":"アーリーバード","province":"東京都","city":"調布市","address":"調布市多摩川5-7-4","lat":35.644337,"lon":139.537185},{"name":"ふみ月チャレンジたま川","province":"東京都","city":"調布市","address":"調布市多摩川5-24-18","lat":35.643379,"lon":139.536647},{"name":"調布市総合福祉センター　放課後等デイサービス　ぴっころ","province":"東京都","city":"調布市","address":"調布市小島町2-47-1","lat":35.651397,"lon":139.542753},{"name":"通所運動療育障がい児リハビリセンター調布","province":"東京都","city":"調布市","address":"調布市小島町3-88-2","lat":35.645701,"lon":139.541104},{"name":"ポコポコ・ホッピング富士見町","province":"東京都","city":"調布市","address":"調布市富士見町2-17-17","lat":35.659376,"lon":139.54015},{"name":"れいんぼー","province":"東京都","city":"調布市","address":"調布市富士見町4-30-20","lat":35.668591,"lon":139.536136},{"name":"にこにこキッズルーム","province":"東京都","city":"調布市","address":"調布市下石原1-2-4ヤシマビル2階","lat":35.657687,"lon":139.53409},{"name":"ドリームボックス下石原","province":"東京都","city":"調布市","address":"調布市下石原一丁目32番地6下石原プラザ101号室","lat":35.656426,"lon":139.534535},{"name":"放課後等デイサービス　わかば　西調布店","province":"東京都","city":"調布市","address":"調布市下石原1-8-1西谷調布ビル102","lat":35.657979,"lon":139.536137},{"name":"調布市子ども家庭支援センターすこやか","province":"東京都","city":"調布市","address":"調布市国領町3-1-38ココスクエア2階","lat":35.649608,"lon":139.558644},{"name":"調布市子ども家庭支援センターすこやか","province":"東京都","city":"調布市","address":"調布市国領町3-1-38ココスクエア2階","lat":35.64957,"lon":139.55869},{"name":"放課後等デイサービス　わかば","province":"東京都","city":"調布市","address":"調布市若葉町二丁目26番29号ミタムラビル1階","lat":35.65698,"lon":139.589565},{"name":"ポコポコ・ホッピング神代団地","province":"東京都","city":"調布市","address":"調布市西つつじケ丘4-23神代団地33-103","lat":35.650103,"lon":139.576936},{"name":"アーリーバード　柴崎","province":"東京都","city":"調布市","address":"調布市菊野台一丁目52番地4三高家ビル2A","lat":35.655399,"lon":139.56567},{"name":"ゆうゆうくらぶ","province":"東京都","city":"調布市","address":"調布市柴崎1-56-1サニーハイツ1階","lat":35.659268,"lon":139.564973},{"name":"Green","province":"東京都","city":"調布市","address":"調布市調布ケ丘4-41-2","lat":35.662459,"lon":139.545539},{"name":"ちょうふの風","province":"東京都","city":"調布市","address":"調布市国領町3-8-15くすのきアパート5号棟114号","lat":35.648614,"lon":139.560591},{"name":"ふくふく","province":"東京都","city":"調布市","address":"調布市国領町5-74-1-103","lat":35.648969,"lon":139.551247},{"name":"ハッピーテラス調布教室","province":"東京都","city":"調布市","address":"調布市国領町1-9-3小谷田ビル1階103号室","lat":35.651158,"lon":139.551969},{"name":"ふみ月チャレンジ染地","province":"東京都","city":"調布市","address":"調布市染地1-17-15","lat":35.641979,"lon":139.548582},{"name":"クレヨンキッズ","province":"東京都","city":"調布市","address":"調布市布田2-4-10布田ビル1F","lat":35.65391,"lon":139.548575},{"name":"たんぽぽ","province":"東京都","city":"調布市","address":"調布市布田2-51-10トービル調布201","lat":35.650366,"lon":139.550092},{"name":"ドリームボックス　布田","province":"東京都","city":"調布市","address":"調布市布田3-55-17","lat":35.646725,"lon":139.550353},{"name":"アーリーバード","province":"東京都","city":"調布市","address":"調布市多摩川5-7-4","lat":35.644337,"lon":139.537185},{"name":"ふみ月チャレンジたま川","province":"東京都","city":"調布市","address":"調布市多摩川5-24-18","lat":35.643379,"lon":139.536647},{"name":"調布市総合福祉センター　放課後等デイサービス　ぴっころ","province":"東京都","city":"調布市","address":"調布市小島町2-47-1","lat":35.651397,"lon":139.542753},{"name":"通所運動療育障がい児リハビリセンター調布","province":"東京都","city":"調布市","address":"調布市小島町3-88-2","lat":35.645701,"lon":139.541104},{"name":"ポコポコ・ホッピング富士見町","province":"東京都","city":"調布市","address":"調布市富士見町2-17-17","lat":35.659376,"lon":139.54015},{"name":"れいんぼー","province":"東京都","city":"調布市","address":"調布市富士見町4-30-20","lat":35.668591,"lon":139.536136},{"name":"にこにこキッズルーム","province":"東京都","city":"調布市","address":"調布市下石原1-2-4ヤシマビル2階","lat":35.657687,"lon":139.53409},{"name":"ドリームボックス下石原","province":"東京都","city":"調布市","address":"調布市下石原一丁目32番地6下石原プラザ101号室","lat":35.656426,"lon":139.534535},{"name":"放課後等デイサービス　わかば　西調布店","province":"東京都","city":"調布市","address":"調布市下石原1-8-1西谷調布ビル102","lat":35.657979,"lon":139.536137},{"name":"調布市子ども家庭支援センターすこやか","province":"東京都","city":"調布市","address":"調布市国領町3-1-38ココスクエア2階","lat":35.649608,"lon":139.558644},{"name":"調布市子ども家庭支援センターすこやか","province":"東京都","city":"調布市","address":"調布市国領町3-1-38ココスクエア2階","lat":35.64957,"lon":139.55869},{"name":"放課後等デイサービス　わかば","province":"東京都","city":"調布市","address":"調布市若葉町二丁目26番29号ミタムラビル1階","lat":35.65698,"lon":139.589565},{"name":"ポコポコ・ホッピング神代団地","province":"東京都","city":"調布市","address":"調布市西つつじケ丘4-23神代団地33-103","lat":35.650103,"lon":139.576936},{"name":"アーリーバード　柴崎","province":"東京都","city":"調布市","address":"調布市菊野台一丁目52番地4三高家ビル2A","lat":35.655399,"lon":139.56567},{"name":"ゆうゆうくらぶ","province":"東京都","city":"調布市","address":"調布市柴崎1-56-1サニーハイツ1階","lat":35.659268,"lon":139.564973},{"name":"Green","province":"東京都","city":"調布市","address":"調布市調布ケ丘4-41-2","lat":35.662459,"lon":139.545539},{"name":"ちょうふの風","province":"東京都","city":"調布市","address":"調布市国領町3-8-15くすのきアパート5号棟114号","lat":35.648614,"lon":139.560591},{"name":"ふくふく","province":"東京都","city":"調布市","address":"調布市国領町5-74-1-103","lat":35.648969,"lon":139.551247},{"name":"ハッピーテラス調布教室","province":"東京都","city":"調布市","address":"調布市国領町1-9-3小谷田ビル1階103号室","lat":35.651158,"lon":139.551969},{"name":"ふみ月チャレンジ染地","province":"東京都","city":"調布市","address":"調布市染地1-17-15","lat":35.641979,"lon":139.548582},{"name":"クレヨンキッズ","province":"東京都","city":"調布市","address":"調布市布田2-4-10布田ビル1F","lat":35.65391,"lon":139.548575},{"name":"たんぽぽ","province":"東京都","city":"調布市","address":"調布市布田2-51-10トービル調布201","lat":35.650366,"lon":139.550092},{"name":"ドリームボックス　布田","province":"東京都","city":"調布市","address":"調布市布田3-55-17","lat":35.646725,"lon":139.550353},{"name":"アーリーバード","province":"東京都","city":"調布市","address":"調布市多摩川5-7-4","lat":35.644337,"lon":139.537185},{"name":"ふみ月チャレンジたま川","province":"東京都","city":"調布市","address":"調布市多摩川5-24-18","lat":35.643379,"lon":139.536647},{"name":"調布市総合福祉センター　放課後等デイサービス　ぴっころ","province":"東京都","city":"調布市","address":"調布市小島町2-47-1","lat":35.651397,"lon":139.542753},{"name":"通所運動療育障がい児リハビリセンター調布","province":"東京都","city":"調布市","address":"調布市小島町3-88-2","lat":35.645701,"lon":139.541104},{"name":"ポコポコ・ホッピング富士見町","province":"東京都","city":"調布市","address":"調布市富士見町2-17-17","lat":35.659376,"lon":139.54015},{"name":"れいんぼー","province":"東京都","city":"調布市","address":"調布市富士見町4-30-20","lat":35.668591,"lon":139.536136},{"name":"にこにこキッズルーム","province":"東京都","city":"調布市","address":"調布市下石原1-2-4ヤシマビル2階","lat":35.657687,"lon":139.53409},{"name":"ドリームボックス下石原","province":"東京都","city":"調布市","address":"調布市下石原一丁目32番地6下石原プラザ101号室","lat":35.656426,"lon":139.534535},{"name":"放課後等デイサービス　わかば　西調布店","province":"東京都","city":"調布市","address":"調布市下石原1-8-1西谷調布ビル102","lat":35.657979,"lon":139.536137},{"name":"調布市子ども家庭支援センターすこやか","province":"東京都","city":"調布市","address":"調布市国領町3-1-38ココスクエア2階","lat":35.649608,"lon":139.558644},{"name":"調布市子ども家庭支援センターすこやか","province":"東京都","city":"調布市","address":"調布市国領町3-1-38ココスクエア2階","lat":35.64957,"lon":139.55869},{"name":"放課後等デイサービス　わかば","province":"東京都","city":"調布市","address":"調布市若葉町二丁目26番29号ミタムラビル1階","lat":35.65698,"lon":139.589565},{"name":"ポコポコ・ホッピング神代団地","province":"東京都","city":"調布市","address":"調布市西つつじケ丘4-23神代団地33-103","lat":35.650103,"lon":139.576936},{"name":"アーリーバード　柴崎","province":"東京都","city":"調布市","address":"調布市菊野台一丁目52番地4三高家ビル2A","lat":35.655399,"lon":139.56567},{"name":"ゆうゆうくらぶ","province":"東京都","city":"調布市","address":"調布市柴崎1-56-1サニーハイツ1階","lat":35.659268,"lon":139.564973},{"name":"Green","province":"東京都","city":"調布市","address":"調布市調布ケ丘4-41-2","lat":35.662459,"lon":139.545539},{"name":"ちょうふの風","province":"東京都","city":"調布市","address":"調布市国領町3-8-15くすのきアパート5号棟114号","lat":35.648614,"lon":139.560591},{"name":"ふくふく","province":"東京都","city":"調布市","address":"調布市国領町5-74-1-103","lat":35.648969,"lon":139.551247},{"name":"ハッピーテラス調布教室","province":"東京都","city":"調布市","address":"調布市国領町1-9-3小谷田ビル1階103号室","lat":35.651158,"lon":139.551969},{"name":"ふみ月チャレンジ染地","province":"東京都","city":"調布市","address":"調布市染地1-17-15","lat":35.641979,"lon":139.548582},{"name":"クレヨンキッズ","province":"東京都","city":"調布市","address":"調布市布田2-4-10布田ビル1F","lat":35.65391,"lon":139.548575},{"name":"たんぽぽ","province":"東京都","city":"調布市","address":"調布市布田2-51-10トービル調布201","lat":35.650366,"lon":139.550092},{"name":"ドリームボックス　布田","province":"東京都","city":"調布市","address":"調布市布田3-55-17","lat":35.646725,"lon":139.550353},{"name":"アーリーバード","province":"東京都","city":"調布市","address":"調布市多摩川5-7-4","lat":35.644337,"lon":139.537185},{"name":"ふみ月チャレンジたま川","province":"東京都","city":"調布市","address":"調布市多摩川5-24-18","lat":35.643379,"lon":139.536647},{"name":"調布市総合福祉センター　放課後等デイサービス　ぴっころ","province":"東京都","city":"調布市","address":"調布市小島町2-47-1","lat":35.651397,"lon":139.542753},{"name":"通所運動療育障がい児リハビリセンター調布","province":"東京都","city":"調布市","address":"調布市小島町3-88-2","lat":35.645701,"lon":139.541104},{"name":"ポコポコ・ホッピング富士見町","province":"東京都","city":"調布市","address":"調布市富士見町2-17-17","lat":35.659376,"lon":139.54015},{"name":"れいんぼー","province":"東京都","city":"調布市","address":"調布市富士見町4-30-20","lat":35.668591,"lon":139.536136},{"name":"にこにこキッズルーム","province":"東京都","city":"調布市","address":"調布市下石原1-2-4ヤシマビル2階","lat":35.657687,"lon":139.53409},{"name":"ドリームボックス下石原","province":"東京都","city":"調布市","address":"調布市下石原一丁目32番地6下石原プラザ101号室","lat":35.656426,"lon":139.534535},{"name":"放課後等デイサービス　わかば　西調布店","province":"東京都","city":"調布市","address":"調布市下石原1-8-1西谷調布ビル102","lat":35.657979,"lon":139.536137},{"name":"調布市子ども家庭支援センターすこやか","province":"東京都","city":"調布市","address":"調布市国領町3-1-38ココスクエア2階","lat":35.649608,"lon":139.558644},{"name":"調布市子ども家庭支援センターすこやか","province":"東京都","city":"調布市","address":"調布市国領町3-1-38ココスクエア2階","lat":35.64957,"lon":139.55869},{"name":"放課後等デイサービス　わかば","province":"東京都","city":"調布市","address":"調布市若葉町二丁目26番29号ミタムラビル1階","lat":35.65698,"lon":139.589565},{"name":"ポコポコ・ホッピング神代団地","province":"東京都","city":"調布市","address":"調布市西つつじケ丘4-23神代団地33-103","lat":35.650103,"lon":139.576936},{"name":"アーリーバード　柴崎","province":"東京都","city":"調布市","address":"調布市菊野台一丁目52番地4三高家ビル2A","lat":35.655399,"lon":139.56567},{"name":"ゆうゆうくらぶ","province":"東京都","city":"調布市","address":"調布市柴崎1-56-1サニーハイツ1階","lat":35.659268,"lon":139.564973},{"name":"Green","province":"東京都","city":"調布市","address":"調布市調布ケ丘4-41-2","lat":35.662459,"lon":139.545539},{"name":"ちょうふの風","province":"東京都","city":"調布市","address":"調布市国領町3-8-15くすのきアパート5号棟114号","lat":35.648614,"lon":139.560591},{"name":"ふくふく","province":"東京都","city":"調布市","address":"調布市国領町5-74-1-103","lat":35.648969,"lon":139.551247},{"name":"ハッピーテラス調布教室","province":"東京都","city":"調布市","address":"調布市国領町1-9-3小谷田ビル1階103号室","lat":35.651158,"lon":139.551969},{"name":"ふみ月チャレンジ染地","province":"東京都","city":"調布市","address":"調布市染地1-17-15","lat":35.641979,"lon":139.548582},{"name":"クレヨンキッズ","province":"東京都","city":"調布市","address":"調布市布田2-4-10布田ビル1F","lat":35.65391,"lon":139.548575},{"name":"たんぽぽ","province":"東京都","city":"調布市","address":"調布市布田2-51-10トービル調布201","lat":35.650366,"lon":139.550092},{"name":"ドリームボックス　布田","province":"東京都","city":"調布市","address":"調布市布田3-55-17","lat":35.646725,"lon":139.550353},{"name":"アーリーバード","province":"東京都","city":"調布市","address":"調布市多摩川5-7-4","lat":35.644337,"lon":139.537185},{"name":"ふみ月チャレンジたま川","province":"東京都","city":"調布市","address":"調布市多摩川5-24-18","lat":35.643379,"lon":139.536647},{"name":"調布市総合福祉センター　放課後等デイサービス　ぴっころ","province":"東京都","city":"調布市","address":"調布市小島町2-47-1","lat":35.651397,"lon":139.542753},{"name":"通所運動療育障がい児リハビリセンター調布","province":"東京都","city":"調布市","address":"調布市小島町3-88-2","lat":35.645701,"lon":139.541104},{"name":"ポコポコ・ホッピング富士見町","province":"東京都","city":"調布市","address":"調布市富士見町2-17-17","lat":35.659376,"lon":139.54015},{"name":"れいんぼー","province":"東京都","city":"調布市","address":"調布市富士見町4-30-20","lat":35.668591,"lon":139.536136},{"name":"にこにこキッズルーム","province":"東京都","city":"調布市","address":"調布市下石原1-2-4ヤシマビル2階","lat":35.657687,"lon":139.53409},{"name":"ドリームボックス下石原","province":"東京都","city":"調布市","address":"調布市下石原一丁目32番地6下石原プラザ101号室","lat":35.656426,"lon":139.534535},{"name":"放課後等デイサービス　わかば　西調布店","province":"東京都","city":"調布市","address":"調布市下石原1-8-1西谷調布ビル102","lat":35.657979,"lon":139.536137},{"name":"調布市子ども家庭支援センターすこやか","province":"東京都","city":"調布市","address":"調布市国領町3-1-38ココスクエア2階","lat":35.649608,"lon":139.558644},{"name":"調布市子ども家庭支援センターすこやか","province":"東京都","city":"調布市","address":"調布市国領町3-1-38ココスクエア2階","lat":35.64957,"lon":139.55869},{"name":"放課後等デイサービス　わかば","province":"東京都","city":"調布市","address":"調布市若葉町二丁目26番29号ミタムラビル1階","lat":35.65698,"lon":139.589565},{"name":"ポコポコ・ホッピング神代団地","province":"東京都","city":"調布市","address":"調布市西つつじケ丘4-23神代団地33-103","lat":35.650103,"lon":139.576936},{"name":"アーリーバード　柴崎","province":"東京都","city":"調布市","address":"調布市菊野台一丁目52番地4三高家ビル2A","lat":35.655399,"lon":139.56567},{"name":"ゆうゆうくらぶ","province":"東京都","city":"調布市","address":"調布市柴崎1-56-1サニーハイツ1階","lat":35.659268,"lon":139.564973},{"name":"Green","province":"東京都","city":"調布市","address":"調布市調布ケ丘4-41-2","lat":35.662459,"lon":139.545539},{"name":"ちょうふの風","province":"東京都","city":"調布市","address":"調布市国領町3-8-15くすのきアパート5号棟114号","lat":35.648614,"lon":139.560591},{"name":"ふくふく","province":"東京都","city":"調布市","address":"調布市国領町5-74-1-103","lat":35.648969,"lon":139.551247},{"name":"ハッピーテラス調布教室","province":"東京都","city":"調布市","address":"調布市国領町1-9-3小谷田ビル1階103号室","lat":35.651158,"lon":139.551969},{"name":"ふみ月チャレンジ染地","province":"東京都","city":"調布市","address":"調布市染地1-17-15","lat":35.641979,"lon":139.548582},{"name":"クレヨンキッズ","province":"東京都","city":"調布市","address":"調布市布田2-4-10布田ビル1F","lat":35.65391,"lon":139.548575},{"name":"たんぽぽ","province":"東京都","city":"調布市","address":"調布市布田2-51-10トービル調布201","lat":35.650366,"lon":139.550092},{"name":"ドリームボックス　布田","province":"東京都","city":"調布市","address":"調布市布田3-55-17","lat":35.646725,"lon":139.550353},{"name":"アーリーバード","province":"東京都","city":"調布市","address":"調布市多摩川5-7-4","lat":35.644337,"lon":139.537185},{"name":"ふみ月チャレンジたま川","province":"東京都","city":"調布市","address":"調布市多摩川5-24-18","lat":35.643379,"lon":139.536647},{"name":"調布市総合福祉センター　放課後等デイサービス　ぴっころ","province":"東京都","city":"調布市","address":"調布市小島町2-47-1","lat":35.651397,"lon":139.542753},{"name":"通所運動療育障がい児リハビリセンター調布","province":"東京都","city":"調布市","address":"調布市小島町3-88-2","lat":35.645701,"lon":139.541104},{"name":"ポコポコ・ホッピング富士見町","province":"東京都","city":"調布市","address":"調布市富士見町2-17-17","lat":35.659376,"lon":139.54015},{"name":"れいんぼー","province":"東京都","city":"調布市","address":"調布市富士見町4-30-20","lat":35.668591,"lon":139.536136},{"name":"にこにこキッズルーム","province":"東京都","city":"調布市","address":"調布市下石原1-2-4ヤシマビル2階","lat":35.657687,"lon":139.53409},{"name":"ドリームボックス下石原","province":"東京都","city":"調布市","address":"調布市下石原一丁目32番地6下石原プラザ101号室","lat":35.656426,"lon":139.534535},{"name":"放課後等デイサービス　わかば　西調布店","province":"東京都","city":"調布市","address":"調布市下石原1-8-1西谷調布ビル102","lat":35.657979,"lon":139.536137},{"name":"調布市子ども家庭支援センターすこやか","province":"東京都","city":"調布市","address":"調布市国領町3-1-38ココスクエア2階","lat":35.649608,"lon":139.558644},{"name":"調布市子ども家庭支援センターすこやか","province":"東京都","city":"調布市","address":"調布市国領町3-1-38ココスクエア2階","lat":35.64957,"lon":139.55869},{"name":"放課後等デイサービス　わかば","province":"東京都","city":"調布市","address":"調布市若葉町二丁目26番29号ミタムラビル1階","lat":35.65698,"lon":139.589565},{"name":"ポコポコ・ホッピング神代団地","province":"東京都","city":"調布市","address":"調布市西つつじケ丘4-23神代団地33-103","lat":35.650103,"lon":139.576936},{"name":"アーリーバード　柴崎","province":"東京都","city":"調布市","address":"調布市菊野台一丁目52番地4三高家ビル2A","lat":35.655399,"lon":139.56567},{"name":"ゆうゆうくらぶ","province":"東京都","city":"調布市","address":"調布市柴崎1-56-1サニーハイツ1階","lat":35.659268,"lon":139.564973},{"name":"Green","province":"東京都","city":"調布市","address":"調布市調布ケ丘4-41-2","lat":35.662459,"lon":139.545539},{"name":"ちょうふの風","province":"東京都","city":"調布市","address":"調布市国領町3-8-15くすのきアパート5号棟114号","lat":35.648614,"lon":139.560591},{"name":"ふくふく","province":"東京都","city":"調布市","address":"調布市国領町5-74-1-103","lat":35.648969,"lon":139.551247},{"name":"ハッピーテラス調布教室","province":"東京都","city":"調布市","address":"調布市国領町1-9-3小谷田ビル1階103号室","lat":35.651158,"lon":139.551969},{"name":"ふみ月チャレンジ染地","province":"東京都","city":"調布市","address":"調布市染地1-17-15","lat":35.641979,"lon":139.548582},{"name":"クレヨンキッズ","province":"東京都","city":"調布市","address":"調布市布田2-4-10布田ビル1F","lat":35.65391,"lon":139.548575},{"name":"たんぽぽ","province":"東京都","city":"調布市","address":"調布市布田2-51-10トービル調布201","lat":35.650366,"lon":139.550092},{"name":"ドリームボックス　布田","province":"東京都","city":"調布市","address":"調布市布田3-55-17","lat":35.646725,"lon":139.550353},{"name":"アーリーバード","province":"東京都","city":"調布市","address":"調布市多摩川5-7-4","lat":35.644337,"lon":139.537185},{"name":"ふみ月チャレンジたま川","province":"東京都","city":"調布市","address":"調布市多摩川5-24-18","lat":35.643379,"lon":139.536647},{"name":"調布市総合福祉センター　放課後等デイサービス　ぴっころ","province":"東京都","city":"調布市","address":"調布市小島町2-47-1","lat":35.651397,"lon":139.542753},{"name":"通所運動療育障がい児リハビリセンター調布","province":"東京都","city":"調布市","address":"調布市小島町3-88-2","lat":35.645701,"lon":139.541104},{"name":"ポコポコ・ホッピング富士見町","province":"東京都","city":"調布市","address":"調布市富士見町2-17-17","lat":35.659376,"lon":139.54015},{"name":"れいんぼー","province":"東京都","city":"調布市","address":"調布市富士見町4-30-20","lat":35.668591,"lon":139.536136},{"name":"にこにこキッズルーム","province":"東京都","city":"調布市","address":"調布市下石原1-2-4ヤシマビル2階","lat":35.657687,"lon":139.53409},{"name":"ドリームボックス下石原","province":"東京都","city":"調布市","address":"調布市下石原一丁目32番地6下石原プラザ101号室","lat":35.656426,"lon":139.534535},{"name":"放課後等デイサービス　わかば　西調布店","province":"東京都","city":"調布市","address":"調布市下石原1-8-1西谷調布ビル102","lat":35.657979,"lon":139.536137},{"name":"調布市子ども家庭支援センターすこやか","province":"東京都","city":"調布市","address":"調布市国領町3-1-38ココスクエア2階","lat":35.649608,"lon":139.558644},{"name":"調布市子ども家庭支援センターすこやか","province":"東京都","city":"調布市","address":"調布市国領町3-1-38ココスクエア2階","lat":35.64957,"lon":139.55869},{"name":"放課後等デイサービス　わかば","province":"東京都","city":"調布市","address":"調布市若葉町二丁目26番29号ミタムラビル1階","lat":35.65698,"lon":139.589565},{"name":"ポコポコ・ホッピング神代団地","province":"東京都","city":"調布市","address":"調布市西つつじケ丘4-23神代団地33-103","lat":35.650103,"lon":139.576936},{"name":"アーリーバード　柴崎","province":"東京都","city":"調布市","address":"調布市菊野台一丁目52番地4三高家ビル2A","lat":35.655399,"lon":139.56567},{"name":"ゆうゆうくらぶ","province":"東京都","city":"調布市","address":"調布市柴崎1-56-1サニーハイツ1階","lat":35.659268,"lon":139.564973},{"name":"Green","province":"東京都","city":"調布市","address":"調布市調布ケ丘4-41-2","lat":35.662459,"lon":139.545539},{"name":"ちょうふの風","province":"東京都","city":"調布市","address":"調布市国領町3-8-15くすのきアパート5号棟114号","lat":35.648614,"lon":139.560591},{"name":"ふくふく","province":"東京都","city":"調布市","address":"調布市国領町5-74-1-103","lat":35.648969,"lon":139.551247},{"name":"ハッピーテラス調布教室","province":"東京都","city":"調布市","address":"調布市国領町1-9-3小谷田ビル1階103号室","lat":35.651158,"lon":139.551969},{"name":"ふみ月チャレンジ染地","province":"東京都","city":"調布市","address":"調布市染地1-17-15","lat":35.641979,"lon":139.548582},{"name":"クレヨンキッズ","province":"東京都","city":"調布市","address":"調布市布田2-4-10布田ビル1F","lat":35.65391,"lon":139.548575},{"name":"たんぽぽ","province":"東京都","city":"調布市","address":"調布市布田2-51-10トービル調布201","lat":35.650366,"lon":139.550092},{"name":"ドリームボックス　布田","province":"東京都","city":"調布市","address":"調布市布田3-55-17","lat":35.646725,"lon":139.550353},{"name":"アーリーバード","province":"東京都","city":"調布市","address":"調布市多摩川5-7-4","lat":35.644337,"lon":139.537185},{"name":"ふみ月チャレンジたま川","province":"東京都","city":"調布市","address":"調布市多摩川5-24-18","lat":35.643379,"lon":139.536647},{"name":"調布市総合福祉センター　放課後等デイサービス　ぴっころ","province":"東京都","city":"調布市","address":"調布市小島町2-47-1","lat":35.651397,"lon":139.542753},{"name":"通所運動療育障がい児リハビリセンター調布","province":"東京都","city":"調布市","address":"調布市小島町3-88-2","lat":35.645701,"lon":139.541104},{"name":"ポコポコ・ホッピング富士見町","province":"東京都","city":"調布市","address":"調布市富士見町2-17-17","lat":35.659376,"lon":139.54015},{"name":"れいんぼー","province":"東京都","city":"調布市","address":"調布市富士見町4-30-20","lat":35.668591,"lon":139.536136},{"name":"にこにこキッズルーム","province":"東京都","city":"調布市","address":"調布市下石原1-2-4ヤシマビル2階","lat":35.657687,"lon":139.53409},{"name":"ドリームボックス下石原","province":"東京都","city":"調布市","address":"調布市下石原一丁目32番地6下石原プラザ101号室","lat":35.656426,"lon":139.534535},{"name":"放課後等デイサービス　わかば　西調布店","province":"東京都","city":"調布市","address":"調布市下石原1-8-1西谷調布ビル102","lat":35.657979,"lon":139.536137},{"name":"調布市子ども家庭支援センターすこやか","province":"東京都","city":"調布市","address":"調布市国領町3-1-38ココスクエア2階","lat":35.649608,"lon":139.558644},{"name":"調布市子ども家庭支援センターすこやか","province":"東京都","city":"調布市","address":"調布市国領町3-1-38ココスクエア2階","lat":35.64957,"lon":139.55869},{"name":"放課後等デイサービス　わかば","province":"東京都","city":"調布市","address":"調布市若葉町二丁目26番29号ミタムラビル1階","lat":35.65698,"lon":139.589565},{"name":"ポコポコ・ホッピング神代団地","province":"東京都","city":"調布市","address":"調布市西つつじケ丘4-23神代団地33-103","lat":35.650103,"lon":139.576936},{"name":"アーリーバード　柴崎","province":"東京都","city":"調布市","address":"調布市菊野台一丁目52番地4三高家ビル2A","lat":35.655399,"lon":139.56567},{"name":"ゆうゆうくらぶ","province":"東京都","city":"調布市","address":"調布市柴崎1-56-1サニーハイツ1階","lat":35.659268,"lon":139.564973},{"name":"Green","province":"東京都","city":"調布市","address":"調布市調布ケ丘4-41-2","lat":35.662459,"lon":139.545539},{"name":"ちょうふの風","province":"東京都","city":"調布市","address":"調布市国領町3-8-15くすのきアパート5号棟114号","lat":35.648614,"lon":139.560591},{"name":"ふくふく","province":"東京都","city":"調布市","address":"調布市国領町5-74-1-103","lat":35.648969,"lon":139.551247},{"name":"ハッピーテラス調布教室","province":"東京都","city":"調布市","address":"調布市国領町1-9-3小谷田ビル1階103号室","lat":35.651158,"lon":139.551969},{"name":"ふみ月チャレンジ染地","province":"東京都","city":"調布市","address":"調布市染地1-17-15","lat":35.641979,"lon":139.548582},{"name":"クレヨンキッズ","province":"東京都","city":"調布市","address":"調布市布田2-4-10布田ビル1F","lat":35.65391,"lon":139.548575},{"name":"たんぽぽ","province":"東京都","city":"調布市","address":"調布市布田2-51-10トービル調布201","lat":35.650366,"lon":139.550092},{"name":"ドリームボックス　布田","province":"東京都","city":"調布市","address":"調布市布田3-55-17","lat":35.646725,"lon":139.550353},{"name":"アーリーバード","province":"東京都","city":"調布市","address":"調布市多摩川5-7-4","lat":35.644337,"lon":139.537185},{"name":"ふみ月チャレンジたま川","province":"東京都","city":"調布市","address":"調布市多摩川5-24-18","lat":35.643379,"lon":139.536647},{"name":"調布市総合福祉センター　放課後等デイサービス　ぴっころ","province":"東京都","city":"調布市","address":"調布市小島町2-47-1","lat":35.651397,"lon":139.542753},{"name":"通所運動療育障がい児リハビリセンター調布","province":"東京都","city":"調布市","address":"調布市小島町3-88-2","lat":35.645701,"lon":139.541104},{"name":"ポコポコ・ホッピング富士見町","province":"東京都","city":"調布市","address":"調布市富士見町2-17-17","lat":35.659376,"lon":139.54015},{"name":"れいんぼー","province":"東京都","city":"調布市","address":"調布市富士見町4-30-20","lat":35.668591,"lon":139.536136},{"name":"にこにこキッズルーム","province":"東京都","city":"調布市","address":"調布市下石原1-2-4ヤシマビル2階","lat":35.657687,"lon":139.53409},{"name":"ドリームボックス下石原","province":"東京都","city":"調布市","address":"調布市下石原一丁目32番地6下石原プラザ101号室","lat":35.656426,"lon":139.534535},{"name":"放課後等デイサービス　わかば　西調布店","province":"東京都","city":"調布市","address":"調布市下石原1-8-1西谷調布ビル102","lat":35.657979,"lon":139.536137},{"name":"調布市子ども家庭支援センターすこやか","province":"東京都","city":"調布市","address":"調布市国領町3-1-38ココスクエア2階","lat":35.649608,"lon":139.558644},{"name":"調布市子ども家庭支援センターすこやか","province":"東京都","city":"調布市","address":"調布市国領町3-1-38ココスクエア2階","lat":35.64957,"lon":139.55869},{"name":"放課後等デイサービス　わかば","province":"東京都","city":"調布市","address":"調布市若葉町二丁目26番29号ミタムラビル1階","lat":35.65698,"lon":139.589565},{"name":"ポコポコ・ホッピング神代団地","province":"東京都","city":"調布市","address":"調布市西つつじケ丘4-23神代団地33-103","lat":35.650103,"lon":139.576936},{"name":"アーリーバード　柴崎","province":"東京都","city":"調布市","address":"調布市菊野台一丁目52番地4三高家ビル2A","lat":35.655399,"lon":139.56567},{"name":"ゆうゆうくらぶ","province":"東京都","city":"調布市","address":"調布市柴崎1-56-1サニーハイツ1階","lat":35.659268,"lon":139.564973},{"name":"Green","province":"東京都","city":"調布市","address":"調布市調布ケ丘4-41-2","lat":35.662459,"lon":139.545539},{"name":"ちょうふの風","province":"東京都","city":"調布市","address":"調布市国領町3-8-15くすのきアパート5号棟114号","lat":35.648614,"lon":139.560591},{"name":"ふくふく","province":"東京都","city":"調布市","address":"調布市国領町5-74-1-103","lat":35.648969,"lon":139.551247},{"name":"ハッピーテラス調布教室","province":"東京都","city":"調布市","address":"調布市国領町1-9-3小谷田ビル1階103号室","lat":35.651158,"lon":139.551969},{"name":"ふみ月チャレンジ染地","province":"東京都","city":"調布市","address":"調布市染地1-17-15","lat":35.641979,"lon":139.548582},{"name":"クレヨンキッズ","province":"東京都","city":"調布市","address":"調布市布田2-4-10布田ビル1F","lat":35.65391,"lon":139.548575},{"name":"たんぽぽ","province":"東京都","city":"調布市","address":"調布市布田2-51-10トービル調布201","lat":35.650366,"lon":139.550092},{"name":"ドリームボックス　布田","province":"東京都","city":"調布市","address":"調布市布田3-55-17","lat":35.646725,"lon":139.550353},{"name":"アーリーバード","province":"東京都","city":"調布市","address":"調布市多摩川5-7-4","lat":35.644337,"lon":139.537185},{"name":"ふみ月チャレンジたま川","province":"東京都","city":"調布市","address":"調布市多摩川5-24-18","lat":35.643379,"lon":139.536647},{"name":"調布市総合福祉センター　放課後等デイサービス　ぴっころ","province":"東京都","city":"調布市","address":"調布市小島町2-47-1","lat":35.651397,"lon":139.542753},{"name":"通所運動療育障がい児リハビリセンター調布","province":"東京都","city":"調布市","address":"調布市小島町3-88-2","lat":35.645701,"lon":139.541104},{"name":"ポコポコ・ホッピング富士見町","province":"東京都","city":"調布市","address":"調布市富士見町2-17-17","lat":35.659376,"lon":139.54015},{"name":"れいんぼー","province":"東京都","city":"調布市","address":"調布市富士見町4-30-20","lat":35.668591,"lon":139.536136},{"name":"にこにこキッズルーム","province":"東京都","city":"調布市","address":"調布市下石原1-2-4ヤシマビル2階","lat":35.657687,"lon":139.53409},{"name":"ドリームボックス下石原","province":"東京都","city":"調布市","address":"調布市下石原一丁目32番地6下石原プラザ101号室","lat":35.656426,"lon":139.534535},{"name":"放課後等デイサービス　わかば　西調布店","province":"東京都","city":"調布市","address":"調布市下石原1-8-1西谷調布ビル102","lat":35.657979,"lon":139.536137},{"name":"調布市子ども家庭支援センターすこやか","province":"東京都","city":"調布市","address":"調布市国領町3-1-38ココスクエア2階","lat":35.649608,"lon":139.558644},{"name":"調布市子ども家庭支援センターすこやか","province":"東京都","city":"調布市","address":"調布市国領町3-1-38ココスクエア2階","lat":35.64957,"lon":139.55869},{"name":"放課後等デイサービス　わかば","province":"東京都","city":"調布市","address":"調布市若葉町二丁目26番29号ミタムラビル1階","lat":35.65698,"lon":139.589565},{"name":"ポコポコ・ホッピング神代団地","province":"東京都","city":"調布市","address":"調布市西つつじケ丘4-23神代団地33-103","lat":35.650103,"lon":139.576936},{"name":"アーリーバード　柴崎","province":"東京都","city":"調布市","address":"調布市菊野台一丁目52番地4三高家ビル2A","lat":35.655399,"lon":139.56567},{"name":"ゆうゆうくらぶ","province":"東京都","city":"調布市","address":"調布市柴崎1-56-1サニーハイツ1階","lat":35.659268,"lon":139.564973},{"name":"Green","province":"東京都","city":"調布市","address":"調布市調布ケ丘4-41-2","lat":35.662459,"lon":139.545539},{"name":"ちょうふの風","province":"東京都","city":"調布市","address":"調布市国領町3-8-15くすのきアパート5号棟114号","lat":35.648614,"lon":139.560591},{"name":"ふくふく","province":"東京都","city":"調布市","address":"調布市国領町5-74-1-103","lat":35.648969,"lon":139.551247},{"name":"ハッピーテラス調布教室","province":"東京都","city":"調布市","address":"調布市国領町1-9-3小谷田ビル1階103号室","lat":35.651158,"lon":139.551969},{"name":"ふみ月チャレンジ染地","province":"東京都","city":"調布市","address":"調布市染地1-17-15","lat":35.641979,"lon":139.548582},{"name":"クレヨンキッズ","province":"東京都","city":"調布市","address":"調布市布田2-4-10布田ビル1F","lat":35.65391,"lon":139.548575},{"name":"たんぽぽ","province":"東京都","city":"調布市","address":"調布市布田2-51-10トービル調布201","lat":35.650366,"lon":139.550092},{"name":"ドリームボックス　布田","province":"東京都","city":"調布市","address":"調布市布田3-55-17","lat":35.646725,"lon":139.550353},{"name":"アーリーバード","province":"東京都","city":"調布市","address":"調布市多摩川5-7-4","lat":35.644337,"lon":139.537185},{"name":"ふみ月チャレンジたま川","province":"東京都","city":"調布市","address":"調布市多摩川5-24-18","lat":35.643379,"lon":139.536647},{"name":"調布市総合福祉センター　放課後等デイサービス　ぴっころ","province":"東京都","city":"調布市","address":"調布市小島町2-47-1","lat":35.651397,"lon":139.542753},{"name":"通所運動療育障がい児リハビリセンター調布","province":"東京都","city":"調布市","address":"調布市小島町3-88-2","lat":35.645701,"lon":139.541104},{"name":"ポコポコ・ホッピング富士見町","province":"東京都","city":"調布市","address":"調布市富士見町2-17-17","lat":35.659376,"lon":139.54015},{"name":"れいんぼー","province":"東京都","city":"調布市","address":"調布市富士見町4-30-20","lat":35.668591,"lon":139.536136},{"name":"にこにこキッズルーム","province":"東京都","city":"調布市","address":"調布市下石原1-2-4ヤシマビル2階","lat":35.657687,"lon":139.53409},{"name":"ドリームボックス下石原","province":"東京都","city":"調布市","address":"調布市下石原一丁目32番地6下石原プラザ101号室","lat":35.656426,"lon":139.534535},{"name":"放課後等デイサービス　わかば　西調布店","province":"東京都","city":"調布市","address":"調布市下石原1-8-1西谷調布ビル102","lat":35.657979,"lon":139.536137},{"name":"調布市子ども家庭支援センターすこやか","province":"東京都","city":"調布市","address":"調布市国領町3-1-38ココスクエア2階","lat":35.649608,"lon":139.558644},{"name":"調布市子ども家庭支援センターすこやか","province":"東京都","city":"調布市","address":"調布市国領町3-1-38ココスクエア2階","lat":35.64957,"lon":139.55869},{"name":"放課後等デイサービス　わかば","province":"東京都","city":"調布市","address":"調布市若葉町二丁目26番29号ミタムラビル1階","lat":35.65698,"lon":139.589565},{"name":"ポコポコ・ホッピング神代団地","province":"東京都","city":"調布市","address":"調布市西つつじケ丘4-23神代団地33-103","lat":35.650103,"lon":139.576936},{"name":"アーリーバード　柴崎","province":"東京都","city":"調布市","address":"調布市菊野台一丁目52番地4三高家ビル2A","lat":35.655399,"lon":139.56567},{"name":"ゆうゆうくらぶ","province":"東京都","city":"調布市","address":"調布市柴崎1-56-1サニーハイツ1階","lat":35.659268,"lon":139.564973},{"name":"Green","province":"東京都","city":"調布市","address":"調布市調布ケ丘4-41-2","lat":35.662459,"lon":139.545539},{"name":"ちょうふの風","province":"東京都","city":"調布市","address":"調布市国領町3-8-15くすのきアパート5号棟114号","lat":35.648614,"lon":139.560591},{"name":"ふくふく","province":"東京都","city":"調布市","address":"調布市国領町5-74-1-103","lat":35.648969,"lon":139.551247},{"name":"ハッピーテラス調布教室","province":"東京都","city":"調布市","address":"調布市国領町1-9-3小谷田ビル1階103号室","lat":35.651158,"lon":139.551969},{"name":"ふみ月チャレンジ染地","province":"東京都","city":"調布市","address":"調布市染地1-17-15","lat":35.641979,"lon":139.548582},{"name":"クレヨンキッズ","province":"東京都","city":"調布市","address":"調布市布田2-4-10布田ビル1F","lat":35.65391,"lon":139.548575},{"name":"たんぽぽ","province":"東京都","city":"調布市","address":"調布市布田2-51-10トービル調布201","lat":35.650366,"lon":139.550092},{"name":"ドリームボックス　布田","province":"東京都","city":"調布市","address":"調布市布田3-55-17","lat":35.646725,"lon":139.550353},{"name":"アーリーバード","province":"東京都","city":"調布市","address":"調布市多摩川5-7-4","lat":35.644337,"lon":139.537185},{"name":"ふみ月チャレンジたま川","province":"東京都","city":"調布市","address":"調布市多摩川5-24-18","lat":35.643379,"lon":139.536647},{"name":"調布市総合福祉センター　放課後等デイサービス　ぴっころ","province":"東京都","city":"調布市","address":"調布市小島町2-47-1","lat":35.651397,"lon":139.542753},{"name":"通所運動療育障がい児リハビリセンター調布","province":"東京都","city":"調布市","address":"調布市小島町3-88-2","lat":35.645701,"lon":139.541104},{"name":"ポコポコ・ホッピング富士見町","province":"東京都","city":"調布市","address":"調布市富士見町2-17-17","lat":35.659376,"lon":139.54015},{"name":"れいんぼー","province":"東京都","city":"調布市","address":"調布市富士見町4-30-20","lat":35.668591,"lon":139.536136},{"name":"にこにこキッズルーム","province":"東京都","city":"調布市","address":"調布市下石原1-2-4ヤシマビル2階","lat":35.657687,"lon":139.53409},{"name":"ドリームボックス下石原","province":"東京都","city":"調布市","address":"調布市下石原一丁目32番地6下石原プラザ101号室","lat":35.656426,"lon":139.534535},{"name":"放課後等デイサービス　わかば　西調布店","province":"東京都","city":"調布市","address":"調布市下石原1-8-1西谷調布ビル102","lat":35.657979,"lon":139.536137},{"name":"調布市子ども家庭支援センターすこやか","province":"東京都","city":"調布市","address":"調布市国領町3-1-38ココスクエア2階","lat":35.649608,"lon":139.558644},{"name":"調布市子ども家庭支援センターすこやか","province":"東京都","city":"調布市","address":"調布市国領町3-1-38ココスクエア2階","lat":35.64957,"lon":139.55869},{"name":"放課後等デイサービス　わかば","province":"東京都","city":"調布市","address":"調布市若葉町二丁目26番29号ミタムラビル1階","lat":35.65698,"lon":139.589565},{"name":"ポコポコ・ホッピング神代団地","province":"東京都","city":"調布市","address":"調布市西つつじケ丘4-23神代団地33-103","lat":35.650103,"lon":139.576936},{"name":"アーリーバード　柴崎","province":"東京都","city":"調布市","address":"調布市菊野台一丁目52番地4三高家ビル2A","lat":35.655399,"lon":139.56567},{"name":"ゆうゆうくらぶ","province":"東京都","city":"調布市","address":"調布市柴崎1-56-1サニーハイツ1階","lat":35.659268,"lon":139.564973},{"name":"Green","province":"東京都","city":"調布市","address":"調布市調布ケ丘4-41-2","lat":35.662459,"lon":139.545539},{"name":"ちょうふの風","province":"東京都","city":"調布市","address":"調布市国領町3-8-15くすのきアパート5号棟114号","lat":35.648614,"lon":139.560591},{"name":"ふくふく","province":"東京都","city":"調布市","address":"調布市国領町5-74-1-103","lat":35.648969,"lon":139.551247},{"name":"ハッピーテラス調布教室","province":"東京都","city":"調布市","address":"調布市国領町1-9-3小谷田ビル1階103号室","lat":35.651158,"lon":139.551969},{"name":"ふみ月チャレンジ染地","province":"東京都","city":"調布市","address":"調布市染地1-17-15","lat":35.641979,"lon":139.548582},{"name":"クレヨンキッズ","province":"東京都","city":"調布市","address":"調布市布田2-4-10布田ビル1F","lat":35.65391,"lon":139.548575},{"name":"たんぽぽ","province":"東京都","city":"調布市","address":"調布市布田2-51-10トービル調布201","lat":35.650366,"lon":139.550092},{"name":"ドリームボックス　布田","province":"東京都","city":"調布市","address":"調布市布田3-55-17","lat":35.646725,"lon":139.550353},{"name":"アーリーバード","province":"東京都","city":"調布市","address":"調布市多摩川5-7-4","lat":35.644337,"lon":139.537185},{"name":"ふみ月チャレンジたま川","province":"東京都","city":"調布市","address":"調布市多摩川5-24-18","lat":35.643379,"lon":139.536647},{"name":"調布市総合福祉センター　放課後等デイサービス　ぴっころ","province":"東京都","city":"調布市","address":"調布市小島町2-47-1","lat":35.651397,"lon":139.542753},{"name":"通所運動療育障がい児リハビリセンター調布","province":"東京都","city":"調布市","address":"調布市小島町3-88-2","lat":35.645701,"lon":139.541104},{"name":"ポコポコ・ホッピング富士見町","province":"東京都","city":"調布市","address":"調布市富士見町2-17-17","lat":35.659376,"lon":139.54015},{"name":"れいんぼー","province":"東京都","city":"調布市","address":"調布市富士見町4-30-20","lat":35.668591,"lon":139.536136},{"name":"にこにこキッズルーム","province":"東京都","city":"調布市","address":"調布市下石原1-2-4ヤシマビル2階","lat":35.657687,"lon":139.53409},{"name":"ドリームボックス下石原","province":"東京都","city":"調布市","address":"調布市下石原一丁目32番地6下石原プラザ101号室","lat":35.656426,"lon":139.534535},{"name":"放課後等デイサービス　わかば　西調布店","province":"東京都","city":"調布市","address":"調布市下石原1-8-1西谷調布ビル102","lat":35.657979,"lon":139.536137},{"name":"調布市子ども家庭支援センターすこやか","province":"東京都","city":"調布市","address":"調布市国領町3-1-38ココスクエア2階","lat":35.649608,"lon":139.558644},{"name":"調布市子ども家庭支援センターすこやか","province":"東京都","city":"調布市","address":"調布市国領町3-1-38ココスクエア2階","lat":35.64957,"lon":139.55869},{"name":"放課後等デイサービス　わかば","province":"東京都","city":"調布市","address":"調布市若葉町二丁目26番29号ミタムラビル1階","lat":35.65698,"lon":139.589565},{"name":"ポコポコ・ホッピング神代団地","province":"東京都","city":"調布市","address":"調布市西つつじケ丘4-23神代団地33-103","lat":35.650103,"lon":139.576936},{"name":"アーリーバード　柴崎","province":"東京都","city":"調布市","address":"調布市菊野台一丁目52番地4三高家ビル2A","lat":35.655399,"lon":139.56567},{"name":"ゆうゆうくらぶ","province":"東京都","city":"調布市","address":"調布市柴崎1-56-1サニーハイツ1階","lat":35.659268,"lon":139.564973},{"name":"Green","province":"東京都","city":"調布市","address":"調布市調布ケ丘4-41-2","lat":35.662459,"lon":139.545539},{"name":"ちょうふの風","province":"東京都","city":"調布市","address":"調布市国領町3-8-15くすのきアパート5号棟114号","lat":35.648614,"lon":139.560591},{"name":"ふくふく","province":"東京都","city":"調布市","address":"調布市国領町5-74-1-103","lat":35.648969,"lon":139.551247},{"name":"ハッピーテラス調布教室","province":"東京都","city":"調布市","address":"調布市国領町1-9-3小谷田ビル1階103号室","lat":35.651158,"lon":139.551969},{"name":"ふみ月チャレンジ染地","province":"東京都","city":"調布市","address":"調布市染地1-17-15","lat":35.641979,"lon":139.548582},{"name":"クレヨンキッズ","province":"東京都","city":"調布市","address":"調布市布田2-4-10布田ビル1F","lat":35.65391,"lon":139.548575},{"name":"たんぽぽ","province":"東京都","city":"調布市","address":"調布市布田2-51-10トービル調布201","lat":35.650366,"lon":139.550092},{"name":"ドリームボックス　布田","province":"東京都","city":"調布市","address":"調布市布田3-55-17","lat":35.646725,"lon":139.550353},{"name":"アーリーバード","province":"東京都","city":"調布市","address":"調布市多摩川5-7-4","lat":35.644337,"lon":139.537185},{"name":"ふみ月チャレンジたま川","province":"東京都","city":"調布市","address":"調布市多摩川5-24-18","lat":35.643379,"lon":139.536647},{"name":"調布市総合福祉センター　放課後等デイサービス　ぴっころ","province":"東京都","city":"調布市","address":"調布市小島町2-47-1","lat":35.651397,"lon":139.542753},{"name":"通所運動療育障がい児リハビリセンター調布","province":"東京都","city":"調布市","address":"調布市小島町3-88-2","lat":35.645701,"lon":139.541104},{"name":"ポコポコ・ホッピング富士見町","province":"東京都","city":"調布市","address":"調布市富士見町2-17-17","lat":35.659376,"lon":139.54015},{"name":"れいんぼー","province":"東京都","city":"調布市","address":"調布市富士見町4-30-20","lat":35.668591,"lon":139.536136},{"name":"にこにこキッズルーム","province":"東京都","city":"調布市","address":"調布市下石原1-2-4ヤシマビル2階","lat":35.657687,"lon":139.53409},{"name":"ドリームボックス下石原","province":"東京都","city":"調布市","address":"調布市下石原一丁目32番地6下石原プラザ101号室","lat":35.656426,"lon":139.534535},{"name":"放課後等デイサービス　わかば　西調布店","province":"東京都","city":"調布市","address":"調布市下石原1-8-1西谷調布ビル102","lat":35.657979,"lon":139.536137},{"name":"調布市子ども家庭支援センターすこやか","province":"東京都","city":"調布市","address":"調布市国領町3-1-38ココスクエア2階","lat":35.649608,"lon":139.558644},{"name":"調布市子ども家庭支援センターすこやか","province":"東京都","city":"調布市","address":"調布市国領町3-1-38ココスクエア2階","lat":35.64957,"lon":139.55869},{"name":"放課後等デイサービス　わかば","province":"東京都","city":"調布市","address":"調布市若葉町二丁目26番29号ミタムラビル1階","lat":35.65698,"lon":139.589565},{"name":"ポコポコ・ホッピング神代団地","province":"東京都","city":"調布市","address":"調布市西つつじケ丘4-23神代団地33-103","lat":35.650103,"lon":139.576936},{"name":"アーリーバード　柴崎","province":"東京都","city":"調布市","address":"調布市菊野台一丁目52番地4三高家ビル2A","lat":35.655399,"lon":139.56567},{"name":"ゆうゆうくらぶ","province":"東京都","city":"調布市","address":"調布市柴崎1-56-1サニーハイツ1階","lat":35.659268,"lon":139.564973},{"name":"Green","province":"東京都","city":"調布市","address":"調布市調布ケ丘4-41-2","lat":35.662459,"lon":139.545539},{"name":"ちょうふの風","province":"東京都","city":"調布市","address":"調布市国領町3-8-15くすのきアパート5号棟114号","lat":35.648614,"lon":139.560591},{"name":"ふくふく","province":"東京都","city":"調布市","address":"調布市国領町5-74-1-103","lat":35.648969,"lon":139.551247},{"name":"ハッピーテラス調布教室","province":"東京都","city":"調布市","address":"調布市国領町1-9-3小谷田ビル1階103号室","lat":35.651158,"lon":139.551969},{"name":"ふみ月チャレンジ染地","province":"東京都","city":"調布市","address":"調布市染地1-17-15","lat":35.641979,"lon":139.548582},{"name":"クレヨンキッズ","province":"東京都","city":"調布市","address":"調布市布田2-4-10布田ビル1F","lat":35.65391,"lon":139.548575},{"name":"たんぽぽ","province":"東京都","city":"調布市","address":"調布市布田2-51-10トービル調布201","lat":35.650366,"lon":139.550092},{"name":"ドリームボックス　布田","province":"東京都","city":"調布市","address":"調布市布田3-55-17","lat":35.646725,"lon":139.550353},{"name":"アーリーバード","province":"東京都","city":"調布市","address":"調布市多摩川5-7-4","lat":35.644337,"lon":139.537185},{"name":"ふみ月チャレンジたま川","province":"東京都","city":"調布市","address":"調布市多摩川5-24-18","lat":35.643379,"lon":139.536647},{"name":"調布市総合福祉センター　放課後等デイサービス　ぴっころ","province":"東京都","city":"調布市","address":"調布市小島町2-47-1","lat":35.651397,"lon":139.542753},{"name":"通所運動療育障がい児リハビリセンター調布","province":"東京都","city":"調布市","address":"調布市小島町3-88-2","lat":35.645701,"lon":139.541104},{"name":"ポコポコ・ホッピング富士見町","province":"東京都","city":"調布市","address":"調布市富士見町2-17-17","lat":35.659376,"lon":139.54015},{"name":"れいんぼー","province":"東京都","city":"調布市","address":"調布市富士見町4-30-20","lat":35.668591,"lon":139.536136},{"name":"にこにこキッズルーム","province":"東京都","city":"調布市","address":"調布市下石原1-2-4ヤシマビル2階","lat":35.657687,"lon":139.53409},{"name":"ドリームボックス下石原","province":"東京都","city":"調布市","address":"調布市下石原一丁目32番地6下石原プラザ101号室","lat":35.656426,"lon":139.534535},{"name":"放課後等デイサービス　わかば　西調布店","province":"東京都","city":"調布市","address":"調布市下石原1-8-1西谷調布ビル102","lat":35.657979,"lon":139.536137},{"name":"調布市子ども家庭支援センターすこやか","province":"東京都","city":"調布市","address":"調布市国領町3-1-38ココスクエア2階","lat":35.649608,"lon":139.558644},{"name":"調布市子ども家庭支援センターすこやか","province":"東京都","city":"調布市","address":"調布市国領町3-1-38ココスクエア2階","lat":35.64957,"lon":139.55869},{"name":"放課後等デイサービス　わかば","province":"東京都","city":"調布市","address":"調布市若葉町二丁目26番29号ミタムラビル1階","lat":35.65698,"lon":139.589565},{"name":"ポコポコ・ホッピング神代団地","province":"東京都","city":"調布市","address":"調布市西つつじケ丘4-23神代団地33-103","lat":35.650103,"lon":139.576936},{"name":"アーリーバード　柴崎","province":"東京都","city":"調布市","address":"調布市菊野台一丁目52番地4三高家ビル2A","lat":35.655399,"lon":139.56567},{"name":"ゆうゆうくらぶ","province":"東京都","city":"調布市","address":"調布市柴崎1-56-1サニーハイツ1階","lat":35.659268,"lon":139.564973},{"name":"Green","province":"東京都","city":"調布市","address":"調布市調布ケ丘4-41-2","lat":35.662459,"lon":139.545539},{"name":"ちょうふの風","province":"東京都","city":"調布市","address":"調布市国領町3-8-15くすのきアパート5号棟114号","lat":35.648614,"lon":139.560591},{"name":"ふくふく","province":"東京都","city":"調布市","address":"調布市国領町5-74-1-103","lat":35.648969,"lon":139.551247},{"name":"ハッピーテラス調布教室","province":"東京都","city":"調布市","address":"調布市国領町1-9-3小谷田ビル1階103号室","lat":35.651158,"lon":139.551969},{"name":"ふみ月チャレンジ染地","province":"東京都","city":"調布市","address":"調布市染地1-17-15","lat":35.641979,"lon":139.548582},{"name":"クレヨンキッズ","province":"東京都","city":"調布市","address":"調布市布田2-4-10布田ビル1F","lat":35.65391,"lon":139.548575},{"name":"たんぽぽ","province":"東京都","city":"調布市","address":"調布市布田2-51-10トービル調布201","lat":35.650366,"lon":139.550092},{"name":"ドリームボックス　布田","province":"東京都","city":"調布市","address":"調布市布田3-55-17","lat":35.646725,"lon":139.550353},{"name":"アーリーバード","province":"東京都","city":"調布市","address":"調布市多摩川5-7-4","lat":35.644337,"lon":139.537185},{"name":"ふみ月チャレンジたま川","province":"東京都","city":"調布市","address":"調布市多摩川5-24-18","lat":35.643379,"lon":139.536647},{"name":"調布市総合福祉センター　放課後等デイサービス　ぴっころ","province":"東京都","city":"調布市","address":"調布市小島町2-47-1","lat":35.651397,"lon":139.542753},{"name":"通所運動療育障がい児リハビリセンター調布","province":"東京都","city":"調布市","address":"調布市小島町3-88-2","lat":35.645701,"lon":139.541104},{"name":"ポコポコ・ホッピング富士見町","province":"東京都","city":"調布市","address":"調布市富士見町2-17-17","lat":35.659376,"lon":139.54015},{"name":"れいんぼー","province":"東京都","city":"調布市","address":"調布市富士見町4-30-20","lat":35.668591,"lon":139.536136},{"name":"にこにこキッズルーム","province":"東京都","city":"調布市","address":"調布市下石原1-2-4ヤシマビル2階","lat":35.657687,"lon":139.53409},{"name":"ドリームボックス下石原","province":"東京都","city":"調布市","address":"調布市下石原一丁目32番地6下石原プラザ101号室","lat":35.656426,"lon":139.534535},{"name":"放課後等デイサービス　わかば　西調布店","province":"東京都","city":"調布市","address":"調布市下石原1-8-1西谷調布ビル102","lat":35.657979,"lon":139.536137},{"name":"調布市子ども家庭支援センターすこやか","province":"東京都","city":"調布市","address":"調布市国領町3-1-38ココスクエア2階","lat":35.649608,"lon":139.558644},{"name":"調布市子ども家庭支援センターすこやか","province":"東京都","city":"調布市","address":"調布市国領町3-1-38ココスクエア2階","lat":35.64957,"lon":139.55869},{"name":"放課後等デイサービス　わかば","province":"東京都","city":"調布市","address":"調布市若葉町二丁目26番29号ミタムラビル1階","lat":35.65698,"lon":139.589565},{"name":"ポコポコ・ホッピング神代団地","province":"東京都","city":"調布市","address":"調布市西つつじケ丘4-23神代団地33-103","lat":35.650103,"lon":139.576936},{"name":"アーリーバード　柴崎","province":"東京都","city":"調布市","address":"調布市菊野台一丁目52番地4三高家ビル2A","lat":35.655399,"lon":139.56567},{"name":"ゆうゆうくらぶ","province":"東京都","city":"調布市","address":"調布市柴崎1-56-1サニーハイツ1階","lat":35.659268,"lon":139.564973},{"name":"Green","province":"東京都","city":"調布市","address":"調布市調布ケ丘4-41-2","lat":35.662459,"lon":139.545539},{"name":"ちょうふの風","province":"東京都","city":"調布市","address":"調布市国領町3-8-15くすのきアパート5号棟114号","lat":35.648614,"lon":139.560591},{"name":"ふくふく","province":"東京都","city":"調布市","address":"調布市国領町5-74-1-103","lat":35.648969,"lon":139.551247},{"name":"ハッピーテラス調布教室","province":"東京都","city":"調布市","address":"調布市国領町1-9-3小谷田ビル1階103号室","lat":35.651158,"lon":139.551969},{"name":"ふみ月チャレンジ染地","province":"東京都","city":"調布市","address":"調布市染地1-17-15","lat":35.641979,"lon":139.548582},{"name":"クレヨンキッズ","province":"東京都","city":"調布市","address":"調布市布田2-4-10布田ビル1F","lat":35.65391,"lon":139.548575},{"name":"たんぽぽ","province":"東京都","city":"調布市","address":"調布市布田2-51-10トービル調布201","lat":35.650366,"lon":139.550092},{"name":"ドリームボックス　布田","province":"東京都","city":"調布市","address":"調布市布田3-55-17","lat":35.646725,"lon":139.550353},{"name":"アーリーバード","province":"東京都","city":"調布市","address":"調布市多摩川5-7-4","lat":35.644337,"lon":139.537185},{"name":"ふみ月チャレンジたま川","province":"東京都","city":"調布市","address":"調布市多摩川5-24-18","lat":35.643379,"lon":139.536647},{"name":"調布市総合福祉センター　放課後等デイサービス　ぴっころ","province":"東京都","city":"調布市","address":"調布市小島町2-47-1","lat":35.651397,"lon":139.542753},{"name":"通所運動療育障がい児リハビリセンター調布","province":"東京都","city":"調布市","address":"調布市小島町3-88-2","lat":35.645701,"lon":139.541104},{"name":"ポコポコ・ホッピング富士見町","province":"東京都","city":"調布市","address":"調布市富士見町2-17-17","lat":35.659376,"lon":139.54015},{"name":"れいんぼー","province":"東京都","city":"調布市","address":"調布市富士見町4-30-20","lat":35.668591,"lon":139.536136},{"name":"にこにこキッズルーム","province":"東京都","city":"調布市","address":"調布市下石原1-2-4ヤシマビル2階","lat":35.657687,"lon":139.53409},{"name":"ドリームボックス下石原","province":"東京都","city":"調布市","address":"調布市下石原一丁目32番地6下石原プラザ101号室","lat":35.656426,"lon":139.534535},{"name":"放課後等デイサービス　わかば　西調布店","province":"東京都","city":"調布市","address":"調布市下石原1-8-1西谷調布ビル102","lat":35.657979,"lon":139.536137},{"name":"調布市子ども家庭支援センターすこやか","province":"東京都","city":"調布市","address":"調布市国領町3-1-38ココスクエア2階","lat":35.649608,"lon":139.558644},{"name":"調布市子ども家庭支援センターすこやか","province":"東京都","city":"調布市","address":"調布市国領町3-1-38ココスクエア2階","lat":35.64957,"lon":139.55869}]}