{"keyword":"朝","data":[{"name":"SOGIサポートセンターLinMCGroup株式会社","province":"東京都","city":"調布市","address":"東京都調布市多摩川2丁目3-12","lat":35.64803332,"lon":139.52358352},{"name":"㈲和田葬儀社","province":"東京都","city":"調布市","address":"東京都調布市下石原1丁目60-2","lat":35.65478214,"lon":139.53833695},{"name":"㈱メモリード(ﾒﾓﾘｰﾄﾞﾎｰﾙ)","province":"東京都","city":"調布市","address":"東京都調布市菊野台1丁目10-2","lat":35.65449637,"lon":139.5649622},{"name":"㈱公益社","province":"東京都","city":"調布市","address":"東京都調布市仙川町3丁目1-3","lat":35.66295407,"lon":139.58419625},{"name":"京王フェアウェルサポート㈱（京王メモリアル）","province":"東京都","city":"調布市","address":"東京都調布市布田2丁目34-6","lat":35.65131595,"lon":139.54681677},{"name":"緑ヶ丘こどもフリースペースごりら","province":"東京都","city":"調布市","address":"東京都調布市緑ケ丘2丁目18-49","lat":35.66934778,"lon":139.58393216},{"name":"みんな食堂「仙川スープ」","province":"東京都","city":"調布市","address":"東京都調布市仙川町1丁目19-10","lat":35.66190703,"lon":139.58617112},{"name":"坂の上のばあちゃん家","province":"東京都","city":"調布市","address":"東京都調布市入間町3丁目22-5","lat":35.64650615,"lon":139.58803264},{"name":"子ども食堂深大寺東町","province":"東京都","city":"調布市","address":"東京都調布市深大寺東町6丁目26-15","lat":35.67562424,"lon":139.5587508},{"name":"ハナこども食堂","province":"東京都","city":"調布市","address":"東京都調布市深大寺東町7丁目23-2","lat":35.67628527,"lon":139.55891188},{"name":"絵堂なかよし子ども食堂","province":"東京都","city":"調布市","address":"東京都調布市深大寺南町5丁目9","lat":35.66653636,"lon":139.55753733},{"name":"しばさき彩こども食堂","province":"東京都","city":"調布市","address":"東京都調布市柴崎1丁目64-9","lat":35.6572738,"lon":139.56494541},{"name":"さくら子育てステーション","province":"東京都","city":"調布市","address":"東京都調布市八雲台1丁目22-1","lat":35.65435444,"lon":139.55306875},{"name":"かしわの食堂（まい・夢）","province":"東京都","city":"調布市","address":"東京都調布市佐須町2丁目18-1","lat":35.65938997,"lon":139.55534612},{"name":"深大寺カフェ子ども食堂","province":"東京都","city":"調布市","address":"東京都調布市深大寺元町1丁目11-1","lat":35.66248107,"lon":139.54792163},{"name":"そらなかBASE","province":"東京都","city":"調布市","address":"東京都調布市深大寺元町1丁目11-1","lat":35.66248107,"lon":139.54792163},{"name":"まごじば","province":"東京都","city":"調布市","address":"東京都調布市国領町1丁目7-1","lat":35.65279632,"lon":139.55237724},{"name":"こくりょう子ども食堂わいわい","province":"東京都","city":"調布市","address":"東京都調布市国領町3丁目8-15","lat":35.64856666,"lon":139.56058525},{"name":"二小地区もりあげ隊","province":"東京都","city":"調布市","address":"東京都調布市国領町5丁目76-3","lat":35.64864714,"lon":139.55144724},{"name":"ウナパウザ","province":"東京都","city":"調布市","address":"東京都調布市染地3丁目8-26","lat":35.63719661,"lon":139.55749791},{"name":"みさとや子ども食堂","province":"東京都","city":"調布市","address":"東京都調布市布田2丁目2-6","lat":35.65352939,"lon":139.54781918},{"name":"ちょうふ子ども食堂","province":"東京都","city":"調布市","address":"東京都調布市布田2丁目5-4","lat":35.65335444,"lon":139.54889689},{"name":"ハッピーこども食堂","province":"東京都","city":"調布市","address":"東京都調布市布田5丁目32-3","lat":35.64607548,"lon":139.54485383},{"name":"電気通信大学こども食堂","province":"東京都","city":"調布市","address":"東京都調布市調布ケ丘1丁目5-1","lat":35.65564303,"lon":139.54430838},{"name":"こども食堂かくしょうじ","province":"東京都","city":"調布市","address":"東京都調布市富士見町1丁目35-5","lat":35.66023412,"lon":139.53743394},{"name":"富士見あおぞら子ども食堂","province":"東京都","city":"調布市","address":"東京都調布市富士見町2丁目13-5","lat":35.65921758,"lon":139.54185572},{"name":"風のテーブル","province":"東京都","city":"調布市","address":"東京都調布市上石原1丁目36-7","lat":35.65909816,"lon":139.53207068},{"name":"子ども食堂かみいしわらたんぽぽ","province":"東京都","city":"調布市","address":"東京都調布市上石原3丁目21-6","lat":35.65290458,"lon":139.52214705},{"name":"（有）和田葬儀社","province":"東京都","city":"調布市","address":"東京都調布市下石原1丁目60-2","lat":35.65478214,"lon":139.53833695},{"name":"（株）メモリード","province":"東京都","city":"調布市","address":"東京都調布市菊野台1丁目11-1","lat":35.65463524,"lon":139.56509551},{"name":"御塔坂橋北","province":"東京都","city":"調布市","address":"東京都調布市深大寺元町3丁目1","lat":35.6658612,"lon":139.54374139},{"name":"旧甲州街道入口","province":"東京都","city":"調布市","address":"東京都調布市国領町2丁目18-4","lat":35.65227161,"lon":139.5597767},{"name":"国領駅入口","province":"東京都","city":"調布市","address":"東京都調布市国領町1丁目45-11","lat":35.65064961,"lon":139.55676599},{"name":"仙川駅入口","province":"東京都","city":"調布市","address":"東京都調布市仙川町2丁目19-5","lat":35.66328458,"lon":139.58346575},{"name":"上石原","province":"東京都","city":"調布市","address":"東京都調布市富士見町1丁目1","lat":35.66012856,"lon":139.53295109},{"name":"味の素スタジアム西","province":"東京都","city":"調布市","address":"東京都調布市西町290","lat":35.66924671,"lon":139.53010368},{"name":"調布駅西","province":"東京都","city":"調布市","address":"東京都調布市小島町1丁目36-16","lat":35.65269349,"lon":139.54303928},{"name":"布多天神前","province":"東京都","city":"調布市","address":"東京都調布市調布ケ丘1丁目6","lat":35.65539583,"lon":139.54488332},{"name":"不動前","province":"東京都","city":"調布市","address":"東京都調布市国領町1丁目2-8","lat":35.65169097,"lon":139.55134967},{"name":"国領町八丁目","province":"東京都","city":"調布市","address":"東京都調布市国領町4丁目51-1","lat":35.64605871,"lon":139.56218803},{"name":"深大寺北町一丁目","province":"東京都","city":"調布市","address":"東京都調布市深大寺北町7丁目27","lat":35.67532402,"lon":139.54521317},{"name":"つつじヶ丘交番前","province":"東京都","city":"調布市","address":"東京都調布市西つつじケ丘3丁目31-2","lat":35.65925155,"lon":139.57431952},{"name":"多摩川団地交番前","province":"東京都","city":"調布市","address":"東京都調布市染地3丁目1-498","lat":35.63967659,"lon":139.55987229},{"name":"調布駅南入口","province":"東京都","city":"調布市","address":"東京都調布市布田5丁目1","lat":35.64839998,"lon":139.54339535},{"name":"調布駅北","province":"東京都","city":"調布市","address":"東京都調布市布田1丁目37-16","lat":35.65298507,"lon":139.54419187},{"name":"調布中学校前","province":"東京都","city":"調布市","address":"東京都調布市富士見町4丁目17-1","lat":35.66535009,"lon":139.53516172},{"name":"仙川橋","province":"東京都","city":"調布市","address":"東京都調布市緑ケ丘2丁目56","lat":35.66533724,"lon":139.5879153},{"name":"国領駅南","province":"東京都","city":"調布市","address":"東京都調布市国領町3丁目1-38","lat":35.64966092,"lon":139.55874091},{"name":"調布第三小学校入口","province":"東京都","city":"調布市","address":"東京都調布市上石原2丁目41","lat":35.65508765,"lon":139.52915735},{"name":"飛田給小入口","province":"東京都","city":"調布市","address":"東京都調布市飛田給2丁目42-7","lat":35.65689285,"lon":139.52534091},{"name":"飛田給小入口第二","province":"東京都","city":"調布市","address":"東京都調布市飛田給2丁目42-7","lat":35.65689285,"lon":139.52534091},{"name":"野川馬橋西","province":"東京都","city":"調布市","address":"東京都調布市国領町2丁目26","lat":35.65327149,"lon":139.56242638},{"name":"調布市役所前","province":"東京都","city":"調布市","address":"東京都調布市小島町2丁目35-1","lat":35.65059399,"lon":139.5406704},{"name":"布田一丁目","province":"東京都","city":"調布市","address":"東京都調布市布田1丁目25-2","lat":35.65270176,"lon":139.54599168},{"name":"国領町三丁目","province":"東京都","city":"調布市","address":"東京都調布市国領町3丁目8","lat":35.64928321,"lon":139.5611518},{"name":"飛田給二丁目","province":"東京都","city":"調布市","address":"東京都調布市飛田給2丁目19","lat":35.65929519,"lon":139.52253264},{"name":"飛田給二丁目東","province":"東京都","city":"調布市","address":"東京都調布市飛田給2丁目24-7","lat":35.65814817,"lon":139.52361597},{"name":"飛田給駅南口","province":"東京都","city":"調布市","address":"東京都調布市飛田給2丁目13-12","lat":35.65893411,"lon":139.52149665},{"name":"調布総合体育館南","province":"東京都","city":"調布市","address":"東京都調布市深大寺北町2丁目2","lat":35.6716801,"lon":139.55205709},{"name":"調布郵便局前","province":"東京都","city":"調布市","address":"東京都調布市国領町2丁目14","lat":35.65227714,"lon":139.55834905},{"name":"調布ヶ丘一丁目","province":"東京都","city":"調布市","address":"東京都調布市調布ケ丘1丁目34-1","lat":35.65472366,"lon":139.54680532},{"name":"国領小学校西","province":"東京都","city":"調布市","address":"東京都調布市国領町8丁目1-55","lat":35.64866387,"lon":139.56351548},{"name":"調布駅入口","province":"東京都","city":"調布市","address":"東京都調布市調布ケ丘1丁目5-1","lat":35.65564303,"lon":139.54430838},{"name":"調布市文化プラザ前","province":"東京都","city":"調布市","address":"東京都調布市小島町2丁目34","lat":35.6508828,"lon":139.54196187},{"name":"調布警察署前","province":"東京都","city":"調布市","address":"東京都調布市国領町2丁目25-1","lat":35.65292432,"lon":139.56223197},{"name":"調布駅南","province":"東京都","city":"調布市","address":"東京都調布市布田4丁目17-10","lat":35.65041342,"lon":139.54403667},{"name":"調布駅南第二","province":"東京都","city":"調布市","address":"東京都調布市小島町2丁目52-1","lat":35.64983578,"lon":139.54309243},{"name":"東京スタジアム前","province":"東京都","city":"調布市","address":"東京都調布市飛田給1丁目34-17","lat":35.66310853,"lon":139.52479608},{"name":"飛田給駅入口","province":"東京都","city":"調布市","address":"東京都調布市飛田給1丁目26-1","lat":35.66123655,"lon":139.52347964},{"name":"飛田給小学校前","province":"東京都","city":"調布市","address":"東京都調布市上石原3丁目3","lat":35.65435992,"lon":139.52418564},{"name":"国領駅前","province":"東京都","city":"調布市","address":"東京都調布市国領町4丁目8-1","lat":35.64947482,"lon":139.5574827},{"name":"布田駅前第一","province":"東京都","city":"調布市","address":"東京都調布市国領町5丁目70-1","lat":35.64951641,"lon":139.55109439},{"name":"布田駅前第二","province":"東京都","city":"調布市","address":"東京都調布市布田2丁目51-6","lat":35.65026625,"lon":139.55079711},{"name":"上石原浄水所","province":"東京都","city":"調布市","address":"東京都調布市上石原1丁目34-7","lat":35.66130335,"lon":139.53174555},{"name":"深大寺浄水所","province":"東京都","city":"調布市","address":"東京都調布市深大寺南町5丁目56-1","lat":35.66896104,"lon":139.55556797},{"name":"SOGIサポートセンターLinMCGroup株式会社","province":"東京都","city":"調布市","address":"東京都調布市多摩川2丁目3-12","lat":35.64803332,"lon":139.52358352},{"name":"㈲和田葬儀社","province":"東京都","city":"調布市","address":"東京都調布市下石原1丁目60-2","lat":35.65478214,"lon":139.53833695},{"name":"㈱メモリード(ﾒﾓﾘｰﾄﾞﾎｰﾙ)","province":"東京都","city":"調布市","address":"東京都調布市菊野台1丁目10-2","lat":35.65449637,"lon":139.5649622},{"name":"㈱公益社","province":"東京都","city":"調布市","address":"東京都調布市仙川町3丁目1-3","lat":35.66295407,"lon":139.58419625},{"name":"京王フェアウェルサポート㈱（京王メモリアル）","province":"東京都","city":"調布市","address":"東京都調布市布田2丁目34-6","lat":35.65131595,"lon":139.54681677},{"name":"緑ヶ丘こどもフリースペースごりら","province":"東京都","city":"調布市","address":"東京都調布市緑ケ丘2丁目18-49","lat":35.66934778,"lon":139.58393216},{"name":"みんな食堂「仙川スープ」","province":"東京都","city":"調布市","address":"東京都調布市仙川町1丁目19-10","lat":35.66190703,"lon":139.58617112},{"name":"坂の上のばあちゃん家","province":"東京都","city":"調布市","address":"東京都調布市入間町3丁目22-5","lat":35.64650615,"lon":139.58803264},{"name":"子ども食堂深大寺東町","province":"東京都","city":"調布市","address":"東京都調布市深大寺東町6丁目26-15","lat":35.67562424,"lon":139.5587508},{"name":"ハナこども食堂","province":"東京都","city":"調布市","address":"東京都調布市深大寺東町7丁目23-2","lat":35.67628527,"lon":139.55891188},{"name":"絵堂なかよし子ども食堂","province":"東京都","city":"調布市","address":"東京都調布市深大寺南町5丁目9","lat":35.66653636,"lon":139.55753733},{"name":"しばさき彩こども食堂","province":"東京都","city":"調布市","address":"東京都調布市柴崎1丁目64-9","lat":35.6572738,"lon":139.56494541},{"name":"さくら子育てステーション","province":"東京都","city":"調布市","address":"東京都調布市八雲台1丁目22-1","lat":35.65435444,"lon":139.55306875},{"name":"かしわの食堂（まい・夢）","province":"東京都","city":"調布市","address":"東京都調布市佐須町2丁目18-1","lat":35.65938997,"lon":139.55534612},{"name":"深大寺カフェ子ども食堂","province":"東京都","city":"調布市","address":"東京都調布市深大寺元町1丁目11-1","lat":35.66248107,"lon":139.54792163},{"name":"そらなかBASE","province":"東京都","city":"調布市","address":"東京都調布市深大寺元町1丁目11-1","lat":35.66248107,"lon":139.54792163},{"name":"まごじば","province":"東京都","city":"調布市","address":"東京都調布市国領町1丁目7-1","lat":35.65279632,"lon":139.55237724},{"name":"こくりょう子ども食堂わいわい","province":"東京都","city":"調布市","address":"東京都調布市国領町3丁目8-15","lat":35.64856666,"lon":139.56058525},{"name":"二小地区もりあげ隊","province":"東京都","city":"調布市","address":"東京都調布市国領町5丁目76-3","lat":35.64864714,"lon":139.55144724},{"name":"ウナパウザ","province":"東京都","city":"調布市","address":"東京都調布市染地3丁目8-26","lat":35.63719661,"lon":139.55749791},{"name":"みさとや子ども食堂","province":"東京都","city":"調布市","address":"東京都調布市布田2丁目2-6","lat":35.65352939,"lon":139.54781918},{"name":"ちょうふ子ども食堂","province":"東京都","city":"調布市","address":"東京都調布市布田2丁目5-4","lat":35.65335444,"lon":139.54889689},{"name":"ハッピーこども食堂","province":"東京都","city":"調布市","address":"東京都調布市布田5丁目32-3","lat":35.64607548,"lon":139.54485383},{"name":"電気通信大学こども食堂","province":"東京都","city":"調布市","address":"東京都調布市調布ケ丘1丁目5-1","lat":35.65564303,"lon":139.54430838},{"name":"こども食堂かくしょうじ","province":"東京都","city":"調布市","address":"東京都調布市富士見町1丁目35-5","lat":35.66023412,"lon":139.53743394},{"name":"富士見あおぞら子ども食堂","province":"東京都","city":"調布市","address":"東京都調布市富士見町2丁目13-5","lat":35.65921758,"lon":139.54185572},{"name":"風のテーブル","province":"東京都","city":"調布市","address":"東京都調布市上石原1丁目36-7","lat":35.65909816,"lon":139.53207068},{"name":"子ども食堂かみいしわらたんぽぽ","province":"東京都","city":"調布市","address":"東京都調布市上石原3丁目21-6","lat":35.65290458,"lon":139.52214705},{"name":"（有）和田葬儀社","province":"東京都","city":"調布市","address":"東京都調布市下石原1丁目60-2","lat":35.65478214,"lon":139.53833695},{"name":"（株）メモリード","province":"東京都","city":"調布市","address":"東京都調布市菊野台1丁目11-1","lat":35.65463524,"lon":139.56509551},{"name":"御塔坂橋北","province":"東京都","city":"調布市","address":"東京都調布市深大寺元町3丁目1","lat":35.6658612,"lon":139.54374139},{"name":"旧甲州街道入口","province":"東京都","city":"調布市","address":"東京都調布市国領町2丁目18-4","lat":35.65227161,"lon":139.5597767},{"name":"国領駅入口","province":"東京都","city":"調布市","address":"東京都調布市国領町1丁目45-11","lat":35.65064961,"lon":139.55676599},{"name":"仙川駅入口","province":"東京都","city":"調布市","address":"東京都調布市仙川町2丁目19-5","lat":35.66328458,"lon":139.58346575},{"name":"上石原","province":"東京都","city":"調布市","address":"東京都調布市富士見町1丁目1","lat":35.66012856,"lon":139.53295109},{"name":"味の素スタジアム西","province":"東京都","city":"調布市","address":"東京都調布市西町290","lat":35.66924671,"lon":139.53010368},{"name":"調布駅西","province":"東京都","city":"調布市","address":"東京都調布市小島町1丁目36-16","lat":35.65269349,"lon":139.54303928},{"name":"布多天神前","province":"東京都","city":"調布市","address":"東京都調布市調布ケ丘1丁目6","lat":35.65539583,"lon":139.54488332},{"name":"不動前","province":"東京都","city":"調布市","address":"東京都調布市国領町1丁目2-8","lat":35.65169097,"lon":139.55134967},{"name":"国領町八丁目","province":"東京都","city":"調布市","address":"東京都調布市国領町4丁目51-1","lat":35.64605871,"lon":139.56218803},{"name":"深大寺北町一丁目","province":"東京都","city":"調布市","address":"東京都調布市深大寺北町7丁目27","lat":35.67532402,"lon":139.54521317},{"name":"つつじヶ丘交番前","province":"東京都","city":"調布市","address":"東京都調布市西つつじケ丘3丁目31-2","lat":35.65925155,"lon":139.57431952},{"name":"多摩川団地交番前","province":"東京都","city":"調布市","address":"東京都調布市染地3丁目1-498","lat":35.63967659,"lon":139.55987229},{"name":"調布駅南入口","province":"東京都","city":"調布市","address":"東京都調布市布田5丁目1","lat":35.64839998,"lon":139.54339535},{"name":"調布駅北","province":"東京都","city":"調布市","address":"東京都調布市布田1丁目37-16","lat":35.65298507,"lon":139.54419187},{"name":"調布中学校前","province":"東京都","city":"調布市","address":"東京都調布市富士見町4丁目17-1","lat":35.66535009,"lon":139.53516172},{"name":"仙川橋","province":"東京都","city":"調布市","address":"東京都調布市緑ケ丘2丁目56","lat":35.66533724,"lon":139.5879153},{"name":"国領駅南","province":"東京都","city":"調布市","address":"東京都調布市国領町3丁目1-38","lat":35.64966092,"lon":139.55874091},{"name":"調布第三小学校入口","province":"東京都","city":"調布市","address":"東京都調布市上石原2丁目41","lat":35.65508765,"lon":139.52915735},{"name":"飛田給小入口","province":"東京都","city":"調布市","address":"東京都調布市飛田給2丁目42-7","lat":35.65689285,"lon":139.52534091},{"name":"飛田給小入口第二","province":"東京都","city":"調布市","address":"東京都調布市飛田給2丁目42-7","lat":35.65689285,"lon":139.52534091},{"name":"野川馬橋西","province":"東京都","city":"調布市","address":"東京都調布市国領町2丁目26","lat":35.65327149,"lon":139.56242638},{"name":"調布市役所前","province":"東京都","city":"調布市","address":"東京都調布市小島町2丁目35-1","lat":35.65059399,"lon":139.5406704},{"name":"布田一丁目","province":"東京都","city":"調布市","address":"東京都調布市布田1丁目25-2","lat":35.65270176,"lon":139.54599168},{"name":"国領町三丁目","province":"東京都","city":"調布市","address":"東京都調布市国領町3丁目8","lat":35.64928321,"lon":139.5611518},{"name":"飛田給二丁目","province":"東京都","city":"調布市","address":"東京都調布市飛田給2丁目19","lat":35.65929519,"lon":139.52253264},{"name":"飛田給二丁目東","province":"東京都","city":"調布市","address":"東京都調布市飛田給2丁目24-7","lat":35.65814817,"lon":139.52361597},{"name":"飛田給駅南口","province":"東京都","city":"調布市","address":"東京都調布市飛田給2丁目13-12","lat":35.65893411,"lon":139.52149665},{"name":"調布総合体育館南","province":"東京都","city":"調布市","address":"東京都調布市深大寺北町2丁目2","lat":35.6716801,"lon":139.55205709},{"name":"調布郵便局前","province":"東京都","city":"調布市","address":"東京都調布市国領町2丁目14","lat":35.65227714,"lon":139.55834905},{"name":"調布ヶ丘一丁目","province":"東京都","city":"調布市","address":"東京都調布市調布ケ丘1丁目34-1","lat":35.65472366,"lon":139.54680532},{"name":"国領小学校西","province":"東京都","city":"調布市","address":"東京都調布市国領町8丁目1-55","lat":35.64866387,"lon":139.56351548},{"name":"調布駅入口","province":"東京都","city":"調布市","address":"東京都調布市調布ケ丘1丁目5-1","lat":35.65564303,"lon":139.54430838},{"name":"調布市文化プラザ前","province":"東京都","city":"調布市","address":"東京都調布市小島町2丁目34","lat":35.6508828,"lon":139.54196187},{"name":"調布警察署前","province":"東京都","city":"調布市","address":"東京都調布市国領町2丁目25-1","lat":35.65292432,"lon":139.56223197},{"name":"調布駅南","province":"東京都","city":"調布市","address":"東京都調布市布田4丁目17-10","lat":35.65041342,"lon":139.54403667},{"name":"調布駅南第二","province":"東京都","city":"調布市","address":"東京都調布市小島町2丁目52-1","lat":35.64983578,"lon":139.54309243},{"name":"東京スタジアム前","province":"東京都","city":"調布市","address":"東京都調布市飛田給1丁目34-17","lat":35.66310853,"lon":139.52479608},{"name":"飛田給駅入口","province":"東京都","city":"調布市","address":"東京都調布市飛田給1丁目26-1","lat":35.66123655,"lon":139.52347964},{"name":"飛田給小学校前","province":"東京都","city":"調布市","address":"東京都調布市上石原3丁目3","lat":35.65435992,"lon":139.52418564},{"name":"国領駅前","province":"東京都","city":"調布市","address":"東京都調布市国領町4丁目8-1","lat":35.64947482,"lon":139.5574827},{"name":"布田駅前第一","province":"東京都","city":"調布市","address":"東京都調布市国領町5丁目70-1","lat":35.64951641,"lon":139.55109439},{"name":"布田駅前第二","province":"東京都","city":"調布市","address":"東京都調布市布田2丁目51-6","lat":35.65026625,"lon":139.55079711},{"name":"上石原浄水所","province":"東京都","city":"調布市","address":"東京都調布市上石原1丁目34-7","lat":35.66130335,"lon":139.53174555},{"name":"深大寺浄水所","province":"東京都","city":"調布市","address":"東京都調布市深大寺南町5丁目56-1","lat":35.66896104,"lon":139.55556797},{"name":"SOGIサポートセンターLinMCGroup株式会社","province":"東京都","city":"調布市","address":"東京都調布市多摩川2丁目3-12","lat":35.64803332,"lon":139.52358352},{"name":"㈲和田葬儀社","province":"東京都","city":"調布市","address":"東京都調布市下石原1丁目60-2","lat":35.65478214,"lon":139.53833695},{"name":"㈱メモリード(ﾒﾓﾘｰﾄﾞﾎｰﾙ)","province":"東京都","city":"調布市","address":"東京都調布市菊野台1丁目10-2","lat":35.65449637,"lon":139.5649622},{"name":"㈱公益社","province":"東京都","city":"調布市","address":"東京都調布市仙川町3丁目1-3","lat":35.66295407,"lon":139.58419625},{"name":"京王フェアウェルサポート㈱（京王メモリアル）","province":"東京都","city":"調布市","address":"東京都調布市布田2丁目34-6","lat":35.65131595,"lon":139.54681677},{"name":"緑ヶ丘こどもフリースペースごりら","province":"東京都","city":"調布市","address":"東京都調布市緑ケ丘2丁目18-49","lat":35.66934778,"lon":139.58393216},{"name":"みんな食堂「仙川スープ」","province":"東京都","city":"調布市","address":"東京都調布市仙川町1丁目19-10","lat":35.66190703,"lon":139.58617112},{"name":"坂の上のばあちゃん家","province":"東京都","city":"調布市","address":"東京都調布市入間町3丁目22-5","lat":35.64650615,"lon":139.58803264},{"name":"子ども食堂深大寺東町","province":"東京都","city":"調布市","address":"東京都調布市深大寺東町6丁目26-15","lat":35.67562424,"lon":139.5587508},{"name":"ハナこども食堂","province":"東京都","city":"調布市","address":"東京都調布市深大寺東町7丁目23-2","lat":35.67628527,"lon":139.55891188},{"name":"絵堂なかよし子ども食堂","province":"東京都","city":"調布市","address":"東京都調布市深大寺南町5丁目9","lat":35.66653636,"lon":139.55753733},{"name":"しばさき彩こども食堂","province":"東京都","city":"調布市","address":"東京都調布市柴崎1丁目64-9","lat":35.6572738,"lon":139.56494541},{"name":"さくら子育てステーション","province":"東京都","city":"調布市","address":"東京都調布市八雲台1丁目22-1","lat":35.65435444,"lon":139.55306875},{"name":"かしわの食堂（まい・夢）","province":"東京都","city":"調布市","address":"東京都調布市佐須町2丁目18-1","lat":35.65938997,"lon":139.55534612},{"name":"深大寺カフェ子ども食堂","province":"東京都","city":"調布市","address":"東京都調布市深大寺元町1丁目11-1","lat":35.66248107,"lon":139.54792163},{"name":"そらなかBASE","province":"東京都","city":"調布市","address":"東京都調布市深大寺元町1丁目11-1","lat":35.66248107,"lon":139.54792163},{"name":"まごじば","province":"東京都","city":"調布市","address":"東京都調布市国領町1丁目7-1","lat":35.65279632,"lon":139.55237724},{"name":"こくりょう子ども食堂わいわい","province":"東京都","city":"調布市","address":"東京都調布市国領町3丁目8-15","lat":35.64856666,"lon":139.56058525},{"name":"二小地区もりあげ隊","province":"東京都","city":"調布市","address":"東京都調布市国領町5丁目76-3","lat":35.64864714,"lon":139.55144724},{"name":"ウナパウザ","province":"東京都","city":"調布市","address":"東京都調布市染地3丁目8-26","lat":35.63719661,"lon":139.55749791},{"name":"みさとや子ども食堂","province":"東京都","city":"調布市","address":"東京都調布市布田2丁目2-6","lat":35.65352939,"lon":139.54781918},{"name":"ちょうふ子ども食堂","province":"東京都","city":"調布市","address":"東京都調布市布田2丁目5-4","lat":35.65335444,"lon":139.54889689},{"name":"ハッピーこども食堂","province":"東京都","city":"調布市","address":"東京都調布市布田5丁目32-3","lat":35.64607548,"lon":139.54485383},{"name":"電気通信大学こども食堂","province":"東京都","city":"調布市","address":"東京都調布市調布ケ丘1丁目5-1","lat":35.65564303,"lon":139.54430838},{"name":"こども食堂かくしょうじ","province":"東京都","city":"調布市","address":"東京都調布市富士見町1丁目35-5","lat":35.66023412,"lon":139.53743394},{"name":"富士見あおぞら子ども食堂","province":"東京都","city":"調布市","address":"東京都調布市富士見町2丁目13-5","lat":35.65921758,"lon":139.54185572},{"name":"風のテーブル","province":"東京都","city":"調布市","address":"東京都調布市上石原1丁目36-7","lat":35.65909816,"lon":139.53207068},{"name":"子ども食堂かみいしわらたんぽぽ","province":"東京都","city":"調布市","address":"東京都調布市上石原3丁目21-6","lat":35.65290458,"lon":139.52214705},{"name":"（有）和田葬儀社","province":"東京都","city":"調布市","address":"東京都調布市下石原1丁目60-2","lat":35.65478214,"lon":139.53833695},{"name":"（株）メモリード","province":"東京都","city":"調布市","address":"東京都調布市菊野台1丁目11-1","lat":35.65463524,"lon":139.56509551},{"name":"御塔坂橋北","province":"東京都","city":"調布市","address":"東京都調布市深大寺元町3丁目1","lat":35.6658612,"lon":139.54374139},{"name":"旧甲州街道入口","province":"東京都","city":"調布市","address":"東京都調布市国領町2丁目18-4","lat":35.65227161,"lon":139.5597767},{"name":"国領駅入口","province":"東京都","city":"調布市","address":"東京都調布市国領町1丁目45-11","lat":35.65064961,"lon":139.55676599},{"name":"仙川駅入口","province":"東京都","city":"調布市","address":"東京都調布市仙川町2丁目19-5","lat":35.66328458,"lon":139.58346575},{"name":"上石原","province":"東京都","city":"調布市","address":"東京都調布市富士見町1丁目1","lat":35.66012856,"lon":139.53295109},{"name":"味の素スタジアム西","province":"東京都","city":"調布市","address":"東京都調布市西町290","lat":35.66924671,"lon":139.53010368},{"name":"調布駅西","province":"東京都","city":"調布市","address":"東京都調布市小島町1丁目36-16","lat":35.65269349,"lon":139.54303928},{"name":"布多天神前","province":"東京都","city":"調布市","address":"東京都調布市調布ケ丘1丁目6","lat":35.65539583,"lon":139.54488332},{"name":"不動前","province":"東京都","city":"調布市","address":"東京都調布市国領町1丁目2-8","lat":35.65169097,"lon":139.55134967},{"name":"国領町八丁目","province":"東京都","city":"調布市","address":"東京都調布市国領町4丁目51-1","lat":35.64605871,"lon":139.56218803},{"name":"深大寺北町一丁目","province":"東京都","city":"調布市","address":"東京都調布市深大寺北町7丁目27","lat":35.67532402,"lon":139.54521317},{"name":"つつじヶ丘交番前","province":"東京都","city":"調布市","address":"東京都調布市西つつじケ丘3丁目31-2","lat":35.65925155,"lon":139.57431952},{"name":"多摩川団地交番前","province":"東京都","city":"調布市","address":"東京都調布市染地3丁目1-498","lat":35.63967659,"lon":139.55987229},{"name":"調布駅南入口","province":"東京都","city":"調布市","address":"東京都調布市布田5丁目1","lat":35.64839998,"lon":139.54339535},{"name":"調布駅北","province":"東京都","city":"調布市","address":"東京都調布市布田1丁目37-16","lat":35.65298507,"lon":139.54419187},{"name":"調布中学校前","province":"東京都","city":"調布市","address":"東京都調布市富士見町4丁目17-1","lat":35.66535009,"lon":139.53516172},{"name":"仙川橋","province":"東京都","city":"調布市","address":"東京都調布市緑ケ丘2丁目56","lat":35.66533724,"lon":139.5879153},{"name":"国領駅南","province":"東京都","city":"調布市","address":"東京都調布市国領町3丁目1-38","lat":35.64966092,"lon":139.55874091},{"name":"調布第三小学校入口","province":"東京都","city":"調布市","address":"東京都調布市上石原2丁目41","lat":35.65508765,"lon":139.52915735},{"name":"飛田給小入口","province":"東京都","city":"調布市","address":"東京都調布市飛田給2丁目42-7","lat":35.65689285,"lon":139.52534091},{"name":"飛田給小入口第二","province":"東京都","city":"調布市","address":"東京都調布市飛田給2丁目42-7","lat":35.65689285,"lon":139.52534091},{"name":"野川馬橋西","province":"東京都","city":"調布市","address":"東京都調布市国領町2丁目26","lat":35.65327149,"lon":139.56242638},{"name":"調布市役所前","province":"東京都","city":"調布市","address":"東京都調布市小島町2丁目35-1","lat":35.65059399,"lon":139.5406704},{"name":"布田一丁目","province":"東京都","city":"調布市","address":"東京都調布市布田1丁目25-2","lat":35.65270176,"lon":139.54599168},{"name":"国領町三丁目","province":"東京都","city":"調布市","address":"東京都調布市国領町3丁目8","lat":35.64928321,"lon":139.5611518},{"name":"飛田給二丁目","province":"東京都","city":"調布市","address":"東京都調布市飛田給2丁目19","lat":35.65929519,"lon":139.52253264},{"name":"飛田給二丁目東","province":"東京都","city":"調布市","address":"東京都調布市飛田給2丁目24-7","lat":35.65814817,"lon":139.52361597},{"name":"飛田給駅南口","province":"東京都","city":"調布市","address":"東京都調布市飛田給2丁目13-12","lat":35.65893411,"lon":139.52149665},{"name":"調布総合体育館南","province":"東京都","city":"調布市","address":"東京都調布市深大寺北町2丁目2","lat":35.6716801,"lon":139.55205709},{"name":"調布郵便局前","province":"東京都","city":"調布市","address":"東京都調布市国領町2丁目14","lat":35.65227714,"lon":139.55834905},{"name":"調布ヶ丘一丁目","province":"東京都","city":"調布市","address":"東京都調布市調布ケ丘1丁目34-1","lat":35.65472366,"lon":139.54680532},{"name":"国領小学校西","province":"東京都","city":"調布市","address":"東京都調布市国領町8丁目1-55","lat":35.64866387,"lon":139.56351548},{"name":"調布駅入口","province":"東京都","city":"調布市","address":"東京都調布市調布ケ丘1丁目5-1","lat":35.65564303,"lon":139.54430838},{"name":"調布市文化プラザ前","province":"東京都","city":"調布市","address":"東京都調布市小島町2丁目34","lat":35.6508828,"lon":139.54196187},{"name":"調布警察署前","province":"東京都","city":"調布市","address":"東京都調布市国領町2丁目25-1","lat":35.65292432,"lon":139.56223197},{"name":"調布駅南","province":"東京都","city":"調布市","address":"東京都調布市布田4丁目17-10","lat":35.65041342,"lon":139.54403667},{"name":"調布駅南第二","province":"東京都","city":"調布市","address":"東京都調布市小島町2丁目52-1","lat":35.64983578,"lon":139.54309243},{"name":"東京スタジアム前","province":"東京都","city":"調布市","address":"東京都調布市飛田給1丁目34-17","lat":35.66310853,"lon":139.52479608},{"name":"飛田給駅入口","province":"東京都","city":"調布市","address":"東京都調布市飛田給1丁目26-1","lat":35.66123655,"lon":139.52347964},{"name":"飛田給小学校前","province":"東京都","city":"調布市","address":"東京都調布市上石原3丁目3","lat":35.65435992,"lon":139.52418564},{"name":"国領駅前","province":"東京都","city":"調布市","address":"東京都調布市国領町4丁目8-1","lat":35.64947482,"lon":139.5574827},{"name":"布田駅前第一","province":"東京都","city":"調布市","address":"東京都調布市国領町5丁目70-1","lat":35.64951641,"lon":139.55109439},{"name":"布田駅前第二","province":"東京都","city":"調布市","address":"東京都調布市布田2丁目51-6","lat":35.65026625,"lon":139.55079711},{"name":"上石原浄水所","province":"東京都","city":"調布市","address":"東京都調布市上石原1丁目34-7","lat":35.66130335,"lon":139.53174555},{"name":"深大寺浄水所","province":"東京都","city":"調布市","address":"東京都調布市深大寺南町5丁目56-1","lat":35.66896104,"lon":139.55556797},{"name":"SOGIサポートセンターLinMCGroup株式会社","province":"東京都","city":"調布市","address":"東京都調布市多摩川2丁目3-12","lat":35.64803332,"lon":139.52358352},{"name":"㈲和田葬儀社","province":"東京都","city":"調布市","address":"東京都調布市下石原1丁目60-2","lat":35.65478214,"lon":139.53833695},{"name":"㈱メモリード(ﾒﾓﾘｰﾄﾞﾎｰﾙ)","province":"東京都","city":"調布市","address":"東京都調布市菊野台1丁目10-2","lat":35.65449637,"lon":139.5649622},{"name":"㈱公益社","province":"東京都","city":"調布市","address":"東京都調布市仙川町3丁目1-3","lat":35.66295407,"lon":139.58419625},{"name":"京王フェアウェルサポート㈱（京王メモリアル）","province":"東京都","city":"調布市","address":"東京都調布市布田2丁目34-6","lat":35.65131595,"lon":139.54681677},{"name":"緑ヶ丘こどもフリースペースごりら","province":"東京都","city":"調布市","address":"東京都調布市緑ケ丘2丁目18-49","lat":35.66934778,"lon":139.58393216},{"name":"みんな食堂「仙川スープ」","province":"東京都","city":"調布市","address":"東京都調布市仙川町1丁目19-10","lat":35.66190703,"lon":139.58617112},{"name":"坂の上のばあちゃん家","province":"東京都","city":"調布市","address":"東京都調布市入間町3丁目22-5","lat":35.64650615,"lon":139.58803264},{"name":"子ども食堂深大寺東町","province":"東京都","city":"調布市","address":"東京都調布市深大寺東町6丁目26-15","lat":35.67562424,"lon":139.5587508},{"name":"ハナこども食堂","province":"東京都","city":"調布市","address":"東京都調布市深大寺東町7丁目23-2","lat":35.67628527,"lon":139.55891188},{"name":"絵堂なかよし子ども食堂","province":"東京都","city":"調布市","address":"東京都調布市深大寺南町5丁目9","lat":35.66653636,"lon":139.55753733},{"name":"しばさき彩こども食堂","province":"東京都","city":"調布市","address":"東京都調布市柴崎1丁目64-9","lat":35.6572738,"lon":139.56494541},{"name":"さくら子育てステーション","province":"東京都","city":"調布市","address":"東京都調布市八雲台1丁目22-1","lat":35.65435444,"lon":139.55306875},{"name":"かしわの食堂（まい・夢）","province":"東京都","city":"調布市","address":"東京都調布市佐須町2丁目18-1","lat":35.65938997,"lon":139.55534612},{"name":"深大寺カフェ子ども食堂","province":"東京都","city":"調布市","address":"東京都調布市深大寺元町1丁目11-1","lat":35.66248107,"lon":139.54792163},{"name":"そらなかBASE","province":"東京都","city":"調布市","address":"東京都調布市深大寺元町1丁目11-1","lat":35.66248107,"lon":139.54792163},{"name":"まごじば","province":"東京都","city":"調布市","address":"東京都調布市国領町1丁目7-1","lat":35.65279632,"lon":139.55237724},{"name":"こくりょう子ども食堂わいわい","province":"東京都","city":"調布市","address":"東京都調布市国領町3丁目8-15","lat":35.64856666,"lon":139.56058525},{"name":"二小地区もりあげ隊","province":"東京都","city":"調布市","address":"東京都調布市国領町5丁目76-3","lat":35.64864714,"lon":139.55144724},{"name":"ウナパウザ","province":"東京都","city":"調布市","address":"東京都調布市染地3丁目8-26","lat":35.63719661,"lon":139.55749791},{"name":"みさとや子ども食堂","province":"東京都","city":"調布市","address":"東京都調布市布田2丁目2-6","lat":35.65352939,"lon":139.54781918},{"name":"ちょうふ子ども食堂","province":"東京都","city":"調布市","address":"東京都調布市布田2丁目5-4","lat":35.65335444,"lon":139.54889689},{"name":"ハッピーこども食堂","province":"東京都","city":"調布市","address":"東京都調布市布田5丁目32-3","lat":35.64607548,"lon":139.54485383},{"name":"電気通信大学こども食堂","province":"東京都","city":"調布市","address":"東京都調布市調布ケ丘1丁目5-1","lat":35.65564303,"lon":139.54430838},{"name":"こども食堂かくしょうじ","province":"東京都","city":"調布市","address":"東京都調布市富士見町1丁目35-5","lat":35.66023412,"lon":139.53743394},{"name":"富士見あおぞら子ども食堂","province":"東京都","city":"調布市","address":"東京都調布市富士見町2丁目13-5","lat":35.65921758,"lon":139.54185572},{"name":"風のテーブル","province":"東京都","city":"調布市","address":"東京都調布市上石原1丁目36-7","lat":35.65909816,"lon":139.53207068},{"name":"子ども食堂かみいしわらたんぽぽ","province":"東京都","city":"調布市","address":"東京都調布市上石原3丁目21-6","lat":35.65290458,"lon":139.52214705},{"name":"（有）和田葬儀社","province":"東京都","city":"調布市","address":"東京都調布市下石原1丁目60-2","lat":35.65478214,"lon":139.53833695},{"name":"（株）メモリード","province":"東京都","city":"調布市","address":"東京都調布市菊野台1丁目11-1","lat":35.65463524,"lon":139.56509551},{"name":"御塔坂橋北","province":"東京都","city":"調布市","address":"東京都調布市深大寺元町3丁目1","lat":35.6658612,"lon":139.54374139},{"name":"旧甲州街道入口","province":"東京都","city":"調布市","address":"東京都調布市国領町2丁目18-4","lat":35.65227161,"lon":139.5597767},{"name":"国領駅入口","province":"東京都","city":"調布市","address":"東京都調布市国領町1丁目45-11","lat":35.65064961,"lon":139.55676599},{"name":"仙川駅入口","province":"東京都","city":"調布市","address":"東京都調布市仙川町2丁目19-5","lat":35.66328458,"lon":139.58346575},{"name":"上石原","province":"東京都","city":"調布市","address":"東京都調布市富士見町1丁目1","lat":35.66012856,"lon":139.53295109},{"name":"味の素スタジアム西","province":"東京都","city":"調布市","address":"東京都調布市西町290","lat":35.66924671,"lon":139.53010368},{"name":"調布駅西","province":"東京都","city":"調布市","address":"東京都調布市小島町1丁目36-16","lat":35.65269349,"lon":139.54303928},{"name":"布多天神前","province":"東京都","city":"調布市","address":"東京都調布市調布ケ丘1丁目6","lat":35.65539583,"lon":139.54488332},{"name":"不動前","province":"東京都","city":"調布市","address":"東京都調布市国領町1丁目2-8","lat":35.65169097,"lon":139.55134967},{"name":"国領町八丁目","province":"東京都","city":"調布市","address":"東京都調布市国領町4丁目51-1","lat":35.64605871,"lon":139.56218803},{"name":"深大寺北町一丁目","province":"東京都","city":"調布市","address":"東京都調布市深大寺北町7丁目27","lat":35.67532402,"lon":139.54521317},{"name":"つつじヶ丘交番前","province":"東京都","city":"調布市","address":"東京都調布市西つつじケ丘3丁目31-2","lat":35.65925155,"lon":139.57431952},{"name":"多摩川団地交番前","province":"東京都","city":"調布市","address":"東京都調布市染地3丁目1-498","lat":35.63967659,"lon":139.55987229},{"name":"調布駅南入口","province":"東京都","city":"調布市","address":"東京都調布市布田5丁目1","lat":35.64839998,"lon":139.54339535},{"name":"調布駅北","province":"東京都","city":"調布市","address":"東京都調布市布田1丁目37-16","lat":35.65298507,"lon":139.54419187},{"name":"調布中学校前","province":"東京都","city":"調布市","address":"東京都調布市富士見町4丁目17-1","lat":35.66535009,"lon":139.53516172},{"name":"仙川橋","province":"東京都","city":"調布市","address":"東京都調布市緑ケ丘2丁目56","lat":35.66533724,"lon":139.5879153},{"name":"国領駅南","province":"東京都","city":"調布市","address":"東京都調布市国領町3丁目1-38","lat":35.64966092,"lon":139.55874091},{"name":"調布第三小学校入口","province":"東京都","city":"調布市","address":"東京都調布市上石原2丁目41","lat":35.65508765,"lon":139.52915735},{"name":"飛田給小入口","province":"東京都","city":"調布市","address":"東京都調布市飛田給2丁目42-7","lat":35.65689285,"lon":139.52534091},{"name":"飛田給小入口第二","province":"東京都","city":"調布市","address":"東京都調布市飛田給2丁目42-7","lat":35.65689285,"lon":139.52534091},{"name":"野川馬橋西","province":"東京都","city":"調布市","address":"東京都調布市国領町2丁目26","lat":35.65327149,"lon":139.56242638},{"name":"調布市役所前","province":"東京都","city":"調布市","address":"東京都調布市小島町2丁目35-1","lat":35.65059399,"lon":139.5406704},{"name":"布田一丁目","province":"東京都","city":"調布市","address":"東京都調布市布田1丁目25-2","lat":35.65270176,"lon":139.54599168},{"name":"国領町三丁目","province":"東京都","city":"調布市","address":"東京都調布市国領町3丁目8","lat":35.64928321,"lon":139.5611518},{"name":"飛田給二丁目","province":"東京都","city":"調布市","address":"東京都調布市飛田給2丁目19","lat":35.65929519,"lon":139.52253264},{"name":"飛田給二丁目東","province":"東京都","city":"調布市","address":"東京都調布市飛田給2丁目24-7","lat":35.65814817,"lon":139.52361597},{"name":"飛田給駅南口","province":"東京都","city":"調布市","address":"東京都調布市飛田給2丁目13-12","lat":35.65893411,"lon":139.52149665},{"name":"調布総合体育館南","province":"東京都","city":"調布市","address":"東京都調布市深大寺北町2丁目2","lat":35.6716801,"lon":139.55205709},{"name":"調布郵便局前","province":"東京都","city":"調布市","address":"東京都調布市国領町2丁目14","lat":35.65227714,"lon":139.55834905},{"name":"調布ヶ丘一丁目","province":"東京都","city":"調布市","address":"東京都調布市調布ケ丘1丁目34-1","lat":35.65472366,"lon":139.54680532},{"name":"国領小学校西","province":"東京都","city":"調布市","address":"東京都調布市国領町8丁目1-55","lat":35.64866387,"lon":139.56351548},{"name":"調布駅入口","province":"東京都","city":"調布市","address":"東京都調布市調布ケ丘1丁目5-1","lat":35.65564303,"lon":139.54430838},{"name":"調布市文化プラザ前","province":"東京都","city":"調布市","address":"東京都調布市小島町2丁目34","lat":35.6508828,"lon":139.54196187},{"name":"調布警察署前","province":"東京都","city":"調布市","address":"東京都調布市国領町2丁目25-1","lat":35.65292432,"lon":139.56223197},{"name":"調布駅南","province":"東京都","city":"調布市","address":"東京都調布市布田4丁目17-10","lat":35.65041342,"lon":139.54403667},{"name":"調布駅南第二","province":"東京都","city":"調布市","address":"東京都調布市小島町2丁目52-1","lat":35.64983578,"lon":139.54309243},{"name":"東京スタジアム前","province":"東京都","city":"調布市","address":"東京都調布市飛田給1丁目34-17","lat":35.66310853,"lon":139.52479608},{"name":"飛田給駅入口","province":"東京都","city":"調布市","address":"東京都調布市飛田給1丁目26-1","lat":35.66123655,"lon":139.52347964},{"name":"飛田給小学校前","province":"東京都","city":"調布市","address":"東京都調布市上石原3丁目3","lat":35.65435992,"lon":139.52418564},{"name":"国領駅前","province":"東京都","city":"調布市","address":"東京都調布市国領町4丁目8-1","lat":35.64947482,"lon":139.5574827},{"name":"布田駅前第一","province":"東京都","city":"調布市","address":"東京都調布市国領町5丁目70-1","lat":35.64951641,"lon":139.55109439},{"name":"布田駅前第二","province":"東京都","city":"調布市","address":"東京都調布市布田2丁目51-6","lat":35.65026625,"lon":139.55079711},{"name":"上石原浄水所","province":"東京都","city":"調布市","address":"東京都調布市上石原1丁目34-7","lat":35.66130335,"lon":139.53174555},{"name":"深大寺浄水所","province":"東京都","city":"調布市","address":"東京都調布市深大寺南町5丁目56-1","lat":35.66896104,"lon":139.55556797},{"name":"SOGIサポートセンターLinMCGroup株式会社","province":"東京都","city":"調布市","address":"東京都調布市多摩川2丁目3-12","lat":35.64803332,"lon":139.52358352},{"name":"㈲和田葬儀社","province":"東京都","city":"調布市","address":"東京都調布市下石原1丁目60-2","lat":35.65478214,"lon":139.53833695},{"name":"㈱メモリード(ﾒﾓﾘｰﾄﾞﾎｰﾙ)","province":"東京都","city":"調布市","address":"東京都調布市菊野台1丁目10-2","lat":35.65449637,"lon":139.5649622},{"name":"㈱公益社","province":"東京都","city":"調布市","address":"東京都調布市仙川町3丁目1-3","lat":35.66295407,"lon":139.58419625},{"name":"京王フェアウェルサポート㈱（京王メモリアル）","province":"東京都","city":"調布市","address":"東京都調布市布田2丁目34-6","lat":35.65131595,"lon":139.54681677},{"name":"緑ヶ丘こどもフリースペースごりら","province":"東京都","city":"調布市","address":"東京都調布市緑ケ丘2丁目18-49","lat":35.66934778,"lon":139.58393216},{"name":"みんな食堂「仙川スープ」","province":"東京都","city":"調布市","address":"東京都調布市仙川町1丁目19-10","lat":35.66190703,"lon":139.58617112},{"name":"坂の上のばあちゃん家","province":"東京都","city":"調布市","address":"東京都調布市入間町3丁目22-5","lat":35.64650615,"lon":139.58803264},{"name":"子ども食堂深大寺東町","province":"東京都","city":"調布市","address":"東京都調布市深大寺東町6丁目26-15","lat":35.67562424,"lon":139.5587508},{"name":"ハナこども食堂","province":"東京都","city":"調布市","address":"東京都調布市深大寺東町7丁目23-2","lat":35.67628527,"lon":139.55891188},{"name":"絵堂なかよし子ども食堂","province":"東京都","city":"調布市","address":"東京都調布市深大寺南町5丁目9","lat":35.66653636,"lon":139.55753733},{"name":"しばさき彩こども食堂","province":"東京都","city":"調布市","address":"東京都調布市柴崎1丁目64-9","lat":35.6572738,"lon":139.56494541},{"name":"さくら子育てステーション","province":"東京都","city":"調布市","address":"東京都調布市八雲台1丁目22-1","lat":35.65435444,"lon":139.55306875},{"name":"かしわの食堂（まい・夢）","province":"東京都","city":"調布市","address":"東京都調布市佐須町2丁目18-1","lat":35.65938997,"lon":139.55534612},{"name":"深大寺カフェ子ども食堂","province":"東京都","city":"調布市","address":"東京都調布市深大寺元町1丁目11-1","lat":35.66248107,"lon":139.54792163},{"name":"そらなかBASE","province":"東京都","city":"調布市","address":"東京都調布市深大寺元町1丁目11-1","lat":35.66248107,"lon":139.54792163},{"name":"まごじば","province":"東京都","city":"調布市","address":"東京都調布市国領町1丁目7-1","lat":35.65279632,"lon":139.55237724},{"name":"こくりょう子ども食堂わいわい","province":"東京都","city":"調布市","address":"東京都調布市国領町3丁目8-15","lat":35.64856666,"lon":139.56058525},{"name":"二小地区もりあげ隊","province":"東京都","city":"調布市","address":"東京都調布市国領町5丁目76-3","lat":35.64864714,"lon":139.55144724},{"name":"ウナパウザ","province":"東京都","city":"調布市","address":"東京都調布市染地3丁目8-26","lat":35.63719661,"lon":139.55749791},{"name":"みさとや子ども食堂","province":"東京都","city":"調布市","address":"東京都調布市布田2丁目2-6","lat":35.65352939,"lon":139.54781918},{"name":"ちょうふ子ども食堂","province":"東京都","city":"調布市","address":"東京都調布市布田2丁目5-4","lat":35.65335444,"lon":139.54889689},{"name":"ハッピーこども食堂","province":"東京都","city":"調布市","address":"東京都調布市布田5丁目32-3","lat":35.64607548,"lon":139.54485383},{"name":"電気通信大学こども食堂","province":"東京都","city":"調布市","address":"東京都調布市調布ケ丘1丁目5-1","lat":35.65564303,"lon":139.54430838},{"name":"こども食堂かくしょうじ","province":"東京都","city":"調布市","address":"東京都調布市富士見町1丁目35-5","lat":35.66023412,"lon":139.53743394},{"name":"富士見あおぞら子ども食堂","province":"東京都","city":"調布市","address":"東京都調布市富士見町2丁目13-5","lat":35.65921758,"lon":139.54185572},{"name":"風のテーブル","province":"東京都","city":"調布市","address":"東京都調布市上石原1丁目36-7","lat":35.65909816,"lon":139.53207068},{"name":"子ども食堂かみいしわらたんぽぽ","province":"東京都","city":"調布市","address":"東京都調布市上石原3丁目21-6","lat":35.65290458,"lon":139.52214705},{"name":"（有）和田葬儀社","province":"東京都","city":"調布市","address":"東京都調布市下石原1丁目60-2","lat":35.65478214,"lon":139.53833695},{"name":"（株）メモリード","province":"東京都","city":"調布市","address":"東京都調布市菊野台1丁目11-1","lat":35.65463524,"lon":139.56509551},{"name":"御塔坂橋北","province":"東京都","city":"調布市","address":"東京都調布市深大寺元町3丁目1","lat":35.6658612,"lon":139.54374139},{"name":"旧甲州街道入口","province":"東京都","city":"調布市","address":"東京都調布市国領町2丁目18-4","lat":35.65227161,"lon":139.5597767},{"name":"国領駅入口","province":"東京都","city":"調布市","address":"東京都調布市国領町1丁目45-11","lat":35.65064961,"lon":139.55676599},{"name":"仙川駅入口","province":"東京都","city":"調布市","address":"東京都調布市仙川町2丁目19-5","lat":35.66328458,"lon":139.58346575},{"name":"上石原","province":"東京都","city":"調布市","address":"東京都調布市富士見町1丁目1","lat":35.66012856,"lon":139.53295109},{"name":"味の素スタジアム西","province":"東京都","city":"調布市","address":"東京都調布市西町290","lat":35.66924671,"lon":139.53010368},{"name":"調布駅西","province":"東京都","city":"調布市","address":"東京都調布市小島町1丁目36-16","lat":35.65269349,"lon":139.54303928},{"name":"布多天神前","province":"東京都","city":"調布市","address":"東京都調布市調布ケ丘1丁目6","lat":35.65539583,"lon":139.54488332},{"name":"不動前","province":"東京都","city":"調布市","address":"東京都調布市国領町1丁目2-8","lat":35.65169097,"lon":139.55134967},{"name":"国領町八丁目","province":"東京都","city":"調布市","address":"東京都調布市国領町4丁目51-1","lat":35.64605871,"lon":139.56218803},{"name":"深大寺北町一丁目","province":"東京都","city":"調布市","address":"東京都調布市深大寺北町7丁目27","lat":35.67532402,"lon":139.54521317},{"name":"つつじヶ丘交番前","province":"東京都","city":"調布市","address":"東京都調布市西つつじケ丘3丁目31-2","lat":35.65925155,"lon":139.57431952},{"name":"多摩川団地交番前","province":"東京都","city":"調布市","address":"東京都調布市染地3丁目1-498","lat":35.63967659,"lon":139.55987229},{"name":"調布駅南入口","province":"東京都","city":"調布市","address":"東京都調布市布田5丁目1","lat":35.64839998,"lon":139.54339535},{"name":"調布駅北","province":"東京都","city":"調布市","address":"東京都調布市布田1丁目37-16","lat":35.65298507,"lon":139.54419187},{"name":"調布中学校前","province":"東京都","city":"調布市","address":"東京都調布市富士見町4丁目17-1","lat":35.66535009,"lon":139.53516172},{"name":"仙川橋","province":"東京都","city":"調布市","address":"東京都調布市緑ケ丘2丁目56","lat":35.66533724,"lon":139.5879153},{"name":"国領駅南","province":"東京都","city":"調布市","address":"東京都調布市国領町3丁目1-38","lat":35.64966092,"lon":139.55874091},{"name":"調布第三小学校入口","province":"東京都","city":"調布市","address":"東京都調布市上石原2丁目41","lat":35.65508765,"lon":139.52915735},{"name":"飛田給小入口","province":"東京都","city":"調布市","address":"東京都調布市飛田給2丁目42-7","lat":35.65689285,"lon":139.52534091},{"name":"飛田給小入口第二","province":"東京都","city":"調布市","address":"東京都調布市飛田給2丁目42-7","lat":35.65689285,"lon":139.52534091},{"name":"野川馬橋西","province":"東京都","city":"調布市","address":"東京都調布市国領町2丁目26","lat":35.65327149,"lon":139.56242638},{"name":"調布市役所前","province":"東京都","city":"調布市","address":"東京都調布市小島町2丁目35-1","lat":35.65059399,"lon":139.5406704},{"name":"布田一丁目","province":"東京都","city":"調布市","address":"東京都調布市布田1丁目25-2","lat":35.65270176,"lon":139.54599168},{"name":"国領町三丁目","province":"東京都","city":"調布市","address":"東京都調布市国領町3丁目8","lat":35.64928321,"lon":139.5611518},{"name":"飛田給二丁目","province":"東京都","city":"調布市","address":"東京都調布市飛田給2丁目19","lat":35.65929519,"lon":139.52253264},{"name":"飛田給二丁目東","province":"東京都","city":"調布市","address":"東京都調布市飛田給2丁目24-7","lat":35.65814817,"lon":139.52361597},{"name":"飛田給駅南口","province":"東京都","city":"調布市","address":"東京都調布市飛田給2丁目13-12","lat":35.65893411,"lon":139.52149665},{"name":"調布総合体育館南","province":"東京都","city":"調布市","address":"東京都調布市深大寺北町2丁目2","lat":35.6716801,"lon":139.55205709},{"name":"調布郵便局前","province":"東京都","city":"調布市","address":"東京都調布市国領町2丁目14","lat":35.65227714,"lon":139.55834905},{"name":"調布ヶ丘一丁目","province":"東京都","city":"調布市","address":"東京都調布市調布ケ丘1丁目34-1","lat":35.65472366,"lon":139.54680532},{"name":"国領小学校西","province":"東京都","city":"調布市","address":"東京都調布市国領町8丁目1-55","lat":35.64866387,"lon":139.56351548},{"name":"調布駅入口","province":"東京都","city":"調布市","address":"東京都調布市調布ケ丘1丁目5-1","lat":35.65564303,"lon":139.54430838},{"name":"調布市文化プラザ前","province":"東京都","city":"調布市","address":"東京都調布市小島町2丁目34","lat":35.6508828,"lon":139.54196187},{"name":"調布警察署前","province":"東京都","city":"調布市","address":"東京都調布市国領町2丁目25-1","lat":35.65292432,"lon":139.56223197},{"name":"調布駅南","province":"東京都","city":"調布市","address":"東京都調布市布田4丁目17-10","lat":35.65041342,"lon":139.54403667},{"name":"調布駅南第二","province":"東京都","city":"調布市","address":"東京都調布市小島町2丁目52-1","lat":35.64983578,"lon":139.54309243},{"name":"東京スタジアム前","province":"東京都","city":"調布市","address":"東京都調布市飛田給1丁目34-17","lat":35.66310853,"lon":139.52479608},{"name":"飛田給駅入口","province":"東京都","city":"調布市","address":"東京都調布市飛田給1丁目26-1","lat":35.66123655,"lon":139.52347964},{"name":"飛田給小学校前","province":"東京都","city":"調布市","address":"東京都調布市上石原3丁目3","lat":35.65435992,"lon":139.52418564},{"name":"国領駅前","province":"東京都","city":"調布市","address":"東京都調布市国領町4丁目8-1","lat":35.64947482,"lon":139.5574827},{"name":"布田駅前第一","province":"東京都","city":"調布市","address":"東京都調布市国領町5丁目70-1","lat":35.64951641,"lon":139.55109439},{"name":"布田駅前第二","province":"東京都","city":"調布市","address":"東京都調布市布田2丁目51-6","lat":35.65026625,"lon":139.55079711},{"name":"上石原浄水所","province":"東京都","city":"調布市","address":"東京都調布市上石原1丁目34-7","lat":35.66130335,"lon":139.53174555},{"name":"深大寺浄水所","province":"東京都","city":"調布市","address":"東京都調布市深大寺南町5丁目56-1","lat":35.66896104,"lon":139.55556797},{"name":"SOGIサポートセンターLinMCGroup株式会社","province":"東京都","city":"調布市","address":"東京都調布市多摩川2丁目3-12","lat":35.64803332,"lon":139.52358352},{"name":"㈲和田葬儀社","province":"東京都","city":"調布市","address":"東京都調布市下石原1丁目60-2","lat":35.65478214,"lon":139.53833695},{"name":"㈱メモリード(ﾒﾓﾘｰﾄﾞﾎｰﾙ)","province":"東京都","city":"調布市","address":"東京都調布市菊野台1丁目10-2","lat":35.65449637,"lon":139.5649622},{"name":"㈱公益社","province":"東京都","city":"調布市","address":"東京都調布市仙川町3丁目1-3","lat":35.66295407,"lon":139.58419625},{"name":"京王フェアウェルサポート㈱（京王メモリアル）","province":"東京都","city":"調布市","address":"東京都調布市布田2丁目34-6","lat":35.65131595,"lon":139.54681677},{"name":"緑ヶ丘こどもフリースペースごりら","province":"東京都","city":"調布市","address":"東京都調布市緑ケ丘2丁目18-49","lat":35.66934778,"lon":139.58393216},{"name":"みんな食堂「仙川スープ」","province":"東京都","city":"調布市","address":"東京都調布市仙川町1丁目19-10","lat":35.66190703,"lon":139.58617112},{"name":"坂の上のばあちゃん家","province":"東京都","city":"調布市","address":"東京都調布市入間町3丁目22-5","lat":35.64650615,"lon":139.58803264},{"name":"子ども食堂深大寺東町","province":"東京都","city":"調布市","address":"東京都調布市深大寺東町6丁目26-15","lat":35.67562424,"lon":139.5587508},{"name":"ハナこども食堂","province":"東京都","city":"調布市","address":"東京都調布市深大寺東町7丁目23-2","lat":35.67628527,"lon":139.55891188},{"name":"絵堂なかよし子ども食堂","province":"東京都","city":"調布市","address":"東京都調布市深大寺南町5丁目9","lat":35.66653636,"lon":139.55753733},{"name":"しばさき彩こども食堂","province":"東京都","city":"調布市","address":"東京都調布市柴崎1丁目64-9","lat":35.6572738,"lon":139.56494541},{"name":"さくら子育てステーション","province":"東京都","city":"調布市","address":"東京都調布市八雲台1丁目22-1","lat":35.65435444,"lon":139.55306875},{"name":"かしわの食堂（まい・夢）","province":"東京都","city":"調布市","address":"東京都調布市佐須町2丁目18-1","lat":35.65938997,"lon":139.55534612},{"name":"深大寺カフェ子ども食堂","province":"東京都","city":"調布市","address":"東京都調布市深大寺元町1丁目11-1","lat":35.66248107,"lon":139.54792163},{"name":"そらなかBASE","province":"東京都","city":"調布市","address":"東京都調布市深大寺元町1丁目11-1","lat":35.66248107,"lon":139.54792163},{"name":"まごじば","province":"東京都","city":"調布市","address":"東京都調布市国領町1丁目7-1","lat":35.65279632,"lon":139.55237724},{"name":"こくりょう子ども食堂わいわい","province":"東京都","city":"調布市","address":"東京都調布市国領町3丁目8-15","lat":35.64856666,"lon":139.56058525},{"name":"二小地区もりあげ隊","province":"東京都","city":"調布市","address":"東京都調布市国領町5丁目76-3","lat":35.64864714,"lon":139.55144724},{"name":"ウナパウザ","province":"東京都","city":"調布市","address":"東京都調布市染地3丁目8-26","lat":35.63719661,"lon":139.55749791},{"name":"みさとや子ども食堂","province":"東京都","city":"調布市","address":"東京都調布市布田2丁目2-6","lat":35.65352939,"lon":139.54781918},{"name":"ちょうふ子ども食堂","province":"東京都","city":"調布市","address":"東京都調布市布田2丁目5-4","lat":35.65335444,"lon":139.54889689},{"name":"ハッピーこども食堂","province":"東京都","city":"調布市","address":"東京都調布市布田5丁目32-3","lat":35.64607548,"lon":139.54485383},{"name":"電気通信大学こども食堂","province":"東京都","city":"調布市","address":"東京都調布市調布ケ丘1丁目5-1","lat":35.65564303,"lon":139.54430838},{"name":"こども食堂かくしょうじ","province":"東京都","city":"調布市","address":"東京都調布市富士見町1丁目35-5","lat":35.66023412,"lon":139.53743394},{"name":"富士見あおぞら子ども食堂","province":"東京都","city":"調布市","address":"東京都調布市富士見町2丁目13-5","lat":35.65921758,"lon":139.54185572},{"name":"風のテーブル","province":"東京都","city":"調布市","address":"東京都調布市上石原1丁目36-7","lat":35.65909816,"lon":139.53207068},{"name":"子ども食堂かみいしわらたんぽぽ","province":"東京都","city":"調布市","address":"東京都調布市上石原3丁目21-6","lat":35.65290458,"lon":139.52214705},{"name":"（有）和田葬儀社","province":"東京都","city":"調布市","address":"東京都調布市下石原1丁目60-2","lat":35.65478214,"lon":139.53833695},{"name":"（株）メモリード","province":"東京都","city":"調布市","address":"東京都調布市菊野台1丁目11-1","lat":35.65463524,"lon":139.56509551},{"name":"御塔坂橋北","province":"東京都","city":"調布市","address":"東京都調布市深大寺元町3丁目1","lat":35.6658612,"lon":139.54374139},{"name":"旧甲州街道入口","province":"東京都","city":"調布市","address":"東京都調布市国領町2丁目18-4","lat":35.65227161,"lon":139.5597767},{"name":"国領駅入口","province":"東京都","city":"調布市","address":"東京都調布市国領町1丁目45-11","lat":35.65064961,"lon":139.55676599},{"name":"仙川駅入口","province":"東京都","city":"調布市","address":"東京都調布市仙川町2丁目19-5","lat":35.66328458,"lon":139.58346575},{"name":"上石原","province":"東京都","city":"調布市","address":"東京都調布市富士見町1丁目1","lat":35.66012856,"lon":139.53295109},{"name":"味の素スタジアム西","province":"東京都","city":"調布市","address":"東京都調布市西町290","lat":35.66924671,"lon":139.53010368},{"name":"調布駅西","province":"東京都","city":"調布市","address":"東京都調布市小島町1丁目36-16","lat":35.65269349,"lon":139.54303928},{"name":"布多天神前","province":"東京都","city":"調布市","address":"東京都調布市調布ケ丘1丁目6","lat":35.65539583,"lon":139.54488332},{"name":"不動前","province":"東京都","city":"調布市","address":"東京都調布市国領町1丁目2-8","lat":35.65169097,"lon":139.55134967},{"name":"国領町八丁目","province":"東京都","city":"調布市","address":"東京都調布市国領町4丁目51-1","lat":35.64605871,"lon":139.56218803},{"name":"深大寺北町一丁目","province":"東京都","city":"調布市","address":"東京都調布市深大寺北町7丁目27","lat":35.67532402,"lon":139.54521317},{"name":"つつじヶ丘交番前","province":"東京都","city":"調布市","address":"東京都調布市西つつじケ丘3丁目31-2","lat":35.65925155,"lon":139.57431952},{"name":"多摩川団地交番前","province":"東京都","city":"調布市","address":"東京都調布市染地3丁目1-498","lat":35.63967659,"lon":139.55987229},{"name":"調布駅南入口","province":"東京都","city":"調布市","address":"東京都調布市布田5丁目1","lat":35.64839998,"lon":139.54339535},{"name":"調布駅北","province":"東京都","city":"調布市","address":"東京都調布市布田1丁目37-16","lat":35.65298507,"lon":139.54419187},{"name":"調布中学校前","province":"東京都","city":"調布市","address":"東京都調布市富士見町4丁目17-1","lat":35.66535009,"lon":139.53516172},{"name":"仙川橋","province":"東京都","city":"調布市","address":"東京都調布市緑ケ丘2丁目56","lat":35.66533724,"lon":139.5879153},{"name":"国領駅南","province":"東京都","city":"調布市","address":"東京都調布市国領町3丁目1-38","lat":35.64966092,"lon":139.55874091},{"name":"調布第三小学校入口","province":"東京都","city":"調布市","address":"東京都調布市上石原2丁目41","lat":35.65508765,"lon":139.52915735},{"name":"飛田給小入口","province":"東京都","city":"調布市","address":"東京都調布市飛田給2丁目42-7","lat":35.65689285,"lon":139.52534091},{"name":"飛田給小入口第二","province":"東京都","city":"調布市","address":"東京都調布市飛田給2丁目42-7","lat":35.65689285,"lon":139.52534091},{"name":"野川馬橋西","province":"東京都","city":"調布市","address":"東京都調布市国領町2丁目26","lat":35.65327149,"lon":139.56242638},{"name":"調布市役所前","province":"東京都","city":"調布市","address":"東京都調布市小島町2丁目35-1","lat":35.65059399,"lon":139.5406704},{"name":"布田一丁目","province":"東京都","city":"調布市","address":"東京都調布市布田1丁目25-2","lat":35.65270176,"lon":139.54599168},{"name":"国領町三丁目","province":"東京都","city":"調布市","address":"東京都調布市国領町3丁目8","lat":35.64928321,"lon":139.5611518},{"name":"飛田給二丁目","province":"東京都","city":"調布市","address":"東京都調布市飛田給2丁目19","lat":35.65929519,"lon":139.52253264},{"name":"飛田給二丁目東","province":"東京都","city":"調布市","address":"東京都調布市飛田給2丁目24-7","lat":35.65814817,"lon":139.52361597},{"name":"飛田給駅南口","province":"東京都","city":"調布市","address":"東京都調布市飛田給2丁目13-12","lat":35.65893411,"lon":139.52149665},{"name":"調布総合体育館南","province":"東京都","city":"調布市","address":"東京都調布市深大寺北町2丁目2","lat":35.6716801,"lon":139.55205709},{"name":"調布郵便局前","province":"東京都","city":"調布市","address":"東京都調布市国領町2丁目14","lat":35.65227714,"lon":139.55834905},{"name":"調布ヶ丘一丁目","province":"東京都","city":"調布市","address":"東京都調布市調布ケ丘1丁目34-1","lat":35.65472366,"lon":139.54680532},{"name":"国領小学校西","province":"東京都","city":"調布市","address":"東京都調布市国領町8丁目1-55","lat":35.64866387,"lon":139.56351548},{"name":"調布駅入口","province":"東京都","city":"調布市","address":"東京都調布市調布ケ丘1丁目5-1","lat":35.65564303,"lon":139.54430838},{"name":"調布市文化プラザ前","province":"東京都","city":"調布市","address":"東京都調布市小島町2丁目34","lat":35.6508828,"lon":139.54196187},{"name":"調布警察署前","province":"東京都","city":"調布市","address":"東京都調布市国領町2丁目25-1","lat":35.65292432,"lon":139.56223197},{"name":"調布駅南","province":"東京都","city":"調布市","address":"東京都調布市布田4丁目17-10","lat":35.65041342,"lon":139.54403667},{"name":"調布駅南第二","province":"東京都","city":"調布市","address":"東京都調布市小島町2丁目52-1","lat":35.64983578,"lon":139.54309243},{"name":"東京スタジアム前","province":"東京都","city":"調布市","address":"東京都調布市飛田給1丁目34-17","lat":35.66310853,"lon":139.52479608},{"name":"飛田給駅入口","province":"東京都","city":"調布市","address":"東京都調布市飛田給1丁目26-1","lat":35.66123655,"lon":139.52347964},{"name":"飛田給小学校前","province":"東京都","city":"調布市","address":"東京都調布市上石原3丁目3","lat":35.65435992,"lon":139.52418564},{"name":"国領駅前","province":"東京都","city":"調布市","address":"東京都調布市国領町4丁目8-1","lat":35.64947482,"lon":139.5574827},{"name":"布田駅前第一","province":"東京都","city":"調布市","address":"東京都調布市国領町5丁目70-1","lat":35.64951641,"lon":139.55109439},{"name":"布田駅前第二","province":"東京都","city":"調布市","address":"東京都調布市布田2丁目51-6","lat":35.65026625,"lon":139.55079711},{"name":"上石原浄水所","province":"東京都","city":"調布市","address":"東京都調布市上石原1丁目34-7","lat":35.66130335,"lon":139.53174555},{"name":"深大寺浄水所","province":"東京都","city":"調布市","address":"東京都調布市深大寺南町5丁目56-1","lat":35.66896104,"lon":139.55556797},{"name":"SOGIサポートセンターLinMCGroup株式会社","province":"東京都","city":"調布市","address":"東京都調布市多摩川2丁目3-12","lat":35.64803332,"lon":139.52358352},{"name":"㈲和田葬儀社","province":"東京都","city":"調布市","address":"東京都調布市下石原1丁目60-2","lat":35.65478214,"lon":139.53833695},{"name":"㈱メモリード(ﾒﾓﾘｰﾄﾞﾎｰﾙ)","province":"東京都","city":"調布市","address":"東京都調布市菊野台1丁目10-2","lat":35.65449637,"lon":139.5649622},{"name":"㈱公益社","province":"東京都","city":"調布市","address":"東京都調布市仙川町3丁目1-3","lat":35.66295407,"lon":139.58419625},{"name":"京王フェアウェルサポート㈱（京王メモリアル）","province":"東京都","city":"調布市","address":"東京都調布市布田2丁目34-6","lat":35.65131595,"lon":139.54681677},{"name":"緑ヶ丘こどもフリースペースごりら","province":"東京都","city":"調布市","address":"東京都調布市緑ケ丘2丁目18-49","lat":35.66934778,"lon":139.58393216},{"name":"みんな食堂「仙川スープ」","province":"東京都","city":"調布市","address":"東京都調布市仙川町1丁目19-10","lat":35.66190703,"lon":139.58617112},{"name":"坂の上のばあちゃん家","province":"東京都","city":"調布市","address":"東京都調布市入間町3丁目22-5","lat":35.64650615,"lon":139.58803264},{"name":"子ども食堂深大寺東町","province":"東京都","city":"調布市","address":"東京都調布市深大寺東町6丁目26-15","lat":35.67562424,"lon":139.5587508},{"name":"ハナこども食堂","province":"東京都","city":"調布市","address":"東京都調布市深大寺東町7丁目23-2","lat":35.67628527,"lon":139.55891188},{"name":"絵堂なかよし子ども食堂","province":"東京都","city":"調布市","address":"東京都調布市深大寺南町5丁目9","lat":35.66653636,"lon":139.55753733},{"name":"しばさき彩こども食堂","province":"東京都","city":"調布市","address":"東京都調布市柴崎1丁目64-9","lat":35.6572738,"lon":139.56494541},{"name":"さくら子育てステーション","province":"東京都","city":"調布市","address":"東京都調布市八雲台1丁目22-1","lat":35.65435444,"lon":139.55306875},{"name":"かしわの食堂（まい・夢）","province":"東京都","city":"調布市","address":"東京都調布市佐須町2丁目18-1","lat":35.65938997,"lon":139.55534612},{"name":"深大寺カフェ子ども食堂","province":"東京都","city":"調布市","address":"東京都調布市深大寺元町1丁目11-1","lat":35.66248107,"lon":139.54792163},{"name":"そらなかBASE","province":"東京都","city":"調布市","address":"東京都調布市深大寺元町1丁目11-1","lat":35.66248107,"lon":139.54792163},{"name":"まごじば","province":"東京都","city":"調布市","address":"東京都調布市国領町1丁目7-1","lat":35.65279632,"lon":139.55237724},{"name":"こくりょう子ども食堂わいわい","province":"東京都","city":"調布市","address":"東京都調布市国領町3丁目8-15","lat":35.64856666,"lon":139.56058525},{"name":"二小地区もりあげ隊","province":"東京都","city":"調布市","address":"東京都調布市国領町5丁目76-3","lat":35.64864714,"lon":139.55144724},{"name":"ウナパウザ","province":"東京都","city":"調布市","address":"東京都調布市染地3丁目8-26","lat":35.63719661,"lon":139.55749791},{"name":"みさとや子ども食堂","province":"東京都","city":"調布市","address":"東京都調布市布田2丁目2-6","lat":35.65352939,"lon":139.54781918},{"name":"ちょうふ子ども食堂","province":"東京都","city":"調布市","address":"東京都調布市布田2丁目5-4","lat":35.65335444,"lon":139.54889689},{"name":"ハッピーこども食堂","province":"東京都","city":"調布市","address":"東京都調布市布田5丁目32-3","lat":35.64607548,"lon":139.54485383},{"name":"電気通信大学こども食堂","province":"東京都","city":"調布市","address":"東京都調布市調布ケ丘1丁目5-1","lat":35.65564303,"lon":139.54430838},{"name":"こども食堂かくしょうじ","province":"東京都","city":"調布市","address":"東京都調布市富士見町1丁目35-5","lat":35.66023412,"lon":139.53743394},{"name":"富士見あおぞら子ども食堂","province":"東京都","city":"調布市","address":"東京都調布市富士見町2丁目13-5","lat":35.65921758,"lon":139.54185572},{"name":"風のテーブル","province":"東京都","city":"調布市","address":"東京都調布市上石原1丁目36-7","lat":35.65909816,"lon":139.53207068},{"name":"子ども食堂かみいしわらたんぽぽ","province":"東京都","city":"調布市","address":"東京都調布市上石原3丁目21-6","lat":35.65290458,"lon":139.52214705},{"name":"（有）和田葬儀社","province":"東京都","city":"調布市","address":"東京都調布市下石原1丁目60-2","lat":35.65478214,"lon":139.53833695},{"name":"（株）メモリード","province":"東京都","city":"調布市","address":"東京都調布市菊野台1丁目11-1","lat":35.65463524,"lon":139.56509551},{"name":"御塔坂橋北","province":"東京都","city":"調布市","address":"東京都調布市深大寺元町3丁目1","lat":35.6658612,"lon":139.54374139},{"name":"旧甲州街道入口","province":"東京都","city":"調布市","address":"東京都調布市国領町2丁目18-4","lat":35.65227161,"lon":139.5597767},{"name":"国領駅入口","province":"東京都","city":"調布市","address":"東京都調布市国領町1丁目45-11","lat":35.65064961,"lon":139.55676599},{"name":"仙川駅入口","province":"東京都","city":"調布市","address":"東京都調布市仙川町2丁目19-5","lat":35.66328458,"lon":139.58346575},{"name":"上石原","province":"東京都","city":"調布市","address":"東京都調布市富士見町1丁目1","lat":35.66012856,"lon":139.53295109},{"name":"味の素スタジアム西","province":"東京都","city":"調布市","address":"東京都調布市西町290","lat":35.66924671,"lon":139.53010368},{"name":"調布駅西","province":"東京都","city":"調布市","address":"東京都調布市小島町1丁目36-16","lat":35.65269349,"lon":139.54303928},{"name":"布多天神前","province":"東京都","city":"調布市","address":"東京都調布市調布ケ丘1丁目6","lat":35.65539583,"lon":139.54488332},{"name":"不動前","province":"東京都","city":"調布市","address":"東京都調布市国領町1丁目2-8","lat":35.65169097,"lon":139.55134967},{"name":"国領町八丁目","province":"東京都","city":"調布市","address":"東京都調布市国領町4丁目51-1","lat":35.64605871,"lon":139.56218803},{"name":"深大寺北町一丁目","province":"東京都","city":"調布市","address":"東京都調布市深大寺北町7丁目27","lat":35.67532402,"lon":139.54521317},{"name":"つつじヶ丘交番前","province":"東京都","city":"調布市","address":"東京都調布市西つつじケ丘3丁目31-2","lat":35.65925155,"lon":139.57431952},{"name":"多摩川団地交番前","province":"東京都","city":"調布市","address":"東京都調布市染地3丁目1-498","lat":35.63967659,"lon":139.55987229},{"name":"調布駅南入口","province":"東京都","city":"調布市","address":"東京都調布市布田5丁目1","lat":35.64839998,"lon":139.54339535},{"name":"調布駅北","province":"東京都","city":"調布市","address":"東京都調布市布田1丁目37-16","lat":35.65298507,"lon":139.54419187},{"name":"調布中学校前","province":"東京都","city":"調布市","address":"東京都調布市富士見町4丁目17-1","lat":35.66535009,"lon":139.53516172},{"name":"仙川橋","province":"東京都","city":"調布市","address":"東京都調布市緑ケ丘2丁目56","lat":35.66533724,"lon":139.5879153},{"name":"国領駅南","province":"東京都","city":"調布市","address":"東京都調布市国領町3丁目1-38","lat":35.64966092,"lon":139.55874091},{"name":"調布第三小学校入口","province":"東京都","city":"調布市","address":"東京都調布市上石原2丁目41","lat":35.65508765,"lon":139.52915735},{"name":"飛田給小入口","province":"東京都","city":"調布市","address":"東京都調布市飛田給2丁目42-7","lat":35.65689285,"lon":139.52534091},{"name":"飛田給小入口第二","province":"東京都","city":"調布市","address":"東京都調布市飛田給2丁目42-7","lat":35.65689285,"lon":139.52534091},{"name":"野川馬橋西","province":"東京都","city":"調布市","address":"東京都調布市国領町2丁目26","lat":35.65327149,"lon":139.56242638},{"name":"調布市役所前","province":"東京都","city":"調布市","address":"東京都調布市小島町2丁目35-1","lat":35.65059399,"lon":139.5406704},{"name":"布田一丁目","province":"東京都","city":"調布市","address":"東京都調布市布田1丁目25-2","lat":35.65270176,"lon":139.54599168},{"name":"国領町三丁目","province":"東京都","city":"調布市","address":"東京都調布市国領町3丁目8","lat":35.64928321,"lon":139.5611518},{"name":"飛田給二丁目","province":"東京都","city":"調布市","address":"東京都調布市飛田給2丁目19","lat":35.65929519,"lon":139.52253264},{"name":"飛田給二丁目東","province":"東京都","city":"調布市","address":"東京都調布市飛田給2丁目24-7","lat":35.65814817,"lon":139.52361597},{"name":"飛田給駅南口","province":"東京都","city":"調布市","address":"東京都調布市飛田給2丁目13-12","lat":35.65893411,"lon":139.52149665},{"name":"調布総合体育館南","province":"東京都","city":"調布市","address":"東京都調布市深大寺北町2丁目2","lat":35.6716801,"lon":139.55205709},{"name":"調布郵便局前","province":"東京都","city":"調布市","address":"東京都調布市国領町2丁目14","lat":35.65227714,"lon":139.55834905},{"name":"調布ヶ丘一丁目","province":"東京都","city":"調布市","address":"東京都調布市調布ケ丘1丁目34-1","lat":35.65472366,"lon":139.54680532},{"name":"国領小学校西","province":"東京都","city":"調布市","address":"東京都調布市国領町8丁目1-55","lat":35.64866387,"lon":139.56351548},{"name":"調布駅入口","province":"東京都","city":"調布市","address":"東京都調布市調布ケ丘1丁目5-1","lat":35.65564303,"lon":139.54430838},{"name":"調布市文化プラザ前","province":"東京都","city":"調布市","address":"東京都調布市小島町2丁目34","lat":35.6508828,"lon":139.54196187},{"name":"調布警察署前","province":"東京都","city":"調布市","address":"東京都調布市国領町2丁目25-1","lat":35.65292432,"lon":139.56223197},{"name":"調布駅南","province":"東京都","city":"調布市","address":"東京都調布市布田4丁目17-10","lat":35.65041342,"lon":139.54403667},{"name":"調布駅南第二","province":"東京都","city":"調布市","address":"東京都調布市小島町2丁目52-1","lat":35.64983578,"lon":139.54309243},{"name":"東京スタジアム前","province":"東京都","city":"調布市","address":"東京都調布市飛田給1丁目34-17","lat":35.66310853,"lon":139.52479608},{"name":"飛田給駅入口","province":"東京都","city":"調布市","address":"東京都調布市飛田給1丁目26-1","lat":35.66123655,"lon":139.52347964},{"name":"飛田給小学校前","province":"東京都","city":"調布市","address":"東京都調布市上石原3丁目3","lat":35.65435992,"lon":139.52418564},{"name":"国領駅前","province":"東京都","city":"調布市","address":"東京都調布市国領町4丁目8-1","lat":35.64947482,"lon":139.5574827},{"name":"布田駅前第一","province":"東京都","city":"調布市","address":"東京都調布市国領町5丁目70-1","lat":35.64951641,"lon":139.55109439},{"name":"布田駅前第二","province":"東京都","city":"調布市","address":"東京都調布市布田2丁目51-6","lat":35.65026625,"lon":139.55079711},{"name":"上石原浄水所","province":"東京都","city":"調布市","address":"東京都調布市上石原1丁目34-7","lat":35.66130335,"lon":139.53174555},{"name":"深大寺浄水所","province":"東京都","city":"調布市","address":"東京都調布市深大寺南町5丁目56-1","lat":35.66896104,"lon":139.55556797},{"name":"SOGIサポートセンターLinMCGroup株式会社","province":"東京都","city":"調布市","address":"東京都調布市多摩川2丁目3-12","lat":35.64803332,"lon":139.52358352},{"name":"㈲和田葬儀社","province":"東京都","city":"調布市","address":"東京都調布市下石原1丁目60-2","lat":35.65478214,"lon":139.53833695},{"name":"㈱メモリード(ﾒﾓﾘｰﾄﾞﾎｰﾙ)","province":"東京都","city":"調布市","address":"東京都調布市菊野台1丁目10-2","lat":35.65449637,"lon":139.5649622},{"name":"㈱公益社","province":"東京都","city":"調布市","address":"東京都調布市仙川町3丁目1-3","lat":35.66295407,"lon":139.58419625},{"name":"京王フェアウェルサポート㈱（京王メモリアル）","province":"東京都","city":"調布市","address":"東京都調布市布田2丁目34-6","lat":35.65131595,"lon":139.54681677},{"name":"緑ヶ丘こどもフリースペースごりら","province":"東京都","city":"調布市","address":"東京都調布市緑ケ丘2丁目18-49","lat":35.66934778,"lon":139.58393216},{"name":"みんな食堂「仙川スープ」","province":"東京都","city":"調布市","address":"東京都調布市仙川町1丁目19-10","lat":35.66190703,"lon":139.58617112},{"name":"坂の上のばあちゃん家","province":"東京都","city":"調布市","address":"東京都調布市入間町3丁目22-5","lat":35.64650615,"lon":139.58803264},{"name":"子ども食堂深大寺東町","province":"東京都","city":"調布市","address":"東京都調布市深大寺東町6丁目26-15","lat":35.67562424,"lon":139.5587508},{"name":"ハナこども食堂","province":"東京都","city":"調布市","address":"東京都調布市深大寺東町7丁目23-2","lat":35.67628527,"lon":139.55891188},{"name":"絵堂なかよし子ども食堂","province":"東京都","city":"調布市","address":"東京都調布市深大寺南町5丁目9","lat":35.66653636,"lon":139.55753733},{"name":"しばさき彩こども食堂","province":"東京都","city":"調布市","address":"東京都調布市柴崎1丁目64-9","lat":35.6572738,"lon":139.56494541},{"name":"さくら子育てステーション","province":"東京都","city":"調布市","address":"東京都調布市八雲台1丁目22-1","lat":35.65435444,"lon":139.55306875},{"name":"かしわの食堂（まい・夢）","province":"東京都","city":"調布市","address":"東京都調布市佐須町2丁目18-1","lat":35.65938997,"lon":139.55534612},{"name":"深大寺カフェ子ども食堂","province":"東京都","city":"調布市","address":"東京都調布市深大寺元町1丁目11-1","lat":35.66248107,"lon":139.54792163},{"name":"そらなかBASE","province":"東京都","city":"調布市","address":"東京都調布市深大寺元町1丁目11-1","lat":35.66248107,"lon":139.54792163},{"name":"まごじば","province":"東京都","city":"調布市","address":"東京都調布市国領町1丁目7-1","lat":35.65279632,"lon":139.55237724},{"name":"こくりょう子ども食堂わいわい","province":"東京都","city":"調布市","address":"東京都調布市国領町3丁目8-15","lat":35.64856666,"lon":139.56058525},{"name":"二小地区もりあげ隊","province":"東京都","city":"調布市","address":"東京都調布市国領町5丁目76-3","lat":35.64864714,"lon":139.55144724},{"name":"ウナパウザ","province":"東京都","city":"調布市","address":"東京都調布市染地3丁目8-26","lat":35.63719661,"lon":139.55749791},{"name":"みさとや子ども食堂","province":"東京都","city":"調布市","address":"東京都調布市布田2丁目2-6","lat":35.65352939,"lon":139.54781918},{"name":"ちょうふ子ども食堂","province":"東京都","city":"調布市","address":"東京都調布市布田2丁目5-4","lat":35.65335444,"lon":139.54889689},{"name":"ハッピーこども食堂","province":"東京都","city":"調布市","address":"東京都調布市布田5丁目32-3","lat":35.64607548,"lon":139.54485383},{"name":"電気通信大学こども食堂","province":"東京都","city":"調布市","address":"東京都調布市調布ケ丘1丁目5-1","lat":35.65564303,"lon":139.54430838},{"name":"こども食堂かくしょうじ","province":"東京都","city":"調布市","address":"東京都調布市富士見町1丁目35-5","lat":35.66023412,"lon":139.53743394},{"name":"富士見あおぞら子ども食堂","province":"東京都","city":"調布市","address":"東京都調布市富士見町2丁目13-5","lat":35.65921758,"lon":139.54185572},{"name":"風のテーブル","province":"東京都","city":"調布市","address":"東京都調布市上石原1丁目36-7","lat":35.65909816,"lon":139.53207068},{"name":"子ども食堂かみいしわらたんぽぽ","province":"東京都","city":"調布市","address":"東京都調布市上石原3丁目21-6","lat":35.65290458,"lon":139.52214705},{"name":"（有）和田葬儀社","province":"東京都","city":"調布市","address":"東京都調布市下石原1丁目60-2","lat":35.65478214,"lon":139.53833695},{"name":"（株）メモリード","province":"東京都","city":"調布市","address":"東京都調布市菊野台1丁目11-1","lat":35.65463524,"lon":139.56509551},{"name":"御塔坂橋北","province":"東京都","city":"調布市","address":"東京都調布市深大寺元町3丁目1","lat":35.6658612,"lon":139.54374139},{"name":"旧甲州街道入口","province":"東京都","city":"調布市","address":"東京都調布市国領町2丁目18-4","lat":35.65227161,"lon":139.5597767},{"name":"国領駅入口","province":"東京都","city":"調布市","address":"東京都調布市国領町1丁目45-11","lat":35.65064961,"lon":139.55676599},{"name":"仙川駅入口","province":"東京都","city":"調布市","address":"東京都調布市仙川町2丁目19-5","lat":35.66328458,"lon":139.58346575},{"name":"上石原","province":"東京都","city":"調布市","address":"東京都調布市富士見町1丁目1","lat":35.66012856,"lon":139.53295109},{"name":"味の素スタジアム西","province":"東京都","city":"調布市","address":"東京都調布市西町290","lat":35.66924671,"lon":139.53010368},{"name":"調布駅西","province":"東京都","city":"調布市","address":"東京都調布市小島町1丁目36-16","lat":35.65269349,"lon":139.54303928},{"name":"布多天神前","province":"東京都","city":"調布市","address":"東京都調布市調布ケ丘1丁目6","lat":35.65539583,"lon":139.54488332},{"name":"不動前","province":"東京都","city":"調布市","address":"東京都調布市国領町1丁目2-8","lat":35.65169097,"lon":139.55134967},{"name":"国領町八丁目","province":"東京都","city":"調布市","address":"東京都調布市国領町4丁目51-1","lat":35.64605871,"lon":139.56218803},{"name":"深大寺北町一丁目","province":"東京都","city":"調布市","address":"東京都調布市深大寺北町7丁目27","lat":35.67532402,"lon":139.54521317},{"name":"つつじヶ丘交番前","province":"東京都","city":"調布市","address":"東京都調布市西つつじケ丘3丁目31-2","lat":35.65925155,"lon":139.57431952},{"name":"多摩川団地交番前","province":"東京都","city":"調布市","address":"東京都調布市染地3丁目1-498","lat":35.63967659,"lon":139.55987229},{"name":"調布駅南入口","province":"東京都","city":"調布市","address":"東京都調布市布田5丁目1","lat":35.64839998,"lon":139.54339535},{"name":"調布駅北","province":"東京都","city":"調布市","address":"東京都調布市布田1丁目37-16","lat":35.65298507,"lon":139.54419187},{"name":"調布中学校前","province":"東京都","city":"調布市","address":"東京都調布市富士見町4丁目17-1","lat":35.66535009,"lon":139.53516172},{"name":"仙川橋","province":"東京都","city":"調布市","address":"東京都調布市緑ケ丘2丁目56","lat":35.66533724,"lon":139.5879153},{"name":"国領駅南","province":"東京都","city":"調布市","address":"東京都調布市国領町3丁目1-38","lat":35.64966092,"lon":139.55874091},{"name":"調布第三小学校入口","province":"東京都","city":"調布市","address":"東京都調布市上石原2丁目41","lat":35.65508765,"lon":139.52915735},{"name":"飛田給小入口","province":"東京都","city":"調布市","address":"東京都調布市飛田給2丁目42-7","lat":35.65689285,"lon":139.52534091},{"name":"飛田給小入口第二","province":"東京都","city":"調布市","address":"東京都調布市飛田給2丁目42-7","lat":35.65689285,"lon":139.52534091},{"name":"野川馬橋西","province":"東京都","city":"調布市","address":"東京都調布市国領町2丁目26","lat":35.65327149,"lon":139.56242638},{"name":"調布市役所前","province":"東京都","city":"調布市","address":"東京都調布市小島町2丁目35-1","lat":35.65059399,"lon":139.5406704},{"name":"布田一丁目","province":"東京都","city":"調布市","address":"東京都調布市布田1丁目25-2","lat":35.65270176,"lon":139.54599168},{"name":"国領町三丁目","province":"東京都","city":"調布市","address":"東京都調布市国領町3丁目8","lat":35.64928321,"lon":139.5611518},{"name":"飛田給二丁目","province":"東京都","city":"調布市","address":"東京都調布市飛田給2丁目19","lat":35.65929519,"lon":139.52253264},{"name":"飛田給二丁目東","province":"東京都","city":"調布市","address":"東京都調布市飛田給2丁目24-7","lat":35.65814817,"lon":139.52361597},{"name":"飛田給駅南口","province":"東京都","city":"調布市","address":"東京都調布市飛田給2丁目13-12","lat":35.65893411,"lon":139.52149665},{"name":"調布総合体育館南","province":"東京都","city":"調布市","address":"東京都調布市深大寺北町2丁目2","lat":35.6716801,"lon":139.55205709},{"name":"調布郵便局前","province":"東京都","city":"調布市","address":"東京都調布市国領町2丁目14","lat":35.65227714,"lon":139.55834905},{"name":"調布ヶ丘一丁目","province":"東京都","city":"調布市","address":"東京都調布市調布ケ丘1丁目34-1","lat":35.65472366,"lon":139.54680532},{"name":"国領小学校西","province":"東京都","city":"調布市","address":"東京都調布市国領町8丁目1-55","lat":35.64866387,"lon":139.56351548},{"name":"調布駅入口","province":"東京都","city":"調布市","address":"東京都調布市調布ケ丘1丁目5-1","lat":35.65564303,"lon":139.54430838},{"name":"調布市文化プラザ前","province":"東京都","city":"調布市","address":"東京都調布市小島町2丁目34","lat":35.6508828,"lon":139.54196187},{"name":"調布警察署前","province":"東京都","city":"調布市","address":"東京都調布市国領町2丁目25-1","lat":35.65292432,"lon":139.56223197},{"name":"調布駅南","province":"東京都","city":"調布市","address":"東京都調布市布田4丁目17-10","lat":35.65041342,"lon":139.54403667},{"name":"調布駅南第二","province":"東京都","city":"調布市","address":"東京都調布市小島町2丁目52-1","lat":35.64983578,"lon":139.54309243},{"name":"東京スタジアム前","province":"東京都","city":"調布市","address":"東京都調布市飛田給1丁目34-17","lat":35.66310853,"lon":139.52479608},{"name":"飛田給駅入口","province":"東京都","city":"調布市","address":"東京都調布市飛田給1丁目26-1","lat":35.66123655,"lon":139.52347964},{"name":"飛田給小学校前","province":"東京都","city":"調布市","address":"東京都調布市上石原3丁目3","lat":35.65435992,"lon":139.52418564},{"name":"国領駅前","province":"東京都","city":"調布市","address":"東京都調布市国領町4丁目8-1","lat":35.64947482,"lon":139.5574827},{"name":"布田駅前第一","province":"東京都","city":"調布市","address":"東京都調布市国領町5丁目70-1","lat":35.64951641,"lon":139.55109439},{"name":"布田駅前第二","province":"東京都","city":"調布市","address":"東京都調布市布田2丁目51-6","lat":35.65026625,"lon":139.55079711},{"name":"上石原浄水所","province":"東京都","city":"調布市","address":"東京都調布市上石原1丁目34-7","lat":35.66130335,"lon":139.53174555},{"name":"深大寺浄水所","province":"東京都","city":"調布市","address":"東京都調布市深大寺南町5丁目56-1","lat":35.66896104,"lon":139.55556797},{"name":"SOGIサポートセンターLinMCGroup株式会社","province":"東京都","city":"調布市","address":"東京都調布市多摩川2丁目3-12","lat":35.64803332,"lon":139.52358352},{"name":"㈲和田葬儀社","province":"東京都","city":"調布市","address":"東京都調布市下石原1丁目60-2","lat":35.65478214,"lon":139.53833695},{"name":"㈱メモリード(ﾒﾓﾘｰﾄﾞﾎｰﾙ)","province":"東京都","city":"調布市","address":"東京都調布市菊野台1丁目10-2","lat":35.65449637,"lon":139.5649622},{"name":"㈱公益社","province":"東京都","city":"調布市","address":"東京都調布市仙川町3丁目1-3","lat":35.66295407,"lon":139.58419625},{"name":"京王フェアウェルサポート㈱（京王メモリアル）","province":"東京都","city":"調布市","address":"東京都調布市布田2丁目34-6","lat":35.65131595,"lon":139.54681677},{"name":"緑ヶ丘こどもフリースペースごりら","province":"東京都","city":"調布市","address":"東京都調布市緑ケ丘2丁目18-49","lat":35.66934778,"lon":139.58393216},{"name":"みんな食堂「仙川スープ」","province":"東京都","city":"調布市","address":"東京都調布市仙川町1丁目19-10","lat":35.66190703,"lon":139.58617112},{"name":"坂の上のばあちゃん家","province":"東京都","city":"調布市","address":"東京都調布市入間町3丁目22-5","lat":35.64650615,"lon":139.58803264},{"name":"子ども食堂深大寺東町","province":"東京都","city":"調布市","address":"東京都調布市深大寺東町6丁目26-15","lat":35.67562424,"lon":139.5587508},{"name":"ハナこども食堂","province":"東京都","city":"調布市","address":"東京都調布市深大寺東町7丁目23-2","lat":35.67628527,"lon":139.55891188},{"name":"絵堂なかよし子ども食堂","province":"東京都","city":"調布市","address":"東京都調布市深大寺南町5丁目9","lat":35.66653636,"lon":139.55753733},{"name":"しばさき彩こども食堂","province":"東京都","city":"調布市","address":"東京都調布市柴崎1丁目64-9","lat":35.6572738,"lon":139.56494541},{"name":"さくら子育てステーション","province":"東京都","city":"調布市","address":"東京都調布市八雲台1丁目22-1","lat":35.65435444,"lon":139.55306875},{"name":"かしわの食堂（まい・夢）","province":"東京都","city":"調布市","address":"東京都調布市佐須町2丁目18-1","lat":35.65938997,"lon":139.55534612},{"name":"深大寺カフェ子ども食堂","province":"東京都","city":"調布市","address":"東京都調布市深大寺元町1丁目11-1","lat":35.66248107,"lon":139.54792163},{"name":"そらなかBASE","province":"東京都","city":"調布市","address":"東京都調布市深大寺元町1丁目11-1","lat":35.66248107,"lon":139.54792163},{"name":"まごじば","province":"東京都","city":"調布市","address":"東京都調布市国領町1丁目7-1","lat":35.65279632,"lon":139.55237724},{"name":"こくりょう子ども食堂わいわい","province":"東京都","city":"調布市","address":"東京都調布市国領町3丁目8-15","lat":35.64856666,"lon":139.56058525},{"name":"二小地区もりあげ隊","province":"東京都","city":"調布市","address":"東京都調布市国領町5丁目76-3","lat":35.64864714,"lon":139.55144724},{"name":"ウナパウザ","province":"東京都","city":"調布市","address":"東京都調布市染地3丁目8-26","lat":35.63719661,"lon":139.55749791},{"name":"みさとや子ども食堂","province":"東京都","city":"調布市","address":"東京都調布市布田2丁目2-6","lat":35.65352939,"lon":139.54781918},{"name":"ちょうふ子ども食堂","province":"東京都","city":"調布市","address":"東京都調布市布田2丁目5-4","lat":35.65335444,"lon":139.54889689},{"name":"ハッピーこども食堂","province":"東京都","city":"調布市","address":"東京都調布市布田5丁目32-3","lat":35.64607548,"lon":139.54485383},{"name":"電気通信大学こども食堂","province":"東京都","city":"調布市","address":"東京都調布市調布ケ丘1丁目5-1","lat":35.65564303,"lon":139.54430838},{"name":"こども食堂かくしょうじ","province":"東京都","city":"調布市","address":"東京都調布市富士見町1丁目35-5","lat":35.66023412,"lon":139.53743394},{"name":"富士見あおぞら子ども食堂","province":"東京都","city":"調布市","address":"東京都調布市富士見町2丁目13-5","lat":35.65921758,"lon":139.54185572},{"name":"風のテーブル","province":"東京都","city":"調布市","address":"東京都調布市上石原1丁目36-7","lat":35.65909816,"lon":139.53207068},{"name":"子ども食堂かみいしわらたんぽぽ","province":"東京都","city":"調布市","address":"東京都調布市上石原3丁目21-6","lat":35.65290458,"lon":139.52214705},{"name":"（有）和田葬儀社","province":"東京都","city":"調布市","address":"東京都調布市下石原1丁目60-2","lat":35.65478214,"lon":139.53833695},{"name":"（株）メモリード","province":"東京都","city":"調布市","address":"東京都調布市菊野台1丁目11-1","lat":35.65463524,"lon":139.56509551},{"name":"御塔坂橋北","province":"東京都","city":"調布市","address":"東京都調布市深大寺元町3丁目1","lat":35.6658612,"lon":139.54374139},{"name":"旧甲州街道入口","province":"東京都","city":"調布市","address":"東京都調布市国領町2丁目18-4","lat":35.65227161,"lon":139.5597767},{"name":"国領駅入口","province":"東京都","city":"調布市","address":"東京都調布市国領町1丁目45-11","lat":35.65064961,"lon":139.55676599},{"name":"仙川駅入口","province":"東京都","city":"調布市","address":"東京都調布市仙川町2丁目19-5","lat":35.66328458,"lon":139.58346575},{"name":"上石原","province":"東京都","city":"調布市","address":"東京都調布市富士見町1丁目1","lat":35.66012856,"lon":139.53295109},{"name":"味の素スタジアム西","province":"東京都","city":"調布市","address":"東京都調布市西町290","lat":35.66924671,"lon":139.53010368},{"name":"調布駅西","province":"東京都","city":"調布市","address":"東京都調布市小島町1丁目36-16","lat":35.65269349,"lon":139.54303928},{"name":"布多天神前","province":"東京都","city":"調布市","address":"東京都調布市調布ケ丘1丁目6","lat":35.65539583,"lon":139.54488332},{"name":"不動前","province":"東京都","city":"調布市","address":"東京都調布市国領町1丁目2-8","lat":35.65169097,"lon":139.55134967},{"name":"国領町八丁目","province":"東京都","city":"調布市","address":"東京都調布市国領町4丁目51-1","lat":35.64605871,"lon":139.56218803},{"name":"深大寺北町一丁目","province":"東京都","city":"調布市","address":"東京都調布市深大寺北町7丁目27","lat":35.67532402,"lon":139.54521317},{"name":"つつじヶ丘交番前","province":"東京都","city":"調布市","address":"東京都調布市西つつじケ丘3丁目31-2","lat":35.65925155,"lon":139.57431952},{"name":"多摩川団地交番前","province":"東京都","city":"調布市","address":"東京都調布市染地3丁目1-498","lat":35.63967659,"lon":139.55987229},{"name":"調布駅南入口","province":"東京都","city":"調布市","address":"東京都調布市布田5丁目1","lat":35.64839998,"lon":139.54339535},{"name":"調布駅北","province":"東京都","city":"調布市","address":"東京都調布市布田1丁目37-16","lat":35.65298507,"lon":139.54419187},{"name":"調布中学校前","province":"東京都","city":"調布市","address":"東京都調布市富士見町4丁目17-1","lat":35.66535009,"lon":139.53516172},{"name":"仙川橋","province":"東京都","city":"調布市","address":"東京都調布市緑ケ丘2丁目56","lat":35.66533724,"lon":139.5879153},{"name":"国領駅南","province":"東京都","city":"調布市","address":"東京都調布市国領町3丁目1-38","lat":35.64966092,"lon":139.55874091},{"name":"調布第三小学校入口","province":"東京都","city":"調布市","address":"東京都調布市上石原2丁目41","lat":35.65508765,"lon":139.52915735},{"name":"飛田給小入口","province":"東京都","city":"調布市","address":"東京都調布市飛田給2丁目42-7","lat":35.65689285,"lon":139.52534091},{"name":"飛田給小入口第二","province":"東京都","city":"調布市","address":"東京都調布市飛田給2丁目42-7","lat":35.65689285,"lon":139.52534091},{"name":"野川馬橋西","province":"東京都","city":"調布市","address":"東京都調布市国領町2丁目26","lat":35.65327149,"lon":139.56242638},{"name":"調布市役所前","province":"東京都","city":"調布市","address":"東京都調布市小島町2丁目35-1","lat":35.65059399,"lon":139.5406704},{"name":"布田一丁目","province":"東京都","city":"調布市","address":"東京都調布市布田1丁目25-2","lat":35.65270176,"lon":139.54599168},{"name":"国領町三丁目","province":"東京都","city":"調布市","address":"東京都調布市国領町3丁目8","lat":35.64928321,"lon":139.5611518},{"name":"飛田給二丁目","province":"東京都","city":"調布市","address":"東京都調布市飛田給2丁目19","lat":35.65929519,"lon":139.52253264},{"name":"飛田給二丁目東","province":"東京都","city":"調布市","address":"東京都調布市飛田給2丁目24-7","lat":35.65814817,"lon":139.52361597},{"name":"飛田給駅南口","province":"東京都","city":"調布市","address":"東京都調布市飛田給2丁目13-12","lat":35.65893411,"lon":139.52149665},{"name":"調布総合体育館南","province":"東京都","city":"調布市","address":"東京都調布市深大寺北町2丁目2","lat":35.6716801,"lon":139.55205709},{"name":"調布郵便局前","province":"東京都","city":"調布市","address":"東京都調布市国領町2丁目14","lat":35.65227714,"lon":139.55834905},{"name":"調布ヶ丘一丁目","province":"東京都","city":"調布市","address":"東京都調布市調布ケ丘1丁目34-1","lat":35.65472366,"lon":139.54680532},{"name":"国領小学校西","province":"東京都","city":"調布市","address":"東京都調布市国領町8丁目1-55","lat":35.64866387,"lon":139.56351548},{"name":"調布駅入口","province":"東京都","city":"調布市","address":"東京都調布市調布ケ丘1丁目5-1","lat":35.65564303,"lon":139.54430838},{"name":"調布市文化プラザ前","province":"東京都","city":"調布市","address":"東京都調布市小島町2丁目34","lat":35.6508828,"lon":139.54196187},{"name":"調布警察署前","province":"東京都","city":"調布市","address":"東京都調布市国領町2丁目25-1","lat":35.65292432,"lon":139.56223197},{"name":"調布駅南","province":"東京都","city":"調布市","address":"東京都調布市布田4丁目17-10","lat":35.65041342,"lon":139.54403667},{"name":"調布駅南第二","province":"東京都","city":"調布市","address":"東京都調布市小島町2丁目52-1","lat":35.64983578,"lon":139.54309243},{"name":"東京スタジアム前","province":"東京都","city":"調布市","address":"東京都調布市飛田給1丁目34-17","lat":35.66310853,"lon":139.52479608},{"name":"飛田給駅入口","province":"東京都","city":"調布市","address":"東京都調布市飛田給1丁目26-1","lat":35.66123655,"lon":139.52347964},{"name":"飛田給小学校前","province":"東京都","city":"調布市","address":"東京都調布市上石原3丁目3","lat":35.65435992,"lon":139.52418564},{"name":"国領駅前","province":"東京都","city":"調布市","address":"東京都調布市国領町4丁目8-1","lat":35.64947482,"lon":139.5574827},{"name":"布田駅前第一","province":"東京都","city":"調布市","address":"東京都調布市国領町5丁目70-1","lat":35.64951641,"lon":139.55109439},{"name":"布田駅前第二","province":"東京都","city":"調布市","address":"東京都調布市布田2丁目51-6","lat":35.65026625,"lon":139.55079711},{"name":"上石原浄水所","province":"東京都","city":"調布市","address":"東京都調布市上石原1丁目34-7","lat":35.66130335,"lon":139.53174555},{"name":"深大寺浄水所","province":"東京都","city":"調布市","address":"東京都調布市深大寺南町5丁目56-1","lat":35.66896104,"lon":139.55556797},{"name":"SOGIサポートセンターLinMCGroup株式会社","province":"東京都","city":"調布市","address":"東京都調布市多摩川2丁目3-12","lat":35.64803332,"lon":139.52358352},{"name":"㈲和田葬儀社","province":"東京都","city":"調布市","address":"東京都調布市下石原1丁目60-2","lat":35.65478214,"lon":139.53833695},{"name":"㈱メモリード(ﾒﾓﾘｰﾄﾞﾎｰﾙ)","province":"東京都","city":"調布市","address":"東京都調布市菊野台1丁目10-2","lat":35.65449637,"lon":139.5649622},{"name":"㈱公益社","province":"東京都","city":"調布市","address":"東京都調布市仙川町3丁目1-3","lat":35.66295407,"lon":139.58419625},{"name":"京王フェアウェルサポート㈱（京王メモリアル）","province":"東京都","city":"調布市","address":"東京都調布市布田2丁目34-6","lat":35.65131595,"lon":139.54681677},{"name":"緑ヶ丘こどもフリースペースごりら","province":"東京都","city":"調布市","address":"東京都調布市緑ケ丘2丁目18-49","lat":35.66934778,"lon":139.58393216},{"name":"みんな食堂「仙川スープ」","province":"東京都","city":"調布市","address":"東京都調布市仙川町1丁目19-10","lat":35.66190703,"lon":139.58617112},{"name":"坂の上のばあちゃん家","province":"東京都","city":"調布市","address":"東京都調布市入間町3丁目22-5","lat":35.64650615,"lon":139.58803264},{"name":"子ども食堂深大寺東町","province":"東京都","city":"調布市","address":"東京都調布市深大寺東町6丁目26-15","lat":35.67562424,"lon":139.5587508},{"name":"ハナこども食堂","province":"東京都","city":"調布市","address":"東京都調布市深大寺東町7丁目23-2","lat":35.67628527,"lon":139.55891188},{"name":"絵堂なかよし子ども食堂","province":"東京都","city":"調布市","address":"東京都調布市深大寺南町5丁目9","lat":35.66653636,"lon":139.55753733},{"name":"しばさき彩こども食堂","province":"東京都","city":"調布市","address":"東京都調布市柴崎1丁目64-9","lat":35.6572738,"lon":139.56494541},{"name":"さくら子育てステーション","province":"東京都","city":"調布市","address":"東京都調布市八雲台1丁目22-1","lat":35.65435444,"lon":139.55306875},{"name":"かしわの食堂（まい・夢）","province":"東京都","city":"調布市","address":"東京都調布市佐須町2丁目18-1","lat":35.65938997,"lon":139.55534612},{"name":"深大寺カフェ子ども食堂","province":"東京都","city":"調布市","address":"東京都調布市深大寺元町1丁目11-1","lat":35.66248107,"lon":139.54792163},{"name":"そらなかBASE","province":"東京都","city":"調布市","address":"東京都調布市深大寺元町1丁目11-1","lat":35.66248107,"lon":139.54792163},{"name":"まごじば","province":"東京都","city":"調布市","address":"東京都調布市国領町1丁目7-1","lat":35.65279632,"lon":139.55237724},{"name":"こくりょう子ども食堂わいわい","province":"東京都","city":"調布市","address":"東京都調布市国領町3丁目8-15","lat":35.64856666,"lon":139.56058525},{"name":"二小地区もりあげ隊","province":"東京都","city":"調布市","address":"東京都調布市国領町5丁目76-3","lat":35.64864714,"lon":139.55144724},{"name":"ウナパウザ","province":"東京都","city":"調布市","address":"東京都調布市染地3丁目8-26","lat":35.63719661,"lon":139.55749791},{"name":"みさとや子ども食堂","province":"東京都","city":"調布市","address":"東京都調布市布田2丁目2-6","lat":35.65352939,"lon":139.54781918},{"name":"ちょうふ子ども食堂","province":"東京都","city":"調布市","address":"東京都調布市布田2丁目5-4","lat":35.65335444,"lon":139.54889689},{"name":"ハッピーこども食堂","province":"東京都","city":"調布市","address":"東京都調布市布田5丁目32-3","lat":35.64607548,"lon":139.54485383},{"name":"電気通信大学こども食堂","province":"東京都","city":"調布市","address":"東京都調布市調布ケ丘1丁目5-1","lat":35.65564303,"lon":139.54430838},{"name":"こども食堂かくしょうじ","province":"東京都","city":"調布市","address":"東京都調布市富士見町1丁目35-5","lat":35.66023412,"lon":139.53743394},{"name":"富士見あおぞら子ども食堂","province":"東京都","city":"調布市","address":"東京都調布市富士見町2丁目13-5","lat":35.65921758,"lon":139.54185572},{"name":"風のテーブル","province":"東京都","city":"調布市","address":"東京都調布市上石原1丁目36-7","lat":35.65909816,"lon":139.53207068},{"name":"子ども食堂かみいしわらたんぽぽ","province":"東京都","city":"調布市","address":"東京都調布市上石原3丁目21-6","lat":35.65290458,"lon":139.52214705},{"name":"（有）和田葬儀社","province":"東京都","city":"調布市","address":"東京都調布市下石原1丁目60-2","lat":35.65478214,"lon":139.53833695},{"name":"（株）メモリード","province":"東京都","city":"調布市","address":"東京都調布市菊野台1丁目11-1","lat":35.65463524,"lon":139.56509551},{"name":"SOGIサポートセンターLinMCGroup株式会社","province":"東京都","city":"調布市","address":"東京都調布市多摩川2丁目3-12","lat":35.64803332,"lon":139.52358352},{"name":"㈲和田葬儀社","province":"東京都","city":"調布市","address":"東京都調布市下石原1丁目60-2","lat":35.65478214,"lon":139.53833695},{"name":"㈱メモリード(ﾒﾓﾘｰﾄﾞﾎｰﾙ)","province":"東京都","city":"調布市","address":"東京都調布市菊野台1丁目10-2","lat":35.65449637,"lon":139.5649622},{"name":"㈱公益社","province":"東京都","city":"調布市","address":"東京都調布市仙川町3丁目1-3","lat":35.66295407,"lon":139.58419625},{"name":"京王フェアウェルサポート㈱（京王メモリアル）","province":"東京都","city":"調布市","address":"東京都調布市布田2丁目34-6","lat":35.65131595,"lon":139.54681677},{"name":"緑ヶ丘こどもフリースペースごりら","province":"東京都","city":"調布市","address":"東京都調布市緑ケ丘2丁目18-49","lat":35.66934778,"lon":139.58393216},{"name":"みんな食堂「仙川スープ」","province":"東京都","city":"調布市","address":"東京都調布市仙川町1丁目19-10","lat":35.66190703,"lon":139.58617112},{"name":"坂の上のばあちゃん家","province":"東京都","city":"調布市","address":"東京都調布市入間町3丁目22-5","lat":35.64650615,"lon":139.58803264},{"name":"子ども食堂深大寺東町","province":"東京都","city":"調布市","address":"東京都調布市深大寺東町6丁目26-15","lat":35.67562424,"lon":139.5587508},{"name":"ハナこども食堂","province":"東京都","city":"調布市","address":"東京都調布市深大寺東町7丁目23-2","lat":35.67628527,"lon":139.55891188},{"name":"絵堂なかよし子ども食堂","province":"東京都","city":"調布市","address":"東京都調布市深大寺南町5丁目9","lat":35.66653636,"lon":139.55753733},{"name":"しばさき彩こども食堂","province":"東京都","city":"調布市","address":"東京都調布市柴崎1丁目64-9","lat":35.6572738,"lon":139.56494541},{"name":"さくら子育てステーション","province":"東京都","city":"調布市","address":"東京都調布市八雲台1丁目22-1","lat":35.65435444,"lon":139.55306875},{"name":"かしわの食堂（まい・夢）","province":"東京都","city":"調布市","address":"東京都調布市佐須町2丁目18-1","lat":35.65938997,"lon":139.55534612},{"name":"深大寺カフェ子ども食堂","province":"東京都","city":"調布市","address":"東京都調布市深大寺元町1丁目11-1","lat":35.66248107,"lon":139.54792163},{"name":"そらなかBASE","province":"東京都","city":"調布市","address":"東京都調布市深大寺元町1丁目11-1","lat":35.66248107,"lon":139.54792163},{"name":"まごじば","province":"東京都","city":"調布市","address":"東京都調布市国領町1丁目7-1","lat":35.65279632,"lon":139.55237724},{"name":"こくりょう子ども食堂わいわい","province":"東京都","city":"調布市","address":"東京都調布市国領町3丁目8-15","lat":35.64856666,"lon":139.56058525},{"name":"二小地区もりあげ隊","province":"東京都","city":"調布市","address":"東京都調布市国領町5丁目76-3","lat":35.64864714,"lon":139.55144724},{"name":"ウナパウザ","province":"東京都","city":"調布市","address":"東京都調布市染地3丁目8-26","lat":35.63719661,"lon":139.55749791},{"name":"みさとや子ども食堂","province":"東京都","city":"調布市","address":"東京都調布市布田2丁目2-6","lat":35.65352939,"lon":139.54781918},{"name":"ちょうふ子ども食堂","province":"東京都","city":"調布市","address":"東京都調布市布田2丁目5-4","lat":35.65335444,"lon":139.54889689},{"name":"ハッピーこども食堂","province":"東京都","city":"調布市","address":"東京都調布市布田5丁目32-3","lat":35.64607548,"lon":139.54485383},{"name":"電気通信大学こども食堂","province":"東京都","city":"調布市","address":"東京都調布市調布ケ丘1丁目5-1","lat":35.65564303,"lon":139.54430838},{"name":"こども食堂かくしょうじ","province":"東京都","city":"調布市","address":"東京都調布市富士見町1丁目35-5","lat":35.66023412,"lon":139.53743394},{"name":"富士見あおぞら子ども食堂","province":"東京都","city":"調布市","address":"東京都調布市富士見町2丁目13-5","lat":35.65921758,"lon":139.54185572},{"name":"風のテーブル","province":"東京都","city":"調布市","address":"東京都調布市上石原1丁目36-7","lat":35.65909816,"lon":139.53207068},{"name":"子ども食堂かみいしわらたんぽぽ","province":"東京都","city":"調布市","address":"東京都調布市上石原3丁目21-6","lat":35.65290458,"lon":139.52214705},{"name":"（有）和田葬儀社","province":"東京都","city":"調布市","address":"東京都調布市下石原1丁目60-2","lat":35.65478214,"lon":139.53833695},{"name":"（株）メモリード","province":"東京都","city":"調布市","address":"東京都調布市菊野台1丁目11-1","lat":35.65463524,"lon":139.56509551},{"name":"SOGIサポートセンターLinMCGroup株式会社","province":"東京都","city":"調布市","address":"東京都調布市多摩川2丁目3-12","lat":35.64803332,"lon":139.52358352},{"name":"㈲和田葬儀社","province":"東京都","city":"調布市","address":"東京都調布市下石原1丁目60-2","lat":35.65478214,"lon":139.53833695},{"name":"㈱メモリード(ﾒﾓﾘｰﾄﾞﾎｰﾙ)","province":"東京都","city":"調布市","address":"東京都調布市菊野台1丁目10-2","lat":35.65449637,"lon":139.5649622},{"name":"㈱公益社","province":"東京都","city":"調布市","address":"東京都調布市仙川町3丁目1-3","lat":35.66295407,"lon":139.58419625},{"name":"京王フェアウェルサポート㈱（京王メモリアル）","province":"東京都","city":"調布市","address":"東京都調布市布田2丁目34-6","lat":35.65131595,"lon":139.54681677},{"name":"緑ヶ丘こどもフリースペースごりら","province":"東京都","city":"調布市","address":"東京都調布市緑ケ丘2丁目18-49","lat":35.66934778,"lon":139.58393216},{"name":"みんな食堂「仙川スープ」","province":"東京都","city":"調布市","address":"東京都調布市仙川町1丁目19-10","lat":35.66190703,"lon":139.58617112},{"name":"坂の上のばあちゃん家","province":"東京都","city":"調布市","address":"東京都調布市入間町3丁目22-5","lat":35.64650615,"lon":139.58803264},{"name":"子ども食堂深大寺東町","province":"東京都","city":"調布市","address":"東京都調布市深大寺東町6丁目26-15","lat":35.67562424,"lon":139.5587508},{"name":"ハナこども食堂","province":"東京都","city":"調布市","address":"東京都調布市深大寺東町7丁目23-2","lat":35.67628527,"lon":139.55891188},{"name":"絵堂なかよし子ども食堂","province":"東京都","city":"調布市","address":"東京都調布市深大寺南町5丁目9","lat":35.66653636,"lon":139.55753733},{"name":"しばさき彩こども食堂","province":"東京都","city":"調布市","address":"東京都調布市柴崎1丁目64-9","lat":35.6572738,"lon":139.56494541},{"name":"さくら子育てステーション","province":"東京都","city":"調布市","address":"東京都調布市八雲台1丁目22-1","lat":35.65435444,"lon":139.55306875},{"name":"かしわの食堂（まい・夢）","province":"東京都","city":"調布市","address":"東京都調布市佐須町2丁目18-1","lat":35.65938997,"lon":139.55534612},{"name":"深大寺カフェ子ども食堂","province":"東京都","city":"調布市","address":"東京都調布市深大寺元町1丁目11-1","lat":35.66248107,"lon":139.54792163},{"name":"そらなかBASE","province":"東京都","city":"調布市","address":"東京都調布市深大寺元町1丁目11-1","lat":35.66248107,"lon":139.54792163},{"name":"まごじば","province":"東京都","city":"調布市","address":"東京都調布市国領町1丁目7-1","lat":35.65279632,"lon":139.55237724},{"name":"こくりょう子ども食堂わいわい","province":"東京都","city":"調布市","address":"東京都調布市国領町3丁目8-15","lat":35.64856666,"lon":139.56058525},{"name":"二小地区もりあげ隊","province":"東京都","city":"調布市","address":"東京都調布市国領町5丁目76-3","lat":35.64864714,"lon":139.55144724},{"name":"ウナパウザ","province":"東京都","city":"調布市","address":"東京都調布市染地3丁目8-26","lat":35.63719661,"lon":139.55749791},{"name":"みさとや子ども食堂","province":"東京都","city":"調布市","address":"東京都調布市布田2丁目2-6","lat":35.65352939,"lon":139.54781918},{"name":"ちょうふ子ども食堂","province":"東京都","city":"調布市","address":"東京都調布市布田2丁目5-4","lat":35.65335444,"lon":139.54889689},{"name":"ハッピーこども食堂","province":"東京都","city":"調布市","address":"東京都調布市布田5丁目32-3","lat":35.64607548,"lon":139.54485383},{"name":"電気通信大学こども食堂","province":"東京都","city":"調布市","address":"東京都調布市調布ケ丘1丁目5-1","lat":35.65564303,"lon":139.54430838},{"name":"こども食堂かくしょうじ","province":"東京都","city":"調布市","address":"東京都調布市富士見町1丁目35-5","lat":35.66023412,"lon":139.53743394},{"name":"富士見あおぞら子ども食堂","province":"東京都","city":"調布市","address":"東京都調布市富士見町2丁目13-5","lat":35.65921758,"lon":139.54185572},{"name":"風のテーブル","province":"東京都","city":"調布市","address":"東京都調布市上石原1丁目36-7","lat":35.65909816,"lon":139.53207068},{"name":"子ども食堂かみいしわらたんぽぽ","province":"東京都","city":"調布市","address":"東京都調布市上石原3丁目21-6","lat":35.65290458,"lon":139.52214705},{"name":"（有）和田葬儀社","province":"東京都","city":"調布市","address":"東京都調布市下石原1丁目60-2","lat":35.65478214,"lon":139.53833695},{"name":"（株）メモリード","province":"東京都","city":"調布市","address":"東京都調布市菊野台1丁目11-1","lat":35.65463524,"lon":139.56509551},{"name":"SOGIサポートセンターLinMCGroup株式会社","province":"東京都","city":"調布市","address":"東京都調布市多摩川2丁目3-12","lat":35.64803332,"lon":139.52358352},{"name":"㈲和田葬儀社","province":"東京都","city":"調布市","address":"東京都調布市下石原1丁目60-2","lat":35.65478214,"lon":139.53833695},{"name":"㈱メモリード(ﾒﾓﾘｰﾄﾞﾎｰﾙ)","province":"東京都","city":"調布市","address":"東京都調布市菊野台1丁目10-2","lat":35.65449637,"lon":139.5649622},{"name":"㈱公益社","province":"東京都","city":"調布市","address":"東京都調布市仙川町3丁目1-3","lat":35.66295407,"lon":139.58419625},{"name":"京王フェアウェルサポート㈱（京王メモリアル）","province":"東京都","city":"調布市","address":"東京都調布市布田2丁目34-6","lat":35.65131595,"lon":139.54681677},{"name":"緑ヶ丘こどもフリースペースごりら","province":"東京都","city":"調布市","address":"東京都調布市緑ケ丘2丁目18-49","lat":35.66934778,"lon":139.58393216},{"name":"みんな食堂「仙川スープ」","province":"東京都","city":"調布市","address":"東京都調布市仙川町1丁目19-10","lat":35.66190703,"lon":139.58617112},{"name":"坂の上のばあちゃん家","province":"東京都","city":"調布市","address":"東京都調布市入間町3丁目22-5","lat":35.64650615,"lon":139.58803264},{"name":"子ども食堂深大寺東町","province":"東京都","city":"調布市","address":"東京都調布市深大寺東町6丁目26-15","lat":35.67562424,"lon":139.5587508},{"name":"ハナこども食堂","province":"東京都","city":"調布市","address":"東京都調布市深大寺東町7丁目23-2","lat":35.67628527,"lon":139.55891188},{"name":"絵堂なかよし子ども食堂","province":"東京都","city":"調布市","address":"東京都調布市深大寺南町5丁目9","lat":35.66653636,"lon":139.55753733},{"name":"しばさき彩こども食堂","province":"東京都","city":"調布市","address":"東京都調布市柴崎1丁目64-9","lat":35.6572738,"lon":139.56494541},{"name":"さくら子育てステーション","province":"東京都","city":"調布市","address":"東京都調布市八雲台1丁目22-1","lat":35.65435444,"lon":139.55306875},{"name":"かしわの食堂（まい・夢）","province":"東京都","city":"調布市","address":"東京都調布市佐須町2丁目18-1","lat":35.65938997,"lon":139.55534612},{"name":"深大寺カフェ子ども食堂","province":"東京都","city":"調布市","address":"東京都調布市深大寺元町1丁目11-1","lat":35.66248107,"lon":139.54792163},{"name":"そらなかBASE","province":"東京都","city":"調布市","address":"東京都調布市深大寺元町1丁目11-1","lat":35.66248107,"lon":139.54792163},{"name":"まごじば","province":"東京都","city":"調布市","address":"東京都調布市国領町1丁目7-1","lat":35.65279632,"lon":139.55237724},{"name":"こくりょう子ども食堂わいわい","province":"東京都","city":"調布市","address":"東京都調布市国領町3丁目8-15","lat":35.64856666,"lon":139.56058525},{"name":"二小地区もりあげ隊","province":"東京都","city":"調布市","address":"東京都調布市国領町5丁目76-3","lat":35.64864714,"lon":139.55144724},{"name":"ウナパウザ","province":"東京都","city":"調布市","address":"東京都調布市染地3丁目8-26","lat":35.63719661,"lon":139.55749791},{"name":"みさとや子ども食堂","province":"東京都","city":"調布市","address":"東京都調布市布田2丁目2-6","lat":35.65352939,"lon":139.54781918},{"name":"ちょうふ子ども食堂","province":"東京都","city":"調布市","address":"東京都調布市布田2丁目5-4","lat":35.65335444,"lon":139.54889689},{"name":"ハッピーこども食堂","province":"東京都","city":"調布市","address":"東京都調布市布田5丁目32-3","lat":35.64607548,"lon":139.54485383},{"name":"電気通信大学こども食堂","province":"東京都","city":"調布市","address":"東京都調布市調布ケ丘1丁目5-1","lat":35.65564303,"lon":139.54430838},{"name":"こども食堂かくしょうじ","province":"東京都","city":"調布市","address":"東京都調布市富士見町1丁目35-5","lat":35.66023412,"lon":139.53743394},{"name":"富士見あおぞら子ども食堂","province":"東京都","city":"調布市","address":"東京都調布市富士見町2丁目13-5","lat":35.65921758,"lon":139.54185572},{"name":"風のテーブル","province":"東京都","city":"調布市","address":"東京都調布市上石原1丁目36-7","lat":35.65909816,"lon":139.53207068},{"name":"子ども食堂かみいしわらたんぽぽ","province":"東京都","city":"調布市","address":"東京都調布市上石原3丁目21-6","lat":35.65290458,"lon":139.52214705},{"name":"（有）和田葬儀社","province":"東京都","city":"調布市","address":"東京都調布市下石原1丁目60-2","lat":35.65478214,"lon":139.53833695},{"name":"（株）メモリード","province":"東京都","city":"調布市","address":"東京都調布市菊野台1丁目11-1","lat":35.65463524,"lon":139.56509551},{"name":"SOGIサポートセンターLinMCGroup株式会社","province":"東京都","city":"調布市","address":"東京都調布市多摩川2丁目3-12","lat":35.64803332,"lon":139.52358352},{"name":"㈲和田葬儀社","province":"東京都","city":"調布市","address":"東京都調布市下石原1丁目60-2","lat":35.65478214,"lon":139.53833695},{"name":"㈱メモリード(ﾒﾓﾘｰﾄﾞﾎｰﾙ)","province":"東京都","city":"調布市","address":"東京都調布市菊野台1丁目10-2","lat":35.65449637,"lon":139.5649622},{"name":"㈱公益社","province":"東京都","city":"調布市","address":"東京都調布市仙川町3丁目1-3","lat":35.66295407,"lon":139.58419625},{"name":"京王フェアウェルサポート㈱（京王メモリアル）","province":"東京都","city":"調布市","address":"東京都調布市布田2丁目34-6","lat":35.65131595,"lon":139.54681677},{"name":"緑ヶ丘こどもフリースペースごりら","province":"東京都","city":"調布市","address":"東京都調布市緑ケ丘2丁目18-49","lat":35.66934778,"lon":139.58393216},{"name":"みんな食堂「仙川スープ」","province":"東京都","city":"調布市","address":"東京都調布市仙川町1丁目19-10","lat":35.66190703,"lon":139.58617112},{"name":"坂の上のばあちゃん家","province":"東京都","city":"調布市","address":"東京都調布市入間町3丁目22-5","lat":35.64650615,"lon":139.58803264},{"name":"子ども食堂深大寺東町","province":"東京都","city":"調布市","address":"東京都調布市深大寺東町6丁目26-15","lat":35.67562424,"lon":139.5587508},{"name":"ハナこども食堂","province":"東京都","city":"調布市","address":"東京都調布市深大寺東町7丁目23-2","lat":35.67628527,"lon":139.55891188},{"name":"絵堂なかよし子ども食堂","province":"東京都","city":"調布市","address":"東京都調布市深大寺南町5丁目9","lat":35.66653636,"lon":139.55753733},{"name":"しばさき彩こども食堂","province":"東京都","city":"調布市","address":"東京都調布市柴崎1丁目64-9","lat":35.6572738,"lon":139.56494541},{"name":"さくら子育てステーション","province":"東京都","city":"調布市","address":"東京都調布市八雲台1丁目22-1","lat":35.65435444,"lon":139.55306875},{"name":"かしわの食堂（まい・夢）","province":"東京都","city":"調布市","address":"東京都調布市佐須町2丁目18-1","lat":35.65938997,"lon":139.55534612},{"name":"深大寺カフェ子ども食堂","province":"東京都","city":"調布市","address":"東京都調布市深大寺元町1丁目11-1","lat":35.66248107,"lon":139.54792163},{"name":"そらなかBASE","province":"東京都","city":"調布市","address":"東京都調布市深大寺元町1丁目11-1","lat":35.66248107,"lon":139.54792163},{"name":"まごじば","province":"東京都","city":"調布市","address":"東京都調布市国領町1丁目7-1","lat":35.65279632,"lon":139.55237724},{"name":"こくりょう子ども食堂わいわい","province":"東京都","city":"調布市","address":"東京都調布市国領町3丁目8-15","lat":35.64856666,"lon":139.56058525},{"name":"二小地区もりあげ隊","province":"東京都","city":"調布市","address":"東京都調布市国領町5丁目76-3","lat":35.64864714,"lon":139.55144724},{"name":"ウナパウザ","province":"東京都","city":"調布市","address":"東京都調布市染地3丁目8-26","lat":35.63719661,"lon":139.55749791},{"name":"みさとや子ども食堂","province":"東京都","city":"調布市","address":"東京都調布市布田2丁目2-6","lat":35.65352939,"lon":139.54781918},{"name":"ちょうふ子ども食堂","province":"東京都","city":"調布市","address":"東京都調布市布田2丁目5-4","lat":35.65335444,"lon":139.54889689},{"name":"ハッピーこども食堂","province":"東京都","city":"調布市","address":"東京都調布市布田5丁目32-3","lat":35.64607548,"lon":139.54485383},{"name":"電気通信大学こども食堂","province":"東京都","city":"調布市","address":"東京都調布市調布ケ丘1丁目5-1","lat":35.65564303,"lon":139.54430838},{"name":"こども食堂かくしょうじ","province":"東京都","city":"調布市","address":"東京都調布市富士見町1丁目35-5","lat":35.66023412,"lon":139.53743394},{"name":"富士見あおぞら子ども食堂","province":"東京都","city":"調布市","address":"東京都調布市富士見町2丁目13-5","lat":35.65921758,"lon":139.54185572},{"name":"風のテーブル","province":"東京都","city":"調布市","address":"東京都調布市上石原1丁目36-7","lat":35.65909816,"lon":139.53207068},{"name":"子ども食堂かみいしわらたんぽぽ","province":"東京都","city":"調布市","address":"東京都調布市上石原3丁目21-6","lat":35.65290458,"lon":139.52214705},{"name":"（有）和田葬儀社","province":"東京都","city":"調布市","address":"東京都調布市下石原1丁目60-2","lat":35.65478214,"lon":139.53833695},{"name":"（株）メモリード","province":"東京都","city":"調布市","address":"東京都調布市菊野台1丁目11-1","lat":35.65463524,"lon":139.56509551},{"name":"SOGIサポートセンターLinMCGroup株式会社","province":"東京都","city":"調布市","address":"東京都調布市多摩川2丁目3-12","lat":35.64803332,"lon":139.52358352},{"name":"㈲和田葬儀社","province":"東京都","city":"調布市","address":"東京都調布市下石原1丁目60-2","lat":35.65478214,"lon":139.53833695},{"name":"㈱メモリード(ﾒﾓﾘｰﾄﾞﾎｰﾙ)","province":"東京都","city":"調布市","address":"東京都調布市菊野台1丁目10-2","lat":35.65449637,"lon":139.5649622},{"name":"㈱公益社","province":"東京都","city":"調布市","address":"東京都調布市仙川町3丁目1-3","lat":35.66295407,"lon":139.58419625},{"name":"京王フェアウェルサポート㈱（京王メモリアル）","province":"東京都","city":"調布市","address":"東京都調布市布田2丁目34-6","lat":35.65131595,"lon":139.54681677},{"name":"緑ヶ丘こどもフリースペースごりら","province":"東京都","city":"調布市","address":"東京都調布市緑ケ丘2丁目18-49","lat":35.66934778,"lon":139.58393216},{"name":"みんな食堂「仙川スープ」","province":"東京都","city":"調布市","address":"東京都調布市仙川町1丁目19-10","lat":35.66190703,"lon":139.58617112},{"name":"坂の上のばあちゃん家","province":"東京都","city":"調布市","address":"東京都調布市入間町3丁目22-5","lat":35.64650615,"lon":139.58803264},{"name":"子ども食堂深大寺東町","province":"東京都","city":"調布市","address":"東京都調布市深大寺東町6丁目26-15","lat":35.67562424,"lon":139.5587508},{"name":"ハナこども食堂","province":"東京都","city":"調布市","address":"東京都調布市深大寺東町7丁目23-2","lat":35.67628527,"lon":139.55891188},{"name":"絵堂なかよし子ども食堂","province":"東京都","city":"調布市","address":"東京都調布市深大寺南町5丁目9","lat":35.66653636,"lon":139.55753733},{"name":"しばさき彩こども食堂","province":"東京都","city":"調布市","address":"東京都調布市柴崎1丁目64-9","lat":35.6572738,"lon":139.56494541},{"name":"さくら子育てステーション","province":"東京都","city":"調布市","address":"東京都調布市八雲台1丁目22-1","lat":35.65435444,"lon":139.55306875},{"name":"かしわの食堂（まい・夢）","province":"東京都","city":"調布市","address":"東京都調布市佐須町2丁目18-1","lat":35.65938997,"lon":139.55534612},{"name":"深大寺カフェ子ども食堂","province":"東京都","city":"調布市","address":"東京都調布市深大寺元町1丁目11-1","lat":35.66248107,"lon":139.54792163},{"name":"そらなかBASE","province":"東京都","city":"調布市","address":"東京都調布市深大寺元町1丁目11-1","lat":35.66248107,"lon":139.54792163},{"name":"まごじば","province":"東京都","city":"調布市","address":"東京都調布市国領町1丁目7-1","lat":35.65279632,"lon":139.55237724},{"name":"こくりょう子ども食堂わいわい","province":"東京都","city":"調布市","address":"東京都調布市国領町3丁目8-15","lat":35.64856666,"lon":139.56058525},{"name":"二小地区もりあげ隊","province":"東京都","city":"調布市","address":"東京都調布市国領町5丁目76-3","lat":35.64864714,"lon":139.55144724},{"name":"ウナパウザ","province":"東京都","city":"調布市","address":"東京都調布市染地3丁目8-26","lat":35.63719661,"lon":139.55749791},{"name":"みさとや子ども食堂","province":"東京都","city":"調布市","address":"東京都調布市布田2丁目2-6","lat":35.65352939,"lon":139.54781918},{"name":"ちょうふ子ども食堂","province":"東京都","city":"調布市","address":"東京都調布市布田2丁目5-4","lat":35.65335444,"lon":139.54889689},{"name":"ハッピーこども食堂","province":"東京都","city":"調布市","address":"東京都調布市布田5丁目32-3","lat":35.64607548,"lon":139.54485383},{"name":"電気通信大学こども食堂","province":"東京都","city":"調布市","address":"東京都調布市調布ケ丘1丁目5-1","lat":35.65564303,"lon":139.54430838},{"name":"こども食堂かくしょうじ","province":"東京都","city":"調布市","address":"東京都調布市富士見町1丁目35-5","lat":35.66023412,"lon":139.53743394},{"name":"富士見あおぞら子ども食堂","province":"東京都","city":"調布市","address":"東京都調布市富士見町2丁目13-5","lat":35.65921758,"lon":139.54185572},{"name":"風のテーブル","province":"東京都","city":"調布市","address":"東京都調布市上石原1丁目36-7","lat":35.65909816,"lon":139.53207068},{"name":"子ども食堂かみいしわらたんぽぽ","province":"東京都","city":"調布市","address":"東京都調布市上石原3丁目21-6","lat":35.65290458,"lon":139.52214705},{"name":"（有）和田葬儀社","province":"東京都","city":"調布市","address":"東京都調布市下石原1丁目60-2","lat":35.65478214,"lon":139.53833695},{"name":"（株）メモリード","province":"東京都","city":"調布市","address":"東京都調布市菊野台1丁目11-1","lat":35.65463524,"lon":139.56509551},{"name":"SOGIサポートセンターLinMCGroup株式会社","province":"東京都","city":"調布市","address":"東京都調布市多摩川2丁目3-12","lat":35.64803332,"lon":139.52358352},{"name":"㈲和田葬儀社","province":"東京都","city":"調布市","address":"東京都調布市下石原1丁目60-2","lat":35.65478214,"lon":139.53833695},{"name":"㈱メモリード(ﾒﾓﾘｰﾄﾞﾎｰﾙ)","province":"東京都","city":"調布市","address":"東京都調布市菊野台1丁目10-2","lat":35.65449637,"lon":139.5649622},{"name":"㈱公益社","province":"東京都","city":"調布市","address":"東京都調布市仙川町3丁目1-3","lat":35.66295407,"lon":139.58419625},{"name":"京王フェアウェルサポート㈱（京王メモリアル）","province":"東京都","city":"調布市","address":"東京都調布市布田2丁目34-6","lat":35.65131595,"lon":139.54681677},{"name":"緑ヶ丘こどもフリースペースごりら","province":"東京都","city":"調布市","address":"東京都調布市緑ケ丘2丁目18-49","lat":35.66934778,"lon":139.58393216},{"name":"みんな食堂「仙川スープ」","province":"東京都","city":"調布市","address":"東京都調布市仙川町1丁目19-10","lat":35.66190703,"lon":139.58617112},{"name":"坂の上のばあちゃん家","province":"東京都","city":"調布市","address":"東京都調布市入間町3丁目22-5","lat":35.64650615,"lon":139.58803264},{"name":"子ども食堂深大寺東町","province":"東京都","city":"調布市","address":"東京都調布市深大寺東町6丁目26-15","lat":35.67562424,"lon":139.5587508},{"name":"ハナこども食堂","province":"東京都","city":"調布市","address":"東京都調布市深大寺東町7丁目23-2","lat":35.67628527,"lon":139.55891188},{"name":"絵堂なかよし子ども食堂","province":"東京都","city":"調布市","address":"東京都調布市深大寺南町5丁目9","lat":35.66653636,"lon":139.55753733},{"name":"しばさき彩こども食堂","province":"東京都","city":"調布市","address":"東京都調布市柴崎1丁目64-9","lat":35.6572738,"lon":139.56494541},{"name":"さくら子育てステーション","province":"東京都","city":"調布市","address":"東京都調布市八雲台1丁目22-1","lat":35.65435444,"lon":139.55306875},{"name":"かしわの食堂（まい・夢）","province":"東京都","city":"調布市","address":"東京都調布市佐須町2丁目18-1","lat":35.65938997,"lon":139.55534612},{"name":"深大寺カフェ子ども食堂","province":"東京都","city":"調布市","address":"東京都調布市深大寺元町1丁目11-1","lat":35.66248107,"lon":139.54792163},{"name":"そらなかBASE","province":"東京都","city":"調布市","address":"東京都調布市深大寺元町1丁目11-1","lat":35.66248107,"lon":139.54792163},{"name":"まごじば","province":"東京都","city":"調布市","address":"東京都調布市国領町1丁目7-1","lat":35.65279632,"lon":139.55237724},{"name":"こくりょう子ども食堂わいわい","province":"東京都","city":"調布市","address":"東京都調布市国領町3丁目8-15","lat":35.64856666,"lon":139.56058525},{"name":"二小地区もりあげ隊","province":"東京都","city":"調布市","address":"東京都調布市国領町5丁目76-3","lat":35.64864714,"lon":139.55144724},{"name":"ウナパウザ","province":"東京都","city":"調布市","address":"東京都調布市染地3丁目8-26","lat":35.63719661,"lon":139.55749791},{"name":"みさとや子ども食堂","province":"東京都","city":"調布市","address":"東京都調布市布田2丁目2-6","lat":35.65352939,"lon":139.54781918},{"name":"ちょうふ子ども食堂","province":"東京都","city":"調布市","address":"東京都調布市布田2丁目5-4","lat":35.65335444,"lon":139.54889689},{"name":"ハッピーこども食堂","province":"東京都","city":"調布市","address":"東京都調布市布田5丁目32-3","lat":35.64607548,"lon":139.54485383},{"name":"電気通信大学こども食堂","province":"東京都","city":"調布市","address":"東京都調布市調布ケ丘1丁目5-1","lat":35.65564303,"lon":139.54430838},{"name":"こども食堂かくしょうじ","province":"東京都","city":"調布市","address":"東京都調布市富士見町1丁目35-5","lat":35.66023412,"lon":139.53743394},{"name":"富士見あおぞら子ども食堂","province":"東京都","city":"調布市","address":"東京都調布市富士見町2丁目13-5","lat":35.65921758,"lon":139.54185572},{"name":"風のテーブル","province":"東京都","city":"調布市","address":"東京都調布市上石原1丁目36-7","lat":35.65909816,"lon":139.53207068},{"name":"子ども食堂かみいしわらたんぽぽ","province":"東京都","city":"調布市","address":"東京都調布市上石原3丁目21-6","lat":35.65290458,"lon":139.52214705},{"name":"（有）和田葬儀社","province":"東京都","city":"調布市","address":"東京都調布市下石原1丁目60-2","lat":35.65478214,"lon":139.53833695},{"name":"（株）メモリード","province":"東京都","city":"調布市","address":"東京都調布市菊野台1丁目11-1","lat":35.65463524,"lon":139.56509551},{"name":"SOGIサポートセンターLinMCGroup株式会社","province":"東京都","city":"調布市","address":"東京都調布市多摩川2丁目3-12","lat":35.64803332,"lon":139.52358352},{"name":"㈲和田葬儀社","province":"東京都","city":"調布市","address":"東京都調布市下石原1丁目60-2","lat":35.65478214,"lon":139.53833695},{"name":"㈱メモリード(ﾒﾓﾘｰﾄﾞﾎｰﾙ)","province":"東京都","city":"調布市","address":"東京都調布市菊野台1丁目10-2","lat":35.65449637,"lon":139.5649622},{"name":"㈱公益社","province":"東京都","city":"調布市","address":"東京都調布市仙川町3丁目1-3","lat":35.66295407,"lon":139.58419625},{"name":"京王フェアウェルサポート㈱（京王メモリアル）","province":"東京都","city":"調布市","address":"東京都調布市布田2丁目34-6","lat":35.65131595,"lon":139.54681677},{"name":"緑ヶ丘こどもフリースペースごりら","province":"東京都","city":"調布市","address":"東京都調布市緑ケ丘2丁目18-49","lat":35.66934778,"lon":139.58393216},{"name":"みんな食堂「仙川スープ」","province":"東京都","city":"調布市","address":"東京都調布市仙川町1丁目19-10","lat":35.66190703,"lon":139.58617112},{"name":"坂の上のばあちゃん家","province":"東京都","city":"調布市","address":"東京都調布市入間町3丁目22-5","lat":35.64650615,"lon":139.58803264},{"name":"子ども食堂深大寺東町","province":"東京都","city":"調布市","address":"東京都調布市深大寺東町6丁目26-15","lat":35.67562424,"lon":139.5587508},{"name":"ハナこども食堂","province":"東京都","city":"調布市","address":"東京都調布市深大寺東町7丁目23-2","lat":35.67628527,"lon":139.55891188},{"name":"絵堂なかよし子ども食堂","province":"東京都","city":"調布市","address":"東京都調布市深大寺南町5丁目9","lat":35.66653636,"lon":139.55753733},{"name":"しばさき彩こども食堂","province":"東京都","city":"調布市","address":"東京都調布市柴崎1丁目64-9","lat":35.6572738,"lon":139.56494541},{"name":"さくら子育てステーション","province":"東京都","city":"調布市","address":"東京都調布市八雲台1丁目22-1","lat":35.65435444,"lon":139.55306875},{"name":"かしわの食堂（まい・夢）","province":"東京都","city":"調布市","address":"東京都調布市佐須町2丁目18-1","lat":35.65938997,"lon":139.55534612},{"name":"深大寺カフェ子ども食堂","province":"東京都","city":"調布市","address":"東京都調布市深大寺元町1丁目11-1","lat":35.66248107,"lon":139.54792163},{"name":"そらなかBASE","province":"東京都","city":"調布市","address":"東京都調布市深大寺元町1丁目11-1","lat":35.66248107,"lon":139.54792163},{"name":"まごじば","province":"東京都","city":"調布市","address":"東京都調布市国領町1丁目7-1","lat":35.65279632,"lon":139.55237724},{"name":"こくりょう子ども食堂わいわい","province":"東京都","city":"調布市","address":"東京都調布市国領町3丁目8-15","lat":35.64856666,"lon":139.56058525},{"name":"二小地区もりあげ隊","province":"東京都","city":"調布市","address":"東京都調布市国領町5丁目76-3","lat":35.64864714,"lon":139.55144724},{"name":"ウナパウザ","province":"東京都","city":"調布市","address":"東京都調布市染地3丁目8-26","lat":35.63719661,"lon":139.55749791},{"name":"みさとや子ども食堂","province":"東京都","city":"調布市","address":"東京都調布市布田2丁目2-6","lat":35.65352939,"lon":139.54781918},{"name":"ちょうふ子ども食堂","province":"東京都","city":"調布市","address":"東京都調布市布田2丁目5-4","lat":35.65335444,"lon":139.54889689},{"name":"ハッピーこども食堂","province":"東京都","city":"調布市","address":"東京都調布市布田5丁目32-3","lat":35.64607548,"lon":139.54485383},{"name":"電気通信大学こども食堂","province":"東京都","city":"調布市","address":"東京都調布市調布ケ丘1丁目5-1","lat":35.65564303,"lon":139.54430838},{"name":"こども食堂かくしょうじ","province":"東京都","city":"調布市","address":"東京都調布市富士見町1丁目35-5","lat":35.66023412,"lon":139.53743394},{"name":"富士見あおぞら子ども食堂","province":"東京都","city":"調布市","address":"東京都調布市富士見町2丁目13-5","lat":35.65921758,"lon":139.54185572},{"name":"風のテーブル","province":"東京都","city":"調布市","address":"東京都調布市上石原1丁目36-7","lat":35.65909816,"lon":139.53207068},{"name":"子ども食堂かみいしわらたんぽぽ","province":"東京都","city":"調布市","address":"東京都調布市上石原3丁目21-6","lat":35.65290458,"lon":139.52214705},{"name":"（有）和田葬儀社","province":"東京都","city":"調布市","address":"東京都調布市下石原1丁目60-2","lat":35.65478214,"lon":139.53833695},{"name":"（株）メモリード","province":"東京都","city":"調布市","address":"東京都調布市菊野台1丁目11-1","lat":35.65463524,"lon":139.56509551},{"name":"SOGIサポートセンターLinMCGroup株式会社","province":"東京都","city":"調布市","address":"東京都調布市多摩川2丁目3-12","lat":35.64803332,"lon":139.52358352},{"name":"㈲和田葬儀社","province":"東京都","city":"調布市","address":"東京都調布市下石原1丁目60-2","lat":35.65478214,"lon":139.53833695},{"name":"㈱メモリード(ﾒﾓﾘｰﾄﾞﾎｰﾙ)","province":"東京都","city":"調布市","address":"東京都調布市菊野台1丁目10-2","lat":35.65449637,"lon":139.5649622},{"name":"㈱公益社","province":"東京都","city":"調布市","address":"東京都調布市仙川町3丁目1-3","lat":35.66295407,"lon":139.58419625},{"name":"京王フェアウェルサポート㈱（京王メモリアル）","province":"東京都","city":"調布市","address":"東京都調布市布田2丁目34-6","lat":35.65131595,"lon":139.54681677},{"name":"緑ヶ丘こどもフリースペースごりら","province":"東京都","city":"調布市","address":"東京都調布市緑ケ丘2丁目18-49","lat":35.66934778,"lon":139.58393216},{"name":"みんな食堂「仙川スープ」","province":"東京都","city":"調布市","address":"東京都調布市仙川町1丁目19-10","lat":35.66190703,"lon":139.58617112},{"name":"坂の上のばあちゃん家","province":"東京都","city":"調布市","address":"東京都調布市入間町3丁目22-5","lat":35.64650615,"lon":139.58803264},{"name":"子ども食堂深大寺東町","province":"東京都","city":"調布市","address":"東京都調布市深大寺東町6丁目26-15","lat":35.67562424,"lon":139.5587508},{"name":"ハナこども食堂","province":"東京都","city":"調布市","address":"東京都調布市深大寺東町7丁目23-2","lat":35.67628527,"lon":139.55891188},{"name":"絵堂なかよし子ども食堂","province":"東京都","city":"調布市","address":"東京都調布市深大寺南町5丁目9","lat":35.66653636,"lon":139.55753733},{"name":"しばさき彩こども食堂","province":"東京都","city":"調布市","address":"東京都調布市柴崎1丁目64-9","lat":35.6572738,"lon":139.56494541},{"name":"さくら子育てステーション","province":"東京都","city":"調布市","address":"東京都調布市八雲台1丁目22-1","lat":35.65435444,"lon":139.55306875},{"name":"かしわの食堂（まい・夢）","province":"東京都","city":"調布市","address":"東京都調布市佐須町2丁目18-1","lat":35.65938997,"lon":139.55534612},{"name":"深大寺カフェ子ども食堂","province":"東京都","city":"調布市","address":"東京都調布市深大寺元町1丁目11-1","lat":35.66248107,"lon":139.54792163},{"name":"そらなかBASE","province":"東京都","city":"調布市","address":"東京都調布市深大寺元町1丁目11-1","lat":35.66248107,"lon":139.54792163},{"name":"まごじば","province":"東京都","city":"調布市","address":"東京都調布市国領町1丁目7-1","lat":35.65279632,"lon":139.55237724},{"name":"こくりょう子ども食堂わいわい","province":"東京都","city":"調布市","address":"東京都調布市国領町3丁目8-15","lat":35.64856666,"lon":139.56058525},{"name":"二小地区もりあげ隊","province":"東京都","city":"調布市","address":"東京都調布市国領町5丁目76-3","lat":35.64864714,"lon":139.55144724},{"name":"ウナパウザ","province":"東京都","city":"調布市","address":"東京都調布市染地3丁目8-26","lat":35.63719661,"lon":139.55749791},{"name":"みさとや子ども食堂","province":"東京都","city":"調布市","address":"東京都調布市布田2丁目2-6","lat":35.65352939,"lon":139.54781918},{"name":"ちょうふ子ども食堂","province":"東京都","city":"調布市","address":"東京都調布市布田2丁目5-4","lat":35.65335444,"lon":139.54889689},{"name":"ハッピーこども食堂","province":"東京都","city":"調布市","address":"東京都調布市布田5丁目32-3","lat":35.64607548,"lon":139.54485383},{"name":"電気通信大学こども食堂","province":"東京都","city":"調布市","address":"東京都調布市調布ケ丘1丁目5-1","lat":35.65564303,"lon":139.54430838},{"name":"こども食堂かくしょうじ","province":"東京都","city":"調布市","address":"東京都調布市富士見町1丁目35-5","lat":35.66023412,"lon":139.53743394},{"name":"富士見あおぞら子ども食堂","province":"東京都","city":"調布市","address":"東京都調布市富士見町2丁目13-5","lat":35.65921758,"lon":139.54185572},{"name":"風のテーブル","province":"東京都","city":"調布市","address":"東京都調布市上石原1丁目36-7","lat":35.65909816,"lon":139.53207068},{"name":"子ども食堂かみいしわらたんぽぽ","province":"東京都","city":"調布市","address":"東京都調布市上石原3丁目21-6","lat":35.65290458,"lon":139.52214705},{"name":"（有）和田葬儀社","province":"東京都","city":"調布市","address":"東京都調布市下石原1丁目60-2","lat":35.65478214,"lon":139.53833695},{"name":"（株）メモリード","province":"東京都","city":"調布市","address":"東京都調布市菊野台1丁目11-1","lat":35.65463524,"lon":139.56509551},{"name":"SOGIサポートセンターLinMCGroup株式会社","province":"東京都","city":"調布市","address":"東京都調布市多摩川2丁目3-12","lat":35.64803332,"lon":139.52358352},{"name":"㈲和田葬儀社","province":"東京都","city":"調布市","address":"東京都調布市下石原1丁目60-2","lat":35.65478214,"lon":139.53833695},{"name":"㈱メモリード(ﾒﾓﾘｰﾄﾞﾎｰﾙ)","province":"東京都","city":"調布市","address":"東京都調布市菊野台1丁目10-2","lat":35.65449637,"lon":139.5649622},{"name":"㈱公益社","province":"東京都","city":"調布市","address":"東京都調布市仙川町3丁目1-3","lat":35.66295407,"lon":139.58419625},{"name":"京王フェアウェルサポート㈱（京王メモリアル）","province":"東京都","city":"調布市","address":"東京都調布市布田2丁目34-6","lat":35.65131595,"lon":139.54681677},{"name":"緑ヶ丘こどもフリースペースごりら","province":"東京都","city":"調布市","address":"東京都調布市緑ケ丘2丁目18-49","lat":35.66934778,"lon":139.58393216},{"name":"みんな食堂「仙川スープ」","province":"東京都","city":"調布市","address":"東京都調布市仙川町1丁目19-10","lat":35.66190703,"lon":139.58617112},{"name":"坂の上のばあちゃん家","province":"東京都","city":"調布市","address":"東京都調布市入間町3丁目22-5","lat":35.64650615,"lon":139.58803264},{"name":"子ども食堂深大寺東町","province":"東京都","city":"調布市","address":"東京都調布市深大寺東町6丁目26-15","lat":35.67562424,"lon":139.5587508},{"name":"ハナこども食堂","province":"東京都","city":"調布市","address":"東京都調布市深大寺東町7丁目23-2","lat":35.67628527,"lon":139.55891188},{"name":"絵堂なかよし子ども食堂","province":"東京都","city":"調布市","address":"東京都調布市深大寺南町5丁目9","lat":35.66653636,"lon":139.55753733},{"name":"しばさき彩こども食堂","province":"東京都","city":"調布市","address":"東京都調布市柴崎1丁目64-9","lat":35.6572738,"lon":139.56494541},{"name":"さくら子育てステーション","province":"東京都","city":"調布市","address":"東京都調布市八雲台1丁目22-1","lat":35.65435444,"lon":139.55306875},{"name":"かしわの食堂（まい・夢）","province":"東京都","city":"調布市","address":"東京都調布市佐須町2丁目18-1","lat":35.65938997,"lon":139.55534612},{"name":"深大寺カフェ子ども食堂","province":"東京都","city":"調布市","address":"東京都調布市深大寺元町1丁目11-1","lat":35.66248107,"lon":139.54792163},{"name":"そらなかBASE","province":"東京都","city":"調布市","address":"東京都調布市深大寺元町1丁目11-1","lat":35.66248107,"lon":139.54792163},{"name":"まごじば","province":"東京都","city":"調布市","address":"東京都調布市国領町1丁目7-1","lat":35.65279632,"lon":139.55237724},{"name":"こくりょう子ども食堂わいわい","province":"東京都","city":"調布市","address":"東京都調布市国領町3丁目8-15","lat":35.64856666,"lon":139.56058525},{"name":"二小地区もりあげ隊","province":"東京都","city":"調布市","address":"東京都調布市国領町5丁目76-3","lat":35.64864714,"lon":139.55144724},{"name":"ウナパウザ","province":"東京都","city":"調布市","address":"東京都調布市染地3丁目8-26","lat":35.63719661,"lon":139.55749791},{"name":"みさとや子ども食堂","province":"東京都","city":"調布市","address":"東京都調布市布田2丁目2-6","lat":35.65352939,"lon":139.54781918},{"name":"ちょうふ子ども食堂","province":"東京都","city":"調布市","address":"東京都調布市布田2丁目5-4","lat":35.65335444,"lon":139.54889689},{"name":"ハッピーこども食堂","province":"東京都","city":"調布市","address":"東京都調布市布田5丁目32-3","lat":35.64607548,"lon":139.54485383},{"name":"電気通信大学こども食堂","province":"東京都","city":"調布市","address":"東京都調布市調布ケ丘1丁目5-1","lat":35.65564303,"lon":139.54430838},{"name":"こども食堂かくしょうじ","province":"東京都","city":"調布市","address":"東京都調布市富士見町1丁目35-5","lat":35.66023412,"lon":139.53743394},{"name":"富士見あおぞら子ども食堂","province":"東京都","city":"調布市","address":"東京都調布市富士見町2丁目13-5","lat":35.65921758,"lon":139.54185572},{"name":"風のテーブル","province":"東京都","city":"調布市","address":"東京都調布市上石原1丁目36-7","lat":35.65909816,"lon":139.53207068},{"name":"子ども食堂かみいしわらたんぽぽ","province":"東京都","city":"調布市","address":"東京都調布市上石原3丁目21-6","lat":35.65290458,"lon":139.52214705},{"name":"（有）和田葬儀社","province":"東京都","city":"調布市","address":"東京都調布市下石原1丁目60-2","lat":35.65478214,"lon":139.53833695},{"name":"（株）メモリード","province":"東京都","city":"調布市","address":"東京都調布市菊野台1丁目11-1","lat":35.65463524,"lon":139.56509551},{"name":"SOGIサポートセンターLinMCGroup株式会社","province":"東京都","city":"調布市","address":"東京都調布市多摩川2丁目3-12","lat":35.64803332,"lon":139.52358352},{"name":"㈲和田葬儀社","province":"東京都","city":"調布市","address":"東京都調布市下石原1丁目60-2","lat":35.65478214,"lon":139.53833695},{"name":"㈱メモリード(ﾒﾓﾘｰﾄﾞﾎｰﾙ)","province":"東京都","city":"調布市","address":"東京都調布市菊野台1丁目10-2","lat":35.65449637,"lon":139.5649622},{"name":"㈱公益社","province":"東京都","city":"調布市","address":"東京都調布市仙川町3丁目1-3","lat":35.66295407,"lon":139.58419625},{"name":"京王フェアウェルサポート㈱（京王メモリアル）","province":"東京都","city":"調布市","address":"東京都調布市布田2丁目34-6","lat":35.65131595,"lon":139.54681677},{"name":"緑ヶ丘こどもフリースペースごりら","province":"東京都","city":"調布市","address":"東京都調布市緑ケ丘2丁目18-49","lat":35.66934778,"lon":139.58393216},{"name":"みんな食堂「仙川スープ」","province":"東京都","city":"調布市","address":"東京都調布市仙川町1丁目19-10","lat":35.66190703,"lon":139.58617112},{"name":"坂の上のばあちゃん家","province":"東京都","city":"調布市","address":"東京都調布市入間町3丁目22-5","lat":35.64650615,"lon":139.58803264},{"name":"子ども食堂深大寺東町","province":"東京都","city":"調布市","address":"東京都調布市深大寺東町6丁目26-15","lat":35.67562424,"lon":139.5587508},{"name":"ハナこども食堂","province":"東京都","city":"調布市","address":"東京都調布市深大寺東町7丁目23-2","lat":35.67628527,"lon":139.55891188},{"name":"絵堂なかよし子ども食堂","province":"東京都","city":"調布市","address":"東京都調布市深大寺南町5丁目9","lat":35.66653636,"lon":139.55753733},{"name":"しばさき彩こども食堂","province":"東京都","city":"調布市","address":"東京都調布市柴崎1丁目64-9","lat":35.6572738,"lon":139.56494541},{"name":"さくら子育てステーション","province":"東京都","city":"調布市","address":"東京都調布市八雲台1丁目22-1","lat":35.65435444,"lon":139.55306875},{"name":"かしわの食堂（まい・夢）","province":"東京都","city":"調布市","address":"東京都調布市佐須町2丁目18-1","lat":35.65938997,"lon":139.55534612},{"name":"深大寺カフェ子ども食堂","province":"東京都","city":"調布市","address":"東京都調布市深大寺元町1丁目11-1","lat":35.66248107,"lon":139.54792163},{"name":"そらなかBASE","province":"東京都","city":"調布市","address":"東京都調布市深大寺元町1丁目11-1","lat":35.66248107,"lon":139.54792163},{"name":"まごじば","province":"東京都","city":"調布市","address":"東京都調布市国領町1丁目7-1","lat":35.65279632,"lon":139.55237724},{"name":"こくりょう子ども食堂わいわい","province":"東京都","city":"調布市","address":"東京都調布市国領町3丁目8-15","lat":35.64856666,"lon":139.56058525},{"name":"二小地区もりあげ隊","province":"東京都","city":"調布市","address":"東京都調布市国領町5丁目76-3","lat":35.64864714,"lon":139.55144724},{"name":"ウナパウザ","province":"東京都","city":"調布市","address":"東京都調布市染地3丁目8-26","lat":35.63719661,"lon":139.55749791},{"name":"みさとや子ども食堂","province":"東京都","city":"調布市","address":"東京都調布市布田2丁目2-6","lat":35.65352939,"lon":139.54781918},{"name":"ちょうふ子ども食堂","province":"東京都","city":"調布市","address":"東京都調布市布田2丁目5-4","lat":35.65335444,"lon":139.54889689},{"name":"ハッピーこども食堂","province":"東京都","city":"調布市","address":"東京都調布市布田5丁目32-3","lat":35.64607548,"lon":139.54485383},{"name":"電気通信大学こども食堂","province":"東京都","city":"調布市","address":"東京都調布市調布ケ丘1丁目5-1","lat":35.65564303,"lon":139.54430838},{"name":"こども食堂かくしょうじ","province":"東京都","city":"調布市","address":"東京都調布市富士見町1丁目35-5","lat":35.66023412,"lon":139.53743394},{"name":"富士見あおぞら子ども食堂","province":"東京都","city":"調布市","address":"東京都調布市富士見町2丁目13-5","lat":35.65921758,"lon":139.54185572},{"name":"風のテーブル","province":"東京都","city":"調布市","address":"東京都調布市上石原1丁目36-7","lat":35.65909816,"lon":139.53207068},{"name":"子ども食堂かみいしわらたんぽぽ","province":"東京都","city":"調布市","address":"東京都調布市上石原3丁目21-6","lat":35.65290458,"lon":139.52214705},{"name":"（有）和田葬儀社","province":"東京都","city":"調布市","address":"東京都調布市下石原1丁目60-2","lat":35.65478214,"lon":139.53833695},{"name":"（株）メモリード","province":"東京都","city":"調布市","address":"東京都調布市菊野台1丁目11-1","lat":35.65463524,"lon":139.56509551},{"name":"SOGIサポートセンターLinMCGroup株式会社","province":"東京都","city":"調布市","address":"東京都調布市多摩川2丁目3-12","lat":35.64803332,"lon":139.52358352},{"name":"㈲和田葬儀社","province":"東京都","city":"調布市","address":"東京都調布市下石原1丁目60-2","lat":35.65478214,"lon":139.53833695},{"name":"㈱メモリード(ﾒﾓﾘｰﾄﾞﾎｰﾙ)","province":"東京都","city":"調布市","address":"東京都調布市菊野台1丁目10-2","lat":35.65449637,"lon":139.5649622},{"name":"㈱公益社","province":"東京都","city":"調布市","address":"東京都調布市仙川町3丁目1-3","lat":35.66295407,"lon":139.58419625},{"name":"京王フェアウェルサポート㈱（京王メモリアル）","province":"東京都","city":"調布市","address":"東京都調布市布田2丁目34-6","lat":35.65131595,"lon":139.54681677},{"name":"緑ヶ丘こどもフリースペースごりら","province":"東京都","city":"調布市","address":"東京都調布市緑ケ丘2丁目18-49","lat":35.66934778,"lon":139.58393216},{"name":"みんな食堂「仙川スープ」","province":"東京都","city":"調布市","address":"東京都調布市仙川町1丁目19-10","lat":35.66190703,"lon":139.58617112},{"name":"坂の上のばあちゃん家","province":"東京都","city":"調布市","address":"東京都調布市入間町3丁目22-5","lat":35.64650615,"lon":139.58803264},{"name":"子ども食堂深大寺東町","province":"東京都","city":"調布市","address":"東京都調布市深大寺東町6丁目26-15","lat":35.67562424,"lon":139.5587508},{"name":"ハナこども食堂","province":"東京都","city":"調布市","address":"東京都調布市深大寺東町7丁目23-2","lat":35.67628527,"lon":139.55891188},{"name":"絵堂なかよし子ども食堂","province":"東京都","city":"調布市","address":"東京都調布市深大寺南町5丁目9","lat":35.66653636,"lon":139.55753733},{"name":"しばさき彩こども食堂","province":"東京都","city":"調布市","address":"東京都調布市柴崎1丁目64-9","lat":35.6572738,"lon":139.56494541},{"name":"さくら子育てステーション","province":"東京都","city":"調布市","address":"東京都調布市八雲台1丁目22-1","lat":35.65435444,"lon":139.55306875},{"name":"かしわの食堂（まい・夢）","province":"東京都","city":"調布市","address":"東京都調布市佐須町2丁目18-1","lat":35.65938997,"lon":139.55534612},{"name":"深大寺カフェ子ども食堂","province":"東京都","city":"調布市","address":"東京都調布市深大寺元町1丁目11-1","lat":35.66248107,"lon":139.54792163},{"name":"そらなかBASE","province":"東京都","city":"調布市","address":"東京都調布市深大寺元町1丁目11-1","lat":35.66248107,"lon":139.54792163},{"name":"まごじば","province":"東京都","city":"調布市","address":"東京都調布市国領町1丁目7-1","lat":35.65279632,"lon":139.55237724},{"name":"こくりょう子ども食堂わいわい","province":"東京都","city":"調布市","address":"東京都調布市国領町3丁目8-15","lat":35.64856666,"lon":139.56058525},{"name":"二小地区もりあげ隊","province":"東京都","city":"調布市","address":"東京都調布市国領町5丁目76-3","lat":35.64864714,"lon":139.55144724},{"name":"ウナパウザ","province":"東京都","city":"調布市","address":"東京都調布市染地3丁目8-26","lat":35.63719661,"lon":139.55749791},{"name":"みさとや子ども食堂","province":"東京都","city":"調布市","address":"東京都調布市布田2丁目2-6","lat":35.65352939,"lon":139.54781918},{"name":"ちょうふ子ども食堂","province":"東京都","city":"調布市","address":"東京都調布市布田2丁目5-4","lat":35.65335444,"lon":139.54889689},{"name":"ハッピーこども食堂","province":"東京都","city":"調布市","address":"東京都調布市布田5丁目32-3","lat":35.64607548,"lon":139.54485383},{"name":"電気通信大学こども食堂","province":"東京都","city":"調布市","address":"東京都調布市調布ケ丘1丁目5-1","lat":35.65564303,"lon":139.54430838},{"name":"こども食堂かくしょうじ","province":"東京都","city":"調布市","address":"東京都調布市富士見町1丁目35-5","lat":35.66023412,"lon":139.53743394},{"name":"富士見あおぞら子ども食堂","province":"東京都","city":"調布市","address":"東京都調布市富士見町2丁目13-5","lat":35.65921758,"lon":139.54185572},{"name":"風のテーブル","province":"東京都","city":"調布市","address":"東京都調布市上石原1丁目36-7","lat":35.65909816,"lon":139.53207068},{"name":"子ども食堂かみいしわらたんぽぽ","province":"東京都","city":"調布市","address":"東京都調布市上石原3丁目21-6","lat":35.65290458,"lon":139.52214705},{"name":"（有）和田葬儀社","province":"東京都","city":"調布市","address":"東京都調布市下石原1丁目60-2","lat":35.65478214,"lon":139.53833695},{"name":"（株）メモリード","province":"東京都","city":"調布市","address":"東京都調布市菊野台1丁目11-1","lat":35.65463524,"lon":139.56509551},{"name":"SOGIサポートセンターLinMCGroup株式会社","province":"東京都","city":"調布市","address":"東京都調布市多摩川2丁目3-12","lat":35.64803332,"lon":139.52358352},{"name":"㈲和田葬儀社","province":"東京都","city":"調布市","address":"東京都調布市下石原1丁目60-2","lat":35.65478214,"lon":139.53833695},{"name":"㈱メモリード(ﾒﾓﾘｰﾄﾞﾎｰﾙ)","province":"東京都","city":"調布市","address":"東京都調布市菊野台1丁目10-2","lat":35.65449637,"lon":139.5649622},{"name":"㈱公益社","province":"東京都","city":"調布市","address":"東京都調布市仙川町3丁目1-3","lat":35.66295407,"lon":139.58419625},{"name":"京王フェアウェルサポート㈱（京王メモリアル）","province":"東京都","city":"調布市","address":"東京都調布市布田2丁目34-6","lat":35.65131595,"lon":139.54681677},{"name":"緑ヶ丘こどもフリースペースごりら","province":"東京都","city":"調布市","address":"東京都調布市緑ケ丘2丁目18-49","lat":35.66934778,"lon":139.58393216},{"name":"みんな食堂「仙川スープ」","province":"東京都","city":"調布市","address":"東京都調布市仙川町1丁目19-10","lat":35.66190703,"lon":139.58617112},{"name":"坂の上のばあちゃん家","province":"東京都","city":"調布市","address":"東京都調布市入間町3丁目22-5","lat":35.64650615,"lon":139.58803264},{"name":"子ども食堂深大寺東町","province":"東京都","city":"調布市","address":"東京都調布市深大寺東町6丁目26-15","lat":35.67562424,"lon":139.5587508},{"name":"ハナこども食堂","province":"東京都","city":"調布市","address":"東京都調布市深大寺東町7丁目23-2","lat":35.67628527,"lon":139.55891188},{"name":"絵堂なかよし子ども食堂","province":"東京都","city":"調布市","address":"東京都調布市深大寺南町5丁目9","lat":35.66653636,"lon":139.55753733},{"name":"しばさき彩こども食堂","province":"東京都","city":"調布市","address":"東京都調布市柴崎1丁目64-9","lat":35.6572738,"lon":139.56494541},{"name":"さくら子育てステーション","province":"東京都","city":"調布市","address":"東京都調布市八雲台1丁目22-1","lat":35.65435444,"lon":139.55306875},{"name":"かしわの食堂（まい・夢）","province":"東京都","city":"調布市","address":"東京都調布市佐須町2丁目18-1","lat":35.65938997,"lon":139.55534612},{"name":"深大寺カフェ子ども食堂","province":"東京都","city":"調布市","address":"東京都調布市深大寺元町1丁目11-1","lat":35.66248107,"lon":139.54792163},{"name":"そらなかBASE","province":"東京都","city":"調布市","address":"東京都調布市深大寺元町1丁目11-1","lat":35.66248107,"lon":139.54792163},{"name":"まごじば","province":"東京都","city":"調布市","address":"東京都調布市国領町1丁目7-1","lat":35.65279632,"lon":139.55237724},{"name":"こくりょう子ども食堂わいわい","province":"東京都","city":"調布市","address":"東京都調布市国領町3丁目8-15","lat":35.64856666,"lon":139.56058525},{"name":"二小地区もりあげ隊","province":"東京都","city":"調布市","address":"東京都調布市国領町5丁目76-3","lat":35.64864714,"lon":139.55144724},{"name":"ウナパウザ","province":"東京都","city":"調布市","address":"東京都調布市染地3丁目8-26","lat":35.63719661,"lon":139.55749791},{"name":"みさとや子ども食堂","province":"東京都","city":"調布市","address":"東京都調布市布田2丁目2-6","lat":35.65352939,"lon":139.54781918},{"name":"ちょうふ子ども食堂","province":"東京都","city":"調布市","address":"東京都調布市布田2丁目5-4","lat":35.65335444,"lon":139.54889689},{"name":"ハッピーこども食堂","province":"東京都","city":"調布市","address":"東京都調布市布田5丁目32-3","lat":35.64607548,"lon":139.54485383},{"name":"電気通信大学こども食堂","province":"東京都","city":"調布市","address":"東京都調布市調布ケ丘1丁目5-1","lat":35.65564303,"lon":139.54430838},{"name":"こども食堂かくしょうじ","province":"東京都","city":"調布市","address":"東京都調布市富士見町1丁目35-5","lat":35.66023412,"lon":139.53743394},{"name":"富士見あおぞら子ども食堂","province":"東京都","city":"調布市","address":"東京都調布市富士見町2丁目13-5","lat":35.65921758,"lon":139.54185572},{"name":"風のテーブル","province":"東京都","city":"調布市","address":"東京都調布市上石原1丁目36-7","lat":35.65909816,"lon":139.53207068},{"name":"子ども食堂かみいしわらたんぽぽ","province":"東京都","city":"調布市","address":"東京都調布市上石原3丁目21-6","lat":35.65290458,"lon":139.52214705},{"name":"（有）和田葬儀社","province":"東京都","city":"調布市","address":"東京都調布市下石原1丁目60-2","lat":35.65478214,"lon":139.53833695},{"name":"（株）メモリード","province":"東京都","city":"調布市","address":"東京都調布市菊野台1丁目11-1","lat":35.65463524,"lon":139.56509551},{"name":"SOGIサポートセンターLinMCGroup株式会社","province":"東京都","city":"調布市","address":"東京都調布市多摩川2丁目3-12","lat":35.64803332,"lon":139.52358352},{"name":"㈲和田葬儀社","province":"東京都","city":"調布市","address":"東京都調布市下石原1丁目60-2","lat":35.65478214,"lon":139.53833695},{"name":"㈱メモリード(ﾒﾓﾘｰﾄﾞﾎｰﾙ)","province":"東京都","city":"調布市","address":"東京都調布市菊野台1丁目10-2","lat":35.65449637,"lon":139.5649622},{"name":"㈱公益社","province":"東京都","city":"調布市","address":"東京都調布市仙川町3丁目1-3","lat":35.66295407,"lon":139.58419625},{"name":"京王フェアウェルサポート㈱（京王メモリアル）","province":"東京都","city":"調布市","address":"東京都調布市布田2丁目34-6","lat":35.65131595,"lon":139.54681677},{"name":"緑ヶ丘こどもフリースペースごりら","province":"東京都","city":"調布市","address":"東京都調布市緑ケ丘2丁目18-49","lat":35.66934778,"lon":139.58393216},{"name":"みんな食堂「仙川スープ」","province":"東京都","city":"調布市","address":"東京都調布市仙川町1丁目19-10","lat":35.66190703,"lon":139.58617112},{"name":"坂の上のばあちゃん家","province":"東京都","city":"調布市","address":"東京都調布市入間町3丁目22-5","lat":35.64650615,"lon":139.58803264},{"name":"子ども食堂深大寺東町","province":"東京都","city":"調布市","address":"東京都調布市深大寺東町6丁目26-15","lat":35.67562424,"lon":139.5587508},{"name":"ハナこども食堂","province":"東京都","city":"調布市","address":"東京都調布市深大寺東町7丁目23-2","lat":35.67628527,"lon":139.55891188},{"name":"絵堂なかよし子ども食堂","province":"東京都","city":"調布市","address":"東京都調布市深大寺南町5丁目9","lat":35.66653636,"lon":139.55753733},{"name":"しばさき彩こども食堂","province":"東京都","city":"調布市","address":"東京都調布市柴崎1丁目64-9","lat":35.6572738,"lon":139.56494541},{"name":"さくら子育てステーション","province":"東京都","city":"調布市","address":"東京都調布市八雲台1丁目22-1","lat":35.65435444,"lon":139.55306875},{"name":"かしわの食堂（まい・夢）","province":"東京都","city":"調布市","address":"東京都調布市佐須町2丁目18-1","lat":35.65938997,"lon":139.55534612},{"name":"深大寺カフェ子ども食堂","province":"東京都","city":"調布市","address":"東京都調布市深大寺元町1丁目11-1","lat":35.66248107,"lon":139.54792163},{"name":"そらなかBASE","province":"東京都","city":"調布市","address":"東京都調布市深大寺元町1丁目11-1","lat":35.66248107,"lon":139.54792163},{"name":"まごじば","province":"東京都","city":"調布市","address":"東京都調布市国領町1丁目7-1","lat":35.65279632,"lon":139.55237724},{"name":"こくりょう子ども食堂わいわい","province":"東京都","city":"調布市","address":"東京都調布市国領町3丁目8-15","lat":35.64856666,"lon":139.56058525},{"name":"二小地区もりあげ隊","province":"東京都","city":"調布市","address":"東京都調布市国領町5丁目76-3","lat":35.64864714,"lon":139.55144724},{"name":"ウナパウザ","province":"東京都","city":"調布市","address":"東京都調布市染地3丁目8-26","lat":35.63719661,"lon":139.55749791},{"name":"みさとや子ども食堂","province":"東京都","city":"調布市","address":"東京都調布市布田2丁目2-6","lat":35.65352939,"lon":139.54781918},{"name":"ちょうふ子ども食堂","province":"東京都","city":"調布市","address":"東京都調布市布田2丁目5-4","lat":35.65335444,"lon":139.54889689},{"name":"ハッピーこども食堂","province":"東京都","city":"調布市","address":"東京都調布市布田5丁目32-3","lat":35.64607548,"lon":139.54485383},{"name":"電気通信大学こども食堂","province":"東京都","city":"調布市","address":"東京都調布市調布ケ丘1丁目5-1","lat":35.65564303,"lon":139.54430838},{"name":"こども食堂かくしょうじ","province":"東京都","city":"調布市","address":"東京都調布市富士見町1丁目35-5","lat":35.66023412,"lon":139.53743394},{"name":"富士見あおぞら子ども食堂","province":"東京都","city":"調布市","address":"東京都調布市富士見町2丁目13-5","lat":35.65921758,"lon":139.54185572},{"name":"風のテーブル","province":"東京都","city":"調布市","address":"東京都調布市上石原1丁目36-7","lat":35.65909816,"lon":139.53207068},{"name":"子ども食堂かみいしわらたんぽぽ","province":"東京都","city":"調布市","address":"東京都調布市上石原3丁目21-6","lat":35.65290458,"lon":139.52214705},{"name":"（有）和田葬儀社","province":"東京都","city":"調布市","address":"東京都調布市下石原1丁目60-2","lat":35.65478214,"lon":139.53833695},{"name":"（株）メモリード","province":"東京都","city":"調布市","address":"東京都調布市菊野台1丁目11-1","lat":35.65463524,"lon":139.56509551},{"name":"SOGIサポートセンターLinMCGroup株式会社","province":"東京都","city":"調布市","address":"東京都調布市多摩川2丁目3-12","lat":35.64803332,"lon":139.52358352},{"name":"㈲和田葬儀社","province":"東京都","city":"調布市","address":"東京都調布市下石原1丁目60-2","lat":35.65478214,"lon":139.53833695},{"name":"㈱メモリード(ﾒﾓﾘｰﾄﾞﾎｰﾙ)","province":"東京都","city":"調布市","address":"東京都調布市菊野台1丁目10-2","lat":35.65449637,"lon":139.5649622},{"name":"㈱公益社","province":"東京都","city":"調布市","address":"東京都調布市仙川町3丁目1-3","lat":35.66295407,"lon":139.58419625},{"name":"京王フェアウェルサポート㈱（京王メモリアル）","province":"東京都","city":"調布市","address":"東京都調布市布田2丁目34-6","lat":35.65131595,"lon":139.54681677},{"name":"緑ヶ丘こどもフリースペースごりら","province":"東京都","city":"調布市","address":"東京都調布市緑ケ丘2丁目18-49","lat":35.66934778,"lon":139.58393216},{"name":"みんな食堂「仙川スープ」","province":"東京都","city":"調布市","address":"東京都調布市仙川町1丁目19-10","lat":35.66190703,"lon":139.58617112},{"name":"坂の上のばあちゃん家","province":"東京都","city":"調布市","address":"東京都調布市入間町3丁目22-5","lat":35.64650615,"lon":139.58803264},{"name":"子ども食堂深大寺東町","province":"東京都","city":"調布市","address":"東京都調布市深大寺東町6丁目26-15","lat":35.67562424,"lon":139.5587508},{"name":"ハナこども食堂","province":"東京都","city":"調布市","address":"東京都調布市深大寺東町7丁目23-2","lat":35.67628527,"lon":139.55891188},{"name":"絵堂なかよし子ども食堂","province":"東京都","city":"調布市","address":"東京都調布市深大寺南町5丁目9","lat":35.66653636,"lon":139.55753733},{"name":"しばさき彩こども食堂","province":"東京都","city":"調布市","address":"東京都調布市柴崎1丁目64-9","lat":35.6572738,"lon":139.56494541},{"name":"さくら子育てステーション","province":"東京都","city":"調布市","address":"東京都調布市八雲台1丁目22-1","lat":35.65435444,"lon":139.55306875},{"name":"かしわの食堂（まい・夢）","province":"東京都","city":"調布市","address":"東京都調布市佐須町2丁目18-1","lat":35.65938997,"lon":139.55534612},{"name":"深大寺カフェ子ども食堂","province":"東京都","city":"調布市","address":"東京都調布市深大寺元町1丁目11-1","lat":35.66248107,"lon":139.54792163},{"name":"そらなかBASE","province":"東京都","city":"調布市","address":"東京都調布市深大寺元町1丁目11-1","lat":35.66248107,"lon":139.54792163},{"name":"まごじば","province":"東京都","city":"調布市","address":"東京都調布市国領町1丁目7-1","lat":35.65279632,"lon":139.55237724},{"name":"こくりょう子ども食堂わいわい","province":"東京都","city":"調布市","address":"東京都調布市国領町3丁目8-15","lat":35.64856666,"lon":139.56058525},{"name":"二小地区もりあげ隊","province":"東京都","city":"調布市","address":"東京都調布市国領町5丁目76-3","lat":35.64864714,"lon":139.55144724},{"name":"ウナパウザ","province":"東京都","city":"調布市","address":"東京都調布市染地3丁目8-26","lat":35.63719661,"lon":139.55749791},{"name":"みさとや子ども食堂","province":"東京都","city":"調布市","address":"東京都調布市布田2丁目2-6","lat":35.65352939,"lon":139.54781918},{"name":"ちょうふ子ども食堂","province":"東京都","city":"調布市","address":"東京都調布市布田2丁目5-4","lat":35.65335444,"lon":139.54889689},{"name":"ハッピーこども食堂","province":"東京都","city":"調布市","address":"東京都調布市布田5丁目32-3","lat":35.64607548,"lon":139.54485383},{"name":"電気通信大学こども食堂","province":"東京都","city":"調布市","address":"東京都調布市調布ケ丘1丁目5-1","lat":35.65564303,"lon":139.54430838},{"name":"こども食堂かくしょうじ","province":"東京都","city":"調布市","address":"東京都調布市富士見町1丁目35-5","lat":35.66023412,"lon":139.53743394},{"name":"富士見あおぞら子ども食堂","province":"東京都","city":"調布市","address":"東京都調布市富士見町2丁目13-5","lat":35.65921758,"lon":139.54185572},{"name":"風のテーブル","province":"東京都","city":"調布市","address":"東京都調布市上石原1丁目36-7","lat":35.65909816,"lon":139.53207068},{"name":"子ども食堂かみいしわらたんぽぽ","province":"東京都","city":"調布市","address":"東京都調布市上石原3丁目21-6","lat":35.65290458,"lon":139.52214705},{"name":"（有）和田葬儀社","province":"東京都","city":"調布市","address":"東京都調布市下石原1丁目60-2","lat":35.65478214,"lon":139.53833695},{"name":"（株）メモリード","province":"東京都","city":"調布市","address":"東京都調布市菊野台1丁目11-1","lat":35.65463524,"lon":139.56509551},{"name":"SOGIサポートセンターLinMCGroup株式会社","province":"東京都","city":"調布市","address":"東京都調布市多摩川2丁目3-12","lat":35.64803332,"lon":139.52358352},{"name":"㈲和田葬儀社","province":"東京都","city":"調布市","address":"東京都調布市下石原1丁目60-2","lat":35.65478214,"lon":139.53833695},{"name":"㈱メモリード(ﾒﾓﾘｰﾄﾞﾎｰﾙ)","province":"東京都","city":"調布市","address":"東京都調布市菊野台1丁目10-2","lat":35.65449637,"lon":139.5649622},{"name":"㈱公益社","province":"東京都","city":"調布市","address":"東京都調布市仙川町3丁目1-3","lat":35.66295407,"lon":139.58419625},{"name":"京王フェアウェルサポート㈱（京王メモリアル）","province":"東京都","city":"調布市","address":"東京都調布市布田2丁目34-6","lat":35.65131595,"lon":139.54681677},{"name":"緑ヶ丘こどもフリースペースごりら","province":"東京都","city":"調布市","address":"東京都調布市緑ケ丘2丁目18-49","lat":35.66934778,"lon":139.58393216},{"name":"みんな食堂「仙川スープ」","province":"東京都","city":"調布市","address":"東京都調布市仙川町1丁目19-10","lat":35.66190703,"lon":139.58617112},{"name":"坂の上のばあちゃん家","province":"東京都","city":"調布市","address":"東京都調布市入間町3丁目22-5","lat":35.64650615,"lon":139.58803264},{"name":"子ども食堂深大寺東町","province":"東京都","city":"調布市","address":"東京都調布市深大寺東町6丁目26-15","lat":35.67562424,"lon":139.5587508},{"name":"ハナこども食堂","province":"東京都","city":"調布市","address":"東京都調布市深大寺東町7丁目23-2","lat":35.67628527,"lon":139.55891188},{"name":"絵堂なかよし子ども食堂","province":"東京都","city":"調布市","address":"東京都調布市深大寺南町5丁目9","lat":35.66653636,"lon":139.55753733},{"name":"しばさき彩こども食堂","province":"東京都","city":"調布市","address":"東京都調布市柴崎1丁目64-9","lat":35.6572738,"lon":139.56494541},{"name":"さくら子育てステーション","province":"東京都","city":"調布市","address":"東京都調布市八雲台1丁目22-1","lat":35.65435444,"lon":139.55306875},{"name":"かしわの食堂（まい・夢）","province":"東京都","city":"調布市","address":"東京都調布市佐須町2丁目18-1","lat":35.65938997,"lon":139.55534612},{"name":"深大寺カフェ子ども食堂","province":"東京都","city":"調布市","address":"東京都調布市深大寺元町1丁目11-1","lat":35.66248107,"lon":139.54792163},{"name":"そらなかBASE","province":"東京都","city":"調布市","address":"東京都調布市深大寺元町1丁目11-1","lat":35.66248107,"lon":139.54792163},{"name":"まごじば","province":"東京都","city":"調布市","address":"東京都調布市国領町1丁目7-1","lat":35.65279632,"lon":139.55237724},{"name":"こくりょう子ども食堂わいわい","province":"東京都","city":"調布市","address":"東京都調布市国領町3丁目8-15","lat":35.64856666,"lon":139.56058525},{"name":"二小地区もりあげ隊","province":"東京都","city":"調布市","address":"東京都調布市国領町5丁目76-3","lat":35.64864714,"lon":139.55144724},{"name":"ウナパウザ","province":"東京都","city":"調布市","address":"東京都調布市染地3丁目8-26","lat":35.63719661,"lon":139.55749791},{"name":"みさとや子ども食堂","province":"東京都","city":"調布市","address":"東京都調布市布田2丁目2-6","lat":35.65352939,"lon":139.54781918},{"name":"ちょうふ子ども食堂","province":"東京都","city":"調布市","address":"東京都調布市布田2丁目5-4","lat":35.65335444,"lon":139.54889689},{"name":"ハッピーこども食堂","province":"東京都","city":"調布市","address":"東京都調布市布田5丁目32-3","lat":35.64607548,"lon":139.54485383},{"name":"電気通信大学こども食堂","province":"東京都","city":"調布市","address":"東京都調布市調布ケ丘1丁目5-1","lat":35.65564303,"lon":139.54430838},{"name":"こども食堂かくしょうじ","province":"東京都","city":"調布市","address":"東京都調布市富士見町1丁目35-5","lat":35.66023412,"lon":139.53743394},{"name":"富士見あおぞら子ども食堂","province":"東京都","city":"調布市","address":"東京都調布市富士見町2丁目13-5","lat":35.65921758,"lon":139.54185572},{"name":"風のテーブル","province":"東京都","city":"調布市","address":"東京都調布市上石原1丁目36-7","lat":35.65909816,"lon":139.53207068},{"name":"子ども食堂かみいしわらたんぽぽ","province":"東京都","city":"調布市","address":"東京都調布市上石原3丁目21-6","lat":35.65290458,"lon":139.52214705},{"name":"（有）和田葬儀社","province":"東京都","city":"調布市","address":"東京都調布市下石原1丁目60-2","lat":35.65478214,"lon":139.53833695},{"name":"（株）メモリード","province":"東京都","city":"調布市","address":"東京都調布市菊野台1丁目11-1","lat":35.65463524,"lon":139.56509551},{"name":"SOGIサポートセンターLinMCGroup株式会社","province":"東京都","city":"調布市","address":"東京都調布市多摩川2丁目3-12","lat":35.64803332,"lon":139.52358352},{"name":"㈲和田葬儀社","province":"東京都","city":"調布市","address":"東京都調布市下石原1丁目60-2","lat":35.65478214,"lon":139.53833695},{"name":"㈱メモリード(ﾒﾓﾘｰﾄﾞﾎｰﾙ)","province":"東京都","city":"調布市","address":"東京都調布市菊野台1丁目10-2","lat":35.65449637,"lon":139.5649622},{"name":"㈱公益社","province":"東京都","city":"調布市","address":"東京都調布市仙川町3丁目1-3","lat":35.66295407,"lon":139.58419625},{"name":"京王フェアウェルサポート㈱（京王メモリアル）","province":"東京都","city":"調布市","address":"東京都調布市布田2丁目34-6","lat":35.65131595,"lon":139.54681677},{"name":"緑ヶ丘こどもフリースペースごりら","province":"東京都","city":"調布市","address":"東京都調布市緑ケ丘2丁目18-49","lat":35.66934778,"lon":139.58393216},{"name":"みんな食堂「仙川スープ」","province":"東京都","city":"調布市","address":"東京都調布市仙川町1丁目19-10","lat":35.66190703,"lon":139.58617112},{"name":"坂の上のばあちゃん家","province":"東京都","city":"調布市","address":"東京都調布市入間町3丁目22-5","lat":35.64650615,"lon":139.58803264},{"name":"子ども食堂深大寺東町","province":"東京都","city":"調布市","address":"東京都調布市深大寺東町6丁目26-15","lat":35.67562424,"lon":139.5587508},{"name":"ハナこども食堂","province":"東京都","city":"調布市","address":"東京都調布市深大寺東町7丁目23-2","lat":35.67628527,"lon":139.55891188},{"name":"絵堂なかよし子ども食堂","province":"東京都","city":"調布市","address":"東京都調布市深大寺南町5丁目9","lat":35.66653636,"lon":139.55753733},{"name":"しばさき彩こども食堂","province":"東京都","city":"調布市","address":"東京都調布市柴崎1丁目64-9","lat":35.6572738,"lon":139.56494541},{"name":"さくら子育てステーション","province":"東京都","city":"調布市","address":"東京都調布市八雲台1丁目22-1","lat":35.65435444,"lon":139.55306875},{"name":"かしわの食堂（まい・夢）","province":"東京都","city":"調布市","address":"東京都調布市佐須町2丁目18-1","lat":35.65938997,"lon":139.55534612},{"name":"深大寺カフェ子ども食堂","province":"東京都","city":"調布市","address":"東京都調布市深大寺元町1丁目11-1","lat":35.66248107,"lon":139.54792163},{"name":"そらなかBASE","province":"東京都","city":"調布市","address":"東京都調布市深大寺元町1丁目11-1","lat":35.66248107,"lon":139.54792163},{"name":"まごじば","province":"東京都","city":"調布市","address":"東京都調布市国領町1丁目7-1","lat":35.65279632,"lon":139.55237724},{"name":"こくりょう子ども食堂わいわい","province":"東京都","city":"調布市","address":"東京都調布市国領町3丁目8-15","lat":35.64856666,"lon":139.56058525},{"name":"二小地区もりあげ隊","province":"東京都","city":"調布市","address":"東京都調布市国領町5丁目76-3","lat":35.64864714,"lon":139.55144724},{"name":"ウナパウザ","province":"東京都","city":"調布市","address":"東京都調布市染地3丁目8-26","lat":35.63719661,"lon":139.55749791},{"name":"みさとや子ども食堂","province":"東京都","city":"調布市","address":"東京都調布市布田2丁目2-6","lat":35.65352939,"lon":139.54781918},{"name":"ちょうふ子ども食堂","province":"東京都","city":"調布市","address":"東京都調布市布田2丁目5-4","lat":35.65335444,"lon":139.54889689},{"name":"ハッピーこども食堂","province":"東京都","city":"調布市","address":"東京都調布市布田5丁目32-3","lat":35.64607548,"lon":139.54485383},{"name":"電気通信大学こども食堂","province":"東京都","city":"調布市","address":"東京都調布市調布ケ丘1丁目5-1","lat":35.65564303,"lon":139.54430838},{"name":"こども食堂かくしょうじ","province":"東京都","city":"調布市","address":"東京都調布市富士見町1丁目35-5","lat":35.66023412,"lon":139.53743394},{"name":"富士見あおぞら子ども食堂","province":"東京都","city":"調布市","address":"東京都調布市富士見町2丁目13-5","lat":35.65921758,"lon":139.54185572},{"name":"風のテーブル","province":"東京都","city":"調布市","address":"東京都調布市上石原1丁目36-7","lat":35.65909816,"lon":139.53207068},{"name":"子ども食堂かみいしわらたんぽぽ","province":"東京都","city":"調布市","address":"東京都調布市上石原3丁目21-6","lat":35.65290458,"lon":139.52214705},{"name":"（有）和田葬儀社","province":"東京都","city":"調布市","address":"東京都調布市下石原1丁目60-2","lat":35.65478214,"lon":139.53833695},{"name":"（株）メモリード","province":"東京都","city":"調布市","address":"東京都調布市菊野台1丁目11-1","lat":35.65463524,"lon":139.56509551},{"name":"SOGIサポートセンターLinMCGroup株式会社","province":"東京都","city":"調布市","address":"東京都調布市多摩川2丁目3-12","lat":35.64803332,"lon":139.52358352},{"name":"㈲和田葬儀社","province":"東京都","city":"調布市","address":"東京都調布市下石原1丁目60-2","lat":35.65478214,"lon":139.53833695},{"name":"㈱メモリード(ﾒﾓﾘｰﾄﾞﾎｰﾙ)","province":"東京都","city":"調布市","address":"東京都調布市菊野台1丁目10-2","lat":35.65449637,"lon":139.5649622},{"name":"㈱公益社","province":"東京都","city":"調布市","address":"東京都調布市仙川町3丁目1-3","lat":35.66295407,"lon":139.58419625},{"name":"京王フェアウェルサポート㈱（京王メモリアル）","province":"東京都","city":"調布市","address":"東京都調布市布田2丁目34-6","lat":35.65131595,"lon":139.54681677},{"name":"緑ヶ丘こどもフリースペースごりら","province":"東京都","city":"調布市","address":"東京都調布市緑ケ丘2丁目18-49","lat":35.66934778,"lon":139.58393216},{"name":"みんな食堂「仙川スープ」","province":"東京都","city":"調布市","address":"東京都調布市仙川町1丁目19-10","lat":35.66190703,"lon":139.58617112},{"name":"坂の上のばあちゃん家","province":"東京都","city":"調布市","address":"東京都調布市入間町3丁目22-5","lat":35.64650615,"lon":139.58803264},{"name":"子ども食堂深大寺東町","province":"東京都","city":"調布市","address":"東京都調布市深大寺東町6丁目26-15","lat":35.67562424,"lon":139.5587508},{"name":"ハナこども食堂","province":"東京都","city":"調布市","address":"東京都調布市深大寺東町7丁目23-2","lat":35.67628527,"lon":139.55891188},{"name":"絵堂なかよし子ども食堂","province":"東京都","city":"調布市","address":"東京都調布市深大寺南町5丁目9","lat":35.66653636,"lon":139.55753733},{"name":"しばさき彩こども食堂","province":"東京都","city":"調布市","address":"東京都調布市柴崎1丁目64-9","lat":35.6572738,"lon":139.56494541},{"name":"さくら子育てステーション","province":"東京都","city":"調布市","address":"東京都調布市八雲台1丁目22-1","lat":35.65435444,"lon":139.55306875},{"name":"かしわの食堂（まい・夢）","province":"東京都","city":"調布市","address":"東京都調布市佐須町2丁目18-1","lat":35.65938997,"lon":139.55534612},{"name":"深大寺カフェ子ども食堂","province":"東京都","city":"調布市","address":"東京都調布市深大寺元町1丁目11-1","lat":35.66248107,"lon":139.54792163},{"name":"そらなかBASE","province":"東京都","city":"調布市","address":"東京都調布市深大寺元町1丁目11-1","lat":35.66248107,"lon":139.54792163},{"name":"まごじば","province":"東京都","city":"調布市","address":"東京都調布市国領町1丁目7-1","lat":35.65279632,"lon":139.55237724},{"name":"こくりょう子ども食堂わいわい","province":"東京都","city":"調布市","address":"東京都調布市国領町3丁目8-15","lat":35.64856666,"lon":139.56058525},{"name":"二小地区もりあげ隊","province":"東京都","city":"調布市","address":"東京都調布市国領町5丁目76-3","lat":35.64864714,"lon":139.55144724},{"name":"ウナパウザ","province":"東京都","city":"調布市","address":"東京都調布市染地3丁目8-26","lat":35.63719661,"lon":139.55749791},{"name":"みさとや子ども食堂","province":"東京都","city":"調布市","address":"東京都調布市布田2丁目2-6","lat":35.65352939,"lon":139.54781918},{"name":"ちょうふ子ども食堂","province":"東京都","city":"調布市","address":"東京都調布市布田2丁目5-4","lat":35.65335444,"lon":139.54889689},{"name":"ハッピーこども食堂","province":"東京都","city":"調布市","address":"東京都調布市布田5丁目32-3","lat":35.64607548,"lon":139.54485383},{"name":"電気通信大学こども食堂","province":"東京都","city":"調布市","address":"東京都調布市調布ケ丘1丁目5-1","lat":35.65564303,"lon":139.54430838},{"name":"こども食堂かくしょうじ","province":"東京都","city":"調布市","address":"東京都調布市富士見町1丁目35-5","lat":35.66023412,"lon":139.53743394},{"name":"富士見あおぞら子ども食堂","province":"東京都","city":"調布市","address":"東京都調布市富士見町2丁目13-5","lat":35.65921758,"lon":139.54185572},{"name":"風のテーブル","province":"東京都","city":"調布市","address":"東京都調布市上石原1丁目36-7","lat":35.65909816,"lon":139.53207068},{"name":"子ども食堂かみいしわらたんぽぽ","province":"東京都","city":"調布市","address":"東京都調布市上石原3丁目21-6","lat":35.65290458,"lon":139.52214705},{"name":"（有）和田葬儀社","province":"東京都","city":"調布市","address":"東京都調布市下石原1丁目60-2","lat":35.65478214,"lon":139.53833695},{"name":"（株）メモリード","province":"東京都","city":"調布市","address":"東京都調布市菊野台1丁目11-1","lat":35.65463524,"lon":139.56509551},{"name":"SOGIサポートセンターLinMCGroup株式会社","province":"東京都","city":"調布市","address":"東京都調布市多摩川2丁目3-12","lat":35.64803332,"lon":139.52358352},{"name":"㈲和田葬儀社","province":"東京都","city":"調布市","address":"東京都調布市下石原1丁目60-2","lat":35.65478214,"lon":139.53833695},{"name":"㈱メモリード(ﾒﾓﾘｰﾄﾞﾎｰﾙ)","province":"東京都","city":"調布市","address":"東京都調布市菊野台1丁目10-2","lat":35.65449637,"lon":139.5649622},{"name":"㈱公益社","province":"東京都","city":"調布市","address":"東京都調布市仙川町3丁目1-3","lat":35.66295407,"lon":139.58419625},{"name":"京王フェアウェルサポート㈱（京王メモリアル）","province":"東京都","city":"調布市","address":"東京都調布市布田2丁目34-6","lat":35.65131595,"lon":139.54681677},{"name":"緑ヶ丘こどもフリースペースごりら","province":"東京都","city":"調布市","address":"東京都調布市緑ケ丘2丁目18-49","lat":35.66934778,"lon":139.58393216},{"name":"みんな食堂「仙川スープ」","province":"東京都","city":"調布市","address":"東京都調布市仙川町1丁目19-10","lat":35.66190703,"lon":139.58617112},{"name":"坂の上のばあちゃん家","province":"東京都","city":"調布市","address":"東京都調布市入間町3丁目22-5","lat":35.64650615,"lon":139.58803264},{"name":"子ども食堂深大寺東町","province":"東京都","city":"調布市","address":"東京都調布市深大寺東町6丁目26-15","lat":35.67562424,"lon":139.5587508},{"name":"ハナこども食堂","province":"東京都","city":"調布市","address":"東京都調布市深大寺東町7丁目23-2","lat":35.67628527,"lon":139.55891188},{"name":"絵堂なかよし子ども食堂","province":"東京都","city":"調布市","address":"東京都調布市深大寺南町5丁目9","lat":35.66653636,"lon":139.55753733},{"name":"しばさき彩こども食堂","province":"東京都","city":"調布市","address":"東京都調布市柴崎1丁目64-9","lat":35.6572738,"lon":139.56494541},{"name":"さくら子育てステーション","province":"東京都","city":"調布市","address":"東京都調布市八雲台1丁目22-1","lat":35.65435444,"lon":139.55306875},{"name":"かしわの食堂（まい・夢）","province":"東京都","city":"調布市","address":"東京都調布市佐須町2丁目18-1","lat":35.65938997,"lon":139.55534612},{"name":"深大寺カフェ子ども食堂","province":"東京都","city":"調布市","address":"東京都調布市深大寺元町1丁目11-1","lat":35.66248107,"lon":139.54792163},{"name":"そらなかBASE","province":"東京都","city":"調布市","address":"東京都調布市深大寺元町1丁目11-1","lat":35.66248107,"lon":139.54792163},{"name":"まごじば","province":"東京都","city":"調布市","address":"東京都調布市国領町1丁目7-1","lat":35.65279632,"lon":139.55237724},{"name":"こくりょう子ども食堂わいわい","province":"東京都","city":"調布市","address":"東京都調布市国領町3丁目8-15","lat":35.64856666,"lon":139.56058525},{"name":"二小地区もりあげ隊","province":"東京都","city":"調布市","address":"東京都調布市国領町5丁目76-3","lat":35.64864714,"lon":139.55144724},{"name":"ウナパウザ","province":"東京都","city":"調布市","address":"東京都調布市染地3丁目8-26","lat":35.63719661,"lon":139.55749791},{"name":"みさとや子ども食堂","province":"東京都","city":"調布市","address":"東京都調布市布田2丁目2-6","lat":35.65352939,"lon":139.54781918},{"name":"ちょうふ子ども食堂","province":"東京都","city":"調布市","address":"東京都調布市布田2丁目5-4","lat":35.65335444,"lon":139.54889689},{"name":"ハッピーこども食堂","province":"東京都","city":"調布市","address":"東京都調布市布田5丁目32-3","lat":35.64607548,"lon":139.54485383},{"name":"電気通信大学こども食堂","province":"東京都","city":"調布市","address":"東京都調布市調布ケ丘1丁目5-1","lat":35.65564303,"lon":139.54430838},{"name":"こども食堂かくしょうじ","province":"東京都","city":"調布市","address":"東京都調布市富士見町1丁目35-5","lat":35.66023412,"lon":139.53743394},{"name":"富士見あおぞら子ども食堂","province":"東京都","city":"調布市","address":"東京都調布市富士見町2丁目13-5","lat":35.65921758,"lon":139.54185572},{"name":"風のテーブル","province":"東京都","city":"調布市","address":"東京都調布市上石原1丁目36-7","lat":35.65909816,"lon":139.53207068},{"name":"子ども食堂かみいしわらたんぽぽ","province":"東京都","city":"調布市","address":"東京都調布市上石原3丁目21-6","lat":35.65290458,"lon":139.52214705},{"name":"（有）和田葬儀社","province":"東京都","city":"調布市","address":"東京都調布市下石原1丁目60-2","lat":35.65478214,"lon":139.53833695},{"name":"（株）メモリード","province":"東京都","city":"調布市","address":"東京都調布市菊野台1丁目11-1","lat":35.65463524,"lon":139.56509551},{"name":"SOGIサポートセンターLinMCGroup株式会社","province":"東京都","city":"調布市","address":"東京都調布市多摩川2丁目3-12","lat":35.64803332,"lon":139.52358352},{"name":"㈲和田葬儀社","province":"東京都","city":"調布市","address":"東京都調布市下石原1丁目60-2","lat":35.65478214,"lon":139.53833695},{"name":"㈱メモリード(ﾒﾓﾘｰﾄﾞﾎｰﾙ)","province":"東京都","city":"調布市","address":"東京都調布市菊野台1丁目10-2","lat":35.65449637,"lon":139.5649622},{"name":"㈱公益社","province":"東京都","city":"調布市","address":"東京都調布市仙川町3丁目1-3","lat":35.66295407,"lon":139.58419625},{"name":"京王フェアウェルサポート㈱（京王メモリアル）","province":"東京都","city":"調布市","address":"東京都調布市布田2丁目34-6","lat":35.65131595,"lon":139.54681677},{"name":"緑ヶ丘こどもフリースペースごりら","province":"東京都","city":"調布市","address":"東京都調布市緑ケ丘2丁目18-49","lat":35.66934778,"lon":139.58393216},{"name":"みんな食堂「仙川スープ」","province":"東京都","city":"調布市","address":"東京都調布市仙川町1丁目19-10","lat":35.66190703,"lon":139.58617112},{"name":"坂の上のばあちゃん家","province":"東京都","city":"調布市","address":"東京都調布市入間町3丁目22-5","lat":35.64650615,"lon":139.58803264},{"name":"子ども食堂深大寺東町","province":"東京都","city":"調布市","address":"東京都調布市深大寺東町6丁目26-15","lat":35.67562424,"lon":139.5587508},{"name":"ハナこども食堂","province":"東京都","city":"調布市","address":"東京都調布市深大寺東町7丁目23-2","lat":35.67628527,"lon":139.55891188},{"name":"絵堂なかよし子ども食堂","province":"東京都","city":"調布市","address":"東京都調布市深大寺南町5丁目9","lat":35.66653636,"lon":139.55753733},{"name":"しばさき彩こども食堂","province":"東京都","city":"調布市","address":"東京都調布市柴崎1丁目64-9","lat":35.6572738,"lon":139.56494541},{"name":"さくら子育てステーション","province":"東京都","city":"調布市","address":"東京都調布市八雲台1丁目22-1","lat":35.65435444,"lon":139.55306875},{"name":"かしわの食堂（まい・夢）","province":"東京都","city":"調布市","address":"東京都調布市佐須町2丁目18-1","lat":35.65938997,"lon":139.55534612},{"name":"深大寺カフェ子ども食堂","province":"東京都","city":"調布市","address":"東京都調布市深大寺元町1丁目11-1","lat":35.66248107,"lon":139.54792163},{"name":"そらなかBASE","province":"東京都","city":"調布市","address":"東京都調布市深大寺元町1丁目11-1","lat":35.66248107,"lon":139.54792163},{"name":"まごじば","province":"東京都","city":"調布市","address":"東京都調布市国領町1丁目7-1","lat":35.65279632,"lon":139.55237724},{"name":"こくりょう子ども食堂わいわい","province":"東京都","city":"調布市","address":"東京都調布市国領町3丁目8-15","lat":35.64856666,"lon":139.56058525},{"name":"二小地区もりあげ隊","province":"東京都","city":"調布市","address":"東京都調布市国領町5丁目76-3","lat":35.64864714,"lon":139.55144724},{"name":"ウナパウザ","province":"東京都","city":"調布市","address":"東京都調布市染地3丁目8-26","lat":35.63719661,"lon":139.55749791},{"name":"みさとや子ども食堂","province":"東京都","city":"調布市","address":"東京都調布市布田2丁目2-6","lat":35.65352939,"lon":139.54781918},{"name":"ちょうふ子ども食堂","province":"東京都","city":"調布市","address":"東京都調布市布田2丁目5-4","lat":35.65335444,"lon":139.54889689},{"name":"ハッピーこども食堂","province":"東京都","city":"調布市","address":"東京都調布市布田5丁目32-3","lat":35.64607548,"lon":139.54485383},{"name":"電気通信大学こども食堂","province":"東京都","city":"調布市","address":"東京都調布市調布ケ丘1丁目5-1","lat":35.65564303,"lon":139.54430838},{"name":"こども食堂かくしょうじ","province":"東京都","city":"調布市","address":"東京都調布市富士見町1丁目35-5","lat":35.66023412,"lon":139.53743394},{"name":"富士見あおぞら子ども食堂","province":"東京都","city":"調布市","address":"東京都調布市富士見町2丁目13-5","lat":35.65921758,"lon":139.54185572},{"name":"風のテーブル","province":"東京都","city":"調布市","address":"東京都調布市上石原1丁目36-7","lat":35.65909816,"lon":139.53207068},{"name":"子ども食堂かみいしわらたんぽぽ","province":"東京都","city":"調布市","address":"東京都調布市上石原3丁目21-6","lat":35.65290458,"lon":139.52214705},{"name":"（有）和田葬儀社","province":"東京都","city":"調布市","address":"東京都調布市下石原1丁目60-2","lat":35.65478214,"lon":139.53833695},{"name":"（株）メモリード","province":"東京都","city":"調布市","address":"東京都調布市菊野台1丁目11-1","lat":35.65463524,"lon":139.56509551},{"name":"SOGIサポートセンターLinMCGroup株式会社","province":"東京都","city":"調布市","address":"東京都調布市多摩川2丁目3-12","lat":35.64803332,"lon":139.52358352},{"name":"㈲和田葬儀社","province":"東京都","city":"調布市","address":"東京都調布市下石原1丁目60-2","lat":35.65478214,"lon":139.53833695},{"name":"㈱メモリード(ﾒﾓﾘｰﾄﾞﾎｰﾙ)","province":"東京都","city":"調布市","address":"東京都調布市菊野台1丁目10-2","lat":35.65449637,"lon":139.5649622},{"name":"㈱公益社","province":"東京都","city":"調布市","address":"東京都調布市仙川町3丁目1-3","lat":35.66295407,"lon":139.58419625},{"name":"京王フェアウェルサポート㈱（京王メモリアル）","province":"東京都","city":"調布市","address":"東京都調布市布田2丁目34-6","lat":35.65131595,"lon":139.54681677},{"name":"緑ヶ丘こどもフリースペースごりら","province":"東京都","city":"調布市","address":"東京都調布市緑ケ丘2丁目18-49","lat":35.66934778,"lon":139.58393216},{"name":"みんな食堂「仙川スープ」","province":"東京都","city":"調布市","address":"東京都調布市仙川町1丁目19-10","lat":35.66190703,"lon":139.58617112},{"name":"坂の上のばあちゃん家","province":"東京都","city":"調布市","address":"東京都調布市入間町3丁目22-5","lat":35.64650615,"lon":139.58803264},{"name":"子ども食堂深大寺東町","province":"東京都","city":"調布市","address":"東京都調布市深大寺東町6丁目26-15","lat":35.67562424,"lon":139.5587508},{"name":"ハナこども食堂","province":"東京都","city":"調布市","address":"東京都調布市深大寺東町7丁目23-2","lat":35.67628527,"lon":139.55891188},{"name":"絵堂なかよし子ども食堂","province":"東京都","city":"調布市","address":"東京都調布市深大寺南町5丁目9","lat":35.66653636,"lon":139.55753733},{"name":"しばさき彩こども食堂","province":"東京都","city":"調布市","address":"東京都調布市柴崎1丁目64-9","lat":35.6572738,"lon":139.56494541},{"name":"さくら子育てステーション","province":"東京都","city":"調布市","address":"東京都調布市八雲台1丁目22-1","lat":35.65435444,"lon":139.55306875},{"name":"かしわの食堂（まい・夢）","province":"東京都","city":"調布市","address":"東京都調布市佐須町2丁目18-1","lat":35.65938997,"lon":139.55534612},{"name":"深大寺カフェ子ども食堂","province":"東京都","city":"調布市","address":"東京都調布市深大寺元町1丁目11-1","lat":35.66248107,"lon":139.54792163},{"name":"そらなかBASE","province":"東京都","city":"調布市","address":"東京都調布市深大寺元町1丁目11-1","lat":35.66248107,"lon":139.54792163},{"name":"まごじば","province":"東京都","city":"調布市","address":"東京都調布市国領町1丁目7-1","lat":35.65279632,"lon":139.55237724},{"name":"こくりょう子ども食堂わいわい","province":"東京都","city":"調布市","address":"東京都調布市国領町3丁目8-15","lat":35.64856666,"lon":139.56058525},{"name":"二小地区もりあげ隊","province":"東京都","city":"調布市","address":"東京都調布市国領町5丁目76-3","lat":35.64864714,"lon":139.55144724},{"name":"ウナパウザ","province":"東京都","city":"調布市","address":"東京都調布市染地3丁目8-26","lat":35.63719661,"lon":139.55749791},{"name":"みさとや子ども食堂","province":"東京都","city":"調布市","address":"東京都調布市布田2丁目2-6","lat":35.65352939,"lon":139.54781918},{"name":"ちょうふ子ども食堂","province":"東京都","city":"調布市","address":"東京都調布市布田2丁目5-4","lat":35.65335444,"lon":139.54889689},{"name":"ハッピーこども食堂","province":"東京都","city":"調布市","address":"東京都調布市布田5丁目32-3","lat":35.64607548,"lon":139.54485383},{"name":"電気通信大学こども食堂","province":"東京都","city":"調布市","address":"東京都調布市調布ケ丘1丁目5-1","lat":35.65564303,"lon":139.54430838},{"name":"こども食堂かくしょうじ","province":"東京都","city":"調布市","address":"東京都調布市富士見町1丁目35-5","lat":35.66023412,"lon":139.53743394},{"name":"富士見あおぞら子ども食堂","province":"東京都","city":"調布市","address":"東京都調布市富士見町2丁目13-5","lat":35.65921758,"lon":139.54185572},{"name":"風のテーブル","province":"東京都","city":"調布市","address":"東京都調布市上石原1丁目36-7","lat":35.65909816,"lon":139.53207068},{"name":"子ども食堂かみいしわらたんぽぽ","province":"東京都","city":"調布市","address":"東京都調布市上石原3丁目21-6","lat":35.65290458,"lon":139.52214705},{"name":"（有）和田葬儀社","province":"東京都","city":"調布市","address":"東京都調布市下石原1丁目60-2","lat":35.65478214,"lon":139.53833695},{"name":"（株）メモリード","province":"東京都","city":"調布市","address":"東京都調布市菊野台1丁目11-1","lat":35.65463524,"lon":139.56509551},{"name":"SOGIサポートセンターLinMCGroup株式会社","province":"東京都","city":"調布市","address":"東京都調布市多摩川2丁目3-12","lat":35.64803332,"lon":139.52358352},{"name":"㈲和田葬儀社","province":"東京都","city":"調布市","address":"東京都調布市下石原1丁目60-2","lat":35.65478214,"lon":139.53833695},{"name":"㈱メモリード(ﾒﾓﾘｰﾄﾞﾎｰﾙ)","province":"東京都","city":"調布市","address":"東京都調布市菊野台1丁目10-2","lat":35.65449637,"lon":139.5649622},{"name":"㈱公益社","province":"東京都","city":"調布市","address":"東京都調布市仙川町3丁目1-3","lat":35.66295407,"lon":139.58419625},{"name":"京王フェアウェルサポート㈱（京王メモリアル）","province":"東京都","city":"調布市","address":"東京都調布市布田2丁目34-6","lat":35.65131595,"lon":139.54681677},{"name":"緑ヶ丘こどもフリースペースごりら","province":"東京都","city":"調布市","address":"東京都調布市緑ケ丘2丁目18-49","lat":35.66934778,"lon":139.58393216},{"name":"みんな食堂「仙川スープ」","province":"東京都","city":"調布市","address":"東京都調布市仙川町1丁目19-10","lat":35.66190703,"lon":139.58617112},{"name":"坂の上のばあちゃん家","province":"東京都","city":"調布市","address":"東京都調布市入間町3丁目22-5","lat":35.64650615,"lon":139.58803264},{"name":"子ども食堂深大寺東町","province":"東京都","city":"調布市","address":"東京都調布市深大寺東町6丁目26-15","lat":35.67562424,"lon":139.5587508},{"name":"ハナこども食堂","province":"東京都","city":"調布市","address":"東京都調布市深大寺東町7丁目23-2","lat":35.67628527,"lon":139.55891188},{"name":"絵堂なかよし子ども食堂","province":"東京都","city":"調布市","address":"東京都調布市深大寺南町5丁目9","lat":35.66653636,"lon":139.55753733},{"name":"しばさき彩こども食堂","province":"東京都","city":"調布市","address":"東京都調布市柴崎1丁目64-9","lat":35.6572738,"lon":139.56494541},{"name":"さくら子育てステーション","province":"東京都","city":"調布市","address":"東京都調布市八雲台1丁目22-1","lat":35.65435444,"lon":139.55306875},{"name":"かしわの食堂（まい・夢）","province":"東京都","city":"調布市","address":"東京都調布市佐須町2丁目18-1","lat":35.65938997,"lon":139.55534612},{"name":"深大寺カフェ子ども食堂","province":"東京都","city":"調布市","address":"東京都調布市深大寺元町1丁目11-1","lat":35.66248107,"lon":139.54792163},{"name":"そらなかBASE","province":"東京都","city":"調布市","address":"東京都調布市深大寺元町1丁目11-1","lat":35.66248107,"lon":139.54792163},{"name":"まごじば","province":"東京都","city":"調布市","address":"東京都調布市国領町1丁目7-1","lat":35.65279632,"lon":139.55237724},{"name":"こくりょう子ども食堂わいわい","province":"東京都","city":"調布市","address":"東京都調布市国領町3丁目8-15","lat":35.64856666,"lon":139.56058525},{"name":"二小地区もりあげ隊","province":"東京都","city":"調布市","address":"東京都調布市国領町5丁目76-3","lat":35.64864714,"lon":139.55144724},{"name":"ウナパウザ","province":"東京都","city":"調布市","address":"東京都調布市染地3丁目8-26","lat":35.63719661,"lon":139.55749791},{"name":"みさとや子ども食堂","province":"東京都","city":"調布市","address":"東京都調布市布田2丁目2-6","lat":35.65352939,"lon":139.54781918},{"name":"ちょうふ子ども食堂","province":"東京都","city":"調布市","address":"東京都調布市布田2丁目5-4","lat":35.65335444,"lon":139.54889689},{"name":"ハッピーこども食堂","province":"東京都","city":"調布市","address":"東京都調布市布田5丁目32-3","lat":35.64607548,"lon":139.54485383},{"name":"電気通信大学こども食堂","province":"東京都","city":"調布市","address":"東京都調布市調布ケ丘1丁目5-1","lat":35.65564303,"lon":139.54430838},{"name":"こども食堂かくしょうじ","province":"東京都","city":"調布市","address":"東京都調布市富士見町1丁目35-5","lat":35.66023412,"lon":139.53743394},{"name":"富士見あおぞら子ども食堂","province":"東京都","city":"調布市","address":"東京都調布市富士見町2丁目13-5","lat":35.65921758,"lon":139.54185572},{"name":"風のテーブル","province":"東京都","city":"調布市","address":"東京都調布市上石原1丁目36-7","lat":35.65909816,"lon":139.53207068},{"name":"子ども食堂かみいしわらたんぽぽ","province":"東京都","city":"調布市","address":"東京都調布市上石原3丁目21-6","lat":35.65290458,"lon":139.52214705},{"name":"（有）和田葬儀社","province":"東京都","city":"調布市","address":"東京都調布市下石原1丁目60-2","lat":35.65478214,"lon":139.53833695},{"name":"（株）メモリード","province":"東京都","city":"調布市","address":"東京都調布市菊野台1丁目11-1","lat":35.65463524,"lon":139.56509551},{"name":"SOGIサポートセンターLinMCGroup株式会社","province":"東京都","city":"調布市","address":"東京都調布市多摩川2丁目3-12","lat":35.64803332,"lon":139.52358352},{"name":"㈲和田葬儀社","province":"東京都","city":"調布市","address":"東京都調布市下石原1丁目60-2","lat":35.65478214,"lon":139.53833695},{"name":"㈱メモリード(ﾒﾓﾘｰﾄﾞﾎｰﾙ)","province":"東京都","city":"調布市","address":"東京都調布市菊野台1丁目10-2","lat":35.65449637,"lon":139.5649622},{"name":"㈱公益社","province":"東京都","city":"調布市","address":"東京都調布市仙川町3丁目1-3","lat":35.66295407,"lon":139.58419625},{"name":"京王フェアウェルサポート㈱（京王メモリアル）","province":"東京都","city":"調布市","address":"東京都調布市布田2丁目34-6","lat":35.65131595,"lon":139.54681677},{"name":"緑ヶ丘こどもフリースペースごりら","province":"東京都","city":"調布市","address":"東京都調布市緑ケ丘2丁目18-49","lat":35.66934778,"lon":139.58393216},{"name":"みんな食堂「仙川スープ」","province":"東京都","city":"調布市","address":"東京都調布市仙川町1丁目19-10","lat":35.66190703,"lon":139.58617112},{"name":"坂の上のばあちゃん家","province":"東京都","city":"調布市","address":"東京都調布市入間町3丁目22-5","lat":35.64650615,"lon":139.58803264},{"name":"子ども食堂深大寺東町","province":"東京都","city":"調布市","address":"東京都調布市深大寺東町6丁目26-15","lat":35.67562424,"lon":139.5587508},{"name":"ハナこども食堂","province":"東京都","city":"調布市","address":"東京都調布市深大寺東町7丁目23-2","lat":35.67628527,"lon":139.55891188},{"name":"絵堂なかよし子ども食堂","province":"東京都","city":"調布市","address":"東京都調布市深大寺南町5丁目9","lat":35.66653636,"lon":139.55753733},{"name":"しばさき彩こども食堂","province":"東京都","city":"調布市","address":"東京都調布市柴崎1丁目64-9","lat":35.6572738,"lon":139.56494541},{"name":"さくら子育てステーション","province":"東京都","city":"調布市","address":"東京都調布市八雲台1丁目22-1","lat":35.65435444,"lon":139.55306875},{"name":"かしわの食堂（まい・夢）","province":"東京都","city":"調布市","address":"東京都調布市佐須町2丁目18-1","lat":35.65938997,"lon":139.55534612},{"name":"深大寺カフェ子ども食堂","province":"東京都","city":"調布市","address":"東京都調布市深大寺元町1丁目11-1","lat":35.66248107,"lon":139.54792163},{"name":"そらなかBASE","province":"東京都","city":"調布市","address":"東京都調布市深大寺元町1丁目11-1","lat":35.66248107,"lon":139.54792163},{"name":"まごじば","province":"東京都","city":"調布市","address":"東京都調布市国領町1丁目7-1","lat":35.65279632,"lon":139.55237724},{"name":"こくりょう子ども食堂わいわい","province":"東京都","city":"調布市","address":"東京都調布市国領町3丁目8-15","lat":35.64856666,"lon":139.56058525},{"name":"二小地区もりあげ隊","province":"東京都","city":"調布市","address":"東京都調布市国領町5丁目76-3","lat":35.64864714,"lon":139.55144724},{"name":"ウナパウザ","province":"東京都","city":"調布市","address":"東京都調布市染地3丁目8-26","lat":35.63719661,"lon":139.55749791},{"name":"みさとや子ども食堂","province":"東京都","city":"調布市","address":"東京都調布市布田2丁目2-6","lat":35.65352939,"lon":139.54781918},{"name":"ちょうふ子ども食堂","province":"東京都","city":"調布市","address":"東京都調布市布田2丁目5-4","lat":35.65335444,"lon":139.54889689},{"name":"ハッピーこども食堂","province":"東京都","city":"調布市","address":"東京都調布市布田5丁目32-3","lat":35.64607548,"lon":139.54485383},{"name":"電気通信大学こども食堂","province":"東京都","city":"調布市","address":"東京都調布市調布ケ丘1丁目5-1","lat":35.65564303,"lon":139.54430838},{"name":"こども食堂かくしょうじ","province":"東京都","city":"調布市","address":"東京都調布市富士見町1丁目35-5","lat":35.66023412,"lon":139.53743394},{"name":"富士見あおぞら子ども食堂","province":"東京都","city":"調布市","address":"東京都調布市富士見町2丁目13-5","lat":35.65921758,"lon":139.54185572},{"name":"風のテーブル","province":"東京都","city":"調布市","address":"東京都調布市上石原1丁目36-7","lat":35.65909816,"lon":139.53207068},{"name":"子ども食堂かみいしわらたんぽぽ","province":"東京都","city":"調布市","address":"東京都調布市上石原3丁目21-6","lat":35.65290458,"lon":139.52214705},{"name":"（有）和田葬儀社","province":"東京都","city":"調布市","address":"東京都調布市下石原1丁目60-2","lat":35.65478214,"lon":139.53833695},{"name":"（株）メモリード","province":"東京都","city":"調布市","address":"東京都調布市菊野台1丁目11-1","lat":35.65463524,"lon":139.56509551},{"name":"SOGIサポートセンターLinMCGroup株式会社","province":"東京都","city":"調布市","address":"東京都調布市多摩川2丁目3-12","lat":35.64803332,"lon":139.52358352},{"name":"㈲和田葬儀社","province":"東京都","city":"調布市","address":"東京都調布市下石原1丁目60-2","lat":35.65478214,"lon":139.53833695},{"name":"㈱メモリード(ﾒﾓﾘｰﾄﾞﾎｰﾙ)","province":"東京都","city":"調布市","address":"東京都調布市菊野台1丁目10-2","lat":35.65449637,"lon":139.5649622},{"name":"㈱公益社","province":"東京都","city":"調布市","address":"東京都調布市仙川町3丁目1-3","lat":35.66295407,"lon":139.58419625},{"name":"京王フェアウェルサポート㈱（京王メモリアル）","province":"東京都","city":"調布市","address":"東京都調布市布田2丁目34-6","lat":35.65131595,"lon":139.54681677},{"name":"緑ヶ丘こどもフリースペースごりら","province":"東京都","city":"調布市","address":"東京都調布市緑ケ丘2丁目18-49","lat":35.66934778,"lon":139.58393216},{"name":"みんな食堂「仙川スープ」","province":"東京都","city":"調布市","address":"東京都調布市仙川町1丁目19-10","lat":35.66190703,"lon":139.58617112},{"name":"坂の上のばあちゃん家","province":"東京都","city":"調布市","address":"東京都調布市入間町3丁目22-5","lat":35.64650615,"lon":139.58803264},{"name":"子ども食堂深大寺東町","province":"東京都","city":"調布市","address":"東京都調布市深大寺東町6丁目26-15","lat":35.67562424,"lon":139.5587508},{"name":"ハナこども食堂","province":"東京都","city":"調布市","address":"東京都調布市深大寺東町7丁目23-2","lat":35.67628527,"lon":139.55891188},{"name":"絵堂なかよし子ども食堂","province":"東京都","city":"調布市","address":"東京都調布市深大寺南町5丁目9","lat":35.66653636,"lon":139.55753733},{"name":"しばさき彩こども食堂","province":"東京都","city":"調布市","address":"東京都調布市柴崎1丁目64-9","lat":35.6572738,"lon":139.56494541},{"name":"さくら子育てステーション","province":"東京都","city":"調布市","address":"東京都調布市八雲台1丁目22-1","lat":35.65435444,"lon":139.55306875},{"name":"かしわの食堂（まい・夢）","province":"東京都","city":"調布市","address":"東京都調布市佐須町2丁目18-1","lat":35.65938997,"lon":139.55534612},{"name":"深大寺カフェ子ども食堂","province":"東京都","city":"調布市","address":"東京都調布市深大寺元町1丁目11-1","lat":35.66248107,"lon":139.54792163},{"name":"そらなかBASE","province":"東京都","city":"調布市","address":"東京都調布市深大寺元町1丁目11-1","lat":35.66248107,"lon":139.54792163},{"name":"まごじば","province":"東京都","city":"調布市","address":"東京都調布市国領町1丁目7-1","lat":35.65279632,"lon":139.55237724},{"name":"こくりょう子ども食堂わいわい","province":"東京都","city":"調布市","address":"東京都調布市国領町3丁目8-15","lat":35.64856666,"lon":139.56058525},{"name":"二小地区もりあげ隊","province":"東京都","city":"調布市","address":"東京都調布市国領町5丁目76-3","lat":35.64864714,"lon":139.55144724},{"name":"ウナパウザ","province":"東京都","city":"調布市","address":"東京都調布市染地3丁目8-26","lat":35.63719661,"lon":139.55749791},{"name":"みさとや子ども食堂","province":"東京都","city":"調布市","address":"東京都調布市布田2丁目2-6","lat":35.65352939,"lon":139.54781918},{"name":"ちょうふ子ども食堂","province":"東京都","city":"調布市","address":"東京都調布市布田2丁目5-4","lat":35.65335444,"lon":139.54889689},{"name":"ハッピーこども食堂","province":"東京都","city":"調布市","address":"東京都調布市布田5丁目32-3","lat":35.64607548,"lon":139.54485383},{"name":"電気通信大学こども食堂","province":"東京都","city":"調布市","address":"東京都調布市調布ケ丘1丁目5-1","lat":35.65564303,"lon":139.54430838},{"name":"こども食堂かくしょうじ","province":"東京都","city":"調布市","address":"東京都調布市富士見町1丁目35-5","lat":35.66023412,"lon":139.53743394},{"name":"富士見あおぞら子ども食堂","province":"東京都","city":"調布市","address":"東京都調布市富士見町2丁目13-5","lat":35.65921758,"lon":139.54185572},{"name":"風のテーブル","province":"東京都","city":"調布市","address":"東京都調布市上石原1丁目36-7","lat":35.65909816,"lon":139.53207068},{"name":"子ども食堂かみいしわらたんぽぽ","province":"東京都","city":"調布市","address":"東京都調布市上石原3丁目21-6","lat":35.65290458,"lon":139.52214705},{"name":"（有）和田葬儀社","province":"東京都","city":"調布市","address":"東京都調布市下石原1丁目60-2","lat":35.65478214,"lon":139.53833695},{"name":"（株）メモリード","province":"東京都","city":"調布市","address":"東京都調布市菊野台1丁目11-1","lat":35.65463524,"lon":139.56509551},{"name":"SOGIサポートセンターLinMCGroup株式会社","province":"東京都","city":"調布市","address":"東京都調布市多摩川2丁目3-12","lat":35.64803332,"lon":139.52358352},{"name":"㈲和田葬儀社","province":"東京都","city":"調布市","address":"東京都調布市下石原1丁目60-2","lat":35.65478214,"lon":139.53833695},{"name":"㈱メモリード(ﾒﾓﾘｰﾄﾞﾎｰﾙ)","province":"東京都","city":"調布市","address":"東京都調布市菊野台1丁目10-2","lat":35.65449637,"lon":139.5649622},{"name":"㈱公益社","province":"東京都","city":"調布市","address":"東京都調布市仙川町3丁目1-3","lat":35.66295407,"lon":139.58419625},{"name":"京王フェアウェルサポート㈱（京王メモリアル）","province":"東京都","city":"調布市","address":"東京都調布市布田2丁目34-6","lat":35.65131595,"lon":139.54681677},{"name":"緑ヶ丘こどもフリースペースごりら","province":"東京都","city":"調布市","address":"東京都調布市緑ケ丘2丁目18-49","lat":35.66934778,"lon":139.58393216},{"name":"みんな食堂「仙川スープ」","province":"東京都","city":"調布市","address":"東京都調布市仙川町1丁目19-10","lat":35.66190703,"lon":139.58617112},{"name":"坂の上のばあちゃん家","province":"東京都","city":"調布市","address":"東京都調布市入間町3丁目22-5","lat":35.64650615,"lon":139.58803264},{"name":"子ども食堂深大寺東町","province":"東京都","city":"調布市","address":"東京都調布市深大寺東町6丁目26-15","lat":35.67562424,"lon":139.5587508},{"name":"ハナこども食堂","province":"東京都","city":"調布市","address":"東京都調布市深大寺東町7丁目23-2","lat":35.67628527,"lon":139.55891188},{"name":"絵堂なかよし子ども食堂","province":"東京都","city":"調布市","address":"東京都調布市深大寺南町5丁目9","lat":35.66653636,"lon":139.55753733},{"name":"しばさき彩こども食堂","province":"東京都","city":"調布市","address":"東京都調布市柴崎1丁目64-9","lat":35.6572738,"lon":139.56494541},{"name":"さくら子育てステーション","province":"東京都","city":"調布市","address":"東京都調布市八雲台1丁目22-1","lat":35.65435444,"lon":139.55306875},{"name":"かしわの食堂（まい・夢）","province":"東京都","city":"調布市","address":"東京都調布市佐須町2丁目18-1","lat":35.65938997,"lon":139.55534612},{"name":"深大寺カフェ子ども食堂","province":"東京都","city":"調布市","address":"東京都調布市深大寺元町1丁目11-1","lat":35.66248107,"lon":139.54792163},{"name":"そらなかBASE","province":"東京都","city":"調布市","address":"東京都調布市深大寺元町1丁目11-1","lat":35.66248107,"lon":139.54792163},{"name":"まごじば","province":"東京都","city":"調布市","address":"東京都調布市国領町1丁目7-1","lat":35.65279632,"lon":139.55237724},{"name":"こくりょう子ども食堂わいわい","province":"東京都","city":"調布市","address":"東京都調布市国領町3丁目8-15","lat":35.64856666,"lon":139.56058525},{"name":"二小地区もりあげ隊","province":"東京都","city":"調布市","address":"東京都調布市国領町5丁目76-3","lat":35.64864714,"lon":139.55144724},{"name":"ウナパウザ","province":"東京都","city":"調布市","address":"東京都調布市染地3丁目8-26","lat":35.63719661,"lon":139.55749791},{"name":"みさとや子ども食堂","province":"東京都","city":"調布市","address":"東京都調布市布田2丁目2-6","lat":35.65352939,"lon":139.54781918},{"name":"ちょうふ子ども食堂","province":"東京都","city":"調布市","address":"東京都調布市布田2丁目5-4","lat":35.65335444,"lon":139.54889689},{"name":"ハッピーこども食堂","province":"東京都","city":"調布市","address":"東京都調布市布田5丁目32-3","lat":35.64607548,"lon":139.54485383},{"name":"電気通信大学こども食堂","province":"東京都","city":"調布市","address":"東京都調布市調布ケ丘1丁目5-1","lat":35.65564303,"lon":139.54430838},{"name":"こども食堂かくしょうじ","province":"東京都","city":"調布市","address":"東京都調布市富士見町1丁目35-5","lat":35.66023412,"lon":139.53743394},{"name":"富士見あおぞら子ども食堂","province":"東京都","city":"調布市","address":"東京都調布市富士見町2丁目13-5","lat":35.65921758,"lon":139.54185572},{"name":"風のテーブル","province":"東京都","city":"調布市","address":"東京都調布市上石原1丁目36-7","lat":35.65909816,"lon":139.53207068},{"name":"子ども食堂かみいしわらたんぽぽ","province":"東京都","city":"調布市","address":"東京都調布市上石原3丁目21-6","lat":35.65290458,"lon":139.52214705},{"name":"（有）和田葬儀社","province":"東京都","city":"調布市","address":"東京都調布市下石原1丁目60-2","lat":35.65478214,"lon":139.53833695},{"name":"（株）メモリード","province":"東京都","city":"調布市","address":"東京都調布市菊野台1丁目11-1","lat":35.65463524,"lon":139.56509551},{"name":"SOGIサポートセンターLinMCGroup株式会社","province":"東京都","city":"調布市","address":"東京都調布市多摩川2丁目3-12","lat":35.64803332,"lon":139.52358352},{"name":"㈲和田葬儀社","province":"東京都","city":"調布市","address":"東京都調布市下石原1丁目60-2","lat":35.65478214,"lon":139.53833695},{"name":"㈱メモリード(ﾒﾓﾘｰﾄﾞﾎｰﾙ)","province":"東京都","city":"調布市","address":"東京都調布市菊野台1丁目10-2","lat":35.65449637,"lon":139.5649622},{"name":"㈱公益社","province":"東京都","city":"調布市","address":"東京都調布市仙川町3丁目1-3","lat":35.66295407,"lon":139.58419625},{"name":"京王フェアウェルサポート㈱（京王メモリアル）","province":"東京都","city":"調布市","address":"東京都調布市布田2丁目34-6","lat":35.65131595,"lon":139.54681677},{"name":"緑ヶ丘こどもフリースペースごりら","province":"東京都","city":"調布市","address":"東京都調布市緑ケ丘2丁目18-49","lat":35.66934778,"lon":139.58393216},{"name":"みんな食堂「仙川スープ」","province":"東京都","city":"調布市","address":"東京都調布市仙川町1丁目19-10","lat":35.66190703,"lon":139.58617112},{"name":"坂の上のばあちゃん家","province":"東京都","city":"調布市","address":"東京都調布市入間町3丁目22-5","lat":35.64650615,"lon":139.58803264},{"name":"子ども食堂深大寺東町","province":"東京都","city":"調布市","address":"東京都調布市深大寺東町6丁目26-15","lat":35.67562424,"lon":139.5587508},{"name":"ハナこども食堂","province":"東京都","city":"調布市","address":"東京都調布市深大寺東町7丁目23-2","lat":35.67628527,"lon":139.55891188},{"name":"絵堂なかよし子ども食堂","province":"東京都","city":"調布市","address":"東京都調布市深大寺南町5丁目9","lat":35.66653636,"lon":139.55753733},{"name":"しばさき彩こども食堂","province":"東京都","city":"調布市","address":"東京都調布市柴崎1丁目64-9","lat":35.6572738,"lon":139.56494541},{"name":"さくら子育てステーション","province":"東京都","city":"調布市","address":"東京都調布市八雲台1丁目22-1","lat":35.65435444,"lon":139.55306875},{"name":"かしわの食堂（まい・夢）","province":"東京都","city":"調布市","address":"東京都調布市佐須町2丁目18-1","lat":35.65938997,"lon":139.55534612},{"name":"深大寺カフェ子ども食堂","province":"東京都","city":"調布市","address":"東京都調布市深大寺元町1丁目11-1","lat":35.66248107,"lon":139.54792163},{"name":"そらなかBASE","province":"東京都","city":"調布市","address":"東京都調布市深大寺元町1丁目11-1","lat":35.66248107,"lon":139.54792163},{"name":"まごじば","province":"東京都","city":"調布市","address":"東京都調布市国領町1丁目7-1","lat":35.65279632,"lon":139.55237724},{"name":"こくりょう子ども食堂わいわい","province":"東京都","city":"調布市","address":"東京都調布市国領町3丁目8-15","lat":35.64856666,"lon":139.56058525},{"name":"二小地区もりあげ隊","province":"東京都","city":"調布市","address":"東京都調布市国領町5丁目76-3","lat":35.64864714,"lon":139.55144724},{"name":"ウナパウザ","province":"東京都","city":"調布市","address":"東京都調布市染地3丁目8-26","lat":35.63719661,"lon":139.55749791},{"name":"みさとや子ども食堂","province":"東京都","city":"調布市","address":"東京都調布市布田2丁目2-6","lat":35.65352939,"lon":139.54781918},{"name":"ちょうふ子ども食堂","province":"東京都","city":"調布市","address":"東京都調布市布田2丁目5-4","lat":35.65335444,"lon":139.54889689},{"name":"ハッピーこども食堂","province":"東京都","city":"調布市","address":"東京都調布市布田5丁目32-3","lat":35.64607548,"lon":139.54485383},{"name":"電気通信大学こども食堂","province":"東京都","city":"調布市","address":"東京都調布市調布ケ丘1丁目5-1","lat":35.65564303,"lon":139.54430838},{"name":"こども食堂かくしょうじ","province":"東京都","city":"調布市","address":"東京都調布市富士見町1丁目35-5","lat":35.66023412,"lon":139.53743394},{"name":"富士見あおぞら子ども食堂","province":"東京都","city":"調布市","address":"東京都調布市富士見町2丁目13-5","lat":35.65921758,"lon":139.54185572},{"name":"風のテーブル","province":"東京都","city":"調布市","address":"東京都調布市上石原1丁目36-7","lat":35.65909816,"lon":139.53207068},{"name":"子ども食堂かみいしわらたんぽぽ","province":"東京都","city":"調布市","address":"東京都調布市上石原3丁目21-6","lat":35.65290458,"lon":139.52214705},{"name":"（有）和田葬儀社","province":"東京都","city":"調布市","address":"東京都調布市下石原1丁目60-2","lat":35.65478214,"lon":139.53833695},{"name":"（株）メモリード","province":"東京都","city":"調布市","address":"東京都調布市菊野台1丁目11-1","lat":35.65463524,"lon":139.56509551},{"name":"SOGIサポートセンターLinMCGroup株式会社","province":"東京都","city":"調布市","address":"東京都調布市多摩川2丁目3-12","lat":35.64803332,"lon":139.52358352},{"name":"㈲和田葬儀社","province":"東京都","city":"調布市","address":"東京都調布市下石原1丁目60-2","lat":35.65478214,"lon":139.53833695},{"name":"㈱メモリード(ﾒﾓﾘｰﾄﾞﾎｰﾙ)","province":"東京都","city":"調布市","address":"東京都調布市菊野台1丁目10-2","lat":35.65449637,"lon":139.5649622},{"name":"㈱公益社","province":"東京都","city":"調布市","address":"東京都調布市仙川町3丁目1-3","lat":35.66295407,"lon":139.58419625},{"name":"京王フェアウェルサポート㈱（京王メモリアル）","province":"東京都","city":"調布市","address":"東京都調布市布田2丁目34-6","lat":35.65131595,"lon":139.54681677},{"name":"緑ヶ丘こどもフリースペースごりら","province":"東京都","city":"調布市","address":"東京都調布市緑ケ丘2丁目18-49","lat":35.66934778,"lon":139.58393216},{"name":"みんな食堂「仙川スープ」","province":"東京都","city":"調布市","address":"東京都調布市仙川町1丁目19-10","lat":35.66190703,"lon":139.58617112},{"name":"坂の上のばあちゃん家","province":"東京都","city":"調布市","address":"東京都調布市入間町3丁目22-5","lat":35.64650615,"lon":139.58803264},{"name":"子ども食堂深大寺東町","province":"東京都","city":"調布市","address":"東京都調布市深大寺東町6丁目26-15","lat":35.67562424,"lon":139.5587508},{"name":"ハナこども食堂","province":"東京都","city":"調布市","address":"東京都調布市深大寺東町7丁目23-2","lat":35.67628527,"lon":139.55891188},{"name":"絵堂なかよし子ども食堂","province":"東京都","city":"調布市","address":"東京都調布市深大寺南町5丁目9","lat":35.66653636,"lon":139.55753733},{"name":"しばさき彩こども食堂","province":"東京都","city":"調布市","address":"東京都調布市柴崎1丁目64-9","lat":35.6572738,"lon":139.56494541},{"name":"さくら子育てステーション","province":"東京都","city":"調布市","address":"東京都調布市八雲台1丁目22-1","lat":35.65435444,"lon":139.55306875},{"name":"かしわの食堂（まい・夢）","province":"東京都","city":"調布市","address":"東京都調布市佐須町2丁目18-1","lat":35.65938997,"lon":139.55534612},{"name":"深大寺カフェ子ども食堂","province":"東京都","city":"調布市","address":"東京都調布市深大寺元町1丁目11-1","lat":35.66248107,"lon":139.54792163},{"name":"そらなかBASE","province":"東京都","city":"調布市","address":"東京都調布市深大寺元町1丁目11-1","lat":35.66248107,"lon":139.54792163},{"name":"まごじば","province":"東京都","city":"調布市","address":"東京都調布市国領町1丁目7-1","lat":35.65279632,"lon":139.55237724},{"name":"こくりょう子ども食堂わいわい","province":"東京都","city":"調布市","address":"東京都調布市国領町3丁目8-15","lat":35.64856666,"lon":139.56058525},{"name":"二小地区もりあげ隊","province":"東京都","city":"調布市","address":"東京都調布市国領町5丁目76-3","lat":35.64864714,"lon":139.55144724},{"name":"ウナパウザ","province":"東京都","city":"調布市","address":"東京都調布市染地3丁目8-26","lat":35.63719661,"lon":139.55749791},{"name":"みさとや子ども食堂","province":"東京都","city":"調布市","address":"東京都調布市布田2丁目2-6","lat":35.65352939,"lon":139.54781918},{"name":"ちょうふ子ども食堂","province":"東京都","city":"調布市","address":"東京都調布市布田2丁目5-4","lat":35.65335444,"lon":139.54889689},{"name":"ハッピーこども食堂","province":"東京都","city":"調布市","address":"東京都調布市布田5丁目32-3","lat":35.64607548,"lon":139.54485383},{"name":"電気通信大学こども食堂","province":"東京都","city":"調布市","address":"東京都調布市調布ケ丘1丁目5-1","lat":35.65564303,"lon":139.54430838},{"name":"こども食堂かくしょうじ","province":"東京都","city":"調布市","address":"東京都調布市富士見町1丁目35-5","lat":35.66023412,"lon":139.53743394},{"name":"富士見あおぞら子ども食堂","province":"東京都","city":"調布市","address":"東京都調布市富士見町2丁目13-5","lat":35.65921758,"lon":139.54185572},{"name":"風のテーブル","province":"東京都","city":"調布市","address":"東京都調布市上石原1丁目36-7","lat":35.65909816,"lon":139.53207068},{"name":"子ども食堂かみいしわらたんぽぽ","province":"東京都","city":"調布市","address":"東京都調布市上石原3丁目21-6","lat":35.65290458,"lon":139.52214705},{"name":"（有）和田葬儀社","province":"東京都","city":"調布市","address":"東京都調布市下石原1丁目60-2","lat":35.65478214,"lon":139.53833695},{"name":"（株）メモリード","province":"東京都","city":"調布市","address":"東京都調布市菊野台1丁目11-1","lat":35.65463524,"lon":139.56509551},{"name":"SOGIサポートセンターLinMCGroup株式会社","province":"東京都","city":"調布市","address":"東京都調布市多摩川2丁目3-12","lat":35.64803332,"lon":139.52358352},{"name":"㈲和田葬儀社","province":"東京都","city":"調布市","address":"東京都調布市下石原1丁目60-2","lat":35.65478214,"lon":139.53833695},{"name":"㈱メモリード(ﾒﾓﾘｰﾄﾞﾎｰﾙ)","province":"東京都","city":"調布市","address":"東京都調布市菊野台1丁目10-2","lat":35.65449637,"lon":139.5649622},{"name":"㈱公益社","province":"東京都","city":"調布市","address":"東京都調布市仙川町3丁目1-3","lat":35.66295407,"lon":139.58419625},{"name":"京王フェアウェルサポート㈱（京王メモリアル）","province":"東京都","city":"調布市","address":"東京都調布市布田2丁目34-6","lat":35.65131595,"lon":139.54681677},{"name":"緑ヶ丘こどもフリースペースごりら","province":"東京都","city":"調布市","address":"東京都調布市緑ケ丘2丁目18-49","lat":35.66934778,"lon":139.58393216},{"name":"みんな食堂「仙川スープ」","province":"東京都","city":"調布市","address":"東京都調布市仙川町1丁目19-10","lat":35.66190703,"lon":139.58617112},{"name":"坂の上のばあちゃん家","province":"東京都","city":"調布市","address":"東京都調布市入間町3丁目22-5","lat":35.64650615,"lon":139.58803264},{"name":"子ども食堂深大寺東町","province":"東京都","city":"調布市","address":"東京都調布市深大寺東町6丁目26-15","lat":35.67562424,"lon":139.5587508},{"name":"ハナこども食堂","province":"東京都","city":"調布市","address":"東京都調布市深大寺東町7丁目23-2","lat":35.67628527,"lon":139.55891188},{"name":"絵堂なかよし子ども食堂","province":"東京都","city":"調布市","address":"東京都調布市深大寺南町5丁目9","lat":35.66653636,"lon":139.55753733},{"name":"しばさき彩こども食堂","province":"東京都","city":"調布市","address":"東京都調布市柴崎1丁目64-9","lat":35.6572738,"lon":139.56494541},{"name":"さくら子育てステーション","province":"東京都","city":"調布市","address":"東京都調布市八雲台1丁目22-1","lat":35.65435444,"lon":139.55306875},{"name":"かしわの食堂（まい・夢）","province":"東京都","city":"調布市","address":"東京都調布市佐須町2丁目18-1","lat":35.65938997,"lon":139.55534612},{"name":"深大寺カフェ子ども食堂","province":"東京都","city":"調布市","address":"東京都調布市深大寺元町1丁目11-1","lat":35.66248107,"lon":139.54792163},{"name":"そらなかBASE","province":"東京都","city":"調布市","address":"東京都調布市深大寺元町1丁目11-1","lat":35.66248107,"lon":139.54792163},{"name":"まごじば","province":"東京都","city":"調布市","address":"東京都調布市国領町1丁目7-1","lat":35.65279632,"lon":139.55237724},{"name":"こくりょう子ども食堂わいわい","province":"東京都","city":"調布市","address":"東京都調布市国領町3丁目8-15","lat":35.64856666,"lon":139.56058525},{"name":"二小地区もりあげ隊","province":"東京都","city":"調布市","address":"東京都調布市国領町5丁目76-3","lat":35.64864714,"lon":139.55144724},{"name":"ウナパウザ","province":"東京都","city":"調布市","address":"東京都調布市染地3丁目8-26","lat":35.63719661,"lon":139.55749791},{"name":"みさとや子ども食堂","province":"東京都","city":"調布市","address":"東京都調布市布田2丁目2-6","lat":35.65352939,"lon":139.54781918},{"name":"ちょうふ子ども食堂","province":"東京都","city":"調布市","address":"東京都調布市布田2丁目5-4","lat":35.65335444,"lon":139.54889689},{"name":"ハッピーこども食堂","province":"東京都","city":"調布市","address":"東京都調布市布田5丁目32-3","lat":35.64607548,"lon":139.54485383},{"name":"電気通信大学こども食堂","province":"東京都","city":"調布市","address":"東京都調布市調布ケ丘1丁目5-1","lat":35.65564303,"lon":139.54430838},{"name":"こども食堂かくしょうじ","province":"東京都","city":"調布市","address":"東京都調布市富士見町1丁目35-5","lat":35.66023412,"lon":139.53743394},{"name":"富士見あおぞら子ども食堂","province":"東京都","city":"調布市","address":"東京都調布市富士見町2丁目13-5","lat":35.65921758,"lon":139.54185572},{"name":"風のテーブル","province":"東京都","city":"調布市","address":"東京都調布市上石原1丁目36-7","lat":35.65909816,"lon":139.53207068},{"name":"子ども食堂かみいしわらたんぽぽ","province":"東京都","city":"調布市","address":"東京都調布市上石原3丁目21-6","lat":35.65290458,"lon":139.52214705},{"name":"（有）和田葬儀社","province":"東京都","city":"調布市","address":"東京都調布市下石原1丁目60-2","lat":35.65478214,"lon":139.53833695},{"name":"（株）メモリード","province":"東京都","city":"調布市","address":"東京都調布市菊野台1丁目11-1","lat":35.65463524,"lon":139.56509551},{"name":"SOGIサポートセンターLinMCGroup株式会社","province":"東京都","city":"調布市","address":"東京都調布市多摩川2丁目3-12","lat":35.64803332,"lon":139.52358352},{"name":"㈲和田葬儀社","province":"東京都","city":"調布市","address":"東京都調布市下石原1丁目60-2","lat":35.65478214,"lon":139.53833695},{"name":"㈱メモリード(ﾒﾓﾘｰﾄﾞﾎｰﾙ)","province":"東京都","city":"調布市","address":"東京都調布市菊野台1丁目10-2","lat":35.65449637,"lon":139.5649622},{"name":"㈱公益社","province":"東京都","city":"調布市","address":"東京都調布市仙川町3丁目1-3","lat":35.66295407,"lon":139.58419625},{"name":"京王フェアウェルサポート㈱（京王メモリアル）","province":"東京都","city":"調布市","address":"東京都調布市布田2丁目34-6","lat":35.65131595,"lon":139.54681677},{"name":"緑ヶ丘こどもフリースペースごりら","province":"東京都","city":"調布市","address":"東京都調布市緑ケ丘2丁目18-49","lat":35.66934778,"lon":139.58393216},{"name":"みんな食堂「仙川スープ」","province":"東京都","city":"調布市","address":"東京都調布市仙川町1丁目19-10","lat":35.66190703,"lon":139.58617112},{"name":"坂の上のばあちゃん家","province":"東京都","city":"調布市","address":"東京都調布市入間町3丁目22-5","lat":35.64650615,"lon":139.58803264},{"name":"子ども食堂深大寺東町","province":"東京都","city":"調布市","address":"東京都調布市深大寺東町6丁目26-15","lat":35.67562424,"lon":139.5587508},{"name":"ハナこども食堂","province":"東京都","city":"調布市","address":"東京都調布市深大寺東町7丁目23-2","lat":35.67628527,"lon":139.55891188},{"name":"絵堂なかよし子ども食堂","province":"東京都","city":"調布市","address":"東京都調布市深大寺南町5丁目9","lat":35.66653636,"lon":139.55753733},{"name":"しばさき彩こども食堂","province":"東京都","city":"調布市","address":"東京都調布市柴崎1丁目64-9","lat":35.6572738,"lon":139.56494541},{"name":"さくら子育てステーション","province":"東京都","city":"調布市","address":"東京都調布市八雲台1丁目22-1","lat":35.65435444,"lon":139.55306875},{"name":"かしわの食堂（まい・夢）","province":"東京都","city":"調布市","address":"東京都調布市佐須町2丁目18-1","lat":35.65938997,"lon":139.55534612},{"name":"深大寺カフェ子ども食堂","province":"東京都","city":"調布市","address":"東京都調布市深大寺元町1丁目11-1","lat":35.66248107,"lon":139.54792163},{"name":"そらなかBASE","province":"東京都","city":"調布市","address":"東京都調布市深大寺元町1丁目11-1","lat":35.66248107,"lon":139.54792163},{"name":"まごじば","province":"東京都","city":"調布市","address":"東京都調布市国領町1丁目7-1","lat":35.65279632,"lon":139.55237724},{"name":"こくりょう子ども食堂わいわい","province":"東京都","city":"調布市","address":"東京都調布市国領町3丁目8-15","lat":35.64856666,"lon":139.56058525},{"name":"二小地区もりあげ隊","province":"東京都","city":"調布市","address":"東京都調布市国領町5丁目76-3","lat":35.64864714,"lon":139.55144724},{"name":"ウナパウザ","province":"東京都","city":"調布市","address":"東京都調布市染地3丁目8-26","lat":35.63719661,"lon":139.55749791},{"name":"みさとや子ども食堂","province":"東京都","city":"調布市","address":"東京都調布市布田2丁目2-6","lat":35.65352939,"lon":139.54781918},{"name":"ちょうふ子ども食堂","province":"東京都","city":"調布市","address":"東京都調布市布田2丁目5-4","lat":35.65335444,"lon":139.54889689},{"name":"ハッピーこども食堂","province":"東京都","city":"調布市","address":"東京都調布市布田5丁目32-3","lat":35.64607548,"lon":139.54485383},{"name":"電気通信大学こども食堂","province":"東京都","city":"調布市","address":"東京都調布市調布ケ丘1丁目5-1","lat":35.65564303,"lon":139.54430838},{"name":"こども食堂かくしょうじ","province":"東京都","city":"調布市","address":"東京都調布市富士見町1丁目35-5","lat":35.66023412,"lon":139.53743394},{"name":"富士見あおぞら子ども食堂","province":"東京都","city":"調布市","address":"東京都調布市富士見町2丁目13-5","lat":35.65921758,"lon":139.54185572},{"name":"風のテーブル","province":"東京都","city":"調布市","address":"東京都調布市上石原1丁目36-7","lat":35.65909816,"lon":139.53207068},{"name":"子ども食堂かみいしわらたんぽぽ","province":"東京都","city":"調布市","address":"東京都調布市上石原3丁目21-6","lat":35.65290458,"lon":139.52214705},{"name":"（有）和田葬儀社","province":"東京都","city":"調布市","address":"東京都調布市下石原1丁目60-2","lat":35.65478214,"lon":139.53833695},{"name":"（株）メモリード","province":"東京都","city":"調布市","address":"東京都調布市菊野台1丁目11-1","lat":35.65463524,"lon":139.56509551},{"name":"SOGIサポートセンターLinMCGroup株式会社","province":"東京都","city":"調布市","address":"東京都調布市多摩川2丁目3-12","lat":35.64803332,"lon":139.52358352},{"name":"㈲和田葬儀社","province":"東京都","city":"調布市","address":"東京都調布市下石原1丁目60-2","lat":35.65478214,"lon":139.53833695},{"name":"㈱メモリード(ﾒﾓﾘｰﾄﾞﾎｰﾙ)","province":"東京都","city":"調布市","address":"東京都調布市菊野台1丁目10-2","lat":35.65449637,"lon":139.5649622},{"name":"㈱公益社","province":"東京都","city":"調布市","address":"東京都調布市仙川町3丁目1-3","lat":35.66295407,"lon":139.58419625},{"name":"京王フェアウェルサポート㈱（京王メモリアル）","province":"東京都","city":"調布市","address":"東京都調布市布田2丁目34-6","lat":35.65131595,"lon":139.54681677},{"name":"緑ヶ丘こどもフリースペースごりら","province":"東京都","city":"調布市","address":"東京都調布市緑ケ丘2丁目18-49","lat":35.66934778,"lon":139.58393216},{"name":"みんな食堂「仙川スープ」","province":"東京都","city":"調布市","address":"東京都調布市仙川町1丁目19-10","lat":35.66190703,"lon":139.58617112},{"name":"坂の上のばあちゃん家","province":"東京都","city":"調布市","address":"東京都調布市入間町3丁目22-5","lat":35.64650615,"lon":139.58803264},{"name":"子ども食堂深大寺東町","province":"東京都","city":"調布市","address":"東京都調布市深大寺東町6丁目26-15","lat":35.67562424,"lon":139.5587508},{"name":"ハナこども食堂","province":"東京都","city":"調布市","address":"東京都調布市深大寺東町7丁目23-2","lat":35.67628527,"lon":139.55891188},{"name":"絵堂なかよし子ども食堂","province":"東京都","city":"調布市","address":"東京都調布市深大寺南町5丁目9","lat":35.66653636,"lon":139.55753733},{"name":"しばさき彩こども食堂","province":"東京都","city":"調布市","address":"東京都調布市柴崎1丁目64-9","lat":35.6572738,"lon":139.56494541},{"name":"さくら子育てステーション","province":"東京都","city":"調布市","address":"東京都調布市八雲台1丁目22-1","lat":35.65435444,"lon":139.55306875},{"name":"かしわの食堂（まい・夢）","province":"東京都","city":"調布市","address":"東京都調布市佐須町2丁目18-1","lat":35.65938997,"lon":139.55534612},{"name":"深大寺カフェ子ども食堂","province":"東京都","city":"調布市","address":"東京都調布市深大寺元町1丁目11-1","lat":35.66248107,"lon":139.54792163},{"name":"そらなかBASE","province":"東京都","city":"調布市","address":"東京都調布市深大寺元町1丁目11-1","lat":35.66248107,"lon":139.54792163},{"name":"まごじば","province":"東京都","city":"調布市","address":"東京都調布市国領町1丁目7-1","lat":35.65279632,"lon":139.55237724},{"name":"こくりょう子ども食堂わいわい","province":"東京都","city":"調布市","address":"東京都調布市国領町3丁目8-15","lat":35.64856666,"lon":139.56058525},{"name":"二小地区もりあげ隊","province":"東京都","city":"調布市","address":"東京都調布市国領町5丁目76-3","lat":35.64864714,"lon":139.55144724},{"name":"ウナパウザ","province":"東京都","city":"調布市","address":"東京都調布市染地3丁目8-26","lat":35.63719661,"lon":139.55749791},{"name":"みさとや子ども食堂","province":"東京都","city":"調布市","address":"東京都調布市布田2丁目2-6","lat":35.65352939,"lon":139.54781918},{"name":"ちょうふ子ども食堂","province":"東京都","city":"調布市","address":"東京都調布市布田2丁目5-4","lat":35.65335444,"lon":139.54889689},{"name":"ハッピーこども食堂","province":"東京都","city":"調布市","address":"東京都調布市布田5丁目32-3","lat":35.64607548,"lon":139.54485383},{"name":"電気通信大学こども食堂","province":"東京都","city":"調布市","address":"東京都調布市調布ケ丘1丁目5-1","lat":35.65564303,"lon":139.54430838},{"name":"こども食堂かくしょうじ","province":"東京都","city":"調布市","address":"東京都調布市富士見町1丁目35-5","lat":35.66023412,"lon":139.53743394},{"name":"富士見あおぞら子ども食堂","province":"東京都","city":"調布市","address":"東京都調布市富士見町2丁目13-5","lat":35.65921758,"lon":139.54185572},{"name":"風のテーブル","province":"東京都","city":"調布市","address":"東京都調布市上石原1丁目36-7","lat":35.65909816,"lon":139.53207068},{"name":"子ども食堂かみいしわらたんぽぽ","province":"東京都","city":"調布市","address":"東京都調布市上石原3丁目21-6","lat":35.65290458,"lon":139.52214705},{"name":"（有）和田葬儀社","province":"東京都","city":"調布市","address":"東京都調布市下石原1丁目60-2","lat":35.65478214,"lon":139.53833695},{"name":"（株）メモリード","province":"東京都","city":"調布市","address":"東京都調布市菊野台1丁目11-1","lat":35.65463524,"lon":139.56509551},{"name":"SOGIサポートセンターLinMCGroup株式会社","province":"東京都","city":"調布市","address":"東京都調布市多摩川2丁目3-12","lat":35.64803332,"lon":139.52358352},{"name":"㈲和田葬儀社","province":"東京都","city":"調布市","address":"東京都調布市下石原1丁目60-2","lat":35.65478214,"lon":139.53833695},{"name":"㈱メモリード(ﾒﾓﾘｰﾄﾞﾎｰﾙ)","province":"東京都","city":"調布市","address":"東京都調布市菊野台1丁目10-2","lat":35.65449637,"lon":139.5649622},{"name":"㈱公益社","province":"東京都","city":"調布市","address":"東京都調布市仙川町3丁目1-3","lat":35.66295407,"lon":139.58419625},{"name":"京王フェアウェルサポート㈱（京王メモリアル）","province":"東京都","city":"調布市","address":"東京都調布市布田2丁目34-6","lat":35.65131595,"lon":139.54681677},{"name":"緑ヶ丘こどもフリースペースごりら","province":"東京都","city":"調布市","address":"東京都調布市緑ケ丘2丁目18-49","lat":35.66934778,"lon":139.58393216},{"name":"みんな食堂「仙川スープ」","province":"東京都","city":"調布市","address":"東京都調布市仙川町1丁目19-10","lat":35.66190703,"lon":139.58617112},{"name":"坂の上のばあちゃん家","province":"東京都","city":"調布市","address":"東京都調布市入間町3丁目22-5","lat":35.64650615,"lon":139.58803264},{"name":"子ども食堂深大寺東町","province":"東京都","city":"調布市","address":"東京都調布市深大寺東町6丁目26-15","lat":35.67562424,"lon":139.5587508},{"name":"ハナこども食堂","province":"東京都","city":"調布市","address":"東京都調布市深大寺東町7丁目23-2","lat":35.67628527,"lon":139.55891188},{"name":"絵堂なかよし子ども食堂","province":"東京都","city":"調布市","address":"東京都調布市深大寺南町5丁目9","lat":35.66653636,"lon":139.55753733},{"name":"しばさき彩こども食堂","province":"東京都","city":"調布市","address":"東京都調布市柴崎1丁目64-9","lat":35.6572738,"lon":139.56494541},{"name":"さくら子育てステーション","province":"東京都","city":"調布市","address":"東京都調布市八雲台1丁目22-1","lat":35.65435444,"lon":139.55306875},{"name":"かしわの食堂（まい・夢）","province":"東京都","city":"調布市","address":"東京都調布市佐須町2丁目18-1","lat":35.65938997,"lon":139.55534612},{"name":"深大寺カフェ子ども食堂","province":"東京都","city":"調布市","address":"東京都調布市深大寺元町1丁目11-1","lat":35.66248107,"lon":139.54792163},{"name":"そらなかBASE","province":"東京都","city":"調布市","address":"東京都調布市深大寺元町1丁目11-1","lat":35.66248107,"lon":139.54792163},{"name":"まごじば","province":"東京都","city":"調布市","address":"東京都調布市国領町1丁目7-1","lat":35.65279632,"lon":139.55237724},{"name":"こくりょう子ども食堂わいわい","province":"東京都","city":"調布市","address":"東京都調布市国領町3丁目8-15","lat":35.64856666,"lon":139.56058525},{"name":"二小地区もりあげ隊","province":"東京都","city":"調布市","address":"東京都調布市国領町5丁目76-3","lat":35.64864714,"lon":139.55144724},{"name":"ウナパウザ","province":"東京都","city":"調布市","address":"東京都調布市染地3丁目8-26","lat":35.63719661,"lon":139.55749791},{"name":"みさとや子ども食堂","province":"東京都","city":"調布市","address":"東京都調布市布田2丁目2-6","lat":35.65352939,"lon":139.54781918},{"name":"ちょうふ子ども食堂","province":"東京都","city":"調布市","address":"東京都調布市布田2丁目5-4","lat":35.65335444,"lon":139.54889689},{"name":"ハッピーこども食堂","province":"東京都","city":"調布市","address":"東京都調布市布田5丁目32-3","lat":35.64607548,"lon":139.54485383},{"name":"電気通信大学こども食堂","province":"東京都","city":"調布市","address":"東京都調布市調布ケ丘1丁目5-1","lat":35.65564303,"lon":139.54430838},{"name":"こども食堂かくしょうじ","province":"東京都","city":"調布市","address":"東京都調布市富士見町1丁目35-5","lat":35.66023412,"lon":139.53743394},{"name":"富士見あおぞら子ども食堂","province":"東京都","city":"調布市","address":"東京都調布市富士見町2丁目13-5","lat":35.65921758,"lon":139.54185572},{"name":"風のテーブル","province":"東京都","city":"調布市","address":"東京都調布市上石原1丁目36-7","lat":35.65909816,"lon":139.53207068},{"name":"子ども食堂かみいしわらたんぽぽ","province":"東京都","city":"調布市","address":"東京都調布市上石原3丁目21-6","lat":35.65290458,"lon":139.52214705},{"name":"（有）和田葬儀社","province":"東京都","city":"調布市","address":"東京都調布市下石原1丁目60-2","lat":35.65478214,"lon":139.53833695},{"name":"（株）メモリード","province":"東京都","city":"調布市","address":"東京都調布市菊野台1丁目11-1","lat":35.65463524,"lon":139.56509551},{"name":"SOGIサポートセンターLinMCGroup株式会社","province":"東京都","city":"調布市","address":"東京都調布市多摩川2丁目3-12","lat":35.64803332,"lon":139.52358352},{"name":"㈲和田葬儀社","province":"東京都","city":"調布市","address":"東京都調布市下石原1丁目60-2","lat":35.65478214,"lon":139.53833695},{"name":"㈱メモリード(ﾒﾓﾘｰﾄﾞﾎｰﾙ)","province":"東京都","city":"調布市","address":"東京都調布市菊野台1丁目10-2","lat":35.65449637,"lon":139.5649622},{"name":"㈱公益社","province":"東京都","city":"調布市","address":"東京都調布市仙川町3丁目1-3","lat":35.66295407,"lon":139.58419625},{"name":"京王フェアウェルサポート㈱（京王メモリアル）","province":"東京都","city":"調布市","address":"東京都調布市布田2丁目34-6","lat":35.65131595,"lon":139.54681677},{"name":"緑ヶ丘こどもフリースペースごりら","province":"東京都","city":"調布市","address":"東京都調布市緑ケ丘2丁目18-49","lat":35.66934778,"lon":139.58393216},{"name":"みんな食堂「仙川スープ」","province":"東京都","city":"調布市","address":"東京都調布市仙川町1丁目19-10","lat":35.66190703,"lon":139.58617112},{"name":"坂の上のばあちゃん家","province":"東京都","city":"調布市","address":"東京都調布市入間町3丁目22-5","lat":35.64650615,"lon":139.58803264},{"name":"子ども食堂深大寺東町","province":"東京都","city":"調布市","address":"東京都調布市深大寺東町6丁目26-15","lat":35.67562424,"lon":139.5587508},{"name":"ハナこども食堂","province":"東京都","city":"調布市","address":"東京都調布市深大寺東町7丁目23-2","lat":35.67628527,"lon":139.55891188},{"name":"絵堂なかよし子ども食堂","province":"東京都","city":"調布市","address":"東京都調布市深大寺南町5丁目9","lat":35.66653636,"lon":139.55753733},{"name":"しばさき彩こども食堂","province":"東京都","city":"調布市","address":"東京都調布市柴崎1丁目64-9","lat":35.6572738,"lon":139.56494541},{"name":"さくら子育てステーション","province":"東京都","city":"調布市","address":"東京都調布市八雲台1丁目22-1","lat":35.65435444,"lon":139.55306875},{"name":"かしわの食堂（まい・夢）","province":"東京都","city":"調布市","address":"東京都調布市佐須町2丁目18-1","lat":35.65938997,"lon":139.55534612},{"name":"深大寺カフェ子ども食堂","province":"東京都","city":"調布市","address":"東京都調布市深大寺元町1丁目11-1","lat":35.66248107,"lon":139.54792163},{"name":"そらなかBASE","province":"東京都","city":"調布市","address":"東京都調布市深大寺元町1丁目11-1","lat":35.66248107,"lon":139.54792163},{"name":"まごじば","province":"東京都","city":"調布市","address":"東京都調布市国領町1丁目7-1","lat":35.65279632,"lon":139.55237724},{"name":"こくりょう子ども食堂わいわい","province":"東京都","city":"調布市","address":"東京都調布市国領町3丁目8-15","lat":35.64856666,"lon":139.56058525},{"name":"二小地区もりあげ隊","province":"東京都","city":"調布市","address":"東京都調布市国領町5丁目76-3","lat":35.64864714,"lon":139.55144724},{"name":"ウナパウザ","province":"東京都","city":"調布市","address":"東京都調布市染地3丁目8-26","lat":35.63719661,"lon":139.55749791},{"name":"みさとや子ども食堂","province":"東京都","city":"調布市","address":"東京都調布市布田2丁目2-6","lat":35.65352939,"lon":139.54781918},{"name":"ちょうふ子ども食堂","province":"東京都","city":"調布市","address":"東京都調布市布田2丁目5-4","lat":35.65335444,"lon":139.54889689},{"name":"ハッピーこども食堂","province":"東京都","city":"調布市","address":"東京都調布市布田5丁目32-3","lat":35.64607548,"lon":139.54485383},{"name":"電気通信大学こども食堂","province":"東京都","city":"調布市","address":"東京都調布市調布ケ丘1丁目5-1","lat":35.65564303,"lon":139.54430838},{"name":"こども食堂かくしょうじ","province":"東京都","city":"調布市","address":"東京都調布市富士見町1丁目35-5","lat":35.66023412,"lon":139.53743394},{"name":"富士見あおぞら子ども食堂","province":"東京都","city":"調布市","address":"東京都調布市富士見町2丁目13-5","lat":35.65921758,"lon":139.54185572},{"name":"風のテーブル","province":"東京都","city":"調布市","address":"東京都調布市上石原1丁目36-7","lat":35.65909816,"lon":139.53207068},{"name":"子ども食堂かみいしわらたんぽぽ","province":"東京都","city":"調布市","address":"東京都調布市上石原3丁目21-6","lat":35.65290458,"lon":139.52214705},{"name":"（有）和田葬儀社","province":"東京都","city":"調布市","address":"東京都調布市下石原1丁目60-2","lat":35.65478214,"lon":139.53833695},{"name":"（株）メモリード","province":"東京都","city":"調布市","address":"東京都調布市菊野台1丁目11-1","lat":35.65463524,"lon":139.56509551},{"name":"SOGIサポートセンターLinMCGroup株式会社","province":"東京都","city":"調布市","address":"東京都調布市多摩川2丁目3-12","lat":35.64803332,"lon":139.52358352},{"name":"㈲和田葬儀社","province":"東京都","city":"調布市","address":"東京都調布市下石原1丁目60-2","lat":35.65478214,"lon":139.53833695},{"name":"㈱メモリード(ﾒﾓﾘｰﾄﾞﾎｰﾙ)","province":"東京都","city":"調布市","address":"東京都調布市菊野台1丁目10-2","lat":35.65449637,"lon":139.5649622},{"name":"㈱公益社","province":"東京都","city":"調布市","address":"東京都調布市仙川町3丁目1-3","lat":35.66295407,"lon":139.58419625},{"name":"京王フェアウェルサポート㈱（京王メモリアル）","province":"東京都","city":"調布市","address":"東京都調布市布田2丁目34-6","lat":35.65131595,"lon":139.54681677},{"name":"緑ヶ丘こどもフリースペースごりら","province":"東京都","city":"調布市","address":"東京都調布市緑ケ丘2丁目18-49","lat":35.66934778,"lon":139.58393216},{"name":"みんな食堂「仙川スープ」","province":"東京都","city":"調布市","address":"東京都調布市仙川町1丁目19-10","lat":35.66190703,"lon":139.58617112},{"name":"坂の上のばあちゃん家","province":"東京都","city":"調布市","address":"東京都調布市入間町3丁目22-5","lat":35.64650615,"lon":139.58803264},{"name":"子ども食堂深大寺東町","province":"東京都","city":"調布市","address":"東京都調布市深大寺東町6丁目26-15","lat":35.67562424,"lon":139.5587508},{"name":"ハナこども食堂","province":"東京都","city":"調布市","address":"東京都調布市深大寺東町7丁目23-2","lat":35.67628527,"lon":139.55891188},{"name":"絵堂なかよし子ども食堂","province":"東京都","city":"調布市","address":"東京都調布市深大寺南町5丁目9","lat":35.66653636,"lon":139.55753733},{"name":"しばさき彩こども食堂","province":"東京都","city":"調布市","address":"東京都調布市柴崎1丁目64-9","lat":35.6572738,"lon":139.56494541},{"name":"さくら子育てステーション","province":"東京都","city":"調布市","address":"東京都調布市八雲台1丁目22-1","lat":35.65435444,"lon":139.55306875},{"name":"かしわの食堂（まい・夢）","province":"東京都","city":"調布市","address":"東京都調布市佐須町2丁目18-1","lat":35.65938997,"lon":139.55534612},{"name":"深大寺カフェ子ども食堂","province":"東京都","city":"調布市","address":"東京都調布市深大寺元町1丁目11-1","lat":35.66248107,"lon":139.54792163},{"name":"そらなかBASE","province":"東京都","city":"調布市","address":"東京都調布市深大寺元町1丁目11-1","lat":35.66248107,"lon":139.54792163},{"name":"まごじば","province":"東京都","city":"調布市","address":"東京都調布市国領町1丁目7-1","lat":35.65279632,"lon":139.55237724},{"name":"こくりょう子ども食堂わいわい","province":"東京都","city":"調布市","address":"東京都調布市国領町3丁目8-15","lat":35.64856666,"lon":139.56058525},{"name":"二小地区もりあげ隊","province":"東京都","city":"調布市","address":"東京都調布市国領町5丁目76-3","lat":35.64864714,"lon":139.55144724},{"name":"ウナパウザ","province":"東京都","city":"調布市","address":"東京都調布市染地3丁目8-26","lat":35.63719661,"lon":139.55749791},{"name":"みさとや子ども食堂","province":"東京都","city":"調布市","address":"東京都調布市布田2丁目2-6","lat":35.65352939,"lon":139.54781918},{"name":"ちょうふ子ども食堂","province":"東京都","city":"調布市","address":"東京都調布市布田2丁目5-4","lat":35.65335444,"lon":139.54889689},{"name":"ハッピーこども食堂","province":"東京都","city":"調布市","address":"東京都調布市布田5丁目32-3","lat":35.64607548,"lon":139.54485383},{"name":"電気通信大学こども食堂","province":"東京都","city":"調布市","address":"東京都調布市調布ケ丘1丁目5-1","lat":35.65564303,"lon":139.54430838},{"name":"こども食堂かくしょうじ","province":"東京都","city":"調布市","address":"東京都調布市富士見町1丁目35-5","lat":35.66023412,"lon":139.53743394},{"name":"富士見あおぞら子ども食堂","province":"東京都","city":"調布市","address":"東京都調布市富士見町2丁目13-5","lat":35.65921758,"lon":139.54185572},{"name":"風のテーブル","province":"東京都","city":"調布市","address":"東京都調布市上石原1丁目36-7","lat":35.65909816,"lon":139.53207068},{"name":"子ども食堂かみいしわらたんぽぽ","province":"東京都","city":"調布市","address":"東京都調布市上石原3丁目21-6","lat":35.65290458,"lon":139.52214705},{"name":"（有）和田葬儀社","province":"東京都","city":"調布市","address":"東京都調布市下石原1丁目60-2","lat":35.65478214,"lon":139.53833695},{"name":"（株）メモリード","province":"東京都","city":"調布市","address":"東京都調布市菊野台1丁目11-1","lat":35.65463524,"lon":139.56509551}]}