{"keyword":"破損","data":[{"name":"調布市地域包括支援センターはなみずき","province":"東京都","city":"調布市","address":"調布市深大寺北町4-17-7","lat":35.679989,"lon":139.551575},{"name":"調布市地域包括支援センターちょうふの里","province":"東京都","city":"調布市","address":"調布市西町290-5","lat":35.666344,"lon":139.52269},{"name":"調布市地域包括支援センターせいじゅ","province":"東京都","city":"調布市","address":"調布市上石原3-54-2","lat":35.65004,"lon":139.52478},{"name":"調布市地域包括支援センターちょうふ花園","province":"東京都","city":"調布市","address":"調布市下石原3-44-1","lat":35.651432,"lon":139.533188},{"name":"調布市地域包括支援センター調布八雲苑","province":"東京都","city":"調布市","address":"調布市八雲台1-22-11階","lat":35.654781,"lon":139.553162},{"name":"調布市地域包括支援センター至誠しばさき","province":"東京都","city":"調布市","address":"調布市菊野台1-52-4","lat":35.655369,"lon":139.565491},{"name":"調布市地域包括支援センターときわぎ国領","province":"東京都","city":"調布市","address":"調布市国領町7-32-2デュスモン国領101","lat":35.644749,"lon":139.560547},{"name":"調布市地域包括支援センターゆうあい","province":"東京都","city":"調布市","address":"調布市国領町3-8-1","lat":35.650097,"lon":139.560684},{"name":"調布市地域包括支援センターつつじヶ丘","province":"東京都","city":"調布市","address":"調布市東つつじヶ丘1-5-2","lat":35.659683,"lon":139.576248},{"name":"調布市地域包括支援センター仙川","province":"東京都","city":"調布市","address":"調布市若葉町2-22-21階","lat":35.655972,"lon":139.589172},{"name":"調布市消費生活センター","province":"東京都","city":"調布市","address":"調布市小島町2-35-1","lat":35.650593,"lon":139.540894},{"name":"御塔坂橋北","province":"東京都","city":"調布市","address":"東京都調布市深大寺元町3丁目1","lat":35.6658612,"lon":139.54374139},{"name":"旧甲州街道入口","province":"東京都","city":"調布市","address":"東京都調布市国領町2丁目18-4","lat":35.65227161,"lon":139.5597767},{"name":"国領駅入口","province":"東京都","city":"調布市","address":"東京都調布市国領町1丁目45-11","lat":35.65064961,"lon":139.55676599},{"name":"仙川駅入口","province":"東京都","city":"調布市","address":"東京都調布市仙川町2丁目19-5","lat":35.66328458,"lon":139.58346575},{"name":"上石原","province":"東京都","city":"調布市","address":"東京都調布市富士見町1丁目1","lat":35.66012856,"lon":139.53295109},{"name":"味の素スタジアム西","province":"東京都","city":"調布市","address":"東京都調布市西町290","lat":35.66924671,"lon":139.53010368},{"name":"調布駅西","province":"東京都","city":"調布市","address":"東京都調布市小島町1丁目36-16","lat":35.65269349,"lon":139.54303928},{"name":"布多天神前","province":"東京都","city":"調布市","address":"東京都調布市調布ケ丘1丁目6","lat":35.65539583,"lon":139.54488332},{"name":"不動前","province":"東京都","city":"調布市","address":"東京都調布市国領町1丁目2-8","lat":35.65169097,"lon":139.55134967},{"name":"国領町八丁目","province":"東京都","city":"調布市","address":"東京都調布市国領町4丁目51-1","lat":35.64605871,"lon":139.56218803},{"name":"深大寺北町一丁目","province":"東京都","city":"調布市","address":"東京都調布市深大寺北町7丁目27","lat":35.67532402,"lon":139.54521317},{"name":"つつじヶ丘交番前","province":"東京都","city":"調布市","address":"東京都調布市西つつじケ丘3丁目31-2","lat":35.65925155,"lon":139.57431952},{"name":"多摩川団地交番前","province":"東京都","city":"調布市","address":"東京都調布市染地3丁目1-498","lat":35.63967659,"lon":139.55987229},{"name":"調布駅南入口","province":"東京都","city":"調布市","address":"東京都調布市布田5丁目1","lat":35.64839998,"lon":139.54339535},{"name":"調布駅北","province":"東京都","city":"調布市","address":"東京都調布市布田1丁目37-16","lat":35.65298507,"lon":139.54419187},{"name":"調布中学校前","province":"東京都","city":"調布市","address":"東京都調布市富士見町4丁目17-1","lat":35.66535009,"lon":139.53516172},{"name":"仙川橋","province":"東京都","city":"調布市","address":"東京都調布市緑ケ丘2丁目56","lat":35.66533724,"lon":139.5879153},{"name":"国領駅南","province":"東京都","city":"調布市","address":"東京都調布市国領町3丁目1-38","lat":35.64966092,"lon":139.55874091},{"name":"調布第三小学校入口","province":"東京都","city":"調布市","address":"東京都調布市上石原2丁目41","lat":35.65508765,"lon":139.52915735},{"name":"飛田給小入口","province":"東京都","city":"調布市","address":"東京都調布市飛田給2丁目42-7","lat":35.65689285,"lon":139.52534091},{"name":"飛田給小入口第二","province":"東京都","city":"調布市","address":"東京都調布市飛田給2丁目42-7","lat":35.65689285,"lon":139.52534091},{"name":"野川馬橋西","province":"東京都","city":"調布市","address":"東京都調布市国領町2丁目26","lat":35.65327149,"lon":139.56242638},{"name":"調布市役所前","province":"東京都","city":"調布市","address":"東京都調布市小島町2丁目35-1","lat":35.65059399,"lon":139.5406704},{"name":"布田一丁目","province":"東京都","city":"調布市","address":"東京都調布市布田1丁目25-2","lat":35.65270176,"lon":139.54599168},{"name":"国領町三丁目","province":"東京都","city":"調布市","address":"東京都調布市国領町3丁目8","lat":35.64928321,"lon":139.5611518},{"name":"飛田給二丁目","province":"東京都","city":"調布市","address":"東京都調布市飛田給2丁目19","lat":35.65929519,"lon":139.52253264},{"name":"飛田給二丁目東","province":"東京都","city":"調布市","address":"東京都調布市飛田給2丁目24-7","lat":35.65814817,"lon":139.52361597},{"name":"飛田給駅南口","province":"東京都","city":"調布市","address":"東京都調布市飛田給2丁目13-12","lat":35.65893411,"lon":139.52149665},{"name":"調布総合体育館南","province":"東京都","city":"調布市","address":"東京都調布市深大寺北町2丁目2","lat":35.6716801,"lon":139.55205709},{"name":"調布郵便局前","province":"東京都","city":"調布市","address":"東京都調布市国領町2丁目14","lat":35.65227714,"lon":139.55834905},{"name":"調布ヶ丘一丁目","province":"東京都","city":"調布市","address":"東京都調布市調布ケ丘1丁目34-1","lat":35.65472366,"lon":139.54680532},{"name":"国領小学校西","province":"東京都","city":"調布市","address":"東京都調布市国領町8丁目1-55","lat":35.64866387,"lon":139.56351548},{"name":"調布駅入口","province":"東京都","city":"調布市","address":"東京都調布市調布ケ丘1丁目5-1","lat":35.65564303,"lon":139.54430838},{"name":"調布市文化プラザ前","province":"東京都","city":"調布市","address":"東京都調布市小島町2丁目34","lat":35.6508828,"lon":139.54196187},{"name":"調布警察署前","province":"東京都","city":"調布市","address":"東京都調布市国領町2丁目25-1","lat":35.65292432,"lon":139.56223197},{"name":"調布駅南","province":"東京都","city":"調布市","address":"東京都調布市布田4丁目17-10","lat":35.65041342,"lon":139.54403667},{"name":"調布駅南第二","province":"東京都","city":"調布市","address":"東京都調布市小島町2丁目52-1","lat":35.64983578,"lon":139.54309243},{"name":"東京スタジアム前","province":"東京都","city":"調布市","address":"東京都調布市飛田給1丁目34-17","lat":35.66310853,"lon":139.52479608},{"name":"飛田給駅入口","province":"東京都","city":"調布市","address":"東京都調布市飛田給1丁目26-1","lat":35.66123655,"lon":139.52347964},{"name":"飛田給小学校前","province":"東京都","city":"調布市","address":"東京都調布市上石原3丁目3","lat":35.65435992,"lon":139.52418564},{"name":"国領駅前","province":"東京都","city":"調布市","address":"東京都調布市国領町4丁目8-1","lat":35.64947482,"lon":139.5574827},{"name":"布田駅前第一","province":"東京都","city":"調布市","address":"東京都調布市国領町5丁目70-1","lat":35.64951641,"lon":139.55109439},{"name":"布田駅前第二","province":"東京都","city":"調布市","address":"東京都調布市布田2丁目51-6","lat":35.65026625,"lon":139.55079711},{"name":"上石原浄水所","province":"東京都","city":"調布市","address":"東京都調布市上石原1丁目34-7","lat":35.66130335,"lon":139.53174555},{"name":"深大寺浄水所","province":"東京都","city":"調布市","address":"東京都調布市深大寺南町5丁目56-1","lat":35.66896104,"lon":139.55556797},{"name":"調布市地域包括支援センターはなみずき","province":"東京都","city":"調布市","address":"調布市深大寺北町4-17-7","lat":35.679989,"lon":139.551575},{"name":"調布市地域包括支援センターちょうふの里","province":"東京都","city":"調布市","address":"調布市西町290-5","lat":35.666344,"lon":139.52269},{"name":"調布市地域包括支援センターせいじゅ","province":"東京都","city":"調布市","address":"調布市上石原3-54-2","lat":35.65004,"lon":139.52478},{"name":"調布市地域包括支援センターちょうふ花園","province":"東京都","city":"調布市","address":"調布市下石原3-44-1","lat":35.651432,"lon":139.533188},{"name":"調布市地域包括支援センター調布八雲苑","province":"東京都","city":"調布市","address":"調布市八雲台1-22-11階","lat":35.654781,"lon":139.553162},{"name":"調布市地域包括支援センター至誠しばさき","province":"東京都","city":"調布市","address":"調布市菊野台1-52-4","lat":35.655369,"lon":139.565491},{"name":"調布市地域包括支援センターときわぎ国領","province":"東京都","city":"調布市","address":"調布市国領町7-32-2デュスモン国領101","lat":35.644749,"lon":139.560547},{"name":"調布市地域包括支援センターゆうあい","province":"東京都","city":"調布市","address":"調布市国領町3-8-1","lat":35.650097,"lon":139.560684},{"name":"調布市地域包括支援センターつつじヶ丘","province":"東京都","city":"調布市","address":"調布市東つつじヶ丘1-5-2","lat":35.659683,"lon":139.576248},{"name":"調布市地域包括支援センター仙川","province":"東京都","city":"調布市","address":"調布市若葉町2-22-21階","lat":35.655972,"lon":139.589172},{"name":"調布市消費生活センター","province":"東京都","city":"調布市","address":"調布市小島町2-35-1","lat":35.650593,"lon":139.540894},{"name":"御塔坂橋北","province":"東京都","city":"調布市","address":"東京都調布市深大寺元町3丁目1","lat":35.6658612,"lon":139.54374139},{"name":"旧甲州街道入口","province":"東京都","city":"調布市","address":"東京都調布市国領町2丁目18-4","lat":35.65227161,"lon":139.5597767},{"name":"国領駅入口","province":"東京都","city":"調布市","address":"東京都調布市国領町1丁目45-11","lat":35.65064961,"lon":139.55676599},{"name":"仙川駅入口","province":"東京都","city":"調布市","address":"東京都調布市仙川町2丁目19-5","lat":35.66328458,"lon":139.58346575},{"name":"上石原","province":"東京都","city":"調布市","address":"東京都調布市富士見町1丁目1","lat":35.66012856,"lon":139.53295109},{"name":"味の素スタジアム西","province":"東京都","city":"調布市","address":"東京都調布市西町290","lat":35.66924671,"lon":139.53010368},{"name":"調布駅西","province":"東京都","city":"調布市","address":"東京都調布市小島町1丁目36-16","lat":35.65269349,"lon":139.54303928},{"name":"布多天神前","province":"東京都","city":"調布市","address":"東京都調布市調布ケ丘1丁目6","lat":35.65539583,"lon":139.54488332},{"name":"不動前","province":"東京都","city":"調布市","address":"東京都調布市国領町1丁目2-8","lat":35.65169097,"lon":139.55134967},{"name":"国領町八丁目","province":"東京都","city":"調布市","address":"東京都調布市国領町4丁目51-1","lat":35.64605871,"lon":139.56218803},{"name":"深大寺北町一丁目","province":"東京都","city":"調布市","address":"東京都調布市深大寺北町7丁目27","lat":35.67532402,"lon":139.54521317},{"name":"つつじヶ丘交番前","province":"東京都","city":"調布市","address":"東京都調布市西つつじケ丘3丁目31-2","lat":35.65925155,"lon":139.57431952},{"name":"多摩川団地交番前","province":"東京都","city":"調布市","address":"東京都調布市染地3丁目1-498","lat":35.63967659,"lon":139.55987229},{"name":"調布駅南入口","province":"東京都","city":"調布市","address":"東京都調布市布田5丁目1","lat":35.64839998,"lon":139.54339535},{"name":"調布駅北","province":"東京都","city":"調布市","address":"東京都調布市布田1丁目37-16","lat":35.65298507,"lon":139.54419187},{"name":"調布中学校前","province":"東京都","city":"調布市","address":"東京都調布市富士見町4丁目17-1","lat":35.66535009,"lon":139.53516172},{"name":"仙川橋","province":"東京都","city":"調布市","address":"東京都調布市緑ケ丘2丁目56","lat":35.66533724,"lon":139.5879153},{"name":"国領駅南","province":"東京都","city":"調布市","address":"東京都調布市国領町3丁目1-38","lat":35.64966092,"lon":139.55874091},{"name":"調布第三小学校入口","province":"東京都","city":"調布市","address":"東京都調布市上石原2丁目41","lat":35.65508765,"lon":139.52915735},{"name":"飛田給小入口","province":"東京都","city":"調布市","address":"東京都調布市飛田給2丁目42-7","lat":35.65689285,"lon":139.52534091},{"name":"飛田給小入口第二","province":"東京都","city":"調布市","address":"東京都調布市飛田給2丁目42-7","lat":35.65689285,"lon":139.52534091},{"name":"野川馬橋西","province":"東京都","city":"調布市","address":"東京都調布市国領町2丁目26","lat":35.65327149,"lon":139.56242638},{"name":"調布市役所前","province":"東京都","city":"調布市","address":"東京都調布市小島町2丁目35-1","lat":35.65059399,"lon":139.5406704},{"name":"布田一丁目","province":"東京都","city":"調布市","address":"東京都調布市布田1丁目25-2","lat":35.65270176,"lon":139.54599168},{"name":"国領町三丁目","province":"東京都","city":"調布市","address":"東京都調布市国領町3丁目8","lat":35.64928321,"lon":139.5611518},{"name":"飛田給二丁目","province":"東京都","city":"調布市","address":"東京都調布市飛田給2丁目19","lat":35.65929519,"lon":139.52253264},{"name":"飛田給二丁目東","province":"東京都","city":"調布市","address":"東京都調布市飛田給2丁目24-7","lat":35.65814817,"lon":139.52361597},{"name":"飛田給駅南口","province":"東京都","city":"調布市","address":"東京都調布市飛田給2丁目13-12","lat":35.65893411,"lon":139.52149665},{"name":"調布総合体育館南","province":"東京都","city":"調布市","address":"東京都調布市深大寺北町2丁目2","lat":35.6716801,"lon":139.55205709},{"name":"調布郵便局前","province":"東京都","city":"調布市","address":"東京都調布市国領町2丁目14","lat":35.65227714,"lon":139.55834905},{"name":"調布ヶ丘一丁目","province":"東京都","city":"調布市","address":"東京都調布市調布ケ丘1丁目34-1","lat":35.65472366,"lon":139.54680532},{"name":"国領小学校西","province":"東京都","city":"調布市","address":"東京都調布市国領町8丁目1-55","lat":35.64866387,"lon":139.56351548},{"name":"調布駅入口","province":"東京都","city":"調布市","address":"東京都調布市調布ケ丘1丁目5-1","lat":35.65564303,"lon":139.54430838},{"name":"調布市文化プラザ前","province":"東京都","city":"調布市","address":"東京都調布市小島町2丁目34","lat":35.6508828,"lon":139.54196187},{"name":"調布警察署前","province":"東京都","city":"調布市","address":"東京都調布市国領町2丁目25-1","lat":35.65292432,"lon":139.56223197},{"name":"調布駅南","province":"東京都","city":"調布市","address":"東京都調布市布田4丁目17-10","lat":35.65041342,"lon":139.54403667},{"name":"調布駅南第二","province":"東京都","city":"調布市","address":"東京都調布市小島町2丁目52-1","lat":35.64983578,"lon":139.54309243},{"name":"東京スタジアム前","province":"東京都","city":"調布市","address":"東京都調布市飛田給1丁目34-17","lat":35.66310853,"lon":139.52479608},{"name":"飛田給駅入口","province":"東京都","city":"調布市","address":"東京都調布市飛田給1丁目26-1","lat":35.66123655,"lon":139.52347964},{"name":"飛田給小学校前","province":"東京都","city":"調布市","address":"東京都調布市上石原3丁目3","lat":35.65435992,"lon":139.52418564},{"name":"国領駅前","province":"東京都","city":"調布市","address":"東京都調布市国領町4丁目8-1","lat":35.64947482,"lon":139.5574827},{"name":"布田駅前第一","province":"東京都","city":"調布市","address":"東京都調布市国領町5丁目70-1","lat":35.64951641,"lon":139.55109439},{"name":"布田駅前第二","province":"東京都","city":"調布市","address":"東京都調布市布田2丁目51-6","lat":35.65026625,"lon":139.55079711},{"name":"上石原浄水所","province":"東京都","city":"調布市","address":"東京都調布市上石原1丁目34-7","lat":35.66130335,"lon":139.53174555},{"name":"深大寺浄水所","province":"東京都","city":"調布市","address":"東京都調布市深大寺南町5丁目56-1","lat":35.66896104,"lon":139.55556797},{"name":"調布市地域包括支援センターはなみずき","province":"東京都","city":"調布市","address":"調布市深大寺北町4-17-7","lat":35.679989,"lon":139.551575},{"name":"調布市地域包括支援センターちょうふの里","province":"東京都","city":"調布市","address":"調布市西町290-5","lat":35.666344,"lon":139.52269},{"name":"調布市地域包括支援センターせいじゅ","province":"東京都","city":"調布市","address":"調布市上石原3-54-2","lat":35.65004,"lon":139.52478},{"name":"調布市地域包括支援センターちょうふ花園","province":"東京都","city":"調布市","address":"調布市下石原3-44-1","lat":35.651432,"lon":139.533188},{"name":"調布市地域包括支援センター調布八雲苑","province":"東京都","city":"調布市","address":"調布市八雲台1-22-11階","lat":35.654781,"lon":139.553162},{"name":"調布市地域包括支援センター至誠しばさき","province":"東京都","city":"調布市","address":"調布市菊野台1-52-4","lat":35.655369,"lon":139.565491},{"name":"調布市地域包括支援センターときわぎ国領","province":"東京都","city":"調布市","address":"調布市国領町7-32-2デュスモン国領101","lat":35.644749,"lon":139.560547},{"name":"調布市地域包括支援センターゆうあい","province":"東京都","city":"調布市","address":"調布市国領町3-8-1","lat":35.650097,"lon":139.560684},{"name":"調布市地域包括支援センターつつじヶ丘","province":"東京都","city":"調布市","address":"調布市東つつじヶ丘1-5-2","lat":35.659683,"lon":139.576248},{"name":"調布市地域包括支援センター仙川","province":"東京都","city":"調布市","address":"調布市若葉町2-22-21階","lat":35.655972,"lon":139.589172},{"name":"調布市消費生活センター","province":"東京都","city":"調布市","address":"調布市小島町2-35-1","lat":35.650593,"lon":139.540894},{"name":"御塔坂橋北","province":"東京都","city":"調布市","address":"東京都調布市深大寺元町3丁目1","lat":35.6658612,"lon":139.54374139},{"name":"旧甲州街道入口","province":"東京都","city":"調布市","address":"東京都調布市国領町2丁目18-4","lat":35.65227161,"lon":139.5597767},{"name":"国領駅入口","province":"東京都","city":"調布市","address":"東京都調布市国領町1丁目45-11","lat":35.65064961,"lon":139.55676599},{"name":"仙川駅入口","province":"東京都","city":"調布市","address":"東京都調布市仙川町2丁目19-5","lat":35.66328458,"lon":139.58346575},{"name":"上石原","province":"東京都","city":"調布市","address":"東京都調布市富士見町1丁目1","lat":35.66012856,"lon":139.53295109},{"name":"味の素スタジアム西","province":"東京都","city":"調布市","address":"東京都調布市西町290","lat":35.66924671,"lon":139.53010368},{"name":"調布駅西","province":"東京都","city":"調布市","address":"東京都調布市小島町1丁目36-16","lat":35.65269349,"lon":139.54303928},{"name":"布多天神前","province":"東京都","city":"調布市","address":"東京都調布市調布ケ丘1丁目6","lat":35.65539583,"lon":139.54488332},{"name":"不動前","province":"東京都","city":"調布市","address":"東京都調布市国領町1丁目2-8","lat":35.65169097,"lon":139.55134967},{"name":"国領町八丁目","province":"東京都","city":"調布市","address":"東京都調布市国領町4丁目51-1","lat":35.64605871,"lon":139.56218803},{"name":"深大寺北町一丁目","province":"東京都","city":"調布市","address":"東京都調布市深大寺北町7丁目27","lat":35.67532402,"lon":139.54521317},{"name":"つつじヶ丘交番前","province":"東京都","city":"調布市","address":"東京都調布市西つつじケ丘3丁目31-2","lat":35.65925155,"lon":139.57431952},{"name":"多摩川団地交番前","province":"東京都","city":"調布市","address":"東京都調布市染地3丁目1-498","lat":35.63967659,"lon":139.55987229},{"name":"調布駅南入口","province":"東京都","city":"調布市","address":"東京都調布市布田5丁目1","lat":35.64839998,"lon":139.54339535},{"name":"調布駅北","province":"東京都","city":"調布市","address":"東京都調布市布田1丁目37-16","lat":35.65298507,"lon":139.54419187},{"name":"調布中学校前","province":"東京都","city":"調布市","address":"東京都調布市富士見町4丁目17-1","lat":35.66535009,"lon":139.53516172},{"name":"仙川橋","province":"東京都","city":"調布市","address":"東京都調布市緑ケ丘2丁目56","lat":35.66533724,"lon":139.5879153},{"name":"国領駅南","province":"東京都","city":"調布市","address":"東京都調布市国領町3丁目1-38","lat":35.64966092,"lon":139.55874091},{"name":"調布第三小学校入口","province":"東京都","city":"調布市","address":"東京都調布市上石原2丁目41","lat":35.65508765,"lon":139.52915735},{"name":"飛田給小入口","province":"東京都","city":"調布市","address":"東京都調布市飛田給2丁目42-7","lat":35.65689285,"lon":139.52534091},{"name":"飛田給小入口第二","province":"東京都","city":"調布市","address":"東京都調布市飛田給2丁目42-7","lat":35.65689285,"lon":139.52534091},{"name":"野川馬橋西","province":"東京都","city":"調布市","address":"東京都調布市国領町2丁目26","lat":35.65327149,"lon":139.56242638},{"name":"調布市役所前","province":"東京都","city":"調布市","address":"東京都調布市小島町2丁目35-1","lat":35.65059399,"lon":139.5406704},{"name":"布田一丁目","province":"東京都","city":"調布市","address":"東京都調布市布田1丁目25-2","lat":35.65270176,"lon":139.54599168},{"name":"国領町三丁目","province":"東京都","city":"調布市","address":"東京都調布市国領町3丁目8","lat":35.64928321,"lon":139.5611518},{"name":"飛田給二丁目","province":"東京都","city":"調布市","address":"東京都調布市飛田給2丁目19","lat":35.65929519,"lon":139.52253264},{"name":"飛田給二丁目東","province":"東京都","city":"調布市","address":"東京都調布市飛田給2丁目24-7","lat":35.65814817,"lon":139.52361597},{"name":"飛田給駅南口","province":"東京都","city":"調布市","address":"東京都調布市飛田給2丁目13-12","lat":35.65893411,"lon":139.52149665},{"name":"調布総合体育館南","province":"東京都","city":"調布市","address":"東京都調布市深大寺北町2丁目2","lat":35.6716801,"lon":139.55205709},{"name":"調布郵便局前","province":"東京都","city":"調布市","address":"東京都調布市国領町2丁目14","lat":35.65227714,"lon":139.55834905},{"name":"調布ヶ丘一丁目","province":"東京都","city":"調布市","address":"東京都調布市調布ケ丘1丁目34-1","lat":35.65472366,"lon":139.54680532},{"name":"国領小学校西","province":"東京都","city":"調布市","address":"東京都調布市国領町8丁目1-55","lat":35.64866387,"lon":139.56351548},{"name":"調布駅入口","province":"東京都","city":"調布市","address":"東京都調布市調布ケ丘1丁目5-1","lat":35.65564303,"lon":139.54430838},{"name":"調布市文化プラザ前","province":"東京都","city":"調布市","address":"東京都調布市小島町2丁目34","lat":35.6508828,"lon":139.54196187},{"name":"調布警察署前","province":"東京都","city":"調布市","address":"東京都調布市国領町2丁目25-1","lat":35.65292432,"lon":139.56223197},{"name":"調布駅南","province":"東京都","city":"調布市","address":"東京都調布市布田4丁目17-10","lat":35.65041342,"lon":139.54403667},{"name":"調布駅南第二","province":"東京都","city":"調布市","address":"東京都調布市小島町2丁目52-1","lat":35.64983578,"lon":139.54309243},{"name":"東京スタジアム前","province":"東京都","city":"調布市","address":"東京都調布市飛田給1丁目34-17","lat":35.66310853,"lon":139.52479608},{"name":"飛田給駅入口","province":"東京都","city":"調布市","address":"東京都調布市飛田給1丁目26-1","lat":35.66123655,"lon":139.52347964},{"name":"飛田給小学校前","province":"東京都","city":"調布市","address":"東京都調布市上石原3丁目3","lat":35.65435992,"lon":139.52418564},{"name":"国領駅前","province":"東京都","city":"調布市","address":"東京都調布市国領町4丁目8-1","lat":35.64947482,"lon":139.5574827},{"name":"布田駅前第一","province":"東京都","city":"調布市","address":"東京都調布市国領町5丁目70-1","lat":35.64951641,"lon":139.55109439},{"name":"布田駅前第二","province":"東京都","city":"調布市","address":"東京都調布市布田2丁目51-6","lat":35.65026625,"lon":139.55079711},{"name":"上石原浄水所","province":"東京都","city":"調布市","address":"東京都調布市上石原1丁目34-7","lat":35.66130335,"lon":139.53174555},{"name":"深大寺浄水所","province":"東京都","city":"調布市","address":"東京都調布市深大寺南町5丁目56-1","lat":35.66896104,"lon":139.55556797},{"name":"調布市地域包括支援センターはなみずき","province":"東京都","city":"調布市","address":"調布市深大寺北町4-17-7","lat":35.679989,"lon":139.551575},{"name":"調布市地域包括支援センターちょうふの里","province":"東京都","city":"調布市","address":"調布市西町290-5","lat":35.666344,"lon":139.52269},{"name":"調布市地域包括支援センターせいじゅ","province":"東京都","city":"調布市","address":"調布市上石原3-54-2","lat":35.65004,"lon":139.52478},{"name":"調布市地域包括支援センターちょうふ花園","province":"東京都","city":"調布市","address":"調布市下石原3-44-1","lat":35.651432,"lon":139.533188},{"name":"調布市地域包括支援センター調布八雲苑","province":"東京都","city":"調布市","address":"調布市八雲台1-22-11階","lat":35.654781,"lon":139.553162},{"name":"調布市地域包括支援センター至誠しばさき","province":"東京都","city":"調布市","address":"調布市菊野台1-52-4","lat":35.655369,"lon":139.565491},{"name":"調布市地域包括支援センターときわぎ国領","province":"東京都","city":"調布市","address":"調布市国領町7-32-2デュスモン国領101","lat":35.644749,"lon":139.560547},{"name":"調布市地域包括支援センターゆうあい","province":"東京都","city":"調布市","address":"調布市国領町3-8-1","lat":35.650097,"lon":139.560684},{"name":"調布市地域包括支援センターつつじヶ丘","province":"東京都","city":"調布市","address":"調布市東つつじヶ丘1-5-2","lat":35.659683,"lon":139.576248},{"name":"調布市地域包括支援センター仙川","province":"東京都","city":"調布市","address":"調布市若葉町2-22-21階","lat":35.655972,"lon":139.589172},{"name":"調布市消費生活センター","province":"東京都","city":"調布市","address":"調布市小島町2-35-1","lat":35.650593,"lon":139.540894},{"name":"御塔坂橋北","province":"東京都","city":"調布市","address":"東京都調布市深大寺元町3丁目1","lat":35.6658612,"lon":139.54374139},{"name":"旧甲州街道入口","province":"東京都","city":"調布市","address":"東京都調布市国領町2丁目18-4","lat":35.65227161,"lon":139.5597767},{"name":"国領駅入口","province":"東京都","city":"調布市","address":"東京都調布市国領町1丁目45-11","lat":35.65064961,"lon":139.55676599},{"name":"仙川駅入口","province":"東京都","city":"調布市","address":"東京都調布市仙川町2丁目19-5","lat":35.66328458,"lon":139.58346575},{"name":"上石原","province":"東京都","city":"調布市","address":"東京都調布市富士見町1丁目1","lat":35.66012856,"lon":139.53295109},{"name":"味の素スタジアム西","province":"東京都","city":"調布市","address":"東京都調布市西町290","lat":35.66924671,"lon":139.53010368},{"name":"調布駅西","province":"東京都","city":"調布市","address":"東京都調布市小島町1丁目36-16","lat":35.65269349,"lon":139.54303928},{"name":"布多天神前","province":"東京都","city":"調布市","address":"東京都調布市調布ケ丘1丁目6","lat":35.65539583,"lon":139.54488332},{"name":"不動前","province":"東京都","city":"調布市","address":"東京都調布市国領町1丁目2-8","lat":35.65169097,"lon":139.55134967},{"name":"国領町八丁目","province":"東京都","city":"調布市","address":"東京都調布市国領町4丁目51-1","lat":35.64605871,"lon":139.56218803},{"name":"深大寺北町一丁目","province":"東京都","city":"調布市","address":"東京都調布市深大寺北町7丁目27","lat":35.67532402,"lon":139.54521317},{"name":"つつじヶ丘交番前","province":"東京都","city":"調布市","address":"東京都調布市西つつじケ丘3丁目31-2","lat":35.65925155,"lon":139.57431952},{"name":"多摩川団地交番前","province":"東京都","city":"調布市","address":"東京都調布市染地3丁目1-498","lat":35.63967659,"lon":139.55987229},{"name":"調布駅南入口","province":"東京都","city":"調布市","address":"東京都調布市布田5丁目1","lat":35.64839998,"lon":139.54339535},{"name":"調布駅北","province":"東京都","city":"調布市","address":"東京都調布市布田1丁目37-16","lat":35.65298507,"lon":139.54419187},{"name":"調布中学校前","province":"東京都","city":"調布市","address":"東京都調布市富士見町4丁目17-1","lat":35.66535009,"lon":139.53516172},{"name":"仙川橋","province":"東京都","city":"調布市","address":"東京都調布市緑ケ丘2丁目56","lat":35.66533724,"lon":139.5879153},{"name":"国領駅南","province":"東京都","city":"調布市","address":"東京都調布市国領町3丁目1-38","lat":35.64966092,"lon":139.55874091},{"name":"調布第三小学校入口","province":"東京都","city":"調布市","address":"東京都調布市上石原2丁目41","lat":35.65508765,"lon":139.52915735},{"name":"飛田給小入口","province":"東京都","city":"調布市","address":"東京都調布市飛田給2丁目42-7","lat":35.65689285,"lon":139.52534091},{"name":"飛田給小入口第二","province":"東京都","city":"調布市","address":"東京都調布市飛田給2丁目42-7","lat":35.65689285,"lon":139.52534091},{"name":"野川馬橋西","province":"東京都","city":"調布市","address":"東京都調布市国領町2丁目26","lat":35.65327149,"lon":139.56242638},{"name":"調布市役所前","province":"東京都","city":"調布市","address":"東京都調布市小島町2丁目35-1","lat":35.65059399,"lon":139.5406704},{"name":"布田一丁目","province":"東京都","city":"調布市","address":"東京都調布市布田1丁目25-2","lat":35.65270176,"lon":139.54599168},{"name":"国領町三丁目","province":"東京都","city":"調布市","address":"東京都調布市国領町3丁目8","lat":35.64928321,"lon":139.5611518},{"name":"飛田給二丁目","province":"東京都","city":"調布市","address":"東京都調布市飛田給2丁目19","lat":35.65929519,"lon":139.52253264},{"name":"飛田給二丁目東","province":"東京都","city":"調布市","address":"東京都調布市飛田給2丁目24-7","lat":35.65814817,"lon":139.52361597},{"name":"飛田給駅南口","province":"東京都","city":"調布市","address":"東京都調布市飛田給2丁目13-12","lat":35.65893411,"lon":139.52149665},{"name":"調布総合体育館南","province":"東京都","city":"調布市","address":"東京都調布市深大寺北町2丁目2","lat":35.6716801,"lon":139.55205709},{"name":"調布郵便局前","province":"東京都","city":"調布市","address":"東京都調布市国領町2丁目14","lat":35.65227714,"lon":139.55834905},{"name":"調布ヶ丘一丁目","province":"東京都","city":"調布市","address":"東京都調布市調布ケ丘1丁目34-1","lat":35.65472366,"lon":139.54680532},{"name":"国領小学校西","province":"東京都","city":"調布市","address":"東京都調布市国領町8丁目1-55","lat":35.64866387,"lon":139.56351548},{"name":"調布駅入口","province":"東京都","city":"調布市","address":"東京都調布市調布ケ丘1丁目5-1","lat":35.65564303,"lon":139.54430838},{"name":"調布市文化プラザ前","province":"東京都","city":"調布市","address":"東京都調布市小島町2丁目34","lat":35.6508828,"lon":139.54196187},{"name":"調布警察署前","province":"東京都","city":"調布市","address":"東京都調布市国領町2丁目25-1","lat":35.65292432,"lon":139.56223197},{"name":"調布駅南","province":"東京都","city":"調布市","address":"東京都調布市布田4丁目17-10","lat":35.65041342,"lon":139.54403667},{"name":"調布駅南第二","province":"東京都","city":"調布市","address":"東京都調布市小島町2丁目52-1","lat":35.64983578,"lon":139.54309243},{"name":"東京スタジアム前","province":"東京都","city":"調布市","address":"東京都調布市飛田給1丁目34-17","lat":35.66310853,"lon":139.52479608},{"name":"飛田給駅入口","province":"東京都","city":"調布市","address":"東京都調布市飛田給1丁目26-1","lat":35.66123655,"lon":139.52347964},{"name":"飛田給小学校前","province":"東京都","city":"調布市","address":"東京都調布市上石原3丁目3","lat":35.65435992,"lon":139.52418564},{"name":"国領駅前","province":"東京都","city":"調布市","address":"東京都調布市国領町4丁目8-1","lat":35.64947482,"lon":139.5574827},{"name":"布田駅前第一","province":"東京都","city":"調布市","address":"東京都調布市国領町5丁目70-1","lat":35.64951641,"lon":139.55109439},{"name":"布田駅前第二","province":"東京都","city":"調布市","address":"東京都調布市布田2丁目51-6","lat":35.65026625,"lon":139.55079711},{"name":"上石原浄水所","province":"東京都","city":"調布市","address":"東京都調布市上石原1丁目34-7","lat":35.66130335,"lon":139.53174555},{"name":"深大寺浄水所","province":"東京都","city":"調布市","address":"東京都調布市深大寺南町5丁目56-1","lat":35.66896104,"lon":139.55556797},{"name":"調布市地域包括支援センターはなみずき","province":"東京都","city":"調布市","address":"調布市深大寺北町4-17-7","lat":35.679989,"lon":139.551575},{"name":"調布市地域包括支援センターちょうふの里","province":"東京都","city":"調布市","address":"調布市西町290-5","lat":35.666344,"lon":139.52269},{"name":"調布市地域包括支援センターせいじゅ","province":"東京都","city":"調布市","address":"調布市上石原3-54-2","lat":35.65004,"lon":139.52478},{"name":"調布市地域包括支援センターちょうふ花園","province":"東京都","city":"調布市","address":"調布市下石原3-44-1","lat":35.651432,"lon":139.533188},{"name":"調布市地域包括支援センター調布八雲苑","province":"東京都","city":"調布市","address":"調布市八雲台1-22-11階","lat":35.654781,"lon":139.553162},{"name":"調布市地域包括支援センター至誠しばさき","province":"東京都","city":"調布市","address":"調布市菊野台1-52-4","lat":35.655369,"lon":139.565491},{"name":"調布市地域包括支援センターときわぎ国領","province":"東京都","city":"調布市","address":"調布市国領町7-32-2デュスモン国領101","lat":35.644749,"lon":139.560547},{"name":"調布市地域包括支援センターゆうあい","province":"東京都","city":"調布市","address":"調布市国領町3-8-1","lat":35.650097,"lon":139.560684},{"name":"調布市地域包括支援センターつつじヶ丘","province":"東京都","city":"調布市","address":"調布市東つつじヶ丘1-5-2","lat":35.659683,"lon":139.576248},{"name":"調布市地域包括支援センター仙川","province":"東京都","city":"調布市","address":"調布市若葉町2-22-21階","lat":35.655972,"lon":139.589172},{"name":"調布市消費生活センター","province":"東京都","city":"調布市","address":"調布市小島町2-35-1","lat":35.650593,"lon":139.540894},{"name":"御塔坂橋北","province":"東京都","city":"調布市","address":"東京都調布市深大寺元町3丁目1","lat":35.6658612,"lon":139.54374139},{"name":"旧甲州街道入口","province":"東京都","city":"調布市","address":"東京都調布市国領町2丁目18-4","lat":35.65227161,"lon":139.5597767},{"name":"国領駅入口","province":"東京都","city":"調布市","address":"東京都調布市国領町1丁目45-11","lat":35.65064961,"lon":139.55676599},{"name":"仙川駅入口","province":"東京都","city":"調布市","address":"東京都調布市仙川町2丁目19-5","lat":35.66328458,"lon":139.58346575},{"name":"上石原","province":"東京都","city":"調布市","address":"東京都調布市富士見町1丁目1","lat":35.66012856,"lon":139.53295109},{"name":"味の素スタジアム西","province":"東京都","city":"調布市","address":"東京都調布市西町290","lat":35.66924671,"lon":139.53010368},{"name":"調布駅西","province":"東京都","city":"調布市","address":"東京都調布市小島町1丁目36-16","lat":35.65269349,"lon":139.54303928},{"name":"布多天神前","province":"東京都","city":"調布市","address":"東京都調布市調布ケ丘1丁目6","lat":35.65539583,"lon":139.54488332},{"name":"不動前","province":"東京都","city":"調布市","address":"東京都調布市国領町1丁目2-8","lat":35.65169097,"lon":139.55134967},{"name":"国領町八丁目","province":"東京都","city":"調布市","address":"東京都調布市国領町4丁目51-1","lat":35.64605871,"lon":139.56218803},{"name":"深大寺北町一丁目","province":"東京都","city":"調布市","address":"東京都調布市深大寺北町7丁目27","lat":35.67532402,"lon":139.54521317},{"name":"つつじヶ丘交番前","province":"東京都","city":"調布市","address":"東京都調布市西つつじケ丘3丁目31-2","lat":35.65925155,"lon":139.57431952},{"name":"多摩川団地交番前","province":"東京都","city":"調布市","address":"東京都調布市染地3丁目1-498","lat":35.63967659,"lon":139.55987229},{"name":"調布駅南入口","province":"東京都","city":"調布市","address":"東京都調布市布田5丁目1","lat":35.64839998,"lon":139.54339535},{"name":"調布駅北","province":"東京都","city":"調布市","address":"東京都調布市布田1丁目37-16","lat":35.65298507,"lon":139.54419187},{"name":"調布中学校前","province":"東京都","city":"調布市","address":"東京都調布市富士見町4丁目17-1","lat":35.66535009,"lon":139.53516172},{"name":"仙川橋","province":"東京都","city":"調布市","address":"東京都調布市緑ケ丘2丁目56","lat":35.66533724,"lon":139.5879153},{"name":"国領駅南","province":"東京都","city":"調布市","address":"東京都調布市国領町3丁目1-38","lat":35.64966092,"lon":139.55874091},{"name":"調布第三小学校入口","province":"東京都","city":"調布市","address":"東京都調布市上石原2丁目41","lat":35.65508765,"lon":139.52915735},{"name":"飛田給小入口","province":"東京都","city":"調布市","address":"東京都調布市飛田給2丁目42-7","lat":35.65689285,"lon":139.52534091},{"name":"飛田給小入口第二","province":"東京都","city":"調布市","address":"東京都調布市飛田給2丁目42-7","lat":35.65689285,"lon":139.52534091},{"name":"野川馬橋西","province":"東京都","city":"調布市","address":"東京都調布市国領町2丁目26","lat":35.65327149,"lon":139.56242638},{"name":"調布市役所前","province":"東京都","city":"調布市","address":"東京都調布市小島町2丁目35-1","lat":35.65059399,"lon":139.5406704},{"name":"布田一丁目","province":"東京都","city":"調布市","address":"東京都調布市布田1丁目25-2","lat":35.65270176,"lon":139.54599168},{"name":"国領町三丁目","province":"東京都","city":"調布市","address":"東京都調布市国領町3丁目8","lat":35.64928321,"lon":139.5611518},{"name":"飛田給二丁目","province":"東京都","city":"調布市","address":"東京都調布市飛田給2丁目19","lat":35.65929519,"lon":139.52253264},{"name":"飛田給二丁目東","province":"東京都","city":"調布市","address":"東京都調布市飛田給2丁目24-7","lat":35.65814817,"lon":139.52361597},{"name":"飛田給駅南口","province":"東京都","city":"調布市","address":"東京都調布市飛田給2丁目13-12","lat":35.65893411,"lon":139.52149665},{"name":"調布総合体育館南","province":"東京都","city":"調布市","address":"東京都調布市深大寺北町2丁目2","lat":35.6716801,"lon":139.55205709},{"name":"調布郵便局前","province":"東京都","city":"調布市","address":"東京都調布市国領町2丁目14","lat":35.65227714,"lon":139.55834905},{"name":"調布ヶ丘一丁目","province":"東京都","city":"調布市","address":"東京都調布市調布ケ丘1丁目34-1","lat":35.65472366,"lon":139.54680532},{"name":"国領小学校西","province":"東京都","city":"調布市","address":"東京都調布市国領町8丁目1-55","lat":35.64866387,"lon":139.56351548},{"name":"調布駅入口","province":"東京都","city":"調布市","address":"東京都調布市調布ケ丘1丁目5-1","lat":35.65564303,"lon":139.54430838},{"name":"調布市文化プラザ前","province":"東京都","city":"調布市","address":"東京都調布市小島町2丁目34","lat":35.6508828,"lon":139.54196187},{"name":"調布警察署前","province":"東京都","city":"調布市","address":"東京都調布市国領町2丁目25-1","lat":35.65292432,"lon":139.56223197},{"name":"調布駅南","province":"東京都","city":"調布市","address":"東京都調布市布田4丁目17-10","lat":35.65041342,"lon":139.54403667},{"name":"調布駅南第二","province":"東京都","city":"調布市","address":"東京都調布市小島町2丁目52-1","lat":35.64983578,"lon":139.54309243},{"name":"東京スタジアム前","province":"東京都","city":"調布市","address":"東京都調布市飛田給1丁目34-17","lat":35.66310853,"lon":139.52479608},{"name":"飛田給駅入口","province":"東京都","city":"調布市","address":"東京都調布市飛田給1丁目26-1","lat":35.66123655,"lon":139.52347964},{"name":"飛田給小学校前","province":"東京都","city":"調布市","address":"東京都調布市上石原3丁目3","lat":35.65435992,"lon":139.52418564},{"name":"国領駅前","province":"東京都","city":"調布市","address":"東京都調布市国領町4丁目8-1","lat":35.64947482,"lon":139.5574827},{"name":"布田駅前第一","province":"東京都","city":"調布市","address":"東京都調布市国領町5丁目70-1","lat":35.64951641,"lon":139.55109439},{"name":"布田駅前第二","province":"東京都","city":"調布市","address":"東京都調布市布田2丁目51-6","lat":35.65026625,"lon":139.55079711},{"name":"上石原浄水所","province":"東京都","city":"調布市","address":"東京都調布市上石原1丁目34-7","lat":35.66130335,"lon":139.53174555},{"name":"深大寺浄水所","province":"東京都","city":"調布市","address":"東京都調布市深大寺南町5丁目56-1","lat":35.66896104,"lon":139.55556797},{"name":"調布市地域包括支援センターはなみずき","province":"東京都","city":"調布市","address":"調布市深大寺北町4-17-7","lat":35.679989,"lon":139.551575},{"name":"調布市地域包括支援センターちょうふの里","province":"東京都","city":"調布市","address":"調布市西町290-5","lat":35.666344,"lon":139.52269},{"name":"調布市地域包括支援センターせいじゅ","province":"東京都","city":"調布市","address":"調布市上石原3-54-2","lat":35.65004,"lon":139.52478},{"name":"調布市地域包括支援センターちょうふ花園","province":"東京都","city":"調布市","address":"調布市下石原3-44-1","lat":35.651432,"lon":139.533188},{"name":"調布市地域包括支援センター調布八雲苑","province":"東京都","city":"調布市","address":"調布市八雲台1-22-11階","lat":35.654781,"lon":139.553162},{"name":"調布市地域包括支援センター至誠しばさき","province":"東京都","city":"調布市","address":"調布市菊野台1-52-4","lat":35.655369,"lon":139.565491},{"name":"調布市地域包括支援センターときわぎ国領","province":"東京都","city":"調布市","address":"調布市国領町7-32-2デュスモン国領101","lat":35.644749,"lon":139.560547},{"name":"調布市地域包括支援センターゆうあい","province":"東京都","city":"調布市","address":"調布市国領町3-8-1","lat":35.650097,"lon":139.560684},{"name":"調布市地域包括支援センターつつじヶ丘","province":"東京都","city":"調布市","address":"調布市東つつじヶ丘1-5-2","lat":35.659683,"lon":139.576248},{"name":"調布市地域包括支援センター仙川","province":"東京都","city":"調布市","address":"調布市若葉町2-22-21階","lat":35.655972,"lon":139.589172},{"name":"調布市消費生活センター","province":"東京都","city":"調布市","address":"調布市小島町2-35-1","lat":35.650593,"lon":139.540894},{"name":"御塔坂橋北","province":"東京都","city":"調布市","address":"東京都調布市深大寺元町3丁目1","lat":35.6658612,"lon":139.54374139},{"name":"旧甲州街道入口","province":"東京都","city":"調布市","address":"東京都調布市国領町2丁目18-4","lat":35.65227161,"lon":139.5597767},{"name":"国領駅入口","province":"東京都","city":"調布市","address":"東京都調布市国領町1丁目45-11","lat":35.65064961,"lon":139.55676599},{"name":"仙川駅入口","province":"東京都","city":"調布市","address":"東京都調布市仙川町2丁目19-5","lat":35.66328458,"lon":139.58346575},{"name":"上石原","province":"東京都","city":"調布市","address":"東京都調布市富士見町1丁目1","lat":35.66012856,"lon":139.53295109},{"name":"味の素スタジアム西","province":"東京都","city":"調布市","address":"東京都調布市西町290","lat":35.66924671,"lon":139.53010368},{"name":"調布駅西","province":"東京都","city":"調布市","address":"東京都調布市小島町1丁目36-16","lat":35.65269349,"lon":139.54303928},{"name":"布多天神前","province":"東京都","city":"調布市","address":"東京都調布市調布ケ丘1丁目6","lat":35.65539583,"lon":139.54488332},{"name":"不動前","province":"東京都","city":"調布市","address":"東京都調布市国領町1丁目2-8","lat":35.65169097,"lon":139.55134967},{"name":"国領町八丁目","province":"東京都","city":"調布市","address":"東京都調布市国領町4丁目51-1","lat":35.64605871,"lon":139.56218803},{"name":"深大寺北町一丁目","province":"東京都","city":"調布市","address":"東京都調布市深大寺北町7丁目27","lat":35.67532402,"lon":139.54521317},{"name":"つつじヶ丘交番前","province":"東京都","city":"調布市","address":"東京都調布市西つつじケ丘3丁目31-2","lat":35.65925155,"lon":139.57431952},{"name":"多摩川団地交番前","province":"東京都","city":"調布市","address":"東京都調布市染地3丁目1-498","lat":35.63967659,"lon":139.55987229},{"name":"調布駅南入口","province":"東京都","city":"調布市","address":"東京都調布市布田5丁目1","lat":35.64839998,"lon":139.54339535},{"name":"調布駅北","province":"東京都","city":"調布市","address":"東京都調布市布田1丁目37-16","lat":35.65298507,"lon":139.54419187},{"name":"調布中学校前","province":"東京都","city":"調布市","address":"東京都調布市富士見町4丁目17-1","lat":35.66535009,"lon":139.53516172},{"name":"仙川橋","province":"東京都","city":"調布市","address":"東京都調布市緑ケ丘2丁目56","lat":35.66533724,"lon":139.5879153},{"name":"国領駅南","province":"東京都","city":"調布市","address":"東京都調布市国領町3丁目1-38","lat":35.64966092,"lon":139.55874091},{"name":"調布第三小学校入口","province":"東京都","city":"調布市","address":"東京都調布市上石原2丁目41","lat":35.65508765,"lon":139.52915735},{"name":"飛田給小入口","province":"東京都","city":"調布市","address":"東京都調布市飛田給2丁目42-7","lat":35.65689285,"lon":139.52534091},{"name":"飛田給小入口第二","province":"東京都","city":"調布市","address":"東京都調布市飛田給2丁目42-7","lat":35.65689285,"lon":139.52534091},{"name":"野川馬橋西","province":"東京都","city":"調布市","address":"東京都調布市国領町2丁目26","lat":35.65327149,"lon":139.56242638},{"name":"調布市役所前","province":"東京都","city":"調布市","address":"東京都調布市小島町2丁目35-1","lat":35.65059399,"lon":139.5406704},{"name":"布田一丁目","province":"東京都","city":"調布市","address":"東京都調布市布田1丁目25-2","lat":35.65270176,"lon":139.54599168},{"name":"国領町三丁目","province":"東京都","city":"調布市","address":"東京都調布市国領町3丁目8","lat":35.64928321,"lon":139.5611518},{"name":"飛田給二丁目","province":"東京都","city":"調布市","address":"東京都調布市飛田給2丁目19","lat":35.65929519,"lon":139.52253264},{"name":"飛田給二丁目東","province":"東京都","city":"調布市","address":"東京都調布市飛田給2丁目24-7","lat":35.65814817,"lon":139.52361597},{"name":"飛田給駅南口","province":"東京都","city":"調布市","address":"東京都調布市飛田給2丁目13-12","lat":35.65893411,"lon":139.52149665},{"name":"調布総合体育館南","province":"東京都","city":"調布市","address":"東京都調布市深大寺北町2丁目2","lat":35.6716801,"lon":139.55205709},{"name":"調布郵便局前","province":"東京都","city":"調布市","address":"東京都調布市国領町2丁目14","lat":35.65227714,"lon":139.55834905},{"name":"調布ヶ丘一丁目","province":"東京都","city":"調布市","address":"東京都調布市調布ケ丘1丁目34-1","lat":35.65472366,"lon":139.54680532},{"name":"国領小学校西","province":"東京都","city":"調布市","address":"東京都調布市国領町8丁目1-55","lat":35.64866387,"lon":139.56351548},{"name":"調布駅入口","province":"東京都","city":"調布市","address":"東京都調布市調布ケ丘1丁目5-1","lat":35.65564303,"lon":139.54430838},{"name":"調布市文化プラザ前","province":"東京都","city":"調布市","address":"東京都調布市小島町2丁目34","lat":35.6508828,"lon":139.54196187},{"name":"調布警察署前","province":"東京都","city":"調布市","address":"東京都調布市国領町2丁目25-1","lat":35.65292432,"lon":139.56223197},{"name":"調布駅南","province":"東京都","city":"調布市","address":"東京都調布市布田4丁目17-10","lat":35.65041342,"lon":139.54403667},{"name":"調布駅南第二","province":"東京都","city":"調布市","address":"東京都調布市小島町2丁目52-1","lat":35.64983578,"lon":139.54309243},{"name":"東京スタジアム前","province":"東京都","city":"調布市","address":"東京都調布市飛田給1丁目34-17","lat":35.66310853,"lon":139.52479608},{"name":"飛田給駅入口","province":"東京都","city":"調布市","address":"東京都調布市飛田給1丁目26-1","lat":35.66123655,"lon":139.52347964},{"name":"飛田給小学校前","province":"東京都","city":"調布市","address":"東京都調布市上石原3丁目3","lat":35.65435992,"lon":139.52418564},{"name":"国領駅前","province":"東京都","city":"調布市","address":"東京都調布市国領町4丁目8-1","lat":35.64947482,"lon":139.5574827},{"name":"布田駅前第一","province":"東京都","city":"調布市","address":"東京都調布市国領町5丁目70-1","lat":35.64951641,"lon":139.55109439},{"name":"布田駅前第二","province":"東京都","city":"調布市","address":"東京都調布市布田2丁目51-6","lat":35.65026625,"lon":139.55079711},{"name":"上石原浄水所","province":"東京都","city":"調布市","address":"東京都調布市上石原1丁目34-7","lat":35.66130335,"lon":139.53174555},{"name":"深大寺浄水所","province":"東京都","city":"調布市","address":"東京都調布市深大寺南町5丁目56-1","lat":35.66896104,"lon":139.55556797},{"name":"調布市地域包括支援センターはなみずき","province":"東京都","city":"調布市","address":"調布市深大寺北町4-17-7","lat":35.679989,"lon":139.551575},{"name":"調布市地域包括支援センターちょうふの里","province":"東京都","city":"調布市","address":"調布市西町290-5","lat":35.666344,"lon":139.52269},{"name":"調布市地域包括支援センターせいじゅ","province":"東京都","city":"調布市","address":"調布市上石原3-54-2","lat":35.65004,"lon":139.52478},{"name":"調布市地域包括支援センターちょうふ花園","province":"東京都","city":"調布市","address":"調布市下石原3-44-1","lat":35.651432,"lon":139.533188},{"name":"調布市地域包括支援センター調布八雲苑","province":"東京都","city":"調布市","address":"調布市八雲台1-22-11階","lat":35.654781,"lon":139.553162},{"name":"調布市地域包括支援センター至誠しばさき","province":"東京都","city":"調布市","address":"調布市菊野台1-52-4","lat":35.655369,"lon":139.565491},{"name":"調布市地域包括支援センターときわぎ国領","province":"東京都","city":"調布市","address":"調布市国領町7-32-2デュスモン国領101","lat":35.644749,"lon":139.560547},{"name":"調布市地域包括支援センターゆうあい","province":"東京都","city":"調布市","address":"調布市国領町3-8-1","lat":35.650097,"lon":139.560684},{"name":"調布市地域包括支援センターつつじヶ丘","province":"東京都","city":"調布市","address":"調布市東つつじヶ丘1-5-2","lat":35.659683,"lon":139.576248},{"name":"調布市地域包括支援センター仙川","province":"東京都","city":"調布市","address":"調布市若葉町2-22-21階","lat":35.655972,"lon":139.589172},{"name":"調布市消費生活センター","province":"東京都","city":"調布市","address":"調布市小島町2-35-1","lat":35.650593,"lon":139.540894},{"name":"御塔坂橋北","province":"東京都","city":"調布市","address":"東京都調布市深大寺元町3丁目1","lat":35.6658612,"lon":139.54374139},{"name":"旧甲州街道入口","province":"東京都","city":"調布市","address":"東京都調布市国領町2丁目18-4","lat":35.65227161,"lon":139.5597767},{"name":"国領駅入口","province":"東京都","city":"調布市","address":"東京都調布市国領町1丁目45-11","lat":35.65064961,"lon":139.55676599},{"name":"仙川駅入口","province":"東京都","city":"調布市","address":"東京都調布市仙川町2丁目19-5","lat":35.66328458,"lon":139.58346575},{"name":"上石原","province":"東京都","city":"調布市","address":"東京都調布市富士見町1丁目1","lat":35.66012856,"lon":139.53295109},{"name":"味の素スタジアム西","province":"東京都","city":"調布市","address":"東京都調布市西町290","lat":35.66924671,"lon":139.53010368},{"name":"調布駅西","province":"東京都","city":"調布市","address":"東京都調布市小島町1丁目36-16","lat":35.65269349,"lon":139.54303928},{"name":"布多天神前","province":"東京都","city":"調布市","address":"東京都調布市調布ケ丘1丁目6","lat":35.65539583,"lon":139.54488332},{"name":"不動前","province":"東京都","city":"調布市","address":"東京都調布市国領町1丁目2-8","lat":35.65169097,"lon":139.55134967},{"name":"国領町八丁目","province":"東京都","city":"調布市","address":"東京都調布市国領町4丁目51-1","lat":35.64605871,"lon":139.56218803},{"name":"深大寺北町一丁目","province":"東京都","city":"調布市","address":"東京都調布市深大寺北町7丁目27","lat":35.67532402,"lon":139.54521317},{"name":"つつじヶ丘交番前","province":"東京都","city":"調布市","address":"東京都調布市西つつじケ丘3丁目31-2","lat":35.65925155,"lon":139.57431952},{"name":"多摩川団地交番前","province":"東京都","city":"調布市","address":"東京都調布市染地3丁目1-498","lat":35.63967659,"lon":139.55987229},{"name":"調布駅南入口","province":"東京都","city":"調布市","address":"東京都調布市布田5丁目1","lat":35.64839998,"lon":139.54339535},{"name":"調布駅北","province":"東京都","city":"調布市","address":"東京都調布市布田1丁目37-16","lat":35.65298507,"lon":139.54419187},{"name":"調布中学校前","province":"東京都","city":"調布市","address":"東京都調布市富士見町4丁目17-1","lat":35.66535009,"lon":139.53516172},{"name":"仙川橋","province":"東京都","city":"調布市","address":"東京都調布市緑ケ丘2丁目56","lat":35.66533724,"lon":139.5879153},{"name":"国領駅南","province":"東京都","city":"調布市","address":"東京都調布市国領町3丁目1-38","lat":35.64966092,"lon":139.55874091},{"name":"調布第三小学校入口","province":"東京都","city":"調布市","address":"東京都調布市上石原2丁目41","lat":35.65508765,"lon":139.52915735},{"name":"飛田給小入口","province":"東京都","city":"調布市","address":"東京都調布市飛田給2丁目42-7","lat":35.65689285,"lon":139.52534091},{"name":"飛田給小入口第二","province":"東京都","city":"調布市","address":"東京都調布市飛田給2丁目42-7","lat":35.65689285,"lon":139.52534091},{"name":"野川馬橋西","province":"東京都","city":"調布市","address":"東京都調布市国領町2丁目26","lat":35.65327149,"lon":139.56242638},{"name":"調布市役所前","province":"東京都","city":"調布市","address":"東京都調布市小島町2丁目35-1","lat":35.65059399,"lon":139.5406704},{"name":"布田一丁目","province":"東京都","city":"調布市","address":"東京都調布市布田1丁目25-2","lat":35.65270176,"lon":139.54599168},{"name":"国領町三丁目","province":"東京都","city":"調布市","address":"東京都調布市国領町3丁目8","lat":35.64928321,"lon":139.5611518},{"name":"飛田給二丁目","province":"東京都","city":"調布市","address":"東京都調布市飛田給2丁目19","lat":35.65929519,"lon":139.52253264},{"name":"飛田給二丁目東","province":"東京都","city":"調布市","address":"東京都調布市飛田給2丁目24-7","lat":35.65814817,"lon":139.52361597},{"name":"飛田給駅南口","province":"東京都","city":"調布市","address":"東京都調布市飛田給2丁目13-12","lat":35.65893411,"lon":139.52149665},{"name":"調布総合体育館南","province":"東京都","city":"調布市","address":"東京都調布市深大寺北町2丁目2","lat":35.6716801,"lon":139.55205709},{"name":"調布郵便局前","province":"東京都","city":"調布市","address":"東京都調布市国領町2丁目14","lat":35.65227714,"lon":139.55834905},{"name":"調布ヶ丘一丁目","province":"東京都","city":"調布市","address":"東京都調布市調布ケ丘1丁目34-1","lat":35.65472366,"lon":139.54680532},{"name":"国領小学校西","province":"東京都","city":"調布市","address":"東京都調布市国領町8丁目1-55","lat":35.64866387,"lon":139.56351548},{"name":"調布駅入口","province":"東京都","city":"調布市","address":"東京都調布市調布ケ丘1丁目5-1","lat":35.65564303,"lon":139.54430838},{"name":"調布市文化プラザ前","province":"東京都","city":"調布市","address":"東京都調布市小島町2丁目34","lat":35.6508828,"lon":139.54196187},{"name":"調布警察署前","province":"東京都","city":"調布市","address":"東京都調布市国領町2丁目25-1","lat":35.65292432,"lon":139.56223197},{"name":"調布駅南","province":"東京都","city":"調布市","address":"東京都調布市布田4丁目17-10","lat":35.65041342,"lon":139.54403667},{"name":"調布駅南第二","province":"東京都","city":"調布市","address":"東京都調布市小島町2丁目52-1","lat":35.64983578,"lon":139.54309243},{"name":"東京スタジアム前","province":"東京都","city":"調布市","address":"東京都調布市飛田給1丁目34-17","lat":35.66310853,"lon":139.52479608},{"name":"飛田給駅入口","province":"東京都","city":"調布市","address":"東京都調布市飛田給1丁目26-1","lat":35.66123655,"lon":139.52347964},{"name":"飛田給小学校前","province":"東京都","city":"調布市","address":"東京都調布市上石原3丁目3","lat":35.65435992,"lon":139.52418564},{"name":"国領駅前","province":"東京都","city":"調布市","address":"東京都調布市国領町4丁目8-1","lat":35.64947482,"lon":139.5574827},{"name":"布田駅前第一","province":"東京都","city":"調布市","address":"東京都調布市国領町5丁目70-1","lat":35.64951641,"lon":139.55109439},{"name":"布田駅前第二","province":"東京都","city":"調布市","address":"東京都調布市布田2丁目51-6","lat":35.65026625,"lon":139.55079711},{"name":"上石原浄水所","province":"東京都","city":"調布市","address":"東京都調布市上石原1丁目34-7","lat":35.66130335,"lon":139.53174555},{"name":"深大寺浄水所","province":"東京都","city":"調布市","address":"東京都調布市深大寺南町5丁目56-1","lat":35.66896104,"lon":139.55556797},{"name":"調布市地域包括支援センターはなみずき","province":"東京都","city":"調布市","address":"調布市深大寺北町4-17-7","lat":35.679989,"lon":139.551575},{"name":"調布市地域包括支援センターちょうふの里","province":"東京都","city":"調布市","address":"調布市西町290-5","lat":35.666344,"lon":139.52269},{"name":"調布市地域包括支援センターせいじゅ","province":"東京都","city":"調布市","address":"調布市上石原3-54-2","lat":35.65004,"lon":139.52478},{"name":"調布市地域包括支援センターちょうふ花園","province":"東京都","city":"調布市","address":"調布市下石原3-44-1","lat":35.651432,"lon":139.533188},{"name":"調布市地域包括支援センター調布八雲苑","province":"東京都","city":"調布市","address":"調布市八雲台1-22-11階","lat":35.654781,"lon":139.553162},{"name":"調布市地域包括支援センター至誠しばさき","province":"東京都","city":"調布市","address":"調布市菊野台1-52-4","lat":35.655369,"lon":139.565491},{"name":"調布市地域包括支援センターときわぎ国領","province":"東京都","city":"調布市","address":"調布市国領町7-32-2デュスモン国領101","lat":35.644749,"lon":139.560547},{"name":"調布市地域包括支援センターゆうあい","province":"東京都","city":"調布市","address":"調布市国領町3-8-1","lat":35.650097,"lon":139.560684},{"name":"調布市地域包括支援センターつつじヶ丘","province":"東京都","city":"調布市","address":"調布市東つつじヶ丘1-5-2","lat":35.659683,"lon":139.576248},{"name":"調布市地域包括支援センター仙川","province":"東京都","city":"調布市","address":"調布市若葉町2-22-21階","lat":35.655972,"lon":139.589172},{"name":"調布市消費生活センター","province":"東京都","city":"調布市","address":"調布市小島町2-35-1","lat":35.650593,"lon":139.540894},{"name":"御塔坂橋北","province":"東京都","city":"調布市","address":"東京都調布市深大寺元町3丁目1","lat":35.6658612,"lon":139.54374139},{"name":"旧甲州街道入口","province":"東京都","city":"調布市","address":"東京都調布市国領町2丁目18-4","lat":35.65227161,"lon":139.5597767},{"name":"国領駅入口","province":"東京都","city":"調布市","address":"東京都調布市国領町1丁目45-11","lat":35.65064961,"lon":139.55676599},{"name":"仙川駅入口","province":"東京都","city":"調布市","address":"東京都調布市仙川町2丁目19-5","lat":35.66328458,"lon":139.58346575},{"name":"上石原","province":"東京都","city":"調布市","address":"東京都調布市富士見町1丁目1","lat":35.66012856,"lon":139.53295109},{"name":"味の素スタジアム西","province":"東京都","city":"調布市","address":"東京都調布市西町290","lat":35.66924671,"lon":139.53010368},{"name":"調布駅西","province":"東京都","city":"調布市","address":"東京都調布市小島町1丁目36-16","lat":35.65269349,"lon":139.54303928},{"name":"布多天神前","province":"東京都","city":"調布市","address":"東京都調布市調布ケ丘1丁目6","lat":35.65539583,"lon":139.54488332},{"name":"不動前","province":"東京都","city":"調布市","address":"東京都調布市国領町1丁目2-8","lat":35.65169097,"lon":139.55134967},{"name":"国領町八丁目","province":"東京都","city":"調布市","address":"東京都調布市国領町4丁目51-1","lat":35.64605871,"lon":139.56218803},{"name":"深大寺北町一丁目","province":"東京都","city":"調布市","address":"東京都調布市深大寺北町7丁目27","lat":35.67532402,"lon":139.54521317},{"name":"つつじヶ丘交番前","province":"東京都","city":"調布市","address":"東京都調布市西つつじケ丘3丁目31-2","lat":35.65925155,"lon":139.57431952},{"name":"多摩川団地交番前","province":"東京都","city":"調布市","address":"東京都調布市染地3丁目1-498","lat":35.63967659,"lon":139.55987229},{"name":"調布駅南入口","province":"東京都","city":"調布市","address":"東京都調布市布田5丁目1","lat":35.64839998,"lon":139.54339535},{"name":"調布駅北","province":"東京都","city":"調布市","address":"東京都調布市布田1丁目37-16","lat":35.65298507,"lon":139.54419187},{"name":"調布中学校前","province":"東京都","city":"調布市","address":"東京都調布市富士見町4丁目17-1","lat":35.66535009,"lon":139.53516172},{"name":"仙川橋","province":"東京都","city":"調布市","address":"東京都調布市緑ケ丘2丁目56","lat":35.66533724,"lon":139.5879153},{"name":"国領駅南","province":"東京都","city":"調布市","address":"東京都調布市国領町3丁目1-38","lat":35.64966092,"lon":139.55874091},{"name":"調布第三小学校入口","province":"東京都","city":"調布市","address":"東京都調布市上石原2丁目41","lat":35.65508765,"lon":139.52915735},{"name":"飛田給小入口","province":"東京都","city":"調布市","address":"東京都調布市飛田給2丁目42-7","lat":35.65689285,"lon":139.52534091},{"name":"飛田給小入口第二","province":"東京都","city":"調布市","address":"東京都調布市飛田給2丁目42-7","lat":35.65689285,"lon":139.52534091},{"name":"野川馬橋西","province":"東京都","city":"調布市","address":"東京都調布市国領町2丁目26","lat":35.65327149,"lon":139.56242638},{"name":"調布市役所前","province":"東京都","city":"調布市","address":"東京都調布市小島町2丁目35-1","lat":35.65059399,"lon":139.5406704},{"name":"布田一丁目","province":"東京都","city":"調布市","address":"東京都調布市布田1丁目25-2","lat":35.65270176,"lon":139.54599168},{"name":"国領町三丁目","province":"東京都","city":"調布市","address":"東京都調布市国領町3丁目8","lat":35.64928321,"lon":139.5611518},{"name":"飛田給二丁目","province":"東京都","city":"調布市","address":"東京都調布市飛田給2丁目19","lat":35.65929519,"lon":139.52253264},{"name":"飛田給二丁目東","province":"東京都","city":"調布市","address":"東京都調布市飛田給2丁目24-7","lat":35.65814817,"lon":139.52361597},{"name":"飛田給駅南口","province":"東京都","city":"調布市","address":"東京都調布市飛田給2丁目13-12","lat":35.65893411,"lon":139.52149665},{"name":"調布総合体育館南","province":"東京都","city":"調布市","address":"東京都調布市深大寺北町2丁目2","lat":35.6716801,"lon":139.55205709},{"name":"調布郵便局前","province":"東京都","city":"調布市","address":"東京都調布市国領町2丁目14","lat":35.65227714,"lon":139.55834905},{"name":"調布ヶ丘一丁目","province":"東京都","city":"調布市","address":"東京都調布市調布ケ丘1丁目34-1","lat":35.65472366,"lon":139.54680532},{"name":"国領小学校西","province":"東京都","city":"調布市","address":"東京都調布市国領町8丁目1-55","lat":35.64866387,"lon":139.56351548},{"name":"調布駅入口","province":"東京都","city":"調布市","address":"東京都調布市調布ケ丘1丁目5-1","lat":35.65564303,"lon":139.54430838},{"name":"調布市文化プラザ前","province":"東京都","city":"調布市","address":"東京都調布市小島町2丁目34","lat":35.6508828,"lon":139.54196187},{"name":"調布警察署前","province":"東京都","city":"調布市","address":"東京都調布市国領町2丁目25-1","lat":35.65292432,"lon":139.56223197},{"name":"調布駅南","province":"東京都","city":"調布市","address":"東京都調布市布田4丁目17-10","lat":35.65041342,"lon":139.54403667},{"name":"調布駅南第二","province":"東京都","city":"調布市","address":"東京都調布市小島町2丁目52-1","lat":35.64983578,"lon":139.54309243},{"name":"東京スタジアム前","province":"東京都","city":"調布市","address":"東京都調布市飛田給1丁目34-17","lat":35.66310853,"lon":139.52479608},{"name":"飛田給駅入口","province":"東京都","city":"調布市","address":"東京都調布市飛田給1丁目26-1","lat":35.66123655,"lon":139.52347964},{"name":"飛田給小学校前","province":"東京都","city":"調布市","address":"東京都調布市上石原3丁目3","lat":35.65435992,"lon":139.52418564},{"name":"国領駅前","province":"東京都","city":"調布市","address":"東京都調布市国領町4丁目8-1","lat":35.64947482,"lon":139.5574827},{"name":"布田駅前第一","province":"東京都","city":"調布市","address":"東京都調布市国領町5丁目70-1","lat":35.64951641,"lon":139.55109439},{"name":"布田駅前第二","province":"東京都","city":"調布市","address":"東京都調布市布田2丁目51-6","lat":35.65026625,"lon":139.55079711},{"name":"上石原浄水所","province":"東京都","city":"調布市","address":"東京都調布市上石原1丁目34-7","lat":35.66130335,"lon":139.53174555},{"name":"深大寺浄水所","province":"東京都","city":"調布市","address":"東京都調布市深大寺南町5丁目56-1","lat":35.66896104,"lon":139.55556797},{"name":"調布市地域包括支援センターはなみずき","province":"東京都","city":"調布市","address":"調布市深大寺北町4-17-7","lat":35.679989,"lon":139.551575},{"name":"調布市地域包括支援センターちょうふの里","province":"東京都","city":"調布市","address":"調布市西町290-5","lat":35.666344,"lon":139.52269},{"name":"調布市地域包括支援センターせいじゅ","province":"東京都","city":"調布市","address":"調布市上石原3-54-2","lat":35.65004,"lon":139.52478},{"name":"調布市地域包括支援センターちょうふ花園","province":"東京都","city":"調布市","address":"調布市下石原3-44-1","lat":35.651432,"lon":139.533188},{"name":"調布市地域包括支援センター調布八雲苑","province":"東京都","city":"調布市","address":"調布市八雲台1-22-11階","lat":35.654781,"lon":139.553162},{"name":"調布市地域包括支援センター至誠しばさき","province":"東京都","city":"調布市","address":"調布市菊野台1-52-4","lat":35.655369,"lon":139.565491},{"name":"調布市地域包括支援センターときわぎ国領","province":"東京都","city":"調布市","address":"調布市国領町7-32-2デュスモン国領101","lat":35.644749,"lon":139.560547},{"name":"調布市地域包括支援センターゆうあい","province":"東京都","city":"調布市","address":"調布市国領町3-8-1","lat":35.650097,"lon":139.560684},{"name":"調布市地域包括支援センターつつじヶ丘","province":"東京都","city":"調布市","address":"調布市東つつじヶ丘1-5-2","lat":35.659683,"lon":139.576248},{"name":"調布市地域包括支援センター仙川","province":"東京都","city":"調布市","address":"調布市若葉町2-22-21階","lat":35.655972,"lon":139.589172},{"name":"調布市消費生活センター","province":"東京都","city":"調布市","address":"調布市小島町2-35-1","lat":35.650593,"lon":139.540894},{"name":"御塔坂橋北","province":"東京都","city":"調布市","address":"東京都調布市深大寺元町3丁目1","lat":35.6658612,"lon":139.54374139},{"name":"旧甲州街道入口","province":"東京都","city":"調布市","address":"東京都調布市国領町2丁目18-4","lat":35.65227161,"lon":139.5597767},{"name":"国領駅入口","province":"東京都","city":"調布市","address":"東京都調布市国領町1丁目45-11","lat":35.65064961,"lon":139.55676599},{"name":"仙川駅入口","province":"東京都","city":"調布市","address":"東京都調布市仙川町2丁目19-5","lat":35.66328458,"lon":139.58346575},{"name":"上石原","province":"東京都","city":"調布市","address":"東京都調布市富士見町1丁目1","lat":35.66012856,"lon":139.53295109},{"name":"味の素スタジアム西","province":"東京都","city":"調布市","address":"東京都調布市西町290","lat":35.66924671,"lon":139.53010368},{"name":"調布駅西","province":"東京都","city":"調布市","address":"東京都調布市小島町1丁目36-16","lat":35.65269349,"lon":139.54303928},{"name":"布多天神前","province":"東京都","city":"調布市","address":"東京都調布市調布ケ丘1丁目6","lat":35.65539583,"lon":139.54488332},{"name":"不動前","province":"東京都","city":"調布市","address":"東京都調布市国領町1丁目2-8","lat":35.65169097,"lon":139.55134967},{"name":"国領町八丁目","province":"東京都","city":"調布市","address":"東京都調布市国領町4丁目51-1","lat":35.64605871,"lon":139.56218803},{"name":"深大寺北町一丁目","province":"東京都","city":"調布市","address":"東京都調布市深大寺北町7丁目27","lat":35.67532402,"lon":139.54521317},{"name":"つつじヶ丘交番前","province":"東京都","city":"調布市","address":"東京都調布市西つつじケ丘3丁目31-2","lat":35.65925155,"lon":139.57431952},{"name":"多摩川団地交番前","province":"東京都","city":"調布市","address":"東京都調布市染地3丁目1-498","lat":35.63967659,"lon":139.55987229},{"name":"調布駅南入口","province":"東京都","city":"調布市","address":"東京都調布市布田5丁目1","lat":35.64839998,"lon":139.54339535},{"name":"調布駅北","province":"東京都","city":"調布市","address":"東京都調布市布田1丁目37-16","lat":35.65298507,"lon":139.54419187},{"name":"調布中学校前","province":"東京都","city":"調布市","address":"東京都調布市富士見町4丁目17-1","lat":35.66535009,"lon":139.53516172},{"name":"仙川橋","province":"東京都","city":"調布市","address":"東京都調布市緑ケ丘2丁目56","lat":35.66533724,"lon":139.5879153},{"name":"国領駅南","province":"東京都","city":"調布市","address":"東京都調布市国領町3丁目1-38","lat":35.64966092,"lon":139.55874091},{"name":"調布第三小学校入口","province":"東京都","city":"調布市","address":"東京都調布市上石原2丁目41","lat":35.65508765,"lon":139.52915735},{"name":"飛田給小入口","province":"東京都","city":"調布市","address":"東京都調布市飛田給2丁目42-7","lat":35.65689285,"lon":139.52534091},{"name":"飛田給小入口第二","province":"東京都","city":"調布市","address":"東京都調布市飛田給2丁目42-7","lat":35.65689285,"lon":139.52534091},{"name":"野川馬橋西","province":"東京都","city":"調布市","address":"東京都調布市国領町2丁目26","lat":35.65327149,"lon":139.56242638},{"name":"調布市役所前","province":"東京都","city":"調布市","address":"東京都調布市小島町2丁目35-1","lat":35.65059399,"lon":139.5406704},{"name":"布田一丁目","province":"東京都","city":"調布市","address":"東京都調布市布田1丁目25-2","lat":35.65270176,"lon":139.54599168},{"name":"国領町三丁目","province":"東京都","city":"調布市","address":"東京都調布市国領町3丁目8","lat":35.64928321,"lon":139.5611518},{"name":"飛田給二丁目","province":"東京都","city":"調布市","address":"東京都調布市飛田給2丁目19","lat":35.65929519,"lon":139.52253264},{"name":"飛田給二丁目東","province":"東京都","city":"調布市","address":"東京都調布市飛田給2丁目24-7","lat":35.65814817,"lon":139.52361597},{"name":"飛田給駅南口","province":"東京都","city":"調布市","address":"東京都調布市飛田給2丁目13-12","lat":35.65893411,"lon":139.52149665},{"name":"調布総合体育館南","province":"東京都","city":"調布市","address":"東京都調布市深大寺北町2丁目2","lat":35.6716801,"lon":139.55205709},{"name":"調布郵便局前","province":"東京都","city":"調布市","address":"東京都調布市国領町2丁目14","lat":35.65227714,"lon":139.55834905},{"name":"調布ヶ丘一丁目","province":"東京都","city":"調布市","address":"東京都調布市調布ケ丘1丁目34-1","lat":35.65472366,"lon":139.54680532},{"name":"国領小学校西","province":"東京都","city":"調布市","address":"東京都調布市国領町8丁目1-55","lat":35.64866387,"lon":139.56351548},{"name":"調布駅入口","province":"東京都","city":"調布市","address":"東京都調布市調布ケ丘1丁目5-1","lat":35.65564303,"lon":139.54430838},{"name":"調布市文化プラザ前","province":"東京都","city":"調布市","address":"東京都調布市小島町2丁目34","lat":35.6508828,"lon":139.54196187},{"name":"調布警察署前","province":"東京都","city":"調布市","address":"東京都調布市国領町2丁目25-1","lat":35.65292432,"lon":139.56223197},{"name":"調布駅南","province":"東京都","city":"調布市","address":"東京都調布市布田4丁目17-10","lat":35.65041342,"lon":139.54403667},{"name":"調布駅南第二","province":"東京都","city":"調布市","address":"東京都調布市小島町2丁目52-1","lat":35.64983578,"lon":139.54309243},{"name":"東京スタジアム前","province":"東京都","city":"調布市","address":"東京都調布市飛田給1丁目34-17","lat":35.66310853,"lon":139.52479608},{"name":"飛田給駅入口","province":"東京都","city":"調布市","address":"東京都調布市飛田給1丁目26-1","lat":35.66123655,"lon":139.52347964},{"name":"飛田給小学校前","province":"東京都","city":"調布市","address":"東京都調布市上石原3丁目3","lat":35.65435992,"lon":139.52418564},{"name":"国領駅前","province":"東京都","city":"調布市","address":"東京都調布市国領町4丁目8-1","lat":35.64947482,"lon":139.5574827},{"name":"布田駅前第一","province":"東京都","city":"調布市","address":"東京都調布市国領町5丁目70-1","lat":35.64951641,"lon":139.55109439},{"name":"布田駅前第二","province":"東京都","city":"調布市","address":"東京都調布市布田2丁目51-6","lat":35.65026625,"lon":139.55079711},{"name":"上石原浄水所","province":"東京都","city":"調布市","address":"東京都調布市上石原1丁目34-7","lat":35.66130335,"lon":139.53174555},{"name":"深大寺浄水所","province":"東京都","city":"調布市","address":"東京都調布市深大寺南町5丁目56-1","lat":35.66896104,"lon":139.55556797},{"name":"調布市地域包括支援センターはなみずき","province":"東京都","city":"調布市","address":"調布市深大寺北町4-17-7","lat":35.679989,"lon":139.551575},{"name":"調布市地域包括支援センターちょうふの里","province":"東京都","city":"調布市","address":"調布市西町290-5","lat":35.666344,"lon":139.52269},{"name":"調布市地域包括支援センターせいじゅ","province":"東京都","city":"調布市","address":"調布市上石原3-54-2","lat":35.65004,"lon":139.52478},{"name":"調布市地域包括支援センターちょうふ花園","province":"東京都","city":"調布市","address":"調布市下石原3-44-1","lat":35.651432,"lon":139.533188},{"name":"調布市地域包括支援センター調布八雲苑","province":"東京都","city":"調布市","address":"調布市八雲台1-22-11階","lat":35.654781,"lon":139.553162},{"name":"調布市地域包括支援センター至誠しばさき","province":"東京都","city":"調布市","address":"調布市菊野台1-52-4","lat":35.655369,"lon":139.565491},{"name":"調布市地域包括支援センターときわぎ国領","province":"東京都","city":"調布市","address":"調布市国領町7-32-2デュスモン国領101","lat":35.644749,"lon":139.560547},{"name":"調布市地域包括支援センターゆうあい","province":"東京都","city":"調布市","address":"調布市国領町3-8-1","lat":35.650097,"lon":139.560684},{"name":"調布市地域包括支援センターつつじヶ丘","province":"東京都","city":"調布市","address":"調布市東つつじヶ丘1-5-2","lat":35.659683,"lon":139.576248},{"name":"調布市地域包括支援センター仙川","province":"東京都","city":"調布市","address":"調布市若葉町2-22-21階","lat":35.655972,"lon":139.589172},{"name":"調布市消費生活センター","province":"東京都","city":"調布市","address":"調布市小島町2-35-1","lat":35.650593,"lon":139.540894},{"name":"御塔坂橋北","province":"東京都","city":"調布市","address":"東京都調布市深大寺元町3丁目1","lat":35.6658612,"lon":139.54374139},{"name":"旧甲州街道入口","province":"東京都","city":"調布市","address":"東京都調布市国領町2丁目18-4","lat":35.65227161,"lon":139.5597767},{"name":"国領駅入口","province":"東京都","city":"調布市","address":"東京都調布市国領町1丁目45-11","lat":35.65064961,"lon":139.55676599},{"name":"仙川駅入口","province":"東京都","city":"調布市","address":"東京都調布市仙川町2丁目19-5","lat":35.66328458,"lon":139.58346575},{"name":"上石原","province":"東京都","city":"調布市","address":"東京都調布市富士見町1丁目1","lat":35.66012856,"lon":139.53295109},{"name":"味の素スタジアム西","province":"東京都","city":"調布市","address":"東京都調布市西町290","lat":35.66924671,"lon":139.53010368},{"name":"調布駅西","province":"東京都","city":"調布市","address":"東京都調布市小島町1丁目36-16","lat":35.65269349,"lon":139.54303928},{"name":"布多天神前","province":"東京都","city":"調布市","address":"東京都調布市調布ケ丘1丁目6","lat":35.65539583,"lon":139.54488332},{"name":"不動前","province":"東京都","city":"調布市","address":"東京都調布市国領町1丁目2-8","lat":35.65169097,"lon":139.55134967},{"name":"国領町八丁目","province":"東京都","city":"調布市","address":"東京都調布市国領町4丁目51-1","lat":35.64605871,"lon":139.56218803},{"name":"深大寺北町一丁目","province":"東京都","city":"調布市","address":"東京都調布市深大寺北町7丁目27","lat":35.67532402,"lon":139.54521317},{"name":"つつじヶ丘交番前","province":"東京都","city":"調布市","address":"東京都調布市西つつじケ丘3丁目31-2","lat":35.65925155,"lon":139.57431952},{"name":"多摩川団地交番前","province":"東京都","city":"調布市","address":"東京都調布市染地3丁目1-498","lat":35.63967659,"lon":139.55987229},{"name":"調布駅南入口","province":"東京都","city":"調布市","address":"東京都調布市布田5丁目1","lat":35.64839998,"lon":139.54339535},{"name":"調布駅北","province":"東京都","city":"調布市","address":"東京都調布市布田1丁目37-16","lat":35.65298507,"lon":139.54419187},{"name":"調布中学校前","province":"東京都","city":"調布市","address":"東京都調布市富士見町4丁目17-1","lat":35.66535009,"lon":139.53516172},{"name":"仙川橋","province":"東京都","city":"調布市","address":"東京都調布市緑ケ丘2丁目56","lat":35.66533724,"lon":139.5879153},{"name":"国領駅南","province":"東京都","city":"調布市","address":"東京都調布市国領町3丁目1-38","lat":35.64966092,"lon":139.55874091},{"name":"調布第三小学校入口","province":"東京都","city":"調布市","address":"東京都調布市上石原2丁目41","lat":35.65508765,"lon":139.52915735},{"name":"飛田給小入口","province":"東京都","city":"調布市","address":"東京都調布市飛田給2丁目42-7","lat":35.65689285,"lon":139.52534091},{"name":"飛田給小入口第二","province":"東京都","city":"調布市","address":"東京都調布市飛田給2丁目42-7","lat":35.65689285,"lon":139.52534091},{"name":"野川馬橋西","province":"東京都","city":"調布市","address":"東京都調布市国領町2丁目26","lat":35.65327149,"lon":139.56242638},{"name":"調布市役所前","province":"東京都","city":"調布市","address":"東京都調布市小島町2丁目35-1","lat":35.65059399,"lon":139.5406704},{"name":"布田一丁目","province":"東京都","city":"調布市","address":"東京都調布市布田1丁目25-2","lat":35.65270176,"lon":139.54599168},{"name":"国領町三丁目","province":"東京都","city":"調布市","address":"東京都調布市国領町3丁目8","lat":35.64928321,"lon":139.5611518},{"name":"飛田給二丁目","province":"東京都","city":"調布市","address":"東京都調布市飛田給2丁目19","lat":35.65929519,"lon":139.52253264},{"name":"飛田給二丁目東","province":"東京都","city":"調布市","address":"東京都調布市飛田給2丁目24-7","lat":35.65814817,"lon":139.52361597},{"name":"飛田給駅南口","province":"東京都","city":"調布市","address":"東京都調布市飛田給2丁目13-12","lat":35.65893411,"lon":139.52149665},{"name":"調布総合体育館南","province":"東京都","city":"調布市","address":"東京都調布市深大寺北町2丁目2","lat":35.6716801,"lon":139.55205709},{"name":"調布郵便局前","province":"東京都","city":"調布市","address":"東京都調布市国領町2丁目14","lat":35.65227714,"lon":139.55834905},{"name":"調布ヶ丘一丁目","province":"東京都","city":"調布市","address":"東京都調布市調布ケ丘1丁目34-1","lat":35.65472366,"lon":139.54680532},{"name":"国領小学校西","province":"東京都","city":"調布市","address":"東京都調布市国領町8丁目1-55","lat":35.64866387,"lon":139.56351548},{"name":"調布駅入口","province":"東京都","city":"調布市","address":"東京都調布市調布ケ丘1丁目5-1","lat":35.65564303,"lon":139.54430838},{"name":"調布市文化プラザ前","province":"東京都","city":"調布市","address":"東京都調布市小島町2丁目34","lat":35.6508828,"lon":139.54196187},{"name":"調布警察署前","province":"東京都","city":"調布市","address":"東京都調布市国領町2丁目25-1","lat":35.65292432,"lon":139.56223197},{"name":"調布駅南","province":"東京都","city":"調布市","address":"東京都調布市布田4丁目17-10","lat":35.65041342,"lon":139.54403667},{"name":"調布駅南第二","province":"東京都","city":"調布市","address":"東京都調布市小島町2丁目52-1","lat":35.64983578,"lon":139.54309243},{"name":"東京スタジアム前","province":"東京都","city":"調布市","address":"東京都調布市飛田給1丁目34-17","lat":35.66310853,"lon":139.52479608},{"name":"飛田給駅入口","province":"東京都","city":"調布市","address":"東京都調布市飛田給1丁目26-1","lat":35.66123655,"lon":139.52347964},{"name":"飛田給小学校前","province":"東京都","city":"調布市","address":"東京都調布市上石原3丁目3","lat":35.65435992,"lon":139.52418564},{"name":"国領駅前","province":"東京都","city":"調布市","address":"東京都調布市国領町4丁目8-1","lat":35.64947482,"lon":139.5574827},{"name":"布田駅前第一","province":"東京都","city":"調布市","address":"東京都調布市国領町5丁目70-1","lat":35.64951641,"lon":139.55109439},{"name":"布田駅前第二","province":"東京都","city":"調布市","address":"東京都調布市布田2丁目51-6","lat":35.65026625,"lon":139.55079711},{"name":"上石原浄水所","province":"東京都","city":"調布市","address":"東京都調布市上石原1丁目34-7","lat":35.66130335,"lon":139.53174555},{"name":"深大寺浄水所","province":"東京都","city":"調布市","address":"東京都調布市深大寺南町5丁目56-1","lat":35.66896104,"lon":139.55556797},{"name":"調布市地域包括支援センターはなみずき","province":"東京都","city":"調布市","address":"調布市深大寺北町4-17-7","lat":35.679989,"lon":139.551575},{"name":"調布市地域包括支援センターちょうふの里","province":"東京都","city":"調布市","address":"調布市西町290-5","lat":35.666344,"lon":139.52269},{"name":"調布市地域包括支援センターせいじゅ","province":"東京都","city":"調布市","address":"調布市上石原3-54-2","lat":35.65004,"lon":139.52478},{"name":"調布市地域包括支援センターちょうふ花園","province":"東京都","city":"調布市","address":"調布市下石原3-44-1","lat":35.651432,"lon":139.533188},{"name":"調布市地域包括支援センター調布八雲苑","province":"東京都","city":"調布市","address":"調布市八雲台1-22-11階","lat":35.654781,"lon":139.553162},{"name":"調布市地域包括支援センター至誠しばさき","province":"東京都","city":"調布市","address":"調布市菊野台1-52-4","lat":35.655369,"lon":139.565491},{"name":"調布市地域包括支援センターときわぎ国領","province":"東京都","city":"調布市","address":"調布市国領町7-32-2デュスモン国領101","lat":35.644749,"lon":139.560547},{"name":"調布市地域包括支援センターゆうあい","province":"東京都","city":"調布市","address":"調布市国領町3-8-1","lat":35.650097,"lon":139.560684},{"name":"調布市地域包括支援センターつつじヶ丘","province":"東京都","city":"調布市","address":"調布市東つつじヶ丘1-5-2","lat":35.659683,"lon":139.576248},{"name":"調布市地域包括支援センター仙川","province":"東京都","city":"調布市","address":"調布市若葉町2-22-21階","lat":35.655972,"lon":139.589172},{"name":"調布市消費生活センター","province":"東京都","city":"調布市","address":"調布市小島町2-35-1","lat":35.650593,"lon":139.540894},{"name":"御塔坂橋北","province":"東京都","city":"調布市","address":"東京都調布市深大寺元町3丁目1","lat":35.6658612,"lon":139.54374139},{"name":"旧甲州街道入口","province":"東京都","city":"調布市","address":"東京都調布市国領町2丁目18-4","lat":35.65227161,"lon":139.5597767},{"name":"国領駅入口","province":"東京都","city":"調布市","address":"東京都調布市国領町1丁目45-11","lat":35.65064961,"lon":139.55676599},{"name":"仙川駅入口","province":"東京都","city":"調布市","address":"東京都調布市仙川町2丁目19-5","lat":35.66328458,"lon":139.58346575},{"name":"上石原","province":"東京都","city":"調布市","address":"東京都調布市富士見町1丁目1","lat":35.66012856,"lon":139.53295109},{"name":"味の素スタジアム西","province":"東京都","city":"調布市","address":"東京都調布市西町290","lat":35.66924671,"lon":139.53010368},{"name":"調布駅西","province":"東京都","city":"調布市","address":"東京都調布市小島町1丁目36-16","lat":35.65269349,"lon":139.54303928},{"name":"布多天神前","province":"東京都","city":"調布市","address":"東京都調布市調布ケ丘1丁目6","lat":35.65539583,"lon":139.54488332},{"name":"不動前","province":"東京都","city":"調布市","address":"東京都調布市国領町1丁目2-8","lat":35.65169097,"lon":139.55134967},{"name":"国領町八丁目","province":"東京都","city":"調布市","address":"東京都調布市国領町4丁目51-1","lat":35.64605871,"lon":139.56218803},{"name":"深大寺北町一丁目","province":"東京都","city":"調布市","address":"東京都調布市深大寺北町7丁目27","lat":35.67532402,"lon":139.54521317},{"name":"つつじヶ丘交番前","province":"東京都","city":"調布市","address":"東京都調布市西つつじケ丘3丁目31-2","lat":35.65925155,"lon":139.57431952},{"name":"多摩川団地交番前","province":"東京都","city":"調布市","address":"東京都調布市染地3丁目1-498","lat":35.63967659,"lon":139.55987229},{"name":"調布駅南入口","province":"東京都","city":"調布市","address":"東京都調布市布田5丁目1","lat":35.64839998,"lon":139.54339535},{"name":"調布駅北","province":"東京都","city":"調布市","address":"東京都調布市布田1丁目37-16","lat":35.65298507,"lon":139.54419187},{"name":"調布中学校前","province":"東京都","city":"調布市","address":"東京都調布市富士見町4丁目17-1","lat":35.66535009,"lon":139.53516172},{"name":"仙川橋","province":"東京都","city":"調布市","address":"東京都調布市緑ケ丘2丁目56","lat":35.66533724,"lon":139.5879153},{"name":"国領駅南","province":"東京都","city":"調布市","address":"東京都調布市国領町3丁目1-38","lat":35.64966092,"lon":139.55874091},{"name":"調布第三小学校入口","province":"東京都","city":"調布市","address":"東京都調布市上石原2丁目41","lat":35.65508765,"lon":139.52915735},{"name":"飛田給小入口","province":"東京都","city":"調布市","address":"東京都調布市飛田給2丁目42-7","lat":35.65689285,"lon":139.52534091},{"name":"飛田給小入口第二","province":"東京都","city":"調布市","address":"東京都調布市飛田給2丁目42-7","lat":35.65689285,"lon":139.52534091},{"name":"野川馬橋西","province":"東京都","city":"調布市","address":"東京都調布市国領町2丁目26","lat":35.65327149,"lon":139.56242638},{"name":"調布市役所前","province":"東京都","city":"調布市","address":"東京都調布市小島町2丁目35-1","lat":35.65059399,"lon":139.5406704},{"name":"布田一丁目","province":"東京都","city":"調布市","address":"東京都調布市布田1丁目25-2","lat":35.65270176,"lon":139.54599168},{"name":"国領町三丁目","province":"東京都","city":"調布市","address":"東京都調布市国領町3丁目8","lat":35.64928321,"lon":139.5611518},{"name":"飛田給二丁目","province":"東京都","city":"調布市","address":"東京都調布市飛田給2丁目19","lat":35.65929519,"lon":139.52253264},{"name":"飛田給二丁目東","province":"東京都","city":"調布市","address":"東京都調布市飛田給2丁目24-7","lat":35.65814817,"lon":139.52361597},{"name":"飛田給駅南口","province":"東京都","city":"調布市","address":"東京都調布市飛田給2丁目13-12","lat":35.65893411,"lon":139.52149665},{"name":"調布総合体育館南","province":"東京都","city":"調布市","address":"東京都調布市深大寺北町2丁目2","lat":35.6716801,"lon":139.55205709},{"name":"調布郵便局前","province":"東京都","city":"調布市","address":"東京都調布市国領町2丁目14","lat":35.65227714,"lon":139.55834905},{"name":"調布ヶ丘一丁目","province":"東京都","city":"調布市","address":"東京都調布市調布ケ丘1丁目34-1","lat":35.65472366,"lon":139.54680532},{"name":"国領小学校西","province":"東京都","city":"調布市","address":"東京都調布市国領町8丁目1-55","lat":35.64866387,"lon":139.56351548},{"name":"調布駅入口","province":"東京都","city":"調布市","address":"東京都調布市調布ケ丘1丁目5-1","lat":35.65564303,"lon":139.54430838},{"name":"調布市文化プラザ前","province":"東京都","city":"調布市","address":"東京都調布市小島町2丁目34","lat":35.6508828,"lon":139.54196187},{"name":"調布警察署前","province":"東京都","city":"調布市","address":"東京都調布市国領町2丁目25-1","lat":35.65292432,"lon":139.56223197},{"name":"調布駅南","province":"東京都","city":"調布市","address":"東京都調布市布田4丁目17-10","lat":35.65041342,"lon":139.54403667},{"name":"調布駅南第二","province":"東京都","city":"調布市","address":"東京都調布市小島町2丁目52-1","lat":35.64983578,"lon":139.54309243},{"name":"東京スタジアム前","province":"東京都","city":"調布市","address":"東京都調布市飛田給1丁目34-17","lat":35.66310853,"lon":139.52479608},{"name":"飛田給駅入口","province":"東京都","city":"調布市","address":"東京都調布市飛田給1丁目26-1","lat":35.66123655,"lon":139.52347964},{"name":"飛田給小学校前","province":"東京都","city":"調布市","address":"東京都調布市上石原3丁目3","lat":35.65435992,"lon":139.52418564},{"name":"国領駅前","province":"東京都","city":"調布市","address":"東京都調布市国領町4丁目8-1","lat":35.64947482,"lon":139.5574827},{"name":"布田駅前第一","province":"東京都","city":"調布市","address":"東京都調布市国領町5丁目70-1","lat":35.64951641,"lon":139.55109439},{"name":"布田駅前第二","province":"東京都","city":"調布市","address":"東京都調布市布田2丁目51-6","lat":35.65026625,"lon":139.55079711},{"name":"上石原浄水所","province":"東京都","city":"調布市","address":"東京都調布市上石原1丁目34-7","lat":35.66130335,"lon":139.53174555},{"name":"深大寺浄水所","province":"東京都","city":"調布市","address":"東京都調布市深大寺南町5丁目56-1","lat":35.66896104,"lon":139.55556797},{"name":"調布市地域包括支援センターはなみずき","province":"東京都","city":"調布市","address":"調布市深大寺北町4-17-7","lat":35.679989,"lon":139.551575},{"name":"調布市地域包括支援センターちょうふの里","province":"東京都","city":"調布市","address":"調布市西町290-5","lat":35.666344,"lon":139.52269},{"name":"調布市地域包括支援センターせいじゅ","province":"東京都","city":"調布市","address":"調布市上石原3-54-2","lat":35.65004,"lon":139.52478},{"name":"調布市地域包括支援センターちょうふ花園","province":"東京都","city":"調布市","address":"調布市下石原3-44-1","lat":35.651432,"lon":139.533188},{"name":"調布市地域包括支援センター調布八雲苑","province":"東京都","city":"調布市","address":"調布市八雲台1-22-11階","lat":35.654781,"lon":139.553162},{"name":"調布市地域包括支援センター至誠しばさき","province":"東京都","city":"調布市","address":"調布市菊野台1-52-4","lat":35.655369,"lon":139.565491},{"name":"調布市地域包括支援センターときわぎ国領","province":"東京都","city":"調布市","address":"調布市国領町7-32-2デュスモン国領101","lat":35.644749,"lon":139.560547},{"name":"調布市地域包括支援センターゆうあい","province":"東京都","city":"調布市","address":"調布市国領町3-8-1","lat":35.650097,"lon":139.560684},{"name":"調布市地域包括支援センターつつじヶ丘","province":"東京都","city":"調布市","address":"調布市東つつじヶ丘1-5-2","lat":35.659683,"lon":139.576248},{"name":"調布市地域包括支援センター仙川","province":"東京都","city":"調布市","address":"調布市若葉町2-22-21階","lat":35.655972,"lon":139.589172},{"name":"調布市消費生活センター","province":"東京都","city":"調布市","address":"調布市小島町2-35-1","lat":35.650593,"lon":139.540894},{"name":"御塔坂橋北","province":"東京都","city":"調布市","address":"東京都調布市深大寺元町3丁目1","lat":35.6658612,"lon":139.54374139},{"name":"旧甲州街道入口","province":"東京都","city":"調布市","address":"東京都調布市国領町2丁目18-4","lat":35.65227161,"lon":139.5597767},{"name":"国領駅入口","province":"東京都","city":"調布市","address":"東京都調布市国領町1丁目45-11","lat":35.65064961,"lon":139.55676599},{"name":"仙川駅入口","province":"東京都","city":"調布市","address":"東京都調布市仙川町2丁目19-5","lat":35.66328458,"lon":139.58346575},{"name":"上石原","province":"東京都","city":"調布市","address":"東京都調布市富士見町1丁目1","lat":35.66012856,"lon":139.53295109},{"name":"味の素スタジアム西","province":"東京都","city":"調布市","address":"東京都調布市西町290","lat":35.66924671,"lon":139.53010368},{"name":"調布駅西","province":"東京都","city":"調布市","address":"東京都調布市小島町1丁目36-16","lat":35.65269349,"lon":139.54303928},{"name":"布多天神前","province":"東京都","city":"調布市","address":"東京都調布市調布ケ丘1丁目6","lat":35.65539583,"lon":139.54488332},{"name":"不動前","province":"東京都","city":"調布市","address":"東京都調布市国領町1丁目2-8","lat":35.65169097,"lon":139.55134967},{"name":"国領町八丁目","province":"東京都","city":"調布市","address":"東京都調布市国領町4丁目51-1","lat":35.64605871,"lon":139.56218803},{"name":"深大寺北町一丁目","province":"東京都","city":"調布市","address":"東京都調布市深大寺北町7丁目27","lat":35.67532402,"lon":139.54521317},{"name":"つつじヶ丘交番前","province":"東京都","city":"調布市","address":"東京都調布市西つつじケ丘3丁目31-2","lat":35.65925155,"lon":139.57431952},{"name":"多摩川団地交番前","province":"東京都","city":"調布市","address":"東京都調布市染地3丁目1-498","lat":35.63967659,"lon":139.55987229},{"name":"調布駅南入口","province":"東京都","city":"調布市","address":"東京都調布市布田5丁目1","lat":35.64839998,"lon":139.54339535},{"name":"調布駅北","province":"東京都","city":"調布市","address":"東京都調布市布田1丁目37-16","lat":35.65298507,"lon":139.54419187},{"name":"調布中学校前","province":"東京都","city":"調布市","address":"東京都調布市富士見町4丁目17-1","lat":35.66535009,"lon":139.53516172},{"name":"仙川橋","province":"東京都","city":"調布市","address":"東京都調布市緑ケ丘2丁目56","lat":35.66533724,"lon":139.5879153},{"name":"国領駅南","province":"東京都","city":"調布市","address":"東京都調布市国領町3丁目1-38","lat":35.64966092,"lon":139.55874091},{"name":"調布第三小学校入口","province":"東京都","city":"調布市","address":"東京都調布市上石原2丁目41","lat":35.65508765,"lon":139.52915735},{"name":"飛田給小入口","province":"東京都","city":"調布市","address":"東京都調布市飛田給2丁目42-7","lat":35.65689285,"lon":139.52534091},{"name":"飛田給小入口第二","province":"東京都","city":"調布市","address":"東京都調布市飛田給2丁目42-7","lat":35.65689285,"lon":139.52534091},{"name":"野川馬橋西","province":"東京都","city":"調布市","address":"東京都調布市国領町2丁目26","lat":35.65327149,"lon":139.56242638},{"name":"調布市役所前","province":"東京都","city":"調布市","address":"東京都調布市小島町2丁目35-1","lat":35.65059399,"lon":139.5406704},{"name":"布田一丁目","province":"東京都","city":"調布市","address":"東京都調布市布田1丁目25-2","lat":35.65270176,"lon":139.54599168},{"name":"国領町三丁目","province":"東京都","city":"調布市","address":"東京都調布市国領町3丁目8","lat":35.64928321,"lon":139.5611518},{"name":"飛田給二丁目","province":"東京都","city":"調布市","address":"東京都調布市飛田給2丁目19","lat":35.65929519,"lon":139.52253264},{"name":"飛田給二丁目東","province":"東京都","city":"調布市","address":"東京都調布市飛田給2丁目24-7","lat":35.65814817,"lon":139.52361597},{"name":"飛田給駅南口","province":"東京都","city":"調布市","address":"東京都調布市飛田給2丁目13-12","lat":35.65893411,"lon":139.52149665},{"name":"調布総合体育館南","province":"東京都","city":"調布市","address":"東京都調布市深大寺北町2丁目2","lat":35.6716801,"lon":139.55205709},{"name":"調布郵便局前","province":"東京都","city":"調布市","address":"東京都調布市国領町2丁目14","lat":35.65227714,"lon":139.55834905},{"name":"調布ヶ丘一丁目","province":"東京都","city":"調布市","address":"東京都調布市調布ケ丘1丁目34-1","lat":35.65472366,"lon":139.54680532},{"name":"国領小学校西","province":"東京都","city":"調布市","address":"東京都調布市国領町8丁目1-55","lat":35.64866387,"lon":139.56351548},{"name":"調布駅入口","province":"東京都","city":"調布市","address":"東京都調布市調布ケ丘1丁目5-1","lat":35.65564303,"lon":139.54430838},{"name":"調布市文化プラザ前","province":"東京都","city":"調布市","address":"東京都調布市小島町2丁目34","lat":35.6508828,"lon":139.54196187},{"name":"調布警察署前","province":"東京都","city":"調布市","address":"東京都調布市国領町2丁目25-1","lat":35.65292432,"lon":139.56223197},{"name":"調布駅南","province":"東京都","city":"調布市","address":"東京都調布市布田4丁目17-10","lat":35.65041342,"lon":139.54403667},{"name":"調布駅南第二","province":"東京都","city":"調布市","address":"東京都調布市小島町2丁目52-1","lat":35.64983578,"lon":139.54309243},{"name":"東京スタジアム前","province":"東京都","city":"調布市","address":"東京都調布市飛田給1丁目34-17","lat":35.66310853,"lon":139.52479608},{"name":"飛田給駅入口","province":"東京都","city":"調布市","address":"東京都調布市飛田給1丁目26-1","lat":35.66123655,"lon":139.52347964},{"name":"飛田給小学校前","province":"東京都","city":"調布市","address":"東京都調布市上石原3丁目3","lat":35.65435992,"lon":139.52418564},{"name":"国領駅前","province":"東京都","city":"調布市","address":"東京都調布市国領町4丁目8-1","lat":35.64947482,"lon":139.5574827},{"name":"布田駅前第一","province":"東京都","city":"調布市","address":"東京都調布市国領町5丁目70-1","lat":35.64951641,"lon":139.55109439},{"name":"布田駅前第二","province":"東京都","city":"調布市","address":"東京都調布市布田2丁目51-6","lat":35.65026625,"lon":139.55079711},{"name":"上石原浄水所","province":"東京都","city":"調布市","address":"東京都調布市上石原1丁目34-7","lat":35.66130335,"lon":139.53174555},{"name":"深大寺浄水所","province":"東京都","city":"調布市","address":"東京都調布市深大寺南町5丁目56-1","lat":35.66896104,"lon":139.55556797},{"name":"調布市地域包括支援センターはなみずき","province":"東京都","city":"調布市","address":"調布市深大寺北町4-17-7","lat":35.679989,"lon":139.551575},{"name":"調布市地域包括支援センターちょうふの里","province":"東京都","city":"調布市","address":"調布市西町290-5","lat":35.666344,"lon":139.52269},{"name":"調布市地域包括支援センターせいじゅ","province":"東京都","city":"調布市","address":"調布市上石原3-54-2","lat":35.65004,"lon":139.52478},{"name":"調布市地域包括支援センターちょうふ花園","province":"東京都","city":"調布市","address":"調布市下石原3-44-1","lat":35.651432,"lon":139.533188},{"name":"調布市地域包括支援センター調布八雲苑","province":"東京都","city":"調布市","address":"調布市八雲台1-22-11階","lat":35.654781,"lon":139.553162},{"name":"調布市地域包括支援センター至誠しばさき","province":"東京都","city":"調布市","address":"調布市菊野台1-52-4","lat":35.655369,"lon":139.565491},{"name":"調布市地域包括支援センターときわぎ国領","province":"東京都","city":"調布市","address":"調布市国領町7-32-2デュスモン国領101","lat":35.644749,"lon":139.560547},{"name":"調布市地域包括支援センターゆうあい","province":"東京都","city":"調布市","address":"調布市国領町3-8-1","lat":35.650097,"lon":139.560684},{"name":"調布市地域包括支援センターつつじヶ丘","province":"東京都","city":"調布市","address":"調布市東つつじヶ丘1-5-2","lat":35.659683,"lon":139.576248},{"name":"調布市地域包括支援センター仙川","province":"東京都","city":"調布市","address":"調布市若葉町2-22-21階","lat":35.655972,"lon":139.589172},{"name":"調布市消費生活センター","province":"東京都","city":"調布市","address":"調布市小島町2-35-1","lat":35.650593,"lon":139.540894},{"name":"御塔坂橋北","province":"東京都","city":"調布市","address":"東京都調布市深大寺元町3丁目1","lat":35.6658612,"lon":139.54374139},{"name":"旧甲州街道入口","province":"東京都","city":"調布市","address":"東京都調布市国領町2丁目18-4","lat":35.65227161,"lon":139.5597767},{"name":"国領駅入口","province":"東京都","city":"調布市","address":"東京都調布市国領町1丁目45-11","lat":35.65064961,"lon":139.55676599},{"name":"仙川駅入口","province":"東京都","city":"調布市","address":"東京都調布市仙川町2丁目19-5","lat":35.66328458,"lon":139.58346575},{"name":"上石原","province":"東京都","city":"調布市","address":"東京都調布市富士見町1丁目1","lat":35.66012856,"lon":139.53295109},{"name":"味の素スタジアム西","province":"東京都","city":"調布市","address":"東京都調布市西町290","lat":35.66924671,"lon":139.53010368},{"name":"調布駅西","province":"東京都","city":"調布市","address":"東京都調布市小島町1丁目36-16","lat":35.65269349,"lon":139.54303928},{"name":"布多天神前","province":"東京都","city":"調布市","address":"東京都調布市調布ケ丘1丁目6","lat":35.65539583,"lon":139.54488332},{"name":"不動前","province":"東京都","city":"調布市","address":"東京都調布市国領町1丁目2-8","lat":35.65169097,"lon":139.55134967},{"name":"国領町八丁目","province":"東京都","city":"調布市","address":"東京都調布市国領町4丁目51-1","lat":35.64605871,"lon":139.56218803},{"name":"深大寺北町一丁目","province":"東京都","city":"調布市","address":"東京都調布市深大寺北町7丁目27","lat":35.67532402,"lon":139.54521317},{"name":"つつじヶ丘交番前","province":"東京都","city":"調布市","address":"東京都調布市西つつじケ丘3丁目31-2","lat":35.65925155,"lon":139.57431952},{"name":"多摩川団地交番前","province":"東京都","city":"調布市","address":"東京都調布市染地3丁目1-498","lat":35.63967659,"lon":139.55987229},{"name":"調布駅南入口","province":"東京都","city":"調布市","address":"東京都調布市布田5丁目1","lat":35.64839998,"lon":139.54339535},{"name":"調布駅北","province":"東京都","city":"調布市","address":"東京都調布市布田1丁目37-16","lat":35.65298507,"lon":139.54419187},{"name":"調布中学校前","province":"東京都","city":"調布市","address":"東京都調布市富士見町4丁目17-1","lat":35.66535009,"lon":139.53516172},{"name":"仙川橋","province":"東京都","city":"調布市","address":"東京都調布市緑ケ丘2丁目56","lat":35.66533724,"lon":139.5879153},{"name":"国領駅南","province":"東京都","city":"調布市","address":"東京都調布市国領町3丁目1-38","lat":35.64966092,"lon":139.55874091},{"name":"調布第三小学校入口","province":"東京都","city":"調布市","address":"東京都調布市上石原2丁目41","lat":35.65508765,"lon":139.52915735},{"name":"飛田給小入口","province":"東京都","city":"調布市","address":"東京都調布市飛田給2丁目42-7","lat":35.65689285,"lon":139.52534091},{"name":"飛田給小入口第二","province":"東京都","city":"調布市","address":"東京都調布市飛田給2丁目42-7","lat":35.65689285,"lon":139.52534091},{"name":"野川馬橋西","province":"東京都","city":"調布市","address":"東京都調布市国領町2丁目26","lat":35.65327149,"lon":139.56242638},{"name":"調布市役所前","province":"東京都","city":"調布市","address":"東京都調布市小島町2丁目35-1","lat":35.65059399,"lon":139.5406704},{"name":"布田一丁目","province":"東京都","city":"調布市","address":"東京都調布市布田1丁目25-2","lat":35.65270176,"lon":139.54599168},{"name":"国領町三丁目","province":"東京都","city":"調布市","address":"東京都調布市国領町3丁目8","lat":35.64928321,"lon":139.5611518},{"name":"飛田給二丁目","province":"東京都","city":"調布市","address":"東京都調布市飛田給2丁目19","lat":35.65929519,"lon":139.52253264},{"name":"飛田給二丁目東","province":"東京都","city":"調布市","address":"東京都調布市飛田給2丁目24-7","lat":35.65814817,"lon":139.52361597},{"name":"飛田給駅南口","province":"東京都","city":"調布市","address":"東京都調布市飛田給2丁目13-12","lat":35.65893411,"lon":139.52149665},{"name":"調布総合体育館南","province":"東京都","city":"調布市","address":"東京都調布市深大寺北町2丁目2","lat":35.6716801,"lon":139.55205709},{"name":"調布郵便局前","province":"東京都","city":"調布市","address":"東京都調布市国領町2丁目14","lat":35.65227714,"lon":139.55834905},{"name":"調布ヶ丘一丁目","province":"東京都","city":"調布市","address":"東京都調布市調布ケ丘1丁目34-1","lat":35.65472366,"lon":139.54680532},{"name":"国領小学校西","province":"東京都","city":"調布市","address":"東京都調布市国領町8丁目1-55","lat":35.64866387,"lon":139.56351548},{"name":"調布駅入口","province":"東京都","city":"調布市","address":"東京都調布市調布ケ丘1丁目5-1","lat":35.65564303,"lon":139.54430838},{"name":"調布市文化プラザ前","province":"東京都","city":"調布市","address":"東京都調布市小島町2丁目34","lat":35.6508828,"lon":139.54196187},{"name":"調布警察署前","province":"東京都","city":"調布市","address":"東京都調布市国領町2丁目25-1","lat":35.65292432,"lon":139.56223197},{"name":"調布駅南","province":"東京都","city":"調布市","address":"東京都調布市布田4丁目17-10","lat":35.65041342,"lon":139.54403667},{"name":"調布駅南第二","province":"東京都","city":"調布市","address":"東京都調布市小島町2丁目52-1","lat":35.64983578,"lon":139.54309243},{"name":"東京スタジアム前","province":"東京都","city":"調布市","address":"東京都調布市飛田給1丁目34-17","lat":35.66310853,"lon":139.52479608},{"name":"飛田給駅入口","province":"東京都","city":"調布市","address":"東京都調布市飛田給1丁目26-1","lat":35.66123655,"lon":139.52347964},{"name":"飛田給小学校前","province":"東京都","city":"調布市","address":"東京都調布市上石原3丁目3","lat":35.65435992,"lon":139.52418564},{"name":"国領駅前","province":"東京都","city":"調布市","address":"東京都調布市国領町4丁目8-1","lat":35.64947482,"lon":139.5574827},{"name":"布田駅前第一","province":"東京都","city":"調布市","address":"東京都調布市国領町5丁目70-1","lat":35.64951641,"lon":139.55109439},{"name":"布田駅前第二","province":"東京都","city":"調布市","address":"東京都調布市布田2丁目51-6","lat":35.65026625,"lon":139.55079711},{"name":"上石原浄水所","province":"東京都","city":"調布市","address":"東京都調布市上石原1丁目34-7","lat":35.66130335,"lon":139.53174555},{"name":"深大寺浄水所","province":"東京都","city":"調布市","address":"東京都調布市深大寺南町5丁目56-1","lat":35.66896104,"lon":139.55556797},{"name":"調布市地域包括支援センターはなみずき","province":"東京都","city":"調布市","address":"調布市深大寺北町4-17-7","lat":35.679989,"lon":139.551575},{"name":"調布市地域包括支援センターちょうふの里","province":"東京都","city":"調布市","address":"調布市西町290-5","lat":35.666344,"lon":139.52269},{"name":"調布市地域包括支援センターせいじゅ","province":"東京都","city":"調布市","address":"調布市上石原3-54-2","lat":35.65004,"lon":139.52478},{"name":"調布市地域包括支援センターちょうふ花園","province":"東京都","city":"調布市","address":"調布市下石原3-44-1","lat":35.651432,"lon":139.533188},{"name":"調布市地域包括支援センター調布八雲苑","province":"東京都","city":"調布市","address":"調布市八雲台1-22-11階","lat":35.654781,"lon":139.553162},{"name":"調布市地域包括支援センター至誠しばさき","province":"東京都","city":"調布市","address":"調布市菊野台1-52-4","lat":35.655369,"lon":139.565491},{"name":"調布市地域包括支援センターときわぎ国領","province":"東京都","city":"調布市","address":"調布市国領町7-32-2デュスモン国領101","lat":35.644749,"lon":139.560547},{"name":"調布市地域包括支援センターゆうあい","province":"東京都","city":"調布市","address":"調布市国領町3-8-1","lat":35.650097,"lon":139.560684},{"name":"調布市地域包括支援センターつつじヶ丘","province":"東京都","city":"調布市","address":"調布市東つつじヶ丘1-5-2","lat":35.659683,"lon":139.576248},{"name":"調布市地域包括支援センター仙川","province":"東京都","city":"調布市","address":"調布市若葉町2-22-21階","lat":35.655972,"lon":139.589172},{"name":"調布市消費生活センター","province":"東京都","city":"調布市","address":"調布市小島町2-35-1","lat":35.650593,"lon":139.540894},{"name":"御塔坂橋北","province":"東京都","city":"調布市","address":"東京都調布市深大寺元町3丁目1","lat":35.6658612,"lon":139.54374139},{"name":"旧甲州街道入口","province":"東京都","city":"調布市","address":"東京都調布市国領町2丁目18-4","lat":35.65227161,"lon":139.5597767},{"name":"国領駅入口","province":"東京都","city":"調布市","address":"東京都調布市国領町1丁目45-11","lat":35.65064961,"lon":139.55676599},{"name":"仙川駅入口","province":"東京都","city":"調布市","address":"東京都調布市仙川町2丁目19-5","lat":35.66328458,"lon":139.58346575},{"name":"上石原","province":"東京都","city":"調布市","address":"東京都調布市富士見町1丁目1","lat":35.66012856,"lon":139.53295109},{"name":"味の素スタジアム西","province":"東京都","city":"調布市","address":"東京都調布市西町290","lat":35.66924671,"lon":139.53010368},{"name":"調布駅西","province":"東京都","city":"調布市","address":"東京都調布市小島町1丁目36-16","lat":35.65269349,"lon":139.54303928},{"name":"布多天神前","province":"東京都","city":"調布市","address":"東京都調布市調布ケ丘1丁目6","lat":35.65539583,"lon":139.54488332},{"name":"不動前","province":"東京都","city":"調布市","address":"東京都調布市国領町1丁目2-8","lat":35.65169097,"lon":139.55134967},{"name":"国領町八丁目","province":"東京都","city":"調布市","address":"東京都調布市国領町4丁目51-1","lat":35.64605871,"lon":139.56218803},{"name":"深大寺北町一丁目","province":"東京都","city":"調布市","address":"東京都調布市深大寺北町7丁目27","lat":35.67532402,"lon":139.54521317},{"name":"つつじヶ丘交番前","province":"東京都","city":"調布市","address":"東京都調布市西つつじケ丘3丁目31-2","lat":35.65925155,"lon":139.57431952},{"name":"多摩川団地交番前","province":"東京都","city":"調布市","address":"東京都調布市染地3丁目1-498","lat":35.63967659,"lon":139.55987229},{"name":"調布駅南入口","province":"東京都","city":"調布市","address":"東京都調布市布田5丁目1","lat":35.64839998,"lon":139.54339535},{"name":"調布駅北","province":"東京都","city":"調布市","address":"東京都調布市布田1丁目37-16","lat":35.65298507,"lon":139.54419187},{"name":"調布中学校前","province":"東京都","city":"調布市","address":"東京都調布市富士見町4丁目17-1","lat":35.66535009,"lon":139.53516172},{"name":"仙川橋","province":"東京都","city":"調布市","address":"東京都調布市緑ケ丘2丁目56","lat":35.66533724,"lon":139.5879153},{"name":"国領駅南","province":"東京都","city":"調布市","address":"東京都調布市国領町3丁目1-38","lat":35.64966092,"lon":139.55874091},{"name":"調布第三小学校入口","province":"東京都","city":"調布市","address":"東京都調布市上石原2丁目41","lat":35.65508765,"lon":139.52915735},{"name":"飛田給小入口","province":"東京都","city":"調布市","address":"東京都調布市飛田給2丁目42-7","lat":35.65689285,"lon":139.52534091},{"name":"飛田給小入口第二","province":"東京都","city":"調布市","address":"東京都調布市飛田給2丁目42-7","lat":35.65689285,"lon":139.52534091},{"name":"野川馬橋西","province":"東京都","city":"調布市","address":"東京都調布市国領町2丁目26","lat":35.65327149,"lon":139.56242638},{"name":"調布市役所前","province":"東京都","city":"調布市","address":"東京都調布市小島町2丁目35-1","lat":35.65059399,"lon":139.5406704},{"name":"布田一丁目","province":"東京都","city":"調布市","address":"東京都調布市布田1丁目25-2","lat":35.65270176,"lon":139.54599168},{"name":"国領町三丁目","province":"東京都","city":"調布市","address":"東京都調布市国領町3丁目8","lat":35.64928321,"lon":139.5611518},{"name":"飛田給二丁目","province":"東京都","city":"調布市","address":"東京都調布市飛田給2丁目19","lat":35.65929519,"lon":139.52253264},{"name":"飛田給二丁目東","province":"東京都","city":"調布市","address":"東京都調布市飛田給2丁目24-7","lat":35.65814817,"lon":139.52361597},{"name":"飛田給駅南口","province":"東京都","city":"調布市","address":"東京都調布市飛田給2丁目13-12","lat":35.65893411,"lon":139.52149665},{"name":"調布総合体育館南","province":"東京都","city":"調布市","address":"東京都調布市深大寺北町2丁目2","lat":35.6716801,"lon":139.55205709},{"name":"調布郵便局前","province":"東京都","city":"調布市","address":"東京都調布市国領町2丁目14","lat":35.65227714,"lon":139.55834905},{"name":"調布ヶ丘一丁目","province":"東京都","city":"調布市","address":"東京都調布市調布ケ丘1丁目34-1","lat":35.65472366,"lon":139.54680532},{"name":"国領小学校西","province":"東京都","city":"調布市","address":"東京都調布市国領町8丁目1-55","lat":35.64866387,"lon":139.56351548},{"name":"調布駅入口","province":"東京都","city":"調布市","address":"東京都調布市調布ケ丘1丁目5-1","lat":35.65564303,"lon":139.54430838},{"name":"調布市文化プラザ前","province":"東京都","city":"調布市","address":"東京都調布市小島町2丁目34","lat":35.6508828,"lon":139.54196187},{"name":"調布警察署前","province":"東京都","city":"調布市","address":"東京都調布市国領町2丁目25-1","lat":35.65292432,"lon":139.56223197},{"name":"調布駅南","province":"東京都","city":"調布市","address":"東京都調布市布田4丁目17-10","lat":35.65041342,"lon":139.54403667},{"name":"調布駅南第二","province":"東京都","city":"調布市","address":"東京都調布市小島町2丁目52-1","lat":35.64983578,"lon":139.54309243},{"name":"東京スタジアム前","province":"東京都","city":"調布市","address":"東京都調布市飛田給1丁目34-17","lat":35.66310853,"lon":139.52479608},{"name":"飛田給駅入口","province":"東京都","city":"調布市","address":"東京都調布市飛田給1丁目26-1","lat":35.66123655,"lon":139.52347964},{"name":"飛田給小学校前","province":"東京都","city":"調布市","address":"東京都調布市上石原3丁目3","lat":35.65435992,"lon":139.52418564},{"name":"国領駅前","province":"東京都","city":"調布市","address":"東京都調布市国領町4丁目8-1","lat":35.64947482,"lon":139.5574827},{"name":"布田駅前第一","province":"東京都","city":"調布市","address":"東京都調布市国領町5丁目70-1","lat":35.64951641,"lon":139.55109439},{"name":"布田駅前第二","province":"東京都","city":"調布市","address":"東京都調布市布田2丁目51-6","lat":35.65026625,"lon":139.55079711},{"name":"上石原浄水所","province":"東京都","city":"調布市","address":"東京都調布市上石原1丁目34-7","lat":35.66130335,"lon":139.53174555},{"name":"深大寺浄水所","province":"東京都","city":"調布市","address":"東京都調布市深大寺南町5丁目56-1","lat":35.66896104,"lon":139.55556797},{"name":"調布市地域包括支援センターはなみずき","province":"東京都","city":"調布市","address":"調布市深大寺北町4-17-7","lat":35.679989,"lon":139.551575},{"name":"調布市地域包括支援センターちょうふの里","province":"東京都","city":"調布市","address":"調布市西町290-5","lat":35.666344,"lon":139.52269},{"name":"調布市地域包括支援センターせいじゅ","province":"東京都","city":"調布市","address":"調布市上石原3-54-2","lat":35.65004,"lon":139.52478},{"name":"調布市地域包括支援センターちょうふ花園","province":"東京都","city":"調布市","address":"調布市下石原3-44-1","lat":35.651432,"lon":139.533188},{"name":"調布市地域包括支援センター調布八雲苑","province":"東京都","city":"調布市","address":"調布市八雲台1-22-11階","lat":35.654781,"lon":139.553162},{"name":"調布市地域包括支援センター至誠しばさき","province":"東京都","city":"調布市","address":"調布市菊野台1-52-4","lat":35.655369,"lon":139.565491},{"name":"調布市地域包括支援センターときわぎ国領","province":"東京都","city":"調布市","address":"調布市国領町7-32-2デュスモン国領101","lat":35.644749,"lon":139.560547},{"name":"調布市地域包括支援センターゆうあい","province":"東京都","city":"調布市","address":"調布市国領町3-8-1","lat":35.650097,"lon":139.560684},{"name":"調布市地域包括支援センターつつじヶ丘","province":"東京都","city":"調布市","address":"調布市東つつじヶ丘1-5-2","lat":35.659683,"lon":139.576248},{"name":"調布市地域包括支援センター仙川","province":"東京都","city":"調布市","address":"調布市若葉町2-22-21階","lat":35.655972,"lon":139.589172},{"name":"調布市消費生活センター","province":"東京都","city":"調布市","address":"調布市小島町2-35-1","lat":35.650593,"lon":139.540894},{"name":"御塔坂橋北","province":"東京都","city":"調布市","address":"東京都調布市深大寺元町3丁目1","lat":35.6658612,"lon":139.54374139},{"name":"旧甲州街道入口","province":"東京都","city":"調布市","address":"東京都調布市国領町2丁目18-4","lat":35.65227161,"lon":139.5597767},{"name":"国領駅入口","province":"東京都","city":"調布市","address":"東京都調布市国領町1丁目45-11","lat":35.65064961,"lon":139.55676599},{"name":"仙川駅入口","province":"東京都","city":"調布市","address":"東京都調布市仙川町2丁目19-5","lat":35.66328458,"lon":139.58346575},{"name":"上石原","province":"東京都","city":"調布市","address":"東京都調布市富士見町1丁目1","lat":35.66012856,"lon":139.53295109},{"name":"味の素スタジアム西","province":"東京都","city":"調布市","address":"東京都調布市西町290","lat":35.66924671,"lon":139.53010368},{"name":"調布駅西","province":"東京都","city":"調布市","address":"東京都調布市小島町1丁目36-16","lat":35.65269349,"lon":139.54303928},{"name":"布多天神前","province":"東京都","city":"調布市","address":"東京都調布市調布ケ丘1丁目6","lat":35.65539583,"lon":139.54488332},{"name":"不動前","province":"東京都","city":"調布市","address":"東京都調布市国領町1丁目2-8","lat":35.65169097,"lon":139.55134967},{"name":"国領町八丁目","province":"東京都","city":"調布市","address":"東京都調布市国領町4丁目51-1","lat":35.64605871,"lon":139.56218803},{"name":"深大寺北町一丁目","province":"東京都","city":"調布市","address":"東京都調布市深大寺北町7丁目27","lat":35.67532402,"lon":139.54521317},{"name":"つつじヶ丘交番前","province":"東京都","city":"調布市","address":"東京都調布市西つつじケ丘3丁目31-2","lat":35.65925155,"lon":139.57431952},{"name":"多摩川団地交番前","province":"東京都","city":"調布市","address":"東京都調布市染地3丁目1-498","lat":35.63967659,"lon":139.55987229},{"name":"調布駅南入口","province":"東京都","city":"調布市","address":"東京都調布市布田5丁目1","lat":35.64839998,"lon":139.54339535},{"name":"調布駅北","province":"東京都","city":"調布市","address":"東京都調布市布田1丁目37-16","lat":35.65298507,"lon":139.54419187},{"name":"調布中学校前","province":"東京都","city":"調布市","address":"東京都調布市富士見町4丁目17-1","lat":35.66535009,"lon":139.53516172},{"name":"仙川橋","province":"東京都","city":"調布市","address":"東京都調布市緑ケ丘2丁目56","lat":35.66533724,"lon":139.5879153},{"name":"国領駅南","province":"東京都","city":"調布市","address":"東京都調布市国領町3丁目1-38","lat":35.64966092,"lon":139.55874091},{"name":"調布第三小学校入口","province":"東京都","city":"調布市","address":"東京都調布市上石原2丁目41","lat":35.65508765,"lon":139.52915735},{"name":"飛田給小入口","province":"東京都","city":"調布市","address":"東京都調布市飛田給2丁目42-7","lat":35.65689285,"lon":139.52534091},{"name":"飛田給小入口第二","province":"東京都","city":"調布市","address":"東京都調布市飛田給2丁目42-7","lat":35.65689285,"lon":139.52534091},{"name":"野川馬橋西","province":"東京都","city":"調布市","address":"東京都調布市国領町2丁目26","lat":35.65327149,"lon":139.56242638},{"name":"調布市役所前","province":"東京都","city":"調布市","address":"東京都調布市小島町2丁目35-1","lat":35.65059399,"lon":139.5406704},{"name":"布田一丁目","province":"東京都","city":"調布市","address":"東京都調布市布田1丁目25-2","lat":35.65270176,"lon":139.54599168},{"name":"国領町三丁目","province":"東京都","city":"調布市","address":"東京都調布市国領町3丁目8","lat":35.64928321,"lon":139.5611518},{"name":"飛田給二丁目","province":"東京都","city":"調布市","address":"東京都調布市飛田給2丁目19","lat":35.65929519,"lon":139.52253264},{"name":"飛田給二丁目東","province":"東京都","city":"調布市","address":"東京都調布市飛田給2丁目24-7","lat":35.65814817,"lon":139.52361597},{"name":"飛田給駅南口","province":"東京都","city":"調布市","address":"東京都調布市飛田給2丁目13-12","lat":35.65893411,"lon":139.52149665},{"name":"調布総合体育館南","province":"東京都","city":"調布市","address":"東京都調布市深大寺北町2丁目2","lat":35.6716801,"lon":139.55205709},{"name":"調布郵便局前","province":"東京都","city":"調布市","address":"東京都調布市国領町2丁目14","lat":35.65227714,"lon":139.55834905},{"name":"調布ヶ丘一丁目","province":"東京都","city":"調布市","address":"東京都調布市調布ケ丘1丁目34-1","lat":35.65472366,"lon":139.54680532},{"name":"国領小学校西","province":"東京都","city":"調布市","address":"東京都調布市国領町8丁目1-55","lat":35.64866387,"lon":139.56351548},{"name":"調布駅入口","province":"東京都","city":"調布市","address":"東京都調布市調布ケ丘1丁目5-1","lat":35.65564303,"lon":139.54430838},{"name":"調布市文化プラザ前","province":"東京都","city":"調布市","address":"東京都調布市小島町2丁目34","lat":35.6508828,"lon":139.54196187},{"name":"調布警察署前","province":"東京都","city":"調布市","address":"東京都調布市国領町2丁目25-1","lat":35.65292432,"lon":139.56223197},{"name":"調布駅南","province":"東京都","city":"調布市","address":"東京都調布市布田4丁目17-10","lat":35.65041342,"lon":139.54403667},{"name":"調布駅南第二","province":"東京都","city":"調布市","address":"東京都調布市小島町2丁目52-1","lat":35.64983578,"lon":139.54309243},{"name":"東京スタジアム前","province":"東京都","city":"調布市","address":"東京都調布市飛田給1丁目34-17","lat":35.66310853,"lon":139.52479608},{"name":"飛田給駅入口","province":"東京都","city":"調布市","address":"東京都調布市飛田給1丁目26-1","lat":35.66123655,"lon":139.52347964},{"name":"飛田給小学校前","province":"東京都","city":"調布市","address":"東京都調布市上石原3丁目3","lat":35.65435992,"lon":139.52418564},{"name":"国領駅前","province":"東京都","city":"調布市","address":"東京都調布市国領町4丁目8-1","lat":35.64947482,"lon":139.5574827},{"name":"布田駅前第一","province":"東京都","city":"調布市","address":"東京都調布市国領町5丁目70-1","lat":35.64951641,"lon":139.55109439},{"name":"布田駅前第二","province":"東京都","city":"調布市","address":"東京都調布市布田2丁目51-6","lat":35.65026625,"lon":139.55079711},{"name":"上石原浄水所","province":"東京都","city":"調布市","address":"東京都調布市上石原1丁目34-7","lat":35.66130335,"lon":139.53174555},{"name":"深大寺浄水所","province":"東京都","city":"調布市","address":"東京都調布市深大寺南町5丁目56-1","lat":35.66896104,"lon":139.55556797},{"name":"調布市地域包括支援センターはなみずき","province":"東京都","city":"調布市","address":"調布市深大寺北町4-17-7","lat":35.679989,"lon":139.551575},{"name":"調布市地域包括支援センターちょうふの里","province":"東京都","city":"調布市","address":"調布市西町290-5","lat":35.666344,"lon":139.52269},{"name":"調布市地域包括支援センターせいじゅ","province":"東京都","city":"調布市","address":"調布市上石原3-54-2","lat":35.65004,"lon":139.52478},{"name":"調布市地域包括支援センターちょうふ花園","province":"東京都","city":"調布市","address":"調布市下石原3-44-1","lat":35.651432,"lon":139.533188},{"name":"調布市地域包括支援センター調布八雲苑","province":"東京都","city":"調布市","address":"調布市八雲台1-22-11階","lat":35.654781,"lon":139.553162},{"name":"調布市地域包括支援センター至誠しばさき","province":"東京都","city":"調布市","address":"調布市菊野台1-52-4","lat":35.655369,"lon":139.565491},{"name":"調布市地域包括支援センターときわぎ国領","province":"東京都","city":"調布市","address":"調布市国領町7-32-2デュスモン国領101","lat":35.644749,"lon":139.560547},{"name":"調布市地域包括支援センターゆうあい","province":"東京都","city":"調布市","address":"調布市国領町3-8-1","lat":35.650097,"lon":139.560684},{"name":"調布市地域包括支援センターつつじヶ丘","province":"東京都","city":"調布市","address":"調布市東つつじヶ丘1-5-2","lat":35.659683,"lon":139.576248},{"name":"調布市地域包括支援センター仙川","province":"東京都","city":"調布市","address":"調布市若葉町2-22-21階","lat":35.655972,"lon":139.589172},{"name":"調布市消費生活センター","province":"東京都","city":"調布市","address":"調布市小島町2-35-1","lat":35.650593,"lon":139.540894},{"name":"御塔坂橋北","province":"東京都","city":"調布市","address":"東京都調布市深大寺元町3丁目1","lat":35.6658612,"lon":139.54374139},{"name":"旧甲州街道入口","province":"東京都","city":"調布市","address":"東京都調布市国領町2丁目18-4","lat":35.65227161,"lon":139.5597767},{"name":"国領駅入口","province":"東京都","city":"調布市","address":"東京都調布市国領町1丁目45-11","lat":35.65064961,"lon":139.55676599},{"name":"仙川駅入口","province":"東京都","city":"調布市","address":"東京都調布市仙川町2丁目19-5","lat":35.66328458,"lon":139.58346575},{"name":"上石原","province":"東京都","city":"調布市","address":"東京都調布市富士見町1丁目1","lat":35.66012856,"lon":139.53295109},{"name":"味の素スタジアム西","province":"東京都","city":"調布市","address":"東京都調布市西町290","lat":35.66924671,"lon":139.53010368},{"name":"調布駅西","province":"東京都","city":"調布市","address":"東京都調布市小島町1丁目36-16","lat":35.65269349,"lon":139.54303928},{"name":"布多天神前","province":"東京都","city":"調布市","address":"東京都調布市調布ケ丘1丁目6","lat":35.65539583,"lon":139.54488332},{"name":"不動前","province":"東京都","city":"調布市","address":"東京都調布市国領町1丁目2-8","lat":35.65169097,"lon":139.55134967},{"name":"国領町八丁目","province":"東京都","city":"調布市","address":"東京都調布市国領町4丁目51-1","lat":35.64605871,"lon":139.56218803},{"name":"深大寺北町一丁目","province":"東京都","city":"調布市","address":"東京都調布市深大寺北町7丁目27","lat":35.67532402,"lon":139.54521317},{"name":"つつじヶ丘交番前","province":"東京都","city":"調布市","address":"東京都調布市西つつじケ丘3丁目31-2","lat":35.65925155,"lon":139.57431952},{"name":"多摩川団地交番前","province":"東京都","city":"調布市","address":"東京都調布市染地3丁目1-498","lat":35.63967659,"lon":139.55987229},{"name":"調布駅南入口","province":"東京都","city":"調布市","address":"東京都調布市布田5丁目1","lat":35.64839998,"lon":139.54339535},{"name":"調布駅北","province":"東京都","city":"調布市","address":"東京都調布市布田1丁目37-16","lat":35.65298507,"lon":139.54419187},{"name":"調布中学校前","province":"東京都","city":"調布市","address":"東京都調布市富士見町4丁目17-1","lat":35.66535009,"lon":139.53516172},{"name":"仙川橋","province":"東京都","city":"調布市","address":"東京都調布市緑ケ丘2丁目56","lat":35.66533724,"lon":139.5879153},{"name":"国領駅南","province":"東京都","city":"調布市","address":"東京都調布市国領町3丁目1-38","lat":35.64966092,"lon":139.55874091},{"name":"調布第三小学校入口","province":"東京都","city":"調布市","address":"東京都調布市上石原2丁目41","lat":35.65508765,"lon":139.52915735},{"name":"飛田給小入口","province":"東京都","city":"調布市","address":"東京都調布市飛田給2丁目42-7","lat":35.65689285,"lon":139.52534091},{"name":"飛田給小入口第二","province":"東京都","city":"調布市","address":"東京都調布市飛田給2丁目42-7","lat":35.65689285,"lon":139.52534091},{"name":"野川馬橋西","province":"東京都","city":"調布市","address":"東京都調布市国領町2丁目26","lat":35.65327149,"lon":139.56242638},{"name":"調布市役所前","province":"東京都","city":"調布市","address":"東京都調布市小島町2丁目35-1","lat":35.65059399,"lon":139.5406704},{"name":"布田一丁目","province":"東京都","city":"調布市","address":"東京都調布市布田1丁目25-2","lat":35.65270176,"lon":139.54599168},{"name":"国領町三丁目","province":"東京都","city":"調布市","address":"東京都調布市国領町3丁目8","lat":35.64928321,"lon":139.5611518},{"name":"飛田給二丁目","province":"東京都","city":"調布市","address":"東京都調布市飛田給2丁目19","lat":35.65929519,"lon":139.52253264},{"name":"飛田給二丁目東","province":"東京都","city":"調布市","address":"東京都調布市飛田給2丁目24-7","lat":35.65814817,"lon":139.52361597},{"name":"飛田給駅南口","province":"東京都","city":"調布市","address":"東京都調布市飛田給2丁目13-12","lat":35.65893411,"lon":139.52149665},{"name":"調布総合体育館南","province":"東京都","city":"調布市","address":"東京都調布市深大寺北町2丁目2","lat":35.6716801,"lon":139.55205709},{"name":"調布郵便局前","province":"東京都","city":"調布市","address":"東京都調布市国領町2丁目14","lat":35.65227714,"lon":139.55834905},{"name":"調布ヶ丘一丁目","province":"東京都","city":"調布市","address":"東京都調布市調布ケ丘1丁目34-1","lat":35.65472366,"lon":139.54680532},{"name":"国領小学校西","province":"東京都","city":"調布市","address":"東京都調布市国領町8丁目1-55","lat":35.64866387,"lon":139.56351548},{"name":"調布駅入口","province":"東京都","city":"調布市","address":"東京都調布市調布ケ丘1丁目5-1","lat":35.65564303,"lon":139.54430838},{"name":"調布市文化プラザ前","province":"東京都","city":"調布市","address":"東京都調布市小島町2丁目34","lat":35.6508828,"lon":139.54196187},{"name":"調布警察署前","province":"東京都","city":"調布市","address":"東京都調布市国領町2丁目25-1","lat":35.65292432,"lon":139.56223197},{"name":"調布駅南","province":"東京都","city":"調布市","address":"東京都調布市布田4丁目17-10","lat":35.65041342,"lon":139.54403667},{"name":"調布駅南第二","province":"東京都","city":"調布市","address":"東京都調布市小島町2丁目52-1","lat":35.64983578,"lon":139.54309243},{"name":"東京スタジアム前","province":"東京都","city":"調布市","address":"東京都調布市飛田給1丁目34-17","lat":35.66310853,"lon":139.52479608},{"name":"飛田給駅入口","province":"東京都","city":"調布市","address":"東京都調布市飛田給1丁目26-1","lat":35.66123655,"lon":139.52347964},{"name":"飛田給小学校前","province":"東京都","city":"調布市","address":"東京都調布市上石原3丁目3","lat":35.65435992,"lon":139.52418564},{"name":"国領駅前","province":"東京都","city":"調布市","address":"東京都調布市国領町4丁目8-1","lat":35.64947482,"lon":139.5574827},{"name":"布田駅前第一","province":"東京都","city":"調布市","address":"東京都調布市国領町5丁目70-1","lat":35.64951641,"lon":139.55109439},{"name":"布田駅前第二","province":"東京都","city":"調布市","address":"東京都調布市布田2丁目51-6","lat":35.65026625,"lon":139.55079711},{"name":"上石原浄水所","province":"東京都","city":"調布市","address":"東京都調布市上石原1丁目34-7","lat":35.66130335,"lon":139.53174555},{"name":"深大寺浄水所","province":"東京都","city":"調布市","address":"東京都調布市深大寺南町5丁目56-1","lat":35.66896104,"lon":139.55556797},{"name":"調布市地域包括支援センターはなみずき","province":"東京都","city":"調布市","address":"調布市深大寺北町4-17-7","lat":35.679989,"lon":139.551575},{"name":"調布市地域包括支援センターちょうふの里","province":"東京都","city":"調布市","address":"調布市西町290-5","lat":35.666344,"lon":139.52269},{"name":"調布市地域包括支援センターせいじゅ","province":"東京都","city":"調布市","address":"調布市上石原3-54-2","lat":35.65004,"lon":139.52478},{"name":"調布市地域包括支援センターちょうふ花園","province":"東京都","city":"調布市","address":"調布市下石原3-44-1","lat":35.651432,"lon":139.533188},{"name":"調布市地域包括支援センター調布八雲苑","province":"東京都","city":"調布市","address":"調布市八雲台1-22-11階","lat":35.654781,"lon":139.553162},{"name":"調布市地域包括支援センター至誠しばさき","province":"東京都","city":"調布市","address":"調布市菊野台1-52-4","lat":35.655369,"lon":139.565491},{"name":"調布市地域包括支援センターときわぎ国領","province":"東京都","city":"調布市","address":"調布市国領町7-32-2デュスモン国領101","lat":35.644749,"lon":139.560547},{"name":"調布市地域包括支援センターゆうあい","province":"東京都","city":"調布市","address":"調布市国領町3-8-1","lat":35.650097,"lon":139.560684},{"name":"調布市地域包括支援センターつつじヶ丘","province":"東京都","city":"調布市","address":"調布市東つつじヶ丘1-5-2","lat":35.659683,"lon":139.576248},{"name":"調布市地域包括支援センター仙川","province":"東京都","city":"調布市","address":"調布市若葉町2-22-21階","lat":35.655972,"lon":139.589172},{"name":"調布市消費生活センター","province":"東京都","city":"調布市","address":"調布市小島町2-35-1","lat":35.650593,"lon":139.540894},{"name":"御塔坂橋北","province":"東京都","city":"調布市","address":"東京都調布市深大寺元町3丁目1","lat":35.6658612,"lon":139.54374139},{"name":"旧甲州街道入口","province":"東京都","city":"調布市","address":"東京都調布市国領町2丁目18-4","lat":35.65227161,"lon":139.5597767},{"name":"国領駅入口","province":"東京都","city":"調布市","address":"東京都調布市国領町1丁目45-11","lat":35.65064961,"lon":139.55676599},{"name":"仙川駅入口","province":"東京都","city":"調布市","address":"東京都調布市仙川町2丁目19-5","lat":35.66328458,"lon":139.58346575},{"name":"上石原","province":"東京都","city":"調布市","address":"東京都調布市富士見町1丁目1","lat":35.66012856,"lon":139.53295109},{"name":"味の素スタジアム西","province":"東京都","city":"調布市","address":"東京都調布市西町290","lat":35.66924671,"lon":139.53010368},{"name":"調布駅西","province":"東京都","city":"調布市","address":"東京都調布市小島町1丁目36-16","lat":35.65269349,"lon":139.54303928},{"name":"布多天神前","province":"東京都","city":"調布市","address":"東京都調布市調布ケ丘1丁目6","lat":35.65539583,"lon":139.54488332},{"name":"不動前","province":"東京都","city":"調布市","address":"東京都調布市国領町1丁目2-8","lat":35.65169097,"lon":139.55134967},{"name":"国領町八丁目","province":"東京都","city":"調布市","address":"東京都調布市国領町4丁目51-1","lat":35.64605871,"lon":139.56218803},{"name":"深大寺北町一丁目","province":"東京都","city":"調布市","address":"東京都調布市深大寺北町7丁目27","lat":35.67532402,"lon":139.54521317},{"name":"つつじヶ丘交番前","province":"東京都","city":"調布市","address":"東京都調布市西つつじケ丘3丁目31-2","lat":35.65925155,"lon":139.57431952},{"name":"多摩川団地交番前","province":"東京都","city":"調布市","address":"東京都調布市染地3丁目1-498","lat":35.63967659,"lon":139.55987229},{"name":"調布駅南入口","province":"東京都","city":"調布市","address":"東京都調布市布田5丁目1","lat":35.64839998,"lon":139.54339535},{"name":"調布駅北","province":"東京都","city":"調布市","address":"東京都調布市布田1丁目37-16","lat":35.65298507,"lon":139.54419187},{"name":"調布中学校前","province":"東京都","city":"調布市","address":"東京都調布市富士見町4丁目17-1","lat":35.66535009,"lon":139.53516172},{"name":"仙川橋","province":"東京都","city":"調布市","address":"東京都調布市緑ケ丘2丁目56","lat":35.66533724,"lon":139.5879153},{"name":"国領駅南","province":"東京都","city":"調布市","address":"東京都調布市国領町3丁目1-38","lat":35.64966092,"lon":139.55874091},{"name":"調布第三小学校入口","province":"東京都","city":"調布市","address":"東京都調布市上石原2丁目41","lat":35.65508765,"lon":139.52915735},{"name":"飛田給小入口","province":"東京都","city":"調布市","address":"東京都調布市飛田給2丁目42-7","lat":35.65689285,"lon":139.52534091},{"name":"飛田給小入口第二","province":"東京都","city":"調布市","address":"東京都調布市飛田給2丁目42-7","lat":35.65689285,"lon":139.52534091},{"name":"野川馬橋西","province":"東京都","city":"調布市","address":"東京都調布市国領町2丁目26","lat":35.65327149,"lon":139.56242638},{"name":"調布市役所前","province":"東京都","city":"調布市","address":"東京都調布市小島町2丁目35-1","lat":35.65059399,"lon":139.5406704},{"name":"布田一丁目","province":"東京都","city":"調布市","address":"東京都調布市布田1丁目25-2","lat":35.65270176,"lon":139.54599168},{"name":"国領町三丁目","province":"東京都","city":"調布市","address":"東京都調布市国領町3丁目8","lat":35.64928321,"lon":139.5611518},{"name":"飛田給二丁目","province":"東京都","city":"調布市","address":"東京都調布市飛田給2丁目19","lat":35.65929519,"lon":139.52253264},{"name":"飛田給二丁目東","province":"東京都","city":"調布市","address":"東京都調布市飛田給2丁目24-7","lat":35.65814817,"lon":139.52361597},{"name":"飛田給駅南口","province":"東京都","city":"調布市","address":"東京都調布市飛田給2丁目13-12","lat":35.65893411,"lon":139.52149665},{"name":"調布総合体育館南","province":"東京都","city":"調布市","address":"東京都調布市深大寺北町2丁目2","lat":35.6716801,"lon":139.55205709},{"name":"調布郵便局前","province":"東京都","city":"調布市","address":"東京都調布市国領町2丁目14","lat":35.65227714,"lon":139.55834905},{"name":"調布ヶ丘一丁目","province":"東京都","city":"調布市","address":"東京都調布市調布ケ丘1丁目34-1","lat":35.65472366,"lon":139.54680532},{"name":"国領小学校西","province":"東京都","city":"調布市","address":"東京都調布市国領町8丁目1-55","lat":35.64866387,"lon":139.56351548},{"name":"調布駅入口","province":"東京都","city":"調布市","address":"東京都調布市調布ケ丘1丁目5-1","lat":35.65564303,"lon":139.54430838},{"name":"調布市文化プラザ前","province":"東京都","city":"調布市","address":"東京都調布市小島町2丁目34","lat":35.6508828,"lon":139.54196187},{"name":"調布警察署前","province":"東京都","city":"調布市","address":"東京都調布市国領町2丁目25-1","lat":35.65292432,"lon":139.56223197},{"name":"調布駅南","province":"東京都","city":"調布市","address":"東京都調布市布田4丁目17-10","lat":35.65041342,"lon":139.54403667},{"name":"調布駅南第二","province":"東京都","city":"調布市","address":"東京都調布市小島町2丁目52-1","lat":35.64983578,"lon":139.54309243},{"name":"東京スタジアム前","province":"東京都","city":"調布市","address":"東京都調布市飛田給1丁目34-17","lat":35.66310853,"lon":139.52479608},{"name":"飛田給駅入口","province":"東京都","city":"調布市","address":"東京都調布市飛田給1丁目26-1","lat":35.66123655,"lon":139.52347964},{"name":"飛田給小学校前","province":"東京都","city":"調布市","address":"東京都調布市上石原3丁目3","lat":35.65435992,"lon":139.52418564},{"name":"国領駅前","province":"東京都","city":"調布市","address":"東京都調布市国領町4丁目8-1","lat":35.64947482,"lon":139.5574827},{"name":"布田駅前第一","province":"東京都","city":"調布市","address":"東京都調布市国領町5丁目70-1","lat":35.64951641,"lon":139.55109439},{"name":"布田駅前第二","province":"東京都","city":"調布市","address":"東京都調布市布田2丁目51-6","lat":35.65026625,"lon":139.55079711},{"name":"上石原浄水所","province":"東京都","city":"調布市","address":"東京都調布市上石原1丁目34-7","lat":35.66130335,"lon":139.53174555},{"name":"深大寺浄水所","province":"東京都","city":"調布市","address":"東京都調布市深大寺南町5丁目56-1","lat":35.66896104,"lon":139.55556797},{"name":"調布市地域包括支援センターはなみずき","province":"東京都","city":"調布市","address":"調布市深大寺北町4-17-7","lat":35.679989,"lon":139.551575},{"name":"調布市地域包括支援センターちょうふの里","province":"東京都","city":"調布市","address":"調布市西町290-5","lat":35.666344,"lon":139.52269},{"name":"調布市地域包括支援センターせいじゅ","province":"東京都","city":"調布市","address":"調布市上石原3-54-2","lat":35.65004,"lon":139.52478},{"name":"調布市地域包括支援センターちょうふ花園","province":"東京都","city":"調布市","address":"調布市下石原3-44-1","lat":35.651432,"lon":139.533188},{"name":"調布市地域包括支援センター調布八雲苑","province":"東京都","city":"調布市","address":"調布市八雲台1-22-11階","lat":35.654781,"lon":139.553162},{"name":"調布市地域包括支援センター至誠しばさき","province":"東京都","city":"調布市","address":"調布市菊野台1-52-4","lat":35.655369,"lon":139.565491},{"name":"調布市地域包括支援センターときわぎ国領","province":"東京都","city":"調布市","address":"調布市国領町7-32-2デュスモン国領101","lat":35.644749,"lon":139.560547},{"name":"調布市地域包括支援センターゆうあい","province":"東京都","city":"調布市","address":"調布市国領町3-8-1","lat":35.650097,"lon":139.560684},{"name":"調布市地域包括支援センターつつじヶ丘","province":"東京都","city":"調布市","address":"調布市東つつじヶ丘1-5-2","lat":35.659683,"lon":139.576248},{"name":"調布市地域包括支援センター仙川","province":"東京都","city":"調布市","address":"調布市若葉町2-22-21階","lat":35.655972,"lon":139.589172},{"name":"調布市消費生活センター","province":"東京都","city":"調布市","address":"調布市小島町2-35-1","lat":35.650593,"lon":139.540894},{"name":"御塔坂橋北","province":"東京都","city":"調布市","address":"東京都調布市深大寺元町3丁目1","lat":35.6658612,"lon":139.54374139},{"name":"旧甲州街道入口","province":"東京都","city":"調布市","address":"東京都調布市国領町2丁目18-4","lat":35.65227161,"lon":139.5597767},{"name":"国領駅入口","province":"東京都","city":"調布市","address":"東京都調布市国領町1丁目45-11","lat":35.65064961,"lon":139.55676599},{"name":"仙川駅入口","province":"東京都","city":"調布市","address":"東京都調布市仙川町2丁目19-5","lat":35.66328458,"lon":139.58346575},{"name":"上石原","province":"東京都","city":"調布市","address":"東京都調布市富士見町1丁目1","lat":35.66012856,"lon":139.53295109},{"name":"味の素スタジアム西","province":"東京都","city":"調布市","address":"東京都調布市西町290","lat":35.66924671,"lon":139.53010368},{"name":"調布駅西","province":"東京都","city":"調布市","address":"東京都調布市小島町1丁目36-16","lat":35.65269349,"lon":139.54303928},{"name":"布多天神前","province":"東京都","city":"調布市","address":"東京都調布市調布ケ丘1丁目6","lat":35.65539583,"lon":139.54488332},{"name":"不動前","province":"東京都","city":"調布市","address":"東京都調布市国領町1丁目2-8","lat":35.65169097,"lon":139.55134967},{"name":"国領町八丁目","province":"東京都","city":"調布市","address":"東京都調布市国領町4丁目51-1","lat":35.64605871,"lon":139.56218803},{"name":"深大寺北町一丁目","province":"東京都","city":"調布市","address":"東京都調布市深大寺北町7丁目27","lat":35.67532402,"lon":139.54521317},{"name":"つつじヶ丘交番前","province":"東京都","city":"調布市","address":"東京都調布市西つつじケ丘3丁目31-2","lat":35.65925155,"lon":139.57431952},{"name":"多摩川団地交番前","province":"東京都","city":"調布市","address":"東京都調布市染地3丁目1-498","lat":35.63967659,"lon":139.55987229},{"name":"調布駅南入口","province":"東京都","city":"調布市","address":"東京都調布市布田5丁目1","lat":35.64839998,"lon":139.54339535},{"name":"調布駅北","province":"東京都","city":"調布市","address":"東京都調布市布田1丁目37-16","lat":35.65298507,"lon":139.54419187},{"name":"調布中学校前","province":"東京都","city":"調布市","address":"東京都調布市富士見町4丁目17-1","lat":35.66535009,"lon":139.53516172},{"name":"仙川橋","province":"東京都","city":"調布市","address":"東京都調布市緑ケ丘2丁目56","lat":35.66533724,"lon":139.5879153},{"name":"国領駅南","province":"東京都","city":"調布市","address":"東京都調布市国領町3丁目1-38","lat":35.64966092,"lon":139.55874091},{"name":"調布第三小学校入口","province":"東京都","city":"調布市","address":"東京都調布市上石原2丁目41","lat":35.65508765,"lon":139.52915735},{"name":"飛田給小入口","province":"東京都","city":"調布市","address":"東京都調布市飛田給2丁目42-7","lat":35.65689285,"lon":139.52534091},{"name":"飛田給小入口第二","province":"東京都","city":"調布市","address":"東京都調布市飛田給2丁目42-7","lat":35.65689285,"lon":139.52534091},{"name":"野川馬橋西","province":"東京都","city":"調布市","address":"東京都調布市国領町2丁目26","lat":35.65327149,"lon":139.56242638},{"name":"調布市役所前","province":"東京都","city":"調布市","address":"東京都調布市小島町2丁目35-1","lat":35.65059399,"lon":139.5406704},{"name":"布田一丁目","province":"東京都","city":"調布市","address":"東京都調布市布田1丁目25-2","lat":35.65270176,"lon":139.54599168},{"name":"国領町三丁目","province":"東京都","city":"調布市","address":"東京都調布市国領町3丁目8","lat":35.64928321,"lon":139.5611518},{"name":"飛田給二丁目","province":"東京都","city":"調布市","address":"東京都調布市飛田給2丁目19","lat":35.65929519,"lon":139.52253264},{"name":"飛田給二丁目東","province":"東京都","city":"調布市","address":"東京都調布市飛田給2丁目24-7","lat":35.65814817,"lon":139.52361597},{"name":"飛田給駅南口","province":"東京都","city":"調布市","address":"東京都調布市飛田給2丁目13-12","lat":35.65893411,"lon":139.52149665},{"name":"調布総合体育館南","province":"東京都","city":"調布市","address":"東京都調布市深大寺北町2丁目2","lat":35.6716801,"lon":139.55205709},{"name":"調布郵便局前","province":"東京都","city":"調布市","address":"東京都調布市国領町2丁目14","lat":35.65227714,"lon":139.55834905},{"name":"調布ヶ丘一丁目","province":"東京都","city":"調布市","address":"東京都調布市調布ケ丘1丁目34-1","lat":35.65472366,"lon":139.54680532},{"name":"国領小学校西","province":"東京都","city":"調布市","address":"東京都調布市国領町8丁目1-55","lat":35.64866387,"lon":139.56351548},{"name":"調布駅入口","province":"東京都","city":"調布市","address":"東京都調布市調布ケ丘1丁目5-1","lat":35.65564303,"lon":139.54430838},{"name":"調布市文化プラザ前","province":"東京都","city":"調布市","address":"東京都調布市小島町2丁目34","lat":35.6508828,"lon":139.54196187},{"name":"調布警察署前","province":"東京都","city":"調布市","address":"東京都調布市国領町2丁目25-1","lat":35.65292432,"lon":139.56223197},{"name":"調布駅南","province":"東京都","city":"調布市","address":"東京都調布市布田4丁目17-10","lat":35.65041342,"lon":139.54403667},{"name":"調布駅南第二","province":"東京都","city":"調布市","address":"東京都調布市小島町2丁目52-1","lat":35.64983578,"lon":139.54309243},{"name":"東京スタジアム前","province":"東京都","city":"調布市","address":"東京都調布市飛田給1丁目34-17","lat":35.66310853,"lon":139.52479608},{"name":"飛田給駅入口","province":"東京都","city":"調布市","address":"東京都調布市飛田給1丁目26-1","lat":35.66123655,"lon":139.52347964},{"name":"飛田給小学校前","province":"東京都","city":"調布市","address":"東京都調布市上石原3丁目3","lat":35.65435992,"lon":139.52418564},{"name":"国領駅前","province":"東京都","city":"調布市","address":"東京都調布市国領町4丁目8-1","lat":35.64947482,"lon":139.5574827},{"name":"布田駅前第一","province":"東京都","city":"調布市","address":"東京都調布市国領町5丁目70-1","lat":35.64951641,"lon":139.55109439},{"name":"布田駅前第二","province":"東京都","city":"調布市","address":"東京都調布市布田2丁目51-6","lat":35.65026625,"lon":139.55079711},{"name":"上石原浄水所","province":"東京都","city":"調布市","address":"東京都調布市上石原1丁目34-7","lat":35.66130335,"lon":139.53174555},{"name":"深大寺浄水所","province":"東京都","city":"調布市","address":"東京都調布市深大寺南町5丁目56-1","lat":35.66896104,"lon":139.55556797},{"name":"調布市地域包括支援センターはなみずき","province":"東京都","city":"調布市","address":"調布市深大寺北町4-17-7","lat":35.679989,"lon":139.551575},{"name":"調布市地域包括支援センターちょうふの里","province":"東京都","city":"調布市","address":"調布市西町290-5","lat":35.666344,"lon":139.52269},{"name":"調布市地域包括支援センターせいじゅ","province":"東京都","city":"調布市","address":"調布市上石原3-54-2","lat":35.65004,"lon":139.52478},{"name":"調布市地域包括支援センターちょうふ花園","province":"東京都","city":"調布市","address":"調布市下石原3-44-1","lat":35.651432,"lon":139.533188},{"name":"調布市地域包括支援センター調布八雲苑","province":"東京都","city":"調布市","address":"調布市八雲台1-22-11階","lat":35.654781,"lon":139.553162},{"name":"調布市地域包括支援センター至誠しばさき","province":"東京都","city":"調布市","address":"調布市菊野台1-52-4","lat":35.655369,"lon":139.565491},{"name":"調布市地域包括支援センターときわぎ国領","province":"東京都","city":"調布市","address":"調布市国領町7-32-2デュスモン国領101","lat":35.644749,"lon":139.560547},{"name":"調布市地域包括支援センターゆうあい","province":"東京都","city":"調布市","address":"調布市国領町3-8-1","lat":35.650097,"lon":139.560684},{"name":"調布市地域包括支援センターつつじヶ丘","province":"東京都","city":"調布市","address":"調布市東つつじヶ丘1-5-2","lat":35.659683,"lon":139.576248},{"name":"調布市地域包括支援センター仙川","province":"東京都","city":"調布市","address":"調布市若葉町2-22-21階","lat":35.655972,"lon":139.589172},{"name":"調布市消費生活センター","province":"東京都","city":"調布市","address":"調布市小島町2-35-1","lat":35.650593,"lon":139.540894},{"name":"御塔坂橋北","province":"東京都","city":"調布市","address":"東京都調布市深大寺元町3丁目1","lat":35.6658612,"lon":139.54374139},{"name":"旧甲州街道入口","province":"東京都","city":"調布市","address":"東京都調布市国領町2丁目18-4","lat":35.65227161,"lon":139.5597767},{"name":"国領駅入口","province":"東京都","city":"調布市","address":"東京都調布市国領町1丁目45-11","lat":35.65064961,"lon":139.55676599},{"name":"仙川駅入口","province":"東京都","city":"調布市","address":"東京都調布市仙川町2丁目19-5","lat":35.66328458,"lon":139.58346575},{"name":"上石原","province":"東京都","city":"調布市","address":"東京都調布市富士見町1丁目1","lat":35.66012856,"lon":139.53295109},{"name":"味の素スタジアム西","province":"東京都","city":"調布市","address":"東京都調布市西町290","lat":35.66924671,"lon":139.53010368},{"name":"調布駅西","province":"東京都","city":"調布市","address":"東京都調布市小島町1丁目36-16","lat":35.65269349,"lon":139.54303928},{"name":"布多天神前","province":"東京都","city":"調布市","address":"東京都調布市調布ケ丘1丁目6","lat":35.65539583,"lon":139.54488332},{"name":"不動前","province":"東京都","city":"調布市","address":"東京都調布市国領町1丁目2-8","lat":35.65169097,"lon":139.55134967},{"name":"国領町八丁目","province":"東京都","city":"調布市","address":"東京都調布市国領町4丁目51-1","lat":35.64605871,"lon":139.56218803},{"name":"深大寺北町一丁目","province":"東京都","city":"調布市","address":"東京都調布市深大寺北町7丁目27","lat":35.67532402,"lon":139.54521317},{"name":"つつじヶ丘交番前","province":"東京都","city":"調布市","address":"東京都調布市西つつじケ丘3丁目31-2","lat":35.65925155,"lon":139.57431952},{"name":"多摩川団地交番前","province":"東京都","city":"調布市","address":"東京都調布市染地3丁目1-498","lat":35.63967659,"lon":139.55987229},{"name":"調布駅南入口","province":"東京都","city":"調布市","address":"東京都調布市布田5丁目1","lat":35.64839998,"lon":139.54339535},{"name":"調布駅北","province":"東京都","city":"調布市","address":"東京都調布市布田1丁目37-16","lat":35.65298507,"lon":139.54419187},{"name":"調布中学校前","province":"東京都","city":"調布市","address":"東京都調布市富士見町4丁目17-1","lat":35.66535009,"lon":139.53516172},{"name":"仙川橋","province":"東京都","city":"調布市","address":"東京都調布市緑ケ丘2丁目56","lat":35.66533724,"lon":139.5879153},{"name":"国領駅南","province":"東京都","city":"調布市","address":"東京都調布市国領町3丁目1-38","lat":35.64966092,"lon":139.55874091},{"name":"調布第三小学校入口","province":"東京都","city":"調布市","address":"東京都調布市上石原2丁目41","lat":35.65508765,"lon":139.52915735},{"name":"飛田給小入口","province":"東京都","city":"調布市","address":"東京都調布市飛田給2丁目42-7","lat":35.65689285,"lon":139.52534091},{"name":"飛田給小入口第二","province":"東京都","city":"調布市","address":"東京都調布市飛田給2丁目42-7","lat":35.65689285,"lon":139.52534091},{"name":"野川馬橋西","province":"東京都","city":"調布市","address":"東京都調布市国領町2丁目26","lat":35.65327149,"lon":139.56242638},{"name":"調布市役所前","province":"東京都","city":"調布市","address":"東京都調布市小島町2丁目35-1","lat":35.65059399,"lon":139.5406704},{"name":"布田一丁目","province":"東京都","city":"調布市","address":"東京都調布市布田1丁目25-2","lat":35.65270176,"lon":139.54599168},{"name":"国領町三丁目","province":"東京都","city":"調布市","address":"東京都調布市国領町3丁目8","lat":35.64928321,"lon":139.5611518},{"name":"飛田給二丁目","province":"東京都","city":"調布市","address":"東京都調布市飛田給2丁目19","lat":35.65929519,"lon":139.52253264},{"name":"飛田給二丁目東","province":"東京都","city":"調布市","address":"東京都調布市飛田給2丁目24-7","lat":35.65814817,"lon":139.52361597},{"name":"飛田給駅南口","province":"東京都","city":"調布市","address":"東京都調布市飛田給2丁目13-12","lat":35.65893411,"lon":139.52149665},{"name":"調布総合体育館南","province":"東京都","city":"調布市","address":"東京都調布市深大寺北町2丁目2","lat":35.6716801,"lon":139.55205709},{"name":"調布郵便局前","province":"東京都","city":"調布市","address":"東京都調布市国領町2丁目14","lat":35.65227714,"lon":139.55834905},{"name":"調布ヶ丘一丁目","province":"東京都","city":"調布市","address":"東京都調布市調布ケ丘1丁目34-1","lat":35.65472366,"lon":139.54680532},{"name":"国領小学校西","province":"東京都","city":"調布市","address":"東京都調布市国領町8丁目1-55","lat":35.64866387,"lon":139.56351548},{"name":"調布駅入口","province":"東京都","city":"調布市","address":"東京都調布市調布ケ丘1丁目5-1","lat":35.65564303,"lon":139.54430838},{"name":"調布市文化プラザ前","province":"東京都","city":"調布市","address":"東京都調布市小島町2丁目34","lat":35.6508828,"lon":139.54196187},{"name":"調布警察署前","province":"東京都","city":"調布市","address":"東京都調布市国領町2丁目25-1","lat":35.65292432,"lon":139.56223197},{"name":"調布駅南","province":"東京都","city":"調布市","address":"東京都調布市布田4丁目17-10","lat":35.65041342,"lon":139.54403667},{"name":"調布駅南第二","province":"東京都","city":"調布市","address":"東京都調布市小島町2丁目52-1","lat":35.64983578,"lon":139.54309243},{"name":"東京スタジアム前","province":"東京都","city":"調布市","address":"東京都調布市飛田給1丁目34-17","lat":35.66310853,"lon":139.52479608},{"name":"飛田給駅入口","province":"東京都","city":"調布市","address":"東京都調布市飛田給1丁目26-1","lat":35.66123655,"lon":139.52347964},{"name":"飛田給小学校前","province":"東京都","city":"調布市","address":"東京都調布市上石原3丁目3","lat":35.65435992,"lon":139.52418564},{"name":"国領駅前","province":"東京都","city":"調布市","address":"東京都調布市国領町4丁目8-1","lat":35.64947482,"lon":139.5574827},{"name":"布田駅前第一","province":"東京都","city":"調布市","address":"東京都調布市国領町5丁目70-1","lat":35.64951641,"lon":139.55109439},{"name":"布田駅前第二","province":"東京都","city":"調布市","address":"東京都調布市布田2丁目51-6","lat":35.65026625,"lon":139.55079711},{"name":"上石原浄水所","province":"東京都","city":"調布市","address":"東京都調布市上石原1丁目34-7","lat":35.66130335,"lon":139.53174555},{"name":"深大寺浄水所","province":"東京都","city":"調布市","address":"東京都調布市深大寺南町5丁目56-1","lat":35.66896104,"lon":139.55556797},{"name":"調布市地域包括支援センターはなみずき","province":"東京都","city":"調布市","address":"調布市深大寺北町4-17-7","lat":35.679989,"lon":139.551575},{"name":"調布市地域包括支援センターちょうふの里","province":"東京都","city":"調布市","address":"調布市西町290-5","lat":35.666344,"lon":139.52269},{"name":"調布市地域包括支援センターせいじゅ","province":"東京都","city":"調布市","address":"調布市上石原3-54-2","lat":35.65004,"lon":139.52478},{"name":"調布市地域包括支援センターちょうふ花園","province":"東京都","city":"調布市","address":"調布市下石原3-44-1","lat":35.651432,"lon":139.533188},{"name":"調布市地域包括支援センター調布八雲苑","province":"東京都","city":"調布市","address":"調布市八雲台1-22-11階","lat":35.654781,"lon":139.553162},{"name":"調布市地域包括支援センター至誠しばさき","province":"東京都","city":"調布市","address":"調布市菊野台1-52-4","lat":35.655369,"lon":139.565491},{"name":"調布市地域包括支援センターときわぎ国領","province":"東京都","city":"調布市","address":"調布市国領町7-32-2デュスモン国領101","lat":35.644749,"lon":139.560547},{"name":"調布市地域包括支援センターゆうあい","province":"東京都","city":"調布市","address":"調布市国領町3-8-1","lat":35.650097,"lon":139.560684},{"name":"調布市地域包括支援センターつつじヶ丘","province":"東京都","city":"調布市","address":"調布市東つつじヶ丘1-5-2","lat":35.659683,"lon":139.576248},{"name":"調布市地域包括支援センター仙川","province":"東京都","city":"調布市","address":"調布市若葉町2-22-21階","lat":35.655972,"lon":139.589172},{"name":"調布市消費生活センター","province":"東京都","city":"調布市","address":"調布市小島町2-35-1","lat":35.650593,"lon":139.540894},{"name":"御塔坂橋北","province":"東京都","city":"調布市","address":"東京都調布市深大寺元町3丁目1","lat":35.6658612,"lon":139.54374139},{"name":"旧甲州街道入口","province":"東京都","city":"調布市","address":"東京都調布市国領町2丁目18-4","lat":35.65227161,"lon":139.5597767},{"name":"国領駅入口","province":"東京都","city":"調布市","address":"東京都調布市国領町1丁目45-11","lat":35.65064961,"lon":139.55676599},{"name":"仙川駅入口","province":"東京都","city":"調布市","address":"東京都調布市仙川町2丁目19-5","lat":35.66328458,"lon":139.58346575},{"name":"上石原","province":"東京都","city":"調布市","address":"東京都調布市富士見町1丁目1","lat":35.66012856,"lon":139.53295109},{"name":"味の素スタジアム西","province":"東京都","city":"調布市","address":"東京都調布市西町290","lat":35.66924671,"lon":139.53010368},{"name":"調布駅西","province":"東京都","city":"調布市","address":"東京都調布市小島町1丁目36-16","lat":35.65269349,"lon":139.54303928},{"name":"布多天神前","province":"東京都","city":"調布市","address":"東京都調布市調布ケ丘1丁目6","lat":35.65539583,"lon":139.54488332},{"name":"不動前","province":"東京都","city":"調布市","address":"東京都調布市国領町1丁目2-8","lat":35.65169097,"lon":139.55134967},{"name":"国領町八丁目","province":"東京都","city":"調布市","address":"東京都調布市国領町4丁目51-1","lat":35.64605871,"lon":139.56218803},{"name":"深大寺北町一丁目","province":"東京都","city":"調布市","address":"東京都調布市深大寺北町7丁目27","lat":35.67532402,"lon":139.54521317},{"name":"つつじヶ丘交番前","province":"東京都","city":"調布市","address":"東京都調布市西つつじケ丘3丁目31-2","lat":35.65925155,"lon":139.57431952},{"name":"多摩川団地交番前","province":"東京都","city":"調布市","address":"東京都調布市染地3丁目1-498","lat":35.63967659,"lon":139.55987229},{"name":"調布駅南入口","province":"東京都","city":"調布市","address":"東京都調布市布田5丁目1","lat":35.64839998,"lon":139.54339535},{"name":"調布駅北","province":"東京都","city":"調布市","address":"東京都調布市布田1丁目37-16","lat":35.65298507,"lon":139.54419187},{"name":"調布中学校前","province":"東京都","city":"調布市","address":"東京都調布市富士見町4丁目17-1","lat":35.66535009,"lon":139.53516172},{"name":"仙川橋","province":"東京都","city":"調布市","address":"東京都調布市緑ケ丘2丁目56","lat":35.66533724,"lon":139.5879153},{"name":"国領駅南","province":"東京都","city":"調布市","address":"東京都調布市国領町3丁目1-38","lat":35.64966092,"lon":139.55874091},{"name":"調布第三小学校入口","province":"東京都","city":"調布市","address":"東京都調布市上石原2丁目41","lat":35.65508765,"lon":139.52915735},{"name":"飛田給小入口","province":"東京都","city":"調布市","address":"東京都調布市飛田給2丁目42-7","lat":35.65689285,"lon":139.52534091},{"name":"飛田給小入口第二","province":"東京都","city":"調布市","address":"東京都調布市飛田給2丁目42-7","lat":35.65689285,"lon":139.52534091},{"name":"野川馬橋西","province":"東京都","city":"調布市","address":"東京都調布市国領町2丁目26","lat":35.65327149,"lon":139.56242638},{"name":"調布市役所前","province":"東京都","city":"調布市","address":"東京都調布市小島町2丁目35-1","lat":35.65059399,"lon":139.5406704},{"name":"布田一丁目","province":"東京都","city":"調布市","address":"東京都調布市布田1丁目25-2","lat":35.65270176,"lon":139.54599168},{"name":"国領町三丁目","province":"東京都","city":"調布市","address":"東京都調布市国領町3丁目8","lat":35.64928321,"lon":139.5611518},{"name":"飛田給二丁目","province":"東京都","city":"調布市","address":"東京都調布市飛田給2丁目19","lat":35.65929519,"lon":139.52253264},{"name":"飛田給二丁目東","province":"東京都","city":"調布市","address":"東京都調布市飛田給2丁目24-7","lat":35.65814817,"lon":139.52361597},{"name":"飛田給駅南口","province":"東京都","city":"調布市","address":"東京都調布市飛田給2丁目13-12","lat":35.65893411,"lon":139.52149665},{"name":"調布総合体育館南","province":"東京都","city":"調布市","address":"東京都調布市深大寺北町2丁目2","lat":35.6716801,"lon":139.55205709},{"name":"調布郵便局前","province":"東京都","city":"調布市","address":"東京都調布市国領町2丁目14","lat":35.65227714,"lon":139.55834905},{"name":"調布ヶ丘一丁目","province":"東京都","city":"調布市","address":"東京都調布市調布ケ丘1丁目34-1","lat":35.65472366,"lon":139.54680532},{"name":"国領小学校西","province":"東京都","city":"調布市","address":"東京都調布市国領町8丁目1-55","lat":35.64866387,"lon":139.56351548},{"name":"調布駅入口","province":"東京都","city":"調布市","address":"東京都調布市調布ケ丘1丁目5-1","lat":35.65564303,"lon":139.54430838},{"name":"調布市文化プラザ前","province":"東京都","city":"調布市","address":"東京都調布市小島町2丁目34","lat":35.6508828,"lon":139.54196187},{"name":"調布警察署前","province":"東京都","city":"調布市","address":"東京都調布市国領町2丁目25-1","lat":35.65292432,"lon":139.56223197},{"name":"調布駅南","province":"東京都","city":"調布市","address":"東京都調布市布田4丁目17-10","lat":35.65041342,"lon":139.54403667},{"name":"調布駅南第二","province":"東京都","city":"調布市","address":"東京都調布市小島町2丁目52-1","lat":35.64983578,"lon":139.54309243},{"name":"東京スタジアム前","province":"東京都","city":"調布市","address":"東京都調布市飛田給1丁目34-17","lat":35.66310853,"lon":139.52479608},{"name":"飛田給駅入口","province":"東京都","city":"調布市","address":"東京都調布市飛田給1丁目26-1","lat":35.66123655,"lon":139.52347964},{"name":"飛田給小学校前","province":"東京都","city":"調布市","address":"東京都調布市上石原3丁目3","lat":35.65435992,"lon":139.52418564},{"name":"国領駅前","province":"東京都","city":"調布市","address":"東京都調布市国領町4丁目8-1","lat":35.64947482,"lon":139.5574827},{"name":"布田駅前第一","province":"東京都","city":"調布市","address":"東京都調布市国領町5丁目70-1","lat":35.64951641,"lon":139.55109439},{"name":"布田駅前第二","province":"東京都","city":"調布市","address":"東京都調布市布田2丁目51-6","lat":35.65026625,"lon":139.55079711},{"name":"上石原浄水所","province":"東京都","city":"調布市","address":"東京都調布市上石原1丁目34-7","lat":35.66130335,"lon":139.53174555},{"name":"深大寺浄水所","province":"東京都","city":"調布市","address":"東京都調布市深大寺南町5丁目56-1","lat":35.66896104,"lon":139.55556797},{"name":"調布市地域包括支援センターはなみずき","province":"東京都","city":"調布市","address":"調布市深大寺北町4-17-7","lat":35.679989,"lon":139.551575},{"name":"調布市地域包括支援センターちょうふの里","province":"東京都","city":"調布市","address":"調布市西町290-5","lat":35.666344,"lon":139.52269},{"name":"調布市地域包括支援センターせいじゅ","province":"東京都","city":"調布市","address":"調布市上石原3-54-2","lat":35.65004,"lon":139.52478},{"name":"調布市地域包括支援センターちょうふ花園","province":"東京都","city":"調布市","address":"調布市下石原3-44-1","lat":35.651432,"lon":139.533188},{"name":"調布市地域包括支援センター調布八雲苑","province":"東京都","city":"調布市","address":"調布市八雲台1-22-11階","lat":35.654781,"lon":139.553162},{"name":"調布市地域包括支援センター至誠しばさき","province":"東京都","city":"調布市","address":"調布市菊野台1-52-4","lat":35.655369,"lon":139.565491},{"name":"調布市地域包括支援センターときわぎ国領","province":"東京都","city":"調布市","address":"調布市国領町7-32-2デュスモン国領101","lat":35.644749,"lon":139.560547},{"name":"調布市地域包括支援センターゆうあい","province":"東京都","city":"調布市","address":"調布市国領町3-8-1","lat":35.650097,"lon":139.560684},{"name":"調布市地域包括支援センターつつじヶ丘","province":"東京都","city":"調布市","address":"調布市東つつじヶ丘1-5-2","lat":35.659683,"lon":139.576248},{"name":"調布市地域包括支援センター仙川","province":"東京都","city":"調布市","address":"調布市若葉町2-22-21階","lat":35.655972,"lon":139.589172},{"name":"調布市消費生活センター","province":"東京都","city":"調布市","address":"調布市小島町2-35-1","lat":35.650593,"lon":139.540894},{"name":"調布市地域包括支援センターはなみずき","province":"東京都","city":"調布市","address":"調布市深大寺北町4-17-7","lat":35.679989,"lon":139.551575},{"name":"調布市地域包括支援センターちょうふの里","province":"東京都","city":"調布市","address":"調布市西町290-5","lat":35.666344,"lon":139.52269},{"name":"調布市地域包括支援センターせいじゅ","province":"東京都","city":"調布市","address":"調布市上石原3-54-2","lat":35.65004,"lon":139.52478},{"name":"調布市地域包括支援センターちょうふ花園","province":"東京都","city":"調布市","address":"調布市下石原3-44-1","lat":35.651432,"lon":139.533188},{"name":"調布市地域包括支援センター調布八雲苑","province":"東京都","city":"調布市","address":"調布市八雲台1-22-11階","lat":35.654781,"lon":139.553162},{"name":"調布市地域包括支援センター至誠しばさき","province":"東京都","city":"調布市","address":"調布市菊野台1-52-4","lat":35.655369,"lon":139.565491},{"name":"調布市地域包括支援センターときわぎ国領","province":"東京都","city":"調布市","address":"調布市国領町7-32-2デュスモン国領101","lat":35.644749,"lon":139.560547},{"name":"調布市地域包括支援センターゆうあい","province":"東京都","city":"調布市","address":"調布市国領町3-8-1","lat":35.650097,"lon":139.560684},{"name":"調布市地域包括支援センターつつじヶ丘","province":"東京都","city":"調布市","address":"調布市東つつじヶ丘1-5-2","lat":35.659683,"lon":139.576248},{"name":"調布市地域包括支援センター仙川","province":"東京都","city":"調布市","address":"調布市若葉町2-22-21階","lat":35.655972,"lon":139.589172},{"name":"調布市消費生活センター","province":"東京都","city":"調布市","address":"調布市小島町2-35-1","lat":35.650593,"lon":139.540894},{"name":"調布市地域包括支援センターはなみずき","province":"東京都","city":"調布市","address":"調布市深大寺北町4-17-7","lat":35.679989,"lon":139.551575},{"name":"調布市地域包括支援センターちょうふの里","province":"東京都","city":"調布市","address":"調布市西町290-5","lat":35.666344,"lon":139.52269},{"name":"調布市地域包括支援センターせいじゅ","province":"東京都","city":"調布市","address":"調布市上石原3-54-2","lat":35.65004,"lon":139.52478},{"name":"調布市地域包括支援センターちょうふ花園","province":"東京都","city":"調布市","address":"調布市下石原3-44-1","lat":35.651432,"lon":139.533188},{"name":"調布市地域包括支援センター調布八雲苑","province":"東京都","city":"調布市","address":"調布市八雲台1-22-11階","lat":35.654781,"lon":139.553162},{"name":"調布市地域包括支援センター至誠しばさき","province":"東京都","city":"調布市","address":"調布市菊野台1-52-4","lat":35.655369,"lon":139.565491},{"name":"調布市地域包括支援センターときわぎ国領","province":"東京都","city":"調布市","address":"調布市国領町7-32-2デュスモン国領101","lat":35.644749,"lon":139.560547},{"name":"調布市地域包括支援センターゆうあい","province":"東京都","city":"調布市","address":"調布市国領町3-8-1","lat":35.650097,"lon":139.560684},{"name":"調布市地域包括支援センターつつじヶ丘","province":"東京都","city":"調布市","address":"調布市東つつじヶ丘1-5-2","lat":35.659683,"lon":139.576248},{"name":"調布市地域包括支援センター仙川","province":"東京都","city":"調布市","address":"調布市若葉町2-22-21階","lat":35.655972,"lon":139.589172},{"name":"調布市消費生活センター","province":"東京都","city":"調布市","address":"調布市小島町2-35-1","lat":35.650593,"lon":139.540894},{"name":"調布市地域包括支援センターはなみずき","province":"東京都","city":"調布市","address":"調布市深大寺北町4-17-7","lat":35.679989,"lon":139.551575},{"name":"調布市地域包括支援センターちょうふの里","province":"東京都","city":"調布市","address":"調布市西町290-5","lat":35.666344,"lon":139.52269},{"name":"調布市地域包括支援センターせいじゅ","province":"東京都","city":"調布市","address":"調布市上石原3-54-2","lat":35.65004,"lon":139.52478},{"name":"調布市地域包括支援センターちょうふ花園","province":"東京都","city":"調布市","address":"調布市下石原3-44-1","lat":35.651432,"lon":139.533188},{"name":"調布市地域包括支援センター調布八雲苑","province":"東京都","city":"調布市","address":"調布市八雲台1-22-11階","lat":35.654781,"lon":139.553162},{"name":"調布市地域包括支援センター至誠しばさき","province":"東京都","city":"調布市","address":"調布市菊野台1-52-4","lat":35.655369,"lon":139.565491},{"name":"調布市地域包括支援センターときわぎ国領","province":"東京都","city":"調布市","address":"調布市国領町7-32-2デュスモン国領101","lat":35.644749,"lon":139.560547},{"name":"調布市地域包括支援センターゆうあい","province":"東京都","city":"調布市","address":"調布市国領町3-8-1","lat":35.650097,"lon":139.560684},{"name":"調布市地域包括支援センターつつじヶ丘","province":"東京都","city":"調布市","address":"調布市東つつじヶ丘1-5-2","lat":35.659683,"lon":139.576248},{"name":"調布市地域包括支援センター仙川","province":"東京都","city":"調布市","address":"調布市若葉町2-22-21階","lat":35.655972,"lon":139.589172},{"name":"調布市消費生活センター","province":"東京都","city":"調布市","address":"調布市小島町2-35-1","lat":35.650593,"lon":139.540894},{"name":"調布市地域包括支援センターはなみずき","province":"東京都","city":"調布市","address":"調布市深大寺北町4-17-7","lat":35.679989,"lon":139.551575},{"name":"調布市地域包括支援センターちょうふの里","province":"東京都","city":"調布市","address":"調布市西町290-5","lat":35.666344,"lon":139.52269},{"name":"調布市地域包括支援センターせいじゅ","province":"東京都","city":"調布市","address":"調布市上石原3-54-2","lat":35.65004,"lon":139.52478},{"name":"調布市地域包括支援センターちょうふ花園","province":"東京都","city":"調布市","address":"調布市下石原3-44-1","lat":35.651432,"lon":139.533188},{"name":"調布市地域包括支援センター調布八雲苑","province":"東京都","city":"調布市","address":"調布市八雲台1-22-11階","lat":35.654781,"lon":139.553162},{"name":"調布市地域包括支援センター至誠しばさき","province":"東京都","city":"調布市","address":"調布市菊野台1-52-4","lat":35.655369,"lon":139.565491},{"name":"調布市地域包括支援センターときわぎ国領","province":"東京都","city":"調布市","address":"調布市国領町7-32-2デュスモン国領101","lat":35.644749,"lon":139.560547},{"name":"調布市地域包括支援センターゆうあい","province":"東京都","city":"調布市","address":"調布市国領町3-8-1","lat":35.650097,"lon":139.560684},{"name":"調布市地域包括支援センターつつじヶ丘","province":"東京都","city":"調布市","address":"調布市東つつじヶ丘1-5-2","lat":35.659683,"lon":139.576248},{"name":"調布市地域包括支援センター仙川","province":"東京都","city":"調布市","address":"調布市若葉町2-22-21階","lat":35.655972,"lon":139.589172},{"name":"調布市消費生活センター","province":"東京都","city":"調布市","address":"調布市小島町2-35-1","lat":35.650593,"lon":139.540894},{"name":"調布市地域包括支援センターはなみずき","province":"東京都","city":"調布市","address":"調布市深大寺北町4-17-7","lat":35.679989,"lon":139.551575},{"name":"調布市地域包括支援センターちょうふの里","province":"東京都","city":"調布市","address":"調布市西町290-5","lat":35.666344,"lon":139.52269},{"name":"調布市地域包括支援センターせいじゅ","province":"東京都","city":"調布市","address":"調布市上石原3-54-2","lat":35.65004,"lon":139.52478},{"name":"調布市地域包括支援センターちょうふ花園","province":"東京都","city":"調布市","address":"調布市下石原3-44-1","lat":35.651432,"lon":139.533188},{"name":"調布市地域包括支援センター調布八雲苑","province":"東京都","city":"調布市","address":"調布市八雲台1-22-11階","lat":35.654781,"lon":139.553162},{"name":"調布市地域包括支援センター至誠しばさき","province":"東京都","city":"調布市","address":"調布市菊野台1-52-4","lat":35.655369,"lon":139.565491},{"name":"調布市地域包括支援センターときわぎ国領","province":"東京都","city":"調布市","address":"調布市国領町7-32-2デュスモン国領101","lat":35.644749,"lon":139.560547},{"name":"調布市地域包括支援センターゆうあい","province":"東京都","city":"調布市","address":"調布市国領町3-8-1","lat":35.650097,"lon":139.560684},{"name":"調布市地域包括支援センターつつじヶ丘","province":"東京都","city":"調布市","address":"調布市東つつじヶ丘1-5-2","lat":35.659683,"lon":139.576248},{"name":"調布市地域包括支援センター仙川","province":"東京都","city":"調布市","address":"調布市若葉町2-22-21階","lat":35.655972,"lon":139.589172},{"name":"調布市消費生活センター","province":"東京都","city":"調布市","address":"調布市小島町2-35-1","lat":35.650593,"lon":139.540894},{"name":"調布市地域包括支援センターはなみずき","province":"東京都","city":"調布市","address":"調布市深大寺北町4-17-7","lat":35.679989,"lon":139.551575},{"name":"調布市地域包括支援センターちょうふの里","province":"東京都","city":"調布市","address":"調布市西町290-5","lat":35.666344,"lon":139.52269},{"name":"調布市地域包括支援センターせいじゅ","province":"東京都","city":"調布市","address":"調布市上石原3-54-2","lat":35.65004,"lon":139.52478},{"name":"調布市地域包括支援センターちょうふ花園","province":"東京都","city":"調布市","address":"調布市下石原3-44-1","lat":35.651432,"lon":139.533188},{"name":"調布市地域包括支援センター調布八雲苑","province":"東京都","city":"調布市","address":"調布市八雲台1-22-11階","lat":35.654781,"lon":139.553162},{"name":"調布市地域包括支援センター至誠しばさき","province":"東京都","city":"調布市","address":"調布市菊野台1-52-4","lat":35.655369,"lon":139.565491},{"name":"調布市地域包括支援センターときわぎ国領","province":"東京都","city":"調布市","address":"調布市国領町7-32-2デュスモン国領101","lat":35.644749,"lon":139.560547},{"name":"調布市地域包括支援センターゆうあい","province":"東京都","city":"調布市","address":"調布市国領町3-8-1","lat":35.650097,"lon":139.560684},{"name":"調布市地域包括支援センターつつじヶ丘","province":"東京都","city":"調布市","address":"調布市東つつじヶ丘1-5-2","lat":35.659683,"lon":139.576248},{"name":"調布市地域包括支援センター仙川","province":"東京都","city":"調布市","address":"調布市若葉町2-22-21階","lat":35.655972,"lon":139.589172},{"name":"調布市消費生活センター","province":"東京都","city":"調布市","address":"調布市小島町2-35-1","lat":35.650593,"lon":139.540894},{"name":"調布市地域包括支援センターはなみずき","province":"東京都","city":"調布市","address":"調布市深大寺北町4-17-7","lat":35.679989,"lon":139.551575},{"name":"調布市地域包括支援センターちょうふの里","province":"東京都","city":"調布市","address":"調布市西町290-5","lat":35.666344,"lon":139.52269},{"name":"調布市地域包括支援センターせいじゅ","province":"東京都","city":"調布市","address":"調布市上石原3-54-2","lat":35.65004,"lon":139.52478},{"name":"調布市地域包括支援センターちょうふ花園","province":"東京都","city":"調布市","address":"調布市下石原3-44-1","lat":35.651432,"lon":139.533188},{"name":"調布市地域包括支援センター調布八雲苑","province":"東京都","city":"調布市","address":"調布市八雲台1-22-11階","lat":35.654781,"lon":139.553162},{"name":"調布市地域包括支援センター至誠しばさき","province":"東京都","city":"調布市","address":"調布市菊野台1-52-4","lat":35.655369,"lon":139.565491},{"name":"調布市地域包括支援センターときわぎ国領","province":"東京都","city":"調布市","address":"調布市国領町7-32-2デュスモン国領101","lat":35.644749,"lon":139.560547},{"name":"調布市地域包括支援センターゆうあい","province":"東京都","city":"調布市","address":"調布市国領町3-8-1","lat":35.650097,"lon":139.560684},{"name":"調布市地域包括支援センターつつじヶ丘","province":"東京都","city":"調布市","address":"調布市東つつじヶ丘1-5-2","lat":35.659683,"lon":139.576248},{"name":"調布市地域包括支援センター仙川","province":"東京都","city":"調布市","address":"調布市若葉町2-22-21階","lat":35.655972,"lon":139.589172},{"name":"調布市消費生活センター","province":"東京都","city":"調布市","address":"調布市小島町2-35-1","lat":35.650593,"lon":139.540894},{"name":"調布市地域包括支援センターはなみずき","province":"東京都","city":"調布市","address":"調布市深大寺北町4-17-7","lat":35.679989,"lon":139.551575},{"name":"調布市地域包括支援センターちょうふの里","province":"東京都","city":"調布市","address":"調布市西町290-5","lat":35.666344,"lon":139.52269},{"name":"調布市地域包括支援センターせいじゅ","province":"東京都","city":"調布市","address":"調布市上石原3-54-2","lat":35.65004,"lon":139.52478},{"name":"調布市地域包括支援センターちょうふ花園","province":"東京都","city":"調布市","address":"調布市下石原3-44-1","lat":35.651432,"lon":139.533188},{"name":"調布市地域包括支援センター調布八雲苑","province":"東京都","city":"調布市","address":"調布市八雲台1-22-11階","lat":35.654781,"lon":139.553162},{"name":"調布市地域包括支援センター至誠しばさき","province":"東京都","city":"調布市","address":"調布市菊野台1-52-4","lat":35.655369,"lon":139.565491},{"name":"調布市地域包括支援センターときわぎ国領","province":"東京都","city":"調布市","address":"調布市国領町7-32-2デュスモン国領101","lat":35.644749,"lon":139.560547},{"name":"調布市地域包括支援センターゆうあい","province":"東京都","city":"調布市","address":"調布市国領町3-8-1","lat":35.650097,"lon":139.560684},{"name":"調布市地域包括支援センターつつじヶ丘","province":"東京都","city":"調布市","address":"調布市東つつじヶ丘1-5-2","lat":35.659683,"lon":139.576248},{"name":"調布市地域包括支援センター仙川","province":"東京都","city":"調布市","address":"調布市若葉町2-22-21階","lat":35.655972,"lon":139.589172},{"name":"調布市消費生活センター","province":"東京都","city":"調布市","address":"調布市小島町2-35-1","lat":35.650593,"lon":139.540894},{"name":"調布市地域包括支援センターはなみずき","province":"東京都","city":"調布市","address":"調布市深大寺北町4-17-7","lat":35.679989,"lon":139.551575},{"name":"調布市地域包括支援センターちょうふの里","province":"東京都","city":"調布市","address":"調布市西町290-5","lat":35.666344,"lon":139.52269},{"name":"調布市地域包括支援センターせいじゅ","province":"東京都","city":"調布市","address":"調布市上石原3-54-2","lat":35.65004,"lon":139.52478},{"name":"調布市地域包括支援センターちょうふ花園","province":"東京都","city":"調布市","address":"調布市下石原3-44-1","lat":35.651432,"lon":139.533188},{"name":"調布市地域包括支援センター調布八雲苑","province":"東京都","city":"調布市","address":"調布市八雲台1-22-11階","lat":35.654781,"lon":139.553162},{"name":"調布市地域包括支援センター至誠しばさき","province":"東京都","city":"調布市","address":"調布市菊野台1-52-4","lat":35.655369,"lon":139.565491},{"name":"調布市地域包括支援センターときわぎ国領","province":"東京都","city":"調布市","address":"調布市国領町7-32-2デュスモン国領101","lat":35.644749,"lon":139.560547},{"name":"調布市地域包括支援センターゆうあい","province":"東京都","city":"調布市","address":"調布市国領町3-8-1","lat":35.650097,"lon":139.560684},{"name":"調布市地域包括支援センターつつじヶ丘","province":"東京都","city":"調布市","address":"調布市東つつじヶ丘1-5-2","lat":35.659683,"lon":139.576248},{"name":"調布市地域包括支援センター仙川","province":"東京都","city":"調布市","address":"調布市若葉町2-22-21階","lat":35.655972,"lon":139.589172},{"name":"調布市消費生活センター","province":"東京都","city":"調布市","address":"調布市小島町2-35-1","lat":35.650593,"lon":139.540894},{"name":"調布市地域包括支援センターはなみずき","province":"東京都","city":"調布市","address":"調布市深大寺北町4-17-7","lat":35.679989,"lon":139.551575},{"name":"調布市地域包括支援センターちょうふの里","province":"東京都","city":"調布市","address":"調布市西町290-5","lat":35.666344,"lon":139.52269},{"name":"調布市地域包括支援センターせいじゅ","province":"東京都","city":"調布市","address":"調布市上石原3-54-2","lat":35.65004,"lon":139.52478},{"name":"調布市地域包括支援センターちょうふ花園","province":"東京都","city":"調布市","address":"調布市下石原3-44-1","lat":35.651432,"lon":139.533188},{"name":"調布市地域包括支援センター調布八雲苑","province":"東京都","city":"調布市","address":"調布市八雲台1-22-11階","lat":35.654781,"lon":139.553162},{"name":"調布市地域包括支援センター至誠しばさき","province":"東京都","city":"調布市","address":"調布市菊野台1-52-4","lat":35.655369,"lon":139.565491},{"name":"調布市地域包括支援センターときわぎ国領","province":"東京都","city":"調布市","address":"調布市国領町7-32-2デュスモン国領101","lat":35.644749,"lon":139.560547},{"name":"調布市地域包括支援センターゆうあい","province":"東京都","city":"調布市","address":"調布市国領町3-8-1","lat":35.650097,"lon":139.560684},{"name":"調布市地域包括支援センターつつじヶ丘","province":"東京都","city":"調布市","address":"調布市東つつじヶ丘1-5-2","lat":35.659683,"lon":139.576248},{"name":"調布市地域包括支援センター仙川","province":"東京都","city":"調布市","address":"調布市若葉町2-22-21階","lat":35.655972,"lon":139.589172},{"name":"調布市消費生活センター","province":"東京都","city":"調布市","address":"調布市小島町2-35-1","lat":35.650593,"lon":139.540894},{"name":"調布市地域包括支援センターはなみずき","province":"東京都","city":"調布市","address":"調布市深大寺北町4-17-7","lat":35.679989,"lon":139.551575},{"name":"調布市地域包括支援センターちょうふの里","province":"東京都","city":"調布市","address":"調布市西町290-5","lat":35.666344,"lon":139.52269},{"name":"調布市地域包括支援センターせいじゅ","province":"東京都","city":"調布市","address":"調布市上石原3-54-2","lat":35.65004,"lon":139.52478},{"name":"調布市地域包括支援センターちょうふ花園","province":"東京都","city":"調布市","address":"調布市下石原3-44-1","lat":35.651432,"lon":139.533188},{"name":"調布市地域包括支援センター調布八雲苑","province":"東京都","city":"調布市","address":"調布市八雲台1-22-11階","lat":35.654781,"lon":139.553162},{"name":"調布市地域包括支援センター至誠しばさき","province":"東京都","city":"調布市","address":"調布市菊野台1-52-4","lat":35.655369,"lon":139.565491},{"name":"調布市地域包括支援センターときわぎ国領","province":"東京都","city":"調布市","address":"調布市国領町7-32-2デュスモン国領101","lat":35.644749,"lon":139.560547},{"name":"調布市地域包括支援センターゆうあい","province":"東京都","city":"調布市","address":"調布市国領町3-8-1","lat":35.650097,"lon":139.560684},{"name":"調布市地域包括支援センターつつじヶ丘","province":"東京都","city":"調布市","address":"調布市東つつじヶ丘1-5-2","lat":35.659683,"lon":139.576248},{"name":"調布市地域包括支援センター仙川","province":"東京都","city":"調布市","address":"調布市若葉町2-22-21階","lat":35.655972,"lon":139.589172},{"name":"調布市消費生活センター","province":"東京都","city":"調布市","address":"調布市小島町2-35-1","lat":35.650593,"lon":139.540894},{"name":"調布市地域包括支援センターはなみずき","province":"東京都","city":"調布市","address":"調布市深大寺北町4-17-7","lat":35.679989,"lon":139.551575},{"name":"調布市地域包括支援センターちょうふの里","province":"東京都","city":"調布市","address":"調布市西町290-5","lat":35.666344,"lon":139.52269},{"name":"調布市地域包括支援センターせいじゅ","province":"東京都","city":"調布市","address":"調布市上石原3-54-2","lat":35.65004,"lon":139.52478},{"name":"調布市地域包括支援センターちょうふ花園","province":"東京都","city":"調布市","address":"調布市下石原3-44-1","lat":35.651432,"lon":139.533188},{"name":"調布市地域包括支援センター調布八雲苑","province":"東京都","city":"調布市","address":"調布市八雲台1-22-11階","lat":35.654781,"lon":139.553162},{"name":"調布市地域包括支援センター至誠しばさき","province":"東京都","city":"調布市","address":"調布市菊野台1-52-4","lat":35.655369,"lon":139.565491},{"name":"調布市地域包括支援センターときわぎ国領","province":"東京都","city":"調布市","address":"調布市国領町7-32-2デュスモン国領101","lat":35.644749,"lon":139.560547},{"name":"調布市地域包括支援センターゆうあい","province":"東京都","city":"調布市","address":"調布市国領町3-8-1","lat":35.650097,"lon":139.560684},{"name":"調布市地域包括支援センターつつじヶ丘","province":"東京都","city":"調布市","address":"調布市東つつじヶ丘1-5-2","lat":35.659683,"lon":139.576248},{"name":"調布市地域包括支援センター仙川","province":"東京都","city":"調布市","address":"調布市若葉町2-22-21階","lat":35.655972,"lon":139.589172},{"name":"調布市消費生活センター","province":"東京都","city":"調布市","address":"調布市小島町2-35-1","lat":35.650593,"lon":139.540894}]}