{"keyword":"葬儀","data":[{"name":"SOGIサポートセンターLinMCGroup株式会社","province":"東京都","city":"調布市","address":"東京都調布市多摩川2丁目3-12","lat":35.64803332,"lon":139.52358352},{"name":"㈲和田葬儀社","province":"東京都","city":"調布市","address":"東京都調布市下石原1丁目60-2","lat":35.65478214,"lon":139.53833695},{"name":"㈱メモリード(ﾒﾓﾘｰﾄﾞﾎｰﾙ)","province":"東京都","city":"調布市","address":"東京都調布市菊野台1丁目10-2","lat":35.65449637,"lon":139.5649622},{"name":"㈱公益社","province":"東京都","city":"調布市","address":"東京都調布市仙川町3丁目1-3","lat":35.66295407,"lon":139.58419625},{"name":"京王フェアウェルサポート㈱（京王メモリアル）","province":"東京都","city":"調布市","address":"東京都調布市布田2丁目34-6","lat":35.65131595,"lon":139.54681677},{"name":"（有）和田葬儀社","province":"東京都","city":"調布市","address":"東京都調布市下石原1丁目60-2","lat":35.65478214,"lon":139.53833695},{"name":"（株）メモリード","province":"東京都","city":"調布市","address":"東京都調布市菊野台1丁目11-1","lat":35.65463524,"lon":139.56509551}]}