{"keyword":"認可","data":[{"name":"Gakkenほいくえん国領","province":"東京都","city":"調布市","address":"調布市国領町7-17-3","lat":35.64498,"lon":139.55867},{"name":"調布市立仙川保育園","province":"東京都","city":"調布市","address":"調布市仙川町1-21-5","lat":35.66085,"lon":139.5867},{"name":"調布市立上布田保育園","province":"東京都","city":"調布市","address":"調布市調布ケ丘1-20-1","lat":35.65609,"lon":139.54594},{"name":"ココファン・ナーサリー国領","province":"東京都","city":"調布市","address":"調布市国領町7-17-3","lat":35.64498,"lon":139.55867},{"name":"調布市立ひまわり保育園","province":"東京都","city":"調布市","address":"調布市小島町2-53-5","lat":35.64981,"lon":139.54283},{"name":"パイオニアキッズ菊野台園","province":"東京都","city":"調布市","address":"調布市菊野台3-26-17","lat":35.65336,"lon":139.57152},{"name":"調布クオレ保育園","province":"東京都","city":"調布市","address":"調布市国領町4-13-42","lat":35.648,"lon":139.55638},{"name":"木下の保育園調布駅前","province":"東京都","city":"調布市","address":"調布市布田3-4-3","lat":35.65027,"lon":139.54741},{"name":"調布そらいろ保育園","province":"東京都","city":"調布市","address":"調布市小島町1-16-3","lat":35.65432,"lon":139.54215},{"name":"調布市立宮の下保育園","province":"東京都","city":"調布市","address":"調布市上石原3-34-10","lat":35.65151,"lon":139.52477},{"name":"グラン仙川ちとせ保育園","province":"東京都","city":"調布市","address":"調布市仙川町3-3-21","lat":35.6641,"lon":139.5851}]}