{"keyword":"調布","data":[{"name":"西部公民館","province":"東京都","city":"調布市","address":"調布市上石原3-21-6","lat":35.653053,"lon":139.522293},{"name":"東部公民館","province":"東京都","city":"調布市","address":"調布市若葉町1-29-21","lat":35.657906,"lon":139.583282},{"name":"北部公民館","province":"東京都","city":"調布市","address":"調布市柴崎2-5-18","lat":35.661114,"lon":139.562866},{"name":"調布市青少年交流館","province":"東京都","city":"調布市","address":"調布市飛田給1-52-1","lat":35.66135,"lon":139.526062},{"name":"調布市立図書館宮の下分館","province":"東京都","city":"調布市","address":"調布市上石原3-34-10","lat":35.651505,"lon":139.524765},{"name":"調布市立図書館国領分館","province":"東京都","city":"調布市","address":"調布市国領町3-12-1","lat":35.650814,"lon":139.561234},{"name":"調布市立図書館佐須分館","province":"東京都","city":"調布市","address":"調布市佐須町4-42-2","lat":35.658699,"lon":139.556183},{"name":"調布市立図書館若葉分館","province":"東京都","city":"調布市","address":"調布市若葉町3-16-13","lat":35.654602,"lon":139.583679},{"name":"調布市立図書館深大寺分館","province":"東京都","city":"調布市","address":"調布市深大寺北町5-17-3","lat":35.678112,"lon":139.550369},{"name":"調布市立図書館神代分館","province":"東京都","city":"調布市","address":"調布市西つつじケ丘1-40-5","lat":35.660809,"lon":139.570038},{"name":"調布市立図書館染地分館","province":"東京都","city":"調布市","address":"調布市染地3-3-1","lat":35.639153,"lon":139.555283},{"name":"調布市立図書館調和分館","province":"東京都","city":"調布市","address":"調布市西つつじケ丘4-22-6","lat":35.651386,"lon":139.57373},{"name":"調布市立図書館富士見分館","province":"東京都","city":"調布市","address":"調布市富士見町2-3-26","lat":35.658424,"lon":139.539062},{"name":"調布市立図書館緑ケ丘分館","province":"東京都","city":"調布市","address":"調布市緑ケ丘2-25","lat":35.666611,"lon":139.582993},{"name":"調布市立中央図書館","province":"東京都","city":"調布市","address":"調布市小島町2-33-1","lat":35.65147,"lon":139.541443},{"name":"調布市郷土博物館","province":"東京都","city":"調布市","address":"調布市小島町3-26-2","lat":35.646938,"lon":139.535858},{"name":"調布市郷土博物館分室","province":"東京都","city":"調布市","address":"調布市布田6-61","lat":35.643711,"lon":139.548828},{"name":"調布市深大寺水車館","province":"東京都","city":"調布市","address":"調布市深大寺元町5-10-6","lat":35.667656,"lon":139.548325},{"name":"調布市武者小路実篤記念館","province":"東京都","city":"調布市","address":"調布市若葉町1-8-30","lat":35.65633,"lon":139.581268},{"name":"調布市文化会館たづくり","province":"東京都","city":"調布市","address":"調布市小島町2-33-1","lat":35.65147,"lon":139.541443}]}