{"keyword":"連絡","data":[{"name":"調布市地域包括支援センターはなみずき","province":"東京都","city":"調布市","address":"調布市深大寺北町4-17-7","lat":35.679989,"lon":139.551575},{"name":"調布市地域包括支援センターちょうふの里","province":"東京都","city":"調布市","address":"調布市西町290-5","lat":35.666344,"lon":139.52269},{"name":"調布市地域包括支援センターせいじゅ","province":"東京都","city":"調布市","address":"調布市上石原3-54-2","lat":35.65004,"lon":139.52478},{"name":"調布市地域包括支援センターちょうふ花園","province":"東京都","city":"調布市","address":"調布市下石原3-44-1","lat":35.651432,"lon":139.533188},{"name":"調布市地域包括支援センター調布八雲苑","province":"東京都","city":"調布市","address":"調布市八雲台1-22-11階","lat":35.654781,"lon":139.553162},{"name":"調布市地域包括支援センター至誠しばさき","province":"東京都","city":"調布市","address":"調布市菊野台1-52-4","lat":35.655369,"lon":139.565491},{"name":"調布市地域包括支援センターときわぎ国領","province":"東京都","city":"調布市","address":"調布市国領町7-32-2デュスモン国領101","lat":35.644749,"lon":139.560547},{"name":"調布市地域包括支援センターゆうあい","province":"東京都","city":"調布市","address":"調布市国領町3-8-1","lat":35.650097,"lon":139.560684},{"name":"調布市地域包括支援センターつつじヶ丘","province":"東京都","city":"調布市","address":"調布市東つつじヶ丘1-5-2","lat":35.659683,"lon":139.576248},{"name":"調布市地域包括支援センター仙川","province":"東京都","city":"調布市","address":"調布市若葉町2-22-21階","lat":35.655972,"lon":139.589172},{"name":"調布市消費生活センター","province":"東京都","city":"調布市","address":"調布市小島町2-35-1","lat":35.650593,"lon":139.540894}]}