{"keyword":"避難","data":[{"name":"第一小学校","province":"東京都","city":"調布市","address":"東京都調布市小島町1丁目8-1","lat":35.65514867,"lon":139.54352795},{"name":"第二小学校","province":"東京都","city":"調布市","address":"東京都調布市国領町4丁目19-1","lat":35.6463948,"lon":139.5564442},{"name":"第三小学校","province":"東京都","city":"調布市","address":"東京都調布市上石原2丁目19-13","lat":35.65473491,"lon":139.52783806},{"name":"八雲台小学校","province":"東京都","city":"調布市","address":"東京都調布市八雲台1丁目1-1","lat":35.65414334,"lon":139.5525688},{"name":"富士見台小学校","province":"東京都","city":"調布市","address":"東京都調布市小島町3丁目20-1","lat":35.64803625,"lon":139.53731278},{"name":"滝坂小学校","province":"東京都","city":"調布市","address":"東京都調布市東つつじケ丘1丁目4-1","lat":35.65943768,"lon":139.57669151},{"name":"深大寺小学校","province":"東京都","city":"調布市","address":"東京都調布市深大寺元町5丁目16-21","lat":35.66692511,"lon":139.55280439},{"name":"上ノ原小学校","province":"東京都","city":"調布市","address":"東京都調布市柴崎2丁目26-1","lat":35.66351466,"lon":139.56345083},{"name":"石原小学校","province":"東京都","city":"調布市","address":"東京都調布市富士見町1丁目37-1","lat":35.66061184,"lon":139.53842826},{"name":"若葉小学校","province":"東京都","city":"調布市","address":"東京都調布市若葉町3丁目17-5","lat":35.65534106,"lon":139.58297995},{"name":"緑ヶ丘小学校","province":"東京都","city":"調布市","address":"東京都調布市緑ケ丘2丁目16-1","lat":35.66996995,"lon":139.58474318},{"name":"染地小学校","province":"東京都","city":"調布市","address":"東京都調布市染地3丁目1-81","lat":35.64213444,"lon":139.56039141},{"name":"北ノ台小学校","province":"東京都","city":"調布市","address":"東京都調布市深大寺北町2丁目41-1","lat":35.67543247,"lon":139.55284301},{"name":"多摩川小学校","province":"東京都","city":"調布市","address":"東京都調布市多摩川3丁目21-1","lat":35.6470059,"lon":139.53246896},{"name":"杉森小学校","province":"東京都","city":"調布市","address":"東京都調布市染地2丁目25-4","lat":35.64201793,"lon":139.55487267},{"name":"飛田給小学校","province":"東京都","city":"調布市","address":"東京都調布市飛田給3丁目29-1","lat":35.65464318,"lon":139.52304406},{"name":"柏野小学校","province":"東京都","city":"調布市","address":"東京都調布市深大寺南町1丁目1-1","lat":35.66051206,"lon":139.55587103},{"name":"国領小学校","province":"東京都","city":"調布市","address":"東京都調布市国領町8丁目1-55","lat":35.64866387,"lon":139.56351548},{"name":"布田小学校","province":"東京都","city":"調布市","address":"東京都調布市染地1丁目1-85","lat":35.64330667,"lon":139.54542083},{"name":"調和小学校","province":"東京都","city":"調布市","address":"東京都調布市西つつじケ丘4丁目22-6","lat":35.6517774,"lon":139.57354484},{"name":"調布中学校","province":"東京都","city":"調布市","address":"東京都調布市富士見町4丁目17-1","lat":35.66535009,"lon":139.53516172},{"name":"神代中学校","province":"東京都","city":"調布市","address":"東京都調布市佐須町5丁目26-1","lat":35.66162316,"lon":139.5616816},{"name":"第三中学校","province":"東京都","city":"調布市","address":"東京都調布市染地3丁目2-7","lat":35.6414069,"lon":139.55643366},{"name":"第四中学校","province":"東京都","city":"調布市","address":"東京都調布市若葉町3丁目15-1","lat":35.65392455,"lon":139.58283002},{"name":"第五中学校","province":"東京都","city":"調布市","address":"東京都調布市上石原3丁目27-1","lat":35.6522742,"lon":139.5253996},{"name":"第六中学校","province":"東京都","city":"調布市","address":"東京都調布市国領町3丁目8-23","lat":35.65028305,"lon":139.56102951},{"name":"第七中学校","province":"東京都","city":"調布市","address":"東京都調布市八雲台2丁目16-1","lat":35.65411023,"lon":139.56001545},{"name":"第八中学校","province":"東京都","city":"調布市","address":"東京都調布市仙川町2丁目15-2","lat":35.66445108,"lon":139.58169365},{"name":"大町スポ-ツ施設","province":"東京都","city":"調布市","address":"東京都調布市菊野台3丁目27-40","lat":35.65252451,"lon":139.5724838},{"name":"都立神代高等学校","province":"東京都","city":"調布市","address":"東京都調布市若葉町1丁目46","lat":35.6567243,"lon":139.58601575},{"name":"都立調布北高等学校","province":"東京都","city":"調布市","address":"東京都調布市深大寺北町5丁目39-1","lat":35.67999023,"lon":139.54936542},{"name":"都立調布南高等学校","province":"東京都","city":"調布市","address":"東京都調布市多摩川6丁目2-1","lat":35.64401209,"lon":139.53953247},{"name":"金子地域福祉センター","province":"東京都","city":"調布市","address":"東京都調布市西つつじケ丘4丁目43-3","lat":35.65099983,"lon":139.57897493},{"name":"西部地域福祉センター","province":"東京都","city":"調布市","address":"東京都調布市上石原2丁目15-6","lat":35.65561806,"lon":139.52528822},{"name":"調布ケ丘地域福祉センター","province":"東京都","city":"調布市","address":"東京都調布市調布ケ丘3丁目58-2","lat":35.65984534,"lon":139.55029097},{"name":"染地地域福祉センター","province":"東京都","city":"調布市","address":"東京都調布市染地3丁目3-1","lat":35.6398517,"lon":139.55539232},{"name":"緑ケ丘地域福祉センター","province":"東京都","city":"調布市","address":"東京都調布市緑ケ丘2丁目18-49","lat":35.66934778,"lon":139.58393216},{"name":"菊野台地域福祉センター","province":"東京都","city":"調布市","address":"東京都調布市菊野台1丁目38-1","lat":35.6575349,"lon":139.56605641},{"name":"富士見地域福祉センター","province":"東京都","city":"調布市","address":"東京都調布市富士見町4丁目15-6","lat":35.66394193,"lon":139.53463406},{"name":"下石原地域福祉センター","province":"東京都","city":"調布市","address":"東京都調布市下石原3丁目72-1","lat":35.64757805,"lon":139.53469647},{"name":"入間地域福祉センター","province":"東京都","city":"調布市","address":"東京都調布市入間町1丁目13-2","lat":35.65381911,"lon":139.58733797},{"name":"深大寺地域福祉センター","province":"東京都","city":"調布市","address":"東京都調布市深大寺北町2丁目40-1","lat":35.67473531,"lon":139.55157926}]}