{"keyword":"食堂","data":[{"name":"緑ヶ丘こどもフリースペースごりら","province":"東京都","city":"調布市","address":"東京都調布市緑ケ丘2丁目18-49","lat":35.66934778,"lon":139.58393216},{"name":"みんな食堂「仙川スープ」","province":"東京都","city":"調布市","address":"東京都調布市仙川町1丁目19-10","lat":35.66190703,"lon":139.58617112},{"name":"坂の上のばあちゃん家","province":"東京都","city":"調布市","address":"東京都調布市入間町3丁目22-5","lat":35.64650615,"lon":139.58803264},{"name":"子ども食堂深大寺東町","province":"東京都","city":"調布市","address":"東京都調布市深大寺東町6丁目26-15","lat":35.67562424,"lon":139.5587508},{"name":"ハナこども食堂","province":"東京都","city":"調布市","address":"東京都調布市深大寺東町7丁目23-2","lat":35.67628527,"lon":139.55891188},{"name":"絵堂なかよし子ども食堂","province":"東京都","city":"調布市","address":"東京都調布市深大寺南町5丁目9","lat":35.66653636,"lon":139.55753733},{"name":"しばさき彩こども食堂","province":"東京都","city":"調布市","address":"東京都調布市柴崎1丁目64-9","lat":35.6572738,"lon":139.56494541},{"name":"さくら子育てステーション","province":"東京都","city":"調布市","address":"東京都調布市八雲台1丁目22-1","lat":35.65435444,"lon":139.55306875},{"name":"かしわの食堂（まい・夢）","province":"東京都","city":"調布市","address":"東京都調布市佐須町2丁目18-1","lat":35.65938997,"lon":139.55534612},{"name":"深大寺カフェ子ども食堂","province":"東京都","city":"調布市","address":"東京都調布市深大寺元町1丁目11-1","lat":35.66248107,"lon":139.54792163},{"name":"そらなかBASE","province":"東京都","city":"調布市","address":"東京都調布市深大寺元町1丁目11-1","lat":35.66248107,"lon":139.54792163},{"name":"まごじば","province":"東京都","city":"調布市","address":"東京都調布市国領町1丁目7-1","lat":35.65279632,"lon":139.55237724},{"name":"こくりょう子ども食堂わいわい","province":"東京都","city":"調布市","address":"東京都調布市国領町3丁目8-15","lat":35.64856666,"lon":139.56058525},{"name":"二小地区もりあげ隊","province":"東京都","city":"調布市","address":"東京都調布市国領町5丁目76-3","lat":35.64864714,"lon":139.55144724},{"name":"ウナパウザ","province":"東京都","city":"調布市","address":"東京都調布市染地3丁目8-26","lat":35.63719661,"lon":139.55749791},{"name":"みさとや子ども食堂","province":"東京都","city":"調布市","address":"東京都調布市布田2丁目2-6","lat":35.65352939,"lon":139.54781918},{"name":"ちょうふ子ども食堂","province":"東京都","city":"調布市","address":"東京都調布市布田2丁目5-4","lat":35.65335444,"lon":139.54889689},{"name":"ハッピーこども食堂","province":"東京都","city":"調布市","address":"東京都調布市布田5丁目32-3","lat":35.64607548,"lon":139.54485383},{"name":"電気通信大学こども食堂","province":"東京都","city":"調布市","address":"東京都調布市調布ケ丘1丁目5-1","lat":35.65564303,"lon":139.54430838},{"name":"こども食堂かくしょうじ","province":"東京都","city":"調布市","address":"東京都調布市富士見町1丁目35-5","lat":35.66023412,"lon":139.53743394},{"name":"富士見あおぞら子ども食堂","province":"東京都","city":"調布市","address":"東京都調布市富士見町2丁目13-5","lat":35.65921758,"lon":139.54185572},{"name":"風のテーブル","province":"東京都","city":"調布市","address":"東京都調布市上石原1丁目36-7","lat":35.65909816,"lon":139.53207068},{"name":"子ども食堂かみいしわらたんぽぽ","province":"東京都","city":"調布市","address":"東京都調布市上石原3丁目21-6","lat":35.65290458,"lon":139.52214705}]}