{"keyword":"館","data":[{"name":"＊?調布市立中央図書館","province":"東京都","city":"調布市","address":"調布市小島町2-33-1","lat":35.650998,"lon":139.541309},{"name":"＊?調布市立図書館国領分館","province":"東京都","city":"調布市","address":"調布市国領町3-12-1","lat":35.650885,"lon":139.560276},{"name":"＊?調布市立図書館調和分館","province":"東京都","city":"調布市","address":"調布市西つつじケ丘4-22-6","lat":35.651425,"lon":139.573649},{"name":"＊?調布市立図書館深大寺分館","province":"東京都","city":"調布市","address":"調布市深大寺北町5-17-3","lat":35.678099,"lon":139.550478},{"name":"＊?調布市立図書館神代分館","province":"東京都","city":"調布市","address":"調布市西つつじケ丘1-40-5","lat":35.660732,"lon":139.569995},{"name":"＊?調布市立図書館宮の下分館","province":"東京都","city":"調布市","address":"調布市上石原3-34-10","lat":35.651375,"lon":139.524822},{"name":"＊?調布市立図書館緑ケ丘分館","province":"東京都","city":"調布市","address":"調布市緑ケ丘2-25","lat":35.666937,"lon":139.586473},{"name":"＊?調布市立図書館富士見分館","province":"東京都","city":"調布市","address":"調布市富士見町2-3-26","lat":35.658401,"lon":139.539305},{"name":"＊?調布市立図書館若葉分館","province":"東京都","city":"調布市","address":"調布市若葉町3-16-13","lat":35.654939,"lon":139.583998},{"name":"＊?調布市立図書館染地分館","province":"東京都","city":"調布市","address":"調布市染地3-3-1","lat":35.639832,"lon":139.55581},{"name":"＊?調布市立図書館佐須分館","province":"東京都","city":"調布市","address":"調布市佐須町4-42-2","lat":35.658623,"lon":139.556195}]}