{"keyword":"声","data":[{"name":"新堀会館前緑地","province":"東京都","city":"港区","address":"東京都港区芝二丁目17番地","lat":35.651352,"lon":139.7516772,"行政管内":"芝地区","設備種別":"無線放送塔"},{"name":"芝三田森ビル","province":"東京都","city":"港区","address":"東京都港区芝五丁目13番地15号","lat":35.649252,"lon":139.7450223,"行政管内":"芝地区","設備種別":"無線放送塔"},{"name":"都営芝五丁目アパート","province":"東京都","city":"港区","address":"東京都港区芝五丁目18番地1号","lat":35.648405,"lon":139.7477776,"行政管内":"芝地区","設備種別":"無線放送塔"},{"name":"区立生涯学習センター","province":"東京都","city":"港区","address":"東京都港区西新橋三丁目16番3号","lat":35.665575,"lon":139.757085,"行政管内":"芝地区","設備種別":"無線放送塔"},{"name":"きらきらプラザ新橋","province":"東京都","city":"港区","address":"東京都港区新橋六丁目4番2号","lat":35.662287,"lon":139.7540266,"行政管内":"芝地区","設備種別":"無線放送塔"},{"name":"讃岐会館前区道","province":"東京都","city":"港区","address":"東京都港区三田一丁目11号","lat":35.653018,"lon":139.7382145,"行政管内":"芝地区","設備種別":"無線放送塔"},{"name":"聖徳学園三田幼稚園・専門学校","province":"東京都","city":"港区","address":"東京都港区三田三丁目4番28号","lat":35.645884,"lon":139.743269,"行政管内":"芝地区","設備種別":"無線放送塔"},{"name":"シティハイツ神明","province":"東京都","city":"港区","address":"東京都港区浜松町一丁目13番地","lat":35.658632,"lon":139.7568238,"行政管内":"芝地区","設備種別":"無線放送塔"},{"name":"郵政福祉琴平ビル","province":"東京都","city":"港区","address":"東京都港区虎ノ門一丁目14番1号","lat":35.668821,"lon":139.749355,"行政管内":"芝地区","設備種別":"無線放送塔"},{"name":"芝ロイヤルビル","province":"東京都","city":"港区","address":"東京都港区虎ノ門三丁目25番地3号","lat":35.662404,"lon":139.7460051,"行政管内":"芝地区","設備種別":"無線放送塔"},{"name":"虎ノ門33森ビル","province":"東京都","city":"港区","address":"東京都港区虎ノ門三丁目8番地21号","lat":35.665531,"lon":139.7472105,"行政管内":"芝地区","設備種別":"無線放送塔"},{"name":"仙石山アネックス","province":"東京都","city":"港区","address":"東京都港区虎ノ門五丁目3番地20号","lat":35.663639,"lon":139.7428082,"行政管内":"芝地区","設備種別":"無線放送塔"},{"name":"芝商業高校","province":"東京都","city":"港区","address":"東京都港区海岸一丁目8番25号","lat":35.65647,"lon":139.760575,"行政管内":"芝地区","設備種別":"無線放送塔"},{"name":"狸穴公園","province":"東京都","city":"港区","address":"東京都港区麻布狸穴町63","lat":35.658021,"lon":139.738992,"行政管内":"麻布地区","設備種別":"無線放送塔"},{"name":"都営南麻布四丁目アパート","province":"東京都","city":"港区","address":"東京都港区南麻布四丁目2番地29号","lat":35.647821,"lon":139.7240687,"行政管内":"麻布地区","設備種別":"無線放送塔"},{"name":"ありすいきいきプラザ","province":"東京都","city":"港区","address":"東京都港区南麻布四丁目6番7号","lat":35.650976,"lon":139.727544,"行政管内":"麻布地区","設備種別":"無線放送塔"},{"name":"公団西麻布一丁目アパート","province":"東京都","city":"港区","address":"東京都港区西麻布一丁目7番地2号","lat":35.660842,"lon":139.726207,"行政管内":"麻布地区","設備種別":"無線放送塔"},{"name":"永平寺東京別院長谷寺","province":"東京都","city":"港区","address":"東京都港区西麻布二丁目21番地34号","lat":35.661136,"lon":139.7190104,"行政管内":"麻布地区","設備種別":"無線放送塔"},{"name":"麻布警察署","province":"東京都","city":"港区","address":"東京都港区六本木四丁目16番1号","lat":35.665619,"lon":139.733908,"行政管内":"麻布地区","設備種別":"無線放送塔"},{"name":"六本木電気ビル","province":"東京都","city":"港区","address":"東京都港区六本木六丁目1番地20号","lat":35.662411,"lon":139.7313037,"行政管内":"麻布地区","設備種別":"無線放送塔"},{"name":"衆議院宿舎横区道","province":"東京都","city":"港区","address":"東京都港区六本木七丁目1号","lat":35.6662,"lon":139.725318,"行政管内":"麻布地区","設備種別":"無線放送塔"},{"name":"麻布十番中央マンション","province":"東京都","city":"港区","address":"東京都港区麻布十番二丁目9番地8号","lat":35.654521,"lon":139.735323,"行政管内":"麻布地区","設備種別":"無線放送塔"},{"name":"赤坂スクエアービル","province":"東京都","city":"港区","address":"東京都港区赤坂二丁目10番地16号","lat":35.670566,"lon":139.7415664,"行政管内":"赤坂地区","設備種別":"無線放送塔"},{"name":"ウインド赤坂","province":"東京都","city":"港区","address":"東京都港区赤坂二丁目14番31号","lat":35.672683,"lon":139.7373195,"行政管内":"赤坂地区","設備種別":"無線放送塔"},{"name":"シティーハイツ一ツ木","province":"東京都","city":"港区","address":"東京都港区赤坂五丁目2番50号","lat":35.673205,"lon":139.7342058,"行政管内":"赤坂地区","設備種別":"無線放送塔"},{"name":"都営赤坂五丁目アパート","province":"東京都","city":"港区","address":"東京都港区赤坂五丁目5番地26号","lat":35.67103,"lon":139.7340504,"行政管内":"赤坂地区","設備種別":"無線放送塔"},{"name":"氷川武道館","province":"東京都","city":"港区","address":"東京都港区赤坂六丁目6番14号","lat":35.669742,"lon":139.73769,"行政管内":"赤坂地区","設備種別":"無線放送塔"},{"name":"赤坂中学校","province":"東京都","city":"港区","address":"東京都港区赤坂九丁目2番3号","lat":35.668253,"lon":139.731481,"行政管内":"赤坂地区","設備種別":"無線放送塔"},{"name":"都立青山公園","province":"東京都","city":"港区","address":"東京都港区南青山一丁目5号","lat":35.670241,"lon":139.7241235,"行政管内":"赤坂地区","設備種別":"無線放送塔"},{"name":"都立青山公園(東側)","province":"東京都","city":"港区","address":"東京都港区南青山一丁目6番地","lat":35.670346,"lon":139.724754,"行政管内":"赤坂地区","設備種別":"無線放送塔"},{"name":"青山霊園内区道","province":"東京都","city":"港区","address":"東京都港区南青山二丁目34番地","lat":35.664036,"lon":139.7233682,"行政管内":"赤坂地区","設備種別":"無線放送塔"},{"name":"南青山児童遊園","province":"東京都","city":"港区","address":"東京都港区南青山六丁目13番24号","lat":35.660123,"lon":139.714479,"行政管内":"赤坂地区","設備種別":"無線放送塔"},{"name":"青山児童館","province":"東京都","city":"港区","address":"東京都港区北青山三丁目3番16号","lat":35.667726,"lon":139.714285,"行政管内":"赤坂地区","設備種別":"無線放送塔"},{"name":"御田小学校","province":"東京都","city":"港区","address":"東京都港区三田四丁目11番38号","lat":35.643277,"lon":139.738031,"行政管内":"高輪地区","設備種別":"無線放送塔"},{"name":"豊岡第二児童遊園","province":"東京都","city":"港区","address":"東京都港区三田五丁目4番地2号","lat":35.64778,"lon":139.7387285,"行政管内":"高輪地区","設備種別":"無線放送塔"},{"name":"シティーハイツ桂坂","province":"東京都","city":"港区","address":"東京都港区高輪二丁目13番地8号","lat":35.634543,"lon":139.737854,"行政管内":"高輪地区","設備種別":"無線放送塔"},{"name":"国民生活センター","province":"東京都","city":"港区","address":"東京都港区高輪一丁目13番地22号","lat":35.629629,"lon":139.734868,"行政管内":"高輪地区","設備種別":"無線放送塔"},{"name":"三光坂上区道","province":"東京都","city":"港区","address":"東京都港区白金二丁目5番地","lat":35.64165,"lon":139.7299544,"行政管内":"高輪地区","設備種別":"無線放送塔"},{"name":"はなみずき白金","province":"東京都","city":"港区","address":"東京都港区白金三丁目3番3号","lat":35.646534,"lon":139.729271,"行政管内":"高輪地区","設備種別":"無線放送塔"},{"name":"三光小学校(港区教育センター)","province":"東京都","city":"港区","address":"東京都港区白金三丁目18番2号","lat":35.644328,"lon":139.729204,"行政管内":"高輪地区","設備種別":"無線放送塔"},{"name":"自然教育園東側区道","province":"東京都","city":"港区","address":"東京都港区白金台五丁目11番","lat":35.640989,"lon":139.72026,"行政管内":"高輪地区","設備種別":"無線放送塔"},{"name":"芝浦内貿2号上屋","province":"東京都","city":"港区","address":"東京都港区海岸三丁目29番地1号","lat":35.641984,"lon":139.7596963,"行政管内":"芝浦港南地区","設備種別":"無線放送塔"},{"name":"日の出桟橋大型バス駐車場先","province":"東京都","city":"港区","address":"東京都港区海岸二丁目7番地先","lat":35.650872,"lon":139.7604801,"行政管内":"芝浦港南地区","設備種別":"無線放送塔"},{"name":"みなとパーク芝浦","province":"東京都","city":"港区","address":"東京都港区芝浦一丁目16番1号","lat":35.646717,"lon":139.751751,"行政管内":"芝浦港南地区","設備種別":"無線放送塔"},{"name":"JR変電所前区道","province":"東京都","city":"港区","address":"東京都港区芝浦一丁目7番地","lat":35.648003,"lon":139.7544631,"行政管内":"芝浦港南地区","設備種別":"無線放送塔"},{"name":"吾妻ビル","province":"東京都","city":"港区","address":"東京都港区芝浦三丁目17番地12号","lat":35.642559,"lon":139.7504526,"行政管内":"芝浦港南地区","設備種別":"無線放送塔"},{"name":"都営芝浦四丁目アパート","province":"東京都","city":"港区","address":"東京都港区芝浦四丁目4番地38号","lat":35.641473,"lon":139.7450836,"行政管内":"芝浦港南地区","設備種別":"無線放送塔"},{"name":"芝浦四丁目下水道局敷地","province":"東京都","city":"港区","address":"東京都港区芝浦四丁目20番地","lat":35.63954,"lon":139.7517331,"行政管内":"芝浦港南地区","設備種別":"無線放送塔"},{"name":"コクヨ株式会社社屋","province":"東京都","city":"港区","address":"東京都港区港南一丁目8番地35号","lat":35.630268,"lon":139.7433037,"行政管内":"芝浦港南地区","設備種別":"無線放送塔"},{"name":"特別養護老人ホーム 港南の郷","province":"東京都","city":"港区","address":"東京都港区港南三丁目3番23号","lat":35.633266,"lon":139.749263,"行政管内":"芝浦港南地区","設備種別":"無線放送塔"},{"name":"みなと清掃事務所","province":"東京都","city":"港区","address":"東京都港区港南三丁目9番地59号","lat":35.634452,"lon":139.7514972,"行政管内":"芝浦港南地区","設備種別":"無線放送塔"},{"name":"都営港南四丁目第3アパート","province":"東京都","city":"港区","address":"東京都港区港南四丁目2番地4号","lat":35.629624,"lon":139.747098,"行政管内":"芝浦港南地区","設備種別":"無線放送塔"},{"name":"都営港南四丁目アパート","province":"東京都","city":"港区","address":"東京都港区港南四丁目5番地3号","lat":35.626519,"lon":139.7464897,"行政管内":"芝浦港南地区","設備種別":"無線放送塔"},{"name":"都立北品川埠頭公園","province":"東京都","city":"港区","address":"東京都港区港南五丁目2番5号","lat":35.627147,"lon":139.7550473,"行政管内":"芝浦港南地区","設備種別":"無線放送塔"},{"name":"品川ふ頭","province":"東京都","city":"港区","address":"東京都港区港南五丁目11番地2号","lat":35.629841,"lon":139.7579303,"行政管内":"芝浦港南地区","設備種別":"無線放送塔"},{"name":"港陽中学校","province":"東京都","city":"港区","address":"東京都港区台場一丁目1番5号","lat":35.634155,"lon":139.77713,"行政管内":"芝浦港南地区","設備種別":"無線放送塔"},{"name":"都立お台場海浜公園","province":"東京都","city":"港区","address":"東京都港区台場一丁目4番","lat":35.629803,"lon":139.775275,"行政管内":"芝浦港南地区","設備種別":"無線放送塔"},{"name":"都立お台場海浜公園(西側)","province":"東京都","city":"港区","address":"東京都港区台場一丁目5番","lat":35.634155,"lon":139.77713,"行政管内":"芝浦港南地区","設備種別":"無線放送塔"}]}