{"keyword":"杉並","data":[{"name":"杉並区役所","province":"東京都","city":"杉並区","address":"東京都杉並区阿佐谷南1丁目15-1","lat":35.699595,"lon":139.636363},{"name":"東京工芸大学 杉並アニメーションミュージアム","province":"東京都","city":"杉並区","address":"東京都杉並区上荻3丁目29-5杉並会館3階","lat":35.71039,"lon":139.607852},{"name":"荻窪地域区民センター","province":"東京都","city":"杉並区","address":"東京都杉並区荻窪2丁目34-20","lat":35.698638,"lon":139.618996},{"name":"高井戸地域区民センター","province":"東京都","city":"杉並区","address":"東京都杉並区高井戸東3丁目7-5高井戸市民センター","lat":35.683633,"lon":139.616331},{"name":"西荻地域区民センター","province":"東京都","city":"杉並区","address":"東京都杉並区桃井4丁目3-2","lat":35.712616,"lon":139.60207},{"name":"阿佐谷地域区民センター","province":"東京都","city":"杉並区","address":"東京都杉並区阿佐谷北1丁目1-1","lat":35.70545,"lon":139.641003},{"name":"高円寺地域区民センター","province":"東京都","city":"杉並区","address":"東京都杉並区梅里1丁目22番32号セシオン杉並","lat":35.683644,"lon":139.616303},{"name":"永福和泉地域区民センター","province":"東京都","city":"杉並区","address":"東京都杉並区和泉3丁目8-18","lat":35.675722,"lon":139.64589},{"name":"井草地域区民センター","province":"東京都","city":"杉並区","address":"東京都杉並区下井草5丁目7-22","lat":35.720608,"lon":139.616443},{"name":"久我山会館","province":"東京都","city":"杉並区","address":"東京都杉並区久我山3丁目23-20","lat":35.686582,"lon":139.599273},{"name":"杉並会館","province":"東京都","city":"杉並区","address":"東京都杉並区上荻3丁目29-5","lat":35.710433,"lon":139.607833},{"name":"コミュニティふらっと阿佐谷","province":"東京都","city":"杉並区","address":"東京都杉並区阿佐谷北2丁目18-17","lat":35.706116,"lon":139.633669},{"name":"コミュニティふらっと馬橋","province":"東京都","city":"杉並区","address":"東京都杉並区高円寺南3丁目29-5","lat":35.702001,"lon":139.643861},{"name":"コミュニティふらっと東原","province":"東京都","city":"杉並区","address":"東京都杉並区下井草1丁目23-23","lat":35.715743,"lon":139.631444},{"name":"コミュニティふらっと永福","province":"東京都","city":"杉並区","address":"東京都杉並区永福3丁目51-173階","lat":35.678413,"lon":139.638018},{"name":"コミュニティふらっと成田","province":"東京都","city":"杉並区","address":"東京都杉並区成田西1丁目28-18","lat":35.690727,"lon":139.631454},{"name":"中央図書館","province":"東京都","city":"杉並区","address":"東京都杉並区荻窪3丁目40-23","lat":35.701897,"lon":139.626747},{"name":"永福図書館","province":"東京都","city":"杉並区","address":"東京都杉並区永福3丁目51-17","lat":35.678506,"lon":139.637991},{"name":"柿木図書館","province":"東京都","city":"杉並区","address":"東京都杉並区上井草1丁目6-13","lat":35.720278,"lon":139.612113},{"name":"高円寺図書館","province":"東京都","city":"杉並区","address":"東京都杉並区高円寺南2丁目36-25","lat":35.700403,"lon":139.654102},{"name":"宮前図書館","province":"東京都","city":"杉並区","address":"東京都杉並区宮前5丁目5-27","lat":35.693108,"lon":139.598935},{"name":"成田図書館","province":"東京都","city":"杉並区","address":"東京都杉並区成田東3丁目28-5","lat":35.695091,"lon":139.637467},{"name":"西荻図書館","province":"東京都","city":"杉並区","address":"東京都杉並区西荻北2丁目33-9","lat":35.707837,"lon":139.605921},{"name":"阿佐谷図書館","province":"東京都","city":"杉並区","address":"東京都杉並区阿佐谷北3丁目36-14","lat":35.711692,"lon":139.633234},{"name":"南荻窪図書館","province":"東京都","city":"杉並区","address":"東京都杉並区南荻窪1丁目10-2","lat":35.695049,"lon":139.614458},{"name":"下井草図書館","province":"東京都","city":"杉並区","address":"東京都杉並区下井草3丁目26-5","lat":35.720907,"lon":139.623265},{"name":"高井戸図書館","province":"東京都","city":"杉並区","address":"東京都杉並区高井戸東1丁目28-1","lat":35.681597,"lon":139.622938},{"name":"方南図書館","province":"東京都","city":"杉並区","address":"東京都杉並区方南1丁目51-2","lat":35.67908,"lon":139.659913},{"name":"今川図書館","province":"東京都","city":"杉並区","address":"東京都杉並区今川4丁目12-10","lat":35.715598,"lon":139.599856},{"name":"就労支援センター","province":"東京都","city":"杉並区","address":"東京都杉並区天沼3丁目19-16ウェルファーム杉並複合施設棟1階","lat":35.710095,"lon":139.620796},{"name":"太田黒公園","province":"東京都","city":"杉並区","address":"東京都杉並区荻窪3丁目33-12","lat":35.700751,"lon":139.624424},{"name":"角川庭園","province":"東京都","city":"杉並区","address":"東京都杉並区荻窪3丁目14-22","lat":35.698688,"lon":139.624437}]}