{"keyword":"し尿","data":[{"name":"小金井市立清里少年自然の家","province":"山梨県","city":"北杜市","address":"山梨県北杜市高根町清里字念場原3545-1","lat":35.923233,"lon":138.435074},{"name":"小金井市立清里少年自然の家","province":"山梨県","city":"北杜市","address":"山梨県北杜市高根町清里字念場原3545-1","lat":35.923233,"lon":138.435074},{"name":"小金井市立清里少年自然の家","province":"山梨県","city":"北杜市","address":"山梨県北杜市高根町清里字念場原3545-1","lat":35.923233,"lon":138.435074},{"name":"小金井市立清里少年自然の家","province":"山梨県","city":"北杜市","address":"山梨県北杜市高根町清里字念場原3545-1","lat":35.923233,"lon":138.435074},{"name":"小金井市立清里少年自然の家","province":"山梨県","city":"北杜市","address":"山梨県北杜市高根町清里字念場原3545-1","lat":35.923233,"lon":138.435074},{"name":"小金井市立清里少年自然の家","province":"山梨県","city":"北杜市","address":"山梨県北杜市高根町清里字念場原3545-1","lat":35.923233,"lon":138.435074},{"name":"小金井市立清里少年自然の家","province":"山梨県","city":"北杜市","address":"山梨県北杜市高根町清里字念場原3545-1","lat":35.923233,"lon":138.435074},{"name":"小金井市立清里少年自然の家","province":"山梨県","city":"北杜市","address":"山梨県北杜市高根町清里字念場原3545-1","lat":35.923233,"lon":138.435074},{"name":"小金井市立清里少年自然の家","province":"山梨県","city":"北杜市","address":"山梨県北杜市高根町清里字念場原3545-1","lat":35.923233,"lon":138.435074},{"name":"小金井市立清里少年自然の家","province":"山梨県","city":"北杜市","address":"山梨県北杜市高根町清里字念場原3545-1","lat":35.923233,"lon":138.435074},{"name":"小金井市立清里少年自然の家","province":"山梨県","city":"北杜市","address":"山梨県北杜市高根町清里字念場原3545-1","lat":35.923233,"lon":138.435074}]}