{"keyword":"多摩","data":[{"name":"多摩市立永山公民館","province":"東京都","city":"多摩市","address":"多摩市永山1-5ベルブ永山内","lat":35.628471,"lon":139.448685},{"name":"多摩市立関戸公民館","province":"東京都","city":"多摩市","address":"多摩市関戸4-72","lat":35.649632,"lon":139.447052},{"name":"多摩市立八ヶ岳少年自然の家","province":"長野県","city":"諏訪郡富士見町","address":"長野県諏訪郡富士見町立沢字広原1-1205","lat":35.954502,"lon":138.281616},{"name":"多摩市立図書館行政資料室","province":"東京都","city":"多摩市","address":"多摩市関戸6-12-1","lat":35.637653,"lon":139.447174},{"name":"多摩市立唐木田図書館","province":"東京都","city":"多摩市","address":"多摩市鶴牧6-14からきだ菖蒲館1階","lat":35.615395,"lon":139.4133},{"name":"多摩市立永山図書館","province":"東京都","city":"多摩市","address":"多摩市永山1-5ベルブ永山3階","lat":35.649658,"lon":139.444519},{"name":"多摩市立関戸図書館","province":"東京都","city":"多摩市","address":"多摩市関戸1-1-5ザ・スクエア2階","lat":35.652576,"lon":139.443283},{"name":"多摩市立図書館（本館）","province":"東京都","city":"多摩市","address":"多摩市落合2-29","lat":35.617672,"lon":139.425507},{"name":"多摩市立聖ヶ丘図書館","province":"東京都","city":"多摩市","address":"多摩市聖ヶ丘2-21-1","lat":35.631653,"lon":139.457489},{"name":"多摩市立東寺方図書館","province":"東京都","city":"多摩市","address":"多摩市東寺方626-7","lat":35.6422,"lon":139.437103},{"name":"多摩市立豊ヶ丘図書館","province":"東京都","city":"多摩市","address":"多摩市豊ヶ丘5-6","lat":35.614616,"lon":139.434418},{"name":"旧加藤家","province":"東京都","city":"多摩市","address":"多摩市南野2-13","lat":35.606644,"lon":139.434525},{"name":"旧多摩聖蹟記念館","province":"東京都","city":"多摩市","address":"多摩市連光寺5-1-1","lat":35.638466,"lon":139.461655},{"name":"旧富澤家","province":"東京都","city":"多摩市","address":"多摩市落合2-35","lat":35.621365,"lon":139.425766},{"name":"旧有山家","province":"東京都","city":"多摩市","address":"多摩市南野2-13","lat":35.606644,"lon":139.434525}]}