{"keyword":"ホーム","data":[{"name":"ひまわりホーム","province":"東京都","city":"新宿区","address":"新宿区西新宿4-21-19","lat":35.687954,"lon":139.683782},{"name":"あじさいホーム","province":"東京都","city":"新宿区","address":"新宿区西早稲田1-11-10","lat":35.711098,"lon":139.722617},{"name":"諏訪ハウス","province":"東京都","city":"新宿区","address":"新宿区高田馬場1-15-6","lat":35.709909,"lon":139.706405},{"name":"フロム千束","province":"東京都","city":"台東区","address":"台東区千束3-28-13","lat":35.723086,"lon":139.793627},{"name":"サンライズレジデンス","province":"東京都","city":"墨田区","address":"墨田区東駒形3-2-4","lat":35.705658,"lon":139.803527},{"name":"目黒区東が丘障害福祉施設（東が丘あじさいホーム）","province":"東京都","city":"目黒区","address":"目黒区東が丘1-21-15","lat":35.627444,"lon":139.667838},{"name":"コーポ友愛","province":"東京都","city":"世田谷区","address":"世田谷区砧3-9-11","lat":35.635753,"lon":139.613573},{"name":"ダルクホーム","province":"東京都","city":"荒川区","address":"荒川区東日暮里3-10-6","lat":35.728475,"lon":139.781986},{"name":"さくら","province":"東京都","city":"八王子市","address":"八王子市川口町1543-1","lat":35.683503,"lon":139.29724},{"name":"湯舟福祉ホーム","province":"東京都","city":"町田市","address":"町田市小野路町1733","lat":35.594818,"lon":139.449525},{"name":"コーポサンライズ","province":"東京都","city":"西多摩郡日の出町","address":"西多摩郡日の出町大字平井218-1","lat":35.736948,"lon":139.277464},{"name":"さくら","province":"東京都","city":"八王子市","address":"八王子市川口町1543-1","lat":35.68366,"lon":139.29678}]}