{"keyword":"投票","data":[{"name":"期日前投票所","province":"東京都","city":"清瀬市","address":"東京都清瀬市中里5-842","lat":35.785761,"lon":139.526422},{"name":"期日前投票所","province":"東京都","city":"清瀬市","address":"東京都清瀬市元町1-2-11","lat":35.772182,"lon":139.521154},{"name":"第1投票所","province":"東京都","city":"清瀬市","address":"東京都清瀬市旭が丘2-8-1","lat":35.796663,"lon":139.539587},{"name":"第2投票所","province":"東京都","city":"清瀬市","address":"東京都清瀬市下宿2-524-1","lat":35.797491,"lon":139.533321},{"name":"第3投票所","province":"東京都","city":"清瀬市","address":"東京都清瀬市中里5-842","lat":35.786064,"lon":139.526056},{"name":"第4投票所","province":"東京都","city":"清瀬市","address":"東京都清瀬市元町1-2-11","lat":35.772182,"lon":139.521154},{"name":"第5投票所","province":"東京都","city":"清瀬市","address":"東京都清瀬市松山2-6-25","lat":35.770989,"lon":139.514809},{"name":"第6投票所","province":"東京都","city":"清瀬市","address":"東京都清瀬市松山3-1-92","lat":35.767974,"lon":139.512557},{"name":"第7投票所","province":"東京都","city":"清瀬市","address":"東京都清瀬市竹丘1-11-1","lat":35.765849,"lon":139.51142},{"name":"第8投票所","province":"東京都","city":"清瀬市","address":"東京都清瀬市梅園2-9-45","lat":35.771788,"lon":139.504655},{"name":"第9投票所","province":"東京都","city":"清瀬市","address":"東京都清瀬市野塩1-322-2","lat":35.779163,"lon":139.499466},{"name":"第10投票所","province":"東京都","city":"清瀬市","address":"東京都清瀬市元町2-16-8","lat":35.775287,"lon":139.511307},{"name":"第11投票所","province":"東京都","city":"清瀬市","address":"東京都清瀬市中里4-1301","lat":35.78652,"lon":139.514166},{"name":"第12投票所","province":"東京都","city":"清瀬市","address":"東京都清瀬市中清戸3-258-1","lat":35.775094,"lon":139.534001}]}