{"category":"toilet","data":[{"name":"巣鴨駅前公衆便所","address":"東京都豊島区巣鴨1-16-1","lat":35.73308333,"lon":139.7394444,"males_count":1,"females_count":1,"multipurposes_count":0},{"name":"巣鴨三丁目公衆便所","address":"東京都豊島区巣鴨3-35-8","lat":35.73597222,"lon":139.7355556,"males_count":1,"females_count":2,"multipurposes_count":0},{"name":"庚申塚広場公衆便所","address":"東京都豊島区西巣鴨2-32-9","lat":35.73955556,"lon":139.7297222,"males_count":1,"females_count":1,"multipurposes_count":0},{"name":"大塚駅前公衆便所","address":"東京都豊島区南大塚3-33-1","lat":35.73177778,"lon":139.7288889,"males_count":1,"females_count":2,"multipurposes_count":1},{"name":"池袋駅北口前公衆便所","address":"東京都豊島区西池袋1-1-40","lat":35.73166667,"lon":139.7113889,"males_count":1,"females_count":2,"multipurposes_count":1},{"name":"目白駅前公衆便所","address":"東京都豊島区目白3-3-1","lat":35.72130556,"lon":139.7069444,"males_count":1,"females_count":2,"multipurposes_count":0},{"name":"江東区立万年橋際公衆便所","address":"東京都江東区清澄2-14-9","lat":35.68322,"lon":139.794785,"males_count":2,"females_count":0,"multipurposes_count":1},{"name":"江東区立清澄児童遊園内公衆便所","address":"東京都江東区清澄3-3-16","lat":35.681236,"lon":139.79866,"males_count":2,"females_count":0,"multipurposes_count":0},{"name":"江東区立高橋際公衆便所","address":"東京都江東区清澄3-11-1","lat":35.683472,"lon":139.798477,"males_count":2,"females_count":0,"multipurposes_count":1},{"name":"江東区立猿子橋際公衆便所","address":"東京都江東区常盤1-11-11","lat":35.685356,"lon":139.796173,"males_count":1,"females_count":0,"multipurposes_count":0},{"name":"江東区立新大橋際公衆便所","address":"東京都江東区新大橋1-2-1","lat":35.687813,"lon":139.793106,"males_count":2,"females_count":0,"multipurposes_count":0},{"name":"江東区立八名川公園内公衆便所","address":"東京都江東区新大橋3-1-18","lat":35.686428,"lon":139.796021,"males_count":2,"females_count":0,"multipurposes_count":1},{"name":"江東区立森下公園内公衆便所","address":"東京都江東区森下2-5-16","lat":35.686226,"lon":139.799454,"males_count":1,"females_count":0,"multipurposes_count":1},{"name":"江東区立五間堀公園内公衆便所","address":"東京都江東区森下2-30-7","lat":35.689262,"lon":139.798416,"males_count":2,"females_count":0,"multipurposes_count":1},{"name":"江東区立伊予橋際公衆便所","address":"東京都江東区森下2-31-2","lat":35.688274,"lon":139.800369,"males_count":2,"females_count":0,"multipurposes_count":1},{"name":"江東区立高森公園内公衆便所","address":"東京都江東区森下3-13-9","lat":35.68515,"lon":139.802989,"males_count":1,"females_count":0,"multipurposes_count":1},{"name":"江東区立森下四丁目児童遊園内公衆便所","address":"東京都江東区森下4-16-2","lat":35.686027,"lon":139.803661,"males_count":1,"females_count":0,"multipurposes_count":1},{"name":"江東区立平野二丁目児童遊園内公衆便所","address":"東京都江東区平野2-8-2","lat":35.678649,"lon":139.80274,"males_count":1,"females_count":0,"multipurposes_count":1},{"name":"江東区立永本橋際公衆便所","address":"東京都江東区平野2-15-12","lat":35.677501,"lon":139.804367,"males_count":1,"females_count":0,"multipurposes_count":0},{"name":"江東区立三好三丁目児童遊園内公衆便所","address":"東京都江東区三好3-1-10","lat":35.680079,"lon":139.804514,"males_count":1,"females_count":0,"multipurposes_count":1},{"name":"江東区立正覚院前公衆便所","address":"東京都江東区白河1-3-34","lat":35.680798,"lon":139.799708,"males_count":2,"females_count":0,"multipurposes_count":0},{"name":"江東区立白河一丁目公園内公衆便所","address":"東京都江東区白河1-5-4","lat":35.68323,"lon":139.800755,"males_count":1,"females_count":0,"multipurposes_count":1},{"name":"江東区立東深川橋際公衆便所","address":"東京都江東区白河3-18-17","lat":35.68377,"lon":139.803759,"males_count":1,"females_count":1,"multipurposes_count":1},{"name":"江東区立元加賀公園内公衆便所","address":"東京都江東区白河4-3-27","lat":35.681761,"lon":139.809017,"males_count":2,"females_count":1,"multipurposes_count":1},{"name":"江東区立佐賀二丁目公衆便所","address":"東京都江東区佐賀2-1-6","lat":35.679932,"lon":139.791092,"males_count":3,"females_count":1,"multipurposes_count":1},{"name":"江東区立永代橋際公衆便所","address":"東京都江東区永代1-1-4","lat":35.675694,"lon":139.788923,"males_count":1,"females_count":1,"multipurposes_count":1},{"name":"江東区立黒亀橋際公衆便所","address":"東京都江東区深川1-3-10先","lat":35.675453,"lon":139.795974,"males_count":1,"females_count":0,"multipurposes_count":1},{"name":"江東区立亀堀公園内公衆便所","address":"東京都江東区深川1-6-38","lat":35.67723,"lon":139.794863,"males_count":1,"females_count":0,"multipurposes_count":0},{"name":"江東区立臨海公園内公衆便所","address":"東京都江東区門前仲町1-1-1","lat":35.671923,"lon":139.792959,"males_count":2,"females_count":1,"multipurposes_count":1},{"name":"江東区立門前仲町一丁目公衆便所","address":"東京都江東区門前仲町1-7-7","lat":35.672844,"lon":139.794813,"males_count":3,"females_count":0,"multipurposes_count":1},{"name":"江東区立油堀川公園内公衆便所","address":"東京都江東区門前仲町1-20-1先","lat":35.67398,"lon":139.79562,"males_count":1,"females_count":1,"multipurposes_count":1},{"name":"江東区立深川公園内公衆便所","address":"東京都江東区富岡1-14-10","lat":35.672365,"lon":139.797476,"males_count":2,"females_count":2,"multipurposes_count":1},{"name":"江東区立深川公園内第二公衆便所","address":"東京都江東区富岡1-16-10","lat":35.671976,"lon":139.798974,"males_count":2,"females_count":0,"multipurposes_count":0},{"name":"江東区立汐見橋際公衆便所","address":"東京都江東区富岡2-13-5","lat":35.669544,"lon":139.80144,"males_count":2,"females_count":1,"multipurposes_count":0},{"name":"江東区立牡丹町公園内公衆便所","address":"東京都江東区牡丹2-1-2","lat":35.669898,"lon":139.795253,"males_count":2,"females_count":1,"multipurposes_count":1},{"name":"江東区立古石場川親水公園内公衆便所","address":"東京都江東区古石場2-13ー先","lat":35.667638,"lon":139.799246,"males_count":1,"females_count":0,"multipurposes_count":0},{"name":"江東区立古石場三丁目公園内公衆便所","address":"東京都江東区古石場3-1-4","lat":35.665059,"lon":139.801555,"males_count":1,"females_count":0,"multipurposes_count":1},{"name":"江東区立越中島公園内公衆便所","address":"東京都江東区越中島1-3-23","lat":35.668658,"lon":139.790019,"males_count":3,"females_count":1,"multipurposes_count":0},{"name":"江東区立越中島公園内第二公衆便所","address":"東京都江東区越中島1-3-23","lat":35.670967,"lon":139.788716,"males_count":2,"females_count":1,"multipurposes_count":0},{"name":"江東区立浜園橋際公衆便所","address":"東京都江東区塩浜1-3-24","lat":35.662402,"lon":139.79937,"males_count":1,"females_count":0,"multipurposes_count":0},{"name":"江東区立浜園公園内公衆便所","address":"東京都江東区塩浜1-4-4","lat":35.661871,"lon":139.802129,"males_count":1,"females_count":1,"multipurposes_count":1},{"name":"江東区立塩浜一丁目公園内公衆便所","address":"東京都江東区塩浜1-5-5","lat":35.659569,"lon":139.801381,"males_count":2,"females_count":0,"multipurposes_count":0},{"name":"江東区立塩浜公園内公衆便所","address":"東京都江東区塩浜2-10-14","lat":35.664015,"lon":139.808891,"males_count":1,"females_count":1,"multipurposes_count":1},{"name":"江東区立塩浜二丁目第二公園内公衆便所","address":"東京都江東区塩浜2-17-8","lat":35.662333,"lon":139.810215,"males_count":1,"females_count":0,"multipurposes_count":1},{"name":"江東区立しおかぜ橋塩浜公園内公衆便所","address":"東京都江東区塩浜2-18-4","lat":35.662039,"lon":139.81103,"males_count":2,"females_count":0,"multipurposes_count":0},{"name":"江東区立塩浜二丁目公園内公衆便所","address":"東京都江東区塩浜2-25-16","lat":35.664624,"lon":139.814968,"males_count":1,"females_count":0,"multipurposes_count":1},{"name":"江東区立枝川一丁目公園内公衆便所","address":"東京都江東区枝川1-6-19","lat":35.657361,"lon":139.80342,"males_count":1,"females_count":0,"multipurposes_count":1},{"name":"江東区立朝凪公園内公衆便所","address":"東京都江東区枝川1-8-5","lat":35.657941,"lon":139.801984,"males_count":3,"females_count":2,"multipurposes_count":1},{"name":"江東区立枝川橋第三児童遊園内公衆便所","address":"東京都江東区枝川2-4-17","lat":35.657936,"lon":139.805571,"males_count":1,"females_count":0,"multipurposes_count":0},{"name":"江東区立枝川三丁目公園内公衆便所","address":"東京都江東区枝川3-3-5","lat":35.658924,"lon":139.808339,"males_count":1,"females_count":1,"multipurposes_count":1},{"name":"江東区立豊洲一丁目第二公園内公衆便所","address":"東京都江東区豊洲1-2-1","lat":35.6598,"lon":139.792163,"males_count":1,"females_count":1,"multipurposes_count":1},{"name":"江東区立豊洲駅前公衆便所","address":"東京都江東区豊洲2-2-4","lat":35.655243,"lon":139.795452,"males_count":3,"females_count":2,"multipurposes_count":1},{"name":"江東区立豊洲公園内公衆便所","address":"東京都江東区豊洲2-3-6","lat":35.653499,"lon":139.793515,"males_count":5,"females_count":4,"multipurposes_count":1},{"name":"江東区立豊洲三丁目公園内公衆便所","address":"東京都江東区豊洲3-5-11","lat":35.658055,"lon":139.797034,"males_count":2,"females_count":1,"multipurposes_count":0},{"name":"江東区立豊洲四丁目公園内公衆便所","address":"東京都江東区豊洲4-5-30先","lat":35.654929,"lon":139.798397,"males_count":1,"females_count":0,"multipurposes_count":1},{"name":"江東区立豊洲五丁目公園内公衆便所","address":"東京都江東区豊洲5-3-1","lat":35.653152,"lon":139.795867,"males_count":2,"females_count":0,"multipurposes_count":1},{"name":"江東区立豊洲六丁目第二公園内公衆便所","address":"東京都江東区豊洲6-2-1","lat":35.650692,"lon":139.792814,"males_count":1,"females_count":1,"multipurposes_count":1},{"name":"江東区立豊洲六丁目公園内公衆便所","address":"東京都江東区豊洲6-2-35","lat":35.645875,"lon":139.791309,"males_count":2,"females_count":2,"multipurposes_count":0},{"name":"江東区立豊洲ぐるり公園内公衆便所","address":"東京都江東区豊洲6-5-33","lat":35.640378,"lon":139.779113,"males_count":4,"females_count":2,"multipurposes_count":1},{"name":"江東区立東雲緑道公園内公衆便所","address":"東京都江東区東雲1-7-4","lat":35.645792,"lon":139.800728,"males_count":1,"females_count":0,"multipurposes_count":0},{"name":"江東区立東雲水辺公園内第一公衆便所","address":"東京都江東区東雲1-9-58","lat":35.645792,"lon":139.800728,"males_count":3,"females_count":2,"multipurposes_count":0},{"name":"江東区立東雲水辺公園内第二公衆便所","address":"東京都江東区東雲1-9-58","lat":35.648752,"lon":139.805219,"males_count":1,"females_count":1,"multipurposes_count":0},{"name":"江東区立東雲公園内公衆便所","address":"東京都江東区東雲2-4-17","lat":35.645532,"lon":139.805685,"males_count":1,"females_count":1,"multipurposes_count":0},{"name":"江東区立東雲二丁目公園内公衆便所","address":"東京都江東区東雲2-7-6","lat":35.642874,"lon":139.803949,"males_count":2,"females_count":1,"multipurposes_count":0},{"name":"江東区立東雲駅前公衆便所","address":"東京都江東区東雲2-8-6","lat":35.640795,"lon":139.804662,"males_count":2,"females_count":0,"multipurposes_count":1},{"name":"江東区立辰巳駅前公衆便所","address":"東京都江東区辰巳1-1-40","lat":35.646838,"lon":139.808929,"males_count":3,"females_count":2,"multipurposes_count":1},{"name":"江東区立潮見さざなみ公園内公衆便所","address":"東京都江東区潮見1-29-24","lat":35.65519,"lon":139.816055,"males_count":3,"females_count":2,"multipurposes_count":0},{"name":"江東区立潮見駅前公衆便所","address":"東京都江東区潮見2-7-15","lat":35.658886,"lon":139.816759,"males_count":4,"females_count":1,"multipurposes_count":1},{"name":"江東区立豊住橋際公衆便所","address":"東京都江東区千石2-1-6","lat":35.676485,"lon":139.815617,"males_count":3,"females_count":2,"multipurposes_count":1},{"name":"江東区立千石公園内公衆便所","address":"東京都江東区千石2-7-4","lat":35.679379,"lon":139.815534,"males_count":1,"females_count":0,"multipurposes_count":1},{"name":"江東区立川南公園内公衆便所","address":"東京都江東区千石2-9-22","lat":35.679028,"lon":139.817206,"males_count":2,"females_count":0,"multipurposes_count":0},{"name":"江東区立仙台堀川親水公園内第二公衆便所","address":"東京都江東区千石3-1-12先","lat":35.676538,"lon":139.818079,"males_count":3,"females_count":2,"multipurposes_count":0},{"name":"江東区立千砂橋際公衆便所","address":"東京都江東区千石3-1-46","lat":35.678399,"lon":139.820001,"males_count":2,"females_count":0,"multipurposes_count":0},{"name":"江東区立扇橋公園内公衆便所","address":"東京都江東区石島18-23","lat":35.680601,"lon":139.811842,"males_count":1,"females_count":1,"multipurposes_count":1},{"name":"江東区立江東公園内公衆便所","address":"東京都江東区千田17-5","lat":35.682428,"lon":139.816412,"males_count":2,"females_count":0,"multipurposes_count":0},{"name":"江東区立川南海辺公園内公衆便所","address":"東京都江東区海辺1-3","lat":35.680101,"lon":139.81736,"males_count":1,"females_count":0,"multipurposes_count":0},{"name":"江東区立ボート場内第二公衆便所","address":"東京都江東区海辺8-16先","lat":35.68126,"lon":139.820414,"males_count":1,"females_count":1,"multipurposes_count":0},{"name":"江東区立扇橋際公衆便所","address":"東京都江東区扇橋1-17-9","lat":35.682845,"lon":139.810292,"males_count":1,"females_count":0,"multipurposes_count":0},{"name":"江東区立扇橋一丁目児童遊園内公衆便所","address":"東京都江東区扇橋1-20ー先","lat":35.68326,"lon":139.810801,"males_count":1,"females_count":0,"multipurposes_count":1},{"name":"江東区立扇橋一丁目公園内公衆便所","address":"東京都江東区扇橋1-21-28","lat":35.683998,"lon":139.811348,"males_count":1,"females_count":0,"multipurposes_count":1},{"name":"江東区立岩井橋際公衆便所","address":"東京都江東区扇橋3-7-1","lat":35.682367,"lon":139.820547,"males_count":2,"females_count":0,"multipurposes_count":0},{"name":"江東区立三島橋公園内公衆便所","address":"東京都江東区扇橋3-7-16","lat":35.683172,"lon":139.82053,"males_count":3,"females_count":1,"multipurposes_count":0},{"name":"江東区立扇橋三丁目公園内公衆便所","address":"東京都江東区扇橋3-20-11","lat":35.684014,"lon":139.81868,"males_count":1,"females_count":0,"multipurposes_count":1},{"name":"江東区立小松橋際児童遊園内公衆便所","address":"東京都江東区猿江1-5-18","lat":35.68488,"lon":139.812419,"males_count":1,"females_count":0,"multipurposes_count":1},{"name":"江東区立猿江一丁目公園内公衆便所","address":"東京都江東区猿江1-11-5","lat":35.686457,"lon":139.812781,"males_count":1,"females_count":0,"multipurposes_count":1},{"name":"江東区立猿江二丁目公園内公衆便所","address":"東京都江東区猿江2-3-10","lat":35.686046,"lon":139.815286,"males_count":2,"females_count":0,"multipurposes_count":0},{"name":"江東区立住吉一丁目公園内公衆便所","address":"東京都江東区住吉1-8-13","lat":35.687419,"lon":139.811797,"males_count":1,"females_count":0,"multipurposes_count":0},{"name":"江東区立住利公園内公衆便所","address":"東京都江東区住吉1-19-20","lat":35.690044,"lon":139.812689,"males_count":1,"females_count":0,"multipurposes_count":0},{"name":"江東区立猿江公園内公衆便所","address":"東京都江東区住吉2-28-26","lat":35.688923,"lon":139.817355,"males_count":2,"females_count":0,"multipurposes_count":0},{"name":"江東区立木場二丁目公園内公衆便所","address":"東京都江東区木場2-11-9先","lat":35.670323,"lon":139.804398,"males_count":1,"females_count":0,"multipurposes_count":0},{"name":"江東区立舟木橋公衆便所","address":"東京都江東区木場2-18-14","lat":35.669672,"lon":139.8048,"males_count":2,"females_count":0,"multipurposes_count":1},{"name":"江東区立木場橋公衆便所","address":"東京都江東区木場3-2-9","lat":35.672356,"lon":139.80502,"males_count":2,"females_count":0,"multipurposes_count":0},{"name":"江東区立亀居橋公衆便所","address":"東京都江東区木場3-17-6","lat":35.674544,"lon":139.806592,"males_count":3,"females_count":2,"multipurposes_count":1},{"name":"江東区立平久公園内公衆便所","address":"東京都江東区木場6-4-18","lat":35.666891,"lon":139.807599,"males_count":1,"females_count":0,"multipurposes_count":1},{"name":"江東区立木場六丁目児童遊園内公衆便所","address":"東京都江東区木場6-13-7","lat":35.668219,"lon":139.80781,"males_count":1,"females_count":0,"multipurposes_count":1},{"name":"江東区立南開橋第二児童遊園内公衆便所","address":"東京都江東区東陽1-21-6","lat":35.666082,"lon":139.811225,"males_count":2,"females_count":0,"multipurposes_count":0},{"name":"江東区立東陽一丁目第二公園内公衆便所","address":"東京都江東区東陽1-39-8","lat":35.665908,"lon":139.812546,"males_count":1,"females_count":0,"multipurposes_count":1},{"name":"江東区立東陽三丁目公衆便所","address":"東京都江東区東陽3-20-1先","lat":35.668745,"lon":139.810921,"males_count":1,"females_count":0,"multipurposes_count":0},{"name":"江東区立東陽公園内公衆便所","address":"東京都江東区東陽3-27-27","lat":35.669781,"lon":139.815615,"males_count":3,"females_count":1,"multipurposes_count":0},{"name":"江東区立横十間川親水公園内生物の楽園際公衆便所","address":"東京都江東区東陽4-12-16先","lat":35.6744,"lon":139.819411,"males_count":1,"females_count":0,"multipurposes_count":0},{"name":"江東区立東陽五丁目公園内公衆便所","address":"東京都江東区東陽5-29-39","lat":35.672688,"lon":139.813601,"males_count":1,"females_count":0,"multipurposes_count":1},{"name":"江東区立豊住公園内公衆便所","address":"東京都江東区東陽6-1-13","lat":35.673684,"lon":139.811241,"males_count":1,"females_count":0,"multipurposes_count":1},{"name":"江東区立東陽六丁目公衆便所","address":"東京都江東区東陽6-5-18","lat":35.675903,"lon":139.812343,"males_count":1,"females_count":0,"multipurposes_count":1},{"name":"江東区立亀島橋際公衆便所","address":"東京都江東区亀戸1-1-1","lat":35.693537,"lon":139.820087,"males_count":1,"females_count":0,"multipurposes_count":1},{"name":"江東区立亀戸西公園内公衆便所","address":"東京都江東区亀戸1-9-5","lat":35.695662,"lon":139.822687,"males_count":2,"females_count":0,"multipurposes_count":1},{"name":"江東区立亀戸公園内公衆便所","address":"東京都江東区亀戸1-22-11","lat":35.695483,"lon":139.823835,"males_count":2,"females_count":0,"multipurposes_count":1},{"name":"江東区立松代橋際公衆便所","address":"東京都江東区亀戸2-1-1先","lat":35.697062,"lon":139.81967,"males_count":1,"females_count":0,"multipurposes_count":0},{"name":"江東区立文泉公園内公衆便所","address":"東京都江東区亀戸2-4-13","lat":35.69812,"lon":139.821991,"males_count":2,"females_count":0,"multipurposes_count":0},{"name":"江東区立亀戸駅前公園内公衆便所","address":"東京都江東区亀戸2-21-9","lat":35.698046,"lon":139.824978,"males_count":5,"females_count":2,"multipurposes_count":1},{"name":"江東区立亀戸二丁目公園内公衆便所","address":"東京都江東区亀戸2-33-2","lat":35.700009,"lon":139.823481,"males_count":1,"females_count":0,"multipurposes_count":0},{"name":"江東区立亀戸天神際公衆便所","address":"東京都江東区亀戸3-6-39","lat":35.702109,"lon":139.821153,"males_count":2,"females_count":0,"multipurposes_count":0},{"name":"江東区立亀戸三丁目児童遊園内公衆便所","address":"東京都江東区亀戸3-12-10","lat":35.704212,"lon":139.819434,"males_count":1,"females_count":0,"multipurposes_count":0},{"name":"江東区立亀戸三丁目第二公衆便所","address":"東京都江東区亀戸3-36-20","lat":35.706783,"lon":139.819352,"males_count":2,"females_count":1,"multipurposes_count":0},{"name":"江東区立亀島公園内公衆便所","address":"東京都江東区亀戸3-39-16","lat":35.705552,"lon":139.822649,"males_count":1,"females_count":0,"multipurposes_count":1},{"name":"江東区立亀戸三丁目公衆便所","address":"東京都江東区亀戸3-57-22","lat":35.703454,"lon":139.825046,"males_count":2,"females_count":0,"multipurposes_count":1},{"name":"江東区立亀戸三丁目公園内公衆便所","address":"東京都江東区亀戸3-59-8","lat":35.703153,"lon":139.823967,"males_count":1,"females_count":0,"multipurposes_count":0},{"name":"江東区立香取公園内公衆便所","address":"東京都江東区亀戸4-27-6","lat":35.703529,"lon":139.827191,"males_count":2,"females_count":0,"multipurposes_count":0},{"name":"江東区立水神公園内公衆便所","address":"東京都江東区亀戸4-45-6","lat":35.702121,"lon":139.829417,"males_count":1,"females_count":0,"multipurposes_count":0},{"name":"江東区立亀戸五丁目公園内公衆便所","address":"東京都江東区亀戸5-24-4","lat":35.700155,"lon":139.82882,"males_count":1,"females_count":0,"multipurposes_count":1},{"name":"江東区立亀戸五丁目第二公園内公衆便所","address":"東京都江東区亀戸5-33-4","lat":35.698368,"lon":139.83016,"males_count":1,"females_count":0,"multipurposes_count":1},{"name":"江東区立亀戸南公園内公衆便所","address":"東京都江東区亀戸6-18-1","lat":35.695171,"lon":139.827851,"males_count":1,"females_count":0,"multipurposes_count":1},{"name":"江東区立竪川第二公園内公衆便所","address":"東京都江東区亀戸6-35-3","lat":35.694587,"lon":139.82987,"males_count":2,"females_count":0,"multipurposes_count":0},{"name":"江東区立亀戸平岩公園内公衆便所","address":"東京都江東区亀戸6-47-12","lat":35.694349,"lon":139.831937,"males_count":2,"females_count":0,"multipurposes_count":0},{"name":"江東区立亀戸東公園内公衆便所","address":"東京都江東区亀戸7-8-13","lat":35.696588,"lon":139.833881,"males_count":1,"females_count":1,"multipurposes_count":0},{"name":"江東区立亀戸七丁目北公園内公衆便所","address":"東京都江東区亀戸7-15-5","lat":35.697927,"lon":139.835447,"males_count":1,"females_count":0,"multipurposes_count":1},{"name":"江東区立亀戸七丁目南公園内公衆便所","address":"東京都江東区亀戸7-40-2","lat":35.696157,"lon":139.837881,"males_count":1,"females_count":0,"multipurposes_count":1},{"name":"江東区立亀戸七丁目西公園内公衆便所","address":"東京都江東区亀戸7-42-5","lat":35.696908,"lon":139.83524,"males_count":1,"females_count":0,"multipurposes_count":0},{"name":"江東区立亀戸七丁目公衆便所","address":"東京都江東区亀戸7-52-17","lat":35.69434,"lon":139.837132,"males_count":2,"females_count":0,"multipurposes_count":0},{"name":"江東区立八千代児童遊園内公衆便所","address":"東京都江東区亀戸8-6-6","lat":35.699536,"lon":139.833722,"males_count":1,"females_count":0,"multipurposes_count":0},{"name":"江東区立亀戸九丁目公衆便所","address":"東京都江東区亀戸9-15-1","lat":35.695984,"lon":139.844043,"males_count":1,"females_count":1,"multipurposes_count":1},{"name":"江東区立亀戸九丁目公園内公衆便所","address":"東京都江東区亀戸9-20-4","lat":35.698294,"lon":139.842712,"males_count":2,"females_count":0,"multipurposes_count":1},{"name":"江東区立亀戸九丁目緑道公園内公衆便所","address":"東京都江東区亀戸9-33-30","lat":35.700248,"lon":139.841511,"males_count":2,"females_count":0,"multipurposes_count":0},{"name":"江東区立亀戸運動公園内公衆便所","address":"東京都江東区亀戸9-37-23","lat":35.699068,"lon":139.837938,"males_count":3,"females_count":0,"multipurposes_count":0},{"name":"江東区立釜屋堀公衆便所","address":"東京都江東区大島1-2-26","lat":35.68654,"lon":139.820818,"males_count":1,"females_count":1,"multipurposes_count":1},{"name":"江東区立大島一丁目公園内公衆便所","address":"東京都江東区大島1-34-8","lat":35.688177,"lon":139.825825,"males_count":1,"females_count":0,"multipurposes_count":0},{"name":"江東区立大島二丁目公園内公衆便所","address":"東京都江東区大島2-11-7","lat":35.691555,"lon":139.823239,"males_count":1,"females_count":0,"multipurposes_count":0},{"name":"江東区立大島防災公園内公衆便所","address":"東京都江東区大島2-27-19","lat":35.691874,"lon":139.824114,"males_count":1,"females_count":1,"multipurposes_count":1},{"name":"江東区立五の橋際公衆便所","address":"東京都江東区大島2-31-1","lat":35.693385,"lon":139.825818,"males_count":1,"females_count":0,"multipurposes_count":1},{"name":"江東区立大島緑道公園内公衆便所","address":"東京都江東区大島3-22-1先","lat":35.692107,"lon":139.828604,"males_count":1,"females_count":0,"multipurposes_count":0},{"name":"江東区立大島三丁目公衆便所","address":"東京都江東区大島3-31-15","lat":35.689582,"lon":139.831241,"males_count":1,"females_count":0,"multipurposes_count":0},{"name":"江東区立進開橋際公衆便所","address":"東京都江東区大島4-1-25先","lat":35.685774,"lon":139.82681,"males_count":1,"females_count":0,"multipurposes_count":1},{"name":"江東区立大島四丁目公園内公衆便所","address":"東京都江東区大島4-17-9","lat":35.688024,"lon":139.831958,"males_count":1,"females_count":1,"multipurposes_count":1},{"name":"江東区立大島四丁目第二公園内公衆便所","address":"東京都江東区大島4-21-11","lat":35.686483,"lon":139.832287,"males_count":2,"females_count":0,"multipurposes_count":0},{"name":"江東区立大島五丁目児童遊園内公衆便所","address":"東京都江東区大島5-17-6","lat":35.688181,"lon":139.834303,"males_count":1,"females_count":0,"multipurposes_count":0},{"name":"江東区立大島五丁目公園内公衆便所","address":"東京都江東区大島5-27-16","lat":35.686588,"lon":139.836098,"males_count":2,"females_count":1,"multipurposes_count":1},{"name":"江東区立竪川河川敷公園内公衆便所","address":"東京都江東区大島6-2-3","lat":35.693807,"lon":139.833616,"males_count":1,"females_count":0,"multipurposes_count":1},{"name":"江東区立大島六丁目第二児童遊園内公衆便所","address":"東京都江東区大島6-15-5","lat":35.691058,"lon":139.835549,"males_count":1,"females_count":1,"multipurposes_count":0},{"name":"江東区立大島七丁目公園内公衆便所","address":"東京都江東区大島7-27-17","lat":35.692762,"lon":139.840567,"males_count":2,"females_count":1,"multipurposes_count":1},{"name":"江東区立大島八丁目公園内公衆便所","address":"東京都江東区大島8-11-7","lat":35.687694,"lon":139.839093,"males_count":2,"females_count":0,"multipurposes_count":0},{"name":"江東区立大島八丁目第二公園内公衆便所","address":"東京都江東区大島8-21-25","lat":35.688823,"lon":139.840298,"males_count":1,"females_count":1,"multipurposes_count":0},{"name":"江東区立東大島駅前公衆便所","address":"東京都江東区大島9-3-13","lat":35.690278,"lon":139.845487,"males_count":3,"females_count":1,"multipurposes_count":1},{"name":"江東区立旧中川・川の駅公衆便所","address":"東京都江東区大島9-10ー","lat":35.687541,"lon":139.846619,"males_count":3,"females_count":2,"multipurposes_count":1},{"name":"江東区立北砂水上公園横公衆便所","address":"東京都江東区北砂1-2ー先","lat":35.684938,"lon":139.821485,"males_count":2,"females_count":0,"multipurposes_count":1},{"name":"江東区立北砂第二公園内公衆便所","address":"東京都江東区北砂1-3-25","lat":35.684479,"lon":139.82372,"males_count":1,"females_count":1,"multipurposes_count":1},{"name":"江東区立北砂一丁目南公園内公衆便所","address":"東京都江東区北砂1-15-1","lat":35.677818,"lon":139.825498,"males_count":1,"females_count":0,"multipurposes_count":0},{"name":"江東区立北砂二丁目公園内公衆便所","address":"東京都江東区北砂2-9-14","lat":35.679141,"lon":139.826251,"males_count":1,"females_count":1,"multipurposes_count":1},{"name":"江東区立砂町中央公園内公衆便所","address":"東京都江東区北砂4-20-24","lat":35.676681,"lon":139.831798,"males_count":2,"females_count":0,"multipurposes_count":0},{"name":"江東区立亀高児童遊園内公衆便所","address":"東京都江東区北砂4-22-30","lat":35.678225,"lon":139.831787,"males_count":1,"females_count":0,"multipurposes_count":1},{"name":"江東区立北砂公園内公衆便所","address":"東京都江東区北砂5-1-2","lat":35.679901,"lon":139.83139,"males_count":2,"females_count":0,"multipurposes_count":0},{"name":"江東区立北砂五丁目公衆便所","address":"東京都江東区北砂5-20-13","lat":35.683989,"lon":139.832205,"males_count":1,"females_count":0,"multipurposes_count":0},{"name":"江東区立小名木川防災公園内公衆便所","address":"東京都江東区北砂5-21-5","lat":35.682931,"lon":139.83085,"males_count":1,"females_count":0,"multipurposes_count":1},{"name":"江東区立丸八児童遊園内公衆便所","address":"東京都江東区北砂6-16-12","lat":35.685356,"lon":139.837616,"males_count":2,"females_count":0,"multipurposes_count":0},{"name":"江東区立北砂六丁目公衆便所","address":"東京都江東区北砂6-20-19","lat":35.684453,"lon":139.838939,"males_count":2,"females_count":0,"multipurposes_count":0},{"name":"江東区立亀高公園内公衆便所","address":"東京都江東区北砂6-26-8","lat":35.681439,"lon":139.838582,"males_count":1,"females_count":0,"multipurposes_count":1},{"name":"江東区立仙台堀川親水公園内公衆便所","address":"東京都江東区北砂7-6ー先","lat":35.680177,"lon":139.83871,"males_count":3,"females_count":2,"multipurposes_count":1},{"name":"江東区立東砂一丁目公園内公衆便所","address":"東京都江東区東砂1-2-13","lat":35.683747,"lon":139.839701,"males_count":2,"females_count":1,"multipurposes_count":1},{"name":"江東区立東砂二丁目公衆便所","address":"東京都江東区東砂2-13-50","lat":35.684798,"lon":139.84385,"males_count":1,"females_count":1,"multipurposes_count":1},{"name":"江東区立東砂三丁目公園内公衆便所","address":"東京都江東区東砂3-16-8","lat":35.682255,"lon":139.841234,"males_count":1,"females_count":0,"multipurposes_count":1},{"name":"江東区立東砂三丁目第二公園内公衆便所","address":"東京都江東区東砂3-17-17","lat":35.681432,"lon":139.84234,"males_count":2,"females_count":0,"multipurposes_count":0},{"name":"江東区立城東公園内公衆便所","address":"東京都江東区東砂4-20-20","lat":35.678888,"lon":139.839406,"males_count":3,"females_count":2,"multipurposes_count":0},{"name":"江東区立東砂六丁目公園内公衆便所","address":"東京都江東区東砂6-19-8","lat":35.674454,"lon":139.841228,"males_count":1,"females_count":0,"multipurposes_count":0},{"name":"江東区立舟入川公衆便所","address":"東京都江東区東砂7-12-4","lat":35.672738,"lon":139.840693,"males_count":1,"females_count":1,"multipurposes_count":0},{"name":"江東区立砂町公園内公衆便所","address":"東京都江東区東砂7-15-3","lat":35.674175,"lon":139.839864,"males_count":1,"females_count":0,"multipurposes_count":1},{"name":"江東区立境川橋際公衆便所","address":"東京都江東区東砂7-18-10","lat":35.675472,"lon":139.83659,"males_count":4,"females_count":2,"multipurposes_count":0},{"name":"江東区立ボート場内公衆便所","address":"東京都江東区南砂1-1ー先","lat":35.676897,"lon":139.820207,"males_count":2,"females_count":0,"multipurposes_count":0},{"name":"江東区立南砂一丁目公園内公衆便所","address":"東京都江東区南砂1-1-5","lat":35.67676,"lon":139.821079,"males_count":1,"females_count":0,"multipurposes_count":1},{"name":"江東区立南砂一丁目第二公園内公衆便所","address":"東京都江東区南砂1-3-18","lat":35.678795,"lon":139.821827,"males_count":1,"females_count":0,"multipurposes_count":1},{"name":"江東区立松島橋際公衆便所","address":"東京都江東区南砂1-21-12","lat":35.676197,"lon":139.824398,"males_count":1,"females_count":0,"multipurposes_count":0},{"name":"江東区立南砂緑道公園内公衆便所","address":"東京都江東区南砂2-13-5先","lat":35.674134,"lon":139.82099,"males_count":1,"females_count":1,"multipurposes_count":1},{"name":"江東区立南砂緑道公園第二公衆便所","address":"東京都江東区南砂2-23-9","lat":35.673476,"lon":139.825008,"males_count":2,"females_count":0,"multipurposes_count":1},{"name":"江東区立南砂二丁目公園内公衆便所","address":"東京都江東区南砂2-24-4","lat":35.674727,"lon":139.824944,"males_count":1,"females_count":0,"multipurposes_count":1},{"name":"江東区立弾正橋際公衆便所","address":"東京都江東区南砂2-33-1","lat":35.675314,"lon":139.826701,"males_count":2,"females_count":1,"multipurposes_count":1},{"name":"江東区立日曹橋公園内公衆便所","address":"東京都江東区南砂3-1-1","lat":35.669872,"lon":139.827948,"males_count":1,"females_count":0,"multipurposes_count":0},{"name":"江東区立南砂三丁目公園内公衆便所","address":"東京都江東区南砂3-14-21","lat":35.669695,"lon":139.833396,"males_count":3,"females_count":2,"multipurposes_count":1},{"name":"江東区立南砂三丁目公園内第二公衆便所","address":"東京都江東区南砂3-14-21","lat":35.670968,"lon":139.833031,"males_count":2,"females_count":0,"multipurposes_count":1},{"name":"江東区立南砂四丁目西公園内公衆便所","address":"東京都江東区南砂4-3-21","lat":35.673945,"lon":139.827527,"males_count":1,"females_count":0,"multipurposes_count":0},{"name":"江東区立南砂四丁目公園内公衆便所","address":"東京都江東区南砂4-4-5","lat":35.674232,"lon":139.829909,"males_count":1,"females_count":0,"multipurposes_count":1},{"name":"江東区立砂町橋公園内公衆便所","address":"東京都江東区南砂4-12-1","lat":35.673601,"lon":139.832677,"males_count":1,"females_count":0,"multipurposes_count":1},{"name":"江東区立境川公園内公衆便所","address":"東京都江東区南砂5-6-1","lat":35.676296,"lon":139.828364,"males_count":1,"females_count":0,"multipurposes_count":1},{"name":"江東区立金森公園内公衆便所","address":"東京都江東区南砂5-19-13","lat":35.674811,"lon":139.832402,"males_count":1,"females_count":0,"multipurposes_count":1},{"name":"江東区立南砂六丁目公園内公衆便所","address":"東京都江東区南砂6-5-7","lat":35.673277,"lon":139.834263,"males_count":2,"females_count":0,"multipurposes_count":0},{"name":"江東区立八幡公衆便所","address":"東京都江東区南砂7-14-16","lat":35.668774,"lon":139.837856,"males_count":2,"females_count":0,"multipurposes_count":0},{"name":"江東区立新砂あゆみ公園内公衆便所","address":"東京都江東区新砂3-3-6","lat":35.668139,"lon":139.832039,"males_count":3,"females_count":2,"multipurposes_count":1},{"name":"江東区立新砂のぞみ公園内公衆便所","address":"東京都江東区新砂3-3-47","lat":35.666717,"lon":139.83066,"males_count":2,"females_count":1,"multipurposes_count":0},{"name":"江東区立新砂めぐみ公園内公衆便所","address":"東京都江東区新砂3-4-1","lat":35.666333,"lon":139.837874,"males_count":1,"females_count":1,"multipurposes_count":0},{"name":"江東区立新木場駅前公衆便所","address":"東京都江東区新木場1-5-10","lat":35.645304,"lon":139.825938,"males_count":5,"females_count":4,"multipurposes_count":1},{"name":"江東区立若洲公園内風車際公衆便所","address":"東京都江東区若洲3-2-1","lat":35.622505,"lon":139.834635,"males_count":7,"females_count":4,"multipurposes_count":0},{"name":"大井町駅前公衆便所","address":null,"lat":35.605663,"lon":139.734739,"males_count":5,"females_count":3,"multipurposes_count":0},{"name":"大崎橋公衆便所","address":null,"lat":35.624819,"lon":139.723825,"males_count":4,"females_count":2,"multipurposes_count":0},{"name":"東大井公衆便所","address":null,"lat":35.603819,"lon":139.740366,"males_count":3,"females_count":2,"multipurposes_count":0},{"name":"居木橋公衆便所","address":null,"lat":35.618108,"lon":139.733175,"males_count":3,"females_count":2,"multipurposes_count":0},{"name":"武蔵小山駅前公衆便所","address":null,"lat":35.619863,"lon":139.703321,"males_count":3,"females_count":2,"multipurposes_count":0},{"name":"新浜川橋北公衆便所","address":null,"lat":35.596642,"lon":139.740583,"males_count":9,"females_count":2,"multipurposes_count":0},{"name":"荏原町駅前公衆便所","address":null,"lat":35.603784,"lon":139.708096,"males_count":2,"females_count":0,"multipurposes_count":0},{"name":"大井水神南公衆便所","address":null,"lat":35.589756,"lon":139.729248,"males_count":3,"females_count":1,"multipurposes_count":0},{"name":"大井水神北公衆便所","address":null,"lat":35.59555,"lon":139.732645,"males_count":3,"females_count":1,"multipurposes_count":0},{"name":"弁天橋公衆便所","address":null,"lat":35.597647,"lon":139.738992,"males_count":5,"females_count":1,"multipurposes_count":0},{"name":"南大井公衆便所","address":null,"lat":35.594728,"lon":139.736628,"males_count":4,"females_count":2,"multipurposes_count":0},{"name":"水神公衆便所","address":null,"lat":35.591828,"lon":139.730223,"males_count":3,"females_count":2,"multipurposes_count":0},{"name":"新品川橋公衆便所","address":null,"lat":35.616795,"lon":139.745299,"males_count":4,"females_count":2,"multipurposes_count":0},{"name":"西小山駅前公衆便所","address":null,"lat":35.615138,"lon":139.698561,"males_count":3,"females_count":2,"multipurposes_count":0},{"name":"荏原橋公衆便所","address":null,"lat":35.603737,"lon":139.707099,"males_count":3,"females_count":1,"multipurposes_count":0},{"name":"平塚中央公衆便所","address":null,"lat":35.618608,"lon":139.717354,"males_count":0,"females_count":0,"multipurposes_count":0},{"name":"北品川２丁目公衆便所","address":null,"lat":35.617112,"lon":139.743827,"males_count":0,"females_count":0,"multipurposes_count":0},{"name":"三十五橋公衆便所","address":null,"lat":35.602024,"lon":139.709024,"males_count":3,"females_count":0,"multipurposes_count":0},{"name":"権現山公衆便所","address":null,"lat":35.618575,"lon":139.737766,"males_count":1,"females_count":1,"multipurposes_count":0},{"name":"新馬場北公衆便所","address":null,"lat":35.617634,"lon":139.741366,"males_count":3,"females_count":2,"multipurposes_count":1},{"name":"新馬場南公衆便所","address":null,"lat":35.615173,"lon":139.742477,"males_count":1,"females_count":1,"multipurposes_count":0},{"name":"鹿嶋公衆便所","address":null,"lat":35.59535,"lon":139.730095,"males_count":3,"females_count":2,"multipurposes_count":0},{"name":"西大井公衆便所","address":null,"lat":35.601793,"lon":139.721815,"males_count":7,"females_count":3,"multipurposes_count":1},{"name":"大井町緑地公衆便所","address":null,"lat":35.606854,"lon":139.733072,"males_count":3,"females_count":2,"multipurposes_count":0},{"name":"南品川六丁目公衆便所","address":null,"lat":35.610462,"lon":139.73734,"males_count":0,"females_count":0,"multipurposes_count":0},{"name":"かもめ橋公衆便所","address":null,"lat":35.600153,"lon":139.751255,"males_count":2,"females_count":1,"multipurposes_count":0},{"name":"旗の台一丁目公衆便所","address":null,"lat":35.610362,"lon":139.702134,"males_count":0,"females_count":0,"multipurposes_count":0},{"name":"荏原中延公衆便所","address":null,"lat":35.61,"lon":139.711985,"males_count":6,"females_count":2,"multipurposes_count":1},{"name":"青物横丁公衆便所","address":null,"lat":35.610018,"lon":139.742621,"males_count":1,"females_count":0,"multipurposes_count":0},{"name":"仙台坂上公衆便所","address":null,"lat":35.60701,"lon":139.73973,"males_count":4,"females_count":2,"multipurposes_count":0},{"name":"西大井六丁目公衆便所","address":null,"lat":35.601089,"lon":139.718661,"males_count":0,"females_count":0,"multipurposes_count":0},{"name":"西大井三丁目公衆便所","address":null,"lat":35.597035,"lon":139.723889,"males_count":0,"females_count":0,"multipurposes_count":0},{"name":"大井二丁目公衆便所","address":null,"lat":35.60425,"lon":139.727388,"males_count":0,"females_count":0,"multipurposes_count":0},{"name":"大井町駅東口公衆便所","address":null,"lat":35.605941,"lon":139.735136,"males_count":3,"females_count":2,"multipurposes_count":0},{"name":"不動前公衆便所","address":null,"lat":35.625918,"lon":139.714045,"males_count":2,"females_count":0,"multipurposes_count":0},{"name":"八ツ山の東司公衆便所","address":null,"lat":35.623805,"lon":139.73916,"males_count":1,"females_count":0,"multipurposes_count":0},{"name":"戸越公園（１）便所","address":null,"lat":35.611167,"lon":139.722392,"males_count":3,"females_count":1,"multipurposes_count":0},{"name":"東品川公園便所","address":null,"lat":35.61412,"lon":139.746038,"males_count":3,"females_count":1,"multipurposes_count":1},{"name":"荏原南公園便所","address":null,"lat":35.611467,"lon":139.702905,"males_count":3,"females_count":2,"multipurposes_count":0},{"name":"鮫洲運動公園（１）便所","address":null,"lat":35.605883,"lon":139.744994,"males_count":3,"females_count":1,"multipurposes_count":0},{"name":"小山台公園便所","address":null,"lat":35.625557,"lon":139.698802,"males_count":3,"females_count":2,"multipurposes_count":0},{"name":"三ツ木公園便所","address":null,"lat":35.614006,"lon":139.726217,"males_count":2,"females_count":1,"multipurposes_count":0},{"name":"東大井公園便所","address":null,"lat":35.604145,"lon":139.738783,"males_count":3,"females_count":1,"multipurposes_count":0},{"name":"東八ツ山公園便所","address":null,"lat":35.62468,"lon":139.743321,"males_count":3,"females_count":2,"multipurposes_count":0},{"name":"戸越公園（２）便所","address":null,"lat":35.611167,"lon":139.722392,"males_count":0,"females_count":0,"multipurposes_count":1},{"name":"荏原中央公園便所","address":null,"lat":35.61596,"lon":139.704166,"males_count":3,"females_count":0,"multipurposes_count":0},{"name":"大井海岸公園便所","address":null,"lat":35.588273,"lon":139.733698,"males_count":3,"females_count":1,"multipurposes_count":0},{"name":"天王洲公園（１）便所","address":null,"lat":35.619442,"lon":139.750193,"males_count":3,"females_count":2,"multipurposes_count":0},{"name":"天王洲公園（２）便所","address":null,"lat":35.619442,"lon":139.750193,"males_count":6,"females_count":2,"multipurposes_count":1},{"name":"子供の森公園便所","address":null,"lat":35.616362,"lon":139.738252,"males_count":4,"females_count":2,"multipurposes_count":0},{"name":"聖蹟公園便所","address":null,"lat":35.618809,"lon":139.743943,"males_count":1,"females_count":1,"multipurposes_count":0},{"name":"大井坂下公園便所","address":null,"lat":35.589429,"lon":139.730671,"males_count":3,"females_count":2,"multipurposes_count":0},{"name":"そよかぜ公園便所","address":null,"lat":35.612012,"lon":139.726764,"males_count":2,"females_count":1,"multipurposes_count":0},{"name":"西五反田公園便所","address":null,"lat":35.624324,"lon":139.715523,"males_count":3,"females_count":1,"multipurposes_count":0},{"name":"新浜川公園便所","address":null,"lat":35.598011,"lon":139.740961,"males_count":2,"females_count":1,"multipurposes_count":0},{"name":"大井公園（１）便所","address":null,"lat":35.60536,"lon":139.740655,"males_count":2,"females_count":1,"multipurposes_count":0},{"name":"わかくさ公園便所","address":null,"lat":35.598042,"lon":139.744147,"males_count":0,"females_count":0,"multipurposes_count":0},{"name":"しながわ区民公園（１）便所","address":null,"lat":35.593495,"lon":139.737837,"males_count":3,"females_count":1,"multipurposes_count":0},{"name":"大崎公園便所","address":null,"lat":35.622921,"lon":139.72416,"males_count":1,"females_count":1,"multipurposes_count":0},{"name":"希望ヶ丘公園便所","address":null,"lat":35.631598,"lon":139.718203,"males_count":0,"females_count":0,"multipurposes_count":0},{"name":"大井中央公園便所","address":null,"lat":35.604361,"lon":139.732117,"males_count":2,"females_count":1,"multipurposes_count":0},{"name":"旗の台南公園便所","address":null,"lat":35.603629,"lon":139.702219,"males_count":1,"females_count":1,"multipurposes_count":0},{"name":"戸越台公園便所","address":null,"lat":35.616153,"lon":139.71757,"males_count":0,"females_count":0,"multipurposes_count":0},{"name":"二日市公園便所","address":null,"lat":35.611429,"lon":139.739069,"males_count":3,"females_count":1,"multipurposes_count":0},{"name":"浜川公園便所","address":null,"lat":35.596983,"lon":139.735423,"males_count":3,"females_count":2,"multipurposes_count":1},{"name":"小山台東公園便所","address":null,"lat":35.622229,"lon":139.706338,"males_count":0,"females_count":0,"multipurposes_count":0},{"name":"西大井広場公園（１）便所","address":null,"lat":35.601827,"lon":139.722981,"males_count":3,"females_count":1,"multipurposes_count":0},{"name":"西霧ヶ谷公園便所","address":null,"lat":35.623066,"lon":139.711773,"males_count":3,"females_count":1,"multipurposes_count":0},{"name":"北浜公園便所","address":null,"lat":35.617417,"lon":139.744921,"males_count":2,"females_count":1,"multipurposes_count":0},{"name":"鈴ヶ森公園便所","address":null,"lat":35.593339,"lon":139.734962,"males_count":2,"females_count":0,"multipurposes_count":1},{"name":"鮫洲運動公園（２）便所","address":null,"lat":35.605883,"lon":139.744994,"males_count":2,"females_count":0,"multipurposes_count":1},{"name":"京陽公園便所","address":null,"lat":35.616802,"lon":139.713248,"males_count":0,"females_count":0,"multipurposes_count":0},{"name":"西品川公園便所","address":null,"lat":35.612826,"lon":139.730885,"males_count":2,"females_count":1,"multipurposes_count":1},{"name":"敬老公園便所","address":null,"lat":35.612737,"lon":139.750371,"males_count":1,"females_count":1,"multipurposes_count":0},{"name":"天王洲公園（３）便所","address":null,"lat":35.620878,"lon":139.749773,"males_count":0,"females_count":0,"multipurposes_count":0},{"name":"二葉公園便所","address":null,"lat":35.603746,"lon":139.71819,"males_count":2,"females_count":0,"multipurposes_count":1},{"name":"中延公園便所","address":null,"lat":35.611731,"lon":139.707968,"males_count":0,"females_count":0,"multipurposes_count":0},{"name":"西大井緑地公園便所","address":null,"lat":35.600234,"lon":139.720467,"males_count":0,"females_count":0,"multipurposes_count":0},{"name":"しながわ区民公園（２）便所","address":null,"lat":35.59084,"lon":139.738123,"males_count":5,"females_count":3,"multipurposes_count":1},{"name":"八潮公園便所","address":null,"lat":35.600345,"lon":139.753698,"males_count":2,"females_count":1,"multipurposes_count":1},{"name":"洲崎公園便所","address":null,"lat":35.617964,"lon":139.746171,"males_count":2,"females_count":0,"multipurposes_count":1},{"name":"原っぱ公園便所","address":null,"lat":35.601366,"lon":139.714599,"males_count":2,"females_count":1,"multipurposes_count":0},{"name":"御成橋公園便所","address":null,"lat":35.622347,"lon":139.728977,"males_count":2,"females_count":1,"multipurposes_count":0},{"name":"大井公園（２）便所","address":null,"lat":35.605296,"lon":139.741291,"males_count":2,"females_count":1,"multipurposes_count":0},{"name":"池田山公園便所","address":null,"lat":35.63212,"lon":139.722258,"males_count":3,"females_count":2,"multipurposes_count":1},{"name":"しながわ区民公園（３）便所","address":null,"lat":35.592801,"lon":139.738653,"males_count":5,"females_count":3,"multipurposes_count":1},{"name":"しながわ区民公園（４）便所","address":null,"lat":35.592801,"lon":139.738653,"males_count":4,"females_count":3,"multipurposes_count":1},{"name":"旗の台北公園便所","address":null,"lat":35.605725,"lon":139.704545,"males_count":0,"females_count":0,"multipurposes_count":0},{"name":"源氏前公園便所","address":null,"lat":35.602271,"lon":139.712182,"males_count":1,"females_count":1,"multipurposes_count":0},{"name":"豊町公園便所","address":null,"lat":35.604746,"lon":139.716437,"males_count":0,"females_count":0,"multipurposes_count":0},{"name":"西大井広場公園（２）便所","address":null,"lat":35.601827,"lon":139.722981,"males_count":0,"females_count":0,"multipurposes_count":0},{"name":"小関公園便所","address":null,"lat":35.619622,"lon":139.733416,"males_count":2,"females_count":1,"multipurposes_count":0},{"name":"台場浦公園便所","address":null,"lat":35.621517,"lon":139.742965,"males_count":0,"females_count":0,"multipurposes_count":0},{"name":"しおじ公園便所","address":null,"lat":35.596254,"lon":139.750599,"males_count":3,"females_count":2,"multipurposes_count":0},{"name":"横丁公園便所","address":null,"lat":35.610418,"lon":139.741788,"males_count":0,"females_count":0,"multipurposes_count":0},{"name":"しながわ区民公園（５）便所","address":null,"lat":35.59084,"lon":139.738123,"males_count":3,"females_count":2,"multipurposes_count":1},{"name":"しながわ区民公園（６）便所","address":null,"lat":35.59084,"lon":139.738123,"males_count":3,"females_count":2,"multipurposes_count":1},{"name":"浅間台公園便所","address":null,"lat":35.608424,"lon":139.736891,"males_count":0,"females_count":0,"multipurposes_count":0},{"name":"五反田公園便所","address":null,"lat":35.627635,"lon":139.72368,"males_count":0,"females_count":0,"multipurposes_count":0},{"name":"西八丁公園便所","address":null,"lat":35.619725,"lon":139.719295,"males_count":0,"females_count":0,"multipurposes_count":0},{"name":"出石公園便所","address":null,"lat":35.594583,"lon":139.722149,"males_count":0,"females_count":0,"multipurposes_count":0},{"name":"峰原公園便所","address":null,"lat":35.617939,"lon":139.721175,"males_count":0,"females_count":0,"multipurposes_count":0},{"name":"品海公園便所","address":null,"lat":35.620122,"lon":139.74257,"males_count":0,"females_count":0,"multipurposes_count":0},{"name":"かむろ坂公園便所","address":null,"lat":35.625215,"lon":139.711584,"males_count":2,"females_count":1,"multipurposes_count":0},{"name":"戸越公園（３）便所","address":null,"lat":35.611167,"lon":139.722392,"males_count":1,"females_count":0,"multipurposes_count":0},{"name":"西の台公園便所","address":null,"lat":35.613995,"lon":139.729128,"males_count":0,"females_count":0,"multipurposes_count":0},{"name":"南品川広場公園便所","address":null,"lat":35.60901,"lon":139.739841,"males_count":0,"females_count":0,"multipurposes_count":0},{"name":"西品川おさんぽ公園便所","address":null,"lat":35.616247,"lon":139.723856,"males_count":0,"females_count":0,"multipurposes_count":0},{"name":"関ヶ原公園便所","address":null,"lat":35.602074,"lon":139.735572,"males_count":0,"females_count":0,"multipurposes_count":0},{"name":"平塚たけのこ公園便所","address":null,"lat":35.612756,"lon":139.713482,"males_count":0,"females_count":0,"multipurposes_count":0},{"name":"東中はなみずき公園便所","address":null,"lat":35.610823,"lon":139.71256,"males_count":0,"females_count":0,"multipurposes_count":0},{"name":"延山くすのき公園便所","address":null,"lat":35.608192,"lon":139.708735,"males_count":0,"females_count":0,"multipurposes_count":0},{"name":"西中お日さま公園便所","address":null,"lat":35.607065,"lon":139.706766,"males_count":0,"females_count":0,"multipurposes_count":0},{"name":"東品川一丁目公園便所","address":null,"lat":35.622844,"lon":139.744112,"males_count":0,"females_count":0,"multipurposes_count":0},{"name":"鎗ヶ崎公園便所","address":null,"lat":35.615536,"lon":139.724478,"males_count":0,"females_count":0,"multipurposes_count":0},{"name":"しいのき公園便所","address":null,"lat":35.615011,"lon":139.703369,"males_count":0,"females_count":0,"multipurposes_count":0},{"name":"葦山公園便所","address":null,"lat":35.613398,"lon":139.7223,"males_count":0,"females_count":0,"multipurposes_count":0},{"name":"大原公園便所","address":null,"lat":35.60739,"lon":139.714393,"males_count":0,"females_count":0,"multipurposes_count":0},{"name":"南五公園便所","address":null,"lat":35.612148,"lon":139.741108,"males_count":0,"females_count":0,"multipurposes_count":0},{"name":"西大井広場公園（３）便所","address":null,"lat":35.601827,"lon":139.722981,"males_count":5,"females_count":3,"multipurposes_count":1},{"name":"戸越南公園便所","address":null,"lat":35.607195,"lon":139.718579,"males_count":0,"females_count":0,"multipurposes_count":0},{"name":"谷垂公園便所","address":null,"lat":35.600016,"lon":139.718021,"males_count":0,"females_count":0,"multipurposes_count":0},{"name":"天王洲アイル第一公園便所","address":null,"lat":35.623053,"lon":139.751501,"males_count":3,"females_count":2,"multipurposes_count":1},{"name":"品川浦公園便所","address":null,"lat":35.6211,"lon":139.742388,"males_count":0,"females_count":0,"multipurposes_count":0},{"name":"江戸見坂公園便所","address":null,"lat":35.612753,"lon":139.699255,"males_count":1,"females_count":0,"multipurposes_count":0},{"name":"旗の台広場公園便所","address":null,"lat":35.606009,"lon":139.706011,"males_count":1,"females_count":1,"multipurposes_count":0},{"name":"あさひ公園便所","address":null,"lat":35.619291,"lon":139.708215,"males_count":1,"females_count":1,"multipurposes_count":0},{"name":"天王洲アイル第二公園便所","address":null,"lat":35.621611,"lon":139.749059,"males_count":2,"females_count":1,"multipurposes_count":0},{"name":"大森貝塚遺跡庭園便所","address":null,"lat":35.593264,"lon":139.729687,"males_count":3,"females_count":2,"multipurposes_count":1},{"name":"八潮北公園便所","address":null,"lat":35.612485,"lon":139.753759,"males_count":4,"females_count":2,"multipurposes_count":1},{"name":"しながわ中央公園（１）便所","address":null,"lat":35.609226,"lon":139.72892,"males_count":7,"females_count":5,"multipurposes_count":1},{"name":"しながわ中央公園（２）便所","address":null,"lat":35.609795,"lon":139.729786,"males_count":0,"females_count":0,"multipurposes_count":0},{"name":"品川シーサイド公園便所","address":null,"lat":35.607582,"lon":139.749146,"males_count":2,"females_count":2,"multipurposes_count":1},{"name":"森前公園便所","address":null,"lat":35.600877,"lon":139.721809,"males_count":2,"females_count":2,"multipurposes_count":0},{"name":"谷山公園便所","address":null,"lat":35.627768,"lon":139.718575,"males_count":3,"females_count":2,"multipurposes_count":1},{"name":"東中延公園便所","address":null,"lat":35.606956,"lon":139.712457,"males_count":0,"females_count":0,"multipurposes_count":0},{"name":"大井水神公園便所","address":null,"lat":35.59555,"lon":139.732645,"males_count":1,"females_count":0,"multipurposes_count":1},{"name":"東品川海上公園便所","address":null,"lat":35.61729,"lon":139.749734,"males_count":2,"females_count":2,"multipurposes_count":1},{"name":"品川南ふ頭公園便所","address":null,"lat":35.622006,"lon":139.754864,"males_count":3,"females_count":2,"multipurposes_count":1},{"name":"文庫の森便所","address":null,"lat":35.612295,"lon":139.720526,"males_count":3,"females_count":2,"multipurposes_count":1},{"name":"鮫洲入江広場便所","address":null,"lat":35.603119,"lon":139.744102,"males_count":2,"females_count":0,"multipurposes_count":1},{"name":"大崎西口公園便所","address":null,"lat":35.617456,"lon":139.728655,"males_count":3,"females_count":2,"multipurposes_count":1},{"name":"鹿島庚塚児童遊園便所","address":null,"lat":35.594006,"lon":139.728912,"males_count":2,"females_count":1,"multipurposes_count":0},{"name":"旗岡児童遊園便所","address":null,"lat":35.604689,"lon":139.707851,"males_count":0,"females_count":0,"multipurposes_count":0},{"name":"神明児童遊園便所","address":null,"lat":35.608023,"lon":139.726761,"males_count":2,"females_count":1,"multipurposes_count":0},{"name":"上神明児童遊園便所","address":null,"lat":35.602251,"lon":139.714168,"males_count":1,"females_count":1,"multipurposes_count":0},{"name":"富士見ヶ丘児童遊園便所","address":null,"lat":35.59951,"lon":139.716688,"males_count":2,"females_count":1,"multipurposes_count":0},{"name":"みなみ児童遊園便所","address":null,"lat":35.596478,"lon":139.737517,"males_count":2,"females_count":1,"multipurposes_count":0},{"name":"戸越児童遊園便所","address":null,"lat":35.612006,"lon":139.715757,"males_count":0,"females_count":0,"multipurposes_count":0},{"name":"大井倉田児童遊園便所","address":null,"lat":35.600216,"lon":139.732117,"males_count":0,"females_count":0,"multipurposes_count":0},{"name":"森下児童遊園便所","address":null,"lat":35.606267,"lon":139.729194,"males_count":0,"females_count":0,"multipurposes_count":0},{"name":"荏原２丁目児童遊園便所","address":null,"lat":35.617586,"lon":139.709279,"males_count":0,"females_count":0,"multipurposes_count":0},{"name":"桜橋児童遊園便所","address":null,"lat":35.599969,"lon":139.735828,"males_count":0,"females_count":0,"multipurposes_count":0},{"name":"南品川二丁目児童遊園便所","address":null,"lat":35.614007,"lon":139.743966,"males_count":1,"females_count":0,"multipurposes_count":0},{"name":"大崎五丁目遊園便所","address":null,"lat":35.622611,"lon":139.725961,"males_count":2,"females_count":1,"multipurposes_count":0},{"name":"わかば児童遊園便所","address":null,"lat":35.615489,"lon":139.721642,"males_count":1,"females_count":0,"multipurposes_count":0},{"name":"立会川児童遊園（その２）便所","address":null,"lat":35.606037,"lon":139.704097,"males_count":1,"females_count":1,"multipurposes_count":0},{"name":"豊町５丁目児童遊園便所","address":null,"lat":35.60459,"lon":139.72059,"males_count":1,"females_count":1,"multipurposes_count":0},{"name":"北品川三丁目児童遊園便所","address":null,"lat":35.618448,"lon":139.739632,"males_count":1,"females_count":1,"multipurposes_count":0},{"name":"戸越２丁目広場便所","address":null,"lat":35.614347,"lon":139.718367,"males_count":1,"females_count":1,"multipurposes_count":0},{"name":"ゆたか防災広場便所","address":null,"lat":35.60536,"lon":139.71789,"males_count":2,"females_count":0,"multipurposes_count":1},{"name":"ひらさん広場便所","address":null,"lat":35.613972,"lon":139.712785,"males_count":3,"females_count":2,"multipurposes_count":1},{"name":"東秋留駅前","address":"あきる野市野辺447-11","lat":35.726134,"lon":139.310591,"males_count":3,"females_count":2,"multipurposes_count":1},{"name":"武蔵引田駅前","address":"あきる野市引田246-2","lat":35.729968,"lon":139.270037,"males_count":3,"females_count":2,"multipurposes_count":1},{"name":"大悲願寺前","address":"あきる野市横沢48-1","lat":35.73197,"lon":139.241612,"males_count":3,"females_count":2,"multipurposes_count":0},{"name":"武蔵五日市駅前","address":"あきる野市舘谷台26","lat":35.732504,"lon":139.229064,"males_count":5,"females_count":4,"multipurposes_count":1},{"name":"小和田橋下流","address":"あきる野市小和田145","lat":35.723972,"lon":139.222095,"males_count":1,"females_count":0,"multipurposes_count":0},{"name":"落合橋橋詰","address":"あきる野市乙津222-5","lat":35.729446,"lon":139.189129,"males_count":3,"females_count":2,"multipurposes_count":0},{"name":"網代会館","address":"あきる野市網代202","lat":35.723042,"lon":139.250976,"males_count":3,"females_count":2,"multipurposes_count":0},{"name":"佳月橋","address":"あきる野市小和田300-イ","lat":35.725807,"lon":139.217253,"males_count":1,"females_count":0,"multipurposes_count":1},{"name":"深沢・南澤宅","address":"あきる野市深沢368","lat":35.742178,"lon":139.209244,"males_count":2,"females_count":0,"multipurposes_count":0},{"name":"山田天神前","address":"あきる野市山田822","lat":35.725866,"lon":139.262723,"males_count":4,"females_count":4,"multipurposes_count":1},{"name":"秋川橋河川公園","address":"あきる野市留原814","lat":35.728914,"lon":139.227576,"males_count":9,"females_count":10,"multipurposes_count":1},{"name":"リバーサイドパーク一の谷","address":"あきる野市引田776","lat":35.718408,"lon":139.267133,"males_count":3,"females_count":2,"multipurposes_count":0},{"name":"子生神社","address":"あきる野市小中野187","lat":35.725749,"lon":139.209283,"males_count":1,"females_count":0,"multipurposes_count":0},{"name":"深沢・真光院前","address":"あきる野市深沢23-3","lat":35.748625,"lon":139.207047,"males_count":2,"females_count":2,"multipurposes_count":0},{"name":"岩走神社横","address":"あきる野市伊奈1574-1","lat":35.730256,"lon":139.243291,"males_count":2,"females_count":2,"multipurposes_count":0},{"name":"中村","address":"あきる野市留原872-3","lat":35.729927,"lon":139.228136,"males_count":3,"females_count":3,"multipurposes_count":0},{"name":"小庄水辺公園","address":"あきる野市五日市1259","lat":35.725127,"lon":139.22729,"males_count":2,"females_count":2,"multipurposes_count":0},{"name":"広徳寺","address":"あきる野市小和田241-2","lat":35.7222,"lon":139.217779,"males_count":3,"females_count":2,"multipurposes_count":0},{"name":"光厳寺","address":"あきる野市戸倉331-4","lat":35.725961,"lon":139.202689,"males_count":3,"females_count":2,"multipurposes_count":0},{"name":"星竹","address":"あきる野市戸倉1093-1","lat":35.731886,"lon":139.199952,"males_count":2,"females_count":2,"multipurposes_count":0},{"name":"木和田平","address":"あきる野市養沢1223","lat":35.752204,"lon":139.181484,"males_count":2,"females_count":2,"multipurposes_count":0},{"name":"荷田子","address":"あきる野市乙津708-2","lat":35.724504,"lon":139.180318,"males_count":3,"females_count":2,"multipurposes_count":0},{"name":"十里木駐車場","address":"あきる野市戸倉1378-1","lat":35.72808,"lon":139.190144,"males_count":3,"females_count":2,"multipurposes_count":1},{"name":"武蔵増戸駅前","address":"あきる野市伊奈871-2","lat":35.730847,"lon":139.256085,"males_count":4,"females_count":2,"multipurposes_count":1},{"name":"正光寺下","address":"あきる野市舘谷12-1","lat":35.729032,"lon":139.236061,"males_count":0,"females_count":0,"multipurposes_count":0},{"name":"盆堀大日影","address":"あきる野市戸倉2088","lat":35.721706,"lon":139.203489,"males_count":0,"females_count":0,"multipurposes_count":0},{"name":"馬頭刈山登山口","address":"あきる野市乙津2124-2","lat":35.736085,"lon":139.182644,"males_count":0,"females_count":0,"multipurposes_count":0},{"name":"追分下","address":"あきる野市乙津605-1","lat":35.726979,"lon":139.183049,"males_count":0,"females_count":0,"multipurposes_count":0},{"name":"青木平","address":"あきる野市乙津973-2","lat":35.72505,"lon":139.17055,"males_count":1,"females_count":0,"multipurposes_count":0},{"name":"下養沢会館前","address":"あきる野市乙津2310-2","lat":35.743545,"lon":139.189199,"males_count":0,"females_count":0,"multipurposes_count":0},{"name":"怒田畑","address":"あきる野市養沢148-1","lat":35.746076,"lon":139.188077,"males_count":0,"females_count":0,"multipurposes_count":0},{"name":"養沢神社前","address":"あきる野市養沢1016","lat":35.758839,"lon":139.170226,"males_count":1,"females_count":0,"multipurposes_count":0},{"name":"上養沢バス停","address":"あきる野市養沢993","lat":35.760268,"lon":139.171582,"males_count":0,"females_count":0,"multipurposes_count":0},{"name":"宝沢入口","address":"あきる野市養沢1285","lat":35.748689,"lon":139.183623,"males_count":0,"females_count":0,"multipurposes_count":0},{"name":"秋川ふれあいランド","address":"あきる野市小川1343-102","lat":35.717018,"lon":139.317062,"males_count":4,"females_count":3,"multipurposes_count":1},{"name":"盆堀ひかり小屋","address":"あきる野市戸倉1514","lat":35.721613,"lon":139.196464,"males_count":2,"females_count":0,"multipurposes_count":0},{"name":"小宮ふるさと自然体験学校横","address":"あきる野市乙津1984-イ","lat":35.733919,"lon":139.183008,"males_count":0,"females_count":0,"multipurposes_count":0},{"name":"相原中央公園（管理棟内）","address":"東京都町田市相原町2018","lat":35.60931825,"lon":139.3196688,"males_count":0,"females_count":0,"multipurposes_count":0},{"name":"相原中央公園（作業棟側）","address":"東京都町田市相原町2018","lat":35.60951415,"lon":139.3198017,"males_count":0,"females_count":0,"multipurposes_count":0},{"name":"相原中央公園（芝生広場）","address":"東京都町田市相原町2018","lat":35.60933497,"lon":139.3196646,"males_count":0,"females_count":0,"multipurposes_count":0},{"name":"Nature Factory 東京町田","address":"東京都町田市相原町5307-2","lat":35.6122812,"lon":139.2765802,"males_count":0,"females_count":0,"multipurposes_count":0},{"name":"堺市民センター","address":"東京都町田市相原町795-1","lat":35.60430536,"lon":139.3333318,"males_count":0,"females_count":0,"multipurposes_count":0},{"name":"尾根緑道内第２便所","address":"東京都町田市小山が丘1-11","lat":35.59763649,"lon":139.387157,"males_count":0,"females_count":0,"multipurposes_count":0},{"name":"小山上沼公園","address":"東京都町田市小山が丘3-1-1","lat":35.5989315,"lon":139.3805601,"males_count":0,"females_count":0,"multipurposes_count":0},{"name":"三ツ目山公園","address":"東京都町田市小山が丘5-38","lat":35.60590505,"lon":139.3540712,"males_count":0,"females_count":0,"multipurposes_count":0},{"name":"小山白山公園","address":"東京都町田市小山が丘5-4","lat":35.60279467,"lon":139.3644451,"males_count":0,"females_count":0,"multipurposes_count":0},{"name":"小山市民センター","address":"東京都町田市小山町2507-1","lat":35.59714835,"lon":139.36902,"males_count":0,"females_count":0,"multipurposes_count":0},{"name":"谷戸池公園","address":"東京都町田市小山田桜台1-19-1","lat":35.5881534,"lon":139.40188,"males_count":0,"females_count":0,"multipurposes_count":0},{"name":"上小山田町バイオトイレ","address":"東京都町田市上小山田町1851-2内","lat":35.60206977,"lon":139.395559,"males_count":0,"females_count":0,"multipurposes_count":0},{"name":"上小山田コミュニティセンター","address":"東京都町田市上小山田町2616-2","lat":35.59484071,"lon":139.3983522,"males_count":0,"females_count":0,"multipurposes_count":0},{"name":"木曽森野コミュニティセンター","address":"東京都町田市木曽東1-2","lat":35.55513015,"lon":139.4285798,"males_count":0,"females_count":0,"multipurposes_count":0},{"name":"教育センター","address":"東京都町田市木曽東3-1-3","lat":35.55972889,"lon":139.4240379,"males_count":0,"females_count":0,"multipurposes_count":0},{"name":"下小山田山王林公園","address":"東京都町田市下小山田町2805","lat":35.59225855,"lon":139.4074595,"males_count":0,"females_count":0,"multipurposes_count":0},{"name":"町田市バイオエネルギーセンター","address":"東京都町田市下小山田町3160","lat":35.58777258,"lon":139.4109448,"males_count":0,"females_count":0,"multipurposes_count":0},{"name":"土木・公園サービスセンター","address":"東京都町田市下小山田町3267-4","lat":35.58528811,"lon":139.4090985,"males_count":0,"females_count":0,"multipurposes_count":0},{"name":"忠生スポーツ公園","address":"東京都町田市下小山田町3337-1","lat":35.59707143,"lon":139.4147426,"males_count":0,"females_count":0,"multipurposes_count":0},{"name":"下小山田町バイオトイレ","address":"東京都町田市下小山田町1200-2内","lat":35.59720408,"lon":139.4223803,"males_count":0,"females_count":0,"multipurposes_count":0},{"name":"町田市立室内プール","address":"東京都町田市図師町199-1","lat":35.58639266,"lon":139.4140035,"males_count":0,"females_count":0,"multipurposes_count":0},{"name":"室内プール（温浴施設棟）","address":"東京都町田市図師町199-1","lat":35.58630765,"lon":139.4138148,"males_count":0,"females_count":0,"multipurposes_count":0},{"name":"忠生公園（忠生口トイレ）","address":"東京都町田市忠生1-3-1","lat":35.57372166,"lon":139.4226101,"males_count":0,"females_count":0,"multipurposes_count":0},{"name":"忠生公園（木曽口トイレ）","address":"東京都町田市忠生1-3-1","lat":35.57210544,"lon":139.4225113,"males_count":0,"females_count":0,"multipurposes_count":0},{"name":"忠生市民センター","address":"東京都町田市忠生3-14-2","lat":35.57851191,"lon":139.4158638,"males_count":0,"females_count":0,"multipurposes_count":0},{"name":"尾根緑道内第一公共トイレ","address":"東京都町田市常盤町3434-2","lat":35.58682185,"lon":139.402443,"males_count":0,"females_count":0,"multipurposes_count":0},{"name":"根岸公園","address":"東京都町田市根岸1-16-1","lat":35.57130622,"lon":139.4126627,"males_count":0,"females_count":0,"multipurposes_count":0},{"name":"本町田後田公園","address":"東京都町田市本町田2339-1","lat":35.56556105,"lon":139.4425696,"males_count":0,"females_count":0,"multipurposes_count":0},{"name":"忠生公園（がにやら自然館内）","address":"東京都町田市山崎町1804-1","lat":35.57298742,"lon":139.4241924,"males_count":0,"females_count":0,"multipurposes_count":0},{"name":"木曽山崎図書館","address":"東京都町田市山崎町2160","lat":35.56838416,"lon":139.4367322,"males_count":0,"females_count":0,"multipurposes_count":0},{"name":"木曽山崎コミュニティセンター","address":"東京都町田市山崎町2160-4","lat":35.56859933,"lon":139.4366123,"males_count":0,"females_count":0,"multipurposes_count":0},{"name":"町田中央公園①（バックネット側）","address":"東京都町田市旭町3-20-60","lat":35.55611667,"lon":139.4459031,"males_count":0,"females_count":0,"multipurposes_count":0},{"name":"町田中央公園③（サン町田旭体育館1F）","address":"東京都町田市旭町3-20-60","lat":35.55696686,"lon":139.4471737,"males_count":0,"females_count":0,"multipurposes_count":0},{"name":"町田中央公園④（サン町田旭体育館2F多目的室横）","address":"東京都町田市旭町3-20-60","lat":35.55696686,"lon":139.4471737,"males_count":0,"females_count":0,"multipurposes_count":0},{"name":"町田中央公園⑤（サン町田旭体育館2F会議室横）","address":"東京都町田市旭町3-20-60","lat":35.55696686,"lon":139.4471737,"males_count":0,"females_count":0,"multipurposes_count":0},{"name":"松葉公園","address":"東京都町田市高ヶ坂7-1043","lat":35.53766286,"lon":139.4654651,"males_count":0,"females_count":0,"multipurposes_count":0},{"name":"玉川学園コミュニティセンター","address":"東京都町田市玉川学園2-19-12","lat":35.56373092,"lon":139.4627289,"males_count":0,"females_count":0,"multipurposes_count":0},{"name":"町田シバヒロ","address":"東京都町田市中町1-20-23","lat":35.54822334,"lon":139.447122,"males_count":0,"females_count":0,"multipurposes_count":0},{"name":"さるびあ図書館","address":"東京都町田市中町2-13-23","lat":35.55136772,"lon":139.4441454,"males_count":0,"females_count":0,"multipurposes_count":0},{"name":"町田市保健所","address":"東京都町田市中町2-13-3","lat":35.55121958,"lon":139.4437069,"males_count":0,"females_count":0,"multipurposes_count":0},{"name":"原町田青空ひろば","address":"東京都町田市原町田1-27","lat":35.5369899,"lon":139.4491748,"males_count":0,"females_count":0,"multipurposes_count":0},{"name":"原町田一丁目駐車場","address":"東京都町田市原町田1-6-21","lat":35.54050928,"lon":139.4475692,"males_count":0,"females_count":0,"multipurposes_count":0},{"name":"町田ターミナルプラザ","address":"東京都町田市原町田3-1-4","lat":35.54035593,"lon":139.4492485,"males_count":0,"females_count":0,"multipurposes_count":0},{"name":"中央図書館","address":"東京都町田市原町田3-2-9","lat":35.5403913,"lon":139.4501544,"males_count":0,"females_count":0,"multipurposes_count":0},{"name":"町田市文化交流センター","address":"東京都町田市原町田4-1-14","lat":35.54093763,"lon":139.4481321,"males_count":0,"females_count":0,"multipurposes_count":0},{"name":"町田市民文学館ことばらんど","address":"東京都町田市原町田4-16-17","lat":35.54259031,"lon":139.4515229,"males_count":0,"females_count":0,"multipurposes_count":0},{"name":"町田市せりがや会館","address":"東京都町田市原町田4-26-4","lat":35.54450784,"lon":139.4531667,"males_count":0,"females_count":0,"multipurposes_count":0},{"name":"国際版画美術館","address":"東京都町田市原町田4-28-1","lat":35.54401651,"lon":139.4553386,"males_count":0,"females_count":0,"multipurposes_count":0},{"name":"町田市民フォーラム","address":"東京都町田市原町田4-9-8","lat":35.54174822,"lon":139.4499238,"males_count":0,"females_count":0,"multipurposes_count":0},{"name":"芹ヶ谷公園（虹と水の広場）","address":"東京都町田市原町田5-16","lat":35.54544614,"lon":139.4550658,"males_count":0,"females_count":0,"multipurposes_count":0},{"name":"芹ヶ谷公園（芹ヶ谷グラウンド）","address":"東京都町田市原町田5-16","lat":35.5471564,"lon":139.4551366,"males_count":0,"females_count":0,"multipurposes_count":0},{"name":"芹ヶ谷公園（小田急線側）","address":"東京都町田市原町田5-1679","lat":35.54834149,"lon":139.4511683,"males_count":0,"females_count":0,"multipurposes_count":0},{"name":"健康福祉会館","address":"東京都町田市原町田5-8-21","lat":35.54609523,"lon":139.4499542,"males_count":0,"females_count":0,"multipurposes_count":0},{"name":"町田駅前公共トイレ","address":"東京都町田市原町田6-1-11ルミネ町田脇","lat":35.54184621,"lon":139.4464663,"males_count":0,"females_count":0,"multipurposes_count":0},{"name":"原町田わかば公園","address":"東京都町田市原町田6-27-3","lat":35.54541891,"lon":139.4482203,"males_count":0,"females_count":0,"multipurposes_count":0},{"name":"生涯学習センター","address":"東京都町田市原町田6-8-1","lat":35.54297405,"lon":139.4471666,"males_count":0,"females_count":0,"multipurposes_count":0},{"name":"木曽山崎公園","address":"東京都町田市本町田1966-1","lat":35.56514032,"lon":139.4354321,"males_count":0,"females_count":0,"multipurposes_count":0},{"name":"木曽山崎グラウンド","address":"東京都町田市本町田1966-1","lat":35.56556105,"lon":139.4425696,"males_count":0,"females_count":0,"multipurposes_count":0},{"name":"緑ヶ丘グラウンド","address":"東京都町田市本町田2380-6","lat":35.56409302,"lon":139.4365583,"males_count":0,"females_count":0,"multipurposes_count":0},{"name":"子ども創造キャンパスひなた村","address":"東京都町田市本町田2863","lat":35.56776306,"lon":139.4453979,"males_count":0,"females_count":0,"multipurposes_count":0},{"name":"町田薬師池公園四季彩の杜西園（ウェルカムゲート・インフォメーション）","address":"東京都町田市本町田3105","lat":35.57473776,"lon":139.4465087,"males_count":0,"females_count":0,"multipurposes_count":0},{"name":"町田薬師池公園四季彩の杜西園（ウェルカムゲート・ラウンジ）","address":"東京都町田市本町田3105","lat":35.57476788,"lon":139.4466059,"males_count":0,"females_count":0,"multipurposes_count":0},{"name":"本町田遺跡公園","address":"東京都町田市本町田3455","lat":35.56749645,"lon":139.4501295,"males_count":0,"females_count":0,"multipurposes_count":0},{"name":"日向山公園","address":"東京都町田市本町田3486","lat":35.56786974,"lon":139.4464038,"males_count":0,"females_count":0,"multipurposes_count":0},{"name":"市立博物館","address":"東京都町田市本町田3562","lat":35.56731949,"lon":139.4512617,"males_count":0,"females_count":0,"multipurposes_count":0},{"name":"南大谷公園","address":"東京都町田市南大谷7-1104-1","lat":35.55026735,"lon":139.4626898,"males_count":0,"females_count":0,"multipurposes_count":0},{"name":"わくわくプラザ町田","address":"東京都町田市森野1-1-15","lat":35.54256943,"lon":139.4426539,"males_count":0,"females_count":0,"multipurposes_count":0},{"name":"町田市役所市庁舎","address":"東京都町田市森野2-2-22","lat":35.54669228,"lon":139.4386545,"males_count":0,"females_count":0,"multipurposes_count":0},{"name":"町田市民ホール","address":"東京都町田市森野2-2-36","lat":35.54646742,"lon":139.439526,"males_count":0,"females_count":0,"multipurposes_count":0},{"name":"木曽森野防災市民いこいの広場","address":"東京都町田市森野4-8","lat":35.55527785,"lon":139.4326685,"males_count":0,"females_count":0,"multipurposes_count":0},{"name":"町田中央公園②（テニスコート側）","address":"東京都町田市旭町3-20-60","lat":35.55753184,"lon":139.4464175,"males_count":0,"females_count":0,"multipurposes_count":0},{"name":"鶴川市民センター","address":"東京都町田市大蔵町1981-4","lat":35.58887085,"lon":139.4673853,"males_count":0,"females_count":0,"multipurposes_count":0},{"name":"小野路公園①（管理棟内）","address":"東京都町田市小野路町2023-1","lat":35.59807168,"lon":139.4538011,"males_count":0,"females_count":0,"multipurposes_count":0},{"name":"小野路公園②（球場脇）","address":"東京都町田市小野路町2023-1","lat":35.59778782,"lon":139.4543465,"males_count":0,"females_count":0,"multipurposes_count":0},{"name":"小野路公園③（野球場観覧席棟内）","address":"東京都町田市小野路町2023-1","lat":35.59773085,"lon":139.4547295,"males_count":0,"females_count":0,"multipurposes_count":0},{"name":"小野路公園④（グラウンド内）","address":"東京都町田市小野路町2023-1","lat":35.59818207,"lon":139.4547156,"males_count":0,"females_count":0,"multipurposes_count":0},{"name":"研修農場バイオトイレ","address":"東京都町田市小野路町282-2","lat":35.59717827,"lon":139.4352231,"males_count":0,"females_count":0,"multipurposes_count":0},{"name":"小野路町バイオトイレ（馬場）","address":"東京都町田市小野路町770-1内","lat":35.60030062,"lon":139.4337402,"males_count":0,"females_count":0,"multipurposes_count":0},{"name":"小野路宿里山交流館","address":"東京都町田市小野路町888-1","lat":35.59827355,"lon":139.4385311,"males_count":0,"females_count":0,"multipurposes_count":0},{"name":"南市民センター","address":"東京都町田市金森4-5-6","lat":35.52385977,"lon":139.4666749,"males_count":0,"females_count":0,"multipurposes_count":0},{"name":"真光寺公園","address":"東京都町田市真光寺町2-2-1","lat":35.60865785,"lon":139.465798,"males_count":0,"females_count":0,"multipurposes_count":0},{"name":"鶴川中央公園①（ゲートボール場脇）","address":"東京都町田市鶴川6-6","lat":35.59057475,"lon":139.4718265,"males_count":0,"females_count":0,"multipurposes_count":0},{"name":"鶴川中央公園②","address":"東京都町田市鶴川6-6","lat":35.59081122,"lon":139.4712707,"males_count":0,"females_count":0,"multipurposes_count":0},{"name":"鶴川図書館","address":"東京都町田市鶴川6-7-21-101号","lat":35.59085456,"lon":139.4703125,"males_count":0,"females_count":0,"multipurposes_count":0},{"name":"和光大学ポプリホール鶴川","address":"東京都町田市能ヶ谷1-2-1","lat":35.58284188,"lon":139.4789833,"males_count":0,"females_count":0,"multipurposes_count":0},{"name":"野津田公園管理棟（メインスタンド2階～6階）","address":"東京都町田市野津田町2035","lat":35.59192042,"lon":139.4386079,"males_count":0,"females_count":0,"multipurposes_count":0},{"name":"野津田公園１期分①（多目的広場）","address":"東京都町田市野津田町2035","lat":35.59194539,"lon":139.4377204,"males_count":0,"females_count":0,"multipurposes_count":0},{"name":"野津田公園１期分②（芝生広場前）","address":"東京都町田市野津田町2035","lat":35.59224041,"lon":139.4403504,"males_count":0,"females_count":0,"multipurposes_count":0},{"name":"野津田公園２期分（テニスコート脇）","address":"東京都町田市野津田町2035","lat":35.59298819,"lon":139.4417228,"males_count":0,"females_count":0,"multipurposes_count":0},{"name":"野津田公園２期分（上の原広場）","address":"東京都町田市野津田町2035","lat":35.59143867,"lon":139.4457486,"males_count":0,"females_count":0,"multipurposes_count":0},{"name":"野津田公園管理棟（メインスタンド1階）","address":"東京都町田市野津田町2035","lat":35.59192318,"lon":139.4386089,"males_count":0,"females_count":0,"multipurposes_count":0},{"name":"野津田公園バイオトイレ（球場脇）","address":"東京都町田市野津田町2035","lat":35.5936512,"lon":139.445711,"males_count":0,"females_count":0,"multipurposes_count":0},{"name":"ぼたん園トイレ","address":"東京都町田市野津田町2274-1","lat":35.58330925,"lon":139.4437018,"males_count":0,"females_count":0,"multipurposes_count":0},{"name":"ぼたん園トイレ（休憩室内）","address":"東京都町田市野津田町2274-1","lat":35.58320956,"lon":139.4442126,"males_count":0,"females_count":0,"multipurposes_count":0},{"name":"ふるさと農具館","address":"東京都町田市野津田町2288","lat":35.58244792,"lon":139.4440466,"males_count":0,"females_count":0,"multipurposes_count":0},{"name":"薬師池公園トイレ","address":"東京都町田市野津田町3270","lat":35.57919715,"lon":139.4483277,"males_count":0,"females_count":0,"multipurposes_count":0},{"name":"薬師池公園トイレ（薬師堂）","address":"東京都町田市野津田町3270","lat":35.5787456,"lon":139.4465837,"males_count":0,"females_count":0,"multipurposes_count":0},{"name":"町田市フォトサロン","address":"東京都町田市野津田町3272薬師池公園内","lat":35.57992534,"lon":139.4488101,"males_count":0,"females_count":0,"multipurposes_count":0},{"name":"七国山ファーマーズセンター","address":"東京都町田市野津田町3497-1","lat":35.58101677,"lon":139.4432298,"males_count":0,"females_count":0,"multipurposes_count":0},{"name":"自由民権資料館","address":"東京都町田市野津田町897","lat":35.58890471,"lon":139.4532895,"males_count":0,"females_count":0,"multipurposes_count":0},{"name":"広袴公園","address":"東京都町田市広袴3-4-1","lat":35.59591838,"lon":139.4752811,"males_count":0,"females_count":0,"multipurposes_count":0},{"name":"成瀬駅北口駅前広場公共トイレ","address":"東京都町田市南成瀬1-1成瀬駅隣接","lat":35.53556167,"lon":139.4730628,"males_count":0,"females_count":0,"multipurposes_count":0},{"name":"恩廻公園","address":"東京都町田市三輪町539-72","lat":35.57615703,"lon":139.5037193,"males_count":0,"females_count":0,"multipurposes_count":0},{"name":"鶴見川クリーンセンター","address":"東京都町田市三輪緑山1-1","lat":35.57070192,"lon":139.49196,"males_count":0,"females_count":0,"multipurposes_count":0},{"name":"三輪みどり山球場","address":"東京都町田市三輪緑山1-24-1","lat":35.57180049,"lon":139.4916773,"males_count":0,"females_count":0,"multipurposes_count":0},{"name":"三輪中央公園","address":"東京都町田市三輪緑山3-21","lat":35.57405549,"lon":139.4888677,"males_count":0,"females_count":0,"multipurposes_count":0},{"name":"沢谷戸自然公園","address":"東京都町田市三輪緑山4-1-18","lat":35.57777488,"lon":139.4913035,"males_count":0,"females_count":0,"multipurposes_count":0},{"name":"三輪コミュニティセンター","address":"東京都町田市三輪緑山4-14-1","lat":35.57718338,"lon":139.4930652,"males_count":0,"females_count":0,"multipurposes_count":0},{"name":"山王塚公園","address":"東京都町田市薬師台3-3-20","lat":35.58210824,"lon":139.4533588,"males_count":0,"females_count":0,"multipurposes_count":0},{"name":"松葉谷戸公園","address":"東京都町田市金森東1-1076-2","lat":35.5359676,"lon":139.4642483,"males_count":0,"females_count":0,"multipurposes_count":0},{"name":"金森図書館","address":"東京都町田市金森東3-5-1","lat":35.53345412,"lon":139.4659348,"males_count":0,"females_count":0,"multipurposes_count":0},{"name":"つくし野コミュニティセンター","address":"東京都町田市つくし野2-26-5","lat":35.52709328,"lon":139.4846571,"males_count":0,"females_count":0,"multipurposes_count":0},{"name":"つくし野セントラルパーク","address":"東京都町田市つくし野3-19","lat":35.5204266,"lon":139.4824472,"males_count":0,"females_count":0,"multipurposes_count":0},{"name":"鶴間公園クラブハウス","address":"東京都町田市鶴間2-5-13","lat":35.50947826,"lon":139.4661278,"males_count":0,"females_count":0,"multipurposes_count":0},{"name":"鶴間公園","address":"東京都町田市鶴間3-1-1","lat":35.51087305,"lon":139.4661973,"males_count":0,"females_count":0,"multipurposes_count":0},{"name":"成瀬弁天橋公園","address":"東京都町田市成瀬8-2045","lat":35.54278613,"lon":139.4693299,"males_count":0,"females_count":0,"multipurposes_count":0},{"name":"成瀬うさぎ谷戸公園（鞍掛グラウンド）","address":"東京都町田市西成瀬1-2738-3","lat":35.54544511,"lon":139.467174,"males_count":0,"females_count":0,"multipurposes_count":0},{"name":"成瀬コミュニティセンター","address":"東京都町田市西成瀬2-49-1","lat":35.54353038,"lon":139.4727757,"males_count":0,"females_count":0,"multipurposes_count":0},{"name":"なるせ駅前市民センター","address":"東京都町田市南成瀬1-2-5","lat":35.53682154,"lon":139.4730256,"males_count":0,"females_count":0,"multipurposes_count":0},{"name":"町田市立総合体育館","address":"東京都町田市南成瀬5-12","lat":35.5359569,"lon":139.479313,"males_count":0,"females_count":0,"multipurposes_count":0},{"name":"堂之坂公苑","address":"東京都町田市南成瀬5-8","lat":35.53623535,"lon":139.4769298,"males_count":0,"females_count":0,"multipurposes_count":0},{"name":"成瀬クリーンセンター","address":"東京都町田市南成瀬8-1-1","lat":35.53515186,"lon":139.483665,"males_count":0,"females_count":0,"multipurposes_count":0},{"name":"ローソン・スリーエフ町田相原駅前店","address":"東京都町田市相原町1158-4","lat":35.60650678,"lon":139.3319197,"males_count":0,"females_count":0,"multipurposes_count":0},{"name":"セブン-イレブン町田相原店","address":"東京都町田市相原町2177-1","lat":35.60612701,"lon":139.3171478,"males_count":0,"females_count":0,"multipurposes_count":0},{"name":"ローソン 町田相原町境橋店","address":"東京都町田市相原町3144","lat":35.60556508,"lon":139.3044954,"males_count":0,"females_count":0,"multipurposes_count":0},{"name":"ファミリーマート秀栄相原町店","address":"東京都町田市相原町3621-1","lat":35.61001704,"lon":139.2989492,"males_count":0,"females_count":0,"multipurposes_count":0},{"name":"トイザらスベビーザらス町田多摩境店","address":"東京都町田市小山ヶ丘1-7-2","lat":35.5987263,"lon":139.3816645,"males_count":0,"females_count":0,"multipurposes_count":0},{"name":"カインズホーム町田多摩境店","address":"東京都町田市小山ヶ丘3-6-6","lat":35.6014695,"lon":139.3749203,"males_count":0,"females_count":0,"multipurposes_count":0},{"name":"セブン-イレブン町田小山ヶ丘４丁目店","address":"東京都町田市小山ヶ丘4-9-2","lat":35.60691431,"lon":139.3524332,"males_count":0,"females_count":0,"multipurposes_count":0},{"name":"ファミリーマート町田多摩境店","address":"東京都町田市小山ヶ丘5-1-4","lat":35.6027111,"lon":139.3649671,"males_count":0,"females_count":0,"multipurposes_count":0},{"name":"セブン-イレブン町田堺店","address":"東京都町田市小山町828-1","lat":35.59228839,"lon":139.3811088,"males_count":0,"females_count":0,"multipurposes_count":0},{"name":"ローソン・スリーエフ　町田多摩境店","address":"東京都町田市小山町3161","lat":35.59961565,"lon":139.3630257,"males_count":0,"females_count":0,"multipurposes_count":0},{"name":"ファミリーマート 町田小山町店","address":"東京都町田市小山町704-1","lat":35.59065787,"lon":139.3839015,"males_count":0,"females_count":0,"multipurposes_count":0},{"name":"セブン-イレブン町田忠生公園入口店","address":"東京都町田市木曽西3-25-5","lat":35.57217534,"lon":139.4200512,"males_count":0,"females_count":0,"multipurposes_count":0},{"name":"salon de みずき","address":"東京都町田市木曽東3-24-15エムアイビル1階","lat":35.56508393,"lon":139.4228128,"males_count":0,"females_count":0,"multipurposes_count":0},{"name":"セブン-イレブン町田市木曽町店","address":"東京都町田市木曽東4-2-2","lat":35.56238054,"lon":139.4283137,"males_count":0,"females_count":0,"multipurposes_count":0},{"name":"とんかつ　とん久","address":"東京都町田市木曽東4-27-19","lat":35.56726948,"lon":139.4257041,"males_count":0,"females_count":0,"multipurposes_count":0},{"name":"ローソン小山田桜台店","address":"東京都町田市下小山田町3352-5","lat":35.58939658,"lon":139.4076165,"males_count":0,"females_count":0,"multipurposes_count":0},{"name":"ファミリーマート町田図師店","address":"東京都町田市図師町1896-6","lat":35.58306806,"lon":139.4246931,"males_count":0,"females_count":0,"multipurposes_count":0},{"name":"ローソン町田図師町店","address":"東京都町田市図師町612-1","lat":35.58128938,"lon":139.4170985,"males_count":0,"females_count":0,"multipurposes_count":0},{"name":"ファミリーマート町田忠生店","address":"東京都町田市忠生1-27-8","lat":35.57529055,"lon":139.4182291,"males_count":0,"females_count":0,"multipurposes_count":0},{"name":"でんかのヤマグチ　修理処","address":"東京都町田市忠生4-1-3","lat":35.57882786,"lon":139.4103314,"males_count":0,"females_count":0,"multipurposes_count":0},{"name":"セブン-イレブン町田常盤店","address":"東京都町田市常盤町3163-4","lat":35.58669695,"lon":139.3933688,"males_count":0,"females_count":0,"multipurposes_count":0},{"name":"ライフテクトヤマグチ　根岸店","address":"東京都町田市根岸1-13-5","lat":35.57270363,"lon":139.4138692,"males_count":0,"females_count":0,"multipurposes_count":0},{"name":"ミニストップ町田根岸店","address":"東京都町田市根岸町1001-26","lat":35.5762016,"lon":139.4082566,"males_count":0,"females_count":0,"multipurposes_count":0},{"name":"セブン-イレブン町田山崎新道店","address":"東京都町田市山崎町1936-1","lat":35.57107081,"lon":139.4286695,"males_count":0,"females_count":0,"multipurposes_count":0},{"name":"㈱三和玉川学園店","address":"東京都町田市玉川学園2-11-26","lat":35.5627355,"lon":139.4622013,"males_count":0,"females_count":0,"multipurposes_count":0},{"name":"セブン-イレブン玉川学園2丁目店","address":"東京都町田市玉川学園2-8-24","lat":35.56180236,"lon":139.4617751,"males_count":0,"females_count":0,"multipurposes_count":0},{"name":"ファミリーマート町田中町二丁目店","address":"東京都町田市中町2-5-4","lat":35.55197154,"lon":139.4403443,"males_count":0,"females_count":0,"multipurposes_count":0},{"name":"ファミリーマート町田駅南口店","address":"東京都町田市原町田1-3-9","lat":35.54064775,"lon":139.4467161,"males_count":0,"females_count":0,"multipurposes_count":0},{"name":"ファミリーマート版画美術館入口店","address":"東京都町田市原町田3-15-1","lat":35.54279205,"lon":139.452826,"males_count":0,"females_count":0,"multipurposes_count":0},{"name":"セブン-イレブン原町田４丁目店","address":"東京都町田市原町田4-11-18","lat":35.542633,"lon":139.4488713,"males_count":0,"females_count":0,"multipurposes_count":0},{"name":"はじめの一歩","address":"東京都町田市本町田2507-4ハ16-106","lat":35.56719011,"lon":139.4359601,"males_count":0,"females_count":0,"multipurposes_count":0},{"name":"デイサービス　みずきの家","address":"東京都町田市本町田2797","lat":35.56642917,"lon":139.4456027,"males_count":0,"females_count":0,"multipurposes_count":0},{"name":"セブン-イレブン町田南大谷店","address":"東京都町田市南大谷4-11-1","lat":35.55561329,"lon":139.4565914,"males_count":0,"females_count":0,"multipurposes_count":0},{"name":"ローソン町田森野一丁目店","address":"東京都町田市森野1-13-1","lat":35.54397812,"lon":139.4436756,"males_count":0,"females_count":0,"multipurposes_count":0},{"name":"セブン-イレブン町田大蔵店","address":"東京都町田市大蔵町560-1","lat":35.58851952,"lon":139.4594194,"males_count":0,"females_count":0,"multipurposes_count":0},{"name":"ローソン町田金井町店","address":"東京都町田市金井2-19-14","lat":35.57317163,"lon":139.4585832,"males_count":0,"females_count":0,"multipurposes_count":0},{"name":"セブン-イレブン町田真光寺店","address":"東京都町田市真光寺3-21-20","lat":35.59960989,"lon":139.4662552,"males_count":0,"females_count":0,"multipurposes_count":0},{"name":"ファミリーマートみなとや鶴川店","address":"東京都町田市鶴川2-10-7","lat":35.58851885,"lon":139.4721652,"males_count":0,"females_count":0,"multipurposes_count":0},{"name":"鶴川あんしん相談室","address":"東京都町田市鶴川6-7-2第103号室","lat":35.59062036,"lon":139.4691373,"males_count":0,"females_count":0,"multipurposes_count":0},{"name":"セブン-イレブン町田鶴川駅前店","address":"東京都町田市能ヶ谷1-4-6","lat":35.58307154,"lon":139.4795733,"males_count":0,"females_count":0,"multipurposes_count":0},{"name":"セブン-イレブン町田鶴川駅北口店","address":"東京都町田市能ヶ谷1-8-1神蔵ビル1階","lat":35.58432672,"lon":139.4831767,"males_count":0,"females_count":0,"multipurposes_count":0},{"name":"リレイス鶴川","address":"東京都町田市能ヶ谷3-2-1","lat":35.58466744,"lon":139.486095,"males_count":0,"females_count":0,"multipurposes_count":0},{"name":"ローソン町田芝溝街道店","address":"東京都町田市野津田町1100-1","lat":35.58906295,"lon":139.45635,"males_count":0,"females_count":0,"multipurposes_count":0},{"name":"べルク町田野津田店","address":"東京都町田市野津田町230","lat":35.58529573,"lon":139.4366898,"males_count":0,"females_count":0,"multipurposes_count":0},{"name":"セブン-イレブン町田野津田町店","address":"東京都町田市野津田町36-1","lat":35.58508924,"lon":139.4332309,"males_count":0,"females_count":0,"multipurposes_count":0},{"name":"ファミリーマート 町田金井町店","address":"東京都町田市金井ヶ丘4-1-21","lat":35.57786139,"lon":139.4702674,"males_count":0,"females_count":0,"multipurposes_count":0},{"name":"島忠　ホームズ町田三輪店","address":"東京都町田市三輪町281-1","lat":35.57876121,"lon":139.5005438,"males_count":0,"females_count":0,"multipurposes_count":0},{"name":"セブン-イレブン町田小川２丁目店","address":"東京都町田市小川2-25-3","lat":35.53041119,"lon":139.471763,"males_count":0,"females_count":0,"multipurposes_count":0},{"name":"ファミリーマート秀栄町田小川店","address":"東京都町田市小川5-10-20","lat":35.52313903,"lon":139.4695037,"males_count":0,"females_count":0,"multipurposes_count":0},{"name":"セブン-イレブン町田金森店","address":"東京都町田市金森2-21-17","lat":35.53345565,"lon":139.4596182,"males_count":0,"females_count":0,"multipurposes_count":0},{"name":"セブン-イレブン町田ポプラヶ丘店","address":"東京都町田市成瀬台2-1-2","lat":35.54972519,"lon":139.4763024,"males_count":0,"females_count":0,"multipurposes_count":0},{"name":"セブン-イレブン町田成瀬台３丁目店","address":"東京都町田市成瀬台3-8-7","lat":35.55457522,"lon":139.4782797,"males_count":0,"females_count":0,"multipurposes_count":0},{"name":"株式会社村山工業所","address":"東京都町田市西成瀬1-49-23","lat":35.54333527,"lon":139.4641462,"males_count":0,"females_count":0,"multipurposes_count":0},{"name":"ファミリーマート町田鶴間店","address":"東京都町田市南町田4-19-5","lat":35.51397935,"lon":139.4658381,"males_count":0,"females_count":0,"multipurposes_count":0},{"name":"ファミリーマート南町田四丁目店","address":"東京都町田市南町田4-2-50","lat":35.51745625,"lon":139.4651266,"males_count":0,"females_count":0,"multipurposes_count":0},{"name":"セブン-イレブン町田街道鶴間店","address":"東京都町田市南町田5-3-53","lat":35.51338479,"lon":139.4748282,"males_count":0,"females_count":0,"multipurposes_count":0},{"name":"６８８９ Ｃａｆｅ","address":"東京都町田市南町田5-4-10","lat":35.51316168,"lon":139.4741592,"males_count":0,"females_count":0,"multipurposes_count":0},{"name":"祐照庵(大戸観音堂）","address":"東京都町田市相原町4643","lat":35.61354961,"lon":139.2888803,"males_count":0,"females_count":0,"multipurposes_count":0},{"name":"正山寺","address":"東京都町田市上小山田町1504","lat":35.60119824,"lon":139.4017001,"males_count":0,"females_count":0,"multipurposes_count":0},{"name":"浄運寺","address":"東京都町田市原町田6-21-28","lat":35.54309338,"lon":139.4478158,"males_count":0,"females_count":0,"multipurposes_count":0},{"name":"菅原神社","address":"東京都町田市本町田802","lat":35.55912926,"lon":139.4472652,"males_count":0,"females_count":0,"multipurposes_count":0},{"name":"慶性寺","address":"東京都町田市大蔵町2177-1","lat":35.58539335,"lon":139.4736688,"males_count":0,"females_count":0,"multipurposes_count":0},{"name":"春日神社","address":"東京都町田市大蔵町2822","lat":35.58582606,"lon":139.4593878,"males_count":0,"females_count":0,"multipurposes_count":0},{"name":"小野神社","address":"東京都町田市小野路町885","lat":35.59799652,"lon":139.4379439,"males_count":0,"females_count":0,"multipurposes_count":0},{"name":"八幡神社","address":"東京都町田市金井ヶ丘2-5-1","lat":35.57192535,"lon":139.4603878,"males_count":0,"females_count":0,"multipurposes_count":0},{"name":"観泉寺","address":"東京都町田市真光寺町1210","lat":35.60092068,"lon":139.460623,"males_count":0,"females_count":0,"multipurposes_count":0},{"name":"能ヶ谷神社","address":"東京都町田市能ヶ谷6-20-1","lat":35.58827914,"lon":139.4824017,"males_count":0,"females_count":0,"multipurposes_count":0},{"name":"野津田神社","address":"東京都町田市野津田町2319","lat":35.58418331,"lon":139.4472048,"males_count":0,"females_count":0,"multipurposes_count":0},{"name":"高蔵寺","address":"東京都町田市三輪町1739","lat":35.58044899,"lon":139.489907,"males_count":0,"females_count":0,"multipurposes_count":0},{"name":"ローソン 町田相原駅西口店","address":"東京都町田市相原町1165-1","lat":139.3311513,"lon":35.60692506,"males_count":0,"females_count":0,"multipurposes_count":0},{"name":"駒場東大前駅公衆便所","address":"東京都目黒区駒場 2-2-1","lat":35.658784,"lon":139.682796,"males_count":3,"females_count":2,"multipurposes_count":1},{"name":"南部橋公衆便所","address":"東京都目黒区青葉台 2-19-4","lat":35.649164,"lon":139.693042,"males_count":2,"females_count":1,"multipurposes_count":0},{"name":"大橋公衆便所","address":"東京都目黒区大橋 2-24-8","lat":35.651482,"lon":139.684671,"males_count":2,"females_count":1,"multipurposes_count":0},{"name":"正覚寺公衆便所","address":"東京都目黒区中目黒 3-1-6","lat":35.641533,"lon":139.700364,"males_count":3,"females_count":2,"multipurposes_count":0},{"name":"祐天寺公衆便所","address":"東京都目黒区中目黒 5-24-53","lat":35.636519,"lon":139.696627,"males_count":3,"females_count":1,"multipurposes_count":1},{"name":"新橋公衆便所","address":"東京都目黒区下目黒 1-6-18","lat":35.633784,"lon":139.711068,"males_count":3,"females_count":0,"multipurposes_count":1},{"name":"大鳥神社公衆便所","address":"東京都目黒区下目黒 3-1-2","lat":35.632152,"lon":139.708107,"males_count":3,"females_count":2,"multipurposes_count":0},{"name":"不動尊公衆便所","address":"東京都目黒区下目黒 3-20-26","lat":35.628631,"lon":139.70809,"males_count":4,"females_count":3,"multipurposes_count":1},{"name":"不動尊裏公衆便所","address":"東京都目黒区下目黒 3-20-50","lat":35.628631,"lon":139.70809,"males_count":0,"females_count":0,"multipurposes_count":0},{"name":"祐天寺駅公衆便所","address":"東京都目黒区祐天寺 2-13-5","lat":35.637158,"lon":139.690745,"males_count":7,"females_count":3,"multipurposes_count":1},{"name":"洗足駅公衆便所","address":"東京都目黒区洗足 2-21-21","lat":35.610413,"lon":139.694396,"males_count":3,"females_count":2,"multipurposes_count":0},{"name":"圓融寺公衆便所","address":"東京都目黒区碑文谷 1-22-40","lat":35.619426,"lon":139.689772,"males_count":3,"females_count":2,"multipurposes_count":1},{"name":"碑文谷八幡神社公衆便所","address":"東京都目黒区碑文谷 3-7-3","lat":35.617423,"lon":139.685658,"males_count":3,"females_count":2,"multipurposes_count":0},{"name":"学芸大学駅公衆便所","address":"東京都目黒区鷹番 3-2-1","lat":35.628742,"lon":139.685247,"males_count":5,"females_count":3,"multipurposes_count":1},{"name":"緑が丘駅前公衆便所","address":"東京都目黒区緑が丘 3-1-13","lat":35.606505,"lon":139.679147,"males_count":0,"females_count":0,"multipurposes_count":2},{"name":"熊野神社公衆便所","address":"東京都目黒区自由が丘 1-24-12","lat":35.61065,"lon":139.668892,"males_count":3,"females_count":1,"multipurposes_count":1},{"name":"自由が丘駅公衆便所","address":"東京都目黒区自由が丘 1-30-1","lat":35.607272,"lon":139.668665,"males_count":8,"females_count":5,"multipurposes_count":1},{"name":"都立大学駅公衆便所","address":"東京都目黒区中根 1-5-1","lat":35.61766,"lon":139.676304,"males_count":7,"females_count":4,"multipurposes_count":1},{"name":"めぐろ区民キャンパス公衆便所","address":"東京都目黒区八雲 1-1-10","lat":35.621542,"lon":139.672741,"males_count":3,"females_count":2,"multipurposes_count":1},{"name":"八雲氷川神社公衆便所","address":"東京都目黒区八雲 2-4-16","lat":35.61878,"lon":139.671083,"males_count":3,"females_count":1,"multipurposes_count":1},{"name":"上野公園大黒天横公衆トイレ","address":"台東区上野公園10-17前","lat":139.7699202,"lon":35.71943546,"males_count":0,"females_count":0,"multipurposes_count":0},{"name":"池ノ端弁天前公衆トイレ","address":"台東区上野2ー14-21前","lat":139.7730257,"lon":35.71207533,"males_count":0,"females_count":0,"multipurposes_count":0},{"name":"三ノ輪二丁目公衆トイレ","address":"台東区三ノ輪2ー13-8","lat":139.7923636,"lon":35.73031696,"males_count":0,"females_count":0,"multipurposes_count":0},{"name":"寛永寺前公衆トイレ","address":"上野桜木2-6-20前","lat":139.7737626,"lon":35.72244987,"males_count":0,"females_count":0,"multipurposes_count":0},{"name":"三ノ輪交番裏公衆トイレ","address":"竜泉2-20-13","lat":139.7905734,"lon":35.72834819,"males_count":0,"females_count":0,"multipurposes_count":0},{"name":"台東一丁目公衆トイレ","address":"台東1-6-5","lat":139.7770515,"lon":35.7007113,"males_count":0,"females_count":0,"multipurposes_count":0},{"name":"龍谷寺脇公衆トイレ","address":"東上野5-5-5","lat":139.782235,"lon":35.71247706,"males_count":0,"females_count":0,"multipurposes_count":0},{"name":"西郷銅像下公衆トイレ","address":"上野4-10-8前","lat":139.7738624,"lon":35.71088706,"males_count":0,"females_count":0,"multipurposes_count":0},{"name":"不忍池西側公衆トイレ","address":"池之端1-1-13","lat":139.7691821,"lon":35.70926136,"males_count":0,"females_count":0,"multipurposes_count":0},{"name":"池之端二丁目公衆トイレ","address":"池之端2-4-2前","lat":139.7658518,"lon":35.71354318,"males_count":0,"females_count":0,"multipurposes_count":0},{"name":"谷中墓地入口公衆トイレ","address":"谷中7-2-27前","lat":139.77028,"lon":35.7228726,"males_count":0,"females_count":0,"multipurposes_count":0},{"name":"北上野一丁目公衆トイレ","address":"北上野1-15-12","lat":139.78353,"lon":35.71894508,"males_count":0,"females_count":0,"multipurposes_count":0},{"name":"柳橋二丁目交番裏公衆トイレ","address":"柳橋2-16-11","lat":139.7884227,"lon":35.70011641,"males_count":0,"females_count":0,"multipurposes_count":0},{"name":"小島二丁目交番裏公衆トイレ","address":"小島2-18-20","lat":139.7848518,"lon":35.70653752,"males_count":0,"females_count":0,"multipurposes_count":0},{"name":"下水ポンプ場脇公衆トイレ","address":"浅草5-73-11","lat":139.7985396,"lon":35.72292023,"males_count":0,"females_count":0,"multipurposes_count":0},{"name":"蔵前四丁目公衆トイレ","address":"蔵前4-35-8","lat":139.7890739,"lon":35.70616997,"males_count":0,"females_count":0,"multipurposes_count":0},{"name":"田原町交番裏公衆トイレ","address":"西浅草1-8-11","lat":139.7917202,"lon":35.71161336,"males_count":0,"females_count":0,"multipurposes_count":0},{"name":"厩橋際公衆トイレ","address":"蔵前2-15-9","lat":139.7942471,"lon":35.70462547,"males_count":0,"females_count":0,"multipurposes_count":0},{"name":"千束一丁目公衆トイレ","address":"千束1-19-8","lat":139.7913666,"lon":35.72069618,"males_count":0,"females_count":0,"multipurposes_count":0},{"name":"駒形橋際公衆トイレ","address":"雷門2-1-1","lat":139.7967845,"lon":35.70878409,"males_count":0,"females_count":0,"multipurposes_count":0},{"name":"仲見世1号公衆トイレ","address":"浅草1-2-6","lat":139.7966258,"lon":35.71133785,"males_count":0,"females_count":0,"multipurposes_count":0},{"name":"仲見世2号公衆トイレ","address":"浅草1-30-2","lat":139.7961831,"lon":35.71206445,"males_count":0,"females_count":0,"multipurposes_count":0},{"name":"仲見世3号公衆トイレ","address":"浅草1-32-6","lat":139.7966844,"lon":35.71218039,"males_count":0,"females_count":0,"multipurposes_count":0},{"name":"仲見世4号公衆トイレ","address":"浅草1-37-2","lat":139.796351,"lon":35.71269467,"males_count":0,"females_count":0,"multipurposes_count":0},{"name":"木馬館前公衆トイレ","address":"浅草2-3-28","lat":139.7951496,"lon":35.71427744,"males_count":0,"females_count":0,"multipurposes_count":0},{"name":"清川二丁目公衆トイレ","address":"清川2-13-19","lat":139.8027306,"lon":35.72713691,"males_count":0,"females_count":0,"multipurposes_count":0},{"name":"日本堤公園トイレ","address":"東浅草2-27-1","lat":139.7983654,"lon":35.72406448,"males_count":0,"females_count":0,"multipurposes_count":0},{"name":"柳北公園トイレ","address":"浅草橋5-1-35","lat":139.7828744,"lon":35.69980114,"males_count":0,"females_count":0,"multipurposes_count":0},{"name":"東盛公園トイレ","address":"三ノ輪1-23-2","lat":139.792751,"lon":35.72860233,"males_count":0,"females_count":0,"multipurposes_count":0},{"name":"千束公園トイレ","address":"浅草4-24-7","lat":139.7939102,"lon":35.71873778,"males_count":0,"females_count":0,"multipurposes_count":0},{"name":"西町公園トイレ","address":"東上野2-23-3","lat":139.7798683,"lon":35.709219,"males_count":0,"females_count":0,"multipurposes_count":0},{"name":"石浜公園トイレ","address":"清川1-14-21","lat":139.8041612,"lon":35.7246832,"males_count":0,"females_count":0,"multipurposes_count":0},{"name":"精華公園トイレ","address":"蔵前4-15-9","lat":139.7890573,"lon":35.70364592,"males_count":0,"females_count":0,"multipurposes_count":0},{"name":"玉姫公園トイレ","address":"清川2-13-18","lat":139.802296,"lon":35.72730905,"males_count":0,"females_count":0,"multipurposes_count":0},{"name":"山伏公園トイレ","address":"北上野2-9-7","lat":139.783643,"lon":35.71666029,"males_count":0,"females_count":0,"multipurposes_count":0},{"name":"松葉公園トイレ","address":"松が谷1-12-6","lat":139.787188,"lon":35.71206394,"males_count":0,"females_count":0,"multipurposes_count":0},{"name":"御徒町公園トイレ","address":"台東4-13-3","lat":139.7778169,"lon":35.70624721,"males_count":0,"females_count":0,"multipurposes_count":0},{"name":"金杉公園トイレ","address":"下谷3-5-12","lat":139.7859024,"lon":35.72402483,"males_count":0,"females_count":0,"multipurposes_count":0},{"name":"小島公園トイレ","address":"小島2-9-4","lat":139.7842243,"lon":35.70556114,"males_count":0,"females_count":0,"multipurposes_count":0},{"name":"金竜公園トイレ","address":"西浅草3-25-7","lat":139.7900739,"lon":35.7166877,"males_count":0,"females_count":0,"multipurposes_count":0},{"name":"富士公園トイレ","address":"浅草4-47-2","lat":139.7975108,"lon":35.7185337,"males_count":0,"females_count":0,"multipurposes_count":0},{"name":"田原公園トイレ","address":"雷門1-5-15","lat":139.7929875,"lon":35.70978727,"males_count":0,"females_count":0,"multipurposes_count":0},{"name":"一葉記念公園トイレ","address":"竜泉3-19-1","lat":139.7925526,"lon":35.72563284,"males_count":0,"females_count":0,"multipurposes_count":0},{"name":"花川戸公園トイレ","address":"花川戸2-5-6","lat":139.7992606,"lon":35.71414599,"males_count":0,"females_count":0,"multipurposes_count":0},{"name":"鶯谷公園トイレ","address":"根岸1-3-17","lat":139.779395,"lon":35.72114285,"males_count":0,"females_count":0,"multipurposes_count":0},{"name":"竹町公園トイレ","address":"台東4-21-3","lat":139.7805045,"lon":35.7056488,"males_count":0,"females_count":0,"multipurposes_count":0},{"name":"待乳山聖天公園トイレ","address":"浅草4-7-9","lat":139.8026853,"lon":35.71747474,"males_count":0,"females_count":0,"multipurposes_count":0},{"name":"上根岸公園トイレ","address":"根岸3-9-6","lat":139.7788264,"lon":35.72331778,"males_count":0,"females_count":0,"multipurposes_count":0},{"name":"入谷南公園トイレ","address":"松が谷3-23-7","lat":139.7856486,"lon":35.71706299,"males_count":0,"females_count":0,"multipurposes_count":0},{"name":"大正公園トイレ","address":"入谷2-23-11","lat":139.7877646,"lon":35.72107817,"males_count":0,"females_count":0,"multipurposes_count":0},{"name":"今戸公園トイレ","address":"今戸2-24-1","lat":139.8061946,"lon":35.72136292,"males_count":0,"females_count":0,"multipurposes_count":0},{"name":"京町公園トイレ","address":"千束3-26-18","lat":139.7945503,"lon":35.72206378,"males_count":0,"females_count":0,"multipurposes_count":0},{"name":"橋場公園トイレ","address":"橋場2-19-7","lat":139.8072971,"lon":35.72785755,"males_count":0,"females_count":0,"multipurposes_count":0},{"name":"吉原公園トイレ","address":"千束4-40-6","lat":139.7952945,"lon":35.72500941,"males_count":0,"females_count":0,"multipurposes_count":0},{"name":"花園公園トイレ","address":"男女兼用","lat":139.7927631,"lon":35.72219562,"males_count":0,"females_count":0,"multipurposes_count":0},{"name":"根岸公園トイレ","address":"根岸4-16-23","lat":139.7855527,"lon":35.72566009,"males_count":0,"females_count":0,"multipurposes_count":0},{"name":"谷中清水町公園トイレ","address":"谷中1-1-32","lat":139.7692687,"lon":35.72039134,"males_count":0,"females_count":0,"multipurposes_count":0},{"name":"岡倉天心記念公園トイレ","address":"谷中5-7-10","lat":139.7663588,"lon":35.72631593,"males_count":0,"females_count":0,"multipurposes_count":0},{"name":"隅田公園1号トイレ","address":"花川戸1-1(吾妻橋)","lat":139.7983456,"lon":35.71078918,"males_count":0,"females_count":0,"multipurposes_count":0},{"name":"隅田公園休憩所トイレ","address":"花川戸1-1(東武鉄橋脇)","lat":139.8001751,"lon":35.7129136,"males_count":0,"females_count":0,"multipurposes_count":0},{"name":"隅田公園2号トイレ","address":"花川戸2-1(言問橋)","lat":139.8023503,"lon":35.71457058,"males_count":0,"females_count":0,"multipurposes_count":0},{"name":"隅田公園4号トイレ","address":"浅草7-1(山谷掘広場脇)","lat":139.8037174,"lon":35.71671192,"males_count":0,"females_count":0,"multipurposes_count":0},{"name":"隅田公園3号トイレ","address":"今戸1-1(野球場前)","lat":139.8055475,"lon":35.7194338,"males_count":0,"females_count":0,"multipurposes_count":0},{"name":"天王寺公園トイレ","address":"男女兼用","lat":139.770551,"lon":35.72736048,"males_count":0,"females_count":0,"multipurposes_count":0},{"name":"山谷堀公園トイレ","address":"浅草6-45-12(吉野橋)","lat":139.8016739,"lon":35.71914076,"males_count":0,"females_count":0,"multipurposes_count":0},{"name":"金曾木公園トイレ","address":"根岸4-16-14","lat":139.784463,"lon":35.7258412,"males_count":0,"females_count":0,"multipurposes_count":0},{"name":"浅草橋公園トイレ","address":"浅草橋1-1-15","lat":139.7851789,"lon":35.69621973,"males_count":0,"females_count":0,"multipurposes_count":0},{"name":"御蔵前公園トイレ","address":"蔵前1-4-8","lat":139.7895121,"lon":35.70033443,"males_count":0,"females_count":0,"multipurposes_count":0},{"name":"黒門児童遊園トイレ","address":"上野1-19-3","lat":139.7722664,"lon":35.70664824,"males_count":0,"females_count":0,"multipurposes_count":0},{"name":"浅草公会堂施設内トイレ","address":"台東区浅草1丁目38番6号","lat":139.7952377,"lon":35.71263164,"males_count":0,"females_count":0,"multipurposes_count":0},{"name":"東上野地区センター施設内トイレ","address":"台東区東上野3丁目24番6号","lat":139.7795556,"lon":35.71130523,"males_count":0,"females_count":0,"multipurposes_count":0},{"name":"上野地区センター施設内トイレ","address":"池之端1丁目1番12号","lat":139.7694099,"lon":35.70931161,"males_count":0,"females_count":0,"multipurposes_count":0},{"name":"雷門地区センター施設内トイレ","address":"浅草1丁目37番3号","lat":139.796195,"lon":35.71261835,"males_count":0,"females_count":0,"multipurposes_count":0},{"name":"江戸たいとう伝統工芸館施設内トイレ","address":"浅草2丁目22番13号","lat":139.7938306,"lon":35.71637525,"males_count":0,"females_count":0,"multipurposes_count":0},{"name":"台東区谷中防災コミュニティセンター施設内トイレ","address":"谷中5丁目6番5号","lat":139.7668753,"lon":35.72563083,"males_count":0,"females_count":0,"multipurposes_count":0},{"name":"中野駅北口公衆便所","address":"中野区中野5-31-30","lat":35.7061038717728,"lon":139.666010426343,"males_count":0,"females_count":0,"multipurposes_count":0},{"name":"東中野駅東口公衆便所","address":"中野区東中野1-50-71","lat":35.7061487121405,"lon":139.686585041004,"males_count":0,"females_count":0,"multipurposes_count":0},{"name":"丸山公園","address":"中野区丸山2-23","lat":35.7242839647692,"lon":139.650319518124,"males_count":0,"females_count":0,"multipurposes_count":0},{"name":"江原公園","address":"中野区江原町1-15","lat":35.7293598794837,"lon":139.674731260756,"males_count":0,"females_count":0,"multipurposes_count":0},{"name":"みずのとう公園","address":"中野区江古田1-3","lat":35.7247755573202,"lon":139.674803531199,"males_count":0,"females_count":0,"multipurposes_count":0},{"name":"江古田の森公園（学習棟）","address":"中野区江古田3-14","lat":35.7292952537246,"lon":139.664777713474,"males_count":0,"females_count":0,"multipurposes_count":0},{"name":"江古田の森公園（調節池北側）","address":"中野区江古田3-14","lat":35.7295081201874,"lon":139.667962413344,"males_count":0,"females_count":0,"multipurposes_count":0},{"name":"江古田の森公園（調節池北側）","address":"中野区江古田3-14","lat":35.7311511793641,"lon":139.666563239159,"males_count":0,"females_count":0,"multipurposes_count":0},{"name":"江古田の森公園（学習棟）","address":"中野区江古田3-14","lat":35.7296301741741,"lon":139.666594087493,"males_count":0,"females_count":0,"multipurposes_count":0},{"name":"鷺六公園","address":"中野区鷺宮6-24","lat":35.7255097268578,"lon":139.629662097111,"males_count":0,"females_count":0,"multipurposes_count":0},{"name":"かしの木公園","address":"中野区若宮3-52","lat":35.7200551078948,"lon":139.641941538461,"males_count":0,"females_count":0,"multipurposes_count":0},{"name":"江古田公園","address":"中野区松が丘2-35,2-29","lat":35.7238636876717,"lon":139.670775231028,"males_count":0,"females_count":0,"multipurposes_count":0},{"name":"沼袋公園","address":"中野区沼袋1-19","lat":35.7201418665069,"lon":139.668872223443,"males_count":0,"females_count":0,"multipurposes_count":0},{"name":"丸山塚公園","address":"中野区沼袋2-40","lat":35.723417508698,"lon":139.662945837641,"males_count":0,"females_count":0,"multipurposes_count":0},{"name":"沼袋西公園","address":"中野区沼袋3-14","lat":35.7166233401047,"lon":139.659354812304,"males_count":0,"females_count":0,"multipurposes_count":0},{"name":"上高田二丁目公園","address":"中野区上高田2-8","lat":35.7106884262269,"lon":139.673216456415,"males_count":0,"females_count":0,"multipurposes_count":0},{"name":"上鷺東公園","address":"中野区上鷺宮2-18","lat":35.7297772430973,"lon":139.634817602529,"males_count":0,"females_count":0,"multipurposes_count":0},{"name":"風の子ひろば","address":"中野区上鷺宮4-13,14","lat":35.734243780357,"lon":139.629090085851,"males_count":0,"females_count":0,"multipurposes_count":0},{"name":"上鷺公園","address":"中野区上鷺宮4-8","lat":35.7320832734896,"lon":139.628362327205,"males_count":0,"females_count":0,"multipurposes_count":0},{"name":"上鷺西公園","address":"中野区上鷺宮5-17","lat":35.7313687970195,"lon":139.625205676176,"males_count":0,"females_count":0,"multipurposes_count":0},{"name":"八成公園","address":"中野区上鷺宮5-19","lat":35.7317479379188,"lon":139.626515113461,"males_count":0,"females_count":0,"multipurposes_count":0},{"name":"北中野公園","address":"中野区上鷺宮5-8","lat":35.7287241794009,"lon":139.627345134844,"males_count":0,"females_count":0,"multipurposes_count":0},{"name":"新井薬師公園（寺側）","address":"中野区新井5-4","lat":35.7145731508894,"lon":139.667383674503,"males_count":0,"females_count":0,"multipurposes_count":0},{"name":"新井薬師公園（池側）","address":"中野区新井5-4","lat":35.7152927360636,"lon":139.667092280613,"males_count":0,"females_count":0,"multipurposes_count":0},{"name":"啓明公園","address":"中野区大和町1-21","lat":35.7115790926121,"lon":139.653012669431,"males_count":0,"females_count":0,"multipurposes_count":0},{"name":"大和北公園","address":"中野区大和町2-45","lat":35.7143922913567,"lon":139.649045721175,"males_count":0,"females_count":0,"multipurposes_count":0},{"name":"大和公園","address":"中野区大和町2-8","lat":35.7156744378095,"lon":139.651672363241,"males_count":0,"females_count":0,"multipurposes_count":0},{"name":"西大和公園","address":"中野区大和町4-50","lat":35.7148917870785,"lon":139.64369685173,"males_count":0,"females_count":0,"multipurposes_count":0},{"name":"みはと公園","address":"中野区大和町4-51","lat":35.7161731784529,"lon":139.642089625545,"males_count":0,"females_count":0,"multipurposes_count":0},{"name":"宮前公園","address":"中野区中央2-39","lat":35.7009583228137,"lon":139.678453740389,"males_count":0,"females_count":0,"multipurposes_count":0},{"name":"塔の山公園","address":"中野区中央2-7","lat":35.6988436837658,"lon":139.681765686375,"males_count":0,"females_count":0,"multipurposes_count":0},{"name":"中央西公園","address":"中野区中央5-27","lat":35.6991350340383,"lon":139.663366665533,"males_count":0,"females_count":0,"multipurposes_count":0},{"name":"谷戸運動公園","address":"中野区中野1-31","lat":35.702503654653,"lon":139.67495596659,"males_count":0,"females_count":0,"multipurposes_count":0},{"name":"城山公園","address":"中野区中野1-44","lat":35.7042805749216,"lon":139.673983455785,"males_count":0,"females_count":0,"multipurposes_count":0},{"name":"紅葉山公園","address":"中野区中野2-5","lat":35.7040048471798,"lon":139.671344027899,"males_count":0,"females_count":0,"multipurposes_count":0},{"name":"囲桃園公園","address":"中野区中野3-20,21","lat":35.7034113851405,"lon":139.662442414041,"males_count":0,"females_count":0,"multipurposes_count":0},{"name":"上の原公園","address":"中野区東中野2-6","lat":35.7025461373362,"lon":139.680997601986,"males_count":0,"females_count":0,"multipurposes_count":0},{"name":"桜山公園","address":"中野区東中野3-22","lat":35.7071588432862,"lon":139.679992565608,"males_count":0,"females_count":0,"multipurposes_count":0},{"name":"すみよし公園","address":"中野区東中野4-25","lat":35.710018794174,"lon":139.687438483098,"males_count":0,"females_count":0,"multipurposes_count":0},{"name":"南台公園","address":"中野区南台5-7","lat":35.6811825439445,"lon":139.663578979463,"males_count":0,"females_count":0,"multipurposes_count":0},{"name":"早稲田通り公園","address":"中野区野方1-35","lat":35.7096525625923,"lon":139.656147391675,"males_count":0,"females_count":0,"multipurposes_count":0},{"name":"東山公園","address":"中野区野方4-41","lat":35.722305635132,"lon":139.657266715813,"males_count":0,"females_count":0,"multipurposes_count":0},{"name":"栄町公園","address":"中野区弥生町4-20","lat":35.6864959084208,"lon":139.671450007522,"males_count":0,"females_count":0,"multipurposes_count":0},{"name":"弥生公園","address":"中野区弥生町5-4","lat":35.6861538147143,"lon":139.666859756961,"males_count":0,"females_count":0,"multipurposes_count":0},{"name":"丸太公園","address":"中野区弥生町6-2","lat":35.6869178912518,"lon":139.662472274252,"males_count":0,"females_count":0,"multipurposes_count":0},{"name":"哲学堂公園（児童遊園）","address":"中野区松が丘1-34","lat":35.7221667428125,"lon":139.674631336072,"males_count":0,"females_count":0,"multipurposes_count":0},{"name":"哲学堂公園（桜広場）","address":"中野区松が丘1-34","lat":35.7218379061478,"lon":139.673056904227,"males_count":0,"females_count":0,"multipurposes_count":0},{"name":"哲学堂公園（桜広場）","address":"中野区松が丘1-34","lat":35.721525547256,"lon":139.675420227041,"males_count":0,"females_count":0,"multipurposes_count":0},{"name":"中野四季の森公園（芝生エリア）","address":"中野区中野4-12,13","lat":35.7080633975564,"lon":139.66128904499,"males_count":0,"females_count":0,"multipurposes_count":0},{"name":"中野四季の森公園（イベントエリア）","address":"中野区中野4-12,13","lat":35.7085202328174,"lon":139.661647094537,"males_count":0,"females_count":0,"multipurposes_count":0},{"name":"杉山公園","address":"中野区本町6-15","lat":35.6970215132793,"lon":139.667184388726,"males_count":0,"females_count":0,"multipurposes_count":0},{"name":"若宮公園","address":"中野区若宮3-21","lat":35.7217665318406,"lon":139.643358462125,"males_count":0,"females_count":0,"multipurposes_count":0},{"name":"川添公園","address":"中野区東中野1-22","lat":35.7036181214731,"lon":139.686273398706,"males_count":0,"females_count":0,"multipurposes_count":0},{"name":"かせい公園","address":"中野区若宮3-5","lat":35.7207561982194,"lon":139.646130402043,"males_count":0,"females_count":0,"multipurposes_count":0},{"name":"本一公園","address":"中野区本町1-23","lat":35.6942083945866,"lon":139.682629054893,"males_count":0,"females_count":0,"multipurposes_count":0},{"name":"中央公園","address":"中野区中央5-42","lat":35.7006611064281,"lon":139.66656380571,"males_count":0,"females_count":0,"multipurposes_count":0},{"name":"氷川公園","address":"中野区東中野1-11","lat":35.7030766981442,"lon":139.68320647481,"males_count":0,"females_count":0,"multipurposes_count":0},{"name":"本町通り公園","address":"中野区中央2-46","lat":35.6990358704951,"lon":139.677187374688,"males_count":0,"females_count":0,"multipurposes_count":0},{"name":"天神公園","address":"中野区中野5-8","lat":35.7073944973073,"lon":139.67194566085,"males_count":0,"females_count":0,"multipurposes_count":0},{"name":"大和花公園","address":"中野区大和町1-54","lat":35.7116789776704,"lon":139.649867963257,"males_count":0,"females_count":0,"multipurposes_count":0},{"name":"花見公園","address":"中野区弥生町2-7","lat":35.692322154718,"lon":139.676388823834,"males_count":0,"females_count":0,"multipurposes_count":0},{"name":"西鷺公園","address":"中野区鷺宮6-31","lat":35.7266662558677,"lon":139.626305710153,"males_count":0,"females_count":0,"multipurposes_count":0},{"name":"若葉公園","address":"中野区鷺宮5-11","lat":35.7251945605238,"lon":139.631579315435,"males_count":0,"females_count":0,"multipurposes_count":0},{"name":"ささの葉公園","address":"中野区南台4-14","lat":35.6830109445243,"lon":139.666657560746,"males_count":0,"females_count":0,"multipurposes_count":0},{"name":"わかたけ公園","address":"中野区鷺宮1-5","lat":35.7221518436965,"lon":139.647872881982,"males_count":0,"females_count":0,"multipurposes_count":0},{"name":"こぐま公園","address":"中野区江原町3-17","lat":35.7317806640607,"lon":139.673370966108,"males_count":0,"females_count":0,"multipurposes_count":0},{"name":"みたけ公園","address":"中野区鷺宮3-31","lat":35.7239042286481,"lon":139.639072076172,"males_count":0,"females_count":0,"multipurposes_count":0},{"name":"そろの木公園","address":"中野区白鷺2-38","lat":35.7207790764288,"lon":139.635394893562,"males_count":0,"females_count":0,"multipurposes_count":0},{"name":"あじさい公園","address":"中野区中野5-34","lat":35.7072457949975,"lon":139.667772351112,"males_count":0,"females_count":0,"multipurposes_count":0},{"name":"たんぽぽ公園","address":"中野区野方2-61","lat":35.714593716122,"lon":139.654775133367,"males_count":0,"females_count":0,"multipurposes_count":0},{"name":"すみれ公園","address":"中野区中野5-5","lat":35.7090723642241,"lon":139.671660514477,"males_count":0,"females_count":0,"multipurposes_count":0},{"name":"くるみ公園","address":"中野区野方5-28","lat":35.7195389808738,"lon":139.653287042201,"males_count":0,"females_count":0,"multipurposes_count":0},{"name":"れんげ公園","address":"中野区弥生町5-8","lat":35.6887833185381,"lon":139.665071967683,"males_count":0,"females_count":0,"multipurposes_count":0},{"name":"若の芽公園","address":"中野区本町1-5","lat":35.6928453365486,"lon":139.683304340984,"males_count":0,"females_count":0,"multipurposes_count":0},{"name":"みどり公園","address":"中野区東中野3-11","lat":35.7085587403648,"lon":139.682687816861,"males_count":0,"females_count":0,"multipurposes_count":0},{"name":"いちょう公園","address":"中野区中央4-50","lat":35.7022714773871,"lon":139.669385720611,"males_count":0,"females_count":0,"multipurposes_count":0},{"name":"ゆりの木公園","address":"中野区中央1-20","lat":35.698809664729,"lon":139.686649272971,"males_count":0,"females_count":0,"multipurposes_count":0},{"name":"ぱんだ公園","address":"中野区弥生町3-34","lat":35.6892047823036,"lon":139.674560524816,"males_count":0,"females_count":0,"multipurposes_count":0},{"name":"おたき公園","address":"中野区東中野5-23","lat":35.7101139802985,"lon":139.69208053385,"males_count":0,"females_count":0,"multipurposes_count":0},{"name":"昭三公園","address":"中野区中野5-41","lat":35.7096261641216,"lon":139.668129549618,"males_count":0,"females_count":0,"multipurposes_count":0},{"name":"みつわ公園","address":"中野区若宮1-42","lat":35.7188033876195,"lon":139.647449023666,"males_count":0,"females_count":0,"multipurposes_count":0},{"name":"文園西公園","address":"中野区中野6-23","lat":35.7065822494582,"lon":139.674526209953,"males_count":0,"females_count":0,"multipurposes_count":0},{"name":"松が丘公園","address":"中野区松が丘1-2","lat":35.7172760545576,"lon":139.671228626868,"males_count":0,"females_count":0,"multipurposes_count":0},{"name":"みずき公園","address":"中野区中央2-54","lat":35.7006987896395,"lon":139.6758151451,"males_count":0,"females_count":0,"multipurposes_count":0},{"name":"弥生二丁目公園","address":"中野区弥生町2-19","lat":35.6909015365455,"lon":139.674694121641,"males_count":0,"females_count":0,"multipurposes_count":0},{"name":"新井東公園","address":"中野区新井1-19","lat":35.7117574489742,"lon":139.668301751069,"males_count":0,"females_count":0,"multipurposes_count":0},{"name":"上町公園","address":"中野区中央4-36","lat":35.701163003395,"lon":139.67026072592,"males_count":0,"females_count":0,"multipurposes_count":0},{"name":"南台三丁目公園","address":"中野区南台3-41","lat":35.6824706030013,"lon":139.663625080882,"males_count":0,"females_count":0,"multipurposes_count":0},{"name":"上高田三丁目公園","address":"中野区上高田3-10","lat":35.7135091884978,"lon":139.675528916707,"males_count":0,"females_count":0,"multipurposes_count":0},{"name":"鷺南公園","address":"中野区若宮2-48","lat":35.7183705754822,"lon":139.642823770556,"males_count":0,"females_count":0,"multipurposes_count":0},{"name":"本二東郷やすらぎ公園（北側）","address":"中野区本町2-14","lat":35.6941183015078,"lon":139.677721857752,"males_count":0,"females_count":0,"multipurposes_count":0},{"name":"本二東郷やすらぎ公園（北側）","address":"中野区本町2-14","lat":35.694448025779,"lon":139.678284629964,"males_count":0,"females_count":0,"multipurposes_count":0},{"name":"小淀公園","address":"中野区中央1-24","lat":35.7008514475903,"lon":139.686417033983,"males_count":0,"females_count":0,"multipurposes_count":0},{"name":"仲町公園","address":"中野区中央3-17","lat":35.7008065645425,"lon":139.674007653589,"males_count":0,"females_count":0,"multipurposes_count":0},{"name":"大和鹿鳴公園","address":"中野区大和町3-27","lat":35.7128393386944,"lon":139.646308524576,"males_count":0,"females_count":0,"multipurposes_count":0},{"name":"弥生こぶし公園","address":"中野区弥生町1-40","lat":35.6879533383165,"lon":139.676269137391,"males_count":0,"females_count":0,"multipurposes_count":0},{"name":"ひまわり公園","address":"中野区中央2-52","lat":35.699630980574,"lon":139.675630710969,"males_count":0,"females_count":0,"multipurposes_count":0},{"name":"白鷺ネムノキ公園","address":"中野区白鷺1-7","lat":35.7174652613121,"lon":139.637786578436,"males_count":0,"females_count":0,"multipurposes_count":0},{"name":"わかさぎ公園","address":"中野区若宮2-56","lat":35.7174220976181,"lon":139.640591566203,"males_count":0,"females_count":0,"multipurposes_count":0},{"name":"若宮オリーブ公園","address":"中野区若宮3-57","lat":35.7200454116048,"lon":139.640309601643,"males_count":0,"females_count":0,"multipurposes_count":0},{"name":"囲町ひろば","address":"中野区中野4-21","lat":35.7063369806861,"lon":139.660182124721,"males_count":0,"females_count":0,"multipurposes_count":0},{"name":"白鷺せせらぎ公園（北側）","address":"中野区白鷺1-4","lat":35.7176402633595,"lon":139.639104348886,"males_count":0,"females_count":0,"multipurposes_count":0},{"name":"白鷺せせらぎ公園（南側）","address":"中野区白鷺1-4","lat":35.7169041503262,"lon":139.639582686039,"males_count":0,"females_count":0,"multipurposes_count":0},{"name":"南台いちょう公園","address":"中野区南台1-15","lat":35.6846250180609,"lon":139.672958625554,"males_count":0,"females_count":0,"multipurposes_count":0},{"name":"本五ふれあい公園（中野通り側）","address":"中野区本町5-28","lat":35.6917168064586,"lon":139.669174422319,"males_count":0,"females_count":0,"multipurposes_count":0},{"name":"本五ふれあい公園（中学校側）","address":"中野区本町5-28","lat":35.6921040044992,"lon":139.670543856233,"males_count":0,"females_count":0,"multipurposes_count":0},{"name":"マロニエひろば","address":"中野区南台3-26","lat":35.6854532541751,"lon":139.665416159155,"males_count":0,"females_count":0,"multipurposes_count":0},{"name":"なかしん広場","address":"中野区本町3-2","lat":35.6932022371149,"lon":139.67453688134,"males_count":0,"females_count":0,"multipurposes_count":0},{"name":"追分公園","address":"中野区中央4-7","lat":35.6982101587785,"lon":139.668896869687,"males_count":0,"females_count":0,"multipurposes_count":0},{"name":"鷺宮運動広場","address":"中野区白鷺3-1","lat":35.7219869694579,"lon":139.635704882865,"males_count":0,"females_count":0,"multipurposes_count":0},{"name":"妙正寺川公園","address":"中野区松が丘1-33","lat":35.7206754021441,"lon":139.673009693847,"males_count":0,"females_count":0,"multipurposes_count":0},{"name":"千代田公園","address":"中野区本町5-31","lat":35.6928683660382,"lon":139.669494688791,"males_count":0,"females_count":0,"multipurposes_count":0},{"name":"平和の森公園（南側）","address":"中野区新井3-37","lat":35.7150289477404,"lon":139.66073426336,"males_count":0,"females_count":0,"multipurposes_count":0},{"name":"平和の森公園（北側）","address":"中野区新井3-37","lat":35.7175675710429,"lon":139.663201726109,"males_count":0,"females_count":0,"multipurposes_count":0},{"name":"新井南公園","address":"中野区新井2-31","lat":35.710881019487,"lon":139.662414013646,"males_count":0,"females_count":0,"multipurposes_count":0},{"name":"朝日が丘児童館","address":"中野区本町2-32","lat":35.6949996639588,"lon":139.681091666446,"males_count":0,"females_count":0,"multipurposes_count":0},{"name":"南部高齢者会館","address":"中野区南台5-24","lat":35.6832811882955,"lon":139.660793698193,"males_count":0,"females_count":0,"multipurposes_count":0},{"name":"上高田東高齢者会館","address":"中野区上高田4-17","lat":35.7129715052834,"lon":139.67793795124,"males_count":0,"females_count":0,"multipurposes_count":0},{"name":"上高田児童館","address":"中野区上高田5-29","lat":35.7185149534604,"lon":139.675094594397,"males_count":0,"females_count":0,"multipurposes_count":0},{"name":"清掃事務所南中野事業所","address":"中野区弥生町6-1","lat":35.6851284202428,"lon":139.662163500275,"males_count":0,"females_count":0,"multipurposes_count":0},{"name":"野方ふれあい広場","address":"中野区野方5-19","lat":35.7188768211095,"lon":139.652017457343,"males_count":0,"females_count":0,"multipurposes_count":0},{"name":"川島ふれあい広場（コスモくん広場）","address":"中野区弥生町3-24","lat":35.6877263532296,"lon":139.673315468827,"males_count":0,"females_count":0,"multipurposes_count":0},{"name":"武蔵台公園","address":"中野区上鷺宮5-26","lat":35.7304809231083,"lon":139.630252619218,"males_count":0,"females_count":0,"multipurposes_count":0},{"name":"多摩平第8公園","address":"東京都日野市多摩平3丁目10","lat":35.664113,"lon":139.376548,"males_count":0,"females_count":0,"multipurposes_count":0},{"name":"大久保公園","address":"東京都日野市多摩平7丁目26","lat":35.670364,"lon":139.390043,"males_count":0,"females_count":0,"multipurposes_count":0},{"name":"新坂下公園","address":"東京都日野市新町3丁目18-7","lat":35.682005,"lon":139.385563,"males_count":0,"females_count":0,"multipurposes_count":0},{"name":"河内公園","address":"東京都日野市百草2015","lat":35.659377,"lon":139.432971,"males_count":0,"females_count":0,"multipurposes_count":1},{"name":"東豊田公園","address":"東京都日野市東豊田1丁目33-26","lat":35.661762,"lon":139.390964,"males_count":0,"females_count":0,"multipurposes_count":1},{"name":"出口公園","address":"東京都日野市平山5丁目39","lat":35.64865,"lon":139.3815,"males_count":0,"females_count":0,"multipurposes_count":1},{"name":"豊田電車区公園","address":"東京都日野市東平山3丁目26-23","lat":35.651939,"lon":139.375211,"males_count":0,"females_count":0,"multipurposes_count":1},{"name":"四ッ谷下東公園","address":"東京都日野市日野本町5丁目23-1","lat":35.683329,"lon":139.399817,"males_count":0,"females_count":0,"multipurposes_count":0},{"name":"落川河原公園","address":"東京都日野市落川2203外","lat":35.65912,"lon":139.434622,"males_count":0,"females_count":0,"multipurposes_count":1},{"name":"旭が丘中央公園","address":"東京都日野市旭が丘5丁目1-1","lat":35.657524,"lon":139.366526,"males_count":0,"females_count":2,"multipurposes_count":1},{"name":"万願寺中央公園","address":"東京都日野市万願寺4丁目20-12","lat":35.671122,"lon":139.413625,"males_count":0,"females_count":2,"multipurposes_count":1},{"name":"日野中央公園","address":"東京都日野市神明2丁目13-2","lat":35.670691,"lon":139.393399,"males_count":0,"females_count":2,"multipurposes_count":1},{"name":"浅川スポーツ公園","address":"東京都日野市万願寺5丁目3-5","lat":35.668381,"lon":139.412298,"males_count":0,"females_count":0,"multipurposes_count":1},{"name":"多摩平第1公園","address":"東京都日野市多摩平4丁目2","lat":35.665985,"lon":139.378524,"males_count":0,"females_count":2,"multipurposes_count":1},{"name":"百草台自然公園","address":"東京都日野市百草914-85","lat":35.652734,"lon":139.421978,"males_count":0,"females_count":2,"multipurposes_count":1},{"name":"駒形公園","address":"東京都日野市川辺堀之内地先","lat":35.665775,"lon":139.402253,"males_count":0,"females_count":2,"multipurposes_count":1},{"name":"南平丘陵公園","address":"東京都日野市南平8丁目8-3","lat":35.653247,"lon":139.396286,"males_count":0,"females_count":2,"multipurposes_count":1},{"name":"市民の森スポーツ公園","address":"東京都日野市日野本町7丁目12-1","lat":35.681038,"lon":139.401634,"males_count":0,"females_count":2,"multipurposes_count":0},{"name":"七ッ塚公園","address":"東京都日野市新町5丁目20-1","lat":35.68155,"lon":139.378449,"males_count":0,"females_count":0,"multipurposes_count":0},{"name":"北川原公園","address":"東京都日野市石田1丁目236","lat":35.669767,"lon":139.424158,"males_count":0,"females_count":2,"multipurposes_count":1},{"name":"黒川清流公園","address":"東京都日野市東豊田3丁目16-1","lat":35.666566,"lon":139.387643,"males_count":0,"females_count":0,"multipurposes_count":0},{"name":"倉沢第一緑地","address":"東京都日野市百草731-1","lat":35.646917,"lon":139.42686,"males_count":0,"females_count":0,"multipurposes_count":0},{"name":"大和田運動広場","address":"東京都八王子市大和田","lat":35.653891,"lon":139.359253,"males_count":0,"females_count":0,"multipurposes_count":0},{"name":"まつばやし地区広場","address":"東京都日野市日野7773-585","lat":35.679319,"lon":139.41353,"males_count":0,"females_count":0,"multipurposes_count":0},{"name":"おちかわ地区広場","address":"東京都日野市落川1530先","lat":35.661662,"lon":139.433263,"males_count":0,"females_count":0,"multipurposes_count":0},{"name":"あずまちょう地区広場","address":"東京都日野市日野1237-5","lat":35.681676,"lon":139.407052,"males_count":0,"females_count":0,"multipurposes_count":0},{"name":"田中こども広場","address":"東京都日野市南平8丁目5","lat":35.651286,"lon":139.393316,"males_count":0,"females_count":0,"multipurposes_count":0},{"name":"日野駅前公衆トイレ","address":"東京都日野市大坂上1丁目9-6","lat":35.679288,"lon":139.393541,"males_count":0,"females_count":2,"multipurposes_count":1},{"name":"平山4丁目22番地先トイレ","address":"東京都日野市平山4丁目22先","lat":35.651416,"lon":139.383728,"males_count":0,"females_count":2,"multipurposes_count":1},{"name":"防災情報センター","address":"東京都日野市神明1丁目11-16","lat":35.670087,"lon":139.396051,"males_count":0,"females_count":2,"multipurposes_count":1},{"name":"防災情報センター","address":"東京都日野市神明1丁目11-16","lat":35.670087,"lon":139.396051,"males_count":0,"females_count":2,"multipurposes_count":0},{"name":"日野市立とよだ市民ギャラリー","address":"東京都日野市多摩平2丁目3-4オリエント丹野マンションB-102","lat":35.660949,"lon":139.381076,"males_count":0,"females_count":0,"multipurposes_count":0},{"name":"市民の森ふれあいホール","address":"東京都日野市日野本町6丁目1-3","lat":35.681139,"lon":139.40277,"males_count":0,"females_count":9,"multipurposes_count":0},{"name":"市民の森ふれあいホール","address":"東京都日野市日野本町6丁目1-3","lat":35.681139,"lon":139.40277,"males_count":0,"females_count":4,"multipurposes_count":0},{"name":"市民の森ふれあいホール","address":"東京都日野市日野本町6丁目1-3","lat":35.681139,"lon":139.40277,"males_count":0,"females_count":2,"multipurposes_count":0},{"name":"市民会館","address":"東京都日野市神明1丁目12-1","lat":35.670549,"lon":139.39549,"males_count":0,"females_count":26,"multipurposes_count":0},{"name":"市民会館","address":"東京都日野市神明1丁目12-1","lat":35.670549,"lon":139.39549,"males_count":0,"females_count":22,"multipurposes_count":0},{"name":"市民会館","address":"東京都日野市神明1丁目12-1","lat":35.670549,"lon":139.39549,"males_count":0,"females_count":2,"multipurposes_count":0},{"name":"七生公会堂","address":"東京都日野市三沢3丁目50-1","lat":35.658131,"lon":139.414008,"males_count":0,"females_count":2,"multipurposes_count":0},{"name":"七生公会堂","address":"東京都日野市三沢3丁目50-1","lat":35.658131,"lon":139.414008,"males_count":0,"females_count":5,"multipurposes_count":0},{"name":"発達・教育支援センター","address":"東京都日野市旭が丘2丁目42-8","lat":35.662993,"lon":139.368791,"males_count":0,"females_count":3,"multipurposes_count":1},{"name":"発達・教育支援センター","address":"東京都日野市旭が丘2丁目42-8","lat":35.662993,"lon":139.368791,"males_count":0,"females_count":3,"multipurposes_count":1},{"name":"中央公民館","address":"東京都日野市日野本町7丁目5-23","lat":35.679482,"lon":139.400109,"males_count":0,"females_count":2,"multipurposes_count":1},{"name":"中央公民館","address":"東京都日野市日野本町7丁目5-23","lat":35.679482,"lon":139.400109,"males_count":0,"females_count":2,"multipurposes_count":1},{"name":"生活・保健センター","address":"東京都日野市日野本町1丁目6-2","lat":35.675845,"lon":139.400125,"males_count":0,"females_count":3,"multipurposes_count":1},{"name":"生活・保健センター","address":"東京都日野市日野本町1丁目6-2","lat":35.675845,"lon":139.400125,"males_count":0,"females_count":9,"multipurposes_count":1},{"name":"落川交流センター","address":"東京都日野市落川1400","lat":35.662767,"lon":139.430199,"males_count":0,"females_count":2,"multipurposes_count":2},{"name":"落川交流センター","address":"東京都日野市落川1400","lat":35.662767,"lon":139.430199,"males_count":0,"females_count":0,"multipurposes_count":1},{"name":"新町交流センター","address":"東京都日野市新町1丁目13","lat":35.679838,"lon":139.391334,"males_count":0,"females_count":8,"multipurposes_count":2},{"name":"東町交流センター","address":"東京都日野市日野1241-1","lat":35.680722,"lon":139.408271,"males_count":0,"females_count":2,"multipurposes_count":1},{"name":"万願寺交流センター","address":"東京都日野市万願寺4丁目20-12","lat":35.670987,"lon":139.415429,"males_count":0,"females_count":2,"multipurposes_count":1},{"name":"南平駅西交流センター","address":"東京都日野市平山4丁目18-1","lat":35.652029,"lon":139.38872,"males_count":0,"females_count":3,"multipurposes_count":1},{"name":"東部会館","address":"東京都日野市石田1丁目11-1","lat":35.668099,"lon":139.420673,"males_count":0,"females_count":3,"multipurposes_count":0},{"name":"東部会館","address":"東京都日野市石田1丁目11-1","lat":35.668099,"lon":139.420673,"males_count":0,"females_count":1,"multipurposes_count":0},{"name":"東部会館","address":"東京都日野市石田1丁目11-1","lat":35.668099,"lon":139.420673,"males_count":0,"females_count":3,"multipurposes_count":1},{"name":"東部会館","address":"東京都日野市石田1丁目11-1","lat":35.668099,"lon":139.420673,"males_count":0,"females_count":3,"multipurposes_count":0},{"name":"豊田南交流ハウス","address":"東京都日野市豊田4丁目29-8","lat":35.658742,"lon":139.387684,"males_count":0,"females_count":0,"multipurposes_count":0},{"name":"百草台コミュニティセンター","address":"東京都日野市百草999","lat":35.653789,"lon":139.419097,"males_count":0,"females_count":4,"multipurposes_count":1},{"name":"百草台コミュニティセンター","address":"東京都日野市百草999","lat":35.653789,"lon":139.419097,"males_count":0,"females_count":3,"multipurposes_count":0},{"name":"百草台コミュニティセンター","address":"東京都日野市百草999","lat":35.653789,"lon":139.419097,"males_count":0,"females_count":4,"multipurposes_count":0},{"name":"ひの市民活動支援センター","address":"東京都日野市日野1369-27","lat":35.679026,"lon":139.406347,"males_count":0,"females_count":0,"multipurposes_count":0},{"name":"平山台健康・市民支援センター","address":"東京都日野市平山2丁目1-1","lat":35.64071,"lon":139.386998,"males_count":0,"females_count":2,"multipurposes_count":0},{"name":"平山台健康・市民支援センター","address":"東京都日野市平山2丁目1-1","lat":35.64071,"lon":139.386998,"males_count":0,"females_count":3,"multipurposes_count":0},{"name":"平山台健康・市民支援センター","address":"東京都日野市平山2丁目1-1","lat":35.64071,"lon":139.386998,"males_count":0,"females_count":2,"multipurposes_count":0},{"name":"多摩平の森ふれあい館","address":"東京都日野市多摩平2丁目9","lat":35.663322,"lon":139.381592,"males_count":0,"females_count":4,"multipurposes_count":1},{"name":"多摩平の森ふれあい館","address":"東京都日野市多摩平2丁目9","lat":35.663322,"lon":139.381592,"males_count":0,"females_count":4,"multipurposes_count":1},{"name":"多摩平の森ふれあい館","address":"東京都日野市多摩平2丁目9","lat":35.663322,"lon":139.381592,"males_count":0,"females_count":4,"multipurposes_count":1},{"name":"平山季重ふれあい館","address":"東京都日野市平山5丁目18-2","lat":35.647156,"lon":139.380403,"males_count":0,"females_count":2,"multipurposes_count":1},{"name":"平山季重ふれあい館","address":"東京都日野市平山5丁目18-2","lat":35.647156,"lon":139.380403,"males_count":0,"females_count":3,"multipurposes_count":1},{"name":"平山季重ふれあい館","address":"東京都日野市平山5丁目18-2","lat":35.647156,"lon":139.380403,"males_count":0,"females_count":3,"multipurposes_count":1},{"name":"中央図書館","address":"東京都日野市豊田2丁目49-2","lat":35.656179,"lon":139.382243,"males_count":0,"females_count":2,"multipurposes_count":1},{"name":"日野市立日野図書館","address":"東京都日野市日野本町7丁目5-14","lat":35.678758,"lon":139.399523,"males_count":0,"females_count":3,"multipurposes_count":2},{"name":"高幡図書館","address":"東京都日野市三沢4丁目1-12","lat":35.658811,"lon":139.413394,"males_count":0,"females_count":1,"multipurposes_count":1},{"name":"高幡図書館","address":"東京都日野市三沢4丁目1-12","lat":35.658811,"lon":139.413394,"males_count":0,"females_count":1,"multipurposes_count":0},{"name":"百草図書館","address":"東京都日野市百草204-1","lat":35.657706,"lon":139.430909,"males_count":0,"females_count":2,"multipurposes_count":1},{"name":"新選組のふるさと歴史館","address":"東京都日野市神明4丁目16-1","lat":35.67346,"lon":139.396494,"males_count":0,"females_count":2,"multipurposes_count":1},{"name":"日野宿交流館","address":"東京都日野市日野本町7丁目5-6","lat":35.678636,"lon":139.400009,"males_count":0,"females_count":2,"multipurposes_count":1},{"name":"日野宿交流館","address":"東京都日野市日野本町7丁目5-6","lat":35.678636,"lon":139.400009,"males_count":0,"females_count":2,"multipurposes_count":0},{"name":"日野宿本陣","address":"東京都日野市日野本町2丁目15-9","lat":35.678134,"lon":139.399657,"males_count":0,"females_count":1,"multipurposes_count":0},{"name":"京王高幡SC","address":"東京都日野市高幡128-5","lat":35.661854,"lon":139.413728,"males_count":0,"females_count":3,"multipurposes_count":2},{"name":"PlanT","address":"東京都日野市多摩平2丁目5-1","lat":35.663018,"lon":139.380219,"males_count":0,"females_count":2,"multipurposes_count":1},{"name":"勤労・青年会館","address":"東京都日野市多摩平1丁目10-1","lat":35.659737,"lon":139.380497,"males_count":0,"females_count":3,"multipurposes_count":1},{"name":"日野市役所本庁舎","address":"東京都日野市神明1丁目12-1","lat":35.67126,"lon":139.395194,"males_count":0,"females_count":1,"multipurposes_count":0},{"name":"日野市役所本庁舎","address":"東京都日野市神明1丁目12-1","lat":35.67126,"lon":139.395194,"males_count":0,"females_count":2,"multipurposes_count":1},{"name":"日野市役所本庁舎","address":"東京都日野市神明1丁目12-1","lat":35.67126,"lon":139.395194,"males_count":0,"females_count":2,"multipurposes_count":1},{"name":"日野市役所本庁舎","address":"東京都日野市神明1丁目12-1","lat":35.67126,"lon":139.395194,"males_count":0,"females_count":3,"multipurposes_count":0},{"name":"日野市役所本庁舎","address":"東京都日野市神明1丁目12-1","lat":35.67126,"lon":139.395194,"males_count":0,"females_count":3,"multipurposes_count":0},{"name":"日野市役所本庁舎","address":"東京都日野市神明1丁目12-1","lat":35.67126,"lon":139.395194,"males_count":0,"females_count":3,"multipurposes_count":0},{"name":"日野市役所本庁舎","address":"東京都日野市神明1丁目12-1","lat":35.67126,"lon":139.395194,"males_count":0,"females_count":3,"multipurposes_count":0},{"name":"日野市役所本庁舎","address":"東京都日野市神明1丁目12-1","lat":35.67126,"lon":139.395194,"males_count":0,"females_count":0,"multipurposes_count":0},{"name":"建築指導課","address":"東京都日野市神明2丁目12-3","lat":35.666667,"lon":139.394889,"males_count":0,"females_count":2,"multipurposes_count":1},{"name":"教育センター","address":"東京都日野市程久保550","lat":35.652445,"lon":139.411594,"males_count":0,"females_count":3,"multipurposes_count":1},{"name":"教育センター","address":"東京都日野市程久保550","lat":35.652445,"lon":139.411594,"males_count":0,"females_count":4,"multipurposes_count":0},{"name":"教育センター","address":"東京都日野市程久保550","lat":35.652445,"lon":139.411594,"males_count":0,"females_count":2,"multipurposes_count":0},{"name":"教育センター","address":"東京都日野市程久保550","lat":35.652445,"lon":139.411594,"males_count":0,"females_count":4,"multipurposes_count":0},{"name":"カワセミハウス","address":"東京都日野市東豊田3丁目26-1","lat":35.663508,"lon":139.384808,"males_count":0,"females_count":2,"multipurposes_count":1},{"name":"多摩市役所本庁舎","address":"東京都多摩市関戸6-12-1","lat":35.637005,"lon":139.446309,"males_count":50,"females_count":27,"multipurposes_count":4},{"name":"多摩市役所東庁舎","address":"東京都多摩市関戸6-12-1","lat":35.637531,"lon":139.447674,"males_count":13,"females_count":5,"multipurposes_count":1},{"name":"多摩市役所第二庁舎","address":"東京都多摩市関戸6-12-1","lat":35.63709,"lon":139.447512,"males_count":10,"females_count":6,"multipurposes_count":2},{"name":"多摩市役所第三庁舎","address":"東京都多摩市関戸6-12-1","lat":35.637785,"lon":139.446913,"males_count":3,"females_count":1,"multipurposes_count":0},{"name":"多摩市役所東会議室","address":"東京都多摩市関戸6-12-1","lat":35.638121,"lon":139.447037,"males_count":10,"females_count":4,"multipurposes_count":0},{"name":"多摩市役所西会議室","address":"東京都多摩市関戸6-12-1","lat":35.636673,"lon":139.445879,"males_count":6,"females_count":4,"multipurposes_count":0},{"name":"多摩市立健康センター","address":"東京都多摩市関戸4-19-5","lat":35.649083,"lon":139.449703,"males_count":25,"females_count":13,"multipurposes_count":4},{"name":"多摩市立関戸公民館","address":"東京都多摩市関戸4-72","lat":35.649842,"lon":139.446839,"males_count":16,"females_count":13,"multipurposes_count":4},{"name":"多摩市立永山公民館","address":"東京都多摩市永山1-5","lat":35.628346,"lon":139.448415,"males_count":13,"females_count":11,"multipurposes_count":3},{"name":"桜ヶ丘集会所","address":"東京都多摩市桜ケ丘1-1","lat":35.641171,"lon":139.444489,"males_count":2,"females_count":2,"multipurposes_count":0},{"name":"関戸第一倶楽部","address":"東京都多摩市関戸5-35-3","lat":35.641091,"lon":139.449915,"males_count":1,"females_count":0,"multipurposes_count":0},{"name":"一ノ宮集会所","address":"東京都多摩市一ノ宮1-18-8","lat":35.652857,"lon":139.441793,"males_count":2,"females_count":0,"multipurposes_count":0},{"name":"連光寺本村集会所","address":"東京都多摩市連光寺2-27-16","lat":35.643045,"lon":139.455529,"males_count":1,"females_count":0,"multipurposes_count":0},{"name":"東部集会所","address":"東京都多摩市連光寺6-21-4","lat":35.63244,"lon":139.465052,"males_count":1,"females_count":0,"multipurposes_count":0},{"name":"桜ヶ丘一ノ宮集会所","address":"東京都多摩市一ノ宮4-37-5","lat":35.649741,"lon":139.438517,"males_count":1,"females_count":0,"multipurposes_count":0},{"name":"東寺方自治会会館","address":"東京都多摩市東寺方626-2","lat":35.643235,"lon":139.438042,"males_count":2,"females_count":0,"multipurposes_count":0},{"name":"和田稲荷塚集会所","address":"東京都多摩市百草1139-2","lat":35.638443,"lon":139.434907,"males_count":2,"females_count":0,"multipurposes_count":0},{"name":"関戸河原クラブ","address":"東京都多摩市関戸2-3-8","lat":35.651526,"lon":139.45377,"males_count":2,"females_count":0,"multipurposes_count":0},{"name":"諏訪会館","address":"東京都多摩市諏訪5-2-1","lat":35.621548,"lon":139.454247,"males_count":2,"females_count":0,"multipurposes_count":0},{"name":"大貝戸集会所","address":"東京都多摩市乞田1101","lat":35.631779,"lon":139.438632,"males_count":1,"females_count":0,"multipurposes_count":0},{"name":"下落合集会所","address":"東京都多摩市愛宕4-14","lat":35.627782,"lon":139.425154,"males_count":1,"females_count":0,"multipurposes_count":0},{"name":"山王下集会所","address":"東京都多摩市山王下1-9","lat":35.626648,"lon":139.420797,"males_count":1,"females_count":0,"multipurposes_count":0},{"name":"中和田天神倶楽部","address":"東京都多摩市和田1023","lat":35.641083,"lon":139.425551,"males_count":1,"females_count":0,"multipurposes_count":0},{"name":"小野路集会所","address":"東京都多摩市南野2-14-1","lat":35.606957,"lon":139.432297,"males_count":0,"females_count":0,"multipurposes_count":0},{"name":"貝取クラブ","address":"東京都多摩市貝取1-56-9","lat":35.625845,"lon":139.438342,"males_count":2,"females_count":0,"multipurposes_count":0},{"name":"並木稲荷自治会館","address":"東京都多摩市和田72","lat":35.645075,"lon":139.43415,"males_count":1,"females_count":0,"multipurposes_count":0},{"name":"瓜生集会所","address":"東京都多摩市永山6-6-30","lat":35.616756,"lon":139.444716,"males_count":0,"females_count":0,"multipurposes_count":0},{"name":"馬引沢自治会館","address":"東京都多摩市馬引沢2-3-16","lat":35.632735,"lon":139.453492,"males_count":0,"females_count":0,"multipurposes_count":0},{"name":"青木葉集会所","address":"東京都多摩市落合2-24","lat":35.616249,"lon":139.42699,"males_count":0,"females_count":0,"multipurposes_count":0},{"name":"京王一ノ宮集会所","address":"東京都多摩市連光寺4-1-2","lat":35.640604,"lon":139.466481,"males_count":0,"females_count":0,"multipurposes_count":0},{"name":"永山橋集会所","address":"東京都多摩市諏訪1-3","lat":35.634009,"lon":139.447761,"males_count":0,"females_count":0,"multipurposes_count":0},{"name":"上乞田集会所","address":"東京都多摩市豊ケ丘1-17-1","lat":35.627965,"lon":139.431566,"males_count":0,"females_count":0,"multipurposes_count":0},{"name":"聖ヶ丘三丁目集会所","address":"東京都多摩市聖ケ丘3-43-5","lat":35.628701,"lon":139.458658,"males_count":0,"females_count":0,"multipurposes_count":0},{"name":"鶴牧五丁目集会所","address":"東京都多摩市鶴牧5-18-8","lat":35.610035,"lon":139.423269,"males_count":0,"females_count":0,"multipurposes_count":0},{"name":"聖ヶ丘四丁目集会所","address":"東京都多摩市聖ケ丘4-12-6","lat":35.628038,"lon":139.46231,"males_count":0,"females_count":0,"multipurposes_count":0},{"name":"木の実公園集会所","address":"東京都多摩市連光寺3-3-21","lat":35.64436,"lon":139.458779,"males_count":0,"females_count":0,"multipurposes_count":0},{"name":"聖ヶ丘二丁目集会所","address":"東京都多摩市聖ケ丘2-47-15","lat":35.634752,"lon":139.455039,"males_count":1,"females_count":0,"multipurposes_count":0},{"name":"聖ヶ丘南集会所","address":"東京都多摩市聖ヶ丘3-59-10","lat":35.628696,"lon":139.458632,"males_count":0,"females_count":0,"multipurposes_count":0},{"name":"南野集会所","address":"東京都多摩市南野3-9-22","lat":35.607861,"lon":139.422676,"males_count":0,"females_count":0,"multipurposes_count":0},{"name":"唐木田自治会館","address":"東京都多摩市唐木田1-13-2","lat":35.614267,"lon":139.406956,"males_count":1,"females_count":0,"multipurposes_count":0},{"name":"中組集会所","address":"東京都多摩市中沢2-20-12","lat":35.619329,"lon":139.414417,"males_count":0,"females_count":0,"multipurposes_count":0},{"name":"瓜生自治会館","address":"東京都多摩市永山2-19-17","lat":35.629488,"lon":139.44372,"males_count":1,"females_count":1,"multipurposes_count":0},{"name":"鶴牧有朋倶楽部","address":"東京都多摩市鶴牧5-25-8","lat":35.611048,"lon":139.421643,"males_count":0,"females_count":0,"multipurposes_count":0},{"name":"宝蔵橋むつみの家","address":"東京都多摩市和田1686","lat":35.650092,"lon":139.434923,"males_count":1,"females_count":0,"multipurposes_count":0},{"name":"聖ヶ丘一丁目集会所","address":"東京都多摩市聖ケ丘1-7-13","lat":35.638012,"lon":139.454646,"males_count":1,"females_count":0,"multipurposes_count":0},{"name":"永山六丁目集会所","address":"東京都多摩市永山6-27","lat":35.613159,"lon":139.445916,"males_count":1,"females_count":0,"multipurposes_count":0},{"name":"関戸南田倶楽部","address":"東京都多摩市聖ヶ丘1-27","lat":35.637517,"lon":139.452019,"males_count":0,"females_count":0,"multipurposes_count":0},{"name":"連光寺向ノ岡集会所","address":"東京都多摩市連光寺1-31-31-34","lat":35.64628,"lon":139.460241,"males_count":0,"females_count":0,"multipurposes_count":0},{"name":"関戸三丁目倶楽部","address":"東京都多摩市関戸3-10-11","lat":35.649789,"lon":139.455383,"males_count":2,"females_count":1,"multipurposes_count":0},{"name":"唐木田李久保自治会館","address":"東京都多摩市唐木田1-43-6","lat":35.61546,"lon":139.405335,"males_count":1,"females_count":1,"multipurposes_count":0},{"name":"永山橋第２集会所","address":"東京都多摩市永山1-10-10","lat":35.633129,"lon":139.446164,"males_count":0,"females_count":0,"multipurposes_count":0},{"name":"多摩市立永山図書館","address":"東京都多摩市永山1-5","lat":35.628322,"lon":139.448236,"males_count":5,"females_count":3,"multipurposes_count":1},{"name":"多摩市立図書館（本館）","address":"東京都多摩市落合2-29","lat":35.617565,"lon":139.425219,"males_count":15,"females_count":12,"multipurposes_count":1},{"name":"多摩市立東寺方図書館","address":"東京都多摩市東寺方626-7","lat":35.643283,"lon":139.437715,"males_count":5,"females_count":4,"multipurposes_count":1},{"name":"多摩市立豊ヶ丘図書館","address":"東京都多摩市豊ヶ丘5-6","lat":35.614673,"lon":139.434881,"males_count":3,"females_count":2,"multipurposes_count":1},{"name":"多摩市立関戸図書館","address":"東京都多摩市関戸1-1-5","lat":35.651883,"lon":139.445933,"males_count":3,"females_count":1,"multipurposes_count":0},{"name":"多摩市立東寺方地区市民ホール","address":"東京都多摩市東寺方626-7","lat":35.643283,"lon":139.437715,"males_count":18,"females_count":12,"multipurposes_count":3},{"name":"多摩市立諏訪地区市民ホール","address":"東京都多摩市諏訪5-1","lat":35.623547,"lon":139.45447,"males_count":9,"females_count":5,"multipurposes_count":2},{"name":"多摩市立豊ヶ丘地区市民ホール","address":"東京都多摩市豊ヶ丘5-6","lat":35.614464,"lon":139.434396,"males_count":10,"females_count":8,"multipurposes_count":2},{"name":"多摩市立桜ヶ丘コミュニティセンター","address":"東京都多摩市桜ヶ丘1-17-7","lat":35.639934,"lon":139.446501,"males_count":10,"females_count":5,"multipurposes_count":1},{"name":"多摩市立乞田・貝取コミュニティセンター","address":"東京都多摩市乞田810","lat":35.63091,"lon":139.434555,"males_count":12,"females_count":6,"multipurposes_count":2},{"name":"多摩市立鶴牧・落合・南野コミュニティセンター","address":"東京都多摩市落合6-5","lat":35.612293,"lon":139.425705,"males_count":14,"females_count":10,"multipurposes_count":3},{"name":"多摩市立貝取コミュニティセンター","address":"東京都多摩市貝取4-5-1","lat":35.615857,"lon":139.439809,"males_count":8,"females_count":8,"multipurposes_count":2},{"name":"多摩市立聖ヶ丘コミュニティセンター","address":"東京都多摩市聖ヶ丘2-21-1","lat":35.631149,"lon":139.458213,"males_count":15,"females_count":10,"multipurposes_count":3},{"name":"多摩市立愛宕コミュニティセンター","address":"東京都多摩市愛宕3-2","lat":35.633545,"lon":139.434483,"males_count":10,"females_count":6,"multipurposes_count":2},{"name":"多摩市立唐木田コミュニティセンター","address":"東京都多摩市鶴牧6-14","lat":35.615611,"lon":139.413448,"males_count":15,"females_count":0,"multipurposes_count":3},{"name":"三方の森コミュニティ会館","address":"東京都多摩市和田1254-12","lat":35.646177,"lon":139.416064,"males_count":5,"females_count":3,"multipurposes_count":1},{"name":"多摩市立和田・東寺方コミュニティセンター","address":"東京都多摩市和田2006-4","lat":35.64102,"lon":139.427437,"males_count":10,"females_count":6,"multipurposes_count":2},{"name":"多摩市立複合文化施設（パルテノン多摩）","address":"東京都多摩市落合2-35","lat":35.621686,"lon":139.426282,"males_count":0,"females_count":0,"multipurposes_count":0},{"name":"多摩市立豊ヶ丘児童館","address":"東京都多摩市豊ヶ丘5-6","lat":35.614535,"lon":139.434565,"males_count":5,"females_count":4,"multipurposes_count":1},{"name":"多摩市立諏訪児童館","address":"東京都多摩市諏訪2-8","lat":35.625341,"lon":139.451467,"males_count":3,"females_count":2,"multipurposes_count":0},{"name":"多摩市立東寺方児童館","address":"東京都多摩市東寺方626-7","lat":35.643283,"lon":139.437715,"males_count":6,"females_count":4,"multipurposes_count":0},{"name":"多摩市立永山児童館","address":"東京都多摩市永山3-6","lat":35.625519,"lon":139.445901,"males_count":3,"females_count":2,"multipurposes_count":0},{"name":"多摩市立桜ヶ丘児童館","address":"東京都多摩市桜ヶ丘1-17-7","lat":35.639809,"lon":139.446652,"males_count":0,"females_count":0,"multipurposes_count":0},{"name":"多摩市立唐木田児童館","address":"東京都多摩市鶴牧6-14","lat":35.615452,"lon":139.413275,"males_count":5,"females_count":3,"multipurposes_count":1},{"name":"多摩市立落合児童館","address":"東京都多摩市落合6-5","lat":35.612079,"lon":139.425586,"males_count":3,"females_count":2,"multipurposes_count":0},{"name":"多摩市立連光寺児童館","address":"東京都多摩市連光寺3-57-1","lat":35.642745,"lon":139.45683,"males_count":5,"females_count":4,"multipurposes_count":0},{"name":"多摩市立一ノ宮児童館","address":"東京都多摩市一ノ宮1-18-7","lat":35.652941,"lon":139.442784,"males_count":6,"females_count":4,"multipurposes_count":0},{"name":"多摩市立愛宕児童館","address":"東京都多摩市愛宕1-65-3","lat":35.634695,"lon":139.432505,"males_count":5,"females_count":4,"multipurposes_count":0},{"name":"多摩市立総合体育館","address":"東京都多摩市東寺方588-1","lat":35.643522,"lon":139.436218,"males_count":0,"females_count":0,"multipurposes_count":0},{"name":"多摩市立一本杉公園野球場","address":"東京都多摩市南野2-14-1","lat":35.607806,"lon":139.432195,"males_count":0,"females_count":0,"multipurposes_count":0},{"name":"多摩市立一本杉公園庭球場","address":"東京都多摩市南野2-14-1","lat":35.609218,"lon":139.432345,"males_count":0,"females_count":0,"multipurposes_count":0},{"name":"多摩市立陸上競技場","address":"東京都多摩市諏訪4-9","lat":35.625019,"lon":139.460299,"males_count":0,"females_count":0,"multipurposes_count":0},{"name":"多摩市立武道館","address":"東京都多摩市諏訪4-9","lat":35.625473,"lon":139.458919,"males_count":0,"females_count":0,"multipurposes_count":0},{"name":"多摩市立温水プール","address":"東京都多摩市南野3-15-2","lat":35.612308,"lon":139.413727,"males_count":0,"females_count":0,"multipurposes_count":0},{"name":"永山駅前公衆便所","address":"東京都多摩市永山1-45","lat":35.629392,"lon":139.447644,"males_count":3,"females_count":2,"multipurposes_count":1},{"name":"多摩センター駅前公衆便所","address":"東京都多摩市落合1-40-1","lat":35.624294,"lon":139.423819,"males_count":6,"females_count":5,"multipurposes_count":1},{"name":"聖蹟桜ヶ丘駅前公衆便所","address":"東京都多摩市関戸1-11-2","lat":35.650308,"lon":139.447155,"males_count":4,"females_count":2,"multipurposes_count":1},{"name":"豊ヶ丘商店街公衆便所","address":"東京都多摩市豊ヶ丘4-2","lat":null,"lon":null,"males_count":2,"females_count":1,"multipurposes_count":1},{"name":"グリーンライブセンター","address":"東京都多摩市落合2-35","lat":35.622263,"lon":139.427809,"males_count":3,"females_count":2,"multipurposes_count":1},{"name":"愛宕東公園","address":"東京都多摩市愛宕1-66","lat":35.633663,"lon":139.436535,"males_count":4,"females_count":2,"multipurposes_count":1},{"name":"愛宕第１公園","address":"東京都多摩市愛宕2-62","lat":35.635722,"lon":139.439777,"males_count":0,"females_count":0,"multipurposes_count":0},{"name":"愛宕第２公園","address":"東京都多摩市愛宕2-59","lat":35.63388,"lon":139.438262,"males_count":0,"females_count":0,"multipurposes_count":0},{"name":"愛宕第３公園","address":"東京都多摩市愛宕3-59","lat":35.632835,"lon":139.433702,"males_count":0,"females_count":0,"multipurposes_count":0},{"name":"青木葉公園","address":"東京都多摩市落合2-15-1","lat":35.617446,"lon":139.427168,"males_count":0,"females_count":0,"multipurposes_count":0},{"name":"一本杉公園","address":"東京都多摩市南野2-14","lat":null,"lon":null,"males_count":3,"females_count":2,"multipurposes_count":1},{"name":"一本杉公園","address":"東京都多摩市南野2-14","lat":35.607806,"lon":139.432195,"males_count":6,"females_count":2,"multipurposes_count":0},{"name":"一本杉公園","address":"東京都多摩市南野2-14","lat":35.609218,"lon":139.432345,"males_count":4,"females_count":2,"multipurposes_count":1},{"name":"瓜生公園","address":"東京都多摩市永山2-19-30","lat":35.62783,"lon":139.443289,"males_count":0,"females_count":0,"multipurposes_count":0},{"name":"瓜生緑地","address":"東京都多摩市永山5-8","lat":35.618539,"lon":139.442841,"males_count":4,"females_count":2,"multipurposes_count":1},{"name":"榎戸公園　　　　　","address":"東京都多摩市唐木田1-50-1","lat":35.615821,"lon":139.408252,"males_count":0,"females_count":0,"multipurposes_count":0},{"name":"落合南公園","address":"東京都多摩市落合3-30","lat":35.616763,"lon":139.428827,"males_count":0,"females_count":0,"multipurposes_count":1},{"name":"落合第１公園","address":"東京都多摩市落合3-27","lat":35.619111,"lon":139.431556,"males_count":0,"females_count":0,"multipurposes_count":0},{"name":"落合第２公園","address":"東京都多摩市落合3-31","lat":35.617615,"lon":139.430596,"males_count":0,"females_count":0,"multipurposes_count":0},{"name":"落合第３公園","address":"東京都多摩市落合4-23","lat":35.614836,"lon":139.430523,"males_count":0,"females_count":0,"multipurposes_count":0},{"name":"落合第４公園","address":"東京都多摩市落合4-19","lat":35.611917,"lon":139.430957,"males_count":0,"females_count":0,"multipurposes_count":0},{"name":"どんぐり山公園","address":"東京都多摩市落合2-25","lat":35.616052,"lon":139.426573,"males_count":0,"females_count":0,"multipurposes_count":0},{"name":"大谷戸公園","address":"東京都多摩市連光寺5-17-1","lat":35.639226,"lon":139.457714,"males_count":4,"females_count":3,"multipurposes_count":1},{"name":"大河原公園","address":"東京都多摩市関戸2-19-4","lat":35.65083,"lon":139.453657,"males_count":0,"females_count":0,"multipurposes_count":0},{"name":"荻久保公園　","address":"東京都多摩市落合6-8","lat":35.611153,"lon":139.42652,"males_count":0,"females_count":0,"multipurposes_count":0},{"name":"貝取南公園","address":"東京都多摩市貝取4-13","lat":35.616671,"lon":139.438813,"males_count":4,"females_count":2,"multipurposes_count":1},{"name":"貝取北公園","address":"東京都多摩市貝取2-1-1","lat":35.622377,"lon":139.440628,"males_count":4,"females_count":2,"multipurposes_count":1},{"name":"貝取第５公園","address":"東京都多摩市貝取3-11","lat":35.614476,"lon":139.442111,"males_count":0,"females_count":0,"multipurposes_count":0},{"name":"貝取第７公園","address":"東京都多摩市貝取4-14","lat":35.614651,"lon":139.439256,"males_count":0,"females_count":0,"multipurposes_count":0},{"name":"唐木田公園","address":"東京都多摩市唐木田1-13-1","lat":35.613827,"lon":139.406345,"males_count":0,"females_count":0,"multipurposes_count":0},{"name":"釜沼公園","address":"東京都多摩市貝取1-3","lat":35.630787,"lon":139.44053,"males_count":0,"females_count":0,"multipurposes_count":0},{"name":"上之根公園","address":"東京都多摩市愛宕4-26","lat":35.628212,"lon":139.425831,"males_count":3,"females_count":1,"multipurposes_count":0},{"name":"くるまぼり公園","address":"東京都多摩市東寺方1-16-5","lat":35.648248,"lon":139.441658,"males_count":0,"females_count":0,"multipurposes_count":1},{"name":"乞田・貝取ふれあい広場公園","address":"東京都多摩市乞田810-2","lat":35.630925,"lon":139.434949,"males_count":0,"females_count":0,"multipurposes_count":0},{"name":"山王下公園","address":"東京都多摩市山王下1-6","lat":35.62623,"lon":139.421051,"males_count":0,"females_count":0,"multipurposes_count":0},{"name":"諏訪南公園","address":"東京都多摩市諏訪5-14-1","lat":35.620269,"lon":139.452549,"males_count":4,"females_count":2,"multipurposes_count":1},{"name":"諏訪北公園","address":"東京都多摩市諏訪3-11","lat":35.628208,"lon":139.452152,"males_count":3,"females_count":1,"multipurposes_count":1},{"name":"諏訪第３公園","address":"東京都多摩市諏訪2-10","lat":35.623614,"lon":139.451452,"males_count":0,"females_count":0,"multipurposes_count":0},{"name":"李久保公園","address":"東京都多摩市唐木田1-42","lat":35.615334,"lon":139.404846,"males_count":0,"females_count":0,"multipurposes_count":0},{"name":"関戸公園","address":"東京都多摩市関戸3-5地先","lat":35.650399,"lon":139.45927,"males_count":5,"females_count":2,"multipurposes_count":1},{"name":"関戸三丁目公園","address":"東京都多摩市関戸3-10-9","lat":35.649785,"lon":139.454543,"males_count":0,"females_count":0,"multipurposes_count":1},{"name":"多摩中央公園","address":"東京都多摩市落合2-35","lat":null,"lon":null,"males_count":4,"females_count":2,"multipurposes_count":1},{"name":"多摩東公園","address":"東京都多摩市諏訪4-9","lat":35.625204,"lon":139.461292,"males_count":4,"females_count":2,"multipurposes_count":1},{"name":"多摩東公園","address":"東京都多摩市諏訪4-9","lat":35.625204,"lon":139.461292,"males_count":4,"females_count":4,"multipurposes_count":1},{"name":"宝野公園","address":"東京都多摩市落合5-5","lat":35.616015,"lon":139.423813,"males_count":4,"females_count":2,"multipurposes_count":1},{"name":"鶴牧東公園","address":"東京都多摩市鶴牧3-16","lat":35.617214,"lon":139.419986,"males_count":4,"females_count":2,"multipurposes_count":0},{"name":"鶴牧西公園","address":"東京都多摩市鶴牧2-18","lat":null,"lon":null,"males_count":3,"females_count":2,"multipurposes_count":1},{"name":"鶴牧西公園","address":"東京都多摩市鶴牧2-18","lat":null,"lon":null,"males_count":4,"females_count":3,"multipurposes_count":0},{"name":"鶴牧西公園","address":"東京都多摩市鶴牧2-18","lat":null,"lon":null,"males_count":3,"females_count":2,"multipurposes_count":0},{"name":"鶴牧第１公園","address":"東京都多摩市鶴牧5-20","lat":35.61064,"lon":139.423371,"males_count":0,"females_count":0,"multipurposes_count":0},{"name":"鶴ヶ峰公園","address":"東京都多摩市落合1-23","lat":35.623019,"lon":139.430412,"males_count":0,"females_count":0,"multipurposes_count":0},{"name":"豊ヶ丘南公園","address":"東京都多摩市豊ヶ丘5-12","lat":35.615931,"lon":139.433993,"males_count":4,"females_count":2,"multipurposes_count":1},{"name":"豊ヶ丘北公園","address":"東京都多摩市豊ケ丘1-39","lat":35.626991,"lon":139.434673,"males_count":4,"females_count":2,"multipurposes_count":1},{"name":"豊ヶ丘第３公園","address":"東京都多摩市豊ケ丘3-2-1","lat":35.618427,"lon":139.436403,"males_count":0,"females_count":0,"multipurposes_count":0},{"name":"豊ヶ丘第６公園","address":"東京都多摩市豊ケ丘5-13","lat":35.613793,"lon":139.435031,"males_count":0,"females_count":0,"multipurposes_count":0},{"name":"豊ヶ丘第７公園","address":"東京都多摩市豊ケ丘6-5","lat":35.611329,"lon":139.434488,"males_count":0,"females_count":0,"multipurposes_count":0},{"name":"豊ヶ丘第９公園","address":"東京都多摩市豊ケ丘2-3","lat":35.620643,"lon":139.43335,"males_count":0,"females_count":0,"multipurposes_count":0},{"name":"とちのき公園","address":"東京都多摩市豊ケ丘2-34","lat":35.621471,"lon":139.437059,"males_count":0,"females_count":0,"multipurposes_count":0},{"name":"殿田中央公園","address":"東京都多摩市和田133-1","lat":35.645245,"lon":139.430955,"males_count":0,"females_count":0,"multipurposes_count":0},{"name":"永山北公園","address":"東京都多摩市永山2-5","lat":35.627683,"lon":139.448695,"males_count":2,"females_count":1,"multipurposes_count":1},{"name":"永山南公園","address":"東京都多摩市永山4-7-12","lat":35.622045,"lon":139.448985,"males_count":4,"females_count":2,"multipurposes_count":1},{"name":"永山第４公園","address":"東京都多摩市永山5-30-1","lat":35.616517,"lon":139.445856,"males_count":0,"females_count":0,"multipurposes_count":0},{"name":"永山第６公園","address":"東京都多摩市永山4-11","lat":35.621214,"lon":139.446534,"males_count":0,"females_count":0,"multipurposes_count":0},{"name":"永山第７公園","address":"東京都多摩市永山4-8","lat":35.618715,"lon":139.450643,"males_count":0,"females_count":0,"multipurposes_count":0},{"name":"奈良原公園","address":"東京都多摩市鶴牧4-4","lat":35.613111,"lon":139.420972,"males_count":4,"females_count":2,"multipurposes_count":0},{"name":"並木公園","address":"東京都多摩市和田1551-1","lat":35.645797,"lon":139.433758,"males_count":3,"females_count":1,"multipurposes_count":0},{"name":"中沢池公園","address":"東京都多摩市中沢1-33","lat":35.620815,"lon":139.407896,"males_count":0,"females_count":0,"multipurposes_count":0},{"name":"中沢池公園","address":"東京都多摩市中沢1-33","lat":35.620815,"lon":139.407896,"males_count":2,"females_count":1,"multipurposes_count":0},{"name":"中和田橋公園","address":"東京都多摩市和田2001-1","lat":35.641825,"lon":139.428838,"males_count":0,"females_count":0,"multipurposes_count":1},{"name":"二反田公園","address":"東京都多摩市中沢2-23","lat":35.618387,"lon":139.413577,"males_count":0,"females_count":0,"multipurposes_count":0},{"name":"八幡公園","address":"東京都多摩市豊ケ丘1-20","lat":35.627699,"lon":139.430779,"males_count":0,"females_count":0,"multipurposes_count":0},{"name":"原峰公園","address":"東京都多摩市関戸6-25-12","lat":35.640039,"lon":139.44802,"males_count":3,"females_count":2,"multipurposes_count":0},{"name":"東寺方中央公園","address":"東京都多摩市落川1148-1","lat":35.642358,"lon":139.438259,"males_count":0,"females_count":0,"multipurposes_count":0},{"name":"聖ヶ丘緑地","address":"東京都多摩市聖ケ丘3-48","lat":35.632565,"lon":139.459705,"males_count":0,"females_count":0,"multipurposes_count":0},{"name":"聖ヶ丘緑地","address":"東京都多摩市聖ケ丘3-67","lat":35.632565,"lon":139.459705,"males_count":3,"females_count":1,"multipurposes_count":0},{"name":"聖ヶ丘第１児童公園","address":"東京都多摩市聖ケ丘1-16","lat":35.638368,"lon":139.456181,"males_count":0,"females_count":0,"multipurposes_count":0},{"name":"聖ヶ丘第２児童公園","address":"東京都多摩市聖ケ丘2-53","lat":35.636485,"lon":139.455936,"males_count":0,"females_count":0,"multipurposes_count":0},{"name":"馬引沢南公園","address":"東京都多摩市聖ヶ丘4-22","lat":35.626972,"lon":139.461098,"males_count":4,"females_count":2,"multipurposes_count":0},{"name":"馬引沢第１公園","address":"東京都多摩市馬引沢2-5","lat":35.633689,"lon":139.45309,"males_count":0,"females_count":0,"multipurposes_count":0},{"name":"馬引沢第２公園","address":"東京都多摩市諏訪1-55-1","lat":35.629047,"lon":139.453933,"males_count":0,"females_count":0,"multipurposes_count":0},{"name":"馬引沢第３公園","address":"東京都多摩市馬引沢2-16","lat":35.628227,"lon":139.456706,"males_count":0,"females_count":0,"multipurposes_count":0},{"name":"まろにえ公園","address":"東京都多摩市鶴牧6-3","lat":35.614321,"lon":139.416129,"males_count":0,"females_count":0,"multipurposes_count":0},{"name":"みどり公園","address":"東京都多摩市貝取1-63","lat":35.629271,"lon":139.439016,"males_count":0,"females_count":0,"multipurposes_count":0},{"name":"よこやまの道","address":"東京都多摩市唐木田3-5","lat":null,"lon":null,"males_count":0,"females_count":0,"multipurposes_count":1},{"name":"よこやまの道","address":"東京都多摩市南野3-12","lat":null,"lon":null,"males_count":0,"females_count":0,"multipurposes_count":1},{"name":"よこやまの道","address":"東京都多摩市永山7-12","lat":null,"lon":null,"males_count":0,"females_count":0,"multipurposes_count":1},{"name":"連光寺公園","address":"東京都多摩市連光寺5-8-6","lat":35.6363,"lon":139.463433,"males_count":4,"females_count":3,"multipurposes_count":1},{"name":"和田公園","address":"東京都多摩市和田795","lat":35.640364,"lon":139.430175,"males_count":4,"females_count":2,"multipurposes_count":0},{"name":"和田第１公園","address":"東京都多摩市和田3-56-1","lat":35.63543,"lon":139.434164,"males_count":0,"females_count":0,"multipurposes_count":0},{"name":"宮之下公園","address":"東京都多摩市一ノ宮2-27-2","lat":null,"lon":null,"males_count":2,"females_count":1,"multipurposes_count":1},{"name":"せいせき公園","address":"東京都多摩市関戸1-19-2","lat":null,"lon":null,"males_count":3,"females_count":2,"multipurposes_count":1},{"name":"西原自然公園","address":"東京都西東京市西原町四丁目5","lat":35.737338,"lon":139.530095,"males_count":4,"females_count":2,"multipurposes_count":0},{"name":"西東京いこいの森公園","address":"東京都西東京市緑町三丁目2","lat":35.740953,"lon":139.540084,"males_count":12,"females_count":11,"multipurposes_count":3},{"name":"谷戸せせらぎ公園","address":"東京都西東京市谷戸町一丁目22","lat":35.742648,"lon":139.544628,"males_count":3,"females_count":2,"multipurposes_count":1},{"name":"谷戸イチョウ公園","address":"東京都西東京市谷戸町二丁目12","lat":35.747439,"lon":139.541746,"males_count":2,"females_count":0,"multipurposes_count":0},{"name":"向台公園","address":"東京都西東京市向台町二丁目5","lat":35.720609,"lon":139.542475,"males_count":2,"females_count":1,"multipurposes_count":1},{"name":"田無市民公園","address":"東京都西東京市向台町五丁目4","lat":35.721136,"lon":139.52995,"males_count":4,"females_count":3,"multipurposes_count":1},{"name":"しじゅうから公園","address":"東京都西東京市柳沢一丁目14","lat":35.72736,"lon":139.55368,"males_count":2,"females_count":2,"multipurposes_count":1},{"name":"むくのき公園","address":"東京都西東京市柳沢二丁目3","lat":35.722906,"lon":139.556239,"males_count":2,"females_count":1,"multipurposes_count":1},{"name":"柳沢せせらぎ公園","address":"東京都西東京市柳沢六丁目4","lat":35.727466,"lon":139.55227,"males_count":2,"females_count":1,"multipurposes_count":1},{"name":"文理台公園","address":"東京都西東京市東町一丁目4","lat":35.744376,"lon":139.561604,"males_count":3,"females_count":3,"multipurposes_count":1},{"name":"泉小わくわく公園","address":"東京都西東京市泉町三丁目6","lat":35.7411,"lon":139.553333,"males_count":3,"females_count":2,"multipurposes_count":1},{"name":"ひばりが丘公園","address":"東京都西東京市ひばりが丘一丁目2","lat":35.751775,"lon":139.543369,"males_count":0,"females_count":0,"multipurposes_count":0},{"name":"はなみずき公園","address":"東京都西東京市ひばりが丘二丁目2","lat":35.748172,"lon":139.541167,"males_count":1,"females_count":0,"multipurposes_count":0},{"name":"ひばりが丘北わんぱく公園","address":"東京都西東京市ひばりが丘北二丁目2","lat":35.754759,"lon":139.55199,"males_count":3,"females_count":1,"multipurposes_count":1},{"name":"下保谷森林公園","address":"東京都西東京市下保谷三丁目12","lat":35.753813,"lon":139.56747,"males_count":0,"females_count":0,"multipurposes_count":1},{"name":"あらやしき公園","address":"東京都西東京市下保谷四丁目8","lat":35.750303,"lon":139.566919,"males_count":3,"females_count":2,"multipurposes_count":1},{"name":"田無駅北口公衆トイレ","address":"東京都西東京市田無町二丁目1田無駅北口広場内","lat":35.728334,"lon":139.540431,"males_count":2,"females_count":1,"multipurposes_count":1},{"name":"保谷駅南口公衆トイレ","address":"東京都西東京市東町三丁目14保谷駅南口広場内","lat":35.748065,"lon":139.567819,"males_count":2,"females_count":1,"multipurposes_count":1},{"name":"御岳駅前","address":"東京都青梅市御岳本町332-1","lat":35.801507,"lon":139.183501,"males_count":4,"females_count":3,"multipurposes_count":0},{"name":"成木７丁目常磐橋際","address":"東京都青梅市成木7-1591-1","lat":35.8375,"lon":139.18863,"males_count":0,"females_count":0,"multipurposes_count":0},{"name":"成木７丁目都バス折返所","address":"東京都青梅市成木7-1081-1","lat":35.837003,"lon":139.202944,"males_count":0,"females_count":0,"multipurposes_count":0},{"name":"柚木町３丁目都バス折返所","address":"東京都青梅市柚木町3-621-6","lat":35.802761,"lon":139.209165,"males_count":0,"females_count":0,"multipurposes_count":0},{"name":"成木８丁目高水山登山口","address":"東京都青梅市成木8-1071-1","lat":35.82422,"lon":139.21063,"males_count":0,"females_count":0,"multipurposes_count":0},{"name":"柚木町１丁目ポンプ場下","address":"東京都青梅市柚木町1-193-3","lat":35.79799,"lon":139.21752,"males_count":0,"females_count":0,"multipurposes_count":0},{"name":"二俣尾３丁目海禅寺前","address":"東京都青梅市二俣尾3-960-5","lat":35.80282,"lon":139.21768,"males_count":2,"females_count":1,"multipurposes_count":0},{"name":"成木６丁目滝成バス停前","address":"東京都青梅市成木6-169","lat":35.8318,"lon":139.23029,"males_count":0,"females_count":0,"multipurposes_count":0},{"name":"成木８丁目都バス折返所","address":"東京都青梅市成木8-531ーイ","lat":35.82155,"lon":139.23052,"males_count":0,"females_count":0,"multipurposes_count":0},{"name":"成木８丁目蜆沢院広場","address":"東京都青梅市成木8-122-1","lat":35.81889,"lon":139.24137,"males_count":0,"females_count":0,"multipurposes_count":0},{"name":"畑中２丁目ポンプ場脇","address":"東京都青梅市畑中2-179-9","lat":35.78731,"lon":139.24432,"males_count":0,"females_count":0,"multipurposes_count":0},{"name":"黒沢水浴場","address":"東京都青梅市黒沢3-1508-3","lat":35.80734,"lon":139.25071,"males_count":0,"females_count":0,"multipurposes_count":0},{"name":"青梅駅前","address":"東京都青梅市本町163-16","lat":35.790316,"lon":139.258805,"males_count":5,"females_count":3,"multipurposes_count":1},{"name":"成木３丁目バス停前","address":"東京都青梅市成木3-256-4","lat":35.82969,"lon":139.26373,"males_count":0,"females_count":0,"multipurposes_count":0},{"name":"東青梅駅南口","address":"東京都青梅市東青梅1-15-7","lat":35.788161,"lon":139.272382,"males_count":4,"females_count":3,"multipurposes_count":1},{"name":"東青梅駅北口","address":"東京都青梅市東青梅2-14-9","lat":35.790005,"lon":139.272982,"males_count":6,"females_count":4,"multipurposes_count":1},{"name":"千ヶ瀬神社前","address":"東京都青梅市千ヶ瀬町2-138-1","lat":35.78624,"lon":139.27566,"males_count":0,"females_count":0,"multipurposes_count":0},{"name":"成木安楽寺前","address":"東京都青梅市成木1-570-1","lat":35.83813,"lon":139.27541,"males_count":0,"females_count":0,"multipurposes_count":0},{"name":"長淵３丁目水泳場脇","address":"東京都青梅市長淵3-334-3","lat":35.77989,"lon":139.2777,"males_count":0,"females_count":0,"multipurposes_count":1},{"name":"成木１丁目バス停前","address":"東京都青梅市成木1-659-1","lat":35.83754,"lon":139.27826,"males_count":0,"females_count":0,"multipurposes_count":0},{"name":"河辺駅南口","address":"東京都青梅市河辺町5-29-1","lat":35.783923,"lon":139.286044,"males_count":3,"females_count":2,"multipurposes_count":1},{"name":"河辺駅北口","address":"東京都青梅市河辺町10-18","lat":35.783923,"lon":139.286044,"males_count":5,"females_count":3,"multipurposes_count":1},{"name":"富岡１丁目都バス折返所","address":"東京都青梅市富岡1-139-1","lat":35.832043,"lon":139.296718,"males_count":0,"females_count":0,"multipurposes_count":0},{"name":"御岳２丁目神路橋トイレ","address":"東京都青梅市御岳2-271","lat":35.80152,"lon":139.17568,"males_count":0,"females_count":0,"multipurposes_count":0},{"name":"御岳苑地駐車場トイレ","address":"東京都青梅市御岳1-190-3","lat":35.79897,"lon":139.17777,"males_count":0,"females_count":0,"multipurposes_count":null},{"name":"御岳1丁目駐車場トイレ","address":"東京都青梅市御岳1-3","lat":35.7996,"lon":139.18525,"males_count":0,"females_count":0,"multipurposes_count":0},{"name":"沢井３丁目御岳渓谷遊歩道トイレ","address":"東京都青梅市沢井3-491-1","lat":35.80529,"lon":139.18776,"males_count":0,"females_count":0,"multipurposes_count":null},{"name":"二俣尾５丁目高源寺前トイレ","address":"東京都青梅市二俣尾5-1610","lat":35.81815,"lon":139.20225,"males_count":0,"females_count":0,"multipurposes_count":0},{"name":"柚木苑地駐車場トイレ","address":"東京都青梅市柚木町3-643","lat":35.80293,"lon":139.20743,"males_count":0,"females_count":0,"multipurposes_count":0},{"name":"梅郷４丁目梅郷ゴルフ前トイレ","address":"東京都青梅市梅郷4-1834","lat":35.78599,"lon":139.21582,"males_count":0,"females_count":0,"multipurposes_count":0},{"name":"中道梅園トイレ","address":"東京都青梅市梅郷4-658-5","lat":35.78932,"lon":139.21946,"males_count":0,"females_count":0,"multipurposes_count":0},{"name":"青梅丘陵ハイキングコーストイレ","address":"東京都青梅市黒沢3-1992-26","lat":35.79293,"lon":139.23776,"males_count":0,"females_count":0,"multipurposes_count":0},{"name":"御岳本町 児童遊園","address":"東京都青梅市御岳本町167-1","lat":35.80067,"lon":139.178,"males_count":0,"females_count":0,"multipurposes_count":0},{"name":"沢井２丁目 児童遊園","address":"東京都青梅市沢井2-902-1","lat":35.80583,"lon":139.19174,"males_count":0,"females_count":0,"multipurposes_count":0},{"name":"沢井駅前広場","address":"東京都青梅市沢井2-833-4","lat":35.805552,"lon":139.194406,"males_count":4,"females_count":3,"multipurposes_count":0},{"name":"柚木町３丁目 児童遊園","address":"東京都青梅市柚木町3-521-1","lat":35.80152,"lon":139.20812,"males_count":0,"females_count":0,"multipurposes_count":0},{"name":"柚木木下公園","address":"東京都青梅市柚木町2-449-3","lat":35.80187,"lon":139.21089,"males_count":0,"females_count":0,"multipurposes_count":0},{"name":"柚木町１丁目 児童遊園","address":"東京都青梅市柚木町1-98-4","lat":35.79619,"lon":139.21251,"males_count":0,"females_count":0,"multipurposes_count":0},{"name":"梅の里駐車場","address":"東京都青梅市柚木町1-69-4","lat":35.7962,"lon":139.21416,"males_count":4,"females_count":2,"multipurposes_count":0},{"name":"下目ノ内公園","address":"東京都青梅市梅郷6-1、249-8","lat":35.79136,"lon":139.21632,"males_count":0,"females_count":0,"multipurposes_count":0},{"name":"梅郷八幡 児童遊園","address":"東京都青梅市梅郷6-1221-1","lat":35.79089,"lon":139.2186,"males_count":0,"females_count":0,"multipurposes_count":0},{"name":"梅の公園","address":"東京都青梅市梅郷4-527","lat":35.78632,"lon":139.21873,"males_count":10,"females_count":7,"multipurposes_count":0},{"name":"二俣尾３丁目 児童遊園","address":"東京都青梅市二俣尾3-801","lat":35.80177,"lon":139.2204,"males_count":0,"females_count":0,"multipurposes_count":0},{"name":"梅郷 児童遊園","address":"東京都青梅市梅郷2-399-1","lat":35.78488,"lon":139.22407,"males_count":0,"females_count":0,"multipurposes_count":0},{"name":"杉平公園","address":"東京都青梅市梅郷1-205-11","lat":35.783756,"lon":139.224277,"males_count":0,"females_count":0,"multipurposes_count":0},{"name":"石神前駅前広場","address":"東京都青梅市二俣尾1-201-4","lat":35.7966,"lon":139.22515,"males_count":0,"females_count":0,"multipurposes_count":0},{"name":"二俣尾１丁目 児童遊園","address":"東京都青梅市二俣尾1-199-1","lat":35.795723,"lon":139.225582,"males_count":0,"females_count":0,"multipurposes_count":0},{"name":"的場公園","address":"東京都青梅市梅郷3-836-1","lat":35.785857,"lon":139.227212,"males_count":0,"females_count":0,"multipurposes_count":0},{"name":"和田 児童遊園","address":"東京都青梅市和田町2-425","lat":35.7801,"lon":139.22919,"males_count":0,"females_count":0,"multipurposes_count":0},{"name":"下和田公園","address":"東京都青梅市和田町2-146-43","lat":35.78289,"lon":139.22985,"males_count":0,"females_count":0,"multipurposes_count":0},{"name":"浜矢場公園","address":"東京都青梅市日向和田3-495-4","lat":35.781738,"lon":139.231963,"males_count":0,"females_count":0,"multipurposes_count":0},{"name":"日向和田３丁目児童遊園","address":"東京都青梅市日向和田3-476-1","lat":35.7812,"lon":139.23386,"males_count":0,"females_count":0,"multipurposes_count":0},{"name":"日向和田２丁目 児童遊園","address":"東京都青梅市日向和田2-374-7","lat":35.78496,"lon":139.23545,"males_count":0,"females_count":0,"multipurposes_count":0},{"name":"宮ノ平駅前広場","address":"東京都青梅市日向和田2-154-16","lat":35.787114,"lon":139.236686,"males_count":0,"females_count":0,"multipurposes_count":0},{"name":"畑中戸田山公園","address":"東京都青梅市畑中3-898-2","lat":35.779204,"lon":139.237311,"males_count":0,"females_count":0,"multipurposes_count":0},{"name":"日向和田臨川庭園","address":"東京都青梅市日向和田2-271","lat":35.78491,"lon":139.23881,"males_count":1,"females_count":1,"multipurposes_count":0},{"name":"成木５丁目 児童遊園","address":"東京都青梅市成木5-1323","lat":35.828415,"lon":139.242276,"males_count":0,"females_count":0,"multipurposes_count":0},{"name":"畑中公園","address":"東京都青梅市畑中2-557-1","lat":35.78351,"lon":139.24328,"males_count":0,"females_count":0,"multipurposes_count":0},{"name":"七兵衛公園","address":"東京都青梅市裏宿町804","lat":35.779028,"lon":139.24489,"males_count":0,"females_count":0,"multipurposes_count":0},{"name":"大柳公園","address":"東京都青梅市大柳町1、582-10","lat":35.78677,"lon":139.24833,"males_count":0,"females_count":0,"multipurposes_count":0},{"name":"森下 児童遊園","address":"東京都青梅市森下町555","lat":35.79042,"lon":139.24954,"males_count":0,"females_count":0,"multipurposes_count":0},{"name":"天ヶ瀬公園","address":"東京都青梅市天ヶ瀬町1、111-1","lat":35.789057,"lon":139.251063,"males_count":0,"females_count":0,"multipurposes_count":0},{"name":"大柳 児童遊園","address":"東京都青梅市大柳町1452-1","lat":35.78531,"lon":139.25149,"males_count":0,"females_count":0,"multipurposes_count":0},{"name":"駒木町山根公園","address":"東京都青梅市駒木町2-183-23","lat":35.778104,"lon":139.253176,"males_count":0,"females_count":0,"multipurposes_count":0},{"name":"釜の淵公園","address":"東京都青梅市大柳町1、392","lat":35.78561,"lon":139.25571,"males_count":8,"females_count":5,"multipurposes_count":null},{"name":"滝ノ上 児童遊園","address":"東京都青梅市滝ノ上町1291-1","lat":35.78857,"lon":139.25634,"males_count":0,"females_count":0,"multipurposes_count":0},{"name":"駒木町１丁目 児童遊園","address":"東京都青梅市駒木町1-844-1","lat":35.782258,"lon":139.258288,"males_count":0,"females_count":0,"multipurposes_count":0},{"name":"黒沢２丁目 児童遊園","address":"東京都青梅市黒沢2-990","lat":35.81248,"lon":139.25856,"males_count":0,"females_count":0,"multipurposes_count":0},{"name":"永山公園","address":"東京都青梅市本町217","lat":35.7919,"lon":139.26045,"males_count":9,"females_count":7,"multipurposes_count":0},{"name":"谷津公園","address":"東京都青梅市根ヶ布2-1、370-137","lat":35.804825,"lon":139.260501,"males_count":0,"females_count":0,"multipurposes_count":0},{"name":"田端公園","address":"東京都青梅市千ケ瀬町6-788","lat":35.786061,"lon":139.261333,"males_count":0,"females_count":0,"multipurposes_count":0},{"name":"小山公園","address":"東京都青梅市長淵8-170-3","lat":35.781107,"lon":139.261504,"males_count":0,"females_count":0,"multipurposes_count":0},{"name":"西分町３丁目 児童遊園","address":"東京都青梅市西分町3-77-3","lat":35.78851,"lon":139.2622,"males_count":0,"females_count":0,"multipurposes_count":0},{"name":"勝沼２丁目 児童遊園","address":"東京都青梅市勝沼2-428-1","lat":35.79459,"lon":139.26282,"males_count":0,"females_count":0,"multipurposes_count":0},{"name":"根ヶ布２丁目 児童遊園","address":"東京都青梅市根ヶ布2-237-548","lat":35.80436,"lon":139.26328,"males_count":0,"females_count":0,"multipurposes_count":0},{"name":"長淵７丁目 児童遊園","address":"東京都青梅市長淵7-307-1","lat":35.781283,"lon":139.263782,"males_count":0,"females_count":0,"multipurposes_count":0},{"name":"後沢公園","address":"東京都青梅市根ヶ布2-237-598","lat":35.80547,"lon":139.26409,"males_count":0,"females_count":0,"multipurposes_count":0},{"name":"若御子緑地","address":"東京都青梅市長淵7-372-24","lat":35.783191,"lon":139.264736,"males_count":0,"females_count":0,"multipurposes_count":0},{"name":"神宮前公園","address":"東京都青梅市勝沼3-142","lat":35.79157,"lon":139.26512,"males_count":0,"females_count":0,"multipurposes_count":0},{"name":"若御子第２緑地","address":"東京都青梅市長淵6-437-10","lat":35.781081,"lon":139.265415,"males_count":0,"females_count":0,"multipurposes_count":0},{"name":"成木３丁目 児童遊園","address":"東京都青梅市成木3-271-2","lat":35.82937,"lon":139.26542,"males_count":0,"females_count":0,"multipurposes_count":0},{"name":"千ヶ瀬 児童遊園","address":"東京都青梅市千ヶ瀬町5-537-1","lat":35.784253,"lon":139.265919,"males_count":0,"females_count":0,"multipurposes_count":0},{"name":"勝沼３丁目 児童遊園","address":"東京都青梅市勝沼3-107-2","lat":35.7907,"lon":139.2699,"males_count":0,"females_count":0,"multipurposes_count":0},{"name":"根ヶ布１丁目 児童遊園","address":"東京都青梅市根ヶ布1-589-1","lat":35.797262,"lon":139.266783,"males_count":0,"females_count":0,"multipurposes_count":0},{"name":"品竹西公園","address":"東京都青梅市長淵5-624-11","lat":35.778279,"lon":139.267319,"males_count":0,"females_count":0,"multipurposes_count":0},{"name":"南平緑地","address":"東京都青梅市千ケ瀬町3-510","lat":35.784489,"lon":139.267322,"males_count":0,"females_count":0,"multipurposes_count":0},{"name":"黒沢１丁目 児童遊園","address":"東京都青梅市黒沢1-541-1","lat":35.81405,"lon":139.26715,"males_count":0,"females_count":0,"multipurposes_count":0},{"name":"品竹公園","address":"東京都青梅市長淵5-617-7","lat":35.777786,"lon":139.269076,"males_count":0,"females_count":0,"multipurposes_count":0},{"name":"成木２丁目 児童遊園","address":"東京都青梅市成木2-592-4","lat":35.835133,"lon":139.268862,"males_count":0,"females_count":0,"multipurposes_count":0},{"name":"長淵鹿島 児童遊園","address":"東京都青梅市長淵2-519","lat":35.77823,"lon":139.27166,"males_count":0,"females_count":0,"multipurposes_count":0},{"name":"大塚山公園","address":"東京都青梅市東青梅2-8-14","lat":35.7927,"lon":139.2732,"males_count":0,"females_count":0,"multipurposes_count":0},{"name":"鳶巣川公園","address":"東京都青梅市長淵2-724-8","lat":35.776372,"lon":139.274653,"males_count":0,"females_count":0,"multipurposes_count":0},{"name":"大塚前公園","address":"東京都青梅市東青梅1-10-7","lat":35.78873,"lon":139.27459,"males_count":2,"females_count":1,"multipurposes_count":0},{"name":"東平公園","address":"東京都青梅市千ヶ瀬町2-164-26","lat":35.784399,"lon":139.274926,"males_count":0,"females_count":0,"multipurposes_count":0},{"name":"寺改戸公園","address":"東京都青梅市長淵3-285-1","lat":35.78099,"lon":139.27517,"males_count":0,"females_count":0,"multipurposes_count":null},{"name":"須高公園","address":"東京都青梅市長淵2-765-3","lat":35.776221,"lon":139.275573,"males_count":0,"females_count":0,"multipurposes_count":0},{"name":"六万公園","address":"東京都青梅市東青梅3-6-14","lat":35.78959,"lon":139.2759,"males_count":3,"females_count":2,"multipurposes_count":0},{"name":"吹上しょうぶ公園","address":"東京都青梅市吹上425","lat":35.79739,"lon":139.27609,"males_count":4,"females_count":3,"multipurposes_count":null},{"name":"城前公園","address":"東京都青梅市東青梅6-11-5","lat":35.79256,"lon":139.27631,"males_count":0,"females_count":0,"multipurposes_count":0},{"name":"長淵３丁目 児童遊園","address":"東京都青梅市長淵3-301-4","lat":35.77902,"lon":139.27646,"males_count":0,"females_count":0,"multipurposes_count":0},{"name":"筑間公園","address":"東京都青梅市師岡町1-125-32","lat":35.795193,"lon":139.277646,"males_count":0,"females_count":0,"multipurposes_count":0},{"name":"平林公園","address":"東京都青梅市千ケ瀬町1-7-4","lat":35.78354,"lon":139.27783,"males_count":0,"females_count":0,"multipurposes_count":0},{"name":"下長淵緑地","address":"東京都青梅市長淵3-119-8","lat":35.778917,"lon":139.27809,"males_count":0,"females_count":0,"multipurposes_count":0},{"name":"小ケ谷戸公園","address":"東京都青梅市吹上285-11","lat":35.79567,"lon":139.27927,"males_count":0,"females_count":0,"multipurposes_count":0},{"name":"師岡町１丁目 児童遊園","address":"東京都青梅市師岡町1-288-1","lat":35.79331,"lon":139.27969,"males_count":0,"females_count":0,"multipurposes_count":0},{"name":"下長淵公園","address":"東京都青梅市長淵1-36-15","lat":35.77706,"lon":139.28011,"males_count":0,"females_count":0,"multipurposes_count":0},{"name":"湯本緑地","address":"東京都青梅市長淵1-973-1","lat":35.774333,"lon":139.280242,"males_count":0,"females_count":0,"multipurposes_count":0},{"name":"早道公園","address":"東京都青梅市東青梅5-17-5","lat":35.789819,"lon":139.279795,"males_count":3,"females_count":2,"multipurposes_count":0},{"name":"成木１丁目 児童遊園","address":"東京都青梅市成木1-288","lat":35.83686,"lon":139.28018,"males_count":0,"females_count":0,"multipurposes_count":0},{"name":"中原公園","address":"東京都青梅市東青梅4-20-1","lat":35.78565,"lon":139.28169,"males_count":3,"females_count":2,"multipurposes_count":0},{"name":"河辺春日 児童遊園","address":"東京都青梅市河辺町3-1066-1","lat":35.78006,"lon":139.2824,"males_count":0,"females_count":0,"multipurposes_count":0},{"name":"下久保公園","address":"東京都青梅市河辺町4-6","lat":35.7827,"lon":139.28298,"males_count":0,"females_count":0,"multipurposes_count":0},{"name":"株樹公園","address":"東京都青梅市師岡町4-3","lat":35.78623,"lon":139.28309,"males_count":0,"females_count":0,"multipurposes_count":0},{"name":"霞丘陵自然公園","address":"東京都青梅市塩船188","lat":35.80252,"lon":139.28314,"males_count":0,"females_count":0,"multipurposes_count":0},{"name":"道間公園","address":"東京都青梅市師岡町3-7","lat":35.79041,"lon":139.28351,"males_count":2,"females_count":1,"multipurposes_count":0},{"name":"師岡町２丁目 児童遊園","address":"東京都青梅市師岡町2-395-3","lat":35.791929,"lon":139.283445,"males_count":0,"females_count":0,"multipurposes_count":0},{"name":"小曾木４丁目 児童遊園","address":"東京都青梅市小曾木4-2560-1","lat":35.82128,"lon":139.28332,"males_count":0,"females_count":0,"multipurposes_count":0},{"name":"花木園","address":"東京都青梅市小曾木4-2615-1","lat":35.81805,"lon":139.28425,"males_count":8,"females_count":4,"multipurposes_count":0},{"name":"金丘公園","address":"東京都青梅市友田町5-518-7","lat":35.771445,"lon":139.284596,"males_count":0,"females_count":0,"multipurposes_count":0},{"name":"大門西公園","address":"東京都青梅市大門1-607-5","lat":35.797714,"lon":139.284577,"males_count":0,"females_count":0,"multipurposes_count":0},{"name":"野上 児童遊園","address":"東京都青梅市野上町1-35","lat":35.79647,"lon":139.28498,"males_count":0,"females_count":0,"multipurposes_count":0},{"name":"小曾木５丁目 児童遊園","address":"東京都青梅市小曾木5-3061","lat":35.824865,"lon":139.285763,"males_count":0,"females_count":0,"multipurposes_count":0},{"name":"友田町５丁目 児童遊園","address":"東京都青梅市友田町5-566-1","lat":35.76977,"lon":139.28623,"males_count":0,"females_count":0,"multipurposes_count":0},{"name":"上開戸公園","address":"東京都青梅市大門1-783-2","lat":35.80094,"lon":139.28634,"males_count":0,"females_count":0,"multipurposes_count":null},{"name":"速川公園","address":"東京都青梅市河辺町5-19","lat":35.78231,"lon":139.28696,"males_count":0,"females_count":0,"multipurposes_count":0},{"name":"下前公園","address":"東京都青梅市塩船15-5","lat":35.80151,"lon":139.28762,"males_count":0,"females_count":0,"multipurposes_count":0},{"name":"中先戸公園","address":"東京都青梅市河辺町4-22","lat":35.7799,"lon":139.28822,"males_count":0,"females_count":0,"multipurposes_count":0},{"name":"谷野 児童遊園","address":"東京都青梅市谷野134-1","lat":35.80379,"lon":139.28979,"males_count":0,"females_count":0,"multipurposes_count":0},{"name":"鳥井戸公園","address":"東京都青梅市野上町3-11","lat":35.79132,"lon":139.29004,"males_count":4,"females_count":2,"multipurposes_count":0},{"name":"友田町３丁目 児童遊園","address":"東京都青梅市友田町3-154-2","lat":35.77176,"lon":139.29034,"males_count":0,"females_count":0,"multipurposes_count":0},{"name":"富岡２丁目 児童遊園","address":"東京都青梅市富岡2-667-1","lat":35.834045,"lon":139.290376,"males_count":0,"females_count":0,"multipurposes_count":0},{"name":"古井戸公園","address":"東京都青梅市野上町4-11","lat":35.78693,"lon":139.29089,"males_count":0,"females_count":0,"multipurposes_count":0},{"name":"霞下公園","address":"東京都青梅市大門1-448-19","lat":35.799896,"lon":139.290864,"males_count":0,"females_count":0,"multipurposes_count":0},{"name":"白はけ公園","address":"東京都青梅市河辺町6-7","lat":35.7805,"lon":139.29141,"males_count":0,"females_count":0,"multipurposes_count":0},{"name":"霞下南公園","address":"東京都青梅市大門1-389-18","lat":35.797607,"lon":139.291414,"males_count":0,"females_count":0,"multipurposes_count":0},{"name":"中丸台 児童遊園","address":"東京都青梅市友田町2-684","lat":35.76998,"lon":139.29167,"males_count":0,"females_count":0,"multipurposes_count":0},{"name":"南白はけ公園","address":"東京都青梅市河辺町6-11","lat":35.77826,"lon":139.29185,"males_count":0,"females_count":0,"multipurposes_count":0},{"name":"小曾木１丁目 児童遊園","address":"東京都青梅市小曾木1-3349","lat":35.82012,"lon":139.29163,"males_count":0,"females_count":0,"multipurposes_count":0},{"name":"大門稲荷下 児童遊園","address":"東京都青梅市大門1-405-1","lat":35.79894,"lon":139.29153,"males_count":0,"females_count":0,"multipurposes_count":0},{"name":"西浦公園","address":"東京都青梅市今寺1-816-30","lat":35.80085,"lon":139.29186,"males_count":0,"females_count":0,"multipurposes_count":0},{"name":"友田町１丁目 児童遊園","address":"東京都青梅市友田町1-1033-1","lat":35.76659,"lon":139.29216,"males_count":0,"females_count":0,"multipurposes_count":0},{"name":"白はけ緑地","address":"東京都青梅市河辺町6-31-1","lat":35.776794,"lon":139.293897,"males_count":0,"females_count":0,"multipurposes_count":0},{"name":"塚の上公園","address":"東京都青梅市大門3-19","lat":35.79448,"lon":139.29394,"males_count":0,"females_count":0,"multipurposes_count":0},{"name":"富岡１丁目 児童遊園","address":"東京都青梅市富岡1-214-1","lat":35.83019,"lon":139.29391,"males_count":0,"females_count":0,"multipurposes_count":0},{"name":"梨の木公園","address":"東京都青梅市河辺町6-24","lat":35.77898,"lon":139.29448,"males_count":0,"females_count":0,"multipurposes_count":0},{"name":"木野下中央 児童遊園","address":"東京都青梅市木野下1-152-2","lat":35.80606,"lon":139.29521,"males_count":0,"females_count":0,"multipurposes_count":0},{"name":"鈴法寺公園","address":"東京都青梅市新町1-22-18","lat":35.78815,"lon":139.29555,"males_count":0,"females_count":0,"multipurposes_count":0},{"name":"わかぐさ公園","address":"東京都青梅市河辺町8-14-3","lat":35.78327,"lon":139.29586,"males_count":12,"females_count":8,"multipurposes_count":null},{"name":"塚の上南公園","address":"東京都青梅市大門3-5","lat":35.7923,"lon":139.29634,"males_count":0,"females_count":0,"multipurposes_count":0},{"name":"大門中原公園","address":"東京都青梅市大門3-25","lat":35.79542,"lon":139.29671,"males_count":0,"females_count":0,"multipurposes_count":0},{"name":"神明原西公園","address":"東京都青梅市今寺3-363-3","lat":35.797651,"lon":139.296744,"males_count":0,"females_count":0,"multipurposes_count":0},{"name":"大山公園","address":"東京都青梅市新町1-39-17","lat":35.79034,"lon":139.297197,"males_count":0,"females_count":0,"multipurposes_count":0},{"name":"常盤樹平公園","address":"東京都青梅市今寺2-500-11","lat":35.799567,"lon":139.297569,"males_count":0,"females_count":0,"multipurposes_count":0},{"name":"常盤樹平東公園","address":"東京都青梅市今寺2-473-9","lat":35.801663,"lon":139.299596,"males_count":0,"females_count":0,"multipurposes_count":0},{"name":"大井戸公園","address":"東京都青梅市新町2-27","lat":35.78946,"lon":139.29972,"males_count":2,"females_count":1,"multipurposes_count":0},{"name":"今寺中原公園","address":"東京都青梅市今寺4-9","lat":35.79632,"lon":139.30025,"males_count":0,"females_count":0,"multipurposes_count":0},{"name":"神明原公園","address":"東京都青梅市今寺3-456-7","lat":35.799058,"lon":139.300311,"males_count":0,"females_count":0,"multipurposes_count":0},{"name":"植木内公園","address":"東京都青梅市新町3-36","lat":35.78162,"lon":139.30058,"males_count":2,"females_count":1,"multipurposes_count":0},{"name":"蔵屋敷公園","address":"東京都青梅市新町2-6","lat":35.78549,"lon":139.3006,"males_count":2,"females_count":1,"multipurposes_count":0},{"name":"新町宮ノ前緑地","address":"東京都青梅市新町2-28-6","lat":35.791401,"lon":139.300632,"males_count":0,"females_count":0,"multipurposes_count":0},{"name":"東原公園","address":"東京都青梅市今寺5-11","lat":35.79384,"lon":139.30228,"males_count":4,"females_count":3,"multipurposes_count":0},{"name":"藤橋二本木公園","address":"東京都青梅市藤橋2-602-4","lat":35.799079,"lon":139.30281,"males_count":0,"females_count":0,"multipurposes_count":0},{"name":"桜株広場","address":"東京都青梅市新町2-21-1","lat":35.787441,"lon":139.302928,"males_count":0,"females_count":0,"multipurposes_count":0},{"name":"矢端公園","address":"東京都青梅市藤橋2-27-43","lat":35.800181,"lon":139.302961,"males_count":0,"females_count":0,"multipurposes_count":0},{"name":"二本木公園","address":"東京都青梅市今寺4-20","lat":35.798,"lon":139.30312,"males_count":0,"females_count":0,"multipurposes_count":0},{"name":"東原緑地","address":"東京都青梅市今寺4-16-13","lat":35.796781,"lon":139.303411,"males_count":0,"females_count":0,"multipurposes_count":0},{"name":"城ヶ崎公園","address":"東京都青梅市藤橋2-92","lat":35.804758,"lon":139.304259,"males_count":0,"females_count":0,"multipurposes_count":0},{"name":"新町南公園","address":"東京都青梅市新町3-13","lat":35.77963,"lon":139.30454,"males_count":2,"females_count":1,"multipurposes_count":0},{"name":"桜株公園","address":"東京都青梅市新町5-13-18","lat":35.78831,"lon":139.30451,"males_count":2,"females_count":1,"multipurposes_count":0},{"name":"藤橋２丁目 児童遊園","address":"東京都青梅市藤橋2-531-2","lat":35.80117,"lon":139.30448,"males_count":0,"females_count":0,"multipurposes_count":0},{"name":"細道公園","address":"東京都青梅市藤橋3-15","lat":35.79797,"lon":139.30522,"males_count":0,"females_count":0,"multipurposes_count":0},{"name":"城ヶ崎東公園","address":"東京都青梅市藤橋2-83-28","lat":35.804501,"lon":139.30531,"males_count":0,"females_count":0,"multipurposes_count":0},{"name":"西間原公園","address":"東京都青梅市新町5-42","lat":35.79116,"lon":139.30551,"males_count":0,"females_count":0,"multipurposes_count":0},{"name":"今井浮島 児童遊園","address":"東京都青梅市今井1-113","lat":35.807595,"lon":139.305562,"males_count":0,"females_count":0,"multipurposes_count":0},{"name":"南植木外公園","address":"東京都青梅市新町4-13","lat":35.78429,"lon":139.30593,"males_count":2,"females_count":1,"multipurposes_count":0},{"name":"七日市場公園","address":"東京都青梅市今井2-1、13-17","lat":35.80582,"lon":139.30606,"males_count":0,"females_count":0,"multipurposes_count":0},{"name":"富士塚公園","address":"東京都青梅市新町5-22","lat":35.789954,"lon":139.30761,"males_count":3,"females_count":2,"multipurposes_count":0},{"name":"今井 児童遊園","address":"東京都青梅市今井2-1045","lat":35.80509,"lon":139.30753,"males_count":0,"females_count":0,"multipurposes_count":0},{"name":"末広公園","address":"東京都青梅市末広町2-4","lat":35.77847,"lon":139.30828,"males_count":0,"females_count":0,"multipurposes_count":0},{"name":"今井ふれあい公園","address":"東京都青梅市今井2-936","lat":35.80697,"lon":139.30835,"males_count":1,"females_count":0,"multipurposes_count":null},{"name":"水窪公園","address":"東京都青梅市今井3-22","lat":35.7998,"lon":139.31005,"males_count":0,"females_count":0,"multipurposes_count":0},{"name":"今井堀の内 児童遊園","address":"東京都青梅市今井2-874-1","lat":35.80665,"lon":139.31199,"males_count":0,"females_count":0,"multipurposes_count":0},{"name":"新田山公園","address":"東京都青梅市新町7-33","lat":35.786621,"lon":139.314459,"males_count":3,"females_count":2,"multipurposes_count":0},{"name":"平松緑地","address":"東京都青梅市新町8-11-21","lat":35.783,"lon":139.31275,"males_count":4,"females_count":2,"multipurposes_count":0},{"name":"城の腰西公園","address":"東京都青梅市今井1-382-2","lat":35.808417,"lon":139.312611,"males_count":0,"females_count":0,"multipurposes_count":0},{"name":"城の腰公園","address":"東京都青梅市今井1-572-2","lat":35.808778,"lon":139.314526,"males_count":0,"females_count":0,"multipurposes_count":0},{"name":"原今井公園","address":"東京都青梅市今井2-817-6","lat":35.806098,"lon":139.315457,"males_count":0,"females_count":0,"multipurposes_count":0},{"name":"伝馬街道緑地","address":"東京都青梅市新町7-63-4","lat":35.788883,"lon":139.317128,"males_count":0,"females_count":0,"multipurposes_count":0},{"name":"新町東 児童遊園","address":"東京都青梅市新町9-2050-3","lat":35.78185,"lon":139.31725,"males_count":0,"females_count":0,"multipurposes_count":0},{"name":"新町中原南公園","address":"東京都青梅市新町9-2、16-9","lat":35.78029,"lon":139.31843,"males_count":2,"females_count":0,"multipurposes_count":0},{"name":"新町中原緑地","address":"東京都青梅市新町9-2、31-4","lat":35.780099,"lon":139.318635,"males_count":0,"females_count":0,"multipurposes_count":0},{"name":"新町中原公園","address":"東京都青梅市新町9-2、15-18","lat":35.781653,"lon":139.321186,"males_count":0,"females_count":0,"multipurposes_count":0},{"name":"野塩地域市民センター","address":"野塩1-322-2","lat":null,"lon":null,"males_count":0,"females_count":0,"multipurposes_count":0},{"name":"清瀬上宮保育園","address":"竹丘3-8-1","lat":null,"lon":null,"males_count":0,"females_count":0,"multipurposes_count":0},{"name":"中央公園","address":"梅園1-1","lat":null,"lon":null,"males_count":0,"females_count":0,"multipurposes_count":0},{"name":"中央図書館","address":"梅園1-1-21","lat":null,"lon":null,"males_count":0,"females_count":0,"multipurposes_count":0},{"name":"松山地域市民センター","address":"松山2-6-25","lat":null,"lon":null,"males_count":0,"females_count":0,"multipurposes_count":0},{"name":"竹丘地域市民センター","address":"竹丘1-11-1","lat":null,"lon":null,"males_count":0,"females_count":0,"multipurposes_count":0},{"name":"子どもの発達支援・交流センター","address":"竹丘1-15-8","lat":null,"lon":null,"males_count":0,"females_count":0,"multipurposes_count":0},{"name":"竹丘緑地公園","address":"竹丘2-7","lat":null,"lon":null,"males_count":0,"females_count":0,"multipurposes_count":0},{"name":"竹丘なかよし公園","address":"竹丘1-14","lat":null,"lon":null,"males_count":0,"females_count":0,"multipurposes_count":0},{"name":"清瀬せせらぎ公園","address":"中里2-1471","lat":null,"lon":null,"males_count":0,"females_count":0,"multipurposes_count":0},{"name":"中里地域市民センター","address":"中里4-1301","lat":null,"lon":null,"males_count":0,"females_count":0,"multipurposes_count":0},{"name":"中里柳瀬公園","address":"中里4-1301","lat":null,"lon":null,"males_count":0,"females_count":0,"multipurposes_count":0},{"name":"市民活動センター","address":"上清戸2-6-10","lat":null,"lon":null,"males_count":0,"females_count":0,"multipurposes_count":0},{"name":"郷土博物館","address":"上清戸2-6-41","lat":null,"lon":null,"males_count":0,"females_count":0,"multipurposes_count":0},{"name":"アミュー","address":"元町1-2-11","lat":null,"lon":null,"males_count":0,"females_count":0,"multipurposes_count":0},{"name":"クレア","address":"元町1-4-5","lat":null,"lon":null,"males_count":0,"females_count":0,"multipurposes_count":0},{"name":"清瀬けやきホール","address":"元町1-6-6","lat":null,"lon":null,"males_count":0,"females_count":0,"multipurposes_count":0},{"name":"消費生活センター","address":"元町1-4-17","lat":null,"lon":null,"males_count":0,"females_count":0,"multipurposes_count":0},{"name":"清瀬駅南口公衆トイレ","address":"松山1-2-4","lat":null,"lon":null,"males_count":0,"females_count":0,"multipurposes_count":0},{"name":"清瀬金山緑地公園","address":"中里4-650","lat":null,"lon":null,"males_count":0,"females_count":0,"multipurposes_count":0},{"name":"中清戸地域市民センター","address":"中清戸4-847-5","lat":null,"lon":null,"males_count":0,"females_count":0,"multipurposes_count":0},{"name":"市役所","address":"中里5-842","lat":null,"lon":null,"males_count":0,"females_count":0,"multipurposes_count":0},{"name":"健康センター","address":"中里5-842","lat":null,"lon":null,"males_count":0,"females_count":0,"multipurposes_count":0},{"name":"神山公園","address":"中清戸3-235","lat":null,"lon":null,"males_count":0,"females_count":0,"multipurposes_count":0},{"name":"児童センター","address":"中清戸3-235-5","lat":null,"lon":null,"males_count":0,"females_count":0,"multipurposes_count":0},{"name":"下宿地域市民センター","address":"下宿2-524-1","lat":null,"lon":null,"males_count":0,"females_count":0,"multipurposes_count":0},{"name":"コミュニティプラザひまわり","address":"下清戸1-212-4","lat":null,"lon":null,"males_count":0,"females_count":0,"multipurposes_count":0}]}