{"keyword":"地区","data":[{"name":"台東区役所","province":"","city":"","address":"東上野4丁目5番6号","lat":35.71263444,"lon":139.7797146},{"name":"北部区民事務所清川分室","province":"東京都","city":"台東区","address":"台東区清川1丁目23番8号","lat":35.72577082,"lon":139.8030813},{"name":"南部区民事務所","province":"東京都","city":"台東区","address":"台東区寿1丁目10番12号","lat":35.70725514,"lon":139.7888844},{"name":"北部区民事務所","province":"東京都","city":"台東区","address":"台東区浅草4丁目48番1号","lat":35.71823439,"lon":139.7987528},{"name":"浅草橋地区センター","province":"","city":"","address":"浅草橋2丁目8番7号","lat":35.69954587,"lon":139.7833653},{"name":"雷門地区センター","province":"","city":"","address":"浅草1丁目37番3号","lat":35.71255472,"lon":139.7961333},{"name":"入谷地区センター","province":"","city":"","address":"入谷1丁目15番6号","lat":35.72038389,"lon":139.7856438},{"name":"上野地区センター","province":"","city":"","address":"池之端1丁目1番12号","lat":35.70942445,"lon":139.7692253},{"name":"東上野地区センター","province":"","city":"","address":"東上野3丁目24番6号","lat":35.71125456,"lon":139.7796247},{"name":"台東地区センター","province":"","city":"","address":"台東1丁目25番5号","lat":35.70184547,"lon":139.7777753},{"name":"西部区民事務所","province":"東京都","city":"台東区","address":"台東区下谷3丁目1番30号","lat":35.7230737,"lon":139.7860737},{"name":"西部区民事務所谷中分室","province":"東京都","city":"台東区","address":"台東区谷中5丁目6番5号","lat":35.72544479,"lon":139.766572},{"name":"豊玉北地区区民館","province":"東京都","city":"練馬区","address":"練馬区豊玉北3-7-9","lat":35.73269549,"lon":139.6613631},{"name":"桜台地区区民館","province":"東京都","city":"練馬区","address":"練馬区桜台3-39-17","lat":35.74598818,"lon":139.663162},{"name":"貫井地区区民館","province":"東京都","city":"練馬区","address":"練馬区貫井1-9-1","lat":35.73802913,"lon":139.6355571},{"name":"氷川台地区区民館","province":"東京都","city":"練馬区","address":"練馬区氷川台2-16-14","lat":35.75701154,"lon":139.6672888},{"name":"早宮地区区民館","province":"東京都","city":"練馬区","address":"練馬区早宮4-14-5","lat":35.75076618,"lon":139.6512647},{"name":"春日町南地区区民館","province":"東京都","city":"練馬区","address":"練馬区春日町5-20-25","lat":35.74772032,"lon":139.6385032},{"name":"高松地区区民館","province":"東京都","city":"練馬区","address":"練馬区高松3-24-27","lat":35.7500836,"lon":139.6251098},{"name":"旭町南地区区民館","province":"東京都","city":"練馬区","address":"練馬区高松5-23-15","lat":35.76288398,"lon":139.6250079},{"name":"北町地区区民館","province":"東京都","city":"練馬区","address":"練馬区北町2-26-1","lat":35.76746928,"lon":139.6602533},{"name":"北町第二地区区民館","province":"東京都","city":"練馬区","address":"練馬区北町6-24-101","lat":35.76122397,"lon":139.6554531},{"name":"田柄地区区民館","province":"東京都","city":"練馬区","address":"練馬区田柄3-28-13","lat":35.76210545,"lon":139.6372168},{"name":"光が丘地区区民館","province":"東京都","city":"練馬区","address":"練馬区光が丘3-9-4","lat":35.75795714,"lon":139.6255706},{"name":"旭町北地区区民館","province":"東京都","city":"練馬区","address":"練馬区旭町2-30-16","lat":35.77327014,"lon":139.6287902},{"name":"富士見台地区区民館","province":"東京都","city":"練馬区","address":"練馬区富士見台3-10-1","lat":35.73876575,"lon":139.6243766},{"name":"下石神井地区区民館","province":"東京都","city":"練馬区","address":"練馬区下石神井6-8-15","lat":35.73396386,"lon":139.6035737},{"name":"東大泉地区区民館","province":"東京都","city":"練馬区","address":"練馬区東大泉3-53-1","lat":35.75615572,"lon":139.5877982},{"name":"西大泉地区区民館","province":"東京都","city":"練馬区","address":"練馬区西大泉5-3-32","lat":35.76004545,"lon":139.5725136},{"name":"南大泉地区区民館","province":"東京都","city":"練馬区","address":"練馬区南大泉2-19-26","lat":35.73912047,"lon":139.5703892},{"name":"北大泉地区区民館","province":"東京都","city":"練馬区","address":"練馬区大泉町2-41-26","lat":35.76473253,"lon":139.6040236},{"name":"大泉学園地区区民館","province":"東京都","city":"練馬区","address":"練馬区大泉学園町8-9-5","lat":35.77293049,"lon":139.5926898},{"name":"関町北地区区民館","province":"東京都","city":"練馬区","address":"練馬区関町北4-12-21","lat":35.72980398,"lon":139.5770599},{"name":"立野地区区民館","province":"東京都","city":"練馬区","address":"練馬区立野町15-42","lat":35.7186214,"lon":139.582578}]}