{"keyword":"乳児","data":[{"name":"慶福育児会麻布乳児院","province":"東京都","city":"港区","address":"港区南麻布5-1-20","lat":35.653711,"lon":139.721838},{"name":"東京都済生会中央病院附属乳児院","province":"東京都","city":"港区","address":"港区三田1-4-17","lat":35.653962,"lon":139.7442},{"name":"二葉乳児院","province":"東京都","city":"新宿区","address":"新宿区南元町4","lat":35.681193,"lon":139.724728},{"name":"日本赤十字社医療センター附属乳児院","province":"東京都","city":"渋谷区","address":"渋谷区広尾4-1-1","lat":35.652906,"lon":139.719046},{"name":"聖オディリアホーム乳児院","province":"東京都","city":"中野区","address":"中野区上鷺宮5-28-28","lat":35.732164,"lon":139.627446},{"name":"聖友乳児院","province":"東京都","city":"杉並区","address":"杉並区阿佐谷北3-28-19","lat":35.711122,"lon":139.633382},{"name":"カリタスの園つぼみの寮","province":"東京都","city":"杉並区","address":"杉並区井草4-19-28","lat":35.728098,"lon":139.613394},{"name":"わんぱく乳児院","province":"東京都","city":"江戸川区","address":"江戸川区篠崎町1-28-16","lat":35.708305,"lon":139.906982},{"name":"東京恵明学園乳児部","province":"東京都","city":"青梅市","address":"青梅市友田町2-714ー1","lat":35.768499,"lon":139.294081},{"name":"愛恵会乳児院","province":"東京都","city":"町田市","address":"町田市小山町3191-3","lat":35.599698,"lon":139.361059},{"name":"慈生会ナザレットの家","province":"東京都","city":"清瀬市","address":"清瀬市梅園3-14-23","lat":35.770518,"lon":139.501347},{"name":"慶福育児会麻布乳児院","province":"東京都","city":"港区","address":"港区南麻布5-1-20","lat":35.65359,"lon":139.72212},{"name":"聖オディリアホーム乳児院","province":"東京都","city":"中野区","address":"中野区上鷺宮5-28-28","lat":35.72603,"lon":139.63309}]}