{"category":"wireless","data":[{"name":"北烏山","province":"東京都","city":"世田谷区","address":"東京都世田谷区北烏山7丁目2","lat":35.6757112,"lon":139.59327562},{"name":"一般社団法人至誠会第二病院","province":"東京都","city":"世田谷区","address":"東京都世田谷区上祖師谷5丁目19-1","lat":35.65629949,"lon":139.59144587},{"name":"公立学校共済組合関東中央病院","province":"東京都","city":"世田谷区","address":"東京都世田谷区上用賀6丁目25-1","lat":35.63726677,"lon":139.62627992},{"name":"東京都立松沢病院","province":"東京都","city":"世田谷区","address":"東京都世田谷区上北沢2丁目1-1","lat":35.66712968,"lon":139.61960719},{"name":"砧浄水場","province":"東京都","city":"世田谷区","address":"東京都世田谷区喜多見2丁目9-1","lat":35.6229239,"lon":139.5939617},{"name":"和田堀給水所","province":"東京都","city":"世田谷区","address":"東京都世田谷区大原2丁目30-43","lat":35.67019982,"lon":139.65752341},{"name":"玉川給水所","province":"東京都","city":"世田谷区","address":"東京都世田谷区玉川田園調布1丁目19-1","lat":35.60087176,"lon":139.66091715},{"name":"大蔵給水所","province":"東京都","city":"世田谷区","address":"東京都世田谷区砧2丁目8-1","lat":35.64285742,"lon":139.61625833},{"name":"駒沢給水所","province":"東京都","city":"世田谷区","address":"東京都世田谷区弦巻2丁目41-5","lat":35.63358721,"lon":139.65076123},{"name":"区立葭根公園","province":"東京都","city":"世田谷区","address":"東京都世田谷区船橋6丁目21","lat":35.65803078,"lon":139.62247115},{"name":"都立祖師谷公園","province":"東京都","city":"世田谷区","address":"東京都世田谷区上祖師谷4丁目2","lat":35.65340555,"lon":139.59748436},{"name":"区立中町二丁目公園","province":"東京都","city":"世田谷区","address":"東京都世田谷区中町2丁目34-1","lat":35.61159799,"lon":139.64116853},{"name":"至誠会第二病院","province":"東京都","city":"世田谷区","address":"東京都世田谷区上祖師谷5丁目19-1","lat":35.65629949,"lon":139.59144587},{"name":"都立松沢病院","province":"東京都","city":"世田谷区","address":"東京都世田谷区上北沢2丁目1-1","lat":35.66712968,"lon":139.61960719},{"name":"世田谷保健所","province":"東京都","city":"世田谷区","address":"東京都世田谷区世田谷4丁目22-35","lat":35.64614685,"lon":139.651658},{"name":"世田谷市場","province":"東京都","city":"世田谷区","address":"東京都世田谷区大蔵1丁目4-1","lat":35.63340608,"lon":139.62111116},{"name":"深沢高等学校","province":"東京都","city":"世田谷区","address":"東京都世田谷区深沢7丁目3-14","lat":35.62330496,"lon":139.64797566},{"name":"松原高等学校","province":"東京都","city":"世田谷区","address":"東京都世田谷区桜上水4丁目3-5","lat":35.66526919,"lon":139.63491157},{"name":"園芸高等学校","province":"東京都","city":"世田谷区","address":"東京都世田谷区深沢5丁目38-1","lat":35.61918875,"lon":139.64787858},{"name":"総合工科高等学校","province":"東京都","city":"世田谷区","address":"東京都世田谷区成城9丁目25-1","lat":35.65160294,"lon":139.5951874},{"name":"世田谷総合高等学校","province":"東京都","city":"世田谷区","address":"東京都世田谷区岡本2丁目9-1","lat":35.62006913,"lon":139.61914834},{"name":"桜町高等学校","province":"東京都","city":"世田谷区","address":"東京都世田谷区用賀2丁目4-1","lat":35.62644343,"lon":139.64023459},{"name":"千歳丘高等学校","province":"東京都","city":"世田谷区","address":"東京都世田谷区船橋3丁目18-1","lat":35.65227038,"lon":139.62448784},{"name":"芦花高等学校","province":"東京都","city":"世田谷区","address":"東京都世田谷区粕谷3丁目8-1","lat":35.65924678,"lon":139.60520577},{"name":"世田谷泉高等学校","province":"東京都","city":"世田谷区","address":"東京都世田谷区北烏山9丁目22-1","lat":35.67308643,"lon":139.59073425},{"name":"世田谷区立大蔵第二運動場","province":"東京都","city":"世田谷区","address":"東京都世田谷区大蔵4丁目6-1","lat":35.63043134,"lon":139.61231215}]}