{"keyword":"スモッグ","data":[{"name":"砧公園","province":"東京都","city":"世田谷区","address":"東京都世田谷区砧公園・大蔵一丁目","lat":35.630429,"lon":139.620212},{"name":"駒沢オリンピック公園","province":"東京都","city":"世田谷区","address":"東京都世田谷区駒沢公園、目黒区東が丘二丁目・八雲五丁目","lat":35.627198,"lon":139.661894},{"name":"祖師谷公園","province":"東京都","city":"世田谷区","address":"東京都世田谷区上祖師谷三、四丁目・祖師谷六丁目・成城九丁目","lat":35.656911,"lon":139.599357},{"name":"蘆花恒春園","province":"東京都","city":"世田谷区","address":"東京都世田谷区粕谷一丁目","lat":35.661969,"lon":139.61091},{"name":"世田谷公園軟式野球場","province":"東京都","city":"世田谷区","address":"東京都世田谷区池尻1丁目5","lat":35.64370344,"lon":139.68164445},{"name":"駒沢大学祖師谷グラウンド","province":"東京都","city":"世田谷区","address":"東京都世田谷区上祖師谷2丁目8","lat":35.6578273,"lon":139.59866744},{"name":"都立砧公園","province":"東京都","city":"世田谷区","address":"東京都世田谷区砧公園1-1","lat":35.6291067,"lon":139.62140025},{"name":"都立祖師谷公園少年運動場","province":"東京都","city":"世田谷区","address":"東京都世田谷区上祖師谷3丁目22-19","lat":35.65691076,"lon":139.59935631},{"name":"二子玉川緑地運動場","province":"東京都","city":"世田谷区","address":"東京都世田谷区鎌田1丁目","lat":35.617339,"lon":139.61637665},{"name":"世田谷区立小泉公園","province":"東京都","city":"世田谷区","address":"東京都世田谷区駒沢2丁目42","lat":35.63735914,"lon":139.65608295},{"name":"世田谷区立赤松公園","province":"東京都","city":"世田谷区","address":"東京都世田谷区赤堤4丁目10","lat":35.66157812,"lon":139.64139726},{"name":"日本体育大学グラウンド","province":"東京都","city":"世田谷区","address":"東京都世田谷区深沢7丁目1","lat":35.62202455,"lon":139.64835067},{"name":"東京農業大学野球場","province":"東京都","city":"世田谷区","address":"東京都世田谷区桜丘1丁目1","lat":35.64010265,"lon":139.63202372},{"name":"成城学園グラウンド","province":"東京都","city":"世田谷区","address":"東京都世田谷区成城6丁目1","lat":35.64426794,"lon":139.60143164},{"name":"駒澤大学玉川校舎グラウンド","province":"東京都","city":"世田谷区","address":"東京都世田谷区宇奈根1丁目1-2","lat":35.61725287,"lon":139.6089136},{"name":"日本大学グラウンド","province":"東京都","city":"世田谷区","address":"東京都世田谷区桜上水3丁目25-40","lat":35.66200011,"lon":139.63425617},{"name":"日本女子体育大学グラウンド","province":"東京都","city":"世田谷区","address":"東京都世田谷区北烏山8丁目19-1","lat":35.67728871,"lon":139.59020359},{"name":"(株)シンエイメタル","province":"東京都","city":"世田谷区","address":"世田谷区宇奈根1-6-1","lat":35.618629,"lon":139.603897},{"name":"(株)中田  世田谷事業所","province":"東京都","city":"世田谷区","address":"世田谷区大蔵1-2-6","lat":35.635223,"lon":139.621933},{"name":"アサミカレット","province":"東京都","city":"世田谷区","address":"世田谷区鎌田2-14-11","lat":35.618912,"lon":139.613174},{"name":"(株)井上  リサイクルセンター","province":"東京都","city":"世田谷区","address":"世田谷区船橋5-28-3","lat":35.657154,"lon":139.624771},{"name":"砧公園","province":"東京都","city":"世田谷区","address":"東京都世田谷区砧公園・大蔵一丁目","lat":35.630429,"lon":139.620212},{"name":"駒沢オリンピック公園","province":"東京都","city":"世田谷区","address":"東京都世田谷区駒沢公園、目黒区東が丘二丁目・八雲五丁目","lat":35.627198,"lon":139.661894},{"name":"祖師谷公園","province":"東京都","city":"世田谷区","address":"東京都世田谷区上祖師谷三、四丁目・祖師谷六丁目・成城九丁目","lat":35.656911,"lon":139.599357},{"name":"蘆花恒春園","province":"東京都","city":"世田谷区","address":"東京都世田谷区粕谷一丁目","lat":35.661969,"lon":139.61091},{"name":"(株)シンエイメタル","province":"東京都","city":"世田谷区","address":"世田谷区宇奈根1-6-1","lat":35.618629,"lon":139.603897},{"name":"(株)中田  世田谷事業所","province":"東京都","city":"世田谷区","address":"世田谷区大蔵1-2-6","lat":35.635223,"lon":139.621933},{"name":"アサミカレット","province":"東京都","city":"世田谷区","address":"世田谷区鎌田2-14-11","lat":35.618912,"lon":139.613174},{"name":"(株)井上  リサイクルセンター","province":"東京都","city":"世田谷区","address":"世田谷区船橋5-28-3","lat":35.657154,"lon":139.624771},{"name":"砧公園","province":"東京都","city":"世田谷区","address":"東京都世田谷区砧公園・大蔵一丁目","lat":35.630429,"lon":139.620212},{"name":"駒沢オリンピック公園","province":"東京都","city":"世田谷区","address":"東京都世田谷区駒沢公園、目黒区東が丘二丁目・八雲五丁目","lat":35.627198,"lon":139.661894},{"name":"祖師谷公園","province":"東京都","city":"世田谷区","address":"東京都世田谷区上祖師谷三、四丁目・祖師谷六丁目・成城九丁目","lat":35.656911,"lon":139.599357},{"name":"蘆花恒春園","province":"東京都","city":"世田谷区","address":"東京都世田谷区粕谷一丁目","lat":35.661969,"lon":139.61091},{"name":"(株)シンエイメタル","province":"東京都","city":"世田谷区","address":"世田谷区宇奈根1-6-1","lat":35.618629,"lon":139.603897},{"name":"(株)中田  世田谷事業所","province":"東京都","city":"世田谷区","address":"世田谷区大蔵1-2-6","lat":35.635223,"lon":139.621933},{"name":"アサミカレット","province":"東京都","city":"世田谷区","address":"世田谷区鎌田2-14-11","lat":35.618912,"lon":139.613174},{"name":"(株)井上  リサイクルセンター","province":"東京都","city":"世田谷区","address":"世田谷区船橋5-28-3","lat":35.657154,"lon":139.624771},{"name":"砧公園","province":"東京都","city":"世田谷区","address":"東京都世田谷区砧公園・大蔵一丁目","lat":35.630429,"lon":139.620212},{"name":"駒沢オリンピック公園","province":"東京都","city":"世田谷区","address":"東京都世田谷区駒沢公園、目黒区東が丘二丁目・八雲五丁目","lat":35.627198,"lon":139.661894},{"name":"祖師谷公園","province":"東京都","city":"世田谷区","address":"東京都世田谷区上祖師谷三、四丁目・祖師谷六丁目・成城九丁目","lat":35.656911,"lon":139.599357},{"name":"蘆花恒春園","province":"東京都","city":"世田谷区","address":"東京都世田谷区粕谷一丁目","lat":35.661969,"lon":139.61091},{"name":"(株)シンエイメタル","province":"東京都","city":"世田谷区","address":"世田谷区宇奈根1-6-1","lat":35.618629,"lon":139.603897},{"name":"(株)中田  世田谷事業所","province":"東京都","city":"世田谷区","address":"世田谷区大蔵1-2-6","lat":35.635223,"lon":139.621933},{"name":"アサミカレット","province":"東京都","city":"世田谷区","address":"世田谷区鎌田2-14-11","lat":35.618912,"lon":139.613174},{"name":"(株)井上  リサイクルセンター","province":"東京都","city":"世田谷区","address":"世田谷区船橋5-28-3","lat":35.657154,"lon":139.624771},{"name":"砧公園","province":"東京都","city":"世田谷区","address":"東京都世田谷区砧公園・大蔵一丁目","lat":35.630429,"lon":139.620212},{"name":"駒沢オリンピック公園","province":"東京都","city":"世田谷区","address":"東京都世田谷区駒沢公園、目黒区東が丘二丁目・八雲五丁目","lat":35.627198,"lon":139.661894},{"name":"祖師谷公園","province":"東京都","city":"世田谷区","address":"東京都世田谷区上祖師谷三、四丁目・祖師谷六丁目・成城九丁目","lat":35.656911,"lon":139.599357},{"name":"蘆花恒春園","province":"東京都","city":"世田谷区","address":"東京都世田谷区粕谷一丁目","lat":35.661969,"lon":139.61091},{"name":"(株)シンエイメタル","province":"東京都","city":"世田谷区","address":"世田谷区宇奈根1-6-1","lat":35.618629,"lon":139.603897},{"name":"(株)中田  世田谷事業所","province":"東京都","city":"世田谷区","address":"世田谷区大蔵1-2-6","lat":35.635223,"lon":139.621933},{"name":"アサミカレット","province":"東京都","city":"世田谷区","address":"世田谷区鎌田2-14-11","lat":35.618912,"lon":139.613174},{"name":"(株)井上  リサイクルセンター","province":"東京都","city":"世田谷区","address":"世田谷区船橋5-28-3","lat":35.657154,"lon":139.624771},{"name":"砧公園","province":"東京都","city":"世田谷区","address":"東京都世田谷区砧公園・大蔵一丁目","lat":35.630429,"lon":139.620212},{"name":"駒沢オリンピック公園","province":"東京都","city":"世田谷区","address":"東京都世田谷区駒沢公園、目黒区東が丘二丁目・八雲五丁目","lat":35.627198,"lon":139.661894},{"name":"祖師谷公園","province":"東京都","city":"世田谷区","address":"東京都世田谷区上祖師谷三、四丁目・祖師谷六丁目・成城九丁目","lat":35.656911,"lon":139.599357},{"name":"蘆花恒春園","province":"東京都","city":"世田谷区","address":"東京都世田谷区粕谷一丁目","lat":35.661969,"lon":139.61091},{"name":"(株)シンエイメタル","province":"東京都","city":"世田谷区","address":"世田谷区宇奈根1-6-1","lat":35.618629,"lon":139.603897},{"name":"(株)中田  世田谷事業所","province":"東京都","city":"世田谷区","address":"世田谷区大蔵1-2-6","lat":35.635223,"lon":139.621933},{"name":"アサミカレット","province":"東京都","city":"世田谷区","address":"世田谷区鎌田2-14-11","lat":35.618912,"lon":139.613174},{"name":"(株)井上  リサイクルセンター","province":"東京都","city":"世田谷区","address":"世田谷区船橋5-28-3","lat":35.657154,"lon":139.624771},{"name":"砧公園","province":"東京都","city":"世田谷区","address":"東京都世田谷区砧公園・大蔵一丁目","lat":35.630429,"lon":139.620212},{"name":"駒沢オリンピック公園","province":"東京都","city":"世田谷区","address":"東京都世田谷区駒沢公園、目黒区東が丘二丁目・八雲五丁目","lat":35.627198,"lon":139.661894},{"name":"祖師谷公園","province":"東京都","city":"世田谷区","address":"東京都世田谷区上祖師谷三、四丁目・祖師谷六丁目・成城九丁目","lat":35.656911,"lon":139.599357},{"name":"蘆花恒春園","province":"東京都","city":"世田谷区","address":"東京都世田谷区粕谷一丁目","lat":35.661969,"lon":139.61091},{"name":"(株)シンエイメタル","province":"東京都","city":"世田谷区","address":"世田谷区宇奈根1-6-1","lat":35.618629,"lon":139.603897},{"name":"(株)中田  世田谷事業所","province":"東京都","city":"世田谷区","address":"世田谷区大蔵1-2-6","lat":35.635223,"lon":139.621933},{"name":"アサミカレット","province":"東京都","city":"世田谷区","address":"世田谷区鎌田2-14-11","lat":35.618912,"lon":139.613174},{"name":"(株)井上  リサイクルセンター","province":"東京都","city":"世田谷区","address":"世田谷区船橋5-28-3","lat":35.657154,"lon":139.624771},{"name":"砧公園","province":"東京都","city":"世田谷区","address":"東京都世田谷区砧公園・大蔵一丁目","lat":35.630429,"lon":139.620212},{"name":"駒沢オリンピック公園","province":"東京都","city":"世田谷区","address":"東京都世田谷区駒沢公園、目黒区東が丘二丁目・八雲五丁目","lat":35.627198,"lon":139.661894},{"name":"祖師谷公園","province":"東京都","city":"世田谷区","address":"東京都世田谷区上祖師谷三、四丁目・祖師谷六丁目・成城九丁目","lat":35.656911,"lon":139.599357},{"name":"蘆花恒春園","province":"東京都","city":"世田谷区","address":"東京都世田谷区粕谷一丁目","lat":35.661969,"lon":139.61091},{"name":"(株)シンエイメタル","province":"東京都","city":"世田谷区","address":"世田谷区宇奈根1-6-1","lat":35.618629,"lon":139.603897},{"name":"(株)中田  世田谷事業所","province":"東京都","city":"世田谷区","address":"世田谷区大蔵1-2-6","lat":35.635223,"lon":139.621933},{"name":"アサミカレット","province":"東京都","city":"世田谷区","address":"世田谷区鎌田2-14-11","lat":35.618912,"lon":139.613174},{"name":"(株)井上  リサイクルセンター","province":"東京都","city":"世田谷区","address":"世田谷区船橋5-28-3","lat":35.657154,"lon":139.624771},{"name":"砧公園","province":"東京都","city":"世田谷区","address":"東京都世田谷区砧公園・大蔵一丁目","lat":35.630429,"lon":139.620212},{"name":"駒沢オリンピック公園","province":"東京都","city":"世田谷区","address":"東京都世田谷区駒沢公園、目黒区東が丘二丁目・八雲五丁目","lat":35.627198,"lon":139.661894},{"name":"祖師谷公園","province":"東京都","city":"世田谷区","address":"東京都世田谷区上祖師谷三、四丁目・祖師谷六丁目・成城九丁目","lat":35.656911,"lon":139.599357},{"name":"蘆花恒春園","province":"東京都","city":"世田谷区","address":"東京都世田谷区粕谷一丁目","lat":35.661969,"lon":139.61091},{"name":"(株)シンエイメタル","province":"東京都","city":"世田谷区","address":"世田谷区宇奈根1-6-1","lat":35.618629,"lon":139.603897},{"name":"(株)中田  世田谷事業所","province":"東京都","city":"世田谷区","address":"世田谷区大蔵1-2-6","lat":35.635223,"lon":139.621933},{"name":"アサミカレット","province":"東京都","city":"世田谷区","address":"世田谷区鎌田2-14-11","lat":35.618912,"lon":139.613174},{"name":"(株)井上  リサイクルセンター","province":"東京都","city":"世田谷区","address":"世田谷区船橋5-28-3","lat":35.657154,"lon":139.624771},{"name":"砧公園","province":"東京都","city":"世田谷区","address":"東京都世田谷区砧公園・大蔵一丁目","lat":35.630429,"lon":139.620212},{"name":"駒沢オリンピック公園","province":"東京都","city":"世田谷区","address":"東京都世田谷区駒沢公園、目黒区東が丘二丁目・八雲五丁目","lat":35.627198,"lon":139.661894},{"name":"祖師谷公園","province":"東京都","city":"世田谷区","address":"東京都世田谷区上祖師谷三、四丁目・祖師谷六丁目・成城九丁目","lat":35.656911,"lon":139.599357},{"name":"蘆花恒春園","province":"東京都","city":"世田谷区","address":"東京都世田谷区粕谷一丁目","lat":35.661969,"lon":139.61091},{"name":"(株)シンエイメタル","province":"東京都","city":"世田谷区","address":"世田谷区宇奈根1-6-1","lat":35.618629,"lon":139.603897},{"name":"(株)中田  世田谷事業所","province":"東京都","city":"世田谷区","address":"世田谷区大蔵1-2-6","lat":35.635223,"lon":139.621933},{"name":"アサミカレット","province":"東京都","city":"世田谷区","address":"世田谷区鎌田2-14-11","lat":35.618912,"lon":139.613174},{"name":"(株)井上  リサイクルセンター","province":"東京都","city":"世田谷区","address":"世田谷区船橋5-28-3","lat":35.657154,"lon":139.624771},{"name":"砧公園","province":"東京都","city":"世田谷区","address":"東京都世田谷区砧公園・大蔵一丁目","lat":35.630429,"lon":139.620212},{"name":"駒沢オリンピック公園","province":"東京都","city":"世田谷区","address":"東京都世田谷区駒沢公園、目黒区東が丘二丁目・八雲五丁目","lat":35.627198,"lon":139.661894},{"name":"祖師谷公園","province":"東京都","city":"世田谷区","address":"東京都世田谷区上祖師谷三、四丁目・祖師谷六丁目・成城九丁目","lat":35.656911,"lon":139.599357},{"name":"蘆花恒春園","province":"東京都","city":"世田谷区","address":"東京都世田谷区粕谷一丁目","lat":35.661969,"lon":139.61091},{"name":"(株)シンエイメタル","province":"東京都","city":"世田谷区","address":"世田谷区宇奈根1-6-1","lat":35.618629,"lon":139.603897},{"name":"(株)中田  世田谷事業所","province":"東京都","city":"世田谷区","address":"世田谷区大蔵1-2-6","lat":35.635223,"lon":139.621933},{"name":"アサミカレット","province":"東京都","city":"世田谷区","address":"世田谷区鎌田2-14-11","lat":35.618912,"lon":139.613174},{"name":"(株)井上  リサイクルセンター","province":"東京都","city":"世田谷区","address":"世田谷区船橋5-28-3","lat":35.657154,"lon":139.624771},{"name":"砧公園","province":"東京都","city":"世田谷区","address":"東京都世田谷区砧公園・大蔵一丁目","lat":35.630429,"lon":139.620212},{"name":"駒沢オリンピック公園","province":"東京都","city":"世田谷区","address":"東京都世田谷区駒沢公園、目黒区東が丘二丁目・八雲五丁目","lat":35.627198,"lon":139.661894},{"name":"祖師谷公園","province":"東京都","city":"世田谷区","address":"東京都世田谷区上祖師谷三、四丁目・祖師谷六丁目・成城九丁目","lat":35.656911,"lon":139.599357},{"name":"蘆花恒春園","province":"東京都","city":"世田谷区","address":"東京都世田谷区粕谷一丁目","lat":35.661969,"lon":139.61091},{"name":"(株)シンエイメタル","province":"東京都","city":"世田谷区","address":"世田谷区宇奈根1-6-1","lat":35.618629,"lon":139.603897},{"name":"(株)中田  世田谷事業所","province":"東京都","city":"世田谷区","address":"世田谷区大蔵1-2-6","lat":35.635223,"lon":139.621933},{"name":"アサミカレット","province":"東京都","city":"世田谷区","address":"世田谷区鎌田2-14-11","lat":35.618912,"lon":139.613174},{"name":"(株)井上  リサイクルセンター","province":"東京都","city":"世田谷区","address":"世田谷区船橋5-28-3","lat":35.657154,"lon":139.624771},{"name":"砧公園","province":"東京都","city":"世田谷区","address":"東京都世田谷区砧公園・大蔵一丁目","lat":35.630429,"lon":139.620212},{"name":"駒沢オリンピック公園","province":"東京都","city":"世田谷区","address":"東京都世田谷区駒沢公園、目黒区東が丘二丁目・八雲五丁目","lat":35.627198,"lon":139.661894},{"name":"祖師谷公園","province":"東京都","city":"世田谷区","address":"東京都世田谷区上祖師谷三、四丁目・祖師谷六丁目・成城九丁目","lat":35.656911,"lon":139.599357},{"name":"蘆花恒春園","province":"東京都","city":"世田谷区","address":"東京都世田谷区粕谷一丁目","lat":35.661969,"lon":139.61091},{"name":"(株)シンエイメタル","province":"東京都","city":"世田谷区","address":"世田谷区宇奈根1-6-1","lat":35.618629,"lon":139.603897},{"name":"(株)中田  世田谷事業所","province":"東京都","city":"世田谷区","address":"世田谷区大蔵1-2-6","lat":35.635223,"lon":139.621933},{"name":"アサミカレット","province":"東京都","city":"世田谷区","address":"世田谷区鎌田2-14-11","lat":35.618912,"lon":139.613174},{"name":"(株)井上  リサイクルセンター","province":"東京都","city":"世田谷区","address":"世田谷区船橋5-28-3","lat":35.657154,"lon":139.624771},{"name":"砧公園","province":"東京都","city":"世田谷区","address":"東京都世田谷区砧公園・大蔵一丁目","lat":35.630429,"lon":139.620212},{"name":"駒沢オリンピック公園","province":"東京都","city":"世田谷区","address":"東京都世田谷区駒沢公園、目黒区東が丘二丁目・八雲五丁目","lat":35.627198,"lon":139.661894},{"name":"祖師谷公園","province":"東京都","city":"世田谷区","address":"東京都世田谷区上祖師谷三、四丁目・祖師谷六丁目・成城九丁目","lat":35.656911,"lon":139.599357},{"name":"蘆花恒春園","province":"東京都","city":"世田谷区","address":"東京都世田谷区粕谷一丁目","lat":35.661969,"lon":139.61091},{"name":"(株)シンエイメタル","province":"東京都","city":"世田谷区","address":"世田谷区宇奈根1-6-1","lat":35.618629,"lon":139.603897},{"name":"(株)中田  世田谷事業所","province":"東京都","city":"世田谷区","address":"世田谷区大蔵1-2-6","lat":35.635223,"lon":139.621933},{"name":"アサミカレット","province":"東京都","city":"世田谷区","address":"世田谷区鎌田2-14-11","lat":35.618912,"lon":139.613174},{"name":"(株)井上  リサイクルセンター","province":"東京都","city":"世田谷区","address":"世田谷区船橋5-28-3","lat":35.657154,"lon":139.624771},{"name":"砧公園","province":"東京都","city":"世田谷区","address":"東京都世田谷区砧公園・大蔵一丁目","lat":35.630429,"lon":139.620212},{"name":"駒沢オリンピック公園","province":"東京都","city":"世田谷区","address":"東京都世田谷区駒沢公園、目黒区東が丘二丁目・八雲五丁目","lat":35.627198,"lon":139.661894},{"name":"祖師谷公園","province":"東京都","city":"世田谷区","address":"東京都世田谷区上祖師谷三、四丁目・祖師谷六丁目・成城九丁目","lat":35.656911,"lon":139.599357},{"name":"蘆花恒春園","province":"東京都","city":"世田谷区","address":"東京都世田谷区粕谷一丁目","lat":35.661969,"lon":139.61091},{"name":"(株)シンエイメタル","province":"東京都","city":"世田谷区","address":"世田谷区宇奈根1-6-1","lat":35.618629,"lon":139.603897},{"name":"(株)中田  世田谷事業所","province":"東京都","city":"世田谷区","address":"世田谷区大蔵1-2-6","lat":35.635223,"lon":139.621933},{"name":"アサミカレット","province":"東京都","city":"世田谷区","address":"世田谷区鎌田2-14-11","lat":35.618912,"lon":139.613174},{"name":"(株)井上  リサイクルセンター","province":"東京都","city":"世田谷区","address":"世田谷区船橋5-28-3","lat":35.657154,"lon":139.624771},{"name":"砧公園","province":"東京都","city":"世田谷区","address":"東京都世田谷区砧公園・大蔵一丁目","lat":35.630429,"lon":139.620212},{"name":"駒沢オリンピック公園","province":"東京都","city":"世田谷区","address":"東京都世田谷区駒沢公園、目黒区東が丘二丁目・八雲五丁目","lat":35.627198,"lon":139.661894},{"name":"祖師谷公園","province":"東京都","city":"世田谷区","address":"東京都世田谷区上祖師谷三、四丁目・祖師谷六丁目・成城九丁目","lat":35.656911,"lon":139.599357},{"name":"蘆花恒春園","province":"東京都","city":"世田谷区","address":"東京都世田谷区粕谷一丁目","lat":35.661969,"lon":139.61091},{"name":"(株)シンエイメタル","province":"東京都","city":"世田谷区","address":"世田谷区宇奈根1-6-1","lat":35.618629,"lon":139.603897},{"name":"(株)中田  世田谷事業所","province":"東京都","city":"世田谷区","address":"世田谷区大蔵1-2-6","lat":35.635223,"lon":139.621933},{"name":"アサミカレット","province":"東京都","city":"世田谷区","address":"世田谷区鎌田2-14-11","lat":35.618912,"lon":139.613174},{"name":"(株)井上  リサイクルセンター","province":"東京都","city":"世田谷区","address":"世田谷区船橋5-28-3","lat":35.657154,"lon":139.624771},{"name":"砧公園","province":"東京都","city":"世田谷区","address":"東京都世田谷区砧公園・大蔵一丁目","lat":35.630429,"lon":139.620212},{"name":"駒沢オリンピック公園","province":"東京都","city":"世田谷区","address":"東京都世田谷区駒沢公園、目黒区東が丘二丁目・八雲五丁目","lat":35.627198,"lon":139.661894},{"name":"祖師谷公園","province":"東京都","city":"世田谷区","address":"東京都世田谷区上祖師谷三、四丁目・祖師谷六丁目・成城九丁目","lat":35.656911,"lon":139.599357},{"name":"蘆花恒春園","province":"東京都","city":"世田谷区","address":"東京都世田谷区粕谷一丁目","lat":35.661969,"lon":139.61091},{"name":"(株)シンエイメタル","province":"東京都","city":"世田谷区","address":"世田谷区宇奈根1-6-1","lat":35.618629,"lon":139.603897},{"name":"(株)中田  世田谷事業所","province":"東京都","city":"世田谷区","address":"世田谷区大蔵1-2-6","lat":35.635223,"lon":139.621933},{"name":"アサミカレット","province":"東京都","city":"世田谷区","address":"世田谷区鎌田2-14-11","lat":35.618912,"lon":139.613174},{"name":"(株)井上  リサイクルセンター","province":"東京都","city":"世田谷区","address":"世田谷区船橋5-28-3","lat":35.657154,"lon":139.624771},{"name":"砧公園","province":"東京都","city":"世田谷区","address":"東京都世田谷区砧公園・大蔵一丁目","lat":35.630429,"lon":139.620212},{"name":"駒沢オリンピック公園","province":"東京都","city":"世田谷区","address":"東京都世田谷区駒沢公園、目黒区東が丘二丁目・八雲五丁目","lat":35.627198,"lon":139.661894},{"name":"祖師谷公園","province":"東京都","city":"世田谷区","address":"東京都世田谷区上祖師谷三、四丁目・祖師谷六丁目・成城九丁目","lat":35.656911,"lon":139.599357},{"name":"蘆花恒春園","province":"東京都","city":"世田谷区","address":"東京都世田谷区粕谷一丁目","lat":35.661969,"lon":139.61091},{"name":"(株)シンエイメタル","province":"東京都","city":"世田谷区","address":"世田谷区宇奈根1-6-1","lat":35.618629,"lon":139.603897},{"name":"(株)中田  世田谷事業所","province":"東京都","city":"世田谷区","address":"世田谷区大蔵1-2-6","lat":35.635223,"lon":139.621933},{"name":"アサミカレット","province":"東京都","city":"世田谷区","address":"世田谷区鎌田2-14-11","lat":35.618912,"lon":139.613174},{"name":"(株)井上  リサイクルセンター","province":"東京都","city":"世田谷区","address":"世田谷区船橋5-28-3","lat":35.657154,"lon":139.624771},{"name":"砧公園","province":"東京都","city":"世田谷区","address":"東京都世田谷区砧公園・大蔵一丁目","lat":35.630429,"lon":139.620212},{"name":"駒沢オリンピック公園","province":"東京都","city":"世田谷区","address":"東京都世田谷区駒沢公園、目黒区東が丘二丁目・八雲五丁目","lat":35.627198,"lon":139.661894},{"name":"祖師谷公園","province":"東京都","city":"世田谷区","address":"東京都世田谷区上祖師谷三、四丁目・祖師谷六丁目・成城九丁目","lat":35.656911,"lon":139.599357},{"name":"蘆花恒春園","province":"東京都","city":"世田谷区","address":"東京都世田谷区粕谷一丁目","lat":35.661969,"lon":139.61091},{"name":"(株)シンエイメタル","province":"東京都","city":"世田谷区","address":"世田谷区宇奈根1-6-1","lat":35.618629,"lon":139.603897},{"name":"(株)中田  世田谷事業所","province":"東京都","city":"世田谷区","address":"世田谷区大蔵1-2-6","lat":35.635223,"lon":139.621933},{"name":"アサミカレット","province":"東京都","city":"世田谷区","address":"世田谷区鎌田2-14-11","lat":35.618912,"lon":139.613174},{"name":"(株)井上  リサイクルセンター","province":"東京都","city":"世田谷区","address":"世田谷区船橋5-28-3","lat":35.657154,"lon":139.624771},{"name":"砧公園","province":"東京都","city":"世田谷区","address":"東京都世田谷区砧公園・大蔵一丁目","lat":35.630429,"lon":139.620212},{"name":"駒沢オリンピック公園","province":"東京都","city":"世田谷区","address":"東京都世田谷区駒沢公園、目黒区東が丘二丁目・八雲五丁目","lat":35.627198,"lon":139.661894},{"name":"祖師谷公園","province":"東京都","city":"世田谷区","address":"東京都世田谷区上祖師谷三、四丁目・祖師谷六丁目・成城九丁目","lat":35.656911,"lon":139.599357},{"name":"蘆花恒春園","province":"東京都","city":"世田谷区","address":"東京都世田谷区粕谷一丁目","lat":35.661969,"lon":139.61091},{"name":"(株)シンエイメタル","province":"東京都","city":"世田谷区","address":"世田谷区宇奈根1-6-1","lat":35.618629,"lon":139.603897},{"name":"(株)中田  世田谷事業所","province":"東京都","city":"世田谷区","address":"世田谷区大蔵1-2-6","lat":35.635223,"lon":139.621933},{"name":"アサミカレット","province":"東京都","city":"世田谷区","address":"世田谷区鎌田2-14-11","lat":35.618912,"lon":139.613174},{"name":"(株)井上  リサイクルセンター","province":"東京都","city":"世田谷区","address":"世田谷区船橋5-28-3","lat":35.657154,"lon":139.624771},{"name":"砧公園","province":"東京都","city":"世田谷区","address":"東京都世田谷区砧公園・大蔵一丁目","lat":35.630429,"lon":139.620212},{"name":"駒沢オリンピック公園","province":"東京都","city":"世田谷区","address":"東京都世田谷区駒沢公園、目黒区東が丘二丁目・八雲五丁目","lat":35.627198,"lon":139.661894},{"name":"祖師谷公園","province":"東京都","city":"世田谷区","address":"東京都世田谷区上祖師谷三、四丁目・祖師谷六丁目・成城九丁目","lat":35.656911,"lon":139.599357},{"name":"蘆花恒春園","province":"東京都","city":"世田谷区","address":"東京都世田谷区粕谷一丁目","lat":35.661969,"lon":139.61091},{"name":"(株)シンエイメタル","province":"東京都","city":"世田谷区","address":"世田谷区宇奈根1-6-1","lat":35.618629,"lon":139.603897},{"name":"(株)中田  世田谷事業所","province":"東京都","city":"世田谷区","address":"世田谷区大蔵1-2-6","lat":35.635223,"lon":139.621933},{"name":"アサミカレット","province":"東京都","city":"世田谷区","address":"世田谷区鎌田2-14-11","lat":35.618912,"lon":139.613174},{"name":"(株)井上  リサイクルセンター","province":"東京都","city":"世田谷区","address":"世田谷区船橋5-28-3","lat":35.657154,"lon":139.624771},{"name":"砧公園","province":"東京都","city":"世田谷区","address":"東京都世田谷区砧公園・大蔵一丁目","lat":35.630429,"lon":139.620212},{"name":"駒沢オリンピック公園","province":"東京都","city":"世田谷区","address":"東京都世田谷区駒沢公園、目黒区東が丘二丁目・八雲五丁目","lat":35.627198,"lon":139.661894},{"name":"祖師谷公園","province":"東京都","city":"世田谷区","address":"東京都世田谷区上祖師谷三、四丁目・祖師谷六丁目・成城九丁目","lat":35.656911,"lon":139.599357},{"name":"蘆花恒春園","province":"東京都","city":"世田谷区","address":"東京都世田谷区粕谷一丁目","lat":35.661969,"lon":139.61091},{"name":"(株)シンエイメタル","province":"東京都","city":"世田谷区","address":"世田谷区宇奈根1-6-1","lat":35.618629,"lon":139.603897},{"name":"(株)中田  世田谷事業所","province":"東京都","city":"世田谷区","address":"世田谷区大蔵1-2-6","lat":35.635223,"lon":139.621933},{"name":"アサミカレット","province":"東京都","city":"世田谷区","address":"世田谷区鎌田2-14-11","lat":35.618912,"lon":139.613174},{"name":"(株)井上  リサイクルセンター","province":"東京都","city":"世田谷区","address":"世田谷区船橋5-28-3","lat":35.657154,"lon":139.624771},{"name":"砧公園","province":"東京都","city":"世田谷区","address":"東京都世田谷区砧公園・大蔵一丁目","lat":35.630429,"lon":139.620212},{"name":"駒沢オリンピック公園","province":"東京都","city":"世田谷区","address":"東京都世田谷区駒沢公園、目黒区東が丘二丁目・八雲五丁目","lat":35.627198,"lon":139.661894},{"name":"祖師谷公園","province":"東京都","city":"世田谷区","address":"東京都世田谷区上祖師谷三、四丁目・祖師谷六丁目・成城九丁目","lat":35.656911,"lon":139.599357},{"name":"蘆花恒春園","province":"東京都","city":"世田谷区","address":"東京都世田谷区粕谷一丁目","lat":35.661969,"lon":139.61091},{"name":"(株)シンエイメタル","province":"東京都","city":"世田谷区","address":"世田谷区宇奈根1-6-1","lat":35.618629,"lon":139.603897},{"name":"(株)中田  世田谷事業所","province":"東京都","city":"世田谷区","address":"世田谷区大蔵1-2-6","lat":35.635223,"lon":139.621933},{"name":"アサミカレット","province":"東京都","city":"世田谷区","address":"世田谷区鎌田2-14-11","lat":35.618912,"lon":139.613174},{"name":"(株)井上  リサイクルセンター","province":"東京都","city":"世田谷区","address":"世田谷区船橋5-28-3","lat":35.657154,"lon":139.624771},{"name":"砧公園","province":"東京都","city":"世田谷区","address":"東京都世田谷区砧公園・大蔵一丁目","lat":35.630429,"lon":139.620212},{"name":"駒沢オリンピック公園","province":"東京都","city":"世田谷区","address":"東京都世田谷区駒沢公園、目黒区東が丘二丁目・八雲五丁目","lat":35.627198,"lon":139.661894},{"name":"祖師谷公園","province":"東京都","city":"世田谷区","address":"東京都世田谷区上祖師谷三、四丁目・祖師谷六丁目・成城九丁目","lat":35.656911,"lon":139.599357},{"name":"蘆花恒春園","province":"東京都","city":"世田谷区","address":"東京都世田谷区粕谷一丁目","lat":35.661969,"lon":139.61091},{"name":"(株)シンエイメタル","province":"東京都","city":"世田谷区","address":"世田谷区宇奈根1-6-1","lat":35.618629,"lon":139.603897},{"name":"(株)中田  世田谷事業所","province":"東京都","city":"世田谷区","address":"世田谷区大蔵1-2-6","lat":35.635223,"lon":139.621933},{"name":"アサミカレット","province":"東京都","city":"世田谷区","address":"世田谷区鎌田2-14-11","lat":35.618912,"lon":139.613174},{"name":"(株)井上  リサイクルセンター","province":"東京都","city":"世田谷区","address":"世田谷区船橋5-28-3","lat":35.657154,"lon":139.624771},{"name":"砧公園","province":"東京都","city":"世田谷区","address":"東京都世田谷区砧公園・大蔵一丁目","lat":35.630429,"lon":139.620212},{"name":"駒沢オリンピック公園","province":"東京都","city":"世田谷区","address":"東京都世田谷区駒沢公園、目黒区東が丘二丁目・八雲五丁目","lat":35.627198,"lon":139.661894},{"name":"祖師谷公園","province":"東京都","city":"世田谷区","address":"東京都世田谷区上祖師谷三、四丁目・祖師谷六丁目・成城九丁目","lat":35.656911,"lon":139.599357},{"name":"蘆花恒春園","province":"東京都","city":"世田谷区","address":"東京都世田谷区粕谷一丁目","lat":35.661969,"lon":139.61091},{"name":"(株)シンエイメタル","province":"東京都","city":"世田谷区","address":"世田谷区宇奈根1-6-1","lat":35.618629,"lon":139.603897},{"name":"(株)中田  世田谷事業所","province":"東京都","city":"世田谷区","address":"世田谷区大蔵1-2-6","lat":35.635223,"lon":139.621933},{"name":"アサミカレット","province":"東京都","city":"世田谷区","address":"世田谷区鎌田2-14-11","lat":35.618912,"lon":139.613174},{"name":"(株)井上  リサイクルセンター","province":"東京都","city":"世田谷区","address":"世田谷区船橋5-28-3","lat":35.657154,"lon":139.624771},{"name":"砧公園","province":"東京都","city":"世田谷区","address":"東京都世田谷区砧公園・大蔵一丁目","lat":35.630429,"lon":139.620212},{"name":"駒沢オリンピック公園","province":"東京都","city":"世田谷区","address":"東京都世田谷区駒沢公園、目黒区東が丘二丁目・八雲五丁目","lat":35.627198,"lon":139.661894},{"name":"祖師谷公園","province":"東京都","city":"世田谷区","address":"東京都世田谷区上祖師谷三、四丁目・祖師谷六丁目・成城九丁目","lat":35.656911,"lon":139.599357},{"name":"蘆花恒春園","province":"東京都","city":"世田谷区","address":"東京都世田谷区粕谷一丁目","lat":35.661969,"lon":139.61091},{"name":"(株)シンエイメタル","province":"東京都","city":"世田谷区","address":"世田谷区宇奈根1-6-1","lat":35.618629,"lon":139.603897},{"name":"(株)中田  世田谷事業所","province":"東京都","city":"世田谷区","address":"世田谷区大蔵1-2-6","lat":35.635223,"lon":139.621933},{"name":"アサミカレット","province":"東京都","city":"世田谷区","address":"世田谷区鎌田2-14-11","lat":35.618912,"lon":139.613174},{"name":"(株)井上  リサイクルセンター","province":"東京都","city":"世田谷区","address":"世田谷区船橋5-28-3","lat":35.657154,"lon":139.624771},{"name":"砧公園","province":"東京都","city":"世田谷区","address":"東京都世田谷区砧公園・大蔵一丁目","lat":35.630429,"lon":139.620212},{"name":"駒沢オリンピック公園","province":"東京都","city":"世田谷区","address":"東京都世田谷区駒沢公園、目黒区東が丘二丁目・八雲五丁目","lat":35.627198,"lon":139.661894},{"name":"祖師谷公園","province":"東京都","city":"世田谷区","address":"東京都世田谷区上祖師谷三、四丁目・祖師谷六丁目・成城九丁目","lat":35.656911,"lon":139.599357},{"name":"蘆花恒春園","province":"東京都","city":"世田谷区","address":"東京都世田谷区粕谷一丁目","lat":35.661969,"lon":139.61091},{"name":"(株)シンエイメタル","province":"東京都","city":"世田谷区","address":"世田谷区宇奈根1-6-1","lat":35.618629,"lon":139.603897},{"name":"(株)中田  世田谷事業所","province":"東京都","city":"世田谷区","address":"世田谷区大蔵1-2-6","lat":35.635223,"lon":139.621933},{"name":"アサミカレット","province":"東京都","city":"世田谷区","address":"世田谷区鎌田2-14-11","lat":35.618912,"lon":139.613174},{"name":"(株)井上  リサイクルセンター","province":"東京都","city":"世田谷区","address":"世田谷区船橋5-28-3","lat":35.657154,"lon":139.624771},{"name":"砧公園","province":"東京都","city":"世田谷区","address":"東京都世田谷区砧公園・大蔵一丁目","lat":35.630429,"lon":139.620212},{"name":"駒沢オリンピック公園","province":"東京都","city":"世田谷区","address":"東京都世田谷区駒沢公園、目黒区東が丘二丁目・八雲五丁目","lat":35.627198,"lon":139.661894},{"name":"祖師谷公園","province":"東京都","city":"世田谷区","address":"東京都世田谷区上祖師谷三、四丁目・祖師谷六丁目・成城九丁目","lat":35.656911,"lon":139.599357},{"name":"蘆花恒春園","province":"東京都","city":"世田谷区","address":"東京都世田谷区粕谷一丁目","lat":35.661969,"lon":139.61091},{"name":"(株)シンエイメタル","province":"東京都","city":"世田谷区","address":"世田谷区宇奈根1-6-1","lat":35.618629,"lon":139.603897},{"name":"(株)中田  世田谷事業所","province":"東京都","city":"世田谷区","address":"世田谷区大蔵1-2-6","lat":35.635223,"lon":139.621933},{"name":"アサミカレット","province":"東京都","city":"世田谷区","address":"世田谷区鎌田2-14-11","lat":35.618912,"lon":139.613174},{"name":"(株)井上  リサイクルセンター","province":"東京都","city":"世田谷区","address":"世田谷区船橋5-28-3","lat":35.657154,"lon":139.624771},{"name":"砧公園","province":"東京都","city":"世田谷区","address":"東京都世田谷区砧公園・大蔵一丁目","lat":35.630429,"lon":139.620212},{"name":"駒沢オリンピック公園","province":"東京都","city":"世田谷区","address":"東京都世田谷区駒沢公園、目黒区東が丘二丁目・八雲五丁目","lat":35.627198,"lon":139.661894},{"name":"祖師谷公園","province":"東京都","city":"世田谷区","address":"東京都世田谷区上祖師谷三、四丁目・祖師谷六丁目・成城九丁目","lat":35.656911,"lon":139.599357},{"name":"蘆花恒春園","province":"東京都","city":"世田谷区","address":"東京都世田谷区粕谷一丁目","lat":35.661969,"lon":139.61091},{"name":"(株)シンエイメタル","province":"東京都","city":"世田谷区","address":"世田谷区宇奈根1-6-1","lat":35.618629,"lon":139.603897},{"name":"(株)中田  世田谷事業所","province":"東京都","city":"世田谷区","address":"世田谷区大蔵1-2-6","lat":35.635223,"lon":139.621933},{"name":"アサミカレット","province":"東京都","city":"世田谷区","address":"世田谷区鎌田2-14-11","lat":35.618912,"lon":139.613174},{"name":"(株)井上  リサイクルセンター","province":"東京都","city":"世田谷区","address":"世田谷区船橋5-28-3","lat":35.657154,"lon":139.624771},{"name":"砧公園","province":"東京都","city":"世田谷区","address":"東京都世田谷区砧公園・大蔵一丁目","lat":35.630429,"lon":139.620212},{"name":"駒沢オリンピック公園","province":"東京都","city":"世田谷区","address":"東京都世田谷区駒沢公園、目黒区東が丘二丁目・八雲五丁目","lat":35.627198,"lon":139.661894},{"name":"祖師谷公園","province":"東京都","city":"世田谷区","address":"東京都世田谷区上祖師谷三、四丁目・祖師谷六丁目・成城九丁目","lat":35.656911,"lon":139.599357},{"name":"蘆花恒春園","province":"東京都","city":"世田谷区","address":"東京都世田谷区粕谷一丁目","lat":35.661969,"lon":139.61091},{"name":"(株)シンエイメタル","province":"東京都","city":"世田谷区","address":"世田谷区宇奈根1-6-1","lat":35.618629,"lon":139.603897},{"name":"(株)中田  世田谷事業所","province":"東京都","city":"世田谷区","address":"世田谷区大蔵1-2-6","lat":35.635223,"lon":139.621933},{"name":"アサミカレット","province":"東京都","city":"世田谷区","address":"世田谷区鎌田2-14-11","lat":35.618912,"lon":139.613174},{"name":"(株)井上  リサイクルセンター","province":"東京都","city":"世田谷区","address":"世田谷区船橋5-28-3","lat":35.657154,"lon":139.624771},{"name":"砧公園","province":"東京都","city":"世田谷区","address":"東京都世田谷区砧公園・大蔵一丁目","lat":35.630429,"lon":139.620212},{"name":"駒沢オリンピック公園","province":"東京都","city":"世田谷区","address":"東京都世田谷区駒沢公園、目黒区東が丘二丁目・八雲五丁目","lat":35.627198,"lon":139.661894},{"name":"祖師谷公園","province":"東京都","city":"世田谷区","address":"東京都世田谷区上祖師谷三、四丁目・祖師谷六丁目・成城九丁目","lat":35.656911,"lon":139.599357},{"name":"蘆花恒春園","province":"東京都","city":"世田谷区","address":"東京都世田谷区粕谷一丁目","lat":35.661969,"lon":139.61091},{"name":"(株)シンエイメタル","province":"東京都","city":"世田谷区","address":"世田谷区宇奈根1-6-1","lat":35.618629,"lon":139.603897},{"name":"(株)中田  世田谷事業所","province":"東京都","city":"世田谷区","address":"世田谷区大蔵1-2-6","lat":35.635223,"lon":139.621933},{"name":"アサミカレット","province":"東京都","city":"世田谷区","address":"世田谷区鎌田2-14-11","lat":35.618912,"lon":139.613174},{"name":"(株)井上  リサイクルセンター","province":"東京都","city":"世田谷区","address":"世田谷区船橋5-28-3","lat":35.657154,"lon":139.624771},{"name":"砧公園","province":"東京都","city":"世田谷区","address":"東京都世田谷区砧公園・大蔵一丁目","lat":35.630429,"lon":139.620212},{"name":"駒沢オリンピック公園","province":"東京都","city":"世田谷区","address":"東京都世田谷区駒沢公園、目黒区東が丘二丁目・八雲五丁目","lat":35.627198,"lon":139.661894},{"name":"祖師谷公園","province":"東京都","city":"世田谷区","address":"東京都世田谷区上祖師谷三、四丁目・祖師谷六丁目・成城九丁目","lat":35.656911,"lon":139.599357},{"name":"蘆花恒春園","province":"東京都","city":"世田谷区","address":"東京都世田谷区粕谷一丁目","lat":35.661969,"lon":139.61091},{"name":"(株)シンエイメタル","province":"東京都","city":"世田谷区","address":"世田谷区宇奈根1-6-1","lat":35.618629,"lon":139.603897},{"name":"(株)中田  世田谷事業所","province":"東京都","city":"世田谷区","address":"世田谷区大蔵1-2-6","lat":35.635223,"lon":139.621933},{"name":"アサミカレット","province":"東京都","city":"世田谷区","address":"世田谷区鎌田2-14-11","lat":35.618912,"lon":139.613174},{"name":"(株)井上  リサイクルセンター","province":"東京都","city":"世田谷区","address":"世田谷区船橋5-28-3","lat":35.657154,"lon":139.624771},{"name":"砧公園","province":"東京都","city":"世田谷区","address":"東京都世田谷区砧公園・大蔵一丁目","lat":35.630429,"lon":139.620212},{"name":"駒沢オリンピック公園","province":"東京都","city":"世田谷区","address":"東京都世田谷区駒沢公園、目黒区東が丘二丁目・八雲五丁目","lat":35.627198,"lon":139.661894},{"name":"祖師谷公園","province":"東京都","city":"世田谷区","address":"東京都世田谷区上祖師谷三、四丁目・祖師谷六丁目・成城九丁目","lat":35.656911,"lon":139.599357},{"name":"蘆花恒春園","province":"東京都","city":"世田谷区","address":"東京都世田谷区粕谷一丁目","lat":35.661969,"lon":139.61091},{"name":"(株)シンエイメタル","province":"東京都","city":"世田谷区","address":"世田谷区宇奈根1-6-1","lat":35.618629,"lon":139.603897},{"name":"(株)中田  世田谷事業所","province":"東京都","city":"世田谷区","address":"世田谷区大蔵1-2-6","lat":35.635223,"lon":139.621933},{"name":"アサミカレット","province":"東京都","city":"世田谷区","address":"世田谷区鎌田2-14-11","lat":35.618912,"lon":139.613174},{"name":"(株)井上  リサイクルセンター","province":"東京都","city":"世田谷区","address":"世田谷区船橋5-28-3","lat":35.657154,"lon":139.624771},{"name":"砧公園","province":"東京都","city":"世田谷区","address":"東京都世田谷区砧公園・大蔵一丁目","lat":35.630429,"lon":139.620212},{"name":"駒沢オリンピック公園","province":"東京都","city":"世田谷区","address":"東京都世田谷区駒沢公園、目黒区東が丘二丁目・八雲五丁目","lat":35.627198,"lon":139.661894},{"name":"祖師谷公園","province":"東京都","city":"世田谷区","address":"東京都世田谷区上祖師谷三、四丁目・祖師谷六丁目・成城九丁目","lat":35.656911,"lon":139.599357},{"name":"蘆花恒春園","province":"東京都","city":"世田谷区","address":"東京都世田谷区粕谷一丁目","lat":35.661969,"lon":139.61091},{"name":"(株)シンエイメタル","province":"東京都","city":"世田谷区","address":"世田谷区宇奈根1-6-1","lat":35.618629,"lon":139.603897},{"name":"(株)中田  世田谷事業所","province":"東京都","city":"世田谷区","address":"世田谷区大蔵1-2-6","lat":35.635223,"lon":139.621933},{"name":"アサミカレット","province":"東京都","city":"世田谷区","address":"世田谷区鎌田2-14-11","lat":35.618912,"lon":139.613174},{"name":"(株)井上  リサイクルセンター","province":"東京都","city":"世田谷区","address":"世田谷区船橋5-28-3","lat":35.657154,"lon":139.624771},{"name":"砧公園","province":"東京都","city":"世田谷区","address":"東京都世田谷区砧公園・大蔵一丁目","lat":35.630429,"lon":139.620212},{"name":"駒沢オリンピック公園","province":"東京都","city":"世田谷区","address":"東京都世田谷区駒沢公園、目黒区東が丘二丁目・八雲五丁目","lat":35.627198,"lon":139.661894},{"name":"祖師谷公園","province":"東京都","city":"世田谷区","address":"東京都世田谷区上祖師谷三、四丁目・祖師谷六丁目・成城九丁目","lat":35.656911,"lon":139.599357},{"name":"蘆花恒春園","province":"東京都","city":"世田谷区","address":"東京都世田谷区粕谷一丁目","lat":35.661969,"lon":139.61091},{"name":"(株)シンエイメタル","province":"東京都","city":"世田谷区","address":"世田谷区宇奈根1-6-1","lat":35.618629,"lon":139.603897},{"name":"(株)中田  世田谷事業所","province":"東京都","city":"世田谷区","address":"世田谷区大蔵1-2-6","lat":35.635223,"lon":139.621933},{"name":"アサミカレット","province":"東京都","city":"世田谷区","address":"世田谷区鎌田2-14-11","lat":35.618912,"lon":139.613174},{"name":"(株)井上  リサイクルセンター","province":"東京都","city":"世田谷区","address":"世田谷区船橋5-28-3","lat":35.657154,"lon":139.624771},{"name":"砧公園","province":"東京都","city":"世田谷区","address":"東京都世田谷区砧公園・大蔵一丁目","lat":35.630429,"lon":139.620212},{"name":"駒沢オリンピック公園","province":"東京都","city":"世田谷区","address":"東京都世田谷区駒沢公園、目黒区東が丘二丁目・八雲五丁目","lat":35.627198,"lon":139.661894},{"name":"祖師谷公園","province":"東京都","city":"世田谷区","address":"東京都世田谷区上祖師谷三、四丁目・祖師谷六丁目・成城九丁目","lat":35.656911,"lon":139.599357},{"name":"蘆花恒春園","province":"東京都","city":"世田谷区","address":"東京都世田谷区粕谷一丁目","lat":35.661969,"lon":139.61091},{"name":"(株)シンエイメタル","province":"東京都","city":"世田谷区","address":"世田谷区宇奈根1-6-1","lat":35.618629,"lon":139.603897},{"name":"(株)中田  世田谷事業所","province":"東京都","city":"世田谷区","address":"世田谷区大蔵1-2-6","lat":35.635223,"lon":139.621933},{"name":"アサミカレット","province":"東京都","city":"世田谷区","address":"世田谷区鎌田2-14-11","lat":35.618912,"lon":139.613174},{"name":"(株)井上  リサイクルセンター","province":"東京都","city":"世田谷区","address":"世田谷区船橋5-28-3","lat":35.657154,"lon":139.624771},{"name":"砧公園","province":"東京都","city":"世田谷区","address":"東京都世田谷区砧公園・大蔵一丁目","lat":35.630429,"lon":139.620212},{"name":"駒沢オリンピック公園","province":"東京都","city":"世田谷区","address":"東京都世田谷区駒沢公園、目黒区東が丘二丁目・八雲五丁目","lat":35.627198,"lon":139.661894},{"name":"祖師谷公園","province":"東京都","city":"世田谷区","address":"東京都世田谷区上祖師谷三、四丁目・祖師谷六丁目・成城九丁目","lat":35.656911,"lon":139.599357},{"name":"蘆花恒春園","province":"東京都","city":"世田谷区","address":"東京都世田谷区粕谷一丁目","lat":35.661969,"lon":139.61091},{"name":"(株)シンエイメタル","province":"東京都","city":"世田谷区","address":"世田谷区宇奈根1-6-1","lat":35.618629,"lon":139.603897},{"name":"(株)中田  世田谷事業所","province":"東京都","city":"世田谷区","address":"世田谷区大蔵1-2-6","lat":35.635223,"lon":139.621933},{"name":"アサミカレット","province":"東京都","city":"世田谷区","address":"世田谷区鎌田2-14-11","lat":35.618912,"lon":139.613174},{"name":"(株)井上  リサイクルセンター","province":"東京都","city":"世田谷区","address":"世田谷区船橋5-28-3","lat":35.657154,"lon":139.624771},{"name":"砧公園","province":"東京都","city":"世田谷区","address":"東京都世田谷区砧公園・大蔵一丁目","lat":35.630429,"lon":139.620212},{"name":"駒沢オリンピック公園","province":"東京都","city":"世田谷区","address":"東京都世田谷区駒沢公園、目黒区東が丘二丁目・八雲五丁目","lat":35.627198,"lon":139.661894},{"name":"祖師谷公園","province":"東京都","city":"世田谷区","address":"東京都世田谷区上祖師谷三、四丁目・祖師谷六丁目・成城九丁目","lat":35.656911,"lon":139.599357},{"name":"蘆花恒春園","province":"東京都","city":"世田谷区","address":"東京都世田谷区粕谷一丁目","lat":35.661969,"lon":139.61091},{"name":"(株)シンエイメタル","province":"東京都","city":"世田谷区","address":"世田谷区宇奈根1-6-1","lat":35.618629,"lon":139.603897},{"name":"(株)中田  世田谷事業所","province":"東京都","city":"世田谷区","address":"世田谷区大蔵1-2-6","lat":35.635223,"lon":139.621933},{"name":"アサミカレット","province":"東京都","city":"世田谷区","address":"世田谷区鎌田2-14-11","lat":35.618912,"lon":139.613174},{"name":"(株)井上  リサイクルセンター","province":"東京都","city":"世田谷区","address":"世田谷区船橋5-28-3","lat":35.657154,"lon":139.624771},{"name":"砧公園","province":"東京都","city":"世田谷区","address":"東京都世田谷区砧公園・大蔵一丁目","lat":35.630429,"lon":139.620212},{"name":"駒沢オリンピック公園","province":"東京都","city":"世田谷区","address":"東京都世田谷区駒沢公園、目黒区東が丘二丁目・八雲五丁目","lat":35.627198,"lon":139.661894},{"name":"祖師谷公園","province":"東京都","city":"世田谷区","address":"東京都世田谷区上祖師谷三、四丁目・祖師谷六丁目・成城九丁目","lat":35.656911,"lon":139.599357},{"name":"蘆花恒春園","province":"東京都","city":"世田谷区","address":"東京都世田谷区粕谷一丁目","lat":35.661969,"lon":139.61091},{"name":"(株)シンエイメタル","province":"東京都","city":"世田谷区","address":"世田谷区宇奈根1-6-1","lat":35.618629,"lon":139.603897},{"name":"(株)中田  世田谷事業所","province":"東京都","city":"世田谷区","address":"世田谷区大蔵1-2-6","lat":35.635223,"lon":139.621933},{"name":"アサミカレット","province":"東京都","city":"世田谷区","address":"世田谷区鎌田2-14-11","lat":35.618912,"lon":139.613174},{"name":"(株)井上  リサイクルセンター","province":"東京都","city":"世田谷区","address":"世田谷区船橋5-28-3","lat":35.657154,"lon":139.624771},{"name":"砧公園","province":"東京都","city":"世田谷区","address":"東京都世田谷区砧公園・大蔵一丁目","lat":35.630429,"lon":139.620212},{"name":"駒沢オリンピック公園","province":"東京都","city":"世田谷区","address":"東京都世田谷区駒沢公園、目黒区東が丘二丁目・八雲五丁目","lat":35.627198,"lon":139.661894},{"name":"祖師谷公園","province":"東京都","city":"世田谷区","address":"東京都世田谷区上祖師谷三、四丁目・祖師谷六丁目・成城九丁目","lat":35.656911,"lon":139.599357},{"name":"蘆花恒春園","province":"東京都","city":"世田谷区","address":"東京都世田谷区粕谷一丁目","lat":35.661969,"lon":139.61091},{"name":"(株)シンエイメタル","province":"東京都","city":"世田谷区","address":"世田谷区宇奈根1-6-1","lat":35.618629,"lon":139.603897},{"name":"(株)中田  世田谷事業所","province":"東京都","city":"世田谷区","address":"世田谷区大蔵1-2-6","lat":35.635223,"lon":139.621933},{"name":"アサミカレット","province":"東京都","city":"世田谷区","address":"世田谷区鎌田2-14-11","lat":35.618912,"lon":139.613174},{"name":"(株)井上  リサイクルセンター","province":"東京都","city":"世田谷区","address":"世田谷区船橋5-28-3","lat":35.657154,"lon":139.624771},{"name":"砧公園","province":"東京都","city":"世田谷区","address":"東京都世田谷区砧公園・大蔵一丁目","lat":35.630429,"lon":139.620212},{"name":"駒沢オリンピック公園","province":"東京都","city":"世田谷区","address":"東京都世田谷区駒沢公園、目黒区東が丘二丁目・八雲五丁目","lat":35.627198,"lon":139.661894},{"name":"祖師谷公園","province":"東京都","city":"世田谷区","address":"東京都世田谷区上祖師谷三、四丁目・祖師谷六丁目・成城九丁目","lat":35.656911,"lon":139.599357},{"name":"蘆花恒春園","province":"東京都","city":"世田谷区","address":"東京都世田谷区粕谷一丁目","lat":35.661969,"lon":139.61091},{"name":"(株)シンエイメタル","province":"東京都","city":"世田谷区","address":"世田谷区宇奈根1-6-1","lat":35.618629,"lon":139.603897},{"name":"(株)中田  世田谷事業所","province":"東京都","city":"世田谷区","address":"世田谷区大蔵1-2-6","lat":35.635223,"lon":139.621933},{"name":"アサミカレット","province":"東京都","city":"世田谷区","address":"世田谷区鎌田2-14-11","lat":35.618912,"lon":139.613174},{"name":"(株)井上  リサイクルセンター","province":"東京都","city":"世田谷区","address":"世田谷区船橋5-28-3","lat":35.657154,"lon":139.624771},{"name":"砧公園","province":"東京都","city":"世田谷区","address":"東京都世田谷区砧公園・大蔵一丁目","lat":35.630429,"lon":139.620212},{"name":"駒沢オリンピック公園","province":"東京都","city":"世田谷区","address":"東京都世田谷区駒沢公園、目黒区東が丘二丁目・八雲五丁目","lat":35.627198,"lon":139.661894},{"name":"祖師谷公園","province":"東京都","city":"世田谷区","address":"東京都世田谷区上祖師谷三、四丁目・祖師谷六丁目・成城九丁目","lat":35.656911,"lon":139.599357},{"name":"蘆花恒春園","province":"東京都","city":"世田谷区","address":"東京都世田谷区粕谷一丁目","lat":35.661969,"lon":139.61091},{"name":"(株)シンエイメタル","province":"東京都","city":"世田谷区","address":"世田谷区宇奈根1-6-1","lat":35.618629,"lon":139.603897},{"name":"(株)中田  世田谷事業所","province":"東京都","city":"世田谷区","address":"世田谷区大蔵1-2-6","lat":35.635223,"lon":139.621933},{"name":"アサミカレット","province":"東京都","city":"世田谷区","address":"世田谷区鎌田2-14-11","lat":35.618912,"lon":139.613174},{"name":"(株)井上  リサイクルセンター","province":"東京都","city":"世田谷区","address":"世田谷区船橋5-28-3","lat":35.657154,"lon":139.624771},{"name":"砧公園","province":"東京都","city":"世田谷区","address":"東京都世田谷区砧公園・大蔵一丁目","lat":35.630429,"lon":139.620212},{"name":"駒沢オリンピック公園","province":"東京都","city":"世田谷区","address":"東京都世田谷区駒沢公園、目黒区東が丘二丁目・八雲五丁目","lat":35.627198,"lon":139.661894},{"name":"祖師谷公園","province":"東京都","city":"世田谷区","address":"東京都世田谷区上祖師谷三、四丁目・祖師谷六丁目・成城九丁目","lat":35.656911,"lon":139.599357},{"name":"蘆花恒春園","province":"東京都","city":"世田谷区","address":"東京都世田谷区粕谷一丁目","lat":35.661969,"lon":139.61091},{"name":"(株)シンエイメタル","province":"東京都","city":"世田谷区","address":"世田谷区宇奈根1-6-1","lat":35.618629,"lon":139.603897},{"name":"(株)中田  世田谷事業所","province":"東京都","city":"世田谷区","address":"世田谷区大蔵1-2-6","lat":35.635223,"lon":139.621933},{"name":"アサミカレット","province":"東京都","city":"世田谷区","address":"世田谷区鎌田2-14-11","lat":35.618912,"lon":139.613174},{"name":"(株)井上  リサイクルセンター","province":"東京都","city":"世田谷区","address":"世田谷区船橋5-28-3","lat":35.657154,"lon":139.624771},{"name":"砧公園","province":"東京都","city":"世田谷区","address":"東京都世田谷区砧公園・大蔵一丁目","lat":35.630429,"lon":139.620212},{"name":"駒沢オリンピック公園","province":"東京都","city":"世田谷区","address":"東京都世田谷区駒沢公園、目黒区東が丘二丁目・八雲五丁目","lat":35.627198,"lon":139.661894},{"name":"祖師谷公園","province":"東京都","city":"世田谷区","address":"東京都世田谷区上祖師谷三、四丁目・祖師谷六丁目・成城九丁目","lat":35.656911,"lon":139.599357},{"name":"蘆花恒春園","province":"東京都","city":"世田谷区","address":"東京都世田谷区粕谷一丁目","lat":35.661969,"lon":139.61091},{"name":"(株)シンエイメタル","province":"東京都","city":"世田谷区","address":"世田谷区宇奈根1-6-1","lat":35.618629,"lon":139.603897},{"name":"(株)中田  世田谷事業所","province":"東京都","city":"世田谷区","address":"世田谷区大蔵1-2-6","lat":35.635223,"lon":139.621933},{"name":"アサミカレット","province":"東京都","city":"世田谷区","address":"世田谷区鎌田2-14-11","lat":35.618912,"lon":139.613174},{"name":"(株)井上  リサイクルセンター","province":"東京都","city":"世田谷区","address":"世田谷区船橋5-28-3","lat":35.657154,"lon":139.624771},{"name":"砧公園","province":"東京都","city":"世田谷区","address":"東京都世田谷区砧公園・大蔵一丁目","lat":35.630429,"lon":139.620212},{"name":"駒沢オリンピック公園","province":"東京都","city":"世田谷区","address":"東京都世田谷区駒沢公園、目黒区東が丘二丁目・八雲五丁目","lat":35.627198,"lon":139.661894},{"name":"祖師谷公園","province":"東京都","city":"世田谷区","address":"東京都世田谷区上祖師谷三、四丁目・祖師谷六丁目・成城九丁目","lat":35.656911,"lon":139.599357},{"name":"蘆花恒春園","province":"東京都","city":"世田谷区","address":"東京都世田谷区粕谷一丁目","lat":35.661969,"lon":139.61091},{"name":"(株)シンエイメタル","province":"東京都","city":"世田谷区","address":"世田谷区宇奈根1-6-1","lat":35.618629,"lon":139.603897},{"name":"(株)中田  世田谷事業所","province":"東京都","city":"世田谷区","address":"世田谷区大蔵1-2-6","lat":35.635223,"lon":139.621933},{"name":"アサミカレット","province":"東京都","city":"世田谷区","address":"世田谷区鎌田2-14-11","lat":35.618912,"lon":139.613174},{"name":"(株)井上  リサイクルセンター","province":"東京都","city":"世田谷区","address":"世田谷区船橋5-28-3","lat":35.657154,"lon":139.624771},{"name":"砧公園","province":"東京都","city":"世田谷区","address":"東京都世田谷区砧公園・大蔵一丁目","lat":35.630429,"lon":139.620212},{"name":"駒沢オリンピック公園","province":"東京都","city":"世田谷区","address":"東京都世田谷区駒沢公園、目黒区東が丘二丁目・八雲五丁目","lat":35.627198,"lon":139.661894},{"name":"祖師谷公園","province":"東京都","city":"世田谷区","address":"東京都世田谷区上祖師谷三、四丁目・祖師谷六丁目・成城九丁目","lat":35.656911,"lon":139.599357},{"name":"蘆花恒春園","province":"東京都","city":"世田谷区","address":"東京都世田谷区粕谷一丁目","lat":35.661969,"lon":139.61091},{"name":"(株)シンエイメタル","province":"東京都","city":"世田谷区","address":"世田谷区宇奈根1-6-1","lat":35.618629,"lon":139.603897},{"name":"(株)中田  世田谷事業所","province":"東京都","city":"世田谷区","address":"世田谷区大蔵1-2-6","lat":35.635223,"lon":139.621933},{"name":"アサミカレット","province":"東京都","city":"世田谷区","address":"世田谷区鎌田2-14-11","lat":35.618912,"lon":139.613174},{"name":"(株)井上  リサイクルセンター","province":"東京都","city":"世田谷区","address":"世田谷区船橋5-28-3","lat":35.657154,"lon":139.624771}]}