{"keyword":"スポーツ","data":[{"name":"陸上競技場","province":"東京都","city":"世田谷区","address":"世田谷区駒沢公園1-1","lat":35.625574,"lon":139.663655},{"name":"屋内球技場","province":"東京都","city":"世田谷区","address":"世田谷区駒沢公園1-1","lat":35.625574,"lon":139.663655},{"name":"体育館","province":"東京都","city":"世田谷区","address":"世田谷区駒沢公園1-1","lat":35.625574,"lon":139.663655},{"name":"第一球技場","province":"東京都","city":"世田谷区","address":"世田谷区駒沢公園1-1","lat":35.625574,"lon":139.663655},{"name":"第二球技場","province":"東京都","city":"世田谷区","address":"世田谷区駒沢公園1-1","lat":35.625574,"lon":139.663655},{"name":"テニスコート","province":"東京都","city":"世田谷区","address":"世田谷区駒沢公園1-1","lat":35.625574,"lon":139.663655},{"name":"補助競技場","province":"東京都","city":"世田谷区","address":"世田谷区駒沢公園1-1","lat":35.625574,"lon":139.663655},{"name":"軟式野球場","province":"東京都","city":"世田谷区","address":"世田谷区駒沢公園1-1","lat":35.625574,"lon":139.663655},{"name":"硬式野球場","province":"東京都","city":"世田谷区","address":"世田谷区駒沢公園1-1","lat":35.625574,"lon":139.663655},{"name":"弓道場","province":"東京都","city":"世田谷区","address":"世田谷区駒沢公園1-1","lat":35.625574,"lon":139.663655},{"name":"トレーニングルーム","province":"東京都","city":"世田谷区","address":"世田谷区駒沢公園1-1","lat":35.625574,"lon":139.663655}]}