{"keyword":"一覧","data":[{"name":"総合運動場温水プール","province":"東京都","city":"世田谷区","address":"東京都世田谷区大蔵4丁目6-1","lat":35.63043134,"lon":139.61231215},{"name":"総合運動場体育館","province":"東京都","city":"世田谷区","address":"東京都世田谷区大蔵4丁目6-1","lat":35.63043134,"lon":139.61231215},{"name":"総合運動場陸上競技場","province":"東京都","city":"世田谷区","address":"東京都世田谷区大蔵4丁目6-1","lat":35.63043134,"lon":139.61231215},{"name":"大蔵第二運動場","province":"東京都","city":"世田谷区","address":"東京都世田谷区大蔵4丁目7-1","lat":35.63181451,"lon":139.61467017},{"name":"岡本地区会館","province":"東京都","city":"世田谷区","address":"東京都世田谷区岡本1丁目25-4","lat":35.62505172,"lon":139.61945905},{"name":"尾山台地域体育館","province":"東京都","city":"世田谷区","address":"東京都世田谷区尾山台3丁目19-3","lat":35.60503766,"lon":139.65415078},{"name":"粕谷区民センター","province":"東京都","city":"世田谷区","address":"東京都世田谷区粕谷4丁目13-6","lat":35.66310744,"lon":139.60516398},{"name":"鎌田区民センター","province":"東京都","city":"世田谷区","address":"東京都世田谷区鎌田3丁目35-1","lat":35.6223354,"lon":139.61339878},{"name":"上北沢地区会館","province":"東京都","city":"世田谷区","address":"東京都世田谷区上北沢2丁目1-3","lat":35.66322465,"lon":139.62249041},{"name":"上北沢区民センター","province":"東京都","city":"世田谷区","address":"東京都世田谷区上北沢3丁目8-9","lat":35.66744371,"lon":139.6254845},{"name":"砧野球場・サッカー場","province":"東京都","city":"世田谷区","address":"東京都世田谷区喜多見1丁目12-2","lat":35.62092151,"lon":139.59606169},{"name":"桜丘区民センター別館","province":"東京都","city":"世田谷区","address":"東京都世田谷区桜丘2丁目22-1","lat":35.64587389,"lon":139.62372425},{"name":"桜丘区民センター","province":"東京都","city":"世田谷区","address":"東京都世田谷区桜丘5丁目14-1","lat":35.64479619,"lon":139.62218555},{"name":"下馬図書館","province":"東京都","city":"世田谷区","address":"東京都世田谷区下馬2丁目32-1","lat":35.64148967,"lon":139.67627275},{"name":"砧図書館","province":"東京都","city":"世田谷区","address":"東京都世田谷区祖師谷3丁目10-4","lat":35.64229329,"lon":139.60405376},{"name":"水道局世田谷営業所","province":"東京都","city":"世田谷区","address":"東京都世田谷区太子堂1丁目13-13","lat":35.64320884,"lon":139.67319518},{"name":"玉川台区民センター","province":"東京都","city":"世田谷区","address":"東京都世田谷区玉川台1丁目6-15","lat":35.62293547,"lon":139.6330188},{"name":"千歳台地区会館","province":"東京都","city":"世田谷区","address":"東京都世田谷区千歳台3丁目31-9","lat":35.65364762,"lon":139.61165547},{"name":"弦巻区民センター","province":"東京都","city":"世田谷区","address":"東京都世田谷区弦巻1丁目26-11","lat":35.63695907,"lon":139.65182773},{"name":"中央図書館","province":"東京都","city":"世田谷区","address":"東京都世田谷区弦巻3丁目16-8","lat":35.63774213,"lon":139.64433663},{"name":"教育会館","province":"東京都","city":"世田谷区","address":"東京都世田谷区弦巻3丁目16-8","lat":35.63774213,"lon":139.64433663},{"name":"希望丘地域体育館","province":"東京都","city":"世田谷区","address":"東京都世田谷区船橋6丁目25-1","lat":35.6589584,"lon":139.62072125},{"name":"千歳温水プール","province":"東京都","city":"世田谷区","address":"東京都世田谷区船橋7丁目9-1","lat":35.65916935,"lon":139.61641324},{"name":"世田谷文学館","province":"東京都","city":"世田谷区","address":"東京都世田谷区南烏山1丁目10-10","lat":35.6670821,"lon":139.60893022},{"name":"烏山図書館","province":"東京都","city":"世田谷区","address":"東京都世田谷区南烏山6丁目2-19","lat":35.66886497,"lon":139.60059192},{"name":"烏山総合支所","province":"東京都","city":"世田谷区","address":"東京都世田谷区南烏山6丁目22-14","lat":35.66980644,"lon":139.59797266},{"name":"宮坂区民センター","province":"東京都","city":"世田谷区","address":"東京都世田谷区宮坂1丁目24-6","lat":35.64785482,"lon":139.64479739},{"name":"経堂図書館","province":"東京都","city":"世田谷区","address":"東京都世田谷区宮坂3丁目1-30","lat":35.65153752,"lon":139.63784509},{"name":"砧公園","province":"東京都","city":"世田谷区","address":"東京都世田谷区砧公園1-1","lat":35.6291067,"lon":139.62140025}]}