{"keyword":"保育","data":[{"name":"池尻保育園","province":"東京都","city":"世田谷区","address":"世田谷区池尻2-3-11","lat":35.646634,"lon":139.682442},{"name":"池尻かもめ保育園","province":"東京都","city":"世田谷区","address":"世田谷区池尻2-5-8","lat":35.646536,"lon":139.680275},{"name":"わらべうた三宿保育園","province":"東京都","city":"世田谷区","address":"世田谷区池尻3-23-22階","lat":35.648508,"lon":139.679761},{"name":"下馬保育園","province":"東京都","city":"世田谷区","address":"世田谷区下馬5-32-11","lat":35.636913,"lon":139.682697},{"name":"下馬鳩ぽっぽ保育園","province":"東京都","city":"世田谷区","address":"世田谷区下馬3-14-9","lat":35.635957,"lon":139.675401},{"name":"おともだち保育園","province":"東京都","city":"世田谷区","address":"世田谷区下馬2-21-11","lat":35.640145,"lon":139.67582},{"name":"世田谷はっと保育園","province":"東京都","city":"世田谷区","address":"世田谷区下馬4-1-8","lat":35.633371,"lon":139.677792},{"name":"おともだち・ララ保育園","province":"東京都","city":"世田谷区","address":"世田谷区下馬2-25-12","lat":35.641551,"lon":139.678556},{"name":"駒沢保育園","province":"東京都","city":"世田谷区","address":"世田谷区野沢4-22-2","lat":35.633646,"lon":139.665324},{"name":"太子堂保育園","province":"東京都","city":"世田谷区","address":"世田谷区太子堂5-24-27","lat":35.648969,"lon":139.665882},{"name":"鳩ぽっぽ保育園","province":"東京都","city":"世田谷区","address":"世田谷区太子堂1-15-5","lat":35.641967,"lon":139.674328},{"name":"太子堂なごみ保育園","province":"東京都","city":"世田谷区","address":"世田谷区太子堂2-3-10","lat":35.647364,"lon":139.673476},{"name":"もみの木保育園太子堂","province":"東京都","city":"世田谷区","address":"世田谷区太子堂1-12-18","lat":35.643762,"lon":139.673231},{"name":"昭和ナースリー","province":"東京都","city":"世田谷区","address":"世田谷区太子堂1-13-21","lat":35.643587,"lon":139.673803},{"name":"三宿の杜なごみ保育園","province":"東京都","city":"世田谷区","address":"世田谷区太子堂3-27-24","lat":35.650475,"lon":139.668879},{"name":"三宿保育園","province":"東京都","city":"世田谷区","address":"世田谷区三宿2-37-3","lat":35.652783,"lon":139.672878},{"name":"遊愛保育園","province":"東京都","city":"世田谷区","address":"世田谷区三宿2-16-32","lat":35.651772,"lon":139.675684},{"name":"上馬保育園","province":"東京都","city":"世田谷区","address":"世田谷区上馬5-29-13","lat":35.640803,"lon":139.657788},{"name":"キッズスマイル世田谷上馬","province":"東京都","city":"世田谷区","address":"世田谷区上馬5-16-19","lat":35.639812,"lon":139.655244},{"name":"日生上馬保育園ひびき","province":"東京都","city":"世田谷区","address":"世田谷区上馬4-31-9サニーサイド上馬1階","lat":35.638309,"lon":139.660083},{"name":"オリービア保育園","province":"東京都","city":"世田谷区","address":"世田谷区上馬4-12-3","lat":35.63569,"lon":139.662374},{"name":"三茶こだま保育園","province":"東京都","city":"世田谷区","address":"世田谷区上馬5-39-2","lat":35.641809,"lon":139.65988},{"name":"新町保育園","province":"東京都","city":"世田谷区","address":"世田谷区駒沢4-3-1","lat":35.626821,"lon":139.653525},{"name":"駒沢こだま保育園","province":"東京都","city":"世田谷区","address":"世田谷区駒沢2-46-9","lat":35.636565,"lon":139.656763},{"name":"さくらしんまち保育園","province":"東京都","city":"世田谷区","address":"世田谷区桜新町2-29-3","lat":35.632115,"lon":139.639021},{"name":"ベネッセ桜新町保育園","province":"東京都","city":"世田谷区","address":"世田谷区桜新町2-12-4","lat":35.632882,"lon":139.643106},{"name":"わらべうた桜新町保育園","province":"東京都","city":"世田谷区","address":"世田谷区桜新町1-1-6","lat":35.627782,"lon":139.645612},{"name":"スマイルキッズ桜新町保育園","province":"東京都","city":"世田谷区","address":"世田谷区桜新町2-6-4","lat":35.632968,"lon":139.644251},{"name":"東弦巻保育園","province":"東京都","city":"世田谷区","address":"世田谷区弦巻2-29-17","lat":35.635668,"lon":139.651525},{"name":"弦巻保育園","province":"東京都","city":"世田谷区","address":"世田谷区弦巻3-15-5","lat":35.63687,"lon":139.644939},{"name":"西弦巻保育園","province":"東京都","city":"世田谷区","address":"世田谷区弦巻5-13-5","lat":35.638256,"lon":139.640354},{"name":"世田谷いちい保育園北ウイング","province":"東京都","city":"世田谷区","address":"世田谷区弦巻5-10-22","lat":35.637192,"lon":139.640595},{"name":"世田谷いちい保育園南ウイング","province":"東京都","city":"世田谷区","address":"世田谷区弦巻5-10-22","lat":35.637192,"lon":139.640595},{"name":"クラルテ保育園","province":"東京都","city":"世田谷区","address":"世田谷区世田谷1-19-9","lat":35.642228,"lon":139.649242},{"name":"グローバルキッズ世田谷四丁目園","province":"東京都","city":"世田谷区","address":"世田谷区世田谷四丁目1番3号","lat":35.64257,"lon":139.6546},{"name":"豪徳寺保育園","province":"東京都","city":"世田谷区","address":"世田谷区豪徳寺1-34-2","lat":35.655379,"lon":139.649236},{"name":"春明保育園","province":"東京都","city":"世田谷区","address":"世田谷区豪徳寺1-25-18","lat":35.653471,"lon":139.647658},{"name":"梅丘なごみ保育園","province":"東京都","city":"世田谷区","address":"世田谷区梅丘2-11-9","lat":35.64956,"lon":139.654008},{"name":"世田谷保育園","province":"東京都","city":"世田谷区","address":"世田谷区若林4-37-11","lat":35.647672,"lon":139.656716},{"name":"グローバルキッズ若林園","province":"東京都","city":"世田谷区","address":"世田谷区若林2-21-10","lat":35.649372,"lon":139.660707},{"name":"よつば保育園","province":"東京都","city":"世田谷区","address":"世田谷区若林1-33-6","lat":35.646511,"lon":139.663751},{"name":"三軒茶屋保育園","province":"東京都","city":"世田谷区","address":"世田谷区三軒茶屋1-23-4","lat":35.640617,"lon":139.669679},{"name":"三軒茶屋えほん保育園","province":"東京都","city":"世田谷区","address":"世田谷区三軒茶屋2-9-14","lat":35.642431,"lon":139.668201},{"name":"若竹保育園","province":"東京都","city":"世田谷区","address":"世田谷区北沢5-18-4","lat":35.669531,"lon":139.669689},{"name":"東北沢ききょう保育園","province":"東京都","city":"世田谷区","address":"世田谷区北沢1-20-11","lat":35.665131,"lon":139.673333},{"name":"スマイルキッズ下北沢保育園","province":"東京都","city":"世田谷区","address":"世田谷区北沢2-1-3","lat":35.659168,"lon":139.667937},{"name":"下北沢保育園","province":"東京都","city":"世田谷区","address":"世田谷区代沢5-34-15","lat":35.659662,"lon":139.665215},{"name":"代沢みこころ保育園","province":"東京都","city":"世田谷区","address":"世田谷区代沢2-27-1","lat":35.657613,"lon":139.668659},{"name":"代沢ききょう保育園","province":"東京都","city":"世田谷区","address":"世田谷区代沢2-11-11","lat":35.657077,"lon":139.671031},{"name":"代田保育園","province":"東京都","city":"世田谷区","address":"世田谷区代田3-27-20","lat":35.655043,"lon":139.658449},{"name":"大原保育園","province":"東京都","city":"世田谷区","address":"世田谷区大原1-23-13","lat":35.667561,"lon":139.661404},{"name":"羽根木のぞみ保育園","province":"東京都","city":"世田谷区","address":"世田谷区羽根木1-7-11","lat":35.66507,"lon":139.660429},{"name":"松原北保育園","province":"東京都","city":"世田谷区","address":"世田谷区松原1-11-4","lat":35.666556,"lon":139.653699},{"name":"梅丘保育園","province":"東京都","city":"世田谷区","address":"世田谷区松原6-6-9","lat":35.66002,"lon":139.653205},{"name":"松原保育園","province":"東京都","city":"世田谷区","address":"世田谷区松原5-33-16","lat":35.662934,"lon":139.650396},{"name":"赤堤保育園","province":"東京都","city":"世田谷区","address":"世田谷区赤堤4-1-10","lat":35.660314,"lon":139.641406},{"name":"河田保育園","province":"東京都","city":"世田谷区","address":"世田谷区赤堤1-3-23","lat":35.655004,"lon":139.645817},{"name":"赤堤ゆりの木保育園","province":"東京都","city":"世田谷区","address":"世田谷区赤堤1-20-17","lat":35.656059,"lon":139.641981},{"name":"マリア保育園","province":"東京都","city":"世田谷区","address":"世田谷区赤堤3-20-4","lat":35.658989,"lon":139.638956},{"name":"早苗保育園","province":"東京都","city":"世田谷区","address":"世田谷区桜上水3-18-12","lat":35.660286,"lon":139.631676},{"name":"みんなのおうち保育園","province":"東京都","city":"世田谷区","address":"世田谷区桜上水5-3-28","lat":35.664841,"lon":139.62789},{"name":"わらべうた経堂保育園","province":"東京都","city":"世田谷区","address":"世田谷区桜上水1-7-10クールセリシエ1階","lat":35.656987,"lon":139.631429},{"name":"にじのおうち保育園","province":"東京都","city":"世田谷区","address":"世田谷区桜上水2-11-1","lat":35.659164,"lon":139.627948},{"name":"わかくさ保育園","province":"東京都","city":"世田谷区","address":"世田谷区経堂1-25-11","lat":35.649207,"lon":139.635548},{"name":"経堂保育園","province":"東京都","city":"世田谷区","address":"世田谷区経堂4-13-10","lat":35.648235,"lon":139.628402},{"name":"ポピンズナーサリースクール経堂南","province":"東京都","city":"世田谷区","address":"世田谷区経堂1-41-3","lat":35.649071,"lon":139.631901},{"name":"ラフ・クルー経堂保育園","province":"東京都","city":"世田谷区","address":"世田谷区経堂1-6-17GrandirKyodo1階","lat":35.648788,"lon":139.637473},{"name":"桜保育園","province":"東京都","city":"世田谷区","address":"世田谷区桜2-18-3","lat":35.642916,"lon":139.635337},{"name":"桜すくすく保育園","province":"東京都","city":"世田谷区","address":"世田谷区桜3-19-13","lat":35.640533,"lon":139.634535},{"name":"南桜丘保育園","province":"東京都","city":"世田谷区","address":"世田谷区桜丘3-10-18","lat":35.642733,"lon":139.62798},{"name":"桜ヶ丘保育園","province":"東京都","city":"世田谷区","address":"世田谷区桜丘4-19-33","lat":35.642971,"lon":139.621805},{"name":"さくらのその保育園","province":"東京都","city":"世田谷区","address":"世田谷区桜丘2-1-8","lat":35.643183,"lon":139.628852},{"name":"桜の詩保育園","province":"東京都","city":"世田谷区","address":"世田谷区桜丘4-26-22","lat":35.638339,"lon":139.621514},{"name":"船橋東保育園","province":"東京都","city":"世田谷区","address":"世田谷区船橋5-14-19","lat":35.65479,"lon":139.627568},{"name":"希望丘保育園","province":"東京都","city":"世田谷区","address":"世田谷区船橋6-26-5-101","lat":35.657986,"lon":139.620874},{"name":"船橋西保育園","province":"東京都","city":"世田谷区","address":"世田谷区船橋7-20-16","lat":35.658492,"lon":139.615533},{"name":"すこやか園","province":"東京都","city":"世田谷区","address":"世田谷区船橋1-30-9","lat":35.648043,"lon":139.620908},{"name":"ひだまり保育園","province":"東京都","city":"世田谷区","address":"世田谷区船橋4-3-2","lat":35.655328,"lon":139.622518},{"name":"太陽の子　世田谷船橋保育園","province":"東京都","city":"世田谷区","address":"世田谷区船橋4-13-7","lat":35.656545,"lon":139.620819},{"name":"フラヌール保育園","province":"東京都","city":"世田谷区","address":"世田谷区船橋3-1-1","lat":35.649857,"lon":139.624905},{"name":"もみの木保育園　希望丘","province":"東京都","city":"世田谷区","address":"世田谷区船橋4-29-8","lat":35.655723,"lon":139.617913},{"name":"南八幡山保育園","province":"東京都","city":"世田谷区","address":"世田谷区八幡山3-9-20-101","lat":35.664741,"lon":139.617094},{"name":"松沢保育園","province":"東京都","city":"世田谷区","address":"世田谷区上北沢1-32-3","lat":35.663758,"lon":139.62416},{"name":"上北沢保育園","province":"東京都","city":"世田谷区","address":"世田谷区上北沢4-25-3","lat":35.669629,"lon":139.620027},{"name":"小さなおうち保育園","province":"東京都","city":"世田谷区","address":"世田谷区上北沢3-1-20","lat":35.66628,"lon":139.627326},{"name":"上北沢こぐま保育園","province":"東京都","city":"世田谷区","address":"世田谷区上北沢1-32-10","lat":35.664069,"lon":139.623582},{"name":"いずみの園保育園","province":"東京都","city":"世田谷区","address":"世田谷区上北沢4-19-2","lat":35.669605,"lon":139.622376},{"name":"烏山北保育園","province":"東京都","city":"世田谷区","address":"世田谷区北烏山3-13-35","lat":35.67742,"lon":139.601919},{"name":"西之谷保育園","province":"東京都","city":"世田谷区","address":"世田谷区北烏山6-12-21","lat":35.672584,"lon":139.597303},{"name":"せたがや小鳥の森保育園","province":"東京都","city":"世田谷区","address":"世田谷区北烏山8-9-13","lat":35.675689,"lon":139.589265},{"name":"北烏山なごみ保育園","province":"東京都","city":"世田谷区","address":"世田谷区北烏山3-11-6","lat":35.673912,"lon":139.602175},{"name":"烏山いちご保育園","province":"東京都","city":"世田谷区","address":"世田谷区北烏山8-1-5","lat":35.675145,"lon":139.591798},{"name":"烏山翼保育園","province":"東京都","city":"世田谷区","address":"世田谷区北烏山一丁目28番3号","lat":35.674695,"lon":139.607702},{"name":"芦花保育園","province":"東京都","city":"世田谷区","address":"世田谷区南烏山2-30-17-101","lat":35.669404,"lon":139.606286},{"name":"烏山杉の子保育園","province":"東京都","city":"世田谷区","address":"世田谷区南烏山2-2-3","lat":35.665057,"lon":139.6062},{"name":"烏山保育園","province":"東京都","city":"世田谷区","address":"世田谷区南烏山6-22-14","lat":35.669776,"lon":139.598031},{"name":"第二いちご保育園","province":"東京都","city":"世田谷区","address":"世田谷区南烏山2-33-3","lat":35.669037,"lon":139.608552},{"name":"京王キッズプラッツ烏山","province":"東京都","city":"世田谷区","address":"世田谷区南烏山5-17-5子育てステーション烏山2階","lat":35.666924,"lon":139.601297},{"name":"八幡山保育園","province":"東京都","city":"世田谷区","address":"世田谷区粕谷2-22-3(芦花中学校敷地内)","lat":35.665621,"lon":139.611674},{"name":"芦花ゆりかご保育園","province":"東京都","city":"世田谷区","address":"世田谷区粕谷3-19-1","lat":35.660291,"lon":139.607983},{"name":"芦花の丘かたるぱ保育園","province":"東京都","city":"世田谷区","address":"世田谷区粕谷1-20-1","lat":35.662263,"lon":139.611208},{"name":"ピノキオ幼児舎　芦花保育園","province":"東京都","city":"世田谷区","address":"世田谷区粕谷2-3-11","lat":35.663319,"lon":139.611133},{"name":"給田保育園","province":"東京都","city":"世田谷区","address":"世田谷区給田2-13-6","lat":35.66501,"lon":139.59334},{"name":"上祖師谷保育園","province":"東京都","city":"世田谷区","address":"世田谷区上祖師谷1-16-17","lat":35.663302,"lon":139.601309},{"name":"上祖師谷南保育園","province":"東京都","city":"世田谷区","address":"世田谷区上祖師谷4-6-7","lat":35.653883,"lon":139.596765},{"name":"祖師谷保育園","province":"東京都","city":"世田谷区","address":"世田谷区上祖師谷3-20-17","lat":35.656783,"lon":139.60074},{"name":"茶々そしがやこうえん保育園","province":"東京都","city":"世田谷区","address":"世田谷区上祖師谷3-10-3","lat":35.653861,"lon":139.600131},{"name":"喜多見保育園","province":"東京都","city":"世田谷区","address":"世田谷区成城3-18-20","lat":35.634336,"lon":139.59718},{"name":"成城つくしんぼ保育園","province":"東京都","city":"世田谷区","address":"世田谷区成城8-27-17","lat":35.648675,"lon":139.593963},{"name":"はあと保育園成城","province":"東京都","city":"世田谷区","address":"世田谷区成城3-2-9","lat":35.634619,"lon":139.599741},{"name":"小梅保育園","province":"東京都","city":"世田谷区","address":"世田谷区喜多見2-10-41-101","lat":35.624113,"lon":139.594931},{"name":"喜多見バオバブ保育園","province":"東京都","city":"世田谷区","address":"世田谷区喜多見1-4-7","lat":35.622766,"lon":139.598111},{"name":"喜多見野の花保育園","province":"東京都","city":"世田谷区","address":"世田谷区喜多見3-21-22","lat":35.627212,"lon":139.599741},{"name":"宇奈根なごやか園","province":"東京都","city":"世田谷区","address":"世田谷区宇奈根2-7-16","lat":35.621116,"lon":139.600972},{"name":"千歳保育園","province":"東京都","city":"世田谷区","address":"世田谷区千歳台6-16-12","lat":35.657819,"lon":139.607017},{"name":"千歳なないろ保育園","province":"東京都","city":"世田谷区","address":"世田谷区千歳台3-17-5","lat":35.652015,"lon":139.61518},{"name":"太陽の子めぐりさわ保育園","province":"東京都","city":"世田谷区","address":"世田谷区千歳台4-14-1","lat":35.656539,"lon":139.612744},{"name":"にじいろ保育園千歳台","province":"東京都","city":"世田谷区","address":"世田谷区千歳台5-21-17","lat":35.65805,"lon":139.611197},{"name":"キッズスマイル世田谷千歳台","province":"東京都","city":"世田谷区","address":"世田谷区千歳台3-11-13","lat":35.651928,"lon":139.613486},{"name":"砧保育園","province":"東京都","city":"世田谷区","address":"世田谷区祖師谷4-3-17","lat":35.647215,"lon":139.60775},{"name":"世田谷つくしんぼ保育園","province":"東京都","city":"世田谷区","address":"世田谷区祖師谷6-33-5","lat":35.657408,"lon":139.603312},{"name":"祖師谷わかば保育園","province":"東京都","city":"世田谷区","address":"世田谷区祖師谷2-5-38","lat":35.648251,"lon":139.61242},{"name":"ぽこころ保育園祖師谷","province":"東京都","city":"世田谷区","address":"世田谷区祖師谷4-4-16","lat":35.647923,"lon":139.606706},{"name":"チャイルドスクエアそしがや","province":"東京都","city":"世田谷区","address":"世田谷区祖師谷3-36-2","lat":35.645076,"lon":139.608378},{"name":"大蔵保育園","province":"東京都","city":"世田谷区","address":"世田谷区砧4-5-12","lat":35.64086,"lon":139.612281},{"name":"ココファン・ナーサリー砧","province":"東京都","city":"世田谷区","address":"世田谷区砧5-20-14","lat":35.639738,"lon":139.609812},{"name":"生活クラブ保育園ぽむ・砧","province":"東京都","city":"世田谷区","address":"世田谷区砧4-38-4グランドテラス1階","lat":35.643921,"lon":139.614703},{"name":"太陽の子世田谷きぬた保育園","province":"東京都","city":"世田谷区","address":"世田谷区砧4-26-8","lat":35.64233,"lon":139.61532},{"name":"南大蔵保育園","province":"東京都","city":"世田谷区","address":"世田谷区大蔵1-7-11","lat":35.633742,"lon":139.619022},{"name":"大蔵ふたば保育園","province":"東京都","city":"世田谷区","address":"世田谷区大蔵3-2-39","lat":35.632931,"lon":139.609509},{"name":"成育しせい保育園","province":"東京都","city":"世田谷区","address":"世田谷区大蔵2-10-18","lat":35.634633,"lon":139.612803},{"name":"ちきゅうのこどもほいくえん成城","province":"東京都","city":"世田谷区","address":"世田谷区大蔵五丁目7番29号","lat":35.630245,"lon":139.608843},{"name":"青い空保育園","province":"東京都","city":"世田谷区","address":"世田谷区岡本2-5-11","lat":35.620266,"lon":139.620584},{"name":"岡本こもれび保育園","province":"東京都","city":"世田谷区","address":"世田谷区岡本3-20-10","lat":35.627449,"lon":139.614959},{"name":"世田谷おとぎの森保育園","province":"東京都","city":"世田谷区","address":"世田谷区岡本2-22-11","lat":35.622227,"lon":139.61859},{"name":"鎌田のびやか園","province":"東京都","city":"世田谷区","address":"世田谷区鎌田4-12-17","lat":35.623321,"lon":139.61026},{"name":"深沢保育園","province":"東京都","city":"世田谷区","address":"世田谷区深沢5-16-17","lat":35.620447,"lon":139.650587},{"name":"めぐみ保育園","province":"東京都","city":"世田谷区","address":"世田谷区深沢3-13-8","lat":35.616114,"lon":139.657775},{"name":"いずみ保育園","province":"東京都","city":"世田谷区","address":"世田谷区深沢1-14-23","lat":35.617561,"lon":139.66083},{"name":"駒沢どろんこ保育園","province":"東京都","city":"世田谷区","address":"世田谷区深沢2-19-14","lat":35.623047,"lon":139.660041},{"name":"ふかさわミル保育園","province":"東京都","city":"世田谷区","address":"世田谷区深沢1-32-24","lat":35.619795,"lon":139.665749},{"name":"せたがやこころ保育園","province":"東京都","city":"世田谷区","address":"世田谷区深沢4-25-22","lat":35.620653,"lon":139.657361},{"name":"ニチイキッズ深沢坂上保育園","province":"東京都","city":"世田谷区","address":"世田谷区深沢5-23-15","lat":35.618603,"lon":139.651806},{"name":"ナオミ保育園","province":"東京都","city":"世田谷区","address":"世田谷区等々力4-13-10","lat":35.609168,"lon":139.65314},{"name":"等々力保育園","province":"東京都","city":"世田谷区","address":"世田谷区等々力5-22-22","lat":35.608968,"lon":139.658306},{"name":"ココファン・ナーサリー等々力","province":"東京都","city":"世田谷区","address":"世田谷区等々力4-2-12","lat":35.607693,"lon":139.651818},{"name":"茶々とどろき保育園","province":"東京都","city":"世田谷区","address":"世田谷区等々力7-7-9","lat":35.611617,"lon":139.652709},{"name":"わらべうた等々力保育園","province":"東京都","city":"世田谷区","address":"世田谷区等々力3-27-15パークハイム等々力三丁目壱番館","lat":35.610115,"lon":139.650556},{"name":"コンビプラザ等々力保育園","province":"東京都","city":"世田谷区","address":"世田谷区等々力2-32-16ヴァレーサイドトドロキ2階","lat":35.608046,"lon":139.647971},{"name":"南奥沢保育園","province":"東京都","city":"世田谷区","address":"世田谷区奥沢1-2-13","lat":35.599459,"lon":139.680088},{"name":"奥沢保育園","province":"東京都","city":"世田谷区","address":"世田谷区奥沢2-3-11","lat":35.605261,"lon":139.675668},{"name":"奥沢西保育園","province":"東京都","city":"世田谷区","address":"世田谷区奥沢8-4-14","lat":35.60298,"lon":139.657981},{"name":"グリーンヒル奥沢保育園","province":"東京都","city":"世田谷区","address":"世田谷区奥沢1-48-13","lat":35.603769,"lon":139.678227},{"name":"ぴっころ保育園","province":"東京都","city":"世田谷区","address":"世田谷区東玉川1-21-13","lat":35.596117,"lon":139.677985},{"name":"グリーンホーム東玉川保育園","province":"東京都","city":"世田谷区","address":"世田谷区東玉川1-21-13","lat":35.596117,"lon":139.677985},{"name":"キッド・ステイ世田谷南保育園","province":"東京都","city":"世田谷区","address":"世田谷区玉川田園調布2-4-14","lat":35.600328,"lon":139.668128},{"name":"尾山台保育園","province":"東京都","city":"世田谷区","address":"世田谷区尾山台1-1-6","lat":35.596842,"lon":139.655037},{"name":"尾山台みどり保育園","province":"東京都","city":"世田谷区","address":"世田谷区尾山台3-29-2","lat":35.606113,"lon":139.656937},{"name":"世田谷仁慈保幼園","province":"東京都","city":"世田谷区","address":"世田谷区玉堤2-13-11","lat":35.600091,"lon":139.646402},{"name":"中町保育園","province":"東京都","city":"世田谷区","address":"世田谷区中町3-27-2","lat":35.615464,"lon":139.642579},{"name":"ポピンズナーサリースクール世田谷中町","province":"東京都","city":"世田谷区","address":"世田谷区中町5-9-9コミュニティプラザ1・2階","lat":35.62143,"lon":139.644101},{"name":"グリーンフィールド上野毛保育園","province":"東京都","city":"世田谷区","address":"世田谷区上野毛1-9-7","lat":35.610343,"lon":139.639391},{"name":"玉川保育園","province":"東京都","city":"世田谷区","address":"世田谷区玉川4-16-6","lat":35.617722,"lon":139.624092},{"name":"たまがわみんなの家","province":"東京都","city":"世田谷区","address":"世田谷区玉川3-39-22","lat":35.617817,"lon":139.620518},{"name":"わかな保育園","province":"東京都","city":"世田谷区","address":"世田谷区瀬田1-7-7","lat":35.614881,"lon":139.631125},{"name":"身延山保育園","province":"東京都","city":"世田谷区","address":"世田谷区瀬田4-12-4","lat":35.619219,"lon":139.626006},{"name":"さくらの木保育園","province":"東京都","city":"世田谷区","address":"世田谷区玉川台2-18-18","lat":35.624891,"lon":139.630525},{"name":"用賀保育園","province":"東京都","city":"世田谷区","address":"世田谷区用賀2-29-22","lat":35.625566,"lon":139.63636},{"name":"用賀なのはな保育園","province":"東京都","city":"世田谷区","address":"世田谷区用賀1-2-2","lat":35.62333,"lon":139.642721},{"name":"用賀みこころ保育園","province":"東京都","city":"世田谷区","address":"世田谷区用賀3-6-3グレイプス用賀1階","lat":35.630035,"lon":139.637035},{"name":"用賀ルンビニ保育園","province":"東京都","city":"世田谷区","address":"世田谷区用賀4-14-22","lat":35.628696,"lon":139.634882},{"name":"上用賀保育園","province":"東京都","city":"世田谷区","address":"世田谷区上用賀4-2-10","lat":35.634898,"lon":139.63043},{"name":"ふじみ保育園","province":"東京都","city":"世田谷区","address":"世田谷区上用賀5-19-6","lat":35.631759,"lon":139.627849},{"name":"馬事公苑ひかり保育園","province":"東京都","city":"世田谷区","address":"世田谷区上用賀4-16-14","lat":35.636064,"lon":139.63083},{"name":"上用賀青い空保育園","province":"東京都","city":"世田谷区","address":"世田谷区上用賀6-8-17","lat":35.634906,"lon":139.62498}]}