{"keyword":"初動","data":[{"name":"世田谷保健所","province":"東京都","city":"世田谷区","address":"東京都世田谷区世田谷4丁目22-35","lat":35.64614685,"lon":139.651658},{"name":"陸上自衛隊三宿駐屯地","province":"東京都","city":"世田谷区","address":"世田谷区池尻1-2-24","lat":35.643947,"lon":139.683755},{"name":"陸上自衛隊用賀駐屯地","province":"東京都","city":"世田谷区","address":"世田谷区上用賀1-20-1","lat":35.633422,"lon":139.637491},{"name":"北沢警察署","province":"東京都","city":"世田谷区","address":"世田谷区松原6-4-14","lat":35.65783,"lon":139.6526},{"name":"成城警察署","province":"東京都","city":"世田谷区","address":"世田谷区千歳台3-19-1","lat":35.652113,"lon":139.615867},{"name":"世田谷警察署","province":"東京都","city":"世田谷区","address":"世田谷区三軒茶屋2-4-4","lat":35.64042,"lon":139.666996},{"name":"玉川警察署","province":"東京都","city":"世田谷区","address":"世田谷区中町2-9-22","lat":35.61345,"lon":139.6475},{"name":"第三消防方面本部","province":"東京都","city":"世田谷区","address":"世田谷区三軒茶屋2-33-21","lat":35.64087,"lon":139.6663},{"name":"成城消防署","province":"東京都","city":"世田谷区","address":"世田谷区成城1-21-14","lat":35.6356,"lon":139.6011},{"name":"世田谷消防署","province":"東京都","city":"世田谷区","address":"世田谷区三軒茶屋2-33-21","lat":35.64087,"lon":139.6663},{"name":"玉川消防署","province":"東京都","city":"世田谷区","address":"世田谷区中町3-1-19","lat":35.61481,"lon":139.6486},{"name":"世田谷区","province":"東京都","city":"世田谷区","address":"世田谷区池尻3-13-1","lat":35.65041,"lon":139.6783},{"name":"（株）スズケン世田谷事業所","province":"東京都","city":"世田谷区","address":"世田谷区代沢3-15-1","lat":35.65521,"lon":139.6741},{"name":"（株）世田谷酸素商事","province":"東京都","city":"世田谷区","address":"世田谷区大蔵5-28-5","lat":35.62916,"lon":139.6047}]}