{"keyword":"区","data":[{"name":"世田谷保健所","province":"東京都","city":"世田谷区","address":"世田谷区世田谷4-22-35","lat":35.646141,"lon":139.651636},{"name":"世田谷総合支所（健康づくり課）","province":"東京都","city":"世田谷区","address":"世田谷区世田谷4-22-33","lat":35.646513,"lon":139.652191},{"name":"北沢総合支所（健康づくり課）","province":"東京都","city":"世田谷区","address":"世田谷区松原6-3-5北沢保健福祉センター内","lat":35.657007,"lon":139.653794},{"name":"玉川総合支所（健康づくり課）","province":"東京都","city":"世田谷区","address":"世田谷区等々力4-19-18","lat":35.610679,"lon":139.652448},{"name":"砧総合支所（健康づくり課）","province":"東京都","city":"世田谷区","address":"世田谷区成城6-2-1","lat":35.641293,"lon":139.600582},{"name":"烏山総合支所（健康づくり課）","province":"東京都","city":"世田谷区","address":"世田谷区南烏山6-22-14","lat":35.669776,"lon":139.598031},{"name":"世田谷保健所","province":"東京都","city":"世田谷区","address":"東京都世田谷区世田谷4丁目24-1","lat":35.64811049,"lon":139.65111076},{"name":"世田谷総合支所保健福祉センター（健康づくり課）","province":"東京都","city":"世田谷区","address":"東京都世田谷区世田谷4丁目22-33","lat":35.64651071,"lon":139.65221628},{"name":"北沢総合支所保健福祉センター（健康づくり課）","province":"東京都","city":"世田谷区","address":"東京都世田谷区北沢2丁目8-18","lat":35.66216214,"lon":139.66978374},{"name":"玉川総合支所保健福祉センター（健康づくり課）","province":"東京都","city":"世田谷区","address":"東京都世田谷区等々力3丁目4-1","lat":35.60856773,"lon":139.64839004},{"name":"砧総合支所保健福祉センター（健康づくり課）","province":"東京都","city":"世田谷区","address":"東京都世田谷区成城6丁目2-1","lat":35.64126555,"lon":139.60059297},{"name":"烏山総合支所保健福祉センター（健康づくり課）","province":"東京都","city":"世田谷区","address":"東京都世田谷区南烏山6丁目22-14","lat":35.66980644,"lon":139.59797266},{"name":"世田谷保健所","province":"東京都","city":"世田谷区","address":"世田谷区世田谷4-24-1","lat":35.64844,"lon":139.65125},{"name":"世田谷総合支所保健福祉センター（健康づくり課）","province":"東京都","city":"世田谷区","address":"世田谷区世田谷4-22-33","lat":35.64657,"lon":139.65193},{"name":"北沢総合支所保健福祉センター（健康づくり課）","province":"東京都","city":"世田谷区","address":"世田谷区北沢2-8-18","lat":35.66237,"lon":139.66968},{"name":"玉川総合支所保健福祉センター（健康づくり課）","province":"東京都","city":"世田谷区","address":"世田谷区等々力3-4-1","lat":35.60863,"lon":139.64839},{"name":"砧総合支所保健福祉センター（健康づくり課）","province":"東京都","city":"世田谷区","address":"世田谷区成城6-2-1","lat":35.64123,"lon":139.60078},{"name":"烏山総合支所保健福祉センター（健康づくり課）","province":"東京都","city":"世田谷区","address":"世田谷区南烏山6-22-14","lat":35.66956,"lon":139.59814},{"name":"世田谷総合支所保健福祉センター（健康づくり課）","province":"東京都","city":"世田谷区","address":"世田谷区世田谷4-22-33","lat":35.646513,"lon":139.652191},{"name":"北沢総合支所保健福祉センター（健康づくり課）","province":"東京都","city":"世田谷区","address":"世田谷区北沢2-8-18","lat":35.662132,"lon":139.669952},{"name":"玉川総合支所保健福祉センター（健康づくり課）","province":"東京都","city":"世田谷区","address":"世田谷区等々力4-19-18","lat":35.610679,"lon":139.652448},{"name":"砧総合支所保健福祉センター（健康づくり課）","province":"東京都","city":"世田谷区","address":"世田谷区成城6-2-1","lat":35.641293,"lon":139.600582},{"name":"烏山総合支所保健福祉センター（健康づくり課）","province":"東京都","city":"世田谷区","address":"世田谷区南烏山6-22-14","lat":35.669776,"lon":139.598031},{"name":"世田谷保健所","province":"東京都","city":"世田谷区","address":"世田谷区世田谷4-22-35","lat":35.64657,"lon":139.65193},{"name":"烏山総合支所保健福祉センター（健康づくり課）","province":"東京都","city":"世田谷区","address":"世田谷区南烏山6-22-14","lat":35.66956,"lon":139.59815},{"name":"玉川総合支所保健福祉センター（健康づくり課）","province":"東京都","city":"世田谷区","address":"世田谷区等々力4-19-18","lat":35.61036,"lon":139.65262}]}