{"keyword":"大戸","data":[{"name":"野毛青少年交流センター","province":"東京都","city":"世田谷区","address":"東京都世田谷区野毛2丁目15-19","lat":35.60345736,"lon":139.64166611},{"name":"ｓ青少年交流センター池之上青少年会館","province":"東京都","city":"世田谷区","address":"東京都世田谷区代沢2丁目37-18","lat":35.65937366,"lon":139.67336408},{"name":"希望丘青少年交流センターアップス","province":"東京都","city":"世田谷区","address":"東京都世田谷区船橋6丁目25-1","lat":35.6589584,"lon":139.62072125},{"name":"野毛青少年交流センター","province":"東京都","city":"世田谷区","address":"東京都世田谷区野毛2丁目15-19","lat":35.60345736,"lon":139.64166611},{"name":"ｓ青少年交流センター池之上青少年会館","province":"東京都","city":"世田谷区","address":"東京都世田谷区代沢2丁目37-18","lat":35.65937366,"lon":139.67336408},{"name":"希望丘青少年交流センターアップス","province":"東京都","city":"世田谷区","address":"東京都世田谷区船橋6丁目25-1","lat":35.6589584,"lon":139.62072125},{"name":"野毛青少年交流センター","province":"東京都","city":"世田谷区","address":"東京都世田谷区野毛2丁目15-19","lat":35.60345736,"lon":139.64166611},{"name":"ｓ青少年交流センター池之上青少年会館","province":"東京都","city":"世田谷区","address":"東京都世田谷区代沢2丁目37-18","lat":35.65937366,"lon":139.67336408},{"name":"希望丘青少年交流センターアップス","province":"東京都","city":"世田谷区","address":"東京都世田谷区船橋6丁目25-1","lat":35.6589584,"lon":139.62072125},{"name":"野毛青少年交流センター","province":"東京都","city":"世田谷区","address":"東京都世田谷区野毛2丁目15-19","lat":35.60345736,"lon":139.64166611},{"name":"ｓ青少年交流センター池之上青少年会館","province":"東京都","city":"世田谷区","address":"東京都世田谷区代沢2丁目37-18","lat":35.65937366,"lon":139.67336408},{"name":"希望丘青少年交流センターアップス","province":"東京都","city":"世田谷区","address":"東京都世田谷区船橋6丁目25-1","lat":35.6589584,"lon":139.62072125},{"name":"野毛青少年交流センター","province":"東京都","city":"世田谷区","address":"東京都世田谷区野毛2丁目15-19","lat":35.60345736,"lon":139.64166611},{"name":"ｓ青少年交流センター池之上青少年会館","province":"東京都","city":"世田谷区","address":"東京都世田谷区代沢2丁目37-18","lat":35.65937366,"lon":139.67336408},{"name":"希望丘青少年交流センターアップス","province":"東京都","city":"世田谷区","address":"東京都世田谷区船橋6丁目25-1","lat":35.6589584,"lon":139.62072125},{"name":"野毛青少年交流センター","province":"東京都","city":"世田谷区","address":"東京都世田谷区野毛2丁目15-19","lat":35.60345736,"lon":139.64166611},{"name":"ｓ青少年交流センター池之上青少年会館","province":"東京都","city":"世田谷区","address":"東京都世田谷区代沢2丁目37-18","lat":35.65937366,"lon":139.67336408},{"name":"希望丘青少年交流センターアップス","province":"東京都","city":"世田谷区","address":"東京都世田谷区船橋6丁目25-1","lat":35.6589584,"lon":139.62072125},{"name":"野毛青少年交流センター","province":"東京都","city":"世田谷区","address":"東京都世田谷区野毛2丁目15-19","lat":35.60345736,"lon":139.64166611},{"name":"ｓ青少年交流センター池之上青少年会館","province":"東京都","city":"世田谷区","address":"東京都世田谷区代沢2丁目37-18","lat":35.65937366,"lon":139.67336408},{"name":"希望丘青少年交流センターアップス","province":"東京都","city":"世田谷区","address":"東京都世田谷区船橋6丁目25-1","lat":35.6589584,"lon":139.62072125},{"name":"野毛青少年交流センター","province":"東京都","city":"世田谷区","address":"東京都世田谷区野毛2丁目15-19","lat":35.60345736,"lon":139.64166611},{"name":"ｓ青少年交流センター池之上青少年会館","province":"東京都","city":"世田谷区","address":"東京都世田谷区代沢2丁目37-18","lat":35.65937366,"lon":139.67336408},{"name":"希望丘青少年交流センターアップス","province":"東京都","city":"世田谷区","address":"東京都世田谷区船橋6丁目25-1","lat":35.6589584,"lon":139.62072125},{"name":"野毛青少年交流センター","province":"東京都","city":"世田谷区","address":"東京都世田谷区野毛2丁目15-19","lat":35.60345736,"lon":139.64166611},{"name":"ｓ青少年交流センター池之上青少年会館","province":"東京都","city":"世田谷区","address":"東京都世田谷区代沢2丁目37-18","lat":35.65937366,"lon":139.67336408},{"name":"希望丘青少年交流センターアップス","province":"東京都","city":"世田谷区","address":"東京都世田谷区船橋6丁目25-1","lat":35.6589584,"lon":139.62072125},{"name":"野毛青少年交流センター","province":"東京都","city":"世田谷区","address":"東京都世田谷区野毛2丁目15-19","lat":35.60345736,"lon":139.64166611},{"name":"ｓ青少年交流センター池之上青少年会館","province":"東京都","city":"世田谷区","address":"東京都世田谷区代沢2丁目37-18","lat":35.65937366,"lon":139.67336408},{"name":"希望丘青少年交流センターアップス","province":"東京都","city":"世田谷区","address":"東京都世田谷区船橋6丁目25-1","lat":35.6589584,"lon":139.62072125},{"name":"野毛青少年交流センター","province":"東京都","city":"世田谷区","address":"東京都世田谷区野毛2丁目15-19","lat":35.60345736,"lon":139.64166611},{"name":"ｓ青少年交流センター池之上青少年会館","province":"東京都","city":"世田谷区","address":"東京都世田谷区代沢2丁目37-18","lat":35.65937366,"lon":139.67336408},{"name":"希望丘青少年交流センターアップス","province":"東京都","city":"世田谷区","address":"東京都世田谷区船橋6丁目25-1","lat":35.6589584,"lon":139.62072125},{"name":"野毛青少年交流センター","province":"東京都","city":"世田谷区","address":"東京都世田谷区野毛2丁目15-19","lat":35.60345736,"lon":139.64166611},{"name":"ｓ青少年交流センター池之上青少年会館","province":"東京都","city":"世田谷区","address":"東京都世田谷区代沢2丁目37-18","lat":35.65937366,"lon":139.67336408},{"name":"希望丘青少年交流センターアップス","province":"東京都","city":"世田谷区","address":"東京都世田谷区船橋6丁目25-1","lat":35.6589584,"lon":139.62072125},{"name":"野毛青少年交流センター","province":"東京都","city":"世田谷区","address":"東京都世田谷区野毛2丁目15-19","lat":35.60345736,"lon":139.64166611},{"name":"ｓ青少年交流センター池之上青少年会館","province":"東京都","city":"世田谷区","address":"東京都世田谷区代沢2丁目37-18","lat":35.65937366,"lon":139.67336408},{"name":"希望丘青少年交流センターアップス","province":"東京都","city":"世田谷区","address":"東京都世田谷区船橋6丁目25-1","lat":35.6589584,"lon":139.62072125},{"name":"野毛青少年交流センター","province":"東京都","city":"世田谷区","address":"東京都世田谷区野毛2丁目15-19","lat":35.60345736,"lon":139.64166611},{"name":"ｓ青少年交流センター池之上青少年会館","province":"東京都","city":"世田谷区","address":"東京都世田谷区代沢2丁目37-18","lat":35.65937366,"lon":139.67336408},{"name":"希望丘青少年交流センターアップス","province":"東京都","city":"世田谷区","address":"東京都世田谷区船橋6丁目25-1","lat":35.6589584,"lon":139.62072125},{"name":"野毛青少年交流センター","province":"東京都","city":"世田谷区","address":"東京都世田谷区野毛2丁目15-19","lat":35.60345736,"lon":139.64166611},{"name":"ｓ青少年交流センター池之上青少年会館","province":"東京都","city":"世田谷区","address":"東京都世田谷区代沢2丁目37-18","lat":35.65937366,"lon":139.67336408},{"name":"希望丘青少年交流センターアップス","province":"東京都","city":"世田谷区","address":"東京都世田谷区船橋6丁目25-1","lat":35.6589584,"lon":139.62072125},{"name":"野毛青少年交流センター","province":"東京都","city":"世田谷区","address":"東京都世田谷区野毛2丁目15-19","lat":35.60345736,"lon":139.64166611},{"name":"ｓ青少年交流センター池之上青少年会館","province":"東京都","city":"世田谷区","address":"東京都世田谷区代沢2丁目37-18","lat":35.65937366,"lon":139.67336408},{"name":"希望丘青少年交流センターアップス","province":"東京都","city":"世田谷区","address":"東京都世田谷区船橋6丁目25-1","lat":35.6589584,"lon":139.62072125},{"name":"野毛青少年交流センター","province":"東京都","city":"世田谷区","address":"東京都世田谷区野毛2丁目15-19","lat":35.60345736,"lon":139.64166611},{"name":"ｓ青少年交流センター池之上青少年会館","province":"東京都","city":"世田谷区","address":"東京都世田谷区代沢2丁目37-18","lat":35.65937366,"lon":139.67336408},{"name":"希望丘青少年交流センターアップス","province":"東京都","city":"世田谷区","address":"東京都世田谷区船橋6丁目25-1","lat":35.6589584,"lon":139.62072125},{"name":"野毛青少年交流センター","province":"東京都","city":"世田谷区","address":"東京都世田谷区野毛2丁目15-19","lat":35.60345736,"lon":139.64166611},{"name":"ｓ青少年交流センター池之上青少年会館","province":"東京都","city":"世田谷区","address":"東京都世田谷区代沢2丁目37-18","lat":35.65937366,"lon":139.67336408},{"name":"希望丘青少年交流センターアップス","province":"東京都","city":"世田谷区","address":"東京都世田谷区船橋6丁目25-1","lat":35.6589584,"lon":139.62072125},{"name":"野毛青少年交流センター","province":"東京都","city":"世田谷区","address":"東京都世田谷区野毛2丁目15-19","lat":35.60345736,"lon":139.64166611},{"name":"ｓ青少年交流センター池之上青少年会館","province":"東京都","city":"世田谷区","address":"東京都世田谷区代沢2丁目37-18","lat":35.65937366,"lon":139.67336408},{"name":"希望丘青少年交流センターアップス","province":"東京都","city":"世田谷区","address":"東京都世田谷区船橋6丁目25-1","lat":35.6589584,"lon":139.62072125},{"name":"野毛青少年交流センター","province":"東京都","city":"世田谷区","address":"東京都世田谷区野毛2丁目15-19","lat":35.60345736,"lon":139.64166611},{"name":"ｓ青少年交流センター池之上青少年会館","province":"東京都","city":"世田谷区","address":"東京都世田谷区代沢2丁目37-18","lat":35.65937366,"lon":139.67336408},{"name":"希望丘青少年交流センターアップス","province":"東京都","city":"世田谷区","address":"東京都世田谷区船橋6丁目25-1","lat":35.6589584,"lon":139.62072125},{"name":"野毛青少年交流センター","province":"東京都","city":"世田谷区","address":"東京都世田谷区野毛2丁目15-19","lat":35.60345736,"lon":139.64166611},{"name":"ｓ青少年交流センター池之上青少年会館","province":"東京都","city":"世田谷区","address":"東京都世田谷区代沢2丁目37-18","lat":35.65937366,"lon":139.67336408},{"name":"希望丘青少年交流センターアップス","province":"東京都","city":"世田谷区","address":"東京都世田谷区船橋6丁目25-1","lat":35.6589584,"lon":139.62072125},{"name":"野毛青少年交流センター","province":"東京都","city":"世田谷区","address":"東京都世田谷区野毛2丁目15-19","lat":35.60345736,"lon":139.64166611},{"name":"ｓ青少年交流センター池之上青少年会館","province":"東京都","city":"世田谷区","address":"東京都世田谷区代沢2丁目37-18","lat":35.65937366,"lon":139.67336408},{"name":"希望丘青少年交流センターアップス","province":"東京都","city":"世田谷区","address":"東京都世田谷区船橋6丁目25-1","lat":35.6589584,"lon":139.62072125},{"name":"野毛青少年交流センター","province":"東京都","city":"世田谷区","address":"東京都世田谷区野毛2丁目15-19","lat":35.60345736,"lon":139.64166611},{"name":"ｓ青少年交流センター池之上青少年会館","province":"東京都","city":"世田谷区","address":"東京都世田谷区代沢2丁目37-18","lat":35.65937366,"lon":139.67336408},{"name":"希望丘青少年交流センターアップス","province":"東京都","city":"世田谷区","address":"東京都世田谷区船橋6丁目25-1","lat":35.6589584,"lon":139.62072125},{"name":"野毛青少年交流センター","province":"東京都","city":"世田谷区","address":"東京都世田谷区野毛2丁目15-19","lat":35.60345736,"lon":139.64166611},{"name":"ｓ青少年交流センター池之上青少年会館","province":"東京都","city":"世田谷区","address":"東京都世田谷区代沢2丁目37-18","lat":35.65937366,"lon":139.67336408},{"name":"希望丘青少年交流センターアップス","province":"東京都","city":"世田谷区","address":"東京都世田谷区船橋6丁目25-1","lat":35.6589584,"lon":139.62072125}]}