{"keyword":"宿泊","data":[{"name":"若林荘","province":"東京都","city":"世田谷区","address":"世田谷区若林5-33-10","lat":35.64878,"lon":139.659666},{"name":"大蔵荘","province":"東京都","city":"世田谷区","address":"世田谷区大蔵6-7-26","lat":35.62566,"lon":139.612121},{"name":"新町荘","province":"東京都","city":"世田谷区","address":"世田谷区新町3-22-10","lat":35.632423,"lon":139.646309},{"name":"ＴＥＯＳ新町荘","province":"東京都","city":"世田谷区","address":"世田谷区新町3-22-10","lat":35.63218,"lon":139.64618},{"name":"若林荘","province":"東京都","city":"世田谷区","address":"世田谷区若林5-33-10","lat":35.64896,"lon":139.65982},{"name":"大蔵荘","province":"東京都","city":"世田谷区","address":"世田谷区大蔵6-7-26","lat":35.62563,"lon":139.61195}]}