{"keyword":"戸数","data":[{"name":"松沢病院","province":"東京都","city":"世田谷区","address":"東京都世田谷区上北沢2丁目1-1","lat":35.66712968,"lon":139.61960719},{"name":"世田谷区社会福祉協議会","province":"東京都","city":"世田谷区","address":"世田谷区成城6-3-10成城6丁目事務所棟4階","lat":35.640785,"lon":139.600493},{"name":"世田谷区","province":"東京都","city":"世田谷区","address":"世田谷区世田谷4-21-27","lat":35.6459694,"lon":139.6527697},{"name":"\"伊藤商事株式会社 葬儀部 \"","province":"東京都","city":"世田谷区","address":"東京都世田谷区松原3丁目30-12","lat":35.66652758,"lon":139.64192207},{"name":"有限会社　メーユー上原葬儀社","province":"東京都","city":"世田谷区","address":"東京都世田谷区梅丘3丁目10-12","lat":35.65251006,"lon":139.65491308},{"name":"\"金子総本店 \"","province":"東京都","city":"世田谷区","address":"東京都世田谷区北沢3丁目31-2","lat":35.66454236,"lon":139.66686446},{"name":"株式会社　佐久間本店","province":"東京都","city":"世田谷区","address":"東京都世田谷区成城6丁目6-3","lat":35.64015449,"lon":139.59726549},{"name":"\"株式会社　佐久間本店 千歳船橋営業所 \"","province":"東京都","city":"世田谷区","address":"東京都世田谷区桜丘2丁目27-11","lat":35.64673208,"lon":139.6225521},{"name":"\"有限会社　佐藤葬祭 \"","province":"東京都","city":"世田谷区","address":"東京都世田谷区北沢5丁目34-14","lat":35.67164994,"lon":139.66833631},{"name":"有限会社　嶋田葬祭","province":"東京都","city":"世田谷区","address":"東京都世田谷区池尻3丁目4-2","lat":35.65009162,"lon":139.68287748},{"name":"\"株式会社　経堂 清水葬祭 \"","province":"東京都","city":"世田谷区","address":"東京都世田谷区経堂1丁目5-9","lat":35.64839896,"lon":139.63626198},{"name":"城西葬祭　株式会社","province":"東京都","city":"世田谷区","address":"東京都世田谷区野沢2丁目13-2","lat":35.63249609,"lon":139.66918473},{"name":"\"株式会社　杉田フューネス \"","province":"東京都","city":"世田谷区","address":"東京都世田谷区上北沢4丁目33-3","lat":35.66985709,"lon":139.61745449},{"name":"\"有限会社　曽根葬祭 \"","province":"東京都","city":"世田谷区","address":"東京都世田谷区下馬4丁目2-12","lat":35.63487384,"lon":139.67952824},{"name":"\"有限会社　野﨑商店 \"","province":"東京都","city":"世田谷区","address":"東京都世田谷区豪徳寺1丁目8-7","lat":35.65171273,"lon":139.64650547},{"name":"有限会社　平野屋葬祭","province":"東京都","city":"世田谷区","address":"東京都世田谷区大原1丁目17-12","lat":35.66876124,"lon":139.66331185},{"name":"株式会社　ムラカミ","province":"東京都","city":"世田谷区","address":"東京都世田谷区宮坂3丁目28-2","lat":35.65414266,"lon":139.63350925},{"name":"株式会社　沼崎商会","province":"東京都","city":"世田谷区","address":"東京都世田谷区尾山台3丁目9-6","lat":35.60391554,"lon":139.65227599},{"name":"世田谷区社会福祉協議会","province":"東京都","city":"世田谷区","address":"世田谷区成城6-3-10成城6丁目事務所棟4階","lat":35.64079,"lon":139.60098},{"name":"一般社団法人至誠会第二病院","province":"東京都","city":"世田谷区","address":"東京都世田谷区上祖師谷5丁目19-1","lat":35.65629949,"lon":139.59144587},{"name":"公立学校共済組合関東中央病院","province":"東京都","city":"世田谷区","address":"東京都世田谷区上用賀6丁目25-1","lat":35.63726677,"lon":139.62627992},{"name":"東京都立松沢病院","province":"東京都","city":"世田谷区","address":"東京都世田谷区上北沢2丁目1-1","lat":35.66712968,"lon":139.61960719},{"name":"砧浄水場","province":"東京都","city":"世田谷区","address":"東京都世田谷区喜多見2丁目9-1","lat":35.6229239,"lon":139.5939617},{"name":"和田堀給水所","province":"東京都","city":"世田谷区","address":"東京都世田谷区大原2丁目30-43","lat":35.67019982,"lon":139.65752341},{"name":"玉川給水所","province":"東京都","city":"世田谷区","address":"東京都世田谷区玉川田園調布1丁目19-1","lat":35.60087176,"lon":139.66091715},{"name":"大蔵給水所","province":"東京都","city":"世田谷区","address":"東京都世田谷区砧2丁目8-1","lat":35.64285742,"lon":139.61625833},{"name":"駒沢給水所","province":"東京都","city":"世田谷区","address":"東京都世田谷区弦巻2丁目41-5","lat":35.63358721,"lon":139.65076123},{"name":"区立葭根公園","province":"東京都","city":"世田谷区","address":"東京都世田谷区船橋6丁目21","lat":35.65803078,"lon":139.62247115},{"name":"都立祖師谷公園","province":"東京都","city":"世田谷区","address":"東京都世田谷区上祖師谷4丁目2","lat":35.65340555,"lon":139.59748436},{"name":"区立中町二丁目公園","province":"東京都","city":"世田谷区","address":"東京都世田谷区中町2丁目34-1","lat":35.61159799,"lon":139.64116853},{"name":"世田谷公園軟式野球場","province":"東京都","city":"世田谷区","address":"東京都世田谷区池尻1丁目5","lat":35.64370344,"lon":139.68164445},{"name":"駒沢大学祖師谷グラウンド","province":"東京都","city":"世田谷区","address":"東京都世田谷区上祖師谷2丁目8","lat":35.6578273,"lon":139.59866744},{"name":"都立砧公園","province":"東京都","city":"世田谷区","address":"東京都世田谷区砧公園1-1","lat":35.6291067,"lon":139.62140025},{"name":"都立祖師谷公園少年運動場","province":"東京都","city":"世田谷区","address":"東京都世田谷区上祖師谷3丁目22-19","lat":35.65691076,"lon":139.59935631},{"name":"二子玉川緑地運動場","province":"東京都","city":"世田谷区","address":"東京都世田谷区鎌田1丁目","lat":35.617339,"lon":139.61637665},{"name":"世田谷区立小泉公園","province":"東京都","city":"世田谷区","address":"東京都世田谷区駒沢2丁目42","lat":35.63735914,"lon":139.65608295},{"name":"世田谷区立赤松公園","province":"東京都","city":"世田谷区","address":"東京都世田谷区赤堤4丁目10","lat":35.66157812,"lon":139.64139726},{"name":"日本体育大学グラウンド","province":"東京都","city":"世田谷区","address":"東京都世田谷区深沢7丁目1","lat":35.62202455,"lon":139.64835067},{"name":"東京農業大学野球場","province":"東京都","city":"世田谷区","address":"東京都世田谷区桜丘1丁目1","lat":35.64010265,"lon":139.63202372},{"name":"成城学園グラウンド","province":"東京都","city":"世田谷区","address":"東京都世田谷区成城6丁目1","lat":35.64426794,"lon":139.60143164},{"name":"駒澤大学玉川校舎グラウンド","province":"東京都","city":"世田谷区","address":"東京都世田谷区宇奈根1丁目1-2","lat":35.61725287,"lon":139.6089136},{"name":"日本大学グラウンド","province":"東京都","city":"世田谷区","address":"東京都世田谷区桜上水3丁目25-40","lat":35.66200011,"lon":139.63425617},{"name":"日本女子体育大学グラウンド","province":"東京都","city":"世田谷区","address":"東京都世田谷区北烏山8丁目19-1","lat":35.67728871,"lon":139.59020359},{"name":"世田谷区選挙管理委員会","province":"東京都","city":"世田谷区","address":"世田谷区世田谷4-21-27","lat":35.645949,"lon":139.653078},{"name":"駒沢オリンピック公園総合運動場","province":"東京都","city":"世田谷区","address":"東京都世田谷区駒沢公園1-1","lat":35.626083,"lon":139.657501},{"name":"駒沢オリンピック公園総合運動場専用駐車場","province":"東京都","city":"世田谷区","address":"東京都世田谷区","lat":35.64657462,"lon":139.65324952},{"name":"駒沢オリンピック公園陸上競技場","province":"東京都","city":"世田谷区","address":"東京都世田谷区","lat":35.64657462,"lon":139.65324952},{"name":"駒沢オリンピック公園屋内球技場","province":"東京都","city":"世田谷区","address":"東京都世田谷区","lat":35.64657462,"lon":139.65324952},{"name":"駒沢オリンピック公園体育館","province":"東京都","city":"世田谷区","address":"東京都世田谷区","lat":35.64657462,"lon":139.65324952},{"name":"駒沢オリンピック公園第二球技場","province":"東京都","city":"世田谷区","address":"東京都世田谷区","lat":35.64657462,"lon":139.65324952},{"name":"駒沢オリンピック公園弓道場","province":"東京都","city":"世田谷区","address":"東京都世田谷区","lat":35.64657462,"lon":139.65324952},{"name":"駒沢オリンピック公園弓道場的場","province":"東京都","city":"世田谷区","address":"東京都世田谷区","lat":35.64657462,"lon":139.65324952},{"name":"駒沢オリンピック公園水泳場","province":"東京都","city":"世田谷区","address":"東京都世田谷区","lat":35.64657462,"lon":139.65324952},{"name":"駒沢オリンピック公園管制塔ほか附属施設等5件","province":"東京都","city":"世田谷区","address":"東京都世田谷区","lat":35.64657462,"lon":139.65324952},{"name":"駒沢オリンピック公園陸上競技場トラックフィールド","province":"東京都","city":"世田谷区","address":"東京都世田谷区","lat":35.64657462,"lon":139.65324952},{"name":"駒沢オリンピック公園第一球技場","province":"東京都","city":"世田谷区","address":"東京都世田谷区","lat":35.64657462,"lon":139.65324952},{"name":"駒沢オリンピック公園第二球技場フィールド","province":"東京都","city":"世田谷区","address":"東京都世田谷区","lat":35.64657462,"lon":139.65324952},{"name":"駒沢オリンピック公園総合運動場テニスコート（砂入り人工芝）","province":"東京都","city":"世田谷区","address":"東京都世田谷区","lat":35.64657462,"lon":139.65324952},{"name":"駒沢オリンピック公園補助競技場","province":"東京都","city":"世田谷区","address":"東京都世田谷区","lat":35.64657462,"lon":139.65324952},{"name":"駒沢オリンピック公園軟式野球場グランド","province":"東京都","city":"世田谷区","address":"東京都世田谷区","lat":35.64657462,"lon":139.65324952},{"name":"駒沢オリンピック公園硬式野球場グランド","province":"東京都","city":"世田谷区","address":"東京都世田谷区","lat":35.64657462,"lon":139.65324952},{"name":"世田谷市場","province":"東京都","city":"世田谷区","address":"東京都世田谷区大蔵1丁目4-1","lat":35.63340608,"lon":139.62111116},{"name":"深沢高等学校","province":"東京都","city":"世田谷区","address":"東京都世田谷区深沢7丁目3-14","lat":35.62330496,"lon":139.64797566},{"name":"松原高等学校","province":"東京都","city":"世田谷区","address":"東京都世田谷区桜上水4丁目3-5","lat":35.66526919,"lon":139.63491157},{"name":"園芸高等学校","province":"東京都","city":"世田谷区","address":"東京都世田谷区深沢5丁目38-1","lat":35.61918875,"lon":139.64787858},{"name":"総合工科高等学校","province":"東京都","city":"世田谷区","address":"東京都世田谷区成城9丁目25-1","lat":35.65160294,"lon":139.5951874},{"name":"世田谷総合高等学校","province":"東京都","city":"世田谷区","address":"東京都世田谷区岡本2丁目9-1","lat":35.62006913,"lon":139.61914834},{"name":"桜町高等学校","province":"東京都","city":"世田谷区","address":"東京都世田谷区用賀2丁目4-1","lat":35.62644343,"lon":139.64023459},{"name":"千歳丘高等学校","province":"東京都","city":"世田谷区","address":"東京都世田谷区船橋3丁目18-1","lat":35.65227038,"lon":139.62448784},{"name":"芦花高等学校","province":"東京都","city":"世田谷区","address":"東京都世田谷区粕谷3丁目8-1","lat":35.65924678,"lon":139.60520577},{"name":"世田谷泉高等学校","province":"東京都","city":"世田谷区","address":"東京都世田谷区北烏山9丁目22-1","lat":35.67308643,"lon":139.59073425},{"name":"世田谷区","province":"東京都","city":"世田谷区","address":"世田谷区池尻3-13-1","lat":35.65041,"lon":139.6783},{"name":"（株）スズケン世田谷事業所","province":"東京都","city":"世田谷区","address":"世田谷区代沢3-15-1","lat":35.65521,"lon":139.6741},{"name":"（株）世田谷酸素商事","province":"東京都","city":"世田谷区","address":"世田谷区大蔵5-28-5","lat":35.62916,"lon":139.6047},{"name":"東日本電信電話（株）世田谷ビル","province":"東京都","city":"世田谷区","address":"世田谷区太子堂4-3-4","lat":35.64383,"lon":139.6683},{"name":"松沢病院","province":"東京都","city":"世田谷区","address":"東京都世田谷区上北沢2丁目1-1","lat":35.66712968,"lon":139.61960719},{"name":"世田谷区社会福祉協議会","province":"東京都","city":"世田谷区","address":"世田谷区成城6-3-10成城6丁目事務所棟4階","lat":35.640785,"lon":139.600493},{"name":"世田谷区社会福祉協議会","province":"東京都","city":"世田谷区","address":"世田谷区成城6-3-10成城6丁目事務所棟4階","lat":35.64079,"lon":139.60098},{"name":"一般社団法人至誠会第二病院","province":"東京都","city":"世田谷区","address":"東京都世田谷区上祖師谷5丁目19-1","lat":35.65629949,"lon":139.59144587},{"name":"公立学校共済組合関東中央病院","province":"東京都","city":"世田谷区","address":"東京都世田谷区上用賀6丁目25-1","lat":35.63726677,"lon":139.62627992},{"name":"東京都立松沢病院","province":"東京都","city":"世田谷区","address":"東京都世田谷区上北沢2丁目1-1","lat":35.66712968,"lon":139.61960719},{"name":"砧浄水場","province":"東京都","city":"世田谷区","address":"東京都世田谷区喜多見2丁目9-1","lat":35.6229239,"lon":139.5939617},{"name":"和田堀給水所","province":"東京都","city":"世田谷区","address":"東京都世田谷区大原2丁目30-43","lat":35.67019982,"lon":139.65752341},{"name":"玉川給水所","province":"東京都","city":"世田谷区","address":"東京都世田谷区玉川田園調布1丁目19-1","lat":35.60087176,"lon":139.66091715},{"name":"大蔵給水所","province":"東京都","city":"世田谷区","address":"東京都世田谷区砧2丁目8-1","lat":35.64285742,"lon":139.61625833},{"name":"駒沢給水所","province":"東京都","city":"世田谷区","address":"東京都世田谷区弦巻2丁目41-5","lat":35.63358721,"lon":139.65076123},{"name":"区立葭根公園","province":"東京都","city":"世田谷区","address":"東京都世田谷区船橋6丁目21","lat":35.65803078,"lon":139.62247115},{"name":"都立祖師谷公園","province":"東京都","city":"世田谷区","address":"東京都世田谷区上祖師谷4丁目2","lat":35.65340555,"lon":139.59748436},{"name":"区立中町二丁目公園","province":"東京都","city":"世田谷区","address":"東京都世田谷区中町2丁目34-1","lat":35.61159799,"lon":139.64116853},{"name":"世田谷公園軟式野球場","province":"東京都","city":"世田谷区","address":"東京都世田谷区池尻1丁目5","lat":35.64370344,"lon":139.68164445},{"name":"駒沢大学祖師谷グラウンド","province":"東京都","city":"世田谷区","address":"東京都世田谷区上祖師谷2丁目8","lat":35.6578273,"lon":139.59866744},{"name":"都立砧公園","province":"東京都","city":"世田谷区","address":"東京都世田谷区砧公園1-1","lat":35.6291067,"lon":139.62140025},{"name":"都立祖師谷公園少年運動場","province":"東京都","city":"世田谷区","address":"東京都世田谷区上祖師谷3丁目22-19","lat":35.65691076,"lon":139.59935631},{"name":"二子玉川緑地運動場","province":"東京都","city":"世田谷区","address":"東京都世田谷区鎌田1丁目","lat":35.617339,"lon":139.61637665},{"name":"世田谷区立小泉公園","province":"東京都","city":"世田谷区","address":"東京都世田谷区駒沢2丁目42","lat":35.63735914,"lon":139.65608295},{"name":"世田谷区立赤松公園","province":"東京都","city":"世田谷区","address":"東京都世田谷区赤堤4丁目10","lat":35.66157812,"lon":139.64139726},{"name":"日本体育大学グラウンド","province":"東京都","city":"世田谷区","address":"東京都世田谷区深沢7丁目1","lat":35.62202455,"lon":139.64835067},{"name":"東京農業大学野球場","province":"東京都","city":"世田谷区","address":"東京都世田谷区桜丘1丁目1","lat":35.64010265,"lon":139.63202372},{"name":"成城学園グラウンド","province":"東京都","city":"世田谷区","address":"東京都世田谷区成城6丁目1","lat":35.64426794,"lon":139.60143164},{"name":"駒澤大学玉川校舎グラウンド","province":"東京都","city":"世田谷区","address":"東京都世田谷区宇奈根1丁目1-2","lat":35.61725287,"lon":139.6089136},{"name":"日本大学グラウンド","province":"東京都","city":"世田谷区","address":"東京都世田谷区桜上水3丁目25-40","lat":35.66200011,"lon":139.63425617},{"name":"日本女子体育大学グラウンド","province":"東京都","city":"世田谷区","address":"東京都世田谷区北烏山8丁目19-1","lat":35.67728871,"lon":139.59020359},{"name":"駒沢オリンピック公園総合運動場","province":"東京都","city":"世田谷区","address":"東京都世田谷区駒沢公園1-1","lat":35.626083,"lon":139.657501},{"name":"世田谷市場","province":"東京都","city":"世田谷区","address":"東京都世田谷区大蔵1丁目4-1","lat":35.63340608,"lon":139.62111116},{"name":"深沢高等学校","province":"東京都","city":"世田谷区","address":"東京都世田谷区深沢7丁目3-14","lat":35.62330496,"lon":139.64797566},{"name":"松原高等学校","province":"東京都","city":"世田谷区","address":"東京都世田谷区桜上水4丁目3-5","lat":35.66526919,"lon":139.63491157},{"name":"園芸高等学校","province":"東京都","city":"世田谷区","address":"東京都世田谷区深沢5丁目38-1","lat":35.61918875,"lon":139.64787858},{"name":"総合工科高等学校","province":"東京都","city":"世田谷区","address":"東京都世田谷区成城9丁目25-1","lat":35.65160294,"lon":139.5951874},{"name":"世田谷総合高等学校","province":"東京都","city":"世田谷区","address":"東京都世田谷区岡本2丁目9-1","lat":35.62006913,"lon":139.61914834},{"name":"桜町高等学校","province":"東京都","city":"世田谷区","address":"東京都世田谷区用賀2丁目4-1","lat":35.62644343,"lon":139.64023459},{"name":"千歳丘高等学校","province":"東京都","city":"世田谷区","address":"東京都世田谷区船橋3丁目18-1","lat":35.65227038,"lon":139.62448784},{"name":"芦花高等学校","province":"東京都","city":"世田谷区","address":"東京都世田谷区粕谷3丁目8-1","lat":35.65924678,"lon":139.60520577},{"name":"世田谷泉高等学校","province":"東京都","city":"世田谷区","address":"東京都世田谷区北烏山9丁目22-1","lat":35.67308643,"lon":139.59073425},{"name":"世田谷区","province":"東京都","city":"世田谷区","address":"世田谷区池尻3-13-1","lat":35.65041,"lon":139.6783},{"name":"（株）スズケン世田谷事業所","province":"東京都","city":"世田谷区","address":"世田谷区代沢3-15-1","lat":35.65521,"lon":139.6741},{"name":"（株）世田谷酸素商事","province":"東京都","city":"世田谷区","address":"世田谷区大蔵5-28-5","lat":35.62916,"lon":139.6047},{"name":"東日本電信電話（株）世田谷ビル","province":"東京都","city":"世田谷区","address":"世田谷区太子堂4-3-4","lat":35.64383,"lon":139.6683},{"name":"松沢病院","province":"東京都","city":"世田谷区","address":"東京都世田谷区上北沢2丁目1-1","lat":35.66712968,"lon":139.61960719},{"name":"一般社団法人至誠会第二病院","province":"東京都","city":"世田谷区","address":"東京都世田谷区上祖師谷5丁目19-1","lat":35.65629949,"lon":139.59144587},{"name":"公立学校共済組合関東中央病院","province":"東京都","city":"世田谷区","address":"東京都世田谷区上用賀6丁目25-1","lat":35.63726677,"lon":139.62627992},{"name":"東京都立松沢病院","province":"東京都","city":"世田谷区","address":"東京都世田谷区上北沢2丁目1-1","lat":35.66712968,"lon":139.61960719},{"name":"世田谷市場","province":"東京都","city":"世田谷区","address":"東京都世田谷区大蔵1丁目4-1","lat":35.63340608,"lon":139.62111116},{"name":"深沢高等学校","province":"東京都","city":"世田谷区","address":"東京都世田谷区深沢7丁目3-14","lat":35.62330496,"lon":139.64797566},{"name":"松原高等学校","province":"東京都","city":"世田谷区","address":"東京都世田谷区桜上水4丁目3-5","lat":35.66526919,"lon":139.63491157},{"name":"園芸高等学校","province":"東京都","city":"世田谷区","address":"東京都世田谷区深沢5丁目38-1","lat":35.61918875,"lon":139.64787858},{"name":"総合工科高等学校","province":"東京都","city":"世田谷区","address":"東京都世田谷区成城9丁目25-1","lat":35.65160294,"lon":139.5951874},{"name":"世田谷総合高等学校","province":"東京都","city":"世田谷区","address":"東京都世田谷区岡本2丁目9-1","lat":35.62006913,"lon":139.61914834},{"name":"桜町高等学校","province":"東京都","city":"世田谷区","address":"東京都世田谷区用賀2丁目4-1","lat":35.62644343,"lon":139.64023459},{"name":"千歳丘高等学校","province":"東京都","city":"世田谷区","address":"東京都世田谷区船橋3丁目18-1","lat":35.65227038,"lon":139.62448784},{"name":"芦花高等学校","province":"東京都","city":"世田谷区","address":"東京都世田谷区粕谷3丁目8-1","lat":35.65924678,"lon":139.60520577},{"name":"世田谷泉高等学校","province":"東京都","city":"世田谷区","address":"東京都世田谷区北烏山9丁目22-1","lat":35.67308643,"lon":139.59073425},{"name":"松沢病院","province":"東京都","city":"世田谷区","address":"東京都世田谷区上北沢2丁目1-1","lat":35.66712968,"lon":139.61960719},{"name":"一般社団法人至誠会第二病院","province":"東京都","city":"世田谷区","address":"東京都世田谷区上祖師谷5丁目19-1","lat":35.65629949,"lon":139.59144587},{"name":"公立学校共済組合関東中央病院","province":"東京都","city":"世田谷区","address":"東京都世田谷区上用賀6丁目25-1","lat":35.63726677,"lon":139.62627992},{"name":"東京都立松沢病院","province":"東京都","city":"世田谷区","address":"東京都世田谷区上北沢2丁目1-1","lat":35.66712968,"lon":139.61960719},{"name":"世田谷市場","province":"東京都","city":"世田谷区","address":"東京都世田谷区大蔵1丁目4-1","lat":35.63340608,"lon":139.62111116},{"name":"深沢高等学校","province":"東京都","city":"世田谷区","address":"東京都世田谷区深沢7丁目3-14","lat":35.62330496,"lon":139.64797566},{"name":"松原高等学校","province":"東京都","city":"世田谷区","address":"東京都世田谷区桜上水4丁目3-5","lat":35.66526919,"lon":139.63491157},{"name":"園芸高等学校","province":"東京都","city":"世田谷区","address":"東京都世田谷区深沢5丁目38-1","lat":35.61918875,"lon":139.64787858},{"name":"総合工科高等学校","province":"東京都","city":"世田谷区","address":"東京都世田谷区成城9丁目25-1","lat":35.65160294,"lon":139.5951874},{"name":"世田谷総合高等学校","province":"東京都","city":"世田谷区","address":"東京都世田谷区岡本2丁目9-1","lat":35.62006913,"lon":139.61914834},{"name":"桜町高等学校","province":"東京都","city":"世田谷区","address":"東京都世田谷区用賀2丁目4-1","lat":35.62644343,"lon":139.64023459},{"name":"千歳丘高等学校","province":"東京都","city":"世田谷区","address":"東京都世田谷区船橋3丁目18-1","lat":35.65227038,"lon":139.62448784},{"name":"芦花高等学校","province":"東京都","city":"世田谷区","address":"東京都世田谷区粕谷3丁目8-1","lat":35.65924678,"lon":139.60520577},{"name":"世田谷泉高等学校","province":"東京都","city":"世田谷区","address":"東京都世田谷区北烏山9丁目22-1","lat":35.67308643,"lon":139.59073425},{"name":"松沢病院","province":"東京都","city":"世田谷区","address":"東京都世田谷区上北沢2丁目1-1","lat":35.66712968,"lon":139.61960719},{"name":"松沢病院","province":"東京都","city":"世田谷区","address":"東京都世田谷区上北沢2丁目1-1","lat":35.66712968,"lon":139.61960719}]}