{"keyword":"放課後","data":[{"name":"LITALICOジュニア駒沢教室","province":"東京都","city":"世田谷区","address":"世田谷区野沢2-34-2サンワイズ野沢2階","lat":35.635348,"lon":139.665279},{"name":"わんぱくクラブ三軒茶屋","province":"東京都","city":"世田谷区","address":"世田谷区太子堂2-17-1太子堂複合施設4階","lat":35.644778,"lon":139.671098},{"name":"あおぞら縁","province":"東京都","city":"世田谷区","address":"世田谷区三宿二丁目38番地7号加納屋ビル201","lat":35.653377,"lon":139.672475},{"name":"わんぱくクラブ三宿","province":"東京都","city":"世田谷区","address":"世田谷区三宿1-3-201階","lat":35.648856,"lon":139.677442},{"name":"ハッピーテラス駒沢公園教室","province":"東京都","city":"世田谷区","address":"世田谷区上馬4-41-1米勢ビル1階","lat":35.63972,"lon":139.661038},{"name":"アプリ児童デイサービス駒沢","province":"東京都","city":"世田谷区","address":"世田谷区駒沢三丁目14番3号フィル・パーク駒沢大学","lat":35.630863,"lon":139.6549},{"name":"わんぱくクラブ駒沢","province":"東京都","city":"世田谷区","address":"世田谷区新町1-3-32","lat":35.626751,"lon":139.652759},{"name":"子育てステーション桜新町　発達相談室","province":"東京都","city":"世田谷区","address":"世田谷区桜新町2-8-1世田谷目黒農協本店ビル内1階","lat":35.631965,"lon":139.645112},{"name":"プレミア・ケア・ジュニア世田谷店","province":"東京都","city":"世田谷区","address":"世田谷区弦巻1-46-15","lat":35.639795,"lon":139.648692},{"name":"そらのいろ梅丘","province":"東京都","city":"世田谷区","address":"世田谷区梅丘一丁目22番4号グローリア初穂梅ヶ丘101","lat":35.655421,"lon":139.653194},{"name":"アプリ児童デイサービス若林","province":"東京都","city":"世田谷区","address":"世田谷区若林四丁目2番5号","lat":35.646514,"lon":139.659405},{"name":"ウイングせたがや代田","province":"東京都","city":"世田谷区","address":"世田谷区若林5-41-15アーヴェイン世田谷201","lat":35.651049,"lon":139.659724},{"name":"スタジオそら北沢","province":"東京都","city":"世田谷区","address":"世田谷区北沢3-1-3SFビル2階","lat":35.665981,"lon":139.673203},{"name":"放課後等デイサービス　らしさ","province":"東京都","city":"世田谷区","address":"世田谷区松原5-16-8","lat":35.660881,"lon":139.648238},{"name":"デイサービスにじのこ赤堤","province":"東京都","city":"世田谷区","address":"世田谷区赤堤1-8-19第1居成ビル2F","lat":35.656959,"lon":139.643756},{"name":"アプリ児童デイサービス桜丘","province":"東京都","city":"世田谷区","address":"世田谷区桜丘二丁目21番3号","lat":35.64606,"lon":139.623752},{"name":"プレイ＆リズム希望丘","province":"東京都","city":"世田谷区","address":"世田谷区船橋7-8-3","lat":35.658378,"lon":139.619799},{"name":"テラス児童デイサービス烏山","province":"東京都","city":"世田谷区","address":"世田谷区北烏山九丁目3番4号ピアサン烏山1階1A号室","lat":35.670012,"lon":139.595437},{"name":"児童デイサービスここから","province":"東京都","city":"世田谷区","address":"世田谷区北烏山3丁目11番5号","lat":35.673914,"lon":139.60245},{"name":"アプリ児童デイサービス北烏山","province":"東京都","city":"世田谷区","address":"世田谷区北烏山4-34-18","lat":35.680397,"lon":139.597895},{"name":"子育てステーション烏山発達相談室","province":"東京都","city":"世田谷区","address":"世田谷区南烏山5-17-5","lat":35.666924,"lon":139.601297},{"name":"プレミア・ケア・ジュニア芦花公園店","province":"東京都","city":"世田谷区","address":"世田谷区南烏山1-16-19-1階","lat":35.668207,"lon":139.612491},{"name":"はぴねす","province":"東京都","city":"世田谷区","address":"世田谷区南烏山6-33-33ウィスタリアハウス2-1階","lat":35.670268,"lon":139.600017},{"name":"凸凹Ｋｉｄｓすぺいす","province":"東京都","city":"世田谷区","address":"世田谷区粕谷四丁目13番16号","lat":35.663671,"lon":139.604225},{"name":"デイサービスにじのこ給田","province":"東京都","city":"世田谷区","address":"世田谷区給田3-14-7給田地区会館内","lat":35.664896,"lon":139.590679},{"name":"スタジオそら喜多見","province":"東京都","city":"世田谷区","address":"世田谷区喜多見八丁目15番25号キタミフォーラム1階","lat":35.635858,"lon":139.588472},{"name":"こどもデイうぃず","province":"東京都","city":"世田谷区","address":"世田谷区喜多見7-25-17","lat":35.634097,"lon":139.592027},{"name":"アプリ児童デイサービス千歳台","province":"東京都","city":"世田谷区","address":"世田谷区千歳台3-31-20","lat":35.653731,"lon":139.612419},{"name":"児童デイサービス　プラス砧","province":"東京都","city":"世田谷区","address":"世田谷区砧4-10-17-1階","lat":35.640408,"lon":139.613234},{"name":"ＴＡＫＵＭＩ　祖師ヶ谷大蔵","province":"東京都","city":"世田谷区","address":"世田谷区砧2-17-7E・スペース2階","lat":35.644565,"lon":139.615581},{"name":"世田谷区発達障害相談・療育センター","province":"東京都","city":"世田谷区","address":"世田谷区大蔵2-10-18","lat":35.634633,"lon":139.612803},{"name":"イクツアルポック","province":"東京都","city":"世田谷区","address":"世田谷区野毛2-28-23B棟","lat":35.602849,"lon":139.639944},{"name":"発達支援ルーム　琉りゅう","province":"東京都","city":"世田谷区","address":"世田谷区上野毛2-22-14A-2階","lat":35.609468,"lon":139.635089},{"name":"運動療育スパークスタジオ世田谷","province":"東京都","city":"世田谷区","address":"世田谷区瀬田4-27-9AMビル2階","lat":35.621691,"lon":139.630011},{"name":"ウイング用賀","province":"東京都","city":"世田谷区","address":"世田谷区用賀2-40-2","lat":35.625871,"lon":139.634549},{"name":"スタジオそら用賀","province":"東京都","city":"世田谷区","address":"世田谷区用賀2-36-17林ビル2階","lat":35.627263,"lon":139.635735}]}