{"keyword":"朝","data":[{"name":"\"伊藤商事株式会社 葬儀部 \"","province":"東京都","city":"世田谷区","address":"東京都世田谷区松原3丁目30-12","lat":35.66652758,"lon":139.64192207},{"name":"有限会社　メーユー上原葬儀社","province":"東京都","city":"世田谷区","address":"東京都世田谷区梅丘3丁目10-12","lat":35.65251006,"lon":139.65491308},{"name":"\"金子総本店 \"","province":"東京都","city":"世田谷区","address":"東京都世田谷区北沢3丁目31-2","lat":35.66454236,"lon":139.66686446},{"name":"株式会社　佐久間本店","province":"東京都","city":"世田谷区","address":"東京都世田谷区成城6丁目6-3","lat":35.64015449,"lon":139.59726549},{"name":"\"株式会社　佐久間本店 千歳船橋営業所 \"","province":"東京都","city":"世田谷区","address":"東京都世田谷区桜丘2丁目27-11","lat":35.64673208,"lon":139.6225521},{"name":"\"有限会社　佐藤葬祭 \"","province":"東京都","city":"世田谷区","address":"東京都世田谷区北沢5丁目34-14","lat":35.67164994,"lon":139.66833631},{"name":"有限会社　嶋田葬祭","province":"東京都","city":"世田谷区","address":"東京都世田谷区池尻3丁目4-2","lat":35.65009162,"lon":139.68287748},{"name":"\"株式会社　経堂 清水葬祭 \"","province":"東京都","city":"世田谷区","address":"東京都世田谷区経堂1丁目5-9","lat":35.64839896,"lon":139.63626198},{"name":"城西葬祭　株式会社","province":"東京都","city":"世田谷区","address":"東京都世田谷区野沢2丁目13-2","lat":35.63249609,"lon":139.66918473},{"name":"\"株式会社　杉田フューネス \"","province":"東京都","city":"世田谷区","address":"東京都世田谷区上北沢4丁目33-3","lat":35.66985709,"lon":139.61745449},{"name":"\"有限会社　曽根葬祭 \"","province":"東京都","city":"世田谷区","address":"東京都世田谷区下馬4丁目2-12","lat":35.63487384,"lon":139.67952824},{"name":"\"有限会社　野﨑商店 \"","province":"東京都","city":"世田谷区","address":"東京都世田谷区豪徳寺1丁目8-7","lat":35.65171273,"lon":139.64650547},{"name":"有限会社　平野屋葬祭","province":"東京都","city":"世田谷区","address":"東京都世田谷区大原1丁目17-12","lat":35.66876124,"lon":139.66331185},{"name":"株式会社　ムラカミ","province":"東京都","city":"世田谷区","address":"東京都世田谷区宮坂3丁目28-2","lat":35.65414266,"lon":139.63350925},{"name":"株式会社　沼崎商会","province":"東京都","city":"世田谷区","address":"東京都世田谷区尾山台3丁目9-6","lat":35.60391554,"lon":139.65227599},{"name":"三軒茶屋","province":"東京都","city":"世田谷区","address":"東京都世田谷区太子堂2丁目15-4","lat":35.6439337,"lon":139.671137},{"name":"池尻","province":"東京都","city":"世田谷区","address":"東京都世田谷区池尻2丁目34-15","lat":35.64856954,"lon":139.68128321},{"name":"三宿町","province":"東京都","city":"世田谷区","address":"東京都世田谷区太子堂1丁目4-36","lat":35.64660579,"lon":139.67773636},{"name":"太子堂","province":"東京都","city":"世田谷区","address":"東京都世田谷区三軒茶屋1丁目41-11","lat":35.64393097,"lon":139.67259799},{"name":"上町駅前","province":"東京都","city":"世田谷区","address":"東京都世田谷区世田谷3丁目3","lat":35.64311379,"lon":139.64777229},{"name":"中里駅前","province":"東京都","city":"世田谷区","address":"東京都世田谷区上馬1丁目16-6","lat":35.63860092,"lon":139.66756248},{"name":"松陰神社入口","province":"東京都","city":"世田谷区","address":"東京都世田谷区若林3丁目17-1","lat":35.64242517,"lon":139.65506896},{"name":"世田谷区役所入口","province":"東京都","city":"世田谷区","address":"東京都世田谷区世田谷4丁目5-2","lat":35.64262509,"lon":139.65310244},{"name":"栄通り入口","province":"東京都","city":"世田谷区","address":"東京都世田谷区三軒茶屋1丁目32-11","lat":35.64244498,"lon":139.67032323},{"name":"世田谷交番前","province":"東京都","city":"世田谷区","address":"東京都世田谷区世田谷4丁目7-10","lat":35.64271948,"lon":139.65119981},{"name":"下ノ谷","province":"東京都","city":"世田谷区","address":"東京都世田谷区太子堂2丁目24-6","lat":35.64631118,"lon":139.66993981},{"name":"駒沢中学校角","province":"東京都","city":"世田谷区","address":"東京都世田谷区駒沢2丁目43-11","lat":35.63691477,"lon":139.6564496},{"name":"三軒茶屋第二","province":"東京都","city":"世田谷区","address":"東京都世田谷区太子堂4丁目1-1","lat":35.64413642,"lon":139.66925105},{"name":"三軒茶屋第三","province":"東京都","city":"世田谷区","address":"東京都世田谷区太子堂4丁目1-1","lat":35.64413642,"lon":139.66925105},{"name":"桜丘四丁目","province":"東京都","city":"世田谷区","address":"東京都世田谷区桜丘4丁目1-11","lat":35.6381166,"lon":139.62407176},{"name":"世田谷警察署前","province":"東京都","city":"世田谷区","address":"東京都世田谷区上馬1丁目32-12","lat":35.63962303,"lon":139.66822072},{"name":"笹原小学校北","province":"東京都","city":"世田谷区","address":"東京都世田谷区桜丘2丁目25-12","lat":35.64655154,"lon":139.62221048},{"name":"三軒茶屋一丁目","province":"東京都","city":"世田谷区","address":"東京都世田谷区三軒茶屋1丁目29-13","lat":35.64138952,"lon":139.66959832},{"name":"世田谷税務署前","province":"東京都","city":"世田谷区","address":"東京都世田谷区世田谷4丁目14-30","lat":35.64493592,"lon":139.65283295},{"name":"上町西","province":"東京都","city":"世田谷区","address":"東京都世田谷区世田谷1丁目25-13","lat":35.64237217,"lon":139.64652797},{"name":"三軒茶屋二丁目","province":"東京都","city":"世田谷区","address":"東京都世田谷区上馬2丁目29-1","lat":35.63999518,"lon":139.66668473},{"name":"世田谷三丁目","province":"東京都","city":"世田谷区","address":"東京都世田谷区世田谷3丁目20-1","lat":35.64524416,"lon":139.65044979},{"name":"松丘小学校南","province":"東京都","city":"世田谷区","address":"東京都世田谷区弦巻4丁目28-14","lat":35.63740048,"lon":139.64369503},{"name":"千歳船橋東","province":"東京都","city":"世田谷区","address":"東京都世田谷区経堂4丁目17-7","lat":35.64748763,"lon":139.62513796},{"name":"桜木中学校南","province":"東京都","city":"世田谷区","address":"東京都世田谷区世田谷2丁目20-8","lat":35.64255816,"lon":139.6425783},{"name":"松原六丁目","province":"東京都","city":"世田谷区","address":"東京都世田谷区松原6丁目35-2","lat":35.65697329,"lon":139.64866347},{"name":"代沢十字路","province":"東京都","city":"世田谷区","address":"東京都世田谷区代沢4丁目4-3","lat":35.65093835,"lon":139.66742319},{"name":"梅丘二丁目","province":"東京都","city":"世田谷区","address":"東京都世田谷区梅丘1丁目62-16","lat":35.6525461,"lon":139.65221609},{"name":"下北沢駅入口","province":"東京都","city":"世田谷区","address":"東京都世田谷区北沢2丁目5-10","lat":35.66077617,"lon":139.66906162},{"name":"梅ヶ丘駅入口西","province":"東京都","city":"世田谷区","address":"東京都世田谷区梅丘1丁目35-1","lat":35.65633733,"lon":139.65209098},{"name":"都立梅ヶ丘病院前","province":"東京都","city":"世田谷区","address":"東京都世田谷区松原6丁目37-1","lat":35.65717331,"lon":139.65047998},{"name":"経堂五丁目北","province":"東京都","city":"世田谷区","address":"東京都世田谷区経堂4丁目32-11","lat":35.64905422,"lon":139.62862649},{"name":"梅ヶ丘駅西","province":"東京都","city":"世田谷区","address":"東京都世田谷区梅丘1丁目24-14","lat":35.65554576,"lon":139.65249375},{"name":"経堂駅北口","province":"東京都","city":"世田谷区","address":"東京都世田谷区宮坂3丁目11-12","lat":35.65195968,"lon":139.63757287},{"name":"二子玉川駅","province":"東京都","city":"世田谷区","address":"東京都世田谷区玉川3丁目17-1","lat":35.61477548,"lon":139.62682563},{"name":"駒沢","province":"東京都","city":"世田谷区","address":"東京都世田谷区駒沢4丁目18-16","lat":35.63081265,"lon":139.65634142},{"name":"尾山台駅前","province":"東京都","city":"世田谷区","address":"東京都世田谷区等々力5丁目6-7","lat":35.60773734,"lon":139.65354794},{"name":"神学院下","province":"東京都","city":"世田谷区","address":"東京都世田谷区用賀1丁目12","lat":35.62236057,"lon":139.64017644},{"name":"等々力三丁目","province":"東京都","city":"世田谷区","address":"東京都世田谷区等々力4丁目24-8","lat":35.61098973,"lon":139.65256734},{"name":"区立ひまわり荘","province":"東京都","city":"世田谷区","address":"東京都世田谷区上用賀6丁目3-6","lat":35.63301457,"lon":139.62573849},{"name":"奥沢駅前","province":"東京都","city":"世田谷区","address":"東京都世田谷区奥沢3丁目31-11","lat":35.60255247,"lon":139.67201894},{"name":"上野毛まちづくりセンター","province":"東京都","city":"世田谷区","address":"東京都世田谷区中町2丁目35-9","lat":35.61138412,"lon":139.64170458},{"name":"用賀神社前","province":"東京都","city":"世田谷区","address":"東京都世田谷区用賀2丁目35-13","lat":35.62625731,"lon":139.63623496},{"name":"用賀駅前","province":"東京都","city":"世田谷区","address":"東京都世田谷区用賀2丁目39-17","lat":35.62643782,"lon":139.63428512},{"name":"桜町小学校西","province":"東京都","city":"世田谷区","address":"東京都世田谷区用賀1丁目14","lat":35.62281051,"lon":139.6385238},{"name":"桜新町駅前","province":"東京都","city":"世田谷区","address":"東京都世田谷区新町2丁目38-14","lat":35.63155399,"lon":139.64528951},{"name":"吉沢橋","province":"東京都","city":"世田谷区","address":"東京都世田谷区鎌田3丁目19-1","lat":35.61811111,"lon":139.61959289},{"name":"尾山台駅入口","province":"東京都","city":"世田谷区","address":"東京都世田谷区等々力4丁目24-17","lat":35.61167856,"lon":139.65370888},{"name":"玉川税務署裏","province":"東京都","city":"世田谷区","address":"東京都世田谷区玉川1丁目17-16","lat":35.6109593,"lon":139.63239465},{"name":"用賀駅入口","province":"東京都","city":"世田谷区","address":"東京都世田谷区用賀4丁目1-1","lat":35.62773212,"lon":139.63556271},{"name":"二子玉川交番前","province":"東京都","city":"世田谷区","address":"東京都世田谷区玉川2丁目21-1","lat":35.61247163,"lon":139.62860169},{"name":"千歳烏山駅入口","province":"東京都","city":"世田谷区","address":"東京都世田谷区南烏山4丁目12-12","lat":35.66962044,"lon":139.60085577},{"name":"烏山総合支所入口","province":"東京都","city":"世田谷区","address":"東京都世田谷区北烏山6丁目10-3","lat":35.67127848,"lon":139.59759486},{"name":"烏山町下宿","province":"東京都","city":"世田谷区","address":"東京都世田谷区南烏山3丁目25-15","lat":35.67277033,"lon":139.6085384},{"name":"船橋町","province":"東京都","city":"世田谷区","address":"東京都世田谷区船橋1丁目38-12","lat":35.64867896,"lon":139.61803017},{"name":"成城","province":"東京都","city":"世田谷区","address":"東京都世田谷区成城2丁目15-1","lat":35.63680225,"lon":139.59995712},{"name":"ＮＨＫ技研前","province":"東京都","city":"世田谷区","address":"東京都世田谷区砧1丁目10-11","lat":35.63563619,"lon":139.61565595},{"name":"八幡山駅前","province":"東京都","city":"世田谷区","address":"東京都世田谷区上北沢2丁目1-7","lat":35.6691044,"lon":139.61775449},{"name":"塚戸小学校入口","province":"東京都","city":"世田谷区","address":"東京都世田谷区千歳台5丁目7-12","lat":35.65610284,"lon":139.60959165},{"name":"世田谷清掃工場前","province":"東京都","city":"世田谷区","address":"東京都世田谷区大蔵1丁目1-1","lat":35.63325336,"lon":139.62285544},{"name":"成城駅南","province":"東京都","city":"世田谷区","address":"東京都世田谷区成城2丁目39-7","lat":35.63988792,"lon":139.59936534},{"name":"岡本一丁目","province":"東京都","city":"世田谷区","address":"東京都世田谷区岡本3丁目8-17","lat":35.62620429,"lon":139.61738973},{"name":"千歳中前","province":"東京都","city":"世田谷区","address":"東京都世田谷区千歳台6丁目15-1","lat":35.6584469,"lon":139.60619462},{"name":"上北沢駅入口第三","province":"東京都","city":"世田谷区","address":"東京都世田谷区上北沢4丁目18-19","lat":35.67036833,"lon":139.62336513},{"name":"南烏山五丁目","province":"東京都","city":"世田谷区","address":"東京都世田谷区南烏山5丁目20-16","lat":35.6666653,"lon":139.60290292},{"name":"北烏山九丁目","province":"東京都","city":"世田谷区","address":"東京都世田谷区北烏山6丁目11","lat":35.67202004,"lon":139.59656714},{"name":"千歳船橋駅ガード北","province":"東京都","city":"世田谷区","address":"東京都世田谷区桜丘5丁目47-23","lat":35.64701536,"lon":139.62181327},{"name":"松葉通り高速下","province":"東京都","city":"世田谷区","address":"東京都世田谷区北烏山3丁目26-27","lat":35.67743619,"lon":139.59965283},{"name":"烏山駅前第二","province":"東京都","city":"世田谷区","address":"東京都世田谷区南烏山6丁目4-21","lat":35.66947875,"lon":139.59973086},{"name":"都立松沢病院前","province":"東京都","city":"世田谷区","address":"東京都世田谷区上北沢2丁目1-1","lat":35.66712968,"lon":139.61960719},{"name":"烏山駅南","province":"東京都","city":"世田谷区","address":"東京都世田谷区南烏山5丁目16-1","lat":35.6671291,"lon":139.60205298},{"name":"烏山総合支所前","province":"東京都","city":"世田谷区","address":"東京都世田谷区南烏山6丁目22-14","lat":35.66980644,"lon":139.59797266},{"name":"祖師ヶ谷大蔵駅南","province":"東京都","city":"世田谷区","address":"東京都世田谷区砧8丁目8-21","lat":35.64211845,"lon":139.60852843},{"name":"国立成育医療センター前","province":"東京都","city":"世田谷区","address":"東京都世田谷区大蔵2丁目10-1","lat":35.63375585,"lon":139.61269523},{"name":"千歳台六丁目","province":"東京都","city":"世田谷区","address":"東京都世田谷区千歳台6丁目16","lat":35.65767205,"lon":139.60803617},{"name":"砧総合支所前","province":"東京都","city":"世田谷区","address":"東京都世田谷区成城6丁目3-11","lat":35.64084616,"lon":139.60071798},{"name":"久我山盲学校前","province":"東京都","city":"世田谷区","address":"東京都世田谷区北烏山4丁目36-14","lat":35.68145231,"lon":139.59689458},{"name":"砧浄水場","province":"東京都","city":"世田谷区","address":"東京都世田谷区喜多見2丁目9-1","lat":35.6229239,"lon":139.5939617},{"name":"和田堀給水所","province":"東京都","city":"世田谷区","address":"東京都世田谷区大原2丁目30-43","lat":35.67019982,"lon":139.65752341},{"name":"玉川給水所","province":"東京都","city":"世田谷区","address":"東京都世田谷区玉川田園調布1丁目19-1","lat":35.60087176,"lon":139.66091715},{"name":"大蔵給水所","province":"東京都","city":"世田谷区","address":"東京都世田谷区砧2丁目8-1","lat":35.64285742,"lon":139.61625833},{"name":"駒沢給水所","province":"東京都","city":"世田谷区","address":"東京都世田谷区弦巻2丁目41-5","lat":35.63358721,"lon":139.65076123},{"name":"区立葭根公園","province":"東京都","city":"世田谷区","address":"東京都世田谷区船橋6丁目21","lat":35.65803078,"lon":139.62247115},{"name":"都立祖師谷公園","province":"東京都","city":"世田谷区","address":"東京都世田谷区上祖師谷4丁目2","lat":35.65340555,"lon":139.59748436},{"name":"区立中町二丁目公園","province":"東京都","city":"世田谷区","address":"東京都世田谷区中町2丁目34-1","lat":35.61159799,"lon":139.64116853},{"name":"\"伊藤商事株式会社 葬儀部 \"","province":"東京都","city":"世田谷区","address":"東京都世田谷区松原3丁目30-12","lat":35.66652758,"lon":139.64192207},{"name":"有限会社　メーユー上原葬儀社","province":"東京都","city":"世田谷区","address":"東京都世田谷区梅丘3丁目10-12","lat":35.65251006,"lon":139.65491308},{"name":"\"金子総本店 \"","province":"東京都","city":"世田谷区","address":"東京都世田谷区北沢3丁目31-2","lat":35.66454236,"lon":139.66686446},{"name":"株式会社　佐久間本店","province":"東京都","city":"世田谷区","address":"東京都世田谷区成城6丁目6-3","lat":35.64015449,"lon":139.59726549},{"name":"\"株式会社　佐久間本店 千歳船橋営業所 \"","province":"東京都","city":"世田谷区","address":"東京都世田谷区桜丘2丁目27-11","lat":35.64673208,"lon":139.6225521},{"name":"\"有限会社　佐藤葬祭 \"","province":"東京都","city":"世田谷区","address":"東京都世田谷区北沢5丁目34-14","lat":35.67164994,"lon":139.66833631},{"name":"有限会社　嶋田葬祭","province":"東京都","city":"世田谷区","address":"東京都世田谷区池尻3丁目4-2","lat":35.65009162,"lon":139.68287748},{"name":"\"株式会社　経堂 清水葬祭 \"","province":"東京都","city":"世田谷区","address":"東京都世田谷区経堂1丁目5-9","lat":35.64839896,"lon":139.63626198},{"name":"城西葬祭　株式会社","province":"東京都","city":"世田谷区","address":"東京都世田谷区野沢2丁目13-2","lat":35.63249609,"lon":139.66918473},{"name":"\"株式会社　杉田フューネス \"","province":"東京都","city":"世田谷区","address":"東京都世田谷区上北沢4丁目33-3","lat":35.66985709,"lon":139.61745449},{"name":"\"有限会社　曽根葬祭 \"","province":"東京都","city":"世田谷区","address":"東京都世田谷区下馬4丁目2-12","lat":35.63487384,"lon":139.67952824},{"name":"\"有限会社　野﨑商店 \"","province":"東京都","city":"世田谷区","address":"東京都世田谷区豪徳寺1丁目8-7","lat":35.65171273,"lon":139.64650547},{"name":"有限会社　平野屋葬祭","province":"東京都","city":"世田谷区","address":"東京都世田谷区大原1丁目17-12","lat":35.66876124,"lon":139.66331185},{"name":"株式会社　ムラカミ","province":"東京都","city":"世田谷区","address":"東京都世田谷区宮坂3丁目28-2","lat":35.65414266,"lon":139.63350925},{"name":"株式会社　沼崎商会","province":"東京都","city":"世田谷区","address":"東京都世田谷区尾山台3丁目9-6","lat":35.60391554,"lon":139.65227599},{"name":"三軒茶屋","province":"東京都","city":"世田谷区","address":"東京都世田谷区太子堂2丁目15-4","lat":35.6439337,"lon":139.671137},{"name":"池尻","province":"東京都","city":"世田谷区","address":"東京都世田谷区池尻2丁目34-15","lat":35.64856954,"lon":139.68128321},{"name":"三宿町","province":"東京都","city":"世田谷区","address":"東京都世田谷区太子堂1丁目4-36","lat":35.64660579,"lon":139.67773636},{"name":"太子堂","province":"東京都","city":"世田谷区","address":"東京都世田谷区三軒茶屋1丁目41-11","lat":35.64393097,"lon":139.67259799},{"name":"上町駅前","province":"東京都","city":"世田谷区","address":"東京都世田谷区世田谷3丁目3","lat":35.64311379,"lon":139.64777229},{"name":"中里駅前","province":"東京都","city":"世田谷区","address":"東京都世田谷区上馬1丁目16-6","lat":35.63860092,"lon":139.66756248},{"name":"松陰神社入口","province":"東京都","city":"世田谷区","address":"東京都世田谷区若林3丁目17-1","lat":35.64242517,"lon":139.65506896},{"name":"世田谷区役所入口","province":"東京都","city":"世田谷区","address":"東京都世田谷区世田谷4丁目5-2","lat":35.64262509,"lon":139.65310244},{"name":"栄通り入口","province":"東京都","city":"世田谷区","address":"東京都世田谷区三軒茶屋1丁目32-11","lat":35.64244498,"lon":139.67032323},{"name":"世田谷交番前","province":"東京都","city":"世田谷区","address":"東京都世田谷区世田谷4丁目7-10","lat":35.64271948,"lon":139.65119981},{"name":"下ノ谷","province":"東京都","city":"世田谷区","address":"東京都世田谷区太子堂2丁目24-6","lat":35.64631118,"lon":139.66993981},{"name":"駒沢中学校角","province":"東京都","city":"世田谷区","address":"東京都世田谷区駒沢2丁目43-11","lat":35.63691477,"lon":139.6564496},{"name":"三軒茶屋第二","province":"東京都","city":"世田谷区","address":"東京都世田谷区太子堂4丁目1-1","lat":35.64413642,"lon":139.66925105},{"name":"三軒茶屋第三","province":"東京都","city":"世田谷区","address":"東京都世田谷区太子堂4丁目1-1","lat":35.64413642,"lon":139.66925105},{"name":"桜丘四丁目","province":"東京都","city":"世田谷区","address":"東京都世田谷区桜丘4丁目1-11","lat":35.6381166,"lon":139.62407176},{"name":"世田谷警察署前","province":"東京都","city":"世田谷区","address":"東京都世田谷区上馬1丁目32-12","lat":35.63962303,"lon":139.66822072},{"name":"笹原小学校北","province":"東京都","city":"世田谷区","address":"東京都世田谷区桜丘2丁目25-12","lat":35.64655154,"lon":139.62221048},{"name":"三軒茶屋一丁目","province":"東京都","city":"世田谷区","address":"東京都世田谷区三軒茶屋1丁目29-13","lat":35.64138952,"lon":139.66959832},{"name":"世田谷税務署前","province":"東京都","city":"世田谷区","address":"東京都世田谷区世田谷4丁目14-30","lat":35.64493592,"lon":139.65283295},{"name":"上町西","province":"東京都","city":"世田谷区","address":"東京都世田谷区世田谷1丁目25-13","lat":35.64237217,"lon":139.64652797},{"name":"三軒茶屋二丁目","province":"東京都","city":"世田谷区","address":"東京都世田谷区上馬2丁目29-1","lat":35.63999518,"lon":139.66668473},{"name":"世田谷三丁目","province":"東京都","city":"世田谷区","address":"東京都世田谷区世田谷3丁目20-1","lat":35.64524416,"lon":139.65044979},{"name":"松丘小学校南","province":"東京都","city":"世田谷区","address":"東京都世田谷区弦巻4丁目28-14","lat":35.63740048,"lon":139.64369503},{"name":"千歳船橋東","province":"東京都","city":"世田谷区","address":"東京都世田谷区経堂4丁目17-7","lat":35.64748763,"lon":139.62513796},{"name":"桜木中学校南","province":"東京都","city":"世田谷区","address":"東京都世田谷区世田谷2丁目20-8","lat":35.64255816,"lon":139.6425783},{"name":"松原六丁目","province":"東京都","city":"世田谷区","address":"東京都世田谷区松原6丁目35-2","lat":35.65697329,"lon":139.64866347},{"name":"代沢十字路","province":"東京都","city":"世田谷区","address":"東京都世田谷区代沢4丁目4-3","lat":35.65093835,"lon":139.66742319},{"name":"梅丘二丁目","province":"東京都","city":"世田谷区","address":"東京都世田谷区梅丘1丁目62-16","lat":35.6525461,"lon":139.65221609},{"name":"下北沢駅入口","province":"東京都","city":"世田谷区","address":"東京都世田谷区北沢2丁目5-10","lat":35.66077617,"lon":139.66906162},{"name":"梅ヶ丘駅入口西","province":"東京都","city":"世田谷区","address":"東京都世田谷区梅丘1丁目35-1","lat":35.65633733,"lon":139.65209098},{"name":"都立梅ヶ丘病院前","province":"東京都","city":"世田谷区","address":"東京都世田谷区松原6丁目37-1","lat":35.65717331,"lon":139.65047998},{"name":"経堂五丁目北","province":"東京都","city":"世田谷区","address":"東京都世田谷区経堂4丁目32-11","lat":35.64905422,"lon":139.62862649},{"name":"梅ヶ丘駅西","province":"東京都","city":"世田谷区","address":"東京都世田谷区梅丘1丁目24-14","lat":35.65554576,"lon":139.65249375},{"name":"経堂駅北口","province":"東京都","city":"世田谷区","address":"東京都世田谷区宮坂3丁目11-12","lat":35.65195968,"lon":139.63757287},{"name":"二子玉川駅","province":"東京都","city":"世田谷区","address":"東京都世田谷区玉川3丁目17-1","lat":35.61477548,"lon":139.62682563},{"name":"駒沢","province":"東京都","city":"世田谷区","address":"東京都世田谷区駒沢4丁目18-16","lat":35.63081265,"lon":139.65634142},{"name":"尾山台駅前","province":"東京都","city":"世田谷区","address":"東京都世田谷区等々力5丁目6-7","lat":35.60773734,"lon":139.65354794},{"name":"神学院下","province":"東京都","city":"世田谷区","address":"東京都世田谷区用賀1丁目12","lat":35.62236057,"lon":139.64017644},{"name":"等々力三丁目","province":"東京都","city":"世田谷区","address":"東京都世田谷区等々力4丁目24-8","lat":35.61098973,"lon":139.65256734},{"name":"区立ひまわり荘","province":"東京都","city":"世田谷区","address":"東京都世田谷区上用賀6丁目3-6","lat":35.63301457,"lon":139.62573849},{"name":"奥沢駅前","province":"東京都","city":"世田谷区","address":"東京都世田谷区奥沢3丁目31-11","lat":35.60255247,"lon":139.67201894},{"name":"上野毛まちづくりセンター","province":"東京都","city":"世田谷区","address":"東京都世田谷区中町2丁目35-9","lat":35.61138412,"lon":139.64170458},{"name":"用賀神社前","province":"東京都","city":"世田谷区","address":"東京都世田谷区用賀2丁目35-13","lat":35.62625731,"lon":139.63623496},{"name":"用賀駅前","province":"東京都","city":"世田谷区","address":"東京都世田谷区用賀2丁目39-17","lat":35.62643782,"lon":139.63428512},{"name":"桜町小学校西","province":"東京都","city":"世田谷区","address":"東京都世田谷区用賀1丁目14","lat":35.62281051,"lon":139.6385238},{"name":"桜新町駅前","province":"東京都","city":"世田谷区","address":"東京都世田谷区新町2丁目38-14","lat":35.63155399,"lon":139.64528951},{"name":"吉沢橋","province":"東京都","city":"世田谷区","address":"東京都世田谷区鎌田3丁目19-1","lat":35.61811111,"lon":139.61959289},{"name":"尾山台駅入口","province":"東京都","city":"世田谷区","address":"東京都世田谷区等々力4丁目24-17","lat":35.61167856,"lon":139.65370888},{"name":"玉川税務署裏","province":"東京都","city":"世田谷区","address":"東京都世田谷区玉川1丁目17-16","lat":35.6109593,"lon":139.63239465},{"name":"用賀駅入口","province":"東京都","city":"世田谷区","address":"東京都世田谷区用賀4丁目1-1","lat":35.62773212,"lon":139.63556271},{"name":"二子玉川交番前","province":"東京都","city":"世田谷区","address":"東京都世田谷区玉川2丁目21-1","lat":35.61247163,"lon":139.62860169},{"name":"千歳烏山駅入口","province":"東京都","city":"世田谷区","address":"東京都世田谷区南烏山4丁目12-12","lat":35.66962044,"lon":139.60085577},{"name":"烏山総合支所入口","province":"東京都","city":"世田谷区","address":"東京都世田谷区北烏山6丁目10-3","lat":35.67127848,"lon":139.59759486},{"name":"烏山町下宿","province":"東京都","city":"世田谷区","address":"東京都世田谷区南烏山3丁目25-15","lat":35.67277033,"lon":139.6085384},{"name":"船橋町","province":"東京都","city":"世田谷区","address":"東京都世田谷区船橋1丁目38-12","lat":35.64867896,"lon":139.61803017},{"name":"成城","province":"東京都","city":"世田谷区","address":"東京都世田谷区成城2丁目15-1","lat":35.63680225,"lon":139.59995712},{"name":"ＮＨＫ技研前","province":"東京都","city":"世田谷区","address":"東京都世田谷区砧1丁目10-11","lat":35.63563619,"lon":139.61565595},{"name":"八幡山駅前","province":"東京都","city":"世田谷区","address":"東京都世田谷区上北沢2丁目1-7","lat":35.6691044,"lon":139.61775449},{"name":"塚戸小学校入口","province":"東京都","city":"世田谷区","address":"東京都世田谷区千歳台5丁目7-12","lat":35.65610284,"lon":139.60959165},{"name":"世田谷清掃工場前","province":"東京都","city":"世田谷区","address":"東京都世田谷区大蔵1丁目1-1","lat":35.63325336,"lon":139.62285544},{"name":"成城駅南","province":"東京都","city":"世田谷区","address":"東京都世田谷区成城2丁目39-7","lat":35.63988792,"lon":139.59936534},{"name":"岡本一丁目","province":"東京都","city":"世田谷区","address":"東京都世田谷区岡本3丁目8-17","lat":35.62620429,"lon":139.61738973},{"name":"千歳中前","province":"東京都","city":"世田谷区","address":"東京都世田谷区千歳台6丁目15-1","lat":35.6584469,"lon":139.60619462},{"name":"上北沢駅入口第三","province":"東京都","city":"世田谷区","address":"東京都世田谷区上北沢4丁目18-19","lat":35.67036833,"lon":139.62336513},{"name":"南烏山五丁目","province":"東京都","city":"世田谷区","address":"東京都世田谷区南烏山5丁目20-16","lat":35.6666653,"lon":139.60290292},{"name":"北烏山九丁目","province":"東京都","city":"世田谷区","address":"東京都世田谷区北烏山6丁目11","lat":35.67202004,"lon":139.59656714},{"name":"千歳船橋駅ガード北","province":"東京都","city":"世田谷区","address":"東京都世田谷区桜丘5丁目47-23","lat":35.64701536,"lon":139.62181327},{"name":"松葉通り高速下","province":"東京都","city":"世田谷区","address":"東京都世田谷区北烏山3丁目26-27","lat":35.67743619,"lon":139.59965283},{"name":"烏山駅前第二","province":"東京都","city":"世田谷区","address":"東京都世田谷区南烏山6丁目4-21","lat":35.66947875,"lon":139.59973086},{"name":"都立松沢病院前","province":"東京都","city":"世田谷区","address":"東京都世田谷区上北沢2丁目1-1","lat":35.66712968,"lon":139.61960719},{"name":"烏山駅南","province":"東京都","city":"世田谷区","address":"東京都世田谷区南烏山5丁目16-1","lat":35.6671291,"lon":139.60205298},{"name":"烏山総合支所前","province":"東京都","city":"世田谷区","address":"東京都世田谷区南烏山6丁目22-14","lat":35.66980644,"lon":139.59797266},{"name":"祖師ヶ谷大蔵駅南","province":"東京都","city":"世田谷区","address":"東京都世田谷区砧8丁目8-21","lat":35.64211845,"lon":139.60852843},{"name":"国立成育医療センター前","province":"東京都","city":"世田谷区","address":"東京都世田谷区大蔵2丁目10-1","lat":35.63375585,"lon":139.61269523},{"name":"千歳台六丁目","province":"東京都","city":"世田谷区","address":"東京都世田谷区千歳台6丁目16","lat":35.65767205,"lon":139.60803617},{"name":"砧総合支所前","province":"東京都","city":"世田谷区","address":"東京都世田谷区成城6丁目3-11","lat":35.64084616,"lon":139.60071798},{"name":"久我山盲学校前","province":"東京都","city":"世田谷区","address":"東京都世田谷区北烏山4丁目36-14","lat":35.68145231,"lon":139.59689458},{"name":"砧浄水場","province":"東京都","city":"世田谷区","address":"東京都世田谷区喜多見2丁目9-1","lat":35.6229239,"lon":139.5939617},{"name":"和田堀給水所","province":"東京都","city":"世田谷区","address":"東京都世田谷区大原2丁目30-43","lat":35.67019982,"lon":139.65752341},{"name":"玉川給水所","province":"東京都","city":"世田谷区","address":"東京都世田谷区玉川田園調布1丁目19-1","lat":35.60087176,"lon":139.66091715},{"name":"大蔵給水所","province":"東京都","city":"世田谷区","address":"東京都世田谷区砧2丁目8-1","lat":35.64285742,"lon":139.61625833},{"name":"駒沢給水所","province":"東京都","city":"世田谷区","address":"東京都世田谷区弦巻2丁目41-5","lat":35.63358721,"lon":139.65076123},{"name":"区立葭根公園","province":"東京都","city":"世田谷区","address":"東京都世田谷区船橋6丁目21","lat":35.65803078,"lon":139.62247115},{"name":"都立祖師谷公園","province":"東京都","city":"世田谷区","address":"東京都世田谷区上祖師谷4丁目2","lat":35.65340555,"lon":139.59748436},{"name":"区立中町二丁目公園","province":"東京都","city":"世田谷区","address":"東京都世田谷区中町2丁目34-1","lat":35.61159799,"lon":139.64116853},{"name":"\"伊藤商事株式会社 葬儀部 \"","province":"東京都","city":"世田谷区","address":"東京都世田谷区松原3丁目30-12","lat":35.66652758,"lon":139.64192207},{"name":"有限会社　メーユー上原葬儀社","province":"東京都","city":"世田谷区","address":"東京都世田谷区梅丘3丁目10-12","lat":35.65251006,"lon":139.65491308},{"name":"\"金子総本店 \"","province":"東京都","city":"世田谷区","address":"東京都世田谷区北沢3丁目31-2","lat":35.66454236,"lon":139.66686446},{"name":"株式会社　佐久間本店","province":"東京都","city":"世田谷区","address":"東京都世田谷区成城6丁目6-3","lat":35.64015449,"lon":139.59726549},{"name":"\"株式会社　佐久間本店 千歳船橋営業所 \"","province":"東京都","city":"世田谷区","address":"東京都世田谷区桜丘2丁目27-11","lat":35.64673208,"lon":139.6225521},{"name":"\"有限会社　佐藤葬祭 \"","province":"東京都","city":"世田谷区","address":"東京都世田谷区北沢5丁目34-14","lat":35.67164994,"lon":139.66833631},{"name":"有限会社　嶋田葬祭","province":"東京都","city":"世田谷区","address":"東京都世田谷区池尻3丁目4-2","lat":35.65009162,"lon":139.68287748},{"name":"\"株式会社　経堂 清水葬祭 \"","province":"東京都","city":"世田谷区","address":"東京都世田谷区経堂1丁目5-9","lat":35.64839896,"lon":139.63626198},{"name":"城西葬祭　株式会社","province":"東京都","city":"世田谷区","address":"東京都世田谷区野沢2丁目13-2","lat":35.63249609,"lon":139.66918473},{"name":"\"株式会社　杉田フューネス \"","province":"東京都","city":"世田谷区","address":"東京都世田谷区上北沢4丁目33-3","lat":35.66985709,"lon":139.61745449},{"name":"\"有限会社　曽根葬祭 \"","province":"東京都","city":"世田谷区","address":"東京都世田谷区下馬4丁目2-12","lat":35.63487384,"lon":139.67952824},{"name":"\"有限会社　野﨑商店 \"","province":"東京都","city":"世田谷区","address":"東京都世田谷区豪徳寺1丁目8-7","lat":35.65171273,"lon":139.64650547},{"name":"有限会社　平野屋葬祭","province":"東京都","city":"世田谷区","address":"東京都世田谷区大原1丁目17-12","lat":35.66876124,"lon":139.66331185},{"name":"株式会社　ムラカミ","province":"東京都","city":"世田谷区","address":"東京都世田谷区宮坂3丁目28-2","lat":35.65414266,"lon":139.63350925},{"name":"株式会社　沼崎商会","province":"東京都","city":"世田谷区","address":"東京都世田谷区尾山台3丁目9-6","lat":35.60391554,"lon":139.65227599},{"name":"三軒茶屋","province":"東京都","city":"世田谷区","address":"東京都世田谷区太子堂2丁目15-4","lat":35.6439337,"lon":139.671137},{"name":"池尻","province":"東京都","city":"世田谷区","address":"東京都世田谷区池尻2丁目34-15","lat":35.64856954,"lon":139.68128321},{"name":"三宿町","province":"東京都","city":"世田谷区","address":"東京都世田谷区太子堂1丁目4-36","lat":35.64660579,"lon":139.67773636},{"name":"太子堂","province":"東京都","city":"世田谷区","address":"東京都世田谷区三軒茶屋1丁目41-11","lat":35.64393097,"lon":139.67259799},{"name":"上町駅前","province":"東京都","city":"世田谷区","address":"東京都世田谷区世田谷3丁目3","lat":35.64311379,"lon":139.64777229},{"name":"中里駅前","province":"東京都","city":"世田谷区","address":"東京都世田谷区上馬1丁目16-6","lat":35.63860092,"lon":139.66756248},{"name":"松陰神社入口","province":"東京都","city":"世田谷区","address":"東京都世田谷区若林3丁目17-1","lat":35.64242517,"lon":139.65506896},{"name":"世田谷区役所入口","province":"東京都","city":"世田谷区","address":"東京都世田谷区世田谷4丁目5-2","lat":35.64262509,"lon":139.65310244},{"name":"栄通り入口","province":"東京都","city":"世田谷区","address":"東京都世田谷区三軒茶屋1丁目32-11","lat":35.64244498,"lon":139.67032323},{"name":"世田谷交番前","province":"東京都","city":"世田谷区","address":"東京都世田谷区世田谷4丁目7-10","lat":35.64271948,"lon":139.65119981},{"name":"下ノ谷","province":"東京都","city":"世田谷区","address":"東京都世田谷区太子堂2丁目24-6","lat":35.64631118,"lon":139.66993981},{"name":"駒沢中学校角","province":"東京都","city":"世田谷区","address":"東京都世田谷区駒沢2丁目43-11","lat":35.63691477,"lon":139.6564496},{"name":"三軒茶屋第二","province":"東京都","city":"世田谷区","address":"東京都世田谷区太子堂4丁目1-1","lat":35.64413642,"lon":139.66925105},{"name":"三軒茶屋第三","province":"東京都","city":"世田谷区","address":"東京都世田谷区太子堂4丁目1-1","lat":35.64413642,"lon":139.66925105},{"name":"桜丘四丁目","province":"東京都","city":"世田谷区","address":"東京都世田谷区桜丘4丁目1-11","lat":35.6381166,"lon":139.62407176},{"name":"世田谷警察署前","province":"東京都","city":"世田谷区","address":"東京都世田谷区上馬1丁目32-12","lat":35.63962303,"lon":139.66822072},{"name":"笹原小学校北","province":"東京都","city":"世田谷区","address":"東京都世田谷区桜丘2丁目25-12","lat":35.64655154,"lon":139.62221048},{"name":"三軒茶屋一丁目","province":"東京都","city":"世田谷区","address":"東京都世田谷区三軒茶屋1丁目29-13","lat":35.64138952,"lon":139.66959832},{"name":"世田谷税務署前","province":"東京都","city":"世田谷区","address":"東京都世田谷区世田谷4丁目14-30","lat":35.64493592,"lon":139.65283295},{"name":"上町西","province":"東京都","city":"世田谷区","address":"東京都世田谷区世田谷1丁目25-13","lat":35.64237217,"lon":139.64652797},{"name":"三軒茶屋二丁目","province":"東京都","city":"世田谷区","address":"東京都世田谷区上馬2丁目29-1","lat":35.63999518,"lon":139.66668473},{"name":"世田谷三丁目","province":"東京都","city":"世田谷区","address":"東京都世田谷区世田谷3丁目20-1","lat":35.64524416,"lon":139.65044979},{"name":"松丘小学校南","province":"東京都","city":"世田谷区","address":"東京都世田谷区弦巻4丁目28-14","lat":35.63740048,"lon":139.64369503},{"name":"千歳船橋東","province":"東京都","city":"世田谷区","address":"東京都世田谷区経堂4丁目17-7","lat":35.64748763,"lon":139.62513796},{"name":"桜木中学校南","province":"東京都","city":"世田谷区","address":"東京都世田谷区世田谷2丁目20-8","lat":35.64255816,"lon":139.6425783},{"name":"松原六丁目","province":"東京都","city":"世田谷区","address":"東京都世田谷区松原6丁目35-2","lat":35.65697329,"lon":139.64866347},{"name":"代沢十字路","province":"東京都","city":"世田谷区","address":"東京都世田谷区代沢4丁目4-3","lat":35.65093835,"lon":139.66742319},{"name":"梅丘二丁目","province":"東京都","city":"世田谷区","address":"東京都世田谷区梅丘1丁目62-16","lat":35.6525461,"lon":139.65221609},{"name":"下北沢駅入口","province":"東京都","city":"世田谷区","address":"東京都世田谷区北沢2丁目5-10","lat":35.66077617,"lon":139.66906162},{"name":"梅ヶ丘駅入口西","province":"東京都","city":"世田谷区","address":"東京都世田谷区梅丘1丁目35-1","lat":35.65633733,"lon":139.65209098},{"name":"都立梅ヶ丘病院前","province":"東京都","city":"世田谷区","address":"東京都世田谷区松原6丁目37-1","lat":35.65717331,"lon":139.65047998},{"name":"経堂五丁目北","province":"東京都","city":"世田谷区","address":"東京都世田谷区経堂4丁目32-11","lat":35.64905422,"lon":139.62862649},{"name":"梅ヶ丘駅西","province":"東京都","city":"世田谷区","address":"東京都世田谷区梅丘1丁目24-14","lat":35.65554576,"lon":139.65249375},{"name":"経堂駅北口","province":"東京都","city":"世田谷区","address":"東京都世田谷区宮坂3丁目11-12","lat":35.65195968,"lon":139.63757287},{"name":"二子玉川駅","province":"東京都","city":"世田谷区","address":"東京都世田谷区玉川3丁目17-1","lat":35.61477548,"lon":139.62682563},{"name":"駒沢","province":"東京都","city":"世田谷区","address":"東京都世田谷区駒沢4丁目18-16","lat":35.63081265,"lon":139.65634142},{"name":"尾山台駅前","province":"東京都","city":"世田谷区","address":"東京都世田谷区等々力5丁目6-7","lat":35.60773734,"lon":139.65354794},{"name":"神学院下","province":"東京都","city":"世田谷区","address":"東京都世田谷区用賀1丁目12","lat":35.62236057,"lon":139.64017644},{"name":"等々力三丁目","province":"東京都","city":"世田谷区","address":"東京都世田谷区等々力4丁目24-8","lat":35.61098973,"lon":139.65256734},{"name":"区立ひまわり荘","province":"東京都","city":"世田谷区","address":"東京都世田谷区上用賀6丁目3-6","lat":35.63301457,"lon":139.62573849},{"name":"奥沢駅前","province":"東京都","city":"世田谷区","address":"東京都世田谷区奥沢3丁目31-11","lat":35.60255247,"lon":139.67201894},{"name":"上野毛まちづくりセンター","province":"東京都","city":"世田谷区","address":"東京都世田谷区中町2丁目35-9","lat":35.61138412,"lon":139.64170458},{"name":"用賀神社前","province":"東京都","city":"世田谷区","address":"東京都世田谷区用賀2丁目35-13","lat":35.62625731,"lon":139.63623496},{"name":"用賀駅前","province":"東京都","city":"世田谷区","address":"東京都世田谷区用賀2丁目39-17","lat":35.62643782,"lon":139.63428512},{"name":"桜町小学校西","province":"東京都","city":"世田谷区","address":"東京都世田谷区用賀1丁目14","lat":35.62281051,"lon":139.6385238},{"name":"桜新町駅前","province":"東京都","city":"世田谷区","address":"東京都世田谷区新町2丁目38-14","lat":35.63155399,"lon":139.64528951},{"name":"吉沢橋","province":"東京都","city":"世田谷区","address":"東京都世田谷区鎌田3丁目19-1","lat":35.61811111,"lon":139.61959289},{"name":"尾山台駅入口","province":"東京都","city":"世田谷区","address":"東京都世田谷区等々力4丁目24-17","lat":35.61167856,"lon":139.65370888},{"name":"玉川税務署裏","province":"東京都","city":"世田谷区","address":"東京都世田谷区玉川1丁目17-16","lat":35.6109593,"lon":139.63239465},{"name":"用賀駅入口","province":"東京都","city":"世田谷区","address":"東京都世田谷区用賀4丁目1-1","lat":35.62773212,"lon":139.63556271},{"name":"二子玉川交番前","province":"東京都","city":"世田谷区","address":"東京都世田谷区玉川2丁目21-1","lat":35.61247163,"lon":139.62860169},{"name":"千歳烏山駅入口","province":"東京都","city":"世田谷区","address":"東京都世田谷区南烏山4丁目12-12","lat":35.66962044,"lon":139.60085577},{"name":"烏山総合支所入口","province":"東京都","city":"世田谷区","address":"東京都世田谷区北烏山6丁目10-3","lat":35.67127848,"lon":139.59759486},{"name":"烏山町下宿","province":"東京都","city":"世田谷区","address":"東京都世田谷区南烏山3丁目25-15","lat":35.67277033,"lon":139.6085384},{"name":"船橋町","province":"東京都","city":"世田谷区","address":"東京都世田谷区船橋1丁目38-12","lat":35.64867896,"lon":139.61803017},{"name":"成城","province":"東京都","city":"世田谷区","address":"東京都世田谷区成城2丁目15-1","lat":35.63680225,"lon":139.59995712},{"name":"ＮＨＫ技研前","province":"東京都","city":"世田谷区","address":"東京都世田谷区砧1丁目10-11","lat":35.63563619,"lon":139.61565595},{"name":"八幡山駅前","province":"東京都","city":"世田谷区","address":"東京都世田谷区上北沢2丁目1-7","lat":35.6691044,"lon":139.61775449},{"name":"塚戸小学校入口","province":"東京都","city":"世田谷区","address":"東京都世田谷区千歳台5丁目7-12","lat":35.65610284,"lon":139.60959165},{"name":"世田谷清掃工場前","province":"東京都","city":"世田谷区","address":"東京都世田谷区大蔵1丁目1-1","lat":35.63325336,"lon":139.62285544},{"name":"成城駅南","province":"東京都","city":"世田谷区","address":"東京都世田谷区成城2丁目39-7","lat":35.63988792,"lon":139.59936534},{"name":"岡本一丁目","province":"東京都","city":"世田谷区","address":"東京都世田谷区岡本3丁目8-17","lat":35.62620429,"lon":139.61738973},{"name":"千歳中前","province":"東京都","city":"世田谷区","address":"東京都世田谷区千歳台6丁目15-1","lat":35.6584469,"lon":139.60619462},{"name":"上北沢駅入口第三","province":"東京都","city":"世田谷区","address":"東京都世田谷区上北沢4丁目18-19","lat":35.67036833,"lon":139.62336513},{"name":"南烏山五丁目","province":"東京都","city":"世田谷区","address":"東京都世田谷区南烏山5丁目20-16","lat":35.6666653,"lon":139.60290292},{"name":"北烏山九丁目","province":"東京都","city":"世田谷区","address":"東京都世田谷区北烏山6丁目11","lat":35.67202004,"lon":139.59656714},{"name":"千歳船橋駅ガード北","province":"東京都","city":"世田谷区","address":"東京都世田谷区桜丘5丁目47-23","lat":35.64701536,"lon":139.62181327},{"name":"松葉通り高速下","province":"東京都","city":"世田谷区","address":"東京都世田谷区北烏山3丁目26-27","lat":35.67743619,"lon":139.59965283},{"name":"烏山駅前第二","province":"東京都","city":"世田谷区","address":"東京都世田谷区南烏山6丁目4-21","lat":35.66947875,"lon":139.59973086},{"name":"都立松沢病院前","province":"東京都","city":"世田谷区","address":"東京都世田谷区上北沢2丁目1-1","lat":35.66712968,"lon":139.61960719},{"name":"烏山駅南","province":"東京都","city":"世田谷区","address":"東京都世田谷区南烏山5丁目16-1","lat":35.6671291,"lon":139.60205298},{"name":"烏山総合支所前","province":"東京都","city":"世田谷区","address":"東京都世田谷区南烏山6丁目22-14","lat":35.66980644,"lon":139.59797266},{"name":"祖師ヶ谷大蔵駅南","province":"東京都","city":"世田谷区","address":"東京都世田谷区砧8丁目8-21","lat":35.64211845,"lon":139.60852843},{"name":"国立成育医療センター前","province":"東京都","city":"世田谷区","address":"東京都世田谷区大蔵2丁目10-1","lat":35.63375585,"lon":139.61269523},{"name":"千歳台六丁目","province":"東京都","city":"世田谷区","address":"東京都世田谷区千歳台6丁目16","lat":35.65767205,"lon":139.60803617},{"name":"砧総合支所前","province":"東京都","city":"世田谷区","address":"東京都世田谷区成城6丁目3-11","lat":35.64084616,"lon":139.60071798},{"name":"久我山盲学校前","province":"東京都","city":"世田谷区","address":"東京都世田谷区北烏山4丁目36-14","lat":35.68145231,"lon":139.59689458},{"name":"砧浄水場","province":"東京都","city":"世田谷区","address":"東京都世田谷区喜多見2丁目9-1","lat":35.6229239,"lon":139.5939617},{"name":"和田堀給水所","province":"東京都","city":"世田谷区","address":"東京都世田谷区大原2丁目30-43","lat":35.67019982,"lon":139.65752341},{"name":"玉川給水所","province":"東京都","city":"世田谷区","address":"東京都世田谷区玉川田園調布1丁目19-1","lat":35.60087176,"lon":139.66091715},{"name":"大蔵給水所","province":"東京都","city":"世田谷区","address":"東京都世田谷区砧2丁目8-1","lat":35.64285742,"lon":139.61625833},{"name":"駒沢給水所","province":"東京都","city":"世田谷区","address":"東京都世田谷区弦巻2丁目41-5","lat":35.63358721,"lon":139.65076123},{"name":"区立葭根公園","province":"東京都","city":"世田谷区","address":"東京都世田谷区船橋6丁目21","lat":35.65803078,"lon":139.62247115},{"name":"都立祖師谷公園","province":"東京都","city":"世田谷区","address":"東京都世田谷区上祖師谷4丁目2","lat":35.65340555,"lon":139.59748436},{"name":"区立中町二丁目公園","province":"東京都","city":"世田谷区","address":"東京都世田谷区中町2丁目34-1","lat":35.61159799,"lon":139.64116853},{"name":"\"伊藤商事株式会社 葬儀部 \"","province":"東京都","city":"世田谷区","address":"東京都世田谷区松原3丁目30-12","lat":35.66652758,"lon":139.64192207},{"name":"有限会社　メーユー上原葬儀社","province":"東京都","city":"世田谷区","address":"東京都世田谷区梅丘3丁目10-12","lat":35.65251006,"lon":139.65491308},{"name":"\"金子総本店 \"","province":"東京都","city":"世田谷区","address":"東京都世田谷区北沢3丁目31-2","lat":35.66454236,"lon":139.66686446},{"name":"株式会社　佐久間本店","province":"東京都","city":"世田谷区","address":"東京都世田谷区成城6丁目6-3","lat":35.64015449,"lon":139.59726549},{"name":"\"株式会社　佐久間本店 千歳船橋営業所 \"","province":"東京都","city":"世田谷区","address":"東京都世田谷区桜丘2丁目27-11","lat":35.64673208,"lon":139.6225521},{"name":"\"有限会社　佐藤葬祭 \"","province":"東京都","city":"世田谷区","address":"東京都世田谷区北沢5丁目34-14","lat":35.67164994,"lon":139.66833631},{"name":"有限会社　嶋田葬祭","province":"東京都","city":"世田谷区","address":"東京都世田谷区池尻3丁目4-2","lat":35.65009162,"lon":139.68287748},{"name":"\"株式会社　経堂 清水葬祭 \"","province":"東京都","city":"世田谷区","address":"東京都世田谷区経堂1丁目5-9","lat":35.64839896,"lon":139.63626198},{"name":"城西葬祭　株式会社","province":"東京都","city":"世田谷区","address":"東京都世田谷区野沢2丁目13-2","lat":35.63249609,"lon":139.66918473},{"name":"\"株式会社　杉田フューネス \"","province":"東京都","city":"世田谷区","address":"東京都世田谷区上北沢4丁目33-3","lat":35.66985709,"lon":139.61745449},{"name":"\"有限会社　曽根葬祭 \"","province":"東京都","city":"世田谷区","address":"東京都世田谷区下馬4丁目2-12","lat":35.63487384,"lon":139.67952824},{"name":"\"有限会社　野﨑商店 \"","province":"東京都","city":"世田谷区","address":"東京都世田谷区豪徳寺1丁目8-7","lat":35.65171273,"lon":139.64650547},{"name":"有限会社　平野屋葬祭","province":"東京都","city":"世田谷区","address":"東京都世田谷区大原1丁目17-12","lat":35.66876124,"lon":139.66331185},{"name":"株式会社　ムラカミ","province":"東京都","city":"世田谷区","address":"東京都世田谷区宮坂3丁目28-2","lat":35.65414266,"lon":139.63350925},{"name":"株式会社　沼崎商会","province":"東京都","city":"世田谷区","address":"東京都世田谷区尾山台3丁目9-6","lat":35.60391554,"lon":139.65227599},{"name":"三軒茶屋","province":"東京都","city":"世田谷区","address":"東京都世田谷区太子堂2丁目15-4","lat":35.6439337,"lon":139.671137},{"name":"池尻","province":"東京都","city":"世田谷区","address":"東京都世田谷区池尻2丁目34-15","lat":35.64856954,"lon":139.68128321},{"name":"三宿町","province":"東京都","city":"世田谷区","address":"東京都世田谷区太子堂1丁目4-36","lat":35.64660579,"lon":139.67773636},{"name":"太子堂","province":"東京都","city":"世田谷区","address":"東京都世田谷区三軒茶屋1丁目41-11","lat":35.64393097,"lon":139.67259799},{"name":"上町駅前","province":"東京都","city":"世田谷区","address":"東京都世田谷区世田谷3丁目3","lat":35.64311379,"lon":139.64777229},{"name":"中里駅前","province":"東京都","city":"世田谷区","address":"東京都世田谷区上馬1丁目16-6","lat":35.63860092,"lon":139.66756248},{"name":"松陰神社入口","province":"東京都","city":"世田谷区","address":"東京都世田谷区若林3丁目17-1","lat":35.64242517,"lon":139.65506896},{"name":"世田谷区役所入口","province":"東京都","city":"世田谷区","address":"東京都世田谷区世田谷4丁目5-2","lat":35.64262509,"lon":139.65310244},{"name":"栄通り入口","province":"東京都","city":"世田谷区","address":"東京都世田谷区三軒茶屋1丁目32-11","lat":35.64244498,"lon":139.67032323},{"name":"世田谷交番前","province":"東京都","city":"世田谷区","address":"東京都世田谷区世田谷4丁目7-10","lat":35.64271948,"lon":139.65119981},{"name":"下ノ谷","province":"東京都","city":"世田谷区","address":"東京都世田谷区太子堂2丁目24-6","lat":35.64631118,"lon":139.66993981},{"name":"駒沢中学校角","province":"東京都","city":"世田谷区","address":"東京都世田谷区駒沢2丁目43-11","lat":35.63691477,"lon":139.6564496},{"name":"三軒茶屋第二","province":"東京都","city":"世田谷区","address":"東京都世田谷区太子堂4丁目1-1","lat":35.64413642,"lon":139.66925105},{"name":"三軒茶屋第三","province":"東京都","city":"世田谷区","address":"東京都世田谷区太子堂4丁目1-1","lat":35.64413642,"lon":139.66925105},{"name":"桜丘四丁目","province":"東京都","city":"世田谷区","address":"東京都世田谷区桜丘4丁目1-11","lat":35.6381166,"lon":139.62407176},{"name":"世田谷警察署前","province":"東京都","city":"世田谷区","address":"東京都世田谷区上馬1丁目32-12","lat":35.63962303,"lon":139.66822072},{"name":"笹原小学校北","province":"東京都","city":"世田谷区","address":"東京都世田谷区桜丘2丁目25-12","lat":35.64655154,"lon":139.62221048},{"name":"三軒茶屋一丁目","province":"東京都","city":"世田谷区","address":"東京都世田谷区三軒茶屋1丁目29-13","lat":35.64138952,"lon":139.66959832},{"name":"世田谷税務署前","province":"東京都","city":"世田谷区","address":"東京都世田谷区世田谷4丁目14-30","lat":35.64493592,"lon":139.65283295},{"name":"上町西","province":"東京都","city":"世田谷区","address":"東京都世田谷区世田谷1丁目25-13","lat":35.64237217,"lon":139.64652797},{"name":"三軒茶屋二丁目","province":"東京都","city":"世田谷区","address":"東京都世田谷区上馬2丁目29-1","lat":35.63999518,"lon":139.66668473},{"name":"世田谷三丁目","province":"東京都","city":"世田谷区","address":"東京都世田谷区世田谷3丁目20-1","lat":35.64524416,"lon":139.65044979},{"name":"松丘小学校南","province":"東京都","city":"世田谷区","address":"東京都世田谷区弦巻4丁目28-14","lat":35.63740048,"lon":139.64369503},{"name":"千歳船橋東","province":"東京都","city":"世田谷区","address":"東京都世田谷区経堂4丁目17-7","lat":35.64748763,"lon":139.62513796},{"name":"桜木中学校南","province":"東京都","city":"世田谷区","address":"東京都世田谷区世田谷2丁目20-8","lat":35.64255816,"lon":139.6425783},{"name":"松原六丁目","province":"東京都","city":"世田谷区","address":"東京都世田谷区松原6丁目35-2","lat":35.65697329,"lon":139.64866347},{"name":"代沢十字路","province":"東京都","city":"世田谷区","address":"東京都世田谷区代沢4丁目4-3","lat":35.65093835,"lon":139.66742319},{"name":"梅丘二丁目","province":"東京都","city":"世田谷区","address":"東京都世田谷区梅丘1丁目62-16","lat":35.6525461,"lon":139.65221609},{"name":"下北沢駅入口","province":"東京都","city":"世田谷区","address":"東京都世田谷区北沢2丁目5-10","lat":35.66077617,"lon":139.66906162},{"name":"梅ヶ丘駅入口西","province":"東京都","city":"世田谷区","address":"東京都世田谷区梅丘1丁目35-1","lat":35.65633733,"lon":139.65209098},{"name":"都立梅ヶ丘病院前","province":"東京都","city":"世田谷区","address":"東京都世田谷区松原6丁目37-1","lat":35.65717331,"lon":139.65047998},{"name":"経堂五丁目北","province":"東京都","city":"世田谷区","address":"東京都世田谷区経堂4丁目32-11","lat":35.64905422,"lon":139.62862649},{"name":"梅ヶ丘駅西","province":"東京都","city":"世田谷区","address":"東京都世田谷区梅丘1丁目24-14","lat":35.65554576,"lon":139.65249375},{"name":"経堂駅北口","province":"東京都","city":"世田谷区","address":"東京都世田谷区宮坂3丁目11-12","lat":35.65195968,"lon":139.63757287},{"name":"二子玉川駅","province":"東京都","city":"世田谷区","address":"東京都世田谷区玉川3丁目17-1","lat":35.61477548,"lon":139.62682563},{"name":"駒沢","province":"東京都","city":"世田谷区","address":"東京都世田谷区駒沢4丁目18-16","lat":35.63081265,"lon":139.65634142},{"name":"尾山台駅前","province":"東京都","city":"世田谷区","address":"東京都世田谷区等々力5丁目6-7","lat":35.60773734,"lon":139.65354794},{"name":"神学院下","province":"東京都","city":"世田谷区","address":"東京都世田谷区用賀1丁目12","lat":35.62236057,"lon":139.64017644},{"name":"等々力三丁目","province":"東京都","city":"世田谷区","address":"東京都世田谷区等々力4丁目24-8","lat":35.61098973,"lon":139.65256734},{"name":"区立ひまわり荘","province":"東京都","city":"世田谷区","address":"東京都世田谷区上用賀6丁目3-6","lat":35.63301457,"lon":139.62573849},{"name":"奥沢駅前","province":"東京都","city":"世田谷区","address":"東京都世田谷区奥沢3丁目31-11","lat":35.60255247,"lon":139.67201894},{"name":"上野毛まちづくりセンター","province":"東京都","city":"世田谷区","address":"東京都世田谷区中町2丁目35-9","lat":35.61138412,"lon":139.64170458},{"name":"用賀神社前","province":"東京都","city":"世田谷区","address":"東京都世田谷区用賀2丁目35-13","lat":35.62625731,"lon":139.63623496},{"name":"用賀駅前","province":"東京都","city":"世田谷区","address":"東京都世田谷区用賀2丁目39-17","lat":35.62643782,"lon":139.63428512},{"name":"桜町小学校西","province":"東京都","city":"世田谷区","address":"東京都世田谷区用賀1丁目14","lat":35.62281051,"lon":139.6385238},{"name":"桜新町駅前","province":"東京都","city":"世田谷区","address":"東京都世田谷区新町2丁目38-14","lat":35.63155399,"lon":139.64528951},{"name":"吉沢橋","province":"東京都","city":"世田谷区","address":"東京都世田谷区鎌田3丁目19-1","lat":35.61811111,"lon":139.61959289},{"name":"尾山台駅入口","province":"東京都","city":"世田谷区","address":"東京都世田谷区等々力4丁目24-17","lat":35.61167856,"lon":139.65370888},{"name":"玉川税務署裏","province":"東京都","city":"世田谷区","address":"東京都世田谷区玉川1丁目17-16","lat":35.6109593,"lon":139.63239465},{"name":"用賀駅入口","province":"東京都","city":"世田谷区","address":"東京都世田谷区用賀4丁目1-1","lat":35.62773212,"lon":139.63556271},{"name":"二子玉川交番前","province":"東京都","city":"世田谷区","address":"東京都世田谷区玉川2丁目21-1","lat":35.61247163,"lon":139.62860169},{"name":"千歳烏山駅入口","province":"東京都","city":"世田谷区","address":"東京都世田谷区南烏山4丁目12-12","lat":35.66962044,"lon":139.60085577},{"name":"烏山総合支所入口","province":"東京都","city":"世田谷区","address":"東京都世田谷区北烏山6丁目10-3","lat":35.67127848,"lon":139.59759486},{"name":"烏山町下宿","province":"東京都","city":"世田谷区","address":"東京都世田谷区南烏山3丁目25-15","lat":35.67277033,"lon":139.6085384},{"name":"船橋町","province":"東京都","city":"世田谷区","address":"東京都世田谷区船橋1丁目38-12","lat":35.64867896,"lon":139.61803017},{"name":"成城","province":"東京都","city":"世田谷区","address":"東京都世田谷区成城2丁目15-1","lat":35.63680225,"lon":139.59995712},{"name":"ＮＨＫ技研前","province":"東京都","city":"世田谷区","address":"東京都世田谷区砧1丁目10-11","lat":35.63563619,"lon":139.61565595},{"name":"八幡山駅前","province":"東京都","city":"世田谷区","address":"東京都世田谷区上北沢2丁目1-7","lat":35.6691044,"lon":139.61775449},{"name":"塚戸小学校入口","province":"東京都","city":"世田谷区","address":"東京都世田谷区千歳台5丁目7-12","lat":35.65610284,"lon":139.60959165},{"name":"世田谷清掃工場前","province":"東京都","city":"世田谷区","address":"東京都世田谷区大蔵1丁目1-1","lat":35.63325336,"lon":139.62285544},{"name":"成城駅南","province":"東京都","city":"世田谷区","address":"東京都世田谷区成城2丁目39-7","lat":35.63988792,"lon":139.59936534},{"name":"岡本一丁目","province":"東京都","city":"世田谷区","address":"東京都世田谷区岡本3丁目8-17","lat":35.62620429,"lon":139.61738973},{"name":"千歳中前","province":"東京都","city":"世田谷区","address":"東京都世田谷区千歳台6丁目15-1","lat":35.6584469,"lon":139.60619462},{"name":"上北沢駅入口第三","province":"東京都","city":"世田谷区","address":"東京都世田谷区上北沢4丁目18-19","lat":35.67036833,"lon":139.62336513},{"name":"南烏山五丁目","province":"東京都","city":"世田谷区","address":"東京都世田谷区南烏山5丁目20-16","lat":35.6666653,"lon":139.60290292},{"name":"北烏山九丁目","province":"東京都","city":"世田谷区","address":"東京都世田谷区北烏山6丁目11","lat":35.67202004,"lon":139.59656714},{"name":"千歳船橋駅ガード北","province":"東京都","city":"世田谷区","address":"東京都世田谷区桜丘5丁目47-23","lat":35.64701536,"lon":139.62181327},{"name":"松葉通り高速下","province":"東京都","city":"世田谷区","address":"東京都世田谷区北烏山3丁目26-27","lat":35.67743619,"lon":139.59965283},{"name":"烏山駅前第二","province":"東京都","city":"世田谷区","address":"東京都世田谷区南烏山6丁目4-21","lat":35.66947875,"lon":139.59973086},{"name":"都立松沢病院前","province":"東京都","city":"世田谷区","address":"東京都世田谷区上北沢2丁目1-1","lat":35.66712968,"lon":139.61960719},{"name":"烏山駅南","province":"東京都","city":"世田谷区","address":"東京都世田谷区南烏山5丁目16-1","lat":35.6671291,"lon":139.60205298},{"name":"烏山総合支所前","province":"東京都","city":"世田谷区","address":"東京都世田谷区南烏山6丁目22-14","lat":35.66980644,"lon":139.59797266},{"name":"祖師ヶ谷大蔵駅南","province":"東京都","city":"世田谷区","address":"東京都世田谷区砧8丁目8-21","lat":35.64211845,"lon":139.60852843},{"name":"国立成育医療センター前","province":"東京都","city":"世田谷区","address":"東京都世田谷区大蔵2丁目10-1","lat":35.63375585,"lon":139.61269523},{"name":"千歳台六丁目","province":"東京都","city":"世田谷区","address":"東京都世田谷区千歳台6丁目16","lat":35.65767205,"lon":139.60803617},{"name":"砧総合支所前","province":"東京都","city":"世田谷区","address":"東京都世田谷区成城6丁目3-11","lat":35.64084616,"lon":139.60071798},{"name":"久我山盲学校前","province":"東京都","city":"世田谷区","address":"東京都世田谷区北烏山4丁目36-14","lat":35.68145231,"lon":139.59689458},{"name":"砧浄水場","province":"東京都","city":"世田谷区","address":"東京都世田谷区喜多見2丁目9-1","lat":35.6229239,"lon":139.5939617},{"name":"和田堀給水所","province":"東京都","city":"世田谷区","address":"東京都世田谷区大原2丁目30-43","lat":35.67019982,"lon":139.65752341},{"name":"玉川給水所","province":"東京都","city":"世田谷区","address":"東京都世田谷区玉川田園調布1丁目19-1","lat":35.60087176,"lon":139.66091715},{"name":"大蔵給水所","province":"東京都","city":"世田谷区","address":"東京都世田谷区砧2丁目8-1","lat":35.64285742,"lon":139.61625833},{"name":"駒沢給水所","province":"東京都","city":"世田谷区","address":"東京都世田谷区弦巻2丁目41-5","lat":35.63358721,"lon":139.65076123},{"name":"区立葭根公園","province":"東京都","city":"世田谷区","address":"東京都世田谷区船橋6丁目21","lat":35.65803078,"lon":139.62247115},{"name":"都立祖師谷公園","province":"東京都","city":"世田谷区","address":"東京都世田谷区上祖師谷4丁目2","lat":35.65340555,"lon":139.59748436},{"name":"区立中町二丁目公園","province":"東京都","city":"世田谷区","address":"東京都世田谷区中町2丁目34-1","lat":35.61159799,"lon":139.64116853},{"name":"\"伊藤商事株式会社 葬儀部 \"","province":"東京都","city":"世田谷区","address":"東京都世田谷区松原3丁目30-12","lat":35.66652758,"lon":139.64192207},{"name":"有限会社　メーユー上原葬儀社","province":"東京都","city":"世田谷区","address":"東京都世田谷区梅丘3丁目10-12","lat":35.65251006,"lon":139.65491308},{"name":"\"金子総本店 \"","province":"東京都","city":"世田谷区","address":"東京都世田谷区北沢3丁目31-2","lat":35.66454236,"lon":139.66686446},{"name":"株式会社　佐久間本店","province":"東京都","city":"世田谷区","address":"東京都世田谷区成城6丁目6-3","lat":35.64015449,"lon":139.59726549},{"name":"\"株式会社　佐久間本店 千歳船橋営業所 \"","province":"東京都","city":"世田谷区","address":"東京都世田谷区桜丘2丁目27-11","lat":35.64673208,"lon":139.6225521},{"name":"\"有限会社　佐藤葬祭 \"","province":"東京都","city":"世田谷区","address":"東京都世田谷区北沢5丁目34-14","lat":35.67164994,"lon":139.66833631},{"name":"有限会社　嶋田葬祭","province":"東京都","city":"世田谷区","address":"東京都世田谷区池尻3丁目4-2","lat":35.65009162,"lon":139.68287748},{"name":"\"株式会社　経堂 清水葬祭 \"","province":"東京都","city":"世田谷区","address":"東京都世田谷区経堂1丁目5-9","lat":35.64839896,"lon":139.63626198},{"name":"城西葬祭　株式会社","province":"東京都","city":"世田谷区","address":"東京都世田谷区野沢2丁目13-2","lat":35.63249609,"lon":139.66918473},{"name":"\"株式会社　杉田フューネス \"","province":"東京都","city":"世田谷区","address":"東京都世田谷区上北沢4丁目33-3","lat":35.66985709,"lon":139.61745449},{"name":"\"有限会社　曽根葬祭 \"","province":"東京都","city":"世田谷区","address":"東京都世田谷区下馬4丁目2-12","lat":35.63487384,"lon":139.67952824},{"name":"\"有限会社　野﨑商店 \"","province":"東京都","city":"世田谷区","address":"東京都世田谷区豪徳寺1丁目8-7","lat":35.65171273,"lon":139.64650547},{"name":"有限会社　平野屋葬祭","province":"東京都","city":"世田谷区","address":"東京都世田谷区大原1丁目17-12","lat":35.66876124,"lon":139.66331185},{"name":"株式会社　ムラカミ","province":"東京都","city":"世田谷区","address":"東京都世田谷区宮坂3丁目28-2","lat":35.65414266,"lon":139.63350925},{"name":"株式会社　沼崎商会","province":"東京都","city":"世田谷区","address":"東京都世田谷区尾山台3丁目9-6","lat":35.60391554,"lon":139.65227599},{"name":"三軒茶屋","province":"東京都","city":"世田谷区","address":"東京都世田谷区太子堂2丁目15-4","lat":35.6439337,"lon":139.671137},{"name":"池尻","province":"東京都","city":"世田谷区","address":"東京都世田谷区池尻2丁目34-15","lat":35.64856954,"lon":139.68128321},{"name":"三宿町","province":"東京都","city":"世田谷区","address":"東京都世田谷区太子堂1丁目4-36","lat":35.64660579,"lon":139.67773636},{"name":"太子堂","province":"東京都","city":"世田谷区","address":"東京都世田谷区三軒茶屋1丁目41-11","lat":35.64393097,"lon":139.67259799},{"name":"上町駅前","province":"東京都","city":"世田谷区","address":"東京都世田谷区世田谷3丁目3","lat":35.64311379,"lon":139.64777229},{"name":"中里駅前","province":"東京都","city":"世田谷区","address":"東京都世田谷区上馬1丁目16-6","lat":35.63860092,"lon":139.66756248},{"name":"松陰神社入口","province":"東京都","city":"世田谷区","address":"東京都世田谷区若林3丁目17-1","lat":35.64242517,"lon":139.65506896},{"name":"世田谷区役所入口","province":"東京都","city":"世田谷区","address":"東京都世田谷区世田谷4丁目5-2","lat":35.64262509,"lon":139.65310244},{"name":"栄通り入口","province":"東京都","city":"世田谷区","address":"東京都世田谷区三軒茶屋1丁目32-11","lat":35.64244498,"lon":139.67032323},{"name":"世田谷交番前","province":"東京都","city":"世田谷区","address":"東京都世田谷区世田谷4丁目7-10","lat":35.64271948,"lon":139.65119981},{"name":"下ノ谷","province":"東京都","city":"世田谷区","address":"東京都世田谷区太子堂2丁目24-6","lat":35.64631118,"lon":139.66993981},{"name":"駒沢中学校角","province":"東京都","city":"世田谷区","address":"東京都世田谷区駒沢2丁目43-11","lat":35.63691477,"lon":139.6564496},{"name":"三軒茶屋第二","province":"東京都","city":"世田谷区","address":"東京都世田谷区太子堂4丁目1-1","lat":35.64413642,"lon":139.66925105},{"name":"三軒茶屋第三","province":"東京都","city":"世田谷区","address":"東京都世田谷区太子堂4丁目1-1","lat":35.64413642,"lon":139.66925105},{"name":"桜丘四丁目","province":"東京都","city":"世田谷区","address":"東京都世田谷区桜丘4丁目1-11","lat":35.6381166,"lon":139.62407176},{"name":"世田谷警察署前","province":"東京都","city":"世田谷区","address":"東京都世田谷区上馬1丁目32-12","lat":35.63962303,"lon":139.66822072},{"name":"笹原小学校北","province":"東京都","city":"世田谷区","address":"東京都世田谷区桜丘2丁目25-12","lat":35.64655154,"lon":139.62221048},{"name":"三軒茶屋一丁目","province":"東京都","city":"世田谷区","address":"東京都世田谷区三軒茶屋1丁目29-13","lat":35.64138952,"lon":139.66959832},{"name":"世田谷税務署前","province":"東京都","city":"世田谷区","address":"東京都世田谷区世田谷4丁目14-30","lat":35.64493592,"lon":139.65283295},{"name":"上町西","province":"東京都","city":"世田谷区","address":"東京都世田谷区世田谷1丁目25-13","lat":35.64237217,"lon":139.64652797},{"name":"三軒茶屋二丁目","province":"東京都","city":"世田谷区","address":"東京都世田谷区上馬2丁目29-1","lat":35.63999518,"lon":139.66668473},{"name":"世田谷三丁目","province":"東京都","city":"世田谷区","address":"東京都世田谷区世田谷3丁目20-1","lat":35.64524416,"lon":139.65044979},{"name":"松丘小学校南","province":"東京都","city":"世田谷区","address":"東京都世田谷区弦巻4丁目28-14","lat":35.63740048,"lon":139.64369503},{"name":"千歳船橋東","province":"東京都","city":"世田谷区","address":"東京都世田谷区経堂4丁目17-7","lat":35.64748763,"lon":139.62513796},{"name":"桜木中学校南","province":"東京都","city":"世田谷区","address":"東京都世田谷区世田谷2丁目20-8","lat":35.64255816,"lon":139.6425783},{"name":"松原六丁目","province":"東京都","city":"世田谷区","address":"東京都世田谷区松原6丁目35-2","lat":35.65697329,"lon":139.64866347},{"name":"代沢十字路","province":"東京都","city":"世田谷区","address":"東京都世田谷区代沢4丁目4-3","lat":35.65093835,"lon":139.66742319},{"name":"梅丘二丁目","province":"東京都","city":"世田谷区","address":"東京都世田谷区梅丘1丁目62-16","lat":35.6525461,"lon":139.65221609},{"name":"下北沢駅入口","province":"東京都","city":"世田谷区","address":"東京都世田谷区北沢2丁目5-10","lat":35.66077617,"lon":139.66906162},{"name":"梅ヶ丘駅入口西","province":"東京都","city":"世田谷区","address":"東京都世田谷区梅丘1丁目35-1","lat":35.65633733,"lon":139.65209098},{"name":"都立梅ヶ丘病院前","province":"東京都","city":"世田谷区","address":"東京都世田谷区松原6丁目37-1","lat":35.65717331,"lon":139.65047998},{"name":"経堂五丁目北","province":"東京都","city":"世田谷区","address":"東京都世田谷区経堂4丁目32-11","lat":35.64905422,"lon":139.62862649},{"name":"梅ヶ丘駅西","province":"東京都","city":"世田谷区","address":"東京都世田谷区梅丘1丁目24-14","lat":35.65554576,"lon":139.65249375},{"name":"経堂駅北口","province":"東京都","city":"世田谷区","address":"東京都世田谷区宮坂3丁目11-12","lat":35.65195968,"lon":139.63757287},{"name":"二子玉川駅","province":"東京都","city":"世田谷区","address":"東京都世田谷区玉川3丁目17-1","lat":35.61477548,"lon":139.62682563},{"name":"駒沢","province":"東京都","city":"世田谷区","address":"東京都世田谷区駒沢4丁目18-16","lat":35.63081265,"lon":139.65634142},{"name":"尾山台駅前","province":"東京都","city":"世田谷区","address":"東京都世田谷区等々力5丁目6-7","lat":35.60773734,"lon":139.65354794},{"name":"神学院下","province":"東京都","city":"世田谷区","address":"東京都世田谷区用賀1丁目12","lat":35.62236057,"lon":139.64017644},{"name":"等々力三丁目","province":"東京都","city":"世田谷区","address":"東京都世田谷区等々力4丁目24-8","lat":35.61098973,"lon":139.65256734},{"name":"区立ひまわり荘","province":"東京都","city":"世田谷区","address":"東京都世田谷区上用賀6丁目3-6","lat":35.63301457,"lon":139.62573849},{"name":"奥沢駅前","province":"東京都","city":"世田谷区","address":"東京都世田谷区奥沢3丁目31-11","lat":35.60255247,"lon":139.67201894},{"name":"上野毛まちづくりセンター","province":"東京都","city":"世田谷区","address":"東京都世田谷区中町2丁目35-9","lat":35.61138412,"lon":139.64170458},{"name":"用賀神社前","province":"東京都","city":"世田谷区","address":"東京都世田谷区用賀2丁目35-13","lat":35.62625731,"lon":139.63623496},{"name":"用賀駅前","province":"東京都","city":"世田谷区","address":"東京都世田谷区用賀2丁目39-17","lat":35.62643782,"lon":139.63428512},{"name":"桜町小学校西","province":"東京都","city":"世田谷区","address":"東京都世田谷区用賀1丁目14","lat":35.62281051,"lon":139.6385238},{"name":"桜新町駅前","province":"東京都","city":"世田谷区","address":"東京都世田谷区新町2丁目38-14","lat":35.63155399,"lon":139.64528951},{"name":"吉沢橋","province":"東京都","city":"世田谷区","address":"東京都世田谷区鎌田3丁目19-1","lat":35.61811111,"lon":139.61959289},{"name":"尾山台駅入口","province":"東京都","city":"世田谷区","address":"東京都世田谷区等々力4丁目24-17","lat":35.61167856,"lon":139.65370888},{"name":"玉川税務署裏","province":"東京都","city":"世田谷区","address":"東京都世田谷区玉川1丁目17-16","lat":35.6109593,"lon":139.63239465},{"name":"用賀駅入口","province":"東京都","city":"世田谷区","address":"東京都世田谷区用賀4丁目1-1","lat":35.62773212,"lon":139.63556271},{"name":"二子玉川交番前","province":"東京都","city":"世田谷区","address":"東京都世田谷区玉川2丁目21-1","lat":35.61247163,"lon":139.62860169},{"name":"千歳烏山駅入口","province":"東京都","city":"世田谷区","address":"東京都世田谷区南烏山4丁目12-12","lat":35.66962044,"lon":139.60085577},{"name":"烏山総合支所入口","province":"東京都","city":"世田谷区","address":"東京都世田谷区北烏山6丁目10-3","lat":35.67127848,"lon":139.59759486},{"name":"烏山町下宿","province":"東京都","city":"世田谷区","address":"東京都世田谷区南烏山3丁目25-15","lat":35.67277033,"lon":139.6085384},{"name":"船橋町","province":"東京都","city":"世田谷区","address":"東京都世田谷区船橋1丁目38-12","lat":35.64867896,"lon":139.61803017},{"name":"成城","province":"東京都","city":"世田谷区","address":"東京都世田谷区成城2丁目15-1","lat":35.63680225,"lon":139.59995712},{"name":"ＮＨＫ技研前","province":"東京都","city":"世田谷区","address":"東京都世田谷区砧1丁目10-11","lat":35.63563619,"lon":139.61565595},{"name":"八幡山駅前","province":"東京都","city":"世田谷区","address":"東京都世田谷区上北沢2丁目1-7","lat":35.6691044,"lon":139.61775449},{"name":"塚戸小学校入口","province":"東京都","city":"世田谷区","address":"東京都世田谷区千歳台5丁目7-12","lat":35.65610284,"lon":139.60959165},{"name":"世田谷清掃工場前","province":"東京都","city":"世田谷区","address":"東京都世田谷区大蔵1丁目1-1","lat":35.63325336,"lon":139.62285544},{"name":"成城駅南","province":"東京都","city":"世田谷区","address":"東京都世田谷区成城2丁目39-7","lat":35.63988792,"lon":139.59936534},{"name":"岡本一丁目","province":"東京都","city":"世田谷区","address":"東京都世田谷区岡本3丁目8-17","lat":35.62620429,"lon":139.61738973},{"name":"千歳中前","province":"東京都","city":"世田谷区","address":"東京都世田谷区千歳台6丁目15-1","lat":35.6584469,"lon":139.60619462},{"name":"上北沢駅入口第三","province":"東京都","city":"世田谷区","address":"東京都世田谷区上北沢4丁目18-19","lat":35.67036833,"lon":139.62336513},{"name":"南烏山五丁目","province":"東京都","city":"世田谷区","address":"東京都世田谷区南烏山5丁目20-16","lat":35.6666653,"lon":139.60290292},{"name":"北烏山九丁目","province":"東京都","city":"世田谷区","address":"東京都世田谷区北烏山6丁目11","lat":35.67202004,"lon":139.59656714},{"name":"千歳船橋駅ガード北","province":"東京都","city":"世田谷区","address":"東京都世田谷区桜丘5丁目47-23","lat":35.64701536,"lon":139.62181327},{"name":"松葉通り高速下","province":"東京都","city":"世田谷区","address":"東京都世田谷区北烏山3丁目26-27","lat":35.67743619,"lon":139.59965283},{"name":"烏山駅前第二","province":"東京都","city":"世田谷区","address":"東京都世田谷区南烏山6丁目4-21","lat":35.66947875,"lon":139.59973086},{"name":"都立松沢病院前","province":"東京都","city":"世田谷区","address":"東京都世田谷区上北沢2丁目1-1","lat":35.66712968,"lon":139.61960719},{"name":"烏山駅南","province":"東京都","city":"世田谷区","address":"東京都世田谷区南烏山5丁目16-1","lat":35.6671291,"lon":139.60205298},{"name":"烏山総合支所前","province":"東京都","city":"世田谷区","address":"東京都世田谷区南烏山6丁目22-14","lat":35.66980644,"lon":139.59797266},{"name":"祖師ヶ谷大蔵駅南","province":"東京都","city":"世田谷区","address":"東京都世田谷区砧8丁目8-21","lat":35.64211845,"lon":139.60852843},{"name":"国立成育医療センター前","province":"東京都","city":"世田谷区","address":"東京都世田谷区大蔵2丁目10-1","lat":35.63375585,"lon":139.61269523},{"name":"千歳台六丁目","province":"東京都","city":"世田谷区","address":"東京都世田谷区千歳台6丁目16","lat":35.65767205,"lon":139.60803617},{"name":"砧総合支所前","province":"東京都","city":"世田谷区","address":"東京都世田谷区成城6丁目3-11","lat":35.64084616,"lon":139.60071798},{"name":"久我山盲学校前","province":"東京都","city":"世田谷区","address":"東京都世田谷区北烏山4丁目36-14","lat":35.68145231,"lon":139.59689458},{"name":"砧浄水場","province":"東京都","city":"世田谷区","address":"東京都世田谷区喜多見2丁目9-1","lat":35.6229239,"lon":139.5939617},{"name":"和田堀給水所","province":"東京都","city":"世田谷区","address":"東京都世田谷区大原2丁目30-43","lat":35.67019982,"lon":139.65752341},{"name":"玉川給水所","province":"東京都","city":"世田谷区","address":"東京都世田谷区玉川田園調布1丁目19-1","lat":35.60087176,"lon":139.66091715},{"name":"大蔵給水所","province":"東京都","city":"世田谷区","address":"東京都世田谷区砧2丁目8-1","lat":35.64285742,"lon":139.61625833},{"name":"駒沢給水所","province":"東京都","city":"世田谷区","address":"東京都世田谷区弦巻2丁目41-5","lat":35.63358721,"lon":139.65076123},{"name":"区立葭根公園","province":"東京都","city":"世田谷区","address":"東京都世田谷区船橋6丁目21","lat":35.65803078,"lon":139.62247115},{"name":"都立祖師谷公園","province":"東京都","city":"世田谷区","address":"東京都世田谷区上祖師谷4丁目2","lat":35.65340555,"lon":139.59748436},{"name":"区立中町二丁目公園","province":"東京都","city":"世田谷区","address":"東京都世田谷区中町2丁目34-1","lat":35.61159799,"lon":139.64116853},{"name":"\"伊藤商事株式会社 葬儀部 \"","province":"東京都","city":"世田谷区","address":"東京都世田谷区松原3丁目30-12","lat":35.66652758,"lon":139.64192207},{"name":"有限会社　メーユー上原葬儀社","province":"東京都","city":"世田谷区","address":"東京都世田谷区梅丘3丁目10-12","lat":35.65251006,"lon":139.65491308},{"name":"\"金子総本店 \"","province":"東京都","city":"世田谷区","address":"東京都世田谷区北沢3丁目31-2","lat":35.66454236,"lon":139.66686446},{"name":"株式会社　佐久間本店","province":"東京都","city":"世田谷区","address":"東京都世田谷区成城6丁目6-3","lat":35.64015449,"lon":139.59726549},{"name":"\"株式会社　佐久間本店 千歳船橋営業所 \"","province":"東京都","city":"世田谷区","address":"東京都世田谷区桜丘2丁目27-11","lat":35.64673208,"lon":139.6225521},{"name":"\"有限会社　佐藤葬祭 \"","province":"東京都","city":"世田谷区","address":"東京都世田谷区北沢5丁目34-14","lat":35.67164994,"lon":139.66833631},{"name":"有限会社　嶋田葬祭","province":"東京都","city":"世田谷区","address":"東京都世田谷区池尻3丁目4-2","lat":35.65009162,"lon":139.68287748},{"name":"\"株式会社　経堂 清水葬祭 \"","province":"東京都","city":"世田谷区","address":"東京都世田谷区経堂1丁目5-9","lat":35.64839896,"lon":139.63626198},{"name":"城西葬祭　株式会社","province":"東京都","city":"世田谷区","address":"東京都世田谷区野沢2丁目13-2","lat":35.63249609,"lon":139.66918473},{"name":"\"株式会社　杉田フューネス \"","province":"東京都","city":"世田谷区","address":"東京都世田谷区上北沢4丁目33-3","lat":35.66985709,"lon":139.61745449},{"name":"\"有限会社　曽根葬祭 \"","province":"東京都","city":"世田谷区","address":"東京都世田谷区下馬4丁目2-12","lat":35.63487384,"lon":139.67952824},{"name":"\"有限会社　野﨑商店 \"","province":"東京都","city":"世田谷区","address":"東京都世田谷区豪徳寺1丁目8-7","lat":35.65171273,"lon":139.64650547},{"name":"有限会社　平野屋葬祭","province":"東京都","city":"世田谷区","address":"東京都世田谷区大原1丁目17-12","lat":35.66876124,"lon":139.66331185},{"name":"株式会社　ムラカミ","province":"東京都","city":"世田谷区","address":"東京都世田谷区宮坂3丁目28-2","lat":35.65414266,"lon":139.63350925},{"name":"株式会社　沼崎商会","province":"東京都","city":"世田谷区","address":"東京都世田谷区尾山台3丁目9-6","lat":35.60391554,"lon":139.65227599},{"name":"三軒茶屋","province":"東京都","city":"世田谷区","address":"東京都世田谷区太子堂2丁目15-4","lat":35.6439337,"lon":139.671137},{"name":"池尻","province":"東京都","city":"世田谷区","address":"東京都世田谷区池尻2丁目34-15","lat":35.64856954,"lon":139.68128321},{"name":"三宿町","province":"東京都","city":"世田谷区","address":"東京都世田谷区太子堂1丁目4-36","lat":35.64660579,"lon":139.67773636},{"name":"太子堂","province":"東京都","city":"世田谷区","address":"東京都世田谷区三軒茶屋1丁目41-11","lat":35.64393097,"lon":139.67259799},{"name":"上町駅前","province":"東京都","city":"世田谷区","address":"東京都世田谷区世田谷3丁目3","lat":35.64311379,"lon":139.64777229},{"name":"中里駅前","province":"東京都","city":"世田谷区","address":"東京都世田谷区上馬1丁目16-6","lat":35.63860092,"lon":139.66756248},{"name":"松陰神社入口","province":"東京都","city":"世田谷区","address":"東京都世田谷区若林3丁目17-1","lat":35.64242517,"lon":139.65506896},{"name":"世田谷区役所入口","province":"東京都","city":"世田谷区","address":"東京都世田谷区世田谷4丁目5-2","lat":35.64262509,"lon":139.65310244},{"name":"栄通り入口","province":"東京都","city":"世田谷区","address":"東京都世田谷区三軒茶屋1丁目32-11","lat":35.64244498,"lon":139.67032323},{"name":"世田谷交番前","province":"東京都","city":"世田谷区","address":"東京都世田谷区世田谷4丁目7-10","lat":35.64271948,"lon":139.65119981},{"name":"下ノ谷","province":"東京都","city":"世田谷区","address":"東京都世田谷区太子堂2丁目24-6","lat":35.64631118,"lon":139.66993981},{"name":"駒沢中学校角","province":"東京都","city":"世田谷区","address":"東京都世田谷区駒沢2丁目43-11","lat":35.63691477,"lon":139.6564496},{"name":"三軒茶屋第二","province":"東京都","city":"世田谷区","address":"東京都世田谷区太子堂4丁目1-1","lat":35.64413642,"lon":139.66925105},{"name":"三軒茶屋第三","province":"東京都","city":"世田谷区","address":"東京都世田谷区太子堂4丁目1-1","lat":35.64413642,"lon":139.66925105},{"name":"桜丘四丁目","province":"東京都","city":"世田谷区","address":"東京都世田谷区桜丘4丁目1-11","lat":35.6381166,"lon":139.62407176},{"name":"世田谷警察署前","province":"東京都","city":"世田谷区","address":"東京都世田谷区上馬1丁目32-12","lat":35.63962303,"lon":139.66822072},{"name":"笹原小学校北","province":"東京都","city":"世田谷区","address":"東京都世田谷区桜丘2丁目25-12","lat":35.64655154,"lon":139.62221048},{"name":"三軒茶屋一丁目","province":"東京都","city":"世田谷区","address":"東京都世田谷区三軒茶屋1丁目29-13","lat":35.64138952,"lon":139.66959832},{"name":"世田谷税務署前","province":"東京都","city":"世田谷区","address":"東京都世田谷区世田谷4丁目14-30","lat":35.64493592,"lon":139.65283295},{"name":"上町西","province":"東京都","city":"世田谷区","address":"東京都世田谷区世田谷1丁目25-13","lat":35.64237217,"lon":139.64652797},{"name":"三軒茶屋二丁目","province":"東京都","city":"世田谷区","address":"東京都世田谷区上馬2丁目29-1","lat":35.63999518,"lon":139.66668473},{"name":"世田谷三丁目","province":"東京都","city":"世田谷区","address":"東京都世田谷区世田谷3丁目20-1","lat":35.64524416,"lon":139.65044979},{"name":"松丘小学校南","province":"東京都","city":"世田谷区","address":"東京都世田谷区弦巻4丁目28-14","lat":35.63740048,"lon":139.64369503},{"name":"千歳船橋東","province":"東京都","city":"世田谷区","address":"東京都世田谷区経堂4丁目17-7","lat":35.64748763,"lon":139.62513796},{"name":"桜木中学校南","province":"東京都","city":"世田谷区","address":"東京都世田谷区世田谷2丁目20-8","lat":35.64255816,"lon":139.6425783},{"name":"松原六丁目","province":"東京都","city":"世田谷区","address":"東京都世田谷区松原6丁目35-2","lat":35.65697329,"lon":139.64866347},{"name":"代沢十字路","province":"東京都","city":"世田谷区","address":"東京都世田谷区代沢4丁目4-3","lat":35.65093835,"lon":139.66742319},{"name":"梅丘二丁目","province":"東京都","city":"世田谷区","address":"東京都世田谷区梅丘1丁目62-16","lat":35.6525461,"lon":139.65221609},{"name":"下北沢駅入口","province":"東京都","city":"世田谷区","address":"東京都世田谷区北沢2丁目5-10","lat":35.66077617,"lon":139.66906162},{"name":"梅ヶ丘駅入口西","province":"東京都","city":"世田谷区","address":"東京都世田谷区梅丘1丁目35-1","lat":35.65633733,"lon":139.65209098},{"name":"都立梅ヶ丘病院前","province":"東京都","city":"世田谷区","address":"東京都世田谷区松原6丁目37-1","lat":35.65717331,"lon":139.65047998},{"name":"経堂五丁目北","province":"東京都","city":"世田谷区","address":"東京都世田谷区経堂4丁目32-11","lat":35.64905422,"lon":139.62862649},{"name":"梅ヶ丘駅西","province":"東京都","city":"世田谷区","address":"東京都世田谷区梅丘1丁目24-14","lat":35.65554576,"lon":139.65249375},{"name":"経堂駅北口","province":"東京都","city":"世田谷区","address":"東京都世田谷区宮坂3丁目11-12","lat":35.65195968,"lon":139.63757287},{"name":"二子玉川駅","province":"東京都","city":"世田谷区","address":"東京都世田谷区玉川3丁目17-1","lat":35.61477548,"lon":139.62682563},{"name":"駒沢","province":"東京都","city":"世田谷区","address":"東京都世田谷区駒沢4丁目18-16","lat":35.63081265,"lon":139.65634142},{"name":"尾山台駅前","province":"東京都","city":"世田谷区","address":"東京都世田谷区等々力5丁目6-7","lat":35.60773734,"lon":139.65354794},{"name":"神学院下","province":"東京都","city":"世田谷区","address":"東京都世田谷区用賀1丁目12","lat":35.62236057,"lon":139.64017644},{"name":"等々力三丁目","province":"東京都","city":"世田谷区","address":"東京都世田谷区等々力4丁目24-8","lat":35.61098973,"lon":139.65256734},{"name":"区立ひまわり荘","province":"東京都","city":"世田谷区","address":"東京都世田谷区上用賀6丁目3-6","lat":35.63301457,"lon":139.62573849},{"name":"奥沢駅前","province":"東京都","city":"世田谷区","address":"東京都世田谷区奥沢3丁目31-11","lat":35.60255247,"lon":139.67201894},{"name":"上野毛まちづくりセンター","province":"東京都","city":"世田谷区","address":"東京都世田谷区中町2丁目35-9","lat":35.61138412,"lon":139.64170458},{"name":"用賀神社前","province":"東京都","city":"世田谷区","address":"東京都世田谷区用賀2丁目35-13","lat":35.62625731,"lon":139.63623496},{"name":"用賀駅前","province":"東京都","city":"世田谷区","address":"東京都世田谷区用賀2丁目39-17","lat":35.62643782,"lon":139.63428512},{"name":"桜町小学校西","province":"東京都","city":"世田谷区","address":"東京都世田谷区用賀1丁目14","lat":35.62281051,"lon":139.6385238},{"name":"桜新町駅前","province":"東京都","city":"世田谷区","address":"東京都世田谷区新町2丁目38-14","lat":35.63155399,"lon":139.64528951},{"name":"吉沢橋","province":"東京都","city":"世田谷区","address":"東京都世田谷区鎌田3丁目19-1","lat":35.61811111,"lon":139.61959289},{"name":"尾山台駅入口","province":"東京都","city":"世田谷区","address":"東京都世田谷区等々力4丁目24-17","lat":35.61167856,"lon":139.65370888},{"name":"玉川税務署裏","province":"東京都","city":"世田谷区","address":"東京都世田谷区玉川1丁目17-16","lat":35.6109593,"lon":139.63239465},{"name":"用賀駅入口","province":"東京都","city":"世田谷区","address":"東京都世田谷区用賀4丁目1-1","lat":35.62773212,"lon":139.63556271},{"name":"二子玉川交番前","province":"東京都","city":"世田谷区","address":"東京都世田谷区玉川2丁目21-1","lat":35.61247163,"lon":139.62860169},{"name":"千歳烏山駅入口","province":"東京都","city":"世田谷区","address":"東京都世田谷区南烏山4丁目12-12","lat":35.66962044,"lon":139.60085577},{"name":"烏山総合支所入口","province":"東京都","city":"世田谷区","address":"東京都世田谷区北烏山6丁目10-3","lat":35.67127848,"lon":139.59759486},{"name":"烏山町下宿","province":"東京都","city":"世田谷区","address":"東京都世田谷区南烏山3丁目25-15","lat":35.67277033,"lon":139.6085384},{"name":"船橋町","province":"東京都","city":"世田谷区","address":"東京都世田谷区船橋1丁目38-12","lat":35.64867896,"lon":139.61803017},{"name":"成城","province":"東京都","city":"世田谷区","address":"東京都世田谷区成城2丁目15-1","lat":35.63680225,"lon":139.59995712},{"name":"ＮＨＫ技研前","province":"東京都","city":"世田谷区","address":"東京都世田谷区砧1丁目10-11","lat":35.63563619,"lon":139.61565595},{"name":"八幡山駅前","province":"東京都","city":"世田谷区","address":"東京都世田谷区上北沢2丁目1-7","lat":35.6691044,"lon":139.61775449},{"name":"塚戸小学校入口","province":"東京都","city":"世田谷区","address":"東京都世田谷区千歳台5丁目7-12","lat":35.65610284,"lon":139.60959165},{"name":"世田谷清掃工場前","province":"東京都","city":"世田谷区","address":"東京都世田谷区大蔵1丁目1-1","lat":35.63325336,"lon":139.62285544},{"name":"成城駅南","province":"東京都","city":"世田谷区","address":"東京都世田谷区成城2丁目39-7","lat":35.63988792,"lon":139.59936534},{"name":"岡本一丁目","province":"東京都","city":"世田谷区","address":"東京都世田谷区岡本3丁目8-17","lat":35.62620429,"lon":139.61738973},{"name":"千歳中前","province":"東京都","city":"世田谷区","address":"東京都世田谷区千歳台6丁目15-1","lat":35.6584469,"lon":139.60619462},{"name":"上北沢駅入口第三","province":"東京都","city":"世田谷区","address":"東京都世田谷区上北沢4丁目18-19","lat":35.67036833,"lon":139.62336513},{"name":"南烏山五丁目","province":"東京都","city":"世田谷区","address":"東京都世田谷区南烏山5丁目20-16","lat":35.6666653,"lon":139.60290292},{"name":"北烏山九丁目","province":"東京都","city":"世田谷区","address":"東京都世田谷区北烏山6丁目11","lat":35.67202004,"lon":139.59656714},{"name":"千歳船橋駅ガード北","province":"東京都","city":"世田谷区","address":"東京都世田谷区桜丘5丁目47-23","lat":35.64701536,"lon":139.62181327},{"name":"松葉通り高速下","province":"東京都","city":"世田谷区","address":"東京都世田谷区北烏山3丁目26-27","lat":35.67743619,"lon":139.59965283},{"name":"烏山駅前第二","province":"東京都","city":"世田谷区","address":"東京都世田谷区南烏山6丁目4-21","lat":35.66947875,"lon":139.59973086},{"name":"都立松沢病院前","province":"東京都","city":"世田谷区","address":"東京都世田谷区上北沢2丁目1-1","lat":35.66712968,"lon":139.61960719},{"name":"烏山駅南","province":"東京都","city":"世田谷区","address":"東京都世田谷区南烏山5丁目16-1","lat":35.6671291,"lon":139.60205298},{"name":"烏山総合支所前","province":"東京都","city":"世田谷区","address":"東京都世田谷区南烏山6丁目22-14","lat":35.66980644,"lon":139.59797266},{"name":"祖師ヶ谷大蔵駅南","province":"東京都","city":"世田谷区","address":"東京都世田谷区砧8丁目8-21","lat":35.64211845,"lon":139.60852843},{"name":"国立成育医療センター前","province":"東京都","city":"世田谷区","address":"東京都世田谷区大蔵2丁目10-1","lat":35.63375585,"lon":139.61269523},{"name":"千歳台六丁目","province":"東京都","city":"世田谷区","address":"東京都世田谷区千歳台6丁目16","lat":35.65767205,"lon":139.60803617},{"name":"砧総合支所前","province":"東京都","city":"世田谷区","address":"東京都世田谷区成城6丁目3-11","lat":35.64084616,"lon":139.60071798},{"name":"久我山盲学校前","province":"東京都","city":"世田谷区","address":"東京都世田谷区北烏山4丁目36-14","lat":35.68145231,"lon":139.59689458},{"name":"砧浄水場","province":"東京都","city":"世田谷区","address":"東京都世田谷区喜多見2丁目9-1","lat":35.6229239,"lon":139.5939617},{"name":"和田堀給水所","province":"東京都","city":"世田谷区","address":"東京都世田谷区大原2丁目30-43","lat":35.67019982,"lon":139.65752341},{"name":"玉川給水所","province":"東京都","city":"世田谷区","address":"東京都世田谷区玉川田園調布1丁目19-1","lat":35.60087176,"lon":139.66091715},{"name":"大蔵給水所","province":"東京都","city":"世田谷区","address":"東京都世田谷区砧2丁目8-1","lat":35.64285742,"lon":139.61625833},{"name":"駒沢給水所","province":"東京都","city":"世田谷区","address":"東京都世田谷区弦巻2丁目41-5","lat":35.63358721,"lon":139.65076123},{"name":"区立葭根公園","province":"東京都","city":"世田谷区","address":"東京都世田谷区船橋6丁目21","lat":35.65803078,"lon":139.62247115},{"name":"都立祖師谷公園","province":"東京都","city":"世田谷区","address":"東京都世田谷区上祖師谷4丁目2","lat":35.65340555,"lon":139.59748436},{"name":"区立中町二丁目公園","province":"東京都","city":"世田谷区","address":"東京都世田谷区中町2丁目34-1","lat":35.61159799,"lon":139.64116853},{"name":"\"伊藤商事株式会社 葬儀部 \"","province":"東京都","city":"世田谷区","address":"東京都世田谷区松原3丁目30-12","lat":35.66652758,"lon":139.64192207},{"name":"有限会社　メーユー上原葬儀社","province":"東京都","city":"世田谷区","address":"東京都世田谷区梅丘3丁目10-12","lat":35.65251006,"lon":139.65491308},{"name":"\"金子総本店 \"","province":"東京都","city":"世田谷区","address":"東京都世田谷区北沢3丁目31-2","lat":35.66454236,"lon":139.66686446},{"name":"株式会社　佐久間本店","province":"東京都","city":"世田谷区","address":"東京都世田谷区成城6丁目6-3","lat":35.64015449,"lon":139.59726549},{"name":"\"株式会社　佐久間本店 千歳船橋営業所 \"","province":"東京都","city":"世田谷区","address":"東京都世田谷区桜丘2丁目27-11","lat":35.64673208,"lon":139.6225521},{"name":"\"有限会社　佐藤葬祭 \"","province":"東京都","city":"世田谷区","address":"東京都世田谷区北沢5丁目34-14","lat":35.67164994,"lon":139.66833631},{"name":"有限会社　嶋田葬祭","province":"東京都","city":"世田谷区","address":"東京都世田谷区池尻3丁目4-2","lat":35.65009162,"lon":139.68287748},{"name":"\"株式会社　経堂 清水葬祭 \"","province":"東京都","city":"世田谷区","address":"東京都世田谷区経堂1丁目5-9","lat":35.64839896,"lon":139.63626198},{"name":"城西葬祭　株式会社","province":"東京都","city":"世田谷区","address":"東京都世田谷区野沢2丁目13-2","lat":35.63249609,"lon":139.66918473},{"name":"\"株式会社　杉田フューネス \"","province":"東京都","city":"世田谷区","address":"東京都世田谷区上北沢4丁目33-3","lat":35.66985709,"lon":139.61745449},{"name":"\"有限会社　曽根葬祭 \"","province":"東京都","city":"世田谷区","address":"東京都世田谷区下馬4丁目2-12","lat":35.63487384,"lon":139.67952824},{"name":"\"有限会社　野﨑商店 \"","province":"東京都","city":"世田谷区","address":"東京都世田谷区豪徳寺1丁目8-7","lat":35.65171273,"lon":139.64650547},{"name":"有限会社　平野屋葬祭","province":"東京都","city":"世田谷区","address":"東京都世田谷区大原1丁目17-12","lat":35.66876124,"lon":139.66331185},{"name":"株式会社　ムラカミ","province":"東京都","city":"世田谷区","address":"東京都世田谷区宮坂3丁目28-2","lat":35.65414266,"lon":139.63350925},{"name":"株式会社　沼崎商会","province":"東京都","city":"世田谷区","address":"東京都世田谷区尾山台3丁目9-6","lat":35.60391554,"lon":139.65227599},{"name":"三軒茶屋","province":"東京都","city":"世田谷区","address":"東京都世田谷区太子堂2丁目15-4","lat":35.6439337,"lon":139.671137},{"name":"池尻","province":"東京都","city":"世田谷区","address":"東京都世田谷区池尻2丁目34-15","lat":35.64856954,"lon":139.68128321},{"name":"三宿町","province":"東京都","city":"世田谷区","address":"東京都世田谷区太子堂1丁目4-36","lat":35.64660579,"lon":139.67773636},{"name":"太子堂","province":"東京都","city":"世田谷区","address":"東京都世田谷区三軒茶屋1丁目41-11","lat":35.64393097,"lon":139.67259799},{"name":"上町駅前","province":"東京都","city":"世田谷区","address":"東京都世田谷区世田谷3丁目3","lat":35.64311379,"lon":139.64777229},{"name":"中里駅前","province":"東京都","city":"世田谷区","address":"東京都世田谷区上馬1丁目16-6","lat":35.63860092,"lon":139.66756248},{"name":"松陰神社入口","province":"東京都","city":"世田谷区","address":"東京都世田谷区若林3丁目17-1","lat":35.64242517,"lon":139.65506896},{"name":"世田谷区役所入口","province":"東京都","city":"世田谷区","address":"東京都世田谷区世田谷4丁目5-2","lat":35.64262509,"lon":139.65310244},{"name":"栄通り入口","province":"東京都","city":"世田谷区","address":"東京都世田谷区三軒茶屋1丁目32-11","lat":35.64244498,"lon":139.67032323},{"name":"世田谷交番前","province":"東京都","city":"世田谷区","address":"東京都世田谷区世田谷4丁目7-10","lat":35.64271948,"lon":139.65119981},{"name":"下ノ谷","province":"東京都","city":"世田谷区","address":"東京都世田谷区太子堂2丁目24-6","lat":35.64631118,"lon":139.66993981},{"name":"駒沢中学校角","province":"東京都","city":"世田谷区","address":"東京都世田谷区駒沢2丁目43-11","lat":35.63691477,"lon":139.6564496},{"name":"三軒茶屋第二","province":"東京都","city":"世田谷区","address":"東京都世田谷区太子堂4丁目1-1","lat":35.64413642,"lon":139.66925105},{"name":"三軒茶屋第三","province":"東京都","city":"世田谷区","address":"東京都世田谷区太子堂4丁目1-1","lat":35.64413642,"lon":139.66925105},{"name":"桜丘四丁目","province":"東京都","city":"世田谷区","address":"東京都世田谷区桜丘4丁目1-11","lat":35.6381166,"lon":139.62407176},{"name":"世田谷警察署前","province":"東京都","city":"世田谷区","address":"東京都世田谷区上馬1丁目32-12","lat":35.63962303,"lon":139.66822072},{"name":"笹原小学校北","province":"東京都","city":"世田谷区","address":"東京都世田谷区桜丘2丁目25-12","lat":35.64655154,"lon":139.62221048},{"name":"三軒茶屋一丁目","province":"東京都","city":"世田谷区","address":"東京都世田谷区三軒茶屋1丁目29-13","lat":35.64138952,"lon":139.66959832},{"name":"世田谷税務署前","province":"東京都","city":"世田谷区","address":"東京都世田谷区世田谷4丁目14-30","lat":35.64493592,"lon":139.65283295},{"name":"上町西","province":"東京都","city":"世田谷区","address":"東京都世田谷区世田谷1丁目25-13","lat":35.64237217,"lon":139.64652797},{"name":"三軒茶屋二丁目","province":"東京都","city":"世田谷区","address":"東京都世田谷区上馬2丁目29-1","lat":35.63999518,"lon":139.66668473},{"name":"世田谷三丁目","province":"東京都","city":"世田谷区","address":"東京都世田谷区世田谷3丁目20-1","lat":35.64524416,"lon":139.65044979},{"name":"松丘小学校南","province":"東京都","city":"世田谷区","address":"東京都世田谷区弦巻4丁目28-14","lat":35.63740048,"lon":139.64369503},{"name":"千歳船橋東","province":"東京都","city":"世田谷区","address":"東京都世田谷区経堂4丁目17-7","lat":35.64748763,"lon":139.62513796},{"name":"桜木中学校南","province":"東京都","city":"世田谷区","address":"東京都世田谷区世田谷2丁目20-8","lat":35.64255816,"lon":139.6425783},{"name":"松原六丁目","province":"東京都","city":"世田谷区","address":"東京都世田谷区松原6丁目35-2","lat":35.65697329,"lon":139.64866347},{"name":"代沢十字路","province":"東京都","city":"世田谷区","address":"東京都世田谷区代沢4丁目4-3","lat":35.65093835,"lon":139.66742319},{"name":"梅丘二丁目","province":"東京都","city":"世田谷区","address":"東京都世田谷区梅丘1丁目62-16","lat":35.6525461,"lon":139.65221609},{"name":"下北沢駅入口","province":"東京都","city":"世田谷区","address":"東京都世田谷区北沢2丁目5-10","lat":35.66077617,"lon":139.66906162},{"name":"梅ヶ丘駅入口西","province":"東京都","city":"世田谷区","address":"東京都世田谷区梅丘1丁目35-1","lat":35.65633733,"lon":139.65209098},{"name":"都立梅ヶ丘病院前","province":"東京都","city":"世田谷区","address":"東京都世田谷区松原6丁目37-1","lat":35.65717331,"lon":139.65047998},{"name":"経堂五丁目北","province":"東京都","city":"世田谷区","address":"東京都世田谷区経堂4丁目32-11","lat":35.64905422,"lon":139.62862649},{"name":"梅ヶ丘駅西","province":"東京都","city":"世田谷区","address":"東京都世田谷区梅丘1丁目24-14","lat":35.65554576,"lon":139.65249375},{"name":"経堂駅北口","province":"東京都","city":"世田谷区","address":"東京都世田谷区宮坂3丁目11-12","lat":35.65195968,"lon":139.63757287},{"name":"二子玉川駅","province":"東京都","city":"世田谷区","address":"東京都世田谷区玉川3丁目17-1","lat":35.61477548,"lon":139.62682563},{"name":"駒沢","province":"東京都","city":"世田谷区","address":"東京都世田谷区駒沢4丁目18-16","lat":35.63081265,"lon":139.65634142},{"name":"尾山台駅前","province":"東京都","city":"世田谷区","address":"東京都世田谷区等々力5丁目6-7","lat":35.60773734,"lon":139.65354794},{"name":"神学院下","province":"東京都","city":"世田谷区","address":"東京都世田谷区用賀1丁目12","lat":35.62236057,"lon":139.64017644},{"name":"等々力三丁目","province":"東京都","city":"世田谷区","address":"東京都世田谷区等々力4丁目24-8","lat":35.61098973,"lon":139.65256734},{"name":"区立ひまわり荘","province":"東京都","city":"世田谷区","address":"東京都世田谷区上用賀6丁目3-6","lat":35.63301457,"lon":139.62573849},{"name":"奥沢駅前","province":"東京都","city":"世田谷区","address":"東京都世田谷区奥沢3丁目31-11","lat":35.60255247,"lon":139.67201894},{"name":"上野毛まちづくりセンター","province":"東京都","city":"世田谷区","address":"東京都世田谷区中町2丁目35-9","lat":35.61138412,"lon":139.64170458},{"name":"用賀神社前","province":"東京都","city":"世田谷区","address":"東京都世田谷区用賀2丁目35-13","lat":35.62625731,"lon":139.63623496},{"name":"用賀駅前","province":"東京都","city":"世田谷区","address":"東京都世田谷区用賀2丁目39-17","lat":35.62643782,"lon":139.63428512},{"name":"桜町小学校西","province":"東京都","city":"世田谷区","address":"東京都世田谷区用賀1丁目14","lat":35.62281051,"lon":139.6385238},{"name":"桜新町駅前","province":"東京都","city":"世田谷区","address":"東京都世田谷区新町2丁目38-14","lat":35.63155399,"lon":139.64528951},{"name":"吉沢橋","province":"東京都","city":"世田谷区","address":"東京都世田谷区鎌田3丁目19-1","lat":35.61811111,"lon":139.61959289},{"name":"尾山台駅入口","province":"東京都","city":"世田谷区","address":"東京都世田谷区等々力4丁目24-17","lat":35.61167856,"lon":139.65370888},{"name":"玉川税務署裏","province":"東京都","city":"世田谷区","address":"東京都世田谷区玉川1丁目17-16","lat":35.6109593,"lon":139.63239465},{"name":"用賀駅入口","province":"東京都","city":"世田谷区","address":"東京都世田谷区用賀4丁目1-1","lat":35.62773212,"lon":139.63556271},{"name":"二子玉川交番前","province":"東京都","city":"世田谷区","address":"東京都世田谷区玉川2丁目21-1","lat":35.61247163,"lon":139.62860169},{"name":"千歳烏山駅入口","province":"東京都","city":"世田谷区","address":"東京都世田谷区南烏山4丁目12-12","lat":35.66962044,"lon":139.60085577},{"name":"烏山総合支所入口","province":"東京都","city":"世田谷区","address":"東京都世田谷区北烏山6丁目10-3","lat":35.67127848,"lon":139.59759486},{"name":"烏山町下宿","province":"東京都","city":"世田谷区","address":"東京都世田谷区南烏山3丁目25-15","lat":35.67277033,"lon":139.6085384},{"name":"船橋町","province":"東京都","city":"世田谷区","address":"東京都世田谷区船橋1丁目38-12","lat":35.64867896,"lon":139.61803017},{"name":"成城","province":"東京都","city":"世田谷区","address":"東京都世田谷区成城2丁目15-1","lat":35.63680225,"lon":139.59995712},{"name":"ＮＨＫ技研前","province":"東京都","city":"世田谷区","address":"東京都世田谷区砧1丁目10-11","lat":35.63563619,"lon":139.61565595},{"name":"八幡山駅前","province":"東京都","city":"世田谷区","address":"東京都世田谷区上北沢2丁目1-7","lat":35.6691044,"lon":139.61775449},{"name":"塚戸小学校入口","province":"東京都","city":"世田谷区","address":"東京都世田谷区千歳台5丁目7-12","lat":35.65610284,"lon":139.60959165},{"name":"世田谷清掃工場前","province":"東京都","city":"世田谷区","address":"東京都世田谷区大蔵1丁目1-1","lat":35.63325336,"lon":139.62285544},{"name":"成城駅南","province":"東京都","city":"世田谷区","address":"東京都世田谷区成城2丁目39-7","lat":35.63988792,"lon":139.59936534},{"name":"岡本一丁目","province":"東京都","city":"世田谷区","address":"東京都世田谷区岡本3丁目8-17","lat":35.62620429,"lon":139.61738973},{"name":"千歳中前","province":"東京都","city":"世田谷区","address":"東京都世田谷区千歳台6丁目15-1","lat":35.6584469,"lon":139.60619462},{"name":"上北沢駅入口第三","province":"東京都","city":"世田谷区","address":"東京都世田谷区上北沢4丁目18-19","lat":35.67036833,"lon":139.62336513},{"name":"南烏山五丁目","province":"東京都","city":"世田谷区","address":"東京都世田谷区南烏山5丁目20-16","lat":35.6666653,"lon":139.60290292},{"name":"北烏山九丁目","province":"東京都","city":"世田谷区","address":"東京都世田谷区北烏山6丁目11","lat":35.67202004,"lon":139.59656714},{"name":"千歳船橋駅ガード北","province":"東京都","city":"世田谷区","address":"東京都世田谷区桜丘5丁目47-23","lat":35.64701536,"lon":139.62181327},{"name":"松葉通り高速下","province":"東京都","city":"世田谷区","address":"東京都世田谷区北烏山3丁目26-27","lat":35.67743619,"lon":139.59965283},{"name":"烏山駅前第二","province":"東京都","city":"世田谷区","address":"東京都世田谷区南烏山6丁目4-21","lat":35.66947875,"lon":139.59973086},{"name":"都立松沢病院前","province":"東京都","city":"世田谷区","address":"東京都世田谷区上北沢2丁目1-1","lat":35.66712968,"lon":139.61960719},{"name":"烏山駅南","province":"東京都","city":"世田谷区","address":"東京都世田谷区南烏山5丁目16-1","lat":35.6671291,"lon":139.60205298},{"name":"烏山総合支所前","province":"東京都","city":"世田谷区","address":"東京都世田谷区南烏山6丁目22-14","lat":35.66980644,"lon":139.59797266},{"name":"祖師ヶ谷大蔵駅南","province":"東京都","city":"世田谷区","address":"東京都世田谷区砧8丁目8-21","lat":35.64211845,"lon":139.60852843},{"name":"国立成育医療センター前","province":"東京都","city":"世田谷区","address":"東京都世田谷区大蔵2丁目10-1","lat":35.63375585,"lon":139.61269523},{"name":"千歳台六丁目","province":"東京都","city":"世田谷区","address":"東京都世田谷区千歳台6丁目16","lat":35.65767205,"lon":139.60803617},{"name":"砧総合支所前","province":"東京都","city":"世田谷区","address":"東京都世田谷区成城6丁目3-11","lat":35.64084616,"lon":139.60071798},{"name":"久我山盲学校前","province":"東京都","city":"世田谷区","address":"東京都世田谷区北烏山4丁目36-14","lat":35.68145231,"lon":139.59689458},{"name":"砧浄水場","province":"東京都","city":"世田谷区","address":"東京都世田谷区喜多見2丁目9-1","lat":35.6229239,"lon":139.5939617},{"name":"和田堀給水所","province":"東京都","city":"世田谷区","address":"東京都世田谷区大原2丁目30-43","lat":35.67019982,"lon":139.65752341},{"name":"玉川給水所","province":"東京都","city":"世田谷区","address":"東京都世田谷区玉川田園調布1丁目19-1","lat":35.60087176,"lon":139.66091715},{"name":"大蔵給水所","province":"東京都","city":"世田谷区","address":"東京都世田谷区砧2丁目8-1","lat":35.64285742,"lon":139.61625833},{"name":"駒沢給水所","province":"東京都","city":"世田谷区","address":"東京都世田谷区弦巻2丁目41-5","lat":35.63358721,"lon":139.65076123},{"name":"区立葭根公園","province":"東京都","city":"世田谷区","address":"東京都世田谷区船橋6丁目21","lat":35.65803078,"lon":139.62247115},{"name":"都立祖師谷公園","province":"東京都","city":"世田谷区","address":"東京都世田谷区上祖師谷4丁目2","lat":35.65340555,"lon":139.59748436},{"name":"区立中町二丁目公園","province":"東京都","city":"世田谷区","address":"東京都世田谷区中町2丁目34-1","lat":35.61159799,"lon":139.64116853},{"name":"\"伊藤商事株式会社 葬儀部 \"","province":"東京都","city":"世田谷区","address":"東京都世田谷区松原3丁目30-12","lat":35.66652758,"lon":139.64192207},{"name":"有限会社　メーユー上原葬儀社","province":"東京都","city":"世田谷区","address":"東京都世田谷区梅丘3丁目10-12","lat":35.65251006,"lon":139.65491308},{"name":"\"金子総本店 \"","province":"東京都","city":"世田谷区","address":"東京都世田谷区北沢3丁目31-2","lat":35.66454236,"lon":139.66686446},{"name":"株式会社　佐久間本店","province":"東京都","city":"世田谷区","address":"東京都世田谷区成城6丁目6-3","lat":35.64015449,"lon":139.59726549},{"name":"\"株式会社　佐久間本店 千歳船橋営業所 \"","province":"東京都","city":"世田谷区","address":"東京都世田谷区桜丘2丁目27-11","lat":35.64673208,"lon":139.6225521},{"name":"\"有限会社　佐藤葬祭 \"","province":"東京都","city":"世田谷区","address":"東京都世田谷区北沢5丁目34-14","lat":35.67164994,"lon":139.66833631},{"name":"有限会社　嶋田葬祭","province":"東京都","city":"世田谷区","address":"東京都世田谷区池尻3丁目4-2","lat":35.65009162,"lon":139.68287748},{"name":"\"株式会社　経堂 清水葬祭 \"","province":"東京都","city":"世田谷区","address":"東京都世田谷区経堂1丁目5-9","lat":35.64839896,"lon":139.63626198},{"name":"城西葬祭　株式会社","province":"東京都","city":"世田谷区","address":"東京都世田谷区野沢2丁目13-2","lat":35.63249609,"lon":139.66918473},{"name":"\"株式会社　杉田フューネス \"","province":"東京都","city":"世田谷区","address":"東京都世田谷区上北沢4丁目33-3","lat":35.66985709,"lon":139.61745449},{"name":"\"有限会社　曽根葬祭 \"","province":"東京都","city":"世田谷区","address":"東京都世田谷区下馬4丁目2-12","lat":35.63487384,"lon":139.67952824},{"name":"\"有限会社　野﨑商店 \"","province":"東京都","city":"世田谷区","address":"東京都世田谷区豪徳寺1丁目8-7","lat":35.65171273,"lon":139.64650547},{"name":"有限会社　平野屋葬祭","province":"東京都","city":"世田谷区","address":"東京都世田谷区大原1丁目17-12","lat":35.66876124,"lon":139.66331185},{"name":"株式会社　ムラカミ","province":"東京都","city":"世田谷区","address":"東京都世田谷区宮坂3丁目28-2","lat":35.65414266,"lon":139.63350925},{"name":"株式会社　沼崎商会","province":"東京都","city":"世田谷区","address":"東京都世田谷区尾山台3丁目9-6","lat":35.60391554,"lon":139.65227599},{"name":"三軒茶屋","province":"東京都","city":"世田谷区","address":"東京都世田谷区太子堂2丁目15-4","lat":35.6439337,"lon":139.671137},{"name":"池尻","province":"東京都","city":"世田谷区","address":"東京都世田谷区池尻2丁目34-15","lat":35.64856954,"lon":139.68128321},{"name":"三宿町","province":"東京都","city":"世田谷区","address":"東京都世田谷区太子堂1丁目4-36","lat":35.64660579,"lon":139.67773636},{"name":"太子堂","province":"東京都","city":"世田谷区","address":"東京都世田谷区三軒茶屋1丁目41-11","lat":35.64393097,"lon":139.67259799},{"name":"上町駅前","province":"東京都","city":"世田谷区","address":"東京都世田谷区世田谷3丁目3","lat":35.64311379,"lon":139.64777229},{"name":"中里駅前","province":"東京都","city":"世田谷区","address":"東京都世田谷区上馬1丁目16-6","lat":35.63860092,"lon":139.66756248},{"name":"松陰神社入口","province":"東京都","city":"世田谷区","address":"東京都世田谷区若林3丁目17-1","lat":35.64242517,"lon":139.65506896},{"name":"世田谷区役所入口","province":"東京都","city":"世田谷区","address":"東京都世田谷区世田谷4丁目5-2","lat":35.64262509,"lon":139.65310244},{"name":"栄通り入口","province":"東京都","city":"世田谷区","address":"東京都世田谷区三軒茶屋1丁目32-11","lat":35.64244498,"lon":139.67032323},{"name":"世田谷交番前","province":"東京都","city":"世田谷区","address":"東京都世田谷区世田谷4丁目7-10","lat":35.64271948,"lon":139.65119981},{"name":"下ノ谷","province":"東京都","city":"世田谷区","address":"東京都世田谷区太子堂2丁目24-6","lat":35.64631118,"lon":139.66993981},{"name":"駒沢中学校角","province":"東京都","city":"世田谷区","address":"東京都世田谷区駒沢2丁目43-11","lat":35.63691477,"lon":139.6564496},{"name":"三軒茶屋第二","province":"東京都","city":"世田谷区","address":"東京都世田谷区太子堂4丁目1-1","lat":35.64413642,"lon":139.66925105},{"name":"三軒茶屋第三","province":"東京都","city":"世田谷区","address":"東京都世田谷区太子堂4丁目1-1","lat":35.64413642,"lon":139.66925105},{"name":"桜丘四丁目","province":"東京都","city":"世田谷区","address":"東京都世田谷区桜丘4丁目1-11","lat":35.6381166,"lon":139.62407176},{"name":"世田谷警察署前","province":"東京都","city":"世田谷区","address":"東京都世田谷区上馬1丁目32-12","lat":35.63962303,"lon":139.66822072},{"name":"笹原小学校北","province":"東京都","city":"世田谷区","address":"東京都世田谷区桜丘2丁目25-12","lat":35.64655154,"lon":139.62221048},{"name":"三軒茶屋一丁目","province":"東京都","city":"世田谷区","address":"東京都世田谷区三軒茶屋1丁目29-13","lat":35.64138952,"lon":139.66959832},{"name":"世田谷税務署前","province":"東京都","city":"世田谷区","address":"東京都世田谷区世田谷4丁目14-30","lat":35.64493592,"lon":139.65283295},{"name":"上町西","province":"東京都","city":"世田谷区","address":"東京都世田谷区世田谷1丁目25-13","lat":35.64237217,"lon":139.64652797},{"name":"三軒茶屋二丁目","province":"東京都","city":"世田谷区","address":"東京都世田谷区上馬2丁目29-1","lat":35.63999518,"lon":139.66668473},{"name":"世田谷三丁目","province":"東京都","city":"世田谷区","address":"東京都世田谷区世田谷3丁目20-1","lat":35.64524416,"lon":139.65044979},{"name":"松丘小学校南","province":"東京都","city":"世田谷区","address":"東京都世田谷区弦巻4丁目28-14","lat":35.63740048,"lon":139.64369503},{"name":"千歳船橋東","province":"東京都","city":"世田谷区","address":"東京都世田谷区経堂4丁目17-7","lat":35.64748763,"lon":139.62513796},{"name":"桜木中学校南","province":"東京都","city":"世田谷区","address":"東京都世田谷区世田谷2丁目20-8","lat":35.64255816,"lon":139.6425783},{"name":"松原六丁目","province":"東京都","city":"世田谷区","address":"東京都世田谷区松原6丁目35-2","lat":35.65697329,"lon":139.64866347},{"name":"代沢十字路","province":"東京都","city":"世田谷区","address":"東京都世田谷区代沢4丁目4-3","lat":35.65093835,"lon":139.66742319},{"name":"梅丘二丁目","province":"東京都","city":"世田谷区","address":"東京都世田谷区梅丘1丁目62-16","lat":35.6525461,"lon":139.65221609},{"name":"下北沢駅入口","province":"東京都","city":"世田谷区","address":"東京都世田谷区北沢2丁目5-10","lat":35.66077617,"lon":139.66906162},{"name":"梅ヶ丘駅入口西","province":"東京都","city":"世田谷区","address":"東京都世田谷区梅丘1丁目35-1","lat":35.65633733,"lon":139.65209098},{"name":"都立梅ヶ丘病院前","province":"東京都","city":"世田谷区","address":"東京都世田谷区松原6丁目37-1","lat":35.65717331,"lon":139.65047998},{"name":"経堂五丁目北","province":"東京都","city":"世田谷区","address":"東京都世田谷区経堂4丁目32-11","lat":35.64905422,"lon":139.62862649},{"name":"梅ヶ丘駅西","province":"東京都","city":"世田谷区","address":"東京都世田谷区梅丘1丁目24-14","lat":35.65554576,"lon":139.65249375},{"name":"経堂駅北口","province":"東京都","city":"世田谷区","address":"東京都世田谷区宮坂3丁目11-12","lat":35.65195968,"lon":139.63757287},{"name":"二子玉川駅","province":"東京都","city":"世田谷区","address":"東京都世田谷区玉川3丁目17-1","lat":35.61477548,"lon":139.62682563},{"name":"駒沢","province":"東京都","city":"世田谷区","address":"東京都世田谷区駒沢4丁目18-16","lat":35.63081265,"lon":139.65634142},{"name":"尾山台駅前","province":"東京都","city":"世田谷区","address":"東京都世田谷区等々力5丁目6-7","lat":35.60773734,"lon":139.65354794},{"name":"神学院下","province":"東京都","city":"世田谷区","address":"東京都世田谷区用賀1丁目12","lat":35.62236057,"lon":139.64017644},{"name":"等々力三丁目","province":"東京都","city":"世田谷区","address":"東京都世田谷区等々力4丁目24-8","lat":35.61098973,"lon":139.65256734},{"name":"区立ひまわり荘","province":"東京都","city":"世田谷区","address":"東京都世田谷区上用賀6丁目3-6","lat":35.63301457,"lon":139.62573849},{"name":"奥沢駅前","province":"東京都","city":"世田谷区","address":"東京都世田谷区奥沢3丁目31-11","lat":35.60255247,"lon":139.67201894},{"name":"上野毛まちづくりセンター","province":"東京都","city":"世田谷区","address":"東京都世田谷区中町2丁目35-9","lat":35.61138412,"lon":139.64170458},{"name":"用賀神社前","province":"東京都","city":"世田谷区","address":"東京都世田谷区用賀2丁目35-13","lat":35.62625731,"lon":139.63623496},{"name":"用賀駅前","province":"東京都","city":"世田谷区","address":"東京都世田谷区用賀2丁目39-17","lat":35.62643782,"lon":139.63428512},{"name":"桜町小学校西","province":"東京都","city":"世田谷区","address":"東京都世田谷区用賀1丁目14","lat":35.62281051,"lon":139.6385238},{"name":"桜新町駅前","province":"東京都","city":"世田谷区","address":"東京都世田谷区新町2丁目38-14","lat":35.63155399,"lon":139.64528951},{"name":"吉沢橋","province":"東京都","city":"世田谷区","address":"東京都世田谷区鎌田3丁目19-1","lat":35.61811111,"lon":139.61959289},{"name":"尾山台駅入口","province":"東京都","city":"世田谷区","address":"東京都世田谷区等々力4丁目24-17","lat":35.61167856,"lon":139.65370888},{"name":"玉川税務署裏","province":"東京都","city":"世田谷区","address":"東京都世田谷区玉川1丁目17-16","lat":35.6109593,"lon":139.63239465},{"name":"用賀駅入口","province":"東京都","city":"世田谷区","address":"東京都世田谷区用賀4丁目1-1","lat":35.62773212,"lon":139.63556271},{"name":"二子玉川交番前","province":"東京都","city":"世田谷区","address":"東京都世田谷区玉川2丁目21-1","lat":35.61247163,"lon":139.62860169},{"name":"千歳烏山駅入口","province":"東京都","city":"世田谷区","address":"東京都世田谷区南烏山4丁目12-12","lat":35.66962044,"lon":139.60085577},{"name":"烏山総合支所入口","province":"東京都","city":"世田谷区","address":"東京都世田谷区北烏山6丁目10-3","lat":35.67127848,"lon":139.59759486},{"name":"烏山町下宿","province":"東京都","city":"世田谷区","address":"東京都世田谷区南烏山3丁目25-15","lat":35.67277033,"lon":139.6085384},{"name":"船橋町","province":"東京都","city":"世田谷区","address":"東京都世田谷区船橋1丁目38-12","lat":35.64867896,"lon":139.61803017},{"name":"成城","province":"東京都","city":"世田谷区","address":"東京都世田谷区成城2丁目15-1","lat":35.63680225,"lon":139.59995712},{"name":"ＮＨＫ技研前","province":"東京都","city":"世田谷区","address":"東京都世田谷区砧1丁目10-11","lat":35.63563619,"lon":139.61565595},{"name":"八幡山駅前","province":"東京都","city":"世田谷区","address":"東京都世田谷区上北沢2丁目1-7","lat":35.6691044,"lon":139.61775449},{"name":"塚戸小学校入口","province":"東京都","city":"世田谷区","address":"東京都世田谷区千歳台5丁目7-12","lat":35.65610284,"lon":139.60959165},{"name":"世田谷清掃工場前","province":"東京都","city":"世田谷区","address":"東京都世田谷区大蔵1丁目1-1","lat":35.63325336,"lon":139.62285544},{"name":"成城駅南","province":"東京都","city":"世田谷区","address":"東京都世田谷区成城2丁目39-7","lat":35.63988792,"lon":139.59936534},{"name":"岡本一丁目","province":"東京都","city":"世田谷区","address":"東京都世田谷区岡本3丁目8-17","lat":35.62620429,"lon":139.61738973},{"name":"千歳中前","province":"東京都","city":"世田谷区","address":"東京都世田谷区千歳台6丁目15-1","lat":35.6584469,"lon":139.60619462},{"name":"上北沢駅入口第三","province":"東京都","city":"世田谷区","address":"東京都世田谷区上北沢4丁目18-19","lat":35.67036833,"lon":139.62336513},{"name":"南烏山五丁目","province":"東京都","city":"世田谷区","address":"東京都世田谷区南烏山5丁目20-16","lat":35.6666653,"lon":139.60290292},{"name":"北烏山九丁目","province":"東京都","city":"世田谷区","address":"東京都世田谷区北烏山6丁目11","lat":35.67202004,"lon":139.59656714},{"name":"千歳船橋駅ガード北","province":"東京都","city":"世田谷区","address":"東京都世田谷区桜丘5丁目47-23","lat":35.64701536,"lon":139.62181327},{"name":"松葉通り高速下","province":"東京都","city":"世田谷区","address":"東京都世田谷区北烏山3丁目26-27","lat":35.67743619,"lon":139.59965283},{"name":"烏山駅前第二","province":"東京都","city":"世田谷区","address":"東京都世田谷区南烏山6丁目4-21","lat":35.66947875,"lon":139.59973086},{"name":"都立松沢病院前","province":"東京都","city":"世田谷区","address":"東京都世田谷区上北沢2丁目1-1","lat":35.66712968,"lon":139.61960719},{"name":"烏山駅南","province":"東京都","city":"世田谷区","address":"東京都世田谷区南烏山5丁目16-1","lat":35.6671291,"lon":139.60205298},{"name":"烏山総合支所前","province":"東京都","city":"世田谷区","address":"東京都世田谷区南烏山6丁目22-14","lat":35.66980644,"lon":139.59797266},{"name":"祖師ヶ谷大蔵駅南","province":"東京都","city":"世田谷区","address":"東京都世田谷区砧8丁目8-21","lat":35.64211845,"lon":139.60852843},{"name":"国立成育医療センター前","province":"東京都","city":"世田谷区","address":"東京都世田谷区大蔵2丁目10-1","lat":35.63375585,"lon":139.61269523},{"name":"千歳台六丁目","province":"東京都","city":"世田谷区","address":"東京都世田谷区千歳台6丁目16","lat":35.65767205,"lon":139.60803617},{"name":"砧総合支所前","province":"東京都","city":"世田谷区","address":"東京都世田谷区成城6丁目3-11","lat":35.64084616,"lon":139.60071798},{"name":"久我山盲学校前","province":"東京都","city":"世田谷区","address":"東京都世田谷区北烏山4丁目36-14","lat":35.68145231,"lon":139.59689458},{"name":"砧浄水場","province":"東京都","city":"世田谷区","address":"東京都世田谷区喜多見2丁目9-1","lat":35.6229239,"lon":139.5939617},{"name":"和田堀給水所","province":"東京都","city":"世田谷区","address":"東京都世田谷区大原2丁目30-43","lat":35.67019982,"lon":139.65752341},{"name":"玉川給水所","province":"東京都","city":"世田谷区","address":"東京都世田谷区玉川田園調布1丁目19-1","lat":35.60087176,"lon":139.66091715},{"name":"大蔵給水所","province":"東京都","city":"世田谷区","address":"東京都世田谷区砧2丁目8-1","lat":35.64285742,"lon":139.61625833},{"name":"駒沢給水所","province":"東京都","city":"世田谷区","address":"東京都世田谷区弦巻2丁目41-5","lat":35.63358721,"lon":139.65076123},{"name":"区立葭根公園","province":"東京都","city":"世田谷区","address":"東京都世田谷区船橋6丁目21","lat":35.65803078,"lon":139.62247115},{"name":"都立祖師谷公園","province":"東京都","city":"世田谷区","address":"東京都世田谷区上祖師谷4丁目2","lat":35.65340555,"lon":139.59748436},{"name":"区立中町二丁目公園","province":"東京都","city":"世田谷区","address":"東京都世田谷区中町2丁目34-1","lat":35.61159799,"lon":139.64116853},{"name":"\"伊藤商事株式会社 葬儀部 \"","province":"東京都","city":"世田谷区","address":"東京都世田谷区松原3丁目30-12","lat":35.66652758,"lon":139.64192207},{"name":"有限会社　メーユー上原葬儀社","province":"東京都","city":"世田谷区","address":"東京都世田谷区梅丘3丁目10-12","lat":35.65251006,"lon":139.65491308},{"name":"\"金子総本店 \"","province":"東京都","city":"世田谷区","address":"東京都世田谷区北沢3丁目31-2","lat":35.66454236,"lon":139.66686446},{"name":"株式会社　佐久間本店","province":"東京都","city":"世田谷区","address":"東京都世田谷区成城6丁目6-3","lat":35.64015449,"lon":139.59726549},{"name":"\"株式会社　佐久間本店 千歳船橋営業所 \"","province":"東京都","city":"世田谷区","address":"東京都世田谷区桜丘2丁目27-11","lat":35.64673208,"lon":139.6225521},{"name":"\"有限会社　佐藤葬祭 \"","province":"東京都","city":"世田谷区","address":"東京都世田谷区北沢5丁目34-14","lat":35.67164994,"lon":139.66833631},{"name":"有限会社　嶋田葬祭","province":"東京都","city":"世田谷区","address":"東京都世田谷区池尻3丁目4-2","lat":35.65009162,"lon":139.68287748},{"name":"\"株式会社　経堂 清水葬祭 \"","province":"東京都","city":"世田谷区","address":"東京都世田谷区経堂1丁目5-9","lat":35.64839896,"lon":139.63626198},{"name":"城西葬祭　株式会社","province":"東京都","city":"世田谷区","address":"東京都世田谷区野沢2丁目13-2","lat":35.63249609,"lon":139.66918473},{"name":"\"株式会社　杉田フューネス \"","province":"東京都","city":"世田谷区","address":"東京都世田谷区上北沢4丁目33-3","lat":35.66985709,"lon":139.61745449},{"name":"\"有限会社　曽根葬祭 \"","province":"東京都","city":"世田谷区","address":"東京都世田谷区下馬4丁目2-12","lat":35.63487384,"lon":139.67952824},{"name":"\"有限会社　野﨑商店 \"","province":"東京都","city":"世田谷区","address":"東京都世田谷区豪徳寺1丁目8-7","lat":35.65171273,"lon":139.64650547},{"name":"有限会社　平野屋葬祭","province":"東京都","city":"世田谷区","address":"東京都世田谷区大原1丁目17-12","lat":35.66876124,"lon":139.66331185},{"name":"株式会社　ムラカミ","province":"東京都","city":"世田谷区","address":"東京都世田谷区宮坂3丁目28-2","lat":35.65414266,"lon":139.63350925},{"name":"株式会社　沼崎商会","province":"東京都","city":"世田谷区","address":"東京都世田谷区尾山台3丁目9-6","lat":35.60391554,"lon":139.65227599},{"name":"三軒茶屋","province":"東京都","city":"世田谷区","address":"東京都世田谷区太子堂2丁目15-4","lat":35.6439337,"lon":139.671137},{"name":"池尻","province":"東京都","city":"世田谷区","address":"東京都世田谷区池尻2丁目34-15","lat":35.64856954,"lon":139.68128321},{"name":"三宿町","province":"東京都","city":"世田谷区","address":"東京都世田谷区太子堂1丁目4-36","lat":35.64660579,"lon":139.67773636},{"name":"太子堂","province":"東京都","city":"世田谷区","address":"東京都世田谷区三軒茶屋1丁目41-11","lat":35.64393097,"lon":139.67259799},{"name":"上町駅前","province":"東京都","city":"世田谷区","address":"東京都世田谷区世田谷3丁目3","lat":35.64311379,"lon":139.64777229},{"name":"中里駅前","province":"東京都","city":"世田谷区","address":"東京都世田谷区上馬1丁目16-6","lat":35.63860092,"lon":139.66756248},{"name":"松陰神社入口","province":"東京都","city":"世田谷区","address":"東京都世田谷区若林3丁目17-1","lat":35.64242517,"lon":139.65506896},{"name":"世田谷区役所入口","province":"東京都","city":"世田谷区","address":"東京都世田谷区世田谷4丁目5-2","lat":35.64262509,"lon":139.65310244},{"name":"栄通り入口","province":"東京都","city":"世田谷区","address":"東京都世田谷区三軒茶屋1丁目32-11","lat":35.64244498,"lon":139.67032323},{"name":"世田谷交番前","province":"東京都","city":"世田谷区","address":"東京都世田谷区世田谷4丁目7-10","lat":35.64271948,"lon":139.65119981},{"name":"下ノ谷","province":"東京都","city":"世田谷区","address":"東京都世田谷区太子堂2丁目24-6","lat":35.64631118,"lon":139.66993981},{"name":"駒沢中学校角","province":"東京都","city":"世田谷区","address":"東京都世田谷区駒沢2丁目43-11","lat":35.63691477,"lon":139.6564496},{"name":"三軒茶屋第二","province":"東京都","city":"世田谷区","address":"東京都世田谷区太子堂4丁目1-1","lat":35.64413642,"lon":139.66925105},{"name":"三軒茶屋第三","province":"東京都","city":"世田谷区","address":"東京都世田谷区太子堂4丁目1-1","lat":35.64413642,"lon":139.66925105},{"name":"桜丘四丁目","province":"東京都","city":"世田谷区","address":"東京都世田谷区桜丘4丁目1-11","lat":35.6381166,"lon":139.62407176},{"name":"世田谷警察署前","province":"東京都","city":"世田谷区","address":"東京都世田谷区上馬1丁目32-12","lat":35.63962303,"lon":139.66822072},{"name":"笹原小学校北","province":"東京都","city":"世田谷区","address":"東京都世田谷区桜丘2丁目25-12","lat":35.64655154,"lon":139.62221048},{"name":"三軒茶屋一丁目","province":"東京都","city":"世田谷区","address":"東京都世田谷区三軒茶屋1丁目29-13","lat":35.64138952,"lon":139.66959832},{"name":"世田谷税務署前","province":"東京都","city":"世田谷区","address":"東京都世田谷区世田谷4丁目14-30","lat":35.64493592,"lon":139.65283295},{"name":"上町西","province":"東京都","city":"世田谷区","address":"東京都世田谷区世田谷1丁目25-13","lat":35.64237217,"lon":139.64652797},{"name":"三軒茶屋二丁目","province":"東京都","city":"世田谷区","address":"東京都世田谷区上馬2丁目29-1","lat":35.63999518,"lon":139.66668473},{"name":"世田谷三丁目","province":"東京都","city":"世田谷区","address":"東京都世田谷区世田谷3丁目20-1","lat":35.64524416,"lon":139.65044979},{"name":"松丘小学校南","province":"東京都","city":"世田谷区","address":"東京都世田谷区弦巻4丁目28-14","lat":35.63740048,"lon":139.64369503},{"name":"千歳船橋東","province":"東京都","city":"世田谷区","address":"東京都世田谷区経堂4丁目17-7","lat":35.64748763,"lon":139.62513796},{"name":"桜木中学校南","province":"東京都","city":"世田谷区","address":"東京都世田谷区世田谷2丁目20-8","lat":35.64255816,"lon":139.6425783},{"name":"松原六丁目","province":"東京都","city":"世田谷区","address":"東京都世田谷区松原6丁目35-2","lat":35.65697329,"lon":139.64866347},{"name":"代沢十字路","province":"東京都","city":"世田谷区","address":"東京都世田谷区代沢4丁目4-3","lat":35.65093835,"lon":139.66742319},{"name":"梅丘二丁目","province":"東京都","city":"世田谷区","address":"東京都世田谷区梅丘1丁目62-16","lat":35.6525461,"lon":139.65221609},{"name":"下北沢駅入口","province":"東京都","city":"世田谷区","address":"東京都世田谷区北沢2丁目5-10","lat":35.66077617,"lon":139.66906162},{"name":"梅ヶ丘駅入口西","province":"東京都","city":"世田谷区","address":"東京都世田谷区梅丘1丁目35-1","lat":35.65633733,"lon":139.65209098},{"name":"都立梅ヶ丘病院前","province":"東京都","city":"世田谷区","address":"東京都世田谷区松原6丁目37-1","lat":35.65717331,"lon":139.65047998},{"name":"経堂五丁目北","province":"東京都","city":"世田谷区","address":"東京都世田谷区経堂4丁目32-11","lat":35.64905422,"lon":139.62862649},{"name":"梅ヶ丘駅西","province":"東京都","city":"世田谷区","address":"東京都世田谷区梅丘1丁目24-14","lat":35.65554576,"lon":139.65249375},{"name":"経堂駅北口","province":"東京都","city":"世田谷区","address":"東京都世田谷区宮坂3丁目11-12","lat":35.65195968,"lon":139.63757287},{"name":"二子玉川駅","province":"東京都","city":"世田谷区","address":"東京都世田谷区玉川3丁目17-1","lat":35.61477548,"lon":139.62682563},{"name":"駒沢","province":"東京都","city":"世田谷区","address":"東京都世田谷区駒沢4丁目18-16","lat":35.63081265,"lon":139.65634142},{"name":"尾山台駅前","province":"東京都","city":"世田谷区","address":"東京都世田谷区等々力5丁目6-7","lat":35.60773734,"lon":139.65354794},{"name":"神学院下","province":"東京都","city":"世田谷区","address":"東京都世田谷区用賀1丁目12","lat":35.62236057,"lon":139.64017644},{"name":"等々力三丁目","province":"東京都","city":"世田谷区","address":"東京都世田谷区等々力4丁目24-8","lat":35.61098973,"lon":139.65256734},{"name":"区立ひまわり荘","province":"東京都","city":"世田谷区","address":"東京都世田谷区上用賀6丁目3-6","lat":35.63301457,"lon":139.62573849},{"name":"奥沢駅前","province":"東京都","city":"世田谷区","address":"東京都世田谷区奥沢3丁目31-11","lat":35.60255247,"lon":139.67201894},{"name":"上野毛まちづくりセンター","province":"東京都","city":"世田谷区","address":"東京都世田谷区中町2丁目35-9","lat":35.61138412,"lon":139.64170458},{"name":"用賀神社前","province":"東京都","city":"世田谷区","address":"東京都世田谷区用賀2丁目35-13","lat":35.62625731,"lon":139.63623496},{"name":"用賀駅前","province":"東京都","city":"世田谷区","address":"東京都世田谷区用賀2丁目39-17","lat":35.62643782,"lon":139.63428512},{"name":"桜町小学校西","province":"東京都","city":"世田谷区","address":"東京都世田谷区用賀1丁目14","lat":35.62281051,"lon":139.6385238},{"name":"桜新町駅前","province":"東京都","city":"世田谷区","address":"東京都世田谷区新町2丁目38-14","lat":35.63155399,"lon":139.64528951},{"name":"吉沢橋","province":"東京都","city":"世田谷区","address":"東京都世田谷区鎌田3丁目19-1","lat":35.61811111,"lon":139.61959289},{"name":"尾山台駅入口","province":"東京都","city":"世田谷区","address":"東京都世田谷区等々力4丁目24-17","lat":35.61167856,"lon":139.65370888},{"name":"玉川税務署裏","province":"東京都","city":"世田谷区","address":"東京都世田谷区玉川1丁目17-16","lat":35.6109593,"lon":139.63239465},{"name":"用賀駅入口","province":"東京都","city":"世田谷区","address":"東京都世田谷区用賀4丁目1-1","lat":35.62773212,"lon":139.63556271},{"name":"二子玉川交番前","province":"東京都","city":"世田谷区","address":"東京都世田谷区玉川2丁目21-1","lat":35.61247163,"lon":139.62860169},{"name":"千歳烏山駅入口","province":"東京都","city":"世田谷区","address":"東京都世田谷区南烏山4丁目12-12","lat":35.66962044,"lon":139.60085577},{"name":"烏山総合支所入口","province":"東京都","city":"世田谷区","address":"東京都世田谷区北烏山6丁目10-3","lat":35.67127848,"lon":139.59759486},{"name":"烏山町下宿","province":"東京都","city":"世田谷区","address":"東京都世田谷区南烏山3丁目25-15","lat":35.67277033,"lon":139.6085384},{"name":"船橋町","province":"東京都","city":"世田谷区","address":"東京都世田谷区船橋1丁目38-12","lat":35.64867896,"lon":139.61803017},{"name":"成城","province":"東京都","city":"世田谷区","address":"東京都世田谷区成城2丁目15-1","lat":35.63680225,"lon":139.59995712},{"name":"ＮＨＫ技研前","province":"東京都","city":"世田谷区","address":"東京都世田谷区砧1丁目10-11","lat":35.63563619,"lon":139.61565595},{"name":"八幡山駅前","province":"東京都","city":"世田谷区","address":"東京都世田谷区上北沢2丁目1-7","lat":35.6691044,"lon":139.61775449},{"name":"塚戸小学校入口","province":"東京都","city":"世田谷区","address":"東京都世田谷区千歳台5丁目7-12","lat":35.65610284,"lon":139.60959165},{"name":"世田谷清掃工場前","province":"東京都","city":"世田谷区","address":"東京都世田谷区大蔵1丁目1-1","lat":35.63325336,"lon":139.62285544},{"name":"成城駅南","province":"東京都","city":"世田谷区","address":"東京都世田谷区成城2丁目39-7","lat":35.63988792,"lon":139.59936534},{"name":"岡本一丁目","province":"東京都","city":"世田谷区","address":"東京都世田谷区岡本3丁目8-17","lat":35.62620429,"lon":139.61738973},{"name":"千歳中前","province":"東京都","city":"世田谷区","address":"東京都世田谷区千歳台6丁目15-1","lat":35.6584469,"lon":139.60619462},{"name":"上北沢駅入口第三","province":"東京都","city":"世田谷区","address":"東京都世田谷区上北沢4丁目18-19","lat":35.67036833,"lon":139.62336513},{"name":"南烏山五丁目","province":"東京都","city":"世田谷区","address":"東京都世田谷区南烏山5丁目20-16","lat":35.6666653,"lon":139.60290292},{"name":"北烏山九丁目","province":"東京都","city":"世田谷区","address":"東京都世田谷区北烏山6丁目11","lat":35.67202004,"lon":139.59656714},{"name":"千歳船橋駅ガード北","province":"東京都","city":"世田谷区","address":"東京都世田谷区桜丘5丁目47-23","lat":35.64701536,"lon":139.62181327},{"name":"松葉通り高速下","province":"東京都","city":"世田谷区","address":"東京都世田谷区北烏山3丁目26-27","lat":35.67743619,"lon":139.59965283},{"name":"烏山駅前第二","province":"東京都","city":"世田谷区","address":"東京都世田谷区南烏山6丁目4-21","lat":35.66947875,"lon":139.59973086},{"name":"都立松沢病院前","province":"東京都","city":"世田谷区","address":"東京都世田谷区上北沢2丁目1-1","lat":35.66712968,"lon":139.61960719},{"name":"烏山駅南","province":"東京都","city":"世田谷区","address":"東京都世田谷区南烏山5丁目16-1","lat":35.6671291,"lon":139.60205298},{"name":"烏山総合支所前","province":"東京都","city":"世田谷区","address":"東京都世田谷区南烏山6丁目22-14","lat":35.66980644,"lon":139.59797266},{"name":"祖師ヶ谷大蔵駅南","province":"東京都","city":"世田谷区","address":"東京都世田谷区砧8丁目8-21","lat":35.64211845,"lon":139.60852843},{"name":"国立成育医療センター前","province":"東京都","city":"世田谷区","address":"東京都世田谷区大蔵2丁目10-1","lat":35.63375585,"lon":139.61269523},{"name":"千歳台六丁目","province":"東京都","city":"世田谷区","address":"東京都世田谷区千歳台6丁目16","lat":35.65767205,"lon":139.60803617},{"name":"砧総合支所前","province":"東京都","city":"世田谷区","address":"東京都世田谷区成城6丁目3-11","lat":35.64084616,"lon":139.60071798},{"name":"久我山盲学校前","province":"東京都","city":"世田谷区","address":"東京都世田谷区北烏山4丁目36-14","lat":35.68145231,"lon":139.59689458},{"name":"砧浄水場","province":"東京都","city":"世田谷区","address":"東京都世田谷区喜多見2丁目9-1","lat":35.6229239,"lon":139.5939617},{"name":"和田堀給水所","province":"東京都","city":"世田谷区","address":"東京都世田谷区大原2丁目30-43","lat":35.67019982,"lon":139.65752341},{"name":"玉川給水所","province":"東京都","city":"世田谷区","address":"東京都世田谷区玉川田園調布1丁目19-1","lat":35.60087176,"lon":139.66091715},{"name":"大蔵給水所","province":"東京都","city":"世田谷区","address":"東京都世田谷区砧2丁目8-1","lat":35.64285742,"lon":139.61625833},{"name":"駒沢給水所","province":"東京都","city":"世田谷区","address":"東京都世田谷区弦巻2丁目41-5","lat":35.63358721,"lon":139.65076123},{"name":"区立葭根公園","province":"東京都","city":"世田谷区","address":"東京都世田谷区船橋6丁目21","lat":35.65803078,"lon":139.62247115},{"name":"都立祖師谷公園","province":"東京都","city":"世田谷区","address":"東京都世田谷区上祖師谷4丁目2","lat":35.65340555,"lon":139.59748436},{"name":"区立中町二丁目公園","province":"東京都","city":"世田谷区","address":"東京都世田谷区中町2丁目34-1","lat":35.61159799,"lon":139.64116853},{"name":"\"伊藤商事株式会社 葬儀部 \"","province":"東京都","city":"世田谷区","address":"東京都世田谷区松原3丁目30-12","lat":35.66652758,"lon":139.64192207},{"name":"有限会社　メーユー上原葬儀社","province":"東京都","city":"世田谷区","address":"東京都世田谷区梅丘3丁目10-12","lat":35.65251006,"lon":139.65491308},{"name":"\"金子総本店 \"","province":"東京都","city":"世田谷区","address":"東京都世田谷区北沢3丁目31-2","lat":35.66454236,"lon":139.66686446},{"name":"株式会社　佐久間本店","province":"東京都","city":"世田谷区","address":"東京都世田谷区成城6丁目6-3","lat":35.64015449,"lon":139.59726549},{"name":"\"株式会社　佐久間本店 千歳船橋営業所 \"","province":"東京都","city":"世田谷区","address":"東京都世田谷区桜丘2丁目27-11","lat":35.64673208,"lon":139.6225521},{"name":"\"有限会社　佐藤葬祭 \"","province":"東京都","city":"世田谷区","address":"東京都世田谷区北沢5丁目34-14","lat":35.67164994,"lon":139.66833631},{"name":"有限会社　嶋田葬祭","province":"東京都","city":"世田谷区","address":"東京都世田谷区池尻3丁目4-2","lat":35.65009162,"lon":139.68287748},{"name":"\"株式会社　経堂 清水葬祭 \"","province":"東京都","city":"世田谷区","address":"東京都世田谷区経堂1丁目5-9","lat":35.64839896,"lon":139.63626198},{"name":"城西葬祭　株式会社","province":"東京都","city":"世田谷区","address":"東京都世田谷区野沢2丁目13-2","lat":35.63249609,"lon":139.66918473},{"name":"\"株式会社　杉田フューネス \"","province":"東京都","city":"世田谷区","address":"東京都世田谷区上北沢4丁目33-3","lat":35.66985709,"lon":139.61745449},{"name":"\"有限会社　曽根葬祭 \"","province":"東京都","city":"世田谷区","address":"東京都世田谷区下馬4丁目2-12","lat":35.63487384,"lon":139.67952824},{"name":"\"有限会社　野﨑商店 \"","province":"東京都","city":"世田谷区","address":"東京都世田谷区豪徳寺1丁目8-7","lat":35.65171273,"lon":139.64650547},{"name":"有限会社　平野屋葬祭","province":"東京都","city":"世田谷区","address":"東京都世田谷区大原1丁目17-12","lat":35.66876124,"lon":139.66331185},{"name":"株式会社　ムラカミ","province":"東京都","city":"世田谷区","address":"東京都世田谷区宮坂3丁目28-2","lat":35.65414266,"lon":139.63350925},{"name":"株式会社　沼崎商会","province":"東京都","city":"世田谷区","address":"東京都世田谷区尾山台3丁目9-6","lat":35.60391554,"lon":139.65227599},{"name":"\"伊藤商事株式会社 葬儀部 \"","province":"東京都","city":"世田谷区","address":"東京都世田谷区松原3丁目30-12","lat":35.66652758,"lon":139.64192207},{"name":"有限会社　メーユー上原葬儀社","province":"東京都","city":"世田谷区","address":"東京都世田谷区梅丘3丁目10-12","lat":35.65251006,"lon":139.65491308},{"name":"\"金子総本店 \"","province":"東京都","city":"世田谷区","address":"東京都世田谷区北沢3丁目31-2","lat":35.66454236,"lon":139.66686446},{"name":"株式会社　佐久間本店","province":"東京都","city":"世田谷区","address":"東京都世田谷区成城6丁目6-3","lat":35.64015449,"lon":139.59726549},{"name":"\"株式会社　佐久間本店 千歳船橋営業所 \"","province":"東京都","city":"世田谷区","address":"東京都世田谷区桜丘2丁目27-11","lat":35.64673208,"lon":139.6225521},{"name":"\"有限会社　佐藤葬祭 \"","province":"東京都","city":"世田谷区","address":"東京都世田谷区北沢5丁目34-14","lat":35.67164994,"lon":139.66833631},{"name":"有限会社　嶋田葬祭","province":"東京都","city":"世田谷区","address":"東京都世田谷区池尻3丁目4-2","lat":35.65009162,"lon":139.68287748},{"name":"\"株式会社　経堂 清水葬祭 \"","province":"東京都","city":"世田谷区","address":"東京都世田谷区経堂1丁目5-9","lat":35.64839896,"lon":139.63626198},{"name":"城西葬祭　株式会社","province":"東京都","city":"世田谷区","address":"東京都世田谷区野沢2丁目13-2","lat":35.63249609,"lon":139.66918473},{"name":"\"株式会社　杉田フューネス \"","province":"東京都","city":"世田谷区","address":"東京都世田谷区上北沢4丁目33-3","lat":35.66985709,"lon":139.61745449},{"name":"\"有限会社　曽根葬祭 \"","province":"東京都","city":"世田谷区","address":"東京都世田谷区下馬4丁目2-12","lat":35.63487384,"lon":139.67952824},{"name":"\"有限会社　野﨑商店 \"","province":"東京都","city":"世田谷区","address":"東京都世田谷区豪徳寺1丁目8-7","lat":35.65171273,"lon":139.64650547},{"name":"有限会社　平野屋葬祭","province":"東京都","city":"世田谷区","address":"東京都世田谷区大原1丁目17-12","lat":35.66876124,"lon":139.66331185},{"name":"株式会社　ムラカミ","province":"東京都","city":"世田谷区","address":"東京都世田谷区宮坂3丁目28-2","lat":35.65414266,"lon":139.63350925},{"name":"株式会社　沼崎商会","province":"東京都","city":"世田谷区","address":"東京都世田谷区尾山台3丁目9-6","lat":35.60391554,"lon":139.65227599},{"name":"\"伊藤商事株式会社 葬儀部 \"","province":"東京都","city":"世田谷区","address":"東京都世田谷区松原3丁目30-12","lat":35.66652758,"lon":139.64192207},{"name":"有限会社　メーユー上原葬儀社","province":"東京都","city":"世田谷区","address":"東京都世田谷区梅丘3丁目10-12","lat":35.65251006,"lon":139.65491308},{"name":"\"金子総本店 \"","province":"東京都","city":"世田谷区","address":"東京都世田谷区北沢3丁目31-2","lat":35.66454236,"lon":139.66686446},{"name":"株式会社　佐久間本店","province":"東京都","city":"世田谷区","address":"東京都世田谷区成城6丁目6-3","lat":35.64015449,"lon":139.59726549},{"name":"\"株式会社　佐久間本店 千歳船橋営業所 \"","province":"東京都","city":"世田谷区","address":"東京都世田谷区桜丘2丁目27-11","lat":35.64673208,"lon":139.6225521},{"name":"\"有限会社　佐藤葬祭 \"","province":"東京都","city":"世田谷区","address":"東京都世田谷区北沢5丁目34-14","lat":35.67164994,"lon":139.66833631},{"name":"有限会社　嶋田葬祭","province":"東京都","city":"世田谷区","address":"東京都世田谷区池尻3丁目4-2","lat":35.65009162,"lon":139.68287748},{"name":"\"株式会社　経堂 清水葬祭 \"","province":"東京都","city":"世田谷区","address":"東京都世田谷区経堂1丁目5-9","lat":35.64839896,"lon":139.63626198},{"name":"城西葬祭　株式会社","province":"東京都","city":"世田谷区","address":"東京都世田谷区野沢2丁目13-2","lat":35.63249609,"lon":139.66918473},{"name":"\"株式会社　杉田フューネス \"","province":"東京都","city":"世田谷区","address":"東京都世田谷区上北沢4丁目33-3","lat":35.66985709,"lon":139.61745449},{"name":"\"有限会社　曽根葬祭 \"","province":"東京都","city":"世田谷区","address":"東京都世田谷区下馬4丁目2-12","lat":35.63487384,"lon":139.67952824},{"name":"\"有限会社　野﨑商店 \"","province":"東京都","city":"世田谷区","address":"東京都世田谷区豪徳寺1丁目8-7","lat":35.65171273,"lon":139.64650547},{"name":"有限会社　平野屋葬祭","province":"東京都","city":"世田谷区","address":"東京都世田谷区大原1丁目17-12","lat":35.66876124,"lon":139.66331185},{"name":"株式会社　ムラカミ","province":"東京都","city":"世田谷区","address":"東京都世田谷区宮坂3丁目28-2","lat":35.65414266,"lon":139.63350925},{"name":"株式会社　沼崎商会","province":"東京都","city":"世田谷区","address":"東京都世田谷区尾山台3丁目9-6","lat":35.60391554,"lon":139.65227599},{"name":"\"伊藤商事株式会社 葬儀部 \"","province":"東京都","city":"世田谷区","address":"東京都世田谷区松原3丁目30-12","lat":35.66652758,"lon":139.64192207},{"name":"有限会社　メーユー上原葬儀社","province":"東京都","city":"世田谷区","address":"東京都世田谷区梅丘3丁目10-12","lat":35.65251006,"lon":139.65491308},{"name":"\"金子総本店 \"","province":"東京都","city":"世田谷区","address":"東京都世田谷区北沢3丁目31-2","lat":35.66454236,"lon":139.66686446},{"name":"株式会社　佐久間本店","province":"東京都","city":"世田谷区","address":"東京都世田谷区成城6丁目6-3","lat":35.64015449,"lon":139.59726549},{"name":"\"株式会社　佐久間本店 千歳船橋営業所 \"","province":"東京都","city":"世田谷区","address":"東京都世田谷区桜丘2丁目27-11","lat":35.64673208,"lon":139.6225521},{"name":"\"有限会社　佐藤葬祭 \"","province":"東京都","city":"世田谷区","address":"東京都世田谷区北沢5丁目34-14","lat":35.67164994,"lon":139.66833631},{"name":"有限会社　嶋田葬祭","province":"東京都","city":"世田谷区","address":"東京都世田谷区池尻3丁目4-2","lat":35.65009162,"lon":139.68287748},{"name":"\"株式会社　経堂 清水葬祭 \"","province":"東京都","city":"世田谷区","address":"東京都世田谷区経堂1丁目5-9","lat":35.64839896,"lon":139.63626198},{"name":"城西葬祭　株式会社","province":"東京都","city":"世田谷区","address":"東京都世田谷区野沢2丁目13-2","lat":35.63249609,"lon":139.66918473},{"name":"\"株式会社　杉田フューネス \"","province":"東京都","city":"世田谷区","address":"東京都世田谷区上北沢4丁目33-3","lat":35.66985709,"lon":139.61745449},{"name":"\"有限会社　曽根葬祭 \"","province":"東京都","city":"世田谷区","address":"東京都世田谷区下馬4丁目2-12","lat":35.63487384,"lon":139.67952824},{"name":"\"有限会社　野﨑商店 \"","province":"東京都","city":"世田谷区","address":"東京都世田谷区豪徳寺1丁目8-7","lat":35.65171273,"lon":139.64650547},{"name":"有限会社　平野屋葬祭","province":"東京都","city":"世田谷区","address":"東京都世田谷区大原1丁目17-12","lat":35.66876124,"lon":139.66331185},{"name":"株式会社　ムラカミ","province":"東京都","city":"世田谷区","address":"東京都世田谷区宮坂3丁目28-2","lat":35.65414266,"lon":139.63350925},{"name":"株式会社　沼崎商会","province":"東京都","city":"世田谷区","address":"東京都世田谷区尾山台3丁目9-6","lat":35.60391554,"lon":139.65227599},{"name":"\"伊藤商事株式会社 葬儀部 \"","province":"東京都","city":"世田谷区","address":"東京都世田谷区松原3丁目30-12","lat":35.66652758,"lon":139.64192207},{"name":"有限会社　メーユー上原葬儀社","province":"東京都","city":"世田谷区","address":"東京都世田谷区梅丘3丁目10-12","lat":35.65251006,"lon":139.65491308},{"name":"\"金子総本店 \"","province":"東京都","city":"世田谷区","address":"東京都世田谷区北沢3丁目31-2","lat":35.66454236,"lon":139.66686446},{"name":"株式会社　佐久間本店","province":"東京都","city":"世田谷区","address":"東京都世田谷区成城6丁目6-3","lat":35.64015449,"lon":139.59726549},{"name":"\"株式会社　佐久間本店 千歳船橋営業所 \"","province":"東京都","city":"世田谷区","address":"東京都世田谷区桜丘2丁目27-11","lat":35.64673208,"lon":139.6225521},{"name":"\"有限会社　佐藤葬祭 \"","province":"東京都","city":"世田谷区","address":"東京都世田谷区北沢5丁目34-14","lat":35.67164994,"lon":139.66833631},{"name":"有限会社　嶋田葬祭","province":"東京都","city":"世田谷区","address":"東京都世田谷区池尻3丁目4-2","lat":35.65009162,"lon":139.68287748},{"name":"\"株式会社　経堂 清水葬祭 \"","province":"東京都","city":"世田谷区","address":"東京都世田谷区経堂1丁目5-9","lat":35.64839896,"lon":139.63626198},{"name":"城西葬祭　株式会社","province":"東京都","city":"世田谷区","address":"東京都世田谷区野沢2丁目13-2","lat":35.63249609,"lon":139.66918473},{"name":"\"株式会社　杉田フューネス \"","province":"東京都","city":"世田谷区","address":"東京都世田谷区上北沢4丁目33-3","lat":35.66985709,"lon":139.61745449},{"name":"\"有限会社　曽根葬祭 \"","province":"東京都","city":"世田谷区","address":"東京都世田谷区下馬4丁目2-12","lat":35.63487384,"lon":139.67952824},{"name":"\"有限会社　野﨑商店 \"","province":"東京都","city":"世田谷区","address":"東京都世田谷区豪徳寺1丁目8-7","lat":35.65171273,"lon":139.64650547},{"name":"有限会社　平野屋葬祭","province":"東京都","city":"世田谷区","address":"東京都世田谷区大原1丁目17-12","lat":35.66876124,"lon":139.66331185},{"name":"株式会社　ムラカミ","province":"東京都","city":"世田谷区","address":"東京都世田谷区宮坂3丁目28-2","lat":35.65414266,"lon":139.63350925},{"name":"株式会社　沼崎商会","province":"東京都","city":"世田谷区","address":"東京都世田谷区尾山台3丁目9-6","lat":35.60391554,"lon":139.65227599},{"name":"\"伊藤商事株式会社 葬儀部 \"","province":"東京都","city":"世田谷区","address":"東京都世田谷区松原3丁目30-12","lat":35.66652758,"lon":139.64192207},{"name":"有限会社　メーユー上原葬儀社","province":"東京都","city":"世田谷区","address":"東京都世田谷区梅丘3丁目10-12","lat":35.65251006,"lon":139.65491308},{"name":"\"金子総本店 \"","province":"東京都","city":"世田谷区","address":"東京都世田谷区北沢3丁目31-2","lat":35.66454236,"lon":139.66686446},{"name":"株式会社　佐久間本店","province":"東京都","city":"世田谷区","address":"東京都世田谷区成城6丁目6-3","lat":35.64015449,"lon":139.59726549},{"name":"\"株式会社　佐久間本店 千歳船橋営業所 \"","province":"東京都","city":"世田谷区","address":"東京都世田谷区桜丘2丁目27-11","lat":35.64673208,"lon":139.6225521},{"name":"\"有限会社　佐藤葬祭 \"","province":"東京都","city":"世田谷区","address":"東京都世田谷区北沢5丁目34-14","lat":35.67164994,"lon":139.66833631},{"name":"有限会社　嶋田葬祭","province":"東京都","city":"世田谷区","address":"東京都世田谷区池尻3丁目4-2","lat":35.65009162,"lon":139.68287748},{"name":"\"株式会社　経堂 清水葬祭 \"","province":"東京都","city":"世田谷区","address":"東京都世田谷区経堂1丁目5-9","lat":35.64839896,"lon":139.63626198},{"name":"城西葬祭　株式会社","province":"東京都","city":"世田谷区","address":"東京都世田谷区野沢2丁目13-2","lat":35.63249609,"lon":139.66918473},{"name":"\"株式会社　杉田フューネス \"","province":"東京都","city":"世田谷区","address":"東京都世田谷区上北沢4丁目33-3","lat":35.66985709,"lon":139.61745449},{"name":"\"有限会社　曽根葬祭 \"","province":"東京都","city":"世田谷区","address":"東京都世田谷区下馬4丁目2-12","lat":35.63487384,"lon":139.67952824},{"name":"\"有限会社　野﨑商店 \"","province":"東京都","city":"世田谷区","address":"東京都世田谷区豪徳寺1丁目8-7","lat":35.65171273,"lon":139.64650547},{"name":"有限会社　平野屋葬祭","province":"東京都","city":"世田谷区","address":"東京都世田谷区大原1丁目17-12","lat":35.66876124,"lon":139.66331185},{"name":"株式会社　ムラカミ","province":"東京都","city":"世田谷区","address":"東京都世田谷区宮坂3丁目28-2","lat":35.65414266,"lon":139.63350925},{"name":"株式会社　沼崎商会","province":"東京都","city":"世田谷区","address":"東京都世田谷区尾山台3丁目9-6","lat":35.60391554,"lon":139.65227599},{"name":"\"伊藤商事株式会社 葬儀部 \"","province":"東京都","city":"世田谷区","address":"東京都世田谷区松原3丁目30-12","lat":35.66652758,"lon":139.64192207},{"name":"有限会社　メーユー上原葬儀社","province":"東京都","city":"世田谷区","address":"東京都世田谷区梅丘3丁目10-12","lat":35.65251006,"lon":139.65491308},{"name":"\"金子総本店 \"","province":"東京都","city":"世田谷区","address":"東京都世田谷区北沢3丁目31-2","lat":35.66454236,"lon":139.66686446},{"name":"株式会社　佐久間本店","province":"東京都","city":"世田谷区","address":"東京都世田谷区成城6丁目6-3","lat":35.64015449,"lon":139.59726549},{"name":"\"株式会社　佐久間本店 千歳船橋営業所 \"","province":"東京都","city":"世田谷区","address":"東京都世田谷区桜丘2丁目27-11","lat":35.64673208,"lon":139.6225521},{"name":"\"有限会社　佐藤葬祭 \"","province":"東京都","city":"世田谷区","address":"東京都世田谷区北沢5丁目34-14","lat":35.67164994,"lon":139.66833631},{"name":"有限会社　嶋田葬祭","province":"東京都","city":"世田谷区","address":"東京都世田谷区池尻3丁目4-2","lat":35.65009162,"lon":139.68287748},{"name":"\"株式会社　経堂 清水葬祭 \"","province":"東京都","city":"世田谷区","address":"東京都世田谷区経堂1丁目5-9","lat":35.64839896,"lon":139.63626198},{"name":"城西葬祭　株式会社","province":"東京都","city":"世田谷区","address":"東京都世田谷区野沢2丁目13-2","lat":35.63249609,"lon":139.66918473},{"name":"\"株式会社　杉田フューネス \"","province":"東京都","city":"世田谷区","address":"東京都世田谷区上北沢4丁目33-3","lat":35.66985709,"lon":139.61745449},{"name":"\"有限会社　曽根葬祭 \"","province":"東京都","city":"世田谷区","address":"東京都世田谷区下馬4丁目2-12","lat":35.63487384,"lon":139.67952824},{"name":"\"有限会社　野﨑商店 \"","province":"東京都","city":"世田谷区","address":"東京都世田谷区豪徳寺1丁目8-7","lat":35.65171273,"lon":139.64650547},{"name":"有限会社　平野屋葬祭","province":"東京都","city":"世田谷区","address":"東京都世田谷区大原1丁目17-12","lat":35.66876124,"lon":139.66331185},{"name":"株式会社　ムラカミ","province":"東京都","city":"世田谷区","address":"東京都世田谷区宮坂3丁目28-2","lat":35.65414266,"lon":139.63350925},{"name":"株式会社　沼崎商会","province":"東京都","city":"世田谷区","address":"東京都世田谷区尾山台3丁目9-6","lat":35.60391554,"lon":139.65227599},{"name":"\"伊藤商事株式会社 葬儀部 \"","province":"東京都","city":"世田谷区","address":"東京都世田谷区松原3丁目30-12","lat":35.66652758,"lon":139.64192207},{"name":"有限会社　メーユー上原葬儀社","province":"東京都","city":"世田谷区","address":"東京都世田谷区梅丘3丁目10-12","lat":35.65251006,"lon":139.65491308},{"name":"\"金子総本店 \"","province":"東京都","city":"世田谷区","address":"東京都世田谷区北沢3丁目31-2","lat":35.66454236,"lon":139.66686446},{"name":"株式会社　佐久間本店","province":"東京都","city":"世田谷区","address":"東京都世田谷区成城6丁目6-3","lat":35.64015449,"lon":139.59726549},{"name":"\"株式会社　佐久間本店 千歳船橋営業所 \"","province":"東京都","city":"世田谷区","address":"東京都世田谷区桜丘2丁目27-11","lat":35.64673208,"lon":139.6225521},{"name":"\"有限会社　佐藤葬祭 \"","province":"東京都","city":"世田谷区","address":"東京都世田谷区北沢5丁目34-14","lat":35.67164994,"lon":139.66833631},{"name":"有限会社　嶋田葬祭","province":"東京都","city":"世田谷区","address":"東京都世田谷区池尻3丁目4-2","lat":35.65009162,"lon":139.68287748},{"name":"\"株式会社　経堂 清水葬祭 \"","province":"東京都","city":"世田谷区","address":"東京都世田谷区経堂1丁目5-9","lat":35.64839896,"lon":139.63626198},{"name":"城西葬祭　株式会社","province":"東京都","city":"世田谷区","address":"東京都世田谷区野沢2丁目13-2","lat":35.63249609,"lon":139.66918473},{"name":"\"株式会社　杉田フューネス \"","province":"東京都","city":"世田谷区","address":"東京都世田谷区上北沢4丁目33-3","lat":35.66985709,"lon":139.61745449},{"name":"\"有限会社　曽根葬祭 \"","province":"東京都","city":"世田谷区","address":"東京都世田谷区下馬4丁目2-12","lat":35.63487384,"lon":139.67952824},{"name":"\"有限会社　野﨑商店 \"","province":"東京都","city":"世田谷区","address":"東京都世田谷区豪徳寺1丁目8-7","lat":35.65171273,"lon":139.64650547},{"name":"有限会社　平野屋葬祭","province":"東京都","city":"世田谷区","address":"東京都世田谷区大原1丁目17-12","lat":35.66876124,"lon":139.66331185},{"name":"株式会社　ムラカミ","province":"東京都","city":"世田谷区","address":"東京都世田谷区宮坂3丁目28-2","lat":35.65414266,"lon":139.63350925},{"name":"株式会社　沼崎商会","province":"東京都","city":"世田谷区","address":"東京都世田谷区尾山台3丁目9-6","lat":35.60391554,"lon":139.65227599},{"name":"\"伊藤商事株式会社 葬儀部 \"","province":"東京都","city":"世田谷区","address":"東京都世田谷区松原3丁目30-12","lat":35.66652758,"lon":139.64192207},{"name":"有限会社　メーユー上原葬儀社","province":"東京都","city":"世田谷区","address":"東京都世田谷区梅丘3丁目10-12","lat":35.65251006,"lon":139.65491308},{"name":"\"金子総本店 \"","province":"東京都","city":"世田谷区","address":"東京都世田谷区北沢3丁目31-2","lat":35.66454236,"lon":139.66686446},{"name":"株式会社　佐久間本店","province":"東京都","city":"世田谷区","address":"東京都世田谷区成城6丁目6-3","lat":35.64015449,"lon":139.59726549},{"name":"\"株式会社　佐久間本店 千歳船橋営業所 \"","province":"東京都","city":"世田谷区","address":"東京都世田谷区桜丘2丁目27-11","lat":35.64673208,"lon":139.6225521},{"name":"\"有限会社　佐藤葬祭 \"","province":"東京都","city":"世田谷区","address":"東京都世田谷区北沢5丁目34-14","lat":35.67164994,"lon":139.66833631},{"name":"有限会社　嶋田葬祭","province":"東京都","city":"世田谷区","address":"東京都世田谷区池尻3丁目4-2","lat":35.65009162,"lon":139.68287748},{"name":"\"株式会社　経堂 清水葬祭 \"","province":"東京都","city":"世田谷区","address":"東京都世田谷区経堂1丁目5-9","lat":35.64839896,"lon":139.63626198},{"name":"城西葬祭　株式会社","province":"東京都","city":"世田谷区","address":"東京都世田谷区野沢2丁目13-2","lat":35.63249609,"lon":139.66918473},{"name":"\"株式会社　杉田フューネス \"","province":"東京都","city":"世田谷区","address":"東京都世田谷区上北沢4丁目33-3","lat":35.66985709,"lon":139.61745449},{"name":"\"有限会社　曽根葬祭 \"","province":"東京都","city":"世田谷区","address":"東京都世田谷区下馬4丁目2-12","lat":35.63487384,"lon":139.67952824},{"name":"\"有限会社　野﨑商店 \"","province":"東京都","city":"世田谷区","address":"東京都世田谷区豪徳寺1丁目8-7","lat":35.65171273,"lon":139.64650547},{"name":"有限会社　平野屋葬祭","province":"東京都","city":"世田谷区","address":"東京都世田谷区大原1丁目17-12","lat":35.66876124,"lon":139.66331185},{"name":"株式会社　ムラカミ","province":"東京都","city":"世田谷区","address":"東京都世田谷区宮坂3丁目28-2","lat":35.65414266,"lon":139.63350925},{"name":"株式会社　沼崎商会","province":"東京都","city":"世田谷区","address":"東京都世田谷区尾山台3丁目9-6","lat":35.60391554,"lon":139.65227599},{"name":"\"伊藤商事株式会社 葬儀部 \"","province":"東京都","city":"世田谷区","address":"東京都世田谷区松原3丁目30-12","lat":35.66652758,"lon":139.64192207},{"name":"有限会社　メーユー上原葬儀社","province":"東京都","city":"世田谷区","address":"東京都世田谷区梅丘3丁目10-12","lat":35.65251006,"lon":139.65491308},{"name":"\"金子総本店 \"","province":"東京都","city":"世田谷区","address":"東京都世田谷区北沢3丁目31-2","lat":35.66454236,"lon":139.66686446},{"name":"株式会社　佐久間本店","province":"東京都","city":"世田谷区","address":"東京都世田谷区成城6丁目6-3","lat":35.64015449,"lon":139.59726549},{"name":"\"株式会社　佐久間本店 千歳船橋営業所 \"","province":"東京都","city":"世田谷区","address":"東京都世田谷区桜丘2丁目27-11","lat":35.64673208,"lon":139.6225521},{"name":"\"有限会社　佐藤葬祭 \"","province":"東京都","city":"世田谷区","address":"東京都世田谷区北沢5丁目34-14","lat":35.67164994,"lon":139.66833631},{"name":"有限会社　嶋田葬祭","province":"東京都","city":"世田谷区","address":"東京都世田谷区池尻3丁目4-2","lat":35.65009162,"lon":139.68287748},{"name":"\"株式会社　経堂 清水葬祭 \"","province":"東京都","city":"世田谷区","address":"東京都世田谷区経堂1丁目5-9","lat":35.64839896,"lon":139.63626198},{"name":"城西葬祭　株式会社","province":"東京都","city":"世田谷区","address":"東京都世田谷区野沢2丁目13-2","lat":35.63249609,"lon":139.66918473},{"name":"\"株式会社　杉田フューネス \"","province":"東京都","city":"世田谷区","address":"東京都世田谷区上北沢4丁目33-3","lat":35.66985709,"lon":139.61745449},{"name":"\"有限会社　曽根葬祭 \"","province":"東京都","city":"世田谷区","address":"東京都世田谷区下馬4丁目2-12","lat":35.63487384,"lon":139.67952824},{"name":"\"有限会社　野﨑商店 \"","province":"東京都","city":"世田谷区","address":"東京都世田谷区豪徳寺1丁目8-7","lat":35.65171273,"lon":139.64650547},{"name":"有限会社　平野屋葬祭","province":"東京都","city":"世田谷区","address":"東京都世田谷区大原1丁目17-12","lat":35.66876124,"lon":139.66331185},{"name":"株式会社　ムラカミ","province":"東京都","city":"世田谷区","address":"東京都世田谷区宮坂3丁目28-2","lat":35.65414266,"lon":139.63350925},{"name":"株式会社　沼崎商会","province":"東京都","city":"世田谷区","address":"東京都世田谷区尾山台3丁目9-6","lat":35.60391554,"lon":139.65227599},{"name":"\"伊藤商事株式会社 葬儀部 \"","province":"東京都","city":"世田谷区","address":"東京都世田谷区松原3丁目30-12","lat":35.66652758,"lon":139.64192207},{"name":"有限会社　メーユー上原葬儀社","province":"東京都","city":"世田谷区","address":"東京都世田谷区梅丘3丁目10-12","lat":35.65251006,"lon":139.65491308},{"name":"\"金子総本店 \"","province":"東京都","city":"世田谷区","address":"東京都世田谷区北沢3丁目31-2","lat":35.66454236,"lon":139.66686446},{"name":"株式会社　佐久間本店","province":"東京都","city":"世田谷区","address":"東京都世田谷区成城6丁目6-3","lat":35.64015449,"lon":139.59726549},{"name":"\"株式会社　佐久間本店 千歳船橋営業所 \"","province":"東京都","city":"世田谷区","address":"東京都世田谷区桜丘2丁目27-11","lat":35.64673208,"lon":139.6225521},{"name":"\"有限会社　佐藤葬祭 \"","province":"東京都","city":"世田谷区","address":"東京都世田谷区北沢5丁目34-14","lat":35.67164994,"lon":139.66833631},{"name":"有限会社　嶋田葬祭","province":"東京都","city":"世田谷区","address":"東京都世田谷区池尻3丁目4-2","lat":35.65009162,"lon":139.68287748},{"name":"\"株式会社　経堂 清水葬祭 \"","province":"東京都","city":"世田谷区","address":"東京都世田谷区経堂1丁目5-9","lat":35.64839896,"lon":139.63626198},{"name":"城西葬祭　株式会社","province":"東京都","city":"世田谷区","address":"東京都世田谷区野沢2丁目13-2","lat":35.63249609,"lon":139.66918473},{"name":"\"株式会社　杉田フューネス \"","province":"東京都","city":"世田谷区","address":"東京都世田谷区上北沢4丁目33-3","lat":35.66985709,"lon":139.61745449},{"name":"\"有限会社　曽根葬祭 \"","province":"東京都","city":"世田谷区","address":"東京都世田谷区下馬4丁目2-12","lat":35.63487384,"lon":139.67952824},{"name":"\"有限会社　野﨑商店 \"","province":"東京都","city":"世田谷区","address":"東京都世田谷区豪徳寺1丁目8-7","lat":35.65171273,"lon":139.64650547},{"name":"有限会社　平野屋葬祭","province":"東京都","city":"世田谷区","address":"東京都世田谷区大原1丁目17-12","lat":35.66876124,"lon":139.66331185},{"name":"株式会社　ムラカミ","province":"東京都","city":"世田谷区","address":"東京都世田谷区宮坂3丁目28-2","lat":35.65414266,"lon":139.63350925},{"name":"株式会社　沼崎商会","province":"東京都","city":"世田谷区","address":"東京都世田谷区尾山台3丁目9-6","lat":35.60391554,"lon":139.65227599},{"name":"\"伊藤商事株式会社 葬儀部 \"","province":"東京都","city":"世田谷区","address":"東京都世田谷区松原3丁目30-12","lat":35.66652758,"lon":139.64192207},{"name":"有限会社　メーユー上原葬儀社","province":"東京都","city":"世田谷区","address":"東京都世田谷区梅丘3丁目10-12","lat":35.65251006,"lon":139.65491308},{"name":"\"金子総本店 \"","province":"東京都","city":"世田谷区","address":"東京都世田谷区北沢3丁目31-2","lat":35.66454236,"lon":139.66686446},{"name":"株式会社　佐久間本店","province":"東京都","city":"世田谷区","address":"東京都世田谷区成城6丁目6-3","lat":35.64015449,"lon":139.59726549},{"name":"\"株式会社　佐久間本店 千歳船橋営業所 \"","province":"東京都","city":"世田谷区","address":"東京都世田谷区桜丘2丁目27-11","lat":35.64673208,"lon":139.6225521},{"name":"\"有限会社　佐藤葬祭 \"","province":"東京都","city":"世田谷区","address":"東京都世田谷区北沢5丁目34-14","lat":35.67164994,"lon":139.66833631},{"name":"有限会社　嶋田葬祭","province":"東京都","city":"世田谷区","address":"東京都世田谷区池尻3丁目4-2","lat":35.65009162,"lon":139.68287748},{"name":"\"株式会社　経堂 清水葬祭 \"","province":"東京都","city":"世田谷区","address":"東京都世田谷区経堂1丁目5-9","lat":35.64839896,"lon":139.63626198},{"name":"城西葬祭　株式会社","province":"東京都","city":"世田谷区","address":"東京都世田谷区野沢2丁目13-2","lat":35.63249609,"lon":139.66918473},{"name":"\"株式会社　杉田フューネス \"","province":"東京都","city":"世田谷区","address":"東京都世田谷区上北沢4丁目33-3","lat":35.66985709,"lon":139.61745449},{"name":"\"有限会社　曽根葬祭 \"","province":"東京都","city":"世田谷区","address":"東京都世田谷区下馬4丁目2-12","lat":35.63487384,"lon":139.67952824},{"name":"\"有限会社　野﨑商店 \"","province":"東京都","city":"世田谷区","address":"東京都世田谷区豪徳寺1丁目8-7","lat":35.65171273,"lon":139.64650547},{"name":"有限会社　平野屋葬祭","province":"東京都","city":"世田谷区","address":"東京都世田谷区大原1丁目17-12","lat":35.66876124,"lon":139.66331185},{"name":"株式会社　ムラカミ","province":"東京都","city":"世田谷区","address":"東京都世田谷区宮坂3丁目28-2","lat":35.65414266,"lon":139.63350925},{"name":"株式会社　沼崎商会","province":"東京都","city":"世田谷区","address":"東京都世田谷区尾山台3丁目9-6","lat":35.60391554,"lon":139.65227599},{"name":"\"伊藤商事株式会社 葬儀部 \"","province":"東京都","city":"世田谷区","address":"東京都世田谷区松原3丁目30-12","lat":35.66652758,"lon":139.64192207},{"name":"有限会社　メーユー上原葬儀社","province":"東京都","city":"世田谷区","address":"東京都世田谷区梅丘3丁目10-12","lat":35.65251006,"lon":139.65491308},{"name":"\"金子総本店 \"","province":"東京都","city":"世田谷区","address":"東京都世田谷区北沢3丁目31-2","lat":35.66454236,"lon":139.66686446},{"name":"株式会社　佐久間本店","province":"東京都","city":"世田谷区","address":"東京都世田谷区成城6丁目6-3","lat":35.64015449,"lon":139.59726549},{"name":"\"株式会社　佐久間本店 千歳船橋営業所 \"","province":"東京都","city":"世田谷区","address":"東京都世田谷区桜丘2丁目27-11","lat":35.64673208,"lon":139.6225521},{"name":"\"有限会社　佐藤葬祭 \"","province":"東京都","city":"世田谷区","address":"東京都世田谷区北沢5丁目34-14","lat":35.67164994,"lon":139.66833631},{"name":"有限会社　嶋田葬祭","province":"東京都","city":"世田谷区","address":"東京都世田谷区池尻3丁目4-2","lat":35.65009162,"lon":139.68287748},{"name":"\"株式会社　経堂 清水葬祭 \"","province":"東京都","city":"世田谷区","address":"東京都世田谷区経堂1丁目5-9","lat":35.64839896,"lon":139.63626198},{"name":"城西葬祭　株式会社","province":"東京都","city":"世田谷区","address":"東京都世田谷区野沢2丁目13-2","lat":35.63249609,"lon":139.66918473},{"name":"\"株式会社　杉田フューネス \"","province":"東京都","city":"世田谷区","address":"東京都世田谷区上北沢4丁目33-3","lat":35.66985709,"lon":139.61745449},{"name":"\"有限会社　曽根葬祭 \"","province":"東京都","city":"世田谷区","address":"東京都世田谷区下馬4丁目2-12","lat":35.63487384,"lon":139.67952824},{"name":"\"有限会社　野﨑商店 \"","province":"東京都","city":"世田谷区","address":"東京都世田谷区豪徳寺1丁目8-7","lat":35.65171273,"lon":139.64650547},{"name":"有限会社　平野屋葬祭","province":"東京都","city":"世田谷区","address":"東京都世田谷区大原1丁目17-12","lat":35.66876124,"lon":139.66331185},{"name":"株式会社　ムラカミ","province":"東京都","city":"世田谷区","address":"東京都世田谷区宮坂3丁目28-2","lat":35.65414266,"lon":139.63350925},{"name":"株式会社　沼崎商会","province":"東京都","city":"世田谷区","address":"東京都世田谷区尾山台3丁目9-6","lat":35.60391554,"lon":139.65227599},{"name":"\"伊藤商事株式会社 葬儀部 \"","province":"東京都","city":"世田谷区","address":"東京都世田谷区松原3丁目30-12","lat":35.66652758,"lon":139.64192207},{"name":"有限会社　メーユー上原葬儀社","province":"東京都","city":"世田谷区","address":"東京都世田谷区梅丘3丁目10-12","lat":35.65251006,"lon":139.65491308},{"name":"\"金子総本店 \"","province":"東京都","city":"世田谷区","address":"東京都世田谷区北沢3丁目31-2","lat":35.66454236,"lon":139.66686446},{"name":"株式会社　佐久間本店","province":"東京都","city":"世田谷区","address":"東京都世田谷区成城6丁目6-3","lat":35.64015449,"lon":139.59726549},{"name":"\"株式会社　佐久間本店 千歳船橋営業所 \"","province":"東京都","city":"世田谷区","address":"東京都世田谷区桜丘2丁目27-11","lat":35.64673208,"lon":139.6225521},{"name":"\"有限会社　佐藤葬祭 \"","province":"東京都","city":"世田谷区","address":"東京都世田谷区北沢5丁目34-14","lat":35.67164994,"lon":139.66833631},{"name":"有限会社　嶋田葬祭","province":"東京都","city":"世田谷区","address":"東京都世田谷区池尻3丁目4-2","lat":35.65009162,"lon":139.68287748},{"name":"\"株式会社　経堂 清水葬祭 \"","province":"東京都","city":"世田谷区","address":"東京都世田谷区経堂1丁目5-9","lat":35.64839896,"lon":139.63626198},{"name":"城西葬祭　株式会社","province":"東京都","city":"世田谷区","address":"東京都世田谷区野沢2丁目13-2","lat":35.63249609,"lon":139.66918473},{"name":"\"株式会社　杉田フューネス \"","province":"東京都","city":"世田谷区","address":"東京都世田谷区上北沢4丁目33-3","lat":35.66985709,"lon":139.61745449},{"name":"\"有限会社　曽根葬祭 \"","province":"東京都","city":"世田谷区","address":"東京都世田谷区下馬4丁目2-12","lat":35.63487384,"lon":139.67952824},{"name":"\"有限会社　野﨑商店 \"","province":"東京都","city":"世田谷区","address":"東京都世田谷区豪徳寺1丁目8-7","lat":35.65171273,"lon":139.64650547},{"name":"有限会社　平野屋葬祭","province":"東京都","city":"世田谷区","address":"東京都世田谷区大原1丁目17-12","lat":35.66876124,"lon":139.66331185},{"name":"株式会社　ムラカミ","province":"東京都","city":"世田谷区","address":"東京都世田谷区宮坂3丁目28-2","lat":35.65414266,"lon":139.63350925},{"name":"株式会社　沼崎商会","province":"東京都","city":"世田谷区","address":"東京都世田谷区尾山台3丁目9-6","lat":35.60391554,"lon":139.65227599},{"name":"\"伊藤商事株式会社 葬儀部 \"","province":"東京都","city":"世田谷区","address":"東京都世田谷区松原3丁目30-12","lat":35.66652758,"lon":139.64192207},{"name":"有限会社　メーユー上原葬儀社","province":"東京都","city":"世田谷区","address":"東京都世田谷区梅丘3丁目10-12","lat":35.65251006,"lon":139.65491308},{"name":"\"金子総本店 \"","province":"東京都","city":"世田谷区","address":"東京都世田谷区北沢3丁目31-2","lat":35.66454236,"lon":139.66686446},{"name":"株式会社　佐久間本店","province":"東京都","city":"世田谷区","address":"東京都世田谷区成城6丁目6-3","lat":35.64015449,"lon":139.59726549},{"name":"\"株式会社　佐久間本店 千歳船橋営業所 \"","province":"東京都","city":"世田谷区","address":"東京都世田谷区桜丘2丁目27-11","lat":35.64673208,"lon":139.6225521},{"name":"\"有限会社　佐藤葬祭 \"","province":"東京都","city":"世田谷区","address":"東京都世田谷区北沢5丁目34-14","lat":35.67164994,"lon":139.66833631},{"name":"有限会社　嶋田葬祭","province":"東京都","city":"世田谷区","address":"東京都世田谷区池尻3丁目4-2","lat":35.65009162,"lon":139.68287748},{"name":"\"株式会社　経堂 清水葬祭 \"","province":"東京都","city":"世田谷区","address":"東京都世田谷区経堂1丁目5-9","lat":35.64839896,"lon":139.63626198},{"name":"城西葬祭　株式会社","province":"東京都","city":"世田谷区","address":"東京都世田谷区野沢2丁目13-2","lat":35.63249609,"lon":139.66918473},{"name":"\"株式会社　杉田フューネス \"","province":"東京都","city":"世田谷区","address":"東京都世田谷区上北沢4丁目33-3","lat":35.66985709,"lon":139.61745449},{"name":"\"有限会社　曽根葬祭 \"","province":"東京都","city":"世田谷区","address":"東京都世田谷区下馬4丁目2-12","lat":35.63487384,"lon":139.67952824},{"name":"\"有限会社　野﨑商店 \"","province":"東京都","city":"世田谷区","address":"東京都世田谷区豪徳寺1丁目8-7","lat":35.65171273,"lon":139.64650547},{"name":"有限会社　平野屋葬祭","province":"東京都","city":"世田谷区","address":"東京都世田谷区大原1丁目17-12","lat":35.66876124,"lon":139.66331185},{"name":"株式会社　ムラカミ","province":"東京都","city":"世田谷区","address":"東京都世田谷区宮坂3丁目28-2","lat":35.65414266,"lon":139.63350925},{"name":"株式会社　沼崎商会","province":"東京都","city":"世田谷区","address":"東京都世田谷区尾山台3丁目9-6","lat":35.60391554,"lon":139.65227599},{"name":"\"伊藤商事株式会社 葬儀部 \"","province":"東京都","city":"世田谷区","address":"東京都世田谷区松原3丁目30-12","lat":35.66652758,"lon":139.64192207},{"name":"有限会社　メーユー上原葬儀社","province":"東京都","city":"世田谷区","address":"東京都世田谷区梅丘3丁目10-12","lat":35.65251006,"lon":139.65491308},{"name":"\"金子総本店 \"","province":"東京都","city":"世田谷区","address":"東京都世田谷区北沢3丁目31-2","lat":35.66454236,"lon":139.66686446},{"name":"株式会社　佐久間本店","province":"東京都","city":"世田谷区","address":"東京都世田谷区成城6丁目6-3","lat":35.64015449,"lon":139.59726549},{"name":"\"株式会社　佐久間本店 千歳船橋営業所 \"","province":"東京都","city":"世田谷区","address":"東京都世田谷区桜丘2丁目27-11","lat":35.64673208,"lon":139.6225521},{"name":"\"有限会社　佐藤葬祭 \"","province":"東京都","city":"世田谷区","address":"東京都世田谷区北沢5丁目34-14","lat":35.67164994,"lon":139.66833631},{"name":"有限会社　嶋田葬祭","province":"東京都","city":"世田谷区","address":"東京都世田谷区池尻3丁目4-2","lat":35.65009162,"lon":139.68287748},{"name":"\"株式会社　経堂 清水葬祭 \"","province":"東京都","city":"世田谷区","address":"東京都世田谷区経堂1丁目5-9","lat":35.64839896,"lon":139.63626198},{"name":"城西葬祭　株式会社","province":"東京都","city":"世田谷区","address":"東京都世田谷区野沢2丁目13-2","lat":35.63249609,"lon":139.66918473},{"name":"\"株式会社　杉田フューネス \"","province":"東京都","city":"世田谷区","address":"東京都世田谷区上北沢4丁目33-3","lat":35.66985709,"lon":139.61745449},{"name":"\"有限会社　曽根葬祭 \"","province":"東京都","city":"世田谷区","address":"東京都世田谷区下馬4丁目2-12","lat":35.63487384,"lon":139.67952824},{"name":"\"有限会社　野﨑商店 \"","province":"東京都","city":"世田谷区","address":"東京都世田谷区豪徳寺1丁目8-7","lat":35.65171273,"lon":139.64650547},{"name":"有限会社　平野屋葬祭","province":"東京都","city":"世田谷区","address":"東京都世田谷区大原1丁目17-12","lat":35.66876124,"lon":139.66331185},{"name":"株式会社　ムラカミ","province":"東京都","city":"世田谷区","address":"東京都世田谷区宮坂3丁目28-2","lat":35.65414266,"lon":139.63350925},{"name":"株式会社　沼崎商会","province":"東京都","city":"世田谷区","address":"東京都世田谷区尾山台3丁目9-6","lat":35.60391554,"lon":139.65227599},{"name":"\"伊藤商事株式会社 葬儀部 \"","province":"東京都","city":"世田谷区","address":"東京都世田谷区松原3丁目30-12","lat":35.66652758,"lon":139.64192207},{"name":"有限会社　メーユー上原葬儀社","province":"東京都","city":"世田谷区","address":"東京都世田谷区梅丘3丁目10-12","lat":35.65251006,"lon":139.65491308},{"name":"\"金子総本店 \"","province":"東京都","city":"世田谷区","address":"東京都世田谷区北沢3丁目31-2","lat":35.66454236,"lon":139.66686446},{"name":"株式会社　佐久間本店","province":"東京都","city":"世田谷区","address":"東京都世田谷区成城6丁目6-3","lat":35.64015449,"lon":139.59726549},{"name":"\"株式会社　佐久間本店 千歳船橋営業所 \"","province":"東京都","city":"世田谷区","address":"東京都世田谷区桜丘2丁目27-11","lat":35.64673208,"lon":139.6225521},{"name":"\"有限会社　佐藤葬祭 \"","province":"東京都","city":"世田谷区","address":"東京都世田谷区北沢5丁目34-14","lat":35.67164994,"lon":139.66833631},{"name":"有限会社　嶋田葬祭","province":"東京都","city":"世田谷区","address":"東京都世田谷区池尻3丁目4-2","lat":35.65009162,"lon":139.68287748},{"name":"\"株式会社　経堂 清水葬祭 \"","province":"東京都","city":"世田谷区","address":"東京都世田谷区経堂1丁目5-9","lat":35.64839896,"lon":139.63626198},{"name":"城西葬祭　株式会社","province":"東京都","city":"世田谷区","address":"東京都世田谷区野沢2丁目13-2","lat":35.63249609,"lon":139.66918473},{"name":"\"株式会社　杉田フューネス \"","province":"東京都","city":"世田谷区","address":"東京都世田谷区上北沢4丁目33-3","lat":35.66985709,"lon":139.61745449},{"name":"\"有限会社　曽根葬祭 \"","province":"東京都","city":"世田谷区","address":"東京都世田谷区下馬4丁目2-12","lat":35.63487384,"lon":139.67952824},{"name":"\"有限会社　野﨑商店 \"","province":"東京都","city":"世田谷区","address":"東京都世田谷区豪徳寺1丁目8-7","lat":35.65171273,"lon":139.64650547},{"name":"有限会社　平野屋葬祭","province":"東京都","city":"世田谷区","address":"東京都世田谷区大原1丁目17-12","lat":35.66876124,"lon":139.66331185},{"name":"株式会社　ムラカミ","province":"東京都","city":"世田谷区","address":"東京都世田谷区宮坂3丁目28-2","lat":35.65414266,"lon":139.63350925},{"name":"株式会社　沼崎商会","province":"東京都","city":"世田谷区","address":"東京都世田谷区尾山台3丁目9-6","lat":35.60391554,"lon":139.65227599},{"name":"\"伊藤商事株式会社 葬儀部 \"","province":"東京都","city":"世田谷区","address":"東京都世田谷区松原3丁目30-12","lat":35.66652758,"lon":139.64192207},{"name":"有限会社　メーユー上原葬儀社","province":"東京都","city":"世田谷区","address":"東京都世田谷区梅丘3丁目10-12","lat":35.65251006,"lon":139.65491308},{"name":"\"金子総本店 \"","province":"東京都","city":"世田谷区","address":"東京都世田谷区北沢3丁目31-2","lat":35.66454236,"lon":139.66686446},{"name":"株式会社　佐久間本店","province":"東京都","city":"世田谷区","address":"東京都世田谷区成城6丁目6-3","lat":35.64015449,"lon":139.59726549},{"name":"\"株式会社　佐久間本店 千歳船橋営業所 \"","province":"東京都","city":"世田谷区","address":"東京都世田谷区桜丘2丁目27-11","lat":35.64673208,"lon":139.6225521},{"name":"\"有限会社　佐藤葬祭 \"","province":"東京都","city":"世田谷区","address":"東京都世田谷区北沢5丁目34-14","lat":35.67164994,"lon":139.66833631},{"name":"有限会社　嶋田葬祭","province":"東京都","city":"世田谷区","address":"東京都世田谷区池尻3丁目4-2","lat":35.65009162,"lon":139.68287748},{"name":"\"株式会社　経堂 清水葬祭 \"","province":"東京都","city":"世田谷区","address":"東京都世田谷区経堂1丁目5-9","lat":35.64839896,"lon":139.63626198},{"name":"城西葬祭　株式会社","province":"東京都","city":"世田谷区","address":"東京都世田谷区野沢2丁目13-2","lat":35.63249609,"lon":139.66918473},{"name":"\"株式会社　杉田フューネス \"","province":"東京都","city":"世田谷区","address":"東京都世田谷区上北沢4丁目33-3","lat":35.66985709,"lon":139.61745449},{"name":"\"有限会社　曽根葬祭 \"","province":"東京都","city":"世田谷区","address":"東京都世田谷区下馬4丁目2-12","lat":35.63487384,"lon":139.67952824},{"name":"\"有限会社　野﨑商店 \"","province":"東京都","city":"世田谷区","address":"東京都世田谷区豪徳寺1丁目8-7","lat":35.65171273,"lon":139.64650547},{"name":"有限会社　平野屋葬祭","province":"東京都","city":"世田谷区","address":"東京都世田谷区大原1丁目17-12","lat":35.66876124,"lon":139.66331185},{"name":"株式会社　ムラカミ","province":"東京都","city":"世田谷区","address":"東京都世田谷区宮坂3丁目28-2","lat":35.65414266,"lon":139.63350925},{"name":"株式会社　沼崎商会","province":"東京都","city":"世田谷区","address":"東京都世田谷区尾山台3丁目9-6","lat":35.60391554,"lon":139.65227599},{"name":"\"伊藤商事株式会社 葬儀部 \"","province":"東京都","city":"世田谷区","address":"東京都世田谷区松原3丁目30-12","lat":35.66652758,"lon":139.64192207},{"name":"有限会社　メーユー上原葬儀社","province":"東京都","city":"世田谷区","address":"東京都世田谷区梅丘3丁目10-12","lat":35.65251006,"lon":139.65491308},{"name":"\"金子総本店 \"","province":"東京都","city":"世田谷区","address":"東京都世田谷区北沢3丁目31-2","lat":35.66454236,"lon":139.66686446},{"name":"株式会社　佐久間本店","province":"東京都","city":"世田谷区","address":"東京都世田谷区成城6丁目6-3","lat":35.64015449,"lon":139.59726549},{"name":"\"株式会社　佐久間本店 千歳船橋営業所 \"","province":"東京都","city":"世田谷区","address":"東京都世田谷区桜丘2丁目27-11","lat":35.64673208,"lon":139.6225521},{"name":"\"有限会社　佐藤葬祭 \"","province":"東京都","city":"世田谷区","address":"東京都世田谷区北沢5丁目34-14","lat":35.67164994,"lon":139.66833631},{"name":"有限会社　嶋田葬祭","province":"東京都","city":"世田谷区","address":"東京都世田谷区池尻3丁目4-2","lat":35.65009162,"lon":139.68287748},{"name":"\"株式会社　経堂 清水葬祭 \"","province":"東京都","city":"世田谷区","address":"東京都世田谷区経堂1丁目5-9","lat":35.64839896,"lon":139.63626198},{"name":"城西葬祭　株式会社","province":"東京都","city":"世田谷区","address":"東京都世田谷区野沢2丁目13-2","lat":35.63249609,"lon":139.66918473},{"name":"\"株式会社　杉田フューネス \"","province":"東京都","city":"世田谷区","address":"東京都世田谷区上北沢4丁目33-3","lat":35.66985709,"lon":139.61745449},{"name":"\"有限会社　曽根葬祭 \"","province":"東京都","city":"世田谷区","address":"東京都世田谷区下馬4丁目2-12","lat":35.63487384,"lon":139.67952824},{"name":"\"有限会社　野﨑商店 \"","province":"東京都","city":"世田谷区","address":"東京都世田谷区豪徳寺1丁目8-7","lat":35.65171273,"lon":139.64650547},{"name":"有限会社　平野屋葬祭","province":"東京都","city":"世田谷区","address":"東京都世田谷区大原1丁目17-12","lat":35.66876124,"lon":139.66331185},{"name":"株式会社　ムラカミ","province":"東京都","city":"世田谷区","address":"東京都世田谷区宮坂3丁目28-2","lat":35.65414266,"lon":139.63350925},{"name":"株式会社　沼崎商会","province":"東京都","city":"世田谷区","address":"東京都世田谷区尾山台3丁目9-6","lat":35.60391554,"lon":139.65227599},{"name":"\"伊藤商事株式会社 葬儀部 \"","province":"東京都","city":"世田谷区","address":"東京都世田谷区松原3丁目30-12","lat":35.66652758,"lon":139.64192207},{"name":"有限会社　メーユー上原葬儀社","province":"東京都","city":"世田谷区","address":"東京都世田谷区梅丘3丁目10-12","lat":35.65251006,"lon":139.65491308},{"name":"\"金子総本店 \"","province":"東京都","city":"世田谷区","address":"東京都世田谷区北沢3丁目31-2","lat":35.66454236,"lon":139.66686446},{"name":"株式会社　佐久間本店","province":"東京都","city":"世田谷区","address":"東京都世田谷区成城6丁目6-3","lat":35.64015449,"lon":139.59726549},{"name":"\"株式会社　佐久間本店 千歳船橋営業所 \"","province":"東京都","city":"世田谷区","address":"東京都世田谷区桜丘2丁目27-11","lat":35.64673208,"lon":139.6225521},{"name":"\"有限会社　佐藤葬祭 \"","province":"東京都","city":"世田谷区","address":"東京都世田谷区北沢5丁目34-14","lat":35.67164994,"lon":139.66833631},{"name":"有限会社　嶋田葬祭","province":"東京都","city":"世田谷区","address":"東京都世田谷区池尻3丁目4-2","lat":35.65009162,"lon":139.68287748},{"name":"\"株式会社　経堂 清水葬祭 \"","province":"東京都","city":"世田谷区","address":"東京都世田谷区経堂1丁目5-9","lat":35.64839896,"lon":139.63626198},{"name":"城西葬祭　株式会社","province":"東京都","city":"世田谷区","address":"東京都世田谷区野沢2丁目13-2","lat":35.63249609,"lon":139.66918473},{"name":"\"株式会社　杉田フューネス \"","province":"東京都","city":"世田谷区","address":"東京都世田谷区上北沢4丁目33-3","lat":35.66985709,"lon":139.61745449},{"name":"\"有限会社　曽根葬祭 \"","province":"東京都","city":"世田谷区","address":"東京都世田谷区下馬4丁目2-12","lat":35.63487384,"lon":139.67952824},{"name":"\"有限会社　野﨑商店 \"","province":"東京都","city":"世田谷区","address":"東京都世田谷区豪徳寺1丁目8-7","lat":35.65171273,"lon":139.64650547},{"name":"有限会社　平野屋葬祭","province":"東京都","city":"世田谷区","address":"東京都世田谷区大原1丁目17-12","lat":35.66876124,"lon":139.66331185},{"name":"株式会社　ムラカミ","province":"東京都","city":"世田谷区","address":"東京都世田谷区宮坂3丁目28-2","lat":35.65414266,"lon":139.63350925},{"name":"株式会社　沼崎商会","province":"東京都","city":"世田谷区","address":"東京都世田谷区尾山台3丁目9-6","lat":35.60391554,"lon":139.65227599},{"name":"\"伊藤商事株式会社 葬儀部 \"","province":"東京都","city":"世田谷区","address":"東京都世田谷区松原3丁目30-12","lat":35.66652758,"lon":139.64192207},{"name":"有限会社　メーユー上原葬儀社","province":"東京都","city":"世田谷区","address":"東京都世田谷区梅丘3丁目10-12","lat":35.65251006,"lon":139.65491308},{"name":"\"金子総本店 \"","province":"東京都","city":"世田谷区","address":"東京都世田谷区北沢3丁目31-2","lat":35.66454236,"lon":139.66686446},{"name":"株式会社　佐久間本店","province":"東京都","city":"世田谷区","address":"東京都世田谷区成城6丁目6-3","lat":35.64015449,"lon":139.59726549},{"name":"\"株式会社　佐久間本店 千歳船橋営業所 \"","province":"東京都","city":"世田谷区","address":"東京都世田谷区桜丘2丁目27-11","lat":35.64673208,"lon":139.6225521},{"name":"\"有限会社　佐藤葬祭 \"","province":"東京都","city":"世田谷区","address":"東京都世田谷区北沢5丁目34-14","lat":35.67164994,"lon":139.66833631},{"name":"有限会社　嶋田葬祭","province":"東京都","city":"世田谷区","address":"東京都世田谷区池尻3丁目4-2","lat":35.65009162,"lon":139.68287748},{"name":"\"株式会社　経堂 清水葬祭 \"","province":"東京都","city":"世田谷区","address":"東京都世田谷区経堂1丁目5-9","lat":35.64839896,"lon":139.63626198},{"name":"城西葬祭　株式会社","province":"東京都","city":"世田谷区","address":"東京都世田谷区野沢2丁目13-2","lat":35.63249609,"lon":139.66918473},{"name":"\"株式会社　杉田フューネス \"","province":"東京都","city":"世田谷区","address":"東京都世田谷区上北沢4丁目33-3","lat":35.66985709,"lon":139.61745449},{"name":"\"有限会社　曽根葬祭 \"","province":"東京都","city":"世田谷区","address":"東京都世田谷区下馬4丁目2-12","lat":35.63487384,"lon":139.67952824},{"name":"\"有限会社　野﨑商店 \"","province":"東京都","city":"世田谷区","address":"東京都世田谷区豪徳寺1丁目8-7","lat":35.65171273,"lon":139.64650547},{"name":"有限会社　平野屋葬祭","province":"東京都","city":"世田谷区","address":"東京都世田谷区大原1丁目17-12","lat":35.66876124,"lon":139.66331185},{"name":"株式会社　ムラカミ","province":"東京都","city":"世田谷区","address":"東京都世田谷区宮坂3丁目28-2","lat":35.65414266,"lon":139.63350925},{"name":"株式会社　沼崎商会","province":"東京都","city":"世田谷区","address":"東京都世田谷区尾山台3丁目9-6","lat":35.60391554,"lon":139.65227599},{"name":"\"伊藤商事株式会社 葬儀部 \"","province":"東京都","city":"世田谷区","address":"東京都世田谷区松原3丁目30-12","lat":35.66652758,"lon":139.64192207},{"name":"有限会社　メーユー上原葬儀社","province":"東京都","city":"世田谷区","address":"東京都世田谷区梅丘3丁目10-12","lat":35.65251006,"lon":139.65491308},{"name":"\"金子総本店 \"","province":"東京都","city":"世田谷区","address":"東京都世田谷区北沢3丁目31-2","lat":35.66454236,"lon":139.66686446},{"name":"株式会社　佐久間本店","province":"東京都","city":"世田谷区","address":"東京都世田谷区成城6丁目6-3","lat":35.64015449,"lon":139.59726549},{"name":"\"株式会社　佐久間本店 千歳船橋営業所 \"","province":"東京都","city":"世田谷区","address":"東京都世田谷区桜丘2丁目27-11","lat":35.64673208,"lon":139.6225521},{"name":"\"有限会社　佐藤葬祭 \"","province":"東京都","city":"世田谷区","address":"東京都世田谷区北沢5丁目34-14","lat":35.67164994,"lon":139.66833631},{"name":"有限会社　嶋田葬祭","province":"東京都","city":"世田谷区","address":"東京都世田谷区池尻3丁目4-2","lat":35.65009162,"lon":139.68287748},{"name":"\"株式会社　経堂 清水葬祭 \"","province":"東京都","city":"世田谷区","address":"東京都世田谷区経堂1丁目5-9","lat":35.64839896,"lon":139.63626198},{"name":"城西葬祭　株式会社","province":"東京都","city":"世田谷区","address":"東京都世田谷区野沢2丁目13-2","lat":35.63249609,"lon":139.66918473},{"name":"\"株式会社　杉田フューネス \"","province":"東京都","city":"世田谷区","address":"東京都世田谷区上北沢4丁目33-3","lat":35.66985709,"lon":139.61745449},{"name":"\"有限会社　曽根葬祭 \"","province":"東京都","city":"世田谷区","address":"東京都世田谷区下馬4丁目2-12","lat":35.63487384,"lon":139.67952824},{"name":"\"有限会社　野﨑商店 \"","province":"東京都","city":"世田谷区","address":"東京都世田谷区豪徳寺1丁目8-7","lat":35.65171273,"lon":139.64650547},{"name":"有限会社　平野屋葬祭","province":"東京都","city":"世田谷区","address":"東京都世田谷区大原1丁目17-12","lat":35.66876124,"lon":139.66331185},{"name":"株式会社　ムラカミ","province":"東京都","city":"世田谷区","address":"東京都世田谷区宮坂3丁目28-2","lat":35.65414266,"lon":139.63350925},{"name":"株式会社　沼崎商会","province":"東京都","city":"世田谷区","address":"東京都世田谷区尾山台3丁目9-6","lat":35.60391554,"lon":139.65227599},{"name":"\"伊藤商事株式会社 葬儀部 \"","province":"東京都","city":"世田谷区","address":"東京都世田谷区松原3丁目30-12","lat":35.66652758,"lon":139.64192207},{"name":"有限会社　メーユー上原葬儀社","province":"東京都","city":"世田谷区","address":"東京都世田谷区梅丘3丁目10-12","lat":35.65251006,"lon":139.65491308},{"name":"\"金子総本店 \"","province":"東京都","city":"世田谷区","address":"東京都世田谷区北沢3丁目31-2","lat":35.66454236,"lon":139.66686446},{"name":"株式会社　佐久間本店","province":"東京都","city":"世田谷区","address":"東京都世田谷区成城6丁目6-3","lat":35.64015449,"lon":139.59726549},{"name":"\"株式会社　佐久間本店 千歳船橋営業所 \"","province":"東京都","city":"世田谷区","address":"東京都世田谷区桜丘2丁目27-11","lat":35.64673208,"lon":139.6225521},{"name":"\"有限会社　佐藤葬祭 \"","province":"東京都","city":"世田谷区","address":"東京都世田谷区北沢5丁目34-14","lat":35.67164994,"lon":139.66833631},{"name":"有限会社　嶋田葬祭","province":"東京都","city":"世田谷区","address":"東京都世田谷区池尻3丁目4-2","lat":35.65009162,"lon":139.68287748},{"name":"\"株式会社　経堂 清水葬祭 \"","province":"東京都","city":"世田谷区","address":"東京都世田谷区経堂1丁目5-9","lat":35.64839896,"lon":139.63626198},{"name":"城西葬祭　株式会社","province":"東京都","city":"世田谷区","address":"東京都世田谷区野沢2丁目13-2","lat":35.63249609,"lon":139.66918473},{"name":"\"株式会社　杉田フューネス \"","province":"東京都","city":"世田谷区","address":"東京都世田谷区上北沢4丁目33-3","lat":35.66985709,"lon":139.61745449},{"name":"\"有限会社　曽根葬祭 \"","province":"東京都","city":"世田谷区","address":"東京都世田谷区下馬4丁目2-12","lat":35.63487384,"lon":139.67952824},{"name":"\"有限会社　野﨑商店 \"","province":"東京都","city":"世田谷区","address":"東京都世田谷区豪徳寺1丁目8-7","lat":35.65171273,"lon":139.64650547},{"name":"有限会社　平野屋葬祭","province":"東京都","city":"世田谷区","address":"東京都世田谷区大原1丁目17-12","lat":35.66876124,"lon":139.66331185},{"name":"株式会社　ムラカミ","province":"東京都","city":"世田谷区","address":"東京都世田谷区宮坂3丁目28-2","lat":35.65414266,"lon":139.63350925},{"name":"株式会社　沼崎商会","province":"東京都","city":"世田谷区","address":"東京都世田谷区尾山台3丁目9-6","lat":35.60391554,"lon":139.65227599},{"name":"\"伊藤商事株式会社 葬儀部 \"","province":"東京都","city":"世田谷区","address":"東京都世田谷区松原3丁目30-12","lat":35.66652758,"lon":139.64192207},{"name":"有限会社　メーユー上原葬儀社","province":"東京都","city":"世田谷区","address":"東京都世田谷区梅丘3丁目10-12","lat":35.65251006,"lon":139.65491308},{"name":"\"金子総本店 \"","province":"東京都","city":"世田谷区","address":"東京都世田谷区北沢3丁目31-2","lat":35.66454236,"lon":139.66686446},{"name":"株式会社　佐久間本店","province":"東京都","city":"世田谷区","address":"東京都世田谷区成城6丁目6-3","lat":35.64015449,"lon":139.59726549},{"name":"\"株式会社　佐久間本店 千歳船橋営業所 \"","province":"東京都","city":"世田谷区","address":"東京都世田谷区桜丘2丁目27-11","lat":35.64673208,"lon":139.6225521},{"name":"\"有限会社　佐藤葬祭 \"","province":"東京都","city":"世田谷区","address":"東京都世田谷区北沢5丁目34-14","lat":35.67164994,"lon":139.66833631},{"name":"有限会社　嶋田葬祭","province":"東京都","city":"世田谷区","address":"東京都世田谷区池尻3丁目4-2","lat":35.65009162,"lon":139.68287748},{"name":"\"株式会社　経堂 清水葬祭 \"","province":"東京都","city":"世田谷区","address":"東京都世田谷区経堂1丁目5-9","lat":35.64839896,"lon":139.63626198},{"name":"城西葬祭　株式会社","province":"東京都","city":"世田谷区","address":"東京都世田谷区野沢2丁目13-2","lat":35.63249609,"lon":139.66918473},{"name":"\"株式会社　杉田フューネス \"","province":"東京都","city":"世田谷区","address":"東京都世田谷区上北沢4丁目33-3","lat":35.66985709,"lon":139.61745449},{"name":"\"有限会社　曽根葬祭 \"","province":"東京都","city":"世田谷区","address":"東京都世田谷区下馬4丁目2-12","lat":35.63487384,"lon":139.67952824},{"name":"\"有限会社　野﨑商店 \"","province":"東京都","city":"世田谷区","address":"東京都世田谷区豪徳寺1丁目8-7","lat":35.65171273,"lon":139.64650547},{"name":"有限会社　平野屋葬祭","province":"東京都","city":"世田谷区","address":"東京都世田谷区大原1丁目17-12","lat":35.66876124,"lon":139.66331185},{"name":"株式会社　ムラカミ","province":"東京都","city":"世田谷区","address":"東京都世田谷区宮坂3丁目28-2","lat":35.65414266,"lon":139.63350925},{"name":"株式会社　沼崎商会","province":"東京都","city":"世田谷区","address":"東京都世田谷区尾山台3丁目9-6","lat":35.60391554,"lon":139.65227599},{"name":"\"伊藤商事株式会社 葬儀部 \"","province":"東京都","city":"世田谷区","address":"東京都世田谷区松原3丁目30-12","lat":35.66652758,"lon":139.64192207},{"name":"有限会社　メーユー上原葬儀社","province":"東京都","city":"世田谷区","address":"東京都世田谷区梅丘3丁目10-12","lat":35.65251006,"lon":139.65491308},{"name":"\"金子総本店 \"","province":"東京都","city":"世田谷区","address":"東京都世田谷区北沢3丁目31-2","lat":35.66454236,"lon":139.66686446},{"name":"株式会社　佐久間本店","province":"東京都","city":"世田谷区","address":"東京都世田谷区成城6丁目6-3","lat":35.64015449,"lon":139.59726549},{"name":"\"株式会社　佐久間本店 千歳船橋営業所 \"","province":"東京都","city":"世田谷区","address":"東京都世田谷区桜丘2丁目27-11","lat":35.64673208,"lon":139.6225521},{"name":"\"有限会社　佐藤葬祭 \"","province":"東京都","city":"世田谷区","address":"東京都世田谷区北沢5丁目34-14","lat":35.67164994,"lon":139.66833631},{"name":"有限会社　嶋田葬祭","province":"東京都","city":"世田谷区","address":"東京都世田谷区池尻3丁目4-2","lat":35.65009162,"lon":139.68287748},{"name":"\"株式会社　経堂 清水葬祭 \"","province":"東京都","city":"世田谷区","address":"東京都世田谷区経堂1丁目5-9","lat":35.64839896,"lon":139.63626198},{"name":"城西葬祭　株式会社","province":"東京都","city":"世田谷区","address":"東京都世田谷区野沢2丁目13-2","lat":35.63249609,"lon":139.66918473},{"name":"\"株式会社　杉田フューネス \"","province":"東京都","city":"世田谷区","address":"東京都世田谷区上北沢4丁目33-3","lat":35.66985709,"lon":139.61745449},{"name":"\"有限会社　曽根葬祭 \"","province":"東京都","city":"世田谷区","address":"東京都世田谷区下馬4丁目2-12","lat":35.63487384,"lon":139.67952824},{"name":"\"有限会社　野﨑商店 \"","province":"東京都","city":"世田谷区","address":"東京都世田谷区豪徳寺1丁目8-7","lat":35.65171273,"lon":139.64650547},{"name":"有限会社　平野屋葬祭","province":"東京都","city":"世田谷区","address":"東京都世田谷区大原1丁目17-12","lat":35.66876124,"lon":139.66331185},{"name":"株式会社　ムラカミ","province":"東京都","city":"世田谷区","address":"東京都世田谷区宮坂3丁目28-2","lat":35.65414266,"lon":139.63350925},{"name":"株式会社　沼崎商会","province":"東京都","city":"世田谷区","address":"東京都世田谷区尾山台3丁目9-6","lat":35.60391554,"lon":139.65227599},{"name":"\"伊藤商事株式会社 葬儀部 \"","province":"東京都","city":"世田谷区","address":"東京都世田谷区松原3丁目30-12","lat":35.66652758,"lon":139.64192207},{"name":"有限会社　メーユー上原葬儀社","province":"東京都","city":"世田谷区","address":"東京都世田谷区梅丘3丁目10-12","lat":35.65251006,"lon":139.65491308},{"name":"\"金子総本店 \"","province":"東京都","city":"世田谷区","address":"東京都世田谷区北沢3丁目31-2","lat":35.66454236,"lon":139.66686446},{"name":"株式会社　佐久間本店","province":"東京都","city":"世田谷区","address":"東京都世田谷区成城6丁目6-3","lat":35.64015449,"lon":139.59726549},{"name":"\"株式会社　佐久間本店 千歳船橋営業所 \"","province":"東京都","city":"世田谷区","address":"東京都世田谷区桜丘2丁目27-11","lat":35.64673208,"lon":139.6225521},{"name":"\"有限会社　佐藤葬祭 \"","province":"東京都","city":"世田谷区","address":"東京都世田谷区北沢5丁目34-14","lat":35.67164994,"lon":139.66833631},{"name":"有限会社　嶋田葬祭","province":"東京都","city":"世田谷区","address":"東京都世田谷区池尻3丁目4-2","lat":35.65009162,"lon":139.68287748},{"name":"\"株式会社　経堂 清水葬祭 \"","province":"東京都","city":"世田谷区","address":"東京都世田谷区経堂1丁目5-9","lat":35.64839896,"lon":139.63626198},{"name":"城西葬祭　株式会社","province":"東京都","city":"世田谷区","address":"東京都世田谷区野沢2丁目13-2","lat":35.63249609,"lon":139.66918473},{"name":"\"株式会社　杉田フューネス \"","province":"東京都","city":"世田谷区","address":"東京都世田谷区上北沢4丁目33-3","lat":35.66985709,"lon":139.61745449},{"name":"\"有限会社　曽根葬祭 \"","province":"東京都","city":"世田谷区","address":"東京都世田谷区下馬4丁目2-12","lat":35.63487384,"lon":139.67952824},{"name":"\"有限会社　野﨑商店 \"","province":"東京都","city":"世田谷区","address":"東京都世田谷区豪徳寺1丁目8-7","lat":35.65171273,"lon":139.64650547},{"name":"有限会社　平野屋葬祭","province":"東京都","city":"世田谷区","address":"東京都世田谷区大原1丁目17-12","lat":35.66876124,"lon":139.66331185},{"name":"株式会社　ムラカミ","province":"東京都","city":"世田谷区","address":"東京都世田谷区宮坂3丁目28-2","lat":35.65414266,"lon":139.63350925},{"name":"株式会社　沼崎商会","province":"東京都","city":"世田谷区","address":"東京都世田谷区尾山台3丁目9-6","lat":35.60391554,"lon":139.65227599},{"name":"\"伊藤商事株式会社 葬儀部 \"","province":"東京都","city":"世田谷区","address":"東京都世田谷区松原3丁目30-12","lat":35.66652758,"lon":139.64192207},{"name":"有限会社　メーユー上原葬儀社","province":"東京都","city":"世田谷区","address":"東京都世田谷区梅丘3丁目10-12","lat":35.65251006,"lon":139.65491308},{"name":"\"金子総本店 \"","province":"東京都","city":"世田谷区","address":"東京都世田谷区北沢3丁目31-2","lat":35.66454236,"lon":139.66686446},{"name":"株式会社　佐久間本店","province":"東京都","city":"世田谷区","address":"東京都世田谷区成城6丁目6-3","lat":35.64015449,"lon":139.59726549},{"name":"\"株式会社　佐久間本店 千歳船橋営業所 \"","province":"東京都","city":"世田谷区","address":"東京都世田谷区桜丘2丁目27-11","lat":35.64673208,"lon":139.6225521},{"name":"\"有限会社　佐藤葬祭 \"","province":"東京都","city":"世田谷区","address":"東京都世田谷区北沢5丁目34-14","lat":35.67164994,"lon":139.66833631},{"name":"有限会社　嶋田葬祭","province":"東京都","city":"世田谷区","address":"東京都世田谷区池尻3丁目4-2","lat":35.65009162,"lon":139.68287748},{"name":"\"株式会社　経堂 清水葬祭 \"","province":"東京都","city":"世田谷区","address":"東京都世田谷区経堂1丁目5-9","lat":35.64839896,"lon":139.63626198},{"name":"城西葬祭　株式会社","province":"東京都","city":"世田谷区","address":"東京都世田谷区野沢2丁目13-2","lat":35.63249609,"lon":139.66918473},{"name":"\"株式会社　杉田フューネス \"","province":"東京都","city":"世田谷区","address":"東京都世田谷区上北沢4丁目33-3","lat":35.66985709,"lon":139.61745449},{"name":"\"有限会社　曽根葬祭 \"","province":"東京都","city":"世田谷区","address":"東京都世田谷区下馬4丁目2-12","lat":35.63487384,"lon":139.67952824},{"name":"\"有限会社　野﨑商店 \"","province":"東京都","city":"世田谷区","address":"東京都世田谷区豪徳寺1丁目8-7","lat":35.65171273,"lon":139.64650547},{"name":"有限会社　平野屋葬祭","province":"東京都","city":"世田谷区","address":"東京都世田谷区大原1丁目17-12","lat":35.66876124,"lon":139.66331185},{"name":"株式会社　ムラカミ","province":"東京都","city":"世田谷区","address":"東京都世田谷区宮坂3丁目28-2","lat":35.65414266,"lon":139.63350925},{"name":"株式会社　沼崎商会","province":"東京都","city":"世田谷区","address":"東京都世田谷区尾山台3丁目9-6","lat":35.60391554,"lon":139.65227599},{"name":"\"伊藤商事株式会社 葬儀部 \"","province":"東京都","city":"世田谷区","address":"東京都世田谷区松原3丁目30-12","lat":35.66652758,"lon":139.64192207},{"name":"有限会社　メーユー上原葬儀社","province":"東京都","city":"世田谷区","address":"東京都世田谷区梅丘3丁目10-12","lat":35.65251006,"lon":139.65491308},{"name":"\"金子総本店 \"","province":"東京都","city":"世田谷区","address":"東京都世田谷区北沢3丁目31-2","lat":35.66454236,"lon":139.66686446},{"name":"株式会社　佐久間本店","province":"東京都","city":"世田谷区","address":"東京都世田谷区成城6丁目6-3","lat":35.64015449,"lon":139.59726549},{"name":"\"株式会社　佐久間本店 千歳船橋営業所 \"","province":"東京都","city":"世田谷区","address":"東京都世田谷区桜丘2丁目27-11","lat":35.64673208,"lon":139.6225521},{"name":"\"有限会社　佐藤葬祭 \"","province":"東京都","city":"世田谷区","address":"東京都世田谷区北沢5丁目34-14","lat":35.67164994,"lon":139.66833631},{"name":"有限会社　嶋田葬祭","province":"東京都","city":"世田谷区","address":"東京都世田谷区池尻3丁目4-2","lat":35.65009162,"lon":139.68287748},{"name":"\"株式会社　経堂 清水葬祭 \"","province":"東京都","city":"世田谷区","address":"東京都世田谷区経堂1丁目5-9","lat":35.64839896,"lon":139.63626198},{"name":"城西葬祭　株式会社","province":"東京都","city":"世田谷区","address":"東京都世田谷区野沢2丁目13-2","lat":35.63249609,"lon":139.66918473},{"name":"\"株式会社　杉田フューネス \"","province":"東京都","city":"世田谷区","address":"東京都世田谷区上北沢4丁目33-3","lat":35.66985709,"lon":139.61745449},{"name":"\"有限会社　曽根葬祭 \"","province":"東京都","city":"世田谷区","address":"東京都世田谷区下馬4丁目2-12","lat":35.63487384,"lon":139.67952824},{"name":"\"有限会社　野﨑商店 \"","province":"東京都","city":"世田谷区","address":"東京都世田谷区豪徳寺1丁目8-7","lat":35.65171273,"lon":139.64650547},{"name":"有限会社　平野屋葬祭","province":"東京都","city":"世田谷区","address":"東京都世田谷区大原1丁目17-12","lat":35.66876124,"lon":139.66331185},{"name":"株式会社　ムラカミ","province":"東京都","city":"世田谷区","address":"東京都世田谷区宮坂3丁目28-2","lat":35.65414266,"lon":139.63350925},{"name":"株式会社　沼崎商会","province":"東京都","city":"世田谷区","address":"東京都世田谷区尾山台3丁目9-6","lat":35.60391554,"lon":139.65227599},{"name":"\"伊藤商事株式会社 葬儀部 \"","province":"東京都","city":"世田谷区","address":"東京都世田谷区松原3丁目30-12","lat":35.66652758,"lon":139.64192207},{"name":"有限会社　メーユー上原葬儀社","province":"東京都","city":"世田谷区","address":"東京都世田谷区梅丘3丁目10-12","lat":35.65251006,"lon":139.65491308},{"name":"\"金子総本店 \"","province":"東京都","city":"世田谷区","address":"東京都世田谷区北沢3丁目31-2","lat":35.66454236,"lon":139.66686446},{"name":"株式会社　佐久間本店","province":"東京都","city":"世田谷区","address":"東京都世田谷区成城6丁目6-3","lat":35.64015449,"lon":139.59726549},{"name":"\"株式会社　佐久間本店 千歳船橋営業所 \"","province":"東京都","city":"世田谷区","address":"東京都世田谷区桜丘2丁目27-11","lat":35.64673208,"lon":139.6225521},{"name":"\"有限会社　佐藤葬祭 \"","province":"東京都","city":"世田谷区","address":"東京都世田谷区北沢5丁目34-14","lat":35.67164994,"lon":139.66833631},{"name":"有限会社　嶋田葬祭","province":"東京都","city":"世田谷区","address":"東京都世田谷区池尻3丁目4-2","lat":35.65009162,"lon":139.68287748},{"name":"\"株式会社　経堂 清水葬祭 \"","province":"東京都","city":"世田谷区","address":"東京都世田谷区経堂1丁目5-9","lat":35.64839896,"lon":139.63626198},{"name":"城西葬祭　株式会社","province":"東京都","city":"世田谷区","address":"東京都世田谷区野沢2丁目13-2","lat":35.63249609,"lon":139.66918473},{"name":"\"株式会社　杉田フューネス \"","province":"東京都","city":"世田谷区","address":"東京都世田谷区上北沢4丁目33-3","lat":35.66985709,"lon":139.61745449},{"name":"\"有限会社　曽根葬祭 \"","province":"東京都","city":"世田谷区","address":"東京都世田谷区下馬4丁目2-12","lat":35.63487384,"lon":139.67952824},{"name":"\"有限会社　野﨑商店 \"","province":"東京都","city":"世田谷区","address":"東京都世田谷区豪徳寺1丁目8-7","lat":35.65171273,"lon":139.64650547},{"name":"有限会社　平野屋葬祭","province":"東京都","city":"世田谷区","address":"東京都世田谷区大原1丁目17-12","lat":35.66876124,"lon":139.66331185},{"name":"株式会社　ムラカミ","province":"東京都","city":"世田谷区","address":"東京都世田谷区宮坂3丁目28-2","lat":35.65414266,"lon":139.63350925},{"name":"株式会社　沼崎商会","province":"東京都","city":"世田谷区","address":"東京都世田谷区尾山台3丁目9-6","lat":35.60391554,"lon":139.65227599},{"name":"\"伊藤商事株式会社 葬儀部 \"","province":"東京都","city":"世田谷区","address":"東京都世田谷区松原3丁目30-12","lat":35.66652758,"lon":139.64192207},{"name":"有限会社　メーユー上原葬儀社","province":"東京都","city":"世田谷区","address":"東京都世田谷区梅丘3丁目10-12","lat":35.65251006,"lon":139.65491308},{"name":"\"金子総本店 \"","province":"東京都","city":"世田谷区","address":"東京都世田谷区北沢3丁目31-2","lat":35.66454236,"lon":139.66686446},{"name":"株式会社　佐久間本店","province":"東京都","city":"世田谷区","address":"東京都世田谷区成城6丁目6-3","lat":35.64015449,"lon":139.59726549},{"name":"\"株式会社　佐久間本店 千歳船橋営業所 \"","province":"東京都","city":"世田谷区","address":"東京都世田谷区桜丘2丁目27-11","lat":35.64673208,"lon":139.6225521},{"name":"\"有限会社　佐藤葬祭 \"","province":"東京都","city":"世田谷区","address":"東京都世田谷区北沢5丁目34-14","lat":35.67164994,"lon":139.66833631},{"name":"有限会社　嶋田葬祭","province":"東京都","city":"世田谷区","address":"東京都世田谷区池尻3丁目4-2","lat":35.65009162,"lon":139.68287748},{"name":"\"株式会社　経堂 清水葬祭 \"","province":"東京都","city":"世田谷区","address":"東京都世田谷区経堂1丁目5-9","lat":35.64839896,"lon":139.63626198},{"name":"城西葬祭　株式会社","province":"東京都","city":"世田谷区","address":"東京都世田谷区野沢2丁目13-2","lat":35.63249609,"lon":139.66918473},{"name":"\"株式会社　杉田フューネス \"","province":"東京都","city":"世田谷区","address":"東京都世田谷区上北沢4丁目33-3","lat":35.66985709,"lon":139.61745449},{"name":"\"有限会社　曽根葬祭 \"","province":"東京都","city":"世田谷区","address":"東京都世田谷区下馬4丁目2-12","lat":35.63487384,"lon":139.67952824},{"name":"\"有限会社　野﨑商店 \"","province":"東京都","city":"世田谷区","address":"東京都世田谷区豪徳寺1丁目8-7","lat":35.65171273,"lon":139.64650547},{"name":"有限会社　平野屋葬祭","province":"東京都","city":"世田谷区","address":"東京都世田谷区大原1丁目17-12","lat":35.66876124,"lon":139.66331185},{"name":"株式会社　ムラカミ","province":"東京都","city":"世田谷区","address":"東京都世田谷区宮坂3丁目28-2","lat":35.65414266,"lon":139.63350925},{"name":"株式会社　沼崎商会","province":"東京都","city":"世田谷区","address":"東京都世田谷区尾山台3丁目9-6","lat":35.60391554,"lon":139.65227599},{"name":"\"伊藤商事株式会社 葬儀部 \"","province":"東京都","city":"世田谷区","address":"東京都世田谷区松原3丁目30-12","lat":35.66652758,"lon":139.64192207},{"name":"有限会社　メーユー上原葬儀社","province":"東京都","city":"世田谷区","address":"東京都世田谷区梅丘3丁目10-12","lat":35.65251006,"lon":139.65491308},{"name":"\"金子総本店 \"","province":"東京都","city":"世田谷区","address":"東京都世田谷区北沢3丁目31-2","lat":35.66454236,"lon":139.66686446},{"name":"株式会社　佐久間本店","province":"東京都","city":"世田谷区","address":"東京都世田谷区成城6丁目6-3","lat":35.64015449,"lon":139.59726549},{"name":"\"株式会社　佐久間本店 千歳船橋営業所 \"","province":"東京都","city":"世田谷区","address":"東京都世田谷区桜丘2丁目27-11","lat":35.64673208,"lon":139.6225521},{"name":"\"有限会社　佐藤葬祭 \"","province":"東京都","city":"世田谷区","address":"東京都世田谷区北沢5丁目34-14","lat":35.67164994,"lon":139.66833631},{"name":"有限会社　嶋田葬祭","province":"東京都","city":"世田谷区","address":"東京都世田谷区池尻3丁目4-2","lat":35.65009162,"lon":139.68287748},{"name":"\"株式会社　経堂 清水葬祭 \"","province":"東京都","city":"世田谷区","address":"東京都世田谷区経堂1丁目5-9","lat":35.64839896,"lon":139.63626198},{"name":"城西葬祭　株式会社","province":"東京都","city":"世田谷区","address":"東京都世田谷区野沢2丁目13-2","lat":35.63249609,"lon":139.66918473},{"name":"\"株式会社　杉田フューネス \"","province":"東京都","city":"世田谷区","address":"東京都世田谷区上北沢4丁目33-3","lat":35.66985709,"lon":139.61745449},{"name":"\"有限会社　曽根葬祭 \"","province":"東京都","city":"世田谷区","address":"東京都世田谷区下馬4丁目2-12","lat":35.63487384,"lon":139.67952824},{"name":"\"有限会社　野﨑商店 \"","province":"東京都","city":"世田谷区","address":"東京都世田谷区豪徳寺1丁目8-7","lat":35.65171273,"lon":139.64650547},{"name":"有限会社　平野屋葬祭","province":"東京都","city":"世田谷区","address":"東京都世田谷区大原1丁目17-12","lat":35.66876124,"lon":139.66331185},{"name":"株式会社　ムラカミ","province":"東京都","city":"世田谷区","address":"東京都世田谷区宮坂3丁目28-2","lat":35.65414266,"lon":139.63350925},{"name":"株式会社　沼崎商会","province":"東京都","city":"世田谷区","address":"東京都世田谷区尾山台3丁目9-6","lat":35.60391554,"lon":139.65227599},{"name":"\"伊藤商事株式会社 葬儀部 \"","province":"東京都","city":"世田谷区","address":"東京都世田谷区松原3丁目30-12","lat":35.66652758,"lon":139.64192207},{"name":"有限会社　メーユー上原葬儀社","province":"東京都","city":"世田谷区","address":"東京都世田谷区梅丘3丁目10-12","lat":35.65251006,"lon":139.65491308},{"name":"\"金子総本店 \"","province":"東京都","city":"世田谷区","address":"東京都世田谷区北沢3丁目31-2","lat":35.66454236,"lon":139.66686446},{"name":"株式会社　佐久間本店","province":"東京都","city":"世田谷区","address":"東京都世田谷区成城6丁目6-3","lat":35.64015449,"lon":139.59726549},{"name":"\"株式会社　佐久間本店 千歳船橋営業所 \"","province":"東京都","city":"世田谷区","address":"東京都世田谷区桜丘2丁目27-11","lat":35.64673208,"lon":139.6225521},{"name":"\"有限会社　佐藤葬祭 \"","province":"東京都","city":"世田谷区","address":"東京都世田谷区北沢5丁目34-14","lat":35.67164994,"lon":139.66833631},{"name":"有限会社　嶋田葬祭","province":"東京都","city":"世田谷区","address":"東京都世田谷区池尻3丁目4-2","lat":35.65009162,"lon":139.68287748},{"name":"\"株式会社　経堂 清水葬祭 \"","province":"東京都","city":"世田谷区","address":"東京都世田谷区経堂1丁目5-9","lat":35.64839896,"lon":139.63626198},{"name":"城西葬祭　株式会社","province":"東京都","city":"世田谷区","address":"東京都世田谷区野沢2丁目13-2","lat":35.63249609,"lon":139.66918473},{"name":"\"株式会社　杉田フューネス \"","province":"東京都","city":"世田谷区","address":"東京都世田谷区上北沢4丁目33-3","lat":35.66985709,"lon":139.61745449},{"name":"\"有限会社　曽根葬祭 \"","province":"東京都","city":"世田谷区","address":"東京都世田谷区下馬4丁目2-12","lat":35.63487384,"lon":139.67952824},{"name":"\"有限会社　野﨑商店 \"","province":"東京都","city":"世田谷区","address":"東京都世田谷区豪徳寺1丁目8-7","lat":35.65171273,"lon":139.64650547},{"name":"有限会社　平野屋葬祭","province":"東京都","city":"世田谷区","address":"東京都世田谷区大原1丁目17-12","lat":35.66876124,"lon":139.66331185},{"name":"株式会社　ムラカミ","province":"東京都","city":"世田谷区","address":"東京都世田谷区宮坂3丁目28-2","lat":35.65414266,"lon":139.63350925},{"name":"株式会社　沼崎商会","province":"東京都","city":"世田谷区","address":"東京都世田谷区尾山台3丁目9-6","lat":35.60391554,"lon":139.65227599},{"name":"\"伊藤商事株式会社 葬儀部 \"","province":"東京都","city":"世田谷区","address":"東京都世田谷区松原3丁目30-12","lat":35.66652758,"lon":139.64192207},{"name":"有限会社　メーユー上原葬儀社","province":"東京都","city":"世田谷区","address":"東京都世田谷区梅丘3丁目10-12","lat":35.65251006,"lon":139.65491308},{"name":"\"金子総本店 \"","province":"東京都","city":"世田谷区","address":"東京都世田谷区北沢3丁目31-2","lat":35.66454236,"lon":139.66686446},{"name":"株式会社　佐久間本店","province":"東京都","city":"世田谷区","address":"東京都世田谷区成城6丁目6-3","lat":35.64015449,"lon":139.59726549},{"name":"\"株式会社　佐久間本店 千歳船橋営業所 \"","province":"東京都","city":"世田谷区","address":"東京都世田谷区桜丘2丁目27-11","lat":35.64673208,"lon":139.6225521},{"name":"\"有限会社　佐藤葬祭 \"","province":"東京都","city":"世田谷区","address":"東京都世田谷区北沢5丁目34-14","lat":35.67164994,"lon":139.66833631},{"name":"有限会社　嶋田葬祭","province":"東京都","city":"世田谷区","address":"東京都世田谷区池尻3丁目4-2","lat":35.65009162,"lon":139.68287748},{"name":"\"株式会社　経堂 清水葬祭 \"","province":"東京都","city":"世田谷区","address":"東京都世田谷区経堂1丁目5-9","lat":35.64839896,"lon":139.63626198},{"name":"城西葬祭　株式会社","province":"東京都","city":"世田谷区","address":"東京都世田谷区野沢2丁目13-2","lat":35.63249609,"lon":139.66918473},{"name":"\"株式会社　杉田フューネス \"","province":"東京都","city":"世田谷区","address":"東京都世田谷区上北沢4丁目33-3","lat":35.66985709,"lon":139.61745449},{"name":"\"有限会社　曽根葬祭 \"","province":"東京都","city":"世田谷区","address":"東京都世田谷区下馬4丁目2-12","lat":35.63487384,"lon":139.67952824},{"name":"\"有限会社　野﨑商店 \"","province":"東京都","city":"世田谷区","address":"東京都世田谷区豪徳寺1丁目8-7","lat":35.65171273,"lon":139.64650547},{"name":"有限会社　平野屋葬祭","province":"東京都","city":"世田谷区","address":"東京都世田谷区大原1丁目17-12","lat":35.66876124,"lon":139.66331185},{"name":"株式会社　ムラカミ","province":"東京都","city":"世田谷区","address":"東京都世田谷区宮坂3丁目28-2","lat":35.65414266,"lon":139.63350925},{"name":"株式会社　沼崎商会","province":"東京都","city":"世田谷区","address":"東京都世田谷区尾山台3丁目9-6","lat":35.60391554,"lon":139.65227599}]}