{"keyword":"福祉","data":[{"name":"世田谷区世田谷総合支所","province":"東京都","city":"世田谷区","address":"世田谷区世田谷4-22-33","lat":35.64657,"lon":139.65193},{"name":"世田谷区北沢総合支所","province":"東京都","city":"世田谷区","address":"世田谷区北沢2-8-18北沢タウンホール内","lat":35.66237,"lon":139.66968},{"name":"世田谷区玉川総合支所","province":"東京都","city":"世田谷区","address":"世田谷区等々力3-4-1","lat":35.60863,"lon":139.64839},{"name":"世田谷区砧総合支所","province":"東京都","city":"世田谷区","address":"世田谷区成城6-2-1","lat":35.64123,"lon":139.60078},{"name":"世田谷区烏山総合支所","province":"東京都","city":"世田谷区","address":"世田谷区南烏山6-22-14","lat":35.66956,"lon":139.59814},{"name":"世田谷区世田谷総合支所","province":"東京都","city":"世田谷区","address":"世田谷区世田谷4-22-33","lat":35.646513,"lon":139.652191},{"name":"世田谷区北沢総合支所","province":"東京都","city":"世田谷区","address":"世田谷区松原6-3-5","lat":35.657007,"lon":139.653794},{"name":"世田谷区玉川総合支所（二子玉川庁舎）","province":"東京都","city":"世田谷区","address":"世田谷区玉川1-20-21","lat":35.609887,"lon":139.632878},{"name":"世田谷区砧総合支所","province":"東京都","city":"世田谷区","address":"世田谷区成城6-2-1","lat":35.641293,"lon":139.600582},{"name":"世田谷区烏山総合支所","province":"東京都","city":"世田谷区","address":"世田谷区南烏山6-22-14","lat":35.669776,"lon":139.598031},{"name":"世田谷区北沢総合支所","province":"東京都","city":"世田谷区","address":"世田谷区北沢2-8-18北沢タウンホール内","lat":35.662238,"lon":139.669775},{"name":"世田谷区烏山総合支所","province":"東京都","city":"世田谷区","address":"世田谷区南烏山6-22-14","lat":35.66956,"lon":139.59815}]}