{"keyword":"給水","data":[{"name":"砧浄水場","province":"東京都","city":"世田谷区","address":"東京都世田谷区喜多見2-9-1","lat":35.623056,"lon":139.593948},{"name":"砧下浄水所","province":"東京都","city":"世田谷区","address":"東京都世田谷区鎌田2-4-1","lat":35.617936,"lon":139.610803},{"name":"和田堀給水所","province":"東京都","city":"世田谷区","address":"東京都世田谷区大原2-30-43","lat":35.670036,"lon":139.657061},{"name":"玉川給水所","province":"東京都","city":"世田谷区","address":"東京都世田谷区玉川田園調布1-19-1","lat":35.599819,"lon":139.66272},{"name":"大蔵給水所","province":"東京都","city":"世田谷区","address":"東京都世田谷区砧2-8-1","lat":35.642887,"lon":139.616369},{"name":"駒沢給水所","province":"東京都","city":"世田谷区","address":"東京都世田谷区弦巻2-41-5","lat":35.633124,"lon":139.650269},{"name":"区立こどものひろば公園","province":"東京都","city":"世田谷区","address":"東京都世田谷区下馬2-31-4","lat":35.6427401,"lon":139.678642},{"name":"区立葭根公園","province":"東京都","city":"世田谷区","address":"東京都世田谷区船橋6-21","lat":35.6580311,"lon":139.622471},{"name":"都立祖師谷公園","province":"東京都","city":"世田谷区","address":"東京都世田谷区上祖師谷4-2","lat":35.6531,"lon":139.59928},{"name":"区立中町二丁目公園","province":"東京都","city":"世田谷区","address":"東京都世田谷区中町2-34-1","lat":35.6116002,"lon":139.641169}]}