{"keyword":"総務","data":[{"name":"世田谷公園軟式野球場","province":"東京都","city":"世田谷区","address":"東京都世田谷区池尻1丁目5","lat":35.64370344,"lon":139.68164445},{"name":"駒沢大学祖師谷グラウンド","province":"東京都","city":"世田谷区","address":"東京都世田谷区上祖師谷2丁目8","lat":35.6578273,"lon":139.59866744},{"name":"都立砧公園","province":"東京都","city":"世田谷区","address":"東京都世田谷区砧公園1-1","lat":35.6291067,"lon":139.62140025},{"name":"都立祖師谷公園少年運動場","province":"東京都","city":"世田谷区","address":"東京都世田谷区上祖師谷3丁目22-19","lat":35.65691076,"lon":139.59935631},{"name":"二子玉川緑地運動場","province":"東京都","city":"世田谷区","address":"東京都世田谷区鎌田1丁目","lat":35.617339,"lon":139.61637665},{"name":"世田谷区立小泉公園","province":"東京都","city":"世田谷区","address":"東京都世田谷区駒沢2丁目42","lat":35.63735914,"lon":139.65608295},{"name":"世田谷区立赤松公園","province":"東京都","city":"世田谷区","address":"東京都世田谷区赤堤4丁目10","lat":35.66157812,"lon":139.64139726},{"name":"日本体育大学グラウンド","province":"東京都","city":"世田谷区","address":"東京都世田谷区深沢7丁目1","lat":35.62202455,"lon":139.64835067},{"name":"東京農業大学野球場","province":"東京都","city":"世田谷区","address":"東京都世田谷区桜丘1丁目1","lat":35.64010265,"lon":139.63202372},{"name":"成城学園グラウンド","province":"東京都","city":"世田谷区","address":"東京都世田谷区成城6丁目1","lat":35.64426794,"lon":139.60143164},{"name":"駒澤大学玉川校舎グラウンド","province":"東京都","city":"世田谷区","address":"東京都世田谷区宇奈根1丁目1-2","lat":35.61725287,"lon":139.6089136},{"name":"日本大学グラウンド","province":"東京都","city":"世田谷区","address":"東京都世田谷区桜上水3丁目25-40","lat":35.66200011,"lon":139.63425617},{"name":"日本女子体育大学グラウンド","province":"東京都","city":"世田谷区","address":"東京都世田谷区北烏山8丁目19-1","lat":35.67728871,"lon":139.59020359},{"name":"世田谷市場","province":"東京都","city":"世田谷区","address":"東京都世田谷区大蔵1丁目4-1","lat":35.63340608,"lon":139.62111116},{"name":"深沢高等学校","province":"東京都","city":"世田谷区","address":"東京都世田谷区深沢7丁目3-14","lat":35.62330496,"lon":139.64797566},{"name":"松原高等学校","province":"東京都","city":"世田谷区","address":"東京都世田谷区桜上水4丁目3-5","lat":35.66526919,"lon":139.63491157},{"name":"園芸高等学校","province":"東京都","city":"世田谷区","address":"東京都世田谷区深沢5丁目38-1","lat":35.61918875,"lon":139.64787858},{"name":"総合工科高等学校","province":"東京都","city":"世田谷区","address":"東京都世田谷区成城9丁目25-1","lat":35.65160294,"lon":139.5951874},{"name":"世田谷総合高等学校","province":"東京都","city":"世田谷区","address":"東京都世田谷区岡本2丁目9-1","lat":35.62006913,"lon":139.61914834},{"name":"桜町高等学校","province":"東京都","city":"世田谷区","address":"東京都世田谷区用賀2丁目4-1","lat":35.62644343,"lon":139.64023459},{"name":"千歳丘高等学校","province":"東京都","city":"世田谷区","address":"東京都世田谷区船橋3丁目18-1","lat":35.65227038,"lon":139.62448784},{"name":"芦花高等学校","province":"東京都","city":"世田谷区","address":"東京都世田谷区粕谷3丁目8-1","lat":35.65924678,"lon":139.60520577},{"name":"世田谷泉高等学校","province":"東京都","city":"世田谷区","address":"東京都世田谷区北烏山9丁目22-1","lat":35.67308643,"lon":139.59073425}]}