{"keyword":"自転車","data":[{"name":"代田橋自転車等駐車場","province":"東京都","city":"世田谷区","address":"東京都世田谷区大原2丁目21-4","lat":35.67086651,"lon":139.66063146},{"name":"明大前南自転車等駐車場","province":"東京都","city":"世田谷区","address":"東京都世田谷区松原2丁目22-6","lat":35.66676113,"lon":139.65090465},{"name":"明大前高架下自転車等置場","province":"東京都","city":"世田谷区","address":"東京都世田谷区松原1丁目45","lat":35.67018856,"lon":139.65230164},{"name":"下高井戸北自転車等駐車場","province":"東京都","city":"世田谷区","address":"東京都世田谷区松原3丁目31-13","lat":35.66669703,"lon":139.64305253},{"name":"桜上水南自転車等駐車場","province":"東京都","city":"世田谷区","address":"東京都世田谷区桜上水4丁目18-13","lat":35.66677451,"lon":139.63219231},{"name":"八幡山北自転車等駐車場","province":"東京都","city":"世田谷区","address":"東京都世田谷区上北沢4丁目35-12","lat":35.6708986,"lon":139.61654063},{"name":"芦花公園北自転車等駐車場","province":"東京都","city":"世田谷区","address":"東京都世田谷区南烏山3丁目2-17","lat":35.67080945,"lon":139.60885788},{"name":"烏山北自転車等駐車場","province":"東京都","city":"世田谷区","address":"東京都世田谷区南烏山6丁目6","lat":35.66808447,"lon":139.5994837},{"name":"烏山北第二自転車等駐車場","province":"東京都","city":"世田谷区","address":"東京都世田谷区南烏山6丁目30","lat":35.67030642,"lon":139.59918088},{"name":"烏山南第二自転車等駐車場","province":"東京都","city":"世田谷区","address":"東京都世田谷区南烏山5丁目10-11","lat":35.6682651,"lon":139.60235013},{"name":"烏山南第四自転車等駐車場","province":"東京都","city":"世田谷区","address":"東京都世田谷区南烏山5丁目20-16","lat":35.6666653,"lon":139.60290292},{"name":"烏山中央自転車等駐車場","province":"東京都","city":"世田谷区","address":"東京都世田谷区南烏山5丁目17-23","lat":35.66725963,"lon":139.60150579},{"name":"池ノ上自転車等駐車場","province":"東京都","city":"世田谷区","address":"東京都世田谷区代沢2丁目42-18","lat":35.66015415,"lon":139.67398622},{"name":"新代田自転車等駐車場","province":"東京都","city":"世田谷区","address":"東京都世田谷区代田6丁目34-13","lat":35.66288404,"lon":139.66066505},{"name":"下北沢第二自転車等駐車場","province":"東京都","city":"世田谷区","address":"東京都世田谷区上北沢1丁目38-10","lat":35.66504953,"lon":139.62537902},{"name":"下北沢第三自転車等駐車場","province":"東京都","city":"世田谷区","address":"東京都世田谷区北沢1丁目40-11","lat":35.66214827,"lon":139.67031703},{"name":"下北沢北自転車置場","province":"東京都","city":"世田谷区","address":"東京都世田谷区北沢2丁目25","lat":35.6621704,"lon":139.66715063},{"name":"経堂南自転車等駐車場","province":"東京都","city":"世田谷区","address":"東京都世田谷区経堂1丁目12-11","lat":35.65035708,"lon":139.63716462},{"name":"千歳船橋北自転車等駐車場","province":"東京都","city":"世田谷区","address":"東京都世田谷区船橋1丁目13-2","lat":35.64823191,"lon":139.62265482},{"name":"千歳船橋南自転車等駐車場","province":"東京都","city":"世田谷区","address":"東京都世田谷区桜丘2丁目22-1","lat":35.64587389,"lon":139.62372425},{"name":"成城北第二自転車等駐車場","province":"東京都","city":"世田谷区","address":"東京都世田谷区成城6丁目14-10","lat":35.64153768,"lon":139.5988903},{"name":"池尻大橋自転車等駐車場（三軒茶屋側）","province":"東京都","city":"世田谷区","address":"東京都世田谷区池尻3丁目2-3","lat":35.65059159,"lon":139.68376349},{"name":"三軒茶屋北自転車等駐車場","province":"東京都","city":"世田谷区","address":"東京都世田谷区太子堂2丁目16-1","lat":35.64423646,"lon":139.67147307},{"name":"三軒茶屋北第二自転車等駐車場","province":"東京都","city":"世田谷区","address":"東京都世田谷区太子堂2丁目20-4","lat":35.64513358,"lon":139.67169248},{"name":"三軒茶屋北第三自転車等駐車場","province":"東京都","city":"世田谷区","address":"東京都世田谷区太子堂2丁目16-11","lat":35.64461419,"lon":139.67115087},{"name":"三軒茶屋中央自転車等駐車場(渋谷側)","province":"東京都","city":"世田谷区","address":"東京都世田谷区三軒茶屋2丁目11","lat":35.64168669,"lon":139.66889838},{"name":"三軒茶屋中央自転車等駐車場(駒沢側)","province":"東京都","city":"世田谷区","address":"東京都世田谷区三軒茶屋2丁目11","lat":35.64168669,"lon":139.66889838},{"name":"三軒茶屋西自転車等駐車場","province":"東京都","city":"世田谷区","address":"東京都世田谷区太子堂4丁目20-8","lat":35.64437248,"lon":139.66854277},{"name":"三軒茶屋二丁目自転車等駐車場","province":"東京都","city":"世田谷区","address":"東京都世田谷区三軒茶屋2丁目14-9","lat":35.64320874,"lon":139.66920108},{"name":"駒沢自転車等駐車場","province":"東京都","city":"世田谷区","address":"東京都世田谷区駒沢2丁目6-17","lat":35.6331236,"lon":139.66032993},{"name":"桜新町自転車等駐車場","province":"東京都","city":"世田谷区","address":"東京都世田谷区桜新町2丁目7-15","lat":35.63226778,"lon":139.64433125},{"name":"用賀西自転車等駐車場","province":"東京都","city":"世田谷区","address":"東京都世田谷区用賀4丁目9-8","lat":35.62739045,"lon":139.6322103},{"name":"用賀西第二自転車等駐車場","province":"東京都","city":"世田谷区","address":"東京都世田谷区用賀4丁目10","lat":35.62678497,"lon":139.6319798},{"name":"二子玉川西自転車等駐車場","province":"東京都","city":"世田谷区","address":"東京都世田谷区玉川3丁目15-3","lat":35.61408116,"lon":139.62538142},{"name":"二子玉川西多摩堤自転車等駐車場","province":"東京都","city":"世田谷区","address":"東京都世田谷区東玉川1丁目12-7","lat":35.59672844,"lon":139.67965193},{"name":"自由が丘駅第一自転車等駐車場","province":"東京都","city":"世田谷区","address":"東京都世田谷区奥沢5丁目42-14","lat":35.60635456,"lon":139.66702467},{"name":"尾山台自転車等駐車場","province":"東京都","city":"世田谷区","address":"東京都世田谷区尾山台3丁目34-14","lat":35.60676246,"lon":139.65403127},{"name":"九品仏南自転車等駐車場","province":"東京都","city":"世田谷区","address":"東京都世田谷区奥沢6丁目25-9","lat":35.6051295,"lon":139.66191678},{"name":"等々力自転車等駐車場","province":"東京都","city":"世田谷区","address":"東京都世田谷区等々力3丁目2-2","lat":35.60843443,"lon":139.6491733},{"name":"上野毛北自転車等駐車場","province":"東京都","city":"世田谷区","address":"東京都世田谷区上野毛1丁目27-13","lat":35.61276731,"lon":139.63859377},{"name":"松原自転車等駐車場","province":"東京都","city":"世田谷区","address":"東京都世田谷区赤堤4丁目1-1","lat":35.65988944,"lon":139.64175284},{"name":"上町自転車等駐車場","province":"東京都","city":"世田谷区","address":"東京都世田谷区世田谷3丁目3","lat":35.64311379,"lon":139.64777229},{"name":"池尻大橋自転車等駐車場（渋谷側）","province":"東京都","city":"世田谷区","address":"東京都世田谷区池尻3丁目2-3","lat":35.65059159,"lon":139.68376349},{"name":"世田谷駅南自転車等駐車場","province":"東京都","city":"世田谷区","address":"東京都世田谷区深沢4丁目7-16","lat":35.62218583,"lon":139.65825814},{"name":"烏山駅前自転車等駐車場","province":"東京都","city":"世田谷区","address":"東京都世田谷区南烏山5丁目13-1","lat":35.66766793,"lon":139.60206963},{"name":"下高井戸南第二自転車等駐車場","province":"東京都","city":"世田谷区","address":"東京都世田谷区松原3丁目15-11","lat":35.66448061,"lon":139.64307759},{"name":"下高井戸駅前自転車等駐車場","province":"東京都","city":"世田谷区","address":"東京都世田谷区赤堤4丁目40-11","lat":35.66580542,"lon":139.64167211},{"name":"烏山南第三自転車等駐車場","province":"東京都","city":"世田谷区","address":"東京都世田谷区南烏山5丁目18-19","lat":35.66666803,"lon":139.60183635},{"name":"下北沢東自転車等駐車場","province":"東京都","city":"世田谷区","address":"東京都世田谷区北沢1丁目46","lat":35.66292873,"lon":139.66994758},{"name":"駒沢第二自転車等駐車場","province":"東京都","city":"世田谷区","address":"東京都世田谷区上馬4丁目3-20","lat":35.63423186,"lon":139.66206309},{"name":"千歳船橋西自転車等駐車場","province":"東京都","city":"世田谷区","address":"東京都世田谷区桜丘5丁目21","lat":35.64630985,"lon":139.62046063}]}