{"keyword":"葬儀","data":[{"name":"\"伊藤商事株式会社 葬儀部 \"","province":"東京都","city":"世田谷区","address":"東京都世田谷区松原3丁目30-12","lat":35.66652758,"lon":139.64192207},{"name":"有限会社　メーユー上原葬儀社","province":"東京都","city":"世田谷区","address":"東京都世田谷区梅丘3丁目10-12","lat":35.65251006,"lon":139.65491308},{"name":"\"金子総本店 \"","province":"東京都","city":"世田谷区","address":"東京都世田谷区北沢3丁目31-2","lat":35.66454236,"lon":139.66686446},{"name":"株式会社　佐久間本店","province":"東京都","city":"世田谷区","address":"東京都世田谷区成城6丁目6-3","lat":35.64015449,"lon":139.59726549},{"name":"\"株式会社　佐久間本店 千歳船橋営業所 \"","province":"東京都","city":"世田谷区","address":"東京都世田谷区桜丘2丁目27-11","lat":35.64673208,"lon":139.6225521},{"name":"\"有限会社　佐藤葬祭 \"","province":"東京都","city":"世田谷区","address":"東京都世田谷区北沢5丁目34-14","lat":35.67164994,"lon":139.66833631},{"name":"有限会社　嶋田葬祭","province":"東京都","city":"世田谷区","address":"東京都世田谷区池尻3丁目4-2","lat":35.65009162,"lon":139.68287748},{"name":"\"株式会社　経堂 清水葬祭 \"","province":"東京都","city":"世田谷区","address":"東京都世田谷区経堂1丁目5-9","lat":35.64839896,"lon":139.63626198},{"name":"城西葬祭　株式会社","province":"東京都","city":"世田谷区","address":"東京都世田谷区野沢2丁目13-2","lat":35.63249609,"lon":139.66918473},{"name":"\"株式会社　杉田フューネス \"","province":"東京都","city":"世田谷区","address":"東京都世田谷区上北沢4丁目33-3","lat":35.66985709,"lon":139.61745449},{"name":"\"有限会社　曽根葬祭 \"","province":"東京都","city":"世田谷区","address":"東京都世田谷区下馬4丁目2-12","lat":35.63487384,"lon":139.67952824},{"name":"\"有限会社　野﨑商店 \"","province":"東京都","city":"世田谷区","address":"東京都世田谷区豪徳寺1丁目8-7","lat":35.65171273,"lon":139.64650547},{"name":"有限会社　平野屋葬祭","province":"東京都","city":"世田谷区","address":"東京都世田谷区大原1丁目17-12","lat":35.66876124,"lon":139.66331185},{"name":"株式会社　ムラカミ","province":"東京都","city":"世田谷区","address":"東京都世田谷区宮坂3丁目28-2","lat":35.65414266,"lon":139.63350925},{"name":"株式会社　沼崎商会","province":"東京都","city":"世田谷区","address":"東京都世田谷区尾山台3丁目9-6","lat":35.60391554,"lon":139.65227599}]}