{"keyword":"行政","data":[{"name":"駒沢オリンピック公園総合運動場専用駐車場","province":"東京都","city":"世田谷区","address":"東京都世田谷区","lat":35.64657462,"lon":139.65324952},{"name":"駒沢オリンピック公園陸上競技場","province":"東京都","city":"世田谷区","address":"東京都世田谷区","lat":35.64657462,"lon":139.65324952},{"name":"駒沢オリンピック公園屋内球技場","province":"東京都","city":"世田谷区","address":"東京都世田谷区","lat":35.64657462,"lon":139.65324952},{"name":"駒沢オリンピック公園体育館","province":"東京都","city":"世田谷区","address":"東京都世田谷区","lat":35.64657462,"lon":139.65324952},{"name":"駒沢オリンピック公園第二球技場","province":"東京都","city":"世田谷区","address":"東京都世田谷区","lat":35.64657462,"lon":139.65324952},{"name":"駒沢オリンピック公園弓道場","province":"東京都","city":"世田谷区","address":"東京都世田谷区","lat":35.64657462,"lon":139.65324952},{"name":"駒沢オリンピック公園弓道場的場","province":"東京都","city":"世田谷区","address":"東京都世田谷区","lat":35.64657462,"lon":139.65324952},{"name":"駒沢オリンピック公園水泳場","province":"東京都","city":"世田谷区","address":"東京都世田谷区","lat":35.64657462,"lon":139.65324952},{"name":"駒沢オリンピック公園管制塔ほか附属施設等5件","province":"東京都","city":"世田谷区","address":"東京都世田谷区","lat":35.64657462,"lon":139.65324952},{"name":"駒沢オリンピック公園陸上競技場トラックフィールド","province":"東京都","city":"世田谷区","address":"東京都世田谷区","lat":35.64657462,"lon":139.65324952},{"name":"駒沢オリンピック公園第一球技場","province":"東京都","city":"世田谷区","address":"東京都世田谷区","lat":35.64657462,"lon":139.65324952},{"name":"駒沢オリンピック公園第二球技場フィールド","province":"東京都","city":"世田谷区","address":"東京都世田谷区","lat":35.64657462,"lon":139.65324952},{"name":"駒沢オリンピック公園総合運動場テニスコート（砂入り人工芝）","province":"東京都","city":"世田谷区","address":"東京都世田谷区","lat":35.64657462,"lon":139.65324952},{"name":"駒沢オリンピック公園補助競技場","province":"東京都","city":"世田谷区","address":"東京都世田谷区","lat":35.64657462,"lon":139.65324952},{"name":"駒沢オリンピック公園軟式野球場グランド","province":"東京都","city":"世田谷区","address":"東京都世田谷区","lat":35.64657462,"lon":139.65324952},{"name":"駒沢オリンピック公園硬式野球場グランド","province":"東京都","city":"世田谷区","address":"東京都世田谷区","lat":35.64657462,"lon":139.65324952}]}