{"keyword":"認可","data":[{"name":"わらべうた桜新町保育園","province":"東京都","city":"世田谷区","address":"世田谷区桜新町1-1-6","lat":35.62799022,"lon":139.6454453},{"name":"さくらしんまち保育園","province":"東京都","city":"世田谷区","address":"世田谷区桜新町2-29-3","lat":35.63235612,"lon":139.6390324},{"name":"松原保育園","province":"東京都","city":"世田谷区","address":"世田谷区代田3-27-20","lat":35.65531727,"lon":139.6584602},{"name":"すこやか園","province":"東京都","city":"世田谷区","address":"世田谷区船橋1-30-9","lat":35.64822338,"lon":139.6208535},{"name":"にじいろ保育園給田","province":"東京都","city":"世田谷区","address":"世田谷区給田4-1-8","lat":35.66856482,"lon":139.5928061},{"name":"ChaCha Children Soshigayakoen","province":"東京都","city":"世田谷区","address":"世田谷区上祖師谷3-10-3","lat":35.65429,"lon":139.60005},{"name":"生活クラブ保育園ぽむ・砧","province":"東京都","city":"世田谷区","address":"世田谷区砧4-38-4グランドテラス1階","lat":35.64427459,"lon":139.6147257},{"name":"Gakkenほいくえん　砧","province":"東京都","city":"世田谷区","address":"世田谷区砧5-20-14","lat":35.63951,"lon":139.60985},{"name":"Gakkenほいくえん　等々力","province":"東京都","city":"世田谷区","address":"世田谷区等々力4-2-12","lat":35.60778,"lon":139.65192},{"name":"ChaCha Children Todoroki","province":"東京都","city":"世田谷区","address":"世田谷区等々力7-7-9","lat":35.61155,"lon":139.65274},{"name":"ＲＩＳＳＨＯ　ＫＩＤ’Ｓ　きらり　岡本","province":"東京都","city":"世田谷区","address":"世田谷区玉川4-11-2","lat":35.6171103,"lon":139.625431},{"name":"さくらしんまち保育園","province":"東京都","city":"世田谷区","address":"世田谷区桜新町2-29-3","lat":35.63235,"lon":139.63904},{"name":"羽根木のぞみ保育園","province":"東京都","city":"世田谷区","address":"世田谷区羽根木1-7-11","lat":35.66513,"lon":139.66048},{"name":"松原保育園","province":"東京都","city":"世田谷区","address":"世田谷区松原5-33-16","lat":35.66279,"lon":139.65013},{"name":"すこやか園","province":"東京都","city":"世田谷区","address":"世田谷区船橋1-30-9","lat":35.64836,"lon":139.62111},{"name":"にじいろ保育園給田","province":"東京都","city":"世田谷区","address":"世田谷区給田4-1-8","lat":35.66854,"lon":139.59294},{"name":"日生上馬保育園ひびき","province":"東京都","city":"世田谷区","address":"世田谷区上馬4-31-9サニーサイド上馬1階","lat":35.63823,"lon":139.66063},{"name":"梅丘至誠保育園","province":"東京都","city":"世田谷区","address":"世田谷区梅丘1-31-36","lat":35.65648,"lon":139.65416},{"name":"茶々そしがやこうえん保育園","province":"東京都","city":"世田谷区","address":"世田谷区上祖師谷3-10-3","lat":35.65429,"lon":139.60005},{"name":"ココファン・ナーサリー砧","province":"東京都","city":"世田谷区","address":"世田谷区砧5-20-14","lat":35.63951,"lon":139.60985},{"name":"生活クラブ保育園ぽむ・砧","province":"東京都","city":"世田谷区","address":"世田谷区砧4-38-4グランドテラス1階","lat":35.64261,"lon":139.61826},{"name":"大蔵ふたば保育園","province":"東京都","city":"世田谷区","address":"世田谷区大蔵3-1-20","lat":35.634,"lon":139.60928},{"name":"ココファン・ナーサリー等々力","province":"東京都","city":"世田谷区","address":"世田谷区等々力4-2-12","lat":35.60778,"lon":139.65192},{"name":"茶々とどろき保育園","province":"東京都","city":"世田谷区","address":"世田谷区等々力7-7-9","lat":35.61155,"lon":139.65274},{"name":"にじいろ保育園給田","province":"東京都","city":"世田谷区","address":"世田谷区給田4-4-14","lat":35.66955,"lon":139.59331},{"name":"ナオミ保育園","province":"東京都","city":"世田谷区","address":"世田谷区等々力8-21-9","lat":35.61625,"lon":139.65115},{"name":"ＲＩＳＳＨＯ　ＫＩＤ’Ｓ　きらり　岡本","province":"東京都","city":"世田谷区","address":"世田谷区岡本2-33-22","lat":35.62389,"lon":139.61679},{"name":"キッズスマイル世田谷上馬","province":"東京都","city":"世田谷区","address":"世田谷区上馬5-16-19","lat":35.63974,"lon":139.65476},{"name":"世田谷１丁目ゆたか園","province":"東京都","city":"世田谷区","address":"世田谷区世田谷1-17-3","lat":35.64195,"lon":139.64981},{"name":"グローバルキッズ若林園","province":"東京都","city":"世田谷区","address":"世田谷区若林2-21-10","lat":35.6492,"lon":139.66065},{"name":"つむぎ保育園","province":"東京都","city":"世田谷区","address":"世田谷区若林4-37-2","lat":35.6477,"lon":139.65682},{"name":"三軒茶屋保育園","province":"東京都","city":"世田谷区","address":"世田谷区三軒茶屋1-23-4","lat":35.64053,"lon":139.66979},{"name":"赤堤保育園","province":"東京都","city":"世田谷区","address":"世田谷区赤堤4-1-10","lat":35.66013,"lon":139.6415},{"name":"わらべうた経堂保育園","province":"東京都","city":"世田谷区","address":"世田谷区桜上水1-7-10クールセリシエ1階","lat":35.65698,"lon":139.63159},{"name":"桜ヶ丘保育園","province":"東京都","city":"世田谷区","address":"世田谷区桜丘4-19-33","lat":35.6428,"lon":139.62116},{"name":"桜の詩保育園","province":"東京都","city":"世田谷区","address":"世田谷区桜丘4-26-22","lat":35.63815,"lon":139.62087},{"name":"せたがや小鳥の森保育園","province":"東京都","city":"世田谷区","address":"世田谷区北烏山8-9-13","lat":35.67572,"lon":139.58933},{"name":"芦花保育園","province":"東京都","city":"世田谷区","address":"世田谷区南烏山2-30-17-101","lat":35.66889,"lon":139.60613},{"name":"烏山保育園","province":"東京都","city":"世田谷区","address":"世田谷区南烏山6-22-14","lat":35.66956,"lon":139.59815},{"name":"第二いちご保育園","province":"東京都","city":"世田谷区","address":"世田谷区南烏山2-33-3","lat":35.66918,"lon":139.60848},{"name":"給田保育園","province":"東京都","city":"世田谷区","address":"世田谷区給田2-13-6","lat":35.66509,"lon":139.59317},{"name":"喜多見保育園","province":"東京都","city":"世田谷区","address":"世田谷区成城3-18-20","lat":35.63368,"lon":139.5983},{"name":"はあと保育園成城","province":"東京都","city":"世田谷区","address":"世田谷区成城3-2-9","lat":35.63472,"lon":139.59963},{"name":"喜多見バオバブ保育園","province":"東京都","city":"世田谷区","address":"世田谷区喜多見1-4-7","lat":35.62264,"lon":139.59818},{"name":"喜多見野の花保育園","province":"東京都","city":"世田谷区","address":"世田谷区喜多見3-21-22","lat":35.62697,"lon":139.59958},{"name":"千歳なないろ保育園","province":"東京都","city":"世田谷区","address":"世田谷区千歳台3-17-5","lat":35.6522,"lon":139.6153},{"name":"太陽の子めぐりさわ保育園","province":"東京都","city":"世田谷区","address":"世田谷区千歳台4-14-1","lat":35.65649,"lon":139.6126},{"name":"にじいろ保育園千歳台","province":"東京都","city":"世田谷区","address":"世田谷区千歳台5-21-17","lat":35.65813,"lon":139.61112},{"name":"ぽこころ保育園祖師谷","province":"東京都","city":"世田谷区","address":"世田谷区祖師谷4-4-16","lat":35.64792,"lon":139.6069},{"name":"生活クラブ保育園ぽむ・砧","province":"東京都","city":"世田谷区","address":"世田谷区砧4-38-4グランドテラス1階","lat":35.64414,"lon":139.61475},{"name":"ふかさわミル保育園","province":"東京都","city":"世田谷区","address":"世田谷区深沢1-32-24","lat":35.61947,"lon":139.66483},{"name":"等々力保育園","province":"東京都","city":"世田谷区","address":"世田谷区等々力5-22-22","lat":35.60906,"lon":139.65787},{"name":"東玉川善隣保育園","province":"東京都","city":"世田谷区","address":"世田谷区東玉川2-35-16","lat":35.59898,"lon":139.67275},{"name":"キッド・ステイ世田谷南保育園","province":"東京都","city":"世田谷区","address":"世田谷区玉川田園調布2-4-14","lat":35.60033,"lon":139.66802},{"name":"世田谷仁慈保幼園","province":"東京都","city":"世田谷区","address":"世田谷区玉堤2-13-11","lat":35.60002,"lon":139.64623},{"name":"空の鳥保育園","province":"東京都","city":"世田谷区","address":"世田谷区野毛1-19-13","lat":35.6051,"lon":139.64377},{"name":"用賀みこころ保育園","province":"東京都","city":"世田谷区","address":"世田谷区用賀3-6-3グレイプス用賀1階","lat":35.63053,"lon":139.63767},{"name":"上用賀保育園","province":"東京都","city":"世田谷区","address":"世田谷区上用賀4-2-10","lat":35.63448,"lon":139.63059},{"name":"南八幡山保育園","province":"東京都","city":"世田谷区","address":"世田谷区八幡山3-9-20-101","lat":35.6412,"lon":139.67149},{"name":"グリーンホーム東玉川保育園","province":"東京都","city":"世田谷区","address":"世田谷区東玉川1-21-13","lat":35.60914,"lon":139.62976},{"name":"用賀みこころ保育園","province":"東京都","city":"世田谷区","address":"世田谷区用賀3-6-3グレイプス用賀1階","lat":35.6412,"lon":139.67149},{"name":"ふじみ保育園","province":"東京都","city":"世田谷区","address":"世田谷区上用賀5-19-6","lat":35.62336,"lon":139.63971},{"name":"上用賀青い空保育園","province":"東京都","city":"世田谷区","address":"世田谷区上用賀6-8-17","lat":35.62336,"lon":139.63971}]}