{"keyword":"財団","data":[{"name":"NewWork自由が丘2F","province":"東京都","city":"世田谷区","address":"東京都世田谷区奥沢7丁目2-9","lat":35.60676282,"lon":139.66639692},{"name":"NewWork下北沢","province":"東京都","city":"世田谷区","address":"東京都世田谷区北沢2丁目2-7","lat":35.65981236,"lon":139.66790064},{"name":"NewWork三軒茶屋","province":"東京都","city":"世田谷区","address":"東京都世田谷区太子堂4丁目1-1","lat":35.64413642,"lon":139.66925105},{"name":"NewWork桜新町","province":"東京都","city":"世田谷区","address":"東京都世田谷区桜新町1丁目12-10","lat":35.63152065,"lon":139.6445868},{"name":"NewWork自由が丘3F","province":"東京都","city":"世田谷区","address":"東京都世田谷区奥沢7丁目2-9","lat":35.60676282,"lon":139.66639692},{"name":"NewWork成城学園前","province":"東京都","city":"世田谷区","address":"東京都世田谷区成城2丁目34-14","lat":35.63951853,"lon":139.59943759},{"name":"H1T明大前","province":"東京都","city":"世田谷区","address":"東京都世田谷区松原2丁目28-20","lat":35.66735268,"lon":139.64928531},{"name":"H1T経堂","province":"東京都","city":"世田谷区","address":"東京都世田谷区宮坂3丁目10-9","lat":35.65240963,"lon":139.63760063},{"name":"東京電力（株）玉堤電柱置場","province":"東京都","city":"世田谷区","address":"世田谷区玉堤2-4","lat":35.59943,"lon":139.6495},{"name":"NewWork自由が丘2F","province":"東京都","city":"世田谷区","address":"東京都世田谷区奥沢7丁目2-9","lat":35.60676282,"lon":139.66639692},{"name":"NewWork下北沢","province":"東京都","city":"世田谷区","address":"東京都世田谷区北沢2丁目2-7","lat":35.65981236,"lon":139.66790064},{"name":"NewWork三軒茶屋","province":"東京都","city":"世田谷区","address":"東京都世田谷区太子堂4丁目1-1","lat":35.64413642,"lon":139.66925105},{"name":"NewWork桜新町","province":"東京都","city":"世田谷区","address":"東京都世田谷区桜新町1丁目12-10","lat":35.63152065,"lon":139.6445868},{"name":"NewWork自由が丘3F","province":"東京都","city":"世田谷区","address":"東京都世田谷区奥沢7丁目2-9","lat":35.60676282,"lon":139.66639692},{"name":"NewWork成城学園前","province":"東京都","city":"世田谷区","address":"東京都世田谷区成城2丁目34-14","lat":35.63951853,"lon":139.59943759},{"name":"H1T明大前","province":"東京都","city":"世田谷区","address":"東京都世田谷区松原2丁目28-20","lat":35.66735268,"lon":139.64928531},{"name":"H1T経堂","province":"東京都","city":"世田谷区","address":"東京都世田谷区宮坂3丁目10-9","lat":35.65240963,"lon":139.63760063},{"name":"東京電力（株）玉堤電柱置場","province":"東京都","city":"世田谷区","address":"世田谷区玉堤2-4","lat":35.59943,"lon":139.6495},{"name":"NewWork自由が丘2F","province":"東京都","city":"世田谷区","address":"東京都世田谷区奥沢7丁目2-9","lat":35.60676282,"lon":139.66639692},{"name":"NewWork下北沢","province":"東京都","city":"世田谷区","address":"東京都世田谷区北沢2丁目2-7","lat":35.65981236,"lon":139.66790064},{"name":"NewWork三軒茶屋","province":"東京都","city":"世田谷区","address":"東京都世田谷区太子堂4丁目1-1","lat":35.64413642,"lon":139.66925105},{"name":"NewWork桜新町","province":"東京都","city":"世田谷区","address":"東京都世田谷区桜新町1丁目12-10","lat":35.63152065,"lon":139.6445868},{"name":"NewWork自由が丘3F","province":"東京都","city":"世田谷区","address":"東京都世田谷区奥沢7丁目2-9","lat":35.60676282,"lon":139.66639692},{"name":"NewWork成城学園前","province":"東京都","city":"世田谷区","address":"東京都世田谷区成城2丁目34-14","lat":35.63951853,"lon":139.59943759},{"name":"H1T明大前","province":"東京都","city":"世田谷区","address":"東京都世田谷区松原2丁目28-20","lat":35.66735268,"lon":139.64928531},{"name":"H1T経堂","province":"東京都","city":"世田谷区","address":"東京都世田谷区宮坂3丁目10-9","lat":35.65240963,"lon":139.63760063},{"name":"東京電力（株）玉堤電柱置場","province":"東京都","city":"世田谷区","address":"世田谷区玉堤2-4","lat":35.59943,"lon":139.6495},{"name":"NewWork自由が丘2F","province":"東京都","city":"世田谷区","address":"東京都世田谷区奥沢7丁目2-9","lat":35.60676282,"lon":139.66639692},{"name":"NewWork下北沢","province":"東京都","city":"世田谷区","address":"東京都世田谷区北沢2丁目2-7","lat":35.65981236,"lon":139.66790064},{"name":"NewWork三軒茶屋","province":"東京都","city":"世田谷区","address":"東京都世田谷区太子堂4丁目1-1","lat":35.64413642,"lon":139.66925105},{"name":"NewWork桜新町","province":"東京都","city":"世田谷区","address":"東京都世田谷区桜新町1丁目12-10","lat":35.63152065,"lon":139.6445868},{"name":"NewWork自由が丘3F","province":"東京都","city":"世田谷区","address":"東京都世田谷区奥沢7丁目2-9","lat":35.60676282,"lon":139.66639692},{"name":"NewWork成城学園前","province":"東京都","city":"世田谷区","address":"東京都世田谷区成城2丁目34-14","lat":35.63951853,"lon":139.59943759},{"name":"H1T明大前","province":"東京都","city":"世田谷区","address":"東京都世田谷区松原2丁目28-20","lat":35.66735268,"lon":139.64928531},{"name":"H1T経堂","province":"東京都","city":"世田谷区","address":"東京都世田谷区宮坂3丁目10-9","lat":35.65240963,"lon":139.63760063},{"name":"東京電力（株）玉堤電柱置場","province":"東京都","city":"世田谷区","address":"世田谷区玉堤2-4","lat":35.59943,"lon":139.6495},{"name":"東京電力（株）玉堤電柱置場","province":"東京都","city":"世田谷区","address":"世田谷区玉堤2-4","lat":35.59943,"lon":139.6495},{"name":"東京電力（株）玉堤電柱置場","province":"東京都","city":"世田谷区","address":"世田谷区玉堤2-4","lat":35.59943,"lon":139.6495},{"name":"東京電力（株）玉堤電柱置場","province":"東京都","city":"世田谷区","address":"世田谷区玉堤2-4","lat":35.59943,"lon":139.6495},{"name":"東京電力（株）玉堤電柱置場","province":"東京都","city":"世田谷区","address":"世田谷区玉堤2-4","lat":35.59943,"lon":139.6495},{"name":"東京電力（株）玉堤電柱置場","province":"東京都","city":"世田谷区","address":"世田谷区玉堤2-4","lat":35.59943,"lon":139.6495},{"name":"東京電力（株）玉堤電柱置場","province":"東京都","city":"世田谷区","address":"世田谷区玉堤2-4","lat":35.59943,"lon":139.6495},{"name":"東京電力（株）玉堤電柱置場","province":"東京都","city":"世田谷区","address":"世田谷区玉堤2-4","lat":35.59943,"lon":139.6495},{"name":"東京電力（株）玉堤電柱置場","province":"東京都","city":"世田谷区","address":"世田谷区玉堤2-4","lat":35.59943,"lon":139.6495},{"name":"東京電力（株）玉堤電柱置場","province":"東京都","city":"世田谷区","address":"世田谷区玉堤2-4","lat":35.59943,"lon":139.6495},{"name":"東京電力（株）玉堤電柱置場","province":"東京都","city":"世田谷区","address":"世田谷区玉堤2-4","lat":35.59943,"lon":139.6495},{"name":"東京電力（株）玉堤電柱置場","province":"東京都","city":"世田谷区","address":"世田谷区玉堤2-4","lat":35.59943,"lon":139.6495},{"name":"東京電力（株）玉堤電柱置場","province":"東京都","city":"世田谷区","address":"世田谷区玉堤2-4","lat":35.59943,"lon":139.6495},{"name":"東京電力（株）玉堤電柱置場","province":"東京都","city":"世田谷区","address":"世田谷区玉堤2-4","lat":35.59943,"lon":139.6495},{"name":"東京電力（株）玉堤電柱置場","province":"東京都","city":"世田谷区","address":"世田谷区玉堤2-4","lat":35.59943,"lon":139.6495},{"name":"東京電力（株）玉堤電柱置場","province":"東京都","city":"世田谷区","address":"世田谷区玉堤2-4","lat":35.59943,"lon":139.6495},{"name":"東京電力（株）玉堤電柱置場","province":"東京都","city":"世田谷区","address":"世田谷区玉堤2-4","lat":35.59943,"lon":139.6495},{"name":"東京電力（株）玉堤電柱置場","province":"東京都","city":"世田谷区","address":"世田谷区玉堤2-4","lat":35.59943,"lon":139.6495},{"name":"東京電力（株）玉堤電柱置場","province":"東京都","city":"世田谷区","address":"世田谷区玉堤2-4","lat":35.59943,"lon":139.6495},{"name":"東京電力（株）玉堤電柱置場","province":"東京都","city":"世田谷区","address":"世田谷区玉堤2-4","lat":35.59943,"lon":139.6495},{"name":"東京電力（株）玉堤電柱置場","province":"東京都","city":"世田谷区","address":"世田谷区玉堤2-4","lat":35.59943,"lon":139.6495},{"name":"東京電力（株）玉堤電柱置場","province":"東京都","city":"世田谷区","address":"世田谷区玉堤2-4","lat":35.59943,"lon":139.6495},{"name":"東京電力（株）玉堤電柱置場","province":"東京都","city":"世田谷区","address":"世田谷区玉堤2-4","lat":35.59943,"lon":139.6495},{"name":"東京電力（株）玉堤電柱置場","province":"東京都","city":"世田谷区","address":"世田谷区玉堤2-4","lat":35.59943,"lon":139.6495},{"name":"東京電力（株）玉堤電柱置場","province":"東京都","city":"世田谷区","address":"世田谷区玉堤2-4","lat":35.59943,"lon":139.6495},{"name":"東京電力（株）玉堤電柱置場","province":"東京都","city":"世田谷区","address":"世田谷区玉堤2-4","lat":35.59943,"lon":139.6495},{"name":"東京電力（株）玉堤電柱置場","province":"東京都","city":"世田谷区","address":"世田谷区玉堤2-4","lat":35.59943,"lon":139.6495},{"name":"東京電力（株）玉堤電柱置場","province":"東京都","city":"世田谷区","address":"世田谷区玉堤2-4","lat":35.59943,"lon":139.6495}]}