{"keyword":"館","data":[{"name":"池尻児童館","province":"東京都","city":"世田谷区","address":"世田谷区池尻2-3-11","lat":35.646634,"lon":139.682442},{"name":"野沢児童館","province":"東京都","city":"世田谷区","address":"世田谷区野沢1-8-14","lat":35.634732,"lon":139.671012},{"name":"新町児童館","province":"東京都","city":"世田谷区","address":"世田谷区新町2-23-4-101","lat":35.630968,"lon":139.64772},{"name":"弦巻児童館","province":"東京都","city":"世田谷区","address":"世田谷区弦巻1-26-11","lat":35.636959,"lon":139.651828},{"name":"上町児童館","province":"東京都","city":"世田谷区","address":"世田谷区世田谷2-30-16","lat":35.643066,"lon":139.642848},{"name":"若林児童館","province":"東京都","city":"世田谷区","address":"世田谷区若林5-18-13","lat":35.648636,"lon":139.656985},{"name":"代田児童館","province":"東京都","city":"世田谷区","address":"世田谷区代田6-34-13","lat":35.662884,"lon":139.660665},{"name":"代田南児童館","province":"東京都","city":"世田谷区","address":"世田谷区代田1-21-11","lat":35.652649,"lon":139.661696},{"name":"松沢児童館","province":"東京都","city":"世田谷区","address":"世田谷区赤堤4-37-14","lat":35.664422,"lon":139.641775},{"name":"桜丘児童館","province":"東京都","city":"世田谷区","address":"世田谷区桜丘5-14-1","lat":35.644796,"lon":139.622211},{"name":"船橋児童館","province":"東京都","city":"世田谷区","address":"世田谷区船橋5-17-28","lat":35.654876,"lon":139.625452},{"name":"上北沢児童館","province":"東京都","city":"世田谷区","address":"世田谷区上北沢3-8-9","lat":35.667466,"lon":139.625534},{"name":"烏山児童館","province":"東京都","city":"世田谷区","address":"世田谷区南烏山4-26-3","lat":35.671684,"lon":139.601547},{"name":"粕谷児童館","province":"東京都","city":"世田谷区","address":"世田谷区粕谷4-13-6","lat":35.663107,"lon":139.605164},{"name":"上祖師谷ぱる児童館","province":"東京都","city":"世田谷区","address":"世田谷区上祖師谷4-5-6","lat":35.653586,"lon":139.596637},{"name":"成城さくら児童館","province":"東京都","city":"世田谷区","address":"世田谷区成城3-18-23","lat":35.634122,"lon":139.597608},{"name":"喜多見児童館","province":"東京都","city":"世田谷区","address":"世田谷区喜多見2-10-40","lat":35.624732,"lon":139.59475},{"name":"祖師谷児童館","province":"東京都","city":"世田谷区","address":"世田谷区祖師谷4-28-6-101","lat":35.649737,"lon":139.606198},{"name":"山野児童館","province":"東京都","city":"世田谷区","address":"世田谷区砧4-1-7","lat":35.637977,"lon":139.6147},{"name":"鎌田児童館","province":"東京都","city":"世田谷区","address":"世田谷区鎌田3-35-1","lat":35.622327,"lon":139.613415},{"name":"深沢児童館","province":"東京都","city":"世田谷区","address":"世田谷区深沢4-33-11","lat":35.620225,"lon":139.653806},{"name":"等々力児童館","province":"東京都","city":"世田谷区","address":"世田谷区等々力3-25-16","lat":35.611387,"lon":139.64994},{"name":"森の児童館","province":"東京都","city":"世田谷区","address":"世田谷区上野毛4-29-18","lat":35.616892,"lon":139.638785},{"name":"玉川台児童館","province":"東京都","city":"世田谷区","address":"世田谷区玉川台1-6-15","lat":35.622933,"lon":139.633022},{"name":"上用賀児童館","province":"東京都","city":"世田谷区","address":"世田谷区上用賀4-14-3-101","lat":35.63592,"lon":139.630093},{"name":"中央図書館","province":"東京都","city":"世田谷区","address":"東京都世田谷区弦巻3丁目16-8","lat":35.63774213,"lon":139.64433663},{"name":"梅丘図書館","province":"東京都","city":"世田谷区","address":"東京都世田谷区松原6丁目41-8","lat":35.65674555,"lon":139.64948007},{"name":"砧図書館","province":"東京都","city":"世田谷区","address":"東京都世田谷区祖師谷3丁目10-4","lat":35.64229329,"lon":139.60405376},{"name":"奥沢図書館","province":"東京都","city":"世田谷区","address":"東京都世田谷区奥沢3丁目5-7","lat":35.59999177,"lon":139.67331622},{"name":"玉川台図書館","province":"東京都","city":"世田谷区","address":"東京都世田谷区玉川台1丁目6-15","lat":35.62293547,"lon":139.6330188},{"name":"代田図書館","province":"東京都","city":"世田谷区","address":"東京都世田谷区代田6丁目34-13","lat":35.66288404,"lon":139.66066505},{"name":"烏山図書館","province":"東京都","city":"世田谷区","address":"東京都世田谷区南烏山6丁目2-19","lat":35.66886497,"lon":139.60059192},{"name":"下馬図書館","province":"東京都","city":"世田谷区","address":"東京都世田谷区下馬2丁目32-1","lat":35.64148967,"lon":139.67627275},{"name":"深沢図書館","province":"東京都","city":"世田谷区","address":"東京都世田谷区深沢4丁目33-11","lat":35.62022485,"lon":139.6538058},{"name":"桜丘図書館","province":"東京都","city":"世田谷区","address":"東京都世田谷区桜丘5丁目14-1","lat":35.64479619,"lon":139.62218555},{"name":"尾山台図書館","province":"東京都","city":"世田谷区","address":"東京都世田谷区等々力2丁目17-14","lat":35.60578755,"lon":139.65233425},{"name":"上北沢図書館","province":"東京都","city":"世田谷区","address":"東京都世田谷区上北沢3丁目8-9","lat":35.66744371,"lon":139.6254845},{"name":"粕谷図書館","province":"東京都","city":"世田谷区","address":"東京都世田谷区粕谷4丁目13-6","lat":35.66310744,"lon":139.60516398},{"name":"鎌田図書館","province":"東京都","city":"世田谷区","address":"東京都世田谷区鎌田3丁目35-1","lat":35.6223354,"lon":139.61339878},{"name":"経堂図書館","province":"東京都","city":"世田谷区","address":"東京都世田谷区宮坂3丁目1-30","lat":35.65153752,"lon":139.63784509},{"name":"池尻児童館","province":"東京都","city":"世田谷区","address":"世田谷区池尻2-3-11","lat":35.6466,"lon":139.68228},{"name":"野沢児童館","province":"東京都","city":"世田谷区","address":"世田谷区野沢1-8-14","lat":35.63489,"lon":139.67101},{"name":"新町児童館","province":"東京都","city":"世田谷区","address":"世田谷区新町2-23-4-101","lat":35.63029,"lon":139.64734},{"name":"弦巻児童館","province":"東京都","city":"世田谷区","address":"世田谷区弦巻1-26-11","lat":35.63689,"lon":139.65196},{"name":"上町児童館","province":"東京都","city":"世田谷区","address":"世田谷区世田谷2-30-16","lat":35.6429,"lon":139.64221},{"name":"若林児童館","province":"東京都","city":"世田谷区","address":"世田谷区若林5-18-13","lat":35.64877,"lon":139.65675},{"name":"代田南児童館","province":"東京都","city":"世田谷区","address":"世田谷区代田1-13-14","lat":35.65179,"lon":139.66277},{"name":"代田児童館","province":"東京都","city":"世田谷区","address":"世田谷区代田6-34-13","lat":35.66281,"lon":139.66141},{"name":"松沢児童館","province":"東京都","city":"世田谷区","address":"世田谷区赤堤4-37-14","lat":35.66439,"lon":139.64172},{"name":"桜丘児童館","province":"東京都","city":"世田谷区","address":"世田谷区桜丘5-14-1","lat":35.64478,"lon":139.62202},{"name":"船橋児童館","province":"東京都","city":"世田谷区","address":"世田谷区船橋5-17-28","lat":35.65563,"lon":139.62376},{"name":"上北沢児童館","province":"東京都","city":"世田谷区","address":"世田谷区上北沢3-8-9","lat":35.66763,"lon":139.62575},{"name":"烏山児童館","province":"東京都","city":"世田谷区","address":"世田谷区南烏山4-26-3","lat":35.67174,"lon":139.60088},{"name":"粕谷児童館","province":"東京都","city":"世田谷区","address":"世田谷区粕谷4-13-6","lat":35.66321,"lon":139.60489},{"name":"上祖師谷ぱる児童館","province":"東京都","city":"世田谷区","address":"世田谷区上祖師谷4-5-6","lat":35.65361,"lon":139.59685},{"name":"成城さくら児童館","province":"東京都","city":"世田谷区","address":"世田谷区成城3-18-23","lat":35.63367,"lon":139.5983},{"name":"喜多見児童館","province":"東京都","city":"世田谷区","address":"世田谷区喜多見2-10-40","lat":35.624,"lon":139.5929},{"name":"祖師谷児童館","province":"東京都","city":"世田谷区","address":"世田谷区祖師谷4-28-6-101","lat":35.64854,"lon":139.60602},{"name":"山野児童館","province":"東京都","city":"世田谷区","address":"世田谷区砧4-1-7","lat":35.63818,"lon":139.61452},{"name":"鎌田児童館","province":"東京都","city":"世田谷区","address":"世田谷区鎌田3-35-1","lat":35.62247,"lon":139.61351},{"name":"深沢児童館","province":"東京都","city":"世田谷区","address":"世田谷区深沢4-33-11","lat":35.62007,"lon":139.65398},{"name":"等々力児童館","province":"東京都","city":"世田谷区","address":"世田谷区等々力3-25-16","lat":35.61117,"lon":139.64983},{"name":"森の児童館","province":"東京都","city":"世田谷区","address":"世田谷区上野毛4-29-18","lat":35.61683,"lon":139.63867},{"name":"玉川台児童館","province":"東京都","city":"世田谷区","address":"世田谷区玉川台1-6-15","lat":35.62278,"lon":139.633},{"name":"上用賀児童館","province":"東京都","city":"世田谷区","address":"世田谷区上用賀4-14-3-101","lat":35.63556,"lon":139.63025},{"name":"代田南児童館","province":"東京都","city":"世田谷区","address":"世田谷区代田1-21-11","lat":35.65244,"lon":139.66179},{"name":"新町児童館","province":"東京都","city":"世田谷区","address":"世田谷区新町2-23-4-101","lat":35.6303,"lon":139.64734},{"name":"桜丘児童館","province":"東京都","city":"世田谷区","address":"世田谷区桜丘5-14-1","lat":35.64478,"lon":139.62203},{"name":"成城さくら児童館","province":"東京都","city":"世田谷区","address":"世田谷区成城3-18-23","lat":35.63368,"lon":139.5983},{"name":"＊?上北沢図書館","province":"東京都","city":"世田谷区","address":"世田谷区上北沢3-8-9","lat":35.667601,"lon":139.625667},{"name":"＊?粕谷図書館","province":"東京都","city":"世田谷区","address":"世田谷区粕谷4-13-6","lat":35.663119,"lon":139.605106},{"name":"＊?梅丘図書館","province":"東京都","city":"世田谷区","address":"世田谷区代田4-38-10","lat":35.657451,"lon":139.654721},{"name":"＊?烏山図書館","province":"東京都","city":"世田谷区","address":"世田谷区南烏山6-2-19","lat":35.66882,"lon":139.600551},{"name":"＊?下馬図書館","province":"東京都","city":"世田谷区","address":"世田谷区下馬2-32-1","lat":35.641496,"lon":139.676261},{"name":"＊?世田谷図書館","province":"東京都","city":"世田谷区","address":"世田谷区若林4-29-26","lat":35.645903,"lon":139.654908},{"name":"＊?中央図書館","province":"東京都","city":"世田谷区","address":"世田谷区弦巻3-16-8","lat":35.637717,"lon":139.644332},{"name":"＊?桜丘図書館","province":"東京都","city":"世田谷区","address":"世田谷区桜丘5-14-1","lat":35.644834,"lon":139.622119},{"name":"＊?代田図書館","province":"東京都","city":"世田谷区","address":"世田谷区代田6-34-13","lat":35.662811,"lon":139.660649},{"name":"＊?砧図書館","province":"東京都","city":"世田谷区","address":"世田谷区祖師谷3-10-4","lat":35.642272,"lon":139.604076},{"name":"＊?団体貸出センター","province":"東京都","city":"世田谷区","address":"世田谷区弦巻3-16-8","lat":35.637717,"lon":139.644332},{"name":"＊?尾山台図書館","province":"東京都","city":"世田谷区","address":"世田谷区等々力2-17-14","lat":35.605777,"lon":139.652384},{"name":"＊?深沢図書館","province":"東京都","city":"世田谷区","address":"世田谷区深沢4-33-11","lat":35.620254,"lon":139.653776},{"name":"＊?玉川台図書館","province":"東京都","city":"世田谷区","address":"世田谷区玉川台1-6-15","lat":35.622959,"lon":139.633057},{"name":"＊?鎌田図書館","province":"東京都","city":"世田谷区","address":"世田谷区鎌田3-35-1","lat":35.622324,"lon":139.613486},{"name":"＊?奥沢図書館","province":"東京都","city":"世田谷区","address":"世田谷区奥沢3-47-8","lat":35.603639,"lon":139.672651},{"name":"＊?経堂図書館","province":"東京都","city":"世田谷区","address":"世田谷区宮坂3-1-30","lat":35.651562,"lon":139.637821}]}