{"keyword":"子ども","data":[{"name":"底土野営場","province":"東京都","city":"八丈町","address":"東京都八丈町三根","lat":33.126508,"lon":139.814163},{"name":"大賀郷園地","province":"東京都","city":"八丈町","address":"東京都八丈町大賀郷","lat":33.109171,"lon":139.780626},{"name":"大潟浦園地","province":"東京都","city":"八丈町","address":"東京都八丈町大賀郷","lat":33.102975,"lon":139.76291},{"name":"登龍園地","province":"東京都","city":"八丈町","address":"東京都八丈町三根","lat":33.11352,"lon":139.835586},{"name":"南原園地","province":"東京都","city":"八丈町","address":"東京都八丈町大賀郷","lat":33.105689,"lon":139.755548},{"name":"八丈植物公園","province":"東京都","city":"八丈町","address":"東京都八丈町大賀郷","lat":33.111162,"lon":139.782349},{"name":"八丈植物公園","province":"東京都","city":"八丈町","address":"東京都八丈町大賀郷","lat":33.110825,"lon":139.787514},{"name":"八丈植物公園","province":"東京都","city":"八丈町","address":"東京都八丈町大賀郷","lat":33.10887,"lon":139.785263},{"name":"八重根港船客待合所","province":"東京都","city":"八丈町","address":"東京都八丈町大賀郷","lat":33.099897,"lon":139.771477},{"name":"八重根港ビーチサービス施設","province":"東京都","city":"八丈町","address":"東京都八丈町大賀郷","lat":33.099897,"lon":139.771477},{"name":"八重根漁港便所・休憩所","province":"東京都","city":"八丈町","address":"東京都八丈町大賀郷","lat":33.099193,"lon":139.775031},{"name":"八丈町役場本庁舎","province":"東京都","city":"八丈町","address":"東京都八丈町大賀郷","lat":33.112804,"lon":139.788502},{"name":"三根公民館","province":"東京都","city":"八丈町","address":"東京都八丈町三根","lat":33.118868,"lon":139.802389},{"name":"南原スポーツ公園野球場","province":"東京都","city":"八丈町","address":"東京都八丈町大賀郷","lat":33.109785,"lon":139.755699},{"name":"横間公衆便所","province":"東京都","city":"八丈町","address":"東京都八丈町大賀郷","lat":33.092617,"lon":139.780518},{"name":"裏見ヶ滝公衆便所","province":"東京都","city":"八丈町","address":"東京都八丈町中之郷","lat":33.063677,"lon":139.816854},{"name":"洞輪沢公衆便所","province":"東京都","city":"八丈町","address":"東京都八丈町末吉","lat":33.076043,"lon":139.840812},{"name":"ヤケンガ浜公衆便所","province":"東京都","city":"八丈町","address":"東京都八丈町大賀郷","lat":33.100341,"lon":139.770289},{"name":"富士中下公衆トイレ","province":"東京都","city":"八丈町","address":"東京都八丈町三根","lat":33.124247,"lon":139.795226},{"name":"プラザ公園便所","province":"東京都","city":"八丈町","address":"東京都八丈町大賀郷","lat":33.104735,"lon":139.793706},{"name":"底土公衆便所","province":"東京都","city":"八丈町","address":"東京都八丈町三根","lat":33.125012,"lon":139.815905},{"name":"八丈町コミュニティセンター","province":"東京都","city":"八丈町","address":"東京都八丈町三根","lat":33.113206,"lon":139.791299},{"name":"冨士中学校","province":"東京都","city":"八丈町","address":"東京都八丈町","lat":33.11274212,"lon":139.78906712},{"name":"冨士野球場","province":"東京都","city":"八丈町","address":"東京都八丈町","lat":33.11274212,"lon":139.78906712},{"name":"大賀郷中学校","province":"東京都","city":"八丈町","address":"東京都八丈町","lat":33.11274212,"lon":139.78906712},{"name":"三原中学校","province":"東京都","city":"八丈町","address":"東京都八丈町","lat":33.11274212,"lon":139.78906712},{"name":"末吉中学校","province":"東京都","city":"八丈町","address":"東京都八丈町","lat":33.11274212,"lon":139.78906712},{"name":"樫立小学校","province":"東京都","city":"八丈町","address":"東京都八丈町","lat":33.11274212,"lon":139.78906712},{"name":"底土野営場","province":"東京都","city":"八丈町","address":"東京都八丈町三根","lat":33.126508,"lon":139.814163},{"name":"大賀郷園地","province":"東京都","city":"八丈町","address":"東京都八丈町大賀郷","lat":33.109171,"lon":139.780626},{"name":"大潟浦園地","province":"東京都","city":"八丈町","address":"東京都八丈町大賀郷","lat":33.102975,"lon":139.76291},{"name":"登龍園地","province":"東京都","city":"八丈町","address":"東京都八丈町三根","lat":33.11352,"lon":139.835586},{"name":"南原園地","province":"東京都","city":"八丈町","address":"東京都八丈町大賀郷","lat":33.105689,"lon":139.755548},{"name":"八丈植物公園","province":"東京都","city":"八丈町","address":"東京都八丈町大賀郷","lat":33.111162,"lon":139.782349},{"name":"八丈植物公園","province":"東京都","city":"八丈町","address":"東京都八丈町大賀郷","lat":33.110825,"lon":139.787514},{"name":"八丈植物公園","province":"東京都","city":"八丈町","address":"東京都八丈町大賀郷","lat":33.10887,"lon":139.785263},{"name":"八重根港船客待合所","province":"東京都","city":"八丈町","address":"東京都八丈町大賀郷","lat":33.099897,"lon":139.771477},{"name":"八重根港ビーチサービス施設","province":"東京都","city":"八丈町","address":"東京都八丈町大賀郷","lat":33.099897,"lon":139.771477},{"name":"八重根漁港便所・休憩所","province":"東京都","city":"八丈町","address":"東京都八丈町大賀郷","lat":33.099193,"lon":139.775031},{"name":"八丈町役場本庁舎","province":"東京都","city":"八丈町","address":"東京都八丈町大賀郷","lat":33.112804,"lon":139.788502},{"name":"三根公民館","province":"東京都","city":"八丈町","address":"東京都八丈町三根","lat":33.118868,"lon":139.802389},{"name":"南原スポーツ公園野球場","province":"東京都","city":"八丈町","address":"東京都八丈町大賀郷","lat":33.109785,"lon":139.755699},{"name":"横間公衆便所","province":"東京都","city":"八丈町","address":"東京都八丈町大賀郷","lat":33.092617,"lon":139.780518},{"name":"裏見ヶ滝公衆便所","province":"東京都","city":"八丈町","address":"東京都八丈町中之郷","lat":33.063677,"lon":139.816854},{"name":"洞輪沢公衆便所","province":"東京都","city":"八丈町","address":"東京都八丈町末吉","lat":33.076043,"lon":139.840812},{"name":"ヤケンガ浜公衆便所","province":"東京都","city":"八丈町","address":"東京都八丈町大賀郷","lat":33.100341,"lon":139.770289},{"name":"富士中下公衆トイレ","province":"東京都","city":"八丈町","address":"東京都八丈町三根","lat":33.124247,"lon":139.795226},{"name":"プラザ公園便所","province":"東京都","city":"八丈町","address":"東京都八丈町大賀郷","lat":33.104735,"lon":139.793706},{"name":"底土公衆便所","province":"東京都","city":"八丈町","address":"東京都八丈町三根","lat":33.125012,"lon":139.815905},{"name":"八丈町コミュニティセンター","province":"東京都","city":"八丈町","address":"東京都八丈町三根","lat":33.113206,"lon":139.791299},{"name":"底土野営場","province":"東京都","city":"八丈町","address":"東京都八丈町三根","lat":33.126508,"lon":139.814163},{"name":"大賀郷園地","province":"東京都","city":"八丈町","address":"東京都八丈町大賀郷","lat":33.109171,"lon":139.780626},{"name":"大潟浦園地","province":"東京都","city":"八丈町","address":"東京都八丈町大賀郷","lat":33.102975,"lon":139.76291},{"name":"登龍園地","province":"東京都","city":"八丈町","address":"東京都八丈町三根","lat":33.11352,"lon":139.835586},{"name":"南原園地","province":"東京都","city":"八丈町","address":"東京都八丈町大賀郷","lat":33.105689,"lon":139.755548},{"name":"八丈植物公園","province":"東京都","city":"八丈町","address":"東京都八丈町大賀郷","lat":33.111162,"lon":139.782349},{"name":"八丈植物公園","province":"東京都","city":"八丈町","address":"東京都八丈町大賀郷","lat":33.110825,"lon":139.787514},{"name":"八丈植物公園","province":"東京都","city":"八丈町","address":"東京都八丈町大賀郷","lat":33.10887,"lon":139.785263},{"name":"八重根港船客待合所","province":"東京都","city":"八丈町","address":"東京都八丈町大賀郷","lat":33.099897,"lon":139.771477},{"name":"八重根港ビーチサービス施設","province":"東京都","city":"八丈町","address":"東京都八丈町大賀郷","lat":33.099897,"lon":139.771477},{"name":"八重根漁港便所・休憩所","province":"東京都","city":"八丈町","address":"東京都八丈町大賀郷","lat":33.099193,"lon":139.775031},{"name":"八丈町役場本庁舎","province":"東京都","city":"八丈町","address":"東京都八丈町大賀郷","lat":33.112804,"lon":139.788502},{"name":"三根公民館","province":"東京都","city":"八丈町","address":"東京都八丈町三根","lat":33.118868,"lon":139.802389},{"name":"南原スポーツ公園野球場","province":"東京都","city":"八丈町","address":"東京都八丈町大賀郷","lat":33.109785,"lon":139.755699},{"name":"横間公衆便所","province":"東京都","city":"八丈町","address":"東京都八丈町大賀郷","lat":33.092617,"lon":139.780518},{"name":"裏見ヶ滝公衆便所","province":"東京都","city":"八丈町","address":"東京都八丈町中之郷","lat":33.063677,"lon":139.816854},{"name":"洞輪沢公衆便所","province":"東京都","city":"八丈町","address":"東京都八丈町末吉","lat":33.076043,"lon":139.840812},{"name":"ヤケンガ浜公衆便所","province":"東京都","city":"八丈町","address":"東京都八丈町大賀郷","lat":33.100341,"lon":139.770289},{"name":"富士中下公衆トイレ","province":"東京都","city":"八丈町","address":"東京都八丈町三根","lat":33.124247,"lon":139.795226},{"name":"プラザ公園便所","province":"東京都","city":"八丈町","address":"東京都八丈町大賀郷","lat":33.104735,"lon":139.793706},{"name":"底土公衆便所","province":"東京都","city":"八丈町","address":"東京都八丈町三根","lat":33.125012,"lon":139.815905},{"name":"八丈町コミュニティセンター","province":"東京都","city":"八丈町","address":"東京都八丈町三根","lat":33.113206,"lon":139.791299},{"name":"底土野営場","province":"東京都","city":"八丈町","address":"東京都八丈町三根","lat":33.126508,"lon":139.814163},{"name":"大賀郷園地","province":"東京都","city":"八丈町","address":"東京都八丈町大賀郷","lat":33.109171,"lon":139.780626},{"name":"大潟浦園地","province":"東京都","city":"八丈町","address":"東京都八丈町大賀郷","lat":33.102975,"lon":139.76291},{"name":"登龍園地","province":"東京都","city":"八丈町","address":"東京都八丈町三根","lat":33.11352,"lon":139.835586},{"name":"南原園地","province":"東京都","city":"八丈町","address":"東京都八丈町大賀郷","lat":33.105689,"lon":139.755548},{"name":"八丈植物公園","province":"東京都","city":"八丈町","address":"東京都八丈町大賀郷","lat":33.111162,"lon":139.782349},{"name":"八丈植物公園","province":"東京都","city":"八丈町","address":"東京都八丈町大賀郷","lat":33.110825,"lon":139.787514},{"name":"八丈植物公園","province":"東京都","city":"八丈町","address":"東京都八丈町大賀郷","lat":33.10887,"lon":139.785263},{"name":"八重根港船客待合所","province":"東京都","city":"八丈町","address":"東京都八丈町大賀郷","lat":33.099897,"lon":139.771477},{"name":"八重根港ビーチサービス施設","province":"東京都","city":"八丈町","address":"東京都八丈町大賀郷","lat":33.099897,"lon":139.771477},{"name":"八重根漁港便所・休憩所","province":"東京都","city":"八丈町","address":"東京都八丈町大賀郷","lat":33.099193,"lon":139.775031},{"name":"八丈町役場本庁舎","province":"東京都","city":"八丈町","address":"東京都八丈町大賀郷","lat":33.112804,"lon":139.788502},{"name":"三根公民館","province":"東京都","city":"八丈町","address":"東京都八丈町三根","lat":33.118868,"lon":139.802389},{"name":"南原スポーツ公園野球場","province":"東京都","city":"八丈町","address":"東京都八丈町大賀郷","lat":33.109785,"lon":139.755699},{"name":"横間公衆便所","province":"東京都","city":"八丈町","address":"東京都八丈町大賀郷","lat":33.092617,"lon":139.780518},{"name":"裏見ヶ滝公衆便所","province":"東京都","city":"八丈町","address":"東京都八丈町中之郷","lat":33.063677,"lon":139.816854},{"name":"洞輪沢公衆便所","province":"東京都","city":"八丈町","address":"東京都八丈町末吉","lat":33.076043,"lon":139.840812},{"name":"ヤケンガ浜公衆便所","province":"東京都","city":"八丈町","address":"東京都八丈町大賀郷","lat":33.100341,"lon":139.770289},{"name":"富士中下公衆トイレ","province":"東京都","city":"八丈町","address":"東京都八丈町三根","lat":33.124247,"lon":139.795226},{"name":"プラザ公園便所","province":"東京都","city":"八丈町","address":"東京都八丈町大賀郷","lat":33.104735,"lon":139.793706},{"name":"底土公衆便所","province":"東京都","city":"八丈町","address":"東京都八丈町三根","lat":33.125012,"lon":139.815905},{"name":"八丈町コミュニティセンター","province":"東京都","city":"八丈町","address":"東京都八丈町三根","lat":33.113206,"lon":139.791299}]}