{"keyword":"月間","data":[{"name":"八丈町子ども家庭支援センター","province":"東京都","city":"八丈町","address":"八丈町大賀郷2551番地2八丈町役場内","lat":33.112756,"lon":139.789059},{"name":"八丈町子ども家庭支援センター","province":"東京都","city":"八丈町","address":"八丈町大賀郷2551番地2八丈町役場内","lat":33.11339,"lon":139.78926},{"name":"八丈町火葬場","province":"東京都","city":"八丈町","address":"東京都八丈町三根3481","lat":33.11565702,"lon":139.81339538},{"name":"冨士中学校","province":"東京都","city":"八丈町","address":"東京都八丈町","lat":33.11274212,"lon":139.78906712},{"name":"冨士野球場","province":"東京都","city":"八丈町","address":"東京都八丈町","lat":33.11274212,"lon":139.78906712},{"name":"大賀郷中学校","province":"東京都","city":"八丈町","address":"東京都八丈町","lat":33.11274212,"lon":139.78906712},{"name":"三原中学校","province":"東京都","city":"八丈町","address":"東京都八丈町","lat":33.11274212,"lon":139.78906712},{"name":"末吉中学校","province":"東京都","city":"八丈町","address":"東京都八丈町","lat":33.11274212,"lon":139.78906712},{"name":"樫立小学校","province":"東京都","city":"八丈町","address":"東京都八丈町","lat":33.11274212,"lon":139.78906712},{"name":"八丈町子ども家庭支援センター","province":"東京都","city":"八丈町","address":"八丈町大賀郷2551番地2八丈町役場内","lat":33.112756,"lon":139.789059},{"name":"八丈町子ども家庭支援センター","province":"東京都","city":"八丈町","address":"八丈町大賀郷2551番地2八丈町役場内","lat":33.11339,"lon":139.78926},{"name":"八丈町火葬場","province":"東京都","city":"八丈町","address":"東京都八丈町三根3481","lat":33.11565702,"lon":139.81339538},{"name":"冨士中学校","province":"東京都","city":"八丈町","address":"東京都八丈町","lat":33.11274212,"lon":139.78906712},{"name":"冨士野球場","province":"東京都","city":"八丈町","address":"東京都八丈町","lat":33.11274212,"lon":139.78906712},{"name":"大賀郷中学校","province":"東京都","city":"八丈町","address":"東京都八丈町","lat":33.11274212,"lon":139.78906712},{"name":"三原中学校","province":"東京都","city":"八丈町","address":"東京都八丈町","lat":33.11274212,"lon":139.78906712},{"name":"末吉中学校","province":"東京都","city":"八丈町","address":"東京都八丈町","lat":33.11274212,"lon":139.78906712},{"name":"樫立小学校","province":"東京都","city":"八丈町","address":"東京都八丈町","lat":33.11274212,"lon":139.78906712},{"name":"八丈町子ども家庭支援センター","province":"東京都","city":"八丈町","address":"八丈町大賀郷2551番地2八丈町役場内","lat":33.112756,"lon":139.789059},{"name":"八丈町子ども家庭支援センター","province":"東京都","city":"八丈町","address":"八丈町大賀郷2551番地2八丈町役場内","lat":33.11339,"lon":139.78926},{"name":"八丈町火葬場","province":"東京都","city":"八丈町","address":"東京都八丈町三根3481","lat":33.11565702,"lon":139.81339538},{"name":"冨士中学校","province":"東京都","city":"八丈町","address":"東京都八丈町","lat":33.11274212,"lon":139.78906712},{"name":"冨士野球場","province":"東京都","city":"八丈町","address":"東京都八丈町","lat":33.11274212,"lon":139.78906712},{"name":"大賀郷中学校","province":"東京都","city":"八丈町","address":"東京都八丈町","lat":33.11274212,"lon":139.78906712},{"name":"三原中学校","province":"東京都","city":"八丈町","address":"東京都八丈町","lat":33.11274212,"lon":139.78906712},{"name":"末吉中学校","province":"東京都","city":"八丈町","address":"東京都八丈町","lat":33.11274212,"lon":139.78906712},{"name":"樫立小学校","province":"東京都","city":"八丈町","address":"東京都八丈町","lat":33.11274212,"lon":139.78906712},{"name":"八丈町子ども家庭支援センター","province":"東京都","city":"八丈町","address":"八丈町大賀郷2551番地2八丈町役場内","lat":33.112756,"lon":139.789059},{"name":"八丈町子ども家庭支援センター","province":"東京都","city":"八丈町","address":"八丈町大賀郷2551番地2八丈町役場内","lat":33.11339,"lon":139.78926},{"name":"八丈町火葬場","province":"東京都","city":"八丈町","address":"東京都八丈町三根3481","lat":33.11565702,"lon":139.81339538},{"name":"冨士中学校","province":"東京都","city":"八丈町","address":"東京都八丈町","lat":33.11274212,"lon":139.78906712},{"name":"冨士野球場","province":"東京都","city":"八丈町","address":"東京都八丈町","lat":33.11274212,"lon":139.78906712},{"name":"大賀郷中学校","province":"東京都","city":"八丈町","address":"東京都八丈町","lat":33.11274212,"lon":139.78906712},{"name":"三原中学校","province":"東京都","city":"八丈町","address":"東京都八丈町","lat":33.11274212,"lon":139.78906712},{"name":"末吉中学校","province":"東京都","city":"八丈町","address":"東京都八丈町","lat":33.11274212,"lon":139.78906712},{"name":"樫立小学校","province":"東京都","city":"八丈町","address":"東京都八丈町","lat":33.11274212,"lon":139.78906712},{"name":"八丈町子ども家庭支援センター","province":"東京都","city":"八丈町","address":"八丈町大賀郷2551番地2八丈町役場内","lat":33.112756,"lon":139.789059},{"name":"八丈町子ども家庭支援センター","province":"東京都","city":"八丈町","address":"八丈町大賀郷2551番地2八丈町役場内","lat":33.11339,"lon":139.78926},{"name":"八丈町火葬場","province":"東京都","city":"八丈町","address":"東京都八丈町三根3481","lat":33.11565702,"lon":139.81339538},{"name":"八丈町子ども家庭支援センター","province":"東京都","city":"八丈町","address":"八丈町大賀郷2551番地2八丈町役場内","lat":33.112756,"lon":139.789059},{"name":"八丈町子ども家庭支援センター","province":"東京都","city":"八丈町","address":"八丈町大賀郷2551番地2八丈町役場内","lat":33.11339,"lon":139.78926},{"name":"八丈町火葬場","province":"東京都","city":"八丈町","address":"東京都八丈町三根3481","lat":33.11565702,"lon":139.81339538},{"name":"八丈町子ども家庭支援センター","province":"東京都","city":"八丈町","address":"八丈町大賀郷2551番地2八丈町役場内","lat":33.112756,"lon":139.789059},{"name":"八丈町子ども家庭支援センター","province":"東京都","city":"八丈町","address":"八丈町大賀郷2551番地2八丈町役場内","lat":33.11339,"lon":139.78926},{"name":"八丈町火葬場","province":"東京都","city":"八丈町","address":"東京都八丈町三根3481","lat":33.11565702,"lon":139.81339538},{"name":"八丈町子ども家庭支援センター","province":"東京都","city":"八丈町","address":"八丈町大賀郷2551番地2八丈町役場内","lat":33.112756,"lon":139.789059},{"name":"八丈町子ども家庭支援センター","province":"東京都","city":"八丈町","address":"八丈町大賀郷2551番地2八丈町役場内","lat":33.11339,"lon":139.78926},{"name":"八丈町火葬場","province":"東京都","city":"八丈町","address":"東京都八丈町三根3481","lat":33.11565702,"lon":139.81339538},{"name":"八丈町子ども家庭支援センター","province":"東京都","city":"八丈町","address":"八丈町大賀郷2551番地2八丈町役場内","lat":33.112756,"lon":139.789059},{"name":"八丈町子ども家庭支援センター","province":"東京都","city":"八丈町","address":"八丈町大賀郷2551番地2八丈町役場内","lat":33.11339,"lon":139.78926},{"name":"八丈町火葬場","province":"東京都","city":"八丈町","address":"東京都八丈町三根3481","lat":33.11565702,"lon":139.81339538},{"name":"八丈町子ども家庭支援センター","province":"東京都","city":"八丈町","address":"八丈町大賀郷2551番地2八丈町役場内","lat":33.112756,"lon":139.789059},{"name":"八丈町子ども家庭支援センター","province":"東京都","city":"八丈町","address":"八丈町大賀郷2551番地2八丈町役場内","lat":33.11339,"lon":139.78926},{"name":"八丈町火葬場","province":"東京都","city":"八丈町","address":"東京都八丈町三根3481","lat":33.11565702,"lon":139.81339538},{"name":"八丈町子ども家庭支援センター","province":"東京都","city":"八丈町","address":"八丈町大賀郷2551番地2八丈町役場内","lat":33.112756,"lon":139.789059},{"name":"八丈町子ども家庭支援センター","province":"東京都","city":"八丈町","address":"八丈町大賀郷2551番地2八丈町役場内","lat":33.11339,"lon":139.78926},{"name":"八丈町火葬場","province":"東京都","city":"八丈町","address":"東京都八丈町三根3481","lat":33.11565702,"lon":139.81339538},{"name":"八丈町子ども家庭支援センター","province":"東京都","city":"八丈町","address":"八丈町大賀郷2551番地2八丈町役場内","lat":33.112756,"lon":139.789059},{"name":"八丈町子ども家庭支援センター","province":"東京都","city":"八丈町","address":"八丈町大賀郷2551番地2八丈町役場内","lat":33.11339,"lon":139.78926},{"name":"八丈町火葬場","province":"東京都","city":"八丈町","address":"東京都八丈町三根3481","lat":33.11565702,"lon":139.81339538},{"name":"八丈町子ども家庭支援センター","province":"東京都","city":"八丈町","address":"八丈町大賀郷2551番地2八丈町役場内","lat":33.112756,"lon":139.789059},{"name":"八丈町子ども家庭支援センター","province":"東京都","city":"八丈町","address":"八丈町大賀郷2551番地2八丈町役場内","lat":33.11339,"lon":139.78926},{"name":"八丈町火葬場","province":"東京都","city":"八丈町","address":"東京都八丈町三根3481","lat":33.11565702,"lon":139.81339538},{"name":"八丈町子ども家庭支援センター","province":"東京都","city":"八丈町","address":"八丈町大賀郷2551番地2八丈町役場内","lat":33.112756,"lon":139.789059},{"name":"八丈町子ども家庭支援センター","province":"東京都","city":"八丈町","address":"八丈町大賀郷2551番地2八丈町役場内","lat":33.11339,"lon":139.78926},{"name":"八丈町火葬場","province":"東京都","city":"八丈町","address":"東京都八丈町三根3481","lat":33.11565702,"lon":139.81339538},{"name":"八丈町子ども家庭支援センター","province":"東京都","city":"八丈町","address":"八丈町大賀郷2551番地2八丈町役場内","lat":33.112756,"lon":139.789059},{"name":"八丈町子ども家庭支援センター","province":"東京都","city":"八丈町","address":"八丈町大賀郷2551番地2八丈町役場内","lat":33.11339,"lon":139.78926},{"name":"八丈町火葬場","province":"東京都","city":"八丈町","address":"東京都八丈町三根3481","lat":33.11565702,"lon":139.81339538},{"name":"八丈町子ども家庭支援センター","province":"東京都","city":"八丈町","address":"八丈町大賀郷2551番地2八丈町役場内","lat":33.112756,"lon":139.789059},{"name":"八丈町子ども家庭支援センター","province":"東京都","city":"八丈町","address":"八丈町大賀郷2551番地2八丈町役場内","lat":33.11339,"lon":139.78926},{"name":"八丈町火葬場","province":"東京都","city":"八丈町","address":"東京都八丈町三根3481","lat":33.11565702,"lon":139.81339538},{"name":"八丈町子ども家庭支援センター","province":"東京都","city":"八丈町","address":"八丈町大賀郷2551番地2八丈町役場内","lat":33.112756,"lon":139.789059},{"name":"八丈町子ども家庭支援センター","province":"東京都","city":"八丈町","address":"八丈町大賀郷2551番地2八丈町役場内","lat":33.11339,"lon":139.78926},{"name":"八丈町火葬場","province":"東京都","city":"八丈町","address":"東京都八丈町三根3481","lat":33.11565702,"lon":139.81339538},{"name":"八丈町子ども家庭支援センター","province":"東京都","city":"八丈町","address":"八丈町大賀郷2551番地2八丈町役場内","lat":33.112756,"lon":139.789059},{"name":"八丈町子ども家庭支援センター","province":"東京都","city":"八丈町","address":"八丈町大賀郷2551番地2八丈町役場内","lat":33.11339,"lon":139.78926},{"name":"八丈町火葬場","province":"東京都","city":"八丈町","address":"東京都八丈町三根3481","lat":33.11565702,"lon":139.81339538},{"name":"八丈町子ども家庭支援センター","province":"東京都","city":"八丈町","address":"八丈町大賀郷2551番地2八丈町役場内","lat":33.112756,"lon":139.789059},{"name":"八丈町子ども家庭支援センター","province":"東京都","city":"八丈町","address":"八丈町大賀郷2551番地2八丈町役場内","lat":33.11339,"lon":139.78926},{"name":"八丈町火葬場","province":"東京都","city":"八丈町","address":"東京都八丈町三根3481","lat":33.11565702,"lon":139.81339538},{"name":"八丈町子ども家庭支援センター","province":"東京都","city":"八丈町","address":"八丈町大賀郷2551番地2八丈町役場内","lat":33.112756,"lon":139.789059},{"name":"八丈町子ども家庭支援センター","province":"東京都","city":"八丈町","address":"八丈町大賀郷2551番地2八丈町役場内","lat":33.11339,"lon":139.78926},{"name":"八丈町火葬場","province":"東京都","city":"八丈町","address":"東京都八丈町三根3481","lat":33.11565702,"lon":139.81339538},{"name":"八丈町子ども家庭支援センター","province":"東京都","city":"八丈町","address":"八丈町大賀郷2551番地2八丈町役場内","lat":33.112756,"lon":139.789059},{"name":"八丈町子ども家庭支援センター","province":"東京都","city":"八丈町","address":"八丈町大賀郷2551番地2八丈町役場内","lat":33.11339,"lon":139.78926},{"name":"八丈町火葬場","province":"東京都","city":"八丈町","address":"東京都八丈町三根3481","lat":33.11565702,"lon":139.81339538},{"name":"八丈町子ども家庭支援センター","province":"東京都","city":"八丈町","address":"八丈町大賀郷2551番地2八丈町役場内","lat":33.112756,"lon":139.789059},{"name":"八丈町子ども家庭支援センター","province":"東京都","city":"八丈町","address":"八丈町大賀郷2551番地2八丈町役場内","lat":33.11339,"lon":139.78926},{"name":"八丈町火葬場","province":"東京都","city":"八丈町","address":"東京都八丈町三根3481","lat":33.11565702,"lon":139.81339538},{"name":"八丈町子ども家庭支援センター","province":"東京都","city":"八丈町","address":"八丈町大賀郷2551番地2八丈町役場内","lat":33.112756,"lon":139.789059},{"name":"八丈町子ども家庭支援センター","province":"東京都","city":"八丈町","address":"八丈町大賀郷2551番地2八丈町役場内","lat":33.11339,"lon":139.78926},{"name":"八丈町火葬場","province":"東京都","city":"八丈町","address":"東京都八丈町三根3481","lat":33.11565702,"lon":139.81339538},{"name":"八丈町子ども家庭支援センター","province":"東京都","city":"八丈町","address":"八丈町大賀郷2551番地2八丈町役場内","lat":33.112756,"lon":139.789059},{"name":"八丈町子ども家庭支援センター","province":"東京都","city":"八丈町","address":"八丈町大賀郷2551番地2八丈町役場内","lat":33.11339,"lon":139.78926},{"name":"八丈町火葬場","province":"東京都","city":"八丈町","address":"東京都八丈町三根3481","lat":33.11565702,"lon":139.81339538},{"name":"八丈町子ども家庭支援センター","province":"東京都","city":"八丈町","address":"八丈町大賀郷2551番地2八丈町役場内","lat":33.112756,"lon":139.789059},{"name":"八丈町子ども家庭支援センター","province":"東京都","city":"八丈町","address":"八丈町大賀郷2551番地2八丈町役場内","lat":33.11339,"lon":139.78926},{"name":"八丈町火葬場","province":"東京都","city":"八丈町","address":"東京都八丈町三根3481","lat":33.11565702,"lon":139.81339538},{"name":"八丈町子ども家庭支援センター","province":"東京都","city":"八丈町","address":"八丈町大賀郷2551番地2八丈町役場内","lat":33.112756,"lon":139.789059},{"name":"八丈町子ども家庭支援センター","province":"東京都","city":"八丈町","address":"八丈町大賀郷2551番地2八丈町役場内","lat":33.11339,"lon":139.78926},{"name":"八丈町子ども家庭支援センター","province":"東京都","city":"八丈町","address":"八丈町大賀郷2551番地2八丈町役場内","lat":33.112756,"lon":139.789059},{"name":"八丈町子ども家庭支援センター","province":"東京都","city":"八丈町","address":"八丈町大賀郷2551番地2八丈町役場内","lat":33.11339,"lon":139.78926},{"name":"八丈町子ども家庭支援センター","province":"東京都","city":"八丈町","address":"八丈町大賀郷2551番地2八丈町役場内","lat":33.112756,"lon":139.789059},{"name":"八丈町子ども家庭支援センター","province":"東京都","city":"八丈町","address":"八丈町大賀郷2551番地2八丈町役場内","lat":33.11339,"lon":139.78926},{"name":"八丈町子ども家庭支援センター","province":"東京都","city":"八丈町","address":"八丈町大賀郷2551番地2八丈町役場内","lat":33.112756,"lon":139.789059},{"name":"八丈町子ども家庭支援センター","province":"東京都","city":"八丈町","address":"八丈町大賀郷2551番地2八丈町役場内","lat":33.11339,"lon":139.78926},{"name":"八丈町子ども家庭支援センター","province":"東京都","city":"八丈町","address":"八丈町大賀郷2551番地2八丈町役場内","lat":33.112756,"lon":139.789059},{"name":"八丈町子ども家庭支援センター","province":"東京都","city":"八丈町","address":"八丈町大賀郷2551番地2八丈町役場内","lat":33.11339,"lon":139.78926},{"name":"八丈町子ども家庭支援センター","province":"東京都","city":"八丈町","address":"八丈町大賀郷2551番地2八丈町役場内","lat":33.112756,"lon":139.789059},{"name":"八丈町子ども家庭支援センター","province":"東京都","city":"八丈町","address":"八丈町大賀郷2551番地2八丈町役場内","lat":33.11339,"lon":139.78926},{"name":"八丈町子ども家庭支援センター","province":"東京都","city":"八丈町","address":"八丈町大賀郷2551番地2八丈町役場内","lat":33.112756,"lon":139.789059},{"name":"八丈町子ども家庭支援センター","province":"東京都","city":"八丈町","address":"八丈町大賀郷2551番地2八丈町役場内","lat":33.11339,"lon":139.78926},{"name":"八丈町子ども家庭支援センター","province":"東京都","city":"八丈町","address":"八丈町大賀郷2551番地2八丈町役場内","lat":33.112756,"lon":139.789059},{"name":"八丈町子ども家庭支援センター","province":"東京都","city":"八丈町","address":"八丈町大賀郷2551番地2八丈町役場内","lat":33.11339,"lon":139.78926},{"name":"八丈町子ども家庭支援センター","province":"東京都","city":"八丈町","address":"八丈町大賀郷2551番地2八丈町役場内","lat":33.112756,"lon":139.789059},{"name":"八丈町子ども家庭支援センター","province":"東京都","city":"八丈町","address":"八丈町大賀郷2551番地2八丈町役場内","lat":33.11339,"lon":139.78926},{"name":"八丈町子ども家庭支援センター","province":"東京都","city":"八丈町","address":"八丈町大賀郷2551番地2八丈町役場内","lat":33.112756,"lon":139.789059},{"name":"八丈町子ども家庭支援センター","province":"東京都","city":"八丈町","address":"八丈町大賀郷2551番地2八丈町役場内","lat":33.11339,"lon":139.78926},{"name":"八丈町子ども家庭支援センター","province":"東京都","city":"八丈町","address":"八丈町大賀郷2551番地2八丈町役場内","lat":33.112756,"lon":139.789059},{"name":"八丈町子ども家庭支援センター","province":"東京都","city":"八丈町","address":"八丈町大賀郷2551番地2八丈町役場内","lat":33.11339,"lon":139.78926},{"name":"八丈町子ども家庭支援センター","province":"東京都","city":"八丈町","address":"八丈町大賀郷2551番地2八丈町役場内","lat":33.112756,"lon":139.789059},{"name":"八丈町子ども家庭支援センター","province":"東京都","city":"八丈町","address":"八丈町大賀郷2551番地2八丈町役場内","lat":33.11339,"lon":139.78926},{"name":"八丈町子ども家庭支援センター","province":"東京都","city":"八丈町","address":"八丈町大賀郷2551番地2八丈町役場内","lat":33.112756,"lon":139.789059},{"name":"八丈町子ども家庭支援センター","province":"東京都","city":"八丈町","address":"八丈町大賀郷2551番地2八丈町役場内","lat":33.11339,"lon":139.78926},{"name":"八丈町子ども家庭支援センター","province":"東京都","city":"八丈町","address":"八丈町大賀郷2551番地2八丈町役場内","lat":33.112756,"lon":139.789059},{"name":"八丈町子ども家庭支援センター","province":"東京都","city":"八丈町","address":"八丈町大賀郷2551番地2八丈町役場内","lat":33.11339,"lon":139.78926},{"name":"八丈町子ども家庭支援センター","province":"東京都","city":"八丈町","address":"八丈町大賀郷2551番地2八丈町役場内","lat":33.112756,"lon":139.789059},{"name":"八丈町子ども家庭支援センター","province":"東京都","city":"八丈町","address":"八丈町大賀郷2551番地2八丈町役場内","lat":33.11339,"lon":139.78926},{"name":"八丈町子ども家庭支援センター","province":"東京都","city":"八丈町","address":"八丈町大賀郷2551番地2八丈町役場内","lat":33.112756,"lon":139.789059},{"name":"八丈町子ども家庭支援センター","province":"東京都","city":"八丈町","address":"八丈町大賀郷2551番地2八丈町役場内","lat":33.11339,"lon":139.78926},{"name":"八丈町子ども家庭支援センター","province":"東京都","city":"八丈町","address":"八丈町大賀郷2551番地2八丈町役場内","lat":33.112756,"lon":139.789059},{"name":"八丈町子ども家庭支援センター","province":"東京都","city":"八丈町","address":"八丈町大賀郷2551番地2八丈町役場内","lat":33.11339,"lon":139.78926},{"name":"八丈町子ども家庭支援センター","province":"東京都","city":"八丈町","address":"八丈町大賀郷2551番地2八丈町役場内","lat":33.112756,"lon":139.789059},{"name":"八丈町子ども家庭支援センター","province":"東京都","city":"八丈町","address":"八丈町大賀郷2551番地2八丈町役場内","lat":33.11339,"lon":139.78926},{"name":"八丈町子ども家庭支援センター","province":"東京都","city":"八丈町","address":"八丈町大賀郷2551番地2八丈町役場内","lat":33.112756,"lon":139.789059},{"name":"八丈町子ども家庭支援センター","province":"東京都","city":"八丈町","address":"八丈町大賀郷2551番地2八丈町役場内","lat":33.11339,"lon":139.78926},{"name":"八丈町子ども家庭支援センター","province":"東京都","city":"八丈町","address":"八丈町大賀郷2551番地2八丈町役場内","lat":33.112756,"lon":139.789059},{"name":"八丈町子ども家庭支援センター","province":"東京都","city":"八丈町","address":"八丈町大賀郷2551番地2八丈町役場内","lat":33.11339,"lon":139.78926},{"name":"八丈町子ども家庭支援センター","province":"東京都","city":"八丈町","address":"八丈町大賀郷2551番地2八丈町役場内","lat":33.112756,"lon":139.789059},{"name":"八丈町子ども家庭支援センター","province":"東京都","city":"八丈町","address":"八丈町大賀郷2551番地2八丈町役場内","lat":33.11339,"lon":139.78926},{"name":"八丈町子ども家庭支援センター","province":"東京都","city":"八丈町","address":"八丈町大賀郷2551番地2八丈町役場内","lat":33.112756,"lon":139.789059},{"name":"八丈町子ども家庭支援センター","province":"東京都","city":"八丈町","address":"八丈町大賀郷2551番地2八丈町役場内","lat":33.11339,"lon":139.78926},{"name":"八丈町子ども家庭支援センター","province":"東京都","city":"八丈町","address":"八丈町大賀郷2551番地2八丈町役場内","lat":33.112756,"lon":139.789059},{"name":"八丈町子ども家庭支援センター","province":"東京都","city":"八丈町","address":"八丈町大賀郷2551番地2八丈町役場内","lat":33.11339,"lon":139.78926},{"name":"八丈町子ども家庭支援センター","province":"東京都","city":"八丈町","address":"八丈町大賀郷2551番地2八丈町役場内","lat":33.112756,"lon":139.789059},{"name":"八丈町子ども家庭支援センター","province":"東京都","city":"八丈町","address":"八丈町大賀郷2551番地2八丈町役場内","lat":33.11339,"lon":139.78926},{"name":"八丈町子ども家庭支援センター","province":"東京都","city":"八丈町","address":"八丈町大賀郷2551番地2八丈町役場内","lat":33.112756,"lon":139.789059},{"name":"八丈町子ども家庭支援センター","province":"東京都","city":"八丈町","address":"八丈町大賀郷2551番地2八丈町役場内","lat":33.11339,"lon":139.78926}]}