{"keyword":"週","data":[{"name":"八丈町社会福祉協議会","province":"東京都","city":"八丈町","address":"八丈町三根2","lat":33.113537,"lon":139.793264},{"name":"樫立の手踊","province":"東京都","city":"八丈町","address":"東京都八丈町樫立地区","lat":33.079681,"lon":139.79464},{"name":"近藤守真墓","province":"東京都","city":"八丈町","address":"東京都八丈町三根125","lat":33.120434,"lon":139.80201},{"name":"八丈町立図書館","province":"東京都","city":"八丈町","address":"東京都八丈町三根26-21","lat":33.11412279,"lon":139.79300282},{"name":"八丈町火葬場","province":"東京都","city":"八丈町","address":"東京都八丈町三根3481","lat":33.11565702,"lon":139.81339538},{"name":"冨士中学校","province":"東京都","city":"八丈町","address":"東京都八丈町","lat":33.11274212,"lon":139.78906712},{"name":"冨士野球場","province":"東京都","city":"八丈町","address":"東京都八丈町","lat":33.11274212,"lon":139.78906712},{"name":"大賀郷中学校","province":"東京都","city":"八丈町","address":"東京都八丈町","lat":33.11274212,"lon":139.78906712},{"name":"三原中学校","province":"東京都","city":"八丈町","address":"東京都八丈町","lat":33.11274212,"lon":139.78906712},{"name":"末吉中学校","province":"東京都","city":"八丈町","address":"東京都八丈町","lat":33.11274212,"lon":139.78906712},{"name":"樫立小学校","province":"東京都","city":"八丈町","address":"東京都八丈町","lat":33.11274212,"lon":139.78906712},{"name":"＊?大賀郷公民館","province":"東京都","city":"八丈町","address":"八丈町大賀郷3060","lat":33.106882,"lon":139.78391},{"name":"＊?三根公民館","province":"東京都","city":"八丈町","address":"八丈町三根347","lat":33.118899,"lon":139.802367},{"name":"＊?中之郷公民館","province":"東京都","city":"八丈町","address":"八丈町中之郷2613","lat":33.066162,"lon":139.813217},{"name":"＊?樫立公民館","province":"東京都","city":"八丈町","address":"八丈町樫立2027","lat":33.071548,"lon":139.79611},{"name":"＊?末吉公民館","province":"東京都","city":"八丈町","address":"八丈町末吉633","lat":33.082277,"lon":139.852189},{"name":"八丈町歴史民俗資料館（閉館）","province":"東京都","city":"八丈町","address":"八丈町大賀郷1186","lat":33.102282,"lon":139.785832},{"name":"＊?八丈町立図書館","province":"東京都","city":"八丈町","address":"八丈町三根26-6","lat":33.113517,"lon":139.792649},{"name":"八丈町社会福祉協議会","province":"東京都","city":"八丈町","address":"八丈町三根2","lat":33.113537,"lon":139.793264},{"name":"樫立の手踊","province":"東京都","city":"八丈町","address":"東京都八丈町樫立地区","lat":33.079681,"lon":139.79464},{"name":"近藤守真墓","province":"東京都","city":"八丈町","address":"東京都八丈町三根125","lat":33.120434,"lon":139.80201},{"name":"八丈町立図書館","province":"東京都","city":"八丈町","address":"東京都八丈町三根26-21","lat":33.11412279,"lon":139.79300282},{"name":"八丈町火葬場","province":"東京都","city":"八丈町","address":"東京都八丈町三根3481","lat":33.11565702,"lon":139.81339538},{"name":"＊?大賀郷公民館","province":"東京都","city":"八丈町","address":"八丈町大賀郷3060","lat":33.106882,"lon":139.78391},{"name":"＊?三根公民館","province":"東京都","city":"八丈町","address":"八丈町三根347","lat":33.118899,"lon":139.802367},{"name":"＊?中之郷公民館","province":"東京都","city":"八丈町","address":"八丈町中之郷2613","lat":33.066162,"lon":139.813217},{"name":"＊?樫立公民館","province":"東京都","city":"八丈町","address":"八丈町樫立2027","lat":33.071548,"lon":139.79611},{"name":"＊?末吉公民館","province":"東京都","city":"八丈町","address":"八丈町末吉633","lat":33.082277,"lon":139.852189},{"name":"八丈町歴史民俗資料館（閉館）","province":"東京都","city":"八丈町","address":"八丈町大賀郷1186","lat":33.102282,"lon":139.785832},{"name":"＊?八丈町立図書館","province":"東京都","city":"八丈町","address":"八丈町三根26-6","lat":33.113517,"lon":139.792649},{"name":"八丈町社会福祉協議会","province":"東京都","city":"八丈町","address":"八丈町三根2","lat":33.113537,"lon":139.793264},{"name":"樫立の手踊","province":"東京都","city":"八丈町","address":"東京都八丈町樫立地区","lat":33.079681,"lon":139.79464},{"name":"近藤守真墓","province":"東京都","city":"八丈町","address":"東京都八丈町三根125","lat":33.120434,"lon":139.80201},{"name":"八丈町立図書館","province":"東京都","city":"八丈町","address":"東京都八丈町三根26-21","lat":33.11412279,"lon":139.79300282},{"name":"＊?大賀郷公民館","province":"東京都","city":"八丈町","address":"八丈町大賀郷3060","lat":33.106882,"lon":139.78391},{"name":"＊?三根公民館","province":"東京都","city":"八丈町","address":"八丈町三根347","lat":33.118899,"lon":139.802367},{"name":"＊?中之郷公民館","province":"東京都","city":"八丈町","address":"八丈町中之郷2613","lat":33.066162,"lon":139.813217},{"name":"＊?樫立公民館","province":"東京都","city":"八丈町","address":"八丈町樫立2027","lat":33.071548,"lon":139.79611},{"name":"＊?末吉公民館","province":"東京都","city":"八丈町","address":"八丈町末吉633","lat":33.082277,"lon":139.852189},{"name":"八丈町歴史民俗資料館（閉館）","province":"東京都","city":"八丈町","address":"八丈町大賀郷1186","lat":33.102282,"lon":139.785832},{"name":"＊?八丈町立図書館","province":"東京都","city":"八丈町","address":"八丈町三根26-6","lat":33.113517,"lon":139.792649},{"name":"八丈町社会福祉協議会","province":"東京都","city":"八丈町","address":"八丈町三根2","lat":33.113537,"lon":139.793264},{"name":"樫立の手踊","province":"東京都","city":"八丈町","address":"東京都八丈町樫立地区","lat":33.079681,"lon":139.79464},{"name":"近藤守真墓","province":"東京都","city":"八丈町","address":"東京都八丈町三根125","lat":33.120434,"lon":139.80201},{"name":"八丈町立図書館","province":"東京都","city":"八丈町","address":"東京都八丈町三根26-21","lat":33.11412279,"lon":139.79300282},{"name":"＊?大賀郷公民館","province":"東京都","city":"八丈町","address":"八丈町大賀郷3060","lat":33.106882,"lon":139.78391},{"name":"＊?三根公民館","province":"東京都","city":"八丈町","address":"八丈町三根347","lat":33.118899,"lon":139.802367},{"name":"＊?中之郷公民館","province":"東京都","city":"八丈町","address":"八丈町中之郷2613","lat":33.066162,"lon":139.813217},{"name":"＊?樫立公民館","province":"東京都","city":"八丈町","address":"八丈町樫立2027","lat":33.071548,"lon":139.79611},{"name":"＊?末吉公民館","province":"東京都","city":"八丈町","address":"八丈町末吉633","lat":33.082277,"lon":139.852189},{"name":"八丈町歴史民俗資料館（閉館）","province":"東京都","city":"八丈町","address":"八丈町大賀郷1186","lat":33.102282,"lon":139.785832},{"name":"＊?八丈町立図書館","province":"東京都","city":"八丈町","address":"八丈町三根26-6","lat":33.113517,"lon":139.792649},{"name":"樫立の手踊","province":"東京都","city":"八丈町","address":"東京都八丈町樫立地区","lat":33.079681,"lon":139.79464},{"name":"近藤守真墓","province":"東京都","city":"八丈町","address":"東京都八丈町三根125","lat":33.120434,"lon":139.80201},{"name":"八丈町立図書館","province":"東京都","city":"八丈町","address":"東京都八丈町三根26-21","lat":33.11412279,"lon":139.79300282},{"name":"＊?大賀郷公民館","province":"東京都","city":"八丈町","address":"八丈町大賀郷3060","lat":33.106882,"lon":139.78391},{"name":"＊?三根公民館","province":"東京都","city":"八丈町","address":"八丈町三根347","lat":33.118899,"lon":139.802367},{"name":"＊?中之郷公民館","province":"東京都","city":"八丈町","address":"八丈町中之郷2613","lat":33.066162,"lon":139.813217},{"name":"＊?樫立公民館","province":"東京都","city":"八丈町","address":"八丈町樫立2027","lat":33.071548,"lon":139.79611},{"name":"＊?末吉公民館","province":"東京都","city":"八丈町","address":"八丈町末吉633","lat":33.082277,"lon":139.852189},{"name":"八丈町歴史民俗資料館（閉館）","province":"東京都","city":"八丈町","address":"八丈町大賀郷1186","lat":33.102282,"lon":139.785832},{"name":"＊?八丈町立図書館","province":"東京都","city":"八丈町","address":"八丈町三根26-6","lat":33.113517,"lon":139.792649},{"name":"樫立の手踊","province":"東京都","city":"八丈町","address":"東京都八丈町樫立地区","lat":33.079681,"lon":139.79464},{"name":"近藤守真墓","province":"東京都","city":"八丈町","address":"東京都八丈町三根125","lat":33.120434,"lon":139.80201},{"name":"八丈町立図書館","province":"東京都","city":"八丈町","address":"東京都八丈町三根26-21","lat":33.11412279,"lon":139.79300282},{"name":"＊?大賀郷公民館","province":"東京都","city":"八丈町","address":"八丈町大賀郷3060","lat":33.106882,"lon":139.78391},{"name":"＊?三根公民館","province":"東京都","city":"八丈町","address":"八丈町三根347","lat":33.118899,"lon":139.802367},{"name":"＊?中之郷公民館","province":"東京都","city":"八丈町","address":"八丈町中之郷2613","lat":33.066162,"lon":139.813217},{"name":"＊?樫立公民館","province":"東京都","city":"八丈町","address":"八丈町樫立2027","lat":33.071548,"lon":139.79611},{"name":"＊?末吉公民館","province":"東京都","city":"八丈町","address":"八丈町末吉633","lat":33.082277,"lon":139.852189},{"name":"八丈町歴史民俗資料館（閉館）","province":"東京都","city":"八丈町","address":"八丈町大賀郷1186","lat":33.102282,"lon":139.785832},{"name":"＊?八丈町立図書館","province":"東京都","city":"八丈町","address":"八丈町三根26-6","lat":33.113517,"lon":139.792649},{"name":"樫立の手踊","province":"東京都","city":"八丈町","address":"東京都八丈町樫立地区","lat":33.079681,"lon":139.79464},{"name":"近藤守真墓","province":"東京都","city":"八丈町","address":"東京都八丈町三根125","lat":33.120434,"lon":139.80201},{"name":"八丈町立図書館","province":"東京都","city":"八丈町","address":"東京都八丈町三根26-21","lat":33.11412279,"lon":139.79300282},{"name":"＊?大賀郷公民館","province":"東京都","city":"八丈町","address":"八丈町大賀郷3060","lat":33.106882,"lon":139.78391},{"name":"＊?三根公民館","province":"東京都","city":"八丈町","address":"八丈町三根347","lat":33.118899,"lon":139.802367},{"name":"＊?中之郷公民館","province":"東京都","city":"八丈町","address":"八丈町中之郷2613","lat":33.066162,"lon":139.813217},{"name":"＊?樫立公民館","province":"東京都","city":"八丈町","address":"八丈町樫立2027","lat":33.071548,"lon":139.79611},{"name":"＊?末吉公民館","province":"東京都","city":"八丈町","address":"八丈町末吉633","lat":33.082277,"lon":139.852189},{"name":"八丈町歴史民俗資料館（閉館）","province":"東京都","city":"八丈町","address":"八丈町大賀郷1186","lat":33.102282,"lon":139.785832},{"name":"＊?八丈町立図書館","province":"東京都","city":"八丈町","address":"八丈町三根26-6","lat":33.113517,"lon":139.792649},{"name":"樫立の手踊","province":"東京都","city":"八丈町","address":"東京都八丈町樫立地区","lat":33.079681,"lon":139.79464},{"name":"近藤守真墓","province":"東京都","city":"八丈町","address":"東京都八丈町三根125","lat":33.120434,"lon":139.80201},{"name":"八丈町立図書館","province":"東京都","city":"八丈町","address":"東京都八丈町三根26-21","lat":33.11412279,"lon":139.79300282},{"name":"八丈町歴史民俗資料館（閉館）","province":"東京都","city":"八丈町","address":"八丈町大賀郷1186","lat":33.102282,"lon":139.785832},{"name":"＊?八丈町立図書館","province":"東京都","city":"八丈町","address":"八丈町三根26-6","lat":33.113517,"lon":139.792649},{"name":"樫立の手踊","province":"東京都","city":"八丈町","address":"東京都八丈町樫立地区","lat":33.079681,"lon":139.79464},{"name":"近藤守真墓","province":"東京都","city":"八丈町","address":"東京都八丈町三根125","lat":33.120434,"lon":139.80201},{"name":"八丈町立図書館","province":"東京都","city":"八丈町","address":"東京都八丈町三根26-21","lat":33.11412279,"lon":139.79300282},{"name":"八丈町歴史民俗資料館（閉館）","province":"東京都","city":"八丈町","address":"八丈町大賀郷1186","lat":33.102282,"lon":139.785832},{"name":"＊?八丈町立図書館","province":"東京都","city":"八丈町","address":"八丈町三根26-6","lat":33.113517,"lon":139.792649},{"name":"樫立の手踊","province":"東京都","city":"八丈町","address":"東京都八丈町樫立地区","lat":33.079681,"lon":139.79464},{"name":"近藤守真墓","province":"東京都","city":"八丈町","address":"東京都八丈町三根125","lat":33.120434,"lon":139.80201},{"name":"八丈町立図書館","province":"東京都","city":"八丈町","address":"東京都八丈町三根26-21","lat":33.11412279,"lon":139.79300282},{"name":"＊?八丈町立図書館","province":"東京都","city":"八丈町","address":"八丈町三根26-6","lat":33.113517,"lon":139.792649},{"name":"樫立の手踊","province":"東京都","city":"八丈町","address":"東京都八丈町樫立地区","lat":33.079681,"lon":139.79464},{"name":"近藤守真墓","province":"東京都","city":"八丈町","address":"東京都八丈町三根125","lat":33.120434,"lon":139.80201},{"name":"八丈町立図書館","province":"東京都","city":"八丈町","address":"東京都八丈町三根26-21","lat":33.11412279,"lon":139.79300282},{"name":"＊?八丈町立図書館","province":"東京都","city":"八丈町","address":"八丈町三根26-6","lat":33.113517,"lon":139.792649},{"name":"樫立の手踊","province":"東京都","city":"八丈町","address":"東京都八丈町樫立地区","lat":33.079681,"lon":139.79464},{"name":"近藤守真墓","province":"東京都","city":"八丈町","address":"東京都八丈町三根125","lat":33.120434,"lon":139.80201},{"name":"八丈町立図書館","province":"東京都","city":"八丈町","address":"東京都八丈町三根26-21","lat":33.11412279,"lon":139.79300282},{"name":"＊?八丈町立図書館","province":"東京都","city":"八丈町","address":"八丈町三根26-6","lat":33.113517,"lon":139.792649},{"name":"樫立の手踊","province":"東京都","city":"八丈町","address":"東京都八丈町樫立地区","lat":33.079681,"lon":139.79464},{"name":"近藤守真墓","province":"東京都","city":"八丈町","address":"東京都八丈町三根125","lat":33.120434,"lon":139.80201},{"name":"八丈町立図書館","province":"東京都","city":"八丈町","address":"東京都八丈町三根26-21","lat":33.11412279,"lon":139.79300282},{"name":"＊?八丈町立図書館","province":"東京都","city":"八丈町","address":"八丈町三根26-6","lat":33.113517,"lon":139.792649},{"name":"樫立の手踊","province":"東京都","city":"八丈町","address":"東京都八丈町樫立地区","lat":33.079681,"lon":139.79464},{"name":"近藤守真墓","province":"東京都","city":"八丈町","address":"東京都八丈町三根125","lat":33.120434,"lon":139.80201},{"name":"八丈町立図書館","province":"東京都","city":"八丈町","address":"東京都八丈町三根26-21","lat":33.11412279,"lon":139.79300282},{"name":"＊?八丈町立図書館","province":"東京都","city":"八丈町","address":"八丈町三根26-6","lat":33.113517,"lon":139.792649},{"name":"樫立の手踊","province":"東京都","city":"八丈町","address":"東京都八丈町樫立地区","lat":33.079681,"lon":139.79464},{"name":"近藤守真墓","province":"東京都","city":"八丈町","address":"東京都八丈町三根125","lat":33.120434,"lon":139.80201},{"name":"八丈町立図書館","province":"東京都","city":"八丈町","address":"東京都八丈町三根26-21","lat":33.11412279,"lon":139.79300282},{"name":"＊?八丈町立図書館","province":"東京都","city":"八丈町","address":"八丈町三根26-6","lat":33.113517,"lon":139.792649},{"name":"樫立の手踊","province":"東京都","city":"八丈町","address":"東京都八丈町樫立地区","lat":33.079681,"lon":139.79464},{"name":"近藤守真墓","province":"東京都","city":"八丈町","address":"東京都八丈町三根125","lat":33.120434,"lon":139.80201},{"name":"八丈町立図書館","province":"東京都","city":"八丈町","address":"東京都八丈町三根26-21","lat":33.11412279,"lon":139.79300282},{"name":"＊?八丈町立図書館","province":"東京都","city":"八丈町","address":"八丈町三根26-6","lat":33.113517,"lon":139.792649},{"name":"樫立の手踊","province":"東京都","city":"八丈町","address":"東京都八丈町樫立地区","lat":33.079681,"lon":139.79464},{"name":"近藤守真墓","province":"東京都","city":"八丈町","address":"東京都八丈町三根125","lat":33.120434,"lon":139.80201},{"name":"八丈町立図書館","province":"東京都","city":"八丈町","address":"東京都八丈町三根26-21","lat":33.11412279,"lon":139.79300282},{"name":"＊?八丈町立図書館","province":"東京都","city":"八丈町","address":"八丈町三根26-6","lat":33.113517,"lon":139.792649},{"name":"樫立の手踊","province":"東京都","city":"八丈町","address":"東京都八丈町樫立地区","lat":33.079681,"lon":139.79464},{"name":"近藤守真墓","province":"東京都","city":"八丈町","address":"東京都八丈町三根125","lat":33.120434,"lon":139.80201},{"name":"八丈町立図書館","province":"東京都","city":"八丈町","address":"東京都八丈町三根26-21","lat":33.11412279,"lon":139.79300282},{"name":"＊?八丈町立図書館","province":"東京都","city":"八丈町","address":"八丈町三根26-6","lat":33.113517,"lon":139.792649},{"name":"樫立の手踊","province":"東京都","city":"八丈町","address":"東京都八丈町樫立地区","lat":33.079681,"lon":139.79464},{"name":"近藤守真墓","province":"東京都","city":"八丈町","address":"東京都八丈町三根125","lat":33.120434,"lon":139.80201},{"name":"八丈町立図書館","province":"東京都","city":"八丈町","address":"東京都八丈町三根26-21","lat":33.11412279,"lon":139.79300282},{"name":"＊?八丈町立図書館","province":"東京都","city":"八丈町","address":"八丈町三根26-6","lat":33.113517,"lon":139.792649},{"name":"樫立の手踊","province":"東京都","city":"八丈町","address":"東京都八丈町樫立地区","lat":33.079681,"lon":139.79464},{"name":"近藤守真墓","province":"東京都","city":"八丈町","address":"東京都八丈町三根125","lat":33.120434,"lon":139.80201},{"name":"八丈町立図書館","province":"東京都","city":"八丈町","address":"東京都八丈町三根26-21","lat":33.11412279,"lon":139.79300282},{"name":"＊?八丈町立図書館","province":"東京都","city":"八丈町","address":"八丈町三根26-6","lat":33.113517,"lon":139.792649},{"name":"樫立の手踊","province":"東京都","city":"八丈町","address":"東京都八丈町樫立地区","lat":33.079681,"lon":139.79464},{"name":"近藤守真墓","province":"東京都","city":"八丈町","address":"東京都八丈町三根125","lat":33.120434,"lon":139.80201},{"name":"八丈町立図書館","province":"東京都","city":"八丈町","address":"東京都八丈町三根26-21","lat":33.11412279,"lon":139.79300282},{"name":"＊?八丈町立図書館","province":"東京都","city":"八丈町","address":"八丈町三根26-6","lat":33.113517,"lon":139.792649},{"name":"樫立の手踊","province":"東京都","city":"八丈町","address":"東京都八丈町樫立地区","lat":33.079681,"lon":139.79464},{"name":"近藤守真墓","province":"東京都","city":"八丈町","address":"東京都八丈町三根125","lat":33.120434,"lon":139.80201},{"name":"八丈町立図書館","province":"東京都","city":"八丈町","address":"東京都八丈町三根26-21","lat":33.11412279,"lon":139.79300282},{"name":"＊?八丈町立図書館","province":"東京都","city":"八丈町","address":"八丈町三根26-6","lat":33.113517,"lon":139.792649},{"name":"樫立の手踊","province":"東京都","city":"八丈町","address":"東京都八丈町樫立地区","lat":33.079681,"lon":139.79464},{"name":"近藤守真墓","province":"東京都","city":"八丈町","address":"東京都八丈町三根125","lat":33.120434,"lon":139.80201},{"name":"八丈町立図書館","province":"東京都","city":"八丈町","address":"東京都八丈町三根26-21","lat":33.11412279,"lon":139.79300282},{"name":"＊?八丈町立図書館","province":"東京都","city":"八丈町","address":"八丈町三根26-6","lat":33.113517,"lon":139.792649},{"name":"樫立の手踊","province":"東京都","city":"八丈町","address":"東京都八丈町樫立地区","lat":33.079681,"lon":139.79464},{"name":"近藤守真墓","province":"東京都","city":"八丈町","address":"東京都八丈町三根125","lat":33.120434,"lon":139.80201},{"name":"八丈町立図書館","province":"東京都","city":"八丈町","address":"東京都八丈町三根26-21","lat":33.11412279,"lon":139.79300282},{"name":"＊?八丈町立図書館","province":"東京都","city":"八丈町","address":"八丈町三根26-6","lat":33.113517,"lon":139.792649},{"name":"樫立の手踊","province":"東京都","city":"八丈町","address":"東京都八丈町樫立地区","lat":33.079681,"lon":139.79464},{"name":"近藤守真墓","province":"東京都","city":"八丈町","address":"東京都八丈町三根125","lat":33.120434,"lon":139.80201},{"name":"八丈町立図書館","province":"東京都","city":"八丈町","address":"東京都八丈町三根26-21","lat":33.11412279,"lon":139.79300282},{"name":"＊?八丈町立図書館","province":"東京都","city":"八丈町","address":"八丈町三根26-6","lat":33.113517,"lon":139.792649},{"name":"樫立の手踊","province":"東京都","city":"八丈町","address":"東京都八丈町樫立地区","lat":33.079681,"lon":139.79464},{"name":"近藤守真墓","province":"東京都","city":"八丈町","address":"東京都八丈町三根125","lat":33.120434,"lon":139.80201},{"name":"八丈町立図書館","province":"東京都","city":"八丈町","address":"東京都八丈町三根26-21","lat":33.11412279,"lon":139.79300282},{"name":"＊?八丈町立図書館","province":"東京都","city":"八丈町","address":"八丈町三根26-6","lat":33.113517,"lon":139.792649},{"name":"樫立の手踊","province":"東京都","city":"八丈町","address":"東京都八丈町樫立地区","lat":33.079681,"lon":139.79464},{"name":"近藤守真墓","province":"東京都","city":"八丈町","address":"東京都八丈町三根125","lat":33.120434,"lon":139.80201},{"name":"八丈町立図書館","province":"東京都","city":"八丈町","address":"東京都八丈町三根26-21","lat":33.11412279,"lon":139.79300282},{"name":"＊?八丈町立図書館","province":"東京都","city":"八丈町","address":"八丈町三根26-6","lat":33.113517,"lon":139.792649},{"name":"樫立の手踊","province":"東京都","city":"八丈町","address":"東京都八丈町樫立地区","lat":33.079681,"lon":139.79464},{"name":"近藤守真墓","province":"東京都","city":"八丈町","address":"東京都八丈町三根125","lat":33.120434,"lon":139.80201},{"name":"八丈町立図書館","province":"東京都","city":"八丈町","address":"東京都八丈町三根26-21","lat":33.11412279,"lon":139.79300282},{"name":"＊?八丈町立図書館","province":"東京都","city":"八丈町","address":"八丈町三根26-6","lat":33.113517,"lon":139.792649},{"name":"樫立の手踊","province":"東京都","city":"八丈町","address":"東京都八丈町樫立地区","lat":33.079681,"lon":139.79464},{"name":"近藤守真墓","province":"東京都","city":"八丈町","address":"東京都八丈町三根125","lat":33.120434,"lon":139.80201},{"name":"八丈町立図書館","province":"東京都","city":"八丈町","address":"東京都八丈町三根26-21","lat":33.11412279,"lon":139.79300282},{"name":"＊?八丈町立図書館","province":"東京都","city":"八丈町","address":"八丈町三根26-6","lat":33.113517,"lon":139.792649},{"name":"樫立の手踊","province":"東京都","city":"八丈町","address":"東京都八丈町樫立地区","lat":33.079681,"lon":139.79464},{"name":"近藤守真墓","province":"東京都","city":"八丈町","address":"東京都八丈町三根125","lat":33.120434,"lon":139.80201},{"name":"八丈町立図書館","province":"東京都","city":"八丈町","address":"東京都八丈町三根26-21","lat":33.11412279,"lon":139.79300282},{"name":"＊?八丈町立図書館","province":"東京都","city":"八丈町","address":"八丈町三根26-6","lat":33.113517,"lon":139.792649},{"name":"樫立の手踊","province":"東京都","city":"八丈町","address":"東京都八丈町樫立地区","lat":33.079681,"lon":139.79464},{"name":"近藤守真墓","province":"東京都","city":"八丈町","address":"東京都八丈町三根125","lat":33.120434,"lon":139.80201},{"name":"八丈町立図書館","province":"東京都","city":"八丈町","address":"東京都八丈町三根26-21","lat":33.11412279,"lon":139.79300282},{"name":"＊?八丈町立図書館","province":"東京都","city":"八丈町","address":"八丈町三根26-6","lat":33.113517,"lon":139.792649},{"name":"樫立の手踊","province":"東京都","city":"八丈町","address":"東京都八丈町樫立地区","lat":33.079681,"lon":139.79464},{"name":"近藤守真墓","province":"東京都","city":"八丈町","address":"東京都八丈町三根125","lat":33.120434,"lon":139.80201},{"name":"八丈町立図書館","province":"東京都","city":"八丈町","address":"東京都八丈町三根26-21","lat":33.11412279,"lon":139.79300282},{"name":"＊?八丈町立図書館","province":"東京都","city":"八丈町","address":"八丈町三根26-6","lat":33.113517,"lon":139.792649},{"name":"樫立の手踊","province":"東京都","city":"八丈町","address":"東京都八丈町樫立地区","lat":33.079681,"lon":139.79464},{"name":"近藤守真墓","province":"東京都","city":"八丈町","address":"東京都八丈町三根125","lat":33.120434,"lon":139.80201},{"name":"八丈町立図書館","province":"東京都","city":"八丈町","address":"東京都八丈町三根26-21","lat":33.11412279,"lon":139.79300282},{"name":"＊?八丈町立図書館","province":"東京都","city":"八丈町","address":"八丈町三根26-6","lat":33.113517,"lon":139.792649},{"name":"樫立の手踊","province":"東京都","city":"八丈町","address":"東京都八丈町樫立地区","lat":33.079681,"lon":139.79464},{"name":"近藤守真墓","province":"東京都","city":"八丈町","address":"東京都八丈町三根125","lat":33.120434,"lon":139.80201},{"name":"八丈町立図書館","province":"東京都","city":"八丈町","address":"東京都八丈町三根26-21","lat":33.11412279,"lon":139.79300282},{"name":"＊?八丈町立図書館","province":"東京都","city":"八丈町","address":"八丈町三根26-6","lat":33.113517,"lon":139.792649},{"name":"樫立の手踊","province":"東京都","city":"八丈町","address":"東京都八丈町樫立地区","lat":33.079681,"lon":139.79464},{"name":"近藤守真墓","province":"東京都","city":"八丈町","address":"東京都八丈町三根125","lat":33.120434,"lon":139.80201},{"name":"八丈町立図書館","province":"東京都","city":"八丈町","address":"東京都八丈町三根26-21","lat":33.11412279,"lon":139.79300282},{"name":"＊?八丈町立図書館","province":"東京都","city":"八丈町","address":"八丈町三根26-6","lat":33.113517,"lon":139.792649},{"name":"樫立の手踊","province":"東京都","city":"八丈町","address":"東京都八丈町樫立地区","lat":33.079681,"lon":139.79464},{"name":"近藤守真墓","province":"東京都","city":"八丈町","address":"東京都八丈町三根125","lat":33.120434,"lon":139.80201},{"name":"八丈町立図書館","province":"東京都","city":"八丈町","address":"東京都八丈町三根26-21","lat":33.11412279,"lon":139.79300282},{"name":"＊?八丈町立図書館","province":"東京都","city":"八丈町","address":"八丈町三根26-6","lat":33.113517,"lon":139.792649},{"name":"樫立の手踊","province":"東京都","city":"八丈町","address":"東京都八丈町樫立地区","lat":33.079681,"lon":139.79464},{"name":"近藤守真墓","province":"東京都","city":"八丈町","address":"東京都八丈町三根125","lat":33.120434,"lon":139.80201},{"name":"八丈町立図書館","province":"東京都","city":"八丈町","address":"東京都八丈町三根26-21","lat":33.11412279,"lon":139.79300282},{"name":"＊?八丈町立図書館","province":"東京都","city":"八丈町","address":"八丈町三根26-6","lat":33.113517,"lon":139.792649},{"name":"樫立の手踊","province":"東京都","city":"八丈町","address":"東京都八丈町樫立地区","lat":33.079681,"lon":139.79464},{"name":"近藤守真墓","province":"東京都","city":"八丈町","address":"東京都八丈町三根125","lat":33.120434,"lon":139.80201},{"name":"八丈町立図書館","province":"東京都","city":"八丈町","address":"東京都八丈町三根26-21","lat":33.11412279,"lon":139.79300282},{"name":"＊?八丈町立図書館","province":"東京都","city":"八丈町","address":"八丈町三根26-6","lat":33.113517,"lon":139.792649},{"name":"樫立の手踊","province":"東京都","city":"八丈町","address":"東京都八丈町樫立地区","lat":33.079681,"lon":139.79464},{"name":"近藤守真墓","province":"東京都","city":"八丈町","address":"東京都八丈町三根125","lat":33.120434,"lon":139.80201},{"name":"八丈町立図書館","province":"東京都","city":"八丈町","address":"東京都八丈町三根26-21","lat":33.11412279,"lon":139.79300282},{"name":"＊?八丈町立図書館","province":"東京都","city":"八丈町","address":"八丈町三根26-6","lat":33.113517,"lon":139.792649},{"name":"樫立の手踊","province":"東京都","city":"八丈町","address":"東京都八丈町樫立地区","lat":33.079681,"lon":139.79464},{"name":"近藤守真墓","province":"東京都","city":"八丈町","address":"東京都八丈町三根125","lat":33.120434,"lon":139.80201},{"name":"八丈町立図書館","province":"東京都","city":"八丈町","address":"東京都八丈町三根26-21","lat":33.11412279,"lon":139.79300282},{"name":"＊?八丈町立図書館","province":"東京都","city":"八丈町","address":"八丈町三根26-6","lat":33.113517,"lon":139.792649},{"name":"樫立の手踊","province":"東京都","city":"八丈町","address":"東京都八丈町樫立地区","lat":33.079681,"lon":139.79464},{"name":"近藤守真墓","province":"東京都","city":"八丈町","address":"東京都八丈町三根125","lat":33.120434,"lon":139.80201},{"name":"八丈町立図書館","province":"東京都","city":"八丈町","address":"東京都八丈町三根26-21","lat":33.11412279,"lon":139.79300282},{"name":"＊?八丈町立図書館","province":"東京都","city":"八丈町","address":"八丈町三根26-6","lat":33.113517,"lon":139.792649},{"name":"樫立の手踊","province":"東京都","city":"八丈町","address":"東京都八丈町樫立地区","lat":33.079681,"lon":139.79464},{"name":"近藤守真墓","province":"東京都","city":"八丈町","address":"東京都八丈町三根125","lat":33.120434,"lon":139.80201},{"name":"八丈町立図書館","province":"東京都","city":"八丈町","address":"東京都八丈町三根26-21","lat":33.11412279,"lon":139.79300282},{"name":"＊?八丈町立図書館","province":"東京都","city":"八丈町","address":"八丈町三根26-6","lat":33.113517,"lon":139.792649},{"name":"樫立の手踊","province":"東京都","city":"八丈町","address":"東京都八丈町樫立地区","lat":33.079681,"lon":139.79464},{"name":"近藤守真墓","province":"東京都","city":"八丈町","address":"東京都八丈町三根125","lat":33.120434,"lon":139.80201},{"name":"八丈町立図書館","province":"東京都","city":"八丈町","address":"東京都八丈町三根26-21","lat":33.11412279,"lon":139.79300282},{"name":"＊?八丈町立図書館","province":"東京都","city":"八丈町","address":"八丈町三根26-6","lat":33.113517,"lon":139.792649},{"name":"樫立の手踊","province":"東京都","city":"八丈町","address":"東京都八丈町樫立地区","lat":33.079681,"lon":139.79464},{"name":"近藤守真墓","province":"東京都","city":"八丈町","address":"東京都八丈町三根125","lat":33.120434,"lon":139.80201},{"name":"八丈町立図書館","province":"東京都","city":"八丈町","address":"東京都八丈町三根26-21","lat":33.11412279,"lon":139.79300282},{"name":"＊?八丈町立図書館","province":"東京都","city":"八丈町","address":"八丈町三根26-6","lat":33.113517,"lon":139.792649},{"name":"樫立の手踊","province":"東京都","city":"八丈町","address":"東京都八丈町樫立地区","lat":33.079681,"lon":139.79464},{"name":"近藤守真墓","province":"東京都","city":"八丈町","address":"東京都八丈町三根125","lat":33.120434,"lon":139.80201},{"name":"八丈町立図書館","province":"東京都","city":"八丈町","address":"東京都八丈町三根26-21","lat":33.11412279,"lon":139.79300282},{"name":"＊?八丈町立図書館","province":"東京都","city":"八丈町","address":"八丈町三根26-6","lat":33.113517,"lon":139.792649},{"name":"樫立の手踊","province":"東京都","city":"八丈町","address":"東京都八丈町樫立地区","lat":33.079681,"lon":139.79464},{"name":"近藤守真墓","province":"東京都","city":"八丈町","address":"東京都八丈町三根125","lat":33.120434,"lon":139.80201},{"name":"八丈町立図書館","province":"東京都","city":"八丈町","address":"東京都八丈町三根26-21","lat":33.11412279,"lon":139.79300282},{"name":"＊?八丈町立図書館","province":"東京都","city":"八丈町","address":"八丈町三根26-6","lat":33.113517,"lon":139.792649},{"name":"樫立の手踊","province":"東京都","city":"八丈町","address":"東京都八丈町樫立地区","lat":33.079681,"lon":139.79464},{"name":"近藤守真墓","province":"東京都","city":"八丈町","address":"東京都八丈町三根125","lat":33.120434,"lon":139.80201},{"name":"八丈町立図書館","province":"東京都","city":"八丈町","address":"東京都八丈町三根26-21","lat":33.11412279,"lon":139.79300282},{"name":"＊?八丈町立図書館","province":"東京都","city":"八丈町","address":"八丈町三根26-6","lat":33.113517,"lon":139.792649},{"name":"樫立の手踊","province":"東京都","city":"八丈町","address":"東京都八丈町樫立地区","lat":33.079681,"lon":139.79464},{"name":"近藤守真墓","province":"東京都","city":"八丈町","address":"東京都八丈町三根125","lat":33.120434,"lon":139.80201},{"name":"八丈町立図書館","province":"東京都","city":"八丈町","address":"東京都八丈町三根26-21","lat":33.11412279,"lon":139.79300282},{"name":"＊?八丈町立図書館","province":"東京都","city":"八丈町","address":"八丈町三根26-6","lat":33.113517,"lon":139.792649},{"name":"樫立の手踊","province":"東京都","city":"八丈町","address":"東京都八丈町樫立地区","lat":33.079681,"lon":139.79464},{"name":"近藤守真墓","province":"東京都","city":"八丈町","address":"東京都八丈町三根125","lat":33.120434,"lon":139.80201},{"name":"八丈町立図書館","province":"東京都","city":"八丈町","address":"東京都八丈町三根26-21","lat":33.11412279,"lon":139.79300282},{"name":"＊?八丈町立図書館","province":"東京都","city":"八丈町","address":"八丈町三根26-6","lat":33.113517,"lon":139.792649},{"name":"樫立の手踊","province":"東京都","city":"八丈町","address":"東京都八丈町樫立地区","lat":33.079681,"lon":139.79464},{"name":"近藤守真墓","province":"東京都","city":"八丈町","address":"東京都八丈町三根125","lat":33.120434,"lon":139.80201},{"name":"八丈町立図書館","province":"東京都","city":"八丈町","address":"東京都八丈町三根26-21","lat":33.11412279,"lon":139.79300282},{"name":"＊?八丈町立図書館","province":"東京都","city":"八丈町","address":"八丈町三根26-6","lat":33.113517,"lon":139.792649},{"name":"樫立の手踊","province":"東京都","city":"八丈町","address":"東京都八丈町樫立地区","lat":33.079681,"lon":139.79464},{"name":"近藤守真墓","province":"東京都","city":"八丈町","address":"東京都八丈町三根125","lat":33.120434,"lon":139.80201},{"name":"八丈町立図書館","province":"東京都","city":"八丈町","address":"東京都八丈町三根26-21","lat":33.11412279,"lon":139.79300282},{"name":"＊?八丈町立図書館","province":"東京都","city":"八丈町","address":"八丈町三根26-6","lat":33.113517,"lon":139.792649},{"name":"樫立の手踊","province":"東京都","city":"八丈町","address":"東京都八丈町樫立地区","lat":33.079681,"lon":139.79464},{"name":"近藤守真墓","province":"東京都","city":"八丈町","address":"東京都八丈町三根125","lat":33.120434,"lon":139.80201},{"name":"八丈町立図書館","province":"東京都","city":"八丈町","address":"東京都八丈町三根26-21","lat":33.11412279,"lon":139.79300282},{"name":"＊?八丈町立図書館","province":"東京都","city":"八丈町","address":"八丈町三根26-6","lat":33.113517,"lon":139.792649}]}