{"keyword":"国立","data":[{"name":"国立市公民館","province":"東京都","city":"国立市","address":"国立市中1-15-1","lat":35.696854,"lon":139.443359},{"name":"くにたち中央図書館","province":"東京都","city":"国立市","address":"国立市富士見台2-34","lat":35.685696,"lon":139.443497},{"name":"くにたち中央図書館下谷保分室","province":"東京都","city":"国立市","address":"国立市谷保5066","lat":35.679398,"lon":139.44841},{"name":"くにたち中央図書館青柳分室","province":"東京都","city":"国立市","address":"国立市青柳244","lat":35.682404,"lon":139.423279},{"name":"くにたち中央図書館谷保東分室","province":"東京都","city":"国立市","address":"国立市谷保135-1","lat":35.674107,"lon":139.445236},{"name":"くにたち中央図書館東分室","province":"東京都","city":"国立市","address":"国立市東3-18-32","lat":35.691208,"lon":139.454071},{"name":"くにたち中央図書館南市民プラザ分室","province":"東京都","city":"国立市","address":"国立市泉2-3-21号棟1階","lat":35.674431,"lon":139.431137},{"name":"くにたち北市民プラザ図書館","province":"東京都","city":"国立市","address":"国立市北3-1-19号棟1階","lat":35.699455,"lon":139.449249},{"name":"くにたち郷土文化館","province":"東京都","city":"国立市","address":"国立市谷保6231","lat":35.679863,"lon":139.432434},{"name":"くにたち男女平等参画ステーション","province":"東京都","city":"国立市","address":"国立市谷保1705-1","lat":35.674107,"lon":139.445236},{"name":"国立市古民家","province":"東京都","city":"国立市","address":"国立市泉5-21-20","lat":35.678322,"lon":139.437744}]}