{"keyword":"放課後","data":[{"name":"LITALICOジュニアお茶の水教室","province":"東京都","city":"千代田区","address":"千代田区外神田2-2-18東信御茶の水ビル2階","lat":35.699672,"lon":139.767502},{"name":"ＴＥＥＮＳ御茶ノ水","province":"東京都","city":"千代田区","address":"千代田区神田駿河台三丁目5番地1三五ビル1階","lat":35.695822,"lon":139.763958},{"name":"ぴかいち","province":"東京都","city":"千代田区","address":"千代田区九段南3丁目7番7号九段南グリーンビル7階","lat":35.693008,"lon":139.743154},{"name":"放課後等デイサービス　ポジリブ","province":"東京都","city":"中央区","address":"中央区日本橋久松町6-9ASONE日本橋East2階","lat":35.689481,"lon":139.784357},{"name":"放課後等デイサービス　ミライエ日本橋","province":"東京都","city":"中央区","address":"中央区日本橋蛎殻町2-5-3","lat":35.683924,"lon":139.785185},{"name":"児童デイサービス　スマイル日本橋","province":"東京都","city":"中央区","address":"中央区日本橋茅場町2-17-9長尾ビル201号室","lat":35.678607,"lon":139.780696},{"name":"ゆうゆうらいふアカデミー中央","province":"東京都","city":"中央区","address":"中央区新川2-18-5ASビル2階","lat":35.674519,"lon":139.781649},{"name":"トリプル・ハート","province":"東京都","city":"中央区","address":"中央区新富2-2-142階","lat":35.671872,"lon":139.772563},{"name":"中央区立福祉センター","province":"東京都","city":"中央区","address":"中央区明石町12-1","lat":35.666506,"lon":139.777035},{"name":"メルケアみなとセンター","province":"東京都","city":"港区","address":"港区西新橋1-24-16平和ビル","lat":35.668738,"lon":139.751307},{"name":"スマートキッズプラス芝公園","province":"東京都","city":"港区","address":"港区芝3-25-2黒田芝ビル2階","lat":35.651554,"lon":139.747058},{"name":"スポーツ塾　ハートフルデイ東麻布","province":"東京都","city":"港区","address":"港区東麻布2-5-9サンエイビル2階","lat":35.657087,"lon":139.741828},{"name":"幸せの缶詰","province":"東京都","city":"港区","address":"港区南麻布2-1-18","lat":35.649398,"lon":139.733901},{"name":"ＫＯＫＯＺＯ　南青山","province":"東京都","city":"港区","address":"港区南青山4-3-24青山NKビル1階","lat":35.666224,"lon":139.720154},{"name":"ハッピーテラス芝浦教室","province":"東京都","city":"港区","address":"港区芝浦4-12-31","lat":35.640017,"lon":139.749103},{"name":"スポーツ塾　ハートフルデイ芝浦","province":"東京都","city":"港区","address":"港区芝浦2-17-10新大友ビル1階","lat":35.645135,"lon":139.75263},{"name":"ＴＯＤＡＹ児童デイサービス白金","province":"東京都","city":"港区","address":"港区白金3-16-9","lat":35.644418,"lon":139.728021},{"name":"こどもサポート教室「きらり」白金高輪校","province":"東京都","city":"港区","address":"港区三田4-10-5テラドール1階","lat":35.641838,"lon":139.73844},{"name":"プレミア・ケア・ジュニア　三田店","province":"東京都","city":"港区","address":"港区三田2-9-5みずほビル1階","lat":35.65064,"lon":139.744286},{"name":"すてっぷわん","province":"東京都","city":"港区","address":"港区高輪1-17-15オーク高輪ビル2階","lat":35.640388,"lon":139.733207},{"name":"ハービー＆マックローリン・陽だまり介護センター","province":"東京都","city":"港区","address":"港区高輪3-19-20-103号・102号","lat":35.633425,"lon":139.737529},{"name":"アフタースクール　クローバーキッズ麻布十番","province":"東京都","city":"港区","address":"港区麻布十番3-11-12","lat":35.65287,"lon":139.735226},{"name":"プレミア・ケア・ジュニア　四ツ谷店","province":"東京都","city":"新宿区","address":"新宿区四谷3-1-4斉藤ビルディング2階","lat":35.687708,"lon":139.72267},{"name":"ＴＥＥＮＳ新宿","province":"東京都","city":"新宿区","address":"新宿区西新宿6-2-3","lat":35.693615,"lon":139.69413},{"name":"放課後デイサービス　スリーセブン","province":"東京都","city":"新宿区","address":"新宿区西落合1-16-9フラットMONA1階","lat":35.722433,"lon":139.681419},{"name":"ケアステップ新宿","province":"東京都","city":"新宿区","address":"新宿区早稲田鶴巻町525稲田ビル1階","lat":35.706867,"lon":139.723997},{"name":"テラコヤキッズ　新宿本教室","province":"東京都","city":"新宿区","address":"新宿区住吉町2-10ソフィアM3F","lat":35.691957,"lon":139.720745},{"name":"ノーサイド新宿＠Ｌｅａｆ音楽療法センター","province":"東京都","city":"新宿区","address":"新宿区矢来町43三新ビル1階","lat":35.704045,"lon":139.73106},{"name":"ベアーズ","province":"東京都","city":"新宿区","address":"新宿区榎町45さくらビル2階","lat":35.704664,"lon":139.72898},{"name":"にこにこルームベリタス","province":"東京都","city":"新宿区","address":"新宿区西早稲田2-7-17イールハウス101号","lat":35.708144,"lon":139.71467},{"name":"放課後等デイサービス　アトリエたいよう","province":"東京都","city":"新宿区","address":"新宿区北新宿4-4-13","lat":35.707496,"lon":139.694008},{"name":"スポーツひろばプレイス　高田馬場教室","province":"東京都","city":"新宿区","address":"新宿区高田馬場1-9-21エムハットビル1階","lat":35.71016,"lon":139.708895},{"name":"放課後等デイサービス　すまいる","province":"東京都","city":"新宿区","address":"新宿区高田馬場1-25-36タイオー・インターナショナルビルディング30C号室","lat":35.711844,"lon":139.706348},{"name":"サッカーあいだっく","province":"東京都","city":"新宿区","address":"新宿区高田馬場3-25-3東京京装ビル2階","lat":35.712454,"lon":139.697727},{"name":"児童発達支援・放課後等デイサービス　Ｓｍｉｌｅ　Ｓｅｅｄ（すまいるしーど）","province":"東京都","city":"新宿区","address":"新宿区高田馬場1-5-8YSビル1階","lat":35.710755,"lon":139.708145},{"name":"運動発達支援スタジオＵＮＩＭＯ後楽園","province":"東京都","city":"文京区","address":"文京区小石川2-25-10","lat":35.712211,"lon":139.750652},{"name":"富坂子どもの家","province":"東京都","city":"文京区","address":"文京区小石川2-17-41","lat":35.711125,"lon":139.748361},{"name":"発達支援ルーム　ぽけっと","province":"東京都","city":"文京区","address":"文京区小石川5-38-2クレストヒルズ小石川2階","lat":35.718166,"lon":139.742953},{"name":"放課後等デイサービス　びおら","province":"東京都","city":"文京区","address":"文京区小日向2丁目16-15","lat":35.710581,"lon":139.734582},{"name":"運動発達支援スタジオＵＮＩＭＯ文京千石","province":"東京都","city":"文京区","address":"文京区千石1-29-12千石片岡ビル101","lat":35.727271,"lon":139.74518},{"name":"放課後等デイサービス　あんプラス江戸川橋","province":"東京都","city":"文京区","address":"文京区関口1-48-6日火江戸川橋ビル第2201","lat":35.709486,"lon":139.730463},{"name":"エデュクエスト","province":"東京都","city":"文京区","address":"文京区白山1-18-7石川ビル202号室","lat":35.717747,"lon":139.752236},{"name":"放課後等デイサービス　カリタス翼","province":"東京都","city":"文京区","address":"文京区本駒込5-4-4","lat":35.732379,"lon":139.750074},{"name":"文京区放課後等デイサービスＪＯＹ","province":"東京都","city":"文京区","address":"文京区本駒込四丁目35番15号文京区勤労福祉会館2階","lat":35.733468,"lon":139.75514},{"name":"ハッピーテラス千駄木教室","province":"東京都","city":"文京区","address":"文京区根津2-37-8","lat":35.72118,"lon":139.76241},{"name":"文京区児童発達支援センター","province":"東京都","city":"文京区","address":"文京区湯島4-7-10","lat":35.708848,"lon":139.765768},{"name":"スマートキッズプラス南千住","province":"東京都","city":"台東区","address":"台東区竜泉3-40-6ハイツエスポワール1階","lat":35.72668,"lon":139.792232},{"name":"ユニゾン上野","province":"東京都","city":"台東区","address":"台東区北上野1-8-5ビリーフ上野1階","lat":35.717258,"lon":139.782166},{"name":"オアゾ子供クラブ","province":"東京都","city":"台東区","address":"台東区北上野2-25-8","lat":35.718465,"lon":139.785217},{"name":"結ふる美谷東京","province":"東京都","city":"台東区","address":"台東区東上野1丁目25番8号萬屋ビル3階","lat":35.708615,"lon":139.780323},{"name":"つばさ放課後クラブ","province":"東京都","city":"台東区","address":"台東区千束3-28-13千束保健福祉センター6階","lat":35.723086,"lon":139.793627},{"name":"ＳＴＥＰ浅草","province":"東京都","city":"台東区","address":"台東区浅草4-38-4ヤチヨハイム1階","lat":35.719104,"lon":139.795521},{"name":"台東区松が谷福祉会館","province":"東京都","city":"台東区","address":"台東区松が谷1-4-12","lat":35.711304,"lon":139.785425},{"name":"コラゾン台東","province":"東京都","city":"台東区","address":"台東区浅草橋5-2-3柳北ビル2階","lat":35.699216,"lon":139.781546},{"name":"コラゾン浅草橋","province":"東京都","city":"台東区","address":"台東区浅草橋1-2-8マルイチビル7階","lat":35.696525,"lon":139.784235},{"name":"スマートキッズジュニア元浅草","province":"東京都","city":"台東区","address":"台東区鳥越1-22-5平岡ビル2階","lat":35.703505,"lon":139.781437},{"name":"コラゾン吾妻橋浅草","province":"東京都","city":"墨田区","address":"墨田区吾妻橋1-4-4両野ビル2階","lat":35.708057,"lon":139.800955},{"name":"放課後等デイサービス　あんず","province":"東京都","city":"墨田区","address":"墨田区業平4-6-3プレジール101","lat":35.707008,"lon":139.81502},{"name":"放課後等デイサービス　ジョイ・キッズ","province":"東京都","city":"墨田区","address":"墨田区横川5-10-1プリメール柳島118","lat":35.705555,"lon":139.81642},{"name":"キッズデイあすみ","province":"東京都","city":"墨田区","address":"墨田区石原4-12-5-101","lat":35.699794,"lon":139.807666},{"name":"スマートキッズプラス錦糸町","province":"東京都","city":"墨田区","address":"墨田区太平4-24-10ナノトミックビル1F","lat":35.702913,"lon":139.818604},{"name":"スマートキッズプラス両国","province":"東京都","city":"墨田区","address":"墨田区亀沢1-24-1アーバンコーポ両国2階202号室","lat":35.698428,"lon":139.797507},{"name":"コラゾン両国","province":"東京都","city":"墨田区","address":"墨田区亀沢1-19-1田中ビル4階","lat":35.69785,"lon":139.79934},{"name":"ゆうゆうらいふアカデミー両国","province":"東京都","city":"墨田区","address":"墨田区亀沢1-20-2","lat":35.698208,"lon":139.799329},{"name":"コラゾン錦糸町","province":"東京都","city":"墨田区","address":"墨田区江東橋1-4-12メゾンドール錦糸町ツイン101","lat":35.693367,"lon":139.8099},{"name":"キッズサポートりま","province":"東京都","city":"墨田区","address":"墨田区立川1-16-20Y2ビルディング1階・2階","lat":35.691598,"lon":139.799435},{"name":"アルファキッズ菊川駅前","province":"東京都","city":"墨田区","address":"墨田区菊川三丁目7番4号大こく屋第2ビル3階","lat":35.688237,"lon":139.806281},{"name":"キッズデイあすみ菊川","province":"東京都","city":"墨田区","address":"墨田区菊川3-21-11-205・206号","lat":35.690032,"lon":139.808106},{"name":"アプリ児童デイサービス東向島","province":"東京都","city":"墨田区","address":"墨田区東向島五丁目31番3号エビハラビル1階","lat":35.728593,"lon":139.822269},{"name":"あったかいデイ　東向島","province":"東京都","city":"墨田区","address":"墨田区東向島5-7-12若草ビル12店舗1階","lat":35.725577,"lon":139.820239},{"name":"すみだ福祉保健センター　みつばち園","province":"東京都","city":"墨田区","address":"墨田区向島3-36-7すみだ福祉保健センター内","lat":35.713374,"lon":139.810759},{"name":"すみだ晴山苑　キララ","province":"東京都","city":"墨田区","address":"墨田区八広5-18-30","lat":35.72484,"lon":139.826514},{"name":"墨田こどもの家","province":"東京都","city":"墨田区","address":"墨田区八広4-13-3-101","lat":35.723058,"lon":139.826963},{"name":"墨田あゆみの家","province":"東京都","city":"墨田区","address":"墨田区八広2-56-3-101","lat":35.715255,"lon":139.828285},{"name":"児童デイサービス　スマイル八広","province":"東京都","city":"墨田区","address":"墨田区八広六丁目8番2号リエス八広1階","lat":35.728166,"lon":139.826083},{"name":"スマートキッズプラス平井北","province":"東京都","city":"墨田区","address":"墨田区八広4-48-5エコーピア2階4号室","lat":35.720774,"lon":139.830251},{"name":"運動・学習による子供自立支援教室　あんしんキッズ","province":"東京都","city":"墨田区","address":"墨田区立花1-23-5-114","lat":35.70665,"lon":139.831241},{"name":"すみだステップハウスおおぞら　にじの子","province":"東京都","city":"墨田区","address":"墨田区文花1-32-7","lat":35.708166,"lon":139.82378},{"name":"第２乳幼児親子教室","province":"東京都","city":"江東区","address":"江東区住吉1-8-18住吉ビル1階","lat":35.687379,"lon":139.811108},{"name":"スマートキッズプラス住吉","province":"東京都","city":"江東区","address":"江東区住吉2-7-14國谷ビル201","lat":35.688176,"lon":139.815574},{"name":"まつぼっくり子ども教室","province":"東京都","city":"江東区","address":"江東区猿江2-9-52・3階","lat":35.687421,"lon":139.815269},{"name":"乳幼児親子教室","province":"東京都","city":"江東区","address":"江東区猿江1-18-9-204","lat":35.687024,"lon":139.811683},{"name":"児童デイサービス　スマイル江東","province":"東京都","city":"江東区","address":"江東区新大橋2-15-3飯田ビル1階","lat":35.689573,"lon":139.793355},{"name":"さくらんぼ子ども教室","province":"東京都","city":"江東区","address":"江東区扇橋3-3-7宮内ビル1・2階","lat":35.68266,"lon":139.818732},{"name":"放課後等デイサービス　ＧＲＩＰ　キッズ　扇橋校","province":"東京都","city":"江東区","address":"江東区扇橋2-3-51階","lat":35.682841,"lon":139.815191},{"name":"第３親子教室　うみべ","province":"東京都","city":"江東区","address":"江東区海辺4-12第二ユーエスビル101","lat":35.679753,"lon":139.818626},{"name":"第２まつぼっくり子ども教室","province":"東京都","city":"江東区","address":"江東区海辺3-7シャリオビル1階","lat":35.680441,"lon":139.818818},{"name":"ごえん舎江東","province":"東京都","city":"江東区","address":"江東区千田8-7高田ビル2階","lat":35.680769,"lon":139.815035},{"name":"コラゾン江東住吉","province":"東京都","city":"江東区","address":"江東区千田7-17大塚ビル1階","lat":35.680836,"lon":139.815441},{"name":"たんぽぽクラブ","province":"東京都","city":"江東区","address":"江東区石島5-7深川ビル1階、201号室","lat":35.680375,"lon":139.811966},{"name":"みらいキッズ東陽町","province":"東京都","city":"江東区","address":"江東区石島9-14シャンテ石島1階","lat":35.680014,"lon":139.81373},{"name":"コラゾン東陽町","province":"東京都","city":"江東区","address":"江東区東陽3-26-7東陽大経ビル2階","lat":35.670634,"lon":139.813585},{"name":"コラゾン清澄白河","province":"東京都","city":"江東区","address":"江東区白河2-8-5三栄ビル4階","lat":35.682094,"lon":139.802543},{"name":"スマートキッズプラス木場公園","province":"東京都","city":"江東区","address":"江東区平野四丁目12番2号坂戸ビル1階","lat":35.678405,"lon":139.81033},{"name":"スマートキッズジュニア門前仲町","province":"東京都","city":"江東区","address":"江東区佐賀1丁目9-7原田ビル・佐賀2階","lat":35.676808,"lon":139.790621},{"name":"スマートキッズプラス門前仲町","province":"東京都","city":"江東区","address":"江東区永代2-23-1内山ビル2F","lat":35.672378,"lon":139.791629},{"name":"みらいキッズ","province":"東京都","city":"江東区","address":"江東区永代2-34-11セレナハイム門前仲町1階","lat":35.674467,"lon":139.792985},{"name":"こぴあクラブ","province":"東京都","city":"江東区","address":"江東区冬木6-20","lat":35.673386,"lon":139.801603},{"name":"ごえん舎越中島","province":"東京都","city":"江東区","address":"江東区越中島2-13-10北沢ビル2階","lat":35.666579,"lon":139.794862},{"name":"スマートキッズプラス豊洲","province":"東京都","city":"江東区","address":"江東区枝川2-15-2大岩ビル1F","lat":35.657716,"lon":139.807205},{"name":"第３こぴあクラブ","province":"東京都","city":"江東区","address":"江東区枝川1-11-16","lat":35.656294,"lon":139.805092},{"name":"放課後等デイサービス　大夢","province":"東京都","city":"江東区","address":"江東区辰巳1-2-9","lat":35.650056,"lon":139.808297},{"name":"スマートキッズプラス東雲","province":"東京都","city":"江東区","address":"江東区東雲一丁目6番23号","lat":35.64577,"lon":139.800867},{"name":"スマートキッズジュニア亀戸","province":"東京都","city":"江東区","address":"江東区亀戸1-31-7亀戸センタービル4階","lat":35.694709,"lon":139.825678},{"name":"このこのリーフ亀戸","province":"東京都","city":"江東区","address":"江東区亀戸7-3-7伊藤ビル1階","lat":35.695143,"lon":139.83376},{"name":"こぱんはうすさくら　亀戸教室","province":"東京都","city":"江東区","address":"江東区亀戸9-19-7日商岩井亀戸マンションA2棟1階","lat":35.697959,"lon":139.844268},{"name":"このこのリーフ亀戸第２","province":"東京都","city":"江東区","address":"江東区亀戸4-11-9AHAVAビル2階","lat":35.701492,"lon":139.830563},{"name":"第２こぴあクラブ","province":"東京都","city":"江東区","address":"江東区亀戸6-48-5","lat":35.69416,"lon":139.832063},{"name":"スマートキッズプラス西大島","province":"東京都","city":"江東区","address":"江東区大島1-30-4L-TOWER3階","lat":35.68919,"lon":139.825509},{"name":"スマートキッズプラス大島","province":"東京都","city":"江東区","address":"江東区大島5-45-9","lat":35.689735,"lon":139.836535},{"name":"らいおんハート遊びリテーション児童デイ北砂","province":"東京都","city":"江東区","address":"江東区北砂五丁目20番7号棟第101号室","lat":35.68368,"lon":139.834177},{"name":"南砂ぞうさんクラブ","province":"東京都","city":"江東区","address":"江東区南砂2-28-3LAZFITHTOYOCHO201号","lat":35.675581,"lon":139.821768},{"name":"てんとうむし","province":"東京都","city":"品川区","address":"品川区北品川4-1-1松風ビル2階","lat":35.62294,"lon":139.734843},{"name":"アプリ児童デイサービス北品川","province":"東京都","city":"品川区","address":"品川区北品川2-18-2","lat":35.618158,"lon":139.741437},{"name":"ちびっこタイム品川","province":"東京都","city":"品川区","address":"品川区東大井5-23-16-110号","lat":35.604407,"lon":139.737158},{"name":"めるへんキッズ大森園","province":"東京都","city":"品川区","address":"品川区南大井6-16-1サンハイツ大森101号室","lat":35.591441,"lon":139.730539},{"name":"スキップランド　西大井","province":"東京都","city":"品川区","address":"品川区西大井6-14-15","lat":35.599776,"lon":139.717037},{"name":"アプリ児童デイサービス不動前","province":"東京都","city":"品川区","address":"品川区西五反田三丁目13番14号ロイヤルコート","lat":35.628086,"lon":139.714056},{"name":"品川区立品川児童学園分室","province":"東京都","city":"品川区","address":"品川区戸越6-16-14","lat":35.607372,"lon":139.715378},{"name":"療育スタジオ・ピコ　戸越公園教室","province":"東京都","city":"品川区","address":"品川区豊町3-1-1ひかりオークス1階","lat":35.609,"lon":139.719884},{"name":"キッズアイランドワイキキ","province":"東京都","city":"品川区","address":"品川区二葉4-4-19","lat":35.602334,"lon":139.715223},{"name":"スタジオそら品川戸越","province":"東京都","city":"品川区","address":"品川区東中延1-3-11","lat":35.611277,"lon":139.714126},{"name":"このこのリーフ　中延","province":"東京都","city":"品川区","address":"品川区中延3-13-19芙蓉ハイツ101号","lat":35.606489,"lon":139.71134},{"name":"みんなの家　ゆめっこ","province":"東京都","city":"品川区","address":"品川区中延6-3-16","lat":35.602767,"lon":139.71256},{"name":"びりぃぶ","province":"東京都","city":"目黒区","address":"目黒区中央町二丁目32番5号スマイルプラザ中央町3階","lat":35.631511,"lon":139.688775},{"name":"アトリエほんちょう","province":"東京都","city":"目黒区","address":"目黒区目黒本町6-9-20","lat":35.620137,"lon":139.696277},{"name":"スタジオそら学芸大学","province":"東京都","city":"目黒区","address":"目黒区鷹番二丁目17番11号イムーブル鷹番A-1号","lat":35.627192,"lon":139.686914},{"name":"桐塾　学芸大学駅前第二教室","province":"東京都","city":"目黒区","address":"目黒区鷹番2-15-18パル学芸大学202","lat":35.629747,"lon":139.687094},{"name":"もうひとつのおうち","province":"東京都","city":"目黒区","address":"目黒区八雲5-1-5","lat":35.624741,"lon":139.668971},{"name":"めぐろアフタースクール","province":"東京都","city":"目黒区","address":"目黒区上目黒5丁目30-7サンライズ浅見T1","lat":35.640982,"lon":139.685739},{"name":"桐塾　祐天寺教室","province":"東京都","city":"目黒区","address":"目黒区祐天寺2-3-11第6エスペランス3階","lat":35.637241,"lon":139.692488},{"name":"ハミングツリー","province":"東京都","city":"目黒区","address":"目黒区中目黒5-27-12ライフイン祐天寺101","lat":35.635344,"lon":139.694883},{"name":"さくら","province":"東京都","city":"目黒区","address":"目黒区下目黒3-4-4グランメゾン清和202","lat":35.630422,"lon":139.708779},{"name":"アインクラブ大森","province":"東京都","city":"大田区","address":"大田区大森本町2-26-15松尾ビル2階","lat":35.577854,"lon":139.736426},{"name":"児童デイパーチェ","province":"東京都","city":"大田区","address":"大田区大森東1-35コーシャハイム大森東4-108","lat":35.57646,"lon":139.740517},{"name":"こどもプラスほしのこ","province":"東京都","city":"大田区","address":"大田区大森南3-24-2","lat":35.56479,"lon":139.742532},{"name":"くれよんくらぶ","province":"東京都","city":"大田区","address":"大田区大森北1-11-3サカエビル5階A号室","lat":35.587122,"lon":139.728637},{"name":"このこのリーフ大森山王","province":"東京都","city":"大田区","address":"大田区山王1-31-2石ビル2階","lat":35.591619,"lon":139.725109},{"name":"ファミリールーム　りぼん","province":"東京都","city":"大田区","address":"大田区中央8-4-13KTY中央101","lat":35.574584,"lon":139.712205},{"name":"放課後デイ　レインボースター","province":"東京都","city":"大田区","address":"大田区南蒲田1-1-23","lat":35.560703,"lon":139.724611},{"name":"スキップランド南六郷","province":"東京都","city":"大田区","address":"大田区南六郷2-27-3","lat":35.5472,"lon":139.718723},{"name":"はるはうすｋｉｄｓ","province":"東京都","city":"大田区","address":"大田区東六郷2-9-16阿部ビル1階","lat":35.549866,"lon":139.71719},{"name":"テラコヤキッズ　蒲田教室","province":"東京都","city":"大田区","address":"大田区西蒲田7-1-3ステラビル7階","lat":35.563766,"lon":139.716272},{"name":"あかしろきいろ発達支援るーむ","province":"東京都","city":"大田区","address":"大田区西蒲田2-7-1-101","lat":35.569846,"lon":139.70634},{"name":"テラス児童デイサービス西蒲田","province":"東京都","city":"大田区","address":"大田区西蒲田8-7-14中野ビル1階","lat":35.560836,"lon":139.710601},{"name":"Ｋｉｄ’ｓ　Ｔｅｃｈ　蒲田","province":"東京都","city":"大田区","address":"大田区西蒲田7-18-6ロータスフラットII2階1号室","lat":35.563961,"lon":139.709012},{"name":"テラコヤキッズゆめ気球教室","province":"東京都","city":"大田区","address":"大田区蒲田一丁目25番7号グレードワン・ヒラタ1階","lat":35.564936,"lon":139.7186},{"name":"でらいとわーくジュニア　かまたアフタースクール","province":"東京都","city":"大田区","address":"大田区蒲田5-30-15第20下川ビル2階","lat":35.561878,"lon":139.719622},{"name":"スキップランド新蒲田","province":"東京都","city":"大田区","address":"大田区新蒲田1-13-7","lat":35.55942,"lon":139.710376},{"name":"放課後等デイサービス　ポジティブ","province":"東京都","city":"大田区","address":"大田区仲六郷2-39-7鈴木ビル1階","lat":35.549177,"lon":139.71291},{"name":"リトル　コールケア","province":"東京都","city":"大田区","address":"大田区南雪谷4-7-142階","lat":35.588957,"lon":139.681994},{"name":"みなそら多摩川園","province":"東京都","city":"大田区","address":"大田区田園調布1-6-3早川ビル2階","lat":35.58781,"lon":139.674556},{"name":"発達支援教室スマイル久が原","province":"東京都","city":"大田区","address":"大田区久が原三丁目37番1号NYビル2階","lat":35.580295,"lon":139.687088},{"name":"アインクラブ","province":"東京都","city":"大田区","address":"大田区池上5-28-1","lat":35.573496,"lon":139.711917},{"name":"かたつむりクラブ","province":"東京都","city":"大田区","address":"大田区池上三丁目31番14号ファミールクボタ1階","lat":35.57384,"lon":139.703054},{"name":"ゆめクラブ","province":"東京都","city":"大田区","address":"大田区池上六丁目13番11号不二美ビル1階","lat":35.570724,"lon":139.703954},{"name":"このこのリーフ池上","province":"東京都","city":"大田区","address":"大田区池上3-25-5グリーンパレス1階","lat":35.574851,"lon":139.700923},{"name":"あかしろきいろ発達支援るーむⅡ","province":"東京都","city":"大田区","address":"大田区池上4-30-9-201","lat":35.573232,"lon":139.705203},{"name":"こどもプラスほしのこジュニア","province":"東京都","city":"大田区","address":"大田区池上3-39-12常盤ビル2階","lat":35.572937,"lon":139.701459},{"name":"発達支援教室にじいろＬａｂｏ池上","province":"東京都","city":"大田区","address":"大田区池上5-14-4小宮ビル1階","lat":35.572285,"lon":139.70677},{"name":"このこのリーフ千鳥町駅前","province":"東京都","city":"大田区","address":"大田区千鳥1-19-5フラット千鳥1階","lat":35.572677,"lon":139.692702},{"name":"発達支援教室スマイル千鳥","province":"東京都","city":"大田区","address":"大田区千鳥1-3-19","lat":35.572954,"lon":139.691952},{"name":"テラス児童デイサービス千鳥","province":"東京都","city":"大田区","address":"大田区千鳥一丁目17番6号千鳥コラージュ1階","lat":35.572196,"lon":139.694272},{"name":"ハーティーパーチ久が原","province":"東京都","city":"大田区","address":"大田区南久が原二丁目19番29号植松ビル2階","lat":35.577556,"lon":139.68367},{"name":"発達支援教室スマイル久が原プラス","province":"東京都","city":"大田区","address":"大田区南久が原2-12-14三立ビル1階","lat":35.578215,"lon":139.685866},{"name":"ゆめクラブ２","province":"東京都","city":"大田区","address":"大田区下丸子1-19-23CSソレイユ1階","lat":35.566017,"lon":139.689103},{"name":"みなそら矢口園","province":"東京都","city":"大田区","address":"大田区東矢口3-30-12祥明ビル2F","lat":35.560575,"lon":139.707382},{"name":"LITALICOジュニア駒沢教室","province":"東京都","city":"世田谷区","address":"世田谷区野沢2-34-2サンワイズ野沢2階","lat":35.635348,"lon":139.665279},{"name":"わんぱくクラブ三軒茶屋","province":"東京都","city":"世田谷区","address":"世田谷区太子堂2-17-1太子堂複合施設4階","lat":35.644778,"lon":139.671098},{"name":"あおぞら縁","province":"東京都","city":"世田谷区","address":"世田谷区三宿二丁目38番地7号加納屋ビル201","lat":35.653377,"lon":139.672475},{"name":"わんぱくクラブ三宿","province":"東京都","city":"世田谷区","address":"世田谷区三宿1-3-201階","lat":35.648856,"lon":139.677442},{"name":"ハッピーテラス駒沢公園教室","province":"東京都","city":"世田谷区","address":"世田谷区上馬4-41-1米勢ビル1階","lat":35.63972,"lon":139.661038},{"name":"アプリ児童デイサービス駒沢","province":"東京都","city":"世田谷区","address":"世田谷区駒沢三丁目14番3号フィル・パーク駒沢大学","lat":35.630863,"lon":139.6549},{"name":"わんぱくクラブ駒沢","province":"東京都","city":"世田谷区","address":"世田谷区新町1-3-32","lat":35.626751,"lon":139.652759},{"name":"子育てステーション桜新町　発達相談室","province":"東京都","city":"世田谷区","address":"世田谷区桜新町2-8-1世田谷目黒農協本店ビル内1階","lat":35.631965,"lon":139.645112},{"name":"プレミア・ケア・ジュニア世田谷店","province":"東京都","city":"世田谷区","address":"世田谷区弦巻1-46-15","lat":35.639795,"lon":139.648692},{"name":"そらのいろ梅丘","province":"東京都","city":"世田谷区","address":"世田谷区梅丘一丁目22番4号グローリア初穂梅ヶ丘101","lat":35.655421,"lon":139.653194},{"name":"アプリ児童デイサービス若林","province":"東京都","city":"世田谷区","address":"世田谷区若林四丁目2番5号","lat":35.646514,"lon":139.659405},{"name":"ウイングせたがや代田","province":"東京都","city":"世田谷区","address":"世田谷区若林5-41-15アーヴェイン世田谷201","lat":35.651049,"lon":139.659724},{"name":"スタジオそら北沢","province":"東京都","city":"世田谷区","address":"世田谷区北沢3-1-3SFビル2階","lat":35.665981,"lon":139.673203},{"name":"放課後等デイサービス　らしさ","province":"東京都","city":"世田谷区","address":"世田谷区松原5-16-8","lat":35.660881,"lon":139.648238},{"name":"デイサービスにじのこ赤堤","province":"東京都","city":"世田谷区","address":"世田谷区赤堤1-8-19第1居成ビル2F","lat":35.656959,"lon":139.643756},{"name":"アプリ児童デイサービス桜丘","province":"東京都","city":"世田谷区","address":"世田谷区桜丘二丁目21番3号","lat":35.64606,"lon":139.623752},{"name":"プレイ＆リズム希望丘","province":"東京都","city":"世田谷区","address":"世田谷区船橋7-8-3","lat":35.658378,"lon":139.619799},{"name":"テラス児童デイサービス烏山","province":"東京都","city":"世田谷区","address":"世田谷区北烏山九丁目3番4号ピアサン烏山1階1A号室","lat":35.670012,"lon":139.595437},{"name":"児童デイサービスここから","province":"東京都","city":"世田谷区","address":"世田谷区北烏山3丁目11番5号","lat":35.673914,"lon":139.60245},{"name":"アプリ児童デイサービス北烏山","province":"東京都","city":"世田谷区","address":"世田谷区北烏山4-34-18","lat":35.680397,"lon":139.597895},{"name":"子育てステーション烏山発達相談室","province":"東京都","city":"世田谷区","address":"世田谷区南烏山5-17-5","lat":35.666924,"lon":139.601297},{"name":"プレミア・ケア・ジュニア芦花公園店","province":"東京都","city":"世田谷区","address":"世田谷区南烏山1-16-19-1階","lat":35.668207,"lon":139.612491},{"name":"はぴねす","province":"東京都","city":"世田谷区","address":"世田谷区南烏山6-33-33ウィスタリアハウス2-1階","lat":35.670268,"lon":139.600017},{"name":"凸凹Ｋｉｄｓすぺいす","province":"東京都","city":"世田谷区","address":"世田谷区粕谷四丁目13番16号","lat":35.663671,"lon":139.604225},{"name":"デイサービスにじのこ給田","province":"東京都","city":"世田谷区","address":"世田谷区給田3-14-7給田地区会館内","lat":35.664896,"lon":139.590679},{"name":"スタジオそら喜多見","province":"東京都","city":"世田谷区","address":"世田谷区喜多見八丁目15番25号キタミフォーラム1階","lat":35.635858,"lon":139.588472},{"name":"こどもデイうぃず","province":"東京都","city":"世田谷区","address":"世田谷区喜多見7-25-17","lat":35.634097,"lon":139.592027},{"name":"アプリ児童デイサービス千歳台","province":"東京都","city":"世田谷区","address":"世田谷区千歳台3-31-20","lat":35.653731,"lon":139.612419},{"name":"児童デイサービス　プラス砧","province":"東京都","city":"世田谷区","address":"世田谷区砧4-10-17-1階","lat":35.640408,"lon":139.613234},{"name":"ＴＡＫＵＭＩ　祖師ヶ谷大蔵","province":"東京都","city":"世田谷区","address":"世田谷区砧2-17-7E・スペース2階","lat":35.644565,"lon":139.615581},{"name":"世田谷区発達障害相談・療育センター","province":"東京都","city":"世田谷区","address":"世田谷区大蔵2-10-18","lat":35.634633,"lon":139.612803},{"name":"イクツアルポック","province":"東京都","city":"世田谷区","address":"世田谷区野毛2-28-23B棟","lat":35.602849,"lon":139.639944},{"name":"発達支援ルーム　琉りゅう","province":"東京都","city":"世田谷区","address":"世田谷区上野毛2-22-14A-2階","lat":35.609468,"lon":139.635089},{"name":"運動療育スパークスタジオ世田谷","province":"東京都","city":"世田谷区","address":"世田谷区瀬田4-27-9AMビル2階","lat":35.621691,"lon":139.630011},{"name":"ウイング用賀","province":"東京都","city":"世田谷区","address":"世田谷区用賀2-40-2","lat":35.625871,"lon":139.634549},{"name":"スタジオそら用賀","province":"東京都","city":"世田谷区","address":"世田谷区用賀2-36-17林ビル2階","lat":35.627263,"lon":139.635735},{"name":"広尾てくてく","province":"東京都","city":"渋谷区","address":"渋谷区広尾四丁目2番12号","lat":35.655159,"lon":139.722279},{"name":"特別支援教育研究所　Ｗｉｓh","province":"東京都","city":"渋谷区","address":"渋谷区神泉町15-11","lat":35.657005,"lon":139.691963},{"name":"よよこ～クラブ","province":"東京都","city":"渋谷区","address":"渋谷区千駄ヶ谷5-8-2","lat":35.681647,"lon":139.705038},{"name":"スタジオそら原宿","province":"東京都","city":"渋谷区","address":"渋谷区千駄ヶ谷3-51-6原宿MOA1階","lat":35.675037,"lon":139.706133},{"name":"渋谷区障害者福祉センター代々木の杜","province":"東京都","city":"渋谷区","address":"渋谷区代々木2-35-1","lat":35.684158,"lon":139.697725},{"name":"スタジオそら代々木公園","province":"東京都","city":"渋谷区","address":"渋谷区富ヶ谷一丁目2番1号","lat":35.670367,"lon":139.690043},{"name":"放課後等デイサービス　あいだっく","province":"東京都","city":"渋谷区","address":"渋谷区上原3-23-5オーガストハウス1階","lat":35.66427,"lon":139.676789},{"name":"デイサービスなかよし","province":"東京都","city":"渋谷区","address":"渋谷区西原2-36-7","lat":35.674441,"lon":139.675613},{"name":"児童発達支援・放課後等デイサービス　マリリン　スポーツ塾　初台","province":"東京都","city":"渋谷区","address":"渋谷区本町2-5-11三山ビル1階","lat":35.684004,"lon":139.683515},{"name":"Ａｒｔ＆Ｍｕｓｉｃ　豆庭　Ｍａｍｅ－Ｎｉｗａ","province":"東京都","city":"渋谷区","address":"渋谷区幡ヶ谷1-8-4リッツパラシオ202","lat":35.675572,"lon":139.672291},{"name":"ハッピー・テラス中野","province":"東京都","city":"中野区","address":"中野区中野4-7-1野口ビル7階","lat":35.709726,"lon":139.66348},{"name":"Ｐｕｒ　ａｉｌｅ　新井薬師","province":"東京都","city":"中野区","address":"中野区上高田5-35-9-1階","lat":35.716528,"lon":139.673759},{"name":"スタジオそら東中野","province":"東京都","city":"中野区","address":"中野区東中野4-27-33エムエス東中野ビル1階","lat":35.710963,"lon":139.689136},{"name":"発達支援センタージョイナス東中野教室","province":"東京都","city":"中野区","address":"中野区東中野1-50-2オクト森ビル1階","lat":35.705694,"lon":139.686381},{"name":"フリップ","province":"東京都","city":"中野区","address":"中野区中央5-38-13エスエス10A202","lat":35.699649,"lon":139.667274},{"name":"パソコンあいだっく","province":"東京都","city":"中野区","address":"中野区本町2-45-13山手ビル7階","lat":35.695861,"lon":139.682392},{"name":"アトリエあいだっく新中野","province":"東京都","city":"中野区","address":"中野区本町6-35-14アダチビル3階","lat":35.697244,"lon":139.662461},{"name":"おでんくらぶ","province":"東京都","city":"中野区","address":"中野区本町6-36-5シーアイマンション新中野102号","lat":35.697261,"lon":139.662286},{"name":"アトリエあいだっく","province":"東京都","city":"中野区","address":"中野区弥生町2-10-1霜田ビル1階","lat":35.692992,"lon":139.675802},{"name":"中野区療育センターゆめなりあ","province":"東京都","city":"中野区","address":"中野区弥生町5-5-2","lat":35.686165,"lon":139.666333},{"name":"スパーク中野センター","province":"東京都","city":"中野区","address":"中野区弥生町4-25-1","lat":35.686345,"lon":139.669297},{"name":"中野区　放課後デイサービスセンター　みずいろ","province":"東京都","city":"中野区","address":"中野区丸山一丁目17番2号","lat":35.725683,"lon":139.657739},{"name":"中野区子ども発達センター　たんぽぽ","province":"東京都","city":"中野区","address":"中野区丸山一丁目17番2号","lat":35.725683,"lon":139.657739},{"name":"Ｃａｔｃｈ　ａｎｄ　Ｓｍｉｌｅ","province":"東京都","city":"中野区","address":"中野区江古田4-7-3金子ビル2階","lat":35.724363,"lon":139.662826},{"name":"さくらそうキッズ","province":"東京都","city":"中野区","address":"中野区沼袋一丁目2番地7号","lat":35.717864,"lon":139.666968},{"name":"アプリ児童デイサービス沼袋","province":"東京都","city":"中野区","address":"中野区沼袋2-28-34","lat":35.722075,"lon":139.665684},{"name":"space","province":"東京都","city":"中野区","address":"中野区上鷺宮4-6-20イサカビル2階","lat":35.733861,"lon":139.630162},{"name":"ｓｐａｃｅ　Ｋｉｄ’ｓ．ｃｏｎ　鷺ノ宮","province":"東京都","city":"中野区","address":"中野区上鷺宮5-8-5ベル・ヴィベール102号","lat":35.727484,"lon":139.627135},{"name":"発達支援ルーム　にこっと","province":"東京都","city":"杉並区","address":"杉並区高円寺北3-40-13BIGVALLEY2階","lat":35.710514,"lon":139.64657},{"name":"スタジオあいだっく","province":"東京都","city":"杉並区","address":"杉並区高円寺南3-1-4キングスコートII4階","lat":35.697955,"lon":139.646929},{"name":"アンソレイユ","province":"東京都","city":"杉並区","address":"杉並区高円寺南2-35-15花月第一ビル2階","lat":35.699241,"lon":139.65442},{"name":"カノン","province":"東京都","city":"杉並区","address":"杉並区高円寺南3-16-20","lat":35.700299,"lon":139.645509},{"name":"プレミア･ケア･ジュニア阿佐ヶ谷店","province":"東京都","city":"杉並区","address":"杉並区阿佐谷南2-32-9-1階","lat":35.704443,"lon":139.644173},{"name":"ハッピーテラス荻窪教室","province":"東京都","city":"杉並区","address":"杉並区阿佐谷南3-12-4","lat":35.702762,"lon":139.628675},{"name":"バンブーワァオ阿佐ヶ谷校","province":"東京都","city":"杉並区","address":"杉並区阿佐谷南1-15-18伊藤ビル201-B号室","lat":35.699937,"lon":139.636905},{"name":"フェイト","province":"東京都","city":"杉並区","address":"杉並区梅里2-40-15-301","lat":35.697946,"lon":139.639313},{"name":"フォスター","province":"東京都","city":"杉並区","address":"杉並区和田2-41-7","lat":35.691728,"lon":139.655017},{"name":"よりみちくらぶ　ネコのトランク","province":"東京都","city":"杉並区","address":"杉並区成田東4-1-26-2階","lat":35.695118,"lon":139.63363},{"name":"ドルフィンキッズ","province":"東京都","city":"杉並区","address":"杉並区天沼2-4-1井上ビル203","lat":35.705323,"lon":139.623386},{"name":"よりみちくらぶ　トラのながぐつ","province":"東京都","city":"杉並区","address":"杉並区清水1-23-23","lat":35.710822,"lon":139.617953},{"name":"コロロ杉並少年隊","province":"東京都","city":"杉並区","address":"杉並区西荻北3-33-9","lat":35.706547,"lon":139.600343},{"name":"プレミア・ケア・ジュニア西荻窪店","province":"東京都","city":"杉並区","address":"杉並区上荻3-5-41階","lat":35.706864,"lon":139.607918},{"name":"みかんの木","province":"東京都","city":"杉並区","address":"杉並区南荻窪1-5-111階","lat":35.694962,"lon":139.617259},{"name":"放課後等デイサービスくじら","province":"東京都","city":"杉並区","address":"杉並区和泉3-22-15グランヴェール和泉101","lat":35.677813,"lon":139.647741},{"name":"プレミア・ケア・ジュニア代田橋店","province":"東京都","city":"杉並区","address":"杉並区和泉1-19-13","lat":35.674624,"lon":139.65859},{"name":"まぁぶる高井戸","province":"東京都","city":"杉並区","address":"杉並区高井戸東3-28-40小向高井戸ビル2階","lat":35.686774,"lon":139.616573},{"name":"くるみの木","province":"東京都","city":"杉並区","address":"杉並区上高井戸3-11-9","lat":35.676506,"lon":139.614629},{"name":"よりみちくらぶ　ヤギのサンダル","province":"東京都","city":"杉並区","address":"杉並区宮前2-10-42宮前ヴィレッジA棟104","lat":35.692521,"lon":139.612157},{"name":"手話でいきる子どもの児童発達支援・放課後等デイサービス　あ～とん塾","province":"東京都","city":"豊島区","address":"豊島区巣鴨3-6-12藤ビル2階","lat":35.734014,"lon":139.734409},{"name":"ハッピーキッズスペースみんと大塚","province":"東京都","city":"豊島区","address":"豊島区北大塚3-10-4岩田ビル1階","lat":35.734308,"lon":139.722004},{"name":"space","province":"東京都","city":"豊島区","address":"豊島区南大塚1-50-12糸原ビル2階","lat":35.730137,"lon":139.731812},{"name":"児童デイサービス・アニマートいけぶくろ","province":"東京都","city":"豊島区","address":"豊島区東池袋3-11-7","lat":35.732178,"lon":139.718835},{"name":"LITALICOジュニア池袋西口教室","province":"東京都","city":"豊島区","address":"豊島区池袋2-46-32階","lat":35.733719,"lon":139.710436},{"name":"オリーブキッズ　せんかわ","province":"東京都","city":"豊島区","address":"豊島区千川2-12-11府川ビル1階","lat":35.741868,"lon":139.693395},{"name":"エントランス池袋教室","province":"東京都","city":"豊島区","address":"豊島区要町2-9-12要町ホワイトビル2階E号","lat":35.735316,"lon":139.692765},{"name":"アフタースクールの会","province":"東京都","city":"豊島区","address":"豊島区長崎6-35-8","lat":35.735601,"lon":139.683005},{"name":"ジャックと豆の樹デイサービスセンター星","province":"東京都","city":"豊島区","address":"豊島区南長崎6-34-7風の樹ビル1F","lat":35.731899,"lon":139.679333},{"name":"放課後デイサービス　ホウェイルリゾート落合南長崎","province":"東京都","city":"豊島区","address":"豊島区南長崎3-6-14","lat":35.724172,"lon":139.687166},{"name":"放課後等デイサービス　ライトハウス","province":"東京都","city":"豊島区","address":"豊島区南長崎5-10-10エラール1階","lat":35.727174,"lon":139.68293},{"name":"運動発達支援スタジオＵＮＩＭＯ南長崎","province":"東京都","city":"豊島区","address":"豊島区南長崎4-1-1BAJビル1階","lat":35.723014,"lon":139.685841},{"name":"つみき第３","province":"東京都","city":"北区","address":"北区王子4-24-12-301","lat":35.76158,"lon":139.737196},{"name":"つみき第５","province":"東京都","city":"北区","address":"北区豊島1-17-4-100","lat":35.758939,"lon":139.73871},{"name":"放課後等デイサービス　あんプラス","province":"東京都","city":"北区","address":"北区栄町50-3","lat":35.751298,"lon":139.746207},{"name":"こどもプラス１","province":"東京都","city":"北区","address":"北区田端新町3-34-1","lat":35.742334,"lon":139.764337},{"name":"つみき第２","province":"東京都","city":"北区","address":"北区王子本町1-19-1","lat":35.753856,"lon":139.733005},{"name":"放課後デイサービス勉強レストランそうなんだ！！","province":"東京都","city":"北区","address":"北区滝野川1-68-7早稲田ビル2階","lat":35.748068,"lon":139.733955},{"name":"このこのリーフ　滝野川","province":"東京都","city":"北区","address":"北区滝野川五丁目41番3号","lat":35.748126,"lon":139.723126},{"name":"このこのリーフ滝野川　第２","province":"東京都","city":"北区","address":"北区滝野川7-20-1笹岡ビル1階","lat":35.742496,"lon":139.720329},{"name":"飛鳥晴山苑　放課後等デイサービスさくら","province":"東京都","city":"北区","address":"北区西ケ原4-51-1","lat":35.74141,"lon":139.735978},{"name":"スキップランド　西ヶ原","province":"東京都","city":"北区","address":"北区西ケ原四丁目2番19号","lat":35.742396,"lon":139.739591},{"name":"つみき第６","province":"東京都","city":"北区","address":"北区西ケ原3-54-8-101","lat":35.744193,"lon":139.737508},{"name":"つみき第１","province":"東京都","city":"北区","address":"北区上十条1-19-6","lat":35.759352,"lon":139.723289},{"name":"放課後等デイサービス　ぴーす","province":"東京都","city":"北区","address":"北区上十条5-4-1サンタケビル1階","lat":35.764799,"lon":139.717381},{"name":"スキップランド　神谷","province":"東京都","city":"北区","address":"北区神谷二丁目23番15号","lat":35.771257,"lon":139.728288},{"name":"特定非営利活動法人クレセール心の相談室","province":"東京都","city":"北区","address":"北区赤羽1-41-5ATエミネンス2階201号室","lat":35.781599,"lon":139.719725},{"name":"第２特定非営利活動法人クレセール心の相談室","province":"東京都","city":"北区","address":"北区赤羽2-69-4ヴェルメゾン赤羽1階","lat":35.782555,"lon":139.722752},{"name":"児童デイサービス　まぁる","province":"東京都","city":"北区","address":"北区浮間四丁目32番20号松岡ビル2階","lat":35.791195,"lon":139.691607},{"name":"つみき第４","province":"東京都","city":"北区","address":"北区浮間4-5-5-101","lat":35.789051,"lon":139.697532},{"name":"放課後等デイサービスしらゆり　あそぼーよ　みんなで","province":"東京都","city":"北区","address":"北区赤羽北3丁目21番20-102号","lat":35.779105,"lon":139.705468},{"name":"わいわいプラス荒川教室","province":"東京都","city":"荒川区","address":"荒川区町屋5-5-19コーポアポロン1階","lat":35.749828,"lon":139.779288},{"name":"スキップランド　町屋","province":"東京都","city":"荒川区","address":"荒川区荒川5-40-1","lat":35.739618,"lon":139.7763},{"name":"つばめクラブ児童デイサービス","province":"東京都","city":"荒川区","address":"荒川区荒川6-61-1ヒロマチヤ101号室","lat":35.742154,"lon":139.775114},{"name":"アトリエ　Ｌｏｐ","province":"東京都","city":"荒川区","address":"荒川区荒川4-8-1-101アルビオン宮地","lat":35.737035,"lon":139.77772},{"name":"放課後等デイサービス　あんプラス三ノ輪","province":"東京都","city":"荒川区","address":"荒川区南千住1-19-1","lat":35.73338,"lon":139.790266},{"name":"放課後等デイサービスハート","province":"東京都","city":"荒川区","address":"荒川区西尾久7丁目5番11号マンションシリウスオグ1階","lat":35.750424,"lon":139.757787},{"name":"療養通所それいゆ","province":"東京都","city":"荒川区","address":"荒川区東尾久3-19-6","lat":35.747125,"lon":139.771147},{"name":"ハッピーテラス尾久教室","province":"東京都","city":"荒川区","address":"荒川区東尾久4-8-14鈴木ビル1階","lat":35.742973,"lon":139.768661},{"name":"ＺＩＰＰＹＫＩＤＳ　ＡＮＮＥＸ　荒川","province":"東京都","city":"荒川区","address":"荒川区東尾久3-6-82階","lat":35.744825,"lon":139.772414},{"name":"こぱんはうす　さくら","province":"東京都","city":"荒川区","address":"荒川区西日暮里6-23-5光ビル1階","lat":35.736071,"lon":139.770115},{"name":"スマイルスイッチＯＮ","province":"東京都","city":"荒川区","address":"荒川区東日暮里6-45-3","lat":35.728811,"lon":139.775542},{"name":"かすみくらぶ","province":"東京都","city":"荒川区","address":"荒川区東日暮里6-29-5サンハイツ磯山101","lat":35.732927,"lon":139.775417},{"name":"このこのリーフ　板橋区役所前","province":"東京都","city":"板橋区","address":"板橋区板橋2-64-13Y&Iビル2階","lat":35.750331,"lon":139.709543},{"name":"フォレストケア","province":"東京都","city":"板橋区","address":"板橋区弥生町49-11NYビル中板橋1F","lat":35.755088,"lon":139.692495},{"name":"ライブリーライフそよかぜ","province":"東京都","city":"板橋区","address":"板橋区大山町30-18大澤ビル2階","lat":35.748673,"lon":139.700764},{"name":"クローバー　よつばのいえ","province":"東京都","city":"板橋区","address":"板橋区熊野町15-5","lat":35.742585,"lon":139.707197},{"name":"レインボー熊野町","province":"東京都","city":"板橋区","address":"板橋区熊野町15-1パレ・ドール池袋北101","lat":35.742546,"lon":139.707477},{"name":"児童デイサービス　悠湯館","province":"東京都","city":"板橋区","address":"板橋区大谷口北町78-6","lat":35.749205,"lon":139.685779},{"name":"東京ＹＷＣＡキッズガーデン","province":"東京都","city":"板橋区","address":"板橋区坂下1-34-25","lat":35.780993,"lon":139.684505},{"name":"児童デイサービス・アニマート蓮根駅前","province":"東京都","city":"板橋区","address":"板橋区坂下2-16-8","lat":35.784001,"lon":139.679436},{"name":"放課後等デイサービス事業所　ウイング・ケアサービス","province":"東京都","city":"板橋区","address":"板橋区蓮根2-21-5計良ビル201","lat":35.782679,"lon":139.676834},{"name":"板橋ゆめの園　はすねっこ","province":"東京都","city":"板橋区","address":"板橋区蓮根3-6-3","lat":35.785912,"lon":139.6759},{"name":"児童放課後等デイサービス　ノア","province":"東京都","city":"板橋区","address":"板橋区蓮根2-19-4足立ビル1階101号室","lat":35.782473,"lon":139.678448},{"name":"フォレストケア板橋本町","province":"東京都","city":"板橋区","address":"板橋区宮本町1-1健生ビル1階","lat":35.762391,"lon":139.704829},{"name":"放課後等デイサービス　第２もちの木","province":"東京都","city":"板橋区","address":"板橋区富士見町7-11","lat":35.761388,"lon":139.700691},{"name":"このこのランド上板橋","province":"東京都","city":"板橋区","address":"板橋区中台1丁目41-12","lat":35.767039,"lon":139.677079},{"name":"若葉ゆめの園多機能型事業所","province":"東京都","city":"板橋区","address":"板橋区若木3-15-1","lat":35.772105,"lon":139.674201},{"name":"ドリームボックスときわ台","province":"東京都","city":"板橋区","address":"板橋区南常盤台2-9-13キャッスルミナミときわ台1階","lat":35.756963,"lon":139.685409},{"name":"キッズステーションフレンズ","province":"東京都","city":"板橋区","address":"板橋区桜川2-28-31","lat":35.759937,"lon":139.678362},{"name":"このこのランド桜川五本けやき","province":"東京都","city":"板橋区","address":"板橋区桜川3-23-9ヒルトップYS1階","lat":35.761112,"lon":139.673843},{"name":"キャプテンキッズ","province":"東京都","city":"板橋区","address":"板橋区上板橋2-13-3ライオンズマンション1F","lat":35.762376,"lon":139.670993},{"name":"放課後サポートわくわく","province":"東京都","city":"板橋区","address":"板橋区西台4-4-11キャッスル西台","lat":35.769708,"lon":139.667493},{"name":"児童デイサービス　もちの木","province":"東京都","city":"板橋区","address":"板橋区高島平1-34-7","lat":35.783648,"lon":139.670179},{"name":"放課後等デイサービス事業所　てんとう虫","province":"東京都","city":"板橋区","address":"板橋区高島平9-28-7技興舎ビル101","lat":35.7899,"lon":139.670137},{"name":"アプリ児童デイサービス高島平","province":"東京都","city":"板橋区","address":"板橋区高島平7-43-2Fortress.U101号室","lat":35.792108,"lon":139.65788},{"name":"ドリームボックス高島平","province":"東京都","city":"板橋区","address":"板橋区高島平四丁目23番15号ハイネス新高1階","lat":35.789402,"lon":139.652444},{"name":"このこのリーフ西台駅前","province":"東京都","city":"板橋区","address":"板橋区高島平1丁目80番13号","lat":35.786764,"lon":139.673181},{"name":"アプリ児童デイサービス高島平２号館","province":"東京都","city":"板橋区","address":"板橋区高島平7丁目18番18号高島平セントラルコート","lat":35.790916,"lon":139.656538},{"name":"放課後等デイサービス　オレンジスイート","province":"東京都","city":"板橋区","address":"板橋区徳丸七丁目24番15号徳丸ビル2階","lat":35.781287,"lon":139.665215},{"name":"このこのリーフ","province":"東京都","city":"板橋区","address":"板橋区成増1-14-15アーバンスパークビル102号","lat":35.775829,"lon":139.632402},{"name":"シルバーハート放課後デイサービスひまわり　成増","province":"東京都","city":"板橋区","address":"板橋区成増1-5-11第一相互マンション1階","lat":35.773251,"lon":139.632588},{"name":"ＮＰＯ法人ふれあい学童　空","province":"東京都","city":"練馬区","address":"練馬区豊玉北2-16-3セントローズ江古田1階","lat":35.734612,"lon":139.664853},{"name":"発達支援室あかねっこ　練馬教室","province":"東京都","city":"練馬区","address":"練馬区豊玉北4-27-2練馬民団ビル1階","lat":35.736917,"lon":139.657093},{"name":"かめの子教室","province":"東京都","city":"練馬区","address":"練馬区貫井3-28-6","lat":35.738183,"lon":139.626095},{"name":"運動発達支援スタジオＵＮＩＭＯ中村橋","province":"東京都","city":"練馬区","address":"練馬区貫井1-2-1中村橋サンパレス111","lat":35.73713,"lon":139.637711},{"name":"発達支援センタージョイナス　向山教室","province":"東京都","city":"練馬区","address":"練馬区向山一丁目15番2号上野ビル3階","lat":35.737122,"lon":139.639158},{"name":"発達支援センタージョイナス中村橋教室","province":"東京都","city":"練馬区","address":"練馬区中村北3-9-8第2真ビル201","lat":35.736372,"lon":139.640475},{"name":"放課後等デイサービス　ぱれっと","province":"東京都","city":"練馬区","address":"練馬区三原台2-18-2グリーンビル1階","lat":35.755747,"lon":139.604369},{"name":"ラフカｋｉｄｓ","province":"東京都","city":"練馬区","address":"練馬区谷原4-20-31ディアコート・アクア1階","lat":35.757977,"lon":139.614412},{"name":"すまいる・キッズ＆すまいる・ツリー","province":"東京都","city":"練馬区","address":"練馬区谷原5-22-2MKLビル2階","lat":35.750212,"lon":139.608163},{"name":"このこのリーフ谷原","province":"東京都","city":"練馬区","address":"練馬区谷原6-3-5","lat":35.754128,"lon":139.610152},{"name":"すまいる・ステップ","province":"東京都","city":"練馬区","address":"練馬区高野台3-12-9メゾンドサントロペ1階","lat":35.743174,"lon":139.615796},{"name":"たまみずき","province":"東京都","city":"練馬区","address":"練馬区石神井町7-32-71階","lat":35.745462,"lon":139.596162},{"name":"児童デイサービス　陽（てぃーら）","province":"東京都","city":"練馬区","address":"練馬区石神井台7-26-6","lat":35.731557,"lon":139.577958},{"name":"くまさん","province":"東京都","city":"練馬区","address":"練馬区石神井台5-25-27","lat":35.738748,"lon":139.587363},{"name":"児童デイ　月のうさぎ","province":"東京都","city":"練馬区","address":"練馬区石神井台8-7-16","lat":35.735735,"lon":139.580149},{"name":"このこのリーフ練馬","province":"東京都","city":"練馬区","address":"練馬区石神井台5-22-41フォーラム石神井106","lat":35.737085,"lon":139.588804},{"name":"ふるーれプラス","province":"東京都","city":"練馬区","address":"練馬区石神井台3-24-35","lat":35.743659,"lon":139.590209},{"name":"放課後デイサービス　うぃんくる","province":"東京都","city":"練馬区","address":"練馬区関町北3-1-3MSビル1階","lat":35.723272,"lon":139.572712},{"name":"発達支援研究所スプラウト武蔵関教室","province":"東京都","city":"練馬区","address":"練馬区関町北2-24-10LUCE関町001号","lat":35.726927,"lon":139.5757},{"name":"あいの風キッズステーション","province":"東京都","city":"練馬区","address":"練馬区関町東2-15-8マンション柚子101号","lat":35.728452,"lon":139.579008},{"name":"いまここ大泉学園","province":"東京都","city":"練馬区","address":"練馬区大泉学園町8-7-35","lat":35.771986,"lon":139.594167},{"name":"児童デイサービス　ＯＨＡＮＡ　ＫＩＤＳ大泉学園","province":"東京都","city":"練馬区","address":"練馬区大泉学園町8-25-18エスファルド102","lat":35.774869,"lon":139.595297},{"name":"療育ルーム　りんごの木","province":"東京都","city":"練馬区","address":"練馬区大泉学園町1-28-5","lat":35.760268,"lon":139.588723},{"name":"ふれあい学童　空","province":"東京都","city":"練馬区","address":"練馬区大泉町5-35-1ジョイハウス北園1階","lat":35.758096,"lon":139.590462},{"name":"発達支援室あかねっこ　大泉教室","province":"東京都","city":"練馬区","address":"練馬区東大泉3-19-6第一豊田ビル2階","lat":35.7515,"lon":139.585854},{"name":"でぃあな","province":"東京都","city":"練馬区","address":"練馬区東大泉4-25-16","lat":35.752022,"lon":139.583354},{"name":"はつらつ","province":"東京都","city":"練馬区","address":"練馬区南大泉5-3-3","lat":35.749653,"lon":139.578802},{"name":"ハーモニー","province":"東京都","city":"練馬区","address":"練馬区西大泉3-11-4","lat":35.753955,"lon":139.581637},{"name":"このこのリーフ光が丘","province":"東京都","city":"練馬区","address":"練馬区旭町1-41-12","lat":35.766268,"lon":139.620131},{"name":"練馬区立こども発達支援センター","province":"東京都","city":"練馬区","address":"練馬区光が丘3-1-1","lat":35.754201,"lon":139.630961},{"name":"みかん","province":"東京都","city":"練馬区","address":"練馬区春日町3-1-12クリスタルエム1階","lat":35.748121,"lon":139.644566},{"name":"はじめのいっぽ春日町","province":"東京都","city":"練馬区","address":"練馬区春日町2-28-3春日町児童館1階","lat":35.757087,"lon":139.646351},{"name":"シルバーハート放課後デイサービスひまわり","province":"東京都","city":"練馬区","address":"練馬区春日町5-33-30-2F","lat":35.751223,"lon":139.637419},{"name":"春日びより","province":"東京都","city":"練馬区","address":"練馬区春日町5-33-33春日町NCビル1階","lat":35.751326,"lon":139.637855},{"name":"発達支援室あかねっこ　春日町教室","province":"東京都","city":"練馬区","address":"練馬区高松2-26-6サングリーン高松2階","lat":35.750937,"lon":139.631497},{"name":"にじ色くらぶ","province":"東京都","city":"練馬区","address":"練馬区高松6-5-8フジハイムII102","lat":35.756694,"lon":139.618098},{"name":"あんしぇる","province":"東京都","city":"練馬区","address":"練馬区北町6-27-11パチェフォレスタ1階","lat":35.760114,"lon":139.652831},{"name":"つむぎの里　雅　錦","province":"東京都","city":"練馬区","address":"練馬区錦1-16-10","lat":35.757665,"lon":139.670308},{"name":"白い鳥","province":"東京都","city":"足立区","address":"足立区大谷田4-1-18","lat":35.777295,"lon":139.83809},{"name":"あしたも笑顔　谷中公園","province":"東京都","city":"足立区","address":"足立区東和5-14-18-1F","lat":35.775939,"lon":139.838676},{"name":"児童デイサービス　にじいろ東和","province":"東京都","city":"足立区","address":"足立区東和4-4-20","lat":35.771046,"lon":139.84307},{"name":"からふるＫids綾瀬","province":"東京都","city":"足立区","address":"足立区綾瀬2-46-6河合ビル1階","lat":35.762183,"lon":139.830591},{"name":"あしたも笑顔　北綾瀬","province":"東京都","city":"足立区","address":"足立区谷中2-10-1小倉ビル1階","lat":35.776212,"lon":139.832429},{"name":"放課後等デイサービスおはな","province":"東京都","city":"足立区","address":"足立区谷中2-14-3皐月マンション102","lat":35.775345,"lon":139.832329},{"name":"放課後等デイサービス　笑がお","province":"東京都","city":"足立区","address":"足立区青井三丁目5番26号101号室","lat":35.770298,"lon":139.818159},{"name":"まつぼっくりツリー","province":"東京都","city":"足立区","address":"足立区足立3-10-6ヴァロービル2階","lat":35.764746,"lon":139.809093},{"name":"児童デイサービスＫｏＭｏＲｅＢｉ北千住","province":"東京都","city":"足立区","address":"足立区千住曙町37-10段上ビル2階","lat":35.741827,"lon":139.816091},{"name":"発達支援室あかねっこ　北千住教室　サポートワン","province":"東京都","city":"足立区","address":"足立区千住旭町7-25","lat":35.746968,"lon":139.806125},{"name":"きたせんじゅステップ第３","province":"東京都","city":"足立区","address":"足立区千住大川町37-2","lat":35.755477,"lon":139.798011},{"name":"きたせんじゅステップ第２","province":"東京都","city":"足立区","address":"足立区千住寿町38-8","lat":35.754939,"lon":139.800241},{"name":"きたせんじゅステップ","province":"東京都","city":"足立区","address":"足立区千住龍田町3-13","lat":35.750734,"lon":139.796278},{"name":"えにし　こどもプラス","province":"東京都","city":"足立区","address":"足立区神明2-2-11","lat":35.793165,"lon":139.831742},{"name":"放課後等デイサービスあおぞら六木","province":"東京都","city":"足立区","address":"足立区六木1-4-17","lat":35.789746,"lon":139.837667},{"name":"ぷらちな児童デイ","province":"東京都","city":"足立区","address":"足立区加平1-8-23","lat":35.774848,"lon":139.826032},{"name":"あある　まつりかフラワー","province":"東京都","city":"足立区","address":"足立区花畑4-23-8グリーンパーク花畑IV101号室","lat":35.804494,"lon":139.810277},{"name":"あったかいデイ　花畑","province":"東京都","city":"足立区","address":"足立区花畑5-12-1花畑団地82号棟102号","lat":35.807,"lon":139.809927},{"name":"キッズの森第３　南花畑","province":"東京都","city":"足立区","address":"足立区南花畑4-31-4MY第2ビル101号室","lat":35.799053,"lon":139.817896},{"name":"あある　まつりか","province":"東京都","city":"足立区","address":"足立区東保木間2-6-8","lat":35.794351,"lon":139.81158},{"name":"児童デイサービス　ハートぽっぽ　ＥＡＳＴ","province":"東京都","city":"足立区","address":"足立区東保木間2-23-5","lat":35.794601,"lon":139.814166},{"name":"児童デイサービスハートぽっぽ","province":"東京都","city":"足立区","address":"足立区保木間1-5-21","lat":35.789587,"lon":139.805111},{"name":"キッズの森","province":"東京都","city":"足立区","address":"足立区保木間2-2-1オオサキ竹ノ塚マンション1階","lat":35.793867,"lon":139.802675},{"name":"にこにこキッズ","province":"東京都","city":"足立区","address":"足立区保木間三丁目33番8号第126新井ビル102号室","lat":35.795308,"lon":139.809947},{"name":"児童デイサービス　リズム東伊興","province":"東京都","city":"足立区","address":"足立区東伊興3-14-23第二佐藤ビル1階","lat":35.802777,"lon":139.791804},{"name":"すかいきっず","province":"東京都","city":"足立区","address":"足立区西保木間1-21-7-101","lat":35.796695,"lon":139.798414},{"name":"パワフルキッズ西保木間","province":"東京都","city":"足立区","address":"足立区西保木間2-5-5","lat":35.798978,"lon":139.797856},{"name":"ハッピートライアングル竹ノ塚","province":"東京都","city":"足立区","address":"足立区竹の塚1-30-1-1階","lat":35.791567,"lon":139.792187},{"name":"児童デイサービス　たのしー","province":"東京都","city":"足立区","address":"足立区六月3-3-4","lat":35.785737,"lon":139.790796},{"name":"みつばちはうす","province":"東京都","city":"足立区","address":"足立区六月3-3-5","lat":35.785824,"lon":139.790624},{"name":"キッズの森　六月","province":"東京都","city":"足立区","address":"足立区六月1-5-28相川ビル1階","lat":35.785702,"lon":139.801015},{"name":"でいじいすまいる","province":"東京都","city":"足立区","address":"足立区島根2-2-1島根グリーンフォレスト","lat":35.780641,"lon":139.802892},{"name":"Ｏｎｌｙ　Ｏｎｅ足立","province":"東京都","city":"足立区","address":"足立区島根3-1-10","lat":35.7791,"lon":139.796996},{"name":"パワフルキッズ","province":"東京都","city":"足立区","address":"足立区入谷1-16-13","lat":35.805459,"lon":139.766872},{"name":"すかいきっずぷらす","province":"東京都","city":"足立区","address":"足立区西新井1-38-11オリエント第6ビル102号","lat":35.78246,"lon":139.780333},{"name":"児童デイサービス　リズム西新井","province":"東京都","city":"足立区","address":"足立区西新井本町1-19-111階","lat":35.776388,"lon":139.776911},{"name":"キッズの森第２","province":"東京都","city":"足立区","address":"足立区梅田1-15-9-1階","lat":35.764387,"lon":139.800157},{"name":"わいわいプラス足立教室","province":"東京都","city":"足立区","address":"足立区関原3-2-18","lat":35.769814,"lon":139.79133},{"name":"ゆうゆうらいふアカデミー西新井","province":"東京都","city":"足立区","address":"足立区関原1-19-6メゾンセンチュリー202","lat":35.76369,"lon":139.787333},{"name":"ふきのとう","province":"東京都","city":"足立区","address":"足立区本木1-21-15","lat":35.762426,"lon":139.784609},{"name":"ふきのとう２","province":"東京都","city":"足立区","address":"足立区本木1-19-5-101","lat":35.762576,"lon":139.784767},{"name":"こぱんはうすさくら　本木教室","province":"東京都","city":"足立区","address":"足立区本木西町1-20宮内サンハイツ1F","lat":35.760068,"lon":139.780676},{"name":"縁カレッジ","province":"東京都","city":"足立区","address":"足立区鹿浜4-26-4トーボービル1号室","lat":35.783473,"lon":139.756716},{"name":"療育室つばさ","province":"東京都","city":"足立区","address":"足立区扇1-44-15","lat":35.766673,"lon":139.776915},{"name":"放課後等デイサービス　キッズパーク","province":"東京都","city":"葛飾区","address":"葛飾区小菅4-10-6下井ビル2階","lat":35.761924,"lon":139.825061},{"name":"アポロキッズクラブお花茶屋","province":"東京都","city":"葛飾区","address":"葛飾区お花茶屋2-4-18","lat":35.751745,"lon":139.839849},{"name":"アポロキッズクラブ東堀切","province":"東京都","city":"葛飾区","address":"葛飾区東堀切3-7-3","lat":35.7561,"lon":139.836146},{"name":"放課後等デイサービスつぼみ","province":"東京都","city":"葛飾区","address":"葛飾区堀切7-23-4-1階","lat":35.75602,"lon":139.832113},{"name":"縁ジェルキッズ","province":"東京都","city":"葛飾区","address":"葛飾区堀切5-50-9吉田ビル1階","lat":35.751084,"lon":139.828494},{"name":"ゆりのねこどもDayさぽーとⅡ","province":"東京都","city":"葛飾区","address":"葛飾区四つ木1-29-151F","lat":35.734529,"lon":139.834856},{"name":"児童デイサービス　にじいろ立石","province":"東京都","city":"葛飾区","address":"葛飾区立石8-53-4","lat":35.738689,"lon":139.858067},{"name":"広伸会　奥戸教室","province":"東京都","city":"葛飾区","address":"葛飾区奥戸1-18-181階","lat":35.729184,"lon":139.856585},{"name":"広伸会　東新小岩教室","province":"東京都","city":"葛飾区","address":"葛飾区東新小岩5-18-11階","lat":35.72331,"lon":139.857049},{"name":"広伸会　西新小岩教室","province":"東京都","city":"葛飾区","address":"葛飾区西新小岩4-29-81階","lat":35.720688,"lon":139.85306},{"name":"児童デイサービス「優」","province":"東京都","city":"葛飾区","address":"葛飾区西水元1-18-1","lat":35.7806,"lon":139.851652},{"name":"かつしか風の子クラブ","province":"東京都","city":"葛飾区","address":"葛飾区西水元5-11-3","lat":35.78446,"lon":139.854533},{"name":"スマートキッズプラス水元","province":"東京都","city":"葛飾区","address":"葛飾区水元4-6-19プリンス2階","lat":35.787874,"lon":139.860271},{"name":"児童発達支援・放課後等デイサービス　つばさクラブ東水元","province":"東京都","city":"葛飾区","address":"葛飾区東水元5-24-1","lat":35.792273,"lon":139.864376},{"name":"児童デイサービス　あい","province":"東京都","city":"葛飾区","address":"葛飾区南水元2-5-8","lat":35.779328,"lon":139.852644},{"name":"あしたも笑顔　金町","province":"東京都","city":"葛飾区","address":"葛飾区東金町2-11-61階","lat":35.776009,"lon":139.867082},{"name":"このこのリーフ葛飾","province":"東京都","city":"葛飾区","address":"葛飾区東金町1-40-4金町北口ビル2階","lat":35.770673,"lon":139.872335},{"name":"ぷれゾンクラブ金町","province":"東京都","city":"葛飾区","address":"葛飾区東金町3-41-18","lat":35.77517,"lon":139.87234},{"name":"児童発達支援・放課後等デイサービス　もなか","province":"東京都","city":"葛飾区","address":"葛飾区新宿二丁目12番25号","lat":35.761836,"lon":139.856783},{"name":"児童デイサービス　にじいろ柴又","province":"東京都","city":"葛飾区","address":"葛飾区柴又7-14-4","lat":35.759842,"lon":139.879159},{"name":"のぞみ発達支援室たかさご","province":"東京都","city":"葛飾区","address":"葛飾区高砂7-26-3","lat":35.756995,"lon":139.867121},{"name":"児童発達支援・放課後等デイサービス　つばさクラブ高砂","province":"東京都","city":"葛飾区","address":"葛飾区高砂8-28-12","lat":35.752754,"lon":139.870768},{"name":"ハッピーテラス葛飾高砂","province":"東京都","city":"葛飾区","address":"葛飾区高砂3-11-14ステーションハイツ高砂106号","lat":35.750426,"lon":139.867633},{"name":"スマートキッズプラス亀有","province":"東京都","city":"葛飾区","address":"葛飾区亀有3-13-2亀有鞠子ビル2階","lat":35.763133,"lon":139.847781},{"name":"ＬＤサポート・療育　ソラアルＳＳＥ","province":"東京都","city":"葛飾区","address":"葛飾区亀有五丁目34番10-201号","lat":35.767505,"lon":139.848792},{"name":"のぞみ学園かめあり","province":"東京都","city":"葛飾区","address":"葛飾区亀有2-22-11","lat":35.760067,"lon":139.852535},{"name":"広伸会　亀有教室","province":"東京都","city":"葛飾区","address":"葛飾区亀有2-73-10Yビル1階","lat":35.76195,"lon":139.852536},{"name":"放課後等デイサービス　ゆめ","province":"東京都","city":"葛飾区","address":"葛飾区青戸一丁目9番23号ジュネパレス葛飾第11階","lat":35.744407,"lon":139.855712},{"name":"児童デイ　お花ちゃや","province":"東京都","city":"葛飾区","address":"葛飾区白鳥3-15-121階","lat":35.75239,"lon":139.843718},{"name":"アポロキッズクラブ","province":"東京都","city":"葛飾区","address":"葛飾区白鳥三丁目31番9号","lat":35.754709,"lon":139.843754},{"name":"広伸会　白鳥教室","province":"東京都","city":"葛飾区","address":"葛飾区白鳥3-6-121階","lat":35.750032,"lon":139.846121},{"name":"ファーストドリーム新堀","province":"東京都","city":"江戸川区","address":"江戸川区新堀1-9-18","lat":35.704909,"lon":139.885891},{"name":"たいよう　児童デイサービス瑞江","province":"東京都","city":"江戸川区","address":"江戸川区瑞江2丁目24番8号シェアヴィ瑞江1階","lat":35.696858,"lon":139.898101},{"name":"ＤＲＥＡＭ　ＫＩＤＳ　ＣＬＵＢ","province":"東京都","city":"江戸川区","address":"江戸川区瑞江1-56-4","lat":35.6979,"lon":139.895674},{"name":"スマートキッズプラス瑞江","province":"東京都","city":"江戸川区","address":"江戸川区東瑞江3-55-18","lat":35.690136,"lon":139.897413},{"name":"スタジオｐｌｕｓ＋瑞江教室","province":"東京都","city":"江戸川区","address":"江戸川区東瑞江3-41-6UHRビル201号室","lat":35.691533,"lon":139.895141},{"name":"コアンティ","province":"東京都","city":"江戸川区","address":"江戸川区大杉1-23-16","lat":35.707668,"lon":139.876003},{"name":"ハッピーテラス一之江教室","province":"東京都","city":"江戸川区","address":"江戸川区一之江8-17-17PRIMOND2階","lat":35.686477,"lon":139.883587},{"name":"ＧＲＩＰ　キッズ　一之江校","province":"東京都","city":"江戸川区","address":"江戸川区一之江7-30-6カーサクレセール102号","lat":35.688612,"lon":139.880734},{"name":"スマートキッズプラス船堀","province":"東京都","city":"江戸川区","address":"江戸川区松江4-12-7山種小松川ビル2階","lat":35.695566,"lon":139.871507},{"name":"ＪＮＣ松江","province":"東京都","city":"江戸川区","address":"江戸川区松江4-13-6","lat":35.695341,"lon":139.871804},{"name":"こいわステップ","province":"東京都","city":"江戸川区","address":"江戸川区松島4-46-16","lat":35.713666,"lon":139.860235},{"name":"こいわステップ第２","province":"東京都","city":"江戸川区","address":"江戸川区松島1-20-21-1階・2階","lat":35.702684,"lon":139.864627},{"name":"広伸会　江戸川教室","province":"東京都","city":"江戸川区","address":"江戸川区松島3-46-10-102","lat":35.709844,"lon":139.865904},{"name":"児童デイサービスばんびーの","province":"東京都","city":"江戸川区","address":"江戸川区東小松川2-31-6レジデンシャル五洋103","lat":35.695924,"lon":139.867557},{"name":"スマートキッズプラス平井","province":"東京都","city":"江戸川区","address":"江戸川区平井5-24-8リバースポイント2F号室","lat":35.707627,"lon":139.843634},{"name":"放課後デイサービス　キッズピース平井","province":"東京都","city":"江戸川区","address":"江戸川区平井6丁目14番10号にしきビル2階","lat":35.706952,"lon":139.839993},{"name":"コラゾン平井","province":"東京都","city":"江戸川区","address":"江戸川区平井4-8-14高橋ビル1階","lat":35.705683,"lon":139.844915},{"name":"ファーストドリーム上一色","province":"東京都","city":"江戸川区","address":"江戸川区上一色1-4-17","lat":35.723682,"lon":139.870867},{"name":"にじ北小岩","province":"東京都","city":"江戸川区","address":"江戸川区北小岩6-11-4ホテルスカイコート小岩101","lat":35.742933,"lon":139.883426},{"name":"児童デイあみりあ北","province":"東京都","city":"江戸川区","address":"江戸川区北小岩1-15-2","lat":35.736653,"lon":139.891159},{"name":"放課後等デイサービス　あんず　江戸川","province":"東京都","city":"江戸川区","address":"江戸川区東小岩1-9-9長寿メディカルセンター202","lat":35.72363,"lon":139.889785},{"name":"児童デイあみりあ","province":"東京都","city":"江戸川区","address":"江戸川区南小岩4-10-11","lat":35.723697,"lon":139.882485},{"name":"児童デイサービス　生活塾みずならの木　南小岩","province":"東京都","city":"江戸川区","address":"江戸川区南小岩7-37-18クレドハイツ小岩102号室","lat":35.728482,"lon":139.88584},{"name":"オレンジスクール　小岩教室","province":"東京都","city":"江戸川区","address":"江戸川区西小岩2-20-16","lat":35.734106,"lon":139.877921},{"name":"児童デイサービス　ばんびーのしのざき","province":"東京都","city":"江戸川区","address":"江戸川区篠崎町一丁目7番2号","lat":35.708728,"lon":139.903928},{"name":"スマートキッズプラス南篠崎","province":"東京都","city":"江戸川区","address":"江戸川区南篠崎町2-16-1第5ストークマンション1階","lat":35.692661,"lon":139.900468},{"name":"スマートキッズプラス南篠崎第二","province":"東京都","city":"江戸川区","address":"江戸川区南篠崎町三丁目24番7号島村事務所1階","lat":35.694619,"lon":139.900365},{"name":"ファーストドリーム瑞江","province":"東京都","city":"江戸川区","address":"江戸川区南篠崎町2-9-2","lat":35.692103,"lon":139.900165},{"name":"ファーストドリーム南篠崎","province":"東京都","city":"江戸川区","address":"江戸川区南篠崎町2-9-2","lat":35.692103,"lon":139.900165},{"name":"おおぞら・子どもデイセンター","province":"東京都","city":"江戸川区","address":"江戸川区東松本2-17-15","lat":35.722189,"lon":139.881002},{"name":"児童デイサービス「ぷくぷく」","province":"東京都","city":"江戸川区","address":"江戸川区鹿骨3-12-17ロンジェヴィテえどがわ1階","lat":35.71386,"lon":139.891749},{"name":"ククルの実","province":"東京都","city":"江戸川区","address":"江戸川区鹿骨一丁目59番12号鹿骨センターハイツ101","lat":35.710089,"lon":139.890013},{"name":"キッズランド","province":"東京都","city":"江戸川区","address":"江戸川区鹿骨5-29-1山田貸事務所1階","lat":35.716026,"lon":139.885299},{"name":"わくわくＧＡＴＥ江戸川","province":"東京都","city":"江戸川区","address":"江戸川区江戸川3-50-20","lat":35.682775,"lon":139.889058},{"name":"スマートキッズジュニア船掘","province":"東京都","city":"江戸川区","address":"江戸川区北葛西4-5-7","lat":35.673785,"lon":139.863233},{"name":"スマートキッズプラス北葛西","province":"東京都","city":"江戸川区","address":"江戸川区北葛西四丁目22-11号YSビル1階","lat":35.670694,"lon":139.866486},{"name":"たいよう　児童デイサービス船堀","province":"東京都","city":"江戸川区","address":"江戸川区北葛西一丁目21番18号リカーハイツ1階","lat":35.680342,"lon":139.861197},{"name":"放課後等デイサービス　キッズピース西葛西","province":"東京都","city":"江戸川区","address":"江戸川区北葛西4-13-30佐藤ビル1階","lat":35.669683,"lon":139.861589},{"name":"日本重症心身障害児支援協会　多機能型ステーション　望","province":"東京都","city":"江戸川区","address":"江戸川区中葛西5-4-4","lat":35.662948,"lon":139.865281},{"name":"ハッピーテラス葛西教室","province":"東京都","city":"江戸川区","address":"江戸川区中葛西3-16-17パネフリアドビル2階","lat":35.664395,"lon":139.869447},{"name":"ふるーる","province":"東京都","city":"江戸川区","address":"江戸川区東葛西6-48-18","lat":35.661951,"lon":139.880754},{"name":"ふるーるの森","province":"東京都","city":"江戸川区","address":"江戸川区東葛西5-2-2ゾンネンハイム葛西","lat":35.665075,"lon":139.873577},{"name":"スマートキッズプラス葛西","province":"東京都","city":"江戸川区","address":"江戸川区東葛西6-4-3第3ロイヤルシラコビル301","lat":35.663337,"lon":139.874097},{"name":"ひまわり学習教室","province":"東京都","city":"江戸川区","address":"江戸川区東葛西6-1-5","lat":35.661098,"lon":139.873255},{"name":"ハッピーテラス東葛西教室","province":"東京都","city":"江戸川区","address":"江戸川区東葛西5-13-13フローラル東葛西II203号","lat":35.663773,"lon":139.874899},{"name":"くすのき放課後等デイサービス葛西","province":"東京都","city":"江戸川区","address":"江戸川区南葛西1-10-6A-YU1階","lat":35.654446,"lon":139.870772},{"name":"くすのき放課後等デイサービス葛西南","province":"東京都","city":"江戸川区","address":"江戸川区南葛西3-24-4小林久商店貸事務所1階","lat":35.649074,"lon":139.871531},{"name":"スマートキッズプラス西葛西","province":"東京都","city":"江戸川区","address":"江戸川区西葛西6-22-16","lat":35.663867,"lon":139.862731},{"name":"ハッピーテラス西葛西","province":"東京都","city":"江戸川区","address":"江戸川区西葛西7-3-10BKN西葛西5階","lat":35.662017,"lon":139.859542},{"name":"パオパオくらぶ","province":"東京都","city":"江戸川区","address":"江戸川区船堀1-1-2","lat":35.685364,"lon":139.860461},{"name":"児童デイサービス南風","province":"東京都","city":"江戸川区","address":"江戸川区船堀2-18-5","lat":35.682342,"lon":139.86035},{"name":"児童デイサービス　ばんびーのふなぼり","province":"東京都","city":"江戸川区","address":"江戸川区船堀1-8-19-0002号","lat":35.683784,"lon":139.86338},{"name":"戸吹の杜","province":"東京都","city":"八王子市","address":"八王子市戸吹町391-5","lat":35.709816,"lon":139.289617},{"name":"いくをくらＢｏｏ","province":"東京都","city":"八王子市","address":"八王子市石川町93-1TIKビル1階","lat":35.681224,"lon":139.357979},{"name":"ベアーズハウス　中野上町","province":"東京都","city":"八王子市","address":"八王子市中野上町1-11-5","lat":35.668178,"lon":139.32826},{"name":"運動療育で生きる力を育む　シエル","province":"東京都","city":"八王子市","address":"八王子市中野山王1丁目12番地2号オガタビル202号室","lat":35.673322,"lon":139.328582},{"name":"ぽんぽこクラブ","province":"東京都","city":"八王子市","address":"八王子市大和田町2-20-7","lat":35.665101,"lon":139.359596},{"name":"Ｂａｍｂｏｕ","province":"東京都","city":"八王子市","address":"八王子市大和田町4-5-4","lat":35.662793,"lon":139.354096},{"name":"青空クラブ","province":"東京都","city":"八王子市","address":"八王子市元本郷町4-20-26","lat":35.665906,"lon":139.31458},{"name":"「あそび」「運動」「学習」で笑顔溢れる発達支援教室","province":"東京都","city":"八王子市","address":"八王子市天神町24-3プラムフィールド202号","lat":35.657446,"lon":139.328374},{"name":"ばんびーの","province":"東京都","city":"八王子市","address":"八王子市西寺方町1090-5","lat":35.682933,"lon":139.268125},{"name":"こぱん","province":"東京都","city":"八王子市","address":"八王子市西寺方町449-1","lat":35.676186,"lon":139.268653},{"name":"こどもでいさーびす　はるいろ","province":"東京都","city":"八王子市","address":"八王子市下恩方町766ジュネス2番館1階","lat":35.679133,"lon":139.263532},{"name":"ドリームボックス","province":"東京都","city":"八王子市","address":"八王子市東中野1255-1","lat":35.632506,"lon":139.405652},{"name":"放課後等デイサービス　おひさま","province":"東京都","city":"八王子市","address":"八王子市大塚165","lat":35.639475,"lon":139.417906},{"name":"あんふぁん大塚事業所","province":"東京都","city":"八王子市","address":"八王子市大塚623番地3かざまビル401号室","lat":35.638156,"lon":139.418395},{"name":"通所支援ベルテール八王子大塚園","province":"東京都","city":"八王子市","address":"八王子市大塚494-1","lat":35.638695,"lon":139.421431},{"name":"あんふぁん由木事業所","province":"東京都","city":"八王子市","address":"八王子市大塚627-18フォースフロンティア1階","lat":35.637081,"lon":139.419984},{"name":"コラソンキッズ八王子","province":"東京都","city":"八王子市","address":"八王子市堀之内2-17-1","lat":35.629481,"lon":139.402741},{"name":"ハッピーテラス堀之内教室","province":"東京都","city":"八王子市","address":"八王子市越野25-31プランドール美鶴1階","lat":35.62809,"lon":139.392686},{"name":"オリーブ芸術療法研究所","province":"東京都","city":"八王子市","address":"八王子市南大沢1-22-2","lat":35.617018,"lon":139.384843},{"name":"セントスクエア","province":"東京都","city":"八王子市","address":"八王子市南大沢2-27フレスコ南大沢5F","lat":35.611941,"lon":139.37926},{"name":"ビバーチェ","province":"東京都","city":"八王子市","address":"八王子市南大沢2-212-3三協ビル2階","lat":35.611014,"lon":139.384865},{"name":"通所支援ベルテール八王子第二南大沢園","province":"東京都","city":"八王子市","address":"八王子市南大沢2-13-4田中ビル201号室","lat":35.612144,"lon":139.38316},{"name":"通所支援ベルテール　八王子南大沢園","province":"東京都","city":"八王子市","address":"八王子市下柚木3-6","lat":35.621115,"lon":139.380618},{"name":"こころみの会","province":"東京都","city":"八王子市","address":"八王子市上野町103-1レジデンス富士森1階","lat":35.653232,"lon":139.327563},{"name":"リュミエール","province":"東京都","city":"八王子市","address":"八王子市上野町27-3コスモス八王子101、202","lat":35.653899,"lon":139.327821},{"name":"ドリームボックス北野","province":"東京都","city":"八王子市","address":"八王子市北野町557-19メゾン根来1階101号室","lat":35.645584,"lon":139.359116},{"name":"放課後等デイサービス　ハートマーク","province":"東京都","city":"八王子市","address":"八王子市北野町555-16","lat":35.646239,"lon":139.356941},{"name":"スポーツひろばプレイス八王子教室","province":"東京都","city":"八王子市","address":"八王子市打越町344-4北野シティプラザ201","lat":35.644551,"lon":139.355028},{"name":"クローバーハウス片倉町本店","province":"東京都","city":"八王子市","address":"八王子市片倉町439-4","lat":35.642698,"lon":139.339329},{"name":"わんぱくキッズ","province":"東京都","city":"八王子市","address":"八王子市片倉町359-4","lat":35.642803,"lon":139.338226},{"name":"たから","province":"東京都","city":"八王子市","address":"八王子市片倉町301-2","lat":35.643414,"lon":139.334532},{"name":"スパークスタジオみなみ野　Ｒａｉｎｂｏｗ　Ｋｉｄｓ","province":"東京都","city":"八王子市","address":"八王子市みなみ野3-31-17ボヌールA","lat":35.629407,"lon":139.322039},{"name":"通所支援ベルテール八王子みなみ野園","province":"東京都","city":"八王子市","address":"八王子市みなみ野1-7-1","lat":35.632335,"lon":139.328228},{"name":"ハッピーテラス八王子みなみ野","province":"東京都","city":"八王子市","address":"八王子市みなみ野3-31-17ボヌールB","lat":35.629407,"lon":139.322039},{"name":"チャレンジぴぴ","province":"東京都","city":"八王子市","address":"八王子市犬目町44番1","lat":35.688142,"lon":139.306541},{"name":"ベアーズハウス","province":"東京都","city":"八王子市","address":"八王子市散田町5-6-14第1サンダファイブ1階","lat":35.649015,"lon":139.299293},{"name":"ベアーズハウス　西八王子","province":"東京都","city":"八王子市","address":"八王子市散田町4-16-13クレール西八王子B棟1階","lat":35.652174,"lon":139.307817},{"name":"脳を育てる療育プログラム　チャイルド・ブレイン","province":"東京都","city":"八王子市","address":"八王子市東浅川町1番地11","lat":35.650596,"lon":139.298571},{"name":"ころぽっくる","province":"東京都","city":"八王子市","address":"八王子市東浅川町629番地1","lat":35.643111,"lon":139.299827},{"name":"Ｐｅａｃｅ","province":"東京都","city":"八王子市","address":"八王子市東浅川町336-11","lat":35.646074,"lon":139.287772},{"name":"Ｒａｃｉｎｅ","province":"東京都","city":"八王子市","address":"八王子市千人町4-6-5プラムグローブ1階","lat":35.657151,"lon":139.307087},{"name":"みんなのひろば","province":"東京都","city":"八王子市","address":"八王子市千人町1-6-2杉本マンション1階","lat":35.65979,"lon":139.315694},{"name":"放課後デイサービスわくわく","province":"東京都","city":"八王子市","address":"八王子市千人町2-6-5プライムコート千人町1階","lat":35.659481,"lon":139.31225},{"name":"ハッピーテラス西八王子教室","province":"東京都","city":"八王子市","address":"八王子市日吉町18-6","lat":35.661606,"lon":139.314653},{"name":"Ｅａｒｔｈ　Ｃｈｉｌｄｒｅｎ","province":"東京都","city":"八王子市","address":"八王子市台町4-19-12","lat":35.656898,"lon":139.320522},{"name":"すぎな愛育園こすもす","province":"東京都","city":"八王子市","address":"八王子市台町2-7-22","lat":35.649091,"lon":139.321239},{"name":"こあらくらぶ","province":"東京都","city":"八王子市","address":"八王子市台町4-33-12ヴィレッジ木下","lat":35.657551,"lon":139.318078},{"name":"すぎな愛育園あみぃ","province":"東京都","city":"八王子市","address":"八王子市椚田町539-9","lat":35.637453,"lon":139.308785},{"name":"立川らびっとくらぶ","province":"東京都","city":"立川市","address":"立川市幸町三丁目25番地1立川けやき台ハイツ1階","lat":35.722405,"lon":139.430171},{"name":"トライきっず・プロ","province":"東京都","city":"立川市","address":"立川市幸町1-10-6","lat":35.719996,"lon":139.422258},{"name":"こどもプラス立川幸町教室","province":"東京都","city":"立川市","address":"立川市幸町5-1-7フルミエールメゾン1階B","lat":35.723318,"lon":139.418386},{"name":"こぱんはうすさくら　立川幸町教室","province":"東京都","city":"立川市","address":"立川市幸町3-13-14矢島ビル1階","lat":35.720646,"lon":139.430252},{"name":"デイサービス事業　みんなの広場　１","province":"東京都","city":"立川市","address":"立川市栄町4-2-1ジュネスイトウ1階","lat":35.710745,"lon":139.423464},{"name":"スマイルJr","province":"東京都","city":"立川市","address":"立川市高松町3-25-10富士永ハイツ101","lat":35.701754,"lon":139.418376},{"name":"テイクオフ","province":"東京都","city":"立川市","address":"立川市高松町1-20-5","lat":35.709347,"lon":139.415695},{"name":"ジョブサＵ１８立川北口教室","province":"東京都","city":"立川市","address":"立川市曙町1-24-11橋本ビル7階","lat":35.700415,"lon":139.408838},{"name":"あにものいえ","province":"東京都","city":"立川市","address":"立川市羽衣町2-23-6","lat":35.694502,"lon":139.428589},{"name":"ゆいまーる","province":"東京都","city":"立川市","address":"立川市羽衣町1丁目6番10号小川ビル2階","lat":35.696324,"lon":139.423839},{"name":"ＬＩＴＡＬＩＣＯジュニア立川南口教室","province":"東京都","city":"立川市","address":"立川市柴崎町2-3-13エイティエイト立川デュオ2階","lat":35.696563,"lon":139.410807},{"name":"ドリームボックス立川","province":"東京都","city":"立川市","address":"立川市柴崎町5-8-1リバーサイドアプス1階","lat":35.689241,"lon":139.40123},{"name":"ジョブサＵ１８立川南口教室","province":"東京都","city":"立川市","address":"立川市柴崎町2-4-15ほまれ屋本社ビル201号室","lat":35.696849,"lon":139.409916},{"name":"デイサービス事業　みんなの広場　２","province":"東京都","city":"立川市","address":"立川市一番町3-17-11ローズシャトル2号館1階","lat":35.730344,"lon":139.378481},{"name":"児童デイサービス　サンフラワー","province":"東京都","city":"立川市","address":"立川市一番町5-1-5ネクサス立川1階","lat":35.73038,"lon":139.379831},{"name":"子ども発達支援ルームおれんじ学園","province":"東京都","city":"武蔵野市","address":"武蔵野市吉祥寺北町3-5-8イトーピア吉祥寺1階-110","lat":35.710487,"lon":139.57104},{"name":"ビーキッズむさしの","province":"東京都","city":"武蔵野市","address":"武蔵野市吉祥寺南町3-7-1プランドールサンリョウ2階","lat":35.699553,"lon":139.58637},{"name":"児童発達支援・放課後等デイサービス　ささえ","province":"東京都","city":"武蔵野市","address":"武蔵野市吉祥寺本町一丁目35番14号","lat":35.703736,"lon":139.584806},{"name":"ＴＥＥＮＳ吉祥寺","province":"東京都","city":"武蔵野市","address":"武蔵野市吉祥寺本町2-25-12SantaFe1-C","lat":35.703874,"lon":139.574673},{"name":"スタジオそら武蔵野","province":"東京都","city":"武蔵野市","address":"武蔵野市中町1-23-12クレール武蔵野1階","lat":35.704513,"lon":139.563458},{"name":"子ども発達支援ルームおれんじ学園ｎｉｃｏ","province":"東京都","city":"武蔵野市","address":"武蔵野市中町1-19-8シティハイツ武蔵野1階","lat":35.704999,"lon":139.562672},{"name":"あすはＫｉｄｓ","province":"東京都","city":"武蔵野市","address":"武蔵野市八幡町1-6-1","lat":35.715089,"lon":139.55435},{"name":"千川さくらんぼクラブ","province":"東京都","city":"武蔵野市","address":"武蔵野市八幡町2-5-3武蔵野中央公園北ホール1階","lat":35.7214,"lon":139.559666},{"name":"ｗａｃｃａ","province":"東京都","city":"武蔵野市","address":"武蔵野市八幡町3-8-6ニューハイツ武蔵野1階","lat":35.716425,"lon":139.549872},{"name":"児童発達センター　ぽこあぽこ","province":"東京都","city":"武蔵野市","address":"武蔵野市境2-4-3スヤマ武蔵野1F","lat":35.706223,"lon":139.543173},{"name":"ロゼット","province":"東京都","city":"武蔵野市","address":"武蔵野市境1-4-5","lat":35.704085,"lon":139.544659},{"name":"手毬塾ウノ","province":"東京都","city":"武蔵野市","address":"武蔵野市境南町3-22-22","lat":35.698927,"lon":139.540029},{"name":"ウイングむさしの","province":"東京都","city":"武蔵野市","address":"武蔵野市境南町2-13-5グレーハイツ泉妻","lat":35.698619,"lon":139.543821},{"name":"なかよし教室","province":"東京都","city":"三鷹市","address":"三鷹市井の頭二丁目21番18号","lat":35.691187,"lon":139.584342},{"name":"にじアート児童デイサービス","province":"東京都","city":"三鷹市","address":"三鷹市新川4-11-13","lat":35.673208,"lon":139.57133},{"name":"こどもデイサービス　らびぃ","province":"東京都","city":"三鷹市","address":"三鷹市新川4-12-6","lat":35.673436,"lon":139.572072},{"name":"まぁーる","province":"東京都","city":"三鷹市","address":"三鷹市新川3-21-19はなはなテラス1階","lat":35.678271,"lon":139.569528},{"name":"ＴＡＫＵＭＩ","province":"東京都","city":"三鷹市","address":"三鷹市下連雀3-17-20101号室","lat":35.699052,"lon":139.562461},{"name":"東京ヘルスケア学習運動センター","province":"東京都","city":"三鷹市","address":"三鷹市下連雀2-24-8","lat":35.695519,"lon":139.56575},{"name":"ＴＥＥＮＳ三鷹","province":"東京都","city":"三鷹市","address":"三鷹市下連雀3-42-10イニシア三鷹下連雀2階","lat":35.699202,"lon":139.559294},{"name":"ウイングみたか","province":"東京都","city":"三鷹市","address":"三鷹市野崎1-7-21ユニパレス三鷹1階","lat":35.683609,"lon":139.555229},{"name":"Ｇｒｅｅｎ　Ａｐｐｌｅ","province":"東京都","city":"三鷹市","address":"三鷹市深大寺三丁目10番1号","lat":35.689186,"lon":139.537797},{"name":"友愛こどもクラブとことこ","province":"東京都","city":"青梅市","address":"青梅市成木2-107","lat":35.832282,"lon":139.271068},{"name":"きらきらすばる","province":"東京都","city":"青梅市","address":"青梅市大門2-281-1","lat":35.796084,"lon":139.290447},{"name":"らんらんすばる","province":"東京都","city":"青梅市","address":"青梅市新町3-20-3ダイヤパレス1階","lat":35.78002,"lon":139.302077},{"name":"オルオルハウスかすみ","province":"東京都","city":"青梅市","address":"青梅市新町1-43-6","lat":35.791196,"lon":139.296172},{"name":"おひさま放課後デイサービス","province":"東京都","city":"青梅市","address":"青梅市新町5-24-3","lat":35.789733,"lon":139.308771},{"name":"ポラリスキッズ","province":"東京都","city":"青梅市","address":"青梅市新町7-5-5","lat":35.783836,"lon":139.315835},{"name":"ドリームボックス河辺","province":"東京都","city":"青梅市","address":"青梅市師岡町4-11-1ヴィラ・エイジ101","lat":35.787377,"lon":139.285726},{"name":"こどもプラス青梅教室","province":"東京都","city":"青梅市","address":"青梅市野上町2-10-2平沼ビル1階101","lat":35.793248,"lon":139.28997},{"name":"オルオルネクストかべ","province":"東京都","city":"青梅市","address":"青梅市河辺町5-23-7","lat":35.782891,"lon":139.287531},{"name":"ありえす","province":"東京都","city":"青梅市","address":"青梅市千ケ瀬町4-572-6","lat":35.786726,"lon":139.266619},{"name":"ドリームボックス浅間町","province":"東京都","city":"府中市","address":"府中市浅間町2-2-16メゾンモンフレール1階","lat":35.683977,"lon":139.495703},{"name":"児童デイサービス　めろでぃ","province":"東京都","city":"府中市","address":"府中市朝日町1-22-65","lat":35.672302,"lon":139.516438},{"name":"放課後等デイサービス　オンリーワン","province":"東京都","city":"府中市","address":"府中市若松町1-7-33K&Y東府中ビル2階","lat":35.670212,"lon":139.497859},{"name":"運動療育で生きる力を育む　シエル　府中教室","province":"東京都","city":"府中市","address":"府中市緑町3-5-7第二木城ビル5階","lat":35.669685,"lon":139.494376},{"name":"放課後デイサービス　ぽーと","province":"東京都","city":"府中市","address":"府中市緑町3-5-7第二木城ビル4階","lat":35.669685,"lon":139.494376},{"name":"放課後等デイサービスリアン府中緑町","province":"東京都","city":"府中市","address":"府中市緑町1-10-2PALAST緑町102","lat":35.671912,"lon":139.486518},{"name":"ちゃいくろ児童デイサービス府中","province":"東京都","city":"府中市","address":"府中市白糸台6-5-10","lat":35.663317,"lon":139.520252},{"name":"放課後等デイサービスリアン府中白糸台","province":"東京都","city":"府中市","address":"府中市白糸台2-3-6ブリリアントウイン白糸台1階A号","lat":35.666785,"lon":139.50983},{"name":"ハッピーテラス東府中","province":"東京都","city":"府中市","address":"府中市清水が丘1-1-3第一勇心ビル201","lat":35.669304,"lon":139.494404},{"name":"ポップシップ","province":"東京都","city":"府中市","address":"府中市本町1-15-3宮ノ森コーポ102","lat":35.666671,"lon":139.478636},{"name":"放課後デイサービス　プティ　フォンティーヌ","province":"東京都","city":"府中市","address":"府中市本町1-1-22ブラーヴハウス2階","lat":35.668676,"lon":139.477911},{"name":"児童デイサービス　サンフラワー府中","province":"東京都","city":"府中市","address":"府中市本宿町2-20-8","lat":35.672631,"lon":139.459357},{"name":"ドリームボックス武蔵台","province":"東京都","city":"府中市","address":"府中市武蔵台1-27-7","lat":35.688112,"lon":139.461831},{"name":"ナイスデイ・キッズ","province":"東京都","city":"府中市","address":"府中市美好町1-24-3ハイツコグチ1階","lat":35.672248,"lon":139.469653},{"name":"こもれび","province":"東京都","city":"府中市","address":"府中市美好町1-18-5萩原ビル3階","lat":35.67345,"lon":139.470128},{"name":"放課後等デイサービスリアン府中美好教室","province":"東京都","city":"府中市","address":"府中市美好町3丁目13-3第一グリーンテラス2号室","lat":35.671917,"lon":139.466048},{"name":"根っこくらぶ","province":"東京都","city":"府中市","address":"府中市美好町3-17-4マテリアル府中1階B号室","lat":35.671698,"lon":139.46467},{"name":"リボン","province":"東京都","city":"府中市","address":"府中市美好町3-57-161階","lat":35.668278,"lon":139.460426},{"name":"リボン　第２教室","province":"東京都","city":"府中市","address":"府中市美好町3-51-111階","lat":35.669039,"lon":139.46329},{"name":"きぼうクラブ","province":"東京都","city":"府中市","address":"府中市栄町3-12-1メディカルビル・グレイス4階","lat":35.687604,"lon":139.469405},{"name":"放課後等デイサービス　ふぁんふぁん天神町","province":"東京都","city":"府中市","address":"府中市天神町2-1-7ベルテ堀江101号室","lat":35.678736,"lon":139.489157},{"name":"スポーツひろば　プレイス　府中教室","province":"広島県","city":"府中市","address":"府中市府中町1-8-13-1F","lat":35.672784,"lon":139.481327},{"name":"放課後等デイサービス　ふぁんふぁん府中町","province":"広島県","city":"府中市","address":"府中市府中町1-32-5シャルマン府中103号室","lat":35.67695,"lon":139.479497},{"name":"キッズサポートてんとうむし","province":"東京都","city":"昭島市","address":"昭島市上川原町3-8-22","lat":35.708302,"lon":139.35957},{"name":"特定非営利活動法人昭島ひよこ教室","province":"東京都","city":"昭島市","address":"昭島市昭和町4-7-1","lat":35.710835,"lon":139.364125},{"name":"放課後等デイサービス　つむぐ　中神第２教室","province":"東京都","city":"昭島市","address":"昭島市中神町1228-20ミリューヴィラージュ106","lat":35.708858,"lon":139.37794},{"name":"放課後等デイサービス　つむぐ　中神教室","province":"東京都","city":"昭島市","address":"昭島市朝日町3-18-9大正第4ビル1階","lat":35.708124,"lon":139.373024},{"name":"脳を育てる運動療育センター　ピースマイル　中神教室","province":"東京都","city":"昭島市","address":"昭島市朝日町1-4-3SKビル2階B","lat":35.70806,"lon":139.375643},{"name":"ドリームボックス中神","province":"東京都","city":"昭島市","address":"昭島市玉川町2-4-11ヴェルシャトウ1階","lat":35.706738,"lon":139.378887},{"name":"放課後等デイサービス　わかば","province":"東京都","city":"調布市","address":"調布市若葉町二丁目26番29号ミタムラビル1階","lat":35.65698,"lon":139.589565},{"name":"ポコポコ・ホッピング神代団地","province":"東京都","city":"調布市","address":"調布市西つつじケ丘4-23神代団地33-103","lat":35.650103,"lon":139.576936},{"name":"アーリーバード　柴崎","province":"東京都","city":"調布市","address":"調布市菊野台一丁目52番地4三高家ビル2A","lat":35.655399,"lon":139.56567},{"name":"ゆうゆうくらぶ","province":"東京都","city":"調布市","address":"調布市柴崎1-56-1サニーハイツ1階","lat":35.659268,"lon":139.564973},{"name":"Green","province":"東京都","city":"調布市","address":"調布市調布ケ丘4-41-2","lat":35.662459,"lon":139.545539},{"name":"ちょうふの風","province":"東京都","city":"調布市","address":"調布市国領町3-8-15くすのきアパート5号棟114号","lat":35.648614,"lon":139.560591},{"name":"ふくふく","province":"東京都","city":"調布市","address":"調布市国領町5-74-1-103","lat":35.648969,"lon":139.551247},{"name":"ハッピーテラス調布教室","province":"東京都","city":"調布市","address":"調布市国領町1-9-3小谷田ビル1階103号室","lat":35.651158,"lon":139.551969},{"name":"ふみ月チャレンジ染地","province":"東京都","city":"調布市","address":"調布市染地1-17-15","lat":35.641979,"lon":139.548582},{"name":"クレヨンキッズ","province":"東京都","city":"調布市","address":"調布市布田2-4-10布田ビル1F","lat":35.65391,"lon":139.548575},{"name":"たんぽぽ","province":"東京都","city":"調布市","address":"調布市布田2-51-10トービル調布201","lat":35.650366,"lon":139.550092},{"name":"ドリームボックス　布田","province":"東京都","city":"調布市","address":"調布市布田3-55-17","lat":35.646725,"lon":139.550353},{"name":"アーリーバード","province":"東京都","city":"調布市","address":"調布市多摩川5-7-4","lat":35.644337,"lon":139.537185},{"name":"ふみ月チャレンジたま川","province":"東京都","city":"調布市","address":"調布市多摩川5-24-18","lat":35.643379,"lon":139.536647},{"name":"調布市総合福祉センター　放課後等デイサービス　ぴっころ","province":"東京都","city":"調布市","address":"調布市小島町2-47-1","lat":35.651397,"lon":139.542753},{"name":"通所運動療育障がい児リハビリセンター調布","province":"東京都","city":"調布市","address":"調布市小島町3-88-2","lat":35.645701,"lon":139.541104},{"name":"ポコポコ・ホッピング富士見町","province":"東京都","city":"調布市","address":"調布市富士見町2-17-17","lat":35.659376,"lon":139.54015},{"name":"れいんぼー","province":"東京都","city":"調布市","address":"調布市富士見町4-30-20","lat":35.668591,"lon":139.536136},{"name":"にこにこキッズルーム","province":"東京都","city":"調布市","address":"調布市下石原1-2-4ヤシマビル2階","lat":35.657687,"lon":139.53409},{"name":"ドリームボックス下石原","province":"東京都","city":"調布市","address":"調布市下石原一丁目32番地6下石原プラザ101号室","lat":35.656426,"lon":139.534535},{"name":"放課後等デイサービス　わかば　西調布店","province":"東京都","city":"調布市","address":"調布市下石原1-8-1西谷調布ビル102","lat":35.657979,"lon":139.536137},{"name":"つくしんぼ","province":"東京都","city":"町田市","address":"町田市南つくし野1-11-3","lat":35.520513,"lon":139.473808},{"name":"トゥモローフィールド町田","province":"東京都","city":"町田市","address":"町田市原町田5-3-17小井土ビル2F","lat":35.54542,"lon":139.449806},{"name":"星の王子","province":"東京都","city":"町田市","address":"町田市中町3-6-12町田向井田ビル1階","lat":35.551558,"lon":139.446637},{"name":"ぴっころもんど","province":"東京都","city":"町田市","address":"町田市中町4-13-11階","lat":35.553638,"lon":139.447973},{"name":"運動療育で生きる力を育む　シエル　中町教室","province":"東京都","city":"町田市","address":"町田市中町3-10-9アーバン第3ビルラ・ヴィ201","lat":35.551,"lon":139.449001},{"name":"ハッピーテラス町田駅前","province":"東京都","city":"町田市","address":"町田市森野2丁目2番36号Wald2022階","lat":35.547008,"lon":139.439735},{"name":"Ｋｉｄｓテラス森野","province":"東京都","city":"町田市","address":"町田市森野5-14-191階","lat":35.548391,"lon":139.436543},{"name":"放課後等デイサービス　アイ・ランド町田","province":"東京都","city":"町田市","address":"町田市旭町二丁目12番2号","lat":35.557835,"lon":139.435735},{"name":"運動療育で生きる力を育む　シエル　町田教室","province":"東京都","city":"町田市","address":"町田市旭町2-13-3サンライズ旭町2階","lat":35.557652,"lon":139.437021},{"name":"でんでん虫の家・町田","province":"東京都","city":"町田市","address":"町田市本町田97イ-4号棟0-1号室","lat":35.559552,"lon":139.452664},{"name":"つぼみクラブ","province":"東京都","city":"町田市","address":"町田市本町田2973-7本町田マリノビル202号","lat":35.572164,"lon":139.441809},{"name":"ナカミチ児童デイサービス本町田","province":"東京都","city":"町田市","address":"町田市本町田2020-5","lat":35.563365,"lon":139.434513},{"name":"つぼみ　アウラ","province":"東京都","city":"町田市","address":"町田市本町田2977-3","lat":35.571822,"lon":139.440423},{"name":"わいわいプラス町田教室","province":"東京都","city":"町田市","address":"町田市本町田1297-1ラ・ベルチュ町田1-3号室","lat":35.56407,"lon":139.444917},{"name":"ボワ・フルール","province":"東京都","city":"町田市","address":"町田市木曽西3-11-10","lat":35.573777,"lon":139.417214},{"name":"ボワ・コンサール","province":"東京都","city":"町田市","address":"町田市木曽西2-6-12","lat":35.570272,"lon":139.412745},{"name":"リハビリらんど","province":"東京都","city":"町田市","address":"町田市木曽西1-3-30セゾンコリーヌ101","lat":35.56384,"lon":139.420342},{"name":"重症心身障がい児放課後等デイサービスきらら","province":"東京都","city":"町田市","address":"町田市木曽西5-20-10","lat":35.56862,"lon":139.422852},{"name":"おもちゃ箱まちだ","province":"東京都","city":"町田市","address":"町田市木曽西3-18-2-2階","lat":35.572972,"lon":139.419116},{"name":"Ｋｉｄｓテラス木曽西","province":"東京都","city":"町田市","address":"町田市木曽西4-5-21階","lat":35.565278,"lon":139.422455},{"name":"レ・マーニ","province":"東京都","city":"町田市","address":"町田市玉川学園1-5-21","lat":35.558268,"lon":139.458216},{"name":"なかよし共和国","province":"東京都","city":"町田市","address":"町田市成瀬台2丁目16-2ウィル成瀬台A棟1階","lat":35.554112,"lon":139.477388},{"name":"アイ・らんど成瀬","province":"東京都","city":"町田市","address":"町田市成瀬7-10-6-110","lat":35.541638,"lon":139.474391},{"name":"ウイングまちだ成瀬","province":"東京都","city":"町田市","address":"町田市南成瀬6-1-1","lat":35.534761,"lon":139.474258},{"name":"あらぐさ","province":"東京都","city":"町田市","address":"町田市下小山田町231-1","lat":35.596091,"lon":139.411411},{"name":"ボワ・エール","province":"東京都","city":"町田市","address":"町田市下小山田町3267-2","lat":35.585665,"lon":139.410634},{"name":"プラナスデイサービスセンター","province":"東京都","city":"町田市","address":"町田市小山町4319-2","lat":35.599606,"lon":139.358607},{"name":"児童デイサービスかのん","province":"東京都","city":"町田市","address":"町田市鶴川2-14-24","lat":35.589972,"lon":139.469465},{"name":"放課後等デイサービス　キンダー","province":"東京都","city":"町田市","address":"町田市大蔵町530-16プランドール須崎B","lat":35.589305,"lon":139.460777},{"name":"放課後等デイサービス　キンダーハウス","province":"東京都","city":"町田市","address":"町田市金井3-24-1","lat":35.579586,"lon":139.458941},{"name":"アイ・らんど忠生","province":"東京都","city":"町田市","address":"町田市山崎町2055-2C-113","lat":35.571336,"lon":139.431738},{"name":"小金井市児童発達支援センター　きらり","province":"東京都","city":"小金井市","address":"小金井市梶野町1-2-3","lat":35.701987,"lon":139.528755},{"name":"おもちゃ箱上水桜","province":"東京都","city":"小金井市","address":"小金井市桜町2-12-31","lat":35.712219,"lon":139.504571},{"name":"おもちゃ箱なかまち","province":"東京都","city":"小金井市","address":"小金井市中町4-17-13","lat":35.697726,"lon":139.50894},{"name":"木馬の会（小金井おもちゃライブラリー学童クラブ）","province":"東京都","city":"小金井市","address":"小金井市前原町2-14-4","lat":35.692316,"lon":139.511824},{"name":"児童発達センター　びぃぼ","province":"東京都","city":"小金井市","address":"小金井市貫井北町1-6-22","lat":35.701981,"lon":139.494733},{"name":"おもちゃ箱こがねい","province":"東京都","city":"小金井市","address":"小金井市貫井北町一丁目24番9号","lat":35.703103,"lon":139.49745},{"name":"みんなの家７７","province":"東京都","city":"小平市","address":"小平市大沼町6-7-25","lat":35.731578,"lon":139.501567},{"name":"小平福祉園","province":"東京都","city":"小平市","address":"小平市花小金井8-1-10","lat":35.731692,"lon":139.50204},{"name":"ゆうやけ第３子どもクラブ","province":"東京都","city":"小平市","address":"小平市鈴木町1-291-2","lat":35.723145,"lon":139.50104},{"name":"放課後等デイサービス　ラソ","province":"東京都","city":"小平市","address":"小平市小川東町4-6-17","lat":35.735293,"lon":139.476828},{"name":"ゆうやけ子どもクラブ","province":"東京都","city":"小平市","address":"小平市小川町1-983","lat":35.72653,"lon":139.458244},{"name":"放課後等デイサービスＳＴＥＰ小平","province":"東京都","city":"小平市","address":"小平市栄町1-1-4","lat":35.733915,"lon":139.437323},{"name":"あすなろの家","province":"東京都","city":"小平市","address":"小平市小川西町5-13-24","lat":35.736793,"lon":139.458488},{"name":"あい","province":"東京都","city":"小平市","address":"小平市小川西町5-22-12","lat":35.734376,"lon":139.458429},{"name":"整育園通所センター","province":"東京都","city":"小平市","address":"小平市小川西町2-35-1","lat":35.737176,"lon":139.461124},{"name":"ゆうやけ第２子どもクラブ","province":"東京都","city":"小平市","address":"小平市学園東町3-3-18メゾンセサミ1階","lat":35.723273,"lon":139.490624},{"name":"アート療育FACT小平","province":"東京都","city":"小平市","address":"小平市喜平町1-12-14","lat":35.716749,"lon":139.489075},{"name":"小平ＪＡＭきっず事業所　ポップコーン","province":"東京都","city":"小平市","address":"小平市学園西町3-9-3","lat":35.724939,"lon":139.47097},{"name":"放課後等デイサービス　ＷＩＮＧ日野駅前","province":"東京都","city":"日野市","address":"日野市日野本町3-11-5IMビル202","lat":35.67907,"lon":139.394379},{"name":"児童デイサービス　サンフラワー　高幡","province":"東京都","city":"日野市","address":"日野市新井732ヌーヴ高幡102","lat":35.663997,"lon":139.41748},{"name":"カラコル・アイリー","province":"東京都","city":"日野市","address":"日野市万願寺4-14-14","lat":35.671555,"lon":139.417158},{"name":"つきのおあしす","province":"東京都","city":"日野市","address":"日野市百草1042の20石坂ビル2階","lat":35.646305,"lon":139.424588},{"name":"遊び・運動療育・学びの場　発達支援教室　アルファーラ百草教室","province":"東京都","city":"日野市","address":"日野市百草222-6ソレイユモグサ1階","lat":35.657187,"lon":139.431524},{"name":"運動療育・学びの場　こもれび聖蹟桜ヶ丘教室","province":"東京都","city":"日野市","address":"日野市落川1136-2アーバンシティ宝蔵橋2階","lat":35.649941,"lon":139.437682},{"name":"ぷらたなす","province":"東京都","city":"日野市","address":"日野市南平9-36-23スカイハイツ101","lat":35.650809,"lon":139.390052},{"name":"南平ギフト","province":"東京都","city":"日野市","address":"日野市南平6-14-27","lat":35.654803,"lon":139.391752},{"name":"障害児放課後クラブ","province":"東京都","city":"日野市","address":"日野市平山2-1-1","lat":35.640974,"lon":139.387136},{"name":"ベアーズハウス　東豊田","province":"東京都","city":"日野市","address":"日野市東豊田1-17-1あずまや1FA号室","lat":35.663335,"lon":139.394618},{"name":"ナーシングデイ山の上","province":"東京都","city":"日野市","address":"日野市豊田2-47-1ルネッサンスコート・とよだ1階","lat":35.655394,"lon":139.383033},{"name":"運動療育で生きる力を育む　シエル　日野教室","province":"東京都","city":"日野市","address":"日野市西平山2-11-21","lat":35.645887,"lon":139.368507},{"name":"脳を育てる運動療育センター　こどもプラス　豊田教室","province":"東京都","city":"日野市","address":"日野市多摩平3丁目2-12階","lat":35.666457,"lon":139.377594},{"name":"脳を育てる運動療育センター　こどもプラス　多摩平教室","province":"東京都","city":"日野市","address":"日野市多摩平4-1-14内田ビル2階","lat":35.66546,"lon":139.378811},{"name":"クリッパーズ","province":"東京都","city":"日野市","address":"日野市旭が丘一丁目15番地の92階","lat":35.657108,"lon":139.372276},{"name":"やまだこども教室","province":"東京都","city":"東村山市","address":"東村山市秋津町5-13-3セゾン新秋津2階","lat":35.778311,"lon":139.494094},{"name":"トーコロあおば就労サポートセンター","province":"東京都","city":"東村山市","address":"東村山市青葉町2-39-10","lat":35.765318,"lon":139.490695},{"name":"山鳩訓練室","province":"東京都","city":"東村山市","address":"東村山市久米川町3-12-31","lat":35.765895,"lon":139.473002},{"name":"楽しい放課後みんな","province":"東京都","city":"東村山市","address":"東村山市久米川町2-31-6-102","lat":35.761424,"lon":139.482748},{"name":"ひまわり","province":"東京都","city":"東村山市","address":"東村山市富士見町1-5-13","lat":35.741734,"lon":139.459646},{"name":"ＥＴ教室","province":"東京都","city":"国分寺市","address":"国分寺市東戸倉2-10-34","lat":35.711662,"lon":139.464127},{"name":"たけのこ","province":"東京都","city":"国分寺市","address":"国分寺市戸倉1-8-43千歳サンライズ107","lat":35.709513,"lon":139.461933},{"name":"「ツリーハウス」","province":"東京都","city":"国分寺市","address":"国分寺市戸倉1-23-3","lat":35.711971,"lon":139.461277},{"name":"「ツリーハウス」Ｌｉｋｏ","province":"東京都","city":"国分寺市","address":"国分寺市戸倉3-46-7","lat":35.710182,"lon":139.451128},{"name":"ハッピーテラス国分寺","province":"東京都","city":"国分寺市","address":"国分寺市南町2-17-4国分寺南町ビューハイツ101号","lat":35.69987,"lon":139.483573},{"name":"放課後等デイサービス　ルーチェ","province":"東京都","city":"国分寺市","address":"国分寺市南町3-4-19京美ビル3階","lat":35.698009,"lon":139.479276},{"name":"福祉の杜とくら地域福祉事業所すてっぷ","province":"東京都","city":"国分寺市","address":"国分寺市富士本1-25-29","lat":35.703174,"lon":139.449815},{"name":"デイサービス事業クラブかたつむり","province":"東京都","city":"国分寺市","address":"国分寺市日吉町4-29-12","lat":35.705732,"lon":139.460078},{"name":"メリーランド国分寺","province":"東京都","city":"国分寺市","address":"国分寺市西町二丁目2番3号第五東財ビル3階","lat":35.705412,"lon":139.439055},{"name":"ハッピーテラス国立駅前","province":"東京都","city":"国立市","address":"国立市北1-5-8プラース壱番館2階店舗E","lat":35.699974,"lon":139.44686},{"name":"メリーランド","province":"東京都","city":"国立市","address":"国立市北3丁目40番3号","lat":35.699296,"lon":139.42842},{"name":"ＴＡＳＵＣ国立教室","province":"東京都","city":"国立市","address":"国立市東1-4-9ザ・ダイマス5階","lat":35.698436,"lon":139.447246},{"name":"ドリームボックス国立","province":"東京都","city":"国立市","address":"国立市東3丁目6-15エスポワール国立1階","lat":35.69452,"lon":139.452645},{"name":"東京ＹＭＣＡさくら国立","province":"東京都","city":"国立市","address":"国立市東1-4-20-102","lat":35.698813,"lon":139.448496},{"name":"ハイビスカス","province":"東京都","city":"国立市","address":"国立市富士見台4-10-6","lat":35.685859,"lon":139.431484},{"name":"くじらっこ","province":"東京都","city":"国立市","address":"国立市富士見台2-3-2メゾンエクセル1F","lat":35.685759,"lon":139.446402},{"name":"放課後等デイサービス　バモノス","province":"東京都","city":"国立市","address":"国立市富士見台1-7-1-1-114","lat":35.684604,"lon":139.448785},{"name":"放課後等デイサービスいもむしクラブ","province":"東京都","city":"国立市","address":"国立市富士見台1-17-29アップスタイルビルI2階","lat":35.681274,"lon":139.448041},{"name":"ハッピー・テラス国立","province":"東京都","city":"国立市","address":"国立市中2-3-66タキイシビル1階","lat":35.695494,"lon":139.439913},{"name":"滝乃川学園　放課後等デイサービス","province":"東京都","city":"国立市","address":"国立市谷保6312","lat":35.680959,"lon":139.429501},{"name":"スマイルともにー","province":"東京都","city":"国立市","address":"国立市泉5-20-4","lat":35.677954,"lon":139.43815},{"name":"ドリームボックス拝島","province":"東京都","city":"福生市","address":"福生市大字熊川202-1ホワイトパレス1階","lat":35.716614,"lon":139.336693},{"name":"あそぼーよ","province":"東京都","city":"福生市","address":"福生市南田園3-5-21森田ビルA号","lat":35.729482,"lon":139.330405},{"name":"つなごーよ","province":"東京都","city":"福生市","address":"福生市南田園3-18-15ユタカビル1階","lat":35.731323,"lon":139.328238},{"name":"ぶどうの木","province":"東京都","city":"福生市","address":"福生市福生1062-12AMTビル2階203号","lat":35.742922,"lon":139.32483},{"name":"ＦＵＳＳＡ地域福祉事業所　歩っ歩","province":"東京都","city":"福生市","address":"福生市武蔵野台2-3-20","lat":35.745391,"lon":139.331032},{"name":"こども教室えるぶ","province":"東京都","city":"狛江市","address":"狛江市東野川2-1-10-102.103","lat":35.642234,"lon":139.580042},{"name":"はっぴぃハウス","province":"東京都","city":"狛江市","address":"狛江市和泉本町4-7-27-103","lat":35.643051,"lon":139.568946},{"name":"こどもデイサービスほっぷ","province":"東京都","city":"狛江市","address":"狛江市和泉本町4-2-13SANTESAKAE202","lat":35.641318,"lon":139.569443},{"name":"こどもデイサービス　すてっぷ","province":"東京都","city":"狛江市","address":"狛江市和泉本町4-2-13","lat":35.641318,"lon":139.569443},{"name":"ウイングこまえ","province":"東京都","city":"狛江市","address":"狛江市岩戸北三丁目22番13号","lat":35.632275,"lon":139.583237},{"name":"ゆめぽっと","province":"東京都","city":"狛江市","address":"狛江市中和泉2-10-1","lat":35.638782,"lon":139.572912},{"name":"デイグループほっと","province":"東京都","city":"東大和市","address":"東大和市清水3-785-2","lat":35.753785,"lon":139.442872},{"name":"デイグループぱーく","province":"東京都","city":"東大和市","address":"東大和市清水3-855-2","lat":35.753549,"lon":139.443224},{"name":"放課後等デイサービス　ぽっぷ","province":"東京都","city":"東大和市","address":"東大和市南街2-110-7","lat":35.738519,"lon":139.432059},{"name":"放課後デイ　ゆうハウス","province":"東京都","city":"東大和市","address":"東大和市中央3-855-10中央ビル1階AD号室","lat":35.744846,"lon":139.42827},{"name":"きずな","province":"東京都","city":"清瀬市","address":"清瀬市下清戸2丁目518番2","lat":35.784972,"lon":139.536413},{"name":"障害者福祉センター　学童クラブのびのび","province":"東京都","city":"清瀬市","address":"清瀬市上清戸1-16-62","lat":35.773265,"lon":139.527664},{"name":"放課後等デイサービスＡＡＯ！","province":"東京都","city":"清瀬市","address":"清瀬市上清戸2-3-41-B","lat":35.777334,"lon":139.521422},{"name":"マイスペ児童デイサービス清瀬","province":"東京都","city":"清瀬市","address":"清瀬市元町一丁目13番20号ブリックヒル1階","lat":35.774854,"lon":139.518223},{"name":"たまみずき清瀬","province":"東京都","city":"清瀬市","address":"清瀬市松山2-2-15清瀬シティハイム2階","lat":35.769838,"lon":139.516287},{"name":"わかば　第１学童クラブ","province":"東京都","city":"清瀬市","address":"清瀬市竹丘1-11-1-101","lat":35.765877,"lon":139.511649},{"name":"放課後等デイサービス　ラビットハウス","province":"東京都","city":"清瀬市","address":"清瀬市竹丘2-16-9","lat":35.762758,"lon":139.507691},{"name":"ビーキッズきよせ","province":"東京都","city":"清瀬市","address":"清瀬市梅園3-4-251階","lat":35.771068,"lon":139.499949},{"name":"アプリ児童デイサービス清瀬","province":"東京都","city":"清瀬市","address":"清瀬市梅園3-2-21","lat":35.768885,"lon":139.501919},{"name":"あいる","province":"東京都","city":"東久留米市","address":"東久留米市新川町1-9-26","lat":35.761545,"lon":139.536855},{"name":"てんとうむし","province":"東京都","city":"東久留米市","address":"東久留米市南町4-9-21","lat":35.744366,"lon":139.52214},{"name":"だっく","province":"東京都","city":"東久留米市","address":"東久留米市八幡町1-1-12","lat":35.757436,"lon":139.513174},{"name":"ぐ～す","province":"東京都","city":"東久留米市","address":"東久留米市八幡町2-13-29","lat":35.755661,"lon":139.513543},{"name":"シュプロス東久留米教室","province":"東京都","city":"東久留米市","address":"東久留米市八幡町2-4-18グランドール1階店舗","lat":35.754612,"lon":139.513713},{"name":"しおん学園","province":"東京都","city":"東久留米市","address":"東久留米市下里7-8-20","lat":35.759916,"lon":139.502927},{"name":"放課後等デイサービス　カーリッジ東久留米","province":"東京都","city":"東久留米市","address":"東久留米市下里3-23-13アズセナ101号室","lat":35.753425,"lon":139.500275},{"name":"このみ","province":"東京都","city":"東久留米市","address":"東久留米市幸町3-8-23","lat":35.758264,"lon":139.51912},{"name":"放課後等デイサービス　あかぐみ","province":"東京都","city":"武蔵村山市","address":"武蔵村山市中央1-25-14ハウスオブブーケC棟101","lat":35.753247,"lon":139.389335},{"name":"放課後デイサービスひだまり","province":"東京都","city":"武蔵村山市","address":"武蔵村山市本町1-63-1","lat":35.753064,"lon":139.385857},{"name":"クローバー","province":"東京都","city":"武蔵村山市","address":"武蔵村山市学園1-112-8","lat":35.746232,"lon":139.396723},{"name":"放課後等デイサービス　トライきっず","province":"東京都","city":"武蔵村山市","address":"武蔵村山市大南3-72-1柏木マンション102号","lat":35.735569,"lon":139.405404},{"name":"放課後デイサービス　せせらぎ","province":"東京都","city":"武蔵村山市","address":"武蔵村山市大南1-111-23","lat":35.736438,"lon":139.396896},{"name":"放課後等デイサービス　どりーむ","province":"東京都","city":"武蔵村山市","address":"武蔵村山市三ツ藤2丁目27番地4","lat":35.752008,"lon":139.375195},{"name":"妖精の杜","province":"東京都","city":"武蔵村山市","address":"武蔵村山市残堀1-110-9","lat":35.744628,"lon":139.37552},{"name":"あい武蔵村山","province":"東京都","city":"武蔵村山市","address":"武蔵村山市中原4-3-2","lat":35.752699,"lon":139.363795},{"name":"遊び・運動療育・学びの場　発達支援教室　アルファーラ聖蹟桜ヶ丘教室","province":"東京都","city":"多摩市","address":"多摩市一ノ宮2-19-27太喜ビル第一1階","lat":35.653096,"lon":139.44345},{"name":"グラシアス聖蹟桜ヶ丘駅前教室","province":"東京都","city":"多摩市","address":"多摩市関戸1-12-4糀屋ビル6階","lat":35.650222,"lon":139.448186},{"name":"キャンビー","province":"東京都","city":"多摩市","address":"多摩市貝取4-3-1-110","lat":35.61459,"lon":139.438525},{"name":"メロディ","province":"東京都","city":"多摩市","address":"多摩市聖ヶ丘二丁目第21街区第3号棟第4号室","lat":35.631336,"lon":139.457585},{"name":"ドリームボックス馬引沢","province":"東京都","city":"多摩市","address":"多摩市馬引沢2-3-9レジデンス永山1階A号室","lat":35.633118,"lon":139.452681},{"name":"ドリームボックス諏訪","province":"東京都","city":"多摩市","address":"多摩市諏訪1-53-2ハウスアメニティ1階B号室","lat":35.629647,"lon":139.454475},{"name":"子どもクラブ","province":"東京都","city":"多摩市","address":"多摩市永山4-2-4-106・206","lat":35.621103,"lon":139.449676},{"name":"くぬぎ","province":"東京都","city":"多摩市","address":"多摩市永山3-9東永山複合施設","lat":35.623381,"lon":139.449454},{"name":"ジョイフル","province":"東京都","city":"多摩市","address":"多摩市永山1-8-17ボヌール永山208","lat":35.631968,"lon":139.44722},{"name":"こどもデイサービス　ラフ","province":"東京都","city":"多摩市","address":"多摩市永山2-14-6アドラブールK店舗B","lat":35.630021,"lon":139.443362},{"name":"発達相談支援センター　ＣＯＲＯＮＯＡＨ","province":"東京都","city":"多摩市","address":"多摩市落合3-17-1、105号","lat":35.616514,"lon":139.430489},{"name":"ドリームボックス鶴牧","province":"東京都","city":"多摩市","address":"多摩市鶴牧2-23-21コンフォート鶴牧1階","lat":35.618233,"lon":139.414282},{"name":"島田療育センター","province":"東京都","city":"多摩市","address":"多摩市中沢1-31-1","lat":35.621988,"lon":139.411496},{"name":"あんふぁん愛宕事業所","province":"東京都","city":"多摩市","address":"多摩市愛宕四丁目9番22号池田ビル2階201号室","lat":35.628657,"lon":139.428953},{"name":"ドリームボックス多摩センター","province":"東京都","city":"多摩市","address":"多摩市山王下1-13-12パールプラザ103","lat":35.62536,"lon":139.419904},{"name":"友遊クラブＩ合","province":"東京都","city":"稲城市","address":"稲城市大丸951-14","lat":35.64924,"lon":139.493088},{"name":"地域生活支援センター「える」","province":"東京都","city":"稲城市","address":"稲城市東長沼1559番地","lat":35.640934,"lon":139.507338},{"name":"ウイング稲城","province":"東京都","city":"稲城市","address":"稲城市百村1623-1パストラルハイム稲城E-2","lat":35.635585,"lon":139.501475},{"name":"友遊クラブⅡ合","province":"東京都","city":"稲城市","address":"稲城市矢野口310-12階","lat":35.641523,"lon":139.521396},{"name":"りあん","province":"東京都","city":"羽村市","address":"羽村市栄町二丁目7番地27ユウヒハイム106","lat":35.772457,"lon":139.310455},{"name":"五乃神学園","province":"東京都","city":"羽村市","address":"羽村市五ノ神345","lat":35.768052,"lon":139.332695},{"name":"パレットルーム羽村教室","province":"東京都","city":"羽村市","address":"羽村市五ノ神4-1-8日芳ビル2階","lat":35.760311,"lon":139.314758},{"name":"わくわくプレイス","province":"東京都","city":"羽村市","address":"羽村市富士見平1-3-1エムマンション101","lat":35.765961,"lon":139.322854},{"name":"リアン羽西店","province":"東京都","city":"羽村市","address":"羽村市羽西2-6-9-1階","lat":35.769987,"lon":139.298028},{"name":"放課後等デイサービス　悠友キッズ","province":"東京都","city":"あきる野市","address":"あきる野市瀬戸岡783-1","lat":35.739405,"lon":139.290485},{"name":"わいわいくらぶ","province":"東京都","city":"あきる野市","address":"あきる野市秋川2-7-15","lat":35.729297,"lon":139.286222},{"name":"みらいクラブ","province":"東京都","city":"あきる野市","address":"あきる野市秋川1-7-7エスポワールII番館2階","lat":35.729478,"lon":139.286969},{"name":"放課後等デイサービス　コア","province":"東京都","city":"あきる野市","address":"あきる野市秋川4-14-12","lat":35.73385,"lon":139.288988},{"name":"こどもプラスグループ　あきる野教室","province":"東京都","city":"あきる野市","address":"あきる野市秋川1-2-1阿伎留ビル1階102号室","lat":35.728145,"lon":139.288064},{"name":"子笑","province":"東京都","city":"あきる野市","address":"あきる野市油平87-3シャルマンルーフ2階-AB","lat":35.727586,"lon":139.28693},{"name":"シュプロスひばりヶ丘教室","province":"東京都","city":"西東京市","address":"西東京市谷戸町二丁目15番13号","lat":35.748988,"lon":139.543105},{"name":"たまみずきひばり","province":"東京都","city":"西東京市","address":"西東京市北原町1-38-2","lat":35.738011,"lon":139.545997},{"name":"療育型児童デイサービスさざんか第１","province":"東京都","city":"西東京市","address":"西東京市田無町7-8-14","lat":35.732873,"lon":139.530581},{"name":"くろーばーきっず","province":"東京都","city":"西東京市","address":"西東京市田無町4-17-14","lat":35.729365,"lon":139.535556},{"name":"療育型児童デイサービスさざんか第５","province":"東京都","city":"西東京市","address":"西東京市田無町5-5-12","lat":35.731809,"lon":139.536209},{"name":"放課後等デイサービス　らぷあ田無","province":"東京都","city":"西東京市","address":"西東京市向台町1-16-20ふじマンション2階B号","lat":35.719558,"lon":139.543331},{"name":"ととろクラブ","province":"東京都","city":"西東京市","address":"西東京市芝久保町2-22-33","lat":35.725984,"lon":139.520824},{"name":"ととろキッズ","province":"東京都","city":"西東京市","address":"西東京市芝久保町2-22-32-102","lat":35.726248,"lon":139.52061},{"name":"ジョブチャレンジひばり","province":"東京都","city":"西東京市","address":"西東京市ひばりが丘3-1-23","lat":35.745766,"lon":139.537066},{"name":"シュプロスひばりヶ丘教室Ⅱ","province":"東京都","city":"西東京市","address":"西東京市ひばりが丘1-8-24","lat":35.750663,"lon":139.542288},{"name":"Pur　aile　ひばりが丘","province":"東京都","city":"西東京市","address":"西東京市ひばりが丘北3-7-14メゾンウィステリア1階","lat":35.75269,"lon":139.547988},{"name":"くまさん　保谷教室","province":"東京都","city":"西東京市","address":"西東京市東町二丁目9番7号","lat":35.746577,"lon":139.561434},{"name":"ＳＴＥＰ保谷","province":"東京都","city":"西東京市","address":"西東京市東町3-5-5","lat":35.747408,"lon":139.56625},{"name":"りぼん","province":"東京都","city":"西東京市","address":"西東京市保谷町2-10-12菊池ビル102号","lat":35.73036,"lon":139.554699},{"name":"ＳＴＥＰ西東京","province":"東京都","city":"西東京市","address":"西東京市保谷町1-8-4","lat":35.734434,"lon":139.555735},{"name":"ウイング西東京","province":"東京都","city":"西東京市","address":"西東京市東伏見2-4-10","lat":35.728263,"lon":139.563515},{"name":"りぼんＵ","province":"東京都","city":"西東京市","address":"西東京市柳沢6-4-3-106","lat":35.72736,"lon":139.552658},{"name":"スウィング","province":"東京都","city":"西多摩郡瑞穂町","address":"西多摩郡瑞穂町箱根ケ崎字武蔵野938-1","lat":35.791956,"lon":139.331379},{"name":"こどもデイサービス　Poco　a　Poco","province":"東京都","city":"西多摩郡日の出町","address":"西多摩郡日の出町大久野1628-7","lat":35.744387,"lon":139.233581},{"name":"こどもデイサービス　Poco　a　Poco　第２","province":"東京都","city":"西多摩郡日の出町","address":"西多摩郡日の出町大字平井字三吉野欠上15-15","lat":35.738615,"lon":139.283147}]}