{"keyword":"浄水","data":[{"name":"区立東郷元帥記念公園","province":"三重県","city":"名張市","address":"三重県名張市鴻之台3番町18","lat":34.62668121,"lon":136.10421257},{"name":"都立日比谷公園","province":"東京都","city":"千代田区","address":"東京都千代田区日比谷公園1","lat":35.67461838,"lon":139.75677845},{"name":"都立一橋高等学校","province":"東京都","city":"千代田区","address":"東京都千代田区東神田1丁目12-13","lat":35.69458357,"lon":139.78104065},{"name":"晴海給水所","province":"東京都","city":"中央区","address":"東京都中央区晴海1丁目6-3","lat":35.65852366,"lon":139.78411284},{"name":"区立あかつき公園","province":"東京都","city":"中央区","address":"東京都中央区築地7丁目19-1","lat":35.66666142,"lon":139.7758105},{"name":"区立堀留児童公園","province":"東京都","city":"中央区","address":"東京都中央区日本橋堀留町1丁目1-16","lat":35.68635386,"lon":139.77931298},{"name":"芝給水所","province":"東京都","city":"港区","address":"東京都港区芝公園3丁目6-7","lat":35.66128065,"lon":139.74511884},{"name":"都立青山公園","province":"東京都","city":"港区","address":"東京都港区六本木7丁目23","lat":35.66340494,"lon":139.72510664},{"name":"シティハイツ桂坂（港区防災活動拠点）","province":"東京都","city":"港区","address":"東京都港区高輪2丁目13-8","lat":35.63454181,"lon":139.73785377},{"name":"淀橋給水所","province":"東京都","city":"新宿区","address":"東京都新宿区西新宿2丁目10-1","lat":35.68811804,"lon":139.69063928},{"name":"区立鶴巻南公園","province":"東京都","city":"新宿区","address":"東京都新宿区早稲田鶴巻町507","lat":35.70624187,"lon":139.72408838},{"name":"区立百人町ふれあい公園","province":"東京都","city":"新宿区","address":"東京都新宿区百人町3丁目28","lat":35.70541065,"lon":139.69568815},{"name":"本郷給水所","province":"大阪府","city":"柏原市","address":"大阪府柏原市本郷2丁目7-29","lat":34.58951753,"lon":135.61747384},{"name":"区立教育の森公園","province":"東京都","city":"文京区","address":"東京都文京区大塚3丁目29-1","lat":35.71964352,"lon":139.73724511},{"name":"都立上野恩賜公園","province":"東京都","city":"台東区","address":"東京都台東区上野公園8-51","lat":35.71725613,"lon":139.77445639},{"name":"区立文花公園","province":"東京都","city":"墨田区","address":"東京都墨田区文花1丁目27-5","lat":35.7094556,"lon":139.82244155},{"name":"区立両国公園","province":"東京都","city":"墨田区","address":"東京都墨田区両国4丁目25-3","lat":35.6937507,"lon":139.79611856},{"name":"亀戸給水所","province":"東京都","city":"江東区","address":"東京都江東区亀戸2丁目6-50","lat":35.70101603,"lon":139.82130935},{"name":"豊住給水所","province":"東京都","city":"江東区","address":"東京都江東区東陽6丁目1-8","lat":35.67503913,"lon":139.81095502},{"name":"江東給水所","province":"東京都","city":"江東区","address":"東京都江東区新砂3丁目6-17","lat":35.66542149,"lon":139.84132701},{"name":"有明給水所","province":"東京都","city":"江東区","address":"東京都江東区有明3丁目1-8","lat":35.63082682,"lon":139.78543859},{"name":"区立南砂三丁目公園","province":"東京都","city":"江東区","address":"東京都江東区南砂3丁目14-21","lat":35.66960695,"lon":139.83337197},{"name":"都立辰巳の森海浜公園","province":"東京都","city":"江東区","address":"東京都江東区辰巳2丁目1","lat":35.64899491,"lon":139.81239389},{"name":"区立戸越公園","province":"東京都","city":"品川区","address":"東京都品川区豊町2丁目1-30","lat":35.61109965,"lon":139.72238087},{"name":"区立しおじ公園","province":"東京都","city":"品川区","address":"東京都品川区八潮5丁目6","lat":35.59734124,"lon":139.74955159},{"name":"都立八潮高等学校","province":"東京都","city":"品川区","address":"東京都品川区東品川3丁目27-22","lat":35.61185035,"lon":139.74660949},{"name":"八雲給水所","province":"東京都","city":"目黒区","address":"東京都目黒区八雲1丁目1","lat":35.62130575,"lon":139.67178483},{"name":"都立林試の森公園","province":"東京都","city":"目黒区","address":"東京都目黒区下目黒5丁目37","lat":35.62487834,"lon":139.70415426},{"name":"馬込給水所","province":"東京都","city":"大田区","address":"東京都大田区西馬込2丁目15-6","lat":35.58832131,"lon":139.70213893},{"name":"上池台給水所","province":"東京都","city":"大田区","address":"東京都大田区上池台1丁目48-25","lat":35.6004699,"lon":139.69973594},{"name":"区立西六郷三丁目公園","province":"東京都","city":"大田区","address":"東京都大田区西六郷3丁目16-16","lat":35.54629163,"lon":139.7059358},{"name":"区立萩中公園","province":"東京都","city":"大田区","address":"東京都大田区萩中3丁目25-26","lat":35.54972234,"lon":139.73905511},{"name":"区立都堀公園","province":"東京都","city":"大田区","address":"東京都大田区大森東1丁目30","lat":35.57738779,"lon":139.73836722},{"name":"区立下丸子公園","province":"東京都","city":"大田区","address":"東京都大田区下丸子4丁目21","lat":35.56920527,"lon":139.67906532},{"name":"区立女塚なかよし公園","province":"東京都","city":"大田区","address":"東京都大田区池上5丁目24","lat":35.57274857,"lon":139.71105287},{"name":"東海給水所","province":"東京都","city":"大田区","address":"東京都大田区東海1丁目3-12","lat":35.585493,"lon":139.7537297},{"name":"砧浄水場","province":"東京都","city":"世田谷区","address":"東京都世田谷区喜多見2丁目9-1","lat":35.6229239,"lon":139.5939617},{"name":"砧下浄水所","province":"長野県","city":"松本市","address":"長野県松本市鎌田2丁目4-1","lat":36.22249484,"lon":137.95847993},{"name":"和田堀給水所","province":"東京都","city":"世田谷区","address":"東京都世田谷区大原2丁目30-43","lat":35.67019982,"lon":139.65752341},{"name":"玉川給水所","province":"東京都","city":"世田谷区","address":"東京都世田谷区玉川田園調布1丁目19-1","lat":35.60087176,"lon":139.66091715},{"name":"大蔵給水所","province":"東京都","city":"世田谷区","address":"東京都世田谷区砧2丁目8-1","lat":35.64285742,"lon":139.61625833},{"name":"駒沢給水所","province":"東京都","city":"世田谷区","address":"東京都世田谷区弦巻2丁目41-5","lat":35.63358721,"lon":139.65076123},{"name":"区立葭根公園","province":"東京都","city":"世田谷区","address":"東京都世田谷区船橋6丁目21","lat":35.65803078,"lon":139.62247115},{"name":"都立祖師谷公園","province":"東京都","city":"世田谷区","address":"東京都世田谷区上祖師谷4丁目2","lat":35.65340555,"lon":139.59748436},{"name":"区立中町二丁目公園","province":"東京都","city":"世田谷区","address":"東京都世田谷区中町2丁目34-1","lat":35.61159799,"lon":139.64116853},{"name":"都立代々木公園","province":"東京都","city":"渋谷区","address":"東京都渋谷区代々木神園町2-1","lat":35.67281151,"lon":139.69257026},{"name":"都立第一商業高等学校","province":"東京都","city":"渋谷区","address":"東京都渋谷区鉢山町8-1","lat":35.65016143,"lon":139.6985845},{"name":"区立景丘公園","province":"東京都","city":"渋谷区","address":"東京都渋谷区恵比寿4丁目19-21","lat":35.6437958,"lon":139.71358068},{"name":"区立弥生公園","province":"東京都","city":"中野区","address":"東京都中野区弥生町5丁目4","lat":35.68651484,"lon":139.66689699},{"name":"区立江古田の森公園","province":"東京都","city":"中野区","address":"東京都中野区江古田3丁目14","lat":35.73006534,"lon":139.6657647},{"name":"区立みずのとう公園","province":"東京都","city":"中野区","address":"東京都中野区江古田1丁目3","lat":35.72432456,"lon":139.67461418},{"name":"杉並浄水所","province":"東京都","city":"杉並区","address":"東京都杉並区善福寺3丁目28-5","lat":35.71512328,"lon":139.58868285},{"name":"和泉水圧調整所","province":"東京都","city":"杉並区","address":"東京都杉並区和泉2丁目5-23","lat":35.67117459,"lon":139.6530821},{"name":"上井草給水所","province":"東京都","city":"杉並区","address":"東京都杉並区上井草3丁目22-12","lat":35.72163399,"lon":139.60123435},{"name":"都立和田堀公園","province":"埼玉県","city":"さいたま市西区","address":"埼玉県さいたま市西区西大宮2丁目26","lat":35.92898439,"lon":139.57159171},{"name":"区立蚕糸の森公園","province":"東京都","city":"杉並区","address":"東京都杉並区和田3丁目55","lat":35.69724103,"lon":139.65698631},{"name":"区立昭栄公園","province":"東京都","city":"杉並区","address":"東京都杉並区高井戸西1丁目12","lat":35.68102216,"lon":139.60876867},{"name":"区立井草森公園","province":"東京都","city":"杉並区","address":"東京都杉並区下井草4丁目12-14","lat":35.71990697,"lon":139.62165216},{"name":"区立馬橋公園","province":"東京都","city":"杉並区","address":"東京都杉並区高円寺北4丁目35-5","lat":35.7096309,"lon":139.64303976},{"name":"区立西池袋公園","province":"東京都","city":"豊島区","address":"東京都豊島区西池袋3丁目20-1","lat":35.73053587,"lon":139.70552793},{"name":"都立文京高等学校","province":"東京都","city":"豊島区","address":"東京都豊島区西巣鴨1丁目1-5","lat":35.7358553,"lon":139.72898683},{"name":"区立桐ヶ丘中央公園","province":"東京都","city":"北区","address":"東京都北区桐ケ丘1丁目8","lat":35.77854405,"lon":139.70742859},{"name":"区立滝野川公園","province":"東京都","city":"北区","address":"東京都北区西ケ原2丁目1","lat":35.74541006,"lon":139.74448791},{"name":"区立北運動公園","province":"東京都","city":"北区","address":"東京都北区神谷2丁目47-6","lat":35.77383973,"lon":139.72797147},{"name":"南千住給水所","province":"東京都","city":"荒川区","address":"東京都荒川区南千住8丁目2-6","lat":35.73577514,"lon":139.80766775},{"name":"三園浄水場","province":"東京都","city":"板橋区","address":"東京都板橋区三園2丁目10-1","lat":35.7948317,"lon":139.64197828},{"name":"板橋給水所","province":"東京都","city":"足立区","address":"東京都足立区加賀1丁目17-1","lat":35.78938603,"lon":139.75898755},{"name":"都立城北中央公園","province":"大阪府","city":"大阪市浪速区","address":"大阪府大阪市浪速区桜川1丁目1","lat":34.66750963,"lon":135.4937971},{"name":"区立城北公園","province":"東京都","city":"板橋区","address":"東京都板橋区坂下2丁目19-1","lat":35.78357064,"lon":139.68153885},{"name":"都立板橋高等学校","province":"東京都","city":"板橋区","address":"東京都板橋区大谷口1丁目54-1","lat":35.74187304,"lon":139.68991765},{"name":"都立赤塚公園","province":"東京都","city":"板橋区","address":"東京都板橋区高島平3丁目1","lat":35.78522804,"lon":139.65529951},{"name":"区立西徳第二公園","province":"東京都","city":"板橋区","address":"東京都板橋区西台3丁目42-1","lat":35.77615447,"lon":139.66783758},{"name":"大谷口給水所","province":"東京都","city":"板橋区","address":"東京都板橋区大谷口1丁目4","lat":35.74552822,"lon":139.69106185},{"name":"練馬給水所","province":"鹿児島県","city":"鹿児島市","address":"鹿児島県鹿児島市花野光ヶ丘2丁目4-1","lat":31.64724258,"lon":130.52719614},{"name":"区立大泉公園","province":"東京都","city":"練馬区","address":"東京都練馬区大泉学園町6丁目25","lat":35.7719023,"lon":139.58278997},{"name":"区立学田公園","province":"東京都","city":"練馬区","address":"東京都練馬区豊玉南3丁目32","lat":35.72961495,"lon":139.64937445},{"name":"区立みんなの広場公園","province":"東京都","city":"練馬区","address":"東京都練馬区石神井町8丁目41","lat":35.74805873,"lon":139.59823632},{"name":"小右衛門給水所","province":"東京都","city":"足立区","address":"東京都足立区中央本町3丁目8-1","lat":35.77219224,"lon":139.80734518},{"name":"区総合スポーツセンター","province":"東京都","city":"足立区","address":"東京都足立区東保木間2丁目27-1","lat":35.79222061,"lon":139.81364669},{"name":"区立千住スポーツ公園","province":"東京都","city":"足立区","address":"東京都足立区千住緑町2丁目1-1","lat":35.74518999,"lon":139.79567026},{"name":"区立諏訪木東公園","province":"東京都","city":"足立区","address":"東京都足立区西新井3丁目25","lat":35.78998665,"lon":139.77999121},{"name":"区立大谷田南公園","province":"東京都","city":"足立区","address":"東京都足立区中川4丁目42-1","lat":35.7717206,"lon":139.84821396},{"name":"区立北鹿浜公園","province":"東京都","city":"足立区","address":"東京都足立区鹿浜3丁目26","lat":35.78240338,"lon":139.75411604},{"name":"都立舎人公園","province":"東京都","city":"足立区","address":"東京都足立区舎人公園1-1","lat":35.79709935,"lon":139.76835863},{"name":"金町浄水場","province":"東京都","city":"葛飾区","address":"東京都葛飾区金町浄水場1-1","lat":35.76233004,"lon":139.87836494},{"name":"水元給水所（都立水元公園内自由広場）","province":"東京都","city":"葛飾区","address":"東京都葛飾区水元公園4","lat":35.79240643,"lon":139.86812312},{"name":"区立上千葉公園","province":"東京都","city":"葛飾区","address":"東京都葛飾区東堀切3丁目25-1","lat":35.75497273,"lon":139.83903761},{"name":"区立新小岩公園","province":"東京都","city":"葛飾区","address":"東京都葛飾区西新小岩1丁目1-3","lat":35.71611839,"lon":139.85476607},{"name":"区立渋江東公園","province":"東京都","city":"葛飾区","address":"東京都葛飾区東四つ木2丁目15","lat":35.73076194,"lon":139.8434969},{"name":"西瑞江給水所","province":"東京都","city":"江戸川区","address":"東京都江戸川区東瑞江1丁目26-2","lat":35.69135275,"lon":139.89810175},{"name":"葛西給水所","province":"東京都","city":"江戸川区","address":"東京都江戸川区北葛西3丁目9","lat":35.67359591,"lon":139.85917535},{"name":"都立篠崎公園","province":"東京都","city":"江戸川区","address":"東京都江戸川区上篠崎1丁目25","lat":35.7146518,"lon":139.89798133},{"name":"区立宇喜田中央公園","province":"東京都","city":"江戸川区","address":"東京都江戸川区北葛西4丁目15","lat":35.67038268,"lon":139.86439164},{"name":"区立小岩公園","province":"東京都","city":"江戸川区","address":"東京都江戸川区北小岩6丁目43","lat":35.74601851,"lon":139.8865981},{"name":"都立大島小松川公園","province":"東京都","city":"江戸川区","address":"東京都江戸川区小松川1丁目7","lat":35.69216816,"lon":139.85200056},{"name":"都立葛西南高等学校","province":"東京都","city":"江戸川区","address":"東京都江戸川区南葛西1丁目11-1","lat":35.65367379,"lon":139.87079175},{"name":"白鬚東地区防災拠点","province":"東京都","city":"墨田区","address":"東京都墨田区堤通2丁目","lat":35.73410354,"lon":139.81657811},{"name":"鑓水給水所","province":"東京都","city":"八王子市","address":"東京都八王子市鑓水401","lat":35.62415583,"lon":139.34980654},{"name":"狭間給水所","province":"東京都","city":"八王子市","address":"東京都八王子市狭間町1994-478","lat":35.63029296,"lon":139.27876559},{"name":"犬目第二給水所","province":"東京都","city":"八王子市","address":"東京都八王子市犬目町710","lat":35.69936256,"lon":139.30266063},{"name":"散田給水所","province":"東京都","city":"八王子市","address":"東京都八王子市散田町2丁目6-1","lat":35.65135168,"lon":139.31473913},{"name":"東浅川給水所","province":"東京都","city":"八王子市","address":"東京都八王子市東浅川町674-42","lat":35.64237733,"lon":139.29781872},{"name":"元八王子配水所","province":"東京都","city":"八王子市","address":"東京都八王子市元八王子町3丁目2750-487","lat":35.64669566,"lon":139.26642416},{"name":"北野給水所","province":"東京都","city":"八王子市","address":"東京都八王子市北野町595-3","lat":35.65385799,"lon":139.35498833},{"name":"南陽台配水所","province":"群馬県","city":"高崎市","address":"群馬県高崎市吉井町南陽台3丁目5-1","lat":36.2745059,"lon":139.004931},{"name":"楢原給水所","province":"東京都","city":"八王子市","address":"東京都八王子市楢原町1294-3","lat":35.67707642,"lon":139.30724447},{"name":"暁町配水所","province":"東京都","city":"八王子市","address":"東京都八王子市暁町3丁目3-1","lat":35.67475519,"lon":139.3369892},{"name":"鑓水小山給水所","province":"東京都","city":"八王子市","address":"東京都八王子市鑓水2丁目92","lat":35.60622202,"lon":139.36017588},{"name":"柴崎浄水所","province":"東京都","city":"立川市","address":"東京都立川市柴崎町1丁目1-41","lat":35.69686245,"lon":139.40595201},{"name":"立川栄町浄水所","province":"東京都","city":"立川市","address":"東京都立川市栄町5丁目38-5","lat":35.71814941,"lon":139.42479141},{"name":"西砂第一浄水所","province":"東京都","city":"立川市","address":"東京都立川市西砂町2丁目53-14","lat":35.73083799,"lon":139.36059394},{"name":"立川砂川浄水所","province":"東京都","city":"立川市","address":"東京都立川市砂川町6丁目41-1","lat":35.72996987,"lon":139.407348},{"name":"上連雀浄水所（西配水場）","province":"東京都","city":"三鷹市","address":"東京都三鷹市上連雀9丁目41-4","lat":35.68686727,"lon":139.55074561},{"name":"三鷹新川浄水所（東配水場）","province":"大分県","city":"大分市","address":"大分県大分市賀来新川2丁目1-15","lat":33.21270864,"lon":131.57387839},{"name":"日向和田浄水所","province":"東京都","city":"青梅市","address":"東京都青梅市日向和田2丁目370","lat":35.78437016,"lon":139.23479499},{"name":"千ヶ瀬第二浄水所","province":"東京都","city":"青梅市","address":"東京都青梅市千ヶ瀬町1丁目69-1","lat":35.78467678,"lon":139.27783217},{"name":"御岳山第一配水所","province":"東京都","city":"青梅市","address":"東京都青梅市御岳山170-3","lat":35.78346895,"lon":139.15124212},{"name":"新町給水所","province":"東京都","city":"青梅市","address":"東京都青梅市新町5丁目24-1","lat":35.78846047,"lon":139.30887384},{"name":"二俣尾配水所","province":"東京都","city":"青梅市","address":"東京都青梅市二俣尾5丁目107-2","lat":35.81524153,"lon":139.2066392},{"name":"城山配水所","province":"東京都","city":"青梅市","address":"東京都青梅市東青梅6丁目95-1","lat":35.79671131,"lon":139.27230447},{"name":"府中武蔵台浄水所","province":"東京都","city":"府中市","address":"東京都府中市武蔵台2丁目7","lat":35.68899266,"lon":139.46004218},{"name":"若松浄水所","province":"岐阜県","city":"多治見市","address":"岐阜県多治見市若松町4丁目10","lat":35.34335315,"lon":137.11355867},{"name":"幸町浄水所","province":"千葉県","city":"千葉市美浜区","address":"千葉県千葉市美浜区幸町2丁目24","lat":35.62104094,"lon":140.09460134},{"name":"府中南町浄水所","province":"東京都","city":"府中市","address":"東京都府中市南町1丁目50","lat":35.65857132,"lon":139.47090616},{"name":"都立武蔵野公園","province":"東京都","city":"府中市","address":"東京都府中市多磨町3丁目2","lat":35.68861916,"lon":139.51875946},{"name":"上石原浄水所","province":"東京都","city":"調布市","address":"東京都調布市上石原1丁目34-7","lat":35.66130335,"lon":139.53174555},{"name":"深大寺浄水所","province":"東京都","city":"調布市","address":"東京都調布市深大寺南町5丁目56-1","lat":35.66896104,"lon":139.55556797},{"name":"小野路給水所","province":"東京都","city":"町田市","address":"東京都町田市小野路町2637-1","lat":35.60444421,"lon":139.44936302},{"name":"原町田浄水所","province":"東京都","city":"町田市","address":"東京都町田市原町田5丁目13-3","lat":35.54660006,"lon":139.45080608},{"name":"滝の沢浄水所","province":"神奈川県","city":"厚木市","address":"神奈川県厚木市旭町2丁目7-7","lat":35.43757946,"lon":139.36725512},{"name":"野津田浄水所","province":"東京都","city":"町田市","address":"東京都町田市野津田町3398","lat":35.57686925,"lon":139.44848042},{"name":"市立つくし野セントラルパーク","province":"東京都","city":"町田市","address":"東京都町田市つくし野3丁目19","lat":35.52117273,"lon":139.4820081},{"name":"市立鶴川中央公園","province":"東京都","city":"町田市","address":"東京都町田市鶴川6丁目6","lat":35.59097803,"lon":139.47185937},{"name":"市立忠生公園","province":"東京都","city":"町田市","address":"東京都町田市忠生1丁目3","lat":35.57282192,"lon":139.4224412},{"name":"梶野浄水所","province":"東京都","city":"小金井市","address":"東京都小金井市梶野町5丁目10-33","lat":35.70463703,"lon":139.52653041},{"name":"上水南浄水所","province":"東京都","city":"小平市","address":"東京都小平市上水南町3丁目12-36","lat":35.71160196,"lon":139.49171079},{"name":"小川浄水所","province":"東京都","city":"小平市","address":"東京都小平市小川町1丁目847","lat":35.72563541,"lon":139.45317197},{"name":"大坂上浄水所","province":"東京都","city":"日野市","address":"東京都日野市大坂上1丁目17-11","lat":35.67723932,"lon":139.38981523},{"name":"多摩平浄水所","province":"東京都","city":"日野市","address":"東京都日野市多摩平2丁目7-2","lat":35.66503502,"lon":139.38261897},{"name":"程久保給水所","province":"東京都","city":"日野市","address":"東京都日野市程久保5丁目10-1","lat":35.64065199,"lon":139.3951993},{"name":"三沢配水所","province":"埼玉県","city":"秩父郡皆野町","address":"埼玉県秩父郡皆野町三沢（大字）3905-2","lat":36.0649931,"lon":139.12901974},{"name":"日野旭が丘給水所","province":"宮城県","city":"仙台市青葉区","address":"宮城県仙台市青葉区旭ケ丘2丁目42-20","lat":38.29198269,"lon":140.88541164},{"name":"八坂給水所","province":"東京都","city":"東村山市","address":"東京都東村山市富士見町5丁目4-46","lat":35.74735525,"lon":139.45848167},{"name":"東村山浄水場","province":"東京都","city":"東村山市","address":"東京都東村山市美住町2丁目20-236","lat":35.75327404,"lon":139.45878417},{"name":"美住給水所","province":"東京都","city":"東村山市","address":"東京都東村山市美住町2丁目13-4","lat":35.75552943,"lon":139.46155328},{"name":"市立東村山運動公園","province":"東京都","city":"東村山市","address":"東京都東村山市恩多町1丁目9-59","lat":35.75542745,"lon":139.48852866},{"name":"東恋ヶ窪浄水所","province":"東京都","city":"国分寺市","address":"東京都国分寺市東恋ヶ窪2丁目5-8","lat":35.7064827,"lon":139.47639009},{"name":"国分寺北町第二浄水所","province":"埼玉県","city":"蕨市","address":"埼玉県蕨市北町4丁目1-5","lat":35.83016055,"lon":139.67869666},{"name":"国立中浄水所","province":"和歌山県","city":"和歌山市","address":"和歌山県和歌山市松江中3丁目8-1","lat":34.24888063,"lon":135.13222364},{"name":"谷保浄水所","province":"東京都","city":"国立市","address":"東京都国立市谷保1462-1","lat":35.67798226,"lon":139.44087203},{"name":"福生武蔵野台浄水所","province":"東京都","city":"福生市","address":"東京都福生市武蔵野台2丁目32","lat":35.75162088,"lon":139.329215},{"name":"和泉本町浄水所","province":"東京都","city":"狛江市","address":"東京都狛江市和泉本町4丁目6-1","lat":35.64293402,"lon":139.57119546},{"name":"東大和給水所","province":"東京都","city":"東大和市","address":"東京都東大和市桜が丘3丁目44","lat":35.73125354,"lon":139.42818775},{"name":"清瀬元町浄水所","province":"大阪府","city":"枚方市","address":"大阪府枚方市藤阪元町2丁目27-12","lat":34.81941249,"lon":135.69864781},{"name":"清瀬旭が丘浄水所","province":"福岡県","city":"大野城市","address":"福岡県大野城市旭ケ丘2丁目5-5","lat":33.51020661,"lon":130.48232584},{"name":"南沢浄水所","province":"東京都","city":"東久留米市","address":"東京都東久留米市南沢3丁目9-21","lat":35.75193708,"lon":139.52583381},{"name":"滝山浄水所","province":"東京都","city":"東久留米市","address":"東京都東久留米市滝山6丁目1-1","lat":35.74739829,"lon":139.50739394},{"name":"学園配水所","province":"福井県","city":"福井市","address":"福井県福井市学園1丁目5-7","lat":36.06974036,"lon":136.20254847},{"name":"中藤配水所","province":"東京都","city":"武蔵村山市","address":"東京都武蔵村山市中藤2丁目1-3","lat":35.7588829,"lon":139.3936565},{"name":"市立中原公園","province":"千葉県","city":"柏市","address":"千葉県柏市中原2丁目21-4","lat":35.82366056,"lon":139.9675074},{"name":"桜ヶ丘浄水所","province":"福岡県","city":"糟屋郡志免町","address":"福岡県糟屋郡志免町桜丘4丁目10-2","lat":33.56570037,"lon":130.48302059},{"name":"落合浄水所","province":"東京都","city":"多摩市","address":"東京都多摩市中沢1丁目12","lat":35.62444889,"lon":139.41365963},{"name":"愛宕配水所","province":"東京都","city":"多摩市","address":"東京都多摩市愛宕2丁目51","lat":35.63483719,"lon":139.43953479},{"name":"南野給水所","province":"東京都","city":"多摩市","address":"東京都多摩市南野2丁目16","lat":35.60863738,"lon":139.43101436},{"name":"聖ヶ丘給水所","province":"東京都","city":"多摩市","address":"東京都多摩市聖ヶ丘4丁目1","lat":35.62952201,"lon":139.46372188},{"name":"市立並木公園","province":"香川県","city":"観音寺市","address":"香川県観音寺市豊浜町和田浜1551-16","lat":34.07312486,"lon":133.63693662},{"name":"坂浜浄水所","province":"青森県","city":"青森市","address":"青森県青森市久栗坂（大字）浜田（字）816","lat":40.87220727,"lon":140.84515366},{"name":"向陽台給水所","province":"東京都","city":"稲城市","address":"東京都稲城市向陽台6丁目16","lat":35.64371302,"lon":139.49304963},{"name":"若葉台給水所","province":"兵庫県","city":"神戸市北区","address":"兵庫県神戸市北区若葉台1丁目19-9","lat":34.74219268,"lon":135.1548857},{"name":"秋留台給水所","province":"東京都","city":"あきる野市","address":"東京都あきる野市秋川3丁目2-10","lat":35.73175243,"lon":139.28428611},{"name":"菅生給水所","province":"茨城県","city":"常総市","address":"茨城県常総市菅生町683","lat":35.9845626,"lon":139.93775975},{"name":"上代継浄水所","province":"東京都","city":"あきる野市","address":"東京都あきる野市上代継407","lat":35.71915367,"lon":139.2783759},{"name":"戸倉給水所","province":"東京都","city":"あきる野市","address":"東京都あきる野市戸倉348-1","lat":35.72646632,"lon":139.20192062},{"name":"小峰台配水所","province":"和歌山県","city":"橋本市","address":"和歌山県橋本市小峰台1丁目40","lat":34.35038197,"lon":135.62731821},{"name":"伊奈配水所","province":"東京都","city":"あきる野市","address":"東京都あきる野市伊奈372-3","lat":35.7348678,"lon":139.25221118},{"name":"芝久保浄水所","province":"東京都","city":"西東京市","address":"東京都西東京市芝久保町5丁目9-1","lat":35.7337808,"lon":139.52453742},{"name":"保谷町浄水所","province":"東京都","city":"西東京市","address":"東京都西東京市保谷町1丁目5-24","lat":35.73545076,"lon":139.55478209},{"name":"西東京栄町浄水所","province":"東京都","city":"西東京市","address":"東京都西東京市栄町2丁目7-6","lat":35.75167656,"lon":139.55222337},{"name":"文化の森給水所","province":"東京都","city":"西多摩郡日の出町","address":"東京都西多摩郡日の出町平井（大字）3075","lat":35.74757768,"lon":139.2552131},{"name":"第一浄水場","province":"東京都","city":"武蔵野市","address":"東京都武蔵野市吉祥寺北町4丁目11-46","lat":35.71395903,"lon":139.56650423},{"name":"第二浄水場","province":"東京都","city":"武蔵野市","address":"東京都武蔵野市桜堤1丁目6-6","lat":35.70967278,"lon":139.53635988},{"name":"西部配水場","province":"埼玉県","city":"八潮市","address":"埼玉県八潮市緑町2丁目17-16","lat":35.82369671,"lon":139.83216097},{"name":"東部配水場","province":"東京都","city":"昭島市","address":"東京都昭島市朝日町4丁目23-28","lat":35.70855468,"lon":139.37011036},{"name":"第一配水場","province":"埼玉県","city":"ふじみ野市","address":"埼玉県ふじみ野市緑ケ丘2丁目18-5","lat":35.85939225,"lon":139.49890501},{"name":"小作浄水場","province":"東京都","city":"羽村市","address":"東京都羽村市小作台4丁目2-1","lat":35.77612268,"lon":139.2958031},{"name":"区立鶴巻南公園（注１）","province":"東京都","city":"新宿区","address":"東京都新宿区早稲田鶴巻町507","lat":35.70624187,"lon":139.72408838},{"name":"区立教育の森公園（注２）","province":"東京都","city":"文京区","address":"東京都文京区大塚3丁目29-1","lat":35.71964352,"lon":139.73724511},{"name":"練馬給水所（注４）","province":"鹿児島県","city":"鹿児島市","address":"鹿児島県鹿児島市花野光ヶ丘2丁目4-1","lat":31.64724258,"lon":130.52719614},{"name":"西瑞江給水所（注５）","province":"東京都","city":"江戸川区","address":"東京都江戸川区東瑞江1丁目26-2","lat":35.69135275,"lon":139.89810175},{"name":"西砂第一浄水所（注１）","province":"東京都","city":"立川市","address":"東京都立川市西砂町2丁目53-14","lat":35.73083799,"lon":139.36059394},{"name":"美住給水所（注２）","province":"東京都","city":"東村山市","address":"東京都東村山市美住町2丁目13-4","lat":35.75552943,"lon":139.46155328},{"name":"清瀬旭が丘浄水所（注３）","province":"福岡県","city":"大野城市","address":"福岡県大野城市旭ケ丘2丁目5-5","lat":33.51020661,"lon":130.48232584}]}