{"keyword":"施術","data":[{"name":"ハチドリ鍼灸院","province":"東京都","city":"港区","address":"東京都港区赤坂一丁目1番17号","lat":35.670979,"lon":139.743988,"施設方書":"細川ビル412","施設開設日":"2015/9/29","施設電話番号":"","診療科目名称":"あん摩、はり、きゅう"},{"name":"溜池治療院","province":"東京都","city":"港区","address":"東京都港区赤坂一丁目5番15号","lat":35.670637,"lon":139.743149,"施設方書":"溜池アネックス4階","施設開設日":"2005/4/15","施設電話番号":"03-5572-8218","診療科目名称":"あん摩、はり、きゅう"},{"name":"スカパーJSAT Healing Space","province":"東京都","city":"港区","address":"東京都港区赤坂一丁目8番1号","lat":35.669827,"lon":139.742197,"施設方書":"赤坂インターシティAir12階","施設開設日":"2018/9/10","施設電話番号":"03-5771-7800","診療科目名称":"あん摩"},{"name":"株式会社セゾン情報システムズ","province":"東京都","city":"港区","address":"東京都港区赤坂一丁目8番1号","lat":35.669827,"lon":139.742197,"施設方書":"赤坂インターシティAIR19階","施設開設日":"2017/11/20","施設電話番号":"03-6370-2000","診療科目名称":"あん摩、はり、きゅう"},{"name":"アクセンチュア株式会社(赤坂1丁目)","province":"東京都","city":"港区","address":"東京都港区赤坂一丁目11番44号","lat":35.668899,"lon":139.742543,"施設方書":"赤坂インターシティ13階","施設開設日":"2005/5/9","施設電話番号":"03-3588-3000","診療科目名称":"あん摩、はり、きゅう"},{"name":"株式会社ワークスアプリケーションズ","province":"東京都","city":"港区","address":"東京都港区赤坂一丁目12番32号","lat":35.667113,"lon":139.740135,"施設方書":"アーク森ビル19階","施設開設日":"2004/3/8","施設電話番号":"03-6229-1200","診療科目名称":"あん摩、はり、きゅう"},{"name":"あん摩・マッサージ・指圧FIELD RIVER(フィールドリバー)","province":"東京都","city":"港区","address":"東京都港区赤坂二丁目8番2号","lat":35.671989,"lon":139.740051,"施設方書":"エクレシアヒルズ3A","施設開設日":"2011/3/7","施設電話番号":"","診療科目名称":"あん摩、はり、きゅう"},{"name":"赤坂鍼療院","province":"東京都","city":"港区","address":"東京都港区赤坂二丁目8番14号","lat":35.671607,"lon":139.740115,"施設方書":"ラミアール赤坂101","施設開設日":"2009/9/30","施設電話番号":"03-5809-1186","診療科目名称":"はり、きゅう"},{"name":"たんぽぽ治療院","province":"東京都","city":"港区","address":"東京都港区赤坂二丁目8番14号","lat":35.671607,"lon":139.740115,"施設方書":"ラミアール赤坂605","施設開設日":"2002/6/17","施設電話番号":"03-5563-1210","診療科目名称":"あん摩、はり、きゅう"},{"name":"虎ノ門SBM鍼灸院","province":"東京都","city":"港区","address":"東京都港区赤坂二丁目8番14号","lat":35.671661,"lon":139.739992,"施設方書":"丸玉第3ビル601号","施設開設日":"2018/11/8","施設電話番号":"03-6441-0647","診療科目名称":"はり、きゅう"},{"name":"あかさか二丁目鍼灸院","province":"東京都","city":"港区","address":"東京都港区赤坂二丁目8番15号","lat":35.671762,"lon":139.739876,"施設方書":"オリエントニュー赤坂101","施設開設日":"2015/4/21","施設電話番号":"03-5575-7775","診療科目名称":"はり、きゅう"},{"name":"赤坂リバース鍼灸マッサージ院","province":"東京都","city":"港区","address":"東京都港区赤坂二丁目12番9号","lat":35.671181,"lon":139.740326,"施設方書":"中村ビル2階","施設開設日":"2010/12/12","施設電話番号":"0120-980-572","診療科目名称":"あん摩、はり、きゅう"},{"name":"青木治療室","province":"東京都","city":"港区","address":"東京都港区赤坂二丁目12番20号","lat":35.67065,"lon":139.740814,"施設方書":"ディアシティ赤坂東館306","施設開設日":"1998/7/1","施設電話番号":"03-5562-0221","診療科目名称":"あん摩"},{"name":"田中喜美子指圧所","province":"東京都","city":"港区","address":"東京都港区赤坂二丁目13番8号","lat":35.672152,"lon":139.738658,"施設方書":"赤坂ロイヤルプラザ404","施設開設日":"1993/9/10","施設電話番号":"03-3584-1297","診療科目名称":"あん摩"},{"name":"山王鍼灸","province":"東京都","city":"港区","address":"東京都港区赤坂二丁目13番8号","lat":35.672152,"lon":139.738658,"施設方書":"ロイヤルプラザ509","施設開設日":"1982/10/15","施設電話番号":"03-3583-8088","診療科目名称":"はり、きゅう、あん摩"},{"name":"鍼灸院 赤坂養美","province":"東京都","city":"港区","address":"東京都港区赤坂二丁目13番23号","lat":35.672994,"lon":139.738132,"施設方書":"赤坂MYビル602","施設開設日":"2023/11/1","施設電話番号":"","診療科目名称":"あん摩、はり、きゅう"},{"name":"赤坂NEP‘S鍼灸・マッサージ院","province":"東京都","city":"港区","address":"東京都港区赤坂二丁目14番33号","lat":35.672798,"lon":139.73772,"施設方書":"栄屋清水ビル301","施設開設日":"2010/10/1","施設電話番号":"03-3587-2146","診療科目名称":"あん摩、はり、きゅう"},{"name":"Haristo(ハリスト)","province":"東京都","city":"港区","address":"東京都港区赤坂二丁目15番7号","lat":35.671455,"lon":139.738039,"施設方書":"501","施設開設日":"2023/4/24","施設電話番号":"","診療科目名称":"はり、きゅう"},{"name":"株式会社スパイク・チュンソフト リフレッシュルーム","province":"東京都","city":"港区","address":"東京都港区赤坂二丁目17番7号","lat":35.671253,"lon":139.739334,"施設方書":"赤坂溜池タワー5階","施設開設日":"2013/1/15","施設電話番号":"03-5575-5670","診療科目名称":"あん摩"},{"name":"篠原鍼灸院","province":"東京都","city":"港区","address":"東京都港区赤坂二丁目17番52号","lat":35.670069,"lon":139.738159,"施設方書":"グランドメゾン赤坂202","施設開設日":"2002/8/10","施設電話番号":"03-3586-8528","診療科目名称":"あん摩、はり、きゅう"},{"name":"赤坂なかよし治療院","province":"東京都","city":"港区","address":"東京都港区赤坂二丁目17番58号","lat":35.670576,"lon":139.737774,"施設方書":"赤坂福住ビル3階","施設開設日":"2015/4/6","施設電話番号":"03-5561-0531","診療科目名称":"はり、きゅう、あん摩"},{"name":"聖真堂指圧マッサージ","province":"東京都","city":"港区","address":"東京都港区赤坂二丁目17番69号","lat":35.672344,"lon":139.739015,"施設方書":"ムトウコーポ305","施設開設日":"1998/10/28","施設電話番号":"03-3588-0781","診療科目名称":"あん摩"},{"name":"健康家族 溜池鍼灸院 本院","province":"東京都","city":"港区","address":"東京都港区赤坂二丁目19番8‐102号","lat":35.668388,"lon":139.739844,"施設方書":"","施設開設日":"2016/11/1","施設電話番号":"03-5570-7055","診療科目名称":"はり、きゅう、あん摩"},{"name":"しん灸 越前谷","province":"東京都","city":"港区","address":"東京都港区赤坂二丁目20番16号","lat":35.669031,"lon":139.738812,"施設方書":"第3村嶋ビル1階","施設開設日":"2018/9/13","施設電話番号":"050-1474-5383","診療科目名称":"はり、きゅう"},{"name":"赤坂針灸院","province":"東京都","city":"港区","address":"東京都港区赤坂三丁目6番11号","lat":35.673344,"lon":139.738373,"施設方書":"第100東京ビル5階","施設開設日":"2009/5/13","施設電話番号":"03-3505-2716","診療科目名称":"あん摩、はり、きゅう"},{"name":"赤坂島田整骨院","province":"東京都","city":"港区","address":"東京都港区赤坂三丁目10番5号","lat":35.675956,"lon":139.736921,"施設方書":"赤坂クインビル5階","施設開設日":"1978/9/25","施設電話番号":"03-3583-1996","診療科目名称":"はり、きゅう"},{"name":"タチバナ治療室","province":"東京都","city":"港区","address":"東京都港区赤坂三丁目11番14号","lat":35.674637,"lon":139.737273,"施設方書":"ベルゴ豊栄411","施設開設日":"1982/3/1","施設電話番号":"03-3583-1220","診療科目名称":"あん摩"},{"name":"グローバル治療院赤坂マッサージ&鍼灸","province":"東京都","city":"港区","address":"東京都港区赤坂三丁目12番22号","lat":35.674236,"lon":139.73764,"施設方書":"竹下ビル1階","施設開設日":"2013/4/8","施設電話番号":"03-5575-3939","診療科目名称":"あん摩、はり、きゅう"},{"name":"鍼灸サロンBODYFITスポーツ","province":"東京都","city":"港区","address":"東京都港区赤坂三丁目13番3号","lat":35.673375,"lon":139.73764,"施設方書":"みすじ313ビル2階","施設開設日":"2018/6/5","施設電話番号":"03-6277-8219","診療科目名称":"はり、きゅう"},{"name":"W(ダブリュー)鍼灸所","province":"東京都","city":"港区","address":"東京都港区赤坂三丁目13番6号","lat":35.673069,"lon":139.73768,"施設方書":"国際天野ビル6階","施設開設日":"2011/8/8","施設電話番号":"03-5575-3433","診療科目名称":"はり、きゅう"},{"name":"リンドウー治療院赤坂一ツ木通り店","province":"東京都","city":"港区","address":"東京都港区赤坂三丁目15番9号","lat":35.674415,"lon":139.736565,"施設方書":"萬屋ビル3階","施設開設日":"2016/4/11","施設電話番号":"03-6459-1483","診療科目名称":"あん摩、はり、きゅう"},{"name":"米澤鍼治療院","province":"東京都","city":"港区","address":"東京都港区赤坂三丁目16番5号","lat":35.674794,"lon":139.736662,"施設方書":"ユタカ産業ビル503","施設開設日":"2008/10/1","施設電話番号":"03-6277-8363","診療科目名称":"はり"},{"name":"赤坂てんほうスポーツ治療院","province":"東京都","city":"港区","address":"東京都港区赤坂三丁目16番5号","lat":35.674794,"lon":139.736662,"施設方書":"ユタカ産業ビル503","施設開設日":"2011/5/18","施設電話番号":"03-5545-5267","診療科目名称":"あん摩、はり、きゅう"},{"name":"エフ、イー・エムサウナ","province":"東京都","city":"港区","address":"東京都港区赤坂三丁目16番11号","lat":35.67569,"lon":139.73533,"施設方書":"","施設開設日":"2007/1/1","施設電話番号":"03-3505-4381","診療科目名称":"あん摩"},{"name":"鍼灸マッサージ治療院グリュック","province":"東京都","city":"港区","address":"東京都港区赤坂三丁目21番5号","lat":35.676791,"lon":139.735964,"施設方書":"三銀ビル106","施設開設日":"2017/3/27","施設電話番号":"03-6441-0057","診療科目名称":"あん摩、はり、きゅう"},{"name":"HALII TOKYO","province":"東京都","city":"港区","address":"東京都港区赤坂三丁目21番10号","lat":35.676436,"lon":139.735884,"施設方書":"青明会館3F-B","施設開設日":"2021/1/10","施設電話番号":"","診療科目名称":"あん摩、きゅう、はり"},{"name":"赤坂テイクキュア治療院","province":"東京都","city":"港区","address":"東京都港区赤坂三丁目21番12号","lat":35.676401,"lon":139.735774,"施設方書":"スリーリバースビル地下1階","施設開設日":"2007/8/1","施設電話番号":"03-3586-4588","診療科目名称":"あん摩、はり、きゅう"},{"name":"はりきゅうマッサージグローバル治療院赤坂一ツ木通","province":"東京都","city":"港区","address":"東京都港区赤坂四丁目1番3号","lat":35.669488,"lon":139.732537,"施設方書":"伊藤ビル1F","施設開設日":"2021/3/1","施設電話番号":"03-3568-4600","診療科目名称":"あん摩、はり、きゅう"},{"name":"赤坂CURA(クーラ)鍼灸治療院","province":"東京都","city":"港区","address":"東京都港区赤坂四丁目3番4号","lat":35.674637,"lon":139.736114,"施設方書":"アソルティー赤坂一ツ木ST3階","施設開設日":"2012/6/4","施設電話番号":"03-5575-2370","診療科目名称":"はり、きゅう"},{"name":"クレールドフォンテーヌ赤坂指圧室","province":"東京都","city":"港区","address":"東京都港区赤坂四丁目3番5号","lat":35.674715,"lon":139.735884,"施設方書":"","施設開設日":"1987/7/18","施設電話番号":"03-3583-6554","診療科目名称":"あん摩"},{"name":"鍼灸指圧院 癒我","province":"東京都","city":"港区","address":"東京都港区赤坂四丁目3番9号","lat":35.674213,"lon":139.735884,"施設方書":"赤坂藤マンション203","施設開設日":"2017/5/1","施設電話番号":"","診療科目名称":"あん摩、はり、きゅう"},{"name":"COCOKARA","province":"東京都","city":"港区","address":"東京都港区赤坂四丁目5番21号","lat":35.674739,"lon":139.734751,"施設方書":"バルミー赤坂207","施設開設日":"2021/6/1","施設電話番号":"03-6419-7565","診療科目名称":"あん摩、はり、きゅう"},{"name":"乾坤治療院","province":"東京都","city":"港区","address":"東京都港区赤坂四丁目8番19号","lat":35.676193,"lon":139.733848,"施設方書":"赤坂表町ビル506","施設開設日":"2001/1/10","施設電話番号":"03-3405-1130","診療科目名称":"あん摩"},{"name":"赤坂龍王針灸指圧治療院","province":"東京都","city":"港区","address":"東京都港区赤坂四丁目10番23号","lat":35.673556,"lon":139.732372,"施設方書":"ニュー富士屋ビル2階","施設開設日":"2008/12/18","施設電話番号":"03-3587-0796","診療科目名称":"あん摩、はり、きゅう"},{"name":"下村鍼療所","province":"東京都","city":"港区","address":"東京都港区赤坂四丁目11番9号","lat":35.673565,"lon":139.733602,"施設方書":"","施設開設日":"1991/5/15","施設電話番号":"03-3586-3690","診療科目名称":"あん摩、はり、きゅう"},{"name":"はんなり鍼灸院","province":"東京都","city":"港区","address":"東京都港区赤坂五丁目1番5号","lat":35.673943,"lon":139.736727,"施設方書":"管野ビル4階","施設開設日":"2016/8/29","施設電話番号":"03-6277-7520","診療科目名称":"はり、きゅう"},{"name":"(有)美木治療所","province":"東京都","city":"港区","address":"東京都港区赤坂五丁目1番36号","lat":35.673974,"lon":139.736153,"施設方書":"","施設開設日":"1970/6/1","施設電話番号":"03-3583-2830","診療科目名称":"あん摩、はり、きゅう"},{"name":"マイカイ鍼灸サロン","province":"東京都","city":"港区","address":"東京都港区赤坂五丁目1番36号","lat":35.673974,"lon":139.736153,"施設方書":"","施設開設日":"2023/3/7","施設電話番号":"03-6824-4044","診療科目名称":"はり、きゅう"},{"name":"パナケア赤坂院 鍼灸指圧マッサージ","province":"東京都","city":"港区","address":"東京都港区赤坂五丁目1番38号","lat":35.674242,"lon":139.736293,"施設方書":"東商ビル2階","施設開設日":"2013/11/1","施設電話番号":"03-6459-1533","診療科目名称":"あん摩、はり、きゅう"},{"name":"安達治療室","province":"東京都","city":"港区","address":"東京都港区赤坂五丁目2番10号","lat":35.672051,"lon":139.733249,"施設方書":"グリーンパーク赤坂2812","施設開設日":"2022/1/1","施設電話番号":"","診療科目名称":"あん摩、はり、きゅう"},{"name":"株式会社博報堂DYアイ・オー","province":"東京都","city":"港区","address":"東京都港区赤坂五丁目2番20号","lat":35.671857,"lon":139.733682,"施設方書":"赤坂パークビル3階","施設開設日":"2020/1/28","施設電話番号":"03-5656-5731","診療科目名称":"あん摩"},{"name":"株式会社博報堂DYアイ・オー","province":"東京都","city":"港区","address":"東京都港区赤坂五丁目3番1号","lat":35.673175,"lon":139.736359,"施設方書":"赤坂Bizタワー4階","施設開設日":"2008/5/15","施設電話番号":"03-6441-6821","診療科目名称":"あん摩"},{"name":"ARC Labo鍼灸院","province":"東京都","city":"港区","address":"東京都港区赤坂五丁目4番8号","lat":35.671918,"lon":139.735774,"施設方書":"クレールタイヨービル601","施設開設日":"2021/11/1","施設電話番号":"03-6441-2587","診療科目名称":"はり、きゅう、あん摩"},{"name":"美馬鍼灸Labo","province":"東京都","city":"港区","address":"東京都港区赤坂五丁目5番8号","lat":35.67078,"lon":139.734503,"施設方書":"赤坂ファイブビル3階","施設開設日":"2015/8/1","施設電話番号":"03-5544-8016","診療科目名称":"はり、きゅう"},{"name":"ファインズスポーツマッサージ鍼灸治療院","province":"東京都","city":"港区","address":"東京都港区赤坂五丁目5番9号","lat":35.670733,"lon":139.734454,"施設方書":"赤坂スバルビル301","施設開設日":"2015/12/25","施設電話番号":"03-6441-3110","診療科目名称":"あん摩、はり、きゅう"},{"name":"PARK 健康 SALON","province":"東京都","city":"港区","address":"東京都港区赤坂六丁目3番8号","lat":35.671077,"lon":139.735717,"施設方書":"ダイアパレス赤坂311","施設開設日":"2021/4/20","施設電話番号":"","診療科目名称":"あん摩"},{"name":"鶴立治療院","province":"東京都","city":"港区","address":"東京都港区赤坂六丁目3番15号","lat":35.670992,"lon":139.73529,"施設方書":"J-AKASAKA503","施設開設日":"2018/6/11","施設電話番号":"03-3560-5588","診療科目名称":"きゅう、はり"},{"name":"Re-plus","province":"東京都","city":"港区","address":"東京都港区赤坂六丁目4番18号","lat":35.670473,"lon":139.734607,"施設方書":"プリンストン赤坂902","施設開設日":"2023/3/5","施設電話番号":"","診療科目名称":"あん摩、はり、きゅう"},{"name":"赤坂山王鍼灸院","province":"東京都","city":"港区","address":"東京都港区赤坂六丁目4番18号","lat":35.670473,"lon":139.734607,"施設方書":"プリンストン赤坂605","施設開設日":"2002/10/28","施設電話番号":"03-3505-2237","診療科目名称":"はり、きゅう"},{"name":"鍼灸院Revive","province":"東京都","city":"港区","address":"東京都港区赤坂六丁目4番18号","lat":35.670473,"lon":139.734607,"施設方書":"プリンストン赤坂602号室","施設開設日":"2022/6/11","施設電話番号":"","診療科目名称":"あん摩、はり、きゅう"},{"name":"鍼灸康堂","province":"東京都","city":"港区","address":"東京都港区赤坂六丁目4番20号","lat":35.670619,"lon":139.734816,"施設方書":"802","施設開設日":"2013/6/4","施設電話番号":"03-3585-4189","診療科目名称":"あん摩、はり、きゅう"},{"name":"中村鍼灸療養研究所","province":"東京都","city":"港区","address":"東京都港区赤坂六丁目4番20号","lat":35.670619,"lon":139.734816,"施設方書":"赤坂ヴィラージュ701","施設開設日":"2011/7/31","施設電話番号":"03-6277-6689","診療科目名称":"はり、きゅう"},{"name":"PrimeBeauty鍼灸院","province":"東京都","city":"港区","address":"東京都港区赤坂六丁目6番4号","lat":35.67041,"lon":139.737545,"施設方書":"いづみマンション602","施設開設日":"2021/9/4","施設電話番号":"","診療科目名称":"はり、きゅう"},{"name":"赤坂鍼灸 4‐leaves","province":"東京都","city":"港区","address":"東京都港区赤坂六丁目6番19号","lat":35.669573,"lon":139.737066,"施設方書":"メゾン・ド・ヴィレ赤坂502","施設開設日":"2015/10/15","施設電話番号":"03-5797-7817","診療科目名称":"はり、きゅう"},{"name":"指圧処匠~三代目~","province":"東京都","city":"港区","address":"東京都港区赤坂六丁目12番9号","lat":35.669256,"lon":139.734168,"施設方書":"氷川台ハイツ102","施設開設日":"2013/6/4","施設電話番号":"03-3568-2853","診療科目名称":"あん摩"},{"name":"指圧処 匠三代目","province":"東京都","city":"港区","address":"東京都港区赤坂六丁目13番6号","lat":35.669894,"lon":139.734327,"施設方書":"赤坂キャステール902","施設開設日":"2024/1/12","施設電話番号":"03-3568-2853","診療科目名称":"あん摩"},{"name":"スミダ治療室","province":"東京都","city":"港区","address":"東京都港区赤坂六丁目16番15号","lat":35.668812,"lon":139.73297,"施設方書":"木村荘201","施設開設日":"2021/6/1","施設電話番号":"","診療科目名称":"はり、きゅう"},{"name":"神谷鍼灸院","province":"東京都","city":"港区","address":"東京都港区赤坂六丁目19番50号","lat":35.668069,"lon":139.73331,"施設方書":"パシフィックレジデンス赤坂檜町","施設開設日":"2006/4/17","施設電話番号":"03-5545-1535","診療科目名称":"あん摩、はり、きゅう"},{"name":"治療室SORA","province":"東京都","city":"港区","address":"東京都港区赤坂七丁目4番6号","lat":35.671834,"lon":139.729462,"施設方書":"","施設開設日":"2005/10/25","施設電話番号":"03-3584-4163","診療科目名称":"あん摩、はり、きゅう"},{"name":"HÈBÈはり治療院","province":"東京都","city":"港区","address":"東京都港区赤坂七丁目5番15号","lat":35.671937,"lon":139.730304,"施設方書":"From 1st AKASAKA106号室","施設開設日":"2020/4/5","施設電話番号":"","診療科目名称":"はり"},{"name":"澤野鍼灸サロン","province":"東京都","city":"港区","address":"東京都港区赤坂七丁目5番34号","lat":35.671156,"lon":139.730276,"施設方書":"インペリアル赤坂フォラム218","施設開設日":"2017/5/11","施設電話番号":"","診療科目名称":"あん摩、はり、きゅう"},{"name":"株式会社オムニバス・ジャパン","province":"東京都","city":"港区","address":"東京都港区赤坂七丁目9番11号","lat":35.670153,"lon":139.732626,"施設方書":"","施設開設日":"2004/5/11","施設電話番号":"03-6229-0606","診療科目名称":"あん摩"},{"name":"赤坂山王鍼灸治療院","province":"東京都","city":"港区","address":"東京都港区赤坂七丁目10番6号","lat":35.6697,"lon":139.732771,"施設方書":"ストークビル赤坂405号室","施設開設日":"2023/10/1","施設電話番号":"03-3588-8588","診療科目名称":"あん摩、はり、きゅう"},{"name":"吉岡壮快指圧治療院","province":"東京都","city":"港区","address":"東京都港区赤坂七丁目10番6号","lat":35.6697,"lon":139.732771,"施設方書":"ストークビル赤阪402","施設開設日":"1997/6/16","施設電話番号":"03-3224-1770","診療科目名称":"あん摩、はり、きゅう"},{"name":"華鍼灸治療院","province":"東京都","city":"港区","address":"東京都港区赤坂七丁目10番8号","lat":35.669538,"lon":139.73257,"施設方書":"4階","施設開設日":"2021/1/26","施設電話番号":"","診療科目名称":"はり、きゅう"},{"name":"ユナイテッドアローズ マッサージ室","province":"東京都","city":"港区","address":"東京都港区赤坂八丁目1番19号","lat":35.673337,"lon":139.727105,"施設方書":"日本生命赤坂第一ビル地下2階","施設開設日":"2015/4/6","施設電話番号":"03-5785-6330","診療科目名称":"あん摩"},{"name":"アクセンチュア株式会社(赤坂8丁目)","province":"東京都","city":"港区","address":"東京都港区赤坂八丁目5番26号","lat":35.67103,"lon":139.726794,"施設方書":"赤坂DSビル西館3階","施設開設日":"2005/5/9","施設電話番号":"03-3588-3000","診療科目名称":"あん摩、はり、きゅう"},{"name":"月岡鍼灸院","province":"東京都","city":"港区","address":"東京都港区赤坂八丁目6番27号","lat":35.671402,"lon":139.727762,"施設方書":"スカイプラザ赤阪101","施設開設日":"2012/11/21","施設電話番号":"03-6438-9750","診療科目名称":"あん摩、はり、きゅう"},{"name":"はりきゅう治療室Freerance(フリーランス)","province":"東京都","city":"港区","address":"東京都港区赤坂八丁目6番27号","lat":35.671402,"lon":139.727762,"施設方書":"スカイプラザ401","施設開設日":"2014/8/25","施設電話番号":"","診療科目名称":"はり、きゅう"},{"name":"鍼灸南治療院","province":"東京都","city":"港区","address":"東京都港区赤坂八丁目12番28号","lat":35.668815,"lon":139.729945,"施設方書":"パレス赤坂603","施設開設日":"2014/3/12","施設電話番号":"03-3401-9764","診療科目名称":"あん摩、はり、きゅう"},{"name":"あん摩マッサージ・はり・きゅうびぃなす治療院","province":"東京都","city":"港区","address":"東京都港区赤坂九丁目1番7号","lat":35.668055,"lon":139.732763,"施設方書":"赤坂レジデンシャルホテル412","施設開設日":"2022/1/14","施設電話番号":"03-6434-0207","診療科目名称":"あん摩、はり、きゅう"},{"name":"鍼灸サロンHandMild","province":"東京都","city":"港区","address":"東京都港区赤坂九丁目1番9号","lat":35.668055,"lon":139.732763,"施設方書":"赤坂レジデンシャルホテル534","施設開設日":"2023/8/15","施設電話番号":"","診療科目名称":"はり、きゅう"},{"name":"仁慈洞鍼灸療院","province":"東京都","city":"港区","address":"東京都港区赤坂九丁目1番25号","lat":35.668743,"lon":139.731678,"施設方書":"","施設開設日":"2006/8/11","施設電話番号":"03-3401-8726","診療科目名称":"あん摩、はり、きゅう"},{"name":"NBH鍼灸院","province":"東京都","city":"港区","address":"東京都港区赤坂九丁目5番12号","lat":35.667463,"lon":139.729698,"施設方書":"パークサイドシックスC棟1階","施設開設日":"2017/10/23","施設電話番号":"03-3470-5551","診療科目名称":"あん摩、はり、きゅう"},{"name":"からだメンテナンス研究所","province":"東京都","city":"港区","address":"東京都港区赤坂九丁目6番27号","lat":35.666388,"lon":139.728545,"施設方書":"カーム乃木坂903号室","施設開設日":"2021/11/1","施設電話番号":"03-5726-9895","診療科目名称":"あん摩"},{"name":"ヘリオス鍼灸堂","province":"東京都","city":"港区","address":"東京都港区赤坂九丁目6番27号","lat":35.666388,"lon":139.728545,"施設方書":"カーム乃木坂1003","施設開設日":"1987/3/3","施設電話番号":"03-3403-3272","診療科目名称":"はり、きゅう"},{"name":"おと鍼灸室","province":"東京都","city":"港区","address":"東京都港区赤坂九丁目6番27号","lat":35.666388,"lon":139.728545,"施設方書":"カーム乃木坂503","施設開設日":"2022/11/19","施設電話番号":"03-6434-0660","診療科目名称":"はり、きゅう"},{"name":"美容鍼灸サロンSowan","province":"東京都","city":"港区","address":"東京都港区赤坂九丁目6番27号","lat":35.666388,"lon":139.728545,"施設方書":"カーム乃木坂301","施設開設日":"2023/8/20","施設電話番号":"03-6774-8512","診療科目名称":"はり、きゅう"},{"name":"アイサポートはり・きゅう治療院","province":"東京都","city":"港区","address":"東京都港区赤坂九丁目6番39号","lat":35.667624,"lon":139.727586,"施設方書":"パシフィックタワー乃木坂1503","施設開設日":"2004/11/1","施設電話番号":"03-3403-2157","診療科目名称":"はり、きゅう"},{"name":"シスコリラクゼーションルーム","province":"東京都","city":"港区","address":"東京都港区赤坂九丁目7番1号","lat":35.666126,"lon":139.731247,"施設方書":"ミッドタウン・タワー25階","施設開設日":"2012/7/30","施設電話番号":"03-6434-6500","診療科目名称":"あん摩"},{"name":"ステート・ストリート信託銀行株式会社マッサージ・ルーム","province":"東京都","city":"港区","address":"東京都港区赤坂九丁目7番1号","lat":35.666126,"lon":139.731247,"施設方書":"ミッドタウンタワー39階","施設開設日":"2011/6/1","施設電話番号":"03-4530-7200","診療科目名称":"あん摩"},{"name":"ベイン・アンド・カンパニー マッサージルーム","province":"東京都","city":"港区","address":"東京都港区赤坂九丁目7番1号","lat":35.666126,"lon":139.731247,"施設方書":"ミッドタウン・タワー36階","施設開設日":"2023/5/15","施設電話番号":"03-4563-1100","診療科目名称":"あん摩"},{"name":"インフォコム株式会社 健康支援ルーム","province":"東京都","city":"港区","address":"東京都港区赤坂九丁目7番2号","lat":35.66598,"lon":139.730875,"施設方書":"東京ミッドタウンイースト10F健康支援ルーム","施設開設日":"2021/11/15","施設電話番号":"03-6866-3190","診療科目名称":"あん摩"},{"name":"KumaSPA","province":"東京都","city":"港区","address":"東京都港区赤坂九丁目7番2号","lat":35.66598,"lon":139.730875,"施設方書":"ミッドタウン・イースト5階","施設開設日":"2022/2/1","施設電話番号":"03-6721-7772","診療科目名称":"あん摩"},{"name":"Hariy Beige","province":"東京都","city":"港区","address":"東京都港区麻布十番一丁目2番8号","lat":35.656592,"lon":139.736566,"施設方書":"麻布髙野ビル6F","施設開設日":"2023/1/4","施設電話番号":"03-5544-9222","診療科目名称":"はり、きゅう、あん摩"},{"name":"IKEHATAはりきゅう治療院","province":"東京都","city":"港区","address":"東京都港区麻布十番一丁目2番9号","lat":35.656632,"lon":139.736486,"施設方書":"901号室(新一の橋ハイツ)","施設開設日":"2022/1/28","施設電話番号":"","診療科目名称":"はり、きゅう"},{"name":"はり灸マッサージ麻布十番治療院","province":"東京都","city":"港区","address":"東京都港区麻布十番一丁目2番9号","lat":35.656632,"lon":139.736486,"施設方書":"新一の橋ハイツ201","施設開設日":"1997/8/22","施設電話番号":"03-3588-0011","診療科目名称":"あん摩、はり、きゅう"},{"name":"NOBU(のぶ)鍼灸治療院","province":"東京都","city":"港区","address":"東京都港区麻布十番一丁目3番5号","lat":35.656894,"lon":139.736163,"施設方書":"クレイン麻布202","施設開設日":"2010/3/16","施設電話番号":"03-5545-5216","診療科目名称":"あん摩、はり、きゅう"},{"name":"鍼灸BodyCare和美躰","province":"東京都","city":"港区","address":"東京都港区麻布十番一丁目3番7号","lat":35.656748,"lon":139.736024,"施設方書":"ベルレイン麻布702","施設開設日":"2016/6/5","施設電話番号":"03-5797-7470","診療科目名称":"あん摩、はり、きゅう"},{"name":"MAKE BODY LAB 鍼灸","province":"東京都","city":"港区","address":"東京都港区麻布十番一丁目3番7号","lat":35.656748,"lon":139.736024,"施設方書":"ベルレイン麻布602号室","施設開設日":"2018/5/24","施設電話番号":"03-4405-3477","診療科目名称":"あん摩、はり、きゅう"},{"name":"ハリックマ","province":"東京都","city":"港区","address":"東京都港区麻布十番一丁目4番8号","lat":35.657019,"lon":139.734687,"施設方書":"マドモワゼルビル403号","施設開設日":"2022/8/1","施設電話番号":"","診療科目名称":"はり、きゅう"},{"name":"伝統鍼灸 十番堂","province":"東京都","city":"港区","address":"東京都港区麻布十番一丁目5番11号","lat":35.656806,"lon":139.733763,"施設方書":"波田野ビル302","施設開設日":"2021/4/1","施設電話番号":"","診療科目名称":"あん摩、はり、きゅう"},{"name":"鍼美salonゑまひ~EMAI~","province":"東京都","city":"港区","address":"東京都港区麻布十番一丁目5番11‐202号","lat":35.65681,"lon":139.733768,"施設方書":"","施設開設日":"2016/7/1","施設電話番号":"03-6204-9637","診療科目名称":"あん摩、はり、きゅう"},{"name":"指圧マッサージ安陪治療院","province":"東京都","city":"港区","address":"東京都港区麻布十番一丁目5番12号","lat":35.65677,"lon":139.733888,"施設方書":"麻布永谷マンション1103","施設開設日":"2018/12/7","施設電話番号":"03-3423-4477","診療科目名称":"あん摩、はり、きゅう"},{"name":"Shigoku鍼灸マッサージ院","province":"東京都","city":"港区","address":"東京都港区麻布十番一丁目5番19号","lat":35.656613,"lon":139.733699,"施設方書":"ラトリエ・メモワールビル5階","施設開設日":"2020/5/25","施設電話番号":"03-6721-0063","診療科目名称":"あん摩、はり、きゅう"},{"name":"ゆめや鍼灸マッサージ治療院","province":"東京都","city":"港区","address":"東京都港区麻布十番一丁目5番24号","lat":35.657099,"lon":139.73301,"施設方書":"第三長門ビル201","施設開設日":"2015/5/1","施設電話番号":"03-6434-7838","診療科目名称":"あん摩、はり、きゅう"},{"name":"サムズアップ鍼灸マッサージ院","province":"東京都","city":"港区","address":"東京都港区麻布十番一丁目5番24号","lat":35.657099,"lon":139.73301,"施設方書":"202","施設開設日":"2015/5/13","施設電話番号":"03-4405-8018","診療科目名称":"あん摩、はり、きゅう"},{"name":"鍼灸サロン はにかむ","province":"東京都","city":"港区","address":"東京都港区麻布十番一丁目5番24号","lat":35.657099,"lon":139.73301,"施設方書":"第3長門ビル202","施設開設日":"2021/10/1","施設電話番号":"03-6447-5900","診療科目名称":"はり、きゅう"},{"name":"マッサージ治療院303","province":"東京都","city":"港区","address":"東京都港区麻布十番一丁目5番25号","lat":35.657175,"lon":139.73293,"施設方書":"麻布十番ハイツ303","施設開設日":"2017/7/6","施設電話番号":"","診療科目名称":"あん摩、はり、きゅう"},{"name":"関墨荘堂鍼灸治療院","province":"東京都","city":"港区","address":"東京都港区麻布十番一丁目7番8号","lat":35.656219,"lon":139.734931,"施設方書":"宮下ビル503","施設開設日":"2008/9/17","施設電話番号":"03-6325-4282","診療科目名称":"あん摩、はり、きゅう"},{"name":"グローバル治療院 麻布十番店(鍼灸・マッサージ)","province":"東京都","city":"港区","address":"東京都港区麻布十番一丁目8番10号","lat":35.655959,"lon":139.735522,"施設方書":"麻布十番TSビル6階","施設開設日":"2010/4/14","施設電話番号":"03-5573-4033","診療科目名称":"あん摩、はり、きゅう"},{"name":"ソレイユ麻布治療院","province":"東京都","city":"港区","address":"東京都港区麻布十番一丁目8番11号","lat":35.656016,"lon":139.735405,"施設方書":"TAKADEN麻布十番6階","施設開設日":"2019/12/6","施設電話番号":"03-5545-5151","診療科目名称":"あん摩、はり、きゅう"},{"name":"麻布ハリーク","province":"東京都","city":"港区","address":"東京都港区麻布十番一丁目10番3号","lat":35.656191,"lon":139.736423,"施設方書":"モンテプラザ301","施設開設日":"2013/5/7","施設電話番号":"03-3588-1328","診療科目名称":"はり、きゅう"},{"name":"セイビア鍼灸院","province":"東京都","city":"港区","address":"東京都港区麻布十番一丁目10番3号","lat":35.656191,"lon":139.736423,"施設方書":"モンテプラザ麻布705号","施設開設日":"2022/8/25","施設電話番号":"03-3568-4312","診療科目名称":"はり、きゅう、あん摩"},{"name":"五禽堂関根鍼灸治療院","province":"東京都","city":"港区","address":"東京都港区麻布十番一丁目10番14号","lat":35.656132,"lon":139.736119,"施設方書":"","施設開設日":"2008/6/10","施設電話番号":"03-3583-7536","診療科目名称":"あん摩、はり、きゅう"},{"name":"銀座ハリッチ麻布十番院","province":"東京都","city":"港区","address":"東京都港区麻布十番一丁目11番7号","lat":35.65578,"lon":139.736852,"施設方書":"カニエビル4階","施設開設日":"2019/6/9","施設電話番号":"03-5801-5809","診療科目名称":"はり、きゅう"},{"name":"治療院アジアート","province":"東京都","city":"港区","address":"東京都港区麻布十番二丁目4番5号","lat":35.655948,"lon":139.734677,"施設方書":"西脇ビル4階","施設開設日":"2015/9/1","施設電話番号":"03-5484-1429","診療科目名称":"あん摩、はり、きゅう"},{"name":"鍼灸サロンBELLE麻布十番","province":"東京都","city":"港区","address":"東京都港区麻布十番二丁目5番11号","lat":35.656214,"lon":139.733317,"施設方書":"麻布メゾン701","施設開設日":"2022/6/20","施設電話番号":"03-6227-0825","診療科目名称":"あん摩、はり、きゅう"},{"name":"ソレイユ麻布鍼灸治療院","province":"東京都","city":"港区","address":"東京都港区麻布十番二丁目5番12号","lat":35.656318,"lon":139.733192,"施設方書":"アザブビルディングNo.3 3階","施設開設日":"2024/3/25","施設電話番号":"03-5545-5151","診療科目名称":"あん摩、はり、きゅう"},{"name":"Cure Body(キュアボディ)鍼灸治療院","province":"東京都","city":"港区","address":"東京都港区麻布十番二丁目7番5号","lat":35.65572,"lon":139.733687,"施設方書":"イプセ麻布十番204","施設開設日":"2009/6/5","施設電話番号":"03-3455-8394","診療科目名称":"はり、きゅう"},{"name":"麻布十番七面坂鍼灸院","province":"東京都","city":"港区","address":"東京都港区麻布十番二丁目8番2号","lat":35.65577,"lon":139.734076,"施設方書":"","施設開設日":"2016/9/12","施設電話番号":"03-6676-1151","診療科目名称":"はり、きゅう"},{"name":"やまと鍼灸院","province":"東京都","city":"港区","address":"東京都港区麻布十番二丁目8番8号","lat":35.655329,"lon":139.734766,"施設方書":"麻布十番ミレニアムタワー401号","施設開設日":"2021/1/12","施設電話番号":"03-6722-6166","診療科目名称":"はり、きゅう"},{"name":"MAiAM鍼灸院","province":"東京都","city":"港区","address":"東京都港区麻布十番二丁目10番1号","lat":35.654548,"lon":139.734417,"施設方書":"カスタリア麻布十番304号室","施設開設日":"2020/10/27","施設電話番号":"","診療科目名称":"はり、きゅう"},{"name":"麻布ネップス鍼灸マッサージ院","province":"東京都","city":"港区","address":"東京都港区麻布十番二丁目11番3号","lat":35.654157,"lon":139.734527,"施設方書":"ドエル麻布101","施設開設日":"2022/2/1","施設電話番号":"03-6275-1630","診療科目名称":"あん摩、はり、きゅう"},{"name":"ユクル(鍼灸院)","province":"東京都","city":"港区","address":"東京都港区麻布十番二丁目13番5号","lat":35.654664,"lon":139.735166,"施設方書":"COCOSPACE麻布十番302","施設開設日":"2021/2/24","施設電話番号":"","診療科目名称":"あん摩、はり、きゅう"},{"name":"じゅうばん鍼灸院","province":"東京都","city":"港区","address":"東京都港区麻布十番二丁目16番6号","lat":35.653978,"lon":139.735622,"施設方書":"","施設開設日":"2010/2/1","施設電話番号":"03-5232-1010","診療科目名称":"あん摩、はり、きゅう"},{"name":"ちもと鍼灸院","province":"東京都","city":"港区","address":"東京都港区麻布十番二丁目18番8号","lat":35.654248,"lon":139.735894,"施設方書":"ABAアサミビル3階","施設開設日":"2017/9/5","施設電話番号":"03-6441-0704","診療科目名称":"はり、きゅう"},{"name":"ENSPA(エンスパ)","province":"東京都","city":"港区","address":"東京都港区麻布十番二丁目19番1号","lat":35.655065,"lon":139.736054,"施設方書":"オフィスエイトビル5階","施設開設日":"2017/6/28","施設電話番号":"03-6435-2238","診療科目名称":"はり"},{"name":"はり灸マッサージ鈴木治療院","province":"東京都","city":"港区","address":"東京都港区麻布十番二丁目20番12号","lat":35.65487,"lon":139.736483,"施設方書":"オリエント麻布203","施設開設日":"1997/6/24","施設電話番号":"03-3454-5678","診療科目名称":"あん摩、はり、きゅう"},{"name":"Halian","province":"東京都","city":"港区","address":"東京都港区麻布十番二丁目20番14号","lat":35.655075,"lon":139.736503,"施設方書":"麻布十番ハウス602","施設開設日":"2023/6/26","施設電話番号":"","診療科目名称":"あん摩、はり、きゅう"},{"name":"劉針灸院","province":"東京都","city":"港区","address":"東京都港区麻布十番三丁目1番5号","lat":35.653191,"lon":139.736434,"施設方書":"204","施設開設日":"2011/12/7","施設電話番号":"03-3452-8989","診療科目名称":"はり、きゅう"},{"name":"スペシャル腕","province":"東京都","city":"港区","address":"東京都港区麻布十番三丁目2番7号","lat":35.653147,"lon":139.736124,"施設方書":"リゾーム麻布十番201","施設開設日":"2014/4/2","施設電話番号":"03-3452-1910","診療科目名称":"はり、きゅう"},{"name":"Lita鍼灸サロン","province":"東京都","city":"港区","address":"東京都港区麻布十番三丁目5番7号","lat":35.653179,"lon":139.735844,"施設方書":"麻布カジタ303","施設開設日":"2024/1/7","施設電話番号":"","診療科目名称":"あん摩、はり、きゅう"},{"name":"respirer(レスピレ鍼灸院)","province":"東京都","city":"港区","address":"東京都港区麻布十番三丁目5番13‐701号","lat":35.653139,"lon":139.735138,"施設方書":"","施設開設日":"2023/3/1","施設電話番号":"03-6809-5133","診療科目名称":"あん摩、はり、きゅう"},{"name":"はぐくみ堂鍼灸院","province":"東京都","city":"港区","address":"東京都港区麻布十番三丁目7番5号","lat":35.653524,"lon":139.735006,"施設方書":"Decimo麻布402","施設開設日":"2021/12/1","施設電話番号":"","診療科目名称":"はり、きゅう"},{"name":"Bonheur factor(鍼灸)","province":"東京都","city":"港区","address":"東京都港区麻布十番三丁目7番5号","lat":35.653524,"lon":139.735006,"施設方書":"decimo AZABU701","施設開設日":"2023/1/1","施設電話番号":"03-6883-6129","診療科目名称":"はり、きゅう"},{"name":"鍼灸・マッサージサロン麻布Comori","province":"東京都","city":"港区","address":"東京都港区麻布十番三丁目7番5号","lat":35.653524,"lon":139.735006,"施設方書":"decimo AZABU 302","施設開設日":"2015/1/10","施設電話番号":"03-6453-8399","診療科目名称":"あん摩、はり、きゅう"},{"name":"Schilf","province":"東京都","city":"港区","address":"東京都港区麻布十番三丁目7番11号","lat":35.653587,"lon":139.734806,"施設方書":"シャトーデスポワール麻布303","施設開設日":"2021/9/16","施設電話番号":"","診療科目名称":"あん摩、はり、きゅう"},{"name":"嶋田治療院","province":"東京都","city":"港区","address":"東京都港区麻布十番四丁目4番1号","lat":35.653677,"lon":139.737138,"施設方書":"ツイン一の橋2号棟2075","施設開設日":"2000/2/22","施設電話番号":"03-5476-5283","診療科目名称":"あん摩、はり、きゅう"},{"name":"LOOPLE(ループル)鍼灸マッサージ院","province":"東京都","city":"港区","address":"東京都港区麻布十番四丁目6番8号","lat":35.653127,"lon":139.736949,"施設方書":"二進ビル5階","施設開設日":"2013/12/1","施設電話番号":"03-6435-0613","診療科目名称":"あん摩、はり、きゅう"},{"name":"エスブランド(鍼灸院)","province":"東京都","city":"港区","address":"東京都港区麻布十番四丁目6番8号","lat":35.65307,"lon":139.736972,"施設方書":"麻布十番アクティブビル2階","施設開設日":"2020/11/16","施設電話番号":"03-3453-7507","診療科目名称":"あん摩、はり、きゅう"},{"name":"LOOPLE(ループル)鍼灸マッサージ院ANNEX","province":"東京都","city":"港区","address":"東京都港区麻布十番四丁目6番8号","lat":35.653127,"lon":139.736949,"施設方書":"二進ビル6階","施設開設日":"2022/9/1","施設電話番号":"03-6435-0613","診療科目名称":"あん摩、はり、きゅう"},{"name":"加賀谷鍼灸治療院","province":"東京都","city":"港区","address":"東京都港区麻布十番四丁目6番8号","lat":35.653127,"lon":139.736949,"施設方書":"二進ビル7階kagaya","施設開設日":"2023/5/21","施設電話番号":"","診療科目名称":"あん摩、はり、きゅう"},{"name":"山田スポーツマッサージクリニック","province":"東京都","city":"港区","address":"東京都港区麻布台一丁目1番20号","lat":35.657198,"lon":139.727982,"施設方書":"麻布台ユニハウス307","施設開設日":"1988/3/1","施設電話番号":"03-3586-8447","診療科目名称":"あん摩"},{"name":"ハリアップ麻布台ヒルズ院","province":"東京都","city":"港区","address":"東京都港区麻布台一丁目3番1号","lat":35.660882,"lon":139.740657,"施設方書":"麻布台ヒルズ森JPタワー4階","施設開設日":"2023/11/24","施設電話番号":"03-5544-9139","診療科目名称":"あん摩、はり、きゅう"},{"name":"デポルターレ鍼灸院","province":"東京都","city":"港区","address":"東京都港区麻布台一丁目3番1号","lat":35.660882,"lon":139.740657,"施設方書":"麻布台ヒルズ森JPタワー4階","施設開設日":"2023/9/3","施設電話番号":"03-6804-6680","診療科目名称":"あん摩、はり、きゅう"},{"name":"マッサージルーム(ヘルスキーパー)","province":"東京都","city":"港区","address":"東京都港区麻布台二丁目4番5号","lat":35.659141,"lon":139.744047,"施設方書":"メソニック38MTビル2階","施設開設日":"2020/1/30","施設電話番号":"03-6809-1128","診療科目名称":"あん摩"},{"name":"マッサージルーム(ヘルスキーパー)","province":"東京都","city":"港区","address":"東京都港区麻布台二丁目4番5号","lat":35.65912,"lon":139.743451,"施設方書":"メソニック39MTビル11階","施設開設日":"2017/3/13","施設電話番号":"","診療科目名称":"あん摩"},{"name":"梨紗施術所","province":"東京都","city":"港区","address":"東京都港区麻布狸穴町59番地","lat":35.659137,"lon":139.739297,"施設方書":"グランドメゾン狸穴301","施設開設日":"2005/5/6","施設電話番号":"03-3583-0361","診療科目名称":"あん摩、はり、きゅう"},{"name":"グリーンヒルズスパマッサージ室","province":"東京都","city":"港区","address":"東京都港区愛宕二丁目3番1号","lat":35.663424,"lon":139.748999,"施設方書":"フォレストタワー42階","施設開設日":"2001/12/12","施設電話番号":"03-3437-5062","診療科目名称":"あん摩、はり"},{"name":"シンプレクス株式会社リラクゼーションルーム","province":"東京都","city":"港区","address":"東京都港区愛宕二丁目5番1号","lat":35.662142,"lon":139.748881,"施設方書":"愛宕グリーンヒルズMORIタワー21階","施設開設日":"2019/4/8","施設電話番号":"03-3539-7370","診療科目名称":"あん摩"},{"name":"株式会社エボラブルアジア","province":"東京都","city":"港区","address":"東京都港区愛宕二丁目5番1号","lat":35.662142,"lon":139.748881,"施設方書":"愛宕グリーンヒルズMORIタワー19F","施設開設日":"2018/6/11","施設電話番号":"03-3431-6191","診療科目名称":"あん摩、はり、きゅう"},{"name":"株式会社ダイフク マッサージルーム","province":"東京都","city":"港区","address":"東京都港区海岸一丁目2番3号","lat":35.656996,"lon":139.758739,"施設方書":"汐留芝離宮ビルディング15階","施設開設日":"2019/7/1","施設電話番号":"03-6721-3501","診療科目名称":"あん摩"},{"name":"プリーズはり・きゅう院","province":"東京都","city":"港区","address":"東京都港区海岸一丁目2番3号","lat":35.656996,"lon":139.758739,"施設方書":"汐留芝離宮ビルディング104","施設開設日":"2019/8/6","施設電話番号":"03-3578-8886","診療科目名称":"はり、きゅう、あん摩"},{"name":"ソフトバンクグループ 竹芝マッサージルーム","province":"東京都","city":"港区","address":"東京都港区海岸一丁目7番1号","lat":35.655311,"lon":139.7604,"施設方書":"東京ポートシティ竹芝オフィスタワー28階","施設開設日":"2021/3/1","施設電話番号":"03-6854-2615","診療科目名称":"あん摩"},{"name":"株式会社富士通総研リラクゼーションルーム","province":"東京都","city":"港区","address":"東京都港区海岸一丁目16番1号","lat":35.653403,"lon":139.762589,"施設方書":"ニューピア竹芝サウスタワー11階","施設開設日":"2007/10/1","施設電話番号":"03-5401-8391","診療科目名称":"あん摩"},{"name":"(株)オンワード樫山マッサージルーム","province":"東京都","city":"港区","address":"東京都港区海岸三丁目4番29号","lat":35.6409616,"lon":139.7552372,"施設方書":"(株)オンワード樫山芝浦第4ビル","施設開設日":"1991/12/1","施設電話番号":"03-3455-3111","診療科目名称":"あん摩"},{"name":"株式会社オンワード樫山 健康管理室","province":"東京都","city":"港区","address":"東京都港区海岸三丁目11番6号","lat":35.639743,"lon":139.755791,"施設方書":"","施設開設日":"2004/7/1","施設電話番号":"03-5476-5201","診療科目名称":"あん摩"},{"name":"AMJリラクゼーションルーム","province":"東京都","city":"港区","address":"東京都港区海岸三丁目20番20号","lat":35.640025,"lon":139.756503,"施設方書":"ヨコソーレインボータワー8階","施設開設日":"2014/3/10","施設電話番号":"03-6812-6800","診療科目名称":"あん摩"},{"name":"株式会社ベンチャーバンクホールディングス","province":"東京都","city":"港区","address":"東京都港区北青山一丁目2番3号","lat":35.672979,"lon":139.723104,"施設方書":"青山ビル","施設開設日":"2021/2/22","施設電話番号":"03-6316-4617","診療科目名称":"あん摩"},{"name":"リラクセーションルーム","province":"東京都","city":"港区","address":"東京都港区北青山一丁目2番3号","lat":35.672979,"lon":139.723104,"施設方書":"青山ビル11階","施設開設日":"2019/10/1","施設電話番号":"03-6386-0197","診療科目名称":"あん摩"},{"name":"日本オラクル株式会社マッサージルーム","province":"東京都","city":"港区","address":"東京都港区北青山二丁目5番8号","lat":35.671192,"lon":139.718664,"施設方書":"オラクル青山センター11階","施設開設日":"2008/9/1","施設電話番号":"03-6834-6666","診療科目名称":"あん摩"},{"name":"Liu・ハリ・マッサージ","province":"東京都","city":"港区","address":"東京都港区北青山二丁目5番8号","lat":35.671192,"lon":139.718664,"施設方書":"青山OM-SQUARE地下1階","施設開設日":"2008/8/11","施設電話番号":"03-6902-2815","診療科目名称":"あん摩、はり、きゅう"},{"name":"ヴィヴィール鍼灸院","province":"東京都","city":"港区","address":"東京都港区北青山二丁目7番13号","lat":35.670967,"lon":139.717865,"施設方書":"プラセオ青山地下2階","施設開設日":"2007/11/8","施設電話番号":"03-3746-1281","診療科目名称":"あん摩、はり、きゅう"},{"name":"ウチイケ鍼灸院","province":"東京都","city":"港区","address":"東京都港区北青山二丁目7番13号","lat":35.670967,"lon":139.717865,"施設方書":"ウラクプラセオアオヤマビルB2","施設開設日":"1992/11/10","施設電話番号":"03-5411-0115","診療科目名称":"あん摩、はり、きゅう"},{"name":"エイチスリー鍼灸院","province":"東京都","city":"港区","address":"東京都港区北青山二丁目7番17号","lat":35.670489,"lon":139.717157,"施設方書":"鈴越ビル3階","施設開設日":"2018/12/26","施設電話番号":"03-3796-2244","診療科目名称":"あん摩、はり、きゅう"},{"name":"メジャー・トレーナーズ マッサージ治療院","province":"東京都","city":"港区","address":"東京都港区北青山二丁目7番28号","lat":35.671815,"lon":139.717059,"施設方書":"NAビル9階","施設開設日":"2020/12/21","施設電話番号":"03-3478-1007","診療科目名称":"あん摩、はり"},{"name":"東急スポーツオアシス青山","province":"東京都","city":"港区","address":"東京都港区北青山二丁目8番44号","lat":35.673069,"lon":139.716908,"施設方書":"TEPIA","施設開設日":"2000/3/6","施設電話番号":"03-5770-6110","診療科目名称":"あん摩"},{"name":"鍼灸・マッサージ ジュピテル","province":"東京都","city":"港区","address":"東京都港区北青山二丁目9番12号","lat":35.67119,"lon":139.716649,"施設方書":"第5イノセビル7階","施設開設日":"2023/4/1","施設電話番号":"03-6721-1300","診療科目名称":"あん摩、はり、きゅう"},{"name":"MEGURU鍼灸院","province":"東京都","city":"港区","address":"東京都港区北青山二丁目9番13号","lat":35.671249,"lon":139.716529,"施設方書":"斎藤ビル201","施設開設日":"2021/10/8","施設電話番号":"03-6271-5800","診療科目名称":"はり、きゅう"},{"name":"Kj北青山治療院","province":"東京都","city":"港区","address":"東京都港区北青山二丁目10番18号","lat":35.671586,"lon":139.715845,"施設方書":"Gフラット北青山203号","施設開設日":"2015/7/1","施設電話番号":"03-3478-9779","診療科目名称":"あん摩、はり、きゅう"},{"name":"山下治療院","province":"東京都","city":"港区","address":"東京都港区北青山二丁目11番10号","lat":35.671191,"lon":139.714698,"施設方書":"ダイヤモンドマンション2-B","施設開設日":"2002/9/3","施設電話番号":"03-5772-7705","診療科目名称":"あん摩、はり、きゅう"},{"name":"はりきゅうメリディアンケアサロンRuyi","province":"東京都","city":"港区","address":"東京都港区北青山二丁目12番8号","lat":35.670971,"lon":139.715897,"施設方書":"シーフォルム外苑前601","施設開設日":"2021/4/18","施設電話番号":"","診療科目名称":"きゅう、はり"},{"name":"レフア青山","province":"東京都","city":"港区","address":"東京都港区北青山二丁目12番27号","lat":35.66971,"lon":139.71539,"施設方書":"デュール青山3階","施設開設日":"2009/7/15","施設電話番号":"03-6459-2772","診療科目名称":"あん摩、はり、きゅう"},{"name":"アンジェリカ治療院","province":"東京都","city":"港区","address":"東京都港区北青山三丁目1番6号","lat":35.66911,"lon":139.714773,"施設方書":"316青山407号室","施設開設日":"2020/12/21","施設電話番号":"03-6275-1505","診療科目名称":"あん摩、はり、きゅう"},{"name":"アキュモード鍼灸院","province":"東京都","city":"港区","address":"東京都港区北青山三丁目3番4号","lat":35.668776,"lon":139.715302,"施設方書":"栄屋ビル6階","施設開設日":"2023/1/1","施設電話番号":"03-3478-8267","診療科目名称":"あん摩、はり、きゅう"},{"name":"北青山はり灸院","province":"東京都","city":"港区","address":"東京都港区北青山三丁目3番7号","lat":35.668363,"lon":139.714833,"施設方書":"第一青山ビル2階","施設開設日":"2015/3/1","施設電話番号":"03-3479-0802","診療科目名称":"はり、きゅう"},{"name":"太絡堂鍼灸院","province":"東京都","city":"港区","address":"東京都港区北青山三丁目4番18号","lat":35.66881,"lon":139.71372,"施設方書":"","施設開設日":"1992/2/8","施設電話番号":"03-3408-8677","診療科目名称":"はり、きゅう"},{"name":"東京カイロプラテック","province":"東京都","city":"港区","address":"東京都港区北青山三丁目5番9号","lat":35.666965,"lon":139.713786,"施設方書":"","施設開設日":"1969/7/28","施設電話番号":"03-3478-2713","診療科目名称":"あん摩"},{"name":"POLLUX鍼灸院","province":"東京都","city":"港区","address":"東京都港区北青山三丁目5番9号","lat":35.666965,"lon":139.713786,"施設方書":"中央珈琲本社ビル5階","施設開設日":"2019/1/23","施設電話番号":"03-6455-4057","診療科目名称":"あん摩、はり、きゅう"},{"name":"ハリジェンヌ","province":"東京都","city":"港区","address":"東京都港区北青山三丁目6番20号","lat":35.66441,"lon":139.711462,"施設方書":"KFIビル5階","施設開設日":"2012/8/8","施設電話番号":"03-6427-2681","診療科目名称":"はり、きゅう"},{"name":"ハリジェンヌ エッフェル","province":"東京都","city":"港区","address":"東京都港区北青山三丁目6番20号","lat":35.66441,"lon":139.711462,"施設方書":"KFIビル9階","施設開設日":"2014/7/2","施設電話番号":"03-6427-3070","診療科目名称":"はり、きゅう"},{"name":"ハリジェンヌ カンヌ","province":"東京都","city":"港区","address":"東京都港区北青山三丁目6番20号","lat":35.66441,"lon":139.711462,"施設方書":"KFIビル4階","施設開設日":"2015/8/8","施設電話番号":"03-6427-3014","診療科目名称":"はり、きゅう"},{"name":"エイチスリー鍼灸院 表参道院","province":"東京都","city":"港区","address":"東京都港区北青山三丁目6番20号","lat":35.664342,"lon":139.711414,"施設方書":"青山T&Eビル7階","施設開設日":"2015/5/13","施設電話番号":"03-3499-2111","診療科目名称":"あん摩、はり、きゅう"},{"name":"ザックプリム","province":"東京都","city":"港区","address":"東京都港区北青山三丁目6番23号","lat":35.664404,"lon":139.711256,"施設方書":"青山ダイハンビル6階","施設開設日":"2009/7/20","施設電話番号":"03-5468-5882","診療科目名称":"はり"},{"name":"ラヤナ表参道鍼灸院","province":"東京都","city":"港区","address":"東京都港区北青山三丁目8番7号","lat":35.665271,"lon":139.710683,"施設方書":"樹下庵3号室","施設開設日":"2017/11/1","施設電話番号":"","診療科目名称":"はり、きゅう"},{"name":"レスパス ヨンカ 表参道","province":"東京都","city":"港区","address":"東京都港区北青山三丁目9番8号","lat":35.664532,"lon":139.709944,"施設方書":"YON-KAビル","施設開設日":"2015/7/1","施設電話番号":"03-5469-3447","診療科目名称":"はり、きゅう"},{"name":"銀座ハリッチ 表参道2号店","province":"東京都","city":"港区","address":"東京都港区北青山三丁目12番7号","lat":35.663371,"lon":139.710305,"施設方書":"カプリース青山202号室","施設開設日":"2017/11/7","施設電話番号":"03-5801-5809","診療科目名称":"あん摩、はり、きゅう"},{"name":"サトリエ治療室","province":"東京都","city":"港区","address":"東京都港区北青山三丁目12番7号","lat":35.663371,"lon":139.710305,"施設方書":"カプリース青山701","施設開設日":"2021/12/26","施設電話番号":"03-6427-5447","診療科目名称":"あん摩、はり、きゅう"},{"name":"銀座ハリッチ 表参道店","province":"東京都","city":"港区","address":"東京都港区北青山三丁目12番7号","lat":35.663371,"lon":139.710305,"施設方書":"カプリース青山201号室","施設開設日":"2017/7/17","施設電話番号":"03-5801-5809","診療科目名称":"あん摩、はり、きゅう"},{"name":"とまり木鍼灸マッサージ院 北青山院","province":"東京都","city":"港区","address":"東京都港区北青山三丁目12番7号","lat":35.663346,"lon":139.71051,"施設方書":"秋月ビル605","施設開設日":"2017/5/29","施設電話番号":"03-3797-3897","診療科目名称":"あん摩、はり、きゅう"},{"name":"柳鍼灸院","province":"東京都","city":"港区","address":"東京都港区北青山三丁目12番7号","lat":35.663379,"lon":139.7103,"施設方書":"1102","施設開設日":"2014/6/24","施設電話番号":"","診療科目名称":"はり、きゅう"},{"name":"ニューフェイスコスメティック","province":"東京都","city":"港区","address":"東京都港区北青山三丁目12番7号","lat":35.663371,"lon":139.710305,"施設方書":"カプリース青山407","施設開設日":"2022/6/23","施設電話番号":"","診療科目名称":"はり、きゅう"},{"name":"Physical Architect (フィジカルアーキテクト)","province":"東京都","city":"港区","address":"東京都港区北青山三丁目12番7号","lat":35.663346,"lon":139.71051,"施設方書":"秋月ビル502","施設開設日":"2018/1/29","施設電話番号":"03-6874-4211","診療科目名称":"はり、きゅう"},{"name":"株式会社Mari鍼灸Salon","province":"東京都","city":"港区","address":"東京都港区北青山三丁目12番7号","lat":35.663371,"lon":139.710305,"施設方書":"カプリース青山907","施設開設日":"2018/3/1","施設電話番号":"","診療科目名称":"はり、きゅう"},{"name":"表参道鍼灸院K","province":"東京都","city":"港区","address":"東京都港区北青山三丁目12番7号","lat":35.663371,"lon":139.710305,"施設方書":"カプリース青山504","施設開設日":"2020/2/6","施設電話番号":"03-6778-0995","診療科目名称":"はり、きゅう"},{"name":"Kazu Watanabe-和-治療院","province":"東京都","city":"港区","address":"東京都港区北青山三丁目12番7号","lat":35.663371,"lon":139.710305,"施設方書":"カプリース青山401号室","施設開設日":"2020/2/15","施設電話番号":"","診療科目名称":"あん摩、はり、きゅう"},{"name":"Hataki 鍼灸院","province":"東京都","city":"港区","address":"東京都港区北青山三丁目15番13号","lat":35.664208,"lon":139.709056,"施設方書":"秀和北青山レジデンス407","施設開設日":"2021/5/25","施設電話番号":"03-6897-2008","診療科目名称":"はり、きゅう"},{"name":"マースジャパンリミテッド マッサージルーム","province":"東京都","city":"港区","address":"東京都港区港南一丁目2番70号","lat":35.632491,"lon":139.743066,"施設方書":"品川シーズンテラス7階 マースジャパンリミテッド内マッサージルーム(会議室)","施設開設日":"2022/5/9","施設電話番号":"","診療科目名称":"あん摩"},{"name":"リラクゼーションルーム","province":"東京都","city":"港区","address":"東京都港区港南一丁目2番70号","lat":35.632491,"lon":139.743066,"施設方書":"品川シーズンテラス8階","施設開設日":"2016/7/25","施設電話番号":"03-6720-7559","診療科目名称":"あん摩"},{"name":"日本テキサス・インスツルメンツ合同会社 マッサージルーム","province":"東京都","city":"港区","address":"東京都港区港南一丁目2番70号","lat":35.632491,"lon":139.743066,"施設方書":"品川シーズンテラス31F マッサージルーム","施設開設日":"2022/2/14","施設電話番号":"03-4331-2000","診療科目名称":"あん摩"},{"name":"ショートマッサージルーム","province":"東京都","city":"港区","address":"東京都港区港南一丁目2番70号","lat":35.632491,"lon":139.743066,"施設方書":"品川シーズンテラス8階","施設開設日":"2023/4/12","施設電話番号":"","診療科目名称":"あん摩"},{"name":"日本メドトロニックリラクゼーションルーム","province":"東京都","city":"港区","address":"東京都港区港南一丁目2番70号","lat":35.632491,"lon":139.743066,"施設方書":"品川シーズンテラス21階","施設開設日":"2016/4/1","施設電話番号":"03-6774-4611","診療科目名称":"あん摩、はり、きゅう"},{"name":"富士通システムズ・アクト品川ヘルスキーピングルーム","province":"東京都","city":"港区","address":"東京都港区港南一丁目2番70号","lat":35.632491,"lon":139.743066,"施設方書":"品川シーズンテラス30階","施設開設日":"2015/5/7","施設電話番号":"03-6712-3700","診療科目名称":"あん摩"},{"name":"SCEマッサージルーム","province":"東京都","city":"港区","address":"東京都港区港南一丁目6番27号","lat":35.629276,"lon":139.745425,"施設方書":"SSJ品川ビル8階","施設開設日":"2012/11/1","施設電話番号":"050-3807-0528","診療科目名称":"あん摩"},{"name":"マッサージルーム","province":"東京都","city":"港区","address":"東京都港区港南一丁目6番35号","lat":35.630703,"lon":139.745523,"施設方書":"大同品川ビル6階","施設開設日":"2019/2/13","施設電話番号":"03-5495-1253","診療科目名称":"あん摩、はり"},{"name":"コクヨヘルスキーパー室","province":"東京都","city":"港区","address":"東京都港区港南一丁目8番35号","lat":35.629666,"lon":139.743143,"施設方書":"コクヨ品川オフィス9階","施設開設日":"2020/9/24","施設電話番号":"03-3474-8391","診療科目名称":"あん摩"},{"name":"NTTデータだいち 品川ヘルスキーパールーム","province":"東京都","city":"港区","address":"東京都港区港南一丁目9番1号","lat":35.631384,"lon":139.741933,"施設方書":"NTT品川TWINDATA棟","施設開設日":"2009/5/11","施設電話番号":"050-5547-7060","診療科目名称":"あん摩"},{"name":"ReCORE鍼灸院 品川","province":"東京都","city":"港区","address":"東京都港区港南一丁目9番36号","lat":35.630036,"lon":139.741242,"施設方書":"NTTDATA品川ビル2F","施設開設日":"2023/6/15","施設電話番号":"03-3472-1939","診療科目名称":"はり、きゅう"},{"name":"治療院ケア","province":"東京都","city":"港区","address":"東京都港区港南二丁目2番13号","lat":35.628974,"lon":139.74234,"施設方書":"清水ビル2階","施設開設日":"1992/2/4","施設電話番号":"03-3450-5233","診療科目名称":"あん摩、はり、きゅう"},{"name":"豊田通商東京マッサージ室","province":"東京都","city":"港区","address":"東京都港区港南二丁目3番13号","lat":35.62903,"lon":139.744217,"施設方書":"15階","施設開設日":"2010/12/6","施設電話番号":"03-4306-8147","診療科目名称":"あん摩"},{"name":"リフレ鍼灸院","province":"東京都","city":"港区","address":"東京都港区港南二丁目5番5号","lat":35.62873,"lon":139.743588,"施設方書":"港南OMTビル1階","施設開設日":"2010/12/27","施設電話番号":"03-3471-1293","診療科目名称":"はり、きゅう"},{"name":"指圧・マッサージ ラクール","province":"東京都","city":"港区","address":"東京都港区港南二丁目6番7号","lat":35.628461,"lon":139.74247,"施設方書":"大善ビル5階","施設開設日":"2010/5/7","施設電話番号":"03-3474-3310","診療科目名称":"あん摩、はり、きゅう"},{"name":"あすラック鍼灸マッサージ","province":"東京都","city":"港区","address":"東京都港区港南二丁目11番17号","lat":35.624073,"lon":139.745469,"施設方書":"1007","施設開設日":"2023/6/21","施設電話番号":"03-6555-3979","診療科目名称":"あん摩、はり、きゅう"},{"name":"鍼灸マッサージ グローバル治療院 品川インターシティ","province":"東京都","city":"港区","address":"東京都港区港南二丁目15番2号","lat":35.626576,"lon":139.741363,"施設方書":"品川インターシティ ショップ&レストラン棟地下1階","施設開設日":"2018/11/1","施設電話番号":"03-5715-5021","診療科目名称":"あん摩、はり、きゅう"},{"name":"てもミル(株式会社マクロミル内)","province":"東京都","city":"港区","address":"東京都港区港南二丁目16番1号","lat":35.62777,"lon":139.7409,"施設方書":"品川イーストワンタワー10階","施設開設日":"2010/11/19","施設電話番号":"03-6716-0700","診療科目名称":"あん摩、はり"},{"name":"Health Care Room","province":"東京都","city":"港区","address":"東京都港区港南二丁目16番3号","lat":35.626615,"lon":139.740774,"施設方書":"品川グランドセントラルタワー21階","施設開設日":"2023/7/31","施設電話番号":"03-4332-5300","診療科目名称":"あん摩"},{"name":"Re-fine","province":"東京都","city":"港区","address":"東京都港区港南二丁目16番3号","lat":35.626615,"lon":139.740774,"施設方書":"品川グランドセルタワー18階","施設開設日":"2022/6/27","施設電話番号":"03-6864-0243","診療科目名称":"あん摩、はり、きゅう"},{"name":"株式会社電通国際情報サービス マッサージルーム","province":"東京都","city":"港区","address":"東京都港区港南二丁目17番1号","lat":35.624577,"lon":139.739503,"施設方書":"12階健康管理室内","施設開設日":"2004/5/6","施設電話番号":"03-6713-9540","診療科目名称":"あん摩、はり、きゅう"},{"name":"こうなん鍼灸院","province":"東京都","city":"港区","address":"東京都港区港南四丁目2番6号","lat":35.631158,"lon":139.748079,"施設方書":"シティタワー品川202","施設開設日":"2010/5/7","施設電話番号":"03-5715-6228","診療科目名称":"はり、きゅう"},{"name":"さくら鍼灸院","province":"東京都","city":"港区","address":"東京都港区港南四丁目6番7号","lat":35.627474,"lon":139.75059,"施設方書":"ワールドシティータワーズC1 906","施設開設日":"2023/3/7","施設電話番号":"","診療科目名称":"はり、きゅう"},{"name":"港区障害者福祉事業団","province":"東京都","city":"港区","address":"東京都港区芝一丁目8番23号","lat":35.651544,"lon":139.755597,"施設方書":"港区立障害保健福祉センター","施設開設日":"1998/10/1","施設電話番号":"03-5439-8062","診療科目名称":"あん摩、はり、きゅう"},{"name":"(有)三芝治療院","province":"東京都","city":"港区","address":"東京都港区芝二丁目8番13号","lat":35.651978,"lon":139.750641,"施設方書":"壱マンション201","施設開設日":"1976/6/20","施設電話番号":"03-3454-6220","診療科目名称":"あん摩、はり、きゅう"},{"name":"芝公園鍼灸治療院","province":"東京都","city":"港区","address":"東京都港区芝二丁目8番13号","lat":35.651878,"lon":139.750577,"施設方書":"KITAハイム芝201","施設開設日":"2014/6/30","施設電話番号":"03-6400-3511","診療科目名称":"はり、きゅう"},{"name":"港はりきゅう恩応治療院","province":"東京都","city":"港区","address":"東京都港区芝二丁目30番14号","lat":35.649676,"lon":139.751822,"施設方書":"阿部ビル1階","施設開設日":"2014/10/1","施設電話番号":"03-3455-7830","診療科目名称":"はり、きゅう"},{"name":"グローバル治療院マッサージ・鍼灸 三田店","province":"東京都","city":"港区","address":"東京都港区芝三丁目16番12号","lat":35.652354,"lon":139.745348,"施設方書":"サンライズ三田ビル1階","施設開設日":"2010/9/7","施設電話番号":"03-5444-4731","診療科目名称":"あん摩、はり、きゅう"},{"name":"あん摩マッサージ指圧 坂柳長生院","province":"東京都","city":"港区","address":"東京都港区芝三丁目17番2号","lat":35.65211,"lon":139.745344,"施設方書":"コンフォートアオキ201","施設開設日":"2024/1/25","施設電話番号":"","診療科目名称":"あん摩"},{"name":"ひまわり三田鍼灸院","province":"東京都","city":"港区","address":"東京都港区芝三丁目19番3号","lat":35.652021,"lon":139.746821,"施設方書":"MUハウス1階","施設開設日":"2011/3/31","施設電話番号":"03-6435-2922","診療科目名称":"あん摩、はり、きゅう"},{"name":"アントニオ鍼灸治療院","province":"東京都","city":"港区","address":"東京都港区芝三丁目27番3号","lat":35.651647,"lon":139.746011,"施設方書":"ウェルハウス芝301","施設開設日":"2019/3/1","施設電話番号":"03-6435-3886","診療科目名称":"あん摩、はり、きゅう"},{"name":"まごころベルマッサージ","province":"東京都","city":"港区","address":"東京都港区芝三丁目31番5号","lat":35.6511,"lon":139.747233,"施設方書":"福田ビル203","施設開設日":"2022/6/1","施設電話番号":"03-6381-7452","診療科目名称":"あん摩、きゅう、はり"},{"name":"一乗鍼灸院","province":"東京都","city":"港区","address":"東京都港区芝四丁目3番2号","lat":35.649116,"lon":139.750395,"施設方書":"217","施設開設日":"2012/8/1","施設電話番号":"03-6809-3036","診療科目名称":"はり、きゅう"},{"name":"田町中央鍼灸院","province":"東京都","city":"港区","address":"東京都港区芝四丁目5番9号","lat":35.648777,"lon":139.751176,"施設方書":"三田ハイデンス1階","施設開設日":"2014/6/24","施設電話番号":"03-3451-5110","診療科目名称":"はり、きゅう"},{"name":"えいとスポーツ鍼灸院","province":"東京都","city":"港区","address":"東京都港区芝五丁目13番13号","lat":35.648956,"lon":139.744905,"施設方書":"つるやビル6階","施設開設日":"2021/9/28","施設電話番号":"","診療科目名称":"きゅう、はり"},{"name":"三矢鍼灸治療院","province":"東京都","city":"港区","address":"東京都港区芝五丁目14番17号","lat":35.64869,"lon":139.744935,"施設方書":"白蘭ビル3階","施設開設日":"2001/3/14","施設電話番号":"03-5443-0624","診療科目名称":"あん摩、はり、きゅう"},{"name":"はり灸朱鵝院","province":"東京都","city":"港区","address":"東京都港区芝五丁目18番1号","lat":35.648302,"lon":139.747765,"施設方書":"1127","施設開設日":"1996/6/28","施設電話番号":"03-3798-5455","診療科目名称":"はり、きゅう"},{"name":"かわい指圧ルーム","province":"東京都","city":"港区","address":"東京都港区芝五丁目22番4号","lat":35.648228,"lon":139.74649,"施設方書":"種村ビル2階、3階","施設開設日":"2005/12/26","施設電話番号":"03-3452-4433","診療科目名称":"あん摩、はり、きゅう"},{"name":"エスティームスポーツマッサージ","province":"東京都","city":"港区","address":"東京都港区芝五丁目23番5号","lat":35.648321,"lon":139.746183,"施設方書":"ブライトンコート三田1階","施設開設日":"2014/8/1","施設電話番号":"03-3769-1008","診療科目名称":"あん摩、はり、きゅう"},{"name":"にしむら治療院はり・きゅう","province":"東京都","city":"港区","address":"東京都港区芝五丁目27番5号","lat":35.647121,"lon":139.746323,"施設方書":"山田ビル503","施設開設日":"2023/7/1","施設電話番号":"03-6435-2437","診療科目名称":"はり、きゅう"},{"name":"リラックスハウス","province":"東京都","city":"港区","address":"東京都港区芝五丁目27番13号","lat":35.646961,"lon":139.746262,"施設方書":"第二小川ビル3階","施設開設日":"2007/11/20","施設電話番号":"03-5484-4180","診療科目名称":"あん摩、はり、きゅう"},{"name":"iCure鍼灸院 田町駅前","province":"東京都","city":"港区","address":"東京都港区芝五丁目31番5号","lat":35.646742,"lon":139.746183,"施設方書":"MEFULL田町3階","施設開設日":"2023/1/1","施設電話番号":"03-5442-1939","診療科目名称":"はり、きゅう"},{"name":"元気ハンズ","province":"東京都","city":"港区","address":"東京都港区芝五丁目31番15号","lat":35.646682,"lon":139.746302,"施設方書":"センチュリー三田ビル4階","施設開設日":"2001/3/13","施設電話番号":"03-5444-7666","診療科目名称":"あん摩、はり、きゅう"},{"name":"田町駅前はり灸院","province":"東京都","city":"港区","address":"東京都港区芝五丁目32番3号","lat":35.647283,"lon":139.74757,"施設方書":"林ビル2階","施設開設日":"2019/4/19","施設電話番号":"03-6453-7674","診療科目名称":"はり、きゅう"},{"name":"株式会社コスモスイニシア リフレッシュルーム","province":"東京都","city":"港区","address":"東京都港区芝五丁目34番6号","lat":35.645971,"lon":139.746722,"施設方書":"新田町ビル9F リフレッシュルーム","施設開設日":"2021/7/26","施設電話番号":"03-5444-3250","診療科目名称":"あん摩、はり、きゅう"},{"name":"田町ヘルスケアルーム","province":"東京都","city":"港区","address":"東京都港区芝浦三丁目1番1号","lat":35.645885,"lon":139.749618,"施設方書":"田町ステーションタワーN 4階 サントリー田町オフィス内 ヘルスケアエリア内","施設開設日":"2021/7/1","施設電話番号":"","診療科目名称":"あん摩"},{"name":"アストラゼネカ株式会社","province":"東京都","city":"港区","address":"東京都港区芝浦三丁目1番1号","lat":35.645885,"lon":139.749618,"施設方書":"田町ステーションタワーN 35階","施設開設日":"2021/6/21","施設電話番号":"03-3457-9300","診療科目名称":"あん摩"},{"name":"リラクゼーションマッサージ Luxe","province":"東京都","city":"港区","address":"東京都港区芝浦三丁目1番32‐504号","lat":35.64497,"lon":139.74836,"施設方書":"","施設開設日":"2018/5/28","施設電話番号":"03-6722-6564","診療科目名称":"はり"},{"name":"芝浦鍼灸マッサージ院","province":"東京都","city":"港区","address":"東京都港区芝浦三丁目12番5号","lat":35.642529,"lon":139.749456,"施設方書":"石阪ビル2階","施設開設日":"2005/10/11","施設電話番号":"03-5445-6600","診療科目名称":"あん摩、はり、きゅう"},{"name":"芝浦はり治療院","province":"東京都","city":"港区","address":"東京都港区芝浦三丁目14番3号","lat":35.642651,"lon":139.748245,"施設方書":"芝浦SSビル1階","施設開設日":"2020/10/16","施設電話番号":"03-6722-0424","診療科目名称":"はり、きゅう"},{"name":"B&W指圧治療院","province":"東京都","city":"港区","address":"東京都港区芝浦四丁目2番23号","lat":35.640581,"lon":139.744477,"施設方書":"東京ベイサイド905","施設開設日":"2010/3/3","施設電話番号":"03-5445-6221","診療科目名称":"あん摩"},{"name":"999ito(キュウキュウキュウイトウ)","province":"東京都","city":"港区","address":"東京都港区芝浦四丁目12番35号","lat":35.640532,"lon":139.749071,"施設方書":"ラティス芝浦504","施設開設日":"2011/3/8","施設電話番号":"","診療科目名称":"あん摩、はり、きゅう"},{"name":"新駒鍼灸院","province":"東京都","city":"港区","address":"東京都港区芝浦四丁目13番3‐1907号","lat":35.640632,"lon":139.748554,"施設方書":"","施設開設日":"2016/10/11","施設電話番号":"03-3454-2501","診療科目名称":"あん摩、はり、きゅう"},{"name":"TMESボディケアルーム","province":"東京都","city":"港区","address":"東京都港区芝浦四丁目13番23号","lat":35.64024,"lon":139.748062,"施設方書":"MS芝浦ビル8階","施設開設日":"2019/4/15","施設電話番号":"03-6453-6396","診療科目名称":"あん摩、はり、きゅう"},{"name":"ふじ鍼灸院","province":"東京都","city":"港区","address":"東京都港区芝浦四丁目18番30‐303号","lat":35.638071,"lon":139.749129,"施設方書":"","施設開設日":"2016/6/1","施設電話番号":"03-6435-0689","診療科目名称":"はり、きゅう"},{"name":"ゆかり鍼灸整体院","province":"東京都","city":"港区","address":"東京都港区芝浦四丁目19番1号","lat":35.63754,"lon":139.750358,"施設方書":"ケープタワー4422号室","施設開設日":"2013/2/26","施設電話番号":"03-3451-8988","診療科目名称":"あん摩、はり、きゅう"},{"name":"コンディショニングマッサージサロンタッチスパ","province":"東京都","city":"港区","address":"東京都港区芝浦四丁目20番3号","lat":35.639853,"lon":139.751906,"施設方書":"ブルームタワーフィットネス棟1階","施設開設日":"2008/9/14","施設電話番号":"03-6436-4311","診療科目名称":"あん摩、はり"},{"name":"鍼灸治療室・凪","province":"東京都","city":"港区","address":"東京都港区芝浦四丁目21番1号","lat":35.640576,"lon":139.751073,"施設方書":"グローブタワー4517","施設開設日":"2007/5/30","施設電話番号":"03-5939-8831","診療科目名称":"はり、きゅう"},{"name":"小守スポーツマッサージ療院 東京タワー分院","province":"東京都","city":"港区","address":"東京都港区芝公園四丁目2番8号","lat":35.658581,"lon":139.745433,"施設方書":"株式会社TOKYO TOWER3階","施設開設日":"2012/11/28","施設電話番号":"03-3433-5157","診療科目名称":"あん摩、はり、きゅう"},{"name":"小守スポーツマッサージ療院","province":"東京都","city":"港区","address":"東京都港区芝公園四丁目8番1号","lat":35.655223,"lon":139.747029,"施設方書":"東京プリンスホテルパークタワー地下2階","施設開設日":"2005/4/11","施設電話番号":"03-5400-1111","診療科目名称":"あん摩、はり、きゅう"},{"name":"株式会社ジュピターテレコム社内マッサージルーム","province":"東京都","city":"港区","address":"東京都港区芝大門一丁目1番30号","lat":35.659491,"lon":139.75315,"施設方書":"芝NBFタワー1階","施設開設日":"2008/10/1","施設電話番号":"03-6765-8190","診療科目名称":"あん摩"},{"name":"ReCORE鍼灸院 大門","province":"東京都","city":"港区","address":"東京都港区芝大門一丁目4番4号","lat":35.658632,"lon":139.754587,"施設方書":"ノア芝大門106","施設開設日":"2019/4/1","施設電話番号":"03-5776-1939","診療科目名称":"はり、きゅう"},{"name":"さくらモンデックス港院","province":"東京都","city":"港区","address":"東京都港区芝大門一丁目4番10号","lat":35.657749,"lon":139.754487,"施設方書":"大藏ビル401","施設開設日":"2020/10/1","施設電話番号":"03-6453-0761","診療科目名称":"あん摩、はり、きゅう"},{"name":"国芳東京針灸治療院","province":"東京都","city":"港区","address":"東京都港区芝大門一丁目7番4号","lat":35.658111,"lon":139.753688,"施設方書":"トーア芝ガーデン104号室","施設開設日":"2015/11/11","施設電話番号":"03-3434-2289","診療科目名称":"はり、きゅう"},{"name":"(有)芝鍼灸マッサージ治療院","province":"東京都","city":"港区","address":"東京都港区芝大門一丁目11番6号","lat":35.65818,"lon":139.753079,"施設方書":"","施設開設日":"1982/5/1","施設電話番号":"03-3431-4908","診療科目名称":"あん摩、はり、きゅう"},{"name":"芝大門IMS治療院","province":"東京都","city":"港区","address":"東京都港区芝大門一丁目15番5号","lat":35.657323,"lon":139.754117,"施設方書":"フジビル2階","施設開設日":"2014/11/21","施設電話番号":"03-6452-9484","診療科目名称":"はり、きゅう"},{"name":"カラダキュア浜松町大門鍼灸院","province":"東京都","city":"港区","address":"東京都港区芝大門一丁目15番7号","lat":35.657059,"lon":139.753928,"施設方書":"芝大門ABC館ビル3階","施設開設日":"2020/9/18","施設電話番号":"03-6381-5312","診療科目名称":"はり、きゅう"},{"name":"SWITCH","province":"東京都","city":"港区","address":"東京都港区芝大門一丁目15番7号","lat":35.657059,"lon":139.753928,"施設方書":"芝大門ABC館ビル1階","施設開設日":"2023/11/4","施設電話番号":"","診療科目名称":"はり"},{"name":"アルファウェーブ鍼灸指圧治療院 浜松町店","province":"東京都","city":"港区","address":"東京都港区芝大門一丁目15番7号","lat":35.657051,"lon":139.754088,"施設方書":"TK芝大門ビル3階","施設開設日":"2009/12/1","施設電話番号":"03-3431-8108","診療科目名称":"あん摩、はり、きゅう"},{"name":"さくら鍼灸治療院","province":"東京都","city":"港区","address":"東京都港区芝大門一丁目16番6号","lat":35.657124,"lon":139.754465,"施設方書":"新雅ビル5階","施設開設日":"2017/4/17","施設電話番号":"","診療科目名称":"はり、きゅう"},{"name":"大門パフォーマンススタジオ鍼灸院","province":"東京都","city":"港区","address":"東京都港区芝大門二丁目1番2号","lat":35.65677,"lon":139.753209,"施設方書":"山口ビル5階","施設開設日":"2023/3/10","施設電話番号":"","診療科目名称":"はり、きゅう"},{"name":"ハリのち晴れ鍼灸治療院","province":"東京都","city":"港区","address":"東京都港区芝大門二丁目1番13号","lat":35.655898,"lon":139.75298,"施設方書":"4F","施設開設日":"2023/10/2","施設電話番号":"03-5777-1322","診療科目名称":"はり、きゅう、あん摩"},{"name":"松崎はり指圧院","province":"東京都","city":"港区","address":"東京都港区芝大門二丁目1番18号","lat":35.656582,"lon":139.753036,"施設方書":"GSハイム205","施設開設日":"1997/7/27","施設電話番号":"03-5401-0870","診療科目名称":"あん摩、はり、きゅう"},{"name":"ハリのち晴れ鍼灸治療院大門駅前店","province":"東京都","city":"港区","address":"東京都港区芝大門二丁目3番5号","lat":35.65646,"lon":139.753978,"施設方書":"大貫ビル3階","施設開設日":"2023/12/1","施設電話番号":"03-5777-1322","診療科目名称":"はり、きゅう、あん摩"},{"name":"丸マッサージ・鍼灸院","province":"東京都","city":"港区","address":"東京都港区芝大門二丁目5番9号","lat":35.654846,"lon":139.754048,"施設方書":"","施設開設日":"2019/10/8","施設電話番号":"","診療科目名称":"あん摩、はり、きゅう"},{"name":"ハリのち晴れ鍼灸治療院本院","province":"東京都","city":"港区","address":"東京都港区芝大門二丁目8番16号","lat":35.655661,"lon":139.75288,"施設方書":"2F","施設開設日":"2023/10/2","施設電話番号":"03-5777-1322","診療科目名称":"はり、きゅう、あん摩"},{"name":"芝メディカルエイド治療院","province":"東京都","city":"港区","address":"東京都港区芝大門二丁目12番6号","lat":35.654129,"lon":139.754048,"施設方書":"ダイアパレス806","施設開設日":"1991/1/18","施設電話番号":"03-3437-2522","診療科目名称":"あん摩、はり、きゅう"},{"name":"もりこ鍼灸院","province":"東京都","city":"港区","address":"東京都港区芝大門二丁目12番8号","lat":35.653908,"lon":139.753983,"施設方書":"浜松町矢崎ホワイトビル1階","施設開設日":"2013/5/8","施設電話番号":"03-3431-1733","診療科目名称":"はり、きゅう"},{"name":"はりきゅう にしはら","province":"東京都","city":"港区","address":"東京都港区白金一丁目5番1号","lat":35.646833,"lon":139.732377,"施設方書":"ドリームタイム白金4階","施設開設日":"2018/2/3","施設電話番号":"","診療科目名称":"はり、きゅう"},{"name":"epiq鍼灸サロン","province":"東京都","city":"港区","address":"東京都港区白金一丁目6番11号","lat":35.646472,"lon":139.731738,"施設方書":"CONTEL SHIROGANE102","施設開設日":"2023/3/16","施設電話番号":"","診療科目名称":"はり、きゅう"},{"name":"マッサージルーム「Relaxa」(リラクサ)","province":"東京都","city":"港区","address":"東京都港区白金一丁目17番3号","lat":35.644601,"lon":139.734627,"施設方書":"NBFプラチナタワー24階リフレッシュルーム内","施設開設日":"2010/10/8","施設電話番号":"03-6737-6926","診療科目名称":"あん摩"},{"name":"鍼灸サロンRicca","province":"東京都","city":"港区","address":"東京都港区白金一丁目28番18号","lat":35.643758,"lon":139.732976,"施設方書":"Yビル2階","施設開設日":"2022/4/19","施設電話番号":"03-3445-1189","診療科目名称":"あん摩、はり、きゅう"},{"name":"ヤブザキ鍼灸治療院","province":"東京都","city":"港区","address":"東京都港区白金一丁目28番18号","lat":35.643758,"lon":139.732976,"施設方書":"1階","施設開設日":"2023/3/3","施設電話番号":"03-3441-4438","診療科目名称":"はり、きゅう"},{"name":"森治療院","province":"東京都","city":"港区","address":"東京都港区白金一丁目29番9号","lat":35.643175,"lon":139.733878,"施設方書":"201","施設開設日":"2010/6/30","施設電話番号":"03-3441-0307","診療科目名称":"あん摩、はり、きゅう"},{"name":"豪栄鍼灸院","province":"東京都","city":"港区","address":"東京都港区白金二丁目1番4号","lat":35.643624,"lon":139.731002,"施設方書":"1階","施設開設日":"2018/4/23","施設電話番号":"","診療科目名称":"はり、あん摩、きゅう"},{"name":"しまだ整体サロン","province":"東京都","city":"港区","address":"東京都港区白金二丁目3番19号","lat":35.642468,"lon":139.73329,"施設方書":"白金アネックス201","施設開設日":"2022/6/1","施設電話番号":"03-6450-3439","診療科目名称":"はり、きゅう"},{"name":"すずき鍼灸治療院","province":"東京都","city":"港区","address":"東京都港区白金三丁目3番23号","lat":35.646247,"lon":139.729229,"施設方書":"","施設開設日":"2005/5/18","施設電話番号":"","診療科目名称":"あん摩、はり、きゅう"},{"name":"白金はり灸マッサージ室","province":"東京都","city":"港区","address":"東京都港区白金三丁目9番16号","lat":35.645888,"lon":139.730815,"施設方書":"マロン白金3A","施設開設日":"2021/10/4","施設電話番号":"","診療科目名称":"あん摩、はり、きゅう"},{"name":"立川マッサージ治療院","province":"東京都","city":"港区","address":"東京都港区白金三丁目20番2号","lat":35.644268,"lon":139.730646,"施設方書":"","施設開設日":"1977/8/4","施設電話番号":"03-3441-3956","診療科目名称":"あん摩"},{"name":"Mahana鍼灸院","province":"東京都","city":"港区","address":"東京都港区白金四丁目9番2号","lat":35.642137,"lon":139.72862,"施設方書":"2階","施設開設日":"2017/5/1","施設電話番号":"03-5421-0891","診療科目名称":"あん摩、はり、きゅう"},{"name":"ハリーテ白金鍼灸サロン","province":"東京都","city":"港区","address":"東京都港区白金六丁目14番3号","lat":35.642177,"lon":139.723712,"施設方書":"","施設開設日":"2019/10/1","施設電話番号":"03-6456-2944","診療科目名称":"あん摩、はり、きゅう"},{"name":"白金訪問鍼灸マッサージセンター","province":"東京都","city":"港区","address":"東京都港区白金六丁目14番3号","lat":35.642177,"lon":139.723712,"施設方書":"","施設開設日":"2022/4/1","施設電話番号":"","診療科目名称":"あん摩、はり、きゅう"},{"name":"JPEC鍼灸白金","province":"東京都","city":"港区","address":"東京都港区白金六丁目16番24号","lat":35.642368,"lon":139.721899,"施設方書":"BARBIZON100 3階","施設開設日":"2018/4/17","施設電話番号":"03-6277-2867","診療科目名称":"はり、きゅう"},{"name":"しろがね鍼灸院","province":"東京都","city":"港区","address":"東京都港区白金六丁目19番7号","lat":35.643336,"lon":139.721237,"施設方書":"第2東幸ビル1階","施設開設日":"2017/9/1","施設電話番号":"03-3443-3525","診療科目名称":"はり、きゅう"},{"name":"(株)ダイヤモンドアスレティックス","province":"東京都","city":"港区","address":"東京都港区白金台一丁目1番18号","lat":35.639125,"lon":139.729044,"施設方書":"スパ白金台内","施設開設日":"1984/7/1","施設電話番号":"03-3444-5816","診療科目名称":"あん摩、はり、きゅう"},{"name":"都ヘルスクラブ","province":"東京都","city":"港区","address":"東京都港区白金台一丁目1番50号","lat":35.639304,"lon":139.730649,"施設方書":"都ホテル東京内","施設開設日":"1998/11/1","施設電話番号":"03-3447-3111","診療科目名称":"あん摩"},{"name":"ライフサポート「パルモ」","province":"東京都","city":"港区","address":"東京都港区白金台一丁目2番6号","lat":35.639224,"lon":139.731374,"施設方書":"菁莪館103","施設開設日":"2015/2/1","施設電話番号":"03-3280-1217","診療科目名称":"あん摩、はり、きゅう"},{"name":"福永ハリキュウマッサージ治療院","province":"東京都","city":"港区","address":"東京都港区白金台三丁目16番8号","lat":35.636183,"lon":139.723342,"施設方書":"クレール白金台314","施設開設日":"1989/8/8","施設電話番号":"03-3441-9014","診療科目名称":"あん摩、はり、きゅう"},{"name":"ブリエ鍼灸サロン","province":"東京都","city":"港区","address":"東京都港区白金台三丁目16番36号","lat":35.635983,"lon":139.722184,"施設方書":"401","施設開設日":"2019/6/6","施設電話番号":"","診療科目名称":"はり、きゅう"},{"name":"Asisiya鍼灸院","province":"東京都","city":"港区","address":"東京都港区白金台四丁目2番10号","lat":35.639189,"lon":139.728201,"施設方書":"ランドステージ地下1階","施設開設日":"2019/3/7","施設電話番号":"03-3441-2067","診療科目名称":"はり、きゅう"},{"name":"ピュビケアサロン はりきゅう","province":"東京都","city":"港区","address":"東京都港区白金台四丁目5番7号","lat":35.638643,"lon":139.727064,"施設方書":"サンストン白金台205","施設開設日":"2018/9/8","施設電話番号":"03-6450-3435","診療科目名称":"あん摩、はり、きゅう"},{"name":"白金鍼灸サロン salon de shirokane","province":"東京都","city":"港区","address":"東京都港区白金台四丁目8番14号","lat":35.637441,"lon":139.724179,"施設方書":"プラティーヌA棟2階","施設開設日":"2017/4/1","施設電話番号":"03-6277-4207","診療科目名称":"あん摩、はり、きゅう"},{"name":"白金台はりきゅう治療室","province":"東京都","city":"港区","address":"東京都港区白金台四丁目12番12号","lat":35.638173,"lon":139.724909,"施設方書":"ウェルハウス白金台204","施設開設日":"2010/11/22","施設電話番号":"03-6277-2236","診療科目名称":"あん摩、はり、きゅう"},{"name":"鍼灸Lien白金台","province":"東京都","city":"港区","address":"東京都港区白金台四丁目15番6号","lat":35.638915,"lon":139.725014,"施設方書":"エヴァーグリーン白金台101","施設開設日":"2017/4/7","施設電話番号":"03-6874-1402","診療科目名称":"はり、きゅう"},{"name":"鍼灸院 MANA","province":"東京都","city":"港区","address":"東京都港区白金台四丁目15番6号","lat":35.638915,"lon":139.725014,"施設方書":"エヴァーグリーン白金台201","施設開設日":"2016/12/17","施設電話番号":"","診療科目名称":"はり、きゅう"},{"name":"森羅白金鍼灸治療院","province":"東京都","city":"港区","address":"東京都港区白金台五丁目2番5号","lat":35.642475,"lon":139.720878,"施設方書":"トランドゥ101","施設開設日":"2018/4/10","施設電話番号":"03-6277-3993","診療科目名称":"はり、きゅう"},{"name":"白金鍼灸 サロンフューム","province":"東京都","city":"港区","address":"東京都港区白金台五丁目2番5号","lat":35.642475,"lon":139.720878,"施設方書":"トランドゥ403","施設開設日":"2015/10/15","施設電話番号":"03-6450-3623","診療科目名称":"あん摩、はり、きゅう"},{"name":"鍼灸院Sugar","province":"東京都","city":"港区","address":"東京都港区白金台五丁目5番8号","lat":35.640429,"lon":139.722275,"施設方書":"ISOLETTA4F","施設開設日":"2022/2/1","施設電話番号":"03-6277-3218","診療科目名称":"はり、きゅう"},{"name":"YPマッサージ室","province":"東京都","city":"港区","address":"東京都港区白金台五丁目17番2号","lat":35.637431,"lon":139.723472,"施設方書":"ヤマトプロテック本社6階","施設開設日":"2019/2/8","施設電話番号":"03-3446-7805","診療科目名称":"あん摩、はり"},{"name":"白金台 もりこや鍼灸院","province":"東京都","city":"港区","address":"東京都港区白金台五丁目18番6号","lat":35.636997,"lon":139.723372,"施設方書":"1階","施設開設日":"2023/12/21","施設電話番号":"","診療科目名称":"はり、きゅう"},{"name":"尾崎鍼灸院","province":"東京都","city":"港区","address":"東京都港区白金台五丁目18番7号","lat":35.636892,"lon":139.723302,"施設方書":"アポロ白金台201","施設開設日":"2000/12/18","施設電話番号":"03-3280-2827","診療科目名称":"あん摩、はり、きゅう"},{"name":"Breath鍼灸院","province":"東京都","city":"港区","address":"東京都港区白金台五丁目18番18号","lat":35.637305,"lon":139.723608,"施設方書":"バルビゾンビル18 6F","施設開設日":"2024/2/19","施設電話番号":"03-6822-7769","診療科目名称":"はり、きゅう"},{"name":"鍼灸 杏珠堂","province":"東京都","city":"港区","address":"東京都港区白金台五丁目22番11号","lat":35.634992,"lon":139.717666,"施設方書":"ソフトタウン白金301","施設開設日":"2019/3/30","施設電話番号":"","診療科目名称":"はり、きゅう"},{"name":"鍼灸院SAKIUTA","province":"東京都","city":"港区","address":"東京都港区白金台五丁目22番11号","lat":35.634992,"lon":139.717666,"施設方書":"ソフトタウン白金210","施設開設日":"2019/6/16","施設電話番号":"03-6450-3916","診療科目名称":"はり、きゅう"},{"name":"迎春堂鍼灸治療院","province":"東京都","city":"港区","address":"東京都港区新橋一丁目5番5号","lat":35.667572,"lon":139.760197,"施設方書":"国際善隣会館8階","施設開設日":"2012/11/20","施設電話番号":"03-6228-5958","診療科目名称":"はり、きゅう"},{"name":"たまるやスポーツ鍼灸院","province":"東京都","city":"港区","address":"東京都港区新橋一丁目18番14号","lat":35.668414,"lon":139.756124,"施設方書":"三洋堂ビル本館7階","施設開設日":"2011/2/9","施設電話番号":"03-3593-5093","診療科目名称":"あん摩、はり、きゅう"},{"name":"新橋西口鍼灸院","province":"東京都","city":"港区","address":"東京都港区新橋一丁目18番15号","lat":35.668478,"lon":139.755924,"施設方書":"佐伯ビル1階","施設開設日":"2019/3/1","施設電話番号":"03-5251-8101","診療科目名称":"はり、きゅう"},{"name":"ライエンス鍼灸院","province":"東京都","city":"港区","address":"東京都港区新橋二丁目3番3号","lat":35.667749,"lon":139.75573,"施設方書":"新橋ベネテックビル2階","施設開設日":"2013/7/1","施設電話番号":"03-6268-8318","診療科目名称":"あん摩、はり、きゅう"},{"name":"アルファウェーブ鍼灸指圧治療院 新橋店","province":"東京都","city":"港区","address":"東京都港区新橋二丁目5番6号","lat":35.667457,"lon":139.755884,"施設方書":"大村ビル2階","施設開設日":"2009/12/1","施設電話番号":"03-3503-2341","診療科目名称":"あん摩、はり、きゅう"},{"name":"和風癒処 新橋店","province":"東京都","city":"港区","address":"東京都港区新橋二丁目6番8号","lat":35.666379,"lon":139.75834,"施設方書":"新橋駅前21LADYビル2・3階","施設開設日":"2003/6/18","施設電話番号":"03-5251-5225","診療科目名称":"あん摩"},{"name":"一掌堂治療院","province":"東京都","city":"港区","address":"東京都港区新橋二丁目10番5号","lat":35.666967,"lon":139.755649,"施設方書":"末吉ビル5階","施設開設日":"2006/1/10","施設電話番号":"03-3591-0505","診療科目名称":"あん摩、はり、きゅう"},{"name":"AYC治療室","province":"東京都","city":"港区","address":"東京都港区新橋二丁目16番1号","lat":35.666423,"lon":139.757358,"施設方書":"ニュー新橋ビル429","施設開設日":"2016/9/2","施設電話番号":"03-3580-7770","診療科目名称":"あん摩、はり、きゅう"},{"name":"新橋駅前鍼灸院","province":"東京都","city":"港区","address":"東京都港区新橋二丁目16番1号","lat":35.666423,"lon":139.757358,"施設方書":"ニュー新橋ビル2階","施設開設日":"2016/8/22","施設電話番号":"03-6206-1225","診療科目名称":"あん摩、はり、きゅう"},{"name":"清水指圧治療室","province":"東京都","city":"港区","address":"東京都港区新橋二丁目16番1号","lat":35.666423,"lon":139.757358,"施設方書":"ニュー新橋ビル406","施設開設日":"1994/9/24","施設電話番号":"03-3508-8097","診療科目名称":"あん摩"},{"name":"サテライトマッサージ鍼灸院","province":"東京都","city":"港区","address":"東京都港区新橋二丁目16番1号","lat":35.666423,"lon":139.757358,"施設方書":"ニュー新橋ビル244","施設開設日":"1990/12/5","施設電話番号":"03-3592-9440","診療科目名称":"あん摩、はり、きゅう"},{"name":"サテライト指圧マッサージ院","province":"東京都","city":"港区","address":"東京都港区新橋二丁目16番1号","lat":35.666423,"lon":139.757358,"施設方書":"ニュー新橋ビル1001","施設開設日":"1990/12/5","施設電話番号":"03-3597-8577","診療科目名称":"あん摩"},{"name":"サンテナーマッサージ治療所2号","province":"東京都","city":"港区","address":"東京都港区新橋二丁目20番15号","lat":35.666214,"lon":139.759538,"施設方書":"新橋駅前ビル1号館919号","施設開設日":"1983/6/10","施設電話番号":"03-3571-8816","診療科目名称":"あん摩、はり、きゅう"},{"name":"サンテナーマッサージ治療院1号","province":"東京都","city":"港区","address":"東京都港区新橋二丁目20番15号","lat":35.666214,"lon":139.759538,"施設方書":"新橋駅前ビル1号館111号","施設開設日":"1981/9/16","施設電話番号":"03-3571-0345","診療科目名称":"あん摩、はり、きゅう"},{"name":"サンテナーマッサージ治療院3号","province":"東京都","city":"港区","address":"東京都港区新橋二丁目20番15号","lat":35.666214,"lon":139.759538,"施設方書":"新橋駅前ビル1号館208","施設開設日":"1996/6/21","施設電話番号":"03-3573-2233","診療科目名称":"あん摩、はり、きゅう"},{"name":"新橋汐留鍼灸マッサージ院","province":"東京都","city":"港区","address":"東京都港区新橋二丁目20番15号","lat":35.666214,"lon":139.759538,"施設方書":"新橋駅前ビル1号館1階127","施設開設日":"2009/11/6","施設電話番号":"03-6228-5855","診療科目名称":"あん摩、はり、きゅう"},{"name":"福建中医薬大学附属中国鍼灸院","province":"東京都","city":"港区","address":"東京都港区新橋二丁目20番15号","lat":35.666214,"lon":139.759538,"施設方書":"新橋駅前ビル1号館208号","施設開設日":"2024/2/15","施設電話番号":"03-6264-6444","診療科目名称":"はり、きゅう"},{"name":"福島鍼灸治療院","province":"東京都","city":"港区","address":"東京都港区新橋二丁目20番15号","lat":35.666214,"lon":139.759538,"施設方書":"新橋駅前ビル1号館226","施設開設日":"2005/2/22","施設電話番号":"03-3571-0833","診療科目名称":"はり、きゅう"},{"name":"リライフ鍼灸マッサージ院","province":"東京都","city":"港区","address":"東京都港区新橋三丁目11番9号","lat":35.666281,"lon":139.755725,"施設方書":"烏森通りビル3F","施設開設日":"2023/10/1","施設電話番号":"03-6435-8382","診療科目名称":"あん摩、はり、きゅう"},{"name":"東京鍼灸 烏森通り","province":"東京都","city":"港区","address":"東京都港区新橋三丁目11番9号","lat":35.666281,"lon":139.755725,"施設方書":"烏森通りビル6階","施設開設日":"2017/12/18","施設電話番号":"03-6874-8839","診療科目名称":"はり、きゅう"},{"name":"元氣計画治療院","province":"東京都","city":"港区","address":"東京都港区新橋三丁目13番5号","lat":35.665665,"lon":139.756313,"施設方書":"新橋カシマビル3階","施設開設日":"2008/6/18","施設電話番号":"03-3438-0949","診療科目名称":"あん摩、はり、きゅう"},{"name":"烏森マッサージ","province":"東京都","city":"港区","address":"東京都港区新橋三丁目21番4号","lat":35.66516,"lon":139.75805,"施設方書":"ペリカンビル3階","施設開設日":"1999/9/28","施設電話番号":"03-3437-2828","診療科目名称":"あん摩"},{"name":"博厚堂はり治療院","province":"東京都","city":"港区","address":"東京都港区新橋四丁目7番4号","lat":35.664623,"lon":139.755402,"施設方書":"STトミタ1F","施設開設日":"2021/10/22","施設電話番号":"03-3459-8341","診療科目名称":"あん摩、はり、きゅう"},{"name":"たから鍼灸院","province":"東京都","city":"港区","address":"東京都港区新橋四丁目14番4号","lat":35.664489,"lon":139.75675,"施設方書":"","施設開設日":"2020/12/1","施設電話番号":"03-3433-1133","診療科目名称":"はり、きゅう"},{"name":"はなまる鍼灸院","province":"東京都","city":"港区","address":"東京都港区新橋五丁目4番1号","lat":35.664219,"lon":139.75383,"施設方書":"ふくやビル1階","施設開設日":"2020/4/25","施設電話番号":"03-6427-8704","診療科目名称":"はり、きゅう"},{"name":"指圧鍼灸治療院 rita-1","province":"東京都","city":"港区","address":"東京都港区新橋五丁目6番4号","lat":35.663704,"lon":139.754127,"施設方書":"トゥシェ新橋1001号室","施設開設日":"2016/12/1","施設電話番号":"03-3436-2730","診療科目名称":"あん摩、はり、きゅう"},{"name":"指圧鍼灸治療院 rita-2","province":"東京都","city":"港区","address":"東京都港区新橋五丁目6番4号","lat":35.663704,"lon":139.754127,"施設方書":"トゥシェ新橋304号室","施設開設日":"2016/12/1","施設電話番号":"03-3436-2730","診療科目名称":"あん摩、はり、きゅう"},{"name":"指圧鍼灸治療院 rita-3","province":"東京都","city":"港区","address":"東京都港区新橋五丁目6番4号","lat":35.663704,"lon":139.754127,"施設方書":"トゥシェ新橋301号室","施設開設日":"2016/12/1","施設電話番号":"03-3436-2730","診療科目名称":"あん摩、はり、きゅう"},{"name":"鍼灸マッサージ治療院 Hariciere","province":"東京都","city":"港区","address":"東京都港区新橋六丁目8番6号","lat":35.661651,"lon":139.755436,"施設方書":"108TamagawaResidence401","施設開設日":"2024/2/23","施設電話番号":"","診療科目名称":"あん摩、はり、きゅう"},{"name":"らくらく堂鍼灸院","province":"東京都","city":"港区","address":"東京都港区新橋六丁目14番4号","lat":35.661863,"lon":139.753282,"施設方書":"和田ビル2階","施設開設日":"2020/1/29","施設電話番号":"03-6435-8410","診療科目名称":"あん摩、はり、きゅう"},{"name":"らくらく堂針灸院","province":"東京都","city":"港区","address":"東京都港区新橋六丁目14番4号","lat":35.661863,"lon":139.753282,"施設方書":"和田ビル2F","施設開設日":"2003/1/14","施設電話番号":"03-3459-8341","診療科目名称":"あん摩、はり、きゅう"},{"name":"お台場ウェルケア鍼灸院","province":"東京都","city":"港区","address":"東京都港区台場一丁目6番1号","lat":35.629058,"lon":139.775997,"施設方書":"デックス東京ビーチ1F-01a","施設開設日":"2022/2/12","施設電話番号":"03-6380-7738","診療科目名称":"はり、きゅう"},{"name":"ヘルスケアルーム","province":"東京都","city":"港区","address":"東京都港区台場二丁目3番3号","lat":35.629101,"lon":139.778791,"施設方書":"","施設開設日":"2009/4/1","施設電話番号":"03-5579-1633","診療科目名称":"あん摩"},{"name":"フジテレビジョン健康相談センターマッサージ室","province":"東京都","city":"港区","address":"東京都港区台場二丁目4番8号","lat":35.626804,"lon":139.774457,"施設方書":"フジテレビ本社ビル18階","施設開設日":"1997/4/21","施設電話番号":"03-5500-8888","診療科目名称":"あん摩"},{"name":"シーサイド台場 鍼灸施術院","province":"東京都","city":"港区","address":"東京都港区台場二丁目6番1号","lat":35.625144,"lon":139.771569,"施設方書":"グランドニッコー東京台場内Le CLUB2F","施設開設日":"2019/6/28","施設電話番号":"03-5500-4630","診療科目名称":"はり、きゅう、あん摩"},{"name":"庵SPA","province":"東京都","city":"港区","address":"東京都港区台場二丁目6番1号","lat":35.625144,"lon":139.771569,"施設方書":"グランドニッコー東京台場アトリウム3階","施設開設日":"2017/9/15","施設電話番号":"03-3599-3550","診療科目名称":"あん摩、はり、きゅう"},{"name":"白金高輪はりきゅう院","province":"東京都","city":"港区","address":"東京都港区高輪一丁目1番5号","lat":35.643519,"lon":139.736379,"施設方書":"パルムハウス魚籃坂103号室","施設開設日":"2022/3/16","施設電話番号":"03-6455-6462","診療科目名称":"はり、きゅう"},{"name":"指圧・マッサージ こりふじ","province":"東京都","city":"港区","address":"東京都港区高輪一丁目2番16号","lat":35.644241,"lon":139.735205,"施設方書":"鈴木ビル8階A、B","施設開設日":"2009/8/4","施設電話番号":"03-3445-9121","診療科目名称":"あん摩、はり、きゅう"},{"name":"高輪マッサージ指圧治療院","province":"東京都","city":"港区","address":"東京都港区高輪一丁目5番16号","lat":35.641594,"lon":139.737281,"施設方書":"","施設開設日":"2018/7/18","施設電話番号":"03-3473-5518","診療科目名称":"あん摩"},{"name":"アキュサリュート高輪","province":"東京都","city":"港区","address":"東京都港区高輪一丁目13番11号","lat":35.64148,"lon":139.735924,"施設方書":"帰山荘102","施設開設日":"2022/3/10","施設電話番号":"03-5422-9255","診療科目名称":"あん摩、はり、きゅう"},{"name":"指圧スタジオポレポレ","province":"東京都","city":"港区","address":"東京都港区高輪一丁目26番13号","lat":35.637746,"lon":139.733583,"施設方書":"2A","施設開設日":"2000/5/1","施設電話番号":"03-3447-5898","診療科目名称":"あん摩、はり、きゅう"},{"name":"小畑鍼灸院","province":"東京都","city":"港区","address":"東京都港区高輪二丁目3番22号","lat":35.637737,"lon":139.733884,"施設方書":"","施設開設日":"2005/8/31","施設電話番号":"03-3473-4189","診療科目名称":"はり、きゅう"},{"name":"古川鍼灸治療室","province":"東京都","city":"港区","address":"東京都港区高輪二丁目5番9号","lat":35.636364,"lon":139.733573,"施設方書":"","施設開設日":"1974/7/17","施設電話番号":"03-3441-1833","診療科目名称":"あん摩、はり、きゅう"},{"name":"高輪治療室","province":"東京都","city":"港区","address":"東京都港区高輪二丁目14番9号","lat":35.63597,"lon":139.738199,"施設方書":"三愛ビル1階","施設開設日":"2005/7/28","施設電話番号":"03-5420-1696","診療科目名称":"あん摩、はり、きゅう"},{"name":"桜華鍼灸院","province":"東京都","city":"港区","address":"東京都港区高輪二丁目15番8号","lat":35.637544,"lon":139.738802,"施設方書":"1階","施設開設日":"2017/4/1","施設電話番号":"03-5422-9334","診療科目名称":"はり、きゅう"},{"name":"鍼灸マッサージ院トータルケアファイン","province":"東京都","city":"港区","address":"東京都港区高輪二丁目15番24号","lat":35.636175,"lon":139.738258,"施設方書":"ASP高輪","施設開設日":"2020/9/1","施設電話番号":"03-5422-6591","診療科目名称":"あん摩、はり、きゅう"},{"name":"今野鍼灸治療院","province":"東京都","city":"港区","address":"東京都港区高輪二丁目16番36号","lat":35.637948,"lon":139.738838,"施設方書":"高輪チトセハイツ301","施設開設日":"2021/4/5","施設電話番号":"","診療科目名称":"あん摩、はり、きゅう"},{"name":"治療院ラフ","province":"東京都","city":"港区","address":"東京都港区高輪二丁目16番36号","lat":35.637948,"lon":139.738838,"施設方書":"高輪チトセハイツ301","施設開設日":"2021/5/18","施設電話番号":"","診療科目名称":"あん摩、はり、きゅう"},{"name":"一心訪問ケアマッサージ治療院高輪店","province":"東京都","city":"港区","address":"東京都港区高輪二丁目17番3号","lat":35.6361852,"lon":139.7338807,"施設方書":"東洋ビル3階","施設開設日":"2015/2/5","施設電話番号":"03-6277-0440","診療科目名称":"あん摩"},{"name":"女性のための鍼灸サロンHALIDA","province":"東京都","city":"港区","address":"東京都港区高輪三丁目6番11号","lat":35.633482,"lon":139.732421,"施設方書":"K高輪ビル601 oh the shore内","施設開設日":"2023/2/3","施設電話番号":"","診療科目名称":"はり、きゅう"},{"name":"高輪台鍼療所","province":"東京都","city":"港区","address":"東京都港区高輪三丁目8番5号","lat":35.633099,"lon":139.731643,"施設方書":"","施設開設日":"1983/1/1","施設電話番号":"03-3443-7788","診療科目名称":"はり、きゅう"},{"name":"鍼灸院リラクスラボ","province":"東京都","city":"港区","address":"東京都港区高輪三丁目10番7号","lat":35.631886,"lon":139.732132,"施設方書":"高輪アパートメント102号","施設開設日":"2018/5/12","施設電話番号":"03-6712-9939","診療科目名称":"はり、きゅう"},{"name":"鍼灸院サリー","province":"東京都","city":"港区","address":"東京都港区高輪三丁目11番5号","lat":35.631533,"lon":139.730536,"施設方書":"高輪ビューハイツ703","施設開設日":"2012/6/11","施設電話番号":"03-6721-7185","診療科目名称":"あん摩、はり、きゅう"},{"name":"Sai鍼灸高輪","province":"東京都","city":"港区","address":"東京都港区高輪三丁目15番23号","lat":35.635342,"lon":139.733659,"施設方書":"ヒラタビル1階","施設開設日":"2013/9/26","施設電話番号":"03-6409-6438","診療科目名称":"はり、きゅう"},{"name":"はり・きゅう・指圧 高輪 晴風堂 治療院","province":"東京都","city":"港区","address":"東京都港区高輪四丁目9番16号","lat":35.628722,"lon":139.735031,"施設方書":"","施設開設日":"2010/4/26","施設電話番号":"03-3280-1915","診療科目名称":"あん摩、はり、きゅう"},{"name":"IQVIAサービシーズマッサージサービス","province":"東京都","city":"港区","address":"東京都港区高輪四丁目10番18号","lat":35.628707,"lon":139.736861,"施設方書":"京急第1ビル5階","施設開設日":"2023/3/24","施設電話番号":"03-6859-9500","診療科目名称":"あん摩"},{"name":"IQVIAソリューションズジャパン合同会社","province":"東京都","city":"港区","address":"東京都港区高輪四丁目10番18号","lat":35.628707,"lon":139.736861,"施設方書":"京急第1ビル5階","施設開設日":"2023/3/20","施設電話番号":"03-6771-9001","診療科目名称":"はり、あん摩"},{"name":"小守スポーツマッサージ療院 高輪分院","province":"東京都","city":"港区","address":"東京都港区高輪四丁目10番30号","lat":35.62791,"lon":139.733827,"施設方書":"品川プリンスホテル高輪テニスセンター内2階","施設開設日":"2009/3/1","施設電話番号":"03-3473-2183","診療科目名称":"あん摩、はり、きゅう"},{"name":"松井マッサージ室","province":"東京都","city":"港区","address":"東京都港区高輪四丁目10番30号","lat":35.627844,"lon":139.735334,"施設方書":"品川プリンスホテル2-0339号","施設開設日":"2009/8/1","施設電話番号":"03-3440-1111","診療科目名称":"あん摩"},{"name":"エトワール治療院","province":"東京都","city":"港区","address":"東京都港区高輪四丁目11番8号","lat":35.627037,"lon":139.736323,"施設方書":"","施設開設日":"2020/9/9","施設電話番号":"","診療科目名称":"あん摩、はり、きゅう"},{"name":"こころ品川鍼灸治療院","province":"東京都","city":"港区","address":"東京都港区高輪四丁目18番23号","lat":35.626224,"lon":139.733848,"施設方書":"ニューホームズ高輪401","施設開設日":"2015/3/16","施設電話番号":"03-6450-2139","診療科目名称":"あん摩、はり、きゅう"},{"name":"ハリアップ高輪本院","province":"東京都","city":"港区","address":"東京都港区高輪四丁目18番23号","lat":35.626152,"lon":139.733921,"施設方書":"101","施設開設日":"2012/9/19","施設電話番号":"03-6450-3981","診療科目名称":"あん摩、はり、きゅう"},{"name":"あすも鍼灸院","province":"東京都","city":"港区","address":"東京都港区高輪四丁目21番1号","lat":35.626672,"lon":139.735329,"施設方書":"202","施設開設日":"2023/2/6","施設電話番号":"03-3445-1831","診療科目名称":"はり、きゅう"},{"name":"虎ノ門駅前マッサージはりきゅう院","province":"東京都","city":"港区","address":"東京都港区虎ノ門一丁目7番7号","lat":35.66948,"lon":139.749756,"施設方書":"3F","施設開設日":"2023/5/16","施設電話番号":"","診療科目名称":"あん摩、はり、きゅう"},{"name":"鍼灸院シーワン","province":"東京都","city":"港区","address":"東京都港区虎ノ門一丁目12番11号","lat":35.668606,"lon":139.749646,"施設方書":"虎ノ門ファーストビル4階","施設開設日":"2004/8/5","施設電話番号":"03-3592-4141","診療科目名称":"はり、きゅう"},{"name":"虎ノ門鍼灸院","province":"東京都","city":"港区","address":"東京都港区虎ノ門一丁目16番6号","lat":35.668436,"lon":139.749294,"施設方書":"虎ノ門ラポート202","施設開設日":"2018/7/2","施設電話番号":"03-3504-8187","診療科目名称":"あん摩、はり、きゅう"},{"name":"ウォームハンズ","province":"東京都","city":"港区","address":"東京都港区虎ノ門一丁目16番9号","lat":35.668189,"lon":139.749214,"施設方書":"双葉ビル2階","施設開設日":"2013/9/17","施設電話番号":"050-5806-8750","診療科目名称":"はり、きゅう"},{"name":"シンプレクス株式会社リラクゼーションルーム","province":"東京都","city":"港区","address":"東京都港区虎ノ門一丁目23番1号","lat":35.666822,"lon":139.749418,"施設方書":"虎ノ門ヒルズ森タワー19階","施設開設日":"2014/8/18","施設電話番号":"03-3539-7370","診療科目名称":"あん摩"},{"name":"NHN PlayArt マッサージルーム","province":"東京都","city":"港区","address":"東京都港区虎ノ門一丁目23番1号","lat":35.666822,"lon":139.749418,"施設方書":"虎ノ門ヒルズ森タワー22階","施設開設日":"2015/1/5","施設電話番号":"03-6263-1162","診療科目名称":"あん摩"},{"name":"株式会社商船三井鍼灸マッサージ室","province":"東京都","city":"港区","address":"東京都港区虎ノ門二丁目1番1号","lat":35.669722,"lon":139.747018,"施設方書":"商船三井ビル7階","施設開設日":"2023/12/25","施設電話番号":"03-3587-7655","診療科目名称":"あん摩、はり、きゅう"},{"name":"LP BASE TORANOMON","province":"東京都","city":"港区","address":"東京都港区虎ノ門二丁目5番4号","lat":35.668676,"lon":139.748099,"施設方書":"末広ビル7階","施設開設日":"2018/4/9","施設電話番号":"03-6205-7839","診療科目名称":"はり、きゅう"},{"name":"ハリアップ オークラプレステージタワー院","province":"東京都","city":"港区","address":"東京都港区虎ノ門二丁目10番4号","lat":35.666911,"lon":139.743999,"施設方書":"オークラプレステージタワー8階","施設開設日":"2019/12/17","施設電話番号":"03-6277-8125","診療科目名称":"あん摩、はり、きゅう"},{"name":"オークラ東京Okura Fitness&Spa マッサージ室","province":"東京都","city":"港区","address":"東京都港区虎ノ門二丁目10番4号","lat":35.666911,"lon":139.743999,"施設方書":"オークラ プレステージタワー27階","施設開設日":"2019/9/10","施設電話番号":"03-3582-0111","診療科目名称":"あん摩"},{"name":"鈴木針灸指圧治療院","province":"東京都","city":"港区","address":"東京都港区虎ノ門三丁目18番12号","lat":35.662856,"lon":139.746243,"施設方書":"ステュディオ虎ノ門605","施設開設日":"1998/6/8","施設電話番号":"03-5473-0789","診療科目名称":"あん摩、はり、きゅう"},{"name":"鍼灸boulevard 虎ノ門(ブールバール)","province":"東京都","city":"港区","address":"東京都港区虎ノ門三丁目18番12号","lat":35.662856,"lon":139.746243,"施設方書":"ステュディオ虎ノ門201","施設開設日":"2015/7/1","施設電話番号":"050-5586-7644","診療科目名称":"はり、きゅう"},{"name":"Think you鍼灸","province":"東京都","city":"港区","address":"東京都港区虎ノ門三丁目19番15-1203号","lat":35.663319,"lon":139.746966,"施設方書":"","施設開設日":"2020/1/12","施設電話番号":"","診療科目名称":"はり、きゅう"},{"name":"CTC神谷町オフィスマッサージルーム","province":"東京都","city":"港区","address":"東京都港区虎ノ門四丁目1番1号","lat":35.665016,"lon":139.745407,"施設方書":"神谷町トラストタワー9F神谷町マッサージルーム","施設開設日":"2021/7/12","施設電話番号":"03-6403-6606","診療科目名称":"あん摩"},{"name":"治療院サムズアップ","province":"東京都","city":"港区","address":"東京都港区虎ノ門四丁目1番11号","lat":35.664501,"lon":139.744522,"施設方書":"葺手ハイツ101","施設開設日":"2007/3/5","施設電話番号":"03-3433-3909","診療科目名称":"あん摩"},{"name":"すっきりセンター鍼灸治療院 虎ノ門","province":"東京都","city":"港区","address":"東京都港区虎ノ門四丁目1番17号","lat":35.665065,"lon":139.744067,"施設方書":"2F","施設開設日":"2021/8/12","施設電話番号":"03-5733-0016","診療科目名称":"はり、きゅう"},{"name":"ザ・プリミアクラブマッサージ室","province":"東京都","city":"港区","address":"東京都港区虎ノ門四丁目3番1号","lat":35.664835,"lon":139.743268,"施設方書":"城山JT森ビル3階","施設開設日":"1992/7/1","施設電話番号":"03-5472-0055","診療科目名称":"あん摩、はり、きゅう"},{"name":"小守スポーツマッサージ療院 虎ノ門分院","province":"東京都","city":"港区","address":"東京都港区虎ノ門四丁目3番1号","lat":35.66464,"lon":139.743089,"施設方書":"城山トラストタワー3階 プリミアクラブ内","施設開設日":"2011/10/2","施設電話番号":"03-3433-0770","診療科目名称":"あん摩、はり、きゅう"},{"name":"AIGハーモニー株式会社マッサージルーム","province":"東京都","city":"港区","address":"東京都港区虎ノ門四丁目3番20号","lat":35.663494,"lon":139.744526,"施設方書":"神谷町MTビル11階","施設開設日":"2023/10/30","施設電話番号":"03-5400-6480","診療科目名称":"あん摩"},{"name":"BODY BOX 鍼灸院","province":"東京都","city":"港区","address":"東京都港区虎ノ門五丁目3番9号","lat":35.662678,"lon":139.743909,"施設方書":"ゼルコーバ・ファイブ201号室","施設開設日":"2020/7/3","施設電話番号":"","診療科目名称":"はり、きゅう"},{"name":"虎ノ門武士鍼灸院","province":"東京都","city":"港区","address":"東京都港区虎ノ門五丁目11番15号","lat":35.662259,"lon":139.744754,"施設方書":"905","施設開設日":"2022/1/1","施設電話番号":"03-6822-0426","診療科目名称":"はり、きゅう"},{"name":"マッサージ・ユカ鍼灸治療院","province":"東京都","city":"港区","address":"東京都港区虎ノ門五丁目13番1号","lat":35.663433,"lon":139.745849,"施設方書":"第40森ビル","施設開設日":"2000/2/2","施設電話番号":"03-3432-4659","診療科目名称":"あん摩、はり、きゅう"},{"name":"マッサージルームリリーフ","province":"東京都","city":"港区","address":"東京都港区西麻布一丁目2番12号","lat":35.661105,"lon":139.726904,"施設方書":"デュオ・スカーラ西麻布タワーEAST1階","施設開設日":"2019/12/1","施設電話番号":"03-3401-1952","診療科目名称":"あん摩、はり、きゅう"},{"name":"HariFa 六本木院","province":"東京都","city":"港区","address":"東京都港区西麻布一丁目2番12号","lat":35.661105,"lon":139.726904,"施設方書":"デュオスカーラ西麻布タワーEAST1202","施設開設日":"2022/9/21","施設電話番号":"050-3479-3744","診療科目名称":"はり、きゅう"},{"name":"澤田はり治療室","province":"東京都","city":"港区","address":"東京都港区西麻布一丁目5番11号","lat":35.661462,"lon":139.725064,"施設方書":"","施設開設日":"1996/5/27","施設電話番号":"03-5474-5088","診療科目名称":"あん摩、はり、きゅう"},{"name":"按鍼道","province":"東京都","city":"港区","address":"東京都港区西麻布一丁目10番8号","lat":35.660954,"lon":139.724207,"施設方書":"第2大晃ビル201","施設開設日":"2015/11/5","施設電話番号":"03-3423-1221","診療科目名称":"あん摩、はり、きゅう"},{"name":"美容鍼灸サロン ritte","province":"東京都","city":"港区","address":"東京都港区西麻布一丁目11番6号","lat":35.660346,"lon":139.724609,"施設方書":"ホテル&レジデンス六本木701","施設開設日":"2022/11/7","施設電話番号":"","診療科目名称":"あん摩、はり、きゅう"},{"name":"メディカルサロン プロティア施術所","province":"東京都","city":"港区","address":"東京都港区西麻布一丁目11番6号","lat":35.660346,"lon":139.724609,"施設方書":"ホテル&レジデンス六本木905","施設開設日":"2013/1/29","施設電話番号":"03-3478-2272","診療科目名称":"あん摩、はり、きゅう"},{"name":"SALON K.","province":"東京都","city":"港区","address":"東京都港区西麻布一丁目11番6号","lat":35.660346,"lon":139.724609,"施設方書":"1203","施設開設日":"2022/6/23","施設電話番号":"","診療科目名称":"はり、きゅう"},{"name":"LCC鍼灸チーム","province":"東京都","city":"港区","address":"東京都港区西麻布一丁目14番2号","lat":35.661436,"lon":139.723572,"施設方書":"疋田ビル2階(201)ライフ・ケア・コンシェルジュ株式会社 内","施設開設日":"2019/12/3","施設電話番号":"03-6447-1460","診療科目名称":"あん摩、はり、きゅう"},{"name":"鍼灸マッサージ・サクライン治療院","province":"東京都","city":"港区","address":"東京都港区西麻布一丁目15番15号","lat":35.66187,"lon":139.723023,"施設方書":"ドルメン西麻布101","施設開設日":"2003/9/18","施設電話番号":"03-3401-0821","診療科目名称":"あん摩、はり、きゅう"},{"name":"みこころ鍼灸マッサージ院","province":"東京都","city":"港区","address":"東京都港区西麻布二丁目15番7号","lat":35.661253,"lon":139.721888,"施設方書":"東一ビル102","施設開設日":"2016/4/27","施設電話番号":"03-6427-2910","診療科目名称":"あん摩、はり、きゅう"},{"name":"玉井治療院","province":"東京都","city":"港区","address":"東京都港区西麻布二丁目17番14号","lat":35.662326,"lon":139.720123,"施設方書":"エスペランサビル3階","施設開設日":"2007/3/21","施設電話番号":"","診療科目名称":"はり、きゅう"},{"name":"六本木鍼灸療院","province":"東京都","city":"港区","address":"東京都港区西麻布三丁目1番25号","lat":35.660758,"lon":139.727471,"施設方書":"1005 金谷ホテルマンション","施設開設日":"2006/9/3","施設電話番号":"03-3478-1772","診療科目名称":"あん摩、はり、きゅう"},{"name":"エム・シー・アール","province":"東京都","city":"港区","address":"東京都港区西麻布三丁目2番13号","lat":35.659594,"lon":139.727563,"施設方書":"コートアネックス六本木507","施設開設日":"2005/4/1","施設電話番号":"03-5474-9741","診療科目名称":"はり、きゅう"},{"name":"おび鍼灸院","province":"東京都","city":"港区","address":"東京都港区西麻布三丁目3番3号","lat":35.658054,"lon":139.727233,"施設方書":"第6谷沢ビル4階","施設開設日":"2019/4/8","施設電話番号":"03-5411-0702","診療科目名称":"はり、きゅう"},{"name":"ヴェルツ鍼灸治療院","province":"東京都","city":"港区","address":"東京都港区西麻布三丁目19番18号","lat":35.659855,"lon":139.725679,"施設方書":"T-annex 1・2階","施設開設日":"2020/7/1","施設電話番号":"03-6427-5406","診療科目名称":"はり、きゅう"},{"name":"友愛治療院","province":"東京都","city":"港区","address":"東京都港区西麻布三丁目21番20‐303号","lat":35.659681,"lon":139.724632,"施設方書":"","施設開設日":"2020/8/6","施設電話番号":"","診療科目名称":"はり、きゅう"},{"name":"Crossclue鍼院","province":"東京都","city":"港区","address":"東京都港区西麻布四丁目2番9号","lat":35.658106,"lon":139.723273,"施設方書":"シーズンズ西麻布203","施設開設日":"2023/2/3","施設電話番号":"","診療科目名称":"はり"},{"name":"鍼灸指圧ねこまち治療院","province":"東京都","city":"港区","address":"東京都港区西麻布四丁目6番5号","lat":35.656049,"lon":139.723153,"施設方書":"協立興産西麻布ビル203","施設開設日":"2019/10/13","施設電話番号":"03-6427-4144","診療科目名称":"あん摩、はり、きゅう"},{"name":"Back to Basics 鍼灸治療院","province":"東京都","city":"港区","address":"東京都港区西麻布四丁目8番31号","lat":35.656542,"lon":139.722594,"施設方書":"レジデンス西麻布203","施設開設日":"2022/9/2","施設電話番号":"03-6447-7655","診療科目名称":"はり、きゅう"},{"name":"HYPhysio.鍼灸院","province":"東京都","city":"港区","address":"東京都港区西麻布四丁目10番3号","lat":35.657577,"lon":139.72305,"施設方書":"Blooming西麻布B1C","施設開設日":"2021/7/7","施設電話番号":"","診療科目名称":"はり、きゅう"},{"name":"ノマド鍼灸院","province":"東京都","city":"港区","address":"東京都港区西麻布四丁目10番13号","lat":35.657435,"lon":139.722674,"施設方書":"ウエストコート410-4階","施設開設日":"2016/7/11","施設電話番号":"","診療科目名称":"あん摩、はり、きゅう"},{"name":"しんきゅう院aqu美","province":"東京都","city":"港区","address":"東京都港区西麻布四丁目15番3号","lat":35.658929,"lon":139.721257,"施設方書":"グレンパーク西麻布203","施設開設日":"2022/1/11","施設電話番号":"03-6820-3552","診療科目名称":"はり、きゅう"},{"name":"株式会社東急エージェンシーヘルスキーパー室","province":"東京都","city":"港区","address":"東京都港区西新橋一丁目1番1号","lat":35.669827,"lon":139.753372,"施設方書":"日比谷フォートタワー17階","施設開設日":"2021/10/25","施設電話番号":"03-6811-2412","診療科目名称":"あん摩"},{"name":"iCure鍼灸院 虎ノ門","province":"東京都","city":"港区","address":"東京都港区西新橋一丁目12番6号","lat":35.668298,"lon":139.753329,"施設方書":"白井ビル1階","施設開設日":"2022/10/1","施設電話番号":"03-6205-7700","診療科目名称":"はり、きゅう"},{"name":"メビウス新橋治療院","province":"東京都","city":"港区","address":"東京都港区西新橋一丁目16番2号","lat":35.667793,"lon":139.754374,"施設方書":"山水ビル6階","施設開設日":"2020/1/24","施設電話番号":"03-6206-1717","診療科目名称":"あん摩、はり、きゅう"},{"name":"夫鍼灸マッサージ院","province":"東京都","city":"港区","address":"東京都港区西新橋一丁目18番11号","lat":35.667446,"lon":139.753128,"施設方書":"西新橋吉田ビル5F","施設開設日":"2006/6/14","施設電話番号":"03-3502-5252","診療科目名称":"あん摩、はり、きゅう"},{"name":"虎ノ門コンディショニングケアヤマシタ","province":"東京都","city":"港区","address":"東京都港区西新橋一丁目20番3号","lat":35.668235,"lon":139.752689,"施設方書":"B-1","施設開設日":"2006/4/24","施設電話番号":"03-3519-7651","診療科目名称":"あん摩、はり、きゅう"},{"name":"有限会社きみしま きみしま鍼灸治療院","province":"東京都","city":"港区","address":"東京都港区西新橋二丁目2番3号","lat":35.667681,"lon":139.751612,"施設方書":"西新橋ビル7階B","施設開設日":"2022/8/15","施設電話番号":"03-4283-9622","診療科目名称":"はり、きゅう"},{"name":"赤象鍼灸治療院","province":"東京都","city":"港区","address":"東京都港区西新橋二丁目2番5号","lat":35.667434,"lon":139.751532,"施設方書":"吉川ビル1階","施設開設日":"2008/11/5","施設電話番号":"03-3581-5089","診療科目名称":"あん摩、はり、きゅう"},{"name":"はりいち治療院","province":"東京都","city":"港区","address":"東京都港区西新橋二丁目6番1号","lat":35.667154,"lon":139.753373,"施設方書":"第2菊家ビル3階","施設開設日":"2016/1/8","施設電話番号":"03-6457-9676","診療科目名称":"はり、きゅう"},{"name":"ニュースター治療院","province":"東京都","city":"港区","address":"東京都港区西新橋二丁目9番7号","lat":35.666668,"lon":139.753159,"施設方書":"クイーンビル2A(201)","施設開設日":"2007/3/12","施設電話番号":"03-3597-9788","診療科目名称":"あん摩、はり、きゅう"},{"name":"アクアウッド","province":"東京都","city":"港区","address":"東京都港区西新橋二丁目15番17号","lat":35.667059,"lon":139.750631,"施設方書":"3階(レインボービル)","施設開設日":"2011/8/17","施設電話番号":"03-3992-0085","診療科目名称":"あん摩、はり、きゅう"},{"name":"よつ葉元氣治療院","province":"東京都","city":"港区","address":"東京都港区西新橋二丁目15番17号","lat":35.667059,"lon":139.750631,"施設方書":"レインボービル2階","施設開設日":"2023/12/28","施設電話番号":"03-4400-0508","診療科目名称":"あん摩"},{"name":"Viva鍼灸マッサージ治療院","province":"東京都","city":"港区","address":"東京都港区西新橋三丁目8番2号","lat":35.664591,"lon":139.752871,"施設方書":"新橋ウエストビル3階","施設開設日":"2018/10/1","施設電話番号":"03-6435-9244","診療科目名称":"あん摩、はり、きゅう"},{"name":"OFFICE TOSHIKI NASU","province":"東京都","city":"港区","address":"東京都港区西新橋三丁目15番6号","lat":35.664773,"lon":139.750175,"施設方書":"ASONE愛宕202号室","施設開設日":"2022/11/15","施設電話番号":"","診療科目名称":"はり、きゅう"},{"name":"リウ鍼灸院","province":"東京都","city":"港区","address":"東京都港区西新橋三丁目19番14号","lat":35.663271,"lon":139.751752,"施設方書":"東京建硝ビル2階","施設開設日":"2015/7/27","施設電話番号":"03-6435-8255","診療科目名称":"あん摩、はり、きゅう"},{"name":"鍼処SHIRAKAWA株式会社","province":"東京都","city":"港区","address":"東京都港区浜松町一丁目3番2号","lat":35.659347,"lon":139.757489,"施設方書":"パークコート浜離宮ザタワー3702","施設開設日":"2023/8/19","施設電話番号":"","診療科目名称":"はり、きゅう"},{"name":"健康サイエンス鍼灸院","province":"東京都","city":"港区","address":"東京都港区浜松町一丁目18番9号","lat":35.657842,"lon":139.755372,"施設方書":"2階","施設開設日":"2012/7/9","施設電話番号":"03-3432-1248","診療科目名称":"あん摩、はり、きゅう"},{"name":"さくら訪問マッサージ大門店","province":"東京都","city":"港区","address":"東京都港区浜松町一丁目19番10号","lat":35.657816,"lon":139.755794,"施設方書":"第二古橋ビル5階","施設開設日":"2013/8/1","施設電話番号":"03-6809-2042","診療科目名称":"あん摩、はり、きゅう"},{"name":"智翠","province":"東京都","city":"港区","address":"東京都港区浜松町一丁目20番10号","lat":35.657756,"lon":139.756563,"施設方書":"ライオネス浜松町408","施設開設日":"2022/4/1","施設電話番号":"","診療科目名称":"はり、きゅう"},{"name":"鍼灸マッサージ芝東洋院","province":"東京都","city":"港区","address":"東京都港区浜松町一丁目27番17号","lat":35.657667,"lon":139.75521,"施設方書":"三和ビル2階","施設開設日":"1997/3/17","施設電話番号":"03-3438-3738","診療科目名称":"あん摩、はり、きゅう"},{"name":"株式会社TDモバイル 健康管理室","province":"東京都","city":"港区","address":"東京都港区浜松町一丁目30番5号","lat":35.657061,"lon":139.756769,"施設方書":"浜松町スクエア5階","施設開設日":"2023/10/1","施設電話番号":"03-6830-2360","診療科目名称":"あん摩"},{"name":"hogushi鍼灸院","province":"東京都","city":"港区","address":"東京都港区浜松町二丁目1番16号","lat":35.655949,"lon":139.754896,"施設方書":"浜松町北田ビル5階","施設開設日":"2024/3/6","施設電話番号":"03-6721-5986","診療科目名称":"はり、きゅう"},{"name":"磯崎マッサージ療院","province":"東京都","city":"港区","address":"東京都港区浜松町二丁目2番11号","lat":35.654764,"lon":139.754647,"施設方書":"廣瀬ビル5階","施設開設日":"2004/10/1","施設電話番号":"03-3437-6233","診療科目名称":"あん摩"},{"name":"ニコニコ指圧マッサージ治療院","province":"東京都","city":"港区","address":"東京都港区浜松町二丁目6番10号","lat":35.654241,"lon":139.755782,"施設方書":"第三青野屋ビル1階","施設開設日":"2010/3/25","施設電話番号":"03-3431-5528","診療科目名称":"あん摩"},{"name":"スマートボディプラス鍼灸マッサージ院","province":"東京都","city":"港区","address":"東京都港区浜松町二丁目7番15号","lat":35.653915,"lon":139.754766,"施設方書":"浜松町三電舎ビルディング1階","施設開設日":"2014/8/18","施設電話番号":"03-6452-9588","診療科目名称":"あん摩、はり、きゅう"},{"name":"be style","province":"東京都","city":"港区","address":"東京都港区東麻布一丁目4番2号","lat":35.65805,"lon":139.743435,"施設方書":"山田ビル3階","施設開設日":"2021/5/20","施設電話番号":"03-6807-4970","診療科目名称":"はり、きゅう"},{"name":"BODYWORKS麻布鍼灸","province":"東京都","city":"港区","address":"東京都港区東麻布一丁目14番4号","lat":35.656606,"lon":139.743651,"施設方書":"第2網野ビル2階","施設開設日":"2023/7/2","施設電話番号":"","診療科目名称":"はり、きゅう"},{"name":"salon de moe ‐azabu‐","province":"東京都","city":"港区","address":"東京都港区東麻布一丁目15番2号","lat":35.656715,"lon":139.74325,"施設方書":"Branshe東麻布102","施設開設日":"2022/11/8","施設電話番号":"03-6885-0672","診療科目名称":"きゅう、はり"},{"name":"OWL鍼灸院","province":"東京都","city":"港区","address":"東京都港区東麻布一丁目18番7号","lat":35.655733,"lon":139.742722,"施設方書":"REVER HAYASHI 301","施設開設日":"2022/8/26","施設電話番号":"","診療科目名称":"はり、きゅう"},{"name":"鍼灸メディカルセンター","province":"東京都","city":"港区","address":"東京都港区東麻布一丁目23番6号","lat":35.656105,"lon":139.744532,"施設方書":"","施設開設日":"1989/1/19","施設電話番号":"03-3585-8901","診療科目名称":"あん摩、はり、きゅう"},{"name":"nobori鍼灸院","province":"東京都","city":"港区","address":"東京都港区東麻布一丁目29番17号","lat":35.655353,"lon":139.742181,"施設方書":"グランクリュー麻布502","施設開設日":"2022/1/7","施設電話番号":"","診療科目名称":"はり、きゅう"},{"name":"happysleep hariayako","province":"東京都","city":"港区","address":"東京都港区東麻布一丁目29番17号","lat":35.655353,"lon":139.742181,"施設方書":"グランクリュー麻布302","施設開設日":"2021/8/8","施設電話番号":"","診療科目名称":"あん摩、はり、きゅう"},{"name":"キネティック治療院","province":"東京都","city":"港区","address":"東京都港区東麻布二丁目3番4号","lat":35.657405,"lon":139.742939,"施設方書":"TKBビル2階","施設開設日":"2016/2/1","施設電話番号":"03-5797-7536","診療科目名称":"あん摩、はり、きゅう"},{"name":"こいけ針灸治療所","province":"東京都","city":"港区","address":"東京都港区東麻布二丁目5番1‐101","lat":35.657277,"lon":139.741699,"施設方書":"","施設開設日":"2020/1/9","施設電話番号":"03-3585-8462","診療科目名称":"あん摩、はり、きゅう"},{"name":"SHIN conditioning studio 鍼灸","province":"東京都","city":"港区","address":"東京都港区東麻布二丁目15番1号","lat":35.657551,"lon":139.74097,"施設方書":"AVANSER  AZABU 4階","施設開設日":"2015/3/7","施設電話番号":"03-6277-7758","診療科目名称":"はり、きゅう"},{"name":"鍼灸治療院ハリントン","province":"東京都","city":"港区","address":"東京都港区東麻布二丁目22番10号","lat":35.65648,"lon":139.741041,"施設方書":"メゾン東麻布207","施設開設日":"2023/9/15","施設電話番号":"","診療科目名称":"はり、きゅう"},{"name":"BalanceHari","province":"東京都","city":"港区","address":"東京都港区東麻布二丁目23番14号","lat":35.657102,"lon":139.739278,"施設方書":"トワ・イグレッグ304","施設開設日":"2020/4/4","施設電話番号":"","診療科目名称":"あん摩、はり、きゅう"},{"name":"鍼灸 春秋泉","province":"東京都","city":"港区","address":"東京都港区東麻布三丁目7番4号","lat":35.656395,"lon":139.738514,"施設方書":"4F","施設開設日":"2010/3/19","施設電話番号":"03-3560-3838","診療科目名称":"はり、きゅう"},{"name":"Sports‐serapis鍼灸マッサージ治療院","province":"東京都","city":"港区","address":"東京都港区東麻布三丁目7番13号","lat":35.656335,"lon":139.738079,"施設方書":"MD麻布702号室","施設開設日":"2023/7/12","施設電話番号":"","診療科目名称":"あん摩、はり、きゅう"},{"name":"鍼灸マッサージさとう治療院","province":"東京都","city":"港区","address":"東京都港区東麻布三丁目7番13号","lat":35.656335,"lon":139.738079,"施設方書":"MD麻布601号","施設開設日":"2007/1/16","施設電話番号":"03-3584-6222","診療科目名称":"あん摩、はり、きゅう"},{"name":"やの鍼灸院 麻布十番","province":"東京都","city":"港区","address":"東京都港区東麻布三丁目8番8‐601号","lat":35.656361,"lon":139.73763,"施設方書":"","施設開設日":"2016/3/18","施設電話番号":"03-5797-7124","診療科目名称":"はり、きゅう"},{"name":"東京インターナショナル鍼灸院","province":"東京都","city":"港区","address":"東京都港区東麻布三丁目8番10号","lat":35.656485,"lon":139.737491,"施設方書":"バーリータワーズ1001","施設開設日":"2016/7/1","施設電話番号":"03-6277-7063","診療科目名称":"あん摩、はり、きゅう"},{"name":"養生鍼灸治療院","province":"東京都","city":"港区","address":"東京都港区東麻布三丁目8番10号","lat":35.656485,"lon":139.737491,"施設方書":"バーリータワーズ301","施設開設日":"2005/11/1","施設電話番号":"03-3560-6172","診療科目名称":"はり、きゅう"},{"name":"ZAB鍼灸院","province":"東京都","city":"港区","address":"東京都港区東麻布三丁目8番10号","lat":35.656485,"lon":139.737491,"施設方書":"801号室","施設開設日":"2023/11/16","施設電話番号":"03-6230-9479","診療科目名称":"はり、きゅう"},{"name":"はりきゅうマッサージ グローバル治療院 汐留シティセンター","province":"東京都","city":"港区","address":"東京都港区東新橋一丁目5番2号","lat":35.665497,"lon":139.760881,"施設方書":"汐留シティセンターB2F","施設開設日":"2020/2/1","施設電話番号":"03-6218-0270","診療科目名称":"あん摩、はり、きゅう"},{"name":"グローバル治療院汐留シティセンターマッサージ&鍼灸","province":"東京都","city":"港区","address":"東京都港区東新橋一丁目5番2号","lat":35.665497,"lon":139.760881,"施設方書":"汐留シティセンター2階","施設開設日":"2014/8/12","施設電話番号":"03-3575-9686","診療科目名称":"あん摩、はり、きゅう"},{"name":"マンダラ・スパ ザ ロイヤルパークホテル アイコニック 東京汐留","province":"東京都","city":"港区","address":"東京都港区東新橋一丁目6番3号","lat":35.664143,"lon":139.760593,"施設方書":"マンダラ・スパ ザ ロイヤルパークホテル 東京汐留地下2階","施設開設日":"2021/4/15","施設電話番号":"03-6253-1180","診療科目名称":"はり、きゅう"},{"name":"DC1マッサージルーム","province":"東京都","city":"港区","address":"東京都港区東新橋一丁目8番1号","lat":35.664377,"lon":139.762453,"施設方書":"34F","施設開設日":"2023/7/18","施設電話番号":"","診療科目名称":"あん摩"},{"name":"株式会社電通マッサージルーム","province":"東京都","city":"港区","address":"東京都港区東新橋一丁目8番1号","lat":35.664377,"lon":139.762453,"施設方書":"電通本社ビル3階","施設開設日":"2002/12/2","施設電話番号":"03-6216-5111","診療科目名称":"あん摩、はり"},{"name":"ハリアップ カレッタ汐留院","province":"東京都","city":"港区","address":"東京都港区東新橋一丁目8番2号","lat":35.664459,"lon":139.762522,"施設方書":"カレッタ汐留地下2階","施設開設日":"2005/9/1","施設電話番号":"03-6215-8017","診療科目名称":"あん摩、はり、きゅう"},{"name":"安藤・間リラクゼーションルーム","province":"東京都","city":"港区","address":"東京都港区東新橋一丁目9番1号","lat":35.66294,"lon":139.761215,"施設方書":"東京汐留ビルディング3階","施設開設日":"2022/5/9","施設電話番号":"03-3575-6086","診療科目名称":"あん摩、はり、きゅう"},{"name":"CARNA鍼灸院","province":"東京都","city":"港区","address":"東京都港区東新橋二丁目5番4号","lat":35.662653,"lon":139.757681,"施設方書":"菅家ビル1階","施設開設日":"2022/12/1","施設電話番号":"03-6381-5044","診療科目名称":"はり、きゅう"},{"name":"ゆうきマタニティーセラピー女性と子どもの鍼灸マッサージ院","province":"東京都","city":"港区","address":"東京都港区三田二丁目12番6号","lat":35.649871,"lon":139.744037,"施設方書":"","施設開設日":"2012/8/1","施設電話番号":"03-6435-1960","診療科目名称":"あん摩、はり、きゅう"},{"name":"鍼灸三田治療院","province":"東京都","city":"港区","address":"東京都港区三田二丁目14番7号","lat":35.648594,"lon":139.744385,"施設方書":"ロレール三田301","施設開設日":"2019/1/1","施設電話番号":"03-3455-6658","診療科目名称":"あん摩、はり、きゅう"},{"name":"一会堂鍼灸院","province":"東京都","city":"港区","address":"東京都港区三田二丁目14番7号","lat":35.648594,"lon":139.744385,"施設方書":"ローレル三田406","施設開設日":"2022/11/27","施設電話番号":"","診療科目名称":"はり、きゅう"},{"name":"マッサージ・はり・きゅう 掌の家","province":"東京都","city":"港区","address":"東京都港区三田二丁目19番28号","lat":35.649031,"lon":139.738298,"施設方書":"","施設開設日":"2014/5/7","施設電話番号":"","診療科目名称":"あん摩、はり、きゅう"},{"name":"あらい鍼灸院","province":"東京都","city":"港区","address":"東京都港区三田三丁目1番14号","lat":35.647416,"lon":139.74425,"施設方書":"MA-21 301号室","施設開設日":"2006/10/2","施設電話番号":"03-6805-3783","診療科目名称":"はり、きゅう"},{"name":"わかば治療院","province":"東京都","city":"港区","address":"東京都港区三田三丁目4番6号","lat":35.646554,"lon":139.743366,"施設方書":"マートルコート三田701","施設開設日":"2016/6/21","施設電話番号":"","診療科目名称":"はり、きゅう"},{"name":"ほり鍼灸専門治療室","province":"東京都","city":"港区","address":"東京都港区三田三丁目4番18号","lat":35.646594,"lon":139.744111,"施設方書":"二葉ビル804","施設開設日":"2006/6/6","施設電話番号":"03-3454-7270","診療科目名称":"あん摩、はり、きゅう"},{"name":"ユニ・チャーム マッサージルーム","province":"東京都","city":"港区","address":"東京都港区三田三丁目5番19号","lat":35.645046,"lon":139.743469,"施設方書":"住友不動産東京三田ガーデンタワー42階","施設開設日":"2023/9/1","施設電話番号":"03-3451-5111","診療科目名称":"あん摩"},{"name":"中西浩太鍼灸マッサージ治療院","province":"東京都","city":"港区","address":"東京都港区三田三丁目7番13号","lat":35.643255,"lon":139.741871,"施設方書":"ハイライフ三田1002号","施設開設日":"2007/7/12","施設電話番号":"","診療科目名称":"あん摩、はり、きゅう"},{"name":"みた鍼灸院","province":"東京都","city":"港区","address":"東京都港区三田三丁目7番15号","lat":35.643022,"lon":139.742049,"施設方書":"302","施設開設日":"1993/2/4","施設電話番号":"","診療科目名称":"あん摩、はり、きゅう"},{"name":"ナチュラルリンク施術所","province":"東京都","city":"港区","address":"東京都港区三田四丁目17番26号","lat":35.642233,"lon":139.739021,"施設方書":"パティーナ三田台402","施設開設日":"2016/2/1","施設電話番号":"","診療科目名称":"あん摩"},{"name":"東指圧治療院","province":"東京都","city":"港区","address":"東京都港区三田四丁目19番21号","lat":35.640409,"lon":139.739751,"施設方書":"405","施設開設日":"1989/2/25","施設電話番号":"03-3447-5426","診療科目名称":"あん摩"},{"name":"わたなべ治療院","province":"東京都","city":"港区","address":"東京都港区三田四丁目19番25号","lat":35.640579,"lon":139.738953,"施設方書":"伊皿子坂ハウス104","施設開設日":"2001/8/6","施設電話番号":"03-3444-2272","診療科目名称":"あん摩、はり、きゅう"},{"name":"意一堂日本株式会社(鍼)","province":"東京都","city":"港区","address":"東京都港区三田五丁目1番2号","lat":35.64833,"lon":139.737441,"施設方書":"中2階","施設開設日":"2024/2/16","施設電話番号":"03-6441-3750","診療科目名称":"はり"},{"name":"鍼灸治療スタジオ 専心良治","province":"東京都","city":"港区","address":"東京都港区三田五丁目6番8号","lat":35.646634,"lon":139.739817,"施設方書":"NAKAMURAビル3階","施設開設日":"2015/6/22","施設電話番号":"03-3457-6682","診療科目名称":"はり、きゅう"},{"name":"龍源寺龍翔院観音堂療養院","province":"東京都","city":"港区","address":"東京都港区三田五丁目9番15号","lat":35.646336,"lon":139.737322,"施設方書":"2階","施設開設日":"2010/5/27","施設電話番号":"03-3572-3335","診療科目名称":"はり、きゅう"},{"name":"はりきゅう指圧龍源寺ハウス治療院","province":"東京都","city":"港区","address":"東京都港区三田五丁目9番15号","lat":35.646336,"lon":139.737322,"施設方書":"龍源寺ハウス","施設開設日":"2015/8/28","施設電話番号":"","診療科目名称":"あん摩、はり、きゅう"},{"name":"伊藤忠食糧株式会社ヘルスケアルーム","province":"東京都","city":"港区","address":"東京都港区南青山一丁目1番1号","lat":35.672567,"lon":139.724714,"施設方書":"新青山ビル西館21階","施設開設日":"2015/1/26","施設電話番号":"03-5771-6369","診療科目名称":"あん摩"},{"name":"海江田指圧治療院","province":"東京都","city":"港区","address":"東京都港区南青山一丁目3番6号","lat":35.671532,"lon":139.725986,"施設方書":"","施設開設日":"1983/1/25","施設電話番号":"03-3401-9677","診療科目名称":"あん摩"},{"name":"はり小児鍼マッサージすみ治療院","province":"東京都","city":"港区","address":"東京都港区南青山一丁目9番6号","lat":35.670451,"lon":139.725717,"施設方書":"杉浦ビル2階","施設開設日":"1996/6/18","施設電話番号":"03-3401-7783","診療科目名称":"あん摩、はり、きゅう"},{"name":"あか羽鍼灸院","province":"東京都","city":"港区","address":"東京都港区南青山一丁目15番22号","lat":35.668154,"lon":139.726515,"施設方書":"ヴィラ乃木坂101","施設開設日":"2010/10/12","施設電話番号":"03-6804-6200","診療科目名称":"あん摩、はり、きゅう"},{"name":"151+α","province":"東京都","city":"港区","address":"東京都港区南青山一丁目16番10号","lat":35.668286,"lon":139.726035,"施設方書":"-302","施設開設日":"2023/8/4","施設電話番号":"","診療科目名称":"はり、きゅう"},{"name":"乃木坂エルミタージュ鍼灸院","province":"東京都","city":"港区","address":"東京都港区南青山一丁目17番2号","lat":35.66824,"lon":139.725845,"施設方書":"YZCUBE C号館","施設開設日":"2015/8/15","施設電話番号":"03-6721-1761","診療科目名称":"はり、きゅう"},{"name":"鍼灸マッサージ治療院 ハントクラフト","province":"東京都","city":"港区","address":"東京都港区南青山一丁目22番3号","lat":35.666791,"lon":139.725261,"施設方書":"グラン南青山101","施設開設日":"2009/11/9","施設電話番号":"03-5775-1558","診療科目名称":"あん摩、はり、きゅう"},{"name":"青山はり治療院","province":"東京都","city":"港区","address":"東京都港区南青山一丁目22番15号","lat":35.666956,"lon":139.725308,"施設方書":"","施設開設日":"2023/8/17","施設電話番号":"","診療科目名称":"はり、きゅう"},{"name":"M・メソッド","province":"東京都","city":"港区","address":"東京都港区南青山一丁目26番16号","lat":35.667127,"lon":139.726984,"施設方書":"乃木坂リリエンハイム606","施設開設日":"2020/7/1","施設電話番号":"","診療科目名称":"はり、きゅう"},{"name":"海音堂 鍼灸マッサージ院","province":"東京都","city":"港区","address":"東京都港区南青山二丁目2番15号","lat":35.671444,"lon":139.723779,"施設方書":"ウィン青山923","施設開設日":"2016/9/5","施設電話番号":"","診療科目名称":"あん摩、はり、きゅう"},{"name":"青山鍼整道","province":"東京都","city":"港区","address":"東京都港区南青山二丁目2番15号","lat":35.671444,"lon":139.723779,"施設方書":"ウィン青山830号室","施設開設日":"2018/7/31","施設電話番号":"03-6908-4213","診療科目名称":"はり、きゅう"},{"name":"押小路治療室","province":"東京都","city":"港区","address":"東京都港区南青山二丁目2番15号","lat":35.671444,"lon":139.723779,"施設方書":"ウィン青山726","施設開設日":"2023/7/1","施設電話番号":"03-5843-0071","診療科目名称":"あん摩"},{"name":"同門鍼灸院","province":"東京都","city":"港区","address":"東京都港区南青山二丁目2番15号","lat":35.671444,"lon":139.723779,"施設方書":"ウィン青山1133","施設開設日":"2015/12/15","施設電話番号":"","診療科目名称":"はり、きゅう"},{"name":"Shared治療院","province":"東京都","city":"港区","address":"東京都港区南青山二丁目2番15号","lat":35.671444,"lon":139.723779,"施設方書":"ウィン青山321","施設開設日":"2016/6/10","施設電話番号":"","診療科目名称":"はり、きゅう"},{"name":"鍼灸院 トップライン","province":"東京都","city":"港区","address":"東京都港区南青山二丁目2番15号","lat":35.671444,"lon":139.723779,"施設方書":"ウィン青山741号室","施設開設日":"2017/1/16","施設電話番号":"","診療科目名称":"はり、きゅう"},{"name":"菅原指圧治療院","province":"東京都","city":"港区","address":"東京都港区南青山二丁目2番15号","lat":35.671444,"lon":139.723779,"施設方書":"ウィン青山1123","施設開設日":"2002/8/1","施設電話番号":"03-3405-0530","診療科目名称":"あん摩"},{"name":"ホリスティックスタイル オズ","province":"東京都","city":"港区","address":"東京都港区南青山二丁目2番15-309号","lat":35.671444,"lon":139.723779,"施設方書":"","施設開設日":"2020/1/10","施設電話番号":"03-6435-5258","診療科目名称":"はり、きゅう"},{"name":"リラクゼーションルーム「ゆるりら」","province":"東京都","city":"港区","address":"東京都港区南青山二丁目5番20号","lat":35.672113,"lon":139.723187,"施設方書":"株式会社帝国データバンク本社ビル10階","施設開設日":"2009/5/11","施設電話番号":"03-5775-3000","診療科目名称":"あん摩、はり、きゅう"},{"name":"Relaxation Room Rakumomi","province":"東京都","city":"港区","address":"東京都港区南青山二丁目6番21号","lat":35.671818,"lon":139.722229,"施設方書":"楽天クリムゾンハウス9階","施設開設日":"2022/7/19","施設電話番号":"03-6740-6730","診療科目名称":"あん摩、はり、きゅう"},{"name":"青山大橋治療院","province":"東京都","city":"港区","address":"東京都港区南青山二丁目7番5号","lat":35.670616,"lon":139.722634,"施設方書":"南青山コンド506","施設開設日":"2008/7/28","施設電話番号":"03-3402-1477","診療科目名称":"あん摩、はり、きゅう"},{"name":"鍼灸・マッサージ Suncatcher","province":"東京都","city":"港区","address":"東京都港区南青山二丁目7番5号","lat":35.670616,"lon":139.722634,"施設方書":"南青山コンド501","施設開設日":"2021/9/13","施設電話番号":"","診療科目名称":"あん摩、はり、きゅう"},{"name":"#SFA 青山","province":"東京都","city":"港区","address":"東京都港区南青山二丁目7番8号","lat":35.670314,"lon":139.723063,"施設方書":"クリアスタイル南青山2階","施設開設日":"2022/2/23","施設電話番号":"03-6447-4345","診療科目名称":"はり"},{"name":"おおした鍼灸院","province":"東京都","city":"港区","address":"東京都港区南青山二丁目9番27号","lat":35.670692,"lon":139.72122,"施設方書":"2A","施設開設日":"2004/7/12","施設電話番号":"03-3401-8918","診療科目名称":"あん摩、はり、きゅう"},{"name":"鍼灸サロンレミュー青山店","province":"東京都","city":"港区","address":"東京都港区南青山二丁目12番15号","lat":35.671194,"lon":139.720516,"施設方書":"ユニマット外苑ビル7階","施設開設日":"2023/3/30","施設電話番号":"03-5413-6408","診療科目名称":"はり、きゅう"},{"name":"ヘルスケア青山鍼灸指圧治療院","province":"東京都","city":"港区","address":"東京都港区南青山二丁目14番6号","lat":35.670061,"lon":139.721111,"施設方書":"","施設開設日":"1988/8/8","施設電話番号":"03-3403-0925","診療科目名称":"あん摩、はり、きゅう"},{"name":"醍醐長生館","province":"東京都","city":"港区","address":"東京都港区南青山二丁目18番2号","lat":35.669436,"lon":139.72032,"施設方書":"竹中ツインビルB館地下1階","施設開設日":"2009/3/12","施設電話番号":"03-6459-2966","診療科目名称":"あん摩"},{"name":"株式会社メディカルジャパン 青山鍼灸院","province":"東京都","city":"港区","address":"東京都港区南青山二丁目18番5号","lat":35.669253,"lon":139.720399,"施設方書":"アエリア南青山802","施設開設日":"2023/10/31","施設電話番号":"03-6300-4207","診療科目名称":"あん摩、はり、きゅう"},{"name":"ホリスティックセラピーさいとう治療室","province":"東京都","city":"港区","address":"東京都港区南青山二丁目18番20号","lat":35.669659,"lon":139.72016,"施設方書":"301(南青山コンパウンド)","施設開設日":"2021/6/3","施設電話番号":"03-3408-1955","診療科目名称":"あん摩、はり、きゅう"},{"name":"楠鍼灸治療院","province":"東京都","city":"港区","address":"東京都港区南青山二丁目20番1号","lat":35.670375,"lon":139.719886,"施設方書":"平野ビル401号","施設開設日":"2006/4/25","施設電話番号":"03-3402-7113","診療科目名称":"あん摩、はり、きゅう"},{"name":"ハーツ トリートメントスペース","province":"東京都","city":"港区","address":"東京都港区南青山二丁目21番36号","lat":35.669435,"lon":139.718382,"施設方書":"南青山ガーデンコート201","施設開設日":"2008/4/18","施設電話番号":"03-5770-5139","診療科目名称":"あん摩、はり、きゅう"},{"name":"田中鍼灸指圧治療院","province":"東京都","city":"港区","address":"東京都港区南青山二丁目25番10号","lat":35.669741,"lon":139.718125,"施設方書":"エスト南青山2階","施設開設日":"2007/6/25","施設電話番号":"03-3475-4631","診療科目名称":"あん摩、はり、きゅう"},{"name":"SCSK青山リラクゼーションルーム","province":"東京都","city":"港区","address":"東京都港区南青山二丁目26番1号","lat":35.669803,"lon":139.717706,"施設方書":"SCSK青山ビル2階","施設開設日":"2014/9/9","施設電話番号":"03-6438-3901","診療科目名称":"あん摩"},{"name":"CSK健保鍼灸治療室","province":"東京都","city":"港区","address":"東京都港区南青山二丁目26番32号","lat":35.669832,"lon":139.717455,"施設方書":"BC青山ビル501号","施設開設日":"2003/9/1","施設電話番号":"03-3478-8393","診療科目名称":"はり、きゅう"},{"name":"妙鍼堂 東京外苑前店","province":"東京都","city":"港区","address":"東京都港区南青山二丁目26番35号","lat":35.669932,"lon":139.717088,"施設方書":"青山KKビル301","施設開設日":"2015/1/5","施設電話番号":"","診療科目名称":"はり、きゅう"},{"name":"BeautiQ","province":"東京都","city":"港区","address":"東京都港区南青山二丁目27番20号","lat":35.668908,"lon":139.716482,"施設方書":"植村ビル2階","施設開設日":"2018/4/21","施設電話番号":"03-3479-6633","診療科目名称":"はり、きゅう"},{"name":"Brain Sleep Conditioning Studio 南青山店","province":"東京都","city":"港区","address":"東京都港区南青山二丁目27番22号","lat":35.669104,"lon":139.716303,"施設方書":"青山安田ビル3階","施設開設日":"2023/7/1","施設電話番号":"","診療科目名称":"あん摩、はり、きゅう"},{"name":"外苑前鍼灸接骨院","province":"東京都","city":"港区","address":"東京都港区南青山二丁目27番28号","lat":35.669728,"lon":139.716851,"施設方書":"グラン青山701","施設開設日":"1987/2/1","施設電話番号":"03-3475-5288","診療科目名称":"はり、きゅう"},{"name":"東京青山メディカルケア鍼灸院","province":"東京都","city":"港区","address":"東京都港区南青山二丁目28番4号","lat":35.668506,"lon":139.718011,"施設方書":"フクダビル101","施設開設日":"2014/9/8","施設電話番号":"03-6804-5765","診療科目名称":"はり、きゅう"},{"name":"Re:treat HARi","province":"東京都","city":"港区","address":"東京都港区南青山二丁目29番8号","lat":35.667939,"lon":139.717859,"施設方書":"フロンティアビルディング南青山5階","施設開設日":"2023/3/1","施設電話番号":"","診療科目名称":"あん摩、はり、きゅう"},{"name":"キャプラン株式会社 マッサージルーム","province":"東京都","city":"港区","address":"東京都港区南青山三丁目1番31号","lat":35.668071,"lon":139.715997,"施設方書":"NBF南青山ビル2階","施設開設日":"2014/3/5","施設電話番号":"03-3497-5567","診療科目名称":"あん摩"},{"name":"アール治療院・青山外苑前","province":"東京都","city":"港区","address":"東京都港区南青山三丁目1番36号","lat":35.668681,"lon":139.715943,"施設方書":"青山丸竹ビル5階","施設開設日":"2023/1/6","施設電話番号":"03-3584-6178","診療科目名称":"あん摩、はり、きゅう"},{"name":"はりまる開鍼堂","province":"東京都","city":"港区","address":"東京都港区南青山三丁目3番11号","lat":35.66725,"lon":139.716928,"施設方書":"メゾン青山1階5号室","施設開設日":"2007/6/15","施設電話番号":"","診療科目名称":"はり、きゅう"},{"name":"南青山東洋医学治療院","province":"東京都","city":"港区","address":"東京都港区南青山三丁目3番17号","lat":35.667447,"lon":139.716459,"施設方書":"","施設開設日":"2005/6/1","施設電話番号":"03-3475-5127","診療科目名称":"あん摩、はり、きゅう"},{"name":"真暖・鍼灸治療院","province":"東京都","city":"港区","address":"東京都港区南青山三丁目3番18号","lat":35.665929,"lon":139.714937,"施設方書":"染谷アパート102","施設開設日":"2021/5/11","施設電話番号":"","診療科目名称":"あん摩、はり、きゅう"},{"name":"青山BLANC","province":"東京都","city":"港区","address":"東京都港区南青山三丁目4番8号","lat":35.66701,"lon":139.717267,"施設方書":"KDXレジデンス南青山401","施設開設日":"2018/11/1","施設電話番号":"0120-649-041","診療科目名称":"あん摩、はり、きゅう"},{"name":"表参道エル鍼灸マッサージ","province":"東京都","city":"港区","address":"東京都港区南青山三丁目7番4号","lat":35.666943,"lon":139.716499,"施設方書":"岩崎ビル2階","施設開設日":"2012/2/15","施設電話番号":"03-6804-3465","診療科目名称":"あん摩、はり、きゅう"},{"name":"南青山PICS鍼灸院","province":"東京都","city":"港区","address":"東京都港区南青山三丁目8番7号","lat":35.667176,"lon":139.715851,"施設方書":"クレアトゥール南青山301","施設開設日":"2022/6/1","施設電話番号":"03-6721-0608","診療科目名称":"はり、きゅう"},{"name":"とまり木鍼灸院","province":"東京都","city":"港区","address":"東京都港区南青山三丁目12番11号","lat":35.666099,"lon":139.713702,"施設方書":"ボワゼ青山3階","施設開設日":"2018/7/1","施設電話番号":"03-5785-0599","診療科目名称":"あん摩、はり、きゅう"},{"name":"ReCuA Espace de Beaute","province":"東京都","city":"港区","address":"東京都港区南青山三丁目12番12号","lat":35.666126,"lon":139.713823,"施設方書":"南青山312ビル802号","施設開設日":"2021/9/16","施設電話番号":"","診療科目名称":"あん摩、はり、きゅう"},{"name":"ACADEMIA鍼灸院","province":"東京都","city":"港区","address":"東京都港区南青山三丁目12番12号","lat":35.666126,"lon":139.713823,"施設方書":"南青山312ビル601","施設開設日":"2013/7/10","施設電話番号":"03-6721-1897","診療科目名称":"はり、きゅう"},{"name":"ナチュラルキュア表参道鍼灸院","province":"東京都","city":"港区","address":"東京都港区南青山三丁目14番3号","lat":35.665707,"lon":139.714655,"施設方書":"2階","施設開設日":"2011/1/5","施設電話番号":"03-5775-2723","診療科目名称":"あん摩、はり、きゅう"},{"name":"Qinowa キノワ","province":"東京都","city":"港区","address":"東京都港区南青山三丁目14番8号","lat":35.665494,"lon":139.715302,"施設方書":"1F","施設開設日":"2007/8/17","施設電話番号":"03-5771-1277","診療科目名称":"あん摩、はり、きゅう"},{"name":"表参道yamamoto鍼灸院","province":"東京都","city":"港区","address":"東京都港区南青山三丁目14番24号","lat":35.665221,"lon":139.714733,"施設方書":"ピロティ青山303","施設開設日":"2021/3/19","施設電話番号":"","診療科目名称":"はり、きゅう"},{"name":"セラ治療院","province":"東京都","city":"港区","address":"東京都港区南青山三丁目14番26号","lat":35.667533,"lon":139.713344,"施設方書":"CASA CERENA 3階","施設開設日":"2014/1/28","施設電話番号":"03-6721-1710","診療科目名称":"あん摩、はり"},{"name":"こきゅう南青山鍼灸院","province":"東京都","city":"港区","address":"東京都港区南青山三丁目16番14号","lat":35.664402,"lon":139.714659,"施設方書":"プラサーダ青山401","施設開設日":"2022/6/15","施設電話番号":"03-6447-1080","診療科目名称":"あん摩、はり、きゅう"},{"name":"こきゅう南青山プレミアム鍼灸院","province":"東京都","city":"港区","address":"東京都港区南青山三丁目16番14号","lat":35.664402,"lon":139.714659,"施設方書":"プラサーダ青山402","施設開設日":"2022/6/15","施設電話番号":"03-6447-1080","診療科目名称":"あん摩、はり、きゅう"},{"name":"はりきゅうマッサージ グローバル治療院表参道","province":"東京都","city":"港区","address":"東京都港区南青山三丁目18番20号","lat":35.665298,"lon":139.713028,"施設方書":"ワークス南青山","施設開設日":"2020/4/30","施設電話番号":"03-5775-2503","診療科目名称":"あん摩、はり、きゅう"},{"name":"BHY鍼灸生花","province":"東京都","city":"港区","address":"東京都港区南青山三丁目18番20号","lat":35.665409,"lon":139.713058,"施設方書":"南青山松本ビル7階","施設開設日":"2010/4/28","施設電話番号":"03-6447-0585","診療科目名称":"はり、きゅう"},{"name":"李哲鍼灸院","province":"東京都","city":"港区","address":"東京都港区南青山四丁目1番5号","lat":35.667449,"lon":139.718763,"施設方書":"セントラル第1青山ビル205号室","施設開設日":"2016/4/22","施設電話番号":"03-6434-9915","診療科目名称":"はり、きゅう"},{"name":"スポーツマッサージブルートリート 平林鍼灸院","province":"東京都","city":"港区","address":"東京都港区南青山四丁目1番5号","lat":35.667449,"lon":139.718763,"施設方書":"セントラル第一青山105","施設開設日":"2014/6/12","施設電話番号":"03-3408-4155","診療科目名称":"あん摩、はり、きゅう"},{"name":"鍼灸治療室ヨハネ","province":"東京都","city":"港区","address":"東京都港区南青山四丁目7番17号","lat":35.666324,"lon":139.719053,"施設方書":"グリーンヒル101","施設開設日":"2010/12/20","施設電話番号":"03-3403-0792","診療科目名称":"あん摩、はり、きゅう"},{"name":"カーラ鍼灸院","province":"東京都","city":"港区","address":"東京都港区南青山四丁目9番11号","lat":35.667125,"lon":139.718405,"施設方書":"SEBON南青山102","施設開設日":"2020/10/31","施設電話番号":"03-6804-3336","診療科目名称":"はり、きゅう"},{"name":"総合治療院テコセンター","province":"東京都","city":"港区","address":"東京都港区南青山四丁目9番22号","lat":35.666714,"lon":139.717432,"施設方書":"アウラビル地下1階","施設開設日":"2017/9/1","施設電話番号":"03-6804-6466","診療科目名称":"あん摩、はり、きゅう"},{"name":"サンサーラ鍼灸治療室","province":"東京都","city":"港区","address":"東京都港区南青山四丁目9番27号","lat":35.667115,"lon":139.718066,"施設方書":"ビューネ南青山ヒルズ306","施設開設日":"2010/3/1","施設電話番号":"03-3401-0933","診療科目名称":"あん摩、はり、きゅう"},{"name":"鍼灸Meadow","province":"東京都","city":"港区","address":"東京都港区南青山四丁目25番1号","lat":35.663234,"lon":139.718342,"施設方書":"2階","施設開設日":"2022/10/4","施設電話番号":"050-3559-1588","診療科目名称":"あん摩、はり、きゅう"},{"name":"榊指圧治療院","province":"東京都","city":"港区","address":"東京都港区南青山五丁目4番5号","lat":35.662943,"lon":139.71458,"施設方書":"211","施設開設日":"2015/1/19","施設電話番号":"03-5466-0673","診療科目名称":"あん摩"},{"name":"青山マッサージサロン","province":"東京都","city":"港区","address":"東京都港区南青山五丁目4番6号","lat":35.662766,"lon":139.714837,"施設方書":"パレロワイヤル南青山104号室","施設開設日":"2019/7/29","施設電話番号":"","診療科目名称":"あん摩"},{"name":"三宅指圧治療院","province":"東京都","city":"港区","address":"東京都港区南青山五丁目4番44号","lat":35.662552,"lon":139.71368,"施設方書":"ラポール南青山54 108号","施設開設日":"2020/12/1","施設電話番号":"03-3499-5909","診療科目名称":"あん摩"},{"name":"彩良指圧マッサージ","province":"東京都","city":"港区","address":"東京都港区南青山五丁目4番44号","lat":35.662552,"lon":139.71368,"施設方書":"ラポール南青山303","施設開設日":"2013/6/21","施設電話番号":"03-6427-4826","診療科目名称":"あん摩"},{"name":"十全治療院","province":"東京都","city":"港区","address":"東京都港区南青山五丁目6番3号","lat":35.663795,"lon":139.712128,"施設方書":"メゾンブランシュ2-3C","施設開設日":"1994/3/14","施設電話番号":"03-3406-0598","診療科目名称":"あん摩"},{"name":"Lilting Body治療院(リルティングボディ)","province":"東京都","city":"港区","address":"東京都港区南青山五丁目6番4号","lat":35.6637,"lon":139.71224,"施設方書":"ハイトリオ南青山204号室","施設開設日":"2014/2/1","施設電話番号":"03-3797-1155","診療科目名称":"あん摩、はり、きゅう"},{"name":"さやか鍼灸院","province":"東京都","city":"港区","address":"東京都港区南青山五丁目6番9号","lat":35.663471,"lon":139.712339,"施設方書":"サウス青山マンション402","施設開設日":"2019/12/20","施設電話番号":"","診療科目名称":"はり、きゅう"},{"name":"ポポ東洋医学鍼灸治療院","province":"東京都","city":"港区","address":"東京都港区南青山五丁目7番17号","lat":35.662333,"lon":139.712707,"施設方書":"小原流会館地下1階","施設開設日":"2022/12/12","施設電話番号":"03-5962-7718","診療科目名称":"はり、きゅう"},{"name":"おにゃんこ先生鍼灸院","province":"東京都","city":"港区","address":"東京都港区南青山五丁目8番11号","lat":35.662592,"lon":139.711975,"施設方書":"萬楽庵ビル1 3階","施設開設日":"2023/6/9","施設電話番号":"","診療科目名称":"はり、きゅう"},{"name":"東洋医学鍼灸久志田治療所","province":"東京都","city":"港区","address":"東京都港区南青山五丁目10番5号","lat":35.662487,"lon":139.711362,"施設方書":"九曜ビル青山ハイツ703号","施設開設日":"2021/10/1","施設電話番号":"03-3797-7522","診療科目名称":"はり、きゅう"},{"name":"たけした鍼灸院青山","province":"東京都","city":"港区","address":"東京都港区南青山五丁目12番10号","lat":35.661441,"lon":139.712627,"施設方書":"エラン南青山202","施設開設日":"2011/4/15","施設電話番号":"03-6805-1423","診療科目名称":"あん摩、はり、きゅう"},{"name":"サカキコンサルテーションアンドザアーツ","province":"東京都","city":"港区","address":"東京都港区南青山五丁目12番24号","lat":35.661234,"lon":139.712439,"施設方書":"シャトー東洋南青山509","施設開設日":"2001/4/2","施設電話番号":"03-3498-7708","診療科目名称":"あん摩"},{"name":"C by CALISTA鍼灸サロン","province":"東京都","city":"港区","address":"東京都港区南青山五丁目16番3号","lat":35.661025,"lon":139.714374,"施設方書":"メゾン青南401","施設開設日":"2015/1/27","施設電話番号":"03-6427-4366","診療科目名称":"あん摩、はり、きゅう"},{"name":"南青山指圧","province":"東京都","city":"港区","address":"東京都港区南青山五丁目17番2号","lat":35.660894,"lon":139.714597,"施設方書":"シドニービル1002","施設開設日":"1984/11/6","施設電話番号":"03-3400-7785","診療科目名称":"あん摩"},{"name":"佐々木マッサージ鍼灸院セントラル南青山店","province":"東京都","city":"港区","address":"東京都港区南青山六丁目1番3号","lat":35.662549,"lon":139.716429,"施設方書":"B1","施設開設日":"2019/11/6","施設電話番号":"03-5468-1191","診療科目名称":"あん摩、はり、きゅう"},{"name":"戸田鍼灸院","province":"東京都","city":"港区","address":"東京都港区南青山六丁目2番6号","lat":35.660994,"lon":139.715735,"施設方書":"ハイム青山402","施設開設日":"2005/1/4","施設電話番号":"03-3406-1537","診療科目名称":"はり、きゅう"},{"name":"日本鍼灸院","province":"東京都","city":"港区","address":"東京都港区南青山六丁目2番10号","lat":35.660934,"lon":139.715496,"施設方書":"バックボーンハウス6階","施設開設日":"2018/7/3","施設電話番号":"","診療科目名称":"はり、きゅう"},{"name":"19Factory","province":"東京都","city":"港区","address":"東京都港区南青山六丁目8番3号","lat":35.660058,"lon":139.716803,"施設方書":"701","施設開設日":"2017/6/27","施設電話番号":"03-6874-3444","診療科目名称":"あん摩、はり、きゅう"},{"name":"クインベル表参道","province":"東京都","city":"港区","address":"東京都港区南青山六丁目8番6号","lat":35.659946,"lon":139.716689,"施設方書":"603","施設開設日":"2022/9/10","施設電話番号":"03-6427-6007","診療科目名称":"きゅう、はり、あん摩"},{"name":"心愛治療院","province":"東京都","city":"港区","address":"東京都港区南青山六丁目12番4号","lat":35.660682,"lon":139.715227,"施設方書":"三越南青山ハウス502号","施設開設日":"2013/7/18","施設電話番号":"03-3493-2517","診療科目名称":"あん摩、はり、きゅう"},{"name":"表参道鍼灸マッサージ治療院 自然なからだ","province":"東京都","city":"港区","address":"東京都港区南青山六丁目12番11号","lat":35.660373,"lon":139.715252,"施設方書":"YUKEN南青山302","施設開設日":"2017/11/7","施設電話番号":"03-6419-7213","診療科目名称":"あん摩、はり、きゅう"},{"name":"アキュハーブ acuherb鍼灸治療室","province":"東京都","city":"港区","address":"東京都港区南青山六丁目12番11号","lat":35.660373,"lon":139.715252,"施設方書":"YUKEN南青山402","施設開設日":"2010/7/30","施設電話番号":"03-6427-3202","診療科目名称":"あん摩、はり、きゅう"},{"name":"ワユーリ鍼灸院","province":"東京都","city":"港区","address":"東京都港区南青山六丁目12番14号","lat":35.660517,"lon":139.714758,"施設方書":"ハウス青山203","施設開設日":"2023/8/4","施設電話番号":"","診療科目名称":"はり、きゅう"},{"name":"鍼 立花 元","province":"東京都","city":"港区","address":"東京都港区南青山六丁目15番13号","lat":35.65945,"lon":139.713935,"施設方書":"南青山レジデンス602号","施設開設日":"2020/5/1","施設電話番号":"","診療科目名称":"はり、きゅう"},{"name":"紺野トレーナーズオフィス","province":"東京都","city":"港区","address":"東京都港区南青山七丁目10番14号","lat":35.658925,"lon":139.718524,"施設方書":"アファン南青山401","施設開設日":"2021/8/23","施設電話番号":"","診療科目名称":"あん摩、はり、きゅう"},{"name":"南麻布鍼灸治療室 美巡究","province":"東京都","city":"港区","address":"東京都港区南麻布一丁目3番15号","lat":35.644824,"lon":139.711892,"施設方書":"松下ビル1階","施設開設日":"2023/7/23","施設電話番号":"","診療科目名称":"はり、きゅう"},{"name":"朝日針灸マッサージ治療院","province":"東京都","city":"港区","address":"東京都港区南麻布一丁目7番24号","lat":35.650386,"lon":139.737326,"施設方書":"朝日南麻布マンション804","施設開設日":"2004/1/5","施設電話番号":"03-3452-3766","診療科目名称":"あん摩、はり、きゅう"},{"name":"Flow 鍼灸院","province":"東京都","city":"港区","address":"東京都港区南麻布一丁目7番28号","lat":35.650768,"lon":139.73711,"施設方書":"ヴァレンティア麻布1階","施設開設日":"2017/2/20","施設電話番号":"03-6453-6376","診療科目名称":"はり、きゅう"},{"name":"鍼灸サロン COCOCHI","province":"東京都","city":"港区","address":"東京都港区南麻布二丁目2番28号","lat":35.649819,"lon":139.734667,"施設方書":"ベルメゾン南麻布グランド604","施設開設日":"2021/6/15","施設電話番号":"03-3451-7767","診療科目名称":"はり、きゅう"},{"name":"川島鍼灸治療院","province":"東京都","city":"港区","address":"東京都港区南麻布二丁目3番11号","lat":35.649483,"lon":139.736094,"施設方書":"1117","施設開設日":"2014/11/10","施設電話番号":"","診療科目名称":"あん摩、はり、きゅう"},{"name":"美容鍼灸サロンCINQ","province":"東京都","city":"港区","address":"東京都港区南麻布二丁目5番21号","lat":35.65002,"lon":139.737024,"施設方書":"イデア南麻布1階","施設開設日":"2023/4/27","施設電話番号":"03-6824-5323","診療科目名称":"はり、きゅう"},{"name":"鍼灸院MAR","province":"東京都","city":"港区","address":"東京都港区南麻布二丁目8番5号","lat":35.648657,"lon":139.735607,"施設方書":"207","施設開設日":"2020/8/4","施設電話番号":"03-6809-5644","診療科目名称":"あん摩、はり、きゅう"},{"name":"田島千枝子治療室","province":"東京都","city":"港区","address":"東京都港区南麻布三丁目3番13号","lat":35.650389,"lon":139.73158,"施設方書":"","施設開設日":"2003/10/6","施設電話番号":"03-5418-5044","診療科目名称":"あん摩"},{"name":"飯野鍼療所","province":"東京都","city":"港区","address":"東京都港区南麻布三丁目3番28号","lat":35.650175,"lon":139.73147,"施設方書":"1階","施設開設日":"2014/2/1","施設電話番号":"03-6409-6357","診療科目名称":"はり、きゅう"},{"name":"麻布鍼灸院","province":"東京都","city":"港区","address":"東京都港区南麻布四丁目5番45号","lat":35.648714,"lon":139.724752,"施設方書":"ウォレントコート201","施設開設日":"2020/7/7","施設電話番号":"","診療科目名称":"あん摩、はり、きゅう"},{"name":"麻布鍼灸治療院","province":"東京都","city":"港区","address":"東京都港区南麻布四丁目5番45号","lat":35.648714,"lon":139.724752,"施設方書":"ウォレントコート101","施設開設日":"2009/3/10","施設電話番号":"","診療科目名称":"あん摩、はり、きゅう"},{"name":"鍼灸院Pon(ポン)","province":"東京都","city":"港区","address":"東京都港区南麻布四丁目7番12号","lat":35.649745,"lon":139.728181,"施設方書":"KMハウス1A","施設開設日":"2014/7/3","施設電話番号":"","診療科目名称":"はり、きゅう"},{"name":"鍼灸 Second","province":"東京都","city":"港区","address":"東京都港区南麻布四丁目10番21号","lat":35.648229,"lon":139.725028,"施設方書":"南麻布ロイヤルコーポ103","施設開設日":"2023/5/22","施設電話番号":"","診療科目名称":"あん摩、はり、きゅう"},{"name":"天現寺鍼灸BodyCare","province":"東京都","city":"港区","address":"東京都港区南麻布四丁目12番2号","lat":35.647383,"lon":139.723991,"施設方書":"ピュアーレ広尾201","施設開設日":"2013/6/14","施設電話番号":"03-5475-6768","診療科目名称":"あん摩、はり"},{"name":"鍼灸マッサージサロン広尾","province":"東京都","city":"港区","address":"東京都港区南麻布四丁目14番4号","lat":35.646464,"lon":139.725148,"施設方書":"第2幸ビル2階","施設開設日":"2019/6/3","施設電話番号":"03-3445-5360","診療科目名称":"あん摩、はり、きゅう"},{"name":"ルートヴィガー鍼灸マッサージ治療所","province":"東京都","city":"港区","address":"東京都港区南麻布五丁目1番36号","lat":35.652767,"lon":139.721933,"施設方書":"新陽ビル1階~7階","施設開設日":"2014/5/1","施設電話番号":"03-5789-2066","診療科目名称":"あん摩、はり、きゅう"},{"name":"株式会社いい生活 マッサージルーム","province":"東京都","city":"港区","address":"東京都港区南麻布五丁目2番32号","lat":35.654676,"lon":139.723173,"施設方書":"興和広尾ビル3階","施設開設日":"2018/12/27","施設電話番号":"03-5423-7822","診療科目名称":"あん摩、はり"},{"name":"(株)インティグレティドゥメディカル研究所","province":"東京都","city":"港区","address":"東京都港区南麻布五丁目2番35号","lat":35.655053,"lon":139.723352,"施設方書":"6階","施設開設日":"2005/4/14","施設電話番号":"03-5792-5711","診療科目名称":"はり、きゅう"},{"name":"midori鍼灸院","province":"東京都","city":"港区","address":"東京都港区南麻布五丁目5番7号","lat":35.653975,"lon":139.725954,"施設方書":"有栖川ヒルトップ6階","施設開設日":"2017/1/24","施設電話番号":"","診療科目名称":"はり、きゅう"},{"name":"鍼灸活法石井治療院","province":"東京都","city":"港区","address":"東京都港区南麻布五丁目10番24号","lat":35.652589,"lon":139.722395,"施設方書":"第二佐野ビル601","施設開設日":"2021/10/11","施設電話番号":"","診療科目名称":"はり、きゅう"},{"name":"superb有栖川","province":"東京都","city":"港区","address":"東京都港区南麻布五丁目12番16号","lat":35.652658,"lon":139.723552,"施設方書":"アリスガワハウス102","施設開設日":"2023/3/7","施設電話番号":"03-6277-4364","診療科目名称":"はり、きゅう"},{"name":"はりきゅう坐忘 広尾","province":"東京都","city":"港区","address":"東京都港区南麻布五丁目15番16号","lat":35.650912,"lon":139.722484,"施設方書":"ナガツビル5階","施設開設日":"2019/10/15","施設電話番号":"03-6277-3397","診療科目名称":"はり、きゅう"},{"name":"鍼灸サロンAQUMINA","province":"東京都","city":"港区","address":"東京都港区南麻布五丁目16番8号","lat":35.651144,"lon":139.723352,"施設方書":"エルスール広尾2階","施設開設日":"2018/5/24","施設電話番号":"03-4405-3478","診療科目名称":"あん摩、はり、きゅう"},{"name":"日本オラクル株式会社マッサージルーム","province":"東京都","city":"港区","address":"東京都港区元赤坂一丁目3番13号","lat":35.676928,"lon":139.733669,"施設方書":"赤坂センタービル13階","施設開設日":"2013/8/1","施設電話番号":"03-6834-6666","診療科目名称":"あん摩"},{"name":"赤坂スポーツマッサージルーム","province":"東京都","city":"港区","address":"東京都港区元赤坂一丁目5番20号","lat":35.677533,"lon":139.732452,"施設方書":"ロイヤル赤坂サルーン501号","施設開設日":"2012/3/1","施設電話番号":"03-5772-2023","診療科目名称":"あん摩、はり、きゅう"},{"name":"広済鍼灸院","province":"東京都","city":"港区","address":"東京都港区元麻布二丁目1番21号","lat":35.655379,"lon":139.726555,"施設方書":"YSビル301号","施設開設日":"2006/8/29","施設電話番号":"03-3445-0887","診療科目名称":"はり、きゅう"},{"name":"はりきゅうあん摩マッサージ指圧禅治療院","province":"東京都","city":"港区","address":"東京都港区元麻布三丁目1番26号","lat":35.657367,"lon":139.72847,"施設方書":"イワエフラット201","施設開設日":"1996/11/12","施設電話番号":"03-3401-7611","診療科目名称":"あん摩、はり、きゅう"},{"name":"65°C","province":"東京都","city":"港区","address":"東京都港区元麻布三丁目12番4号","lat":35.656086,"lon":139.732493,"施設方書":"SP元麻布B1","施設開設日":"2022/6/18","施設電話番号":"03-6455-4768","診療科目名称":"はり、きゅう"},{"name":"横田鍼灸院","province":"東京都","city":"港区","address":"東京都港区元麻布三丁目12番44号","lat":35.656275,"lon":139.731612,"施設方書":"コンド十番301号","施設開設日":"2007/8/1","施設電話番号":"03-3479-0209","診療科目名称":"はり、きゅう"},{"name":"アークヒルズスパマッサージ室","province":"東京都","city":"港区","address":"東京都港区六本木一丁目3番40号","lat":35.666146,"lon":139.740494,"施設方書":"アークタワーズウエスト","施設開設日":"2000/8/1","施設電話番号":"03-3589-3388","診療科目名称":"あん摩、はり"},{"name":"アシュリオン内マッサージルーム","province":"東京都","city":"港区","address":"東京都港区六本木一丁目4番5号","lat":35.665703,"lon":139.739381,"施設方書":"アークヒルズサウスタワー11階","施設開設日":"2018/4/2","施設電話番号":"03-4577-6800","診療科目名称":"あん摩"},{"name":"ヘルスケアルーム","province":"東京都","city":"港区","address":"東京都港区六本木一丁目6番1号","lat":35.664823,"lon":139.739503,"施設方書":"泉ガーデンタワー8階","施設開設日":"2019/3/5","施設電話番号":"03-6229-0052","診療科目名称":"あん摩"},{"name":"KPMG-IGTマッサージルーム","province":"東京都","city":"港区","address":"東京都港区六本木一丁目6番1号","lat":35.664823,"lon":139.739503,"施設方書":"泉ガーデンタワー11階","施設開設日":"2007/3/1","施設電話番号":"03-6229-8300","診療科目名称":"あん摩"},{"name":"弁護士法人VERYBEST","province":"東京都","city":"港区","address":"東京都港区六本木一丁目8番7号","lat":35.663151,"lon":139.739736,"施設方書":"MFPR六本木麻布台ビル11階","施設開設日":"2019/4/12","施設電話番号":"","診療科目名称":"あん摩"},{"name":"ソフトバンクグループ仙石山マッサージルーム","province":"東京都","city":"港区","address":"東京都港区六本木一丁目9番10号","lat":35.663662,"lon":139.741763,"施設方書":"アークヒルズ仙石山森タワー37階","施設開設日":"2014/6/18","施設電話番号":"03-6889-2700","診療科目名称":"あん摩"},{"name":"エーワン東京マッサージ施術所","province":"東京都","city":"港区","address":"東京都港区六本木一丁目9番10号","lat":35.66383,"lon":139.741901,"施設方書":"ヒルズスパ仙石山","施設開設日":"2016/6/6","施設電話番号":"03-5549-7430","診療科目名称":"あん摩"},{"name":"鍼灸Private Salon B-HariT","province":"東京都","city":"港区","address":"東京都港区六本木二丁目2番7‐901号","lat":35.667398,"lon":139.738892,"施設方書":"","施設開設日":"2019/6/21","施設電話番号":"","診療科目名称":"はり、きゅう"},{"name":"小尾鍼灸院","province":"東京都","city":"港区","address":"東京都港区六本木二丁目2番18号","lat":35.668769,"lon":139.740195,"施設方書":"加藤ビル201","施設開設日":"1998/11/11","施設電話番号":"03-5562-0359","診療科目名称":"あん摩、はり、きゅう"},{"name":"日本タタ・コンサルタンシー・サービシズ株式会社リラクゼーションルーム","province":"東京都","city":"港区","address":"東京都港区六本木三丁目1番1号","lat":35.665431,"lon":139.738132,"施設方書":"六本木ティーキューブ5階","施設開設日":"2023/10/23","施設電話番号":"03-6161-6500","診療科目名称":"あん摩"},{"name":"TESERA","province":"東京都","city":"港区","address":"東京都港区六本木三丁目2番1号","lat":35.664718,"lon":139.73776,"施設方書":"六本木グランドタワー2階","施設開設日":"2022/6/27","施設電話番号":"03-5544-8878","診療科目名称":"はり、きゅう"},{"name":"dipマッサージルーム","province":"東京都","city":"港区","address":"東京都港区六本木三丁目2番1号","lat":35.664718,"lon":139.73776,"施設方書":"六本木グランドタワー31階","施設開設日":"2017/3/14","施設電話番号":"03-6628-4062","診療科目名称":"あん摩、はり"},{"name":"株式会社Speee マッサージルーム","province":"東京都","city":"港区","address":"東京都港区六本木三丁目2番1号","lat":35.664718,"lon":139.73776,"施設方書":"住友不動産六本木グランドタワー35階","施設開設日":"2023/3/22","施設電話番号":"03-5114-1943","診療科目名称":"あん摩"},{"name":"さく羅井指圧治療院","province":"東京都","city":"港区","address":"東京都港区六本木三丁目4番35号","lat":35.665076,"lon":139.736389,"施設方書":"落合三幸ビル602号","施設開設日":"2008/7/1","施設電話番号":"03-3589-1724","診療科目名称":"あん摩"},{"name":"HAUOLA~パーソナルMIND&BODY鍼灸~","province":"東京都","city":"港区","address":"東京都港区六本木三丁目6番12号","lat":35.663206,"lon":139.736097,"施設方書":"六本木ヒルズ102","施設開設日":"2021/8/24","施設電話番号":"","診療科目名称":"はり、きゅう"},{"name":"つぼりす","province":"東京都","city":"港区","address":"東京都港区六本木三丁目11番6号","lat":35.663301,"lon":139.732933,"施設方書":"野沢ビル5階","施設開設日":"2010/10/18","施設電話番号":"03-6804-5208","診療科目名称":"はり"},{"name":"88針灸マッサージ院","province":"東京都","city":"港区","address":"東京都港区六本木三丁目16番35号","lat":35.662651,"lon":139.736705,"施設方書":"イースト六本木704","施設開設日":"2019/7/15","施設電話番号":"03-6434-5885","診療科目名称":"あん摩、はり、きゅう"},{"name":"かずのマッサージ針灸治療院","province":"東京都","city":"港区","address":"東京都港区六本木三丁目18番12号","lat":35.661579,"lon":139.737287,"施設方書":"ゲッツビル6F","施設開設日":"2006/9/17","施設電話番号":"03-5570-9088","診療科目名称":"あん摩、はり、きゅう"},{"name":"友愛治療院","province":"東京都","city":"港区","address":"東京都港区六本木四丁目1番16号","lat":35.664704,"lon":139.734596,"施設方書":"六本木ハイツ508","施設開設日":"2008/6/8","施設電話番号":"03-5913-9597","診療科目名称":"あん摩"},{"name":"501鍼灸院","province":"東京都","city":"港区","address":"東京都港区六本木四丁目1番16号","lat":35.664704,"lon":139.734596,"施設方書":"六本木ハイツ501","施設開設日":"1990/12/12","施設電話番号":"03-3584-1051","診療科目名称":"はり、きゅう"},{"name":"六本木四丁目鍼灸院","province":"東京都","city":"港区","address":"東京都港区六本木四丁目5番7号","lat":35.664815,"lon":139.73293,"施設方書":"Studio-D 202","施設開設日":"2009/10/20","施設電話番号":"03-3796-3417","診療科目名称":"はり、きゅう"},{"name":"吉倉鍼灸院","province":"東京都","city":"港区","address":"東京都港区六本木四丁目6番5号","lat":35.664471,"lon":139.732466,"施設方書":"平野ビル2階","施設開設日":"1999/10/13","施設電話番号":"03-3402-8869","診療科目名称":"あん摩、はり、きゅう"},{"name":"六本木ミッドタウン前鍼灸院","province":"東京都","city":"港区","address":"東京都港区六本木四丁目9番5号","lat":35.663614,"lon":139.732531,"施設方書":"ISO六本木ビル2F","施設開設日":"2023/3/31","施設電話番号":"03-6721-0066","診療科目名称":"はり、きゅう"},{"name":"ゆるり鍼灸院六本木","province":"東京都","city":"港区","address":"東京都港区六本木五丁目1番1号","lat":35.662953,"lon":139.732491,"施設方書":"マイアミビル2階","施設開設日":"2022/5/10","施設電話番号":"03-3479-6088","診療科目名称":"はり、きゅう"},{"name":"株式会社ゴトウ花店ビル鍼灸院","province":"東京都","city":"港区","address":"東京都港区六本木五丁目1番3号","lat":35.66268,"lon":139.732751,"施設方書":"ゴトウビルディング1st1階","施設開設日":"2021/6/28","施設電話番号":"","診療科目名称":"あん摩、はり、きゅう"},{"name":"アンバーグレース鍼灸院","province":"東京都","city":"港区","address":"東京都港区六本木五丁目11番35号","lat":35.658226,"lon":139.732768,"施設方書":"スタイリストセンタービル2階","施設開設日":"2012/4/19","施設電話番号":"03-6804-1768","診療科目名称":"はり、きゅう"},{"name":"鍼・灸・マッサージ 慈美","province":"東京都","city":"港区","address":"東京都港区六本木五丁目13番12号","lat":35.658572,"lon":139.735679,"施設方書":"","施設開設日":"2013/7/7","施設電話番号":"03-6441-2323","診療科目名称":"あん摩、はり、きゅう"},{"name":"東洋英和女学院マッサージルーム","province":"東京都","city":"港区","address":"東京都港区六本木五丁目14番40号","lat":35.659145,"lon":139.735112,"施設方書":"本部・大学院棟地下2階","施設開設日":"2008/4/9","施設電話番号":"03-3583-3325","診療科目名称":"あん摩、はり"},{"name":"諏訪長生館六本木分館","province":"東京都","city":"港区","address":"東京都港区六本木五丁目16番5号","lat":35.661819,"lon":139.735056,"施設方書":"インペリアル六本木701号","施設開設日":"2013/10/16","施設電話番号":"03-3589-6919","診療科目名称":"あん摩"},{"name":"プラチナサロン六本木","province":"東京都","city":"港区","address":"東京都港区六本木五丁目18番20号","lat":35.660759,"lon":139.736902,"施設方書":"301","施設開設日":"2023/11/20","施設電話番号":"","診療科目名称":"はり、きゅう"},{"name":"(株)エグボック麻布・六本木オリエンタルセラピー","province":"東京都","city":"港区","address":"東京都港区六本木五丁目18番20号","lat":35.660759,"lon":139.736902,"施設方書":"六本木ファイブビル301","施設開設日":"2000/9/1","施設電話番号":"03-3586-8909","診療科目名称":"あん摩、はり、きゅう"},{"name":"ライフラボ鍼灸院","province":"東京都","city":"港区","address":"東京都港区六本木六丁目1番4号","lat":35.662889,"lon":139.73258,"施設方書":"丸正小林ビル2階","施設開設日":"2008/10/7","施設電話番号":"03-6459-2622","診療科目名称":"はり、きゅう"},{"name":"TOTAL BODY CARE","province":"東京都","city":"港区","address":"東京都港区六本木六丁目4番1号","lat":35.661407,"lon":139.730038,"施設方書":"六本木ヒルズハリウッドビューティープラザ地下2階","施設開設日":"2011/11/1","施設電話番号":"03-5414-1077","診療科目名称":"あん摩、はり、きゅう"},{"name":"六本木東洋鍼灸院","province":"東京都","city":"港区","address":"東京都港区六本木六丁目7番9号","lat":35.66233,"lon":139.732488,"施設方書":"川本ビル201","施設開設日":"1987/9/4","施設電話番号":"03-3423-3047","診療科目名称":"はり、きゅう"},{"name":"グーグル株式会社 Massage room1","province":"東京都","city":"港区","address":"東京都港区六本木六丁目10番1号","lat":35.660552,"lon":139.729276,"施設方書":"六本木ヒルズ森タワー27階","施設開設日":"2010/11/9","施設電話番号":"03-6384-9000","診療科目名称":"あん摩、はり、きゅう"},{"name":"ゴールドマン・サックス・ジャパン・ホールディングス有限会社シアツセラピールーム","province":"東京都","city":"港区","address":"東京都港区六本木六丁目10番1号","lat":35.660552,"lon":139.729276,"施設方書":"六本木ヒルズ森タワー47階","施設開設日":"2014/1/6","施設電話番号":"03-6437-4230","診療科目名称":"あん摩"},{"name":"ハリアップ六本木ヒルズ院","province":"東京都","city":"港区","address":"東京都港区六本木六丁目10番1号","lat":35.660705,"lon":139.729207,"施設方書":"六本木ヒルズ森タワーウエストウォーク6階","施設開設日":"2023/10/1","施設電話番号":"03-3403-0866","診療科目名称":"あん摩、はり、きゅう"},{"name":"森ビル社内マッサージ室","province":"東京都","city":"港区","address":"東京都港区六本木六丁目10番1号","lat":35.660552,"lon":139.729276,"施設方書":"六本木ヒルズ森タワー9階","施設開設日":"2005/10/24","施設電話番号":"03-6406-6328","診療科目名称":"あん摩"},{"name":"ノキアシーメンスネットワークス株式会社","province":"東京都","city":"港区","address":"東京都港区六本木六丁目10番1号","lat":35.660552,"lon":139.729276,"施設方書":"六本木ヒルズ森タワー41階","施設開設日":"2011/9/26","施設電話番号":"03-5474-6426","診療科目名称":"あん摩"},{"name":"グリー マッサージルーム","province":"東京都","city":"港区","address":"東京都港区六本木六丁目11番16号","lat":35.65815,"lon":139.732052,"施設方書":"中銀六本木マンシオン303","施設開設日":"2022/3/23","施設電話番号":"045-227-6275","診療科目名称":"あん摩"},{"name":"フランシラ治療院","province":"東京都","city":"港区","address":"東京都港区六本木六丁目16番50号","lat":35.658357,"lon":139.728765,"施設方書":"トリプレックス1F","施設開設日":"2023/3/1","施設電話番号":"03-5843-0960","診療科目名称":"あん摩、はり、きゅう"},{"name":"東洋鍼灸院","province":"東京都","city":"港区","address":"東京都港区六本木七丁目3番8号","lat":35.666122,"lon":139.727563,"施設方書":"永谷ヒルプラザ911号","施設開設日":"2003/8/1","施設電話番号":"03-3408-0545","診療科目名称":"あん摩、はり、きゅう"},{"name":"至坤院・宮内","province":"東京都","city":"港区","address":"東京都港区六本木七丁目4番6号","lat":35.665354,"lon":139.728572,"施設方書":"藤和六本木ホームス1101","施設開設日":"2009/2/3","施設電話番号":"03-3479-2203","診療科目名称":"あん摩、はり、きゅう"},{"name":"指圧療法伝世会","province":"東京都","city":"港区","address":"東京都港区六本木七丁目8番25号","lat":35.665386,"lon":139.72918,"施設方書":"永谷リュード六本木907","施設開設日":"1992/9/25","施設電話番号":"03-3403-7189","診療科目名称":"あん摩、はり、きゅう"},{"name":"六本木Qinowa","province":"東京都","city":"港区","address":"東京都港区六本木七丁目11番24号","lat":35.663938,"lon":139.728918,"施設方書":"","施設開設日":"2023/7/12","施設電話番号":"","診療科目名称":"あん摩、はり、きゅう"},{"name":"中澤鍼灸マッサージ温熱道","province":"東京都","city":"港区","address":"東京都港区六本木七丁目12番12号","lat":35.664076,"lon":139.729728,"施設方書":"ふぁみーゆ六本木203号室","施設開設日":"2022/12/15","施設電話番号":"03-6878-0349","診療科目名称":"あん摩、はり、きゅう"},{"name":"今井鍼灸マッサージ","province":"東京都","city":"港区","address":"東京都港区六本木七丁目12番17号","lat":35.663637,"lon":139.729348,"施設方書":"","施設開設日":"2000/8/1","施設電話番号":"03-3401-8494","診療科目名称":"あん摩、はり、きゅう"},{"name":"六本木鍼灸指圧 KANO","province":"東京都","city":"港区","address":"東京都港区六本木七丁目12番25号","lat":35.664266,"lon":139.729708,"施設方書":"Green Vessel3階","施設開設日":"2019/11/30","施設電話番号":"","診療科目名称":"あん摩、はり、きゅう"},{"name":"ソガ針灸院","province":"東京都","city":"港区","address":"東京都港区六本木七丁目13番6号","lat":35.664073,"lon":139.730738,"施設方書":"","施設開設日":"1981/8/21","施設電話番号":"03-3408-2557","診療科目名称":"あん摩、はり、きゅう"},{"name":"スポーツマッサージくわばら","province":"東京都","city":"港区","address":"東京都港区六本木七丁目15番17号","lat":35.662292,"lon":139.729638,"施設方書":"9階F号室","施設開設日":"2010/3/18","施設電話番号":"","診療科目名称":"あん摩、はり、きゅう"},{"name":"蒔田スポーツマッサージ鍼灸治療室","province":"東京都","city":"港区","address":"東京都港区六本木七丁目16番8号","lat":35.663585,"lon":139.729887,"施設方書":"マンション渡辺102","施設開設日":"2003/3/1","施設電話番号":"03-3408-2638","診療科目名称":"あん摩、はり、きゅう"},{"name":"六本木鍼灸マッサージ 寺林治療院","province":"東京都","city":"港区","address":"東京都港区六本木七丁目17番16号","lat":35.662369,"lon":139.729338,"施設方書":"米久ビルNo.2 5階","施設開設日":"2014/5/1","施設電話番号":"","診療科目名称":"あん摩、はり、きゅう"},{"name":"川井鍼灸院","province":"東京都","city":"港区","address":"東京都港区六本木七丁目17番22号","lat":35.662892,"lon":139.72872,"施設方書":"","施設開設日":"1999/11/22","施設電話番号":"03-3405-9277","診療科目名称":"はり、きゅう"},{"name":"関口鍼灸治療院 六本木院","province":"東京都","city":"港区","address":"東京都港区六本木七丁目17番22号","lat":35.662892,"lon":139.72872,"施設方書":"秀和六本木レジデンス305","施設開設日":"2017/10/1","施設電話番号":"03-6804-2533","診療科目名称":"はり、きゅう"},{"name":"ひるず鍼灸院","province":"東京都","city":"港区","address":"東京都港区六本木七丁目17番22号","lat":35.662892,"lon":139.72872,"施設方書":"秀和六本木レジデンス702","施設開設日":"2023/7/6","施設電話番号":"03-6384-5507","診療科目名称":"はり、きゅう"},{"name":"結美治療室","province":"東京都","city":"港区","address":"東京都港区六本木七丁目18番5号","lat":35.662088,"lon":139.728764,"施設方書":"ソフィア六本木410","施設開設日":"1996/12/13","施設電話番号":"03-3401-4166","診療科目名称":"あん摩"},{"name":"斉藤治療所","province":"東京都","city":"港区","address":"東京都港区六本木七丁目18番5号","lat":35.662088,"lon":139.728764,"施設方書":"ソフィア六本木108","施設開設日":"1998/2/23","施設電話番号":"03-3470-1697","診療科目名称":"あん摩、はり、きゅう"},{"name":"六本木七丁目鍼灸院","province":"東京都","city":"港区","address":"東京都港区六本木七丁目18番5号","lat":35.662088,"lon":139.728764,"施設方書":"ソフィア六本木109号","施設開設日":"2010/10/28","施設電話番号":"03-5474-0588","診療科目名称":"はり、きゅう"},{"name":"体のサポートつぼ工房","province":"東京都","city":"港区","address":"東京都港区六本木七丁目18番5号‐508","lat":35.662103,"lon":139.728739,"施設方書":"","施設開設日":"2022/5/30","施設電話番号":"03-3475-0575","診療科目名称":"はり、きゅう"},{"name":"ポリゴンマジック株式会社 社内マッサージルーム","province":"東京都","city":"港区","address":"東京都港区六本木七丁目18番18号","lat":35.662066,"lon":139.728461,"施設方書":"住友不動産六本木通ビル2階","施設開設日":"2014/9/11","施設電話番号":"03-5771-2771","診療科目名称":"あん摩、はり"},{"name":"美智志多長生館","province":"東京都","city":"港区","address":"東京都港区六本木七丁目20番8号","lat":35.662601,"lon":139.727503,"施設方書":"ベルメゾン六本木タワーズ302号","施設開設日":"2016/8/25","施設電話番号":"03-3403-2630","診療科目名称":"あん摩"},{"name":"橋本整骨院","province":"東京都","city":"港区","address":"東京都港区赤坂一丁目1番17号","lat":35.670979,"lon":139.743988,"施設方書":"細川ビル412","施設開設日":"2015/9/29","施設電話番号":"","診療科目名称":"柔道整復"},{"name":"あかさか二丁目接骨院","province":"東京都","city":"港区","address":"東京都港区赤坂二丁目8番15号","lat":35.671762,"lon":139.739876,"施設方書":"オリエントニュー赤坂101","施設開設日":"2015/4/21","施設電話番号":"03-5575-7775","診療科目名称":"柔道整復"},{"name":"赤坂NEP‘S整骨院","province":"東京都","city":"港区","address":"東京都港区赤坂二丁目14番33号","lat":35.672798,"lon":139.73772,"施設方書":"栄屋清水ビル301","施設開設日":"2010/10/1","施設電話番号":"03-3587-2146","診療科目名称":"柔道整復"},{"name":"越前谷整骨院","province":"東京都","city":"港区","address":"東京都港区赤坂二丁目20番16号","lat":35.669031,"lon":139.738812,"施設方書":"第3村嶋ビル1階","施設開設日":"2018/9/13","施設電話番号":"050-1474-5383","診療科目名称":"柔道整復"},{"name":"赤坂てんほう整骨院","province":"東京都","city":"港区","address":"東京都港区赤坂三丁目16番5号","lat":35.674794,"lon":139.736662,"施設方書":"ユタカ産業ビル503","施設開設日":"2023/7/23","施設電話番号":"03-5545-5267","診療科目名称":"柔道整復"},{"name":"グリュック整骨院","province":"東京都","city":"港区","address":"東京都港区赤坂三丁目21番5号","lat":35.676791,"lon":139.735964,"施設方書":"三銀ビル106","施設開設日":"2017/7/24","施設電話番号":"03-6441-0057","診療科目名称":"柔道整復"},{"name":"整骨院はぐるま堂","province":"東京都","city":"港区","address":"東京都港区赤坂三丁目21番5号","lat":35.676791,"lon":139.735964,"施設方書":"三銀ビル605","施設開設日":"2018/10/1","施設電話番号":"03-6435-5867","診療科目名称":"柔道整復"},{"name":"赤坂テイクキュア接骨院","province":"東京都","city":"港区","address":"東京都港区赤坂三丁目21番12号","lat":35.676401,"lon":139.735774,"施設方書":"スリーリバースビル地下1階","施設開設日":"2007/8/1","施設電話番号":"03-3586-4588","診療科目名称":"柔道整復"},{"name":"ほぐほぐ整骨院","province":"東京都","city":"港区","address":"東京都港区赤坂四丁目1番4号","lat":35.676606,"lon":139.735435,"施設方書":"堀江ビル1階","施設開設日":"2014/7/1","施設電話番号":"03-3589-3939","診療科目名称":"柔道整復"},{"name":"龍王赤坂接骨院","province":"東京都","city":"港区","address":"東京都港区赤坂四丁目2番32号","lat":35.675508,"lon":139.73572,"施設方書":"末広ビル302","施設開設日":"1986/8/5","施設電話番号":"03-3587-0796","診療科目名称":"柔道整復"},{"name":"下村接骨院","province":"東京都","city":"港区","address":"東京都港区赤坂四丁目11番9号","lat":35.673565,"lon":139.733602,"施設方書":"","施設開設日":"1998/6/24","施設電話番号":"03-3586-3690","診療科目名称":"柔道整復"},{"name":"赤坂ヒルズ整骨院","province":"東京都","city":"港区","address":"東京都港区赤坂六丁目15番12号","lat":35.668887,"lon":139.732531,"施設方書":"富岳ビル1階","施設開設日":"2020/2/1","施設電話番号":"03-3586-2017","診療科目名称":"柔道整復"},{"name":"赤坂山王整骨院","province":"東京都","city":"港区","address":"東京都港区赤坂七丁目10番6号","lat":35.6697,"lon":139.732771,"施設方書":"ストークビル赤坂405号室","施設開設日":"2023/10/1","施設電話番号":"03-3588-8588","診療科目名称":"柔道整復"},{"name":"ゆめや接骨院","province":"東京都","city":"港区","address":"東京都港区麻布十番一丁目5番24号","lat":35.657099,"lon":139.73301,"施設方書":"第三長門ビル201","施設開設日":"2015/5/1","施設電話番号":"03-6434-7838","診療科目名称":"柔道整復"},{"name":"麻布十番七面坂整骨院","province":"東京都","city":"港区","address":"東京都港区麻布十番二丁目8番2号","lat":35.65577,"lon":139.734076,"施設方書":"","施設開設日":"2016/9/12","施設電話番号":"03-6676-1151","診療科目名称":"柔道整復"},{"name":"やまと接骨院","province":"東京都","city":"港区","address":"東京都港区麻布十番二丁目8番8号","lat":35.655329,"lon":139.734766,"施設方書":"麻布十番ミレニアムタワー401号","施設開設日":"2021/1/12","施設電話番号":"03-6722-6166","診療科目名称":"柔道整復"},{"name":"麻布ネップス整骨院","province":"東京都","city":"港区","address":"東京都港区麻布十番二丁目11番3号","lat":35.654157,"lon":139.734527,"施設方書":"ドエル麻布101","施設開設日":"2022/2/1","施設電話番号":"03-6275-1630","診療科目名称":"柔道整復"},{"name":"じゅうばん整骨院","province":"東京都","city":"港区","address":"東京都港区麻布十番二丁目16番6号","lat":35.653978,"lon":139.735622,"施設方書":"","施設開設日":"2010/2/1","施設電話番号":"03-5232-1010","診療科目名称":"柔道整復"},{"name":"ちもと整骨院","province":"東京都","city":"港区","address":"東京都港区麻布十番二丁目18番8号","lat":35.654248,"lon":139.735894,"施設方書":"ABAアサミビル3階","施設開設日":"2017/9/5","施設電話番号":"03-6441-0704","診療科目名称":"柔道整復"},{"name":"名倉堂接骨院","province":"東京都","city":"港区","address":"東京都港区麻布十番三丁目1番5号","lat":35.653191,"lon":139.736434,"施設方書":"ストーク麻布K&S","施設開設日":"1984/12/18","施設電話番号":"03-3451-2572","診療科目名称":"柔道整復"},{"name":"Schilf接骨院","province":"東京都","city":"港区","address":"東京都港区麻布十番三丁目7番11号","lat":35.653587,"lon":139.734806,"施設方書":"シャトーデスポワール麻布303","施設開設日":"2021/9/16","施設電話番号":"","診療科目名称":"柔道整復"},{"name":"麻布十番整骨院","province":"東京都","city":"港区","address":"東京都港区麻布十番三丁目10番8号","lat":35.652698,"lon":139.734647,"施設方書":"アラン麻布201","施設開設日":"2023/6/27","施設電話番号":"050-3552-3577","診療科目名称":"柔道整復"},{"name":"加賀谷接骨院","province":"東京都","city":"港区","address":"東京都港区麻布十番四丁目6番8号","lat":35.653127,"lon":139.736949,"施設方書":"二進ビル7階kagaya","施設開設日":"2023/5/21","施設電話番号":"","診療科目名称":"柔道整復"},{"name":"LOOPLE(ループル)整骨院","province":"東京都","city":"港区","address":"東京都港区麻布十番四丁目6番8号","lat":35.653127,"lon":139.736949,"施設方書":"二進ビル5階","施設開設日":"2013/12/1","施設電話番号":"03-6435-0613","診療科目名称":"柔道整復"},{"name":"プリーズ整骨院","province":"東京都","city":"港区","address":"東京都港区海岸一丁目2番3号","lat":35.656996,"lon":139.758739,"施設方書":"汐留芝離宮ビルディング104","施設開設日":"2019/8/6","施設電話番号":"03-3578-8886","診療科目名称":"柔道整復"},{"name":"エイチスリー整骨院","province":"東京都","city":"港区","address":"東京都港区北青山二丁目7番17号","lat":35.670489,"lon":139.717157,"施設方書":"鈴越ビル3階","施設開設日":"2018/12/26","施設電話番号":"03-3796-2244","診療科目名称":"柔道整復"},{"name":"青葉整骨院","province":"東京都","city":"港区","address":"東京都港区北青山三丁目4番1号","lat":35.667305,"lon":139.712289,"施設方書":"106","施設開設日":"2003/6/1","施設電話番号":"03-3497-9969","診療科目名称":"柔道整復"},{"name":"POLLUX整骨院","province":"東京都","city":"港区","address":"東京都港区北青山三丁目5番9号","lat":35.666965,"lon":139.713786,"施設方書":"中央珈琲本社ビル5階","施設開設日":"2019/1/23","施設電話番号":"03-6455-4057","診療科目名称":"柔道整復"},{"name":"エイチスリー整骨院 表参道院","province":"東京都","city":"港区","address":"東京都港区北青山三丁目6番20号","lat":35.664342,"lon":139.711414,"施設方書":"青山T&Eビル7階","施設開設日":"2015/5/13","施設電話番号":"03-3499-2111","診療科目名称":"柔道整復"},{"name":"とまり木整骨院 北青山院","province":"東京都","city":"港区","address":"東京都港区北青山三丁目12番7号","lat":35.663346,"lon":139.71051,"施設方書":"秋月ビル605","施設開設日":"2017/5/29","施設電話番号":"03-3797-3897","診療科目名称":"柔道整復"},{"name":"ReCORE接骨院 品川","province":"東京都","city":"港区","address":"東京都港区港南一丁目9番36号","lat":35.630036,"lon":139.741242,"施設方書":"NTTDATA品川ビル2F","施設開設日":"2023/6/15","施設電話番号":"03-3472-1939","診療科目名称":"柔道整復"},{"name":"リフレ整骨院","province":"東京都","city":"港区","address":"東京都港区港南二丁目5番5号","lat":35.62873,"lon":139.743588,"施設方書":"港南OMTビル1階","施設開設日":"2010/12/27","施設電話番号":"03-3471-1293","診療科目名称":"柔道整復"},{"name":"品川駅港南口接骨院","province":"東京都","city":"港区","address":"東京都港区港南二丁目6番10号","lat":35.628782,"lon":139.74233,"施設方書":"三矢ビル4階","施設開設日":"2016/2/1","施設電話番号":"03-5715-1221","診療科目名称":"柔道整復"},{"name":"こうなん整骨院","province":"東京都","city":"港区","address":"東京都港区港南四丁目2番6号","lat":35.631158,"lon":139.748079,"施設方書":"シティタワー品川202","施設開設日":"2010/5/7","施設電話番号":"03-5715-6228","診療科目名称":"柔道整復"},{"name":"蔭山整骨院","province":"東京都","city":"港区","address":"東京都港区芝二丁目5番10号","lat":35.652798,"lon":139.752228,"施設方書":"サニーポート芝 1004号室","施設開設日":"2012/4/1","施設電話番号":"03-5856-7118","診療科目名称":"柔道整復"},{"name":"芝公園整骨治療院","province":"東京都","city":"港区","address":"東京都港区芝二丁目8番13号","lat":35.651878,"lon":139.750577,"施設方書":"KITAハイム芝201","施設開設日":"2013/5/1","施設電話番号":"03-6400-3511","診療科目名称":"柔道整復"},{"name":"ひまわり三田鍼灸整骨院","province":"東京都","city":"港区","address":"東京都港区芝三丁目19番3号","lat":35.652021,"lon":139.746821,"施設方書":"MUハウス1階","施設開設日":"2011/3/31","施設電話番号":"03-6435-2922","診療科目名称":"柔道整復"},{"name":"田町中央整骨院","province":"東京都","city":"港区","address":"東京都港区芝四丁目5番9号","lat":35.648777,"lon":139.751176,"施設方書":"三田ハイデンス1階","施設開設日":"2014/6/24","施設電話番号":"03-3451-5110","診療科目名称":"柔道整復"},{"name":"名倉堂接骨療院","province":"東京都","city":"港区","address":"東京都港区芝四丁目12番4号","lat":35.647971,"lon":139.750411,"施設方書":"","施設開設日":"2004/4/2","施設電話番号":"03-3452-5285","診療科目名称":"柔道整復"},{"name":"渡辺接骨院","province":"東京都","city":"港区","address":"東京都港区芝五丁目10番10号","lat":35.648945,"lon":139.746087,"施設方書":"","施設開設日":"1987/1/5","施設電話番号":"03-3455-7490","診療科目名称":"柔道整復"},{"name":"えいとスポーツ整骨院","province":"東京都","city":"港区","address":"東京都港区芝五丁目13番13号","lat":35.648956,"lon":139.744905,"施設方書":"つるやビル6階","施設開設日":"2021/9/28","施設電話番号":"","診療科目名称":"柔道整復"},{"name":"上松整骨院","province":"東京都","city":"港区","address":"東京都港区芝五丁目23番12号","lat":35.647897,"lon":139.74577,"施設方書":"","施設開設日":"2015/4/1","施設電話番号":"03-6435-0975","診療科目名称":"柔道整復"},{"name":"三田駅前整骨院","province":"東京都","city":"港区","address":"東京都港区芝五丁目27番13号","lat":35.646961,"lon":139.746262,"施設方書":"第2小川ビル4階","施設開設日":"2023/4/14","施設電話番号":"03-6665-8228","診療科目名称":"柔道整復"},{"name":"iCure接骨院 田町駅前","province":"東京都","city":"港区","address":"東京都港区芝五丁目31番5号","lat":35.646742,"lon":139.746183,"施設方書":"MEFULL田町3階","施設開設日":"2023/1/1","施設電話番号":"03-5442-1939","診療科目名称":"柔道整復"},{"name":"田町西接骨院","province":"東京都","city":"港区","address":"東京都港区芝五丁目31番16号","lat":35.646614,"lon":139.746223,"施設方書":"YCCビル6階","施設開設日":"2000/12/25","施設電話番号":"03-3451-1215","診療科目名称":"柔道整復"},{"name":"田町駅前整骨院","province":"東京都","city":"港区","address":"東京都港区芝五丁目32番3号","lat":35.647283,"lon":139.74757,"施設方書":"林ビル2階","施設開設日":"2019/4/19","施設電話番号":"03-6453-7674","診療科目名称":"柔道整復"},{"name":"芝浦整骨院","province":"東京都","city":"港区","address":"東京都港区芝浦三丁目12番5号","lat":35.642529,"lon":139.749456,"施設方書":"石阪ビル2階","施設開設日":"2005/10/11","施設電話番号":"03-5445-6600","診療科目名称":"柔道整復"},{"name":"芝浦スポーツ整骨院","province":"東京都","city":"港区","address":"東京都港区芝浦三丁目14番3号","lat":35.642651,"lon":139.748245,"施設方書":"芝浦SSビル1階","施設開設日":"2020/10/16","施設電話番号":"03-6722-0424","診療科目名称":"柔道整復"},{"name":"よつば整骨院","province":"東京都","city":"港区","address":"東京都港区芝浦三丁目20番7号","lat":35.641992,"lon":139.747221,"施設方書":"ローレルプラザ田町102","施設開設日":"2007/9/28","施設電話番号":"03-3451-0750","診療科目名称":"柔道整復"},{"name":"あおい接骨院","province":"東京都","city":"港区","address":"東京都港区芝大門一丁目4番4号","lat":35.658632,"lon":139.754587,"施設方書":"ノア芝大門309号室","施設開設日":"2021/6/1","施設電話番号":"03-5408-5881","診療科目名称":"柔道整復"},{"name":"ReCORE接骨院 大門","province":"東京都","city":"港区","address":"東京都港区芝大門一丁目4番4号","lat":35.658632,"lon":139.754587,"施設方書":"ノア芝大門106","施設開設日":"2019/4/1","施設電話番号":"03-5776-1939","診療科目名称":"柔道整復"},{"name":"もりこ接骨院","province":"東京都","city":"港区","address":"東京都港区芝大門二丁目12番8号","lat":35.653908,"lon":139.753983,"施設方書":"浜松町矢崎ホワイトビル1階","施設開設日":"2013/5/8","施設電話番号":"03-3431-1733","診療科目名称":"柔道整復"},{"name":"ReOSSO 接骨院","province":"東京都","city":"港区","address":"東京都港区白金一丁目10番7号","lat":35.646059,"lon":139.733139,"施設方書":"ウメジム中2階","施設開設日":"2021/12/20","施設電話番号":"03-3449-3160","診療科目名称":"柔道整復"},{"name":"名倉堂接骨院","province":"東京都","city":"港区","address":"東京都港区白金一丁目12番8号","lat":35.645675,"lon":139.73541,"施設方書":"1階","施設開設日":"2014/1/28","施設電話番号":"03-3444-3392","診療科目名称":"柔道整復"},{"name":"森ほねつぎ","province":"東京都","city":"港区","address":"東京都港区白金一丁目29番9号","lat":35.643175,"lon":139.733878,"施設方書":"201","施設開設日":"2010/6/30","施設電話番号":"03-3441-0307","診療科目名称":"柔道整復"},{"name":"豪栄整復院◇白金","province":"東京都","city":"港区","address":"東京都港区白金二丁目1番4号","lat":35.643624,"lon":139.731002,"施設方書":"1階","施設開設日":"2012/8/3","施設電話番号":"03-3447-5080","診療科目名称":"柔道整復"},{"name":"三光整骨院","province":"東京都","city":"港区","address":"東京都港区白金五丁目6番10号","lat":35.644918,"lon":139.727862,"施設方書":"サンエイ和泉ビル1F","施設開設日":"2001/7/26","施設電話番号":"03-3443-7654","診療科目名称":"柔道整復"},{"name":"しろがね整骨院","province":"東京都","city":"港区","address":"東京都港区白金六丁目19番7号","lat":35.643336,"lon":139.721237,"施設方書":"第2東幸ビル1階","施設開設日":"2017/9/1","施設電話番号":"03-3443-3525","診療科目名称":"柔道整復"},{"name":"ありま整骨院","province":"東京都","city":"港区","address":"東京都港区白金台三丁目19番3号","lat":35.634859,"lon":139.72007,"施設方書":"アイテクノビル4階","施設開設日":"2009/5/8","施設電話番号":"03-6459-3430","診療科目名称":"柔道整復"},{"name":"森羅白金整骨治療院","province":"東京都","city":"港区","address":"東京都港区白金台五丁目2番5号","lat":35.642475,"lon":139.720878,"施設方書":"トランドゥ101","施設開設日":"2018/4/10","施設電話番号":"03-6277-3993","診療科目名称":"柔道整復"},{"name":"整骨院Sugar","province":"東京都","city":"港区","address":"東京都港区白金台五丁目5番8号","lat":35.640429,"lon":139.722275,"施設方書":"ISOLETTA4F","施設開設日":"2022/2/1","施設電話番号":"03-6277-3218","診療科目名称":"柔道整復"},{"name":"白金台 もりこや接骨院","province":"東京都","city":"港区","address":"東京都港区白金台五丁目18番6号","lat":35.636997,"lon":139.723372,"施設方書":"1階","施設開設日":"2023/12/21","施設電話番号":"","診療科目名称":"柔道整復"},{"name":"Breath接骨院","province":"東京都","city":"港区","address":"東京都港区白金台五丁目18番18号","lat":35.637305,"lon":139.723608,"施設方書":"バルビゾンビル18 6F","施設開設日":"2024/2/19","施設電話番号":"03-6822-7769","診療科目名称":"柔道整復"},{"name":"整骨院SAKIUTA","province":"東京都","city":"港区","address":"東京都港区白金台五丁目22番11号","lat":35.634992,"lon":139.717666,"施設方書":"ソフトタウン白金210","施設開設日":"2019/6/16","施設電話番号":"03-6450-3916","診療科目名称":"柔道整復"},{"name":"たまるやスポーツ整骨院","province":"東京都","city":"港区","address":"東京都港区新橋一丁目18番14号","lat":35.668414,"lon":139.756124,"施設方書":"三洋堂ビル本館7階","施設開設日":"2011/2/9","施設電話番号":"03-3593-5093","診療科目名称":"柔道整復"},{"name":"新橋西口整骨院","province":"東京都","city":"港区","address":"東京都港区新橋一丁目18番15号","lat":35.668478,"lon":139.755924,"施設方書":"佐伯ビル1階","施設開設日":"2019/3/1","施設電話番号":"03-5251-8101","診療科目名称":"柔道整復"},{"name":"赤レンガ通り接骨院","province":"東京都","city":"港区","address":"東京都港区新橋二丁目10番3号","lat":35.667279,"lon":139.755888,"施設方書":"ブラザービル6階","施設開設日":"2003/5/1","施設電話番号":"03-3539-3618","診療科目名称":"柔道整復"},{"name":"天元整骨院","province":"東京都","city":"港区","address":"東京都港区新橋二丁目16番1号","lat":35.666423,"lon":139.757358,"施設方書":"ニュー新橋ビル3階349室","施設開設日":"2008/11/18","施設電話番号":"03-5512-2955","診療科目名称":"柔道整復"},{"name":"新橋汐留整骨院","province":"東京都","city":"港区","address":"東京都港区新橋二丁目20番15号","lat":35.666214,"lon":139.759538,"施設方書":"新橋駅前ビル1号館1階127","施設開設日":"2009/11/6","施設電話番号":"03-6228-5855","診療科目名称":"柔道整復"},{"name":"リライフ整骨院","province":"東京都","city":"港区","address":"東京都港区新橋三丁目11番9号","lat":35.666281,"lon":139.755725,"施設方書":"烏森通りビル3F","施設開設日":"2023/10/1","施設電話番号":"03-6435-8382","診療科目名称":"柔道整復"},{"name":"東京整骨 烏森通り","province":"東京都","city":"港区","address":"東京都港区新橋三丁目11番9号","lat":35.666281,"lon":139.755725,"施設方書":"烏森通りビル6階","施設開設日":"2017/12/18","施設電話番号":"03-6874-8839","診療科目名称":"柔道整復"},{"name":"たから整骨院","province":"東京都","city":"港区","address":"東京都港区新橋四丁目14番4号","lat":35.664489,"lon":139.75675,"施設方書":"","施設開設日":"2020/12/1","施設電話番号":"03-3433-1133","診療科目名称":"柔道整復"},{"name":"はなまる整骨院","province":"東京都","city":"港区","address":"東京都港区新橋五丁目4番1号","lat":35.664219,"lon":139.75383,"施設方書":"ふくやビル1階","施設開設日":"2020/4/25","施設電話番号":"03-6427-8704","診療科目名称":"柔道整復"},{"name":"いち接骨院","province":"東京都","city":"港区","address":"東京都港区新橋五丁目31番8号","lat":35.66249,"lon":139.755016,"施設方書":"新和ビル 2階","施設開設日":"2016/3/1","施設電話番号":"03-3436-2361","診療科目名称":"柔道整復"},{"name":"高輪整骨院","province":"東京都","city":"港区","address":"東京都港区高輪一丁目5番16号","lat":35.641594,"lon":139.737281,"施設方書":"","施設開設日":"2018/7/18","施設電話番号":"03-3473-5518","診療科目名称":"柔道整復"},{"name":"白金高輪泉岳寺前接骨院","province":"東京都","city":"港区","address":"東京都港区高輪一丁目5番24号","lat":35.641003,"lon":139.737365,"施設方書":"102","施設開設日":"2020/8/7","施設電話番号":"03-6456-2018","診療科目名称":"柔道整復"},{"name":"太公堂整骨院","province":"東京都","city":"港区","address":"東京都港区高輪一丁目27番17号","lat":35.637031,"lon":139.73333,"施設方書":"","施設開設日":"2022/3/1","施設電話番号":"03-3443-2233","診療科目名称":"柔道整復"},{"name":"高輪フィジカル整骨院","province":"東京都","city":"港区","address":"東京都港区高輪二丁目14番9号","lat":35.63597,"lon":139.738199,"施設方書":"三愛ビル1階","施設開設日":"2005/7/28","施設電話番号":"03-5420-1696","診療科目名称":"柔道整復"},{"name":"桜華整骨院","province":"東京都","city":"港区","address":"東京都港区高輪二丁目15番8号","lat":35.637544,"lon":139.738802,"施設方書":"1階","施設開設日":"2017/4/1","施設電話番号":"03-5422-9334","診療科目名称":"柔道整復"},{"name":"整骨院BSO","province":"東京都","city":"港区","address":"東京都港区高輪二丁目15番24号","lat":35.636175,"lon":139.738258,"施設方書":"ASP高輪","施設開設日":"2020/9/1","施設電話番号":"03-5422-6591","診療科目名称":"柔道整復"},{"name":"接骨院サリー","province":"東京都","city":"港区","address":"東京都港区高輪三丁目11番5号","lat":35.631533,"lon":139.730536,"施設方書":"高輪ビューハイツ703","施設開設日":"2012/6/11","施設電話番号":"03-6721-7185","診療科目名称":"柔道整復"},{"name":"あすも整骨院","province":"東京都","city":"港区","address":"東京都港区高輪四丁目21番1号","lat":35.626672,"lon":139.735329,"施設方書":"202","施設開設日":"2023/2/6","施設電話番号":"03-3445-1831","診療科目名称":"柔道整復"},{"name":"六本木整骨院","province":"東京都","city":"港区","address":"東京都港区西麻布一丁目2番12号","lat":35.661105,"lon":139.726904,"施設方書":"デュオ・スカーラ西麻布タワーEAST1階","施設開設日":"2019/12/1","施設電話番号":"03-3401-1951","診療科目名称":"柔道整復"},{"name":"ENTIRE BODY整骨院","province":"東京都","city":"港区","address":"東京都港区西麻布一丁目4番48号","lat":35.66238,"lon":139.726468,"施設方書":"4階","施設開設日":"2018/8/23","施設電話番号":"03-6271-4527","診療科目名称":"柔道整復"},{"name":"あんしんどう整骨院","province":"東京都","city":"港区","address":"東京都港区西麻布一丁目10番8号","lat":35.660954,"lon":139.724207,"施設方書":"第2大晃ビル201","施設開設日":"2017/8/4","施設電話番号":"03-3423-1221","診療科目名称":"柔道整復"},{"name":"みこころ整骨院","province":"東京都","city":"港区","address":"東京都港区西麻布二丁目15番7号","lat":35.661253,"lon":139.721888,"施設方書":"東一ビル102","施設開設日":"2016/4/27","施設電話番号":"03-6427-2910","診療科目名称":"柔道整復"},{"name":"豪栄整復院◇西麻布","province":"東京都","city":"港区","address":"東京都港区西麻布四丁目17番21号","lat":35.658482,"lon":139.718903,"施設方書":"遠藤ビル1階","施設開設日":"2015/5/1","施設電話番号":"03-3486-5081","診療科目名称":"柔道整復"},{"name":"iCure接骨院 虎ノ門","province":"東京都","city":"港区","address":"東京都港区西新橋一丁目12番6号","lat":35.668298,"lon":139.753329,"施設方書":"白井ビル2階","施設開設日":"2022/11/1","施設電話番号":"03-6205-7700","診療科目名称":"柔道整復"},{"name":"メビウス新橋整骨院","province":"東京都","city":"港区","address":"東京都港区西新橋一丁目16番2号","lat":35.667793,"lon":139.754374,"施設方書":"山水ビル6階","施設開設日":"2020/1/24","施設電話番号":"03-6206-1717","診療科目名称":"柔道整復"},{"name":"新橋石塚整骨院","province":"東京都","city":"港区","address":"東京都港区西新橋一丁目19番14号","lat":35.668181,"lon":139.75288,"施設方書":"辻ビル2階","施設開設日":"2007/6/19","施設電話番号":"03-3580-0098","診療科目名称":"柔道整復"},{"name":"スマイル整骨院","province":"東京都","city":"港区","address":"東京都港区西新橋三丁目5番1号","lat":35.664979,"lon":139.751492,"施設方書":"橋場ビル2F-B","施設開設日":"2019/6/24","施設電話番号":"03-3438-2454","診療科目名称":"柔道整復"},{"name":"Viva整骨院","province":"東京都","city":"港区","address":"東京都港区西新橋三丁目8番2号","lat":35.664591,"lon":139.752871,"施設方書":"新橋ウエストビル3階","施設開設日":"2018/10/1","施設電話番号":"03-6435-9244","診療科目名称":"柔道整復"},{"name":"美ノ源接骨院東京","province":"東京都","city":"港区","address":"東京都港区西新橋三丁目23番7号","lat":35.66187,"lon":139.751612,"施設方書":"西新橋ビル7F","施設開設日":"2023/2/1","施設電話番号":"03-6450-2347","診療科目名称":"柔道整復"},{"name":"ボディセラピー浜松町整骨院","province":"東京都","city":"港区","address":"東京都港区浜松町一丁目17番8号","lat":35.65807,"lon":139.756312,"施設方書":"佐藤ビル101","施設開設日":"2021/11/1","施設電話番号":"03-6658-5570","診療科目名称":"柔道整復"},{"name":"健康サイエンス接骨院","province":"東京都","city":"港区","address":"東京都港区浜松町一丁目18番9号","lat":35.657842,"lon":139.755372,"施設方書":"1階","施設開設日":"2012/7/9","施設電話番号":"03-3432-1248","診療科目名称":"柔道整復"},{"name":"スマートボディプラス整骨院","province":"東京都","city":"港区","address":"東京都港区浜松町二丁目7番15号","lat":35.653915,"lon":139.754766,"施設方書":"浜松町三電舎ビルディング1階","施設開設日":"2014/8/18","施設電話番号":"03-6452-9588","診療科目名称":"柔道整復"},{"name":"こいけ整骨院","province":"東京都","city":"港区","address":"東京都港区東麻布二丁目5番1‐101","lat":35.657277,"lon":139.741699,"施設方書":"","施設開設日":"2020/2/27","施設電話番号":"03-3585-8462","診療科目名称":"柔道整復"},{"name":"ZAB整骨院","province":"東京都","city":"港区","address":"東京都港区東麻布三丁目8番10号","lat":35.656485,"lon":139.737491,"施設方書":"バーリータワーズ8F 801","施設開設日":"2021/12/1","施設電話番号":"03-6230-9479","診療科目名称":"柔道整復"},{"name":"薬師堂接骨院","province":"東京都","city":"港区","address":"東京都港区三田二丁目11番7号","lat":35.650169,"lon":139.744519,"施設方書":"1F","施設開設日":"2023/12/19","施設電話番号":"03-6436-7886","診療科目名称":"柔道整復"},{"name":"薬師堂","province":"東京都","city":"港区","address":"東京都港区三田二丁目12番5号","lat":35.649947,"lon":139.744071,"施設方書":"5階","施設開設日":"2022/9/21","施設電話番号":"","診療科目名称":"柔道整復"},{"name":"一会堂整骨院","province":"東京都","city":"港区","address":"東京都港区三田二丁目14番7号","lat":35.648594,"lon":139.744385,"施設方書":"ローレル三田406","施設開設日":"2022/11/27","施設電話番号":"","診療科目名称":"柔道整復"},{"name":"堀越整復院","province":"東京都","city":"港区","address":"東京都港区三田二丁目15番50号","lat":35.648174,"lon":139.741945,"施設方書":"","施設開設日":"2012/3/20","施設電話番号":"03-3451-0854","診療科目名称":"柔道整復"},{"name":"鈴木接骨院","province":"東京都","city":"港区","address":"東京都港区南青山一丁目8番13号","lat":35.670846,"lon":139.725243,"施設方書":"","施設開設日":"2001/7/2","施設電話番号":"03-3408-3669","診療科目名称":"柔道整復"},{"name":"乃木坂整骨院","province":"東京都","city":"港区","address":"東京都港区南青山一丁目20番15号","lat":35.667326,"lon":139.725823,"施設方書":"Rock1st101","施設開設日":"2022/1/27","施設電話番号":"","診療科目名称":"柔道整復"},{"name":"南青山整骨院 ハントクラフト","province":"東京都","city":"港区","address":"東京都港区南青山一丁目22番3号","lat":35.666791,"lon":139.725261,"施設方書":"グラン南青山101","施設開設日":"2010/6/6","施設電話番号":"03-5775-1558","診療科目名称":"柔道整復"},{"name":"南青山ブルー整骨院","province":"東京都","city":"港区","address":"東京都港区南青山二丁目2番15号","lat":35.671444,"lon":139.723779,"施設方書":"ウィン青山423","施設開設日":"2022/5/16","施設電話番号":"","診療科目名称":"柔道整復"},{"name":"Sound Body整骨院","province":"東京都","city":"港区","address":"東京都港区南青山二丁目22番2号","lat":35.670576,"lon":139.7193,"施設方書":"2階","施設開設日":"2013/4/24","施設電話番号":"03-6447-0335","診療科目名称":"柔道整復"},{"name":"南青山メディカル整骨院","province":"東京都","city":"港区","address":"東京都港区南青山二丁目27番22号","lat":35.669104,"lon":139.716303,"施設方書":"青山安田ビル8階","施設開設日":"2013/11/7","施設電話番号":"03-3479-1212","診療科目名称":"柔道整復"},{"name":"Re:treat (柔整)","province":"東京都","city":"港区","address":"東京都港区南青山二丁目29番8号","lat":35.667939,"lon":139.717859,"施設方書":"フロンティアビルディング南青山5階","施設開設日":"2023/3/1","施設電話番号":"","診療科目名称":"柔道整復"},{"name":"南青山PICS整骨院","province":"東京都","city":"港区","address":"東京都港区南青山三丁目8番7号","lat":35.667176,"lon":139.715851,"施設方書":"クレアトゥール南青山301","施設開設日":"2022/6/1","施設電話番号":"03-6721-0608","診療科目名称":"柔道整復"},{"name":"とまり木整骨院","province":"東京都","city":"港区","address":"東京都港区南青山三丁目12番11号","lat":35.666099,"lon":139.713702,"施設方書":"ボワゼ青山3階","施設開設日":"2018/7/1","施設電話番号":"03-5785-0599","診療科目名称":"柔道整復"},{"name":"薮下整骨院","province":"東京都","city":"港区","address":"東京都港区南青山三丁目12番12号","lat":35.666126,"lon":139.713823,"施設方書":"南青山312ビル604","施設開設日":"2022/3/14","施設電話番号":"03-6804-6447","診療科目名称":"柔道整復"},{"name":"ナチュラルキュア表参道接骨院","province":"東京都","city":"港区","address":"東京都港区南青山三丁目14番3号","lat":35.665707,"lon":139.714655,"施設方書":"2階","施設開設日":"2011/1/5","施設電話番号":"03-5775-2723","診療科目名称":"柔道整復"},{"name":"表参道yamamoto整骨院","province":"東京都","city":"港区","address":"東京都港区南青山三丁目14番24号","lat":35.665221,"lon":139.714733,"施設方書":"ピロティ青山303","施設開設日":"2021/3/19","施設電話番号":"","診療科目名称":"柔道整復"},{"name":"KIYORA整骨院","province":"東京都","city":"港区","address":"東京都港区南青山四丁目9番1号","lat":35.667352,"lon":139.718166,"施設方書":"シンプル青山ビル2階","施設開設日":"2014/6/23","施設電話番号":"03-6459-2127","診療科目名称":"柔道整復"},{"name":"総合治療院テコセンター(整骨)","province":"東京都","city":"港区","address":"東京都港区南青山四丁目9番22号","lat":35.666714,"lon":139.717432,"施設方書":"アウラビル地下1階","施設開設日":"2021/4/1","施設電話番号":"03-6804-6466","診療科目名称":"柔道整復"},{"name":"表参道スポーツ整骨院","province":"東京都","city":"港区","address":"東京都港区南青山五丁目10番2号","lat":35.662706,"lon":139.711161,"施設方書":"第2九曜ビルディング105号室","施設開設日":"2020/3/2","施設電話番号":"03-6452-6193","診療科目名称":"柔道整復"},{"name":"表参道整骨院","province":"東京都","city":"港区","address":"東京都港区南青山五丁目11番23号","lat":35.662002,"lon":139.71177,"施設方書":"102","施設開設日":"2018/2/1","施設電話番号":"03-3407-3858","診療科目名称":"柔道整復"},{"name":"戸田接骨院","province":"東京都","city":"港区","address":"東京都港区南青山六丁目2番6号","lat":35.660994,"lon":139.715735,"施設方書":"ハイム青山402","施設開設日":"2005/1/4","施設電話番号":"03-3406-1537","診療科目名称":"柔道整復"},{"name":"日本ほねつぎ院","province":"東京都","city":"港区","address":"東京都港区南青山六丁目2番10号","lat":35.660934,"lon":139.715496,"施設方書":"バックボーンハウス6階","施設開設日":"2018/7/3","施設電話番号":"","診療科目名称":"柔道整復"},{"name":"麻布温熱整骨院","province":"東京都","city":"港区","address":"東京都港区南麻布二丁目8番5号","lat":35.648657,"lon":139.735607,"施設方書":"207","施設開設日":"2020/8/4","施設電話番号":"03-6809-5644","診療科目名称":"柔道整復"},{"name":"麻布整骨院","province":"東京都","city":"港区","address":"東京都港区南麻布四丁目5番45号","lat":35.648714,"lon":139.724752,"施設方書":"ウォレントコート101","施設開設日":"2016/3/3","施設電話番号":"","診療科目名称":"柔道整復"},{"name":"ルートヴィガー整骨院","province":"東京都","city":"港区","address":"東京都港区南麻布五丁目1番36号","lat":35.652767,"lon":139.721933,"施設方書":"新陽ビル6階","施設開設日":"2016/5/22","施設電話番号":"03-3440-2288","診療科目名称":"柔道整復"},{"name":"スポーツ整骨院 Nao’s Conditioning","province":"東京都","city":"港区","address":"東京都港区元赤坂一丁目7番15号","lat":35.677867,"lon":139.732218,"施設方書":"プリメール元赤坂1階","施設開設日":"2016/8/25","施設電話番号":"03-6447-1175","診療科目名称":"柔道整復"},{"name":"六本木WaRRioRs整骨院","province":"東京都","city":"港区","address":"東京都港区六本木三丁目16番23号","lat":35.66215,"lon":139.73677,"施設方書":"タウンコート六本木101号","施設開設日":"2023/1/10","施設電話番号":"03-5544-9111","診療科目名称":"柔道整復"},{"name":"六本木ミッドタウン前整骨院","province":"東京都","city":"港区","address":"東京都港区六本木四丁目9番5号","lat":35.663614,"lon":139.732531,"施設方書":"ISO六本木ビル2F","施設開設日":"2023/3/31","施設電話番号":"03-6721-0066","診療科目名称":"柔道整復"},{"name":"ゆるり整体整骨院六本木","province":"東京都","city":"港区","address":"東京都港区六本木五丁目1番1号","lat":35.662953,"lon":139.732491,"施設方書":"マイアミビル2階","施設開設日":"2017/7/6","施設電話番号":"03-3479-6088","診療科目名称":"柔道整復"},{"name":"株式会社ゴトウ花店ビル接骨院","province":"東京都","city":"港区","address":"東京都港区六本木五丁目1番3号","lat":35.66268,"lon":139.732751,"施設方書":"ゴトウビルディング1st1階","施設開設日":"2021/6/28","施設電話番号":"","診療科目名称":"柔道整復"},{"name":"麻布十番ゆい整骨院","province":"東京都","city":"港区","address":"東京都港区六本木五丁目13番14号","lat":35.658302,"lon":139.735789,"施設方書":"メゾン麻布1階(104)","施設開設日":"2010/10/1","施設電話番号":"03-6277-8554","診療科目名称":"柔道整復"},{"name":"ライフラボ整骨院","province":"東京都","city":"港区","address":"東京都港区六本木六丁目1番4号","lat":35.662889,"lon":139.73258,"施設方書":"丸正小林ビル2階","施設開設日":"2008/10/7","施設電話番号":"03-6459-2622","診療科目名称":"柔道整復"},{"name":"栗原接骨院","province":"東京都","city":"港区","address":"東京都港区六本木七丁目3番8号","lat":35.666122,"lon":139.727563,"施設方書":"永谷ビルプラザ六本木608","施設開設日":"1998/9/19","施設電話番号":"03-3402-7117","診療科目名称":"柔道整復"},{"name":"M・S整骨院 UB店","province":"東京都","city":"港区","address":"東京都港区六本木七丁目7番7号","lat":35.665145,"lon":139.729239,"施設方書":"TRI SEVEN ROPPONGI13階 株式会社ユーザベース内","施設開設日":"2019/2/21","施設電話番号":"","診療科目名称":"柔道整復"},{"name":"La parfait","province":"東京都","city":"港区","address":"東京都港区六本木七丁目10番20号","lat":35.663262,"lon":139.728348,"施設方書":"ロッポンギFレジデンス地下1階","施設開設日":"2017/3/2","施設電話番号":"03-6447-4473","診療科目名称":"柔道整復"},{"name":"ブランシェ整骨院","province":"東京都","city":"港区","address":"東京都港区六本木七丁目13番9号","lat":35.663719,"lon":139.730446,"施設方書":"高橋ビル2階","施設開設日":"2011/4/23","施設電話番号":"03-5411-8233","診療科目名称":"柔道整復"},{"name":"くわばら接骨院","province":"東京都","city":"港区","address":"東京都港区六本木七丁目15番17号","lat":35.662292,"lon":139.729638,"施設方書":"ユニ六本木ビル9階","施設開設日":"2013/7/7","施設電話番号":"03-6447-0887","診療科目名称":"柔道整復"},{"name":"LEGACY 白金","province":"東京都","city":"港区","address":"東京都港区白金一丁目25番32号","lat":35.64463,"lon":139.731583,"年月":"202110","施設方書":"J&Kビル302","施設開設日":"2021/10/2","施設電話番号":"","診療科目名称":"はり、きゅう"},{"name":"友野治療院","province":"東京都","city":"港区","address":"東京都港区芝五丁目9番5号","lat":35.64927,"lon":139.746646,"年月":"202203","施設方書":"","施設開設日":"2022/3/15","施設電話番号":"03-3451-2327","診療科目名称":"あん摩、はり、きゅう"},{"name":"馬場回生堂鍼灸療院","province":"東京都","city":"港区","address":"東京都港区芝大門二丁目3番5号","lat":35.65646,"lon":139.753978,"年月":"202110","施設方書":"大貫ビル2階","施設廃止日":"2021/9/30"},{"name":"東洋医学はりきゅう久志田治療所","province":"東京都","city":"港区","address":"東京都港区南青山五丁目10番5号","lat":35.662487,"lon":139.711362,"年月":"202110","施設方書":"九曜ビル青山ハイツ803号","施設廃止日":"2021/9/28"},{"name":"ヘルスキーパー室","province":"東京都","city":"港区","address":"東京都港区赤坂四丁目8番18号","lat":35.676044,"lon":139.733775,"年月":"202111","施設方書":"6階","施設廃止日":"2021/10/22"},{"name":"ウィダートレーニングラボ治療院","province":"東京都","city":"港区","address":"東京都港区芝浦一丁目13番16号","lat":35.646601,"lon":139.752953,"年月":"202111","施設方書":"","施設廃止日":"2021/10/22"},{"name":"博厚堂はり治療院","province":"東京都","city":"港区","address":"東京都港区新橋五丁目22番3号","lat":35.663596,"lon":139.753257,"年月":"202111","施設方書":"ル・グラシエルビル3 6階","施設廃止日":"2021/10/21"},{"name":"いいね鍼灸院","province":"東京都","city":"港区","address":"東京都港区東新橋二丁目6番7号","lat":35.661734,"lon":139.756932,"年月":"202111","施設方書":"電光ビル3階","施設廃止日":"2021/11/12"},{"name":"あん摩マッサージ・はり・きゅうびぃなす治療院","province":"東京都","city":"港区","address":"東京都港区赤坂三丁目17番8号","lat":35.675018,"lon":139.736283,"年月":"202201","施設方書":"都ビル601","施設廃止日":"2022/1/13"},{"name":"表参道スポーツ鍼灸院","province":"東京都","city":"港区","address":"東京都港区南青山五丁目10番2号","lat":35.662706,"lon":139.711161,"年月":"202201","施設方書":"第2九曜ビルディング105号室","施設廃止日":"2021/12/31"},{"name":"はりきゅうマッサージ治療室 佐藤","province":"東京都","city":"港区","address":"東京都港区北青山三丁目10番2号","lat":35.664504,"lon":139.710514,"年月":"202202","施設方書":"青山アイリット2B","施設廃止日":"2021/12/25"},{"name":"SCS鍼灸院","province":"東京都","city":"港区","address":"東京都港区六本木七丁目7番13号","lat":35.664922,"lon":139.728561,"年月":"202202","施設方書":"2階","施設廃止日":"2022/2/10"},{"name":"スミダ治療室鍼灸","province":"東京都","city":"港区","address":"東京都港区赤坂四丁目3番30号","lat":35.674814,"lon":139.735684,"年月":"202203","施設方書":"横川ビル205","施設廃止日":"2021/2/28"},{"name":"友野第二治療院","province":"東京都","city":"港区","address":"東京都港区芝五丁目9番5号","lat":35.64927,"lon":139.746646,"年月":"202203","施設方書":"","施設廃止日":"2022/3/14"},{"name":"EASE鍼灸院 新橋","province":"東京都","city":"港区","address":"東京都港区新橋五丁目8番4号","lat":35.663615,"lon":139.755285,"年月":"202203","施設方書":"1階","施設廃止日":"2022/3/25"},{"name":"アキュサリュート高輪","province":"東京都","city":"港区","address":"東京都港区高輪四丁目8番23号","lat":35.628865,"lon":139.733948,"年月":"202203","施設方書":"エスパシオ高輪102","施設廃止日":"2022/2/28"},{"name":"デポルターレ鍼灸院","province":"東京都","city":"港区","address":"東京都港区西麻布四丁目21番2号","lat":35.657143,"lon":139.719589,"年月":"202203","施設方書":"コートヤードHIROO1階","施設廃止日":"2022/2/26"},{"name":"さくらりきゅう鍼灸マッサージ院","province":"東京都","city":"港区","address":"東京都港区東麻布二丁目22番10号","lat":35.65648,"lon":139.741041,"年月":"202203","施設方書":"メゾン東麻布107","施設廃止日":"2022/2/28"},{"name":"安達治療室","province":"東京都","city":"港区","address":"東京都港区東新橋一丁目10番1号","lat":35.660745,"lon":139.759857,"年月":"202203","施設方書":"L2906","施設廃止日":"2021/12/31"},{"name":"白金ザ・スカイタワー前接骨院","province":"東京都","city":"港区","address":"東京都港区白金一丁目10番7号","lat":35.646059,"lon":139.733139,"年月":"202112","施設方書":"ウメジム中2階","施設開設日":"2021/12/20","施設電話番号":"03-3449-3160","診療科目名称":"柔道整復"},{"name":"SSAB(ザブ)整骨院","province":"東京都","city":"港区","address":"東京都港区東麻布三丁目8番10号","lat":35.656485,"lon":139.737491,"年月":"202112","施設方書":"バーリータワーズ8F 801","施設開設日":"2021/12/1","施設電話番号":"03-6230-9479","診療科目名称":"柔道整復"},{"name":"ととのい整骨院","province":"東京都","city":"港区","address":"東京都港区赤坂二丁目17番46号","lat":35.669498,"lon":139.738658,"年月":"202201","施設方書":"グローヴビルB1","施設開設日":"2022/1/26","施設電話番号":"","診療科目名称":"柔道整復"},{"name":"LOOPLE(ループル)整骨院南麻布","province":"東京都","city":"港区","address":"東京都港区南麻布二丁目5番21号","lat":35.65002,"lon":139.737024,"年月":"202201","施設方書":"イデア南麻布1階","施設開設日":"2022/1/7","施設電話番号":"03-6435-0625","診療科目名称":"柔道整復"},{"name":"ARC Labo整骨院","province":"東京都","city":"港区","address":"東京都港区赤坂五丁目4番8号","lat":35.671918,"lon":139.735774,"年月":"202111","施設方書":"クレールタイヨービル6階","施設廃止日":"2021/10/31"},{"name":"ボディセラピー浜松町整骨院","province":"東京都","city":"港区","address":"東京都港区浜松町一丁目27番9号","lat":35.656905,"lon":139.755245,"年月":"202111","施設方書":"トラスト浜松町ビル5階","施設廃止日":"2021/10/31"},{"name":"整骨院Sugar","province":"東京都","city":"港区","address":"東京都港区白金台五丁目5番8号","lat":35.640455,"lon":139.722265,"年月":"202201","施設方書":"4階","施設廃止日":"2022/1/31"},{"name":"太公堂整骨院","province":"東京都","city":"港区","address":"東京都港区白金台二丁目12番20号","lat":35.632825,"lon":139.730358,"年月":"202203","施設方書":"","施設廃止日":"2022/2/28"},{"name":"EASE整骨院 新橋","province":"東京都","city":"港区","address":"東京都港区新橋五丁目8番4号","lat":35.663615,"lon":139.755285,"年月":"202203","施設方書":"1階","施設廃止日":"2022/3/25"},{"name":"太公堂整骨院 高輪店","province":"東京都","city":"港区","address":"東京都港区高輪一丁目27番17号","lat":35.637031,"lon":139.73333,"年月":"202203","施設方書":"","施設廃止日":"2022/2/28"},{"name":"こころ整骨院表参道院","province":"東京都","city":"港区","address":"東京都港区南青山六丁目2番10号","lat":35.66095,"lon":139.715426,"年月":"202203","施設方書":"T・Iビル1階","施設廃止日":"2022/2/28"},{"name":"iCure鍼灸院 溜池山王","province":"東京都","city":"港区","address":"東京都港区赤坂二丁目10番16号","lat":35.670661,"lon":139.741512,"年月":"202210","施設方書":"新陽ビル2階","施設開設日":"2022/10/1","施設電話番号":"03-5570-1800","診療科目名称":"はり、きゅう"},{"name":"一会堂鍼灸院1F","province":"東京都","city":"港区","address":"東京都港区三田二丁目14番7号","lat":35.648594,"lon":139.744385,"年月":"202211","施設方書":"ローレル三田406","施設開設日":"2022/11/27","施設電話番号":"","診療科目名称":"はり、きゅう"},{"name":"鍼灸サロンbefeel麻布十番","province":"東京都","city":"港区","address":"東京都港区麻布十番一丁目2番8号","lat":35.656592,"lon":139.736566,"年月":"202301","施設方書":"麻布髙野ビル6F","施設開設日":"2023/1/4","施設電話番号":"03-3568-8672","診療科目名称":"はり、きゅう、あん摩"},{"name":"ハリのち晴れ 鍼灸治療院","province":"東京都","city":"港区","address":"東京都港区芝大門二丁目1番13号","lat":35.655898,"lon":139.75298,"年月":"202303","施設方書":"4F","施設開設日":"2023/3/18","施設電話番号":"03-3432-5355","診療科目名称":"はり、きゅう"},{"name":"IQVIAソリューションズジャパン株式会社","province":"東京都","city":"港区","address":"東京都港区高輪四丁目10番18号","lat":35.628707,"lon":139.736861,"年月":"202303","施設方書":"京急第1ビル5階","施設開設日":"2023/3/20","施設電話番号":"03-6771-9001","診療科目名称":"はり、あん摩"},{"name":"株式会社商船三井医務室","province":"東京都","city":"港区","address":"東京都港区虎ノ門二丁目1番1号","lat":35.669722,"lon":139.747018,"年月":"202303","施設方書":"(商船三井ビル15階)","施設開設日":"2009/4/1","施設電話番号":"03-3587-7655","診療科目名称":"あん摩、はり、きゅう"},{"name":"キュアトリートメントレミュー青山鍼院","province":"東京都","city":"港区","address":"東京都港区南青山二丁目12番15号","lat":35.671194,"lon":139.720516,"年月":"202303","施設方書":"ユニマット外苑ビル7階","施設開設日":"2023/3/30","施設電話番号":"03-5413-6408","診療科目名称":"はり"},{"name":"株式会社博報堂DYアイ・オー","province":"東京都","city":"港区","address":"東京都港区赤坂二丁目14番27号","lat":35.672105,"lon":139.737022,"年月":"202204","施設方書":"国際新赤坂ビル東館17階","施設廃止日":"2022/3/31"},{"name":"グリーマッサージルーム","province":"東京都","city":"港区","address":"東京都港区六本木六丁目10番1号","lat":35.660552,"lon":139.729276,"年月":"202204","施設方書":"六本木ヒルズ森タワー9階","施設廃止日":"2022/3/18"},{"name":"安藤・間リラクゼーションルーム","province":"東京都","city":"港区","address":"東京都港区赤坂六丁目1番20号","lat":35.671697,"lon":139.736055,"年月":"202205","施設方書":"国際新赤坂ビル西館16階","施設廃止日":"2022/4/28"},{"name":"鍼灸サロンはにかむ","province":"東京都","city":"港区","address":"東京都港区麻布十番一丁目5番24号","lat":35.657099,"lon":139.73301,"年月":"202205","施設方書":"第3長門ビル202","施設廃止日":"2021/9/30"},{"name":"リライフ鍼灸マッサージ院","province":"東京都","city":"港区","address":"東京都港区西新橋一丁目15番7号","lat":35.667938,"lon":139.754377,"年月":"202205","施設方書":"曽根ビル3階","施設廃止日":"2022/4/30"},{"name":"体のサポートつぼ工房","province":"東京都","city":"港区","address":"東京都港区六本木七丁目17番23号","lat":35.662754,"lon":139.728384,"年月":"202205","施設方書":"302","施設廃止日":"2022/5/28"},{"name":"まごころベルマッサージ","province":"東京都","city":"港区","address":"東京都港区芝三丁目40番4号","lat":35.650747,"lon":139.747143,"年月":"202206","施設方書":"三田シティプラザ2階","施設廃止日":"2022/5/31"},{"name":"東郷鍼灸治療院","province":"東京都","city":"港区","address":"東京都港区南麻布五丁目2番40号","lat":35.655564,"lon":139.723665,"年月":"202206","施設方書":"","施設廃止日":"2022/5/8"},{"name":"HITOWAソーシャルワークス株式会社","province":"東京都","city":"港区","address":"東京都港区六本木一丁目4番5号","lat":35.665703,"lon":139.739381,"年月":"202206","施設方書":"アークヒルズサウスタワー19階","施設廃止日":"2022/6/23"},{"name":"Relaxation Room Rakumomi/楽もみ","province":"東京都","city":"港区","address":"東京都港区南青山二丁目6番21号","lat":35.671818,"lon":139.722229,"年月":"202207","施設方書":"楽天クリムゾンハウス青山10階","施設廃止日":"2022/7/15"},{"name":"有限会社きみしま きみしま鍼灸治療院","province":"東京都","city":"港区","address":"東京都港区西新橋二丁目14番7号","lat":35.667103,"lon":139.751333,"年月":"202208","施設方書":"笠井ビル3階","施設廃止日":"2022/7/31"},{"name":"MIHO鍼灸治療院","province":"東京都","city":"港区","address":"東京都港区麻布十番三丁目7番5号","lat":35.653524,"lon":139.735006,"年月":"202209","施設方書":"502","施設廃止日":"2022/8/31"},{"name":"Back to Basics 鍼灸治療院","province":"東京都","city":"港区","address":"東京都港区南麻布五丁目2番39号","lat":35.655371,"lon":139.723542,"年月":"202209","施設方書":"ニュー東和ビル403","施設廃止日":"2022/8/31"},{"name":"アルクル鍼灸院 赤坂","province":"東京都","city":"港区","address":"東京都港区赤坂二丁目12番10号","lat":35.670991,"lon":139.740414,"年月":"202210","施設方書":"HF溜池ビルディング1階","施設廃止日":"2022/9/25"},{"name":"南青山エトス鍼灸治療院","province":"東京都","city":"港区","address":"東京都港区南青山二丁目27番21号","lat":35.669051,"lon":139.716303,"年月":"202210","施設方書":"ジークス青山ビル5階","施設廃止日":"2022/10/5"},{"name":"一会堂鍼灸院1F","province":"東京都","city":"港区","address":"東京都港区芝五丁目13番12号","lat":35.648953,"lon":139.744985,"年月":"202211","施設方書":"第2定方ビル1階","施設廃止日":"2022/11/26"},{"name":"一会堂鍼灸院2F","province":"東京都","city":"港区","address":"東京都港区芝五丁目13番12号","lat":35.648953,"lon":139.744985,"年月":"202211","施設方書":"第2定方ビル2F","施設廃止日":"2022/11/26"},{"name":"兼松株式会社 マッサージ施術室","province":"東京都","city":"港区","address":"東京都港区芝浦一丁目2番1号","lat":35.649921,"lon":139.756897,"年月":"202211","施設方書":"シーバンスN館23階","施設廃止日":"2022/11/17"},{"name":"あんま、指圧、マッサージ 治療工房とも","province":"東京都","city":"港区","address":"東京都港区三田一丁目10番5号","lat":35.655028,"lon":139.738399,"年月":"202211","施設方書":"モア三田302","施設廃止日":"2022/12/1"},{"name":"salon de moe -azabu-","province":"東京都","city":"港区","address":"東京都港区南麻布一丁目27番20号","lat":35.649888,"lon":139.734114,"年月":"202211","施設方書":"","施設廃止日":"2022/11/6"},{"name":"AMMYURO","province":"東京都","city":"港区","address":"東京都港区白金三丁目15番15号-403","lat":35.644861,"lon":139.728071,"年月":"202212","施設方書":"","施設廃止日":"2022/3/31"},{"name":"中澤鍼灸マッサージ温熱道","province":"東京都","city":"港区","address":"東京都港区西麻布三丁目2番16号","lat":35.659178,"lon":139.727463,"年月":"202212","施設方書":"プレジデント六本木702号室","施設廃止日":"2022/12/11"},{"name":"X-ion(クロシオン)","province":"東京都","city":"港区","address":"東京都港区東新橋一丁目2番5号","lat":35.665135,"lon":139.759566,"年月":"202212","施設方書":"5階","施設廃止日":"2021/12/31"},{"name":"iCure鍼灸院 六本木","province":"東京都","city":"港区","address":"東京都港区六本木四丁目9番5号","lat":35.663614,"lon":139.732531,"年月":"202212","施設方書":"ISO六本木ビル2階","施設廃止日":"2022/11/30"},{"name":"鍼灸院befeel麻布十番","province":"東京都","city":"港区","address":"東京都港区麻布十番一丁目2番8号","lat":35.656592,"lon":139.736566,"年月":"202301","施設方書":"麻布髙野ビル6F","施設廃止日":"2022/12/31"},{"name":"汐留ベイブリーズマッサージ院","province":"東京都","city":"港区","address":"東京都港区東新橋一丁目2番10号","lat":35.664557,"lon":139.759287,"年月":"202301","施設方書":"京店ビル3階","施設廃止日":"2005/8/31"},{"name":"青木整骨指圧療院","province":"東京都","city":"港区","address":"東京都港区南青山一丁目15番31号","lat":35.668923,"lon":139.726029,"年月":"202301","施設方書":"","施設廃止日":"2023/1/6"},{"name":"salon de saika(鍼灸)","province":"東京都","city":"港区","address":"東京都港区麻布十番三丁目7番5号","lat":35.653524,"lon":139.735006,"年月":"202302","施設方書":"decimo AZABU701","施設廃止日":"2022/12/31"},{"name":"Crossclue鍼治療院","province":"東京都","city":"港区","address":"東京都港区西麻布四丁目2番9号","lat":35.658106,"lon":139.723273,"年月":"202302","施設方書":"シーズンズ西麻布302","施設廃止日":"2023/2/2"},{"name":"町田はり・きゅう治療院","province":"東京都","city":"港区","address":"東京都港区白金一丁目12番14号","lat":35.645283,"lon":139.734986,"年月":"202303","施設方書":"グレイス白金605","施設廃止日":"2023/3/29"},{"name":"サービシーズマッサージルーム","province":"東京都","city":"港区","address":"東京都港区高輪四丁目10番18号","lat":35.628707,"lon":139.736861,"年月":"202303","施設方書":"京急第一ビル3階","施設廃止日":"2023/3/17"},{"name":"フランシラ治療院","province":"東京都","city":"港区","address":"東京都港区西麻布三丁目22番7号","lat":35.659011,"lon":139.72486,"年月":"202303","施設方書":"","施設廃止日":"2023/2/21"},{"name":"株式会社Speee マッサージルーム","province":"東京都","city":"港区","address":"東京都港区六本木四丁目1番4号","lat":35.665463,"lon":139.736136,"年月":"202303","施設方書":"黒崎ビル4階","施設廃止日":"2023/3/21"},{"name":"六本木ミッドタウン前鍼灸院","province":"東京都","city":"港区","address":"東京都港区六本木七丁目13番2号","lat":35.664279,"lon":139.730835,"年月":"202303","施設方書":"アーバンビル502","施設廃止日":"2023/3/30"},{"name":"こきゅう南青山プレミアム接骨院","province":"東京都","city":"港区","address":"東京都港区南青山三丁目16番14号","lat":35.664402,"lon":139.714659,"年月":"202204","施設方書":"プラサーダ青山402","施設廃止日":"2022/3/31"},{"name":"リライフ整骨院","province":"東京都","city":"港区","address":"東京都港区西新橋一丁目15番7号","lat":35.667938,"lon":139.754377,"年月":"202205","施設方書":"曽根ビル3階","施設廃止日":"2022/4/30"},{"name":"iCure接骨院 溜池山王","province":"東京都","city":"港区","address":"東京都港区赤坂二丁目10番16号","lat":35.670661,"lon":139.741512,"年月":"202303","施設方書":"新陽ビル2階","施設廃止日":"2023/3/12"},{"name":"一会堂整骨院","province":"東京都","city":"港区","address":"東京都港区芝五丁目13番12号","lat":35.648953,"lon":139.744985,"年月":"202211","施設方書":"第2定方ビル1F","施設廃止日":"2022/11/26"},{"name":"iCure接骨院 六本木","province":"東京都","city":"港区","address":"東京都港区六本木四丁目9番5号","lat":35.663614,"lon":139.732531,"年月":"202212","施設方書":"ISO六本木ビル2階","施設廃止日":"2022/11/30"},{"name":"Azabu整骨院","province":"東京都","city":"港区","address":"東京都港区麻布十番二丁目19番1号","lat":35.655065,"lon":139.736054,"年月":"202301","施設方書":"オフィスエイトビル4階","施設廃止日":"2023/1/26"},{"name":"汐留ベイブリーズ整骨院","province":"東京都","city":"港区","address":"東京都港区東新橋一丁目2番10号","lat":35.664557,"lon":139.759287,"年月":"202301","施設方書":"京店ビル3階","施設廃止日":"2005/8/31"},{"name":"美ノ源接骨院東京","province":"東京都","city":"港区","address":"東京都港区高輪三丁目25番27号","lat":35.631074,"lon":139.7378,"年月":"202302","施設方書":"512","施設廃止日":"2023/1/31"},{"name":"整骨院おおた","province":"東京都","city":"港区","address":"東京都港区南青山二丁目15番19号","lat":35.669294,"lon":139.720679,"年月":"202303","施設方書":"フジハイツ1階B号","施設廃止日":"2023/2/28"},{"name":"M・S整骨院","province":"東京都","city":"港区","address":"東京都港区六本木三丁目2番1号","lat":35.664718,"lon":139.73776,"年月":"202303","施設方書":"住友不動産グランドタワー26階","施設廃止日":"2023/3/7"},{"name":"六本木ミッドタウン前整骨院","province":"東京都","city":"港区","address":"東京都港区六本木七丁目13番2号","lat":35.664279,"lon":139.730835,"年月":"202303","施設方書":"アーバンビル502","施設廃止日":"2023/3/30"},{"name":"六本木アキバ整骨院","province":"東京都","city":"港区","address":"東京都港区六本木三丁目16番23号","lat":35.66215,"lon":139.73677,"年月":"202301","施設方書":"タウンコート六本木101号","施設開設日":"2023/1/10","施設電話番号":"03-5544-9111","診療科目名称":"柔道整復"},{"name":"高輪マッサージ指圧針灸院","province":"東京都","city":"港区","address":"東京都港区高輪四丁目20番16号","lat":35.625879,"lon":139.735046,"年月":"202309","施設方書":"セントリバー高輪102","施設開設日":"2023/9/3","施設電話番号":"","診療科目名称":"あん摩、はり、きゅう"},{"name":"福建中医薬大学付属中国鍼灸院","province":"東京都","city":"港区","address":"東京都港区新橋二丁目20番15号","lat":35.666214,"lon":139.759538,"年月":"202402","施設方書":"新橋駅前ビル1号館208号","施設開設日":"2024/2/15","施設電話番号":"03-6264-6444","診療科目名称":"はり、きゅう"},{"name":"鍼灸整体治療院薫風","province":"東京都","city":"港区","address":"東京都港区南麻布一丁目7番24号","lat":35.650386,"lon":139.737326,"年月":"202304","施設方書":"1002","施設廃止日":"2023/3/31"},{"name":"LOOPLE(ループル)鍼灸マッサージ院南麻布","province":"東京都","city":"港区","address":"東京都港区南麻布二丁目5番21号","lat":35.65002,"lon":139.737024,"年月":"202304","施設方書":"イデア南麻布1階","施設廃止日":"2023/3/31"},{"name":"K SPORTSMASSAGE","province":"東京都","city":"港区","address":"東京都港区麻布十番一丁目4番8号","lat":35.657019,"lon":139.734687,"年月":"202305","施設方書":"マドモアゼルビル703","施設廃止日":"2023/5/30"},{"name":"ツボハウス","province":"東京都","city":"港区","address":"東京都港区芝浦三丁目6番2号","lat":35.643504,"lon":139.749007,"年月":"202306","施設方書":"第5協栄ビル3・4F","施設廃止日":"2023/6/22"},{"name":"癒間専科芝浦鍼灸院","province":"東京都","city":"港区","address":"東京都港区芝浦三丁目11番12号","lat":35.643051,"lon":139.749832,"年月":"202306","施設方書":"ASK芝浦ビル6階","施設廃止日":"2023/6/22"},{"name":"メディカル鍼灸マッサージ院","province":"東京都","city":"港区","address":"東京都港区西麻布二丁目21番3号","lat":35.661668,"lon":139.718923,"年月":"202307","施設方書":"","施設廃止日":"2023/7/11"},{"name":"SGTヘルスケアルーム","province":"東京都","city":"港区","address":"東京都港区港南二丁目16番3号","lat":35.626615,"lon":139.740774,"年月":"202308","施設方書":"品川グランドセントラルタワー20階","施設廃止日":"2023/7/28"},{"name":"はり・灸・マッサージアキュ・モード","province":"東京都","city":"港区","address":"東京都港区南青山二丁目26番34号","lat":35.669869,"lon":139.716998,"年月":"202308","施設方書":"北屋ビル3階","施設廃止日":"2022/12/31"},{"name":"鍼灸サロン ル レーヴ","province":"東京都","city":"港区","address":"東京都港区南麻布二丁目7番30号","lat":35.648151,"lon":139.736941,"年月":"202308","施設方書":"リバーサイド304","施設廃止日":"2023/7/30"},{"name":"魚藍坂マッサージセンター","province":"東京都","city":"港区","address":"東京都港区高輪一丁目5番19号","lat":35.642198,"lon":139.736283,"年月":"202309","施設方書":"ヒルトップ高輪305","施設廃止日":"2023/9/26"},{"name":"白金高輪治療院","province":"東京都","city":"港区","address":"東京都港区高輪一丁目11番8号","lat":35.641454,"lon":139.734966,"年月":"202309","施設方書":"コートハウス高輪102","施設廃止日":"2023/9/26"},{"name":"慶応治療院","province":"東京都","city":"港区","address":"東京都港区高輪三丁目12番4号","lat":35.630852,"lon":139.730537,"年月":"202309","施設方書":"","施設廃止日":"2023/9/26"},{"name":"麻布 MUSUVINO鍼灸院","province":"東京都","city":"港区","address":"東京都港区南麻布三丁目4番5号","lat":35.649887,"lon":139.734846,"年月":"202309","施設方書":"エスセナーリオ南麻布104","施設廃止日":"2023/9/29"},{"name":"シーボン六本木鍼灸院","province":"東京都","city":"港区","address":"東京都港区六本木七丁目18番12号","lat":35.662037,"lon":139.728965,"年月":"202309","施設方書":"シーボンview2階","施設廃止日":"2023/8/31"},{"name":"赤坂山王鍼灸治療院","province":"東京都","city":"港区","address":"東京都港区赤坂七丁目5番34号","lat":35.671156,"lon":139.730276,"年月":"202310","施設方書":"インペリアル赤坂フォーラム1階","施設廃止日":"2023/9/30"},{"name":"日本タタ・コンサルタンシー・サービシズ株式会社リラクゼーションルーム","province":"東京都","city":"港区","address":"東京都港区芝公園四丁目1番4号","lat":35.659093,"lon":139.744043,"年月":"202310","施設方書":"メソニック38MTビル 8階","施設廃止日":"2023/10/23"},{"name":"鍼灸治療院ハリのち晴れ","province":"東京都","city":"港区","address":"東京都港区芝大門二丁目8番16号","lat":35.655661,"lon":139.75288,"年月":"202310","施設方書":"島倉ビル2F","施設廃止日":"2023/10/1"},{"name":"株式会社メディカルジャパン 青山鍼灸院","province":"東京都","city":"港区","address":"東京都港区南青山二丁目4番11号","lat":35.671063,"lon":139.723121,"年月":"202310","施設方書":"201号室 ランド南青山","施設廃止日":"2023/10/30"},{"name":"ハリアップ","province":"東京都","city":"港区","address":"東京都港区六本木六丁目10番1号","lat":35.660705,"lon":139.729207,"年月":"202310","施設方書":"六本木ヒルズ森タワーウェストウォーク6階","施設廃止日":"2023/9/30"},{"name":"AIGハーモニー マッサージルーム","province":"東京都","city":"港区","address":"東京都港区虎ノ門四丁目3番20号","lat":35.663494,"lon":139.744526,"年月":"202311","施設方書":"神谷町MTビル2階","施設廃止日":"2023/10/29"},{"name":"デポルターレ鍼灸院","province":"東京都","city":"港区","address":"東京都港区西麻布三丁目17番34号","lat":35.65885,"lon":139.724949,"年月":"202311","施設方書":"3F","施設廃止日":"2023/8/23"},{"name":"レイス治療院 東京みなと","province":"東京都","city":"港区","address":"東京都港区芝大門二丁目6番11号","lat":35.654955,"lon":139.75358,"年月":"202312","施設方書":"欧文ビル3階","施設廃止日":"2023/12/1"},{"name":"株式会社商船三井マッサージ室","province":"東京都","city":"港区","address":"東京都港区虎ノ門二丁目1番1号","lat":35.669722,"lon":139.747018,"年月":"202312","施設方書":"(商船三井ビル15階)","施設廃止日":"2023/12/25"},{"name":"佐藤鍼灸院","province":"東京都","city":"港区","address":"東京都港区赤坂六丁目19番40号","lat":35.667207,"lon":139.733529,"年月":"202401","施設方書":"秀和赤坂レジデンス801","施設廃止日":"2023/12/31"},{"name":"はりきゅうマッサージ治療院らるく","province":"東京都","city":"港区","address":"東京都港区南青山一丁目22番3号","lat":35.666791,"lon":139.725261,"年月":"202401","施設方書":"グラン南青山102","施設廃止日":"2024/1/19"},{"name":"PHILIPS Massage Room","province":"東京都","city":"港区","address":"東京都港区港南二丁目13番37号","lat":35.628224,"lon":139.745324,"年月":"202402","施設方書":"フィリップスビル5階","施設廃止日":"2024/2/22"},{"name":"麻布治療院","province":"東京都","city":"港区","address":"東京都港区東麻布三丁目8番11号","lat":35.656533,"lon":139.73743,"年月":"202402","施設方書":"2階","施設廃止日":"2016/12/31"},{"name":"青山3丁目はり灸院","province":"東京都","city":"港区","address":"東京都港区北青山三丁目3番7号","lat":35.668363,"lon":139.714833,"年月":"202403","施設方書":"第一青山ビル2階","施設廃止日":"2024/3/29"},{"name":"東ソー株式会社 マッサージルーム","province":"東京都","city":"港区","address":"東京都港区芝三丁目8番2号","lat":35.652359,"lon":139.74744,"年月":"202403","施設方書":"芝公園ファーストビル8階","施設廃止日":"2024/3/15"},{"name":"プラスケア","province":"東京都","city":"港区","address":"東京都港区芝浦三丁目6番3号","lat":35.643533,"lon":139.748877,"年月":"202403","施設方書":"協栄ビル3階","施設廃止日":"2024/2/29"},{"name":"この花鍼灸院","province":"東京都","city":"港区","address":"東京都港区白金台五丁目2番5号","lat":35.642475,"lon":139.720878,"年月":"202403","施設方書":"トランドゥ201","施設廃止日":"2024/1/31"},{"name":"富士通ハーモニー汐留オフィスヘルスキーピングルーム","province":"東京都","city":"港区","address":"東京都港区東新橋一丁目5番2号","lat":35.665497,"lon":139.760881,"年月":"202403","施設方書":"汐留シティーセンター23階PacificOceanAtlanticOcean","施設廃止日":"2024/3/15"},{"name":"西麻布整骨院","province":"東京都","city":"港区","address":"東京都港区西麻布二丁目13番17号","lat":35.662907,"lon":139.720669,"年月":"202304","施設方書":"辰己レジデンス103","施設廃止日":"2023/3/31"},{"name":"K 整骨院","province":"東京都","city":"港区","address":"東京都港区麻布十番一丁目4番8号","lat":35.657019,"lon":139.734687,"年月":"202305","施設方書":"マドモアゼルビル703","施設廃止日":"2023/5/30"},{"name":"ルーブル整骨院","province":"東京都","city":"港区","address":"東京都港区白金台三丁目16番8号","lat":35.636183,"lon":139.723342,"年月":"202305","施設方書":"クレール白金台2階","施設廃止日":"2023/4/30"},{"name":"麻布十番整骨院","province":"東京都","city":"港区","address":"東京都港区南麻布一丁目14番2号","lat":35.651213,"lon":139.734334,"年月":"202306","施設方書":"渡辺ビル1階","施設廃止日":"2023/6/26"},{"name":"メディカル整骨院","province":"東京都","city":"港区","address":"東京都港区西麻布二丁目21番3号","lat":35.661668,"lon":139.718923,"年月":"202307","施設方書":"","施設廃止日":"2023/7/11"},{"name":"ふれあい整骨院","province":"東京都","city":"港区","address":"東京都港区高輪三丁目14番33号","lat":35.633867,"lon":139.732807,"年月":"202309","施設方書":"グランバリュー高輪1階","施設廃止日":"2023/9/26"},{"name":"赤坂山王整骨院","province":"東京都","city":"港区","address":"東京都港区赤坂七丁目5番34号","lat":35.671156,"lon":139.730276,"年月":"202310","施設方書":"インペリアル赤坂フォーラム1階","施設廃止日":"2023/9/30"},{"name":"PT麻布十番駅前整骨院","province":"東京都","city":"港区","address":"東京都港区麻布十番二丁目8番7号","lat":35.655502,"lon":139.734772,"年月":"202402","施設方書":"M2K Holding BLD1F","施設廃止日":"2024/2/9"},{"name":"麻布接骨院","province":"東京都","city":"港区","address":"東京都港区東麻布三丁目8番11号","lat":35.656533,"lon":139.73743,"年月":"202402","施設方書":"2階","施設廃止日":"2016/12/31"},{"name":"青山3丁目整骨院 大仁堂","province":"東京都","city":"港区","address":"東京都港区北青山三丁目3番7号","lat":35.668363,"lon":139.714833,"年月":"202403","施設方書":"第一青山ビル2階","施設廃止日":"2024/3/29"},{"name":"せせらぎ鍼灸院","province":"東京都","city":"港区","address":"東京都港区赤坂八丁目6番27号","lat":35.671402,"lon":139.727762,"年月":"202404","施設方書":"スカイプラザ赤坂404","施設開設日":"2024/4/19","施設電話番号":"03-6824-2622","診療科目名称":"はり、きゅう"},{"name":"Philips massage Room","province":"東京都","city":"港区","address":"東京都港区麻布台一丁目3番1号","lat":35.660882,"lon":139.740657,"年月":"202404","施設方書":"麻布台ヒルズ森JPタワー15階","施設開設日":"2024/4/1","施設電話番号":"03-4486-5565","診療科目名称":"あん摩、はり、きゅう"},{"name":"株式会社電通総研 マッサージルーム","province":"東京都","city":"港区","address":"東京都港区港南二丁目17番1号","lat":35.624577,"lon":139.739503,"年月":"202404","施設方書":"19階 株式会社電通総研","施設開設日":"2024/4/1","施設電話番号":"03-6713-9542","診療科目名称":"あん摩、はり、きゅう"},{"name":"TMESボディケアルーム","province":"東京都","city":"港区","address":"東京都港区芝浦三丁目1番21号","lat":35.645424,"lon":139.749466,"年月":"202404","施設方書":"msbTamachi田町ステーションタワーS23階","施設開設日":"2024/4/1","施設電話番号":"03-3455-3600","診療科目名称":"あん摩、はり、きゅう"},{"name":"En鍼灸整骨院南青山","province":"東京都","city":"港区","address":"東京都港区南青山一丁目11番43号","lat":35.670408,"lon":139.726235,"年月":"202404","施設方書":"南青山一丁目建物1F","施設開設日":"2024/4/2","施設電話番号":"03-4400-0439","診療科目名称":"はり、きゅう"},{"name":"メディカルトータル青山鍼灸院","province":"東京都","city":"港区","address":"東京都港区南青山二丁目18番5号","lat":35.669253,"lon":139.720399,"年月":"202404","施設方書":"アエリア南青山802","施設開設日":"2024/4/4","施設電話番号":"","診療科目名称":"はり、きゅう"},{"name":"青南針療院","province":"東京都","city":"港区","address":"東京都港区南青山三丁目7番5号","lat":35.666758,"lon":139.716439,"年月":"202404","施設方書":"アルプスプラザ302号室","施設開設日":"2024/4/30","施設電話番号":"03-6721-0657","診療科目名称":"はり、きゅう"},{"name":"Salon de Le seul","province":"東京都","city":"港区","address":"東京都港区南麻布一丁目27番20号","lat":35.649923,"lon":139.734252,"年月":"202404","施設方書":"カーサ麻布ルグラン901","施設開設日":"2024/3/27","施設電話番号":"","診療科目名称":"はり、きゅう"},{"name":"Halian","province":"東京都","city":"港区","address":"東京都港区麻布十番二丁目8番12号","lat":35.655463,"lon":139.734208,"年月":"202405","施設方書":"リレント麻布十番503","施設開設日":"2024/4/3","施設電話番号":"","診療科目名称":"あん摩、はり、きゅう"},{"name":"表参道 鍼灸 SCENT","province":"東京都","city":"港区","address":"東京都港区北青山三丁目5番44号","lat":35.666897,"lon":139.711868,"年月":"202405","施設方書":"HT青山302","施設開設日":"2024/5/15","施設電話番号":"03-6721-0279","診療科目名称":"はり、きゅう"},{"name":"Keep在宅マッサージ","province":"東京都","city":"港区","address":"東京都港区白金一丁目25番23号","lat":35.643802,"lon":139.731767,"年月":"202405","施設方書":"江塚マンション402","施設開設日":"2024/5/1","施設電話番号":"03-3445-8280","診療科目名称":"あん摩、はり、きゅう"},{"name":"みやび鍼灸院","province":"東京都","city":"港区","address":"東京都港区白金台三丁目2番16号","lat":35.637691,"lon":139.727346,"年月":"202405","施設方書":"カーサデ・ベンターナ102","施設開設日":"2024/5/15","施設電話番号":"03-5860-2650","診療科目名称":"はり、きゅう"},{"name":"新橋 元氣計画治療院 指圧マッサージ・はり・きゅう","province":"東京都","city":"港区","address":"東京都港区新橋五丁目9番7号","lat":35.663528,"lon":139.755501,"年月":"202405","施設方書":"第19大協ビル4階","施設開設日":"2024/5/9","施設電話番号":"03-3438-0949","診療科目名称":"あん摩、はり、きゅう"},{"name":"女性のための鍼灸サロンHALIDA","province":"東京都","city":"港区","address":"東京都港区高輪三丁目3番8号","lat":35.634607,"lon":139.732366,"年月":"202405","施設方書":"アヴニール高輪3階","施設開設日":"2024/5/13","施設電話番号":"","診療科目名称":"はり、きゅう"},{"name":"シンプレクス株式会社リラクゼーションルーム","province":"東京都","city":"港区","address":"東京都港区麻布台一丁目3番1号","lat":35.660882,"lon":139.740657,"年月":"202406","施設方書":"麻布台ヒルズ森JPタワー18階","施設開設日":"2024/6/1","施設電話番号":"03-3539-7370","診療科目名称":"あん摩"},{"name":"オーロラマッサージ院品川・港区店","province":"東京都","city":"港区","address":"東京都港区白金台五丁目10番16号","lat":35.64196,"lon":139.719965,"年月":"202406","施設方書":"ブライズ白金台403","施設開設日":"2024/6/1","施設電話番号":"","診療科目名称":"あん摩"},{"name":"株式会社One Leaf Cloverリラクゼーションルーム","province":"東京都","city":"港区","address":"東京都港区新橋四丁目1番1号","lat":35.665253,"lon":139.753792,"年月":"202406","施設方書":"新虎通りCORE6階","施設開設日":"2024/6/20","施設電話番号":"03-4550-6150","診療科目名称":"あん摩"},{"name":"桜琴鍼灸治療院","province":"東京都","city":"港区","address":"東京都港区赤坂二丁目14番31号","lat":35.672693,"lon":139.737281,"年月":"202407","施設方書":"","施設開設日":"2024/7/29","施設電話番号":"03-6426-5976","診療科目名称":"はり、きゅう"},{"name":"はりねずみ鍼灸マッサージ","province":"東京都","city":"港区","address":"東京都港区赤坂二丁目20番7号","lat":35.668708,"lon":139.739376,"年月":"202407","施設方書":"第2成光ビル202","施設開設日":"2024/7/15","施設電話番号":"","診療科目名称":"あん摩、はり、きゅう"},{"name":"カラダコーディネートラボ","province":"東京都","city":"港区","address":"東京都港区麻布十番一丁目10番3号","lat":35.656191,"lon":139.736423,"年月":"202407","施設方書":"モンテプラザ麻布706","施設開設日":"2024/7/6","施設電話番号":"","診療科目名称":"はり、きゅう"},{"name":"オンダスポーツ鍼灸院","province":"東京都","city":"港区","address":"東京都港区麻布十番二丁目3番7号","lat":35.655342,"lon":139.735245,"年月":"202407","施設方書":"グリーンコート麻布十番701","施設開設日":"2024/7/1","施設電話番号":"","診療科目名称":"はり、きゅう"},{"name":"鍼灸サロンLino","province":"東京都","city":"港区","address":"東京都港区浜松町一丁目7番3号","lat":35.659214,"lon":139.757022,"年月":"202407","施設方書":"第一ビル3階","施設開設日":"2024/7/8","施設電話番号":"","診療科目名称":"はり、きゅう"},{"name":"HOSHI鍼灸マッサージ院","province":"東京都","city":"港区","address":"東京都港区南麻布三丁目5番20号","lat":35.650561,"lon":139.729486,"年月":"202407","施設方書":"","施設開設日":"2024/7/1","施設電話番号":"","診療科目名称":"あん摩、はり、きゅう"},{"name":"オーロラ鍼灸マッサージ治療院品川・港区店","province":"東京都","city":"港区","address":"東京都港区白金台五丁目10番16号","lat":35.64196,"lon":139.719965,"年月":"202406","旧名称":"オーロラマッサージ院品川・港区店","発生日":"2024/6/24","施設方書":"ブライズ白金台403","施設電話番号":""},{"name":"白金台睡眠治療鍼灸院","province":"東京都","city":"港区","address":"東京都港区白金台三丁目2番16号","lat":35.637691,"lon":139.727346,"年月":"202406","旧名称":"みやび鍼灸院","発生日":"2024/6/24","施設方書":"カーサデ・ベンターナ102","施設電話番号":"03-5860-2650"},{"name":"みやび整骨院","province":"東京都","city":"港区","address":"東京都港区白金台三丁目2番16号","lat":35.637691,"lon":139.727346,"年月":"202405","施設方書":"カーサデ・ベンターナ102","施設開設日":"2024/5/15","施設電話番号":"03-5860-2650","診療科目名称":"柔道整復"},{"name":"白金高輪泉岳寺前接骨院","province":"東京都","city":"港区","address":"東京都港区高輪二丁目16番52号","lat":35.639331,"lon":139.738848,"年月":"202406","施設方書":"412","施設開設日":"2024/6/14","施設電話番号":"03-3442-4738","診療科目名称":"柔道整復"},{"name":"オンダスポーツ整骨院","province":"東京都","city":"港区","address":"東京都港区麻布十番二丁目3番7号","lat":35.655342,"lon":139.735245,"年月":"202407","施設方書":"グリーンコート麻布十番701","施設開設日":"2024/7/1","施設電話番号":"","診療科目名称":"柔道整復"},{"name":"Vieep六本木整骨院","province":"東京都","city":"港区","address":"東京都港区六本木四丁目3番11号","lat":35.66607,"lon":139.733868,"年月":"202407","施設方書":"ユニハウス101","施設開設日":"2024/7/29","施設電話番号":"03-6721-0411","診療科目名称":"柔道整復"}]}