{"category":"toilet","data":[{"name":"西原自然公園","province":"東京都","city":"西東京市","address":"東京都西東京市西原町四丁目5","lat":35.737338,"lon":139.530095},{"name":"西東京いこいの森公園","province":"東京都","city":"西東京市","address":"東京都西東京市緑町三丁目2","lat":35.740953,"lon":139.540084},{"name":"谷戸せせらぎ公園","province":"東京都","city":"西東京市","address":"東京都西東京市谷戸町一丁目22","lat":35.742648,"lon":139.544628},{"name":"谷戸イチョウ公園","province":"東京都","city":"西東京市","address":"東京都西東京市谷戸町二丁目12","lat":35.747439,"lon":139.541746},{"name":"向台公園","province":"東京都","city":"西東京市","address":"東京都西東京市向台町二丁目5","lat":35.720609,"lon":139.542475},{"name":"田無市民公園","province":"東京都","city":"西東京市","address":"東京都西東京市向台町五丁目4","lat":35.721136,"lon":139.52995},{"name":"しじゅうから公園","province":"東京都","city":"西東京市","address":"東京都西東京市柳沢一丁目14","lat":35.72736,"lon":139.55368},{"name":"むくのき公園","province":"東京都","city":"西東京市","address":"東京都西東京市柳沢二丁目3","lat":35.722906,"lon":139.556239},{"name":"柳沢せせらぎ公園","province":"東京都","city":"西東京市","address":"東京都西東京市柳沢六丁目4","lat":35.727466,"lon":139.55227},{"name":"文理台公園","province":"東京都","city":"西東京市","address":"東京都西東京市東町一丁目4","lat":35.744376,"lon":139.561604},{"name":"泉小わくわく公園","province":"東京都","city":"西東京市","address":"東京都西東京市泉町三丁目6","lat":35.7411,"lon":139.553333},{"name":"ひばりが丘公園","province":"東京都","city":"西東京市","address":"東京都西東京市ひばりが丘一丁目2","lat":35.751775,"lon":139.543369},{"name":"はなみずき公園","province":"東京都","city":"西東京市","address":"東京都西東京市ひばりが丘二丁目2","lat":35.748172,"lon":139.541167},{"name":"ひばりが丘北わんぱく公園","province":"東京都","city":"西東京市","address":"東京都西東京市ひばりが丘北二丁目2","lat":35.754759,"lon":139.55199},{"name":"下保谷森林公園","province":"東京都","city":"西東京市","address":"東京都西東京市下保谷三丁目12","lat":35.753813,"lon":139.56747},{"name":"あらやしき公園","province":"東京都","city":"西東京市","address":"東京都西東京市下保谷四丁目8","lat":35.750303,"lon":139.566919},{"name":"田無駅北口公衆トイレ","province":"東京都","city":"西東京市","address":"東京都西東京市田無町二丁目1田無駅北口広場内","lat":35.728334,"lon":139.540431},{"name":"保谷駅南口公衆トイレ","province":"東京都","city":"西東京市","address":"東京都西東京市東町三丁目14保谷駅南口広場内","lat":35.748065,"lon":139.567819}]}