{"category":"wireless","data":[{"name":"田無公民館","province":"東京都","city":"西東京市","address":"東京都西東京市南町5-6-11田無公民館","lat":35.726013,"lon":139.537715},{"name":"中央図書館","province":"東京都","city":"西東京市","address":"東京都西東京市南町5-6-11中央図書館","lat":35.726013,"lon":139.537715},{"name":"保谷駅前図書館","province":"東京都","city":"西東京市","address":"東京都西東京市東町3-14-30保谷駅前図書館","lat":35.747939,"lon":139.567692},{"name":"柳沢図書館","province":"東京都","city":"西東京市","address":"東京都西東京市柳沢1-15-1柳沢図書館","lat":35.728338,"lon":139.553949},{"name":"ひばりヶ丘図書館","province":"東京都","city":"西東京市","address":"東京都西東京市ひばりが丘1-2-1ひばりヶ丘図書館","lat":35.751952,"lon":139.54371},{"name":"コール田無","province":"東京都","city":"西東京市","address":"東京都西東京市田無町3-7-2コール田無","lat":35.72916,"lon":139.543604},{"name":"保谷こもれびホール","province":"東京都","city":"西東京市","address":"東京都西東京市中町1-5-1保谷こもれびホール","lat":35.741535,"lon":139.558951},{"name":"田無駅（北口）まちテナ西東京","province":"東京都","city":"西東京市","address":"東京都西東京市田無町4-1-2田無駅まちテナ西東京","lat":35.727526,"lon":139.539369},{"name":"ASTA VISION前","province":"東京都","city":"西東京市","address":"東京都西東京市田無町2-1-1ASTAVISION前","lat":35.727939,"lon":139.540225},{"name":"佐々総合病院","province":"東京都","city":"西東京市","address":"東京都西東京市田無町4丁目24-15","lat":35.72967884,"lon":139.53871701},{"name":"芝久保浄水所","province":"東京都","city":"西東京市","address":"東京都西東京市芝久保町5丁目9-1","lat":35.7337808,"lon":139.52453742},{"name":"保谷町浄水所","province":"東京都","city":"西東京市","address":"東京都西東京市保谷町1丁目5-24","lat":35.73545076,"lon":139.55478209},{"name":"西東京栄町浄水所","province":"東京都","city":"西東京市","address":"東京都西東京市栄町2丁目7-6","lat":35.75167656,"lon":139.55222337},{"name":"田無高等学校","province":"東京都","city":"西東京市","address":"東京都西東京市向台町5丁目4-34","lat":35.72048804,"lon":139.52920996},{"name":"保谷高等学校","province":"東京都","city":"西東京市","address":"東京都西東京市住吉町5丁目8-23","lat":35.74579123,"lon":139.55540942},{"name":"田無工業高等学校","province":"東京都","city":"西東京市","address":"東京都西東京市向台町1丁目9-1","lat":35.72006073,"lon":139.54860553},{"name":"西東京市役所田無庁舎","province":"東京都","city":"西東京市","address":"東京都西東京市南町5丁目6-13","lat":35.72567651,"lon":139.53795616},{"name":"西東京市役所保谷庁舎","province":"東京都","city":"西東京市","address":"東京都西東京市中町1丁目5-1","lat":35.74129184,"lon":139.55895096}]}