{"keyword":"し尿","data":[{"name":"西東京市子ども家庭支援センター","province":"東京都","city":"西東京市","address":"西東京市住吉町6-15-6住吉会館1階","lat":35.744433,"lon":139.55129},{"name":"西東京市田無総合福祉センター","province":"東京都","city":"西東京市","address":"西東京市田無町5-5-12","lat":35.731809,"lon":139.536209},{"name":"西東京市保谷保健福祉総合センター","province":"東京都","city":"西東京市","address":"西東京市中町1-5-1","lat":35.741595,"lon":139.558951},{"name":"西東京市","province":"東京都","city":"西東京市","address":"西東京市南町5-6-13","lat":35.7254989,"lon":139.5381592},{"name":"東伏見公園","province":"東京都","city":"西東京市","address":"東京都西東京市東伏見1丁目4","lat":35.727768,"lon":139.556091},{"name":"西東京市田無公民館","province":"東京都","city":"西東京市","address":"東京都西東京市南町5丁目6-11","lat":35.72607,"lon":139.537581},{"name":"西東京市役所田無庁舎","province":"東京都","city":"西東京市","address":"東京都西東京市南町5丁目6-13","lat":35.725614,"lon":139.538513},{"name":"西東京市役所田無庁舎","province":"東京都","city":"西東京市","address":"東京都西東京市南町5丁目6-14","lat":35.726209,"lon":139.538154},{"name":"西東京市役所田無庁舎","province":"東京都","city":"西東京市","address":"東京都西東京市南町5丁目6-13","lat":35.726037,"lon":139.538384},{"name":"西東京市役所田無庁舎","province":"東京都","city":"西東京市","address":"東京都西東京市南町5丁目6-13","lat":35.725604,"lon":139.538489},{"name":"西東京市役所田無庁舎","province":"東京都","city":"西東京市","address":"東京都西東京市南町5丁目6-13","lat":35.725943,"lon":139.538347},{"name":"西東京市役所田無庁舎","province":"東京都","city":"西東京市","address":"東京都西東京市南町5丁目6-13","lat":35.725848,"lon":139.538469},{"name":"西東京市役所　保谷東分庁舎","province":"東京都","city":"西東京市","address":"東京都西東京市中町1丁目6-8","lat":35.74129,"lon":139.5599},{"name":"防災センター・保谷保健福祉総合センター","province":"東京都","city":"西東京市","address":"東京都西東京市中町1丁目5-1","lat":35.74125,"lon":139.558786},{"name":"ひばりヶ丘駅前出張所","province":"東京都","city":"西東京市","address":"東京都西東京市住吉町3丁目10-25","lat":35.750598,"lon":139.545781},{"name":"西東京市柳橋出張所","province":"東京都","city":"西東京市","address":"東京都西東京市新町1丁目4-25","lat":35.714825,"lon":139.544789},{"name":"西東京市田無第二庁舎","province":"東京都","city":"西東京市","address":"東京都西東京市南町5丁目6-13","lat":35.725697,"lon":139.538059},{"name":"西東京市柳沢公民館・柳沢図書館","province":"東京都","city":"西東京市","address":"東京都西東京市柳沢1丁目15-1","lat":35.72833,"lon":139.553825},{"name":"総合体育館","province":"東京都","city":"西東京市","address":"東京都西東京市向台町5丁目4-20","lat":35.720047,"lon":139.529979},{"name":"西東京市芝久保公民館","province":"東京都","city":"西東京市","address":"東京都西東京市芝久保町5丁目4-48","lat":35.73272,"lon":139.527989},{"name":"西東京市谷戸公民館","province":"東京都","city":"西東京市","address":"東京都西東京市谷戸町1丁目17-2","lat":35.74158,"lon":139.543673},{"name":"ひばりが丘公民館","province":"東京都","city":"西東京市","address":"東京都西東京市ひばりが丘2丁目3-4","lat":35.747357,"lon":139.540594},{"name":"西東京市保谷駅前公民館","province":"東京都","city":"西東京市","address":"東京都西東京市東町3丁目14-30","lat":35.74784,"lon":139.567686},{"name":"西東京市保谷駅前公民館","province":"東京都","city":"西東京市","address":"東京都西東京市東町3丁目14-30","lat":35.74784,"lon":139.567726},{"name":"南町地区会館","province":"東京都","city":"西東京市","address":"東京都西東京市南町2丁目21-9","lat":35.72531,"lon":139.54608},{"name":"下宿地区会館","province":"東京都","city":"西東京市","address":"東京都西東京市南町5丁目26-1","lat":35.725315,"lon":139.536242},{"name":"緑町地区会館","province":"東京都","city":"西東京市","address":"東京都西東京市緑町1丁目5-1","lat":35.735077,"lon":139.53744},{"name":"谷戸地区会館","province":"東京都","city":"西東京市","address":"東京都西東京市谷戸町1丁目9-2","lat":35.7394,"lon":139.544585},{"name":"向台地区会館","province":"東京都","city":"西東京市","address":"東京都西東京市向台町2丁目13-12","lat":35.718753,"lon":139.541015},{"name":"芝久保地区会館","province":"東京都","city":"西東京市","address":"東京都西東京市芝久保町3丁目15-10","lat":35.729362,"lon":139.521863},{"name":"東伏見コミュニティセンター","province":"東京都","city":"西東京市","address":"東京都西東京市東伏見5丁目10-22","lat":35.721898,"lon":139.557793},{"name":"ふれあいセンター","province":"東京都","city":"西東京市","address":"東京都西東京市北町1丁目3-14","lat":35.753795,"lon":139.556756},{"name":"上向台地区会館","province":"東京都","city":"西東京市","address":"東京都西東京市向台町6丁目1-14","lat":35.720609,"lon":139.527712},{"name":"上向台地区会館","province":"東京都","city":"西東京市","address":"東京都西東京市向台町6丁目1-14","lat":35.720643,"lon":139.52772},{"name":"柳橋第二市民集会所","province":"東京都","city":"西東京市","address":"東京都西東京市新町1丁目4-25","lat":35.71479,"lon":139.544861},{"name":"柳沢第三市民集会所","province":"東京都","city":"西東京市","address":"東京都西東京市柳沢3丁目4-7","lat":35.722399,"lon":139.55421},{"name":"東伏見市民集会所","province":"東京都","city":"西東京市","address":"東京都西東京市東伏見6丁目4","lat":35.725138,"lon":139.561369},{"name":"住吉町第二市民集会所","province":"東京都","city":"西東京市","address":"東京都西東京市住吉町6丁目1-5","lat":35.743464,"lon":139.551157},{"name":"富士町市民集会所","province":"東京都","city":"西東京市","address":"東京都西東京市富士町1丁目7-69","lat":35.734415,"lon":139.560831},{"name":"緑町市民集会所","province":"東京都","city":"西東京市","address":"東京都西東京市緑町3丁目8-3","lat":35.742173,"lon":139.53851},{"name":"西東京市ひばりが丘図書館","province":"東京都","city":"西東京市","address":"東京都西東京市ひばりが丘1丁目2-1","lat":35.751929,"lon":139.543617},{"name":"保谷こもれびホール","province":"東京都","city":"西東京市","address":"東京都西東京市中町1丁目5-1","lat":35.741453,"lon":139.55841},{"name":"保谷こもれびホール","province":"東京都","city":"西東京市","address":"東京都西東京市中町1丁目5-1","lat":35.741445,"lon":139.558206},{"name":"保谷こもれびホール","province":"東京都","city":"西東京市","address":"東京都西東京市中町1丁目5-1","lat":35.741402,"lon":139.558142},{"name":"保谷こもれびホール","province":"東京都","city":"西東京市","address":"東京都西東京市中町1丁目5-1","lat":35.741416,"lon":139.558162},{"name":"保谷こもれびホール","province":"東京都","city":"西東京市","address":"東京都西東京市中町1丁目5-1","lat":35.741737,"lon":139.558138},{"name":"コール田無","province":"東京都","city":"西東京市","address":"東京都西東京市田無町3丁目7-2","lat":35.729095,"lon":139.543738},{"name":"コール田無","province":"東京都","city":"西東京市","address":"東京都西東京市田無町3丁目7-2","lat":35.729141,"lon":139.543719},{"name":"コール田無","province":"東京都","city":"西東京市","address":"東京都西東京市田無町3丁目7-2","lat":35.729086,"lon":139.54374},{"name":"下保谷森林公園","province":"東京都","city":"西東京市","address":"東京都西東京市下保谷3丁目12","lat":35.753981,"lon":139.567115},{"name":"ひばりが丘北わんぱく公園","province":"東京都","city":"西東京市","address":"東京都西東京市ひばりが丘北2丁目2","lat":35.754856,"lon":139.551958},{"name":"あらやしき公園","province":"東京都","city":"西東京市","address":"東京都西東京市下保谷4丁目8","lat":35.749949,"lon":139.566911},{"name":"文理台公園","province":"東京都","city":"西東京市","address":"東京都西東京市東町1丁目4","lat":35.74436,"lon":139.56208},{"name":"谷戸せせらぎ公園","province":"東京都","city":"西東京市","address":"東京都西東京市谷戸町1丁目22","lat":35.743017,"lon":139.543702},{"name":"西東京いこいの森公園","province":"東京都","city":"西東京市","address":"東京都西東京市緑町3丁目2","lat":35.7405,"lon":139.541232},{"name":"西東京いこいの森公園","province":"東京都","city":"西東京市","address":"東京都西東京市緑町3丁目2","lat":35.740074,"lon":139.539605},{"name":"西東京いこいの森公園","province":"東京都","city":"西東京市","address":"東京都西東京市緑町3丁目2","lat":35.741384,"lon":139.539339},{"name":"しじゅうから公園","province":"東京都","city":"西東京市","address":"東京都西東京市柳沢1丁目14","lat":35.727331,"lon":139.554072},{"name":"むくのき公園","province":"東京都","city":"西東京市","address":"東京都西東京市柳沢2丁目3","lat":35.723147,"lon":139.556264},{"name":"柳沢せせらぎ公園","province":"東京都","city":"西東京市","address":"東京都西東京市柳沢6丁目4","lat":35.727234,"lon":139.552277},{"name":"西東京市立向台公園","province":"東京都","city":"西東京市","address":"東京都西東京市向台町2丁目5","lat":35.720387,"lon":139.542531},{"name":"田無市民公園","province":"東京都","city":"西東京市","address":"東京都西東京市向台町5丁目4","lat":35.720632,"lon":139.530962},{"name":"泉小わくわく公園","province":"東京都","city":"西東京市","address":"東京都西東京市泉町3丁目6","lat":35.740912,"lon":139.553545},{"name":"田無駅北口公衆トイレ","province":"東京都","city":"西東京市","address":"東京都西東京市田無町2丁目3","lat":35.727557,"lon":139.540697},{"name":"保谷駅南口公衆トイレ","province":"東京都","city":"西東京市","address":"東京都西東京市東町3丁目14","lat":35.747832,"lon":139.567339},{"name":"西東京市障害者総合支援センター","province":"東京都","city":"西東京市","address":"東京都西東京市田無町4丁目17-14","lat":35.729394,"lon":139.535747},{"name":"下保谷福祉会館","province":"東京都","city":"西東京市","address":"東京都西東京市下保谷4丁目3-20","lat":35.750467,"lon":139.565037},{"name":"新町福祉会館","province":"東京都","city":"西東京市","address":"東京都西東京市新町5丁目2-7","lat":35.712936,"lon":139.536387},{"name":"富士町福祉会館","province":"東京都","city":"西東京市","address":"東京都西東京市富士町6丁目6-13","lat":35.730081,"lon":139.556885},{"name":"ひばりが丘福祉会館","province":"東京都","city":"西東京市","address":"東京都西東京市ひばりが丘2丁目8-27","lat":35.748531,"lon":139.537804},{"name":"田無総合福祉センター","province":"東京都","city":"西東京市","address":"東京都西東京市田無町5丁目5-12","lat":35.731803,"lon":139.53626},{"name":"田無総合福祉センター","province":"東京都","city":"西東京市","address":"東京都西東京市田無町5丁目5-12","lat":35.73171,"lon":139.536328},{"name":"田無総合福祉センター","province":"東京都","city":"西東京市","address":"東京都西東京市田無町5丁目5-12","lat":35.73193,"lon":139.536367},{"name":"老人憩いの家おあしす","province":"東京都","city":"西東京市","address":"東京都西東京市南町3丁目18-40","lat":35.722752,"lon":139.543077},{"name":"西東京市住吉会館ルピナス","province":"東京都","city":"西東京市","address":"東京都西東京市住吉町6丁目15-6","lat":35.7445,"lon":139.551258},{"name":"西東京市住吉会館ルピナス","province":"東京都","city":"西東京市","address":"東京都西東京市住吉町6丁目1","lat":35.74404,"lon":139.551197},{"name":"西東京市住吉会館ルピナス","province":"東京都","city":"西東京市","address":"東京都西東京市住吉町6丁目15-6","lat":35.74444,"lon":139.551338},{"name":"西東京市住吉会館ルピナス","province":"東京都","city":"西東京市","address":"東京都西東京市住吉町6丁目15-6","lat":35.74442,"lon":139.551373},{"name":"スポーツセンター","province":"東京都","city":"西東京市","address":"東京都西東京市中町1丁目5-1","lat":35.74227,"lon":139.55899},{"name":"スポーツセンター","province":"東京都","city":"西東京市","address":"東京都西東京市中町1丁目5-1","lat":35.742324,"lon":139.558931},{"name":"スポーツセンター","province":"東京都","city":"西東京市","address":"東京都西東京市中町1丁目5-1","lat":35.742302,"lon":139.558922},{"name":"武道場","province":"東京都","city":"西東京市","address":"東京都西東京市東町2丁目4-13","lat":35.746547,"lon":139.560891},{"name":"芝久保児童館","province":"東京都","city":"西東京市","address":"東京都西東京市芝久保町1丁目16-18","lat":35.724688,"lon":139.525676},{"name":"南町スポーツ・文化交流センター「きらっと」","province":"東京都","city":"西東京市","address":"東京都西東京市南町5丁目6-5","lat":35.725622,"lon":139.537386},{"name":"南町スポーツ・文化交流センター「きらっと」","province":"東京都","city":"西東京市","address":"東京都西東京市南町5丁目6-5","lat":35.725559,"lon":139.537431},{"name":"南町スポーツ・文化交流センター「きらっと」","province":"東京都","city":"西東京市","address":"東京都西東京市南町5丁目6-5","lat":35.725824,"lon":139.537371},{"name":"向台運動場","province":"東京都","city":"西東京市","address":"東京都西東京市向台町5丁目4","lat":35.721628,"lon":139.528501},{"name":"ひばりが丘総合運動場「ひばりアム」","province":"東京都","city":"西東京市","address":"東京都西東京市ひばりが丘3丁目1","lat":35.745694,"lon":139.537566},{"name":"北原児童館","province":"東京都","city":"西東京市","address":"東京都西東京市北原町1丁目16-2","lat":35.733686,"lon":139.544662},{"name":"ひばりが丘児童センター","province":"東京都","city":"西東京市","address":"東京都西東京市ひばりが丘3丁目1-25","lat":35.746218,"lon":139.537092},{"name":"保谷柳沢児童館","province":"東京都","city":"西東京市","address":"東京都西東京市柳沢2丁目6-11","lat":35.723438,"lon":139.556206},{"name":"下保谷児童センター","province":"東京都","city":"西東京市","address":"東京都西東京市芝久保町1丁目16-18","lat":35.724688,"lon":139.525676},{"name":"下保谷児童センター","province":"東京都","city":"西東京市","address":"東京都西東京市下保谷4丁目3-20","lat":35.750467,"lon":139.565037},{"name":"中町児童館","province":"東京都","city":"西東京市","address":"東京都西東京市下保谷4丁目3-20","lat":35.750467,"lon":139.565037},{"name":"ひばりが丘北児童センター","province":"東京都","city":"西東京市","address":"東京都西東京市下保谷4丁目3-20","lat":35.750467,"lon":139.565037},{"name":"西原北児童館","province":"東京都","city":"西東京市","address":"東京都西東京市中町4丁目4-1","lat":35.737692,"lon":139.564309},{"name":"田無柳沢児童センター","province":"東京都","city":"西東京市","address":"東京都西東京市ひばりが丘北1丁目6-8","lat":35.752367,"lon":139.54944},{"name":"地域子育て支援センター「すみよし」","province":"東京都","city":"西東京市","address":"東京都西東京市住吉町3丁目14-14","lat":35.749701,"lon":139.549378},{"name":"高齢者センターきらら","province":"東京都","city":"西東京市","address":"東京都西東京市富士町1丁目7-69","lat":35.734344,"lon":139.560617},{"name":"エコプラザ西東京","province":"東京都","city":"西東京市","address":"東京都西東京市柳沢2丁目6-11","lat":35.723489,"lon":139.556212},{"name":"エコプラザ西東京","province":"東京都","city":"西東京市","address":"東京都西東京市泉町3丁目12-35","lat":35.741184,"lon":139.556836},{"name":"したのや遺跡","province":"東京都","city":"西東京市","address":"東京都西東京市東伏見6丁目4","lat":35.724832,"lon":139.562137},{"name":"有限会社　藤式典","province":"東京都","city":"西東京市","address":"東京都西東京市ひばりが丘北4丁目1-6","lat":35.75254294,"lon":139.54391288},{"name":"田中葬祭　株式会社","province":"東京都","city":"西東京市","address":"東京都西東京市田無町4丁目18-9","lat":35.72988431,"lon":139.53613666},{"name":"有限会社　緑葬儀社","province":"東京都","city":"西東京市","address":"東京都西東京市田無町5丁目7-51","lat":35.73038153,"lon":139.53829757},{"name":"株式会社　あさひセレモニー","province":"東京都","city":"西東京市","address":"東京都西東京市住吉町6丁目1-18","lat":35.74367749,"lon":139.55134593},{"name":"株式会社　ドリーミー","province":"東京都","city":"西東京市","address":"東京都西東京市芝久保町5丁目10-12","lat":35.73285309,"lon":139.52324035},{"name":"有限会社　蓮華","province":"東京都","city":"西東京市","address":"東京都西東京市芝久保町3丁目15-29","lat":35.73005896,"lon":139.52239058},{"name":"株式会社　コムウェル","province":"東京都","city":"西東京市","address":"東京都西東京市柳沢6丁目10-7","lat":35.72708495,"lon":139.55010785},{"name":"株式会社　東京都民葬祭（とみん葬祭）","province":"東京都","city":"西東京市","address":"東京都西東京市北原町3丁目5-19","lat":35.7359532,"lon":139.54290248},{"name":"西東京市田無総合福祉センター","province":"東京都","city":"西東京市","address":"東京都西東京市田無町5丁目5-12","lat":35.73181186,"lon":139.5361949},{"name":"西東京市保谷保健福祉総合センター","province":"東京都","city":"西東京市","address":"東京都西東京市中町1丁目5-1","lat":35.74129184,"lon":139.55895096},{"name":"西東京市田無総合福祉センター","province":"東京都","city":"西東京市","address":"西東京市田無町5-5-12","lat":35.73098,"lon":139.53619},{"name":"西東京市保谷保健福祉総合センター","province":"東京都","city":"西東京市","address":"西東京市中町1-5-1","lat":35.74174,"lon":139.55884},{"name":"西東京市子ども家庭支援センター","province":"東京都","city":"西東京市","address":"西東京市住吉町6-15-6住吉会館2階","lat":35.74402,"lon":139.55215},{"name":"西東京市子ども家庭支援センター","province":"東京都","city":"西東京市","address":"西東京市住吉町6-15-6住吉会館1階","lat":35.74402,"lon":139.55216},{"name":"西東京市選挙管理委員会","province":"東京都","city":"西東京市","address":"西東京市南町5-6-13西東京市役所田無庁舎","lat":35.725681,"lon":139.53837},{"name":"西東京市役所保谷庁舎","province":"東京都","city":"西東京市","address":"西東京市中町1-5-1","lat":35.741595,"lon":139.558951},{"name":"田無警察署","province":"東京都","city":"西東京市","address":"西東京市田無町5-2-5","lat":35.72999,"lon":139.5386},{"name":"西東京消防署","province":"東京都","city":"西東京市","address":"西東京市中町1-1-6","lat":35.73898,"lon":139.5553},{"name":"市民向台運動場","province":"東京都","city":"西東京市","address":"西東京市向台町5-4","lat":35.72121,"lon":139.53},{"name":"西東京市子ども家庭支援センター","province":"東京都","city":"西東京市","address":"西東京市住吉町6-15-6住吉会館1階","lat":35.744433,"lon":139.55129},{"name":"西東京市田無総合福祉センター","province":"東京都","city":"西東京市","address":"西東京市田無町5-5-12","lat":35.731809,"lon":139.536209},{"name":"西東京市保谷保健福祉総合センター","province":"東京都","city":"西東京市","address":"西東京市中町1-5-1","lat":35.741595,"lon":139.558951},{"name":"西東京市","province":"東京都","city":"西東京市","address":"西東京市南町5-6-13","lat":35.7254989,"lon":139.5381592},{"name":"東伏見公園","province":"東京都","city":"西東京市","address":"東京都西東京市東伏見1丁目4","lat":35.727768,"lon":139.556091},{"name":"西東京市田無公民館","province":"東京都","city":"西東京市","address":"東京都西東京市南町5丁目6-11","lat":35.72607,"lon":139.537581},{"name":"西東京市役所田無庁舎","province":"東京都","city":"西東京市","address":"東京都西東京市南町5丁目6-13","lat":35.725614,"lon":139.538513},{"name":"西東京市役所田無庁舎","province":"東京都","city":"西東京市","address":"東京都西東京市南町5丁目6-14","lat":35.726209,"lon":139.538154},{"name":"西東京市役所田無庁舎","province":"東京都","city":"西東京市","address":"東京都西東京市南町5丁目6-13","lat":35.726037,"lon":139.538384},{"name":"西東京市役所田無庁舎","province":"東京都","city":"西東京市","address":"東京都西東京市南町5丁目6-13","lat":35.725604,"lon":139.538489},{"name":"西東京市役所田無庁舎","province":"東京都","city":"西東京市","address":"東京都西東京市南町5丁目6-13","lat":35.725943,"lon":139.538347},{"name":"西東京市役所田無庁舎","province":"東京都","city":"西東京市","address":"東京都西東京市南町5丁目6-13","lat":35.725848,"lon":139.538469},{"name":"西東京市役所　保谷東分庁舎","province":"東京都","city":"西東京市","address":"東京都西東京市中町1丁目6-8","lat":35.74129,"lon":139.5599},{"name":"防災センター・保谷保健福祉総合センター","province":"東京都","city":"西東京市","address":"東京都西東京市中町1丁目5-1","lat":35.74125,"lon":139.558786},{"name":"ひばりヶ丘駅前出張所","province":"東京都","city":"西東京市","address":"東京都西東京市住吉町3丁目10-25","lat":35.750598,"lon":139.545781},{"name":"西東京市柳橋出張所","province":"東京都","city":"西東京市","address":"東京都西東京市新町1丁目4-25","lat":35.714825,"lon":139.544789},{"name":"西東京市田無第二庁舎","province":"東京都","city":"西東京市","address":"東京都西東京市南町5丁目6-13","lat":35.725697,"lon":139.538059},{"name":"西東京市柳沢公民館・柳沢図書館","province":"東京都","city":"西東京市","address":"東京都西東京市柳沢1丁目15-1","lat":35.72833,"lon":139.553825},{"name":"総合体育館","province":"東京都","city":"西東京市","address":"東京都西東京市向台町5丁目4-20","lat":35.720047,"lon":139.529979},{"name":"西東京市芝久保公民館","province":"東京都","city":"西東京市","address":"東京都西東京市芝久保町5丁目4-48","lat":35.73272,"lon":139.527989},{"name":"西東京市谷戸公民館","province":"東京都","city":"西東京市","address":"東京都西東京市谷戸町1丁目17-2","lat":35.74158,"lon":139.543673},{"name":"ひばりが丘公民館","province":"東京都","city":"西東京市","address":"東京都西東京市ひばりが丘2丁目3-4","lat":35.747357,"lon":139.540594},{"name":"西東京市保谷駅前公民館","province":"東京都","city":"西東京市","address":"東京都西東京市東町3丁目14-30","lat":35.74784,"lon":139.567686},{"name":"西東京市保谷駅前公民館","province":"東京都","city":"西東京市","address":"東京都西東京市東町3丁目14-30","lat":35.74784,"lon":139.567726},{"name":"南町地区会館","province":"東京都","city":"西東京市","address":"東京都西東京市南町2丁目21-9","lat":35.72531,"lon":139.54608},{"name":"下宿地区会館","province":"東京都","city":"西東京市","address":"東京都西東京市南町5丁目26-1","lat":35.725315,"lon":139.536242},{"name":"緑町地区会館","province":"東京都","city":"西東京市","address":"東京都西東京市緑町1丁目5-1","lat":35.735077,"lon":139.53744},{"name":"谷戸地区会館","province":"東京都","city":"西東京市","address":"東京都西東京市谷戸町1丁目9-2","lat":35.7394,"lon":139.544585},{"name":"向台地区会館","province":"東京都","city":"西東京市","address":"東京都西東京市向台町2丁目13-12","lat":35.718753,"lon":139.541015},{"name":"芝久保地区会館","province":"東京都","city":"西東京市","address":"東京都西東京市芝久保町3丁目15-10","lat":35.729362,"lon":139.521863},{"name":"東伏見コミュニティセンター","province":"東京都","city":"西東京市","address":"東京都西東京市東伏見5丁目10-22","lat":35.721898,"lon":139.557793},{"name":"ふれあいセンター","province":"東京都","city":"西東京市","address":"東京都西東京市北町1丁目3-14","lat":35.753795,"lon":139.556756},{"name":"上向台地区会館","province":"東京都","city":"西東京市","address":"東京都西東京市向台町6丁目1-14","lat":35.720609,"lon":139.527712},{"name":"上向台地区会館","province":"東京都","city":"西東京市","address":"東京都西東京市向台町6丁目1-14","lat":35.720643,"lon":139.52772},{"name":"柳橋第二市民集会所","province":"東京都","city":"西東京市","address":"東京都西東京市新町1丁目4-25","lat":35.71479,"lon":139.544861},{"name":"柳沢第三市民集会所","province":"東京都","city":"西東京市","address":"東京都西東京市柳沢3丁目4-7","lat":35.722399,"lon":139.55421},{"name":"東伏見市民集会所","province":"東京都","city":"西東京市","address":"東京都西東京市東伏見6丁目4","lat":35.725138,"lon":139.561369},{"name":"住吉町第二市民集会所","province":"東京都","city":"西東京市","address":"東京都西東京市住吉町6丁目1-5","lat":35.743464,"lon":139.551157},{"name":"富士町市民集会所","province":"東京都","city":"西東京市","address":"東京都西東京市富士町1丁目7-69","lat":35.734415,"lon":139.560831},{"name":"緑町市民集会所","province":"東京都","city":"西東京市","address":"東京都西東京市緑町3丁目8-3","lat":35.742173,"lon":139.53851},{"name":"西東京市ひばりが丘図書館","province":"東京都","city":"西東京市","address":"東京都西東京市ひばりが丘1丁目2-1","lat":35.751929,"lon":139.543617},{"name":"保谷こもれびホール","province":"東京都","city":"西東京市","address":"東京都西東京市中町1丁目5-1","lat":35.741453,"lon":139.55841},{"name":"保谷こもれびホール","province":"東京都","city":"西東京市","address":"東京都西東京市中町1丁目5-1","lat":35.741445,"lon":139.558206},{"name":"保谷こもれびホール","province":"東京都","city":"西東京市","address":"東京都西東京市中町1丁目5-1","lat":35.741402,"lon":139.558142},{"name":"保谷こもれびホール","province":"東京都","city":"西東京市","address":"東京都西東京市中町1丁目5-1","lat":35.741416,"lon":139.558162},{"name":"保谷こもれびホール","province":"東京都","city":"西東京市","address":"東京都西東京市中町1丁目5-1","lat":35.741737,"lon":139.558138},{"name":"コール田無","province":"東京都","city":"西東京市","address":"東京都西東京市田無町3丁目7-2","lat":35.729095,"lon":139.543738},{"name":"コール田無","province":"東京都","city":"西東京市","address":"東京都西東京市田無町3丁目7-2","lat":35.729141,"lon":139.543719},{"name":"コール田無","province":"東京都","city":"西東京市","address":"東京都西東京市田無町3丁目7-2","lat":35.729086,"lon":139.54374},{"name":"下保谷森林公園","province":"東京都","city":"西東京市","address":"東京都西東京市下保谷3丁目12","lat":35.753981,"lon":139.567115},{"name":"ひばりが丘北わんぱく公園","province":"東京都","city":"西東京市","address":"東京都西東京市ひばりが丘北2丁目2","lat":35.754856,"lon":139.551958},{"name":"あらやしき公園","province":"東京都","city":"西東京市","address":"東京都西東京市下保谷4丁目8","lat":35.749949,"lon":139.566911},{"name":"文理台公園","province":"東京都","city":"西東京市","address":"東京都西東京市東町1丁目4","lat":35.74436,"lon":139.56208},{"name":"谷戸せせらぎ公園","province":"東京都","city":"西東京市","address":"東京都西東京市谷戸町1丁目22","lat":35.743017,"lon":139.543702},{"name":"西東京いこいの森公園","province":"東京都","city":"西東京市","address":"東京都西東京市緑町3丁目2","lat":35.7405,"lon":139.541232},{"name":"西東京いこいの森公園","province":"東京都","city":"西東京市","address":"東京都西東京市緑町3丁目2","lat":35.740074,"lon":139.539605},{"name":"西東京いこいの森公園","province":"東京都","city":"西東京市","address":"東京都西東京市緑町3丁目2","lat":35.741384,"lon":139.539339},{"name":"しじゅうから公園","province":"東京都","city":"西東京市","address":"東京都西東京市柳沢1丁目14","lat":35.727331,"lon":139.554072},{"name":"むくのき公園","province":"東京都","city":"西東京市","address":"東京都西東京市柳沢2丁目3","lat":35.723147,"lon":139.556264},{"name":"柳沢せせらぎ公園","province":"東京都","city":"西東京市","address":"東京都西東京市柳沢6丁目4","lat":35.727234,"lon":139.552277},{"name":"西東京市立向台公園","province":"東京都","city":"西東京市","address":"東京都西東京市向台町2丁目5","lat":35.720387,"lon":139.542531},{"name":"田無市民公園","province":"東京都","city":"西東京市","address":"東京都西東京市向台町5丁目4","lat":35.720632,"lon":139.530962},{"name":"泉小わくわく公園","province":"東京都","city":"西東京市","address":"東京都西東京市泉町3丁目6","lat":35.740912,"lon":139.553545},{"name":"田無駅北口公衆トイレ","province":"東京都","city":"西東京市","address":"東京都西東京市田無町2丁目3","lat":35.727557,"lon":139.540697},{"name":"保谷駅南口公衆トイレ","province":"東京都","city":"西東京市","address":"東京都西東京市東町3丁目14","lat":35.747832,"lon":139.567339},{"name":"西東京市障害者総合支援センター","province":"東京都","city":"西東京市","address":"東京都西東京市田無町4丁目17-14","lat":35.729394,"lon":139.535747},{"name":"下保谷福祉会館","province":"東京都","city":"西東京市","address":"東京都西東京市下保谷4丁目3-20","lat":35.750467,"lon":139.565037},{"name":"新町福祉会館","province":"東京都","city":"西東京市","address":"東京都西東京市新町5丁目2-7","lat":35.712936,"lon":139.536387},{"name":"富士町福祉会館","province":"東京都","city":"西東京市","address":"東京都西東京市富士町6丁目6-13","lat":35.730081,"lon":139.556885},{"name":"ひばりが丘福祉会館","province":"東京都","city":"西東京市","address":"東京都西東京市ひばりが丘2丁目8-27","lat":35.748531,"lon":139.537804},{"name":"田無総合福祉センター","province":"東京都","city":"西東京市","address":"東京都西東京市田無町5丁目5-12","lat":35.731803,"lon":139.53626},{"name":"田無総合福祉センター","province":"東京都","city":"西東京市","address":"東京都西東京市田無町5丁目5-12","lat":35.73171,"lon":139.536328},{"name":"田無総合福祉センター","province":"東京都","city":"西東京市","address":"東京都西東京市田無町5丁目5-12","lat":35.73193,"lon":139.536367},{"name":"老人憩いの家おあしす","province":"東京都","city":"西東京市","address":"東京都西東京市南町3丁目18-40","lat":35.722752,"lon":139.543077},{"name":"西東京市住吉会館ルピナス","province":"東京都","city":"西東京市","address":"東京都西東京市住吉町6丁目15-6","lat":35.7445,"lon":139.551258},{"name":"西東京市住吉会館ルピナス","province":"東京都","city":"西東京市","address":"東京都西東京市住吉町6丁目1","lat":35.74404,"lon":139.551197},{"name":"西東京市住吉会館ルピナス","province":"東京都","city":"西東京市","address":"東京都西東京市住吉町6丁目15-6","lat":35.74444,"lon":139.551338},{"name":"西東京市住吉会館ルピナス","province":"東京都","city":"西東京市","address":"東京都西東京市住吉町6丁目15-6","lat":35.74442,"lon":139.551373},{"name":"スポーツセンター","province":"東京都","city":"西東京市","address":"東京都西東京市中町1丁目5-1","lat":35.74227,"lon":139.55899},{"name":"スポーツセンター","province":"東京都","city":"西東京市","address":"東京都西東京市中町1丁目5-1","lat":35.742324,"lon":139.558931},{"name":"スポーツセンター","province":"東京都","city":"西東京市","address":"東京都西東京市中町1丁目5-1","lat":35.742302,"lon":139.558922},{"name":"武道場","province":"東京都","city":"西東京市","address":"東京都西東京市東町2丁目4-13","lat":35.746547,"lon":139.560891},{"name":"芝久保児童館","province":"東京都","city":"西東京市","address":"東京都西東京市芝久保町1丁目16-18","lat":35.724688,"lon":139.525676},{"name":"南町スポーツ・文化交流センター「きらっと」","province":"東京都","city":"西東京市","address":"東京都西東京市南町5丁目6-5","lat":35.725622,"lon":139.537386},{"name":"南町スポーツ・文化交流センター「きらっと」","province":"東京都","city":"西東京市","address":"東京都西東京市南町5丁目6-5","lat":35.725559,"lon":139.537431},{"name":"南町スポーツ・文化交流センター「きらっと」","province":"東京都","city":"西東京市","address":"東京都西東京市南町5丁目6-5","lat":35.725824,"lon":139.537371},{"name":"向台運動場","province":"東京都","city":"西東京市","address":"東京都西東京市向台町5丁目4","lat":35.721628,"lon":139.528501},{"name":"ひばりが丘総合運動場「ひばりアム」","province":"東京都","city":"西東京市","address":"東京都西東京市ひばりが丘3丁目1","lat":35.745694,"lon":139.537566},{"name":"北原児童館","province":"東京都","city":"西東京市","address":"東京都西東京市北原町1丁目16-2","lat":35.733686,"lon":139.544662},{"name":"ひばりが丘児童センター","province":"東京都","city":"西東京市","address":"東京都西東京市ひばりが丘3丁目1-25","lat":35.746218,"lon":139.537092},{"name":"保谷柳沢児童館","province":"東京都","city":"西東京市","address":"東京都西東京市柳沢2丁目6-11","lat":35.723438,"lon":139.556206},{"name":"下保谷児童センター","province":"東京都","city":"西東京市","address":"東京都西東京市芝久保町1丁目16-18","lat":35.724688,"lon":139.525676},{"name":"下保谷児童センター","province":"東京都","city":"西東京市","address":"東京都西東京市下保谷4丁目3-20","lat":35.750467,"lon":139.565037},{"name":"中町児童館","province":"東京都","city":"西東京市","address":"東京都西東京市下保谷4丁目3-20","lat":35.750467,"lon":139.565037},{"name":"ひばりが丘北児童センター","province":"東京都","city":"西東京市","address":"東京都西東京市下保谷4丁目3-20","lat":35.750467,"lon":139.565037},{"name":"西原北児童館","province":"東京都","city":"西東京市","address":"東京都西東京市中町4丁目4-1","lat":35.737692,"lon":139.564309},{"name":"田無柳沢児童センター","province":"東京都","city":"西東京市","address":"東京都西東京市ひばりが丘北1丁目6-8","lat":35.752367,"lon":139.54944},{"name":"地域子育て支援センター「すみよし」","province":"東京都","city":"西東京市","address":"東京都西東京市住吉町3丁目14-14","lat":35.749701,"lon":139.549378},{"name":"高齢者センターきらら","province":"東京都","city":"西東京市","address":"東京都西東京市富士町1丁目7-69","lat":35.734344,"lon":139.560617},{"name":"エコプラザ西東京","province":"東京都","city":"西東京市","address":"東京都西東京市柳沢2丁目6-11","lat":35.723489,"lon":139.556212},{"name":"エコプラザ西東京","province":"東京都","city":"西東京市","address":"東京都西東京市泉町3丁目12-35","lat":35.741184,"lon":139.556836},{"name":"したのや遺跡","province":"東京都","city":"西東京市","address":"東京都西東京市東伏見6丁目4","lat":35.724832,"lon":139.562137},{"name":"有限会社　藤式典","province":"東京都","city":"西東京市","address":"東京都西東京市ひばりが丘北4丁目1-6","lat":35.75254294,"lon":139.54391288},{"name":"田中葬祭　株式会社","province":"東京都","city":"西東京市","address":"東京都西東京市田無町4丁目18-9","lat":35.72988431,"lon":139.53613666},{"name":"有限会社　緑葬儀社","province":"東京都","city":"西東京市","address":"東京都西東京市田無町5丁目7-51","lat":35.73038153,"lon":139.53829757},{"name":"株式会社　あさひセレモニー","province":"東京都","city":"西東京市","address":"東京都西東京市住吉町6丁目1-18","lat":35.74367749,"lon":139.55134593},{"name":"株式会社　ドリーミー","province":"東京都","city":"西東京市","address":"東京都西東京市芝久保町5丁目10-12","lat":35.73285309,"lon":139.52324035},{"name":"有限会社　蓮華","province":"東京都","city":"西東京市","address":"東京都西東京市芝久保町3丁目15-29","lat":35.73005896,"lon":139.52239058},{"name":"株式会社　コムウェル","province":"東京都","city":"西東京市","address":"東京都西東京市柳沢6丁目10-7","lat":35.72708495,"lon":139.55010785},{"name":"株式会社　東京都民葬祭（とみん葬祭）","province":"東京都","city":"西東京市","address":"東京都西東京市北原町3丁目5-19","lat":35.7359532,"lon":139.54290248},{"name":"西東京市田無総合福祉センター","province":"東京都","city":"西東京市","address":"東京都西東京市田無町5丁目5-12","lat":35.73181186,"lon":139.5361949},{"name":"西東京市保谷保健福祉総合センター","province":"東京都","city":"西東京市","address":"東京都西東京市中町1丁目5-1","lat":35.74129184,"lon":139.55895096},{"name":"西東京市田無総合福祉センター","province":"東京都","city":"西東京市","address":"西東京市田無町5-5-12","lat":35.73098,"lon":139.53619},{"name":"西東京市保谷保健福祉総合センター","province":"東京都","city":"西東京市","address":"西東京市中町1-5-1","lat":35.74174,"lon":139.55884},{"name":"西東京市子ども家庭支援センター","province":"東京都","city":"西東京市","address":"西東京市住吉町6-15-6住吉会館2階","lat":35.74402,"lon":139.55215},{"name":"西東京市子ども家庭支援センター","province":"東京都","city":"西東京市","address":"西東京市住吉町6-15-6住吉会館1階","lat":35.74402,"lon":139.55216},{"name":"西東京市選挙管理委員会","province":"東京都","city":"西東京市","address":"西東京市南町5-6-13西東京市役所田無庁舎","lat":35.725681,"lon":139.53837},{"name":"西東京市子ども家庭支援センター","province":"東京都","city":"西東京市","address":"西東京市住吉町6-15-6住吉会館1階","lat":35.744433,"lon":139.55129},{"name":"西東京市田無総合福祉センター","province":"東京都","city":"西東京市","address":"西東京市田無町5-5-12","lat":35.731809,"lon":139.536209},{"name":"西東京市保谷保健福祉総合センター","province":"東京都","city":"西東京市","address":"西東京市中町1-5-1","lat":35.741595,"lon":139.558951},{"name":"西東京市","province":"東京都","city":"西東京市","address":"西東京市南町5-6-13","lat":35.7254989,"lon":139.5381592},{"name":"有限会社　藤式典","province":"東京都","city":"西東京市","address":"東京都西東京市ひばりが丘北4丁目1-6","lat":35.75254294,"lon":139.54391288},{"name":"田中葬祭　株式会社","province":"東京都","city":"西東京市","address":"東京都西東京市田無町4丁目18-9","lat":35.72988431,"lon":139.53613666},{"name":"有限会社　緑葬儀社","province":"東京都","city":"西東京市","address":"東京都西東京市田無町5丁目7-51","lat":35.73038153,"lon":139.53829757},{"name":"株式会社　あさひセレモニー","province":"東京都","city":"西東京市","address":"東京都西東京市住吉町6丁目1-18","lat":35.74367749,"lon":139.55134593},{"name":"株式会社　ドリーミー","province":"東京都","city":"西東京市","address":"東京都西東京市芝久保町5丁目10-12","lat":35.73285309,"lon":139.52324035},{"name":"有限会社　蓮華","province":"東京都","city":"西東京市","address":"東京都西東京市芝久保町3丁目15-29","lat":35.73005896,"lon":139.52239058},{"name":"株式会社　コムウェル","province":"東京都","city":"西東京市","address":"東京都西東京市柳沢6丁目10-7","lat":35.72708495,"lon":139.55010785},{"name":"株式会社　東京都民葬祭（とみん葬祭）","province":"東京都","city":"西東京市","address":"東京都西東京市北原町3丁目5-19","lat":35.7359532,"lon":139.54290248},{"name":"西東京市田無総合福祉センター","province":"東京都","city":"西東京市","address":"東京都西東京市田無町5丁目5-12","lat":35.73181186,"lon":139.5361949},{"name":"西東京市保谷保健福祉総合センター","province":"東京都","city":"西東京市","address":"東京都西東京市中町1丁目5-1","lat":35.74129184,"lon":139.55895096},{"name":"西東京市田無総合福祉センター","province":"東京都","city":"西東京市","address":"西東京市田無町5-5-12","lat":35.73098,"lon":139.53619},{"name":"西東京市保谷保健福祉総合センター","province":"東京都","city":"西東京市","address":"西東京市中町1-5-1","lat":35.74174,"lon":139.55884},{"name":"西東京市子ども家庭支援センター","province":"東京都","city":"西東京市","address":"西東京市住吉町6-15-6住吉会館2階","lat":35.74402,"lon":139.55215},{"name":"西東京市子ども家庭支援センター","province":"東京都","city":"西東京市","address":"西東京市住吉町6-15-6住吉会館1階","lat":35.74402,"lon":139.55216},{"name":"西東京市選挙管理委員会","province":"東京都","city":"西東京市","address":"西東京市南町5-6-13西東京市役所田無庁舎","lat":35.725681,"lon":139.53837},{"name":"西東京市田無総合福祉センター","province":"東京都","city":"西東京市","address":"西東京市田無町5-5-12","lat":35.731809,"lon":139.536209},{"name":"西東京市保谷保健福祉総合センター","province":"東京都","city":"西東京市","address":"西東京市中町1-5-1","lat":35.741595,"lon":139.558951},{"name":"西東京市","province":"東京都","city":"西東京市","address":"西東京市南町5-6-13","lat":35.7254989,"lon":139.5381592},{"name":"有限会社　藤式典","province":"東京都","city":"西東京市","address":"東京都西東京市ひばりが丘北4丁目1-6","lat":35.75254294,"lon":139.54391288},{"name":"田中葬祭　株式会社","province":"東京都","city":"西東京市","address":"東京都西東京市田無町4丁目18-9","lat":35.72988431,"lon":139.53613666},{"name":"有限会社　緑葬儀社","province":"東京都","city":"西東京市","address":"東京都西東京市田無町5丁目7-51","lat":35.73038153,"lon":139.53829757},{"name":"株式会社　あさひセレモニー","province":"東京都","city":"西東京市","address":"東京都西東京市住吉町6丁目1-18","lat":35.74367749,"lon":139.55134593},{"name":"株式会社　ドリーミー","province":"東京都","city":"西東京市","address":"東京都西東京市芝久保町5丁目10-12","lat":35.73285309,"lon":139.52324035},{"name":"有限会社　蓮華","province":"東京都","city":"西東京市","address":"東京都西東京市芝久保町3丁目15-29","lat":35.73005896,"lon":139.52239058},{"name":"株式会社　コムウェル","province":"東京都","city":"西東京市","address":"東京都西東京市柳沢6丁目10-7","lat":35.72708495,"lon":139.55010785},{"name":"株式会社　東京都民葬祭（とみん葬祭）","province":"東京都","city":"西東京市","address":"東京都西東京市北原町3丁目5-19","lat":35.7359532,"lon":139.54290248},{"name":"西東京市田無総合福祉センター","province":"東京都","city":"西東京市","address":"東京都西東京市田無町5丁目5-12","lat":35.73181186,"lon":139.5361949},{"name":"西東京市保谷保健福祉総合センター","province":"東京都","city":"西東京市","address":"東京都西東京市中町1丁目5-1","lat":35.74129184,"lon":139.55895096},{"name":"西東京市田無総合福祉センター","province":"東京都","city":"西東京市","address":"西東京市田無町5-5-12","lat":35.73098,"lon":139.53619},{"name":"西東京市保谷保健福祉総合センター","province":"東京都","city":"西東京市","address":"西東京市中町1-5-1","lat":35.74174,"lon":139.55884},{"name":"西東京市選挙管理委員会","province":"東京都","city":"西東京市","address":"西東京市南町5-6-13西東京市役所田無庁舎","lat":35.725681,"lon":139.53837},{"name":"西東京市田無総合福祉センター","province":"東京都","city":"西東京市","address":"西東京市田無町5-5-12","lat":35.731809,"lon":139.536209},{"name":"西東京市保谷保健福祉総合センター","province":"東京都","city":"西東京市","address":"西東京市中町1-5-1","lat":35.741595,"lon":139.558951},{"name":"西東京市","province":"東京都","city":"西東京市","address":"西東京市南町5-6-13","lat":35.7254989,"lon":139.5381592},{"name":"有限会社　藤式典","province":"東京都","city":"西東京市","address":"東京都西東京市ひばりが丘北4丁目1-6","lat":35.75254294,"lon":139.54391288},{"name":"田中葬祭　株式会社","province":"東京都","city":"西東京市","address":"東京都西東京市田無町4丁目18-9","lat":35.72988431,"lon":139.53613666},{"name":"有限会社　緑葬儀社","province":"東京都","city":"西東京市","address":"東京都西東京市田無町5丁目7-51","lat":35.73038153,"lon":139.53829757},{"name":"株式会社　あさひセレモニー","province":"東京都","city":"西東京市","address":"東京都西東京市住吉町6丁目1-18","lat":35.74367749,"lon":139.55134593},{"name":"株式会社　ドリーミー","province":"東京都","city":"西東京市","address":"東京都西東京市芝久保町5丁目10-12","lat":35.73285309,"lon":139.52324035},{"name":"有限会社　蓮華","province":"東京都","city":"西東京市","address":"東京都西東京市芝久保町3丁目15-29","lat":35.73005896,"lon":139.52239058},{"name":"株式会社　コムウェル","province":"東京都","city":"西東京市","address":"東京都西東京市柳沢6丁目10-7","lat":35.72708495,"lon":139.55010785},{"name":"株式会社　東京都民葬祭（とみん葬祭）","province":"東京都","city":"西東京市","address":"東京都西東京市北原町3丁目5-19","lat":35.7359532,"lon":139.54290248},{"name":"西東京市田無総合福祉センター","province":"東京都","city":"西東京市","address":"東京都西東京市田無町5丁目5-12","lat":35.73181186,"lon":139.5361949},{"name":"西東京市保谷保健福祉総合センター","province":"東京都","city":"西東京市","address":"東京都西東京市中町1丁目5-1","lat":35.74129184,"lon":139.55895096},{"name":"西東京市田無総合福祉センター","province":"東京都","city":"西東京市","address":"西東京市田無町5-5-12","lat":35.73098,"lon":139.53619},{"name":"西東京市保谷保健福祉総合センター","province":"東京都","city":"西東京市","address":"西東京市中町1-5-1","lat":35.74174,"lon":139.55884},{"name":"西東京市選挙管理委員会","province":"東京都","city":"西東京市","address":"西東京市南町5-6-13西東京市役所田無庁舎","lat":35.725681,"lon":139.53837},{"name":"西東京市田無総合福祉センター","province":"東京都","city":"西東京市","address":"西東京市田無町5-5-12","lat":35.731809,"lon":139.536209},{"name":"西東京市保谷保健福祉総合センター","province":"東京都","city":"西東京市","address":"西東京市中町1-5-1","lat":35.741595,"lon":139.558951},{"name":"西東京市","province":"東京都","city":"西東京市","address":"西東京市南町5-6-13","lat":35.7254989,"lon":139.5381592},{"name":"西東京市田無総合福祉センター","province":"東京都","city":"西東京市","address":"東京都西東京市田無町5丁目5-12","lat":35.73181186,"lon":139.5361949},{"name":"西東京市保谷保健福祉総合センター","province":"東京都","city":"西東京市","address":"東京都西東京市中町1丁目5-1","lat":35.74129184,"lon":139.55895096},{"name":"西東京市田無総合福祉センター","province":"東京都","city":"西東京市","address":"西東京市田無町5-5-12","lat":35.73098,"lon":139.53619},{"name":"西東京市保谷保健福祉総合センター","province":"東京都","city":"西東京市","address":"西東京市中町1-5-1","lat":35.74174,"lon":139.55884},{"name":"西東京市選挙管理委員会","province":"東京都","city":"西東京市","address":"西東京市南町5-6-13西東京市役所田無庁舎","lat":35.725681,"lon":139.53837},{"name":"西東京市田無総合福祉センター","province":"東京都","city":"西東京市","address":"西東京市田無町5-5-12","lat":35.731809,"lon":139.536209},{"name":"西東京市保谷保健福祉総合センター","province":"東京都","city":"西東京市","address":"西東京市中町1-5-1","lat":35.741595,"lon":139.558951},{"name":"西東京市田無総合福祉センター","province":"東京都","city":"西東京市","address":"東京都西東京市田無町5丁目5-12","lat":35.73181186,"lon":139.5361949},{"name":"西東京市保谷保健福祉総合センター","province":"東京都","city":"西東京市","address":"東京都西東京市中町1丁目5-1","lat":35.74129184,"lon":139.55895096},{"name":"西東京市田無総合福祉センター","province":"東京都","city":"西東京市","address":"西東京市田無町5-5-12","lat":35.73098,"lon":139.53619},{"name":"西東京市保谷保健福祉総合センター","province":"東京都","city":"西東京市","address":"西東京市中町1-5-1","lat":35.74174,"lon":139.55884},{"name":"西東京市選挙管理委員会","province":"東京都","city":"西東京市","address":"西東京市南町5-6-13西東京市役所田無庁舎","lat":35.725681,"lon":139.53837},{"name":"西東京市田無総合福祉センター","province":"東京都","city":"西東京市","address":"西東京市田無町5-5-12","lat":35.731809,"lon":139.536209},{"name":"西東京市保谷保健福祉総合センター","province":"東京都","city":"西東京市","address":"西東京市中町1-5-1","lat":35.741595,"lon":139.558951},{"name":"西東京市田無総合福祉センター","province":"東京都","city":"西東京市","address":"東京都西東京市田無町5丁目5-12","lat":35.73181186,"lon":139.5361949},{"name":"西東京市保谷保健福祉総合センター","province":"東京都","city":"西東京市","address":"東京都西東京市中町1丁目5-1","lat":35.74129184,"lon":139.55895096},{"name":"西東京市田無総合福祉センター","province":"東京都","city":"西東京市","address":"西東京市田無町5-5-12","lat":35.73098,"lon":139.53619},{"name":"西東京市保谷保健福祉総合センター","province":"東京都","city":"西東京市","address":"西東京市中町1-5-1","lat":35.74174,"lon":139.55884},{"name":"西東京市選挙管理委員会","province":"東京都","city":"西東京市","address":"西東京市南町5-6-13西東京市役所田無庁舎","lat":35.725681,"lon":139.53837},{"name":"西東京市田無総合福祉センター","province":"東京都","city":"西東京市","address":"西東京市田無町5-5-12","lat":35.731809,"lon":139.536209},{"name":"西東京市保谷保健福祉総合センター","province":"東京都","city":"西東京市","address":"西東京市中町1-5-1","lat":35.741595,"lon":139.558951},{"name":"西東京市田無総合福祉センター","province":"東京都","city":"西東京市","address":"東京都西東京市田無町5丁目5-12","lat":35.73181186,"lon":139.5361949},{"name":"西東京市保谷保健福祉総合センター","province":"東京都","city":"西東京市","address":"東京都西東京市中町1丁目5-1","lat":35.74129184,"lon":139.55895096},{"name":"西東京市田無総合福祉センター","province":"東京都","city":"西東京市","address":"西東京市田無町5-5-12","lat":35.73098,"lon":139.53619},{"name":"西東京市保谷保健福祉総合センター","province":"東京都","city":"西東京市","address":"西東京市中町1-5-1","lat":35.74174,"lon":139.55884},{"name":"西東京市選挙管理委員会","province":"東京都","city":"西東京市","address":"西東京市南町5-6-13西東京市役所田無庁舎","lat":35.725681,"lon":139.53837},{"name":"西東京市田無総合福祉センター","province":"東京都","city":"西東京市","address":"西東京市田無町5-5-12","lat":35.731809,"lon":139.536209},{"name":"西東京市保谷保健福祉総合センター","province":"東京都","city":"西東京市","address":"西東京市中町1-5-1","lat":35.741595,"lon":139.558951},{"name":"西東京市田無総合福祉センター","province":"東京都","city":"西東京市","address":"東京都西東京市田無町5丁目5-12","lat":35.73181186,"lon":139.5361949},{"name":"西東京市保谷保健福祉総合センター","province":"東京都","city":"西東京市","address":"東京都西東京市中町1丁目5-1","lat":35.74129184,"lon":139.55895096},{"name":"西東京市田無総合福祉センター","province":"東京都","city":"西東京市","address":"西東京市田無町5-5-12","lat":35.73098,"lon":139.53619},{"name":"西東京市保谷保健福祉総合センター","province":"東京都","city":"西東京市","address":"西東京市中町1-5-1","lat":35.74174,"lon":139.55884},{"name":"西東京市選挙管理委員会","province":"東京都","city":"西東京市","address":"西東京市南町5-6-13西東京市役所田無庁舎","lat":35.725681,"lon":139.53837},{"name":"西東京市田無総合福祉センター","province":"東京都","city":"西東京市","address":"西東京市田無町5-5-12","lat":35.731809,"lon":139.536209},{"name":"西東京市保谷保健福祉総合センター","province":"東京都","city":"西東京市","address":"西東京市中町1-5-1","lat":35.741595,"lon":139.558951},{"name":"西東京市田無総合福祉センター","province":"東京都","city":"西東京市","address":"東京都西東京市田無町5丁目5-12","lat":35.73181186,"lon":139.5361949},{"name":"西東京市保谷保健福祉総合センター","province":"東京都","city":"西東京市","address":"東京都西東京市中町1丁目5-1","lat":35.74129184,"lon":139.55895096},{"name":"西東京市田無総合福祉センター","province":"東京都","city":"西東京市","address":"西東京市田無町5-5-12","lat":35.73098,"lon":139.53619},{"name":"西東京市保谷保健福祉総合センター","province":"東京都","city":"西東京市","address":"西東京市中町1-5-1","lat":35.74174,"lon":139.55884},{"name":"西東京市選挙管理委員会","province":"東京都","city":"西東京市","address":"西東京市南町5-6-13西東京市役所田無庁舎","lat":35.725681,"lon":139.53837},{"name":"西東京市田無総合福祉センター","province":"東京都","city":"西東京市","address":"西東京市田無町5-5-12","lat":35.731809,"lon":139.536209},{"name":"西東京市保谷保健福祉総合センター","province":"東京都","city":"西東京市","address":"西東京市中町1-5-1","lat":35.741595,"lon":139.558951},{"name":"西東京市田無総合福祉センター","province":"東京都","city":"西東京市","address":"東京都西東京市田無町5丁目5-12","lat":35.73181186,"lon":139.5361949},{"name":"西東京市保谷保健福祉総合センター","province":"東京都","city":"西東京市","address":"東京都西東京市中町1丁目5-1","lat":35.74129184,"lon":139.55895096},{"name":"西東京市田無総合福祉センター","province":"東京都","city":"西東京市","address":"西東京市田無町5-5-12","lat":35.73098,"lon":139.53619},{"name":"西東京市保谷保健福祉総合センター","province":"東京都","city":"西東京市","address":"西東京市中町1-5-1","lat":35.74174,"lon":139.55884},{"name":"西東京市選挙管理委員会","province":"東京都","city":"西東京市","address":"西東京市南町5-6-13西東京市役所田無庁舎","lat":35.725681,"lon":139.53837},{"name":"西東京市田無総合福祉センター","province":"東京都","city":"西東京市","address":"西東京市田無町5-5-12","lat":35.731809,"lon":139.536209},{"name":"西東京市保谷保健福祉総合センター","province":"東京都","city":"西東京市","address":"西東京市中町1-5-1","lat":35.741595,"lon":139.558951},{"name":"西東京市田無総合福祉センター","province":"東京都","city":"西東京市","address":"東京都西東京市田無町5丁目5-12","lat":35.73181186,"lon":139.5361949},{"name":"西東京市保谷保健福祉総合センター","province":"東京都","city":"西東京市","address":"東京都西東京市中町1丁目5-1","lat":35.74129184,"lon":139.55895096},{"name":"西東京市田無総合福祉センター","province":"東京都","city":"西東京市","address":"西東京市田無町5-5-12","lat":35.73098,"lon":139.53619},{"name":"西東京市保谷保健福祉総合センター","province":"東京都","city":"西東京市","address":"西東京市中町1-5-1","lat":35.74174,"lon":139.55884},{"name":"西東京市選挙管理委員会","province":"東京都","city":"西東京市","address":"西東京市南町5-6-13西東京市役所田無庁舎","lat":35.725681,"lon":139.53837},{"name":"西東京市田無総合福祉センター","province":"東京都","city":"西東京市","address":"西東京市田無町5-5-12","lat":35.731809,"lon":139.536209},{"name":"西東京市保谷保健福祉総合センター","province":"東京都","city":"西東京市","address":"西東京市中町1-5-1","lat":35.741595,"lon":139.558951},{"name":"西東京市田無総合福祉センター","province":"東京都","city":"西東京市","address":"東京都西東京市田無町5丁目5-12","lat":35.73181186,"lon":139.5361949},{"name":"西東京市保谷保健福祉総合センター","province":"東京都","city":"西東京市","address":"東京都西東京市中町1丁目5-1","lat":35.74129184,"lon":139.55895096},{"name":"西東京市田無総合福祉センター","province":"東京都","city":"西東京市","address":"西東京市田無町5-5-12","lat":35.73098,"lon":139.53619},{"name":"西東京市保谷保健福祉総合センター","province":"東京都","city":"西東京市","address":"西東京市中町1-5-1","lat":35.74174,"lon":139.55884},{"name":"西東京市選挙管理委員会","province":"東京都","city":"西東京市","address":"西東京市南町5-6-13西東京市役所田無庁舎","lat":35.725681,"lon":139.53837},{"name":"西東京市田無総合福祉センター","province":"東京都","city":"西東京市","address":"西東京市田無町5-5-12","lat":35.731809,"lon":139.536209},{"name":"西東京市保谷保健福祉総合センター","province":"東京都","city":"西東京市","address":"西東京市中町1-5-1","lat":35.741595,"lon":139.558951},{"name":"西東京市田無総合福祉センター","province":"東京都","city":"西東京市","address":"東京都西東京市田無町5丁目5-12","lat":35.73181186,"lon":139.5361949},{"name":"西東京市保谷保健福祉総合センター","province":"東京都","city":"西東京市","address":"東京都西東京市中町1丁目5-1","lat":35.74129184,"lon":139.55895096},{"name":"西東京市田無総合福祉センター","province":"東京都","city":"西東京市","address":"西東京市田無町5-5-12","lat":35.73098,"lon":139.53619},{"name":"西東京市保谷保健福祉総合センター","province":"東京都","city":"西東京市","address":"西東京市中町1-5-1","lat":35.74174,"lon":139.55884},{"name":"西東京市選挙管理委員会","province":"東京都","city":"西東京市","address":"西東京市南町5-6-13西東京市役所田無庁舎","lat":35.725681,"lon":139.53837},{"name":"西東京市田無総合福祉センター","province":"東京都","city":"西東京市","address":"西東京市田無町5-5-12","lat":35.731809,"lon":139.536209},{"name":"西東京市保谷保健福祉総合センター","province":"東京都","city":"西東京市","address":"西東京市中町1-5-1","lat":35.741595,"lon":139.558951},{"name":"西東京市田無総合福祉センター","province":"東京都","city":"西東京市","address":"東京都西東京市田無町5丁目5-12","lat":35.73181186,"lon":139.5361949},{"name":"西東京市保谷保健福祉総合センター","province":"東京都","city":"西東京市","address":"東京都西東京市中町1丁目5-1","lat":35.74129184,"lon":139.55895096},{"name":"西東京市田無総合福祉センター","province":"東京都","city":"西東京市","address":"西東京市田無町5-5-12","lat":35.73098,"lon":139.53619},{"name":"西東京市保谷保健福祉総合センター","province":"東京都","city":"西東京市","address":"西東京市中町1-5-1","lat":35.74174,"lon":139.55884},{"name":"西東京市選挙管理委員会","province":"東京都","city":"西東京市","address":"西東京市南町5-6-13西東京市役所田無庁舎","lat":35.725681,"lon":139.53837},{"name":"西東京市田無総合福祉センター","province":"東京都","city":"西東京市","address":"西東京市田無町5-5-12","lat":35.731809,"lon":139.536209},{"name":"西東京市保谷保健福祉総合センター","province":"東京都","city":"西東京市","address":"西東京市中町1-5-1","lat":35.741595,"lon":139.558951},{"name":"西東京市田無総合福祉センター","province":"東京都","city":"西東京市","address":"東京都西東京市田無町5丁目5-12","lat":35.73181186,"lon":139.5361949},{"name":"西東京市保谷保健福祉総合センター","province":"東京都","city":"西東京市","address":"東京都西東京市中町1丁目5-1","lat":35.74129184,"lon":139.55895096},{"name":"西東京市田無総合福祉センター","province":"東京都","city":"西東京市","address":"西東京市田無町5-5-12","lat":35.73098,"lon":139.53619},{"name":"西東京市保谷保健福祉総合センター","province":"東京都","city":"西東京市","address":"西東京市中町1-5-1","lat":35.74174,"lon":139.55884},{"name":"西東京市選挙管理委員会","province":"東京都","city":"西東京市","address":"西東京市南町5-6-13西東京市役所田無庁舎","lat":35.725681,"lon":139.53837},{"name":"西東京市田無総合福祉センター","province":"東京都","city":"西東京市","address":"西東京市田無町5-5-12","lat":35.731809,"lon":139.536209},{"name":"西東京市保谷保健福祉総合センター","province":"東京都","city":"西東京市","address":"西東京市中町1-5-1","lat":35.741595,"lon":139.558951},{"name":"西東京市田無総合福祉センター","province":"東京都","city":"西東京市","address":"東京都西東京市田無町5丁目5-12","lat":35.73181186,"lon":139.5361949},{"name":"西東京市保谷保健福祉総合センター","province":"東京都","city":"西東京市","address":"東京都西東京市中町1丁目5-1","lat":35.74129184,"lon":139.55895096},{"name":"西東京市田無総合福祉センター","province":"東京都","city":"西東京市","address":"西東京市田無町5-5-12","lat":35.73098,"lon":139.53619},{"name":"西東京市保谷保健福祉総合センター","province":"東京都","city":"西東京市","address":"西東京市中町1-5-1","lat":35.74174,"lon":139.55884},{"name":"西東京市選挙管理委員会","province":"東京都","city":"西東京市","address":"西東京市南町5-6-13西東京市役所田無庁舎","lat":35.725681,"lon":139.53837},{"name":"西東京市田無総合福祉センター","province":"東京都","city":"西東京市","address":"西東京市田無町5-5-12","lat":35.731809,"lon":139.536209},{"name":"西東京市保谷保健福祉総合センター","province":"東京都","city":"西東京市","address":"西東京市中町1-5-1","lat":35.741595,"lon":139.558951},{"name":"西東京市田無総合福祉センター","province":"東京都","city":"西東京市","address":"東京都西東京市田無町5丁目5-12","lat":35.73181186,"lon":139.5361949},{"name":"西東京市保谷保健福祉総合センター","province":"東京都","city":"西東京市","address":"東京都西東京市中町1丁目5-1","lat":35.74129184,"lon":139.55895096},{"name":"西東京市田無総合福祉センター","province":"東京都","city":"西東京市","address":"西東京市田無町5-5-12","lat":35.73098,"lon":139.53619},{"name":"西東京市保谷保健福祉総合センター","province":"東京都","city":"西東京市","address":"西東京市中町1-5-1","lat":35.74174,"lon":139.55884},{"name":"西東京市選挙管理委員会","province":"東京都","city":"西東京市","address":"西東京市南町5-6-13西東京市役所田無庁舎","lat":35.725681,"lon":139.53837},{"name":"西東京市田無総合福祉センター","province":"東京都","city":"西東京市","address":"西東京市田無町5-5-12","lat":35.731809,"lon":139.536209},{"name":"西東京市保谷保健福祉総合センター","province":"東京都","city":"西東京市","address":"西東京市中町1-5-1","lat":35.741595,"lon":139.558951},{"name":"西東京市田無総合福祉センター","province":"東京都","city":"西東京市","address":"東京都西東京市田無町5丁目5-12","lat":35.73181186,"lon":139.5361949},{"name":"西東京市保谷保健福祉総合センター","province":"東京都","city":"西東京市","address":"東京都西東京市中町1丁目5-1","lat":35.74129184,"lon":139.55895096},{"name":"西東京市田無総合福祉センター","province":"東京都","city":"西東京市","address":"西東京市田無町5-5-12","lat":35.73098,"lon":139.53619},{"name":"西東京市保谷保健福祉総合センター","province":"東京都","city":"西東京市","address":"西東京市中町1-5-1","lat":35.74174,"lon":139.55884},{"name":"西東京市選挙管理委員会","province":"東京都","city":"西東京市","address":"西東京市南町5-6-13西東京市役所田無庁舎","lat":35.725681,"lon":139.53837},{"name":"西東京市田無総合福祉センター","province":"東京都","city":"西東京市","address":"西東京市田無町5-5-12","lat":35.731809,"lon":139.536209},{"name":"西東京市保谷保健福祉総合センター","province":"東京都","city":"西東京市","address":"西東京市中町1-5-1","lat":35.741595,"lon":139.558951},{"name":"西東京市田無総合福祉センター","province":"東京都","city":"西東京市","address":"東京都西東京市田無町5丁目5-12","lat":35.73181186,"lon":139.5361949},{"name":"西東京市保谷保健福祉総合センター","province":"東京都","city":"西東京市","address":"東京都西東京市中町1丁目5-1","lat":35.74129184,"lon":139.55895096},{"name":"西東京市田無総合福祉センター","province":"東京都","city":"西東京市","address":"西東京市田無町5-5-12","lat":35.73098,"lon":139.53619},{"name":"西東京市保谷保健福祉総合センター","province":"東京都","city":"西東京市","address":"西東京市中町1-5-1","lat":35.74174,"lon":139.55884},{"name":"西東京市選挙管理委員会","province":"東京都","city":"西東京市","address":"西東京市南町5-6-13西東京市役所田無庁舎","lat":35.725681,"lon":139.53837},{"name":"西東京市田無総合福祉センター","province":"東京都","city":"西東京市","address":"西東京市田無町5-5-12","lat":35.731809,"lon":139.536209},{"name":"西東京市保谷保健福祉総合センター","province":"東京都","city":"西東京市","address":"西東京市中町1-5-1","lat":35.741595,"lon":139.558951},{"name":"西東京市田無総合福祉センター","province":"東京都","city":"西東京市","address":"東京都西東京市田無町5丁目5-12","lat":35.73181186,"lon":139.5361949},{"name":"西東京市保谷保健福祉総合センター","province":"東京都","city":"西東京市","address":"東京都西東京市中町1丁目5-1","lat":35.74129184,"lon":139.55895096},{"name":"西東京市田無総合福祉センター","province":"東京都","city":"西東京市","address":"西東京市田無町5-5-12","lat":35.73098,"lon":139.53619},{"name":"西東京市保谷保健福祉総合センター","province":"東京都","city":"西東京市","address":"西東京市中町1-5-1","lat":35.74174,"lon":139.55884},{"name":"西東京市選挙管理委員会","province":"東京都","city":"西東京市","address":"西東京市南町5-6-13西東京市役所田無庁舎","lat":35.725681,"lon":139.53837},{"name":"西東京市田無総合福祉センター","province":"東京都","city":"西東京市","address":"西東京市田無町5-5-12","lat":35.731809,"lon":139.536209},{"name":"西東京市保谷保健福祉総合センター","province":"東京都","city":"西東京市","address":"西東京市中町1-5-1","lat":35.741595,"lon":139.558951},{"name":"西東京市田無総合福祉センター","province":"東京都","city":"西東京市","address":"東京都西東京市田無町5丁目5-12","lat":35.73181186,"lon":139.5361949},{"name":"西東京市保谷保健福祉総合センター","province":"東京都","city":"西東京市","address":"東京都西東京市中町1丁目5-1","lat":35.74129184,"lon":139.55895096},{"name":"西東京市田無総合福祉センター","province":"東京都","city":"西東京市","address":"西東京市田無町5-5-12","lat":35.73098,"lon":139.53619},{"name":"西東京市保谷保健福祉総合センター","province":"東京都","city":"西東京市","address":"西東京市中町1-5-1","lat":35.74174,"lon":139.55884},{"name":"西東京市選挙管理委員会","province":"東京都","city":"西東京市","address":"西東京市南町5-6-13西東京市役所田無庁舎","lat":35.725681,"lon":139.53837},{"name":"西東京市田無総合福祉センター","province":"東京都","city":"西東京市","address":"西東京市田無町5-5-12","lat":35.731809,"lon":139.536209},{"name":"西東京市保谷保健福祉総合センター","province":"東京都","city":"西東京市","address":"西東京市中町1-5-1","lat":35.741595,"lon":139.558951},{"name":"西東京市田無総合福祉センター","province":"東京都","city":"西東京市","address":"東京都西東京市田無町5丁目5-12","lat":35.73181186,"lon":139.5361949},{"name":"西東京市保谷保健福祉総合センター","province":"東京都","city":"西東京市","address":"東京都西東京市中町1丁目5-1","lat":35.74129184,"lon":139.55895096},{"name":"西東京市田無総合福祉センター","province":"東京都","city":"西東京市","address":"西東京市田無町5-5-12","lat":35.73098,"lon":139.53619},{"name":"西東京市保谷保健福祉総合センター","province":"東京都","city":"西東京市","address":"西東京市中町1-5-1","lat":35.74174,"lon":139.55884},{"name":"西東京市選挙管理委員会","province":"東京都","city":"西東京市","address":"西東京市南町5-6-13西東京市役所田無庁舎","lat":35.725681,"lon":139.53837},{"name":"西東京市田無総合福祉センター","province":"東京都","city":"西東京市","address":"西東京市田無町5-5-12","lat":35.731809,"lon":139.536209},{"name":"西東京市保谷保健福祉総合センター","province":"東京都","city":"西東京市","address":"西東京市中町1-5-1","lat":35.741595,"lon":139.558951},{"name":"西東京市田無総合福祉センター","province":"東京都","city":"西東京市","address":"東京都西東京市田無町5丁目5-12","lat":35.73181186,"lon":139.5361949},{"name":"西東京市保谷保健福祉総合センター","province":"東京都","city":"西東京市","address":"東京都西東京市中町1丁目5-1","lat":35.74129184,"lon":139.55895096},{"name":"西東京市田無総合福祉センター","province":"東京都","city":"西東京市","address":"西東京市田無町5-5-12","lat":35.73098,"lon":139.53619},{"name":"西東京市保谷保健福祉総合センター","province":"東京都","city":"西東京市","address":"西東京市中町1-5-1","lat":35.74174,"lon":139.55884},{"name":"西東京市選挙管理委員会","province":"東京都","city":"西東京市","address":"西東京市南町5-6-13西東京市役所田無庁舎","lat":35.725681,"lon":139.53837},{"name":"西東京市田無総合福祉センター","province":"東京都","city":"西東京市","address":"西東京市田無町5-5-12","lat":35.731809,"lon":139.536209},{"name":"西東京市保谷保健福祉総合センター","province":"東京都","city":"西東京市","address":"西東京市中町1-5-1","lat":35.741595,"lon":139.558951},{"name":"西東京市田無総合福祉センター","province":"東京都","city":"西東京市","address":"東京都西東京市田無町5丁目5-12","lat":35.73181186,"lon":139.5361949},{"name":"西東京市保谷保健福祉総合センター","province":"東京都","city":"西東京市","address":"東京都西東京市中町1丁目5-1","lat":35.74129184,"lon":139.55895096},{"name":"西東京市田無総合福祉センター","province":"東京都","city":"西東京市","address":"西東京市田無町5-5-12","lat":35.73098,"lon":139.53619},{"name":"西東京市保谷保健福祉総合センター","province":"東京都","city":"西東京市","address":"西東京市中町1-5-1","lat":35.74174,"lon":139.55884},{"name":"西東京市選挙管理委員会","province":"東京都","city":"西東京市","address":"西東京市南町5-6-13西東京市役所田無庁舎","lat":35.725681,"lon":139.53837},{"name":"西東京市田無総合福祉センター","province":"東京都","city":"西東京市","address":"西東京市田無町5-5-12","lat":35.731809,"lon":139.536209},{"name":"西東京市保谷保健福祉総合センター","province":"東京都","city":"西東京市","address":"西東京市中町1-5-1","lat":35.741595,"lon":139.558951},{"name":"西東京市田無総合福祉センター","province":"東京都","city":"西東京市","address":"東京都西東京市田無町5丁目5-12","lat":35.73181186,"lon":139.5361949},{"name":"西東京市保谷保健福祉総合センター","province":"東京都","city":"西東京市","address":"東京都西東京市中町1丁目5-1","lat":35.74129184,"lon":139.55895096},{"name":"西東京市田無総合福祉センター","province":"東京都","city":"西東京市","address":"西東京市田無町5-5-12","lat":35.73098,"lon":139.53619},{"name":"西東京市保谷保健福祉総合センター","province":"東京都","city":"西東京市","address":"西東京市中町1-5-1","lat":35.74174,"lon":139.55884},{"name":"西東京市選挙管理委員会","province":"東京都","city":"西東京市","address":"西東京市南町5-6-13西東京市役所田無庁舎","lat":35.725681,"lon":139.53837},{"name":"西東京市田無総合福祉センター","province":"東京都","city":"西東京市","address":"西東京市田無町5-5-12","lat":35.731809,"lon":139.536209},{"name":"西東京市保谷保健福祉総合センター","province":"東京都","city":"西東京市","address":"西東京市中町1-5-1","lat":35.741595,"lon":139.558951},{"name":"西東京市田無総合福祉センター","province":"東京都","city":"西東京市","address":"東京都西東京市田無町5丁目5-12","lat":35.73181186,"lon":139.5361949},{"name":"西東京市保谷保健福祉総合センター","province":"東京都","city":"西東京市","address":"東京都西東京市中町1丁目5-1","lat":35.74129184,"lon":139.55895096},{"name":"西東京市田無総合福祉センター","province":"東京都","city":"西東京市","address":"西東京市田無町5-5-12","lat":35.73098,"lon":139.53619},{"name":"西東京市保谷保健福祉総合センター","province":"東京都","city":"西東京市","address":"西東京市中町1-5-1","lat":35.74174,"lon":139.55884},{"name":"西東京市選挙管理委員会","province":"東京都","city":"西東京市","address":"西東京市南町5-6-13西東京市役所田無庁舎","lat":35.725681,"lon":139.53837},{"name":"西東京市田無総合福祉センター","province":"東京都","city":"西東京市","address":"西東京市田無町5-5-12","lat":35.731809,"lon":139.536209},{"name":"西東京市保谷保健福祉総合センター","province":"東京都","city":"西東京市","address":"西東京市中町1-5-1","lat":35.741595,"lon":139.558951},{"name":"西東京市田無総合福祉センター","province":"東京都","city":"西東京市","address":"東京都西東京市田無町5丁目5-12","lat":35.73181186,"lon":139.5361949},{"name":"西東京市保谷保健福祉総合センター","province":"東京都","city":"西東京市","address":"東京都西東京市中町1丁目5-1","lat":35.74129184,"lon":139.55895096},{"name":"西東京市田無総合福祉センター","province":"東京都","city":"西東京市","address":"西東京市田無町5-5-12","lat":35.73098,"lon":139.53619},{"name":"西東京市保谷保健福祉総合センター","province":"東京都","city":"西東京市","address":"西東京市中町1-5-1","lat":35.74174,"lon":139.55884},{"name":"西東京市選挙管理委員会","province":"東京都","city":"西東京市","address":"西東京市南町5-6-13西東京市役所田無庁舎","lat":35.725681,"lon":139.53837},{"name":"西東京市田無総合福祉センター","province":"東京都","city":"西東京市","address":"西東京市田無町5-5-12","lat":35.731809,"lon":139.536209},{"name":"西東京市保谷保健福祉総合センター","province":"東京都","city":"西東京市","address":"西東京市中町1-5-1","lat":35.741595,"lon":139.558951},{"name":"西東京市田無総合福祉センター","province":"東京都","city":"西東京市","address":"東京都西東京市田無町5丁目5-12","lat":35.73181186,"lon":139.5361949},{"name":"西東京市保谷保健福祉総合センター","province":"東京都","city":"西東京市","address":"東京都西東京市中町1丁目5-1","lat":35.74129184,"lon":139.55895096},{"name":"西東京市田無総合福祉センター","province":"東京都","city":"西東京市","address":"西東京市田無町5-5-12","lat":35.73098,"lon":139.53619},{"name":"西東京市保谷保健福祉総合センター","province":"東京都","city":"西東京市","address":"西東京市中町1-5-1","lat":35.74174,"lon":139.55884},{"name":"西東京市選挙管理委員会","province":"東京都","city":"西東京市","address":"西東京市南町5-6-13西東京市役所田無庁舎","lat":35.725681,"lon":139.53837},{"name":"西東京市田無総合福祉センター","province":"東京都","city":"西東京市","address":"西東京市田無町5-5-12","lat":35.731809,"lon":139.536209},{"name":"西東京市保谷保健福祉総合センター","province":"東京都","city":"西東京市","address":"西東京市中町1-5-1","lat":35.741595,"lon":139.558951},{"name":"西東京市田無総合福祉センター","province":"東京都","city":"西東京市","address":"東京都西東京市田無町5丁目5-12","lat":35.73181186,"lon":139.5361949},{"name":"西東京市保谷保健福祉総合センター","province":"東京都","city":"西東京市","address":"東京都西東京市中町1丁目5-1","lat":35.74129184,"lon":139.55895096},{"name":"西東京市田無総合福祉センター","province":"東京都","city":"西東京市","address":"西東京市田無町5-5-12","lat":35.73098,"lon":139.53619},{"name":"西東京市保谷保健福祉総合センター","province":"東京都","city":"西東京市","address":"西東京市中町1-5-1","lat":35.74174,"lon":139.55884},{"name":"西東京市選挙管理委員会","province":"東京都","city":"西東京市","address":"西東京市南町5-6-13西東京市役所田無庁舎","lat":35.725681,"lon":139.53837},{"name":"西東京市田無総合福祉センター","province":"東京都","city":"西東京市","address":"西東京市田無町5-5-12","lat":35.731809,"lon":139.536209},{"name":"西東京市保谷保健福祉総合センター","province":"東京都","city":"西東京市","address":"西東京市中町1-5-1","lat":35.741595,"lon":139.558951},{"name":"西東京市田無総合福祉センター","province":"東京都","city":"西東京市","address":"東京都西東京市田無町5丁目5-12","lat":35.73181186,"lon":139.5361949},{"name":"西東京市保谷保健福祉総合センター","province":"東京都","city":"西東京市","address":"東京都西東京市中町1丁目5-1","lat":35.74129184,"lon":139.55895096},{"name":"西東京市田無総合福祉センター","province":"東京都","city":"西東京市","address":"西東京市田無町5-5-12","lat":35.73098,"lon":139.53619},{"name":"西東京市保谷保健福祉総合センター","province":"東京都","city":"西東京市","address":"西東京市中町1-5-1","lat":35.74174,"lon":139.55884},{"name":"西東京市選挙管理委員会","province":"東京都","city":"西東京市","address":"西東京市南町5-6-13西東京市役所田無庁舎","lat":35.725681,"lon":139.53837},{"name":"西東京市田無総合福祉センター","province":"東京都","city":"西東京市","address":"西東京市田無町5-5-12","lat":35.731809,"lon":139.536209},{"name":"西東京市保谷保健福祉総合センター","province":"東京都","city":"西東京市","address":"西東京市中町1-5-1","lat":35.741595,"lon":139.558951},{"name":"西東京市田無総合福祉センター","province":"東京都","city":"西東京市","address":"東京都西東京市田無町5丁目5-12","lat":35.73181186,"lon":139.5361949},{"name":"西東京市保谷保健福祉総合センター","province":"東京都","city":"西東京市","address":"東京都西東京市中町1丁目5-1","lat":35.74129184,"lon":139.55895096},{"name":"西東京市田無総合福祉センター","province":"東京都","city":"西東京市","address":"西東京市田無町5-5-12","lat":35.73098,"lon":139.53619},{"name":"西東京市保谷保健福祉総合センター","province":"東京都","city":"西東京市","address":"西東京市中町1-5-1","lat":35.74174,"lon":139.55884},{"name":"西東京市選挙管理委員会","province":"東京都","city":"西東京市","address":"西東京市南町5-6-13西東京市役所田無庁舎","lat":35.725681,"lon":139.53837},{"name":"西東京市田無総合福祉センター","province":"東京都","city":"西東京市","address":"西東京市田無町5-5-12","lat":35.731809,"lon":139.536209},{"name":"西東京市保谷保健福祉総合センター","province":"東京都","city":"西東京市","address":"西東京市中町1-5-1","lat":35.741595,"lon":139.558951},{"name":"西東京市田無総合福祉センター","province":"東京都","city":"西東京市","address":"東京都西東京市田無町5丁目5-12","lat":35.73181186,"lon":139.5361949},{"name":"西東京市保谷保健福祉総合センター","province":"東京都","city":"西東京市","address":"東京都西東京市中町1丁目5-1","lat":35.74129184,"lon":139.55895096},{"name":"西東京市田無総合福祉センター","province":"東京都","city":"西東京市","address":"西東京市田無町5-5-12","lat":35.73098,"lon":139.53619},{"name":"西東京市保谷保健福祉総合センター","province":"東京都","city":"西東京市","address":"西東京市中町1-5-1","lat":35.74174,"lon":139.55884},{"name":"西東京市選挙管理委員会","province":"東京都","city":"西東京市","address":"西東京市南町5-6-13西東京市役所田無庁舎","lat":35.725681,"lon":139.53837},{"name":"西東京市田無総合福祉センター","province":"東京都","city":"西東京市","address":"西東京市田無町5-5-12","lat":35.731809,"lon":139.536209},{"name":"西東京市保谷保健福祉総合センター","province":"東京都","city":"西東京市","address":"西東京市中町1-5-1","lat":35.741595,"lon":139.558951},{"name":"西東京市田無総合福祉センター","province":"東京都","city":"西東京市","address":"東京都西東京市田無町5丁目5-12","lat":35.73181186,"lon":139.5361949},{"name":"西東京市保谷保健福祉総合センター","province":"東京都","city":"西東京市","address":"東京都西東京市中町1丁目5-1","lat":35.74129184,"lon":139.55895096},{"name":"西東京市田無総合福祉センター","province":"東京都","city":"西東京市","address":"西東京市田無町5-5-12","lat":35.73098,"lon":139.53619},{"name":"西東京市保谷保健福祉総合センター","province":"東京都","city":"西東京市","address":"西東京市中町1-5-1","lat":35.74174,"lon":139.55884},{"name":"西東京市選挙管理委員会","province":"東京都","city":"西東京市","address":"西東京市南町5-6-13西東京市役所田無庁舎","lat":35.725681,"lon":139.53837},{"name":"西東京市田無総合福祉センター","province":"東京都","city":"西東京市","address":"西東京市田無町5-5-12","lat":35.731809,"lon":139.536209},{"name":"西東京市保谷保健福祉総合センター","province":"東京都","city":"西東京市","address":"西東京市中町1-5-1","lat":35.741595,"lon":139.558951},{"name":"西東京市田無総合福祉センター","province":"東京都","city":"西東京市","address":"東京都西東京市田無町5丁目5-12","lat":35.73181186,"lon":139.5361949},{"name":"西東京市保谷保健福祉総合センター","province":"東京都","city":"西東京市","address":"東京都西東京市中町1丁目5-1","lat":35.74129184,"lon":139.55895096},{"name":"西東京市田無総合福祉センター","province":"東京都","city":"西東京市","address":"西東京市田無町5-5-12","lat":35.73098,"lon":139.53619},{"name":"西東京市保谷保健福祉総合センター","province":"東京都","city":"西東京市","address":"西東京市中町1-5-1","lat":35.74174,"lon":139.55884},{"name":"西東京市選挙管理委員会","province":"東京都","city":"西東京市","address":"西東京市南町5-6-13西東京市役所田無庁舎","lat":35.725681,"lon":139.53837},{"name":"西東京市田無総合福祉センター","province":"東京都","city":"西東京市","address":"西東京市田無町5-5-12","lat":35.731809,"lon":139.536209},{"name":"西東京市保谷保健福祉総合センター","province":"東京都","city":"西東京市","address":"西東京市中町1-5-1","lat":35.741595,"lon":139.558951},{"name":"西東京市田無総合福祉センター","province":"東京都","city":"西東京市","address":"東京都西東京市田無町5丁目5-12","lat":35.73181186,"lon":139.5361949},{"name":"西東京市保谷保健福祉総合センター","province":"東京都","city":"西東京市","address":"東京都西東京市中町1丁目5-1","lat":35.74129184,"lon":139.55895096},{"name":"西東京市田無総合福祉センター","province":"東京都","city":"西東京市","address":"西東京市田無町5-5-12","lat":35.73098,"lon":139.53619},{"name":"西東京市保谷保健福祉総合センター","province":"東京都","city":"西東京市","address":"西東京市中町1-5-1","lat":35.74174,"lon":139.55884},{"name":"西東京市選挙管理委員会","province":"東京都","city":"西東京市","address":"西東京市南町5-6-13西東京市役所田無庁舎","lat":35.725681,"lon":139.53837},{"name":"西東京市田無総合福祉センター","province":"東京都","city":"西東京市","address":"西東京市田無町5-5-12","lat":35.731809,"lon":139.536209},{"name":"西東京市保谷保健福祉総合センター","province":"東京都","city":"西東京市","address":"西東京市中町1-5-1","lat":35.741595,"lon":139.558951},{"name":"西東京市田無総合福祉センター","province":"東京都","city":"西東京市","address":"東京都西東京市田無町5丁目5-12","lat":35.73181186,"lon":139.5361949},{"name":"西東京市保谷保健福祉総合センター","province":"東京都","city":"西東京市","address":"東京都西東京市中町1丁目5-1","lat":35.74129184,"lon":139.55895096},{"name":"西東京市田無総合福祉センター","province":"東京都","city":"西東京市","address":"西東京市田無町5-5-12","lat":35.73098,"lon":139.53619},{"name":"西東京市保谷保健福祉総合センター","province":"東京都","city":"西東京市","address":"西東京市中町1-5-1","lat":35.74174,"lon":139.55884},{"name":"西東京市選挙管理委員会","province":"東京都","city":"西東京市","address":"西東京市南町5-6-13西東京市役所田無庁舎","lat":35.725681,"lon":139.53837},{"name":"西東京市田無総合福祉センター","province":"東京都","city":"西東京市","address":"西東京市田無町5-5-12","lat":35.731809,"lon":139.536209},{"name":"西東京市保谷保健福祉総合センター","province":"東京都","city":"西東京市","address":"西東京市中町1-5-1","lat":35.741595,"lon":139.558951},{"name":"西東京市田無総合福祉センター","province":"東京都","city":"西東京市","address":"東京都西東京市田無町5丁目5-12","lat":35.73181186,"lon":139.5361949},{"name":"西東京市保谷保健福祉総合センター","province":"東京都","city":"西東京市","address":"東京都西東京市中町1丁目5-1","lat":35.74129184,"lon":139.55895096},{"name":"西東京市田無総合福祉センター","province":"東京都","city":"西東京市","address":"西東京市田無町5-5-12","lat":35.73098,"lon":139.53619},{"name":"西東京市保谷保健福祉総合センター","province":"東京都","city":"西東京市","address":"西東京市中町1-5-1","lat":35.74174,"lon":139.55884},{"name":"西東京市選挙管理委員会","province":"東京都","city":"西東京市","address":"西東京市南町5-6-13西東京市役所田無庁舎","lat":35.725681,"lon":139.53837},{"name":"西東京市田無総合福祉センター","province":"東京都","city":"西東京市","address":"西東京市田無町5-5-12","lat":35.731809,"lon":139.536209},{"name":"西東京市保谷保健福祉総合センター","province":"東京都","city":"西東京市","address":"西東京市中町1-5-1","lat":35.741595,"lon":139.558951},{"name":"西東京市田無総合福祉センター","province":"東京都","city":"西東京市","address":"東京都西東京市田無町5丁目5-12","lat":35.73181186,"lon":139.5361949},{"name":"西東京市保谷保健福祉総合センター","province":"東京都","city":"西東京市","address":"東京都西東京市中町1丁目5-1","lat":35.74129184,"lon":139.55895096},{"name":"西東京市田無総合福祉センター","province":"東京都","city":"西東京市","address":"西東京市田無町5-5-12","lat":35.73098,"lon":139.53619},{"name":"西東京市保谷保健福祉総合センター","province":"東京都","city":"西東京市","address":"西東京市中町1-5-1","lat":35.74174,"lon":139.55884},{"name":"西東京市選挙管理委員会","province":"東京都","city":"西東京市","address":"西東京市南町5-6-13西東京市役所田無庁舎","lat":35.725681,"lon":139.53837},{"name":"西東京市田無総合福祉センター","province":"東京都","city":"西東京市","address":"西東京市田無町5-5-12","lat":35.731809,"lon":139.536209},{"name":"西東京市保谷保健福祉総合センター","province":"東京都","city":"西東京市","address":"西東京市中町1-5-1","lat":35.741595,"lon":139.558951},{"name":"西東京市田無総合福祉センター","province":"東京都","city":"西東京市","address":"東京都西東京市田無町5丁目5-12","lat":35.73181186,"lon":139.5361949},{"name":"西東京市保谷保健福祉総合センター","province":"東京都","city":"西東京市","address":"東京都西東京市中町1丁目5-1","lat":35.74129184,"lon":139.55895096},{"name":"西東京市田無総合福祉センター","province":"東京都","city":"西東京市","address":"西東京市田無町5-5-12","lat":35.73098,"lon":139.53619},{"name":"西東京市保谷保健福祉総合センター","province":"東京都","city":"西東京市","address":"西東京市中町1-5-1","lat":35.74174,"lon":139.55884},{"name":"西東京市選挙管理委員会","province":"東京都","city":"西東京市","address":"西東京市南町5-6-13西東京市役所田無庁舎","lat":35.725681,"lon":139.53837},{"name":"西東京市田無総合福祉センター","province":"東京都","city":"西東京市","address":"西東京市田無町5-5-12","lat":35.731809,"lon":139.536209},{"name":"西東京市保谷保健福祉総合センター","province":"東京都","city":"西東京市","address":"西東京市中町1-5-1","lat":35.741595,"lon":139.558951},{"name":"西東京市田無総合福祉センター","province":"東京都","city":"西東京市","address":"東京都西東京市田無町5丁目5-12","lat":35.73181186,"lon":139.5361949},{"name":"西東京市保谷保健福祉総合センター","province":"東京都","city":"西東京市","address":"東京都西東京市中町1丁目5-1","lat":35.74129184,"lon":139.55895096},{"name":"西東京市田無総合福祉センター","province":"東京都","city":"西東京市","address":"西東京市田無町5-5-12","lat":35.73098,"lon":139.53619},{"name":"西東京市保谷保健福祉総合センター","province":"東京都","city":"西東京市","address":"西東京市中町1-5-1","lat":35.74174,"lon":139.55884},{"name":"西東京市選挙管理委員会","province":"東京都","city":"西東京市","address":"西東京市南町5-6-13西東京市役所田無庁舎","lat":35.725681,"lon":139.53837},{"name":"西東京市田無総合福祉センター","province":"東京都","city":"西東京市","address":"西東京市田無町5-5-12","lat":35.731809,"lon":139.536209},{"name":"西東京市保谷保健福祉総合センター","province":"東京都","city":"西東京市","address":"西東京市中町1-5-1","lat":35.741595,"lon":139.558951},{"name":"西東京市田無総合福祉センター","province":"東京都","city":"西東京市","address":"東京都西東京市田無町5丁目5-12","lat":35.73181186,"lon":139.5361949},{"name":"西東京市保谷保健福祉総合センター","province":"東京都","city":"西東京市","address":"東京都西東京市中町1丁目5-1","lat":35.74129184,"lon":139.55895096},{"name":"西東京市田無総合福祉センター","province":"東京都","city":"西東京市","address":"西東京市田無町5-5-12","lat":35.73098,"lon":139.53619},{"name":"西東京市保谷保健福祉総合センター","province":"東京都","city":"西東京市","address":"西東京市中町1-5-1","lat":35.74174,"lon":139.55884},{"name":"西東京市選挙管理委員会","province":"東京都","city":"西東京市","address":"西東京市南町5-6-13西東京市役所田無庁舎","lat":35.725681,"lon":139.53837},{"name":"西東京市田無総合福祉センター","province":"東京都","city":"西東京市","address":"西東京市田無町5-5-12","lat":35.731809,"lon":139.536209},{"name":"西東京市保谷保健福祉総合センター","province":"東京都","city":"西東京市","address":"西東京市中町1-5-1","lat":35.741595,"lon":139.558951},{"name":"西東京市田無総合福祉センター","province":"東京都","city":"西東京市","address":"東京都西東京市田無町5丁目5-12","lat":35.73181186,"lon":139.5361949},{"name":"西東京市保谷保健福祉総合センター","province":"東京都","city":"西東京市","address":"東京都西東京市中町1丁目5-1","lat":35.74129184,"lon":139.55895096},{"name":"西東京市田無総合福祉センター","province":"東京都","city":"西東京市","address":"西東京市田無町5-5-12","lat":35.73098,"lon":139.53619},{"name":"西東京市保谷保健福祉総合センター","province":"東京都","city":"西東京市","address":"西東京市中町1-5-1","lat":35.74174,"lon":139.55884},{"name":"西東京市選挙管理委員会","province":"東京都","city":"西東京市","address":"西東京市南町5-6-13西東京市役所田無庁舎","lat":35.725681,"lon":139.53837},{"name":"西東京市田無総合福祉センター","province":"東京都","city":"西東京市","address":"西東京市田無町5-5-12","lat":35.731809,"lon":139.536209},{"name":"西東京市保谷保健福祉総合センター","province":"東京都","city":"西東京市","address":"西東京市中町1-5-1","lat":35.741595,"lon":139.558951},{"name":"西東京市田無総合福祉センター","province":"東京都","city":"西東京市","address":"東京都西東京市田無町5丁目5-12","lat":35.73181186,"lon":139.5361949},{"name":"西東京市保谷保健福祉総合センター","province":"東京都","city":"西東京市","address":"東京都西東京市中町1丁目5-1","lat":35.74129184,"lon":139.55895096},{"name":"西東京市田無総合福祉センター","province":"東京都","city":"西東京市","address":"西東京市田無町5-5-12","lat":35.73098,"lon":139.53619},{"name":"西東京市保谷保健福祉総合センター","province":"東京都","city":"西東京市","address":"西東京市中町1-5-1","lat":35.74174,"lon":139.55884},{"name":"西東京市選挙管理委員会","province":"東京都","city":"西東京市","address":"西東京市南町5-6-13西東京市役所田無庁舎","lat":35.725681,"lon":139.53837},{"name":"西東京市田無総合福祉センター","province":"東京都","city":"西東京市","address":"西東京市田無町5-5-12","lat":35.731809,"lon":139.536209},{"name":"西東京市保谷保健福祉総合センター","province":"東京都","city":"西東京市","address":"西東京市中町1-5-1","lat":35.741595,"lon":139.558951},{"name":"西東京市田無総合福祉センター","province":"東京都","city":"西東京市","address":"東京都西東京市田無町5丁目5-12","lat":35.73181186,"lon":139.5361949},{"name":"西東京市保谷保健福祉総合センター","province":"東京都","city":"西東京市","address":"東京都西東京市中町1丁目5-1","lat":35.74129184,"lon":139.55895096},{"name":"西東京市田無総合福祉センター","province":"東京都","city":"西東京市","address":"西東京市田無町5-5-12","lat":35.73098,"lon":139.53619},{"name":"西東京市保谷保健福祉総合センター","province":"東京都","city":"西東京市","address":"西東京市中町1-5-1","lat":35.74174,"lon":139.55884},{"name":"西東京市選挙管理委員会","province":"東京都","city":"西東京市","address":"西東京市南町5-6-13西東京市役所田無庁舎","lat":35.725681,"lon":139.53837},{"name":"西東京市田無総合福祉センター","province":"東京都","city":"西東京市","address":"西東京市田無町5-5-12","lat":35.731809,"lon":139.536209},{"name":"西東京市保谷保健福祉総合センター","province":"東京都","city":"西東京市","address":"西東京市中町1-5-1","lat":35.741595,"lon":139.558951},{"name":"西東京市田無総合福祉センター","province":"東京都","city":"西東京市","address":"東京都西東京市田無町5丁目5-12","lat":35.73181186,"lon":139.5361949},{"name":"西東京市保谷保健福祉総合センター","province":"東京都","city":"西東京市","address":"東京都西東京市中町1丁目5-1","lat":35.74129184,"lon":139.55895096},{"name":"西東京市田無総合福祉センター","province":"東京都","city":"西東京市","address":"西東京市田無町5-5-12","lat":35.73098,"lon":139.53619},{"name":"西東京市保谷保健福祉総合センター","province":"東京都","city":"西東京市","address":"西東京市中町1-5-1","lat":35.74174,"lon":139.55884},{"name":"西東京市選挙管理委員会","province":"東京都","city":"西東京市","address":"西東京市南町5-6-13西東京市役所田無庁舎","lat":35.725681,"lon":139.53837},{"name":"西東京市田無総合福祉センター","province":"東京都","city":"西東京市","address":"西東京市田無町5-5-12","lat":35.731809,"lon":139.536209},{"name":"西東京市保谷保健福祉総合センター","province":"東京都","city":"西東京市","address":"西東京市中町1-5-1","lat":35.741595,"lon":139.558951},{"name":"西東京市田無総合福祉センター","province":"東京都","city":"西東京市","address":"東京都西東京市田無町5丁目5-12","lat":35.73181186,"lon":139.5361949},{"name":"西東京市保谷保健福祉総合センター","province":"東京都","city":"西東京市","address":"東京都西東京市中町1丁目5-1","lat":35.74129184,"lon":139.55895096},{"name":"西東京市田無総合福祉センター","province":"東京都","city":"西東京市","address":"西東京市田無町5-5-12","lat":35.73098,"lon":139.53619},{"name":"西東京市保谷保健福祉総合センター","province":"東京都","city":"西東京市","address":"西東京市中町1-5-1","lat":35.74174,"lon":139.55884},{"name":"西東京市選挙管理委員会","province":"東京都","city":"西東京市","address":"西東京市南町5-6-13西東京市役所田無庁舎","lat":35.725681,"lon":139.53837},{"name":"西東京市田無総合福祉センター","province":"東京都","city":"西東京市","address":"西東京市田無町5-5-12","lat":35.731809,"lon":139.536209},{"name":"西東京市保谷保健福祉総合センター","province":"東京都","city":"西東京市","address":"西東京市中町1-5-1","lat":35.741595,"lon":139.558951},{"name":"西東京市田無総合福祉センター","province":"東京都","city":"西東京市","address":"東京都西東京市田無町5丁目5-12","lat":35.73181186,"lon":139.5361949},{"name":"西東京市保谷保健福祉総合センター","province":"東京都","city":"西東京市","address":"東京都西東京市中町1丁目5-1","lat":35.74129184,"lon":139.55895096},{"name":"西東京市田無総合福祉センター","province":"東京都","city":"西東京市","address":"西東京市田無町5-5-12","lat":35.73098,"lon":139.53619},{"name":"西東京市保谷保健福祉総合センター","province":"東京都","city":"西東京市","address":"西東京市中町1-5-1","lat":35.74174,"lon":139.55884},{"name":"西東京市選挙管理委員会","province":"東京都","city":"西東京市","address":"西東京市南町5-6-13西東京市役所田無庁舎","lat":35.725681,"lon":139.53837},{"name":"西東京市田無総合福祉センター","province":"東京都","city":"西東京市","address":"西東京市田無町5-5-12","lat":35.731809,"lon":139.536209},{"name":"西東京市保谷保健福祉総合センター","province":"東京都","city":"西東京市","address":"西東京市中町1-5-1","lat":35.741595,"lon":139.558951},{"name":"西東京市田無総合福祉センター","province":"東京都","city":"西東京市","address":"東京都西東京市田無町5丁目5-12","lat":35.73181186,"lon":139.5361949},{"name":"西東京市保谷保健福祉総合センター","province":"東京都","city":"西東京市","address":"東京都西東京市中町1丁目5-1","lat":35.74129184,"lon":139.55895096},{"name":"西東京市田無総合福祉センター","province":"東京都","city":"西東京市","address":"西東京市田無町5-5-12","lat":35.73098,"lon":139.53619},{"name":"西東京市保谷保健福祉総合センター","province":"東京都","city":"西東京市","address":"西東京市中町1-5-1","lat":35.74174,"lon":139.55884},{"name":"西東京市田無総合福祉センター","province":"東京都","city":"西東京市","address":"西東京市田無町5-5-12","lat":35.731809,"lon":139.536209},{"name":"西東京市保谷保健福祉総合センター","province":"東京都","city":"西東京市","address":"西東京市中町1-5-1","lat":35.741595,"lon":139.558951},{"name":"西東京市田無総合福祉センター","province":"東京都","city":"西東京市","address":"東京都西東京市田無町5丁目5-12","lat":35.73181186,"lon":139.5361949},{"name":"西東京市保谷保健福祉総合センター","province":"東京都","city":"西東京市","address":"東京都西東京市中町1丁目5-1","lat":35.74129184,"lon":139.55895096},{"name":"西東京市田無総合福祉センター","province":"東京都","city":"西東京市","address":"西東京市田無町5-5-12","lat":35.73098,"lon":139.53619},{"name":"西東京市保谷保健福祉総合センター","province":"東京都","city":"西東京市","address":"西東京市中町1-5-1","lat":35.74174,"lon":139.55884},{"name":"西東京市田無総合福祉センター","province":"東京都","city":"西東京市","address":"西東京市田無町5-5-12","lat":35.731809,"lon":139.536209},{"name":"西東京市保谷保健福祉総合センター","province":"東京都","city":"西東京市","address":"西東京市中町1-5-1","lat":35.741595,"lon":139.558951},{"name":"西東京市田無総合福祉センター","province":"東京都","city":"西東京市","address":"東京都西東京市田無町5丁目5-12","lat":35.73181186,"lon":139.5361949},{"name":"西東京市保谷保健福祉総合センター","province":"東京都","city":"西東京市","address":"東京都西東京市中町1丁目5-1","lat":35.74129184,"lon":139.55895096},{"name":"西東京市田無総合福祉センター","province":"東京都","city":"西東京市","address":"西東京市田無町5-5-12","lat":35.73098,"lon":139.53619},{"name":"西東京市保谷保健福祉総合センター","province":"東京都","city":"西東京市","address":"西東京市中町1-5-1","lat":35.74174,"lon":139.55884},{"name":"西東京市田無総合福祉センター","province":"東京都","city":"西東京市","address":"西東京市田無町5-5-12","lat":35.731809,"lon":139.536209},{"name":"西東京市保谷保健福祉総合センター","province":"東京都","city":"西東京市","address":"西東京市中町1-5-1","lat":35.741595,"lon":139.558951},{"name":"西東京市田無総合福祉センター","province":"東京都","city":"西東京市","address":"東京都西東京市田無町5丁目5-12","lat":35.73181186,"lon":139.5361949},{"name":"西東京市保谷保健福祉総合センター","province":"東京都","city":"西東京市","address":"東京都西東京市中町1丁目5-1","lat":35.74129184,"lon":139.55895096},{"name":"西東京市田無総合福祉センター","province":"東京都","city":"西東京市","address":"西東京市田無町5-5-12","lat":35.73098,"lon":139.53619},{"name":"西東京市保谷保健福祉総合センター","province":"東京都","city":"西東京市","address":"西東京市中町1-5-1","lat":35.74174,"lon":139.55884}]}