{"keyword":"センター","data":[{"name":"老人福祉センター","province":"東京都","city":"西東京市","address":"西東京市田無町5-5-12","lat":35.73098,"lon":139.53619},{"name":"ひばりが丘福祉会館","province":"東京都","city":"西東京市","address":"西東京市ひばりが丘2-8-27","lat":35.74787,"lon":139.53687},{"name":"下保谷福祉会館","province":"東京都","city":"西東京市","address":"西東京市下保谷4-3-20","lat":35.75048,"lon":139.56511},{"name":"住吉老人福祉センター","province":"東京都","city":"西東京市","address":"西東京市住吉町6-15-6","lat":35.74402,"lon":139.55215},{"name":"富士町福祉会館","province":"東京都","city":"西東京市","address":"西東京市富士町6-6-13","lat":35.73001,"lon":139.55687},{"name":"新町福祉会館","province":"東京都","city":"西東京市","address":"西東京市新町5-2-7","lat":35.71376,"lon":139.53653},{"name":"老人福祉センター","province":"東京都","city":"西東京市","address":"西東京市田無町5-5-12","lat":35.731809,"lon":139.536209},{"name":"ひばりが丘福祉会館","province":"東京都","city":"西東京市","address":"西東京市ひばりが丘2-8-27","lat":35.748538,"lon":139.53778},{"name":"下保谷福祉会館","province":"東京都","city":"西東京市","address":"西東京市下保谷4-3-20","lat":35.750505,"lon":139.56502},{"name":"住吉老人福祉センター","province":"東京都","city":"西東京市","address":"西東京市住吉町6-15-6","lat":35.744433,"lon":139.55129},{"name":"富士町福祉会館","province":"東京都","city":"西東京市","address":"西東京市富士町6-6-13","lat":35.730065,"lon":139.556899},{"name":"新町福祉会館","province":"東京都","city":"西東京市","address":"西東京市新町5-2-7","lat":35.712939,"lon":139.536376},{"name":"住吉老人福祉センター","province":"東京都","city":"西東京市","address":"西東京市住吉町6‐15‐6","lat":35.74402,"lon":139.55216},{"name":"富士町福祉会館","province":"東京都","city":"西東京市","address":"西東京市富士町6-6-13","lat":35.73042,"lon":139.55818}]}