{"keyword":"保育","data":[{"name":"田無保育園","province":"東京都","city":"西東京市","address":"東京都西東京市緑町1-2-26","lat":35.73387235,"lon":139.540272},{"name":"そよかぜ保育園","province":"東京都","city":"西東京市","address":"東京都西東京市ひばりが丘3-1-25","lat":35.74620026,"lon":139.537104},{"name":"向台保育園","province":"東京都","city":"西東京市","address":"東京都西東京市南町3-23-1","lat":35.72568893,"lon":139.5420128},{"name":"西原保育園","province":"東京都","city":"西東京市","address":"東京都西東京市芝久保町5-4-2","lat":35.73352642,"lon":139.5273395},{"name":"芝久保保育園","province":"東京都","city":"西東京市","address":"東京都西東京市芝久保町1-14-32","lat":35.72463771,"lon":139.526432},{"name":"けやき保育園","province":"東京都","city":"西東京市","address":"東京都西東京市西原町4-5-96","lat":35.7365473,"lon":139.5303098},{"name":"ひばりが丘保育園","province":"東京都","city":"西東京市","address":"東京都西東京市ひばりが丘2-3-5","lat":35.74715747,"lon":139.5403595},{"name":"はこべら保育園","province":"東京都","city":"西東京市","address":"東京都西東京市富士町1-7-2","lat":35.73391473,"lon":139.5603532},{"name":"ひがしふしみ保育園","province":"東京都","city":"西東京市","address":"東京都西東京市東伏見2-11-11","lat":35.72754504,"lon":139.5601797},{"name":"こまどり保育園","province":"東京都","city":"西東京市","address":"東京都西東京市下保谷2-4-2","lat":35.75223536,"lon":139.5588303},{"name":"ほうやちょう保育園","province":"東京都","city":"西東京市","address":"東京都西東京市保谷町3-13-1","lat":35.72961248,"lon":139.5531327},{"name":"すみよし保育園","province":"東京都","city":"西東京市","address":"東京都西東京市住吉町3-14-14","lat":35.74969462,"lon":139.549354},{"name":"なかまち保育園","province":"東京都","city":"西東京市","address":"東京都西東京市中町4-4-16","lat":35.73721987,"lon":139.5644188},{"name":"ひがし保育園","province":"東京都","city":"西東京市","address":"東京都西東京市東町2-4-13","lat":35.74636778,"lon":139.5605987},{"name":"やぎさわ保育園","province":"東京都","city":"西東京市","address":"東京都西東京市柳沢5-8-2","lat":35.72209122,"lon":139.5511051},{"name":"サムエル保育園","province":"東京都","city":"西東京市","address":"東京都西東京市向台町2-7-21","lat":35.71920969,"lon":139.5421415},{"name":"田無北原保育園","province":"東京都","city":"西東京市","address":"東京都西東京市北原町2-1-14","lat":35.73486581,"lon":139.543599},{"name":"きたしば保育園","province":"東京都","city":"西東京市","address":"東京都西東京市芝久保町2-14-14","lat":35.72628085,"lon":139.5267952},{"name":"柳橋保育園","province":"東京都","city":"西東京市","address":"東京都西東京市新町1-11-25","lat":35.7171113,"lon":139.5439731},{"name":"和泉保育園","province":"東京都","city":"西東京市","address":"東京都西東京市泉町2-6-10","lat":35.73948767,"lon":139.5499102},{"name":"アスクたなし保育園","province":"東京都","city":"西東京市","address":"東京都西東京市向台町5-5-46","lat":35.71948139,"lon":139.5296802},{"name":"レイモンド田無保育園","province":"東京都","city":"西東京市","address":"東京都西東京市田無町2-14-15","lat":35.72841656,"lon":139.5432986},{"name":"サムエル保育園分園","province":"東京都","city":"西東京市","address":"東京都西東京市田無町4-1-61","lat":35.72722176,"lon":139.5383136},{"name":"Nicot 田無","province":"東京都","city":"西東京市","address":"東京都西東京市向台町2-6-11","lat":35.71913788,"lon":139.542877},{"name":"ｸﾞﾛｰﾊﾞﾙｷｯｽﾞ柳沢園","province":"東京都","city":"西東京市","address":"東京都西東京市保谷町3-24-25","lat":35.72941329,"lon":139.5513735},{"name":"谷戸のびのび保育園","province":"東京都","city":"西東京市","address":"東京都西東京市谷戸町3-13-14","lat":35.74632144,"lon":139.5462367},{"name":"アスクたなし南町保育園","province":"東京都","city":"西東京市","address":"東京都西東京市南町6-10-17","lat":35.72562155,"lon":139.5318021},{"name":"田無ひまわり保育園","province":"東京都","city":"西東京市","address":"東京都西東京市田無町7-2-21","lat":35.73055323,"lon":139.5323262},{"name":"武蔵野どろんこ保育園","province":"東京都","city":"西東京市","address":"東京都西東京市新町5-14-14","lat":35.71507701,"lon":139.5343964},{"name":"田無すくすく保育園","province":"東京都","city":"西東京市","address":"東京都西東京市南町1-3-28","lat":35.72777126,"lon":139.5453205},{"name":"子パンダ保育園","province":"東京都","city":"西東京市","address":"東京都西東京市保谷町3-17-21","lat":35.73125884,"lon":139.551794},{"name":"アスクひばりヶ丘保育園","province":"東京都","city":"西東京市","address":"東京都西東京市住吉町4-6-12","lat":35.74728433,"lon":139.5500548},{"name":"ポポラー東京ひばりが丘園","province":"東京都","city":"西東京市","address":"東京都西東京市ひばりが丘3-4-2","lat":35.74464862,"lon":139.5342124},{"name":"みらいく保谷園","province":"東京都","city":"西東京市","address":"東京都西東京市下保谷4-13-24・2F","lat":35.74889865,"lon":139.5670919},{"name":"西東京新町雲母保育園","province":"東京都","city":"西東京市","address":"東京都西東京市新町3-11-6","lat":35.71515656,"lon":139.5374259},{"name":"アスク保谷保育園","province":"東京都","city":"西東京市","address":"東京都西東京市泉町3-13-24","lat":35.74002324,"lon":139.5554836},{"name":"ぽけっとランド西東京保育園","province":"東京都","city":"西東京市","address":"東京都西東京市谷戸町2-3-7・3F","lat":35.74479412,"lon":139.5424127},{"name":"ポピンズナーサリースクール西東京","province":"東京都","city":"西東京市","address":"東京都西東京市田無町6-5-28","lat":35.7303463,"lon":139.5344023},{"name":"谷戸のびのび保育園分園","province":"東京都","city":"西東京市","address":"東京都西東京市谷戸町3-11-3","lat":35.74592834,"lon":139.5432806},{"name":"しもほうや保育園","province":"東京都","city":"西東京市","address":"東京都西東京市下保谷3-8-15","lat":35.75483125,"lon":139.5665792},{"name":"西東京ユーカリ保育園","province":"東京都","city":"西東京市","address":"東京都西東京市下保谷5-13-15","lat":35.74941619,"lon":139.5645856},{"name":"グローバルキッズ東伏見園","province":"東京都","city":"西東京市","address":"東京都西東京市中町4-8-23","lat":35.73729157,"lon":139.5663644},{"name":"西東京みどり保育園","province":"東京都","city":"西東京市","address":"東京都西東京市緑町2-15-12","lat":35.74210846,"lon":139.5358991},{"name":"たけのこ保育室","province":"東京都","city":"西東京市","address":"東京都西東京市芝久保町1-16-2","lat":35.7246182,"lon":139.5260455},{"name":"Pocapoca 保育室","province":"東京都","city":"西東京市","address":"東京都西東京市田無町3-7-5・101","lat":35.72961887,"lon":139.5446438},{"name":"Manamana 保育室","province":"東京都","city":"西東京市","address":"東京都西東京市南町5-2-10・201","lat":35.72686045,"lon":139.5375635},{"name":"たけのこ保育園","province":"東京都","city":"西東京市","address":"東京都西東京市西原町5-1-17・2F","lat":35.73725559,"lon":139.5352731},{"name":"すまいる保育室","province":"東京都","city":"西東京市","address":"東京都西東京市保谷町3-12-5・1F","lat":35.72956214,"lon":139.55271},{"name":"小規模保育ひまわりのおうち","province":"東京都","city":"西東京市","address":"東京都西東京市田無町4-11-2","lat":35.7266951,"lon":139.5325117},{"name":"たんぽぽ保育園柳沢駅前園","province":"東京都","city":"西東京市","address":"東京都西東京市柳沢1-15-3","lat":35.72783393,"lon":139.5531959},{"name":"保育室わんわん","province":"東京都","city":"西東京市","address":"東京都西東京市ひばりが丘北4-3-8","lat":35.75345449,"lon":139.5445981},{"name":"わかば保育園","province":"東京都","city":"西東京市","address":"東京都西東京市富士町4-15-4・1F","lat":35.73030468,"lon":139.5655829},{"name":"ひばりが丘みさと保育園","province":"東京都","city":"西東京市","address":"東京都西東京市谷戸町2-13-3・1F","lat":35.74847944,"lon":139.5425313},{"name":"Manamana 新町保育室","province":"東京都","city":"西東京市","address":"東京都西東京市新町1-14-6・1F","lat":35.71452545,"lon":139.5443901},{"name":"南町Pocapoca 保育室","province":"東京都","city":"西東京市","address":"東京都西東京市南町3-6-9・1F","lat":35.72702024,"lon":139.5439281},{"name":"保育室わんわん２ nd","province":"東京都","city":"西東京市","address":"東京都西東京市ひばりが丘北3-7-8・1F","lat":35.75284478,"lon":139.5471038},{"name":"アルタベビー田無園","province":"東京都","city":"西東京市","address":"東京都西東京市田無町2-12-14","lat":35.7287135,"lon":139.5423062},{"name":"HOPPA田無しょこら保育園","province":"東京都","city":"西東京市","address":"東京都西東京市芝久保町2-13-32","lat":35.72653086,"lon":139.5282023},{"name":"HOPPA田無まかろん保育園","province":"東京都","city":"西東京市","address":"東京都西東京市芝久保町2-13-32","lat":35.72653086,"lon":139.5282023},{"name":"もりのなかま保育園保谷園","province":"東京都","city":"西東京市","address":"東京都西東京市東町2-16-25・1F","lat":35.74559932,"lon":139.5617559},{"name":"ドリームキッズ中町保育園","province":"東京都","city":"西東京市","address":"東京都西東京市中町2-4-9","lat":35.74390108,"lon":139.5610464},{"name":"CO- 春（ こはる） 保育園","province":"東京都","city":"西東京市","address":"東京都西東京市北町5-14-32","lat":35.75601284,"lon":139.5662537},{"name":"ナーサリーこひつじ園","province":"東京都","city":"西東京市","address":"東京都西東京市ひばりが丘1-15-8","lat":35.75203462,"lon":139.5427257},{"name":"生活クラブ保育園ぽむ","province":"東京都","city":"西東京市","address":"東京都西東京市泉町3-12-25・1F","lat":35.74208472,"lon":139.5579197},{"name":"Manamana下保谷保育室","province":"東京都","city":"西東京市","address":"東京都西東京市下保谷5丁目7-9","lat":35.75231563,"lon":139.56256418},{"name":"谷戸のびのび保育園","province":"東京都","city":"西東京市","address":"西東京市谷戸町3-13-14","lat":35.746341,"lon":139.54581},{"name":"田無保育園","province":"東京都","city":"西東京市","address":"西東京市緑町1-2-26","lat":35.733887,"lon":139.540219},{"name":"みどり保育園","province":"東京都","city":"西東京市","address":"西東京市緑町2-15-12","lat":35.7421,"lon":139.535892},{"name":"田無北原保育園","province":"東京都","city":"西東京市","address":"西東京市北原町2-1-14","lat":35.734856,"lon":139.543552},{"name":"けやき保育園","province":"東京都","city":"西東京市","address":"西東京市西原町4-5-96","lat":35.736569,"lon":139.530081},{"name":"レイモンド田無保育園","province":"東京都","city":"西東京市","address":"西東京市田無町2-14-15","lat":35.72841,"lon":139.543278},{"name":"Ｎｉｃｏｔ田無","province":"東京都","city":"西東京市","address":"西東京市田無町4-1-61","lat":35.727312,"lon":139.537898},{"name":"田無ひまわり保育園","province":"東京都","city":"西東京市","address":"西東京市田無町7-2-21","lat":35.730551,"lon":139.532334},{"name":"向台保育園","province":"東京都","city":"西東京市","address":"西東京市南町3-23-1","lat":35.725668,"lon":139.542067},{"name":"アスクたなし南町保育園","province":"東京都","city":"西東京市","address":"西東京市南町6-10-17","lat":35.725637,"lon":139.531804},{"name":"田無すくすく保育園","province":"東京都","city":"西東京市","address":"西東京市南町1-3-28","lat":35.727721,"lon":139.545292},{"name":"アスクたなし保育園","province":"東京都","city":"西東京市","address":"西東京市向台町5-5-46","lat":35.719469,"lon":139.529621},{"name":"サムエル保育園","province":"東京都","city":"西東京市","address":"西東京市向台町2-7-21","lat":35.719211,"lon":139.542131},{"name":"きたしば保育園","province":"東京都","city":"西東京市","address":"西東京市芝久保町2-14-14","lat":35.726265,"lon":139.526738},{"name":"西原保育園","province":"東京都","city":"西東京市","address":"西東京市芝久保町5-4-2","lat":35.733553,"lon":139.527343},{"name":"芝久保保育園","province":"東京都","city":"西東京市","address":"西東京市芝久保町1-14-32","lat":35.724624,"lon":139.526371},{"name":"そよかぜ保育園","province":"東京都","city":"西東京市","address":"西東京市ひばりが丘3-1-25","lat":35.746185,"lon":139.537016},{"name":"ひばりが丘保育園","province":"東京都","city":"西東京市","address":"西東京市ひばりが丘2-3-5","lat":35.747069,"lon":139.540372},{"name":"ポポラー東京ひばりが丘園","province":"東京都","city":"西東京市","address":"西東京市ひばりが丘3-4-2シティテラスひばりが丘共用棟1・2階","lat":35.744605,"lon":139.534206},{"name":"こまどり保育園","province":"東京都","city":"西東京市","address":"西東京市下保谷2-4-2","lat":35.752229,"lon":139.558828},{"name":"しもほうや保育園","province":"東京都","city":"西東京市","address":"西東京市下保谷3-8-15","lat":35.754846,"lon":139.566572},{"name":"みらいく保谷園","province":"東京都","city":"西東京市","address":"西東京市下保谷4-13-242F","lat":35.749008,"lon":139.567236},{"name":"すみよし保育園","province":"東京都","city":"西東京市","address":"西東京市住吉町3-14-14","lat":35.749599,"lon":139.549082},{"name":"アスクひばりヶ丘保育園","province":"東京都","city":"西東京市","address":"西東京市住吉町4-6-12","lat":35.747321,"lon":139.550054},{"name":"和泉保育園","province":"東京都","city":"西東京市","address":"西東京市泉町2-6-10","lat":35.739461,"lon":139.54986},{"name":"ひがし保育園","province":"東京都","city":"西東京市","address":"西東京市東町2-4-13","lat":35.746547,"lon":139.560645},{"name":"なかまち保育園","province":"東京都","city":"西東京市","address":"西東京市中町4-4-16","lat":35.737248,"lon":139.564803},{"name":"はこべら保育園","province":"東京都","city":"西東京市","address":"西東京市富士町1-7-2","lat":35.733898,"lon":139.560321},{"name":"グローバルキッズ柳沢園","province":"東京都","city":"西東京市","address":"西東京市保谷町3-24-25","lat":35.729562,"lon":139.551688},{"name":"ほうやちょう保育園","province":"東京都","city":"西東京市","address":"西東京市保谷町3-13-1","lat":35.729604,"lon":139.553182},{"name":"子パンダ保育園","province":"東京都","city":"西東京市","address":"西東京市保谷町3-17-21","lat":35.731062,"lon":139.551783},{"name":"ひがしふしみ保育園","province":"東京都","city":"西東京市","address":"西東京市東伏見2-11-11","lat":35.727546,"lon":139.560265},{"name":"やぎさわ保育園","province":"東京都","city":"西東京市","address":"西東京市柳沢5-8-2","lat":35.722133,"lon":139.551008},{"name":"柳橋保育園","province":"東京都","city":"西東京市","address":"西東京市新町1-11-25","lat":35.7172,"lon":139.544298},{"name":"武蔵野どろんこ保育園","province":"東京都","city":"西東京市","address":"西東京市新町5-14-14","lat":35.715153,"lon":139.534365}]}