{"keyword":"医薬","data":[{"name":"市役所田無庁舎","province":"東京都","city":"西東京市","address":"東京都西東京市南町五丁目6-13","lat":35.725716,"lon":139.537958},{"name":"市役所保谷庁舎（防災センター）","province":"東京都","city":"西東京市","address":"東京都西東京市中町一丁目5-1","lat":35.741207,"lon":139.559022},{"name":"ひばりヶ丘駅前出張所","province":"東京都","city":"西東京市","address":"東京都西東京市住吉町三丁目10-25","lat":35.750782,"lon":139.546018},{"name":"柳橋出張所","province":"東京都","city":"西東京市","address":"東京都西東京市新町一丁目4-25","lat":35.714773,"lon":139.544828},{"name":"田無総合福祉センター","province":"東京都","city":"西東京市","address":"東京都西東京市田無町五丁目5-12","lat":35.731805,"lon":139.536268},{"name":"老人憩いの家「おあしす」","province":"東京都","city":"西東京市","address":"東京都西東京市南町三丁目18-40","lat":35.72249,"lon":139.542732},{"name":"高齢者センター きらら","province":"東京都","city":"西東京市","address":"東京都西東京市富士町一丁目7-69","lat":35.734334,"lon":139.560487},{"name":"谷戸高齢者在宅サービスセンター","province":"東京都","city":"西東京市","address":"東京都西東京市谷戸町三丁目23-8","lat":35.748854,"lon":139.54372},{"name":"下保谷福祉会館","province":"東京都","city":"西東京市","address":"東京都西東京市下保谷四丁目3-20","lat":35.750525,"lon":139.565141},{"name":"新町福祉会館","province":"東京都","city":"西東京市","address":"東京都西東京市新町五丁目2-7","lat":35.712955,"lon":139.536394},{"name":"富士町福祉会館","province":"東京都","city":"西東京市","address":"東京都西東京市富士町六丁目6-13","lat":35.729905,"lon":139.557144},{"name":"ひばりが丘福祉会館","province":"東京都","city":"西東京市","address":"東京都西東京市ひばりが丘二丁目8-27","lat":35.74854,"lon":139.537802},{"name":"保谷障害者福祉センター","province":"東京都","city":"西東京市","address":"東京都西東京市保谷町一丁目6-20","lat":35.734625,"lon":139.556276},{"name":"障害者総合支援センター「フレンドリー」","province":"東京都","city":"西東京市","address":"東京都西東京市田無町四丁目17-14","lat":35.72936,"lon":139.535678},{"name":"けやき保育園","province":"東京都","city":"西東京市","address":"東京都西東京市西原町五丁目4-2","lat":35.741174,"lon":139.53302},{"name":"なかまち保育園","province":"東京都","city":"西東京市","address":"東京都西東京市中町四丁目4-16","lat":35.737026,"lon":139.564813},{"name":"ひがし保育園","province":"東京都","city":"西東京市","address":"東京都西東京市東町二丁目4-13","lat":35.746366,"lon":139.560595},{"name":"やぎさわ保育園","province":"東京都","city":"西東京市","address":"東京都西東京市柳沢五丁目8-2","lat":35.722116,"lon":139.551078},{"name":"すみよし保育園","province":"東京都","city":"西東京市","address":"東京都西東京市住吉町三丁目14-14","lat":35.749589,"lon":139.548876},{"name":"西原保育園","province":"東京都","city":"西東京市","address":"東京都西東京市芝久保町五丁目4-2","lat":35.73347,"lon":139.527412},{"name":"こまどり保育園","province":"東京都","city":"西東京市","address":"東京都西東京市下保谷二丁目4-2","lat":35.752072,"lon":139.557834},{"name":"田無保育園","province":"東京都","city":"西東京市","address":"東京都西東京市緑町一丁目2-26","lat":35.7336,"lon":139.540343},{"name":"向台保育園","province":"東京都","city":"西東京市","address":"東京都西東京市南町三丁目23-1","lat":35.725691,"lon":139.54193},{"name":"ひがしふしみ保育園","province":"東京都","city":"西東京市","address":"東京都西東京市東伏見二丁目11-11","lat":35.727553,"lon":139.560168},{"name":"はこべら保育園","province":"東京都","city":"西東京市","address":"東京都西東京市富士町一丁目7-2","lat":35.733905,"lon":139.560339},{"name":"ほうやちょう保育園","province":"東京都","city":"西東京市","address":"東京都西東京市保谷町三丁目13-1","lat":35.729609,"lon":139.553146},{"name":"ひばりが丘保育園","province":"東京都","city":"西東京市","address":"東京都西東京市ひばりが丘二丁目3-5","lat":35.747125,"lon":139.54041},{"name":"芝久保保育園","province":"東京都","city":"西東京市","address":"東京都西東京市芝久保町一丁目14-32","lat":35.724642,"lon":139.526417},{"name":"ひばりが丘児童センター","province":"東京都","city":"西東京市","address":"東京都西東京市ひばりが丘三丁目1-25","lat":35.746197,"lon":139.537081},{"name":"芝久保児童館","province":"東京都","city":"西東京市","address":"東京都西東京市芝久保町一丁目16-18","lat":35.724689,"lon":139.525681},{"name":"保谷柳沢児童館","province":"東京都","city":"西東京市","address":"東京都西東京市柳沢二丁目6-11","lat":35.723473,"lon":139.556216},{"name":"田無児童館","province":"東京都","city":"西東京市","address":"東京都西東京市田無町四丁目14-2","lat":35.727741,"lon":139.535203},{"name":"ひばりが丘北児童センター","province":"東京都","city":"西東京市","address":"東京都西東京市ひばりが丘北一丁目6-8","lat":35.752385,"lon":139.549462},{"name":"みどり学童クラブ","province":"東京都","city":"西東京市","address":"東京都西東京市緑町三丁目8-3","lat":35.742137,"lon":139.538082},{"name":"保谷柳沢第二学童クラブ","province":"東京都","city":"西東京市","address":"東京都西東京市柳沢四丁目2-11","lat":35.720245,"lon":139.550443},{"name":"東学童クラブ","province":"東京都","city":"西東京市","address":"東京都西東京市東町六丁目2-33","lat":35.741882,"lon":139.564082},{"name":"田無柳沢児童センター","province":"東京都","city":"西東京市","address":"東京都西東京市向台町一丁目7-25","lat":35.72113,"lon":139.546919},{"name":"北原児童館","province":"東京都","city":"西東京市","address":"東京都西東京市北原町一丁目16-2","lat":35.733663,"lon":139.544663},{"name":"中町児童館","province":"東京都","city":"西東京市","address":"東京都西東京市中町四丁目4-1","lat":35.737689,"lon":139.564315},{"name":"田無第二学童クラブ","province":"東京都","city":"西東京市","address":"東京都西東京市田無町四丁目5-21","lat":35.728896,"lon":139.537594},{"name":"西原北児童館","province":"東京都","city":"西東京市","address":"東京都西東京市西原町四丁目5-96","lat":35.736205,"lon":139.530349},{"name":"向台・向台第二学童クラブ","province":"東京都","city":"西東京市","address":"東京都西東京市向台町三丁目1-45","lat":35.722266,"lon":139.538111},{"name":"東伏見学童クラブ","province":"東京都","city":"西東京市","address":"東京都西東京市東伏見六丁目1-17","lat":35.726271,"lon":139.559866},{"name":"谷戸学童クラブ","province":"東京都","city":"西東京市","address":"東京都西東京市谷戸町一丁目22-10","lat":35.742208,"lon":139.545903},{"name":"上向台第二学童クラブ","province":"東京都","city":"西東京市","address":"東京都西東京市向台町六丁目18-23","lat":35.721067,"lon":139.52606},{"name":"住吉会館 ルピナス","province":"東京都","city":"西東京市","address":"東京都西東京市住吉町六丁目15-6","lat":35.744425,"lon":139.551367},{"name":"ふれあいセンター","province":"東京都","city":"西東京市","address":"東京都西東京市北町一丁目3-14","lat":35.753725,"lon":139.556827},{"name":"東伏見コミュニティセンター","province":"東京都","city":"西東京市","address":"東京都西東京市東伏見五丁目10-22","lat":35.721879,"lon":139.557732},{"name":"保谷こもれびホール","province":"東京都","city":"西東京市","address":"東京都西東京市中町一丁目5-1","lat":35.741207,"lon":139.559022},{"name":"コール田無","province":"東京都","city":"西東京市","address":"東京都西東京市田無町三丁目7-2","lat":35.729144,"lon":139.5437},{"name":"芝久保コミュニティセンター","province":"東京都","city":"西東京市","address":"東京都西東京市芝久保町三丁目15-10","lat":35.729314,"lon":139.521805},{"name":"谷戸コミュニティセンター","province":"東京都","city":"西東京市","address":"東京都西東京市谷戸町一丁目9-2","lat":35.739363,"lon":139.544631},{"name":"緑町コミュニティセンター","province":"東京都","city":"西東京市","address":"東京都西東京市緑町一丁目5-1","lat":35.735075,"lon":139.537514},{"name":"向台コミュニティセンター","province":"東京都","city":"西東京市","address":"東京都西東京市向台町二丁目13-12","lat":35.71872,"lon":139.541032},{"name":"南町コミュニティセンター","province":"東京都","city":"西東京市","address":"東京都西東京市南町二丁目21-9","lat":35.725289,"lon":139.546118},{"name":"下宿コミュニティセンター","province":"東京都","city":"西東京市","address":"東京都西東京市南町五丁目26-1","lat":35.725279,"lon":139.536246},{"name":"スポーツセンター","province":"東京都","city":"西東京市","address":"東京都西東京市中町一丁目5-1","lat":35.741207,"lon":139.559022},{"name":"総合体育館","province":"東京都","city":"西東京市","address":"東京都西東京市向台町五丁目4-20","lat":35.720058,"lon":139.529976},{"name":"南町スポーツ・文化交流センター きらっと","province":"東京都","city":"西東京市","address":"東京都西東京市南町五丁目6-5","lat":35.725623,"lon":139.537517},{"name":"武道場","province":"東京都","city":"西東京市","address":"東京都西東京市東町二丁目4-13","lat":35.746366,"lon":139.560595},{"name":"健康広場","province":"東京都","city":"西東京市","address":"東京都西東京市栄町一丁目12-23","lat":35.748718,"lon":139.555044},{"name":"スポーツセンタープール監視室（旧：北原運動場）","province":"東京都","city":"西東京市","address":"東京都西東京市中町一丁目5-1","lat":35.741207,"lon":139.559022},{"name":"芝久保運動場","province":"東京都","city":"西東京市","address":"東京都西東京市芝久保町一丁目18-37","lat":35.722936,"lon":139.524652},{"name":"市民公園グランド及び向台運動場","province":"東京都","city":"西東京市","address":"東京都西東京市向台町五丁目4-9","lat":35.721136,"lon":139.52995},{"name":"芝久保第二運動場","province":"東京都","city":"西東京市","address":"東京都西東京市芝久保町五丁目6-28","lat":35.732853,"lon":139.524738},{"name":"ひばりが丘総合運動場 ひばりアム","province":"東京都","city":"西東京市","address":"東京都西東京市ひばりが丘三丁目1-24","lat":35.744816,"lon":139.53778},{"name":"西原総合教育施設","province":"東京都","city":"西東京市","address":"東京都西東京市西原町四丁目5-6","lat":35.73675,"lon":139.529077},{"name":"東伏見ふれあいプラザ","province":"東京都","city":"西東京市","address":"東京都西東京市富士町四丁目33-15飯田ビル1階","lat":35.729068,"lon":139.562591},{"name":"消費者センター分館","province":"東京都","city":"西東京市","address":"東京都西東京市住吉町六丁目1-5","lat":35.743512,"lon":139.551145},{"name":"エコプラザ西東京","province":"東京都","city":"西東京市","address":"東京都西東京市泉町三丁目12-35","lat":35.740959,"lon":139.556807},{"name":"田無小学校","province":"東京都","city":"西東京市","address":"東京都西東京市田無町四丁目5-21","lat":35.728896,"lon":139.537594},{"name":"保谷小学校","province":"東京都","city":"西東京市","address":"東京都西東京市保谷町一丁目3-35","lat":35.73733,"lon":139.554713},{"name":"保谷第一小学校","province":"東京都","city":"西東京市","address":"東京都西東京市下保谷一丁目4-4","lat":35.749886,"lon":139.558037},{"name":"保谷第二小学校","province":"東京都","city":"西東京市","address":"東京都西東京市柳沢四丁目2-11","lat":35.720245,"lon":139.550443},{"name":"谷戸小学校","province":"東京都","city":"西東京市","address":"東京都西東京市緑町三丁目1-1","lat":35.740354,"lon":139.542607},{"name":"東伏見小学校","province":"東京都","city":"西東京市","address":"東京都西東京市東伏見六丁目1-28","lat":35.725955,"lon":139.559112},{"name":"中原小学校","province":"東京都","city":"西東京市","address":"東京都西東京市ひばりが丘三丁目2-42","lat":35.742528,"lon":139.535159},{"name":"向台小学校","province":"東京都","city":"西東京市","address":"東京都西東京市向台町二丁目1-1","lat":35.722296,"lon":139.539904},{"name":"碧山小学校","province":"東京都","city":"西東京市","address":"東京都西東京市中町五丁目11-4","lat":35.738454,"lon":139.563039},{"name":"芝久保小学校","province":"東京都","city":"西東京市","address":"東京都西東京市芝久保三丁目7-1","lat":35.729026,"lon":139.522664},{"name":"栄小学校","province":"東京都","city":"西東京市","address":"東京都西東京市栄町二丁目10-9","lat":35.752154,"lon":139.55292},{"name":"上向台小学校","province":"東京都","city":"西東京市","address":"東京都西東京市向台町六丁目7-28","lat":35.720756,"lon":139.525719},{"name":"谷戸第二小学校","province":"東京都","city":"西東京市","address":"東京都西東京市谷戸町一丁目17-27","lat":35.741493,"lon":139.545141},{"name":"東小学校","province":"東京都","city":"西東京市","address":"東京都西東京市東町六丁目2-33","lat":35.741882,"lon":139.564082},{"name":"柳沢小学校","province":"東京都","city":"西東京市","address":"東京都西東京市南町二丁目12-37","lat":35.7221,"lon":139.547896},{"name":"本町小学校","province":"東京都","city":"西東京市","address":"東京都西東京市保谷町一丁目14-23","lat":35.732773,"lon":139.555621},{"name":"住吉小学校","province":"東京都","city":"西東京市","address":"東京都西東京市住吉町五丁目2-1","lat":35.745906,"lon":139.553343},{"name":"けやき小学校","province":"東京都","city":"西東京市","address":"東京都西東京市芝久保町五丁目7-1","lat":35.734427,"lon":139.525797},{"name":"田無第一中学校","province":"東京都","city":"西東京市","address":"東京都西東京市南町六丁目9-37","lat":35.724274,"lon":139.53074},{"name":"保谷中学校","province":"東京都","city":"西東京市","address":"東京都西東京市保谷町一丁目17-4","lat":35.733482,"lon":139.556456},{"name":"田無第二中学校","province":"東京都","city":"西東京市","address":"東京都西東京市北原町二丁目9-1","lat":35.738363,"lon":139.544914},{"name":"ひばりが丘中学校","province":"東京都","city":"西東京市","address":"東京都西東京市ひばりが丘三丁目2-42","lat":35.742528,"lon":139.535159},{"name":"田無第三中学校","province":"東京都","city":"西東京市","address":"東京都西東京市西原町三丁目4-1","lat":35.734845,"lon":139.531063},{"name":"青嵐中学校","province":"東京都","city":"西東京市","address":"東京都西東京市北町二丁目13-17","lat":35.756388,"lon":139.556354},{"name":"柳沢中学校","province":"東京都","city":"西東京市","address":"東京都西東京市柳沢三丁目8-22","lat":35.720625,"lon":139.552732},{"name":"田無第四中学校","province":"東京都","city":"西東京市","address":"東京都西東京市向台町二丁目14-9","lat":35.719725,"lon":139.540642},{"name":"明保中学校","province":"東京都","city":"西東京市","address":"東京都西東京市東町一丁目1-24","lat":35.74292,"lon":139.562957},{"name":"柳沢公民館","province":"東京都","city":"西東京市","address":"東京都西東京市柳沢一丁目15-1","lat":35.728214,"lon":139.553969},{"name":"芝久保公民館","province":"東京都","city":"西東京市","address":"東京都西東京市芝久保町五丁目4-48","lat":35.732668,"lon":139.528101},{"name":"谷戸公民館","province":"東京都","city":"西東京市","address":"東京都西東京市谷戸町一丁目17-2","lat":35.741272,"lon":139.54395},{"name":"ひばりが丘公民館","province":"東京都","city":"西東京市","address":"東京都西東京市ひばりが丘二丁目3-4","lat":35.747358,"lon":139.540608},{"name":"保谷駅前公民館","province":"東京都","city":"西東京市","address":"東京都西東京市東町三丁目14-30ステア5階","lat":35.747961,"lon":139.567639},{"name":"中央図書館","province":"東京都","city":"西東京市","address":"東京都西東京市南町五丁目6-11","lat":35.72596,"lon":139.537549},{"name":"ひばりが丘図書館","province":"東京都","city":"西東京市","address":"東京都西東京市ひばりが丘一丁目2-1","lat":35.751728,"lon":139.543523},{"name":"国立大学法人東京大学大学院農学生命科学研究科附属生態調和農学機構","province":"東京都","city":"西東京市","address":"東京都西東京市緑町1-1-1","lat":35.73263,"lon":139.540431},{"name":"国立大学法人東京大学大学院農学生命科学研究科附属田無演習林","province":"東京都","city":"西東京市","address":"東京都西東京市緑町1-1-8","lat":35.734344,"lon":139.539112},{"name":"芝久保調節池","province":"東京都","city":"西東京市","address":"東京都西東京市芝久保町1-18","lat":35.722936,"lon":139.524652},{"name":"向台調節池","province":"東京都","city":"西東京市","address":"東京都西東京市向台町5-4","lat":35.721136,"lon":139.52995},{"name":"都立小金井公園","province":"東京都","city":"西東京市","address":"東京都西東京市向台町6-4","lat":35.718332,"lon":139.524885},{"name":"都立東伏見公園","province":"東京都","city":"西東京市","address":"東京都西東京市東伏見1","lat":35.728449,"lon":139.559241},{"name":"早稲田大学東伏見キャンパス東伏見総合グラウンド","province":"東京都","city":"西東京市","address":"東京都西東京市東伏見2-7","lat":35.726844,"lon":139.561656},{"name":"MUFG PARK","province":"東京都","city":"西東京市","address":"東京都西東京市柳沢4-4","lat":35.718337,"lon":139.550842},{"name":"ひばりが丘総合運動場","province":"東京都","city":"西東京市","address":"東京都西東京市ひばりが丘3-1","lat":35.744816,"lon":139.53778},{"name":"岩倉高等学校総合運動場","province":"東京都","city":"西東京市","address":"東京都西東京市新町2-3-27","lat":35.713993,"lon":139.542077},{"name":"中原小学校","province":"東京都","city":"西東京市","address":"東京都西東京市ひばりが丘2-6-25","lat":35.746895,"lon":139.537761},{"name":"東京都立田無高等学校","province":"東京都","city":"西東京市","address":"東京都西東京市向台町5-4-34","lat":35.720209,"lon":139.529025},{"name":"東京都立保谷高等学校","province":"東京都","city":"西東京市","address":"東京都西東京市住吉町5-8-23","lat":35.745801,"lon":139.555429},{"name":"東京都立田無工業高等学校","province":"東京都","city":"西東京市","address":"東京都西東京市向台町1-9-1","lat":35.720514,"lon":139.548591},{"name":"学校法人武蔵野大学","province":"東京都","city":"西東京市","address":"東京都西東京市新町1-1-20","lat":35.716752,"lon":139.548918},{"name":"学校法人日本文華学園","province":"東京都","city":"西東京市","address":"東京都西東京市西原町4-5-85","lat":35.738298,"lon":139.53024},{"name":"西東京市","province":"東京都","city":"西東京市","address":"西東京市南町5-6-13","lat":35.7254989,"lon":139.5381592},{"name":"東伏見公園","province":"東京都","city":"西東京市","address":"東京都西東京市東伏見1丁目4","lat":35.727768,"lon":139.556091},{"name":"西東京市田無公民館","province":"東京都","city":"西東京市","address":"東京都西東京市南町5丁目6-11","lat":35.72607,"lon":139.537581},{"name":"西東京市役所田無庁舎","province":"東京都","city":"西東京市","address":"東京都西東京市南町5丁目6-13","lat":35.725614,"lon":139.538513},{"name":"西東京市役所田無庁舎","province":"東京都","city":"西東京市","address":"東京都西東京市南町5丁目6-14","lat":35.726209,"lon":139.538154},{"name":"西東京市役所田無庁舎","province":"東京都","city":"西東京市","address":"東京都西東京市南町5丁目6-13","lat":35.726037,"lon":139.538384},{"name":"西東京市役所田無庁舎","province":"東京都","city":"西東京市","address":"東京都西東京市南町5丁目6-13","lat":35.725604,"lon":139.538489},{"name":"西東京市役所田無庁舎","province":"東京都","city":"西東京市","address":"東京都西東京市南町5丁目6-13","lat":35.725943,"lon":139.538347},{"name":"西東京市役所田無庁舎","province":"東京都","city":"西東京市","address":"東京都西東京市南町5丁目6-13","lat":35.725848,"lon":139.538469},{"name":"西東京市役所　保谷東分庁舎","province":"東京都","city":"西東京市","address":"東京都西東京市中町1丁目6-8","lat":35.74129,"lon":139.5599},{"name":"防災センター・保谷保健福祉総合センター","province":"東京都","city":"西東京市","address":"東京都西東京市中町1丁目5-1","lat":35.74125,"lon":139.558786},{"name":"ひばりヶ丘駅前出張所","province":"東京都","city":"西東京市","address":"東京都西東京市住吉町3丁目10-25","lat":35.750598,"lon":139.545781},{"name":"西東京市柳橋出張所","province":"東京都","city":"西東京市","address":"東京都西東京市新町1丁目4-25","lat":35.714825,"lon":139.544789},{"name":"西東京市田無第二庁舎","province":"東京都","city":"西東京市","address":"東京都西東京市南町5丁目6-13","lat":35.725697,"lon":139.538059},{"name":"西東京市柳沢公民館・柳沢図書館","province":"東京都","city":"西東京市","address":"東京都西東京市柳沢1丁目15-1","lat":35.72833,"lon":139.553825},{"name":"総合体育館","province":"東京都","city":"西東京市","address":"東京都西東京市向台町5丁目4-20","lat":35.720047,"lon":139.529979},{"name":"西東京市芝久保公民館","province":"東京都","city":"西東京市","address":"東京都西東京市芝久保町5丁目4-48","lat":35.73272,"lon":139.527989},{"name":"西東京市谷戸公民館","province":"東京都","city":"西東京市","address":"東京都西東京市谷戸町1丁目17-2","lat":35.74158,"lon":139.543673},{"name":"ひばりが丘公民館","province":"東京都","city":"西東京市","address":"東京都西東京市ひばりが丘2丁目3-4","lat":35.747357,"lon":139.540594},{"name":"西東京市保谷駅前公民館","province":"東京都","city":"西東京市","address":"東京都西東京市東町3丁目14-30","lat":35.74784,"lon":139.567686},{"name":"西東京市保谷駅前公民館","province":"東京都","city":"西東京市","address":"東京都西東京市東町3丁目14-30","lat":35.74784,"lon":139.567726},{"name":"南町地区会館","province":"東京都","city":"西東京市","address":"東京都西東京市南町2丁目21-9","lat":35.72531,"lon":139.54608},{"name":"下宿地区会館","province":"東京都","city":"西東京市","address":"東京都西東京市南町5丁目26-1","lat":35.725315,"lon":139.536242},{"name":"緑町地区会館","province":"東京都","city":"西東京市","address":"東京都西東京市緑町1丁目5-1","lat":35.735077,"lon":139.53744},{"name":"谷戸地区会館","province":"東京都","city":"西東京市","address":"東京都西東京市谷戸町1丁目9-2","lat":35.7394,"lon":139.544585},{"name":"向台地区会館","province":"東京都","city":"西東京市","address":"東京都西東京市向台町2丁目13-12","lat":35.718753,"lon":139.541015},{"name":"芝久保地区会館","province":"東京都","city":"西東京市","address":"東京都西東京市芝久保町3丁目15-10","lat":35.729362,"lon":139.521863},{"name":"東伏見コミュニティセンター","province":"東京都","city":"西東京市","address":"東京都西東京市東伏見5丁目10-22","lat":35.721898,"lon":139.557793},{"name":"ふれあいセンター","province":"東京都","city":"西東京市","address":"東京都西東京市北町1丁目3-14","lat":35.753795,"lon":139.556756},{"name":"上向台地区会館","province":"東京都","city":"西東京市","address":"東京都西東京市向台町6丁目1-14","lat":35.720609,"lon":139.527712},{"name":"上向台地区会館","province":"東京都","city":"西東京市","address":"東京都西東京市向台町6丁目1-14","lat":35.720643,"lon":139.52772},{"name":"柳橋第二市民集会所","province":"東京都","city":"西東京市","address":"東京都西東京市新町1丁目4-25","lat":35.71479,"lon":139.544861},{"name":"柳沢第三市民集会所","province":"東京都","city":"西東京市","address":"東京都西東京市柳沢3丁目4-7","lat":35.722399,"lon":139.55421},{"name":"東伏見市民集会所","province":"東京都","city":"西東京市","address":"東京都西東京市東伏見6丁目4","lat":35.725138,"lon":139.561369},{"name":"住吉町第二市民集会所","province":"東京都","city":"西東京市","address":"東京都西東京市住吉町6丁目1-5","lat":35.743464,"lon":139.551157},{"name":"富士町市民集会所","province":"東京都","city":"西東京市","address":"東京都西東京市富士町1丁目7-69","lat":35.734415,"lon":139.560831},{"name":"緑町市民集会所","province":"東京都","city":"西東京市","address":"東京都西東京市緑町3丁目8-3","lat":35.742173,"lon":139.53851},{"name":"西東京市ひばりが丘図書館","province":"東京都","city":"西東京市","address":"東京都西東京市ひばりが丘1丁目2-1","lat":35.751929,"lon":139.543617},{"name":"保谷こもれびホール","province":"東京都","city":"西東京市","address":"東京都西東京市中町1丁目5-1","lat":35.741453,"lon":139.55841},{"name":"保谷こもれびホール","province":"東京都","city":"西東京市","address":"東京都西東京市中町1丁目5-1","lat":35.741445,"lon":139.558206},{"name":"保谷こもれびホール","province":"東京都","city":"西東京市","address":"東京都西東京市中町1丁目5-1","lat":35.741402,"lon":139.558142},{"name":"保谷こもれびホール","province":"東京都","city":"西東京市","address":"東京都西東京市中町1丁目5-1","lat":35.741416,"lon":139.558162},{"name":"保谷こもれびホール","province":"東京都","city":"西東京市","address":"東京都西東京市中町1丁目5-1","lat":35.741737,"lon":139.558138},{"name":"コール田無","province":"東京都","city":"西東京市","address":"東京都西東京市田無町3丁目7-2","lat":35.729095,"lon":139.543738},{"name":"コール田無","province":"東京都","city":"西東京市","address":"東京都西東京市田無町3丁目7-2","lat":35.729141,"lon":139.543719},{"name":"コール田無","province":"東京都","city":"西東京市","address":"東京都西東京市田無町3丁目7-2","lat":35.729086,"lon":139.54374},{"name":"下保谷森林公園","province":"東京都","city":"西東京市","address":"東京都西東京市下保谷3丁目12","lat":35.753981,"lon":139.567115},{"name":"ひばりが丘北わんぱく公園","province":"東京都","city":"西東京市","address":"東京都西東京市ひばりが丘北2丁目2","lat":35.754856,"lon":139.551958},{"name":"あらやしき公園","province":"東京都","city":"西東京市","address":"東京都西東京市下保谷4丁目8","lat":35.749949,"lon":139.566911},{"name":"文理台公園","province":"東京都","city":"西東京市","address":"東京都西東京市東町1丁目4","lat":35.74436,"lon":139.56208},{"name":"谷戸せせらぎ公園","province":"東京都","city":"西東京市","address":"東京都西東京市谷戸町1丁目22","lat":35.743017,"lon":139.543702},{"name":"西東京いこいの森公園","province":"東京都","city":"西東京市","address":"東京都西東京市緑町3丁目2","lat":35.7405,"lon":139.541232},{"name":"西東京いこいの森公園","province":"東京都","city":"西東京市","address":"東京都西東京市緑町3丁目2","lat":35.740074,"lon":139.539605},{"name":"西東京いこいの森公園","province":"東京都","city":"西東京市","address":"東京都西東京市緑町3丁目2","lat":35.741384,"lon":139.539339},{"name":"しじゅうから公園","province":"東京都","city":"西東京市","address":"東京都西東京市柳沢1丁目14","lat":35.727331,"lon":139.554072},{"name":"むくのき公園","province":"東京都","city":"西東京市","address":"東京都西東京市柳沢2丁目3","lat":35.723147,"lon":139.556264},{"name":"柳沢せせらぎ公園","province":"東京都","city":"西東京市","address":"東京都西東京市柳沢6丁目4","lat":35.727234,"lon":139.552277},{"name":"西東京市立向台公園","province":"東京都","city":"西東京市","address":"東京都西東京市向台町2丁目5","lat":35.720387,"lon":139.542531},{"name":"田無市民公園","province":"東京都","city":"西東京市","address":"東京都西東京市向台町5丁目4","lat":35.720632,"lon":139.530962},{"name":"泉小わくわく公園","province":"東京都","city":"西東京市","address":"東京都西東京市泉町3丁目6","lat":35.740912,"lon":139.553545},{"name":"田無駅北口公衆トイレ","province":"東京都","city":"西東京市","address":"東京都西東京市田無町2丁目3","lat":35.727557,"lon":139.540697},{"name":"保谷駅南口公衆トイレ","province":"東京都","city":"西東京市","address":"東京都西東京市東町3丁目14","lat":35.747832,"lon":139.567339},{"name":"西東京市障害者総合支援センター","province":"東京都","city":"西東京市","address":"東京都西東京市田無町4丁目17-14","lat":35.729394,"lon":139.535747},{"name":"下保谷福祉会館","province":"東京都","city":"西東京市","address":"東京都西東京市下保谷4丁目3-20","lat":35.750467,"lon":139.565037},{"name":"新町福祉会館","province":"東京都","city":"西東京市","address":"東京都西東京市新町5丁目2-7","lat":35.712936,"lon":139.536387},{"name":"富士町福祉会館","province":"東京都","city":"西東京市","address":"東京都西東京市富士町6丁目6-13","lat":35.730081,"lon":139.556885},{"name":"ひばりが丘福祉会館","province":"東京都","city":"西東京市","address":"東京都西東京市ひばりが丘2丁目8-27","lat":35.748531,"lon":139.537804},{"name":"田無総合福祉センター","province":"東京都","city":"西東京市","address":"東京都西東京市田無町5丁目5-12","lat":35.731803,"lon":139.53626},{"name":"田無総合福祉センター","province":"東京都","city":"西東京市","address":"東京都西東京市田無町5丁目5-12","lat":35.73171,"lon":139.536328},{"name":"田無総合福祉センター","province":"東京都","city":"西東京市","address":"東京都西東京市田無町5丁目5-12","lat":35.73193,"lon":139.536367},{"name":"老人憩いの家おあしす","province":"東京都","city":"西東京市","address":"東京都西東京市南町3丁目18-40","lat":35.722752,"lon":139.543077},{"name":"西東京市住吉会館ルピナス","province":"東京都","city":"西東京市","address":"東京都西東京市住吉町6丁目15-6","lat":35.7445,"lon":139.551258},{"name":"西東京市住吉会館ルピナス","province":"東京都","city":"西東京市","address":"東京都西東京市住吉町6丁目1","lat":35.74404,"lon":139.551197},{"name":"西東京市住吉会館ルピナス","province":"東京都","city":"西東京市","address":"東京都西東京市住吉町6丁目15-6","lat":35.74444,"lon":139.551338},{"name":"西東京市住吉会館ルピナス","province":"東京都","city":"西東京市","address":"東京都西東京市住吉町6丁目15-6","lat":35.74442,"lon":139.551373},{"name":"スポーツセンター","province":"東京都","city":"西東京市","address":"東京都西東京市中町1丁目5-1","lat":35.74227,"lon":139.55899},{"name":"スポーツセンター","province":"東京都","city":"西東京市","address":"東京都西東京市中町1丁目5-1","lat":35.742324,"lon":139.558931},{"name":"スポーツセンター","province":"東京都","city":"西東京市","address":"東京都西東京市中町1丁目5-1","lat":35.742302,"lon":139.558922},{"name":"武道場","province":"東京都","city":"西東京市","address":"東京都西東京市東町2丁目4-13","lat":35.746547,"lon":139.560891},{"name":"芝久保児童館","province":"東京都","city":"西東京市","address":"東京都西東京市芝久保町1丁目16-18","lat":35.724688,"lon":139.525676},{"name":"南町スポーツ・文化交流センター「きらっと」","province":"東京都","city":"西東京市","address":"東京都西東京市南町5丁目6-5","lat":35.725622,"lon":139.537386},{"name":"南町スポーツ・文化交流センター「きらっと」","province":"東京都","city":"西東京市","address":"東京都西東京市南町5丁目6-5","lat":35.725559,"lon":139.537431},{"name":"南町スポーツ・文化交流センター「きらっと」","province":"東京都","city":"西東京市","address":"東京都西東京市南町5丁目6-5","lat":35.725824,"lon":139.537371},{"name":"向台運動場","province":"東京都","city":"西東京市","address":"東京都西東京市向台町5丁目4","lat":35.721628,"lon":139.528501},{"name":"ひばりが丘総合運動場「ひばりアム」","province":"東京都","city":"西東京市","address":"東京都西東京市ひばりが丘3丁目1","lat":35.745694,"lon":139.537566},{"name":"北原児童館","province":"東京都","city":"西東京市","address":"東京都西東京市北原町1丁目16-2","lat":35.733686,"lon":139.544662},{"name":"ひばりが丘児童センター","province":"東京都","city":"西東京市","address":"東京都西東京市ひばりが丘3丁目1-25","lat":35.746218,"lon":139.537092},{"name":"保谷柳沢児童館","province":"東京都","city":"西東京市","address":"東京都西東京市柳沢2丁目6-11","lat":35.723438,"lon":139.556206},{"name":"下保谷児童センター","province":"東京都","city":"西東京市","address":"東京都西東京市芝久保町1丁目16-18","lat":35.724688,"lon":139.525676},{"name":"下保谷児童センター","province":"東京都","city":"西東京市","address":"東京都西東京市下保谷4丁目3-20","lat":35.750467,"lon":139.565037},{"name":"中町児童館","province":"東京都","city":"西東京市","address":"東京都西東京市下保谷4丁目3-20","lat":35.750467,"lon":139.565037},{"name":"ひばりが丘北児童センター","province":"東京都","city":"西東京市","address":"東京都西東京市下保谷4丁目3-20","lat":35.750467,"lon":139.565037},{"name":"西原北児童館","province":"東京都","city":"西東京市","address":"東京都西東京市中町4丁目4-1","lat":35.737692,"lon":139.564309},{"name":"田無柳沢児童センター","province":"東京都","city":"西東京市","address":"東京都西東京市ひばりが丘北1丁目6-8","lat":35.752367,"lon":139.54944},{"name":"地域子育て支援センター「すみよし」","province":"東京都","city":"西東京市","address":"東京都西東京市住吉町3丁目14-14","lat":35.749701,"lon":139.549378},{"name":"高齢者センターきらら","province":"東京都","city":"西東京市","address":"東京都西東京市富士町1丁目7-69","lat":35.734344,"lon":139.560617},{"name":"エコプラザ西東京","province":"東京都","city":"西東京市","address":"東京都西東京市柳沢2丁目6-11","lat":35.723489,"lon":139.556212},{"name":"エコプラザ西東京","province":"東京都","city":"西東京市","address":"東京都西東京市泉町3丁目12-35","lat":35.741184,"lon":139.556836},{"name":"したのや遺跡","province":"東京都","city":"西東京市","address":"東京都西東京市東伏見6丁目4","lat":35.724832,"lon":139.562137},{"name":"芝久保給水所","province":"東京都","city":"西東京市","address":"東京都西東京市芝久保町5-9-1","lat":35.7337671,"lon":139.524477},{"name":"保谷町給水所","province":"東京都","city":"西東京市","address":"東京都西東京市保谷町1-5-24","lat":35.7354513,"lon":139.554782},{"name":"西東京栄町配水所","province":"東京都","city":"西東京市","address":"東京都西東京市栄町2-7-6","lat":35.7516771,"lon":139.552224},{"name":"田無駅ガード下東自転車駐車場","province":"東京都","city":"西東京市","address":"東京都西東京市南町1丁目1","lat":35.72768753,"lon":139.54452773},{"name":"田無駅ガード下西自転車駐車場","province":"東京都","city":"西東京市","address":"東京都西東京市南町3丁目3","lat":35.72762639,"lon":139.54290565},{"name":"田無駅南口遊水池自転車駐車場","province":"東京都","city":"西東京市","address":"東京都西東京市南町4丁目9","lat":35.72473778,"lon":139.54030046},{"name":"ひばりヶ丘駅北口第2自転車駐車場（立体）","province":"東京都","city":"西東京市","address":"東京都西東京市ひばりが丘北3丁目2","lat":35.75151257,"lon":139.54662658},{"name":"ひばりヶ丘駅南口自転車駐車場","province":"東京都","city":"西東京市","address":"東京都西東京市住吉町3丁目10-25","lat":35.75069043,"lon":139.54597666},{"name":"ひばりヶ丘駅南口第2自転車駐車場","province":"東京都","city":"西東京市","address":"東京都西東京市ひばりが丘1丁目14","lat":35.75158469,"lon":139.54249635},{"name":"ひばりヶ丘駅南口谷戸自転車駐車場","province":"東京都","city":"西東京市","address":"東京都西東京市谷戸町3丁目21","lat":35.74911837,"lon":139.54524622},{"name":"保谷駅北口あらやしき自転車駐車場（地下式）","province":"東京都","city":"西東京市","address":"東京都西東京市下保谷4丁目8-18","lat":35.75074649,"lon":139.5671805},{"name":"保谷駅北口第2自転車駐車場（立体）","province":"東京都","city":"西東京市","address":"東京都西東京市下保谷4丁目11","lat":35.75059099,"lon":139.5684554},{"name":"保谷駅南口自転車駐車場（立体）","province":"東京都","city":"西東京市","address":"東京都西東京市東町4丁目13","lat":35.74547765,"lon":139.56628631},{"name":"保谷駅南口第1自転車駐車場","province":"東京都","city":"西東京市","address":"東京都西東京市東町3丁目4","lat":35.74647752,"lon":139.56593075},{"name":"田無駅北口第1自転車駐車場（立体）","province":"東京都","city":"西東京市","address":"東京都西東京市田無町4丁目5-34","lat":35.72795678,"lon":139.53708112},{"name":"田無駅北口第2自転車駐車場（立体）","province":"東京都","city":"西東京市","address":"東京都西東京市田無町4丁目5-34","lat":35.72795678,"lon":139.53708112},{"name":"田無駅南口自転車駐車場（立体）","province":"東京都","city":"西東京市","address":"東京都西東京市南町5丁目6-14","lat":35.72630144,"lon":139.53818111},{"name":"西武柳沢駅北口第1自転車駐車場（立体）","province":"東京都","city":"西東京市","address":"東京都西東京市保谷町3丁目24","lat":35.72928195,"lon":139.55135208},{"name":"西武柳沢駅北口第1-2自転車駐車場","province":"東京都","city":"西東京市","address":"東京都西東京市保谷町3丁目24","lat":35.72928195,"lon":139.55135208},{"name":"西武柳沢駅北口第2自転車駐車場","province":"東京都","city":"西東京市","address":"東京都西東京市保谷町3丁目11","lat":35.72872648,"lon":139.55234926},{"name":"西武柳沢駅南口自転車駐車場","province":"東京都","city":"西東京市","address":"東京都西東京市柳沢1丁目12","lat":35.72659063,"lon":139.55310762},{"name":"東伏見駅北口第1自転車駐車場","province":"東京都","city":"西東京市","address":"東京都西東京市富士町4丁目18","lat":35.7291878,"lon":139.56391215},{"name":"東伏見駅北口第2自転車駐車場","province":"東京都","city":"西東京市","address":"東京都西東京市富士町4丁目31","lat":35.72994879,"lon":139.56235113},{"name":"東伏見駅南口第1A・B自転車駐車場","province":"東京都","city":"西東京市","address":"東京都西東京市東伏見3丁目1","lat":35.72816575,"lon":139.56600368},{"name":"東伏見駅南口第2自転車駐車場","province":"東京都","city":"西東京市","address":"東京都西東京市東伏見2丁目2","lat":35.72831564,"lon":139.56209567},{"name":"ひばりヶ丘駅北口自転車駐車場","province":"東京都","city":"西東京市","address":"東京都西東京市ひばりが丘北3丁目1","lat":35.7512987,"lon":139.54670436},{"name":"東伏見","province":"東京都","city":"西東京市","address":"東京都西東京市東伏見6丁目10-22","lat":35.72516589,"lon":139.55749898},{"name":"田無町三丁目","province":"東京都","city":"西東京市","address":"東京都西東京市田無町1丁目2-31","lat":35.73104545,"lon":139.54369709},{"name":"ひばりが丘駅入口","province":"東京都","city":"西東京市","address":"東京都西東京市谷戸町3丁目27-25","lat":35.74978492,"lon":139.54359355},{"name":"田無駅北口","province":"東京都","city":"西東京市","address":"東京都西東京市田無町5丁目1-1","lat":35.72968164,"lon":139.53983915},{"name":"谷戸町三丁目","province":"東京都","city":"西東京市","address":"東京都西東京市谷戸町3丁目26-1","lat":35.74893224,"lon":139.54342137},{"name":"保谷栄小西","province":"東京都","city":"西東京市","address":"東京都西東京市栄町2丁目6-15","lat":35.75128492,"lon":139.55119012},{"name":"田無北原二丁目","province":"東京都","city":"西東京市","address":"東京都西東京市北原町2丁目8-7","lat":35.73858069,"lon":139.54366898},{"name":"新柳沢団地東","province":"東京都","city":"西東京市","address":"東京都西東京市東伏見5丁目10-30","lat":35.72226067,"lon":139.55774353},{"name":"ひばりが丘駅南","province":"東京都","city":"西東京市","address":"東京都西東京市谷戸町3丁目27","lat":35.74979604,"lon":139.54370743},{"name":"西武柳沢駅南","province":"東京都","city":"西東京市","address":"東京都西東京市柳沢2丁目19-15","lat":35.72568793,"lon":139.55214107},{"name":"谷戸町三丁目東","province":"東京都","city":"西東京市","address":"東京都西東京市谷戸町3丁目20","lat":35.74797685,"lon":139.54574622},{"name":"下保谷二丁目東","province":"東京都","city":"西東京市","address":"東京都西東京市下保谷2丁目9-3","lat":35.75104067,"lon":139.55864233},{"name":"佐々総合病院","province":"東京都","city":"西東京市","address":"東京都西東京市田無町4丁目24-15","lat":35.72967884,"lon":139.53871701},{"name":"芝久保浄水所","province":"東京都","city":"西東京市","address":"東京都西東京市芝久保町5丁目9-1","lat":35.7337808,"lon":139.52453742},{"name":"保谷町浄水所","province":"東京都","city":"西東京市","address":"東京都西東京市保谷町1丁目5-24","lat":35.73545076,"lon":139.55478209},{"name":"西東京栄町浄水所","province":"東京都","city":"西東京市","address":"東京都西東京市栄町2丁目7-6","lat":35.75167656,"lon":139.55222337},{"name":"西東京市役所田無庁舎","province":"東京都","city":"西東京市","address":"東京都西東京市南町5丁目6-13","lat":35.72567651,"lon":139.53795616},{"name":"西東京市役所保谷庁舎","province":"東京都","city":"西東京市","address":"東京都西東京市中町1丁目5-1","lat":35.74129184,"lon":139.55895096},{"name":"西東京市役所保谷庁舎","province":"東京都","city":"西東京市","address":"西東京市中町1-5-1","lat":35.741595,"lon":139.558951},{"name":"田無警察署","province":"東京都","city":"西東京市","address":"西東京市田無町5-2-5","lat":35.72999,"lon":139.5386},{"name":"西東京消防署","province":"東京都","city":"西東京市","address":"西東京市中町1-1-6","lat":35.73898,"lon":139.5553},{"name":"市民向台運動場","province":"東京都","city":"西東京市","address":"西東京市向台町5-4","lat":35.72121,"lon":139.53},{"name":"東京ガス（株）保谷ビル","province":"東京都","city":"西東京市","address":"西東京市柳沢2-18-46","lat":35.72477,"lon":139.5523},{"name":"※西東京市役所保谷庁舎","province":"東京都","city":"西東京市","address":"東京都西東京市中町1丁目5-1","lat":35.74129184,"lon":139.55895096},{"name":"市役所田無庁舎","province":"東京都","city":"西東京市","address":"東京都西東京市南町五丁目6-13","lat":35.725716,"lon":139.537958},{"name":"市役所保谷庁舎（防災センター）","province":"東京都","city":"西東京市","address":"東京都西東京市中町一丁目5-1","lat":35.741207,"lon":139.559022},{"name":"ひばりヶ丘駅前出張所","province":"東京都","city":"西東京市","address":"東京都西東京市住吉町三丁目10-25","lat":35.750782,"lon":139.546018},{"name":"柳橋出張所","province":"東京都","city":"西東京市","address":"東京都西東京市新町一丁目4-25","lat":35.714773,"lon":139.544828},{"name":"田無総合福祉センター","province":"東京都","city":"西東京市","address":"東京都西東京市田無町五丁目5-12","lat":35.731805,"lon":139.536268},{"name":"老人憩いの家「おあしす」","province":"東京都","city":"西東京市","address":"東京都西東京市南町三丁目18-40","lat":35.72249,"lon":139.542732},{"name":"高齢者センター きらら","province":"東京都","city":"西東京市","address":"東京都西東京市富士町一丁目7-69","lat":35.734334,"lon":139.560487},{"name":"谷戸高齢者在宅サービスセンター","province":"東京都","city":"西東京市","address":"東京都西東京市谷戸町三丁目23-8","lat":35.748854,"lon":139.54372},{"name":"下保谷福祉会館","province":"東京都","city":"西東京市","address":"東京都西東京市下保谷四丁目3-20","lat":35.750525,"lon":139.565141},{"name":"新町福祉会館","province":"東京都","city":"西東京市","address":"東京都西東京市新町五丁目2-7","lat":35.712955,"lon":139.536394},{"name":"富士町福祉会館","province":"東京都","city":"西東京市","address":"東京都西東京市富士町六丁目6-13","lat":35.729905,"lon":139.557144},{"name":"ひばりが丘福祉会館","province":"東京都","city":"西東京市","address":"東京都西東京市ひばりが丘二丁目8-27","lat":35.74854,"lon":139.537802},{"name":"保谷障害者福祉センター","province":"東京都","city":"西東京市","address":"東京都西東京市保谷町一丁目6-20","lat":35.734625,"lon":139.556276},{"name":"障害者総合支援センター「フレンドリー」","province":"東京都","city":"西東京市","address":"東京都西東京市田無町四丁目17-14","lat":35.72936,"lon":139.535678},{"name":"けやき保育園","province":"東京都","city":"西東京市","address":"東京都西東京市西原町五丁目4-2","lat":35.741174,"lon":139.53302},{"name":"なかまち保育園","province":"東京都","city":"西東京市","address":"東京都西東京市中町四丁目4-16","lat":35.737026,"lon":139.564813},{"name":"ひがし保育園","province":"東京都","city":"西東京市","address":"東京都西東京市東町二丁目4-13","lat":35.746366,"lon":139.560595},{"name":"やぎさわ保育園","province":"東京都","city":"西東京市","address":"東京都西東京市柳沢五丁目8-2","lat":35.722116,"lon":139.551078},{"name":"すみよし保育園","province":"東京都","city":"西東京市","address":"東京都西東京市住吉町三丁目14-14","lat":35.749589,"lon":139.548876},{"name":"西原保育園","province":"東京都","city":"西東京市","address":"東京都西東京市芝久保町五丁目4-2","lat":35.73347,"lon":139.527412},{"name":"こまどり保育園","province":"東京都","city":"西東京市","address":"東京都西東京市下保谷二丁目4-2","lat":35.752072,"lon":139.557834},{"name":"田無保育園","province":"東京都","city":"西東京市","address":"東京都西東京市緑町一丁目2-26","lat":35.7336,"lon":139.540343},{"name":"向台保育園","province":"東京都","city":"西東京市","address":"東京都西東京市南町三丁目23-1","lat":35.725691,"lon":139.54193},{"name":"ひがしふしみ保育園","province":"東京都","city":"西東京市","address":"東京都西東京市東伏見二丁目11-11","lat":35.727553,"lon":139.560168},{"name":"はこべら保育園","province":"東京都","city":"西東京市","address":"東京都西東京市富士町一丁目7-2","lat":35.733905,"lon":139.560339},{"name":"ほうやちょう保育園","province":"東京都","city":"西東京市","address":"東京都西東京市保谷町三丁目13-1","lat":35.729609,"lon":139.553146},{"name":"ひばりが丘保育園","province":"東京都","city":"西東京市","address":"東京都西東京市ひばりが丘二丁目3-5","lat":35.747125,"lon":139.54041},{"name":"芝久保保育園","province":"東京都","city":"西東京市","address":"東京都西東京市芝久保町一丁目14-32","lat":35.724642,"lon":139.526417},{"name":"ひばりが丘児童センター","province":"東京都","city":"西東京市","address":"東京都西東京市ひばりが丘三丁目1-25","lat":35.746197,"lon":139.537081},{"name":"芝久保児童館","province":"東京都","city":"西東京市","address":"東京都西東京市芝久保町一丁目16-18","lat":35.724689,"lon":139.525681},{"name":"保谷柳沢児童館","province":"東京都","city":"西東京市","address":"東京都西東京市柳沢二丁目6-11","lat":35.723473,"lon":139.556216},{"name":"田無児童館","province":"東京都","city":"西東京市","address":"東京都西東京市田無町四丁目14-2","lat":35.727741,"lon":139.535203},{"name":"ひばりが丘北児童センター","province":"東京都","city":"西東京市","address":"東京都西東京市ひばりが丘北一丁目6-8","lat":35.752385,"lon":139.549462},{"name":"みどり学童クラブ","province":"東京都","city":"西東京市","address":"東京都西東京市緑町三丁目8-3","lat":35.742137,"lon":139.538082},{"name":"保谷柳沢第二学童クラブ","province":"東京都","city":"西東京市","address":"東京都西東京市柳沢四丁目2-11","lat":35.720245,"lon":139.550443},{"name":"東学童クラブ","province":"東京都","city":"西東京市","address":"東京都西東京市東町六丁目2-33","lat":35.741882,"lon":139.564082},{"name":"田無柳沢児童センター","province":"東京都","city":"西東京市","address":"東京都西東京市向台町一丁目7-25","lat":35.72113,"lon":139.546919},{"name":"北原児童館","province":"東京都","city":"西東京市","address":"東京都西東京市北原町一丁目16-2","lat":35.733663,"lon":139.544663},{"name":"中町児童館","province":"東京都","city":"西東京市","address":"東京都西東京市中町四丁目4-1","lat":35.737689,"lon":139.564315},{"name":"田無第二学童クラブ","province":"東京都","city":"西東京市","address":"東京都西東京市田無町四丁目5-21","lat":35.728896,"lon":139.537594},{"name":"西原北児童館","province":"東京都","city":"西東京市","address":"東京都西東京市西原町四丁目5-96","lat":35.736205,"lon":139.530349},{"name":"向台・向台第二学童クラブ","province":"東京都","city":"西東京市","address":"東京都西東京市向台町三丁目1-45","lat":35.722266,"lon":139.538111},{"name":"東伏見学童クラブ","province":"東京都","city":"西東京市","address":"東京都西東京市東伏見六丁目1-17","lat":35.726271,"lon":139.559866},{"name":"谷戸学童クラブ","province":"東京都","city":"西東京市","address":"東京都西東京市谷戸町一丁目22-10","lat":35.742208,"lon":139.545903},{"name":"上向台第二学童クラブ","province":"東京都","city":"西東京市","address":"東京都西東京市向台町六丁目18-23","lat":35.721067,"lon":139.52606},{"name":"住吉会館 ルピナス","province":"東京都","city":"西東京市","address":"東京都西東京市住吉町六丁目15-6","lat":35.744425,"lon":139.551367},{"name":"ふれあいセンター","province":"東京都","city":"西東京市","address":"東京都西東京市北町一丁目3-14","lat":35.753725,"lon":139.556827},{"name":"東伏見コミュニティセンター","province":"東京都","city":"西東京市","address":"東京都西東京市東伏見五丁目10-22","lat":35.721879,"lon":139.557732},{"name":"保谷こもれびホール","province":"東京都","city":"西東京市","address":"東京都西東京市中町一丁目5-1","lat":35.741207,"lon":139.559022},{"name":"コール田無","province":"東京都","city":"西東京市","address":"東京都西東京市田無町三丁目7-2","lat":35.729144,"lon":139.5437},{"name":"芝久保コミュニティセンター","province":"東京都","city":"西東京市","address":"東京都西東京市芝久保町三丁目15-10","lat":35.729314,"lon":139.521805},{"name":"谷戸コミュニティセンター","province":"東京都","city":"西東京市","address":"東京都西東京市谷戸町一丁目9-2","lat":35.739363,"lon":139.544631},{"name":"緑町コミュニティセンター","province":"東京都","city":"西東京市","address":"東京都西東京市緑町一丁目5-1","lat":35.735075,"lon":139.537514},{"name":"向台コミュニティセンター","province":"東京都","city":"西東京市","address":"東京都西東京市向台町二丁目13-12","lat":35.71872,"lon":139.541032},{"name":"南町コミュニティセンター","province":"東京都","city":"西東京市","address":"東京都西東京市南町二丁目21-9","lat":35.725289,"lon":139.546118},{"name":"下宿コミュニティセンター","province":"東京都","city":"西東京市","address":"東京都西東京市南町五丁目26-1","lat":35.725279,"lon":139.536246},{"name":"スポーツセンター","province":"東京都","city":"西東京市","address":"東京都西東京市中町一丁目5-1","lat":35.741207,"lon":139.559022},{"name":"総合体育館","province":"東京都","city":"西東京市","address":"東京都西東京市向台町五丁目4-20","lat":35.720058,"lon":139.529976},{"name":"南町スポーツ・文化交流センター きらっと","province":"東京都","city":"西東京市","address":"東京都西東京市南町五丁目6-5","lat":35.725623,"lon":139.537517},{"name":"武道場","province":"東京都","city":"西東京市","address":"東京都西東京市東町二丁目4-13","lat":35.746366,"lon":139.560595},{"name":"健康広場","province":"東京都","city":"西東京市","address":"東京都西東京市栄町一丁目12-23","lat":35.748718,"lon":139.555044},{"name":"スポーツセンタープール監視室（旧：北原運動場）","province":"東京都","city":"西東京市","address":"東京都西東京市中町一丁目5-1","lat":35.741207,"lon":139.559022},{"name":"芝久保運動場","province":"東京都","city":"西東京市","address":"東京都西東京市芝久保町一丁目18-37","lat":35.722936,"lon":139.524652},{"name":"市民公園グランド及び向台運動場","province":"東京都","city":"西東京市","address":"東京都西東京市向台町五丁目4-9","lat":35.721136,"lon":139.52995},{"name":"芝久保第二運動場","province":"東京都","city":"西東京市","address":"東京都西東京市芝久保町五丁目6-28","lat":35.732853,"lon":139.524738},{"name":"ひばりが丘総合運動場 ひばりアム","province":"東京都","city":"西東京市","address":"東京都西東京市ひばりが丘三丁目1-24","lat":35.744816,"lon":139.53778},{"name":"西原総合教育施設","province":"東京都","city":"西東京市","address":"東京都西東京市西原町四丁目5-6","lat":35.73675,"lon":139.529077},{"name":"東伏見ふれあいプラザ","province":"東京都","city":"西東京市","address":"東京都西東京市富士町四丁目33-15飯田ビル1階","lat":35.729068,"lon":139.562591},{"name":"消費者センター分館","province":"東京都","city":"西東京市","address":"東京都西東京市住吉町六丁目1-5","lat":35.743512,"lon":139.551145},{"name":"エコプラザ西東京","province":"東京都","city":"西東京市","address":"東京都西東京市泉町三丁目12-35","lat":35.740959,"lon":139.556807},{"name":"田無小学校","province":"東京都","city":"西東京市","address":"東京都西東京市田無町四丁目5-21","lat":35.728896,"lon":139.537594},{"name":"保谷小学校","province":"東京都","city":"西東京市","address":"東京都西東京市保谷町一丁目3-35","lat":35.73733,"lon":139.554713},{"name":"保谷第一小学校","province":"東京都","city":"西東京市","address":"東京都西東京市下保谷一丁目4-4","lat":35.749886,"lon":139.558037},{"name":"保谷第二小学校","province":"東京都","city":"西東京市","address":"東京都西東京市柳沢四丁目2-11","lat":35.720245,"lon":139.550443},{"name":"谷戸小学校","province":"東京都","city":"西東京市","address":"東京都西東京市緑町三丁目1-1","lat":35.740354,"lon":139.542607},{"name":"東伏見小学校","province":"東京都","city":"西東京市","address":"東京都西東京市東伏見六丁目1-28","lat":35.725955,"lon":139.559112},{"name":"中原小学校","province":"東京都","city":"西東京市","address":"東京都西東京市ひばりが丘三丁目2-42","lat":35.742528,"lon":139.535159},{"name":"向台小学校","province":"東京都","city":"西東京市","address":"東京都西東京市向台町二丁目1-1","lat":35.722296,"lon":139.539904},{"name":"碧山小学校","province":"東京都","city":"西東京市","address":"東京都西東京市中町五丁目11-4","lat":35.738454,"lon":139.563039},{"name":"芝久保小学校","province":"東京都","city":"西東京市","address":"東京都西東京市芝久保三丁目7-1","lat":35.729026,"lon":139.522664},{"name":"栄小学校","province":"東京都","city":"西東京市","address":"東京都西東京市栄町二丁目10-9","lat":35.752154,"lon":139.55292},{"name":"上向台小学校","province":"東京都","city":"西東京市","address":"東京都西東京市向台町六丁目7-28","lat":35.720756,"lon":139.525719},{"name":"谷戸第二小学校","province":"東京都","city":"西東京市","address":"東京都西東京市谷戸町一丁目17-27","lat":35.741493,"lon":139.545141},{"name":"東小学校","province":"東京都","city":"西東京市","address":"東京都西東京市東町六丁目2-33","lat":35.741882,"lon":139.564082},{"name":"柳沢小学校","province":"東京都","city":"西東京市","address":"東京都西東京市南町二丁目12-37","lat":35.7221,"lon":139.547896},{"name":"本町小学校","province":"東京都","city":"西東京市","address":"東京都西東京市保谷町一丁目14-23","lat":35.732773,"lon":139.555621},{"name":"住吉小学校","province":"東京都","city":"西東京市","address":"東京都西東京市住吉町五丁目2-1","lat":35.745906,"lon":139.553343},{"name":"けやき小学校","province":"東京都","city":"西東京市","address":"東京都西東京市芝久保町五丁目7-1","lat":35.734427,"lon":139.525797},{"name":"田無第一中学校","province":"東京都","city":"西東京市","address":"東京都西東京市南町六丁目9-37","lat":35.724274,"lon":139.53074},{"name":"保谷中学校","province":"東京都","city":"西東京市","address":"東京都西東京市保谷町一丁目17-4","lat":35.733482,"lon":139.556456},{"name":"田無第二中学校","province":"東京都","city":"西東京市","address":"東京都西東京市北原町二丁目9-1","lat":35.738363,"lon":139.544914},{"name":"ひばりが丘中学校","province":"東京都","city":"西東京市","address":"東京都西東京市ひばりが丘三丁目2-42","lat":35.742528,"lon":139.535159},{"name":"田無第三中学校","province":"東京都","city":"西東京市","address":"東京都西東京市西原町三丁目4-1","lat":35.734845,"lon":139.531063},{"name":"青嵐中学校","province":"東京都","city":"西東京市","address":"東京都西東京市北町二丁目13-17","lat":35.756388,"lon":139.556354},{"name":"柳沢中学校","province":"東京都","city":"西東京市","address":"東京都西東京市柳沢三丁目8-22","lat":35.720625,"lon":139.552732},{"name":"田無第四中学校","province":"東京都","city":"西東京市","address":"東京都西東京市向台町二丁目14-9","lat":35.719725,"lon":139.540642},{"name":"明保中学校","province":"東京都","city":"西東京市","address":"東京都西東京市東町一丁目1-24","lat":35.74292,"lon":139.562957},{"name":"柳沢公民館","province":"東京都","city":"西東京市","address":"東京都西東京市柳沢一丁目15-1","lat":35.728214,"lon":139.553969},{"name":"芝久保公民館","province":"東京都","city":"西東京市","address":"東京都西東京市芝久保町五丁目4-48","lat":35.732668,"lon":139.528101},{"name":"谷戸公民館","province":"東京都","city":"西東京市","address":"東京都西東京市谷戸町一丁目17-2","lat":35.741272,"lon":139.54395},{"name":"ひばりが丘公民館","province":"東京都","city":"西東京市","address":"東京都西東京市ひばりが丘二丁目3-4","lat":35.747358,"lon":139.540608},{"name":"保谷駅前公民館","province":"東京都","city":"西東京市","address":"東京都西東京市東町三丁目14-30ステア5階","lat":35.747961,"lon":139.567639},{"name":"中央図書館","province":"東京都","city":"西東京市","address":"東京都西東京市南町五丁目6-11","lat":35.72596,"lon":139.537549},{"name":"ひばりが丘図書館","province":"東京都","city":"西東京市","address":"東京都西東京市ひばりが丘一丁目2-1","lat":35.751728,"lon":139.543523},{"name":"国立大学法人東京大学大学院農学生命科学研究科附属生態調和農学機構","province":"東京都","city":"西東京市","address":"東京都西東京市緑町1-1-1","lat":35.73263,"lon":139.540431},{"name":"国立大学法人東京大学大学院農学生命科学研究科附属田無演習林","province":"東京都","city":"西東京市","address":"東京都西東京市緑町1-1-8","lat":35.734344,"lon":139.539112},{"name":"芝久保調節池","province":"東京都","city":"西東京市","address":"東京都西東京市芝久保町1-18","lat":35.722936,"lon":139.524652},{"name":"向台調節池","province":"東京都","city":"西東京市","address":"東京都西東京市向台町5-4","lat":35.721136,"lon":139.52995},{"name":"都立小金井公園","province":"東京都","city":"西東京市","address":"東京都西東京市向台町6-4","lat":35.718332,"lon":139.524885},{"name":"都立東伏見公園","province":"東京都","city":"西東京市","address":"東京都西東京市東伏見1","lat":35.728449,"lon":139.559241},{"name":"早稲田大学東伏見キャンパス東伏見総合グラウンド","province":"東京都","city":"西東京市","address":"東京都西東京市東伏見2-7","lat":35.726844,"lon":139.561656},{"name":"MUFG PARK","province":"東京都","city":"西東京市","address":"東京都西東京市柳沢4-4","lat":35.718337,"lon":139.550842},{"name":"ひばりが丘総合運動場","province":"東京都","city":"西東京市","address":"東京都西東京市ひばりが丘3-1","lat":35.744816,"lon":139.53778},{"name":"岩倉高等学校総合運動場","province":"東京都","city":"西東京市","address":"東京都西東京市新町2-3-27","lat":35.713993,"lon":139.542077},{"name":"中原小学校","province":"東京都","city":"西東京市","address":"東京都西東京市ひばりが丘2-6-25","lat":35.746895,"lon":139.537761},{"name":"東京都立田無高等学校","province":"東京都","city":"西東京市","address":"東京都西東京市向台町5-4-34","lat":35.720209,"lon":139.529025},{"name":"東京都立保谷高等学校","province":"東京都","city":"西東京市","address":"東京都西東京市住吉町5-8-23","lat":35.745801,"lon":139.555429},{"name":"東京都立田無工業高等学校","province":"東京都","city":"西東京市","address":"東京都西東京市向台町1-9-1","lat":35.720514,"lon":139.548591},{"name":"学校法人武蔵野大学","province":"東京都","city":"西東京市","address":"東京都西東京市新町1-1-20","lat":35.716752,"lon":139.548918},{"name":"学校法人日本文華学園","province":"東京都","city":"西東京市","address":"東京都西東京市西原町4-5-85","lat":35.738298,"lon":139.53024},{"name":"西東京市","province":"東京都","city":"西東京市","address":"西東京市南町5-6-13","lat":35.7254989,"lon":139.5381592},{"name":"東伏見公園","province":"東京都","city":"西東京市","address":"東京都西東京市東伏見1丁目4","lat":35.727768,"lon":139.556091},{"name":"西東京市田無公民館","province":"東京都","city":"西東京市","address":"東京都西東京市南町5丁目6-11","lat":35.72607,"lon":139.537581},{"name":"西東京市役所田無庁舎","province":"東京都","city":"西東京市","address":"東京都西東京市南町5丁目6-13","lat":35.725614,"lon":139.538513},{"name":"西東京市役所田無庁舎","province":"東京都","city":"西東京市","address":"東京都西東京市南町5丁目6-14","lat":35.726209,"lon":139.538154},{"name":"西東京市役所田無庁舎","province":"東京都","city":"西東京市","address":"東京都西東京市南町5丁目6-13","lat":35.726037,"lon":139.538384},{"name":"西東京市役所田無庁舎","province":"東京都","city":"西東京市","address":"東京都西東京市南町5丁目6-13","lat":35.725604,"lon":139.538489},{"name":"西東京市役所田無庁舎","province":"東京都","city":"西東京市","address":"東京都西東京市南町5丁目6-13","lat":35.725943,"lon":139.538347},{"name":"西東京市役所田無庁舎","province":"東京都","city":"西東京市","address":"東京都西東京市南町5丁目6-13","lat":35.725848,"lon":139.538469},{"name":"西東京市役所　保谷東分庁舎","province":"東京都","city":"西東京市","address":"東京都西東京市中町1丁目6-8","lat":35.74129,"lon":139.5599},{"name":"防災センター・保谷保健福祉総合センター","province":"東京都","city":"西東京市","address":"東京都西東京市中町1丁目5-1","lat":35.74125,"lon":139.558786},{"name":"ひばりヶ丘駅前出張所","province":"東京都","city":"西東京市","address":"東京都西東京市住吉町3丁目10-25","lat":35.750598,"lon":139.545781},{"name":"西東京市柳橋出張所","province":"東京都","city":"西東京市","address":"東京都西東京市新町1丁目4-25","lat":35.714825,"lon":139.544789},{"name":"西東京市田無第二庁舎","province":"東京都","city":"西東京市","address":"東京都西東京市南町5丁目6-13","lat":35.725697,"lon":139.538059},{"name":"西東京市柳沢公民館・柳沢図書館","province":"東京都","city":"西東京市","address":"東京都西東京市柳沢1丁目15-1","lat":35.72833,"lon":139.553825},{"name":"総合体育館","province":"東京都","city":"西東京市","address":"東京都西東京市向台町5丁目4-20","lat":35.720047,"lon":139.529979},{"name":"西東京市芝久保公民館","province":"東京都","city":"西東京市","address":"東京都西東京市芝久保町5丁目4-48","lat":35.73272,"lon":139.527989},{"name":"西東京市谷戸公民館","province":"東京都","city":"西東京市","address":"東京都西東京市谷戸町1丁目17-2","lat":35.74158,"lon":139.543673},{"name":"ひばりが丘公民館","province":"東京都","city":"西東京市","address":"東京都西東京市ひばりが丘2丁目3-4","lat":35.747357,"lon":139.540594},{"name":"西東京市保谷駅前公民館","province":"東京都","city":"西東京市","address":"東京都西東京市東町3丁目14-30","lat":35.74784,"lon":139.567686},{"name":"西東京市保谷駅前公民館","province":"東京都","city":"西東京市","address":"東京都西東京市東町3丁目14-30","lat":35.74784,"lon":139.567726},{"name":"南町地区会館","province":"東京都","city":"西東京市","address":"東京都西東京市南町2丁目21-9","lat":35.72531,"lon":139.54608},{"name":"下宿地区会館","province":"東京都","city":"西東京市","address":"東京都西東京市南町5丁目26-1","lat":35.725315,"lon":139.536242},{"name":"緑町地区会館","province":"東京都","city":"西東京市","address":"東京都西東京市緑町1丁目5-1","lat":35.735077,"lon":139.53744},{"name":"谷戸地区会館","province":"東京都","city":"西東京市","address":"東京都西東京市谷戸町1丁目9-2","lat":35.7394,"lon":139.544585},{"name":"向台地区会館","province":"東京都","city":"西東京市","address":"東京都西東京市向台町2丁目13-12","lat":35.718753,"lon":139.541015},{"name":"芝久保地区会館","province":"東京都","city":"西東京市","address":"東京都西東京市芝久保町3丁目15-10","lat":35.729362,"lon":139.521863},{"name":"東伏見コミュニティセンター","province":"東京都","city":"西東京市","address":"東京都西東京市東伏見5丁目10-22","lat":35.721898,"lon":139.557793},{"name":"ふれあいセンター","province":"東京都","city":"西東京市","address":"東京都西東京市北町1丁目3-14","lat":35.753795,"lon":139.556756},{"name":"上向台地区会館","province":"東京都","city":"西東京市","address":"東京都西東京市向台町6丁目1-14","lat":35.720609,"lon":139.527712},{"name":"上向台地区会館","province":"東京都","city":"西東京市","address":"東京都西東京市向台町6丁目1-14","lat":35.720643,"lon":139.52772},{"name":"柳橋第二市民集会所","province":"東京都","city":"西東京市","address":"東京都西東京市新町1丁目4-25","lat":35.71479,"lon":139.544861},{"name":"柳沢第三市民集会所","province":"東京都","city":"西東京市","address":"東京都西東京市柳沢3丁目4-7","lat":35.722399,"lon":139.55421},{"name":"東伏見市民集会所","province":"東京都","city":"西東京市","address":"東京都西東京市東伏見6丁目4","lat":35.725138,"lon":139.561369},{"name":"住吉町第二市民集会所","province":"東京都","city":"西東京市","address":"東京都西東京市住吉町6丁目1-5","lat":35.743464,"lon":139.551157},{"name":"富士町市民集会所","province":"東京都","city":"西東京市","address":"東京都西東京市富士町1丁目7-69","lat":35.734415,"lon":139.560831},{"name":"緑町市民集会所","province":"東京都","city":"西東京市","address":"東京都西東京市緑町3丁目8-3","lat":35.742173,"lon":139.53851},{"name":"西東京市ひばりが丘図書館","province":"東京都","city":"西東京市","address":"東京都西東京市ひばりが丘1丁目2-1","lat":35.751929,"lon":139.543617},{"name":"保谷こもれびホール","province":"東京都","city":"西東京市","address":"東京都西東京市中町1丁目5-1","lat":35.741453,"lon":139.55841},{"name":"保谷こもれびホール","province":"東京都","city":"西東京市","address":"東京都西東京市中町1丁目5-1","lat":35.741445,"lon":139.558206},{"name":"保谷こもれびホール","province":"東京都","city":"西東京市","address":"東京都西東京市中町1丁目5-1","lat":35.741402,"lon":139.558142},{"name":"保谷こもれびホール","province":"東京都","city":"西東京市","address":"東京都西東京市中町1丁目5-1","lat":35.741416,"lon":139.558162},{"name":"保谷こもれびホール","province":"東京都","city":"西東京市","address":"東京都西東京市中町1丁目5-1","lat":35.741737,"lon":139.558138},{"name":"コール田無","province":"東京都","city":"西東京市","address":"東京都西東京市田無町3丁目7-2","lat":35.729095,"lon":139.543738},{"name":"コール田無","province":"東京都","city":"西東京市","address":"東京都西東京市田無町3丁目7-2","lat":35.729141,"lon":139.543719},{"name":"コール田無","province":"東京都","city":"西東京市","address":"東京都西東京市田無町3丁目7-2","lat":35.729086,"lon":139.54374},{"name":"下保谷森林公園","province":"東京都","city":"西東京市","address":"東京都西東京市下保谷3丁目12","lat":35.753981,"lon":139.567115},{"name":"ひばりが丘北わんぱく公園","province":"東京都","city":"西東京市","address":"東京都西東京市ひばりが丘北2丁目2","lat":35.754856,"lon":139.551958},{"name":"あらやしき公園","province":"東京都","city":"西東京市","address":"東京都西東京市下保谷4丁目8","lat":35.749949,"lon":139.566911},{"name":"文理台公園","province":"東京都","city":"西東京市","address":"東京都西東京市東町1丁目4","lat":35.74436,"lon":139.56208},{"name":"谷戸せせらぎ公園","province":"東京都","city":"西東京市","address":"東京都西東京市谷戸町1丁目22","lat":35.743017,"lon":139.543702},{"name":"西東京いこいの森公園","province":"東京都","city":"西東京市","address":"東京都西東京市緑町3丁目2","lat":35.7405,"lon":139.541232},{"name":"西東京いこいの森公園","province":"東京都","city":"西東京市","address":"東京都西東京市緑町3丁目2","lat":35.740074,"lon":139.539605},{"name":"西東京いこいの森公園","province":"東京都","city":"西東京市","address":"東京都西東京市緑町3丁目2","lat":35.741384,"lon":139.539339},{"name":"しじゅうから公園","province":"東京都","city":"西東京市","address":"東京都西東京市柳沢1丁目14","lat":35.727331,"lon":139.554072},{"name":"むくのき公園","province":"東京都","city":"西東京市","address":"東京都西東京市柳沢2丁目3","lat":35.723147,"lon":139.556264},{"name":"柳沢せせらぎ公園","province":"東京都","city":"西東京市","address":"東京都西東京市柳沢6丁目4","lat":35.727234,"lon":139.552277},{"name":"西東京市立向台公園","province":"東京都","city":"西東京市","address":"東京都西東京市向台町2丁目5","lat":35.720387,"lon":139.542531},{"name":"田無市民公園","province":"東京都","city":"西東京市","address":"東京都西東京市向台町5丁目4","lat":35.720632,"lon":139.530962},{"name":"泉小わくわく公園","province":"東京都","city":"西東京市","address":"東京都西東京市泉町3丁目6","lat":35.740912,"lon":139.553545},{"name":"田無駅北口公衆トイレ","province":"東京都","city":"西東京市","address":"東京都西東京市田無町2丁目3","lat":35.727557,"lon":139.540697},{"name":"保谷駅南口公衆トイレ","province":"東京都","city":"西東京市","address":"東京都西東京市東町3丁目14","lat":35.747832,"lon":139.567339},{"name":"西東京市障害者総合支援センター","province":"東京都","city":"西東京市","address":"東京都西東京市田無町4丁目17-14","lat":35.729394,"lon":139.535747},{"name":"下保谷福祉会館","province":"東京都","city":"西東京市","address":"東京都西東京市下保谷4丁目3-20","lat":35.750467,"lon":139.565037},{"name":"新町福祉会館","province":"東京都","city":"西東京市","address":"東京都西東京市新町5丁目2-7","lat":35.712936,"lon":139.536387},{"name":"富士町福祉会館","province":"東京都","city":"西東京市","address":"東京都西東京市富士町6丁目6-13","lat":35.730081,"lon":139.556885},{"name":"ひばりが丘福祉会館","province":"東京都","city":"西東京市","address":"東京都西東京市ひばりが丘2丁目8-27","lat":35.748531,"lon":139.537804},{"name":"田無総合福祉センター","province":"東京都","city":"西東京市","address":"東京都西東京市田無町5丁目5-12","lat":35.731803,"lon":139.53626},{"name":"田無総合福祉センター","province":"東京都","city":"西東京市","address":"東京都西東京市田無町5丁目5-12","lat":35.73171,"lon":139.536328},{"name":"田無総合福祉センター","province":"東京都","city":"西東京市","address":"東京都西東京市田無町5丁目5-12","lat":35.73193,"lon":139.536367},{"name":"老人憩いの家おあしす","province":"東京都","city":"西東京市","address":"東京都西東京市南町3丁目18-40","lat":35.722752,"lon":139.543077},{"name":"西東京市住吉会館ルピナス","province":"東京都","city":"西東京市","address":"東京都西東京市住吉町6丁目15-6","lat":35.7445,"lon":139.551258},{"name":"西東京市住吉会館ルピナス","province":"東京都","city":"西東京市","address":"東京都西東京市住吉町6丁目1","lat":35.74404,"lon":139.551197},{"name":"西東京市住吉会館ルピナス","province":"東京都","city":"西東京市","address":"東京都西東京市住吉町6丁目15-6","lat":35.74444,"lon":139.551338},{"name":"西東京市住吉会館ルピナス","province":"東京都","city":"西東京市","address":"東京都西東京市住吉町6丁目15-6","lat":35.74442,"lon":139.551373},{"name":"スポーツセンター","province":"東京都","city":"西東京市","address":"東京都西東京市中町1丁目5-1","lat":35.74227,"lon":139.55899},{"name":"スポーツセンター","province":"東京都","city":"西東京市","address":"東京都西東京市中町1丁目5-1","lat":35.742324,"lon":139.558931},{"name":"スポーツセンター","province":"東京都","city":"西東京市","address":"東京都西東京市中町1丁目5-1","lat":35.742302,"lon":139.558922},{"name":"武道場","province":"東京都","city":"西東京市","address":"東京都西東京市東町2丁目4-13","lat":35.746547,"lon":139.560891},{"name":"芝久保児童館","province":"東京都","city":"西東京市","address":"東京都西東京市芝久保町1丁目16-18","lat":35.724688,"lon":139.525676},{"name":"南町スポーツ・文化交流センター「きらっと」","province":"東京都","city":"西東京市","address":"東京都西東京市南町5丁目6-5","lat":35.725622,"lon":139.537386},{"name":"南町スポーツ・文化交流センター「きらっと」","province":"東京都","city":"西東京市","address":"東京都西東京市南町5丁目6-5","lat":35.725559,"lon":139.537431},{"name":"南町スポーツ・文化交流センター「きらっと」","province":"東京都","city":"西東京市","address":"東京都西東京市南町5丁目6-5","lat":35.725824,"lon":139.537371},{"name":"向台運動場","province":"東京都","city":"西東京市","address":"東京都西東京市向台町5丁目4","lat":35.721628,"lon":139.528501},{"name":"ひばりが丘総合運動場「ひばりアム」","province":"東京都","city":"西東京市","address":"東京都西東京市ひばりが丘3丁目1","lat":35.745694,"lon":139.537566},{"name":"北原児童館","province":"東京都","city":"西東京市","address":"東京都西東京市北原町1丁目16-2","lat":35.733686,"lon":139.544662},{"name":"ひばりが丘児童センター","province":"東京都","city":"西東京市","address":"東京都西東京市ひばりが丘3丁目1-25","lat":35.746218,"lon":139.537092},{"name":"保谷柳沢児童館","province":"東京都","city":"西東京市","address":"東京都西東京市柳沢2丁目6-11","lat":35.723438,"lon":139.556206},{"name":"下保谷児童センター","province":"東京都","city":"西東京市","address":"東京都西東京市芝久保町1丁目16-18","lat":35.724688,"lon":139.525676},{"name":"下保谷児童センター","province":"東京都","city":"西東京市","address":"東京都西東京市下保谷4丁目3-20","lat":35.750467,"lon":139.565037},{"name":"中町児童館","province":"東京都","city":"西東京市","address":"東京都西東京市下保谷4丁目3-20","lat":35.750467,"lon":139.565037},{"name":"ひばりが丘北児童センター","province":"東京都","city":"西東京市","address":"東京都西東京市下保谷4丁目3-20","lat":35.750467,"lon":139.565037},{"name":"西原北児童館","province":"東京都","city":"西東京市","address":"東京都西東京市中町4丁目4-1","lat":35.737692,"lon":139.564309},{"name":"田無柳沢児童センター","province":"東京都","city":"西東京市","address":"東京都西東京市ひばりが丘北1丁目6-8","lat":35.752367,"lon":139.54944},{"name":"地域子育て支援センター「すみよし」","province":"東京都","city":"西東京市","address":"東京都西東京市住吉町3丁目14-14","lat":35.749701,"lon":139.549378},{"name":"高齢者センターきらら","province":"東京都","city":"西東京市","address":"東京都西東京市富士町1丁目7-69","lat":35.734344,"lon":139.560617},{"name":"エコプラザ西東京","province":"東京都","city":"西東京市","address":"東京都西東京市柳沢2丁目6-11","lat":35.723489,"lon":139.556212},{"name":"エコプラザ西東京","province":"東京都","city":"西東京市","address":"東京都西東京市泉町3丁目12-35","lat":35.741184,"lon":139.556836},{"name":"したのや遺跡","province":"東京都","city":"西東京市","address":"東京都西東京市東伏見6丁目4","lat":35.724832,"lon":139.562137},{"name":"芝久保給水所","province":"東京都","city":"西東京市","address":"東京都西東京市芝久保町5-9-1","lat":35.7337671,"lon":139.524477},{"name":"保谷町給水所","province":"東京都","city":"西東京市","address":"東京都西東京市保谷町1-5-24","lat":35.7354513,"lon":139.554782},{"name":"西東京栄町配水所","province":"東京都","city":"西東京市","address":"東京都西東京市栄町2-7-6","lat":35.7516771,"lon":139.552224},{"name":"田無駅ガード下東自転車駐車場","province":"東京都","city":"西東京市","address":"東京都西東京市南町1丁目1","lat":35.72768753,"lon":139.54452773},{"name":"田無駅ガード下西自転車駐車場","province":"東京都","city":"西東京市","address":"東京都西東京市南町3丁目3","lat":35.72762639,"lon":139.54290565},{"name":"田無駅南口遊水池自転車駐車場","province":"東京都","city":"西東京市","address":"東京都西東京市南町4丁目9","lat":35.72473778,"lon":139.54030046},{"name":"ひばりヶ丘駅北口第2自転車駐車場（立体）","province":"東京都","city":"西東京市","address":"東京都西東京市ひばりが丘北3丁目2","lat":35.75151257,"lon":139.54662658},{"name":"ひばりヶ丘駅南口自転車駐車場","province":"東京都","city":"西東京市","address":"東京都西東京市住吉町3丁目10-25","lat":35.75069043,"lon":139.54597666},{"name":"ひばりヶ丘駅南口第2自転車駐車場","province":"東京都","city":"西東京市","address":"東京都西東京市ひばりが丘1丁目14","lat":35.75158469,"lon":139.54249635},{"name":"ひばりヶ丘駅南口谷戸自転車駐車場","province":"東京都","city":"西東京市","address":"東京都西東京市谷戸町3丁目21","lat":35.74911837,"lon":139.54524622},{"name":"保谷駅北口あらやしき自転車駐車場（地下式）","province":"東京都","city":"西東京市","address":"東京都西東京市下保谷4丁目8-18","lat":35.75074649,"lon":139.5671805},{"name":"保谷駅北口第2自転車駐車場（立体）","province":"東京都","city":"西東京市","address":"東京都西東京市下保谷4丁目11","lat":35.75059099,"lon":139.5684554},{"name":"保谷駅南口自転車駐車場（立体）","province":"東京都","city":"西東京市","address":"東京都西東京市東町4丁目13","lat":35.74547765,"lon":139.56628631},{"name":"保谷駅南口第1自転車駐車場","province":"東京都","city":"西東京市","address":"東京都西東京市東町3丁目4","lat":35.74647752,"lon":139.56593075},{"name":"田無駅北口第1自転車駐車場（立体）","province":"東京都","city":"西東京市","address":"東京都西東京市田無町4丁目5-34","lat":35.72795678,"lon":139.53708112},{"name":"田無駅北口第2自転車駐車場（立体）","province":"東京都","city":"西東京市","address":"東京都西東京市田無町4丁目5-34","lat":35.72795678,"lon":139.53708112},{"name":"田無駅南口自転車駐車場（立体）","province":"東京都","city":"西東京市","address":"東京都西東京市南町5丁目6-14","lat":35.72630144,"lon":139.53818111},{"name":"西武柳沢駅北口第1自転車駐車場（立体）","province":"東京都","city":"西東京市","address":"東京都西東京市保谷町3丁目24","lat":35.72928195,"lon":139.55135208},{"name":"西武柳沢駅北口第1-2自転車駐車場","province":"東京都","city":"西東京市","address":"東京都西東京市保谷町3丁目24","lat":35.72928195,"lon":139.55135208},{"name":"西武柳沢駅北口第2自転車駐車場","province":"東京都","city":"西東京市","address":"東京都西東京市保谷町3丁目11","lat":35.72872648,"lon":139.55234926},{"name":"西武柳沢駅南口自転車駐車場","province":"東京都","city":"西東京市","address":"東京都西東京市柳沢1丁目12","lat":35.72659063,"lon":139.55310762},{"name":"東伏見駅北口第1自転車駐車場","province":"東京都","city":"西東京市","address":"東京都西東京市富士町4丁目18","lat":35.7291878,"lon":139.56391215},{"name":"東伏見駅北口第2自転車駐車場","province":"東京都","city":"西東京市","address":"東京都西東京市富士町4丁目31","lat":35.72994879,"lon":139.56235113},{"name":"東伏見駅南口第1A・B自転車駐車場","province":"東京都","city":"西東京市","address":"東京都西東京市東伏見3丁目1","lat":35.72816575,"lon":139.56600368},{"name":"東伏見駅南口第2自転車駐車場","province":"東京都","city":"西東京市","address":"東京都西東京市東伏見2丁目2","lat":35.72831564,"lon":139.56209567},{"name":"ひばりヶ丘駅北口自転車駐車場","province":"東京都","city":"西東京市","address":"東京都西東京市ひばりが丘北3丁目1","lat":35.7512987,"lon":139.54670436},{"name":"東伏見","province":"東京都","city":"西東京市","address":"東京都西東京市東伏見6丁目10-22","lat":35.72516589,"lon":139.55749898},{"name":"田無町三丁目","province":"東京都","city":"西東京市","address":"東京都西東京市田無町1丁目2-31","lat":35.73104545,"lon":139.54369709},{"name":"ひばりが丘駅入口","province":"東京都","city":"西東京市","address":"東京都西東京市谷戸町3丁目27-25","lat":35.74978492,"lon":139.54359355},{"name":"田無駅北口","province":"東京都","city":"西東京市","address":"東京都西東京市田無町5丁目1-1","lat":35.72968164,"lon":139.53983915},{"name":"谷戸町三丁目","province":"東京都","city":"西東京市","address":"東京都西東京市谷戸町3丁目26-1","lat":35.74893224,"lon":139.54342137},{"name":"保谷栄小西","province":"東京都","city":"西東京市","address":"東京都西東京市栄町2丁目6-15","lat":35.75128492,"lon":139.55119012},{"name":"田無北原二丁目","province":"東京都","city":"西東京市","address":"東京都西東京市北原町2丁目8-7","lat":35.73858069,"lon":139.54366898},{"name":"新柳沢団地東","province":"東京都","city":"西東京市","address":"東京都西東京市東伏見5丁目10-30","lat":35.72226067,"lon":139.55774353},{"name":"ひばりが丘駅南","province":"東京都","city":"西東京市","address":"東京都西東京市谷戸町3丁目27","lat":35.74979604,"lon":139.54370743},{"name":"西武柳沢駅南","province":"東京都","city":"西東京市","address":"東京都西東京市柳沢2丁目19-15","lat":35.72568793,"lon":139.55214107},{"name":"谷戸町三丁目東","province":"東京都","city":"西東京市","address":"東京都西東京市谷戸町3丁目20","lat":35.74797685,"lon":139.54574622},{"name":"下保谷二丁目東","province":"東京都","city":"西東京市","address":"東京都西東京市下保谷2丁目9-3","lat":35.75104067,"lon":139.55864233},{"name":"佐々総合病院","province":"東京都","city":"西東京市","address":"東京都西東京市田無町4丁目24-15","lat":35.72967884,"lon":139.53871701},{"name":"西東京市役所田無庁舎","province":"東京都","city":"西東京市","address":"東京都西東京市南町5丁目6-13","lat":35.72567651,"lon":139.53795616},{"name":"西東京市役所保谷庁舎","province":"東京都","city":"西東京市","address":"東京都西東京市中町1丁目5-1","lat":35.74129184,"lon":139.55895096},{"name":"西東京市役所保谷庁舎","province":"東京都","city":"西東京市","address":"西東京市中町1-5-1","lat":35.741595,"lon":139.558951},{"name":"田無警察署","province":"東京都","city":"西東京市","address":"西東京市田無町5-2-5","lat":35.72999,"lon":139.5386},{"name":"西東京消防署","province":"東京都","city":"西東京市","address":"西東京市中町1-1-6","lat":35.73898,"lon":139.5553},{"name":"市民向台運動場","province":"東京都","city":"西東京市","address":"西東京市向台町5-4","lat":35.72121,"lon":139.53},{"name":"東京ガス（株）保谷ビル","province":"東京都","city":"西東京市","address":"西東京市柳沢2-18-46","lat":35.72477,"lon":139.5523},{"name":"※西東京市役所保谷庁舎","province":"東京都","city":"西東京市","address":"東京都西東京市中町1丁目5-1","lat":35.74129184,"lon":139.55895096},{"name":"市役所田無庁舎","province":"東京都","city":"西東京市","address":"東京都西東京市南町五丁目6-13","lat":35.725716,"lon":139.537958},{"name":"市役所保谷庁舎（防災センター）","province":"東京都","city":"西東京市","address":"東京都西東京市中町一丁目5-1","lat":35.741207,"lon":139.559022},{"name":"ひばりヶ丘駅前出張所","province":"東京都","city":"西東京市","address":"東京都西東京市住吉町三丁目10-25","lat":35.750782,"lon":139.546018},{"name":"柳橋出張所","province":"東京都","city":"西東京市","address":"東京都西東京市新町一丁目4-25","lat":35.714773,"lon":139.544828},{"name":"田無総合福祉センター","province":"東京都","city":"西東京市","address":"東京都西東京市田無町五丁目5-12","lat":35.731805,"lon":139.536268},{"name":"老人憩いの家「おあしす」","province":"東京都","city":"西東京市","address":"東京都西東京市南町三丁目18-40","lat":35.72249,"lon":139.542732},{"name":"高齢者センター きらら","province":"東京都","city":"西東京市","address":"東京都西東京市富士町一丁目7-69","lat":35.734334,"lon":139.560487},{"name":"谷戸高齢者在宅サービスセンター","province":"東京都","city":"西東京市","address":"東京都西東京市谷戸町三丁目23-8","lat":35.748854,"lon":139.54372},{"name":"下保谷福祉会館","province":"東京都","city":"西東京市","address":"東京都西東京市下保谷四丁目3-20","lat":35.750525,"lon":139.565141},{"name":"新町福祉会館","province":"東京都","city":"西東京市","address":"東京都西東京市新町五丁目2-7","lat":35.712955,"lon":139.536394},{"name":"富士町福祉会館","province":"東京都","city":"西東京市","address":"東京都西東京市富士町六丁目6-13","lat":35.729905,"lon":139.557144},{"name":"ひばりが丘福祉会館","province":"東京都","city":"西東京市","address":"東京都西東京市ひばりが丘二丁目8-27","lat":35.74854,"lon":139.537802},{"name":"保谷障害者福祉センター","province":"東京都","city":"西東京市","address":"東京都西東京市保谷町一丁目6-20","lat":35.734625,"lon":139.556276},{"name":"障害者総合支援センター「フレンドリー」","province":"東京都","city":"西東京市","address":"東京都西東京市田無町四丁目17-14","lat":35.72936,"lon":139.535678},{"name":"けやき保育園","province":"東京都","city":"西東京市","address":"東京都西東京市西原町五丁目4-2","lat":35.741174,"lon":139.53302},{"name":"なかまち保育園","province":"東京都","city":"西東京市","address":"東京都西東京市中町四丁目4-16","lat":35.737026,"lon":139.564813},{"name":"ひがし保育園","province":"東京都","city":"西東京市","address":"東京都西東京市東町二丁目4-13","lat":35.746366,"lon":139.560595},{"name":"やぎさわ保育園","province":"東京都","city":"西東京市","address":"東京都西東京市柳沢五丁目8-2","lat":35.722116,"lon":139.551078},{"name":"すみよし保育園","province":"東京都","city":"西東京市","address":"東京都西東京市住吉町三丁目14-14","lat":35.749589,"lon":139.548876},{"name":"西原保育園","province":"東京都","city":"西東京市","address":"東京都西東京市芝久保町五丁目4-2","lat":35.73347,"lon":139.527412},{"name":"こまどり保育園","province":"東京都","city":"西東京市","address":"東京都西東京市下保谷二丁目4-2","lat":35.752072,"lon":139.557834},{"name":"田無保育園","province":"東京都","city":"西東京市","address":"東京都西東京市緑町一丁目2-26","lat":35.7336,"lon":139.540343},{"name":"向台保育園","province":"東京都","city":"西東京市","address":"東京都西東京市南町三丁目23-1","lat":35.725691,"lon":139.54193},{"name":"ひがしふしみ保育園","province":"東京都","city":"西東京市","address":"東京都西東京市東伏見二丁目11-11","lat":35.727553,"lon":139.560168},{"name":"はこべら保育園","province":"東京都","city":"西東京市","address":"東京都西東京市富士町一丁目7-2","lat":35.733905,"lon":139.560339},{"name":"ほうやちょう保育園","province":"東京都","city":"西東京市","address":"東京都西東京市保谷町三丁目13-1","lat":35.729609,"lon":139.553146},{"name":"ひばりが丘保育園","province":"東京都","city":"西東京市","address":"東京都西東京市ひばりが丘二丁目3-5","lat":35.747125,"lon":139.54041},{"name":"芝久保保育園","province":"東京都","city":"西東京市","address":"東京都西東京市芝久保町一丁目14-32","lat":35.724642,"lon":139.526417},{"name":"ひばりが丘児童センター","province":"東京都","city":"西東京市","address":"東京都西東京市ひばりが丘三丁目1-25","lat":35.746197,"lon":139.537081},{"name":"芝久保児童館","province":"東京都","city":"西東京市","address":"東京都西東京市芝久保町一丁目16-18","lat":35.724689,"lon":139.525681},{"name":"保谷柳沢児童館","province":"東京都","city":"西東京市","address":"東京都西東京市柳沢二丁目6-11","lat":35.723473,"lon":139.556216},{"name":"田無児童館","province":"東京都","city":"西東京市","address":"東京都西東京市田無町四丁目14-2","lat":35.727741,"lon":139.535203},{"name":"ひばりが丘北児童センター","province":"東京都","city":"西東京市","address":"東京都西東京市ひばりが丘北一丁目6-8","lat":35.752385,"lon":139.549462},{"name":"みどり学童クラブ","province":"東京都","city":"西東京市","address":"東京都西東京市緑町三丁目8-3","lat":35.742137,"lon":139.538082},{"name":"保谷柳沢第二学童クラブ","province":"東京都","city":"西東京市","address":"東京都西東京市柳沢四丁目2-11","lat":35.720245,"lon":139.550443},{"name":"東学童クラブ","province":"東京都","city":"西東京市","address":"東京都西東京市東町六丁目2-33","lat":35.741882,"lon":139.564082},{"name":"田無柳沢児童センター","province":"東京都","city":"西東京市","address":"東京都西東京市向台町一丁目7-25","lat":35.72113,"lon":139.546919},{"name":"北原児童館","province":"東京都","city":"西東京市","address":"東京都西東京市北原町一丁目16-2","lat":35.733663,"lon":139.544663},{"name":"中町児童館","province":"東京都","city":"西東京市","address":"東京都西東京市中町四丁目4-1","lat":35.737689,"lon":139.564315},{"name":"田無第二学童クラブ","province":"東京都","city":"西東京市","address":"東京都西東京市田無町四丁目5-21","lat":35.728896,"lon":139.537594},{"name":"西原北児童館","province":"東京都","city":"西東京市","address":"東京都西東京市西原町四丁目5-96","lat":35.736205,"lon":139.530349},{"name":"向台・向台第二学童クラブ","province":"東京都","city":"西東京市","address":"東京都西東京市向台町三丁目1-45","lat":35.722266,"lon":139.538111},{"name":"東伏見学童クラブ","province":"東京都","city":"西東京市","address":"東京都西東京市東伏見六丁目1-17","lat":35.726271,"lon":139.559866},{"name":"谷戸学童クラブ","province":"東京都","city":"西東京市","address":"東京都西東京市谷戸町一丁目22-10","lat":35.742208,"lon":139.545903},{"name":"上向台第二学童クラブ","province":"東京都","city":"西東京市","address":"東京都西東京市向台町六丁目18-23","lat":35.721067,"lon":139.52606},{"name":"住吉会館 ルピナス","province":"東京都","city":"西東京市","address":"東京都西東京市住吉町六丁目15-6","lat":35.744425,"lon":139.551367},{"name":"ふれあいセンター","province":"東京都","city":"西東京市","address":"東京都西東京市北町一丁目3-14","lat":35.753725,"lon":139.556827},{"name":"東伏見コミュニティセンター","province":"東京都","city":"西東京市","address":"東京都西東京市東伏見五丁目10-22","lat":35.721879,"lon":139.557732},{"name":"保谷こもれびホール","province":"東京都","city":"西東京市","address":"東京都西東京市中町一丁目5-1","lat":35.741207,"lon":139.559022},{"name":"コール田無","province":"東京都","city":"西東京市","address":"東京都西東京市田無町三丁目7-2","lat":35.729144,"lon":139.5437},{"name":"芝久保コミュニティセンター","province":"東京都","city":"西東京市","address":"東京都西東京市芝久保町三丁目15-10","lat":35.729314,"lon":139.521805},{"name":"谷戸コミュニティセンター","province":"東京都","city":"西東京市","address":"東京都西東京市谷戸町一丁目9-2","lat":35.739363,"lon":139.544631},{"name":"緑町コミュニティセンター","province":"東京都","city":"西東京市","address":"東京都西東京市緑町一丁目5-1","lat":35.735075,"lon":139.537514},{"name":"向台コミュニティセンター","province":"東京都","city":"西東京市","address":"東京都西東京市向台町二丁目13-12","lat":35.71872,"lon":139.541032},{"name":"南町コミュニティセンター","province":"東京都","city":"西東京市","address":"東京都西東京市南町二丁目21-9","lat":35.725289,"lon":139.546118},{"name":"下宿コミュニティセンター","province":"東京都","city":"西東京市","address":"東京都西東京市南町五丁目26-1","lat":35.725279,"lon":139.536246},{"name":"スポーツセンター","province":"東京都","city":"西東京市","address":"東京都西東京市中町一丁目5-1","lat":35.741207,"lon":139.559022},{"name":"総合体育館","province":"東京都","city":"西東京市","address":"東京都西東京市向台町五丁目4-20","lat":35.720058,"lon":139.529976},{"name":"南町スポーツ・文化交流センター きらっと","province":"東京都","city":"西東京市","address":"東京都西東京市南町五丁目6-5","lat":35.725623,"lon":139.537517},{"name":"武道場","province":"東京都","city":"西東京市","address":"東京都西東京市東町二丁目4-13","lat":35.746366,"lon":139.560595},{"name":"健康広場","province":"東京都","city":"西東京市","address":"東京都西東京市栄町一丁目12-23","lat":35.748718,"lon":139.555044},{"name":"スポーツセンタープール監視室（旧：北原運動場）","province":"東京都","city":"西東京市","address":"東京都西東京市中町一丁目5-1","lat":35.741207,"lon":139.559022},{"name":"芝久保運動場","province":"東京都","city":"西東京市","address":"東京都西東京市芝久保町一丁目18-37","lat":35.722936,"lon":139.524652},{"name":"市民公園グランド及び向台運動場","province":"東京都","city":"西東京市","address":"東京都西東京市向台町五丁目4-9","lat":35.721136,"lon":139.52995},{"name":"芝久保第二運動場","province":"東京都","city":"西東京市","address":"東京都西東京市芝久保町五丁目6-28","lat":35.732853,"lon":139.524738},{"name":"ひばりが丘総合運動場 ひばりアム","province":"東京都","city":"西東京市","address":"東京都西東京市ひばりが丘三丁目1-24","lat":35.744816,"lon":139.53778},{"name":"西原総合教育施設","province":"東京都","city":"西東京市","address":"東京都西東京市西原町四丁目5-6","lat":35.73675,"lon":139.529077},{"name":"東伏見ふれあいプラザ","province":"東京都","city":"西東京市","address":"東京都西東京市富士町四丁目33-15飯田ビル1階","lat":35.729068,"lon":139.562591},{"name":"消費者センター分館","province":"東京都","city":"西東京市","address":"東京都西東京市住吉町六丁目1-5","lat":35.743512,"lon":139.551145},{"name":"エコプラザ西東京","province":"東京都","city":"西東京市","address":"東京都西東京市泉町三丁目12-35","lat":35.740959,"lon":139.556807},{"name":"田無小学校","province":"東京都","city":"西東京市","address":"東京都西東京市田無町四丁目5-21","lat":35.728896,"lon":139.537594},{"name":"保谷小学校","province":"東京都","city":"西東京市","address":"東京都西東京市保谷町一丁目3-35","lat":35.73733,"lon":139.554713},{"name":"保谷第一小学校","province":"東京都","city":"西東京市","address":"東京都西東京市下保谷一丁目4-4","lat":35.749886,"lon":139.558037},{"name":"保谷第二小学校","province":"東京都","city":"西東京市","address":"東京都西東京市柳沢四丁目2-11","lat":35.720245,"lon":139.550443},{"name":"谷戸小学校","province":"東京都","city":"西東京市","address":"東京都西東京市緑町三丁目1-1","lat":35.740354,"lon":139.542607},{"name":"東伏見小学校","province":"東京都","city":"西東京市","address":"東京都西東京市東伏見六丁目1-28","lat":35.725955,"lon":139.559112},{"name":"中原小学校","province":"東京都","city":"西東京市","address":"東京都西東京市ひばりが丘三丁目2-42","lat":35.742528,"lon":139.535159},{"name":"向台小学校","province":"東京都","city":"西東京市","address":"東京都西東京市向台町二丁目1-1","lat":35.722296,"lon":139.539904},{"name":"碧山小学校","province":"東京都","city":"西東京市","address":"東京都西東京市中町五丁目11-4","lat":35.738454,"lon":139.563039},{"name":"芝久保小学校","province":"東京都","city":"西東京市","address":"東京都西東京市芝久保三丁目7-1","lat":35.729026,"lon":139.522664},{"name":"栄小学校","province":"東京都","city":"西東京市","address":"東京都西東京市栄町二丁目10-9","lat":35.752154,"lon":139.55292},{"name":"上向台小学校","province":"東京都","city":"西東京市","address":"東京都西東京市向台町六丁目7-28","lat":35.720756,"lon":139.525719},{"name":"谷戸第二小学校","province":"東京都","city":"西東京市","address":"東京都西東京市谷戸町一丁目17-27","lat":35.741493,"lon":139.545141},{"name":"東小学校","province":"東京都","city":"西東京市","address":"東京都西東京市東町六丁目2-33","lat":35.741882,"lon":139.564082},{"name":"柳沢小学校","province":"東京都","city":"西東京市","address":"東京都西東京市南町二丁目12-37","lat":35.7221,"lon":139.547896},{"name":"本町小学校","province":"東京都","city":"西東京市","address":"東京都西東京市保谷町一丁目14-23","lat":35.732773,"lon":139.555621},{"name":"住吉小学校","province":"東京都","city":"西東京市","address":"東京都西東京市住吉町五丁目2-1","lat":35.745906,"lon":139.553343},{"name":"けやき小学校","province":"東京都","city":"西東京市","address":"東京都西東京市芝久保町五丁目7-1","lat":35.734427,"lon":139.525797},{"name":"田無第一中学校","province":"東京都","city":"西東京市","address":"東京都西東京市南町六丁目9-37","lat":35.724274,"lon":139.53074},{"name":"保谷中学校","province":"東京都","city":"西東京市","address":"東京都西東京市保谷町一丁目17-4","lat":35.733482,"lon":139.556456},{"name":"田無第二中学校","province":"東京都","city":"西東京市","address":"東京都西東京市北原町二丁目9-1","lat":35.738363,"lon":139.544914},{"name":"ひばりが丘中学校","province":"東京都","city":"西東京市","address":"東京都西東京市ひばりが丘三丁目2-42","lat":35.742528,"lon":139.535159},{"name":"田無第三中学校","province":"東京都","city":"西東京市","address":"東京都西東京市西原町三丁目4-1","lat":35.734845,"lon":139.531063},{"name":"青嵐中学校","province":"東京都","city":"西東京市","address":"東京都西東京市北町二丁目13-17","lat":35.756388,"lon":139.556354},{"name":"柳沢中学校","province":"東京都","city":"西東京市","address":"東京都西東京市柳沢三丁目8-22","lat":35.720625,"lon":139.552732},{"name":"田無第四中学校","province":"東京都","city":"西東京市","address":"東京都西東京市向台町二丁目14-9","lat":35.719725,"lon":139.540642},{"name":"明保中学校","province":"東京都","city":"西東京市","address":"東京都西東京市東町一丁目1-24","lat":35.74292,"lon":139.562957},{"name":"柳沢公民館","province":"東京都","city":"西東京市","address":"東京都西東京市柳沢一丁目15-1","lat":35.728214,"lon":139.553969},{"name":"芝久保公民館","province":"東京都","city":"西東京市","address":"東京都西東京市芝久保町五丁目4-48","lat":35.732668,"lon":139.528101},{"name":"谷戸公民館","province":"東京都","city":"西東京市","address":"東京都西東京市谷戸町一丁目17-2","lat":35.741272,"lon":139.54395},{"name":"ひばりが丘公民館","province":"東京都","city":"西東京市","address":"東京都西東京市ひばりが丘二丁目3-4","lat":35.747358,"lon":139.540608},{"name":"保谷駅前公民館","province":"東京都","city":"西東京市","address":"東京都西東京市東町三丁目14-30ステア5階","lat":35.747961,"lon":139.567639},{"name":"中央図書館","province":"東京都","city":"西東京市","address":"東京都西東京市南町五丁目6-11","lat":35.72596,"lon":139.537549},{"name":"ひばりが丘図書館","province":"東京都","city":"西東京市","address":"東京都西東京市ひばりが丘一丁目2-1","lat":35.751728,"lon":139.543523},{"name":"国立大学法人東京大学大学院農学生命科学研究科附属生態調和農学機構","province":"東京都","city":"西東京市","address":"東京都西東京市緑町1-1-1","lat":35.73263,"lon":139.540431},{"name":"国立大学法人東京大学大学院農学生命科学研究科附属田無演習林","province":"東京都","city":"西東京市","address":"東京都西東京市緑町1-1-8","lat":35.734344,"lon":139.539112},{"name":"芝久保調節池","province":"東京都","city":"西東京市","address":"東京都西東京市芝久保町1-18","lat":35.722936,"lon":139.524652},{"name":"向台調節池","province":"東京都","city":"西東京市","address":"東京都西東京市向台町5-4","lat":35.721136,"lon":139.52995},{"name":"都立小金井公園","province":"東京都","city":"西東京市","address":"東京都西東京市向台町6-4","lat":35.718332,"lon":139.524885},{"name":"都立東伏見公園","province":"東京都","city":"西東京市","address":"東京都西東京市東伏見1","lat":35.728449,"lon":139.559241},{"name":"早稲田大学東伏見キャンパス東伏見総合グラウンド","province":"東京都","city":"西東京市","address":"東京都西東京市東伏見2-7","lat":35.726844,"lon":139.561656},{"name":"MUFG PARK","province":"東京都","city":"西東京市","address":"東京都西東京市柳沢4-4","lat":35.718337,"lon":139.550842},{"name":"ひばりが丘総合運動場","province":"東京都","city":"西東京市","address":"東京都西東京市ひばりが丘3-1","lat":35.744816,"lon":139.53778},{"name":"岩倉高等学校総合運動場","province":"東京都","city":"西東京市","address":"東京都西東京市新町2-3-27","lat":35.713993,"lon":139.542077},{"name":"中原小学校","province":"東京都","city":"西東京市","address":"東京都西東京市ひばりが丘2-6-25","lat":35.746895,"lon":139.537761},{"name":"東京都立田無高等学校","province":"東京都","city":"西東京市","address":"東京都西東京市向台町5-4-34","lat":35.720209,"lon":139.529025},{"name":"東京都立保谷高等学校","province":"東京都","city":"西東京市","address":"東京都西東京市住吉町5-8-23","lat":35.745801,"lon":139.555429},{"name":"東京都立田無工業高等学校","province":"東京都","city":"西東京市","address":"東京都西東京市向台町1-9-1","lat":35.720514,"lon":139.548591},{"name":"学校法人武蔵野大学","province":"東京都","city":"西東京市","address":"東京都西東京市新町1-1-20","lat":35.716752,"lon":139.548918},{"name":"学校法人日本文華学園","province":"東京都","city":"西東京市","address":"東京都西東京市西原町4-5-85","lat":35.738298,"lon":139.53024},{"name":"西東京市","province":"東京都","city":"西東京市","address":"西東京市南町5-6-13","lat":35.7254989,"lon":139.5381592},{"name":"東伏見公園","province":"東京都","city":"西東京市","address":"東京都西東京市東伏見1丁目4","lat":35.727768,"lon":139.556091},{"name":"西東京市田無公民館","province":"東京都","city":"西東京市","address":"東京都西東京市南町5丁目6-11","lat":35.72607,"lon":139.537581},{"name":"西東京市役所田無庁舎","province":"東京都","city":"西東京市","address":"東京都西東京市南町5丁目6-13","lat":35.725614,"lon":139.538513},{"name":"西東京市役所田無庁舎","province":"東京都","city":"西東京市","address":"東京都西東京市南町5丁目6-14","lat":35.726209,"lon":139.538154},{"name":"西東京市役所田無庁舎","province":"東京都","city":"西東京市","address":"東京都西東京市南町5丁目6-13","lat":35.726037,"lon":139.538384},{"name":"西東京市役所田無庁舎","province":"東京都","city":"西東京市","address":"東京都西東京市南町5丁目6-13","lat":35.725604,"lon":139.538489},{"name":"西東京市役所田無庁舎","province":"東京都","city":"西東京市","address":"東京都西東京市南町5丁目6-13","lat":35.725943,"lon":139.538347},{"name":"西東京市役所田無庁舎","province":"東京都","city":"西東京市","address":"東京都西東京市南町5丁目6-13","lat":35.725848,"lon":139.538469},{"name":"西東京市役所　保谷東分庁舎","province":"東京都","city":"西東京市","address":"東京都西東京市中町1丁目6-8","lat":35.74129,"lon":139.5599},{"name":"防災センター・保谷保健福祉総合センター","province":"東京都","city":"西東京市","address":"東京都西東京市中町1丁目5-1","lat":35.74125,"lon":139.558786},{"name":"ひばりヶ丘駅前出張所","province":"東京都","city":"西東京市","address":"東京都西東京市住吉町3丁目10-25","lat":35.750598,"lon":139.545781},{"name":"西東京市柳橋出張所","province":"東京都","city":"西東京市","address":"東京都西東京市新町1丁目4-25","lat":35.714825,"lon":139.544789},{"name":"西東京市田無第二庁舎","province":"東京都","city":"西東京市","address":"東京都西東京市南町5丁目6-13","lat":35.725697,"lon":139.538059},{"name":"西東京市柳沢公民館・柳沢図書館","province":"東京都","city":"西東京市","address":"東京都西東京市柳沢1丁目15-1","lat":35.72833,"lon":139.553825},{"name":"総合体育館","province":"東京都","city":"西東京市","address":"東京都西東京市向台町5丁目4-20","lat":35.720047,"lon":139.529979},{"name":"西東京市芝久保公民館","province":"東京都","city":"西東京市","address":"東京都西東京市芝久保町5丁目4-48","lat":35.73272,"lon":139.527989},{"name":"西東京市谷戸公民館","province":"東京都","city":"西東京市","address":"東京都西東京市谷戸町1丁目17-2","lat":35.74158,"lon":139.543673},{"name":"ひばりが丘公民館","province":"東京都","city":"西東京市","address":"東京都西東京市ひばりが丘2丁目3-4","lat":35.747357,"lon":139.540594},{"name":"西東京市保谷駅前公民館","province":"東京都","city":"西東京市","address":"東京都西東京市東町3丁目14-30","lat":35.74784,"lon":139.567686},{"name":"西東京市保谷駅前公民館","province":"東京都","city":"西東京市","address":"東京都西東京市東町3丁目14-30","lat":35.74784,"lon":139.567726},{"name":"南町地区会館","province":"東京都","city":"西東京市","address":"東京都西東京市南町2丁目21-9","lat":35.72531,"lon":139.54608},{"name":"下宿地区会館","province":"東京都","city":"西東京市","address":"東京都西東京市南町5丁目26-1","lat":35.725315,"lon":139.536242},{"name":"緑町地区会館","province":"東京都","city":"西東京市","address":"東京都西東京市緑町1丁目5-1","lat":35.735077,"lon":139.53744},{"name":"谷戸地区会館","province":"東京都","city":"西東京市","address":"東京都西東京市谷戸町1丁目9-2","lat":35.7394,"lon":139.544585},{"name":"向台地区会館","province":"東京都","city":"西東京市","address":"東京都西東京市向台町2丁目13-12","lat":35.718753,"lon":139.541015},{"name":"芝久保地区会館","province":"東京都","city":"西東京市","address":"東京都西東京市芝久保町3丁目15-10","lat":35.729362,"lon":139.521863},{"name":"東伏見コミュニティセンター","province":"東京都","city":"西東京市","address":"東京都西東京市東伏見5丁目10-22","lat":35.721898,"lon":139.557793},{"name":"ふれあいセンター","province":"東京都","city":"西東京市","address":"東京都西東京市北町1丁目3-14","lat":35.753795,"lon":139.556756},{"name":"上向台地区会館","province":"東京都","city":"西東京市","address":"東京都西東京市向台町6丁目1-14","lat":35.720609,"lon":139.527712},{"name":"上向台地区会館","province":"東京都","city":"西東京市","address":"東京都西東京市向台町6丁目1-14","lat":35.720643,"lon":139.52772},{"name":"柳橋第二市民集会所","province":"東京都","city":"西東京市","address":"東京都西東京市新町1丁目4-25","lat":35.71479,"lon":139.544861},{"name":"柳沢第三市民集会所","province":"東京都","city":"西東京市","address":"東京都西東京市柳沢3丁目4-7","lat":35.722399,"lon":139.55421},{"name":"東伏見市民集会所","province":"東京都","city":"西東京市","address":"東京都西東京市東伏見6丁目4","lat":35.725138,"lon":139.561369},{"name":"住吉町第二市民集会所","province":"東京都","city":"西東京市","address":"東京都西東京市住吉町6丁目1-5","lat":35.743464,"lon":139.551157},{"name":"富士町市民集会所","province":"東京都","city":"西東京市","address":"東京都西東京市富士町1丁目7-69","lat":35.734415,"lon":139.560831},{"name":"緑町市民集会所","province":"東京都","city":"西東京市","address":"東京都西東京市緑町3丁目8-3","lat":35.742173,"lon":139.53851},{"name":"西東京市ひばりが丘図書館","province":"東京都","city":"西東京市","address":"東京都西東京市ひばりが丘1丁目2-1","lat":35.751929,"lon":139.543617},{"name":"保谷こもれびホール","province":"東京都","city":"西東京市","address":"東京都西東京市中町1丁目5-1","lat":35.741453,"lon":139.55841},{"name":"保谷こもれびホール","province":"東京都","city":"西東京市","address":"東京都西東京市中町1丁目5-1","lat":35.741445,"lon":139.558206},{"name":"保谷こもれびホール","province":"東京都","city":"西東京市","address":"東京都西東京市中町1丁目5-1","lat":35.741402,"lon":139.558142},{"name":"保谷こもれびホール","province":"東京都","city":"西東京市","address":"東京都西東京市中町1丁目5-1","lat":35.741416,"lon":139.558162},{"name":"保谷こもれびホール","province":"東京都","city":"西東京市","address":"東京都西東京市中町1丁目5-1","lat":35.741737,"lon":139.558138},{"name":"コール田無","province":"東京都","city":"西東京市","address":"東京都西東京市田無町3丁目7-2","lat":35.729095,"lon":139.543738},{"name":"コール田無","province":"東京都","city":"西東京市","address":"東京都西東京市田無町3丁目7-2","lat":35.729141,"lon":139.543719},{"name":"コール田無","province":"東京都","city":"西東京市","address":"東京都西東京市田無町3丁目7-2","lat":35.729086,"lon":139.54374},{"name":"下保谷森林公園","province":"東京都","city":"西東京市","address":"東京都西東京市下保谷3丁目12","lat":35.753981,"lon":139.567115},{"name":"ひばりが丘北わんぱく公園","province":"東京都","city":"西東京市","address":"東京都西東京市ひばりが丘北2丁目2","lat":35.754856,"lon":139.551958},{"name":"あらやしき公園","province":"東京都","city":"西東京市","address":"東京都西東京市下保谷4丁目8","lat":35.749949,"lon":139.566911},{"name":"文理台公園","province":"東京都","city":"西東京市","address":"東京都西東京市東町1丁目4","lat":35.74436,"lon":139.56208},{"name":"谷戸せせらぎ公園","province":"東京都","city":"西東京市","address":"東京都西東京市谷戸町1丁目22","lat":35.743017,"lon":139.543702},{"name":"西東京いこいの森公園","province":"東京都","city":"西東京市","address":"東京都西東京市緑町3丁目2","lat":35.7405,"lon":139.541232},{"name":"西東京いこいの森公園","province":"東京都","city":"西東京市","address":"東京都西東京市緑町3丁目2","lat":35.740074,"lon":139.539605},{"name":"西東京いこいの森公園","province":"東京都","city":"西東京市","address":"東京都西東京市緑町3丁目2","lat":35.741384,"lon":139.539339},{"name":"しじゅうから公園","province":"東京都","city":"西東京市","address":"東京都西東京市柳沢1丁目14","lat":35.727331,"lon":139.554072},{"name":"むくのき公園","province":"東京都","city":"西東京市","address":"東京都西東京市柳沢2丁目3","lat":35.723147,"lon":139.556264},{"name":"柳沢せせらぎ公園","province":"東京都","city":"西東京市","address":"東京都西東京市柳沢6丁目4","lat":35.727234,"lon":139.552277},{"name":"西東京市立向台公園","province":"東京都","city":"西東京市","address":"東京都西東京市向台町2丁目5","lat":35.720387,"lon":139.542531},{"name":"田無市民公園","province":"東京都","city":"西東京市","address":"東京都西東京市向台町5丁目4","lat":35.720632,"lon":139.530962},{"name":"泉小わくわく公園","province":"東京都","city":"西東京市","address":"東京都西東京市泉町3丁目6","lat":35.740912,"lon":139.553545},{"name":"田無駅北口公衆トイレ","province":"東京都","city":"西東京市","address":"東京都西東京市田無町2丁目3","lat":35.727557,"lon":139.540697},{"name":"保谷駅南口公衆トイレ","province":"東京都","city":"西東京市","address":"東京都西東京市東町3丁目14","lat":35.747832,"lon":139.567339},{"name":"西東京市障害者総合支援センター","province":"東京都","city":"西東京市","address":"東京都西東京市田無町4丁目17-14","lat":35.729394,"lon":139.535747},{"name":"下保谷福祉会館","province":"東京都","city":"西東京市","address":"東京都西東京市下保谷4丁目3-20","lat":35.750467,"lon":139.565037},{"name":"新町福祉会館","province":"東京都","city":"西東京市","address":"東京都西東京市新町5丁目2-7","lat":35.712936,"lon":139.536387},{"name":"富士町福祉会館","province":"東京都","city":"西東京市","address":"東京都西東京市富士町6丁目6-13","lat":35.730081,"lon":139.556885},{"name":"ひばりが丘福祉会館","province":"東京都","city":"西東京市","address":"東京都西東京市ひばりが丘2丁目8-27","lat":35.748531,"lon":139.537804},{"name":"田無総合福祉センター","province":"東京都","city":"西東京市","address":"東京都西東京市田無町5丁目5-12","lat":35.731803,"lon":139.53626},{"name":"田無総合福祉センター","province":"東京都","city":"西東京市","address":"東京都西東京市田無町5丁目5-12","lat":35.73171,"lon":139.536328},{"name":"田無総合福祉センター","province":"東京都","city":"西東京市","address":"東京都西東京市田無町5丁目5-12","lat":35.73193,"lon":139.536367},{"name":"老人憩いの家おあしす","province":"東京都","city":"西東京市","address":"東京都西東京市南町3丁目18-40","lat":35.722752,"lon":139.543077},{"name":"西東京市住吉会館ルピナス","province":"東京都","city":"西東京市","address":"東京都西東京市住吉町6丁目15-6","lat":35.7445,"lon":139.551258},{"name":"西東京市住吉会館ルピナス","province":"東京都","city":"西東京市","address":"東京都西東京市住吉町6丁目1","lat":35.74404,"lon":139.551197},{"name":"西東京市住吉会館ルピナス","province":"東京都","city":"西東京市","address":"東京都西東京市住吉町6丁目15-6","lat":35.74444,"lon":139.551338},{"name":"西東京市住吉会館ルピナス","province":"東京都","city":"西東京市","address":"東京都西東京市住吉町6丁目15-6","lat":35.74442,"lon":139.551373},{"name":"スポーツセンター","province":"東京都","city":"西東京市","address":"東京都西東京市中町1丁目5-1","lat":35.74227,"lon":139.55899},{"name":"スポーツセンター","province":"東京都","city":"西東京市","address":"東京都西東京市中町1丁目5-1","lat":35.742324,"lon":139.558931},{"name":"スポーツセンター","province":"東京都","city":"西東京市","address":"東京都西東京市中町1丁目5-1","lat":35.742302,"lon":139.558922},{"name":"武道場","province":"東京都","city":"西東京市","address":"東京都西東京市東町2丁目4-13","lat":35.746547,"lon":139.560891},{"name":"芝久保児童館","province":"東京都","city":"西東京市","address":"東京都西東京市芝久保町1丁目16-18","lat":35.724688,"lon":139.525676},{"name":"南町スポーツ・文化交流センター「きらっと」","province":"東京都","city":"西東京市","address":"東京都西東京市南町5丁目6-5","lat":35.725622,"lon":139.537386},{"name":"南町スポーツ・文化交流センター「きらっと」","province":"東京都","city":"西東京市","address":"東京都西東京市南町5丁目6-5","lat":35.725559,"lon":139.537431},{"name":"南町スポーツ・文化交流センター「きらっと」","province":"東京都","city":"西東京市","address":"東京都西東京市南町5丁目6-5","lat":35.725824,"lon":139.537371},{"name":"向台運動場","province":"東京都","city":"西東京市","address":"東京都西東京市向台町5丁目4","lat":35.721628,"lon":139.528501},{"name":"ひばりが丘総合運動場「ひばりアム」","province":"東京都","city":"西東京市","address":"東京都西東京市ひばりが丘3丁目1","lat":35.745694,"lon":139.537566},{"name":"北原児童館","province":"東京都","city":"西東京市","address":"東京都西東京市北原町1丁目16-2","lat":35.733686,"lon":139.544662},{"name":"ひばりが丘児童センター","province":"東京都","city":"西東京市","address":"東京都西東京市ひばりが丘3丁目1-25","lat":35.746218,"lon":139.537092},{"name":"保谷柳沢児童館","province":"東京都","city":"西東京市","address":"東京都西東京市柳沢2丁目6-11","lat":35.723438,"lon":139.556206},{"name":"下保谷児童センター","province":"東京都","city":"西東京市","address":"東京都西東京市芝久保町1丁目16-18","lat":35.724688,"lon":139.525676},{"name":"下保谷児童センター","province":"東京都","city":"西東京市","address":"東京都西東京市下保谷4丁目3-20","lat":35.750467,"lon":139.565037},{"name":"中町児童館","province":"東京都","city":"西東京市","address":"東京都西東京市下保谷4丁目3-20","lat":35.750467,"lon":139.565037},{"name":"ひばりが丘北児童センター","province":"東京都","city":"西東京市","address":"東京都西東京市下保谷4丁目3-20","lat":35.750467,"lon":139.565037},{"name":"西原北児童館","province":"東京都","city":"西東京市","address":"東京都西東京市中町4丁目4-1","lat":35.737692,"lon":139.564309},{"name":"田無柳沢児童センター","province":"東京都","city":"西東京市","address":"東京都西東京市ひばりが丘北1丁目6-8","lat":35.752367,"lon":139.54944},{"name":"地域子育て支援センター「すみよし」","province":"東京都","city":"西東京市","address":"東京都西東京市住吉町3丁目14-14","lat":35.749701,"lon":139.549378},{"name":"高齢者センターきらら","province":"東京都","city":"西東京市","address":"東京都西東京市富士町1丁目7-69","lat":35.734344,"lon":139.560617},{"name":"エコプラザ西東京","province":"東京都","city":"西東京市","address":"東京都西東京市柳沢2丁目6-11","lat":35.723489,"lon":139.556212},{"name":"エコプラザ西東京","province":"東京都","city":"西東京市","address":"東京都西東京市泉町3丁目12-35","lat":35.741184,"lon":139.556836},{"name":"したのや遺跡","province":"東京都","city":"西東京市","address":"東京都西東京市東伏見6丁目4","lat":35.724832,"lon":139.562137},{"name":"田無駅ガード下東自転車駐車場","province":"東京都","city":"西東京市","address":"東京都西東京市南町1丁目1","lat":35.72768753,"lon":139.54452773},{"name":"田無駅ガード下西自転車駐車場","province":"東京都","city":"西東京市","address":"東京都西東京市南町3丁目3","lat":35.72762639,"lon":139.54290565},{"name":"田無駅南口遊水池自転車駐車場","province":"東京都","city":"西東京市","address":"東京都西東京市南町4丁目9","lat":35.72473778,"lon":139.54030046},{"name":"ひばりヶ丘駅北口第2自転車駐車場（立体）","province":"東京都","city":"西東京市","address":"東京都西東京市ひばりが丘北3丁目2","lat":35.75151257,"lon":139.54662658},{"name":"ひばりヶ丘駅南口自転車駐車場","province":"東京都","city":"西東京市","address":"東京都西東京市住吉町3丁目10-25","lat":35.75069043,"lon":139.54597666},{"name":"ひばりヶ丘駅南口第2自転車駐車場","province":"東京都","city":"西東京市","address":"東京都西東京市ひばりが丘1丁目14","lat":35.75158469,"lon":139.54249635},{"name":"ひばりヶ丘駅南口谷戸自転車駐車場","province":"東京都","city":"西東京市","address":"東京都西東京市谷戸町3丁目21","lat":35.74911837,"lon":139.54524622},{"name":"保谷駅北口あらやしき自転車駐車場（地下式）","province":"東京都","city":"西東京市","address":"東京都西東京市下保谷4丁目8-18","lat":35.75074649,"lon":139.5671805},{"name":"保谷駅北口第2自転車駐車場（立体）","province":"東京都","city":"西東京市","address":"東京都西東京市下保谷4丁目11","lat":35.75059099,"lon":139.5684554},{"name":"保谷駅南口自転車駐車場（立体）","province":"東京都","city":"西東京市","address":"東京都西東京市東町4丁目13","lat":35.74547765,"lon":139.56628631},{"name":"保谷駅南口第1自転車駐車場","province":"東京都","city":"西東京市","address":"東京都西東京市東町3丁目4","lat":35.74647752,"lon":139.56593075},{"name":"田無駅北口第1自転車駐車場（立体）","province":"東京都","city":"西東京市","address":"東京都西東京市田無町4丁目5-34","lat":35.72795678,"lon":139.53708112},{"name":"田無駅北口第2自転車駐車場（立体）","province":"東京都","city":"西東京市","address":"東京都西東京市田無町4丁目5-34","lat":35.72795678,"lon":139.53708112},{"name":"田無駅南口自転車駐車場（立体）","province":"東京都","city":"西東京市","address":"東京都西東京市南町5丁目6-14","lat":35.72630144,"lon":139.53818111},{"name":"西武柳沢駅北口第1自転車駐車場（立体）","province":"東京都","city":"西東京市","address":"東京都西東京市保谷町3丁目24","lat":35.72928195,"lon":139.55135208},{"name":"西武柳沢駅北口第1-2自転車駐車場","province":"東京都","city":"西東京市","address":"東京都西東京市保谷町3丁目24","lat":35.72928195,"lon":139.55135208},{"name":"西武柳沢駅北口第2自転車駐車場","province":"東京都","city":"西東京市","address":"東京都西東京市保谷町3丁目11","lat":35.72872648,"lon":139.55234926},{"name":"西武柳沢駅南口自転車駐車場","province":"東京都","city":"西東京市","address":"東京都西東京市柳沢1丁目12","lat":35.72659063,"lon":139.55310762},{"name":"東伏見駅北口第1自転車駐車場","province":"東京都","city":"西東京市","address":"東京都西東京市富士町4丁目18","lat":35.7291878,"lon":139.56391215},{"name":"東伏見駅北口第2自転車駐車場","province":"東京都","city":"西東京市","address":"東京都西東京市富士町4丁目31","lat":35.72994879,"lon":139.56235113},{"name":"東伏見駅南口第1A・B自転車駐車場","province":"東京都","city":"西東京市","address":"東京都西東京市東伏見3丁目1","lat":35.72816575,"lon":139.56600368},{"name":"東伏見駅南口第2自転車駐車場","province":"東京都","city":"西東京市","address":"東京都西東京市東伏見2丁目2","lat":35.72831564,"lon":139.56209567},{"name":"ひばりヶ丘駅北口自転車駐車場","province":"東京都","city":"西東京市","address":"東京都西東京市ひばりが丘北3丁目1","lat":35.7512987,"lon":139.54670436},{"name":"東伏見","province":"東京都","city":"西東京市","address":"東京都西東京市東伏見6丁目10-22","lat":35.72516589,"lon":139.55749898},{"name":"田無町三丁目","province":"東京都","city":"西東京市","address":"東京都西東京市田無町1丁目2-31","lat":35.73104545,"lon":139.54369709},{"name":"ひばりが丘駅入口","province":"東京都","city":"西東京市","address":"東京都西東京市谷戸町3丁目27-25","lat":35.74978492,"lon":139.54359355},{"name":"田無駅北口","province":"東京都","city":"西東京市","address":"東京都西東京市田無町5丁目1-1","lat":35.72968164,"lon":139.53983915},{"name":"谷戸町三丁目","province":"東京都","city":"西東京市","address":"東京都西東京市谷戸町3丁目26-1","lat":35.74893224,"lon":139.54342137},{"name":"保谷栄小西","province":"東京都","city":"西東京市","address":"東京都西東京市栄町2丁目6-15","lat":35.75128492,"lon":139.55119012},{"name":"田無北原二丁目","province":"東京都","city":"西東京市","address":"東京都西東京市北原町2丁目8-7","lat":35.73858069,"lon":139.54366898},{"name":"新柳沢団地東","province":"東京都","city":"西東京市","address":"東京都西東京市東伏見5丁目10-30","lat":35.72226067,"lon":139.55774353},{"name":"ひばりが丘駅南","province":"東京都","city":"西東京市","address":"東京都西東京市谷戸町3丁目27","lat":35.74979604,"lon":139.54370743},{"name":"西武柳沢駅南","province":"東京都","city":"西東京市","address":"東京都西東京市柳沢2丁目19-15","lat":35.72568793,"lon":139.55214107},{"name":"谷戸町三丁目東","province":"東京都","city":"西東京市","address":"東京都西東京市谷戸町3丁目20","lat":35.74797685,"lon":139.54574622},{"name":"下保谷二丁目東","province":"東京都","city":"西東京市","address":"東京都西東京市下保谷2丁目9-3","lat":35.75104067,"lon":139.55864233},{"name":"西東京市役所田無庁舎","province":"東京都","city":"西東京市","address":"東京都西東京市南町5丁目6-13","lat":35.72567651,"lon":139.53795616},{"name":"西東京市役所保谷庁舎","province":"東京都","city":"西東京市","address":"東京都西東京市中町1丁目5-1","lat":35.74129184,"lon":139.55895096},{"name":"西東京市役所保谷庁舎","province":"東京都","city":"西東京市","address":"西東京市中町1-5-1","lat":35.741595,"lon":139.558951},{"name":"田無警察署","province":"東京都","city":"西東京市","address":"西東京市田無町5-2-5","lat":35.72999,"lon":139.5386},{"name":"西東京消防署","province":"東京都","city":"西東京市","address":"西東京市中町1-1-6","lat":35.73898,"lon":139.5553},{"name":"市民向台運動場","province":"東京都","city":"西東京市","address":"西東京市向台町5-4","lat":35.72121,"lon":139.53},{"name":"東京ガス（株）保谷ビル","province":"東京都","city":"西東京市","address":"西東京市柳沢2-18-46","lat":35.72477,"lon":139.5523},{"name":"※西東京市役所保谷庁舎","province":"東京都","city":"西東京市","address":"東京都西東京市中町1丁目5-1","lat":35.74129184,"lon":139.55895096},{"name":"市役所田無庁舎","province":"東京都","city":"西東京市","address":"東京都西東京市南町五丁目6-13","lat":35.725716,"lon":139.537958},{"name":"市役所保谷庁舎（防災センター）","province":"東京都","city":"西東京市","address":"東京都西東京市中町一丁目5-1","lat":35.741207,"lon":139.559022},{"name":"ひばりヶ丘駅前出張所","province":"東京都","city":"西東京市","address":"東京都西東京市住吉町三丁目10-25","lat":35.750782,"lon":139.546018},{"name":"柳橋出張所","province":"東京都","city":"西東京市","address":"東京都西東京市新町一丁目4-25","lat":35.714773,"lon":139.544828},{"name":"田無総合福祉センター","province":"東京都","city":"西東京市","address":"東京都西東京市田無町五丁目5-12","lat":35.731805,"lon":139.536268},{"name":"老人憩いの家「おあしす」","province":"東京都","city":"西東京市","address":"東京都西東京市南町三丁目18-40","lat":35.72249,"lon":139.542732},{"name":"高齢者センター きらら","province":"東京都","city":"西東京市","address":"東京都西東京市富士町一丁目7-69","lat":35.734334,"lon":139.560487},{"name":"谷戸高齢者在宅サービスセンター","province":"東京都","city":"西東京市","address":"東京都西東京市谷戸町三丁目23-8","lat":35.748854,"lon":139.54372},{"name":"下保谷福祉会館","province":"東京都","city":"西東京市","address":"東京都西東京市下保谷四丁目3-20","lat":35.750525,"lon":139.565141},{"name":"新町福祉会館","province":"東京都","city":"西東京市","address":"東京都西東京市新町五丁目2-7","lat":35.712955,"lon":139.536394},{"name":"富士町福祉会館","province":"東京都","city":"西東京市","address":"東京都西東京市富士町六丁目6-13","lat":35.729905,"lon":139.557144},{"name":"ひばりが丘福祉会館","province":"東京都","city":"西東京市","address":"東京都西東京市ひばりが丘二丁目8-27","lat":35.74854,"lon":139.537802},{"name":"保谷障害者福祉センター","province":"東京都","city":"西東京市","address":"東京都西東京市保谷町一丁目6-20","lat":35.734625,"lon":139.556276},{"name":"障害者総合支援センター「フレンドリー」","province":"東京都","city":"西東京市","address":"東京都西東京市田無町四丁目17-14","lat":35.72936,"lon":139.535678},{"name":"けやき保育園","province":"東京都","city":"西東京市","address":"東京都西東京市西原町五丁目4-2","lat":35.741174,"lon":139.53302},{"name":"なかまち保育園","province":"東京都","city":"西東京市","address":"東京都西東京市中町四丁目4-16","lat":35.737026,"lon":139.564813},{"name":"ひがし保育園","province":"東京都","city":"西東京市","address":"東京都西東京市東町二丁目4-13","lat":35.746366,"lon":139.560595},{"name":"やぎさわ保育園","province":"東京都","city":"西東京市","address":"東京都西東京市柳沢五丁目8-2","lat":35.722116,"lon":139.551078},{"name":"すみよし保育園","province":"東京都","city":"西東京市","address":"東京都西東京市住吉町三丁目14-14","lat":35.749589,"lon":139.548876},{"name":"西原保育園","province":"東京都","city":"西東京市","address":"東京都西東京市芝久保町五丁目4-2","lat":35.73347,"lon":139.527412},{"name":"こまどり保育園","province":"東京都","city":"西東京市","address":"東京都西東京市下保谷二丁目4-2","lat":35.752072,"lon":139.557834},{"name":"田無保育園","province":"東京都","city":"西東京市","address":"東京都西東京市緑町一丁目2-26","lat":35.7336,"lon":139.540343},{"name":"向台保育園","province":"東京都","city":"西東京市","address":"東京都西東京市南町三丁目23-1","lat":35.725691,"lon":139.54193},{"name":"ひがしふしみ保育園","province":"東京都","city":"西東京市","address":"東京都西東京市東伏見二丁目11-11","lat":35.727553,"lon":139.560168},{"name":"はこべら保育園","province":"東京都","city":"西東京市","address":"東京都西東京市富士町一丁目7-2","lat":35.733905,"lon":139.560339},{"name":"ほうやちょう保育園","province":"東京都","city":"西東京市","address":"東京都西東京市保谷町三丁目13-1","lat":35.729609,"lon":139.553146},{"name":"ひばりが丘保育園","province":"東京都","city":"西東京市","address":"東京都西東京市ひばりが丘二丁目3-5","lat":35.747125,"lon":139.54041},{"name":"芝久保保育園","province":"東京都","city":"西東京市","address":"東京都西東京市芝久保町一丁目14-32","lat":35.724642,"lon":139.526417},{"name":"ひばりが丘児童センター","province":"東京都","city":"西東京市","address":"東京都西東京市ひばりが丘三丁目1-25","lat":35.746197,"lon":139.537081},{"name":"芝久保児童館","province":"東京都","city":"西東京市","address":"東京都西東京市芝久保町一丁目16-18","lat":35.724689,"lon":139.525681},{"name":"保谷柳沢児童館","province":"東京都","city":"西東京市","address":"東京都西東京市柳沢二丁目6-11","lat":35.723473,"lon":139.556216},{"name":"田無児童館","province":"東京都","city":"西東京市","address":"東京都西東京市田無町四丁目14-2","lat":35.727741,"lon":139.535203},{"name":"ひばりが丘北児童センター","province":"東京都","city":"西東京市","address":"東京都西東京市ひばりが丘北一丁目6-8","lat":35.752385,"lon":139.549462},{"name":"みどり学童クラブ","province":"東京都","city":"西東京市","address":"東京都西東京市緑町三丁目8-3","lat":35.742137,"lon":139.538082},{"name":"保谷柳沢第二学童クラブ","province":"東京都","city":"西東京市","address":"東京都西東京市柳沢四丁目2-11","lat":35.720245,"lon":139.550443},{"name":"東学童クラブ","province":"東京都","city":"西東京市","address":"東京都西東京市東町六丁目2-33","lat":35.741882,"lon":139.564082},{"name":"田無柳沢児童センター","province":"東京都","city":"西東京市","address":"東京都西東京市向台町一丁目7-25","lat":35.72113,"lon":139.546919},{"name":"北原児童館","province":"東京都","city":"西東京市","address":"東京都西東京市北原町一丁目16-2","lat":35.733663,"lon":139.544663},{"name":"中町児童館","province":"東京都","city":"西東京市","address":"東京都西東京市中町四丁目4-1","lat":35.737689,"lon":139.564315},{"name":"田無第二学童クラブ","province":"東京都","city":"西東京市","address":"東京都西東京市田無町四丁目5-21","lat":35.728896,"lon":139.537594},{"name":"西原北児童館","province":"東京都","city":"西東京市","address":"東京都西東京市西原町四丁目5-96","lat":35.736205,"lon":139.530349},{"name":"向台・向台第二学童クラブ","province":"東京都","city":"西東京市","address":"東京都西東京市向台町三丁目1-45","lat":35.722266,"lon":139.538111},{"name":"東伏見学童クラブ","province":"東京都","city":"西東京市","address":"東京都西東京市東伏見六丁目1-17","lat":35.726271,"lon":139.559866},{"name":"谷戸学童クラブ","province":"東京都","city":"西東京市","address":"東京都西東京市谷戸町一丁目22-10","lat":35.742208,"lon":139.545903},{"name":"上向台第二学童クラブ","province":"東京都","city":"西東京市","address":"東京都西東京市向台町六丁目18-23","lat":35.721067,"lon":139.52606},{"name":"住吉会館 ルピナス","province":"東京都","city":"西東京市","address":"東京都西東京市住吉町六丁目15-6","lat":35.744425,"lon":139.551367},{"name":"ふれあいセンター","province":"東京都","city":"西東京市","address":"東京都西東京市北町一丁目3-14","lat":35.753725,"lon":139.556827},{"name":"東伏見コミュニティセンター","province":"東京都","city":"西東京市","address":"東京都西東京市東伏見五丁目10-22","lat":35.721879,"lon":139.557732},{"name":"保谷こもれびホール","province":"東京都","city":"西東京市","address":"東京都西東京市中町一丁目5-1","lat":35.741207,"lon":139.559022},{"name":"コール田無","province":"東京都","city":"西東京市","address":"東京都西東京市田無町三丁目7-2","lat":35.729144,"lon":139.5437},{"name":"芝久保コミュニティセンター","province":"東京都","city":"西東京市","address":"東京都西東京市芝久保町三丁目15-10","lat":35.729314,"lon":139.521805},{"name":"谷戸コミュニティセンター","province":"東京都","city":"西東京市","address":"東京都西東京市谷戸町一丁目9-2","lat":35.739363,"lon":139.544631},{"name":"緑町コミュニティセンター","province":"東京都","city":"西東京市","address":"東京都西東京市緑町一丁目5-1","lat":35.735075,"lon":139.537514},{"name":"向台コミュニティセンター","province":"東京都","city":"西東京市","address":"東京都西東京市向台町二丁目13-12","lat":35.71872,"lon":139.541032},{"name":"南町コミュニティセンター","province":"東京都","city":"西東京市","address":"東京都西東京市南町二丁目21-9","lat":35.725289,"lon":139.546118},{"name":"下宿コミュニティセンター","province":"東京都","city":"西東京市","address":"東京都西東京市南町五丁目26-1","lat":35.725279,"lon":139.536246},{"name":"スポーツセンター","province":"東京都","city":"西東京市","address":"東京都西東京市中町一丁目5-1","lat":35.741207,"lon":139.559022},{"name":"総合体育館","province":"東京都","city":"西東京市","address":"東京都西東京市向台町五丁目4-20","lat":35.720058,"lon":139.529976},{"name":"南町スポーツ・文化交流センター きらっと","province":"東京都","city":"西東京市","address":"東京都西東京市南町五丁目6-5","lat":35.725623,"lon":139.537517},{"name":"武道場","province":"東京都","city":"西東京市","address":"東京都西東京市東町二丁目4-13","lat":35.746366,"lon":139.560595},{"name":"健康広場","province":"東京都","city":"西東京市","address":"東京都西東京市栄町一丁目12-23","lat":35.748718,"lon":139.555044},{"name":"スポーツセンタープール監視室（旧：北原運動場）","province":"東京都","city":"西東京市","address":"東京都西東京市中町一丁目5-1","lat":35.741207,"lon":139.559022},{"name":"芝久保運動場","province":"東京都","city":"西東京市","address":"東京都西東京市芝久保町一丁目18-37","lat":35.722936,"lon":139.524652},{"name":"市民公園グランド及び向台運動場","province":"東京都","city":"西東京市","address":"東京都西東京市向台町五丁目4-9","lat":35.721136,"lon":139.52995},{"name":"芝久保第二運動場","province":"東京都","city":"西東京市","address":"東京都西東京市芝久保町五丁目6-28","lat":35.732853,"lon":139.524738},{"name":"ひばりが丘総合運動場 ひばりアム","province":"東京都","city":"西東京市","address":"東京都西東京市ひばりが丘三丁目1-24","lat":35.744816,"lon":139.53778},{"name":"西原総合教育施設","province":"東京都","city":"西東京市","address":"東京都西東京市西原町四丁目5-6","lat":35.73675,"lon":139.529077},{"name":"東伏見ふれあいプラザ","province":"東京都","city":"西東京市","address":"東京都西東京市富士町四丁目33-15飯田ビル1階","lat":35.729068,"lon":139.562591},{"name":"消費者センター分館","province":"東京都","city":"西東京市","address":"東京都西東京市住吉町六丁目1-5","lat":35.743512,"lon":139.551145},{"name":"エコプラザ西東京","province":"東京都","city":"西東京市","address":"東京都西東京市泉町三丁目12-35","lat":35.740959,"lon":139.556807},{"name":"田無小学校","province":"東京都","city":"西東京市","address":"東京都西東京市田無町四丁目5-21","lat":35.728896,"lon":139.537594},{"name":"保谷小学校","province":"東京都","city":"西東京市","address":"東京都西東京市保谷町一丁目3-35","lat":35.73733,"lon":139.554713},{"name":"保谷第一小学校","province":"東京都","city":"西東京市","address":"東京都西東京市下保谷一丁目4-4","lat":35.749886,"lon":139.558037},{"name":"保谷第二小学校","province":"東京都","city":"西東京市","address":"東京都西東京市柳沢四丁目2-11","lat":35.720245,"lon":139.550443},{"name":"谷戸小学校","province":"東京都","city":"西東京市","address":"東京都西東京市緑町三丁目1-1","lat":35.740354,"lon":139.542607},