{"keyword":"収蔵","data":[{"name":"芝久保給水所","province":"東京都","city":"西東京市","address":"東京都西東京市芝久保町5-9-1","lat":35.7337671,"lon":139.524477},{"name":"保谷町給水所","province":"東京都","city":"西東京市","address":"東京都西東京市保谷町1-5-24","lat":35.7354513,"lon":139.554782},{"name":"西東京栄町配水所","province":"東京都","city":"西東京市","address":"東京都西東京市栄町2-7-6","lat":35.7516771,"lon":139.552224},{"name":"佐々総合病院","province":"東京都","city":"西東京市","address":"東京都西東京市田無町4丁目24-15","lat":35.72967884,"lon":139.53871701},{"name":"芝久保浄水所","province":"東京都","city":"西東京市","address":"東京都西東京市芝久保町5丁目9-1","lat":35.7337808,"lon":139.52453742},{"name":"保谷町浄水所","province":"東京都","city":"西東京市","address":"東京都西東京市保谷町1丁目5-24","lat":35.73545076,"lon":139.55478209},{"name":"西東京栄町浄水所","province":"東京都","city":"西東京市","address":"東京都西東京市栄町2丁目7-6","lat":35.75167656,"lon":139.55222337},{"name":"向台運動場","province":"東京都","city":"西東京市","address":"東京都西東京市向台町5丁目4-44","lat":35.72149068,"lon":139.52844608},{"name":"西東京市立文理台公園","province":"東京都","city":"西東京市","address":"東京都西東京市東町1丁目4","lat":35.74431377,"lon":139.56142287},{"name":"＊?西東京市芝久保公民館","province":"東京都","city":"西東京市","address":"西東京市芝久保町5-4-48","lat":35.73269,"lon":139.528134},{"name":"＊?西東京市ひばりが丘公民館","province":"東京都","city":"西東京市","address":"西東京市ひばりが丘2-3-4","lat":35.747361,"lon":139.540589},{"name":"＊?西東京市保谷駅前公民館","province":"東京都","city":"西東京市","address":"西東京市東町3-14-30ステア5階","lat":35.748152,"lon":139.567268},{"name":"＊?西東京市谷戸公民館","province":"東京都","city":"西東京市","address":"西東京市谷戸町1-17-2","lat":35.741248,"lon":139.54395},{"name":"＊?西東京市田無公民館","province":"東京都","city":"西東京市","address":"西東京市南町5-6-11","lat":35.726018,"lon":139.537789},{"name":"＊?西東京市柳沢公民館","province":"東京都","city":"西東京市","address":"西東京市柳沢1-15-1","lat":35.728384,"lon":139.553957},{"name":"芝久保給水所","province":"東京都","city":"西東京市","address":"東京都西東京市芝久保町5-9-1","lat":35.7337671,"lon":139.524477},{"name":"保谷町給水所","province":"東京都","city":"西東京市","address":"東京都西東京市保谷町1-5-24","lat":35.7354513,"lon":139.554782},{"name":"西東京栄町配水所","province":"東京都","city":"西東京市","address":"東京都西東京市栄町2-7-6","lat":35.7516771,"lon":139.552224},{"name":"佐々総合病院","province":"東京都","city":"西東京市","address":"東京都西東京市田無町4丁目24-15","lat":35.72967884,"lon":139.53871701},{"name":"芝久保浄水所","province":"東京都","city":"西東京市","address":"東京都西東京市芝久保町5丁目9-1","lat":35.7337808,"lon":139.52453742},{"name":"保谷町浄水所","province":"東京都","city":"西東京市","address":"東京都西東京市保谷町1丁目5-24","lat":35.73545076,"lon":139.55478209},{"name":"西東京栄町浄水所","province":"東京都","city":"西東京市","address":"東京都西東京市栄町2丁目7-6","lat":35.75167656,"lon":139.55222337},{"name":"向台運動場","province":"東京都","city":"西東京市","address":"東京都西東京市向台町5丁目4-44","lat":35.72149068,"lon":139.52844608},{"name":"西東京市立文理台公園","province":"東京都","city":"西東京市","address":"東京都西東京市東町1丁目4","lat":35.74431377,"lon":139.56142287},{"name":"＊?西東京市芝久保公民館","province":"東京都","city":"西東京市","address":"西東京市芝久保町5-4-48","lat":35.73269,"lon":139.528134},{"name":"＊?西東京市ひばりが丘公民館","province":"東京都","city":"西東京市","address":"西東京市ひばりが丘2-3-4","lat":35.747361,"lon":139.540589},{"name":"＊?西東京市保谷駅前公民館","province":"東京都","city":"西東京市","address":"西東京市東町3-14-30ステア5階","lat":35.748152,"lon":139.567268},{"name":"＊?西東京市谷戸公民館","province":"東京都","city":"西東京市","address":"西東京市谷戸町1-17-2","lat":35.741248,"lon":139.54395},{"name":"＊?西東京市田無公民館","province":"東京都","city":"西東京市","address":"西東京市南町5-6-11","lat":35.726018,"lon":139.537789},{"name":"＊?西東京市柳沢公民館","province":"東京都","city":"西東京市","address":"西東京市柳沢1-15-1","lat":35.728384,"lon":139.553957},{"name":"芝久保給水所","province":"東京都","city":"西東京市","address":"東京都西東京市芝久保町5-9-1","lat":35.7337671,"lon":139.524477},{"name":"保谷町給水所","province":"東京都","city":"西東京市","address":"東京都西東京市保谷町1-5-24","lat":35.7354513,"lon":139.554782},{"name":"西東京栄町配水所","province":"東京都","city":"西東京市","address":"東京都西東京市栄町2-7-6","lat":35.7516771,"lon":139.552224},{"name":"佐々総合病院","province":"東京都","city":"西東京市","address":"東京都西東京市田無町4丁目24-15","lat":35.72967884,"lon":139.53871701},{"name":"芝久保浄水所","province":"東京都","city":"西東京市","address":"東京都西東京市芝久保町5丁目9-1","lat":35.7337808,"lon":139.52453742},{"name":"保谷町浄水所","province":"東京都","city":"西東京市","address":"東京都西東京市保谷町1丁目5-24","lat":35.73545076,"lon":139.55478209},{"name":"西東京栄町浄水所","province":"東京都","city":"西東京市","address":"東京都西東京市栄町2丁目7-6","lat":35.75167656,"lon":139.55222337},{"name":"向台運動場","province":"東京都","city":"西東京市","address":"東京都西東京市向台町5丁目4-44","lat":35.72149068,"lon":139.52844608},{"name":"西東京市立文理台公園","province":"東京都","city":"西東京市","address":"東京都西東京市東町1丁目4","lat":35.74431377,"lon":139.56142287},{"name":"＊?西東京市芝久保公民館","province":"東京都","city":"西東京市","address":"西東京市芝久保町5-4-48","lat":35.73269,"lon":139.528134},{"name":"＊?西東京市ひばりが丘公民館","province":"東京都","city":"西東京市","address":"西東京市ひばりが丘2-3-4","lat":35.747361,"lon":139.540589},{"name":"＊?西東京市保谷駅前公民館","province":"東京都","city":"西東京市","address":"西東京市東町3-14-30ステア5階","lat":35.748152,"lon":139.567268},{"name":"＊?西東京市谷戸公民館","province":"東京都","city":"西東京市","address":"西東京市谷戸町1-17-2","lat":35.741248,"lon":139.54395},{"name":"＊?西東京市田無公民館","province":"東京都","city":"西東京市","address":"西東京市南町5-6-11","lat":35.726018,"lon":139.537789},{"name":"＊?西東京市柳沢公民館","province":"東京都","city":"西東京市","address":"西東京市柳沢1-15-1","lat":35.728384,"lon":139.553957},{"name":"芝久保給水所","province":"東京都","city":"西東京市","address":"東京都西東京市芝久保町5-9-1","lat":35.7337671,"lon":139.524477},{"name":"保谷町給水所","province":"東京都","city":"西東京市","address":"東京都西東京市保谷町1-5-24","lat":35.7354513,"lon":139.554782},{"name":"西東京栄町配水所","province":"東京都","city":"西東京市","address":"東京都西東京市栄町2-7-6","lat":35.7516771,"lon":139.552224},{"name":"佐々総合病院","province":"東京都","city":"西東京市","address":"東京都西東京市田無町4丁目24-15","lat":35.72967884,"lon":139.53871701},{"name":"向台運動場","province":"東京都","city":"西東京市","address":"東京都西東京市向台町5丁目4-44","lat":35.72149068,"lon":139.52844608},{"name":"西東京市立文理台公園","province":"東京都","city":"西東京市","address":"東京都西東京市東町1丁目4","lat":35.74431377,"lon":139.56142287},{"name":"＊?西東京市芝久保公民館","province":"東京都","city":"西東京市","address":"西東京市芝久保町5-4-48","lat":35.73269,"lon":139.528134},{"name":"＊?西東京市ひばりが丘公民館","province":"東京都","city":"西東京市","address":"西東京市ひばりが丘2-3-4","lat":35.747361,"lon":139.540589},{"name":"＊?西東京市保谷駅前公民館","province":"東京都","city":"西東京市","address":"西東京市東町3-14-30ステア5階","lat":35.748152,"lon":139.567268},{"name":"＊?西東京市谷戸公民館","province":"東京都","city":"西東京市","address":"西東京市谷戸町1-17-2","lat":35.741248,"lon":139.54395},{"name":"＊?西東京市田無公民館","province":"東京都","city":"西東京市","address":"西東京市南町5-6-11","lat":35.726018,"lon":139.537789},{"name":"＊?西東京市柳沢公民館","province":"東京都","city":"西東京市","address":"西東京市柳沢1-15-1","lat":35.728384,"lon":139.553957},{"name":"芝久保給水所","province":"東京都","city":"西東京市","address":"東京都西東京市芝久保町5-9-1","lat":35.7337671,"lon":139.524477},{"name":"保谷町給水所","province":"東京都","city":"西東京市","address":"東京都西東京市保谷町1-5-24","lat":35.7354513,"lon":139.554782},{"name":"西東京栄町配水所","province":"東京都","city":"西東京市","address":"東京都西東京市栄町2-7-6","lat":35.7516771,"lon":139.552224},{"name":"佐々総合病院","province":"東京都","city":"西東京市","address":"東京都西東京市田無町4丁目24-15","lat":35.72967884,"lon":139.53871701},{"name":"＊?西東京市芝久保公民館","province":"東京都","city":"西東京市","address":"西東京市芝久保町5-4-48","lat":35.73269,"lon":139.528134},{"name":"＊?西東京市ひばりが丘公民館","province":"東京都","city":"西東京市","address":"西東京市ひばりが丘2-3-4","lat":35.747361,"lon":139.540589},{"name":"＊?西東京市保谷駅前公民館","province":"東京都","city":"西東京市","address":"西東京市東町3-14-30ステア5階","lat":35.748152,"lon":139.567268},{"name":"＊?西東京市谷戸公民館","province":"東京都","city":"西東京市","address":"西東京市谷戸町1-17-2","lat":35.741248,"lon":139.54395},{"name":"＊?西東京市田無公民館","province":"東京都","city":"西東京市","address":"西東京市南町5-6-11","lat":35.726018,"lon":139.537789},{"name":"＊?西東京市柳沢公民館","province":"東京都","city":"西東京市","address":"西東京市柳沢1-15-1","lat":35.728384,"lon":139.553957},{"name":"芝久保給水所","province":"東京都","city":"西東京市","address":"東京都西東京市芝久保町5-9-1","lat":35.7337671,"lon":139.524477},{"name":"保谷町給水所","province":"東京都","city":"西東京市","address":"東京都西東京市保谷町1-5-24","lat":35.7354513,"lon":139.554782},{"name":"西東京栄町配水所","province":"東京都","city":"西東京市","address":"東京都西東京市栄町2-7-6","lat":35.7516771,"lon":139.552224},{"name":"佐々総合病院","province":"東京都","city":"西東京市","address":"東京都西東京市田無町4丁目24-15","lat":35.72967884,"lon":139.53871701},{"name":"＊?西東京市芝久保公民館","province":"東京都","city":"西東京市","address":"西東京市芝久保町5-4-48","lat":35.73269,"lon":139.528134},{"name":"＊?西東京市ひばりが丘公民館","province":"東京都","city":"西東京市","address":"西東京市ひばりが丘2-3-4","lat":35.747361,"lon":139.540589},{"name":"＊?西東京市保谷駅前公民館","province":"東京都","city":"西東京市","address":"西東京市東町3-14-30ステア5階","lat":35.748152,"lon":139.567268},{"name":"＊?西東京市谷戸公民館","province":"東京都","city":"西東京市","address":"西東京市谷戸町1-17-2","lat":35.741248,"lon":139.54395},{"name":"＊?西東京市田無公民館","province":"東京都","city":"西東京市","address":"西東京市南町5-6-11","lat":35.726018,"lon":139.537789},{"name":"＊?西東京市柳沢公民館","province":"東京都","city":"西東京市","address":"西東京市柳沢1-15-1","lat":35.728384,"lon":139.553957},{"name":"芝久保給水所","province":"東京都","city":"西東京市","address":"東京都西東京市芝久保町5-9-1","lat":35.7337671,"lon":139.524477},{"name":"保谷町給水所","province":"東京都","city":"西東京市","address":"東京都西東京市保谷町1-5-24","lat":35.7354513,"lon":139.554782},{"name":"西東京栄町配水所","province":"東京都","city":"西東京市","address":"東京都西東京市栄町2-7-6","lat":35.7516771,"lon":139.552224},{"name":"佐々総合病院","province":"東京都","city":"西東京市","address":"東京都西東京市田無町4丁目24-15","lat":35.72967884,"lon":139.53871701},{"name":"＊?西東京市芝久保公民館","province":"東京都","city":"西東京市","address":"西東京市芝久保町5-4-48","lat":35.73269,"lon":139.528134},{"name":"＊?西東京市ひばりが丘公民館","province":"東京都","city":"西東京市","address":"西東京市ひばりが丘2-3-4","lat":35.747361,"lon":139.540589},{"name":"＊?西東京市保谷駅前公民館","province":"東京都","city":"西東京市","address":"西東京市東町3-14-30ステア5階","lat":35.748152,"lon":139.567268},{"name":"＊?西東京市谷戸公民館","province":"東京都","city":"西東京市","address":"西東京市谷戸町1-17-2","lat":35.741248,"lon":139.54395},{"name":"＊?西東京市田無公民館","province":"東京都","city":"西東京市","address":"西東京市南町5-6-11","lat":35.726018,"lon":139.537789},{"name":"＊?西東京市柳沢公民館","province":"東京都","city":"西東京市","address":"西東京市柳沢1-15-1","lat":35.728384,"lon":139.553957},{"name":"芝久保給水所","province":"東京都","city":"西東京市","address":"東京都西東京市芝久保町5-9-1","lat":35.7337671,"lon":139.524477},{"name":"保谷町給水所","province":"東京都","city":"西東京市","address":"東京都西東京市保谷町1-5-24","lat":35.7354513,"lon":139.554782},{"name":"西東京栄町配水所","province":"東京都","city":"西東京市","address":"東京都西東京市栄町2-7-6","lat":35.7516771,"lon":139.552224},{"name":"佐々総合病院","province":"東京都","city":"西東京市","address":"東京都西東京市田無町4丁目24-15","lat":35.72967884,"lon":139.53871701},{"name":"＊?西東京市芝久保公民館","province":"東京都","city":"西東京市","address":"西東京市芝久保町5-4-48","lat":35.73269,"lon":139.528134},{"name":"＊?西東京市ひばりが丘公民館","province":"東京都","city":"西東京市","address":"西東京市ひばりが丘2-3-4","lat":35.747361,"lon":139.540589},{"name":"＊?西東京市保谷駅前公民館","province":"東京都","city":"西東京市","address":"西東京市東町3-14-30ステア5階","lat":35.748152,"lon":139.567268},{"name":"＊?西東京市谷戸公民館","province":"東京都","city":"西東京市","address":"西東京市谷戸町1-17-2","lat":35.741248,"lon":139.54395},{"name":"＊?西東京市田無公民館","province":"東京都","city":"西東京市","address":"西東京市南町5-6-11","lat":35.726018,"lon":139.537789},{"name":"＊?西東京市柳沢公民館","province":"東京都","city":"西東京市","address":"西東京市柳沢1-15-1","lat":35.728384,"lon":139.553957},{"name":"芝久保給水所","province":"東京都","city":"西東京市","address":"東京都西東京市芝久保町5-9-1","lat":35.7337671,"lon":139.524477},{"name":"保谷町給水所","province":"東京都","city":"西東京市","address":"東京都西東京市保谷町1-5-24","lat":35.7354513,"lon":139.554782},{"name":"西東京栄町配水所","province":"東京都","city":"西東京市","address":"東京都西東京市栄町2-7-6","lat":35.7516771,"lon":139.552224},{"name":"佐々総合病院","province":"東京都","city":"西東京市","address":"東京都西東京市田無町4丁目24-15","lat":35.72967884,"lon":139.53871701},{"name":"＊?西東京市芝久保公民館","province":"東京都","city":"西東京市","address":"西東京市芝久保町5-4-48","lat":35.73269,"lon":139.528134},{"name":"＊?西東京市ひばりが丘公民館","province":"東京都","city":"西東京市","address":"西東京市ひばりが丘2-3-4","lat":35.747361,"lon":139.540589},{"name":"＊?西東京市保谷駅前公民館","province":"東京都","city":"西東京市","address":"西東京市東町3-14-30ステア5階","lat":35.748152,"lon":139.567268},{"name":"＊?西東京市谷戸公民館","province":"東京都","city":"西東京市","address":"西東京市谷戸町1-17-2","lat":35.741248,"lon":139.54395},{"name":"＊?西東京市田無公民館","province":"東京都","city":"西東京市","address":"西東京市南町5-6-11","lat":35.726018,"lon":139.537789},{"name":"＊?西東京市柳沢公民館","province":"東京都","city":"西東京市","address":"西東京市柳沢1-15-1","lat":35.728384,"lon":139.553957},{"name":"芝久保給水所","province":"東京都","city":"西東京市","address":"東京都西東京市芝久保町5-9-1","lat":35.7337671,"lon":139.524477},{"name":"保谷町給水所","province":"東京都","city":"西東京市","address":"東京都西東京市保谷町1-5-24","lat":35.7354513,"lon":139.554782},{"name":"西東京栄町配水所","province":"東京都","city":"西東京市","address":"東京都西東京市栄町2-7-6","lat":35.7516771,"lon":139.552224},{"name":"佐々総合病院","province":"東京都","city":"西東京市","address":"東京都西東京市田無町4丁目24-15","lat":35.72967884,"lon":139.53871701},{"name":"＊?西東京市芝久保公民館","province":"東京都","city":"西東京市","address":"西東京市芝久保町5-4-48","lat":35.73269,"lon":139.528134},{"name":"＊?西東京市ひばりが丘公民館","province":"東京都","city":"西東京市","address":"西東京市ひばりが丘2-3-4","lat":35.747361,"lon":139.540589},{"name":"＊?西東京市保谷駅前公民館","province":"東京都","city":"西東京市","address":"西東京市東町3-14-30ステア5階","lat":35.748152,"lon":139.567268},{"name":"＊?西東京市谷戸公民館","province":"東京都","city":"西東京市","address":"西東京市谷戸町1-17-2","lat":35.741248,"lon":139.54395},{"name":"＊?西東京市田無公民館","province":"東京都","city":"西東京市","address":"西東京市南町5-6-11","lat":35.726018,"lon":139.537789},{"name":"＊?西東京市柳沢公民館","province":"東京都","city":"西東京市","address":"西東京市柳沢1-15-1","lat":35.728384,"lon":139.553957},{"name":"芝久保給水所","province":"東京都","city":"西東京市","address":"東京都西東京市芝久保町5-9-1","lat":35.7337671,"lon":139.524477},{"name":"保谷町給水所","province":"東京都","city":"西東京市","address":"東京都西東京市保谷町1-5-24","lat":35.7354513,"lon":139.554782},{"name":"西東京栄町配水所","province":"東京都","city":"西東京市","address":"東京都西東京市栄町2-7-6","lat":35.7516771,"lon":139.552224},{"name":"＊?西東京市芝久保公民館","province":"東京都","city":"西東京市","address":"西東京市芝久保町5-4-48","lat":35.73269,"lon":139.528134},{"name":"＊?西東京市ひばりが丘公民館","province":"東京都","city":"西東京市","address":"西東京市ひばりが丘2-3-4","lat":35.747361,"lon":139.540589},{"name":"＊?西東京市保谷駅前公民館","province":"東京都","city":"西東京市","address":"西東京市東町3-14-30ステア5階","lat":35.748152,"lon":139.567268},{"name":"＊?西東京市谷戸公民館","province":"東京都","city":"西東京市","address":"西東京市谷戸町1-17-2","lat":35.741248,"lon":139.54395},{"name":"＊?西東京市田無公民館","province":"東京都","city":"西東京市","address":"西東京市南町5-6-11","lat":35.726018,"lon":139.537789},{"name":"＊?西東京市柳沢公民館","province":"東京都","city":"西東京市","address":"西東京市柳沢1-15-1","lat":35.728384,"lon":139.553957},{"name":"芝久保給水所","province":"東京都","city":"西東京市","address":"東京都西東京市芝久保町5-9-1","lat":35.7337671,"lon":139.524477},{"name":"保谷町給水所","province":"東京都","city":"西東京市","address":"東京都西東京市保谷町1-5-24","lat":35.7354513,"lon":139.554782},{"name":"西東京栄町配水所","province":"東京都","city":"西東京市","address":"東京都西東京市栄町2-7-6","lat":35.7516771,"lon":139.552224},{"name":"＊?西東京市芝久保公民館","province":"東京都","city":"西東京市","address":"西東京市芝久保町5-4-48","lat":35.73269,"lon":139.528134},{"name":"＊?西東京市ひばりが丘公民館","province":"東京都","city":"西東京市","address":"西東京市ひばりが丘2-3-4","lat":35.747361,"lon":139.540589},{"name":"＊?西東京市保谷駅前公民館","province":"東京都","city":"西東京市","address":"西東京市東町3-14-30ステア5階","lat":35.748152,"lon":139.567268},{"name":"＊?西東京市谷戸公民館","province":"東京都","city":"西東京市","address":"西東京市谷戸町1-17-2","lat":35.741248,"lon":139.54395},{"name":"＊?西東京市田無公民館","province":"東京都","city":"西東京市","address":"西東京市南町5-6-11","lat":35.726018,"lon":139.537789},{"name":"＊?西東京市柳沢公民館","province":"東京都","city":"西東京市","address":"西東京市柳沢1-15-1","lat":35.728384,"lon":139.553957},{"name":"芝久保給水所","province":"東京都","city":"西東京市","address":"東京都西東京市芝久保町5-9-1","lat":35.7337671,"lon":139.524477},{"name":"保谷町給水所","province":"東京都","city":"西東京市","address":"東京都西東京市保谷町1-5-24","lat":35.7354513,"lon":139.554782},{"name":"西東京栄町配水所","province":"東京都","city":"西東京市","address":"東京都西東京市栄町2-7-6","lat":35.7516771,"lon":139.552224},{"name":"＊?西東京市芝久保公民館","province":"東京都","city":"西東京市","address":"西東京市芝久保町5-4-48","lat":35.73269,"lon":139.528134},{"name":"＊?西東京市ひばりが丘公民館","province":"東京都","city":"西東京市","address":"西東京市ひばりが丘2-3-4","lat":35.747361,"lon":139.540589},{"name":"＊?西東京市保谷駅前公民館","province":"東京都","city":"西東京市","address":"西東京市東町3-14-30ステア5階","lat":35.748152,"lon":139.567268},{"name":"＊?西東京市谷戸公民館","province":"東京都","city":"西東京市","address":"西東京市谷戸町1-17-2","lat":35.741248,"lon":139.54395},{"name":"＊?西東京市田無公民館","province":"東京都","city":"西東京市","address":"西東京市南町5-6-11","lat":35.726018,"lon":139.537789},{"name":"＊?西東京市柳沢公民館","province":"東京都","city":"西東京市","address":"西東京市柳沢1-15-1","lat":35.728384,"lon":139.553957},{"name":"芝久保給水所","province":"東京都","city":"西東京市","address":"東京都西東京市芝久保町5-9-1","lat":35.7337671,"lon":139.524477},{"name":"保谷町給水所","province":"東京都","city":"西東京市","address":"東京都西東京市保谷町1-5-24","lat":35.7354513,"lon":139.554782},{"name":"西東京栄町配水所","province":"東京都","city":"西東京市","address":"東京都西東京市栄町2-7-6","lat":35.7516771,"lon":139.552224},{"name":"＊?西東京市芝久保公民館","province":"東京都","city":"西東京市","address":"西東京市芝久保町5-4-48","lat":35.73269,"lon":139.528134},{"name":"＊?西東京市ひばりが丘公民館","province":"東京都","city":"西東京市","address":"西東京市ひばりが丘2-3-4","lat":35.747361,"lon":139.540589},{"name":"＊?西東京市保谷駅前公民館","province":"東京都","city":"西東京市","address":"西東京市東町3-14-30ステア5階","lat":35.748152,"lon":139.567268},{"name":"＊?西東京市谷戸公民館","province":"東京都","city":"西東京市","address":"西東京市谷戸町1-17-2","lat":35.741248,"lon":139.54395},{"name":"＊?西東京市田無公民館","province":"東京都","city":"西東京市","address":"西東京市南町5-6-11","lat":35.726018,"lon":139.537789},{"name":"＊?西東京市柳沢公民館","province":"東京都","city":"西東京市","address":"西東京市柳沢1-15-1","lat":35.728384,"lon":139.553957},{"name":"芝久保給水所","province":"東京都","city":"西東京市","address":"東京都西東京市芝久保町5-9-1","lat":35.7337671,"lon":139.524477},{"name":"保谷町給水所","province":"東京都","city":"西東京市","address":"東京都西東京市保谷町1-5-24","lat":35.7354513,"lon":139.554782},{"name":"西東京栄町配水所","province":"東京都","city":"西東京市","address":"東京都西東京市栄町2-7-6","lat":35.7516771,"lon":139.552224},{"name":"＊?西東京市芝久保公民館","province":"東京都","city":"西東京市","address":"西東京市芝久保町5-4-48","lat":35.73269,"lon":139.528134},{"name":"＊?西東京市ひばりが丘公民館","province":"東京都","city":"西東京市","address":"西東京市ひばりが丘2-3-4","lat":35.747361,"lon":139.540589},{"name":"＊?西東京市保谷駅前公民館","province":"東京都","city":"西東京市","address":"西東京市東町3-14-30ステア5階","lat":35.748152,"lon":139.567268},{"name":"＊?西東京市谷戸公民館","province":"東京都","city":"西東京市","address":"西東京市谷戸町1-17-2","lat":35.741248,"lon":139.54395},{"name":"＊?西東京市田無公民館","province":"東京都","city":"西東京市","address":"西東京市南町5-6-11","lat":35.726018,"lon":139.537789},{"name":"＊?西東京市柳沢公民館","province":"東京都","city":"西東京市","address":"西東京市柳沢1-15-1","lat":35.728384,"lon":139.553957},{"name":"芝久保給水所","province":"東京都","city":"西東京市","address":"東京都西東京市芝久保町5-9-1","lat":35.7337671,"lon":139.524477},{"name":"保谷町給水所","province":"東京都","city":"西東京市","address":"東京都西東京市保谷町1-5-24","lat":35.7354513,"lon":139.554782},{"name":"西東京栄町配水所","province":"東京都","city":"西東京市","address":"東京都西東京市栄町2-7-6","lat":35.7516771,"lon":139.552224},{"name":"＊?西東京市芝久保公民館","province":"東京都","city":"西東京市","address":"西東京市芝久保町5-4-48","lat":35.73269,"lon":139.528134},{"name":"＊?西東京市ひばりが丘公民館","province":"東京都","city":"西東京市","address":"西東京市ひばりが丘2-3-4","lat":35.747361,"lon":139.540589},{"name":"＊?西東京市保谷駅前公民館","province":"東京都","city":"西東京市","address":"西東京市東町3-14-30ステア5階","lat":35.748152,"lon":139.567268},{"name":"＊?西東京市谷戸公民館","province":"東京都","city":"西東京市","address":"西東京市谷戸町1-17-2","lat":35.741248,"lon":139.54395},{"name":"＊?西東京市田無公民館","province":"東京都","city":"西東京市","address":"西東京市南町5-6-11","lat":35.726018,"lon":139.537789},{"name":"＊?西東京市柳沢公民館","province":"東京都","city":"西東京市","address":"西東京市柳沢1-15-1","lat":35.728384,"lon":139.553957},{"name":"芝久保給水所","province":"東京都","city":"西東京市","address":"東京都西東京市芝久保町5-9-1","lat":35.7337671,"lon":139.524477},{"name":"保谷町給水所","province":"東京都","city":"西東京市","address":"東京都西東京市保谷町1-5-24","lat":35.7354513,"lon":139.554782},{"name":"西東京栄町配水所","province":"東京都","city":"西東京市","address":"東京都西東京市栄町2-7-6","lat":35.7516771,"lon":139.552224},{"name":"＊?西東京市芝久保公民館","province":"東京都","city":"西東京市","address":"西東京市芝久保町5-4-48","lat":35.73269,"lon":139.528134},{"name":"＊?西東京市ひばりが丘公民館","province":"東京都","city":"西東京市","address":"西東京市ひばりが丘2-3-4","lat":35.747361,"lon":139.540589},{"name":"＊?西東京市保谷駅前公民館","province":"東京都","city":"西東京市","address":"西東京市東町3-14-30ステア5階","lat":35.748152,"lon":139.567268},{"name":"＊?西東京市谷戸公民館","province":"東京都","city":"西東京市","address":"西東京市谷戸町1-17-2","lat":35.741248,"lon":139.54395},{"name":"＊?西東京市田無公民館","province":"東京都","city":"西東京市","address":"西東京市南町5-6-11","lat":35.726018,"lon":139.537789},{"name":"＊?西東京市柳沢公民館","province":"東京都","city":"西東京市","address":"西東京市柳沢1-15-1","lat":35.728384,"lon":139.553957},{"name":"芝久保給水所","province":"東京都","city":"西東京市","address":"東京都西東京市芝久保町5-9-1","lat":35.7337671,"lon":139.524477},{"name":"保谷町給水所","province":"東京都","city":"西東京市","address":"東京都西東京市保谷町1-5-24","lat":35.7354513,"lon":139.554782},{"name":"西東京栄町配水所","province":"東京都","city":"西東京市","address":"東京都西東京市栄町2-7-6","lat":35.7516771,"lon":139.552224},{"name":"＊?西東京市芝久保公民館","province":"東京都","city":"西東京市","address":"西東京市芝久保町5-4-48","lat":35.73269,"lon":139.528134},{"name":"＊?西東京市ひばりが丘公民館","province":"東京都","city":"西東京市","address":"西東京市ひばりが丘2-3-4","lat":35.747361,"lon":139.540589},{"name":"＊?西東京市保谷駅前公民館","province":"東京都","city":"西東京市","address":"西東京市東町3-14-30ステア5階","lat":35.748152,"lon":139.567268},{"name":"＊?西東京市谷戸公民館","province":"東京都","city":"西東京市","address":"西東京市谷戸町1-17-2","lat":35.741248,"lon":139.54395},{"name":"＊?西東京市田無公民館","province":"東京都","city":"西東京市","address":"西東京市南町5-6-11","lat":35.726018,"lon":139.537789},{"name":"＊?西東京市柳沢公民館","province":"東京都","city":"西東京市","address":"西東京市柳沢1-15-1","lat":35.728384,"lon":139.553957},{"name":"芝久保給水所","province":"東京都","city":"西東京市","address":"東京都西東京市芝久保町5-9-1","lat":35.7337671,"lon":139.524477},{"name":"保谷町給水所","province":"東京都","city":"西東京市","address":"東京都西東京市保谷町1-5-24","lat":35.7354513,"lon":139.554782},{"name":"西東京栄町配水所","province":"東京都","city":"西東京市","address":"東京都西東京市栄町2-7-6","lat":35.7516771,"lon":139.552224},{"name":"＊?西東京市芝久保公民館","province":"東京都","city":"西東京市","address":"西東京市芝久保町5-4-48","lat":35.73269,"lon":139.528134},{"name":"＊?西東京市ひばりが丘公民館","province":"東京都","city":"西東京市","address":"西東京市ひばりが丘2-3-4","lat":35.747361,"lon":139.540589},{"name":"＊?西東京市保谷駅前公民館","province":"東京都","city":"西東京市","address":"西東京市東町3-14-30ステア5階","lat":35.748152,"lon":139.567268},{"name":"＊?西東京市谷戸公民館","province":"東京都","city":"西東京市","address":"西東京市谷戸町1-17-2","lat":35.741248,"lon":139.54395},{"name":"＊?西東京市田無公民館","province":"東京都","city":"西東京市","address":"西東京市南町5-6-11","lat":35.726018,"lon":139.537789},{"name":"＊?西東京市柳沢公民館","province":"東京都","city":"西東京市","address":"西東京市柳沢1-15-1","lat":35.728384,"lon":139.553957},{"name":"芝久保給水所","province":"東京都","city":"西東京市","address":"東京都西東京市芝久保町5-9-1","lat":35.7337671,"lon":139.524477},{"name":"保谷町給水所","province":"東京都","city":"西東京市","address":"東京都西東京市保谷町1-5-24","lat":35.7354513,"lon":139.554782},{"name":"西東京栄町配水所","province":"東京都","city":"西東京市","address":"東京都西東京市栄町2-7-6","lat":35.7516771,"lon":139.552224},{"name":"＊?西東京市芝久保公民館","province":"東京都","city":"西東京市","address":"西東京市芝久保町5-4-48","lat":35.73269,"lon":139.528134},{"name":"＊?西東京市ひばりが丘公民館","province":"東京都","city":"西東京市","address":"西東京市ひばりが丘2-3-4","lat":35.747361,"lon":139.540589},{"name":"＊?西東京市保谷駅前公民館","province":"東京都","city":"西東京市","address":"西東京市東町3-14-30ステア5階","lat":35.748152,"lon":139.567268},{"name":"＊?西東京市谷戸公民館","province":"東京都","city":"西東京市","address":"西東京市谷戸町1-17-2","lat":35.741248,"lon":139.54395},{"name":"＊?西東京市田無公民館","province":"東京都","city":"西東京市","address":"西東京市南町5-6-11","lat":35.726018,"lon":139.537789},{"name":"＊?西東京市柳沢公民館","province":"東京都","city":"西東京市","address":"西東京市柳沢1-15-1","lat":35.728384,"lon":139.553957},{"name":"芝久保給水所","province":"東京都","city":"西東京市","address":"東京都西東京市芝久保町5-9-1","lat":35.7337671,"lon":139.524477},{"name":"保谷町給水所","province":"東京都","city":"西東京市","address":"東京都西東京市保谷町1-5-24","lat":35.7354513,"lon":139.554782},{"name":"西東京栄町配水所","province":"東京都","city":"西東京市","address":"東京都西東京市栄町2-7-6","lat":35.7516771,"lon":139.552224},{"name":"＊?西東京市芝久保公民館","province":"東京都","city":"西東京市","address":"西東京市芝久保町5-4-48","lat":35.73269,"lon":139.528134},{"name":"＊?西東京市ひばりが丘公民館","province":"東京都","city":"西東京市","address":"西東京市ひばりが丘2-3-4","lat":35.747361,"lon":139.540589},{"name":"＊?西東京市保谷駅前公民館","province":"東京都","city":"西東京市","address":"西東京市東町3-14-30ステア5階","lat":35.748152,"lon":139.567268},{"name":"＊?西東京市谷戸公民館","province":"東京都","city":"西東京市","address":"西東京市谷戸町1-17-2","lat":35.741248,"lon":139.54395},{"name":"＊?西東京市田無公民館","province":"東京都","city":"西東京市","address":"西東京市南町5-6-11","lat":35.726018,"lon":139.537789},{"name":"＊?西東京市柳沢公民館","province":"東京都","city":"西東京市","address":"西東京市柳沢1-15-1","lat":35.728384,"lon":139.553957},{"name":"芝久保給水所","province":"東京都","city":"西東京市","address":"東京都西東京市芝久保町5-9-1","lat":35.7337671,"lon":139.524477},{"name":"保谷町給水所","province":"東京都","city":"西東京市","address":"東京都西東京市保谷町1-5-24","lat":35.7354513,"lon":139.554782},{"name":"西東京栄町配水所","province":"東京都","city":"西東京市","address":"東京都西東京市栄町2-7-6","lat":35.7516771,"lon":139.552224},{"name":"＊?西東京市芝久保公民館","province":"東京都","city":"西東京市","address":"西東京市芝久保町5-4-48","lat":35.73269,"lon":139.528134},{"name":"＊?西東京市ひばりが丘公民館","province":"東京都","city":"西東京市","address":"西東京市ひばりが丘2-3-4","lat":35.747361,"lon":139.540589},{"name":"＊?西東京市保谷駅前公民館","province":"東京都","city":"西東京市","address":"西東京市東町3-14-30ステア5階","lat":35.748152,"lon":139.567268},{"name":"＊?西東京市谷戸公民館","province":"東京都","city":"西東京市","address":"西東京市谷戸町1-17-2","lat":35.741248,"lon":139.54395},{"name":"＊?西東京市田無公民館","province":"東京都","city":"西東京市","address":"西東京市南町5-6-11","lat":35.726018,"lon":139.537789},{"name":"＊?西東京市柳沢公民館","province":"東京都","city":"西東京市","address":"西東京市柳沢1-15-1","lat":35.728384,"lon":139.553957},{"name":"芝久保給水所","province":"東京都","city":"西東京市","address":"東京都西東京市芝久保町5-9-1","lat":35.7337671,"lon":139.524477},{"name":"保谷町給水所","province":"東京都","city":"西東京市","address":"東京都西東京市保谷町1-5-24","lat":35.7354513,"lon":139.554782},{"name":"西東京栄町配水所","province":"東京都","city":"西東京市","address":"東京都西東京市栄町2-7-6","lat":35.7516771,"lon":139.552224},{"name":"＊?西東京市芝久保公民館","province":"東京都","city":"西東京市","address":"西東京市芝久保町5-4-48","lat":35.73269,"lon":139.528134},{"name":"＊?西東京市ひばりが丘公民館","province":"東京都","city":"西東京市","address":"西東京市ひばりが丘2-3-4","lat":35.747361,"lon":139.540589},{"name":"＊?西東京市保谷駅前公民館","province":"東京都","city":"西東京市","address":"西東京市東町3-14-30ステア5階","lat":35.748152,"lon":139.567268},{"name":"＊?西東京市谷戸公民館","province":"東京都","city":"西東京市","address":"西東京市谷戸町1-17-2","lat":35.741248,"lon":139.54395},{"name":"＊?西東京市田無公民館","province":"東京都","city":"西東京市","address":"西東京市南町5-6-11","lat":35.726018,"lon":139.537789},{"name":"＊?西東京市柳沢公民館","province":"東京都","city":"西東京市","address":"西東京市柳沢1-15-1","lat":35.728384,"lon":139.553957},{"name":"芝久保給水所","province":"東京都","city":"西東京市","address":"東京都西東京市芝久保町5-9-1","lat":35.7337671,"lon":139.524477},{"name":"保谷町給水所","province":"東京都","city":"西東京市","address":"東京都西東京市保谷町1-5-24","lat":35.7354513,"lon":139.554782},{"name":"西東京栄町配水所","province":"東京都","city":"西東京市","address":"東京都西東京市栄町2-7-6","lat":35.7516771,"lon":139.552224},{"name":"＊?西東京市芝久保公民館","province":"東京都","city":"西東京市","address":"西東京市芝久保町5-4-48","lat":35.73269,"lon":139.528134},{"name":"＊?西東京市ひばりが丘公民館","province":"東京都","city":"西東京市","address":"西東京市ひばりが丘2-3-4","lat":35.747361,"lon":139.540589},{"name":"＊?西東京市保谷駅前公民館","province":"東京都","city":"西東京市","address":"西東京市東町3-14-30ステア5階","lat":35.748152,"lon":139.567268},{"name":"＊?西東京市谷戸公民館","province":"東京都","city":"西東京市","address":"西東京市谷戸町1-17-2","lat":35.741248,"lon":139.54395},{"name":"＊?西東京市田無公民館","province":"東京都","city":"西東京市","address":"西東京市南町5-6-11","lat":35.726018,"lon":139.537789},{"name":"＊?西東京市柳沢公民館","province":"東京都","city":"西東京市","address":"西東京市柳沢1-15-1","lat":35.728384,"lon":139.553957},{"name":"芝久保給水所","province":"東京都","city":"西東京市","address":"東京都西東京市芝久保町5-9-1","lat":35.7337671,"lon":139.524477},{"name":"保谷町給水所","province":"東京都","city":"西東京市","address":"東京都西東京市保谷町1-5-24","lat":35.7354513,"lon":139.554782},{"name":"西東京栄町配水所","province":"東京都","city":"西東京市","address":"東京都西東京市栄町2-7-6","lat":35.7516771,"lon":139.552224},{"name":"＊?西東京市芝久保公民館","province":"東京都","city":"西東京市","address":"西東京市芝久保町5-4-48","lat":35.73269,"lon":139.528134},{"name":"＊?西東京市ひばりが丘公民館","province":"東京都","city":"西東京市","address":"西東京市ひばりが丘2-3-4","lat":35.747361,"lon":139.540589},{"name":"＊?西東京市保谷駅前公民館","province":"東京都","city":"西東京市","address":"西東京市東町3-14-30ステア5階","lat":35.748152,"lon":139.567268},{"name":"＊?西東京市谷戸公民館","province":"東京都","city":"西東京市","address":"西東京市谷戸町1-17-2","lat":35.741248,"lon":139.54395},{"name":"＊?西東京市田無公民館","province":"東京都","city":"西東京市","address":"西東京市南町5-6-11","lat":35.726018,"lon":139.537789},{"name":"＊?西東京市柳沢公民館","province":"東京都","city":"西東京市","address":"西東京市柳沢1-15-1","lat":35.728384,"lon":139.553957},{"name":"芝久保給水所","province":"東京都","city":"西東京市","address":"東京都西東京市芝久保町5-9-1","lat":35.7337671,"lon":139.524477},{"name":"保谷町給水所","province":"東京都","city":"西東京市","address":"東京都西東京市保谷町1-5-24","lat":35.7354513,"lon":139.554782},{"name":"西東京栄町配水所","province":"東京都","city":"西東京市","address":"東京都西東京市栄町2-7-6","lat":35.7516771,"lon":139.552224},{"name":"＊?西東京市芝久保公民館","province":"東京都","city":"西東京市","address":"西東京市芝久保町5-4-48","lat":35.73269,"lon":139.528134},{"name":"＊?西東京市ひばりが丘公民館","province":"東京都","city":"西東京市","address":"西東京市ひばりが丘2-3-4","lat":35.747361,"lon":139.540589},{"name":"＊?西東京市保谷駅前公民館","province":"東京都","city":"西東京市","address":"西東京市東町3-14-30ステア5階","lat":35.748152,"lon":139.567268},{"name":"＊?西東京市谷戸公民館","province":"東京都","city":"西東京市","address":"西東京市谷戸町1-17-2","lat":35.741248,"lon":139.54395},{"name":"＊?西東京市田無公民館","province":"東京都","city":"西東京市","address":"西東京市南町5-6-11","lat":35.726018,"lon":139.537789},{"name":"＊?西東京市柳沢公民館","province":"東京都","city":"西東京市","address":"西東京市柳沢1-15-1","lat":35.728384,"lon":139.553957},{"name":"芝久保給水所","province":"東京都","city":"西東京市","address":"東京都西東京市芝久保町5-9-1","lat":35.7337671,"lon":139.524477},{"name":"保谷町給水所","province":"東京都","city":"西東京市","address":"東京都西東京市保谷町1-5-24","lat":35.7354513,"lon":139.554782},{"name":"西東京栄町配水所","province":"東京都","city":"西東京市","address":"東京都西東京市栄町2-7-6","lat":35.7516771,"lon":139.552224},{"name":"＊?西東京市芝久保公民館","province":"東京都","city":"西東京市","address":"西東京市芝久保町5-4-48","lat":35.73269,"lon":139.528134},{"name":"＊?西東京市ひばりが丘公民館","province":"東京都","city":"西東京市","address":"西東京市ひばりが丘2-3-4","lat":35.747361,"lon":139.540589},{"name":"＊?西東京市保谷駅前公民館","province":"東京都","city":"西東京市","address":"西東京市東町3-14-30ステア5階","lat":35.748152,"lon":139.567268},{"name":"＊?西東京市谷戸公民館","province":"東京都","city":"西東京市","address":"西東京市谷戸町1-17-2","lat":35.741248,"lon":139.54395},{"name":"＊?西東京市田無公民館","province":"東京都","city":"西東京市","address":"西東京市南町5-6-11","lat":35.726018,"lon":139.537789},{"name":"＊?西東京市柳沢公民館","province":"東京都","city":"西東京市","address":"西東京市柳沢1-15-1","lat":35.728384,"lon":139.553957},{"name":"芝久保給水所","province":"東京都","city":"西東京市","address":"東京都西東京市芝久保町5-9-1","lat":35.7337671,"lon":139.524477},{"name":"保谷町給水所","province":"東京都","city":"西東京市","address":"東京都西東京市保谷町1-5-24","lat":35.7354513,"lon":139.554782},{"name":"西東京栄町配水所","province":"東京都","city":"西東京市","address":"東京都西東京市栄町2-7-6","lat":35.7516771,"lon":139.552224},{"name":"＊?西東京市芝久保公民館","province":"東京都","city":"西東京市","address":"西東京市芝久保町5-4-48","lat":35.73269,"lon":139.528134},{"name":"＊?西東京市ひばりが丘公民館","province":"東京都","city":"西東京市","address":"西東京市ひばりが丘2-3-4","lat":35.747361,"lon":139.540589},{"name":"＊?西東京市保谷駅前公民館","province":"東京都","city":"西東京市","address":"西東京市東町3-14-30ステア5階","lat":35.748152,"lon":139.567268},{"name":"＊?西東京市谷戸公民館","province":"東京都","city":"西東京市","address":"西東京市谷戸町1-17-2","lat":35.741248,"lon":139.54395},{"name":"＊?西東京市田無公民館","province":"東京都","city":"西東京市","address":"西東京市南町5-6-11","lat":35.726018,"lon":139.537789},{"name":"＊?西東京市柳沢公民館","province":"東京都","city":"西東京市","address":"西東京市柳沢1-15-1","lat":35.728384,"lon":139.553957},{"name":"芝久保給水所","province":"東京都","city":"西東京市","address":"東京都西東京市芝久保町5-9-1","lat":35.7337671,"lon":139.524477},{"name":"保谷町給水所","province":"東京都","city":"西東京市","address":"東京都西東京市保谷町1-5-24","lat":35.7354513,"lon":139.554782},{"name":"西東京栄町配水所","province":"東京都","city":"西東京市","address":"東京都西東京市栄町2-7-6","lat":35.7516771,"lon":139.552224},{"name":"＊?西東京市芝久保公民館","province":"東京都","city":"西東京市","address":"西東京市芝久保町5-4-48","lat":35.73269,"lon":139.528134},{"name":"＊?西東京市ひばりが丘公民館","province":"東京都","city":"西東京市","address":"西東京市ひばりが丘2-3-4","lat":35.747361,"lon":139.540589},{"name":"＊?西東京市保谷駅前公民館","province":"東京都","city":"西東京市","address":"西東京市東町3-14-30ステア5階","lat":35.748152,"lon":139.567268},{"name":"＊?西東京市谷戸公民館","province":"東京都","city":"西東京市","address":"西東京市谷戸町1-17-2","lat":35.741248,"lon":139.54395},{"name":"＊?西東京市田無公民館","province":"東京都","city":"西東京市","address":"西東京市南町5-6-11","lat":35.726018,"lon":139.537789},{"name":"＊?西東京市柳沢公民館","province":"東京都","city":"西東京市","address":"西東京市柳沢1-15-1","lat":35.728384,"lon":139.553957},{"name":"芝久保給水所","province":"東京都","city":"西東京市","address":"東京都西東京市芝久保町5-9-1","lat":35.7337671,"lon":139.524477},{"name":"保谷町給水所","province":"東京都","city":"西東京市","address":"東京都西東京市保谷町1-5-24","lat":35.7354513,"lon":139.554782},{"name":"西東京栄町配水所","province":"東京都","city":"西東京市","address":"東京都西東京市栄町2-7-6","lat":35.7516771,"lon":139.552224},{"name":"＊?西東京市芝久保公民館","province":"東京都","city":"西東京市","address":"西東京市芝久保町5-4-48","lat":35.73269,"lon":139.528134},{"name":"＊?西東京市ひばりが丘公民館","province":"東京都","city":"西東京市","address":"西東京市ひばりが丘2-3-4","lat":35.747361,"lon":139.540589},{"name":"＊?西東京市保谷駅前公民館","province":"東京都","city":"西東京市","address":"西東京市東町3-14-30ステア5階","lat":35.748152,"lon":139.567268},{"name":"＊?西東京市谷戸公民館","province":"東京都","city":"西東京市","address":"西東京市谷戸町1-17-2","lat":35.741248,"lon":139.54395},{"name":"＊?西東京市田無公民館","province":"東京都","city":"西東京市","address":"西東京市南町5-6-11","lat":35.726018,"lon":139.537789},{"name":"＊?西東京市柳沢公民館","province":"東京都","city":"西東京市","address":"西東京市柳沢1-15-1","lat":35.728384,"lon":139.553957},{"name":"芝久保給水所","province":"東京都","city":"西東京市","address":"東京都西東京市芝久保町5-9-1","lat":35.7337671,"lon":139.524477},{"name":"保谷町給水所","province":"東京都","city":"西東京市","address":"東京都西東京市保谷町1-5-24","lat":35.7354513,"lon":139.554782},{"name":"西東京栄町配水所","province":"東京都","city":"西東京市","address":"東京都西東京市栄町2-7-6","lat":35.7516771,"lon":139.552224},{"name":"＊?西東京市芝久保公民館","province":"東京都","city":"西東京市","address":"西東京市芝久保町5-4-48","lat":35.73269,"lon":139.528134},{"name":"＊?西東京市ひばりが丘公民館","province":"東京都","city":"西東京市","address":"西東京市ひばりが丘2-3-4","lat":35.747361,"lon":139.540589},{"name":"＊?西東京市保谷駅前公民館","province":"東京都","city":"西東京市","address":"西東京市東町3-14-30ステア5階","lat":35.748152,"lon":139.567268},{"name":"＊?西東京市谷戸公民館","province":"東京都","city":"西東京市","address":"西東京市谷戸町1-17-2","lat":35.741248,"lon":139.54395},{"name":"＊?西東京市田無公民館","province":"東京都","city":"西東京市","address":"西東京市南町5-6-11","lat":35.726018,"lon":139.537789},{"name":"＊?西東京市柳沢公民館","province":"東京都","city":"西東京市","address":"西東京市柳沢1-15-1","lat":35.728384,"lon":139.553957},{"name":"芝久保給水所","province":"東京都","city":"西東京市","address":"東京都西東京市芝久保町5-9-1","lat":35.7337671,"lon":139.524477},{"name":"保谷町給水所","province":"東京都","city":"西東京市","address":"東京都西東京市保谷町1-5-24","lat":35.7354513,"lon":139.554782},{"name":"西東京栄町配水所","province":"東京都","city":"西東京市","address":"東京都西東京市栄町2-7-6","lat":35.7516771,"lon":139.552224},{"name":"＊?西東京市芝久保公民館","province":"東京都","city":"西東京市","address":"西東京市芝久保町5-4-48","lat":35.73269,"lon":139.528134},{"name":"＊?西東京市ひばりが丘公民館","province":"東京都","city":"西東京市","address":"西東京市ひばりが丘2-3-4","lat":35.747361,"lon":139.540589},{"name":"＊?西東京市保谷駅前公民館","province":"東京都","city":"西東京市","address":"西東京市東町3-14-30ステア5階","lat":35.748152,"lon":139.567268},{"name":"＊?西東京市谷戸公民館","province":"東京都","city":"西東京市","address":"西東京市谷戸町1-17-2","lat":35.741248,"lon":139.54395},{"name":"＊?西東京市田無公民館","province":"東京都","city":"西東京市","address":"西東京市南町5-6-11","lat":35.726018,"lon":139.537789},{"name":"＊?西東京市柳沢公民館","province":"東京都","city":"西東京市","address":"西東京市柳沢1-15-1","lat":35.728384,"lon":139.553957},{"name":"芝久保給水所","province":"東京都","city":"西東京市","address":"東京都西東京市芝久保町5-9-1","lat":35.7337671,"lon":139.524477},{"name":"保谷町給水所","province":"東京都","city":"西東京市","address":"東京都西東京市保谷町1-5-24","lat":35.7354513,"lon":139.554782},{"name":"西東京栄町配水所","province":"東京都","city":"西東京市","address":"東京都西東京市栄町2-7-6","lat":35.7516771,"lon":139.552224},{"name":"＊?西東京市芝久保公民館","province":"東京都","city":"西東京市","address":"西東京市芝久保町5-4-48","lat":35.73269,"lon":139.528134},{"name":"＊?西東京市ひばりが丘公民館","province":"東京都","city":"西東京市","address":"西東京市ひばりが丘2-3-4","lat":35.747361,"lon":139.540589},{"name":"＊?西東京市保谷駅前公民館","province":"東京都","city":"西東京市","address":"西東京市東町3-14-30ステア5階","lat":35.748152,"lon":139.567268},{"name":"＊?西東京市谷戸公民館","province":"東京都","city":"西東京市","address":"西東京市谷戸町1-17-2","lat":35.741248,"lon":139.54395},{"name":"＊?西東京市田無公民館","province":"東京都","city":"西東京市","address":"西東京市南町5-6-11","lat":35.726018,"lon":139.537789},{"name":"＊?西東京市柳沢公民館","province":"東京都","city":"西東京市","address":"西東京市柳沢1-15-1","lat":35.728384,"lon":139.553957},{"name":"芝久保給水所","province":"東京都","city":"西東京市","address":"東京都西東京市芝久保町5-9-1","lat":35.7337671,"lon":139.524477},{"name":"保谷町給水所","province":"東京都","city":"西東京市","address":"東京都西東京市保谷町1-5-24","lat":35.7354513,"lon":139.554782},{"name":"西東京栄町配水所","province":"東京都","city":"西東京市","address":"東京都西東京市栄町2-7-6","lat":35.7516771,"lon":139.552224},{"name":"＊?西東京市芝久保公民館","province":"東京都","city":"西東京市","address":"西東京市芝久保町5-4-48","lat":35.73269,"lon":139.528134},{"name":"＊?西東京市ひばりが丘公民館","province":"東京都","city":"西東京市","address":"西東京市ひばりが丘2-3-4","lat":35.747361,"lon":139.540589},{"name":"＊?西東京市保谷駅前公民館","province":"東京都","city":"西東京市","address":"西東京市東町3-14-30ステア5階","lat":35.748152,"lon":139.567268},{"name":"＊?西東京市谷戸公民館","province":"東京都","city":"西東京市","address":"西東京市谷戸町1-17-2","lat":35.741248,"lon":139.54395},{"name":"＊?西東京市田無公民館","province":"東京都","city":"西東京市","address":"西東京市南町5-6-11","lat":35.726018,"lon":139.537789},{"name":"＊?西東京市柳沢公民館","province":"東京都","city":"西東京市","address":"西東京市柳沢1-15-1","lat":35.728384,"lon":139.553957},{"name":"芝久保給水所","province":"東京都","city":"西東京市","address":"東京都西東京市芝久保町5-9-1","lat":35.7337671,"lon":139.524477},{"name":"保谷町給水所","province":"東京都","city":"西東京市","address":"東京都西東京市保谷町1-5-24","lat":35.7354513,"lon":139.554782},{"name":"西東京栄町配水所","province":"東京都","city":"西東京市","address":"東京都西東京市栄町2-7-6","lat":35.7516771,"lon":139.552224},{"name":"＊?西東京市芝久保公民館","province":"東京都","city":"西東京市","address":"西東京市芝久保町5-4-48","lat":35.73269,"lon":139.528134},{"name":"＊?西東京市ひばりが丘公民館","province":"東京都","city":"西東京市","address":"西東京市ひばりが丘2-3-4","lat":35.747361,"lon":139.540589},{"name":"＊?西東京市保谷駅前公民館","province":"東京都","city":"西東京市","address":"西東京市東町3-14-30ステア5階","lat":35.748152,"lon":139.567268},{"name":"＊?西東京市谷戸公民館","province":"東京都","city":"西東京市","address":"西東京市谷戸町1-17-2","lat":35.741248,"lon":139.54395},{"name":"＊?西東京市田無公民館","province":"東京都","city":"西東京市","address":"西東京市南町5-6-11","lat":35.726018,"lon":139.537789},{"name":"＊?西東京市柳沢公民館","province":"東京都","city":"西東京市","address":"西東京市柳沢1-15-1","lat":35.728384,"lon":139.553957},{"name":"芝久保給水所","province":"東京都","city":"西東京市","address":"東京都西東京市芝久保町5-9-1","lat":35.7337671,"lon":139.524477},{"name":"保谷町給水所","province":"東京都","city":"西東京市","address":"東京都西東京市保谷町1-5-24","lat":35.7354513,"lon":139.554782},{"name":"西東京栄町配水所","province":"東京都","city":"西東京市","address":"東京都西東京市栄町2-7-6","lat":35.7516771,"lon":139.552224},{"name":"＊?西東京市芝久保公民館","province":"東京都","city":"西東京市","address":"西東京市芝久保町5-4-48","lat":35.73269,"lon":139.528134},{"name":"＊?西東京市ひばりが丘公民館","province":"東京都","city":"西東京市","address":"西東京市ひばりが丘2-3-4","lat":35.747361,"lon":139.540589},{"name":"＊?西東京市保谷駅前公民館","province":"東京都","city":"西東京市","address":"西東京市東町3-14-30ステア5階","lat":35.748152,"lon":139.567268},{"name":"＊?西東京市谷戸公民館","province":"東京都","city":"西東京市","address":"西東京市谷戸町1-17-2","lat":35.741248,"lon":139.54395},{"name":"＊?西東京市田無公民館","province":"東京都","city":"西東京市","address":"西東京市南町5-6-11","lat":35.726018,"lon":139.537789},{"name":"＊?西東京市柳沢公民館","province":"東京都","city":"西東京市","address":"西東京市柳沢1-15-1","lat":35.728384,"lon":139.553957},{"name":"芝久保給水所","province":"東京都","city":"西東京市","address":"東京都西東京市芝久保町5-9-1","lat":35.7337671,"lon":139.524477},{"name":"保谷町給水所","province":"東京都","city":"西東京市","address":"東京都西東京市保谷町1-5-24","lat":35.7354513,"lon":139.554782},{"name":"西東京栄町配水所","province":"東京都","city":"西東京市","address":"東京都西東京市栄町2-7-6","lat":35.7516771,"lon":139.552224},{"name":"＊?西東京市芝久保公民館","province":"東京都","city":"西東京市","address":"西東京市芝久保町5-4-48","lat":35.73269,"lon":139.528134},{"name":"＊?西東京市ひばりが丘公民館","province":"東京都","city":"西東京市","address":"西東京市ひばりが丘2-3-4","lat":35.747361,"lon":139.540589},{"name":"＊?西東京市保谷駅前公民館","province":"東京都","city":"西東京市","address":"西東京市東町3-14-30ステア5階","lat":35.748152,"lon":139.567268},{"name":"＊?西東京市谷戸公民館","province":"東京都","city":"西東京市","address":"西東京市谷戸町1-17-2","lat":35.741248,"lon":139.54395},{"name":"＊?西東京市田無公民館","province":"東京都","city":"西東京市","address":"西東京市南町5-6-11","lat":35.726018,"lon":139.537789},{"name":"＊?西東京市柳沢公民館","province":"東京都","city":"西東京市","address":"西東京市柳沢1-15-1","lat":35.728384,"lon":139.553957},{"name":"芝久保給水所","province":"東京都","city":"西東京市","address":"東京都西東京市芝久保町5-9-1","lat":35.7337671,"lon":139.524477},{"name":"保谷町給水所","province":"東京都","city":"西東京市","address":"東京都西東京市保谷町1-5-24","lat":35.7354513,"lon":139.554782},{"name":"西東京栄町配水所","province":"東京都","city":"西東京市","address":"東京都西東京市栄町2-7-6","lat":35.7516771,"lon":139.552224},{"name":"＊?西東京市芝久保公民館","province":"東京都","city":"西東京市","address":"西東京市芝久保町5-4-48","lat":35.73269,"lon":139.528134},{"name":"＊?西東京市ひばりが丘公民館","province":"東京都","city":"西東京市","address":"西東京市ひばりが丘2-3-4","lat":35.747361,"lon":139.540589},{"name":"＊?西東京市保谷駅前公民館","province":"東京都","city":"西東京市","address":"西東京市東町3-14-30ステア5階","lat":35.748152,"lon":139.567268},{"name":"＊?西東京市谷戸公民館","province":"東京都","city":"西東京市","address":"西東京市谷戸町1-17-2","lat":35.741248,"lon":139.54395},{"name":"＊?西東京市田無公民館","province":"東京都","city":"西東京市","address":"西東京市南町5-6-11","lat":35.726018,"lon":139.537789},{"name":"＊?西東京市柳沢公民館","province":"東京都","city":"西東京市","address":"西東京市柳沢1-15-1","lat":35.728384,"lon":139.553957},{"name":"芝久保給水所","province":"東京都","city":"西東京市","address":"東京都西東京市芝久保町5-9-1","lat":35.7337671,"lon":139.524477},{"name":"保谷町給水所","province":"東京都","city":"西東京市","address":"東京都西東京市保谷町1-5-24","lat":35.7354513,"lon":139.554782},{"name":"西東京栄町配水所","province":"東京都","city":"西東京市","address":"東京都西東京市栄町2-7-6","lat":35.7516771,"lon":139.552224},{"name":"＊?西東京市芝久保公民館","province":"東京都","city":"西東京市","address":"西東京市芝久保町5-4-48","lat":35.73269,"lon":139.528134},{"name":"＊?西東京市ひばりが丘公民館","province":"東京都","city":"西東京市","address":"西東京市ひばりが丘2-3-4","lat":35.747361,"lon":139.540589},{"name":"＊?西東京市保谷駅前公民館","province":"東京都","city":"西東京市","address":"西東京市東町3-14-30ステア5階","lat":35.748152,"lon":139.567268},{"name":"＊?西東京市谷戸公民館","province":"東京都","city":"西東京市","address":"西東京市谷戸町1-17-2","lat":35.741248,"lon":139.54395},{"name":"＊?西東京市田無公民館","province":"東京都","city":"西東京市","address":"西東京市南町5-6-11","lat":35.726018,"lon":139.537789},{"name":"＊?西東京市柳沢公民館","province":"東京都","city":"西東京市","address":"西東京市柳沢1-15-1","lat":35.728384,"lon":139.553957},{"name":"芝久保給水所","province":"東京都","city":"西東京市","address":"東京都西東京市芝久保町5-9-1","lat":35.7337671,"lon":139.524477},{"name":"保谷町給水所","province":"東京都","city":"西東京市","address":"東京都西東京市保谷町1-5-24","lat":35.7354513,"lon":139.554782},{"name":"西東京栄町配水所","province":"東京都","city":"西東京市","address":"東京都西東京市栄町2-7-6","lat":35.7516771,"lon":139.552224},{"name":"＊?西東京市芝久保公民館","province":"東京都","city":"西東京市","address":"西東京市芝久保町5-4-48","lat":35.73269,"lon":139.528134},{"name":"＊?西東京市ひばりが丘公民館","province":"東京都","city":"西東京市","address":"西東京市ひばりが丘2-3-4","lat":35.747361,"lon":139.540589},{"name":"＊?西東京市保谷駅前公民館","province":"東京都","city":"西東京市","address":"西東京市東町3-14-30ステア5階","lat":35.748152,"lon":139.567268},{"name":"＊?西東京市谷戸公民館","province":"東京都","city":"西東京市","address":"西東京市谷戸町1-17-2","lat":35.741248,"lon":139.54395},{"name":"＊?西東京市田無公民館","province":"東京都","city":"西東京市","address":"西東京市南町5-6-11","lat":35.726018,"lon":139.537789},{"name":"＊?西東京市柳沢公民館","province":"東京都","city":"西東京市","address":"西東京市柳沢1-15-1","lat":35.728384,"lon":139.553957},{"name":"芝久保給水所","province":"東京都","city":"西東京市","address":"東京都西東京市芝久保町5-9-1","lat":35.7337671,"lon":139.524477},{"name":"保谷町給水所","province":"東京都","city":"西東京市","address":"東京都西東京市保谷町1-5-24","lat":35.7354513,"lon":139.554782},{"name":"西東京栄町配水所","province":"東京都","city":"西東京市","address":"東京都西東京市栄町2-7-6","lat":35.7516771,"lon":139.552224},{"name":"＊?西東京市芝久保公民館","province":"東京都","city":"西東京市","address":"西東京市芝久保町5-4-48","lat":35.73269,"lon":139.528134},{"name":"＊?西東京市ひばりが丘公民館","province":"東京都","city":"西東京市","address":"西東京市ひばりが丘2-3-4","lat":35.747361,"lon":139.540589},{"name":"＊?西東京市保谷駅前公民館","province":"東京都","city":"西東京市","address":"西東京市東町3-14-30ステア5階","lat":35.748152,"lon":139.567268},{"name":"＊?西東京市谷戸公民館","province":"東京都","city":"西東京市","address":"西東京市谷戸町1-17-2","lat":35.741248,"lon":139.54395},{"name":"＊?西東京市田無公民館","province":"東京都","city":"西東京市","address":"西東京市南町5-6-11","lat":35.726018,"lon":139.537789},{"name":"＊?西東京市柳沢公民館","province":"東京都","city":"西東京市","address":"西東京市柳沢1-15-1","lat":35.728384,"lon":139.553957},{"name":"芝久保給水所","province":"東京都","city":"西東京市","address":"東京都西東京市芝久保町5-9-1","lat":35.7337671,"lon":139.524477},{"name":"保谷町給水所","province":"東京都","city":"西東京市","address":"東京都西東京市保谷町1-5-24","lat":35.7354513,"lon":139.554782},{"name":"西東京栄町配水所","province":"東京都","city":"西東京市","address":"東京都西東京市栄町2-7-6","lat":35.7516771,"lon":139.552224},{"name":"＊?西東京市芝久保公民館","province":"東京都","city":"西東京市","address":"西東京市芝久保町5-4-48","lat":35.73269,"lon":139.528134},{"name":"＊?西東京市ひばりが丘公民館","province":"東京都","city":"西東京市","address":"西東京市ひばりが丘2-3-4","lat":35.747361,"lon":139.540589},{"name":"＊?西東京市保谷駅前公民館","province":"東京都","city":"西東京市","address":"西東京市東町3-14-30ステア5階","lat":35.748152,"lon":139.567268},{"name":"＊?西東京市谷戸公民館","province":"東京都","city":"西東京市","address":"西東京市谷戸町1-17-2","lat":35.741248,"lon":139.54395},{"name":"＊?西東京市田無公民館","province":"東京都","city":"西東京市","address":"西東京市南町5-6-11","lat":35.726018,"lon":139.537789},{"name":"＊?西東京市柳沢公民館","province":"東京都","city":"西東京市","address":"西東京市柳沢1-15-1","lat":35.728384,"lon":139.553957},{"name":"芝久保給水所","province":"東京都","city":"西東京市","address":"東京都西東京市芝久保町5-9-1","lat":35.7337671,"lon":139.524477},{"name":"保谷町給水所","province":"東京都","city":"西東京市","address":"東京都西東京市保谷町1-5-24","lat":35.7354513,"lon":139.554782},{"name":"西東京栄町配水所","province":"東京都","city":"西東京市","address":"東京都西東京市栄町2-7-6","lat":35.7516771,"lon":139.552224},{"name":"＊?西東京市芝久保公民館","province":"東京都","city":"西東京市","address":"西東京市芝久保町5-4-48","lat":35.73269,"lon":139.528134},{"name":"＊?西東京市ひばりが丘公民館","province":"東京都","city":"西東京市","address":"西東京市ひばりが丘2-3-4","lat":35.747361,"lon":139.540589},{"name":"＊?西東京市保谷駅前公民館","province":"東京都","city":"西東京市","address":"西東京市東町3-14-30ステア5階","lat":35.748152,"lon":139.567268},{"name":"＊?西東京市谷戸公民館","province":"東京都","city":"西東京市","address":"西東京市谷戸町1-17-2","lat":35.741248,"lon":139.54395},{"name":"＊?西東京市田無公民館","province":"東京都","city":"西東京市","address":"西東京市南町5-6-11","lat":35.726018,"lon":139.537789},{"name":"＊?西東京市柳沢公民館","province":"東京都","city":"西東京市","address":"西東京市柳沢1-15-1","lat":35.728384,"lon":139.553957},{"name":"芝久保給水所","province":"東京都","city":"西東京市","address":"東京都西東京市芝久保町5-9-1","lat":35.7337671,"lon":139.524477},{"name":"保谷町給水所","province":"東京都","city":"西東京市","address":"東京都西東京市保谷町1-5-24","lat":35.7354513,"lon":139.554782},{"name":"西東京栄町配水所","province":"東京都","city":"西東京市","address":"東京都西東京市栄町2-7-6","lat":35.7516771,"lon":139.552224},{"name":"＊?西東京市芝久保公民館","province":"東京都","city":"西東京市","address":"西東京市芝久保町5-4-48","lat":35.73269,"lon":139.528134},{"name":"＊?西東京市ひばりが丘公民館","province":"東京都","city":"西東京市","address":"西東京市ひばりが丘2-3-4","lat":35.747361,"lon":139.540589},{"name":"＊?西東京市保谷駅前公民館","province":"東京都","city":"西東京市","address":"西東京市東町3-14-30ステア5階","lat":35.748152,"lon":139.567268},{"name":"＊?西東京市谷戸公民館","province":"東京都","city":"西東京市","address":"西東京市谷戸町1-17-2","lat":35.741248,"lon":139.54395},{"name":"＊?西東京市田無公民館","province":"東京都","city":"西東京市","address":"西東京市南町5-6-11","lat":35.726018,"lon":139.537789},{"name":"＊?西東京市柳沢公民館","province":"東京都","city":"西東京市","address":"西東京市柳沢1-15-1","lat":35.728384,"lon":139.553957},{"name":"芝久保給水所","province":"東京都","city":"西東京市","address":"東京都西東京市芝久保町5-9-1","lat":35.7337671,"lon":139.524477},{"name":"保谷町給水所","province":"東京都","city":"西東京市","address":"東京都西東京市保谷町1-5-24","lat":35.7354513,"lon":139.554782},{"name":"西東京栄町配水所","province":"東京都","city":"西東京市","address":"東京都西東京市栄町2-7-6","lat":35.7516771,"lon":139.552224},{"name":"＊?西東京市芝久保公民館","province":"東京都","city":"西東京市","address":"西東京市芝久保町5-4-48","lat":35.73269,"lon":139.528134},{"name":"＊?西東京市ひばりが丘公民館","province":"東京都","city":"西東京市","address":"西東京市ひばりが丘2-3-4","lat":35.747361,"lon":139.540589},{"name":"＊?西東京市保谷駅前公民館","province":"東京都","city":"西東京市","address":"西東京市東町3-14-30ステア5階","lat":35.748152,"lon":139.567268},{"name":"＊?西東京市谷戸公民館","province":"東京都","city":"西東京市","address":"西東京市谷戸町1-17-2","lat":35.741248,"lon":139.54395},{"name":"＊?西東京市田無公民館","province":"東京都","city":"西東京市","address":"西東京市南町5-6-11","lat":35.726018,"lon":139.537789},{"name":"＊?西東京市柳沢公民館","province":"東京都","city":"西東京市","address":"西東京市柳沢1-15-1","lat":35.728384,"lon":139.553957}]}