{"keyword":"戸数","data":[{"name":"田無公民館","province":"東京都","city":"西東京市","address":"東京都西東京市南町5-6-11田無公民館","lat":35.726013,"lon":139.537715},{"name":"中央図書館","province":"東京都","city":"西東京市","address":"東京都西東京市南町5-6-11中央図書館","lat":35.726013,"lon":139.537715},{"name":"保谷駅前図書館","province":"東京都","city":"西東京市","address":"東京都西東京市東町3-14-30保谷駅前図書館","lat":35.747939,"lon":139.567692},{"name":"柳沢図書館","province":"東京都","city":"西東京市","address":"東京都西東京市柳沢1-15-1柳沢図書館","lat":35.728338,"lon":139.553949},{"name":"ひばりヶ丘図書館","province":"東京都","city":"西東京市","address":"東京都西東京市ひばりが丘1-2-1ひばりヶ丘図書館","lat":35.751952,"lon":139.54371},{"name":"コール田無","province":"東京都","city":"西東京市","address":"東京都西東京市田無町3-7-2コール田無","lat":35.72916,"lon":139.543604},{"name":"保谷こもれびホール","province":"東京都","city":"西東京市","address":"東京都西東京市中町1-5-1保谷こもれびホール","lat":35.741535,"lon":139.558951},{"name":"田無駅（北口）まちテナ西東京","province":"東京都","city":"西東京市","address":"東京都西東京市田無町4-1-2田無駅まちテナ西東京","lat":35.727526,"lon":139.539369},{"name":"ASTA VISION前","province":"東京都","city":"西東京市","address":"東京都西東京市田無町2-1-1ASTAVISION前","lat":35.727939,"lon":139.540225},{"name":"西東京市社会福祉協議会","province":"東京都","city":"西東京市","address":"西東京市中町1-6-8保谷東分庁舎1階","lat":35.741186,"lon":139.559904},{"name":"西東京市","province":"東京都","city":"西東京市","address":"西東京市南町5-6-13","lat":35.7254989,"lon":139.5381592},{"name":"有限会社　藤式典","province":"東京都","city":"西東京市","address":"東京都西東京市ひばりが丘北4丁目1-6","lat":35.75254294,"lon":139.54391288},{"name":"田中葬祭　株式会社","province":"東京都","city":"西東京市","address":"東京都西東京市田無町4丁目18-9","lat":35.72988431,"lon":139.53613666},{"name":"有限会社　緑葬儀社","province":"東京都","city":"西東京市","address":"東京都西東京市田無町5丁目7-51","lat":35.73038153,"lon":139.53829757},{"name":"株式会社　あさひセレモニー","province":"東京都","city":"西東京市","address":"東京都西東京市住吉町6丁目1-18","lat":35.74367749,"lon":139.55134593},{"name":"株式会社　ドリーミー","province":"東京都","city":"西東京市","address":"東京都西東京市芝久保町5丁目10-12","lat":35.73285309,"lon":139.52324035},{"name":"有限会社　蓮華","province":"東京都","city":"西東京市","address":"東京都西東京市芝久保町3丁目15-29","lat":35.73005896,"lon":139.52239058},{"name":"株式会社　コムウェル","province":"東京都","city":"西東京市","address":"東京都西東京市柳沢6丁目10-7","lat":35.72708495,"lon":139.55010785},{"name":"株式会社　東京都民葬祭（とみん葬祭）","province":"東京都","city":"西東京市","address":"東京都西東京市北原町3丁目5-19","lat":35.7359532,"lon":139.54290248},{"name":"西東京市社会福祉協議会","province":"東京都","city":"西東京市","address":"西東京市田無町5-5-12田無総合福祉センター","lat":35.73098,"lon":139.53619},{"name":"栄町地域包括支援センター","province":"東京都","city":"西東京市","address":"西東京市栄町3-6-2保谷苑内","lat":35.754917,"lon":139.55368},{"name":"富士町地域包括支援センター","province":"東京都","city":"西東京市","address":"西東京市富士町1-7-69高齢者センターきらら内","lat":35.734463,"lon":139.559723},{"name":"泉町地域包括支援センター","province":"東京都","city":"西東京市","address":"西東京市泉町3-15-28いずみ内","lat":35.739422,"lon":139.554642},{"name":"田無町地域包括支援センター","province":"東京都","city":"西東京市","address":"西東京市田無町5-5-12田無総合福祉センター内","lat":35.731819,"lon":139.535995},{"name":"緑町地域包括支援センター","province":"東京都","city":"西東京市","address":"西東京市緑町3-6-1田無病院内","lat":35.742039,"lon":139.540741},{"name":"西原町地域包括支援センター","province":"東京都","city":"西東京市","address":"西東京市西原町4-5-6西原総合教育施設内","lat":35.735981,"lon":139.529129},{"name":"向台町地域包括支援センター","province":"東京都","city":"西東京市","address":"西東京市向台町2-16-22フローラ田無内","lat":35.720074,"lon":139.526215},{"name":"新町地域包括支援センター","province":"東京都","city":"西東京市","address":"西東京市新町1-11-25緑寿園内","lat":35.71719,"lon":139.543716},{"name":"西東京市社会福祉協議会","province":"東京都","city":"西東京市","address":"西東京市田無町5-5-12田無総合福祉センター1階","lat":35.731819,"lon":139.535995},{"name":"佐々総合病院","province":"東京都","city":"西東京市","address":"東京都西東京市田無町4丁目24-15","lat":35.72967884,"lon":139.53871701},{"name":"芝久保浄水所","province":"東京都","city":"西東京市","address":"東京都西東京市芝久保町5丁目9-1","lat":35.7337808,"lon":139.52453742},{"name":"保谷町浄水所","province":"東京都","city":"西東京市","address":"東京都西東京市保谷町1丁目5-24","lat":35.73545076,"lon":139.55478209},{"name":"西東京栄町浄水所","province":"東京都","city":"西東京市","address":"東京都西東京市栄町2丁目7-6","lat":35.75167656,"lon":139.55222337},{"name":"向台運動場","province":"東京都","city":"西東京市","address":"東京都西東京市向台町5丁目4-44","lat":35.72149068,"lon":139.52844608},{"name":"西東京市立文理台公園","province":"東京都","city":"西東京市","address":"東京都西東京市東町1丁目4","lat":35.74431377,"lon":139.56142287},{"name":"西東京市選挙管理委員会","province":"東京都","city":"西東京市","address":"西東京市南町5-6-13西東京市役所田無庁舎","lat":35.725681,"lon":139.53837},{"name":"田無高等学校","province":"東京都","city":"西東京市","address":"東京都西東京市向台町5丁目4-34","lat":35.72048804,"lon":139.52920996},{"name":"保谷高等学校","province":"東京都","city":"西東京市","address":"東京都西東京市住吉町5丁目8-23","lat":35.74579123,"lon":139.55540942},{"name":"田無工業高等学校","province":"東京都","city":"西東京市","address":"東京都西東京市向台町1丁目9-1","lat":35.72006073,"lon":139.54860553},{"name":"田無公民館","province":"東京都","city":"西東京市","address":"東京都西東京市南町5-6-11田無公民館","lat":35.726013,"lon":139.537715},{"name":"中央図書館","province":"東京都","city":"西東京市","address":"東京都西東京市南町5-6-11中央図書館","lat":35.726013,"lon":139.537715},{"name":"保谷駅前図書館","province":"東京都","city":"西東京市","address":"東京都西東京市東町3-14-30保谷駅前図書館","lat":35.747939,"lon":139.567692},{"name":"柳沢図書館","province":"東京都","city":"西東京市","address":"東京都西東京市柳沢1-15-1柳沢図書館","lat":35.728338,"lon":139.553949},{"name":"ひばりヶ丘図書館","province":"東京都","city":"西東京市","address":"東京都西東京市ひばりが丘1-2-1ひばりヶ丘図書館","lat":35.751952,"lon":139.54371},{"name":"コール田無","province":"東京都","city":"西東京市","address":"東京都西東京市田無町3-7-2コール田無","lat":35.72916,"lon":139.543604},{"name":"保谷こもれびホール","province":"東京都","city":"西東京市","address":"東京都西東京市中町1-5-1保谷こもれびホール","lat":35.741535,"lon":139.558951},{"name":"田無駅（北口）まちテナ西東京","province":"東京都","city":"西東京市","address":"東京都西東京市田無町4-1-2田無駅まちテナ西東京","lat":35.727526,"lon":139.539369},{"name":"ASTA VISION前","province":"東京都","city":"西東京市","address":"東京都西東京市田無町2-1-1ASTAVISION前","lat":35.727939,"lon":139.540225},{"name":"西東京市社会福祉協議会","province":"東京都","city":"西東京市","address":"西東京市中町1-6-8保谷東分庁舎1階","lat":35.741186,"lon":139.559904},{"name":"西東京市社会福祉協議会","province":"東京都","city":"西東京市","address":"西東京市田無町5-5-12田無総合福祉センター","lat":35.73098,"lon":139.53619},{"name":"栄町地域包括支援センター","province":"東京都","city":"西東京市","address":"西東京市栄町3-6-2保谷苑内","lat":35.754917,"lon":139.55368},{"name":"富士町地域包括支援センター","province":"東京都","city":"西東京市","address":"西東京市富士町1-7-69高齢者センターきらら内","lat":35.734463,"lon":139.559723},{"name":"泉町地域包括支援センター","province":"東京都","city":"西東京市","address":"西東京市泉町3-15-28いずみ内","lat":35.739422,"lon":139.554642},{"name":"田無町地域包括支援センター","province":"東京都","city":"西東京市","address":"西東京市田無町5-5-12田無総合福祉センター内","lat":35.731819,"lon":139.535995},{"name":"緑町地域包括支援センター","province":"東京都","city":"西東京市","address":"西東京市緑町3-6-1田無病院内","lat":35.742039,"lon":139.540741},{"name":"西原町地域包括支援センター","province":"東京都","city":"西東京市","address":"西東京市西原町4-5-6西原総合教育施設内","lat":35.735981,"lon":139.529129},{"name":"向台町地域包括支援センター","province":"東京都","city":"西東京市","address":"西東京市向台町2-16-22フローラ田無内","lat":35.720074,"lon":139.526215},{"name":"新町地域包括支援センター","province":"東京都","city":"西東京市","address":"西東京市新町1-11-25緑寿園内","lat":35.71719,"lon":139.543716},{"name":"西東京市社会福祉協議会","province":"東京都","city":"西東京市","address":"西東京市田無町5-5-12田無総合福祉センター1階","lat":35.731819,"lon":139.535995},{"name":"佐々総合病院","province":"東京都","city":"西東京市","address":"東京都西東京市田無町4丁目24-15","lat":35.72967884,"lon":139.53871701},{"name":"芝久保浄水所","province":"東京都","city":"西東京市","address":"東京都西東京市芝久保町5丁目9-1","lat":35.7337808,"lon":139.52453742},{"name":"保谷町浄水所","province":"東京都","city":"西東京市","address":"東京都西東京市保谷町1丁目5-24","lat":35.73545076,"lon":139.55478209},{"name":"西東京栄町浄水所","province":"東京都","city":"西東京市","address":"東京都西東京市栄町2丁目7-6","lat":35.75167656,"lon":139.55222337},{"name":"向台運動場","province":"東京都","city":"西東京市","address":"東京都西東京市向台町5丁目4-44","lat":35.72149068,"lon":139.52844608},{"name":"西東京市立文理台公園","province":"東京都","city":"西東京市","address":"東京都西東京市東町1丁目4","lat":35.74431377,"lon":139.56142287},{"name":"田無高等学校","province":"東京都","city":"西東京市","address":"東京都西東京市向台町5丁目4-34","lat":35.72048804,"lon":139.52920996},{"name":"保谷高等学校","province":"東京都","city":"西東京市","address":"東京都西東京市住吉町5丁目8-23","lat":35.74579123,"lon":139.55540942},{"name":"田無工業高等学校","province":"東京都","city":"西東京市","address":"東京都西東京市向台町1丁目9-1","lat":35.72006073,"lon":139.54860553},{"name":"田無公民館","province":"東京都","city":"西東京市","address":"東京都西東京市南町5-6-11田無公民館","lat":35.726013,"lon":139.537715},{"name":"中央図書館","province":"東京都","city":"西東京市","address":"東京都西東京市南町5-6-11中央図書館","lat":35.726013,"lon":139.537715},{"name":"保谷駅前図書館","province":"東京都","city":"西東京市","address":"東京都西東京市東町3-14-30保谷駅前図書館","lat":35.747939,"lon":139.567692},{"name":"柳沢図書館","province":"東京都","city":"西東京市","address":"東京都西東京市柳沢1-15-1柳沢図書館","lat":35.728338,"lon":139.553949},{"name":"ひばりヶ丘図書館","province":"東京都","city":"西東京市","address":"東京都西東京市ひばりが丘1-2-1ひばりヶ丘図書館","lat":35.751952,"lon":139.54371},{"name":"コール田無","province":"東京都","city":"西東京市","address":"東京都西東京市田無町3-7-2コール田無","lat":35.72916,"lon":139.543604},{"name":"保谷こもれびホール","province":"東京都","city":"西東京市","address":"東京都西東京市中町1-5-1保谷こもれびホール","lat":35.741535,"lon":139.558951},{"name":"田無駅（北口）まちテナ西東京","province":"東京都","city":"西東京市","address":"東京都西東京市田無町4-1-2田無駅まちテナ西東京","lat":35.727526,"lon":139.539369},{"name":"ASTA VISION前","province":"東京都","city":"西東京市","address":"東京都西東京市田無町2-1-1ASTAVISION前","lat":35.727939,"lon":139.540225},{"name":"栄町地域包括支援センター","province":"東京都","city":"西東京市","address":"西東京市栄町3-6-2保谷苑内","lat":35.754917,"lon":139.55368},{"name":"富士町地域包括支援センター","province":"東京都","city":"西東京市","address":"西東京市富士町1-7-69高齢者センターきらら内","lat":35.734463,"lon":139.559723},{"name":"泉町地域包括支援センター","province":"東京都","city":"西東京市","address":"西東京市泉町3-15-28いずみ内","lat":35.739422,"lon":139.554642},{"name":"田無町地域包括支援センター","province":"東京都","city":"西東京市","address":"西東京市田無町5-5-12田無総合福祉センター内","lat":35.731819,"lon":139.535995},{"name":"緑町地域包括支援センター","province":"東京都","city":"西東京市","address":"西東京市緑町3-6-1田無病院内","lat":35.742039,"lon":139.540741},{"name":"西原町地域包括支援センター","province":"東京都","city":"西東京市","address":"西東京市西原町4-5-6西原総合教育施設内","lat":35.735981,"lon":139.529129},{"name":"向台町地域包括支援センター","province":"東京都","city":"西東京市","address":"西東京市向台町2-16-22フローラ田無内","lat":35.720074,"lon":139.526215},{"name":"新町地域包括支援センター","province":"東京都","city":"西東京市","address":"西東京市新町1-11-25緑寿園内","lat":35.71719,"lon":139.543716},{"name":"佐々総合病院","province":"東京都","city":"西東京市","address":"東京都西東京市田無町4丁目24-15","lat":35.72967884,"lon":139.53871701},{"name":"田無高等学校","province":"東京都","city":"西東京市","address":"東京都西東京市向台町5丁目4-34","lat":35.72048804,"lon":139.52920996},{"name":"保谷高等学校","province":"東京都","city":"西東京市","address":"東京都西東京市住吉町5丁目8-23","lat":35.74579123,"lon":139.55540942},{"name":"田無工業高等学校","province":"東京都","city":"西東京市","address":"東京都西東京市向台町1丁目9-1","lat":35.72006073,"lon":139.54860553},{"name":"田無公民館","province":"東京都","city":"西東京市","address":"東京都西東京市南町5-6-11田無公民館","lat":35.726013,"lon":139.537715},{"name":"中央図書館","province":"東京都","city":"西東京市","address":"東京都西東京市南町5-6-11中央図書館","lat":35.726013,"lon":139.537715},{"name":"保谷駅前図書館","province":"東京都","city":"西東京市","address":"東京都西東京市東町3-14-30保谷駅前図書館","lat":35.747939,"lon":139.567692},{"name":"柳沢図書館","province":"東京都","city":"西東京市","address":"東京都西東京市柳沢1-15-1柳沢図書館","lat":35.728338,"lon":139.553949},{"name":"ひばりヶ丘図書館","province":"東京都","city":"西東京市","address":"東京都西東京市ひばりが丘1-2-1ひばりヶ丘図書館","lat":35.751952,"lon":139.54371},{"name":"コール田無","province":"東京都","city":"西東京市","address":"東京都西東京市田無町3-7-2コール田無","lat":35.72916,"lon":139.543604},{"name":"保谷こもれびホール","province":"東京都","city":"西東京市","address":"東京都西東京市中町1-5-1保谷こもれびホール","lat":35.741535,"lon":139.558951},{"name":"田無駅（北口）まちテナ西東京","province":"東京都","city":"西東京市","address":"東京都西東京市田無町4-1-2田無駅まちテナ西東京","lat":35.727526,"lon":139.539369},{"name":"ASTA VISION前","province":"東京都","city":"西東京市","address":"東京都西東京市田無町2-1-1ASTAVISION前","lat":35.727939,"lon":139.540225},{"name":"栄町地域包括支援センター","province":"東京都","city":"西東京市","address":"西東京市栄町3-6-2保谷苑内","lat":35.754917,"lon":139.55368},{"name":"富士町地域包括支援センター","province":"東京都","city":"西東京市","address":"西東京市富士町1-7-69高齢者センターきらら内","lat":35.734463,"lon":139.559723},{"name":"泉町地域包括支援センター","province":"東京都","city":"西東京市","address":"西東京市泉町3-15-28いずみ内","lat":35.739422,"lon":139.554642},{"name":"田無町地域包括支援センター","province":"東京都","city":"西東京市","address":"西東京市田無町5-5-12田無総合福祉センター内","lat":35.731819,"lon":139.535995},{"name":"緑町地域包括支援センター","province":"東京都","city":"西東京市","address":"西東京市緑町3-6-1田無病院内","lat":35.742039,"lon":139.540741},{"name":"西原町地域包括支援センター","province":"東京都","city":"西東京市","address":"西東京市西原町4-5-6西原総合教育施設内","lat":35.735981,"lon":139.529129},{"name":"向台町地域包括支援センター","province":"東京都","city":"西東京市","address":"西東京市向台町2-16-22フローラ田無内","lat":35.720074,"lon":139.526215},{"name":"新町地域包括支援センター","province":"東京都","city":"西東京市","address":"西東京市新町1-11-25緑寿園内","lat":35.71719,"lon":139.543716},{"name":"佐々総合病院","province":"東京都","city":"西東京市","address":"東京都西東京市田無町4丁目24-15","lat":35.72967884,"lon":139.53871701},{"name":"田無高等学校","province":"東京都","city":"西東京市","address":"東京都西東京市向台町5丁目4-34","lat":35.72048804,"lon":139.52920996},{"name":"保谷高等学校","province":"東京都","city":"西東京市","address":"東京都西東京市住吉町5丁目8-23","lat":35.74579123,"lon":139.55540942},{"name":"田無工業高等学校","province":"東京都","city":"西東京市","address":"東京都西東京市向台町1丁目9-1","lat":35.72006073,"lon":139.54860553},{"name":"田無公民館","province":"東京都","city":"西東京市","address":"東京都西東京市南町5-6-11田無公民館","lat":35.726013,"lon":139.537715},{"name":"中央図書館","province":"東京都","city":"西東京市","address":"東京都西東京市南町5-6-11中央図書館","lat":35.726013,"lon":139.537715},{"name":"保谷駅前図書館","province":"東京都","city":"西東京市","address":"東京都西東京市東町3-14-30保谷駅前図書館","lat":35.747939,"lon":139.567692},{"name":"柳沢図書館","province":"東京都","city":"西東京市","address":"東京都西東京市柳沢1-15-1柳沢図書館","lat":35.728338,"lon":139.553949},{"name":"ひばりヶ丘図書館","province":"東京都","city":"西東京市","address":"東京都西東京市ひばりが丘1-2-1ひばりヶ丘図書館","lat":35.751952,"lon":139.54371},{"name":"コール田無","province":"東京都","city":"西東京市","address":"東京都西東京市田無町3-7-2コール田無","lat":35.72916,"lon":139.543604},{"name":"保谷こもれびホール","province":"東京都","city":"西東京市","address":"東京都西東京市中町1-5-1保谷こもれびホール","lat":35.741535,"lon":139.558951},{"name":"田無駅（北口）まちテナ西東京","province":"東京都","city":"西東京市","address":"東京都西東京市田無町4-1-2田無駅まちテナ西東京","lat":35.727526,"lon":139.539369},{"name":"ASTA VISION前","province":"東京都","city":"西東京市","address":"東京都西東京市田無町2-1-1ASTAVISION前","lat":35.727939,"lon":139.540225},{"name":"栄町地域包括支援センター","province":"東京都","city":"西東京市","address":"西東京市栄町3-6-2保谷苑内","lat":35.754917,"lon":139.55368},{"name":"富士町地域包括支援センター","province":"東京都","city":"西東京市","address":"西東京市富士町1-7-69高齢者センターきらら内","lat":35.734463,"lon":139.559723},{"name":"泉町地域包括支援センター","province":"東京都","city":"西東京市","address":"西東京市泉町3-15-28いずみ内","lat":35.739422,"lon":139.554642},{"name":"田無町地域包括支援センター","province":"東京都","city":"西東京市","address":"西東京市田無町5-5-12田無総合福祉センター内","lat":35.731819,"lon":139.535995},{"name":"緑町地域包括支援センター","province":"東京都","city":"西東京市","address":"西東京市緑町3-6-1田無病院内","lat":35.742039,"lon":139.540741},{"name":"西原町地域包括支援センター","province":"東京都","city":"西東京市","address":"西東京市西原町4-5-6西原総合教育施設内","lat":35.735981,"lon":139.529129},{"name":"向台町地域包括支援センター","province":"東京都","city":"西東京市","address":"西東京市向台町2-16-22フローラ田無内","lat":35.720074,"lon":139.526215},{"name":"新町地域包括支援センター","province":"東京都","city":"西東京市","address":"西東京市新町1-11-25緑寿園内","lat":35.71719,"lon":139.543716},{"name":"田無公民館","province":"東京都","city":"西東京市","address":"東京都西東京市南町5-6-11田無公民館","lat":35.726013,"lon":139.537715},{"name":"中央図書館","province":"東京都","city":"西東京市","address":"東京都西東京市南町5-6-11中央図書館","lat":35.726013,"lon":139.537715},{"name":"保谷駅前図書館","province":"東京都","city":"西東京市","address":"東京都西東京市東町3-14-30保谷駅前図書館","lat":35.747939,"lon":139.567692},{"name":"柳沢図書館","province":"東京都","city":"西東京市","address":"東京都西東京市柳沢1-15-1柳沢図書館","lat":35.728338,"lon":139.553949},{"name":"ひばりヶ丘図書館","province":"東京都","city":"西東京市","address":"東京都西東京市ひばりが丘1-2-1ひばりヶ丘図書館","lat":35.751952,"lon":139.54371},{"name":"コール田無","province":"東京都","city":"西東京市","address":"東京都西東京市田無町3-7-2コール田無","lat":35.72916,"lon":139.543604},{"name":"保谷こもれびホール","province":"東京都","city":"西東京市","address":"東京都西東京市中町1-5-1保谷こもれびホール","lat":35.741535,"lon":139.558951},{"name":"田無駅（北口）まちテナ西東京","province":"東京都","city":"西東京市","address":"東京都西東京市田無町4-1-2田無駅まちテナ西東京","lat":35.727526,"lon":139.539369},{"name":"ASTA VISION前","province":"東京都","city":"西東京市","address":"東京都西東京市田無町2-1-1ASTAVISION前","lat":35.727939,"lon":139.540225},{"name":"栄町地域包括支援センター","province":"東京都","city":"西東京市","address":"西東京市栄町3-6-2保谷苑内","lat":35.754917,"lon":139.55368},{"name":"富士町地域包括支援センター","province":"東京都","city":"西東京市","address":"西東京市富士町1-7-69高齢者センターきらら内","lat":35.734463,"lon":139.559723},{"name":"泉町地域包括支援センター","province":"東京都","city":"西東京市","address":"西東京市泉町3-15-28いずみ内","lat":35.739422,"lon":139.554642},{"name":"田無町地域包括支援センター","province":"東京都","city":"西東京市","address":"西東京市田無町5-5-12田無総合福祉センター内","lat":35.731819,"lon":139.535995},{"name":"緑町地域包括支援センター","province":"東京都","city":"西東京市","address":"西東京市緑町3-6-1田無病院内","lat":35.742039,"lon":139.540741},{"name":"西原町地域包括支援センター","province":"東京都","city":"西東京市","address":"西東京市西原町4-5-6西原総合教育施設内","lat":35.735981,"lon":139.529129},{"name":"向台町地域包括支援センター","province":"東京都","city":"西東京市","address":"西東京市向台町2-16-22フローラ田無内","lat":35.720074,"lon":139.526215},{"name":"新町地域包括支援センター","province":"東京都","city":"西東京市","address":"西東京市新町1-11-25緑寿園内","lat":35.71719,"lon":139.543716},{"name":"田無公民館","province":"東京都","city":"西東京市","address":"東京都西東京市南町5-6-11田無公民館","lat":35.726013,"lon":139.537715},{"name":"中央図書館","province":"東京都","city":"西東京市","address":"東京都西東京市南町5-6-11中央図書館","lat":35.726013,"lon":139.537715},{"name":"保谷駅前図書館","province":"東京都","city":"西東京市","address":"東京都西東京市東町3-14-30保谷駅前図書館","lat":35.747939,"lon":139.567692},{"name":"柳沢図書館","province":"東京都","city":"西東京市","address":"東京都西東京市柳沢1-15-1柳沢図書館","lat":35.728338,"lon":139.553949},{"name":"ひばりヶ丘図書館","province":"東京都","city":"西東京市","address":"東京都西東京市ひばりが丘1-2-1ひばりヶ丘図書館","lat":35.751952,"lon":139.54371},{"name":"コール田無","province":"東京都","city":"西東京市","address":"東京都西東京市田無町3-7-2コール田無","lat":35.72916,"lon":139.543604},{"name":"保谷こもれびホール","province":"東京都","city":"西東京市","address":"東京都西東京市中町1-5-1保谷こもれびホール","lat":35.741535,"lon":139.558951},{"name":"田無駅（北口）まちテナ西東京","province":"東京都","city":"西東京市","address":"東京都西東京市田無町4-1-2田無駅まちテナ西東京","lat":35.727526,"lon":139.539369},{"name":"ASTA VISION前","province":"東京都","city":"西東京市","address":"東京都西東京市田無町2-1-1ASTAVISION前","lat":35.727939,"lon":139.540225},{"name":"栄町地域包括支援センター","province":"東京都","city":"西東京市","address":"西東京市栄町3-6-2保谷苑内","lat":35.754917,"lon":139.55368},{"name":"富士町地域包括支援センター","province":"東京都","city":"西東京市","address":"西東京市富士町1-7-69高齢者センターきらら内","lat":35.734463,"lon":139.559723},{"name":"泉町地域包括支援センター","province":"東京都","city":"西東京市","address":"西東京市泉町3-15-28いずみ内","lat":35.739422,"lon":139.554642},{"name":"田無町地域包括支援センター","province":"東京都","city":"西東京市","address":"西東京市田無町5-5-12田無総合福祉センター内","lat":35.731819,"lon":139.535995},{"name":"緑町地域包括支援センター","province":"東京都","city":"西東京市","address":"西東京市緑町3-6-1田無病院内","lat":35.742039,"lon":139.540741},{"name":"西原町地域包括支援センター","province":"東京都","city":"西東京市","address":"西東京市西原町4-5-6西原総合教育施設内","lat":35.735981,"lon":139.529129},{"name":"向台町地域包括支援センター","province":"東京都","city":"西東京市","address":"西東京市向台町2-16-22フローラ田無内","lat":35.720074,"lon":139.526215},{"name":"新町地域包括支援センター","province":"東京都","city":"西東京市","address":"西東京市新町1-11-25緑寿園内","lat":35.71719,"lon":139.543716},{"name":"田無公民館","province":"東京都","city":"西東京市","address":"東京都西東京市南町5-6-11田無公民館","lat":35.726013,"lon":139.537715},{"name":"中央図書館","province":"東京都","city":"西東京市","address":"東京都西東京市南町5-6-11中央図書館","lat":35.726013,"lon":139.537715},{"name":"保谷駅前図書館","province":"東京都","city":"西東京市","address":"東京都西東京市東町3-14-30保谷駅前図書館","lat":35.747939,"lon":139.567692},{"name":"柳沢図書館","province":"東京都","city":"西東京市","address":"東京都西東京市柳沢1-15-1柳沢図書館","lat":35.728338,"lon":139.553949},{"name":"ひばりヶ丘図書館","province":"東京都","city":"西東京市","address":"東京都西東京市ひばりが丘1-2-1ひばりヶ丘図書館","lat":35.751952,"lon":139.54371},{"name":"コール田無","province":"東京都","city":"西東京市","address":"東京都西東京市田無町3-7-2コール田無","lat":35.72916,"lon":139.543604},{"name":"保谷こもれびホール","province":"東京都","city":"西東京市","address":"東京都西東京市中町1-5-1保谷こもれびホール","lat":35.741535,"lon":139.558951},{"name":"田無駅（北口）まちテナ西東京","province":"東京都","city":"西東京市","address":"東京都西東京市田無町4-1-2田無駅まちテナ西東京","lat":35.727526,"lon":139.539369},{"name":"ASTA VISION前","province":"東京都","city":"西東京市","address":"東京都西東京市田無町2-1-1ASTAVISION前","lat":35.727939,"lon":139.540225},{"name":"栄町地域包括支援センター","province":"東京都","city":"西東京市","address":"西東京市栄町3-6-2保谷苑内","lat":35.754917,"lon":139.55368},{"name":"富士町地域包括支援センター","province":"東京都","city":"西東京市","address":"西東京市富士町1-7-69高齢者センターきらら内","lat":35.734463,"lon":139.559723},{"name":"泉町地域包括支援センター","province":"東京都","city":"西東京市","address":"西東京市泉町3-15-28いずみ内","lat":35.739422,"lon":139.554642},{"name":"田無町地域包括支援センター","province":"東京都","city":"西東京市","address":"西東京市田無町5-5-12田無総合福祉センター内","lat":35.731819,"lon":139.535995},{"name":"緑町地域包括支援センター","province":"東京都","city":"西東京市","address":"西東京市緑町3-6-1田無病院内","lat":35.742039,"lon":139.540741},{"name":"西原町地域包括支援センター","province":"東京都","city":"西東京市","address":"西東京市西原町4-5-6西原総合教育施設内","lat":35.735981,"lon":139.529129},{"name":"向台町地域包括支援センター","province":"東京都","city":"西東京市","address":"西東京市向台町2-16-22フローラ田無内","lat":35.720074,"lon":139.526215},{"name":"新町地域包括支援センター","province":"東京都","city":"西東京市","address":"西東京市新町1-11-25緑寿園内","lat":35.71719,"lon":139.543716},{"name":"栄町地域包括支援センター","province":"東京都","city":"西東京市","address":"西東京市栄町3-6-2保谷苑内","lat":35.754917,"lon":139.55368},{"name":"富士町地域包括支援センター","province":"東京都","city":"西東京市","address":"西東京市富士町1-7-69高齢者センターきらら内","lat":35.734463,"lon":139.559723},{"name":"泉町地域包括支援センター","province":"東京都","city":"西東京市","address":"西東京市泉町3-15-28いずみ内","lat":35.739422,"lon":139.554642},{"name":"田無町地域包括支援センター","province":"東京都","city":"西東京市","address":"西東京市田無町5-5-12田無総合福祉センター内","lat":35.731819,"lon":139.535995},{"name":"緑町地域包括支援センター","province":"東京都","city":"西東京市","address":"西東京市緑町3-6-1田無病院内","lat":35.742039,"lon":139.540741},{"name":"西原町地域包括支援センター","province":"東京都","city":"西東京市","address":"西東京市西原町4-5-6西原総合教育施設内","lat":35.735981,"lon":139.529129},{"name":"向台町地域包括支援センター","province":"東京都","city":"西東京市","address":"西東京市向台町2-16-22フローラ田無内","lat":35.720074,"lon":139.526215},{"name":"新町地域包括支援センター","province":"東京都","city":"西東京市","address":"西東京市新町1-11-25緑寿園内","lat":35.71719,"lon":139.543716},{"name":"栄町地域包括支援センター","province":"東京都","city":"西東京市","address":"西東京市栄町3-6-2保谷苑内","lat":35.754917,"lon":139.55368},{"name":"富士町地域包括支援センター","province":"東京都","city":"西東京市","address":"西東京市富士町1-7-69高齢者センターきらら内","lat":35.734463,"lon":139.559723},{"name":"泉町地域包括支援センター","province":"東京都","city":"西東京市","address":"西東京市泉町3-15-28いずみ内","lat":35.739422,"lon":139.554642},{"name":"田無町地域包括支援センター","province":"東京都","city":"西東京市","address":"西東京市田無町5-5-12田無総合福祉センター内","lat":35.731819,"lon":139.535995},{"name":"緑町地域包括支援センター","province":"東京都","city":"西東京市","address":"西東京市緑町3-6-1田無病院内","lat":35.742039,"lon":139.540741},{"name":"西原町地域包括支援センター","province":"東京都","city":"西東京市","address":"西東京市西原町4-5-6西原総合教育施設内","lat":35.735981,"lon":139.529129},{"name":"向台町地域包括支援センター","province":"東京都","city":"西東京市","address":"西東京市向台町2-16-22フローラ田無内","lat":35.720074,"lon":139.526215},{"name":"新町地域包括支援センター","province":"東京都","city":"西東京市","address":"西東京市新町1-11-25緑寿園内","lat":35.71719,"lon":139.543716},{"name":"栄町地域包括支援センター","province":"東京都","city":"西東京市","address":"西東京市栄町3-6-2保谷苑内","lat":35.754917,"lon":139.55368},{"name":"富士町地域包括支援センター","province":"東京都","city":"西東京市","address":"西東京市富士町1-7-69高齢者センターきらら内","lat":35.734463,"lon":139.559723},{"name":"泉町地域包括支援センター","province":"東京都","city":"西東京市","address":"西東京市泉町3-15-28いずみ内","lat":35.739422,"lon":139.554642},{"name":"田無町地域包括支援センター","province":"東京都","city":"西東京市","address":"西東京市田無町5-5-12田無総合福祉センター内","lat":35.731819,"lon":139.535995},{"name":"緑町地域包括支援センター","province":"東京都","city":"西東京市","address":"西東京市緑町3-6-1田無病院内","lat":35.742039,"lon":139.540741},{"name":"西原町地域包括支援センター","province":"東京都","city":"西東京市","address":"西東京市西原町4-5-6西原総合教育施設内","lat":35.735981,"lon":139.529129},{"name":"向台町地域包括支援センター","province":"東京都","city":"西東京市","address":"西東京市向台町2-16-22フローラ田無内","lat":35.720074,"lon":139.526215},{"name":"新町地域包括支援センター","province":"東京都","city":"西東京市","address":"西東京市新町1-11-25緑寿園内","lat":35.71719,"lon":139.543716},{"name":"栄町地域包括支援センター","province":"東京都","city":"西東京市","address":"西東京市栄町3-6-2保谷苑内","lat":35.754917,"lon":139.55368},{"name":"富士町地域包括支援センター","province":"東京都","city":"西東京市","address":"西東京市富士町1-7-69高齢者センターきらら内","lat":35.734463,"lon":139.559723},{"name":"泉町地域包括支援センター","province":"東京都","city":"西東京市","address":"西東京市泉町3-15-28いずみ内","lat":35.739422,"lon":139.554642},{"name":"田無町地域包括支援センター","province":"東京都","city":"西東京市","address":"西東京市田無町5-5-12田無総合福祉センター内","lat":35.731819,"lon":139.535995},{"name":"緑町地域包括支援センター","province":"東京都","city":"西東京市","address":"西東京市緑町3-6-1田無病院内","lat":35.742039,"lon":139.540741},{"name":"西原町地域包括支援センター","province":"東京都","city":"西東京市","address":"西東京市西原町4-5-6西原総合教育施設内","lat":35.735981,"lon":139.529129},{"name":"向台町地域包括支援センター","province":"東京都","city":"西東京市","address":"西東京市向台町2-16-22フローラ田無内","lat":35.720074,"lon":139.526215},{"name":"新町地域包括支援センター","province":"東京都","city":"西東京市","address":"西東京市新町1-11-25緑寿園内","lat":35.71719,"lon":139.543716},{"name":"栄町地域包括支援センター","province":"東京都","city":"西東京市","address":"西東京市栄町3-6-2保谷苑内","lat":35.754917,"lon":139.55368},{"name":"富士町地域包括支援センター","province":"東京都","city":"西東京市","address":"西東京市富士町1-7-69高齢者センターきらら内","lat":35.734463,"lon":139.559723},{"name":"泉町地域包括支援センター","province":"東京都","city":"西東京市","address":"西東京市泉町3-15-28いずみ内","lat":35.739422,"lon":139.554642},{"name":"田無町地域包括支援センター","province":"東京都","city":"西東京市","address":"西東京市田無町5-5-12田無総合福祉センター内","lat":35.731819,"lon":139.535995},{"name":"緑町地域包括支援センター","province":"東京都","city":"西東京市","address":"西東京市緑町3-6-1田無病院内","lat":35.742039,"lon":139.540741},{"name":"西原町地域包括支援センター","province":"東京都","city":"西東京市","address":"西東京市西原町4-5-6西原総合教育施設内","lat":35.735981,"lon":139.529129},{"name":"向台町地域包括支援センター","province":"東京都","city":"西東京市","address":"西東京市向台町2-16-22フローラ田無内","lat":35.720074,"lon":139.526215},{"name":"新町地域包括支援センター","province":"東京都","city":"西東京市","address":"西東京市新町1-11-25緑寿園内","lat":35.71719,"lon":139.543716},{"name":"栄町地域包括支援センター","province":"東京都","city":"西東京市","address":"西東京市栄町3-6-2保谷苑内","lat":35.754917,"lon":139.55368},{"name":"富士町地域包括支援センター","province":"東京都","city":"西東京市","address":"西東京市富士町1-7-69高齢者センターきらら内","lat":35.734463,"lon":139.559723},{"name":"泉町地域包括支援センター","province":"東京都","city":"西東京市","address":"西東京市泉町3-15-28いずみ内","lat":35.739422,"lon":139.554642},{"name":"田無町地域包括支援センター","province":"東京都","city":"西東京市","address":"西東京市田無町5-5-12田無総合福祉センター内","lat":35.731819,"lon":139.535995},{"name":"緑町地域包括支援センター","province":"東京都","city":"西東京市","address":"西東京市緑町3-6-1田無病院内","lat":35.742039,"lon":139.540741},{"name":"西原町地域包括支援センター","province":"東京都","city":"西東京市","address":"西東京市西原町4-5-6西原総合教育施設内","lat":35.735981,"lon":139.529129},{"name":"向台町地域包括支援センター","province":"東京都","city":"西東京市","address":"西東京市向台町2-16-22フローラ田無内","lat":35.720074,"lon":139.526215},{"name":"新町地域包括支援センター","province":"東京都","city":"西東京市","address":"西東京市新町1-11-25緑寿園内","lat":35.71719,"lon":139.543716},{"name":"栄町地域包括支援センター","province":"東京都","city":"西東京市","address":"西東京市栄町3-6-2保谷苑内","lat":35.754917,"lon":139.55368},{"name":"富士町地域包括支援センター","province":"東京都","city":"西東京市","address":"西東京市富士町1-7-69高齢者センターきらら内","lat":35.734463,"lon":139.559723},{"name":"泉町地域包括支援センター","province":"東京都","city":"西東京市","address":"西東京市泉町3-15-28いずみ内","lat":35.739422,"lon":139.554642},{"name":"田無町地域包括支援センター","province":"東京都","city":"西東京市","address":"西東京市田無町5-5-12田無総合福祉センター内","lat":35.731819,"lon":139.535995},{"name":"緑町地域包括支援センター","province":"東京都","city":"西東京市","address":"西東京市緑町3-6-1田無病院内","lat":35.742039,"lon":139.540741},{"name":"西原町地域包括支援センター","province":"東京都","city":"西東京市","address":"西東京市西原町4-5-6西原総合教育施設内","lat":35.735981,"lon":139.529129},{"name":"向台町地域包括支援センター","province":"東京都","city":"西東京市","address":"西東京市向台町2-16-22フローラ田無内","lat":35.720074,"lon":139.526215},{"name":"新町地域包括支援センター","province":"東京都","city":"西東京市","address":"西東京市新町1-11-25緑寿園内","lat":35.71719,"lon":139.543716},{"name":"栄町地域包括支援センター","province":"東京都","city":"西東京市","address":"西東京市栄町3-6-2保谷苑内","lat":35.754917,"lon":139.55368},{"name":"富士町地域包括支援センター","province":"東京都","city":"西東京市","address":"西東京市富士町1-7-69高齢者センターきらら内","lat":35.734463,"lon":139.559723},{"name":"泉町地域包括支援センター","province":"東京都","city":"西東京市","address":"西東京市泉町3-15-28いずみ内","lat":35.739422,"lon":139.554642},{"name":"田無町地域包括支援センター","province":"東京都","city":"西東京市","address":"西東京市田無町5-5-12田無総合福祉センター内","lat":35.731819,"lon":139.535995},{"name":"緑町地域包括支援センター","province":"東京都","city":"西東京市","address":"西東京市緑町3-6-1田無病院内","lat":35.742039,"lon":139.540741},{"name":"西原町地域包括支援センター","province":"東京都","city":"西東京市","address":"西東京市西原町4-5-6西原総合教育施設内","lat":35.735981,"lon":139.529129},{"name":"向台町地域包括支援センター","province":"東京都","city":"西東京市","address":"西東京市向台町2-16-22フローラ田無内","lat":35.720074,"lon":139.526215},{"name":"新町地域包括支援センター","province":"東京都","city":"西東京市","address":"西東京市新町1-11-25緑寿園内","lat":35.71719,"lon":139.543716},{"name":"栄町地域包括支援センター","province":"東京都","city":"西東京市","address":"西東京市栄町3-6-2保谷苑内","lat":35.754917,"lon":139.55368},{"name":"富士町地域包括支援センター","province":"東京都","city":"西東京市","address":"西東京市富士町1-7-69高齢者センターきらら内","lat":35.734463,"lon":139.559723},{"name":"泉町地域包括支援センター","province":"東京都","city":"西東京市","address":"西東京市泉町3-15-28いずみ内","lat":35.739422,"lon":139.554642},{"name":"田無町地域包括支援センター","province":"東京都","city":"西東京市","address":"西東京市田無町5-5-12田無総合福祉センター内","lat":35.731819,"lon":139.535995},{"name":"緑町地域包括支援センター","province":"東京都","city":"西東京市","address":"西東京市緑町3-6-1田無病院内","lat":35.742039,"lon":139.540741},{"name":"西原町地域包括支援センター","province":"東京都","city":"西東京市","address":"西東京市西原町4-5-6西原総合教育施設内","lat":35.735981,"lon":139.529129},{"name":"向台町地域包括支援センター","province":"東京都","city":"西東京市","address":"西東京市向台町2-16-22フローラ田無内","lat":35.720074,"lon":139.526215},{"name":"新町地域包括支援センター","province":"東京都","city":"西東京市","address":"西東京市新町1-11-25緑寿園内","lat":35.71719,"lon":139.543716},{"name":"栄町地域包括支援センター","province":"東京都","city":"西東京市","address":"西東京市栄町3-6-2保谷苑内","lat":35.754917,"lon":139.55368},{"name":"富士町地域包括支援センター","province":"東京都","city":"西東京市","address":"西東京市富士町1-7-69高齢者センターきらら内","lat":35.734463,"lon":139.559723},{"name":"泉町地域包括支援センター","province":"東京都","city":"西東京市","address":"西東京市泉町3-15-28いずみ内","lat":35.739422,"lon":139.554642},{"name":"田無町地域包括支援センター","province":"東京都","city":"西東京市","address":"西東京市田無町5-5-12田無総合福祉センター内","lat":35.731819,"lon":139.535995},{"name":"緑町地域包括支援センター","province":"東京都","city":"西東京市","address":"西東京市緑町3-6-1田無病院内","lat":35.742039,"lon":139.540741},{"name":"西原町地域包括支援センター","province":"東京都","city":"西東京市","address":"西東京市西原町4-5-6西原総合教育施設内","lat":35.735981,"lon":139.529129},{"name":"向台町地域包括支援センター","province":"東京都","city":"西東京市","address":"西東京市向台町2-16-22フローラ田無内","lat":35.720074,"lon":139.526215},{"name":"新町地域包括支援センター","province":"東京都","city":"西東京市","address":"西東京市新町1-11-25緑寿園内","lat":35.71719,"lon":139.543716},{"name":"栄町地域包括支援センター","province":"東京都","city":"西東京市","address":"西東京市栄町3-6-2保谷苑内","lat":35.754917,"lon":139.55368},{"name":"富士町地域包括支援センター","province":"東京都","city":"西東京市","address":"西東京市富士町1-7-69高齢者センターきらら内","lat":35.734463,"lon":139.559723},{"name":"泉町地域包括支援センター","province":"東京都","city":"西東京市","address":"西東京市泉町3-15-28いずみ内","lat":35.739422,"lon":139.554642},{"name":"田無町地域包括支援センター","province":"東京都","city":"西東京市","address":"西東京市田無町5-5-12田無総合福祉センター内","lat":35.731819,"lon":139.535995},{"name":"緑町地域包括支援センター","province":"東京都","city":"西東京市","address":"西東京市緑町3-6-1田無病院内","lat":35.742039,"lon":139.540741},{"name":"西原町地域包括支援センター","province":"東京都","city":"西東京市","address":"西東京市西原町4-5-6西原総合教育施設内","lat":35.735981,"lon":139.529129},{"name":"向台町地域包括支援センター","province":"東京都","city":"西東京市","address":"西東京市向台町2-16-22フローラ田無内","lat":35.720074,"lon":139.526215},{"name":"新町地域包括支援センター","province":"東京都","city":"西東京市","address":"西東京市新町1-11-25緑寿園内","lat":35.71719,"lon":139.543716},{"name":"栄町地域包括支援センター","province":"東京都","city":"西東京市","address":"西東京市栄町3-6-2保谷苑内","lat":35.754917,"lon":139.55368},{"name":"富士町地域包括支援センター","province":"東京都","city":"西東京市","address":"西東京市富士町1-7-69高齢者センターきらら内","lat":35.734463,"lon":139.559723},{"name":"泉町地域包括支援センター","province":"東京都","city":"西東京市","address":"西東京市泉町3-15-28いずみ内","lat":35.739422,"lon":139.554642},{"name":"田無町地域包括支援センター","province":"東京都","city":"西東京市","address":"西東京市田無町5-5-12田無総合福祉センター内","lat":35.731819,"lon":139.535995},{"name":"緑町地域包括支援センター","province":"東京都","city":"西東京市","address":"西東京市緑町3-6-1田無病院内","lat":35.742039,"lon":139.540741},{"name":"西原町地域包括支援センター","province":"東京都","city":"西東京市","address":"西東京市西原町4-5-6西原総合教育施設内","lat":35.735981,"lon":139.529129},{"name":"向台町地域包括支援センター","province":"東京都","city":"西東京市","address":"西東京市向台町2-16-22フローラ田無内","lat":35.720074,"lon":139.526215},{"name":"新町地域包括支援センター","province":"東京都","city":"西東京市","address":"西東京市新町1-11-25緑寿園内","lat":35.71719,"lon":139.543716},{"name":"栄町地域包括支援センター","province":"東京都","city":"西東京市","address":"西東京市栄町3-6-2保谷苑内","lat":35.754917,"lon":139.55368},{"name":"富士町地域包括支援センター","province":"東京都","city":"西東京市","address":"西東京市富士町1-7-69高齢者センターきらら内","lat":35.734463,"lon":139.559723},{"name":"泉町地域包括支援センター","province":"東京都","city":"西東京市","address":"西東京市泉町3-15-28いずみ内","lat":35.739422,"lon":139.554642},{"name":"田無町地域包括支援センター","province":"東京都","city":"西東京市","address":"西東京市田無町5-5-12田無総合福祉センター内","lat":35.731819,"lon":139.535995},{"name":"緑町地域包括支援センター","province":"東京都","city":"西東京市","address":"西東京市緑町3-6-1田無病院内","lat":35.742039,"lon":139.540741},{"name":"西原町地域包括支援センター","province":"東京都","city":"西東京市","address":"西東京市西原町4-5-6西原総合教育施設内","lat":35.735981,"lon":139.529129},{"name":"向台町地域包括支援センター","province":"東京都","city":"西東京市","address":"西東京市向台町2-16-22フローラ田無内","lat":35.720074,"lon":139.526215},{"name":"新町地域包括支援センター","province":"東京都","city":"西東京市","address":"西東京市新町1-11-25緑寿園内","lat":35.71719,"lon":139.543716}]}