{"keyword":"放課後","data":[{"name":"シュプロスひばりヶ丘教室","province":"東京都","city":"西東京市","address":"西東京市谷戸町二丁目15番13号","lat":35.748988,"lon":139.543105},{"name":"たまみずきひばり","province":"東京都","city":"西東京市","address":"西東京市北原町1-38-2","lat":35.738011,"lon":139.545997},{"name":"療育型児童デイサービスさざんか第１","province":"東京都","city":"西東京市","address":"西東京市田無町7-8-14","lat":35.732873,"lon":139.530581},{"name":"くろーばーきっず","province":"東京都","city":"西東京市","address":"西東京市田無町4-17-14","lat":35.729365,"lon":139.535556},{"name":"療育型児童デイサービスさざんか第５","province":"東京都","city":"西東京市","address":"西東京市田無町5-5-12","lat":35.731809,"lon":139.536209},{"name":"放課後等デイサービス　らぷあ田無","province":"東京都","city":"西東京市","address":"西東京市向台町1-16-20ふじマンション2階B号","lat":35.719558,"lon":139.543331},{"name":"ととろクラブ","province":"東京都","city":"西東京市","address":"西東京市芝久保町2-22-33","lat":35.725984,"lon":139.520824},{"name":"ととろキッズ","province":"東京都","city":"西東京市","address":"西東京市芝久保町2-22-32-102","lat":35.726248,"lon":139.52061},{"name":"ジョブチャレンジひばり","province":"東京都","city":"西東京市","address":"西東京市ひばりが丘3-1-23","lat":35.745766,"lon":139.537066},{"name":"シュプロスひばりヶ丘教室Ⅱ","province":"東京都","city":"西東京市","address":"西東京市ひばりが丘1-8-24","lat":35.750663,"lon":139.542288},{"name":"Pur　aile　ひばりが丘","province":"東京都","city":"西東京市","address":"西東京市ひばりが丘北3-7-14メゾンウィステリア1階","lat":35.75269,"lon":139.547988},{"name":"くまさん　保谷教室","province":"東京都","city":"西東京市","address":"西東京市東町二丁目9番7号","lat":35.746577,"lon":139.561434},{"name":"ＳＴＥＰ保谷","province":"東京都","city":"西東京市","address":"西東京市東町3-5-5","lat":35.747408,"lon":139.56625},{"name":"りぼん","province":"東京都","city":"西東京市","address":"西東京市保谷町2-10-12菊池ビル102号","lat":35.73036,"lon":139.554699},{"name":"ＳＴＥＰ西東京","province":"東京都","city":"西東京市","address":"西東京市保谷町1-8-4","lat":35.734434,"lon":139.555735},{"name":"ウイング西東京","province":"東京都","city":"西東京市","address":"西東京市東伏見2-4-10","lat":35.728263,"lon":139.563515},{"name":"りぼんＵ","province":"東京都","city":"西東京市","address":"西東京市柳沢6-4-3-106","lat":35.72736,"lon":139.552658}]}