{"keyword":"文化","data":[{"name":"下野谷遺跡","province":"東京都","city":"西東京市","address":"東京都西東京市東伏見六丁目","lat":35.725451,"lon":139.562007},{"name":"玉川上水・小金井サクラ","province":"東京都","city":"西東京市","address":"東京都西東京市新町五丁目・六丁目","lat":35.711125,"lon":139.53627},{"name":"田無神社本殿・拝殿","province":"東京都","city":"西東京市","address":"東京都西東京市田無町三丁目7-4","lat":35.729783,"lon":139.544085},{"name":"石幢六角地蔵尊","province":"東京都","city":"西東京市","address":"東京都西東京市西原町二丁目5-43","lat":35.736442,"lon":139.536345},{"name":"田無ばやし","province":"東京都","city":"西東京市","address":"東京都西東京市田無町三丁目7-4田無神社・伝承地","lat":35.729783,"lon":139.544085},{"name":"延慶の板碑","province":"東京都","city":"西東京市","address":"東京都西東京市西原町四丁目5-6西原総合教育施設2階郷土資料室","lat":35.736717,"lon":139.529074},{"name":"稗倉","province":"東京都","city":"西東京市","address":"東京都西東京市田無町二丁目12-7","lat":35.728588,"lon":139.542},{"name":"下田家文書（公用分例略記）","province":"東京都","city":"西東京市","address":"東京都西東京市田無町","lat":35.726013,"lon":139.537715},{"name":"北芝久保庚申塔","province":"東京都","city":"西東京市","address":"東京都西東京市芝久保町四丁目12-48","lat":35.73039,"lon":139.521828},{"name":"養老田碑","province":"東京都","city":"西東京市","address":"東京都西東京市田無町二丁目12","lat":35.728554,"lon":139.542004},{"name":"養老畑碑","province":"東京都","city":"西東京市","address":"東京都西東京市田無町四丁目5-21田無小学校","lat":35.728928,"lon":139.537586},{"name":"下田半兵衛富宅の木像","province":"東京都","city":"西東京市","address":"東京都西東京市田無町三丁目8-12総持寺","lat":35.729577,"lon":139.54267},{"name":"獅子頭(雄獅子・雌獅子)","province":"東京都","city":"西東京市","address":"東京都西東京市田無町三丁目7-4","lat":35.729783,"lon":139.544085},{"name":"高札(火付ケ御文言高札)","province":"東京都","city":"西東京市","address":"東京都西東京市西原町四丁目5-6西原総合教育施設2階郷土資料室","lat":35.736717,"lon":139.529074},{"name":"人馬賃銭御定メ掛札","province":"東京都","city":"西東京市","address":"東京都西東京市西原町四丁目5-6西原総合教育施設2階郷土資料室","lat":35.736717,"lon":139.529074},{"name":"韮山笠","province":"東京都","city":"西東京市","address":"東京都西東京市西原町四丁目5-6西原総合教育施設2階郷土資料室","lat":35.736717,"lon":139.529074},{"name":"十王堂一宇建立の碑","province":"東京都","city":"西東京市","address":"東京都西東京市向台町二丁目8向台墓地","lat":35.718767,"lon":139.54172},{"name":"玉井寛海法士の墓","province":"東京都","city":"西東京市","address":"東京都西東京市向台町二丁目8向台墓地","lat":35.718767,"lon":139.54172},{"name":"撃剣家並木先生の墓","province":"東京都","city":"西東京市","address":"東京都西東京市芝久保町二丁目11芝久保墓地","lat":35.728078,"lon":139.528081},{"name":"南芝久保庚申塔","province":"東京都","city":"西東京市","address":"東京都西東京市田無町六丁目1-12","lat":35.727094,"lon":139.53278},{"name":"地租改正絵図","province":"東京都","city":"西東京市","address":"東京都西東京市南町五丁目6-11中央図書館","lat":35.726013,"lon":139.537715},{"name":"文化九年 検地図","province":"東京都","city":"西東京市","address":"東京都西東京市田無町","lat":35.728854,"lon":139.541659},{"name":"文字庚申塔","province":"東京都","city":"西東京市","address":"東京都西東京市新町一丁目2","lat":35.7163,"lon":139.548101},{"name":"招魂塔","province":"東京都","city":"西東京市","address":"東京都西東京市新町一丁目2しらし窪墓地","lat":35.7163,"lon":139.548101},{"name":"六角地蔵石幢","province":"東京都","city":"西東京市","address":"東京都西東京市保谷町四丁目7","lat":35.728494,"lon":139.549841},{"name":"青面金剛庚申像","province":"東京都","city":"西東京市","address":"東京都西東京市泉町二丁目3-2","lat":35.73723,"lon":139.551019},{"name":"又六石仏群","province":"東京都","city":"西東京市","address":"東京都西東京市住吉町三丁目18","lat":35.747822,"lon":139.549585},{"name":"田無村御検地帳","province":"東京都","city":"西東京市","address":"東京都西東京市南町五丁目6-11中央図書館","lat":35.726013,"lon":139.537715},{"name":"真誠学舎関係文書","province":"東京都","city":"西東京市","address":"東京都西東京市西原町四丁目5-6西原総合教育施設2階郷土資料室","lat":35.736717,"lon":139.529074},{"name":"尉殿大権現 神号額","province":"東京都","city":"西東京市","address":"東京都西東京市田無町三丁目8-12総持寺","lat":35.729577,"lon":139.54267},{"name":"柳沢庚申塔","province":"東京都","city":"西東京市","address":"東京都西東京市田無町二丁目22","lat":35.728495,"lon":139.547028},{"name":"旧下田名主役宅","province":"東京都","city":"西東京市","address":"東京都西東京市田無町","lat":35.728854,"lon":139.541659},{"name":"木彫彩色三十番神神像","province":"東京都","city":"西東京市","address":"東京都西東京市下保谷三丁目11-17福泉寺","lat":35.753744,"lon":139.566528},{"name":"木彫彩色倶利迦羅不動明王像","province":"東京都","city":"西東京市","address":"東京都西東京市住吉町一丁目6-5寶晃院","lat":35.740964,"lon":139.549331},{"name":"石製尾張藩鷹場標杭","province":"東京都","city":"西東京市","address":"東京都西東京市保谷町","lat":35.741248,"lon":139.549302},{"name":"總持寺のケヤキ","province":"東京都","city":"西東京市","address":"東京都西東京市田無町三丁目8-12総持寺","lat":35.729577,"lon":139.54267},{"name":"田無神社のイチョウ","province":"東京都","city":"西東京市","address":"東京都西東京市田無町三丁目7-4田無神社","lat":35.729783,"lon":139.544085},{"name":"水子地蔵菩薩立像","province":"東京都","city":"西東京市","address":"東京都西東京市住吉町一丁目6-5寶晃院","lat":35.741248,"lon":139.549302},{"name":"西浦地蔵尊","province":"東京都","city":"西東京市","address":"東京都西東京市保谷町五丁目12-24","lat":35.734234,"lon":139.548413},{"name":"六地蔵菩薩立像","province":"東京都","city":"西東京市","address":"東京都西東京市住吉町一丁目2-12東禅寺","lat":35.742981,"lon":139.549757},{"name":"榛名大権現石造物群","province":"東京都","city":"西東京市","address":"東京都西東京市東伏見二丁目6-13氷川神社","lat":35.727853,"lon":139.563433},{"name":"石燈籠一対","province":"東京都","city":"西東京市","address":"東京都西東京市住吉町一丁目21-1尉殿神社","lat":35.743815,"lon":139.550297},{"name":"奉納絵馬群","province":"東京都","city":"西東京市","address":"東京都西東京市新町二丁目7-24阿波洲神社","lat":35.71568,"lon":139.541942},{"name":"一文銭向い目絵馬","province":"東京都","city":"西東京市","address":"東京都西東京市泉町二丁目7-25寶樹院","lat":35.73927,"lon":139.550767},{"name":"菅原道真石像","province":"東京都","city":"西東京市","address":"東京都西東京市北町六丁目7-19天神社","lat":35.753952,"lon":139.561041},{"name":"観音寺の宝篋印塔","province":"東京都","city":"西東京市","address":"東京都西東京市田無町五丁目7-5観音寺","lat":35.730628,"lon":139.537765},{"name":"馬駈け市大絵馬二枚","province":"東京都","city":"西東京市","address":"東京都西東京市泉町二丁目15-7如意輪寺","lat":35.741475,"lon":139.551457},{"name":"氏子中奉納題目塔二基","province":"東京都","city":"西東京市","address":"東京都西東京市北町六丁目7-19天神社","lat":35.753952,"lon":139.561041},{"name":"保谷囃子","province":"東京都","city":"西東京市","address":"東京都西東京市不定","lat":35.725515,"lon":139.538146},{"name":"岩船地蔵尊","province":"東京都","city":"西東京市","address":"東京都西東京市保谷町六丁目4-7","lat":35.735807,"lon":139.553412},{"name":"蓮見家文書","province":"東京都","city":"西東京市","address":"東京都西東京市北町","lat":35.726013,"lon":139.537715},{"name":"幕末の様式小銃","province":"東京都","city":"西東京市","address":"東京都西東京市向台町","lat":35.722202,"lon":139.525644},{"name":"天神社 拝殿","province":"東京都","city":"西東京市","address":"東京都西東京市北町六丁目7-19天神社","lat":35.753952,"lon":139.561041}]}