{"keyword":"月間","data":[{"name":"国立大学法人東京大学大学院農学生命科学研究科附属生態調和農学機構","province":"東京都","city":"西東京市","address":"東京都西東京市緑町1-1-1","lat":35.73263,"lon":139.540431},{"name":"国立大学法人東京大学大学院農学生命科学研究科附属田無演習林","province":"東京都","city":"西東京市","address":"東京都西東京市緑町1-1-8","lat":35.734344,"lon":139.539112},{"name":"芝久保調節池","province":"東京都","city":"西東京市","address":"東京都西東京市芝久保町1-18","lat":35.722936,"lon":139.524652},{"name":"向台調節池","province":"東京都","city":"西東京市","address":"東京都西東京市向台町5-4","lat":35.721136,"lon":139.52995},{"name":"都立小金井公園","province":"東京都","city":"西東京市","address":"東京都西東京市向台町6-4","lat":35.718332,"lon":139.524885},{"name":"都立東伏見公園","province":"東京都","city":"西東京市","address":"東京都西東京市東伏見1","lat":35.728449,"lon":139.559241},{"name":"早稲田大学東伏見キャンパス東伏見総合グラウンド","province":"東京都","city":"西東京市","address":"東京都西東京市東伏見2-7","lat":35.726844,"lon":139.561656},{"name":"MUFG PARK","province":"東京都","city":"西東京市","address":"東京都西東京市柳沢4-4","lat":35.718337,"lon":139.550842},{"name":"ひばりが丘総合運動場","province":"東京都","city":"西東京市","address":"東京都西東京市ひばりが丘3-1","lat":35.744816,"lon":139.53778},{"name":"岩倉高等学校総合運動場","province":"東京都","city":"西東京市","address":"東京都西東京市新町2-3-27","lat":35.713993,"lon":139.542077},{"name":"中原小学校","province":"東京都","city":"西東京市","address":"東京都西東京市ひばりが丘2-6-25","lat":35.746895,"lon":139.537761},{"name":"東京都立田無高等学校","province":"東京都","city":"西東京市","address":"東京都西東京市向台町5-4-34","lat":35.720209,"lon":139.529025},{"name":"東京都立保谷高等学校","province":"東京都","city":"西東京市","address":"東京都西東京市住吉町5-8-23","lat":35.745801,"lon":139.555429},{"name":"東京都立田無工業高等学校","province":"東京都","city":"西東京市","address":"東京都西東京市向台町1-9-1","lat":35.720514,"lon":139.548591},{"name":"学校法人武蔵野大学","province":"東京都","city":"西東京市","address":"東京都西東京市新町1-1-20","lat":35.716752,"lon":139.548918},{"name":"学校法人日本文華学園","province":"東京都","city":"西東京市","address":"東京都西東京市西原町4-5-85","lat":35.738298,"lon":139.53024},{"name":"シュプロスひばりヶ丘教室","province":"東京都","city":"西東京市","address":"西東京市谷戸町二丁目15番13号","lat":35.748988,"lon":139.543105},{"name":"たまみずきひばり","province":"東京都","city":"西東京市","address":"西東京市北原町1-38-2","lat":35.738011,"lon":139.545997},{"name":"療育型児童デイサービスさざんか第１","province":"東京都","city":"西東京市","address":"西東京市田無町7-8-14","lat":35.732873,"lon":139.530581},{"name":"くろーばーきっず","province":"東京都","city":"西東京市","address":"西東京市田無町4-17-14","lat":35.729365,"lon":139.535556},{"name":"療育型児童デイサービスさざんか第５","province":"東京都","city":"西東京市","address":"西東京市田無町5-5-12","lat":35.731809,"lon":139.536209},{"name":"放課後等デイサービス　らぷあ田無","province":"東京都","city":"西東京市","address":"西東京市向台町1-16-20ふじマンション2階B号","lat":35.719558,"lon":139.543331},{"name":"ととろクラブ","province":"東京都","city":"西東京市","address":"西東京市芝久保町2-22-33","lat":35.725984,"lon":139.520824},{"name":"ととろキッズ","province":"東京都","city":"西東京市","address":"西東京市芝久保町2-22-32-102","lat":35.726248,"lon":139.52061},{"name":"ジョブチャレンジひばり","province":"東京都","city":"西東京市","address":"西東京市ひばりが丘3-1-23","lat":35.745766,"lon":139.537066},{"name":"シュプロスひばりヶ丘教室Ⅱ","province":"東京都","city":"西東京市","address":"西東京市ひばりが丘1-8-24","lat":35.750663,"lon":139.542288},{"name":"Pur　aile　ひばりが丘","province":"東京都","city":"西東京市","address":"西東京市ひばりが丘北3-7-14メゾンウィステリア1階","lat":35.75269,"lon":139.547988},{"name":"くまさん　保谷教室","province":"東京都","city":"西東京市","address":"西東京市東町二丁目9番7号","lat":35.746577,"lon":139.561434},{"name":"ＳＴＥＰ保谷","province":"東京都","city":"西東京市","address":"西東京市東町3-5-5","lat":35.747408,"lon":139.56625},{"name":"りぼん","province":"東京都","city":"西東京市","address":"西東京市保谷町2-10-12菊池ビル102号","lat":35.73036,"lon":139.554699},{"name":"ＳＴＥＰ西東京","province":"東京都","city":"西東京市","address":"西東京市保谷町1-8-4","lat":35.734434,"lon":139.555735},{"name":"ウイング西東京","province":"東京都","city":"西東京市","address":"西東京市東伏見2-4-10","lat":35.728263,"lon":139.563515},{"name":"りぼんＵ","province":"東京都","city":"西東京市","address":"西東京市柳沢6-4-3-106","lat":35.72736,"lon":139.552658},{"name":"西東京市子ども家庭支援センター","province":"東京都","city":"西東京市","address":"西東京市住吉町6-15-6住吉会館1階","lat":35.744433,"lon":139.55129},{"name":"西東京市子ども家庭支援センター","province":"東京都","city":"西東京市","address":"西東京市住吉町6-15-6住吉会館2階","lat":35.74402,"lon":139.55215},{"name":"西東京市子ども家庭支援センター","province":"東京都","city":"西東京市","address":"西東京市住吉町6-15-6住吉会館1階","lat":35.74402,"lon":139.55216},{"name":"東伏見","province":"東京都","city":"西東京市","address":"東京都西東京市東伏見6丁目10-22","lat":35.72516589,"lon":139.55749898},{"name":"田無町三丁目","province":"東京都","city":"西東京市","address":"東京都西東京市田無町1丁目2-31","lat":35.73104545,"lon":139.54369709},{"name":"ひばりが丘駅入口","province":"東京都","city":"西東京市","address":"東京都西東京市谷戸町3丁目27-25","lat":35.74978492,"lon":139.54359355},{"name":"田無駅北口","province":"東京都","city":"西東京市","address":"東京都西東京市田無町5丁目1-1","lat":35.72968164,"lon":139.53983915},{"name":"谷戸町三丁目","province":"東京都","city":"西東京市","address":"東京都西東京市谷戸町3丁目26-1","lat":35.74893224,"lon":139.54342137},{"name":"保谷栄小西","province":"東京都","city":"西東京市","address":"東京都西東京市栄町2丁目6-15","lat":35.75128492,"lon":139.55119012},{"name":"田無北原二丁目","province":"東京都","city":"西東京市","address":"東京都西東京市北原町2丁目8-7","lat":35.73858069,"lon":139.54366898},{"name":"新柳沢団地東","province":"東京都","city":"西東京市","address":"東京都西東京市東伏見5丁目10-30","lat":35.72226067,"lon":139.55774353},{"name":"ひばりが丘駅南","province":"東京都","city":"西東京市","address":"東京都西東京市谷戸町3丁目27","lat":35.74979604,"lon":139.54370743},{"name":"西武柳沢駅南","province":"東京都","city":"西東京市","address":"東京都西東京市柳沢2丁目19-15","lat":35.72568793,"lon":139.55214107},{"name":"谷戸町三丁目東","province":"東京都","city":"西東京市","address":"東京都西東京市谷戸町3丁目20","lat":35.74797685,"lon":139.54574622},{"name":"下保谷二丁目東","province":"東京都","city":"西東京市","address":"東京都西東京市下保谷2丁目9-3","lat":35.75104067,"lon":139.55864233},{"name":"佐々総合病院","province":"東京都","city":"西東京市","address":"東京都西東京市田無町4丁目24-15","lat":35.72967884,"lon":139.53871701},{"name":"芝久保浄水所","province":"東京都","city":"西東京市","address":"東京都西東京市芝久保町5丁目9-1","lat":35.7337808,"lon":139.52453742},{"name":"保谷町浄水所","province":"東京都","city":"西東京市","address":"東京都西東京市保谷町1丁目5-24","lat":35.73545076,"lon":139.55478209},{"name":"西東京栄町浄水所","province":"東京都","city":"西東京市","address":"東京都西東京市栄町2丁目7-6","lat":35.75167656,"lon":139.55222337},{"name":"向台運動場","province":"東京都","city":"西東京市","address":"東京都西東京市向台町5丁目4-44","lat":35.72149068,"lon":139.52844608},{"name":"西東京市立文理台公園","province":"東京都","city":"西東京市","address":"東京都西東京市東町1丁目4","lat":35.74431377,"lon":139.56142287},{"name":"田無高等学校","province":"東京都","city":"西東京市","address":"東京都西東京市向台町5丁目4-34","lat":35.72048804,"lon":139.52920996},{"name":"保谷高等学校","province":"東京都","city":"西東京市","address":"東京都西東京市住吉町5丁目8-23","lat":35.74579123,"lon":139.55540942},{"name":"田無工業高等学校","province":"東京都","city":"西東京市","address":"東京都西東京市向台町1丁目9-1","lat":35.72006073,"lon":139.54860553},{"name":"西東京市役所田無庁舎","province":"東京都","city":"西東京市","address":"東京都西東京市南町5丁目6-13","lat":35.72567651,"lon":139.53795616},{"name":"西東京市役所保谷庁舎","province":"東京都","city":"西東京市","address":"東京都西東京市中町1丁目5-1","lat":35.74129184,"lon":139.55895096},{"name":"西東京市役所保谷庁舎","province":"東京都","city":"西東京市","address":"西東京市中町1-5-1","lat":35.741595,"lon":139.558951},{"name":"田無警察署","province":"東京都","city":"西東京市","address":"西東京市田無町5-2-5","lat":35.72999,"lon":139.5386},{"name":"西東京消防署","province":"東京都","city":"西東京市","address":"西東京市中町1-1-6","lat":35.73898,"lon":139.5553},{"name":"市民向台運動場","province":"東京都","city":"西東京市","address":"西東京市向台町5-4","lat":35.72121,"lon":139.53},{"name":"東京ガス（株）保谷ビル","province":"東京都","city":"西東京市","address":"西東京市柳沢2-18-46","lat":35.72477,"lon":139.5523},{"name":"※西東京市役所保谷庁舎","province":"東京都","city":"西東京市","address":"東京都西東京市中町1丁目5-1","lat":35.74129184,"lon":139.55895096},{"name":"国立大学法人東京大学大学院農学生命科学研究科附属生態調和農学機構","province":"東京都","city":"西東京市","address":"東京都西東京市緑町1-1-1","lat":35.73263,"lon":139.540431},{"name":"国立大学法人東京大学大学院農学生命科学研究科附属田無演習林","province":"東京都","city":"西東京市","address":"東京都西東京市緑町1-1-8","lat":35.734344,"lon":139.539112},{"name":"芝久保調節池","province":"東京都","city":"西東京市","address":"東京都西東京市芝久保町1-18","lat":35.722936,"lon":139.524652},{"name":"向台調節池","province":"東京都","city":"西東京市","address":"東京都西東京市向台町5-4","lat":35.721136,"lon":139.52995},{"name":"都立小金井公園","province":"東京都","city":"西東京市","address":"東京都西東京市向台町6-4","lat":35.718332,"lon":139.524885},{"name":"都立東伏見公園","province":"東京都","city":"西東京市","address":"東京都西東京市東伏見1","lat":35.728449,"lon":139.559241},{"name":"早稲田大学東伏見キャンパス東伏見総合グラウンド","province":"東京都","city":"西東京市","address":"東京都西東京市東伏見2-7","lat":35.726844,"lon":139.561656},{"name":"MUFG PARK","province":"東京都","city":"西東京市","address":"東京都西東京市柳沢4-4","lat":35.718337,"lon":139.550842},{"name":"ひばりが丘総合運動場","province":"東京都","city":"西東京市","address":"東京都西東京市ひばりが丘3-1","lat":35.744816,"lon":139.53778},{"name":"岩倉高等学校総合運動場","province":"東京都","city":"西東京市","address":"東京都西東京市新町2-3-27","lat":35.713993,"lon":139.542077},{"name":"中原小学校","province":"東京都","city":"西東京市","address":"東京都西東京市ひばりが丘2-6-25","lat":35.746895,"lon":139.537761},{"name":"東京都立田無高等学校","province":"東京都","city":"西東京市","address":"東京都西東京市向台町5-4-34","lat":35.720209,"lon":139.529025},{"name":"東京都立保谷高等学校","province":"東京都","city":"西東京市","address":"東京都西東京市住吉町5-8-23","lat":35.745801,"lon":139.555429},{"name":"東京都立田無工業高等学校","province":"東京都","city":"西東京市","address":"東京都西東京市向台町1-9-1","lat":35.720514,"lon":139.548591},{"name":"学校法人武蔵野大学","province":"東京都","city":"西東京市","address":"東京都西東京市新町1-1-20","lat":35.716752,"lon":139.548918},{"name":"学校法人日本文華学園","province":"東京都","city":"西東京市","address":"東京都西東京市西原町4-5-85","lat":35.738298,"lon":139.53024},{"name":"シュプロスひばりヶ丘教室","province":"東京都","city":"西東京市","address":"西東京市谷戸町二丁目15番13号","lat":35.748988,"lon":139.543105},{"name":"たまみずきひばり","province":"東京都","city":"西東京市","address":"西東京市北原町1-38-2","lat":35.738011,"lon":139.545997},{"name":"療育型児童デイサービスさざんか第１","province":"東京都","city":"西東京市","address":"西東京市田無町7-8-14","lat":35.732873,"lon":139.530581},{"name":"くろーばーきっず","province":"東京都","city":"西東京市","address":"西東京市田無町4-17-14","lat":35.729365,"lon":139.535556},{"name":"療育型児童デイサービスさざんか第５","province":"東京都","city":"西東京市","address":"西東京市田無町5-5-12","lat":35.731809,"lon":139.536209},{"name":"放課後等デイサービス　らぷあ田無","province":"東京都","city":"西東京市","address":"西東京市向台町1-16-20ふじマンション2階B号","lat":35.719558,"lon":139.543331},{"name":"ととろクラブ","province":"東京都","city":"西東京市","address":"西東京市芝久保町2-22-33","lat":35.725984,"lon":139.520824},{"name":"ととろキッズ","province":"東京都","city":"西東京市","address":"西東京市芝久保町2-22-32-102","lat":35.726248,"lon":139.52061},{"name":"ジョブチャレンジひばり","province":"東京都","city":"西東京市","address":"西東京市ひばりが丘3-1-23","lat":35.745766,"lon":139.537066},{"name":"シュプロスひばりヶ丘教室Ⅱ","province":"東京都","city":"西東京市","address":"西東京市ひばりが丘1-8-24","lat":35.750663,"lon":139.542288},{"name":"Pur　aile　ひばりが丘","province":"東京都","city":"西東京市","address":"西東京市ひばりが丘北3-7-14メゾンウィステリア1階","lat":35.75269,"lon":139.547988},{"name":"くまさん　保谷教室","province":"東京都","city":"西東京市","address":"西東京市東町二丁目9番7号","lat":35.746577,"lon":139.561434},{"name":"ＳＴＥＰ保谷","province":"東京都","city":"西東京市","address":"西東京市東町3-5-5","lat":35.747408,"lon":139.56625},{"name":"りぼん","province":"東京都","city":"西東京市","address":"西東京市保谷町2-10-12菊池ビル102号","lat":35.73036,"lon":139.554699},{"name":"ＳＴＥＰ西東京","province":"東京都","city":"西東京市","address":"西東京市保谷町1-8-4","lat":35.734434,"lon":139.555735},{"name":"ウイング西東京","province":"東京都","city":"西東京市","address":"西東京市東伏見2-4-10","lat":35.728263,"lon":139.563515},{"name":"りぼんＵ","province":"東京都","city":"西東京市","address":"西東京市柳沢6-4-3-106","lat":35.72736,"lon":139.552658},{"name":"西東京市子ども家庭支援センター","province":"東京都","city":"西東京市","address":"西東京市住吉町6-15-6住吉会館1階","lat":35.744433,"lon":139.55129},{"name":"西東京市子ども家庭支援センター","province":"東京都","city":"西東京市","address":"西東京市住吉町6-15-6住吉会館2階","lat":35.74402,"lon":139.55215},{"name":"西東京市子ども家庭支援センター","province":"東京都","city":"西東京市","address":"西東京市住吉町6-15-6住吉会館1階","lat":35.74402,"lon":139.55216},{"name":"東伏見","province":"東京都","city":"西東京市","address":"東京都西東京市東伏見6丁目10-22","lat":35.72516589,"lon":139.55749898},{"name":"田無町三丁目","province":"東京都","city":"西東京市","address":"東京都西東京市田無町1丁目2-31","lat":35.73104545,"lon":139.54369709},{"name":"ひばりが丘駅入口","province":"東京都","city":"西東京市","address":"東京都西東京市谷戸町3丁目27-25","lat":35.74978492,"lon":139.54359355},{"name":"田無駅北口","province":"東京都","city":"西東京市","address":"東京都西東京市田無町5丁目1-1","lat":35.72968164,"lon":139.53983915},{"name":"谷戸町三丁目","province":"東京都","city":"西東京市","address":"東京都西東京市谷戸町3丁目26-1","lat":35.74893224,"lon":139.54342137},{"name":"保谷栄小西","province":"東京都","city":"西東京市","address":"東京都西東京市栄町2丁目6-15","lat":35.75128492,"lon":139.55119012},{"name":"田無北原二丁目","province":"東京都","city":"西東京市","address":"東京都西東京市北原町2丁目8-7","lat":35.73858069,"lon":139.54366898},{"name":"新柳沢団地東","province":"東京都","city":"西東京市","address":"東京都西東京市東伏見5丁目10-30","lat":35.72226067,"lon":139.55774353},{"name":"ひばりが丘駅南","province":"東京都","city":"西東京市","address":"東京都西東京市谷戸町3丁目27","lat":35.74979604,"lon":139.54370743},{"name":"西武柳沢駅南","province":"東京都","city":"西東京市","address":"東京都西東京市柳沢2丁目19-15","lat":35.72568793,"lon":139.55214107},{"name":"谷戸町三丁目東","province":"東京都","city":"西東京市","address":"東京都西東京市谷戸町3丁目20","lat":35.74797685,"lon":139.54574622},{"name":"下保谷二丁目東","province":"東京都","city":"西東京市","address":"東京都西東京市下保谷2丁目9-3","lat":35.75104067,"lon":139.55864233},{"name":"佐々総合病院","province":"東京都","city":"西東京市","address":"東京都西東京市田無町4丁目24-15","lat":35.72967884,"lon":139.53871701},{"name":"芝久保浄水所","province":"東京都","city":"西東京市","address":"東京都西東京市芝久保町5丁目9-1","lat":35.7337808,"lon":139.52453742},{"name":"保谷町浄水所","province":"東京都","city":"西東京市","address":"東京都西東京市保谷町1丁目5-24","lat":35.73545076,"lon":139.55478209},{"name":"西東京栄町浄水所","province":"東京都","city":"西東京市","address":"東京都西東京市栄町2丁目7-6","lat":35.75167656,"lon":139.55222337},{"name":"向台運動場","province":"東京都","city":"西東京市","address":"東京都西東京市向台町5丁目4-44","lat":35.72149068,"lon":139.52844608},{"name":"西東京市立文理台公園","province":"東京都","city":"西東京市","address":"東京都西東京市東町1丁目4","lat":35.74431377,"lon":139.56142287},{"name":"田無高等学校","province":"東京都","city":"西東京市","address":"東京都西東京市向台町5丁目4-34","lat":35.72048804,"lon":139.52920996},{"name":"保谷高等学校","province":"東京都","city":"西東京市","address":"東京都西東京市住吉町5丁目8-23","lat":35.74579123,"lon":139.55540942},{"name":"田無工業高等学校","province":"東京都","city":"西東京市","address":"東京都西東京市向台町1丁目9-1","lat":35.72006073,"lon":139.54860553},{"name":"国立大学法人東京大学大学院農学生命科学研究科附属生態調和農学機構","province":"東京都","city":"西東京市","address":"東京都西東京市緑町1-1-1","lat":35.73263,"lon":139.540431},{"name":"国立大学法人東京大学大学院農学生命科学研究科附属田無演習林","province":"東京都","city":"西東京市","address":"東京都西東京市緑町1-1-8","lat":35.734344,"lon":139.539112},{"name":"芝久保調節池","province":"東京都","city":"西東京市","address":"東京都西東京市芝久保町1-18","lat":35.722936,"lon":139.524652},{"name":"向台調節池","province":"東京都","city":"西東京市","address":"東京都西東京市向台町5-4","lat":35.721136,"lon":139.52995},{"name":"都立小金井公園","province":"東京都","city":"西東京市","address":"東京都西東京市向台町6-4","lat":35.718332,"lon":139.524885},{"name":"都立東伏見公園","province":"東京都","city":"西東京市","address":"東京都西東京市東伏見1","lat":35.728449,"lon":139.559241},{"name":"早稲田大学東伏見キャンパス東伏見総合グラウンド","province":"東京都","city":"西東京市","address":"東京都西東京市東伏見2-7","lat":35.726844,"lon":139.561656},{"name":"MUFG PARK","province":"東京都","city":"西東京市","address":"東京都西東京市柳沢4-4","lat":35.718337,"lon":139.550842},{"name":"ひばりが丘総合運動場","province":"東京都","city":"西東京市","address":"東京都西東京市ひばりが丘3-1","lat":35.744816,"lon":139.53778},{"name":"岩倉高等学校総合運動場","province":"東京都","city":"西東京市","address":"東京都西東京市新町2-3-27","lat":35.713993,"lon":139.542077},{"name":"中原小学校","province":"東京都","city":"西東京市","address":"東京都西東京市ひばりが丘2-6-25","lat":35.746895,"lon":139.537761},{"name":"東京都立田無高等学校","province":"東京都","city":"西東京市","address":"東京都西東京市向台町5-4-34","lat":35.720209,"lon":139.529025},{"name":"東京都立保谷高等学校","province":"東京都","city":"西東京市","address":"東京都西東京市住吉町5-8-23","lat":35.745801,"lon":139.555429},{"name":"東京都立田無工業高等学校","province":"東京都","city":"西東京市","address":"東京都西東京市向台町1-9-1","lat":35.720514,"lon":139.548591},{"name":"学校法人武蔵野大学","province":"東京都","city":"西東京市","address":"東京都西東京市新町1-1-20","lat":35.716752,"lon":139.548918},{"name":"学校法人日本文華学園","province":"東京都","city":"西東京市","address":"東京都西東京市西原町4-5-85","lat":35.738298,"lon":139.53024},{"name":"シュプロスひばりヶ丘教室","province":"東京都","city":"西東京市","address":"西東京市谷戸町二丁目15番13号","lat":35.748988,"lon":139.543105},{"name":"たまみずきひばり","province":"東京都","city":"西東京市","address":"西東京市北原町1-38-2","lat":35.738011,"lon":139.545997},{"name":"療育型児童デイサービスさざんか第１","province":"東京都","city":"西東京市","address":"西東京市田無町7-8-14","lat":35.732873,"lon":139.530581},{"name":"くろーばーきっず","province":"東京都","city":"西東京市","address":"西東京市田無町4-17-14","lat":35.729365,"lon":139.535556},{"name":"療育型児童デイサービスさざんか第５","province":"東京都","city":"西東京市","address":"西東京市田無町5-5-12","lat":35.731809,"lon":139.536209},{"name":"放課後等デイサービス　らぷあ田無","province":"東京都","city":"西東京市","address":"西東京市向台町1-16-20ふじマンション2階B号","lat":35.719558,"lon":139.543331},{"name":"ととろクラブ","province":"東京都","city":"西東京市","address":"西東京市芝久保町2-22-33","lat":35.725984,"lon":139.520824},{"name":"ととろキッズ","province":"東京都","city":"西東京市","address":"西東京市芝久保町2-22-32-102","lat":35.726248,"lon":139.52061},{"name":"ジョブチャレンジひばり","province":"東京都","city":"西東京市","address":"西東京市ひばりが丘3-1-23","lat":35.745766,"lon":139.537066},{"name":"シュプロスひばりヶ丘教室Ⅱ","province":"東京都","city":"西東京市","address":"西東京市ひばりが丘1-8-24","lat":35.750663,"lon":139.542288},{"name":"Pur　aile　ひばりが丘","province":"東京都","city":"西東京市","address":"西東京市ひばりが丘北3-7-14メゾンウィステリア1階","lat":35.75269,"lon":139.547988},{"name":"くまさん　保谷教室","province":"東京都","city":"西東京市","address":"西東京市東町二丁目9番7号","lat":35.746577,"lon":139.561434},{"name":"ＳＴＥＰ保谷","province":"東京都","city":"西東京市","address":"西東京市東町3-5-5","lat":35.747408,"lon":139.56625},{"name":"りぼん","province":"東京都","city":"西東京市","address":"西東京市保谷町2-10-12菊池ビル102号","lat":35.73036,"lon":139.554699},{"name":"ＳＴＥＰ西東京","province":"東京都","city":"西東京市","address":"西東京市保谷町1-8-4","lat":35.734434,"lon":139.555735},{"name":"ウイング西東京","province":"東京都","city":"西東京市","address":"西東京市東伏見2-4-10","lat":35.728263,"lon":139.563515},{"name":"りぼんＵ","province":"東京都","city":"西東京市","address":"西東京市柳沢6-4-3-106","lat":35.72736,"lon":139.552658},{"name":"西東京市子ども家庭支援センター","province":"東京都","city":"西東京市","address":"西東京市住吉町6-15-6住吉会館1階","lat":35.744433,"lon":139.55129},{"name":"西東京市子ども家庭支援センター","province":"東京都","city":"西東京市","address":"西東京市住吉町6-15-6住吉会館2階","lat":35.74402,"lon":139.55215},{"name":"西東京市子ども家庭支援センター","province":"東京都","city":"西東京市","address":"西東京市住吉町6-15-6住吉会館1階","lat":35.74402,"lon":139.55216},{"name":"東伏見","province":"東京都","city":"西東京市","address":"東京都西東京市東伏見6丁目10-22","lat":35.72516589,"lon":139.55749898},{"name":"田無町三丁目","province":"東京都","city":"西東京市","address":"東京都西東京市田無町1丁目2-31","lat":35.73104545,"lon":139.54369709},{"name":"ひばりが丘駅入口","province":"東京都","city":"西東京市","address":"東京都西東京市谷戸町3丁目27-25","lat":35.74978492,"lon":139.54359355},{"name":"田無駅北口","province":"東京都","city":"西東京市","address":"東京都西東京市田無町5丁目1-1","lat":35.72968164,"lon":139.53983915},{"name":"谷戸町三丁目","province":"東京都","city":"西東京市","address":"東京都西東京市谷戸町3丁目26-1","lat":35.74893224,"lon":139.54342137},{"name":"保谷栄小西","province":"東京都","city":"西東京市","address":"東京都西東京市栄町2丁目6-15","lat":35.75128492,"lon":139.55119012},{"name":"田無北原二丁目","province":"東京都","city":"西東京市","address":"東京都西東京市北原町2丁目8-7","lat":35.73858069,"lon":139.54366898},{"name":"新柳沢団地東","province":"東京都","city":"西東京市","address":"東京都西東京市東伏見5丁目10-30","lat":35.72226067,"lon":139.55774353},{"name":"ひばりが丘駅南","province":"東京都","city":"西東京市","address":"東京都西東京市谷戸町3丁目27","lat":35.74979604,"lon":139.54370743},{"name":"西武柳沢駅南","province":"東京都","city":"西東京市","address":"東京都西東京市柳沢2丁目19-15","lat":35.72568793,"lon":139.55214107},{"name":"谷戸町三丁目東","province":"東京都","city":"西東京市","address":"東京都西東京市谷戸町3丁目20","lat":35.74797685,"lon":139.54574622},{"name":"下保谷二丁目東","province":"東京都","city":"西東京市","address":"東京都西東京市下保谷2丁目9-3","lat":35.75104067,"lon":139.55864233},{"name":"佐々総合病院","province":"東京都","city":"西東京市","address":"東京都西東京市田無町4丁目24-15","lat":35.72967884,"lon":139.53871701},{"name":"芝久保浄水所","province":"東京都","city":"西東京市","address":"東京都西東京市芝久保町5丁目9-1","lat":35.7337808,"lon":139.52453742},{"name":"保谷町浄水所","province":"東京都","city":"西東京市","address":"東京都西東京市保谷町1丁目5-24","lat":35.73545076,"lon":139.55478209},{"name":"西東京栄町浄水所","province":"東京都","city":"西東京市","address":"東京都西東京市栄町2丁目7-6","lat":35.75167656,"lon":139.55222337},{"name":"向台運動場","province":"東京都","city":"西東京市","address":"東京都西東京市向台町5丁目4-44","lat":35.72149068,"lon":139.52844608},{"name":"西東京市立文理台公園","province":"東京都","city":"西東京市","address":"東京都西東京市東町1丁目4","lat":35.74431377,"lon":139.56142287},{"name":"田無高等学校","province":"東京都","city":"西東京市","address":"東京都西東京市向台町5丁目4-34","lat":35.72048804,"lon":139.52920996},{"name":"保谷高等学校","province":"東京都","city":"西東京市","address":"東京都西東京市住吉町5丁目8-23","lat":35.74579123,"lon":139.55540942},{"name":"田無工業高等学校","province":"東京都","city":"西東京市","address":"東京都西東京市向台町1丁目9-1","lat":35.72006073,"lon":139.54860553},{"name":"シュプロスひばりヶ丘教室","province":"東京都","city":"西東京市","address":"西東京市谷戸町二丁目15番13号","lat":35.748988,"lon":139.543105},{"name":"たまみずきひばり","province":"東京都","city":"西東京市","address":"西東京市北原町1-38-2","lat":35.738011,"lon":139.545997},{"name":"療育型児童デイサービスさざんか第１","province":"東京都","city":"西東京市","address":"西東京市田無町7-8-14","lat":35.732873,"lon":139.530581},{"name":"くろーばーきっず","province":"東京都","city":"西東京市","address":"西東京市田無町4-17-14","lat":35.729365,"lon":139.535556},{"name":"療育型児童デイサービスさざんか第５","province":"東京都","city":"西東京市","address":"西東京市田無町5-5-12","lat":35.731809,"lon":139.536209},{"name":"放課後等デイサービス　らぷあ田無","province":"東京都","city":"西東京市","address":"西東京市向台町1-16-20ふじマンション2階B号","lat":35.719558,"lon":139.543331},{"name":"ととろクラブ","province":"東京都","city":"西東京市","address":"西東京市芝久保町2-22-33","lat":35.725984,"lon":139.520824},{"name":"ととろキッズ","province":"東京都","city":"西東京市","address":"西東京市芝久保町2-22-32-102","lat":35.726248,"lon":139.52061},{"name":"ジョブチャレンジひばり","province":"東京都","city":"西東京市","address":"西東京市ひばりが丘3-1-23","lat":35.745766,"lon":139.537066},{"name":"シュプロスひばりヶ丘教室Ⅱ","province":"東京都","city":"西東京市","address":"西東京市ひばりが丘1-8-24","lat":35.750663,"lon":139.542288},{"name":"Pur　aile　ひばりが丘","province":"東京都","city":"西東京市","address":"西東京市ひばりが丘北3-7-14メゾンウィステリア1階","lat":35.75269,"lon":139.547988},{"name":"くまさん　保谷教室","province":"東京都","city":"西東京市","address":"西東京市東町二丁目9番7号","lat":35.746577,"lon":139.561434},{"name":"ＳＴＥＰ保谷","province":"東京都","city":"西東京市","address":"西東京市東町3-5-5","lat":35.747408,"lon":139.56625},{"name":"りぼん","province":"東京都","city":"西東京市","address":"西東京市保谷町2-10-12菊池ビル102号","lat":35.73036,"lon":139.554699},{"name":"ＳＴＥＰ西東京","province":"東京都","city":"西東京市","address":"西東京市保谷町1-8-4","lat":35.734434,"lon":139.555735},{"name":"ウイング西東京","province":"東京都","city":"西東京市","address":"西東京市東伏見2-4-10","lat":35.728263,"lon":139.563515},{"name":"りぼんＵ","province":"東京都","city":"西東京市","address":"西東京市柳沢6-4-3-106","lat":35.72736,"lon":139.552658},{"name":"西東京市子ども家庭支援センター","province":"東京都","city":"西東京市","address":"西東京市住吉町6-15-6住吉会館1階","lat":35.744433,"lon":139.55129},{"name":"西東京市子ども家庭支援センター","province":"東京都","city":"西東京市","address":"西東京市住吉町6-15-6住吉会館2階","lat":35.74402,"lon":139.55215},{"name":"西東京市子ども家庭支援センター","province":"東京都","city":"西東京市","address":"西東京市住吉町6-15-6住吉会館1階","lat":35.74402,"lon":139.55216},{"name":"向台運動場","province":"東京都","city":"西東京市","address":"東京都西東京市向台町5丁目4-44","lat":35.72149068,"lon":139.52844608},{"name":"西東京市立文理台公園","province":"東京都","city":"西東京市","address":"東京都西東京市東町1丁目4","lat":35.74431377,"lon":139.56142287},{"name":"田無高等学校","province":"東京都","city":"西東京市","address":"東京都西東京市向台町5丁目4-34","lat":35.72048804,"lon":139.52920996},{"name":"保谷高等学校","province":"東京都","city":"西東京市","address":"東京都西東京市住吉町5丁目8-23","lat":35.74579123,"lon":139.55540942},{"name":"田無工業高等学校","province":"東京都","city":"西東京市","address":"東京都西東京市向台町1丁目9-1","lat":35.72006073,"lon":139.54860553},{"name":"シュプロスひばりヶ丘教室","province":"東京都","city":"西東京市","address":"西東京市谷戸町二丁目15番13号","lat":35.748988,"lon":139.543105},{"name":"たまみずきひばり","province":"東京都","city":"西東京市","address":"西東京市北原町1-38-2","lat":35.738011,"lon":139.545997},{"name":"療育型児童デイサービスさざんか第１","province":"東京都","city":"西東京市","address":"西東京市田無町7-8-14","lat":35.732873,"lon":139.530581},{"name":"くろーばーきっず","province":"東京都","city":"西東京市","address":"西東京市田無町4-17-14","lat":35.729365,"lon":139.535556},{"name":"療育型児童デイサービスさざんか第５","province":"東京都","city":"西東京市","address":"西東京市田無町5-5-12","lat":35.731809,"lon":139.536209},{"name":"放課後等デイサービス　らぷあ田無","province":"東京都","city":"西東京市","address":"西東京市向台町1-16-20ふじマンション2階B号","lat":35.719558,"lon":139.543331},{"name":"ととろクラブ","province":"東京都","city":"西東京市","address":"西東京市芝久保町2-22-33","lat":35.725984,"lon":139.520824},{"name":"ととろキッズ","province":"東京都","city":"西東京市","address":"西東京市芝久保町2-22-32-102","lat":35.726248,"lon":139.52061},{"name":"ジョブチャレンジひばり","province":"東京都","city":"西東京市","address":"西東京市ひばりが丘3-1-23","lat":35.745766,"lon":139.537066},{"name":"シュプロスひばりヶ丘教室Ⅱ","province":"東京都","city":"西東京市","address":"西東京市ひばりが丘1-8-24","lat":35.750663,"lon":139.542288},{"name":"Pur　aile　ひばりが丘","province":"東京都","city":"西東京市","address":"西東京市ひばりが丘北3-7-14メゾンウィステリア1階","lat":35.75269,"lon":139.547988},{"name":"くまさん　保谷教室","province":"東京都","city":"西東京市","address":"西東京市東町二丁目9番7号","lat":35.746577,"lon":139.561434},{"name":"ＳＴＥＰ保谷","province":"東京都","city":"西東京市","address":"西東京市東町3-5-5","lat":35.747408,"lon":139.56625},{"name":"りぼん","province":"東京都","city":"西東京市","address":"西東京市保谷町2-10-12菊池ビル102号","lat":35.73036,"lon":139.554699},{"name":"ＳＴＥＰ西東京","province":"東京都","city":"西東京市","address":"西東京市保谷町1-8-4","lat":35.734434,"lon":139.555735},{"name":"ウイング西東京","province":"東京都","city":"西東京市","address":"西東京市東伏見2-4-10","lat":35.728263,"lon":139.563515},{"name":"りぼんＵ","province":"東京都","city":"西東京市","address":"西東京市柳沢6-4-3-106","lat":35.72736,"lon":139.552658},{"name":"西東京市子ども家庭支援センター","province":"東京都","city":"西東京市","address":"西東京市住吉町6-15-6住吉会館1階","lat":35.744433,"lon":139.55129},{"name":"西東京市子ども家庭支援センター","province":"東京都","city":"西東京市","address":"西東京市住吉町6-15-6住吉会館2階","lat":35.74402,"lon":139.55215},{"name":"西東京市子ども家庭支援センター","province":"東京都","city":"西東京市","address":"西東京市住吉町6-15-6住吉会館1階","lat":35.74402,"lon":139.55216},{"name":"田無高等学校","province":"東京都","city":"西東京市","address":"東京都西東京市向台町5丁目4-34","lat":35.72048804,"lon":139.52920996},{"name":"保谷高等学校","province":"東京都","city":"西東京市","address":"東京都西東京市住吉町5丁目8-23","lat":35.74579123,"lon":139.55540942},{"name":"田無工業高等学校","province":"東京都","city":"西東京市","address":"東京都西東京市向台町1丁目9-1","lat":35.72006073,"lon":139.54860553},{"name":"シュプロスひばりヶ丘教室","province":"東京都","city":"西東京市","address":"西東京市谷戸町二丁目15番13号","lat":35.748988,"lon":139.543105},{"name":"たまみずきひばり","province":"東京都","city":"西東京市","address":"西東京市北原町1-38-2","lat":35.738011,"lon":139.545997},{"name":"療育型児童デイサービスさざんか第１","province":"東京都","city":"西東京市","address":"西東京市田無町7-8-14","lat":35.732873,"lon":139.530581},{"name":"くろーばーきっず","province":"東京都","city":"西東京市","address":"西東京市田無町4-17-14","lat":35.729365,"lon":139.535556},{"name":"療育型児童デイサービスさざんか第５","province":"東京都","city":"西東京市","address":"西東京市田無町5-5-12","lat":35.731809,"lon":139.536209},{"name":"放課後等デイサービス　らぷあ田無","province":"東京都","city":"西東京市","address":"西東京市向台町1-16-20ふじマンション2階B号","lat":35.719558,"lon":139.543331},{"name":"ととろクラブ","province":"東京都","city":"西東京市","address":"西東京市芝久保町2-22-33","lat":35.725984,"lon":139.520824},{"name":"ととろキッズ","province":"東京都","city":"西東京市","address":"西東京市芝久保町2-22-32-102","lat":35.726248,"lon":139.52061},{"name":"ジョブチャレンジひばり","province":"東京都","city":"西東京市","address":"西東京市ひばりが丘3-1-23","lat":35.745766,"lon":139.537066},{"name":"シュプロスひばりヶ丘教室Ⅱ","province":"東京都","city":"西東京市","address":"西東京市ひばりが丘1-8-24","lat":35.750663,"lon":139.542288},{"name":"Pur　aile　ひばりが丘","province":"東京都","city":"西東京市","address":"西東京市ひばりが丘北3-7-14メゾンウィステリア1階","lat":35.75269,"lon":139.547988},{"name":"くまさん　保谷教室","province":"東京都","city":"西東京市","address":"西東京市東町二丁目9番7号","lat":35.746577,"lon":139.561434},{"name":"ＳＴＥＰ保谷","province":"東京都","city":"西東京市","address":"西東京市東町3-5-5","lat":35.747408,"lon":139.56625},{"name":"りぼん","province":"東京都","city":"西東京市","address":"西東京市保谷町2-10-12菊池ビル102号","lat":35.73036,"lon":139.554699},{"name":"ＳＴＥＰ西東京","province":"東京都","city":"西東京市","address":"西東京市保谷町1-8-4","lat":35.734434,"lon":139.555735},{"name":"ウイング西東京","province":"東京都","city":"西東京市","address":"西東京市東伏見2-4-10","lat":35.728263,"lon":139.563515},{"name":"りぼんＵ","province":"東京都","city":"西東京市","address":"西東京市柳沢6-4-3-106","lat":35.72736,"lon":139.552658},{"name":"西東京市子ども家庭支援センター","province":"東京都","city":"西東京市","address":"西東京市住吉町6-15-6住吉会館1階","lat":35.744433,"lon":139.55129},{"name":"西東京市子ども家庭支援センター","province":"東京都","city":"西東京市","address":"西東京市住吉町6-15-6住吉会館2階","lat":35.74402,"lon":139.55215},{"name":"西東京市子ども家庭支援センター","province":"東京都","city":"西東京市","address":"西東京市住吉町6-15-6住吉会館1階","lat":35.74402,"lon":139.55216},{"name":"田無高等学校","province":"東京都","city":"西東京市","address":"東京都西東京市向台町5丁目4-34","lat":35.72048804,"lon":139.52920996},{"name":"保谷高等学校","province":"東京都","city":"西東京市","address":"東京都西東京市住吉町5丁目8-23","lat":35.74579123,"lon":139.55540942},{"name":"田無工業高等学校","province":"東京都","city":"西東京市","address":"東京都西東京市向台町1丁目9-1","lat":35.72006073,"lon":139.54860553},{"name":"シュプロスひばりヶ丘教室","province":"東京都","city":"西東京市","address":"西東京市谷戸町二丁目15番13号","lat":35.748988,"lon":139.543105},{"name":"たまみずきひばり","province":"東京都","city":"西東京市","address":"西東京市北原町1-38-2","lat":35.738011,"lon":139.545997},{"name":"療育型児童デイサービスさざんか第１","province":"東京都","city":"西東京市","address":"西東京市田無町7-8-14","lat":35.732873,"lon":139.530581},{"name":"くろーばーきっず","province":"東京都","city":"西東京市","address":"西東京市田無町4-17-14","lat":35.729365,"lon":139.535556},{"name":"療育型児童デイサービスさざんか第５","province":"東京都","city":"西東京市","address":"西東京市田無町5-5-12","lat":35.731809,"lon":139.536209},{"name":"放課後等デイサービス　らぷあ田無","province":"東京都","city":"西東京市","address":"西東京市向台町1-16-20ふじマンション2階B号","lat":35.719558,"lon":139.543331},{"name":"ととろクラブ","province":"東京都","city":"西東京市","address":"西東京市芝久保町2-22-33","lat":35.725984,"lon":139.520824},{"name":"ととろキッズ","province":"東京都","city":"西東京市","address":"西東京市芝久保町2-22-32-102","lat":35.726248,"lon":139.52061},{"name":"ジョブチャレンジひばり","province":"東京都","city":"西東京市","address":"西東京市ひばりが丘3-1-23","lat":35.745766,"lon":139.537066},{"name":"シュプロスひばりヶ丘教室Ⅱ","province":"東京都","city":"西東京市","address":"西東京市ひばりが丘1-8-24","lat":35.750663,"lon":139.542288},{"name":"Pur　aile　ひばりが丘","province":"東京都","city":"西東京市","address":"西東京市ひばりが丘北3-7-14メゾンウィステリア1階","lat":35.75269,"lon":139.547988},{"name":"くまさん　保谷教室","province":"東京都","city":"西東京市","address":"西東京市東町二丁目9番7号","lat":35.746577,"lon":139.561434},{"name":"ＳＴＥＰ保谷","province":"東京都","city":"西東京市","address":"西東京市東町3-5-5","lat":35.747408,"lon":139.56625},{"name":"りぼん","province":"東京都","city":"西東京市","address":"西東京市保谷町2-10-12菊池ビル102号","lat":35.73036,"lon":139.554699},{"name":"ＳＴＥＰ西東京","province":"東京都","city":"西東京市","address":"西東京市保谷町1-8-4","lat":35.734434,"lon":139.555735},{"name":"ウイング西東京","province":"東京都","city":"西東京市","address":"西東京市東伏見2-4-10","lat":35.728263,"lon":139.563515},{"name":"りぼんＵ","province":"東京都","city":"西東京市","address":"西東京市柳沢6-4-3-106","lat":35.72736,"lon":139.552658},{"name":"西東京市子ども家庭支援センター","province":"東京都","city":"西東京市","address":"西東京市住吉町6-15-6住吉会館1階","lat":35.744433,"lon":139.55129},{"name":"西東京市子ども家庭支援センター","province":"東京都","city":"西東京市","address":"西東京市住吉町6-15-6住吉会館2階","lat":35.74402,"lon":139.55215},{"name":"西東京市子ども家庭支援センター","province":"東京都","city":"西東京市","address":"西東京市住吉町6-15-6住吉会館1階","lat":35.74402,"lon":139.55216},{"name":"田無高等学校","province":"東京都","city":"西東京市","address":"東京都西東京市向台町5丁目4-34","lat":35.72048804,"lon":139.52920996},{"name":"保谷高等学校","province":"東京都","city":"西東京市","address":"東京都西東京市住吉町5丁目8-23","lat":35.74579123,"lon":139.55540942},{"name":"田無工業高等学校","province":"東京都","city":"西東京市","address":"東京都西東京市向台町1丁目9-1","lat":35.72006073,"lon":139.54860553},{"name":"シュプロスひばりヶ丘教室","province":"東京都","city":"西東京市","address":"西東京市谷戸町二丁目15番13号","lat":35.748988,"lon":139.543105},{"name":"たまみずきひばり","province":"東京都","city":"西東京市","address":"西東京市北原町1-38-2","lat":35.738011,"lon":139.545997},{"name":"療育型児童デイサービスさざんか第１","province":"東京都","city":"西東京市","address":"西東京市田無町7-8-14","lat":35.732873,"lon":139.530581},{"name":"くろーばーきっず","province":"東京都","city":"西東京市","address":"西東京市田無町4-17-14","lat":35.729365,"lon":139.535556},{"name":"療育型児童デイサービスさざんか第５","province":"東京都","city":"西東京市","address":"西東京市田無町5-5-12","lat":35.731809,"lon":139.536209},{"name":"放課後等デイサービス　らぷあ田無","province":"東京都","city":"西東京市","address":"西東京市向台町1-16-20ふじマンション2階B号","lat":35.719558,"lon":139.543331},{"name":"ととろクラブ","province":"東京都","city":"西東京市","address":"西東京市芝久保町2-22-33","lat":35.725984,"lon":139.520824},{"name":"ととろキッズ","province":"東京都","city":"西東京市","address":"西東京市芝久保町2-22-32-102","lat":35.726248,"lon":139.52061},{"name":"ジョブチャレンジひばり","province":"東京都","city":"西東京市","address":"西東京市ひばりが丘3-1-23","lat":35.745766,"lon":139.537066},{"name":"シュプロスひばりヶ丘教室Ⅱ","province":"東京都","city":"西東京市","address":"西東京市ひばりが丘1-8-24","lat":35.750663,"lon":139.542288},{"name":"Pur　aile　ひばりが丘","province":"東京都","city":"西東京市","address":"西東京市ひばりが丘北3-7-14メゾンウィステリア1階","lat":35.75269,"lon":139.547988},{"name":"くまさん　保谷教室","province":"東京都","city":"西東京市","address":"西東京市東町二丁目9番7号","lat":35.746577,"lon":139.561434},{"name":"ＳＴＥＰ保谷","province":"東京都","city":"西東京市","address":"西東京市東町3-5-5","lat":35.747408,"lon":139.56625},{"name":"りぼん","province":"東京都","city":"西東京市","address":"西東京市保谷町2-10-12菊池ビル102号","lat":35.73036,"lon":139.554699},{"name":"ＳＴＥＰ西東京","province":"東京都","city":"西東京市","address":"西東京市保谷町1-8-4","lat":35.734434,"lon":139.555735},{"name":"ウイング西東京","province":"東京都","city":"西東京市","address":"西東京市東伏見2-4-10","lat":35.728263,"lon":139.563515},{"name":"りぼんＵ","province":"東京都","city":"西東京市","address":"西東京市柳沢6-4-3-106","lat":35.72736,"lon":139.552658},{"name":"西東京市子ども家庭支援センター","province":"東京都","city":"西東京市","address":"西東京市住吉町6-15-6住吉会館1階","lat":35.744433,"lon":139.55129},{"name":"西東京市子ども家庭支援センター","province":"東京都","city":"西東京市","address":"西東京市住吉町6-15-6住吉会館2階","lat":35.74402,"lon":139.55215},{"name":"西東京市子ども家庭支援センター","province":"東京都","city":"西東京市","address":"西東京市住吉町6-15-6住吉会館1階","lat":35.74402,"lon":139.55216},{"name":"田無高等学校","province":"東京都","city":"西東京市","address":"東京都西東京市向台町5丁目4-34","lat":35.72048804,"lon":139.52920996},{"name":"保谷高等学校","province":"東京都","city":"西東京市","address":"東京都西東京市住吉町5丁目8-23","lat":35.74579123,"lon":139.55540942},{"name":"田無工業高等学校","province":"東京都","city":"西東京市","address":"東京都西東京市向台町1丁目9-1","lat":35.72006073,"lon":139.54860553},{"name":"シュプロスひばりヶ丘教室","province":"東京都","city":"西東京市","address":"西東京市谷戸町二丁目15番13号","lat":35.748988,"lon":139.543105},{"name":"たまみずきひばり","province":"東京都","city":"西東京市","address":"西東京市北原町1-38-2","lat":35.738011,"lon":139.545997},{"name":"療育型児童デイサービスさざんか第１","province":"東京都","city":"西東京市","address":"西東京市田無町7-8-14","lat":35.732873,"lon":139.530581},{"name":"くろーばーきっず","province":"東京都","city":"西東京市","address":"西東京市田無町4-17-14","lat":35.729365,"lon":139.535556},{"name":"療育型児童デイサービスさざんか第５","province":"東京都","city":"西東京市","address":"西東京市田無町5-5-12","lat":35.731809,"lon":139.536209},{"name":"放課後等デイサービス　らぷあ田無","province":"東京都","city":"西東京市","address":"西東京市向台町1-16-20ふじマンション2階B号","lat":35.719558,"lon":139.543331},{"name":"ととろクラブ","province":"東京都","city":"西東京市","address":"西東京市芝久保町2-22-33","lat":35.725984,"lon":139.520824},{"name":"ととろキッズ","province":"東京都","city":"西東京市","address":"西東京市芝久保町2-22-32-102","lat":35.726248,"lon":139.52061},{"name":"ジョブチャレンジひばり","province":"東京都","city":"西東京市","address":"西東京市ひばりが丘3-1-23","lat":35.745766,"lon":139.537066},{"name":"シュプロスひばりヶ丘教室Ⅱ","province":"東京都","city":"西東京市","address":"西東京市ひばりが丘1-8-24","lat":35.750663,"lon":139.542288},{"name":"Pur　aile　ひばりが丘","province":"東京都","city":"西東京市","address":"西東京市ひばりが丘北3-7-14メゾンウィステリア1階","lat":35.75269,"lon":139.547988},{"name":"くまさん　保谷教室","province":"東京都","city":"西東京市","address":"西東京市東町二丁目9番7号","lat":35.746577,"lon":139.561434},{"name":"ＳＴＥＰ保谷","province":"東京都","city":"西東京市","address":"西東京市東町3-5-5","lat":35.747408,"lon":139.56625},{"name":"りぼん","province":"東京都","city":"西東京市","address":"西東京市保谷町2-10-12菊池ビル102号","lat":35.73036,"lon":139.554699},{"name":"ＳＴＥＰ西東京","province":"東京都","city":"西東京市","address":"西東京市保谷町1-8-4","lat":35.734434,"lon":139.555735},{"name":"ウイング西東京","province":"東京都","city":"西東京市","address":"西東京市東伏見2-4-10","lat":35.728263,"lon":139.563515},{"name":"りぼんＵ","province":"東京都","city":"西東京市","address":"西東京市柳沢6-4-3-106","lat":35.72736,"lon":139.552658},{"name":"西東京市子ども家庭支援センター","province":"東京都","city":"西東京市","address":"西東京市住吉町6-15-6住吉会館1階","lat":35.744433,"lon":139.55129},{"name":"西東京市子ども家庭支援センター","province":"東京都","city":"西東京市","address":"西東京市住吉町6-15-6住吉会館2階","lat":35.74402,"lon":139.55215},{"name":"西東京市子ども家庭支援センター","province":"東京都","city":"西東京市","address":"西東京市住吉町6-15-6住吉会館1階","lat":35.74402,"lon":139.55216},{"name":"田無高等学校","province":"東京都","city":"西東京市","address":"東京都西東京市向台町5丁目4-34","lat":35.72048804,"lon":139.52920996},{"name":"保谷高等学校","province":"東京都","city":"西東京市","address":"東京都西東京市住吉町5丁目8-23","lat":35.74579123,"lon":139.55540942},{"name":"田無工業高等学校","province":"東京都","city":"西東京市","address":"東京都西東京市向台町1丁目9-1","lat":35.72006073,"lon":139.54860553},{"name":"シュプロスひばりヶ丘教室","province":"東京都","city":"西東京市","address":"西東京市谷戸町二丁目15番13号","lat":35.748988,"lon":139.543105},{"name":"たまみずきひばり","province":"東京都","city":"西東京市","address":"西東京市北原町1-38-2","lat":35.738011,"lon":139.545997},{"name":"療育型児童デイサービスさざんか第１","province":"東京都","city":"西東京市","address":"西東京市田無町7-8-14","lat":35.732873,"lon":139.530581},{"name":"くろーばーきっず","province":"東京都","city":"西東京市","address":"西東京市田無町4-17-14","lat":35.729365,"lon":139.535556},{"name":"療育型児童デイサービスさざんか第５","province":"東京都","city":"西東京市","address":"西東京市田無町5-5-12","lat":35.731809,"lon":139.536209},{"name":"放課後等デイサービス　らぷあ田無","province":"東京都","city":"西東京市","address":"西東京市向台町1-16-20ふじマンション2階B号","lat":35.719558,"lon":139.543331},{"name":"ととろクラブ","province":"東京都","city":"西東京市","address":"西東京市芝久保町2-22-33","lat":35.725984,"lon":139.520824},{"name":"ととろキッズ","province":"東京都","city":"西東京市","address":"西東京市芝久保町2-22-32-102","lat":35.726248,"lon":139.52061},{"name":"ジョブチャレンジひばり","province":"東京都","city":"西東京市","address":"西東京市ひばりが丘3-1-23","lat":35.745766,"lon":139.537066},{"name":"シュプロスひばりヶ丘教室Ⅱ","province":"東京都","city":"西東京市","address":"西東京市ひばりが丘1-8-24","lat":35.750663,"lon":139.542288},{"name":"Pur　aile　ひばりが丘","province":"東京都","city":"西東京市","address":"西東京市ひばりが丘北3-7-14メゾンウィステリア1階","lat":35.75269,"lon":139.547988},{"name":"くまさん　保谷教室","province":"東京都","city":"西東京市","address":"西東京市東町二丁目9番7号","lat":35.746577,"lon":139.561434},{"name":"ＳＴＥＰ保谷","province":"東京都","city":"西東京市","address":"西東京市東町3-5-5","lat":35.747408,"lon":139.56625},{"name":"りぼん","province":"東京都","city":"西東京市","address":"西東京市保谷町2-10-12菊池ビル102号","lat":35.73036,"lon":139.554699},{"name":"ＳＴＥＰ西東京","province":"東京都","city":"西東京市","address":"西東京市保谷町1-8-4","lat":35.734434,"lon":139.555735},{"name":"ウイング西東京","province":"東京都","city":"西東京市","address":"西東京市東伏見2-4-10","lat":35.728263,"lon":139.563515},{"name":"りぼんＵ","province":"東京都","city":"西東京市","address":"西東京市柳沢6-4-3-106","lat":35.72736,"lon":139.552658},{"name":"西東京市子ども家庭支援センター","province":"東京都","city":"西東京市","address":"西東京市住吉町6-15-6住吉会館1階","lat":35.744433,"lon":139.55129},{"name":"西東京市子ども家庭支援センター","province":"東京都","city":"西東京市","address":"西東京市住吉町6-15-6住吉会館2階","lat":35.74402,"lon":139.55215},{"name":"西東京市子ども家庭支援センター","province":"東京都","city":"西東京市","address":"西東京市住吉町6-15-6住吉会館1階","lat":35.74402,"lon":139.55216},{"name":"田無高等学校","province":"東京都","city":"西東京市","address":"東京都西東京市向台町5丁目4-34","lat":35.72048804,"lon":139.52920996},{"name":"保谷高等学校","province":"東京都","city":"西東京市","address":"東京都西東京市住吉町5丁目8-23","lat":35.74579123,"lon":139.55540942},{"name":"田無工業高等学校","province":"東京都","city":"西東京市","address":"東京都西東京市向台町1丁目9-1","lat":35.72006073,"lon":139.54860553},{"name":"シュプロスひばりヶ丘教室","province":"東京都","city":"西東京市","address":"西東京市谷戸町二丁目15番13号","lat":35.748988,"lon":139.543105},{"name":"たまみずきひばり","province":"東京都","city":"西東京市","address":"西東京市北原町1-38-2","lat":35.738011,"lon":139.545997},{"name":"療育型児童デイサービスさざんか第１","province":"東京都","city":"西東京市","address":"西東京市田無町7-8-14","lat":35.732873,"lon":139.530581},{"name":"くろーばーきっず","province":"東京都","city":"西東京市","address":"西東京市田無町4-17-14","lat":35.729365,"lon":139.535556},{"name":"療育型児童デイサービスさざんか第５","province":"東京都","city":"西東京市","address":"西東京市田無町5-5-12","lat":35.731809,"lon":139.536209},{"name":"放課後等デイサービス　らぷあ田無","province":"東京都","city":"西東京市","address":"西東京市向台町1-16-20ふじマンション2階B号","lat":35.719558,"lon":139.543331},{"name":"ととろクラブ","province":"東京都","city":"西東京市","address":"西東京市芝久保町2-22-33","lat":35.725984,"lon":139.520824},{"name":"ととろキッズ","province":"東京都","city":"西東京市","address":"西東京市芝久保町2-22-32-102","lat":35.726248,"lon":139.52061},{"name":"ジョブチャレンジひばり","province":"東京都","city":"西東京市","address":"西東京市ひばりが丘3-1-23","lat":35.745766,"lon":139.537066},{"name":"シュプロスひばりヶ丘教室Ⅱ","province":"東京都","city":"西東京市","address":"西東京市ひばりが丘1-8-24","lat":35.750663,"lon":139.542288},{"name":"Pur　aile　ひばりが丘","province":"東京都","city":"西東京市","address":"西東京市ひばりが丘北3-7-14メゾンウィステリア1階","lat":35.75269,"lon":139.547988},{"name":"くまさん　保谷教室","province":"東京都","city":"西東京市","address":"西東京市東町二丁目9番7号","lat":35.746577,"lon":139.561434},{"name":"ＳＴＥＰ保谷","province":"東京都","city":"西東京市","address":"西東京市東町3-5-5","lat":35.747408,"lon":139.56625},{"name":"りぼん","province":"東京都","city":"西東京市","address":"西東京市保谷町2-10-12菊池ビル102号","lat":35.73036,"lon":139.554699},{"name":"ＳＴＥＰ西東京","province":"東京都","city":"西東京市","address":"西東京市保谷町1-8-4","lat":35.734434,"lon":139.555735},{"name":"ウイング西東京","province":"東京都","city":"西東京市","address":"西東京市東伏見2-4-10","lat":35.728263,"lon":139.563515},{"name":"りぼんＵ","province":"東京都","city":"西東京市","address":"西東京市柳沢6-4-3-106","lat":35.72736,"lon":139.552658},{"name":"西東京市子ども家庭支援センター","province":"東京都","city":"西東京市","address":"西東京市住吉町6-15-6住吉会館1階","lat":35.744433,"lon":139.55129},{"name":"西東京市子ども家庭支援センター","province":"東京都","city":"西東京市","address":"西東京市住吉町6-15-6住吉会館2階","lat":35.74402,"lon":139.55215},{"name":"西東京市子ども家庭支援センター","province":"東京都","city":"西東京市","address":"西東京市住吉町6-15-6住吉会館1階","lat":35.74402,"lon":139.55216},{"name":"田無高等学校","province":"東京都","city":"西東京市","address":"東京都西東京市向台町5丁目4-34","lat":35.72048804,"lon":139.52920996},{"name":"保谷高等学校","province":"東京都","city":"西東京市","address":"東京都西東京市住吉町5丁目8-23","lat":35.74579123,"lon":139.55540942},{"name":"田無工業高等学校","province":"東京都","city":"西東京市","address":"東京都西東京市向台町1丁目9-1","lat":35.72006073,"lon":139.54860553},{"name":"シュプロスひばりヶ丘教室","province":"東京都","city":"西東京市","address":"西東京市谷戸町二丁目15番13号","lat":35.748988,"lon":139.543105},{"name":"たまみずきひばり","province":"東京都","city":"西東京市","address":"西東京市北原町1-38-2","lat":35.738011,"lon":139.545997},{"name":"療育型児童デイサービスさざんか第１","province":"東京都","city":"西東京市","address":"西東京市田無町7-8-14","lat":35.732873,"lon":139.530581},{"name":"くろーばーきっず","province":"東京都","city":"西東京市","address":"西東京市田無町4-17-14","lat":35.729365,"lon":139.535556},{"name":"療育型児童デイサービスさざんか第５","province":"東京都","city":"西東京市","address":"西東京市田無町5-5-12","lat":35.731809,"lon":139.536209},{"name":"放課後等デイサービス　らぷあ田無","province":"東京都","city":"西東京市","address":"西東京市向台町1-16-20ふじマンション2階B号","lat":35.719558,"lon":139.543331},{"name":"ととろクラブ","province":"東京都","city":"西東京市","address":"西東京市芝久保町2-22-33","lat":35.725984,"lon":139.520824},{"name":"ととろキッズ","province":"東京都","city":"西東京市","address":"西東京市芝久保町2-22-32-102","lat":35.726248,"lon":139.52061},{"name":"ジョブチャレンジひばり","province":"東京都","city":"西東京市","address":"西東京市ひばりが丘3-1-23","lat":35.745766,"lon":139.537066},{"name":"シュプロスひばりヶ丘教室Ⅱ","province":"東京都","city":"西東京市","address":"西東京市ひばりが丘1-8-24","lat":35.750663,"lon":139.542288},{"name":"Pur　aile　ひばりが丘","province":"東京都","city":"西東京市","address":"西東京市ひばりが丘北3-7-14メゾンウィステリア1階","lat":35.75269,"lon":139.547988},{"name":"くまさん　保谷教室","province":"東京都","city":"西東京市","address":"西東京市東町二丁目9番7号","lat":35.746577,"lon":139.561434},{"name":"ＳＴＥＰ保谷","province":"東京都","city":"西東京市","address":"西東京市東町3-5-5","lat":35.747408,"lon":139.56625},{"name":"りぼん","province":"東京都","city":"西東京市","address":"西東京市保谷町2-10-12菊池ビル102号","lat":35.73036,"lon":139.554699},{"name":"ＳＴＥＰ西東京","province":"東京都","city":"西東京市","address":"西東京市保谷町1-8-4","lat":35.734434,"lon":139.555735},{"name":"ウイング西東京","province":"東京都","city":"西東京市","address":"西東京市東伏見2-4-10","lat":35.728263,"lon":139.563515},{"name":"りぼんＵ","province":"東京都","city":"西東京市","address":"西東京市柳沢6-4-3-106","lat":35.72736,"lon":139.552658},{"name":"西東京市子ども家庭支援センター","province":"東京都","city":"西東京市","address":"西東京市住吉町6-15-6住吉会館1階","lat":35.744433,"lon":139.55129},{"name":"西東京市子ども家庭支援センター","province":"東京都","city":"西東京市","address":"西東京市住吉町6-15-6住吉会館2階","lat":35.74402,"lon":139.55215},{"name":"西東京市子ども家庭支援センター","province":"東京都","city":"西東京市","address":"西東京市住吉町6-15-6住吉会館1階","lat":35.74402,"lon":139.55216},{"name":"田無高等学校","province":"東京都","city":"西東京市","address":"東京都西東京市向台町5丁目4-34","lat":35.72048804,"lon":139.52920996},{"name":"保谷高等学校","province":"東京都","city":"西東京市","address":"東京都西東京市住吉町5丁目8-23","lat":35.74579123,"lon":139.55540942},{"name":"田無工業高等学校","province":"東京都","city":"西東京市","address":"東京都西東京市向台町1丁目9-1","lat":35.72006073,"lon":139.54860553},{"name":"シュプロスひばりヶ丘教室","province":"東京都","city":"西東京市","address":"西東京市谷戸町二丁目15番13号","lat":35.748988,"lon":139.543105},{"name":"たまみずきひばり","province":"東京都","city":"西東京市","address":"西東京市北原町1-38-2","lat":35.738011,"lon":139.545997},{"name":"療育型児童デイサービスさざんか第１","province":"東京都","city":"西東京市","address":"西東京市田無町7-8-14","lat":35.732873,"lon":139.530581},{"name":"くろーばーきっず","province":"東京都","city":"西東京市","address":"西東京市田無町4-17-14","lat":35.729365,"lon":139.535556},{"name":"療育型児童デイサービスさざんか第５","province":"東京都","city":"西東京市","address":"西東京市田無町5-5-12","lat":35.731809,"lon":139.536209},{"name":"放課後等デイサービス　らぷあ田無","province":"東京都","city":"西東京市","address":"西東京市向台町1-16-20ふじマンション2階B号","lat":35.719558,"lon":139.543331},{"name":"ととろクラブ","province":"東京都","city":"西東京市","address":"西東京市芝久保町2-22-33","lat":35.725984,"lon":139.520824},{"name":"ととろキッズ","province":"東京都","city":"西東京市","address":"西東京市芝久保町2-22-32-102","lat":35.726248,"lon":139.52061},{"name":"ジョブチャレンジひばり","province":"東京都","city":"西東京市","address":"西東京市ひばりが丘3-1-23","lat":35.745766,"lon":139.537066},{"name":"シュプロスひばりヶ丘教室Ⅱ","province":"東京都","city":"西東京市","address":"西東京市ひばりが丘1-8-24","lat":35.750663,"lon":139.542288},{"name":"Pur　aile　ひばりが丘","province":"東京都","city":"西東京市","address":"西東京市ひばりが丘北3-7-14メゾンウィステリア1階","lat":35.75269,"lon":139.547988},{"name":"くまさん　保谷教室","province":"東京都","city":"西東京市","address":"西東京市東町二丁目9番7号","lat":35.746577,"lon":139.561434},{"name":"ＳＴＥＰ保谷","province":"東京都","city":"西東京市","address":"西東京市東町3-5-5","lat":35.747408,"lon":139.56625},{"name":"りぼん","province":"東京都","city":"西東京市","address":"西東京市保谷町2-10-12菊池ビル102号","lat":35.73036,"lon":139.554699},{"name":"ＳＴＥＰ西東京","province":"東京都","city":"西東京市","address":"西東京市保谷町1-8-4","lat":35.734434,"lon":139.555735},{"name":"ウイング西東京","province":"東京都","city":"西東京市","address":"西東京市東伏見2-4-10","lat":35.728263,"lon":139.563515},{"name":"りぼんＵ","province":"東京都","city":"西東京市","address":"西東京市柳沢6-4-3-106","lat":35.72736,"lon":139.552658},{"name":"西東京市子ども家庭支援センター","province":"東京都","city":"西東京市","address":"西東京市住吉町6-15-6住吉会館1階","lat":35.744433,"lon":139.55129},{"name":"西東京市子ども家庭支援センター","province":"東京都","city":"西東京市","address":"西東京市住吉町6-15-6住吉会館2階","lat":35.74402,"lon":139.55215},{"name":"西東京市子ども家庭支援センター","province":"東京都","city":"西東京市","address":"西東京市住吉町6-15-6住吉会館1階","lat":35.74402,"lon":139.55216},{"name":"田無高等学校","province":"東京都","city":"西東京市","address":"東京都西東京市向台町5丁目4-34","lat":35.72048804,"lon":139.52920996},{"name":"保谷高等学校","province":"東京都","city":"西東京市","address":"東京都西東京市住吉町5丁目8-23","lat":35.74579123,"lon":139.55540942},{"name":"田無工業高等学校","province":"東京都","city":"西東京市","address":"東京都西東京市向台町1丁目9-1","lat":35.72006073,"lon":139.54860553},{"name":"シュプロスひばりヶ丘教室","province":"東京都","city":"西東京市","address":"西東京市谷戸町二丁目15番13号","lat":35.748988,"lon":139.543105},{"name":"たまみずきひばり","province":"東京都","city":"西東京市","address":"西東京市北原町1-38-2","lat":35.738011,"lon":139.545997},{"name":"療育型児童デイサービスさざんか第１","province":"東京都","city":"西東京市","address":"西東京市田無町7-8-14","lat":35.732873,"lon":139.530581},{"name":"くろーばーきっず","province":"東京都","city":"西東京市","address":"西東京市田無町4-17-14","lat":35.729365,"lon":139.535556},{"name":"療育型児童デイサービスさざんか第５","province":"東京都","city":"西東京市","address":"西東京市田無町5-5-12","lat":35.731809,"lon":139.536209},{"name":"放課後等デイサービス　らぷあ田無","province":"東京都","city":"西東京市","address":"西東京市向台町1-16-20ふじマンション2階B号","lat":35.719558,"lon":139.543331},{"name":"ととろクラブ","province":"東京都","city":"西東京市","address":"西東京市芝久保町2-22-33","lat":35.725984,"lon":139.520824},{"name":"ととろキッズ","province":"東京都","city":"西東京市","address":"西東京市芝久保町2-22-32-102","lat":35.726248,"lon":139.52061},{"name":"ジョブチャレンジひばり","province":"東京都","city":"西東京市","address":"西東京市ひばりが丘3-1-23","lat":35.745766,"lon":139.537066},{"name":"シュプロスひばりヶ丘教室Ⅱ","province":"東京都","city":"西東京市","address":"西東京市ひばりが丘1-8-24","lat":35.750663,"lon":139.542288},{"name":"Pur　aile　ひばりが丘","province":"東京都","city":"西東京市","address":"西東京市ひばりが丘北3-7-14メゾンウィステリア1階","lat":35.75269,"lon":139.547988},{"name":"くまさん　保谷教室","province":"東京都","city":"西東京市","address":"西東京市東町二丁目9番7号","lat":35.746577,"lon":139.561434},{"name":"ＳＴＥＰ保谷","province":"東京都","city":"西東京市","address":"西東京市東町3-5-5","lat":35.747408,"lon":139.56625},{"name":"りぼん","province":"東京都","city":"西東京市","address":"西東京市保谷町2-10-12菊池ビル102号","lat":35.73036,"lon":139.554699},{"name":"ＳＴＥＰ西東京","province":"東京都","city":"西東京市","address":"西東京市保谷町1-8-4","lat":35.734434,"lon":139.555735},{"name":"ウイング西東京","province":"東京都","city":"西東京市","address":"西東京市東伏見2-4-10","lat":35.728263,"lon":139.563515},{"name":"りぼんＵ","province":"東京都","city":"西東京市","address":"西東京市柳沢6-4-3-106","lat":35.72736,"lon":139.552658},{"name":"西東京市子ども家庭支援センター","province":"東京都","city":"西東京市","address":"西東京市住吉町6-15-6住吉会館1階","lat":35.744433,"lon":139.55129},{"name":"西東京市子ども家庭支援センター","province":"東京都","city":"西東京市","address":"西東京市住吉町6-15-6住吉会館2階","lat":35.74402,"lon":139.55215},{"name":"西東京市子ども家庭支援センター","province":"東京都","city":"西東京市","address":"西東京市住吉町6-15-6住吉会館1階","lat":35.74402,"lon":139.55216},{"name":"田無高等学校","province":"東京都","city":"西東京市","address":"東京都西東京市向台町5丁目4-34","lat":35.72048804,"lon":139.52920996},{"name":"保谷高等学校","province":"東京都","city":"西東京市","address":"東京都西東京市住吉町5丁目8-23","lat":35.74579123,"lon":139.55540942},{"name":"田無工業高等学校","province":"東京都","city":"西東京市","address":"東京都西東京市向台町1丁目9-1","lat":35.72006073,"lon":139.54860553},{"name":"シュプロスひばりヶ丘教室","province":"東京都","city":"西東京市","address":"西東京市谷戸町二丁目15番13号","lat":35.748988,"lon":139.543105},{"name":"たまみずきひばり","province":"東京都","city":"西東京市","address":"西東京市北原町1-38-2","lat":35.738011,"lon":139.545997},{"name":"療育型児童デイサービスさざんか第１","province":"東京都","city":"西東京市","address":"西東京市田無町7-8-14","lat":35.732873,"lon":139.530581},{"name":"くろーばーきっず","province":"東京都","city":"西東京市","address":"西東京市田無町4-17-14","lat":35.729365,"lon":139.535556},{"name":"療育型児童デイサービスさざんか第５","province":"東京都","city":"西東京市","address":"西東京市田無町5-5-12","lat":35.731809,"lon":139.536209},{"name":"放課後等デイサービス　らぷあ田無","province":"東京都","city":"西東京市","address":"西東京市向台町1-16-20ふじマンション2階B号","lat":35.719558,"lon":139.543331},{"name":"ととろクラブ","province":"東京都","city":"西東京市","address":"西東京市芝久保町2-22-33","lat":35.725984,"lon":139.520824},{"name":"ととろキッズ","province":"東京都","city":"西東京市","address":"西東京市芝久保町2-22-32-102","lat":35.726248,"lon":139.52061},{"name":"ジョブチャレンジひばり","province":"東京都","city":"西東京市","address":"西東京市ひばりが丘3-1-23","lat":35.745766,"lon":139.537066},{"name":"シュプロスひばりヶ丘教室Ⅱ","province":"東京都","city":"西東京市","address":"西東京市ひばりが丘1-8-24","lat":35.750663,"lon":139.542288},{"name":"Pur　aile　ひばりが丘","province":"東京都","city":"西東京市","address":"西東京市ひばりが丘北3-7-14メゾンウィステリア1階","lat":35.75269,"lon":139.547988},{"name":"くまさん　保谷教室","province":"東京都","city":"西東京市","address":"西東京市東町二丁目9番7号","lat":35.746577,"lon":139.561434},{"name":"ＳＴＥＰ保谷","province":"東京都","city":"西東京市","address":"西東京市東町3-5-5","lat":35.747408,"lon":139.56625},{"name":"りぼん","province":"東京都","city":"西東京市","address":"西東京市保谷町2-10-12菊池ビル102号","lat":35.73036,"lon":139.554699},{"name":"ＳＴＥＰ西東京","province":"東京都","city":"西東京市","address":"西東京市保谷町1-8-4","lat":35.734434,"lon":139.555735},{"name":"ウイング西東京","province":"東京都","city":"西東京市","address":"西東京市東伏見2-4-10","lat":35.728263,"lon":139.563515},{"name":"りぼんＵ","province":"東京都","city":"西東京市","address":"西東京市柳沢6-4-3-106","lat":35.72736,"lon":139.552658},{"name":"西東京市子ども家庭支援センター","province":"東京都","city":"西東京市","address":"西東京市住吉町6-15-6住吉会館1階","lat":35.744433,"lon":139.55129},{"name":"西東京市子ども家庭支援センター","province":"東京都","city":"西東京市","address":"西東京市住吉町6-15-6住吉会館2階","lat":35.74402,"lon":139.55215},{"name":"西東京市子ども家庭支援センター","province":"東京都","city":"西東京市","address":"西東京市住吉町6-15-6住吉会館1階","lat":35.74402,"lon":139.55216},{"name":"田無高等学校","province":"東京都","city":"西東京市","address":"東京都西東京市向台町5丁目4-34","lat":35.72048804,"lon":139.52920996},{"name":"保谷高等学校","province":"東京都","city":"西東京市","address":"東京都西東京市住吉町5丁目8-23","lat":35.74579123,"lon":139.55540942},{"name":"田無工業高等学校","province":"東京都","city":"西東京市","address":"東京都西東京市向台町1丁目9-1","lat":35.72006073,"lon":139.54860553},{"name":"シュプロスひばりヶ丘教室","province":"東京都","city":"西東京市","address":"西東京市谷戸町二丁目15番13号","lat":35.748988,"lon":139.543105},{"name":"たまみずきひばり","province":"東京都","city":"西東京市","address":"西東京市北原町1-38-2","lat":35.738011,"lon":139.545997},{"name":"療育型児童デイサービスさざんか第１","province":"東京都","city":"西東京市","address":"西東京市田無町7-8-14","lat":35.732873,"lon":139.530581},{"name":"くろーばーきっず","province":"東京都","city":"西東京市","address":"西東京市田無町4-17-14","lat":35.729365,"lon":139.535556},{"name":"療育型児童デイサービスさざんか第５","province":"東京都","city":"西東京市","address":"西東京市田無町5-5-12","lat":35.731809,"lon":139.536209},{"name":"放課後等デイサービス　らぷあ田無","province":"東京都","city":"西東京市","address":"西東京市向台町1-16-20ふじマンション2階B号","lat":35.719558,"lon":139.543331},{"name":"ととろクラブ","province":"東京都","city":"西東京市","address":"西東京市芝久保町2-22-33","lat":35.725984,"lon":139.520824},{"name":"ととろキッズ","province":"東京都","city":"西東京市","address":"西東京市芝久保町2-22-32-102","lat":35.726248,"lon":139.52061},{"name":"ジョブチャレンジひばり","province":"東京都","city":"西東京市","address":"西東京市ひばりが丘3-1-23","lat":35.745766,"lon":139.537066},{"name":"シュプロスひばりヶ丘教室Ⅱ","province":"東京都","city":"西東京市","address":"西東京市ひばりが丘1-8-24","lat":35.750663,"lon":139.542288},{"name":"Pur　aile　ひばりが丘","province":"東京都","city":"西東京市","address":"西東京市ひばりが丘北3-7-14メゾンウィステリア1階","lat":35.75269,"lon":139.547988},{"name":"くまさん　保谷教室","province":"東京都","city":"西東京市","address":"西東京市東町二丁目9番7号","lat":35.746577,"lon":139.561434},{"name":"ＳＴＥＰ保谷","province":"東京都","city":"西東京市","address":"西東京市東町3-5-5","lat":35.747408,"lon":139.56625},{"name":"りぼん","province":"東京都","city":"西東京市","address":"西東京市保谷町2-10-12菊池ビル102号","lat":35.73036,"lon":139.554699},{"name":"ＳＴＥＰ西東京","province":"東京都","city":"西東京市","address":"西東京市保谷町1-8-4","lat":35.734434,"lon":139.555735},{"name":"ウイング西東京","province":"東京都","city":"西東京市","address":"西東京市東伏見2-4-10","lat":35.728263,"lon":139.563515},{"name":"りぼんＵ","province":"東京都","city":"西東京市","address":"西東京市柳沢6-4-3-106","lat":35.72736,"lon":139.552658},{"name":"西東京市子ども家庭支援センター","province":"東京都","city":"西東京市","address":"西東京市住吉町6-15-6住吉会館1階","lat":35.744433,"lon":139.55129},{"name":"西東京市子ども家庭支援センター","province":"東京都","city":"西東京市","address":"西東京市住吉町6-15-6住吉会館2階","lat":35.74402,"lon":139.55215},{"name":"西東京市子ども家庭支援センター","province":"東京都","city":"西東京市","address":"西東京市住吉町6-15-6住吉会館1階","lat":35.74402,"lon":139.55216},{"name":"田無高等学校","province":"東京都","city":"西東京市","address":"東京都西東京市向台町5丁目4-34","lat":35.72048804,"lon":139.52920996},{"name":"保谷高等学校","province":"東京都","city":"西東京市","address":"東京都西東京市住吉町5丁目8-23","lat":35.74579123,"lon":139.55540942},{"name":"田無工業高等学校","province":"東京都","city":"西東京市","address":"東京都西東京市向台町1丁目9-1","lat":35.72006073,"lon":139.54860553},{"name":"シュプロスひばりヶ丘教室","province":"東京都","city":"西東京市","address":"西東京市谷戸町二丁目15番13号","lat":35.748988,"lon":139.543105},{"name":"たまみずきひばり","province":"東京都","city":"西東京市","address":"西東京市北原町1-38-2","lat":35.738011,"lon":139.545997},{"name":"療育型児童デイサービスさざんか第１","province":"東京都","city":"西東京市","address":"西東京市田無町7-8-14","lat":35.732873,"lon":139.530581},{"name":"くろーばーきっず","province":"東京都","city":"西東京市","address":"西東京市田無町4-17-14","lat":35.729365,"lon":139.535556},{"name":"療育型児童デイサービスさざんか第５","province":"東京都","city":"西東京市","address":"西東京市田無町5-5-12","lat":35.731809,"lon":139.536209},{"name":"放課後等デイサービス　らぷあ田無","province":"東京都","city":"西東京市","address":"西東京市向台町1-16-20ふじマンション2階B号","lat":35.719558,"lon":139.543331},{"name":"ととろクラブ","province":"東京都","city":"西東京市","address":"西東京市芝久保町2-22-33","lat":35.725984,"lon":139.520824},{"name":"ととろキッズ","province":"東京都","city":"西東京市","address":"西東京市芝久保町2-22-32-102","lat":35.726248,"lon":139.52061},{"name":"ジョブチャレンジひばり","province":"東京都","city":"西東京市","address":"西東京市ひばりが丘3-1-23","lat":35.745766,"lon":139.537066},{"name":"シュプロスひばりヶ丘教室Ⅱ","province":"東京都","city":"西東京市","address":"西東京市ひばりが丘1-8-24","lat":35.750663,"lon":139.542288},{"name":"Pur　aile　ひばりが丘","province":"東京都","city":"西東京市","address":"西東京市ひばりが丘北3-7-14メゾンウィステリア1階","lat":35.75269,"lon":139.547988},{"name":"くまさん　保谷教室","province":"東京都","city":"西東京市","address":"西東京市東町二丁目9番7号","lat":35.746577,"lon":139.561434},{"name":"ＳＴＥＰ保谷","province":"東京都","city":"西東京市","address":"西東京市東町3-5-5","lat":35.747408,"lon":139.56625},{"name":"りぼん","province":"東京都","city":"西東京市","address":"西東京市保谷町2-10-12菊池ビル102号","lat":35.73036,"lon":139.554699},{"name":"ＳＴＥＰ西東京","province":"東京都","city":"西東京市","address":"西東京市保谷町1-8-4","lat":35.734434,"lon":139.555735},{"name":"ウイング西東京","province":"東京都","city":"西東京市","address":"西東京市東伏見2-4-10","lat":35.728263,"lon":139.563515},{"name":"りぼんＵ","province":"東京都","city":"西東京市","address":"西東京市柳沢6-4-3-106","lat":35.72736,"lon":139.552658},{"name":"西東京市子ども家庭支援センター","province":"東京都","city":"西東京市","address":"西東京市住吉町6-15-6住吉会館1階","lat":35.744433,"lon":139.55129},{"name":"西東京市子ども家庭支援センター","province":"東京都","city":"西東京市","address":"西東京市住吉町6-15-6住吉会館2階","lat":35.74402,"lon":139.55215},{"name":"西東京市子ども家庭支援センター","province":"東京都","city":"西東京市","address":"西東京市住吉町6-15-6住吉会館1階","lat":35.74402,"lon":139.55216},{"name":"田無高等学校","province":"東京都","city":"西東京市","address":"東京都西東京市向台町5丁目4-34","lat":35.72048804,"lon":139.52920996},{"name":"保谷高等学校","province":"東京都","city":"西東京市","address":"東京都西東京市住吉町5丁目8-23","lat":35.74579123,"lon":139.55540942},{"name":"田無工業高等学校","province":"東京都","city":"西東京市","address":"東京都西東京市向台町1丁目9-1","lat":35.72006073,"lon":139.54860553},{"name":"シュプロスひばりヶ丘教室","province":"東京都","city":"西東京市","address":"西東京市谷戸町二丁目15番13号","lat":35.748988,"lon":139.543105},{"name":"たまみずきひばり","province":"東京都","city":"西東京市","address":"西東京市北原町1-38-2","lat":35.738011,"lon":139.545997},{"name":"療育型児童デイサービスさざんか第１","province":"東京都","city":"西東京市","address":"西東京市田無町7-8-14","lat":35.732873,"lon":139.530581},{"name":"くろーばーきっず","province":"東京都","city":"西東京市","address":"西東京市田無町4-17-14","lat":35.729365,"lon":139.535556},{"name":"療育型児童デイサービスさざんか第５","province":"東京都","city":"西東京市","address":"西東京市田無町5-5-12","lat":35.731809,"lon":139.536209},{"name":"放課後等デイサービス　らぷあ田無","province":"東京都","city":"西東京市","address":"西東京市向台町1-16-20ふじマンション2階B号","lat":35.719558,"lon":139.543331},{"name":"ととろクラブ","province":"東京都","city":"西東京市","address":"西東京市芝久保町2-22-33","lat":35.725984,"lon":139.520824},{"name":"ととろキッズ","province":"東京都","city":"西東京市","address":"西東京市芝久保町2-22-32-102","lat":35.726248,"lon":139.52061},{"name":"ジョブチャレンジひばり","province":"東京都","city":"西東京市","address":"西東京市ひばりが丘3-1-23","lat":35.745766,"lon":139.537066},{"name":"シュプロスひばりヶ丘教室Ⅱ","province":"東京都","city":"西東京市","address":"西東京市ひばりが丘1-8-24","lat":35.750663,"lon":139.542288},{"name":"Pur　aile　ひばりが丘","province":"東京都","city":"西東京市","address":"西東京市ひばりが丘北3-7-14メゾンウィステリア1階","lat":35.75269,"lon":139.547988},{"name":"くまさん　保谷教室","province":"東京都","city":"西東京市","address":"西東京市東町二丁目9番7号","lat":35.746577,"lon":139.561434},{"name":"ＳＴＥＰ保谷","province":"東京都","city":"西東京市","address":"西東京市東町3-5-5","lat":35.747408,"lon":139.56625},{"name":"りぼん","province":"東京都","city":"西東京市","address":"西東京市保谷町2-10-12菊池ビル102号","lat":35.73036,"lon":139.554699},{"name":"ＳＴＥＰ西東京","province":"東京都","city":"西東京市","address":"西東京市保谷町1-8-4","lat":35.734434,"lon":139.555735},{"name":"ウイング西東京","province":"東京都","city":"西東京市","address":"西東京市東伏見2-4-10","lat":35.728263,"lon":139.563515},{"name":"りぼんＵ","province":"東京都","city":"西東京市","address":"西東京市柳沢6-4-3-106","lat":35.72736,"lon":139.552658},{"name":"西東京市子ども家庭支援センター","province":"東京都","city":"西東京市","address":"西東京市住吉町6-15-6住吉会館1階","lat":35.744433,"lon":139.55129},{"name":"西東京市子ども家庭支援センター","province":"東京都","city":"西東京市","address":"西東京市住吉町6-15-6住吉会館2階","lat":35.74402,"lon":139.55215},{"name":"西東京市子ども家庭支援センター","province":"東京都","city":"西東京市","address":"西東京市住吉町6-15-6住吉会館1階","lat":35.74402,"lon":139.55216},{"name":"田無高等学校","province":"東京都","city":"西東京市","address":"東京都西東京市向台町5丁目4-34","lat":35.72048804,"lon":139.52920996},{"name":"保谷高等学校","province":"東京都","city":"西東京市","address":"東京都西東京市住吉町5丁目8-23","lat":35.74579123,"lon":139.55540942},{"name":"田無工業高等学校","province":"東京都","city":"西東京市","address":"東京都西東京市向台町1丁目9-1","lat":35.72006073,"lon":139.54860553},{"name":"シュプロスひばりヶ丘教室","province":"東京都","city":"西東京市","address":"西東京市谷戸町二丁目15番13号","lat":35.748988,"lon":139.543105},{"name":"たまみずきひばり","province":"東京都","city":"西東京市","address":"西東京市北原町1-38-2","lat":35.738011,"lon":139.545997},{"name":"療育型児童デイサービスさざんか第１","province":"東京都","city":"西東京市","address":"西東京市田無町7-8-14","lat":35.732873,"lon":139.530581},{"name":"くろーばーきっず","province":"東京都","city":"西東京市","address":"西東京市田無町4-17-14","lat":35.729365,"lon":139.535556},{"name":"療育型児童デイサービスさざんか第５","province":"東京都","city":"西東京市","address":"西東京市田無町5-5-12","lat":35.731809,"lon":139.536209},{"name":"放課後等デイサービス　らぷあ田無","province":"東京都","city":"西東京市","address":"西東京市向台町1-16-20ふじマンション2階B号","lat":35.719558,"lon":139.543331},{"name":"ととろクラブ","province":"東京都","city":"西東京市","address":"西東京市芝久保町2-22-33","lat":35.725984,"lon":139.520824},{"name":"ととろキッズ","province":"東京都","city":"西東京市","address":"西東京市芝久保町2-22-32-102","lat":35.726248,"lon":139.52061},{"name":"ジョブチャレンジひばり","province":"東京都","city":"西東京市","address":"西東京市ひばりが丘3-1-23","lat":35.745766,"lon":139.537066},{"name":"シュプロスひばりヶ丘教室Ⅱ","province":"東京都","city":"西東京市","address":"西東京市ひばりが丘1-8-24","lat":35.750663,"lon":139.542288},{"name":"Pur　aile　ひばりが丘","province":"東京都","city":"西東京市","address":"西東京市ひばりが丘北3-7-14メゾンウィステリア1階","lat":35.75269,"lon":139.547988},{"name":"くまさん　保谷教室","province":"東京都","city":"西東京市","address":"西東京市東町二丁目9番7号","lat":35.746577,"lon":139.561434},{"name":"ＳＴＥＰ保谷","province":"東京都","city":"西東京市","address":"西東京市東町3-5-5","lat":35.747408,"lon":139.56625},{"name":"りぼん","province":"東京都","city":"西東京市","address":"西東京市保谷町2-10-12菊池ビル102号","lat":35.73036,"lon":139.554699},{"name":"ＳＴＥＰ西東京","province":"東京都","city":"西東京市","address":"西東京市保谷町1-8-4","lat":35.734434,"lon":139.555735},{"name":"ウイング西東京","province":"東京都","city":"西東京市","address":"西東京市東伏見2-4-10","lat":35.728263,"lon":139.563515},{"name":"りぼんＵ","province":"東京都","city":"西東京市","address":"西東京市柳沢6-4-3-106","lat":35.72736,"lon":139.552658},{"name":"西東京市子ども家庭支援センター","province":"東京都","city":"西東京市","address":"西東京市住吉町6-15-6住吉会館1階","lat":35.744433,"lon":139.55129},{"name":"西東京市子ども家庭支援センター","province":"東京都","city":"西東京市","address":"西東京市住吉町6-15-6住吉会館2階","lat":35.74402,"lon":139.55215},{"name":"西東京市子ども家庭支援センター","province":"東京都","city":"西東京市","address":"西東京市住吉町6-15-6住吉会館1階","lat":35.74402,"lon":139.55216},{"name":"シュプロスひばりヶ丘教室","province":"東京都","city":"西東京市","address":"西東京市谷戸町二丁目15番13号","lat":35.748988,"lon":139.543105},{"name":"たまみずきひばり","province":"東京都","city":"西東京市","address":"西東京市北原町1-38-2","lat":35.738011,"lon":139.545997},{"name":"療育型児童デイサービスさざんか第１","province":"東京都","city":"西東京市","address":"西東京市田無町7-8-14","lat":35.732873,"lon":139.530581},{"name":"くろーばーきっず","province":"東京都","city":"西東京市","address":"西東京市田無町4-17-14","lat":35.729365,"lon":139.535556},{"name":"療育型児童デイサービスさざんか第５","province":"東京都","city":"西東京市","address":"西東京市田無町5-5-12","lat":35.731809,"lon":139.536209},{"name":"放課後等デイサービス　らぷあ田無","province":"東京都","city":"西東京市","address":"西東京市向台町1-16-20ふじマンション2階B号","lat":35.719558,"lon":139.543331},{"name":"ととろクラブ","province":"東京都","city":"西東京市","address":"西東京市芝久保町2-22-33","lat":35.725984,"lon":139.520824},{"name":"ととろキッズ","province":"東京都","city":"西東京市","address":"西東京市芝久保町2-22-32-102","lat":35.726248,"lon":139.52061},{"name":"ジョブチャレンジひばり","province":"東京都","city":"西東京市","address":"西東京市ひばりが丘3-1-23","lat":35.745766,"lon":139.537066},{"name":"シュプロスひばりヶ丘教室Ⅱ","province":"東京都","city":"西東京市","address":"西東京市ひばりが丘1-8-24","lat":35.750663,"lon":139.542288},{"name":"Pur　aile　ひばりが丘","province":"東京都","city":"西東京市","address":"西東京市ひばりが丘北3-7-14メゾンウィステリア1階","lat":35.75269,"lon":139.547988},{"name":"くまさん　保谷教室","province":"東京都","city":"西東京市","address":"西東京市東町二丁目9番7号","lat":35.746577,"lon":139.561434},{"name":"ＳＴＥＰ保谷","province":"東京都","city":"西東京市","address":"西東京市東町3-5-5","lat":35.747408,"lon":139.56625},{"name":"りぼん","province":"東京都","city":"西東京市","address":"西東京市保谷町2-10-12菊池ビル102号","lat":35.73036,"lon":139.554699},{"name":"ＳＴＥＰ西東京","province":"東京都","city":"西東京市","address":"西東京市保谷町1-8-4","lat":35.734434,"lon":139.555735},{"name":"ウイング西東京","province":"東京都","city":"西東京市","address":"西東京市東伏見2-4-10","lat":35.728263,"lon":139.563515},{"name":"りぼんＵ","province":"東京都","city":"西東京市","address":"西東京市柳沢6-4-3-106","lat":35.72736,"lon":139.552658},{"name":"西東京市子ども家庭支援センター","province":"東京都","city":"西東京市","address":"西東京市住吉町6-15-6住吉会館1階","lat":35.744433,"lon":139.55129},{"name":"西東京市子ども家庭支援センター","province":"東京都","city":"西東京市","address":"西東京市住吉町6-15-6住吉会館2階","lat":35.74402,"lon":139.55215},{"name":"西東京市子ども家庭支援センター","province":"東京都","city":"西東京市","address":"西東京市住吉町6-15-6住吉会館1階","lat":35.74402,"lon":139.55216},{"name":"シュプロスひばりヶ丘教室","province":"東京都","city":"西東京市","address":"西東京市谷戸町二丁目15番13号","lat":35.748988,"lon":139.543105},{"name":"たまみずきひばり","province":"東京都","city":"西東京市","address":"西東京市北原町1-38-2","lat":35.738011,"lon":139.545997},{"name":"療育型児童デイサービスさざんか第１","province":"東京都","city":"西東京市","address":"西東京市田無町7-8-14","lat":35.732873,"lon":139.530581},{"name":"くろーばーきっず","province":"東京都","city":"西東京市","address":"西東京市田無町4-17-14","lat":35.729365,"lon":139.535556},{"name":"療育型児童デイサービスさざんか第５","province":"東京都","city":"西東京市","address":"西東京市田無町5-5-12","lat":35.731809,"lon":139.536209},{"name":"放課後等デイサービス　らぷあ田無","province":"東京都","city":"西東京市","address":"西東京市向台町1-16-20ふじマンション2階B号","lat":35.719558,"lon":139.543331},{"name":"ととろクラブ","province":"東京都","city":"西東京市","address":"西東京市芝久保町2-22-33","lat":35.725984,"lon":139.520824},{"name":"ととろキッズ","province":"東京都","city":"西東京市","address":"西東京市芝久保町2-22-32-102","lat":35.726248,"lon":139.52061},{"name":"ジョブチャレンジひばり","province":"東京都","city":"西東京市","address":"西東京市ひばりが丘3-1-23","lat":35.745766,"lon":139.537066},{"name":"シュプロスひばりヶ丘教室Ⅱ","province":"東京都","city":"西東京市","address":"西東京市ひばりが丘1-8-24","lat":35.750663,"lon":139.542288},{"name":"Pur　aile　ひばりが丘","province":"東京都","city":"西東京市","address":"西東京市ひばりが丘北3-7-14メゾンウィステリア1階","lat":35.75269,"lon":139.547988},{"name":"くまさん　保谷教室","province":"東京都","city":"西東京市","address":"西東京市東町二丁目9番7号","lat":35.746577,"lon":139.561434},{"name":"ＳＴＥＰ保谷","province":"東京都","city":"西東京市","address":"西東京市東町3-5-5","lat":35.747408,"lon":139.56625},{"name":"りぼん","province":"東京都","city":"西東京市","address":"西東京市保谷町2-10-12菊池ビル102号","lat":35.73036,"lon":139.554699},{"name":"ＳＴＥＰ西東京","province":"東京都","city":"西東京市","address":"西東京市保谷町1-8-4","lat":35.734434,"lon":139.555735},{"name":"ウイング西東京","province":"東京都","city":"西東京市","address":"西東京市東伏見2-4-10","lat":35.728263,"lon":139.563515},{"name":"りぼんＵ","province":"東京都","city":"西東京市","address":"西東京市柳沢6-4-3-106","lat":35.72736,"lon":139.552658},{"name":"西東京市子ども家庭支援センター","province":"東京都","city":"西東京市","address":"西東京市住吉町6-15-6住吉会館1階","lat":35.744433,"lon":139.55129},{"name":"西東京市子ども家庭支援センター","province":"東京都","city":"西東京市","address":"西東京市住吉町6-15-6住吉会館2階","lat":35.74402,"lon":139.55215},{"name":"西東京市子ども家庭支援センター","province":"東京都","city":"西東京市","address":"西東京市住吉町6-15-6住吉会館1階","lat":35.74402,"lon":139.55216},{"name":"シュプロスひばりヶ丘教室","province":"東京都","city":"西東京市","address":"西東京市谷戸町二丁目15番13号","lat":35.748988,"lon":139.543105},{"name":"たまみずきひばり","province":"東京都","city":"西東京市","address":"西東京市北原町1-38-2","lat":35.738011,"lon":139.545997},{"name":"療育型児童デイサービスさざんか第１","province":"東京都","city":"西東京市","address":"西東京市田無町7-8-14","lat":35.732873,"lon":139.530581},{"name":"くろーばーきっず","province":"東京都","city":"西東京市","address":"西東京市田無町4-17-14","lat":35.729365,"lon":139.535556},{"name":"療育型児童デイサービスさざんか第５","province":"東京都","city":"西東京市","address":"西東京市田無町5-5-12","lat":35.731809,"lon":139.536209},{"name":"放課後等デイサービス　らぷあ田無","province":"東京都","city":"西東京市","address":"西東京市向台町1-16-20ふじマンション2階B号","lat":35.719558,"lon":139.543331},{"name":"ととろクラブ","province":"東京都","city":"西東京市","address":"西東京市芝久保町2-22-33","lat":35.725984,"lon":139.520824},{"name":"ととろキッズ","province":"東京都","city":"西東京市","address":"西東京市芝久保町2-22-32-102","lat":35.726248,"lon":139.52061},{"name":"ジョブチャレンジひばり","province":"東京都","city":"西東京市","address":"西東京市ひばりが丘3-1-23","lat":35.745766,"lon":139.537066},{"name":"シュプロスひばりヶ丘教室Ⅱ","province":"東京都","city":"西東京市","address":"西東京市ひばりが丘1-8-24","lat":35.750663,"lon":139.542288},{"name":"Pur　aile　ひばりが丘","province":"東京都","city":"西東京市","address":"西東京市ひばりが丘北3-7-14メゾンウィステリア1階","lat":35.75269,"lon":139.547988},{"name":"くまさん　保谷教室","province":"東京都","city":"西東京市","address":"西東京市東町二丁目9番7号","lat":35.746577,"lon":139.561434},{"name":"ＳＴＥＰ保谷","province":"東京都","city":"西東京市","address":"西東京市東町3-5-5","lat":35.747408,"lon":139.56625},{"name":"りぼん","province":"東京都","city":"西東京市","address":"西東京市保谷町2-10-12菊池ビル102号","lat":35.73036,"lon":139.554699},{"name":"ＳＴＥＰ西東京","province":"東京都","city":"西東京市","address":"西東京市保谷町1-8-4","lat":35.734434,"lon":139.555735},{"name":"ウイング西東京","province":"東京都","city":"西東京市","address":"西東京市東伏見2-4-10","lat":35.728263,"lon":139.563515},{"name":"りぼんＵ","province":"東京都","city":"西東京市","address":"西東京市柳沢6-4-3-106","lat":35.72736,"lon":139.552658},{"name":"西東京市子ども家庭支援センター","province":"東京都","city":"西東京市","address":"西東京市住吉町6-15-6住吉会館1階","lat":35.744433,"lon":139.55129},{"name":"西東京市子ども家庭支援センター","province":"東京都","city":"西東京市","address":"西東京市住吉町6-15-6住吉会館2階","lat":35.74402,"lon":139.55215},{"name":"西東京市子ども家庭支援センター","province":"東京都","city":"西東京市","address":"西東京市住吉町6-15-6住吉会館1階","lat":35.74402,"lon":139.55216},{"name":"シュプロスひばりヶ丘教室","province":"東京都","city":"西東京市","address":"西東京市谷戸町二丁目15番13号","lat":35.748988,"lon":139.543105},{"name":"たまみずきひばり","province":"東京都","city":"西東京市","address":"西東京市北原町1-38-2","lat":35.738011,"lon":139.545997},{"name":"療育型児童デイサービスさざんか第１","province":"東京都","city":"西東京市","address":"西東京市田無町7-8-14","lat":35.732873,"lon":139.530581},{"name":"くろーばーきっず","province":"東京都","city":"西東京市","address":"西東京市田無町4-17-14","lat":35.729365,"lon":139.535556},{"name":"療育型児童デイサービスさざんか第５","province":"東京都","city":"西東京市","address":"西東京市田無町5-5-12","lat":35.731809,"lon":139.536209},{"name":"放課後等デイサービス　らぷあ田無","province":"東京都","city":"西東京市","address":"西東京市向台町1-16-20ふじマンション2階B号","lat":35.719558,"lon":139.543331},{"name":"ととろクラブ","province":"東京都","city":"西東京市","address":"西東京市芝久保町2-22-33","lat":35.725984,"lon":139.520824},{"name":"ととろキッズ","province":"東京都","city":"西東京市","address":"西東京市芝久保町2-22-32-102","lat":35.726248,"lon":139.52061},{"name":"ジョブチャレンジひばり","province":"東京都","city":"西東京市","address":"西東京市ひばりが丘3-1-23","lat":35.745766,"lon":139.537066},{"name":"シュプロスひばりヶ丘教室Ⅱ","province":"東京都","city":"西東京市","address":"西東京市ひばりが丘1-8-24","lat":35.750663,"lon":139.542288},{"name":"Pur　aile　ひばりが丘","province":"東京都","city":"西東京市","address":"西東京市ひばりが丘北3-7-14メゾンウィステリア1階","lat":35.75269,"lon":139.547988},{"name":"くまさん　保谷教室","province":"東京都","city":"西東京市","address":"西東京市東町二丁目9番7号","lat":35.746577,"lon":139.561434},{"name":"ＳＴＥＰ保谷","province":"東京都","city":"西東京市","address":"西東京市東町3-5-5","lat":35.747408,"lon":139.56625},{"name":"りぼん","province":"東京都","city":"西東京市","address":"西東京市保谷町2-10-12菊池ビル102号","lat":35.73036,"lon":139.554699},{"name":"ＳＴＥＰ西東京","province":"東京都","city":"西東京市","address":"西東京市保谷町1-8-4","lat":35.734434,"lon":139.555735},{"name":"ウイング西東京","province":"東京都","city":"西東京市","address":"西東京市東伏見2-4-10","lat":35.728263,"lon":139.563515},{"name":"りぼんＵ","province":"東京都","city":"西東京市","address":"西東京市柳沢6-4-3-106","lat":35.72736,"lon":139.552658},{"name":"西東京市子ども家庭支援センター","province":"東京都","city":"西東京市","address":"西東京市住吉町6-15-6住吉会館1階","lat":35.744433,"lon":139.55129},{"name":"西東京市子ども家庭支援センター","province":"東京都","city":"西東京市","address":"西東京市住吉町6-15-6住吉会館2階","lat":35.74402,"lon":139.55215},{"name":"西東京市子ども家庭支援センター","province":"東京都","city":"西東京市","address":"西東京市住吉町6-15-6住吉会館1階","lat":35.74402,"lon":139.55216},{"name":"シュプロスひばりヶ丘教室","province":"東京都","city":"西東京市","address":"西東京市谷戸町二丁目15番13号","lat":35.748988,"lon":139.543105},{"name":"たまみずきひばり","province":"東京都","city":"西東京市","address":"西東京市北原町1-38-2","lat":35.738011,"lon":139.545997},{"name":"療育型児童デイサービスさざんか第１","province":"東京都","city":"西東京市","address":"西東京市田無町7-8-14","lat":35.732873,"lon":139.530581},{"name":"くろーばーきっず","province":"東京都","city":"西東京市","address":"西東京市田無町4-17-14","lat":35.729365,"lon":139.535556},{"name":"療育型児童デイサービスさざんか第５","province":"東京都","city":"西東京市","address":"西東京市田無町5-5-12","lat":35.731809,"lon":139.536209},{"name":"放課後等デイサービス　らぷあ田無","province":"東京都","city":"西東京市","address":"西東京市向台町1-16-20ふじマンション2階B号","lat":35.719558,"lon":139.543331},{"name":"ととろクラブ","province":"東京都","city":"西東京市","address":"西東京市芝久保町2-22-33","lat":35.725984,"lon":139.520824},{"name":"ととろキッズ","province":"東京都","city":"西東京市","address":"西東京市芝久保町2-22-32-102","lat":35.726248,"lon":139.52061},{"name":"ジョブチャレンジひばり","province":"東京都","city":"西東京市","address":"西東京市ひばりが丘3-1-23","lat":35.745766,"lon":139.537066},{"name":"シュプロスひばりヶ丘教室Ⅱ","province":"東京都","city":"西東京市","address":"西東京市ひばりが丘1-8-24","lat":35.750663,"lon":139.542288},{"name":"Pur　aile　ひばりが丘","province":"東京都","city":"西東京市","address":"西東京市ひばりが丘北3-7-14メゾンウィステリア1階","lat":35.75269,"lon":139.547988},{"name":"くまさん　保谷教室","province":"東京都","city":"西東京市","address":"西東京市東町二丁目9番7号","lat":35.746577,"lon":139.561434},{"name":"ＳＴＥＰ保谷","province":"東京都","city":"西東京市","address":"西東京市東町3-5-5","lat":35.747408,"lon":139.56625},{"name":"りぼん","province":"東京都","city":"西東京市","address":"西東京市保谷町2-10-12菊池ビル102号","lat":35.73036,"lon":139.554699},{"name":"ＳＴＥＰ西東京","province":"東京都","city":"西東京市","address":"西東京市保谷町1-8-4","lat":35.734434,"lon":139.555735},{"name":"ウイング西東京","province":"東京都","city":"西東京市","address":"西東京市東伏見2-4-10","lat":35.728263,"lon":139.563515},{"name":"りぼんＵ","province":"東京都","city":"西東京市","address":"西東京市柳沢6-4-3-106","lat":35.72736,"lon":139.552658},{"name":"西東京市子ども家庭支援センター","province":"東京都","city":"西東京市","address":"西東京市住吉町6-15-6住吉会館1階","lat":35.744433,"lon":139.55129},{"name":"西東京市子ども家庭支援センター","province":"東京都","city":"西東京市","address":"西東京市住吉町6-15-6住吉会館2階","lat":35.74402,"lon":139.55215},{"name":"西東京市子ども家庭支援センター","province":"東京都","city":"西東京市","address":"西東京市住吉町6-15-6住吉会館1階","lat":35.74402,"lon":139.55216},{"name":"シュプロスひばりヶ丘教室","province":"東京都","city":"西東京市","address":"西東京市谷戸町二丁目15番13号","lat":35.748988,"lon":139.543105},{"name":"たまみずきひばり","province":"東京都","city":"西東京市","address":"西東京市北原町1-38-2","lat":35.738011,"lon":139.545997},{"name":"療育型児童デイサービスさざんか第１","province":"東京都","city":"西東京市","address":"西東京市田無町7-8-14","lat":35.732873,"lon":139.530581},{"name":"くろーばーきっず","province":"東京都","city":"西東京市","address":"西東京市田無町4-17-14","lat":35.729365,"lon":139.535556},{"name":"療育型児童デイサービスさざんか第５","province":"東京都","city":"西東京市","address":"西東京市田無町5-5-12","lat":35.731809,"lon":139.536209},{"name":"放課後等デイサービス　らぷあ田無","province":"東京都","city":"西東京市","address":"西東京市向台町1-16-20ふじマンション2階B号","lat":35.719558,"lon":139.543331},{"name":"ととろクラブ","province":"東京都","city":"西東京市","address":"西東京市芝久保町2-22-33","lat":35.725984,"lon":139.520824},{"name":"ととろキッズ","province":"東京都","city":"西東京市","address":"西東京市芝久保町2-22-32-102","lat":35.726248,"lon":139.52061},{"name":"ジョブチャレンジひばり","province":"東京都","city":"西東京市","address":"西東京市ひばりが丘3-1-23","lat":35.745766,"lon":139.537066},{"name":"シュプロスひばりヶ丘教室Ⅱ","province":"東京都","city":"西東京市","address":"西東京市ひばりが丘1-8-24","lat":35.750663,"lon":139.542288},{"name":"Pur　aile　ひばりが丘","province":"東京都","city":"西東京市","address":"西東京市ひばりが丘北3-7-14メゾンウィステリア1階","lat":35.75269,"lon":139.547988},{"name":"くまさん　保谷教室","province":"東京都","city":"西東京市","address":"西東京市東町二丁目9番7号","lat":35.746577,"lon":139.561434},{"name":"ＳＴＥＰ保谷","province":"東京都","city":"西東京市","address":"西東京市東町3-5-5","lat":35.747408,"lon":139.56625},{"name":"りぼん","province":"東京都","city":"西東京市","address":"西東京市保谷町2-10-12菊池ビル102号","lat":35.73036,"lon":139.554699},{"name":"ＳＴＥＰ西東京","province":"東京都","city":"西東京市","address":"西東京市保谷町1-8-4","lat":35.734434,"lon":139.555735},{"name":"ウイング西東京","province":"東京都","city":"西東京市","address":"西東京市東伏見2-4-10","lat":35.728263,"lon":139.563515},{"name":"りぼんＵ","province":"東京都","city":"西東京市","address":"西東京市柳沢6-4-3-106","lat":35.72736,"lon":139.552658},{"name":"西東京市子ども家庭支援センター","province":"東京都","city":"西東京市","address":"西東京市住吉町6-15-6住吉会館1階","lat":35.744433,"lon":139.55129},{"name":"西東京市子ども家庭支援センター","province":"東京都","city":"西東京市","address":"西東京市住吉町6-15-6住吉会館2階","lat":35.74402,"lon":139.55215},{"name":"西東京市子ども家庭支援センター","province":"東京都","city":"西東京市","address":"西東京市住吉町6-15-6住吉会館1階","lat":35.74402,"lon":139.55216},{"name":"シュプロスひばりヶ丘教室","province":"東京都","city":"西東京市","address":"西東京市谷戸町二丁目15番13号","lat":35.748988,"lon":139.543105},{"name":"たまみずきひばり","province":"東京都","city":"西東京市","address":"西東京市北原町1-38-2","lat":35.738011,"lon":139.545997},{"name":"療育型児童デイサービスさざんか第１","province":"東京都","city":"西東京市","address":"西東京市田無町7-8-14","lat":35.732873,"lon":139.530581},{"name":"くろーばーきっず","province":"東京都","city":"西東京市","address":"西東京市田無町4-17-14","lat":35.729365,"lon":139.535556},{"name":"療育型児童デイサービスさざんか第５","province":"東京都","city":"西東京市","address":"西東京市田無町5-5-12","lat":35.731809,"lon":139.536209},{"name":"放課後等デイサービス　らぷあ田無","province":"東京都","city":"西東京市","address":"西東京市向台町1-16-20ふじマンション2階B号","lat":35.719558,"lon":139.543331},{"name":"ととろクラブ","province":"東京都","city":"西東京市","address":"西東京市芝久保町2-22-33","lat":35.725984,"lon":139.520824},{"name":"ととろキッズ","province":"東京都","city":"西東京市","address":"西東京市芝久保町2-22-32-102","lat":35.726248,"lon":139.52061},{"name":"ジョブチャレンジひばり","province":"東京都","city":"西東京市","address":"西東京市ひばりが丘3-1-23","lat":35.745766,"lon":139.537066},{"name":"シュプロスひばりヶ丘教室Ⅱ","province":"東京都","city":"西東京市","address":"西東京市ひばりが丘1-8-24","lat":35.750663,"lon":139.542288},{"name":"Pur　aile　ひばりが丘","province":"東京都","city":"西東京市","address":"西東京市ひばりが丘北3-7-14メゾンウィステリア1階","lat":35.75269,"lon":139.547988},{"name":"くまさん　保谷教室","province":"東京都","city":"西東京市","address":"西東京市東町二丁目9番7号","lat":35.746577,"lon":139.561434},{"name":"ＳＴＥＰ保谷","province":"東京都","city":"西東京市","address":"西東京市東町3-5-5","lat":35.747408,"lon":139.56625},{"name":"りぼん","province":"東京都","city":"西東京市","address":"西東京市保谷町2-10-12菊池ビル102号","lat":35.73036,"lon":139.554699},{"name":"ＳＴＥＰ西東京","province":"東京都","city":"西東京市","address":"西東京市保谷町1-8-4","lat":35.734434,"lon":139.555735},{"name":"ウイング西東京","province":"東京都","city":"西東京市","address":"西東京市東伏見2-4-10","lat":35.728263,"lon":139.563515},{"name":"りぼんＵ","province":"東京都","city":"西東京市","address":"西東京市柳沢6-4-3-106","lat":35.72736,"lon":139.552658},{"name":"西東京市子ども家庭支援センター","province":"東京都","city":"西東京市","address":"西東京市住吉町6-15-6住吉会館1階","lat":35.744433,"lon":139.55129},{"name":"西東京市子ども家庭支援センター","province":"東京都","city":"西東京市","address":"西東京市住吉町6-15-6住吉会館2階","lat":35.74402,"lon":139.55215},{"name":"西東京市子ども家庭支援センター","province":"東京都","city":"西東京市","address":"西東京市住吉町6-15-6住吉会館1階","lat":35.74402,"lon":139.55216},{"name":"シュプロスひばりヶ丘教室","province":"東京都","city":"西東京市","address":"西東京市谷戸町二丁目15番13号","lat":35.748988,"lon":139.543105},{"name":"たまみずきひばり","province":"東京都","city":"西東京市","address":"西東京市北原町1-38-2","lat":35.738011,"lon":139.545997},{"name":"療育型児童デイサービスさざんか第１","province":"東京都","city":"西東京市","address":"西東京市田無町7-8-14","lat":35.732873,"lon":139.530581},{"name":"くろーばーきっず","province":"東京都","city":"西東京市","address":"西東京市田無町4-17-14","lat":35.729365,"lon":139.535556},{"name":"療育型児童デイサービスさざんか第５","province":"東京都","city":"西東京市","address":"西東京市田無町5-5-12","lat":35.731809,"lon":139.536209},{"name":"放課後等デイサービス　らぷあ田無","province":"東京都","city":"西東京市","address":"西東京市向台町1-16-20ふじマンション2階B号","lat":35.719558,"lon":139.543331},{"name":"ととろクラブ","province":"東京都","city":"西東京市","address":"西東京市芝久保町2-22-33","lat":35.725984,"lon":139.520824},{"name":"ととろキッズ","province":"東京都","city":"西東京市","address":"西東京市芝久保町2-22-32-102","lat":35.726248,"lon":139.52061},{"name":"ジョブチャレンジひばり","province":"東京都","city":"西東京市","address":"西東京市ひばりが丘3-1-23","lat":35.745766,"lon":139.537066},{"name":"シュプロスひばりヶ丘教室Ⅱ","province":"東京都","city":"西東京市","address":"西東京市ひばりが丘1-8-24","lat":35.750663,"lon":139.542288},{"name":"Pur　aile　ひばりが丘","province":"東京都","city":"西東京市","address":"西東京市ひばりが丘北3-7-14メゾンウィステリア1階","lat":35.75269,"lon":139.547988},{"name":"くまさん　保谷教室","province":"東京都","city":"西東京市","address":"西東京市東町二丁目9番7号","lat":35.746577,"lon":139.561434},{"name":"ＳＴＥＰ保谷","province":"東京都","city":"西東京市","address":"西東京市東町3-5-5","lat":35.747408,"lon":139.56625},{"name":"りぼん","province":"東京都","city":"西東京市","address":"西東京市保谷町2-10-12菊池ビル102号","lat":35.73036,"lon":139.554699},{"name":"ＳＴＥＰ西東京","province":"東京都","city":"西東京市","address":"西東京市保谷町1-8-4","lat":35.734434,"lon":139.555735},{"name":"ウイング西東京","province":"東京都","city":"西東京市","address":"西東京市東伏見2-4-10","lat":35.728263,"lon":139.563515},{"name":"りぼんＵ","province":"東京都","city":"西東京市","address":"西東京市柳沢6-4-3-106","lat":35.72736,"lon":139.552658},{"name":"西東京市子ども家庭支援センター","province":"東京都","city":"西東京市","address":"西東京市住吉町6-15-6住吉会館1階","lat":35.744433,"lon":139.55129},{"name":"西東京市子ども家庭支援センター","province":"東京都","city":"西東京市","address":"西東京市住吉町6-15-6住吉会館2階","lat":35.74402,"lon":139.55215},{"name":"西東京市子ども家庭支援センター","province":"東京都","city":"西東京市","address":"西東京市住吉町6-15-6住吉会館1階","lat":35.74402,"lon":139.55216},{"name":"シュプロスひばりヶ丘教室","province":"東京都","city":"西東京市","address":"西東京市谷戸町二丁目15番13号","lat":35.748988,"lon":139.543105},{"name":"たまみずきひばり","province":"東京都","city":"西東京市","address":"西東京市北原町1-38-2","lat":35.738011,"lon":139.545997},{"name":"療育型児童デイサービスさざんか第１","province":"東京都","city":"西東京市","address":"西東京市田無町7-8-14","lat":35.732873,"lon":139.530581},{"name":"くろーばーきっず","province":"東京都","city":"西東京市","address":"西東京市田無町4-17-14","lat":35.729365,"lon":139.535556},{"name":"療育型児童デイサービスさざんか第５","province":"東京都","city":"西東京市","address":"西東京市田無町5-5-12","lat":35.731809,"lon":139.536209},{"name":"放課後等デイサービス　らぷあ田無","province":"東京都","city":"西東京市","address":"西東京市向台町1-16-20ふじマンション2階B号","lat":35.719558,"lon":139.543331},{"name":"ととろクラブ","province":"東京都","city":"西東京市","address":"西東京市芝久保町2-22-33","lat":35.725984,"lon":139.520824},{"name":"ととろキッズ","province":"東京都","city":"西東京市","address":"西東京市芝久保町2-22-32-102","lat":35.726248,"lon":139.52061},{"name":"ジョブチャレンジひばり","province":"東京都","city":"西東京市","address":"西東京市ひばりが丘3-1-23","lat":35.745766,"lon":139.537066},{"name":"シュプロスひばりヶ丘教室Ⅱ","province":"東京都","city":"西東京市","address":"西東京市ひばりが丘1-8-24","lat":35.750663,"lon":139.542288},{"name":"Pur　aile　ひばりが丘","province":"東京都","city":"西東京市","address":"西東京市ひばりが丘北3-7-14メゾンウィステリア1階","lat":35.75269,"lon":139.547988},{"name":"くまさん　保谷教室","province":"東京都","city":"西東京市","address":"西東京市東町二丁目9番7号","lat":35.746577,"lon":139.561434},{"name":"ＳＴＥＰ保谷","province":"東京都","city":"西東京市","address":"西東京市東町3-5-5","lat":35.747408,"lon":139.56625},{"name":"りぼん","province":"東京都","city":"西東京市","address":"西東京市保谷町2-10-12菊池ビル102号","lat":35.73036,"lon":139.554699},{"name":"ＳＴＥＰ西東京","province":"東京都","city":"西東京市","address":"西東京市保谷町1-8-4","lat":35.734434,"lon":139.555735},{"name":"ウイング西東京","province":"東京都","city":"西東京市","address":"西東京市東伏見2-4-10","lat":35.728263,"lon":139.563515},{"name":"りぼんＵ","province":"東京都","city":"西東京市","address":"西東京市柳沢6-4-3-106","lat":35.72736,"lon":139.552658},{"name":"西東京市子ども家庭支援センター","province":"東京都","city":"西東京市","address":"西東京市住吉町6-15-6住吉会館1階","lat":35.744433,"lon":139.55129},{"name":"西東京市子ども家庭支援センター","province":"東京都","city":"西東京市","address":"西東京市住吉町6-15-6住吉会館2階","lat":35.74402,"lon":139.55215},{"name":"西東京市子ども家庭支援センター","province":"東京都","city":"西東京市","address":"西東京市住吉町6-15-6住吉会館1階","lat":35.74402,"lon":139.55216},{"name":"シュプロスひばりヶ丘教室","province":"東京都","city":"西東京市","address":"西東京市谷戸町二丁目15番13号","lat":35.748988,"lon":139.543105},{"name":"たまみずきひばり","province":"東京都","city":"西東京市","address":"西東京市北原町1-38-2","lat":35.738011,"lon":139.545997},{"name":"療育型児童デイサービスさざんか第１","province":"東京都","city":"西東京市","address":"西東京市田無町7-8-14","lat":35.732873,"lon":139.530581},{"name":"くろーばーきっず","province":"東京都","city":"西東京市","address":"西東京市田無町4-17-14","lat":35.729365,"lon":139.535556},{"name":"療育型児童デイサービスさざんか第５","province":"東京都","city":"西東京市","address":"西東京市田無町5-5-12","lat":35.731809,"lon":139.536209},{"name":"放課後等デイサービス　らぷあ田無","province":"東京都","city":"西東京市","address":"西東京市向台町1-16-20ふじマンション2階B号","lat":35.719558,"lon":139.543331},{"name":"ととろクラブ","province":"東京都","city":"西東京市","address":"西東京市芝久保町2-22-33","lat":35.725984,"lon":139.520824},{"name":"ととろキッズ","province":"東京都","city":"西東京市","address":"西東京市芝久保町2-22-32-102","lat":35.726248,"lon":139.52061},{"name":"ジョブチャレンジひばり","province":"東京都","city":"西東京市","address":"西東京市ひばりが丘3-1-23","lat":35.745766,"lon":139.537066},{"name":"シュプロスひばりヶ丘教室Ⅱ","province":"東京都","city":"西東京市","address":"西東京市ひばりが丘1-8-24","lat":35.750663,"lon":139.542288},{"name":"Pur　aile　ひばりが丘","province":"東京都","city":"西東京市","address":"西東京市ひばりが丘北3-7-14メゾンウィステリア1階","lat":35.75269,"lon":139.547988},{"name":"くまさん　保谷教室","province":"東京都","city":"西東京市","address":"西東京市東町二丁目9番7号","lat":35.746577,"lon":139.561434},{"name":"ＳＴＥＰ保谷","province":"東京都","city":"西東京市","address":"西東京市東町3-5-5","lat":35.747408,"lon":139.56625},{"name":"りぼん","province":"東京都","city":"西東京市","address":"西東京市保谷町2-10-12菊池ビル102号","lat":35.73036,"lon":139.554699},{"name":"ＳＴＥＰ西東京","province":"東京都","city":"西東京市","address":"西東京市保谷町1-8-4","lat":35.734434,"lon":139.555735},{"name":"ウイング西東京","province":"東京都","city":"西東京市","address":"西東京市東伏見2-4-10","lat":35.728263,"lon":139.563515},{"name":"りぼんＵ","province":"東京都","city":"西東京市","address":"西東京市柳沢6-4-3-106","lat":35.72736,"lon":139.552658},{"name":"西東京市子ども家庭支援センター","province":"東京都","city":"西東京市","address":"西東京市住吉町6-15-6住吉会館1階","lat":35.744433,"lon":139.55129},{"name":"西東京市子ども家庭支援センター","province":"東京都","city":"西東京市","address":"西東京市住吉町6-15-6住吉会館2階","lat":35.74402,"lon":139.55215},{"name":"西東京市子ども家庭支援センター","province":"東京都","city":"西東京市","address":"西東京市住吉町6-15-6住吉会館1階","lat":35.74402,"lon":139.55216},{"name":"シュプロスひばりヶ丘教室","province":"東京都","city":"西東京市","address":"西東京市谷戸町二丁目15番13号","lat":35.748988,"lon":139.543105},{"name":"たまみずきひばり","province":"東京都","city":"西東京市","address":"西東京市北原町1-38-2","lat":35.738011,"lon":139.545997},{"name":"療育型児童デイサービスさざんか第１","province":"東京都","city":"西東京市","address":"西東京市田無町7-8-14","lat":35.732873,"lon":139.530581},{"name":"くろーばーきっず","province":"東京都","city":"西東京市","address":"西東京市田無町4-17-14","lat":35.729365,"lon":139.535556},{"name":"療育型児童デイサービスさざんか第５","province":"東京都","city":"西東京市","address":"西東京市田無町5-5-12","lat":35.731809,"lon":139.536209},{"name":"放課後等デイサービス　らぷあ田無","province":"東京都","city":"西東京市","address":"西東京市向台町1-16-20ふじマンション2階B号","lat":35.719558,"lon":139.543331},{"name":"ととろクラブ","province":"東京都","city":"西東京市","address":"西東京市芝久保町2-22-33","lat":35.725984,"lon":139.520824},{"name":"ととろキッズ","province":"東京都","city":"西東京市","address":"西東京市芝久保町2-22-32-102","lat":35.726248,"lon":139.52061},{"name":"ジョブチャレンジひばり","province":"東京都","city":"西東京市","address":"西東京市ひばりが丘3-1-23","lat":35.745766,"lon":139.537066},{"name":"シュプロスひばりヶ丘教室Ⅱ","province":"東京都","city":"西東京市","address":"西東京市ひばりが丘1-8-24","lat":35.750663,"lon":139.542288},{"name":"Pur　aile　ひばりが丘","province":"東京都","city":"西東京市","address":"西東京市ひばりが丘北3-7-14メゾンウィステリア1階","lat":35.75269,"lon":139.547988},{"name":"くまさん　保谷教室","province":"東京都","city":"西東京市","address":"西東京市東町二丁目9番7号","lat":35.746577,"lon":139.561434},{"name":"ＳＴＥＰ保谷","province":"東京都","city":"西東京市","address":"西東京市東町3-5-5","lat":35.747408,"lon":139.56625},{"name":"りぼん","province":"東京都","city":"西東京市","address":"西東京市保谷町2-10-12菊池ビル102号","lat":35.73036,"lon":139.554699},{"name":"ＳＴＥＰ西東京","province":"東京都","city":"西東京市","address":"西東京市保谷町1-8-4","lat":35.734434,"lon":139.555735},{"name":"ウイング西東京","province":"東京都","city":"西東京市","address":"西東京市東伏見2-4-10","lat":35.728263,"lon":139.563515},{"name":"りぼんＵ","province":"東京都","city":"西東京市","address":"西東京市柳沢6-4-3-106","lat":35.72736,"lon":139.552658},{"name":"西東京市子ども家庭支援センター","province":"東京都","city":"西東京市","address":"西東京市住吉町6-15-6住吉会館1階","lat":35.744433,"lon":139.55129},{"name":"西東京市子ども家庭支援センター","province":"東京都","city":"西東京市","address":"西東京市住吉町6-15-6住吉会館2階","lat":35.74402,"lon":139.55215},{"name":"西東京市子ども家庭支援センター","province":"東京都","city":"西東京市","address":"西東京市住吉町6-15-6住吉会館1階","lat":35.74402,"lon":139.55216},{"name":"シュプロスひばりヶ丘教室","province":"東京都","city":"西東京市","address":"西東京市谷戸町二丁目15番13号","lat":35.748988,"lon":139.543105},{"name":"たまみずきひばり","province":"東京都","city":"西東京市","address":"西東京市北原町1-38-2","lat":35.738011,"lon":139.545997},{"name":"療育型児童デイサービスさざんか第１","province":"東京都","city":"西東京市","address":"西東京市田無町7-8-14","lat":35.732873,"lon":139.530581},{"name":"くろーばーきっず","province":"東京都","city":"西東京市","address":"西東京市田無町4-17-14","lat":35.729365,"lon":139.535556},{"name":"療育型児童デイサービスさざんか第５","province":"東京都","city":"西東京市","address":"西東京市田無町5-5-12","lat":35.731809,"lon":139.536209},{"name":"放課後等デイサービス　らぷあ田無","province":"東京都","city":"西東京市","address":"西東京市向台町1-16-20ふじマンション2階B号","lat":35.719558,"lon":139.543331},{"name":"ととろクラブ","province":"東京都","city":"西東京市","address":"西東京市芝久保町2-22-33","lat":35.725984,"lon":139.520824},{"name":"ととろキッズ","province":"東京都","city":"西東京市","address":"西東京市芝久保町2-22-32-102","lat":35.726248,"lon":139.52061},{"name":"ジョブチャレンジひばり","province":"東京都","city":"西東京市","address":"西東京市ひばりが丘3-1-23","lat":35.745766,"lon":139.537066},{"name":"シュプロスひばりヶ丘教室Ⅱ","province":"東京都","city":"西東京市","address":"西東京市ひばりが丘1-8-24","lat":35.750663,"lon":139.542288},{"name":"Pur　aile　ひばりが丘","province":"東京都","city":"西東京市","address":"西東京市ひばりが丘北3-7-14メゾンウィステリア1階","lat":35.75269,"lon":139.547988},{"name":"くまさん　保谷教室","province":"東京都","city":"西東京市","address":"西東京市東町二丁目9番7号","lat":35.746577,"lon":139.561434},{"name":"ＳＴＥＰ保谷","province":"東京都","city":"西東京市","address":"西東京市東町3-5-5","lat":35.747408,"lon":139.56625},{"name":"りぼん","province":"東京都","city":"西東京市","address":"西東京市保谷町2-10-12菊池ビル102号","lat":35.73036,"lon":139.554699},{"name":"ＳＴＥＰ西東京","province":"東京都","city":"西東京市","address":"西東京市保谷町1-8-4","lat":35.734434,"lon":139.555735},{"name":"ウイング西東京","province":"東京都","city":"西東京市","address":"西東京市東伏見2-4-10","lat":35.728263,"lon":139.563515},{"name":"りぼんＵ","province":"東京都","city":"西東京市","address":"西東京市柳沢6-4-3-106","lat":35.72736,"lon":139.552658},{"name":"西東京市子ども家庭支援センター","province":"東京都","city":"西東京市","address":"西東京市住吉町6-15-6住吉会館1階","lat":35.744433,"lon":139.55129},{"name":"西東京市子ども家庭支援センター","province":"東京都","city":"西東京市","address":"西東京市住吉町6-15-6住吉会館2階","lat":35.74402,"lon":139.55215},{"name":"西東京市子ども家庭支援センター","province":"東京都","city":"西東京市","address":"西東京市住吉町6-15-6住吉会館1階","lat":35.74402,"lon":139.55216},{"name":"シュプロスひばりヶ丘教室","province":"東京都","city":"西東京市","address":"西東京市谷戸町二丁目15番13号","lat":35.748988,"lon":139.543105},{"name":"たまみずきひばり","province":"東京都","city":"西東京市","address":"西東京市北原町1-38-2","lat":35.738011,"lon":139.545997},{"name":"療育型児童デイサービスさざんか第１","province":"東京都","city":"西東京市","address":"西東京市田無町7-8-14","lat":35.732873,"lon":139.530581},{"name":"くろーばーきっず","province":"東京都","city":"西東京市","address":"西東京市田無町4-17-14","lat":35.729365,"lon":139.535556},{"name":"療育型児童デイサービスさざんか第５","province":"東京都","city":"西東京市","address":"西東京市田無町5-5-12","lat":35.731809,"lon":139.536209},{"name":"放課後等デイサービス　らぷあ田無","province":"東京都","city":"西東京市","address":"西東京市向台町1-16-20ふじマンション2階B号","lat":35.719558,"lon":139.543331},{"name":"ととろクラブ","province":"東京都","city":"西東京市","address":"西東京市芝久保町2-22-33","lat":35.725984,"lon":139.520824},{"name":"ととろキッズ","province":"東京都","city":"西東京市","address":"西東京市芝久保町2-22-32-102","lat":35.726248,"lon":139.52061},{"name":"ジョブチャレンジひばり","province":"東京都","city":"西東京市","address":"西東京市ひばりが丘3-1-23","lat":35.745766,"lon":139.537066},{"name":"シュプロスひばりヶ丘教室Ⅱ","province":"東京都","city":"西東京市","address":"西東京市ひばりが丘1-8-24","lat":35.750663,"lon":139.542288},{"name":"Pur　aile　ひばりが丘","province":"東京都","city":"西東京市","address":"西東京市ひばりが丘北3-7-14メゾンウィステリア1階","lat":35.75269,"lon":139.547988},{"name":"くまさん　保谷教室","province":"東京都","city":"西東京市","address":"西東京市東町二丁目9番7号","lat":35.746577,"lon":139.561434},{"name":"ＳＴＥＰ保谷","province":"東京都","city":"西東京市","address":"西東京市東町3-5-5","lat":35.747408,"lon":139.56625},{"name":"りぼん","province":"東京都","city":"西東京市","address":"西東京市保谷町2-10-12菊池ビル102号","lat":35.73036,"lon":139.554699},{"name":"ＳＴＥＰ西東京","province":"東京都","city":"西東京市","address":"西東京市保谷町1-8-4","lat":35.734434,"lon":139.555735},{"name":"ウイング西東京","province":"東京都","city":"西東京市","address":"西東京市東伏見2-4-10","lat":35.728263,"lon":139.563515},{"name":"りぼんＵ","province":"東京都","city":"西東京市","address":"西東京市柳沢6-4-3-106","lat":35.72736,"lon":139.552658},{"name":"西東京市子ども家庭支援センター","province":"東京都","city":"西東京市","address":"西東京市住吉町6-15-6住吉会館1階","lat":35.744433,"lon":139.55129},{"name":"西東京市子ども家庭支援センター","province":"東京都","city":"西東京市","address":"西東京市住吉町6-15-6住吉会館2階","lat":35.74402,"lon":139.55215},{"name":"西東京市子ども家庭支援センター","province":"東京都","city":"西東京市","address":"西東京市住吉町6-15-6住吉会館1階","lat":35.74402,"lon":139.55216},{"name":"シュプロスひばりヶ丘教室","province":"東京都","city":"西東京市","address":"西東京市谷戸町二丁目15番13号","lat":35.748988,"lon":139.543105},{"name":"たまみずきひばり","province":"東京都","city":"西東京市","address":"西東京市北原町1-38-2","lat":35.738011,"lon":139.545997},{"name":"療育型児童デイサービスさざんか第１","province":"東京都","city":"西東京市","address":"西東京市田無町7-8-14","lat":35.732873,"lon":139.530581},{"name":"くろーばーきっず","province":"東京都","city":"西東京市","address":"西東京市田無町4-17-14","lat":35.729365,"lon":139.535556},{"name":"療育型児童デイサービスさざんか第５","province":"東京都","city":"西東京市","address":"西東京市田無町5-5-12","lat":35.731809,"lon":139.536209},{"name":"放課後等デイサービス　らぷあ田無","province":"東京都","city":"西東京市","address":"西東京市向台町1-16-20ふじマンション2階B号","lat":35.719558,"lon":139.543331},{"name":"ととろクラブ","province":"東京都","city":"西東京市","address":"西東京市芝久保町2-22-33","lat":35.725984,"lon":139.520824},{"name":"ととろキッズ","province":"東京都","city":"西東京市","address":"西東京市芝久保町2-22-32-102","lat":35.726248,"lon":139.52061},{"name":"ジョブチャレンジひばり","province":"東京都","city":"西東京市","address":"西東京市ひばりが丘3-1-23","lat":35.745766,"lon":139.537066},{"name":"シュプロスひばりヶ丘教室Ⅱ","province":"東京都","city":"西東京市","address":"西東京市ひばりが丘1-8-24","lat":35.750663,"lon":139.542288},{"name":"Pur　aile　ひばりが丘","province":"東京都","city":"西東京市","address":"西東京市ひばりが丘北3-7-14メゾンウィステリア1階","lat":35.75269,"lon":139.547988},{"name":"くまさん　保谷教室","province":"東京都","city":"西東京市","address":"西東京市東町二丁目9番7号","lat":35.746577,"lon":139.561434},{"name":"ＳＴＥＰ保谷","province":"東京都","city":"西東京市","address":"西東京市東町3-5-5","lat":35.747408,"lon":139.56625},{"name":"りぼん","province":"東京都","city":"西東京市","address":"西東京市保谷町2-10-12菊池ビル102号","lat":35.73036,"lon":139.554699},{"name":"ＳＴＥＰ西東京","province":"東京都","city":"西東京市","address":"西東京市保谷町1-8-4","lat":35.734434,"lon":139.555735},{"name":"ウイング西東京","province":"東京都","city":"西東京市","address":"西東京市東伏見2-4-10","lat":35.728263,"lon":139.563515},{"name":"りぼんＵ","province":"東京都","city":"西東京市","address":"西東京市柳沢6-4-3-106","lat":35.72736,"lon":139.552658},{"name":"西東京市子ども家庭支援センター","province":"東京都","city":"西東京市","address":"西東京市住吉町6-15-6住吉会館1階","lat":35.744433,"lon":139.55129},{"name":"西東京市子ども家庭支援センター","province":"東京都","city":"西東京市","address":"西東京市住吉町6-15-6住吉会館2階","lat":35.74402,"lon":139.55215},{"name":"西東京市子ども家庭支援センター","province":"東京都","city":"西東京市","address":"西東京市住吉町6-15-6住吉会館1階","lat":35.74402,"lon":139.55216},{"name":"シュプロスひばりヶ丘教室","province":"東京都","city":"西東京市","address":"西東京市谷戸町二丁目15番13号","lat":35.748988,"lon":139.543105},{"name":"たまみずきひばり","province":"東京都","city":"西東京市","address":"西東京市北原町1-38-2","lat":35.738011,"lon":139.545997},{"name":"療育型児童デイサービスさざんか第１","province":"東京都","city":"西東京市","address":"西東京市田無町7-8-14","lat":35.732873,"lon":139.530581},{"name":"くろーばーきっず","province":"東京都","city":"西東京市","address":"西東京市田無町4-17-14","lat":35.729365,"lon":139.535556},{"name":"療育型児童デイサービスさざんか第５","province":"東京都","city":"西東京市","address":"西東京市田無町5-5-12","lat":35.731809,"lon":139.536209},{"name":"放課後等デイサービス　らぷあ田無","province":"東京都","city":"西東京市","address":"西東京市向台町1-16-20ふじマンション2階B号","lat":35.719558,"lon":139.543331},{"name":"ととろクラブ","province":"東京都","city":"西東京市","address":"西東京市芝久保町2-22-33","lat":35.725984,"lon":139.520824},{"name":"ととろキッズ","province":"東京都","city":"西東京市","address":"西東京市芝久保町2-22-32-102","lat":35.726248,"lon":139.52061},{"name":"ジョブチャレンジひばり","province":"東京都","city":"西東京市","address":"西東京市ひばりが丘3-1-23","lat":35.745766,"lon":139.537066},{"name":"シュプロスひばりヶ丘教室Ⅱ","province":"東京都","city":"西東京市","address":"西東京市ひばりが丘1-8-24","lat":35.750663,"lon":139.542288},{"name":"Pur　aile　ひばりが丘","province":"東京都","city":"西東京市","address":"西東京市ひばりが丘北3-7-14メゾンウィステリア1階","lat":35.75269,"lon":139.547988},{"name":"くまさん　保谷教室","province":"東京都","city":"西東京市","address":"西東京市東町二丁目9番7号","lat":35.746577,"lon":139.561434},{"name":"ＳＴＥＰ保谷","province":"東京都","city":"西東京市","address":"西東京市東町3-5-5","lat":35.747408,"lon":139.56625},{"name":"りぼん","province":"東京都","city":"西東京市","address":"西東京市保谷町2-10-12菊池ビル102号","lat":35.73036,"lon":139.554699},{"name":"ＳＴＥＰ西東京","province":"東京都","city":"西東京市","address":"西東京市保谷町1-8-4","lat":35.734434,"lon":139.555735},{"name":"ウイング西東京","province":"東京都","city":"西東京市","address":"西東京市東伏見2-4-10","lat":35.728263,"lon":139.563515},{"name":"りぼんＵ","province":"東京都","city":"西東京市","address":"西東京市柳沢6-4-3-106","lat":35.72736,"lon":139.552658},{"name":"西東京市子ども家庭支援センター","province":"東京都","city":"西東京市","address":"西東京市住吉町6-15-6住吉会館1階","lat":35.744433,"lon":139.55129},{"name":"西東京市子ども家庭支援センター","province":"東京都","city":"西東京市","address":"西東京市住吉町6-15-6住吉会館2階","lat":35.74402,"lon":139.55215},{"name":"西東京市子ども家庭支援センター","province":"東京都","city":"西東京市","address":"西東京市住吉町6-15-6住吉会館1階","lat":35.74402,"lon":139.55216},{"name":"シュプロスひばりヶ丘教室","province":"東京都","city":"西東京市","address":"西東京市谷戸町二丁目15番13号","lat":35.748988,"lon":139.543105},{"name":"たまみずきひばり","province":"東京都","city":"西東京市","address":"西東京市北原町1-38-2","lat":35.738011,"lon":139.545997},{"name":"療育型児童デイサービスさざんか第１","province":"東京都","city":"西東京市","address":"西東京市田無町7-8-14","lat":35.732873,"lon":139.530581},{"name":"くろーばーきっず","province":"東京都","city":"西東京市","address":"西東京市田無町4-17-14","lat":35.729365,"lon":139.535556},{"name":"療育型児童デイサービスさざんか第５","province":"東京都","city":"西東京市","address":"西東京市田無町5-5-12","lat":35.731809,"lon":139.536209},{"name":"放課後等デイサービス　らぷあ田無","province":"東京都","city":"西東京市","address":"西東京市向台町1-16-20ふじマンション2階B号","lat":35.719558,"lon":139.543331},{"name":"ととろクラブ","province":"東京都","city":"西東京市","address":"西東京市芝久保町2-22-33","lat":35.725984,"lon":139.520824},{"name":"ととろキッズ","province":"東京都","city":"西東京市","address":"西東京市芝久保町2-22-32-102","lat":35.726248,"lon":139.52061},{"name":"ジョブチャレンジひばり","province":"東京都","city":"西東京市","address":"西東京市ひばりが丘3-1-23","lat":35.745766,"lon":139.537066},{"name":"シュプロスひばりヶ丘教室Ⅱ","province":"東京都","city":"西東京市","address":"西東京市ひばりが丘1-8-24","lat":35.750663,"lon":139.542288},{"name":"Pur　aile　ひばりが丘","province":"東京都","city":"西東京市","address":"西東京市ひばりが丘北3-7-14メゾンウィステリア1階","lat":35.75269,"lon":139.547988},{"name":"くまさん　保谷教室","province":"東京都","city":"西東京市","address":"西東京市東町二丁目9番7号","lat":35.746577,"lon":139.561434},{"name":"ＳＴＥＰ保谷","province":"東京都","city":"西東京市","address":"西東京市東町3-5-5","lat":35.747408,"lon":139.56625},{"name":"りぼん","province":"東京都","city":"西東京市","address":"西東京市保谷町2-10-12菊池ビル102号","lat":35.73036,"lon":139.554699},{"name":"ＳＴＥＰ西東京","province":"東京都","city":"西東京市","address":"西東京市保谷町1-8-4","lat":35.734434,"lon":139.555735},{"name":"ウイング西東京","province":"東京都","city":"西東京市","address":"西東京市東伏見2-4-10","lat":35.728263,"lon":139.563515},{"name":"りぼんＵ","province":"東京都","city":"西東京市","address":"西東京市柳沢6-4-3-106","lat":35.72736,"lon":139.552658},{"name":"西東京市子ども家庭支援センター","province":"東京都","city":"西東京市","address":"西東京市住吉町6-15-6住吉会館1階","lat":35.744433,"lon":139.55129},{"name":"西東京市子ども家庭支援センター","province":"東京都","city":"西東京市","address":"西東京市住吉町6-15-6住吉会館2階","lat":35.74402,"lon":139.55215},{"name":"西東京市子ども家庭支援センター","province":"東京都","city":"西東京市","address":"西東京市住吉町6-15-6住吉会館1階","lat":35.74402,"lon":139.55216},{"name":"シュプロスひばりヶ丘教室","province":"東京都","city":"西東京市","address":"西東京市谷戸町二丁目15番13号","lat":35.748988,"lon":139.543105},{"name":"たまみずきひばり","province":"東京都","city":"西東京市","address":"西東京市北原町1-38-2","lat":35.738011,"lon":139.545997},{"name":"療育型児童デイサービスさざんか第１","province":"東京都","city":"西東京市","address":"西東京市田無町7-8-14","lat":35.732873,"lon":139.530581},{"name":"くろーばーきっず","province":"東京都","city":"西東京市","address":"西東京市田無町4-17-14","lat":35.729365,"lon":139.535556},{"name":"療育型児童デイサービスさざんか第５","province":"東京都","city":"西東京市","address":"西東京市田無町5-5-12","lat":35.731809,"lon":139.536209},{"name":"放課後等デイサービス　らぷあ田無","province":"東京都","city":"西東京市","address":"西東京市向台町1-16-20ふじマンション2階B号","lat":35.719558,"lon":139.543331},{"name":"ととろクラブ","province":"東京都","city":"西東京市","address":"西東京市芝久保町2-22-33","lat":35.725984,"lon":139.520824},{"name":"ととろキッズ","province":"東京都","city":"西東京市","address":"西東京市芝久保町2-22-32-102","lat":35.726248,"lon":139.52061},{"name":"ジョブチャレンジひばり","province":"東京都","city":"西東京市","address":"西東京市ひばりが丘3-1-23","lat":35.745766,"lon":139.537066},{"name":"シュプロスひばりヶ丘教室Ⅱ","province":"東京都","city":"西東京市","address":"西東京市ひばりが丘1-8-24","lat":35.750663,"lon":139.542288},{"name":"Pur　aile　ひばりが丘","province":"東京都","city":"西東京市","address":"西東京市ひばりが丘北3-7-14メゾンウィステリア1階","lat":35.75269,"lon":139.547988},{"name":"くまさん　保谷教室","province":"東京都","city":"西東京市","address":"西東京市東町二丁目9番7号","lat":35.746577,"lon":139.561434},{"name":"ＳＴＥＰ保谷","province":"東京都","city":"西東京市","address":"西東京市東町3-5-5","lat":35.747408,"lon":139.56625},{"name":"りぼん","province":"東京都","city":"西東京市","address":"西東京市保谷町2-10-12菊池ビル102号","lat":35.73036,"lon":139.554699},{"name":"ＳＴＥＰ西東京","province":"東京都","city":"西東京市","address":"西東京市保谷町1-8-4","lat":35.734434,"lon":139.555735},{"name":"ウイング西東京","province":"東京都","city":"西東京市","address":"西東京市東伏見2-4-10","lat":35.728263,"lon":139.563515},{"name":"りぼんＵ","province":"東京都","city":"西東京市","address":"西東京市柳沢6-4-3-106","lat":35.72736,"lon":139.552658},{"name":"西東京市子ども家庭支援センター","province":"東京都","city":"西東京市","address":"西東京市住吉町6-15-6住吉会館1階","lat":35.744433,"lon":139.55129},{"name":"西東京市子ども家庭支援センター","province":"東京都","city":"西東京市","address":"西東京市住吉町6-15-6住吉会館2階","lat":35.74402,"lon":139.55215},{"name":"西東京市子ども家庭支援センター","province":"東京都","city":"西東京市","address":"西東京市住吉町6-15-6住吉会館1階","lat":35.74402,"lon":139.55216},{"name":"シュプロスひばりヶ丘教室","province":"東京都","city":"西東京市","address":"西東京市谷戸町二丁目15番13号","lat":35.748988,"lon":139.543105},{"name":"たまみずきひばり","province":"東京都","city":"西東京市","address":"西東京市北原町1-38-2","lat":35.738011,"lon":139.545997},{"name":"療育型児童デイサービスさざんか第１","province":"東京都","city":"西東京市","address":"西東京市田無町7-8-14","lat":35.732873,"lon":139.530581},{"name":"くろーばーきっず","province":"東京都","city":"西東京市","address":"西東京市田無町4-17-14","lat":35.729365,"lon":139.535556},{"name":"療育型児童デイサービスさざんか第５","province":"東京都","city":"西東京市","address":"西東京市田無町5-5-12","lat":35.731809,"lon":139.536209},{"name":"放課後等デイサービス　らぷあ田無","province":"東京都","city":"西東京市","address":"西東京市向台町1-16-20ふじマンション2階B号","lat":35.719558,"lon":139.543331},{"name":"ととろクラブ","province":"東京都","city":"西東京市","address":"西東京市芝久保町2-22-33","lat":35.725984,"lon":139.520824},{"name":"ととろキッズ","province":"東京都","city":"西東京市","address":"西東京市芝久保町2-22-32-102","lat":35.726248,"lon":139.52061},{"name":"ジョブチャレンジひばり","province":"東京都","city":"西東京市","address":"西東京市ひばりが丘3-1-23","lat":35.745766,"lon":139.537066},{"name":"シュプロスひばりヶ丘教室Ⅱ","province":"東京都","city":"西東京市","address":"西東京市ひばりが丘1-8-24","lat":35.750663,"lon":139.542288},{"name":"Pur　aile　ひばりが丘","province":"東京都","city":"西東京市","address":"西東京市ひばりが丘北3-7-14メゾンウィステリア1階","lat":35.75269,"lon":139.547988},{"name":"くまさん　保谷教室","province":"東京都","city":"西東京市","address":"西東京市東町二丁目9番7号","lat":35.746577,"lon":139.561434},{"name":"ＳＴＥＰ保谷","province":"東京都","city":"西東京市","address":"西東京市東町3-5-5","lat":35.747408,"lon":139.56625},{"name":"りぼん","province":"東京都","city":"西東京市","address":"西東京市保谷町2-10-12菊池ビル102号","lat":35.73036,"lon":139.554699},{"name":"ＳＴＥＰ西東京","province":"東京都","city":"西東京市","address":"西東京市保谷町1-8-4","lat":35.734434,"lon":139.555735},{"name":"ウイング西東京","province":"東京都","city":"西東京市","address":"西東京市東伏見2-4-10","lat":35.728263,"lon":139.563515},{"name":"りぼんＵ","province":"東京都","city":"西東京市","address":"西東京市柳沢6-4-3-106","lat":35.72736,"lon":139.552658},{"name":"西東京市子ども家庭支援センター","province":"東京都","city":"西東京市","address":"西東京市住吉町6-15-6住吉会館1階","lat":35.744433,"lon":139.55129},{"name":"西東京市子ども家庭支援センター","province":"東京都","city":"西東京市","address":"西東京市住吉町6-15-6住吉会館2階","lat":35.74402,"lon":139.55215},{"name":"西東京市子ども家庭支援センター","province":"東京都","city":"西東京市","address":"西東京市住吉町6-15-6住吉会館1階","lat":35.74402,"lon":139.55216},{"name":"シュプロスひばりヶ丘教室","province":"東京都","city":"西東京市","address":"西東京市谷戸町二丁目15番13号","lat":35.748988,"lon":139.543105},{"name":"たまみずきひばり","province":"東京都","city":"西東京市","address":"西東京市北原町1-38-2","lat":35.738011,"lon":139.545997},{"name":"療育型児童デイサービスさざんか第１","province":"東京都","city":"西東京市","address":"西東京市田無町7-8-14","lat":35.732873,"lon":139.530581},{"name":"くろーばーきっず","province":"東京都","city":"西東京市","address":"西東京市田無町4-17-14","lat":35.729365,"lon":139.535556},{"name":"療育型児童デイサービスさざんか第５","province":"東京都","city":"西東京市","address":"西東京市田無町5-5-12","lat":35.731809,"lon":139.536209},{"name":"放課後等デイサービス　らぷあ田無","province":"東京都","city":"西東京市","address":"西東京市向台町1-16-20ふじマンション2階B号","lat":35.719558,"lon":139.543331},{"name":"ととろクラブ","province":"東京都","city":"西東京市","address":"西東京市芝久保町2-22-33","lat":35.725984,"lon":139.520824},{"name":"ととろキッズ","province":"東京都","city":"西東京市","address":"西東京市芝久保町2-22-32-102","lat":35.726248,"lon":139.52061},{"name":"ジョブチャレンジひばり","province":"東京都","city":"西東京市","address":"西東京市ひばりが丘3-1-23","lat":35.745766,"lon":139.537066},{"name":"シュプロスひばりヶ丘教室Ⅱ","province":"東京都","city":"西東京市","address":"西東京市ひばりが丘1-8-24","lat":35.750663,"lon":139.542288},{"name":"Pur　aile　ひばりが丘","province":"東京都","city":"西東京市","address":"西東京市ひばりが丘北3-7-14メゾンウィステリア1階","lat":35.75269,"lon":139.547988},{"name":"くまさん　保谷教室","province":"東京都","city":"西東京市","address":"西東京市東町二丁目9番7号","lat":35.746577,"lon":139.561434},{"name":"ＳＴＥＰ保谷","province":"東京都","city":"西東京市","address":"西東京市東町3-5-5","lat":35.747408,"lon":139.56625},{"name":"りぼん","province":"東京都","city":"西東京市","address":"西東京市保谷町2-10-12菊池ビル102号","lat":35.73036,"lon":139.554699},{"name":"ＳＴＥＰ西東京","province":"東京都","city":"西東京市","address":"西東京市保谷町1-8-4","lat":35.734434,"lon":139.555735},{"name":"ウイング西東京","province":"東京都","city":"西東京市","address":"西東京市東伏見2-4-10","lat":35.728263,"lon":139.563515},{"name":"りぼんＵ","province":"東京都","city":"西東京市","address":"西東京市柳沢6-4-3-106","lat":35.72736,"lon":139.552658},{"name":"西東京市子ども家庭支援センター","province":"東京都","city":"西東京市","address":"西東京市住吉町6-15-6住吉会館1階","lat":35.744433,"lon":139.55129},{"name":"西東京市子ども家庭支援センター","province":"東京都","city":"西東京市","address":"西東京市住吉町6-15-6住吉会館2階","lat":35.74402,"lon":139.55215},{"name":"西東京市子ども家庭支援センター","province":"東京都","city":"西東京市","address":"西東京市住吉町6-15-6住吉会館1階","lat":35.74402,"lon":139.55216},{"name":"シュプロスひばりヶ丘教室","province":"東京都","city":"西東京市","address":"西東京市谷戸町二丁目15番13号","lat":35.748988,"lon":139.543105},{"name":"たまみずきひばり","province":"東京都","city":"西東京市","address":"西東京市北原町1-38-2","lat":35.738011,"lon":139.545997},{"name":"療育型児童デイサービスさざんか第１","province":"東京都","city":"西東京市","address":"西東京市田無町7-8-14","lat":35.732873,"lon":139.530581},{"name":"くろーばーきっず","province":"東京都","city":"西東京市","address":"西東京市田無町4-17-14","lat":35.729365,"lon":139.535556},{"name":"療育型児童デイサービスさざんか第５","province":"東京都","city":"西東京市","address":"西東京市田無町5-5-12","lat":35.731809,"lon":139.536209},{"name":"放課後等デイサービス　らぷあ田無","province":"東京都","city":"西東京市","address":"西東京市向台町1-16-20ふじマンション2階B号","lat":35.719558,"lon":139.543331},{"name":"ととろクラブ","province":"東京都","city":"西東京市","address":"西東京市芝久保町2-22-33","lat":35.725984,"lon":139.520824},{"name":"ととろキッズ","province":"東京都","city":"西東京市","address":"西東京市芝久保町2-22-32-102","lat":35.726248,"lon":139.52061},{"name":"ジョブチャレンジひばり","province":"東京都","city":"西東京市","address":"西東京市ひばりが丘3-1-23","lat":35.745766,"lon":139.537066},{"name":"シュプロスひばりヶ丘教室Ⅱ","province":"東京都","city":"西東京市","address":"西東京市ひばりが丘1-8-24","lat":35.750663,"lon":139.542288},{"name":"Pur　aile　ひばりが丘","province":"東京都","city":"西東京市","address":"西東京市ひばりが丘北3-7-14メゾンウィステリア1階","lat":35.75269,"lon":139.547988},{"name":"くまさん　保谷教室","province":"東京都","city":"西東京市","address":"西東京市東町二丁目9番7号","lat":35.746577,"lon":139.561434},{"name":"ＳＴＥＰ保谷","province":"東京都","city":"西東京市","address":"西東京市東町3-5-5","lat":35.747408,"lon":139.56625},{"name":"りぼん","province":"東京都","city":"西東京市","address":"西東京市保谷町2-10-12菊池ビル102号","lat":35.73036,"lon":139.554699},{"name":"ＳＴＥＰ西東京","province":"東京都","city":"西東京市","address":"西東京市保谷町1-8-4","lat":35.734434,"lon":139.555735},{"name":"ウイング西東京","province":"東京都","city":"西東京市","address":"西東京市東伏見2-4-10","lat":35.728263,"lon":139.563515},{"name":"りぼんＵ","province":"東京都","city":"西東京市","address":"西東京市柳沢6-4-3-106","lat":35.72736,"lon":139.552658},{"name":"西東京市子ども家庭支援センター","province":"東京都","city":"西東京市","address":"西東京市住吉町6-15-6住吉会館1階","lat":35.744433,"lon":139.55129},{"name":"西東京市子ども家庭支援センター","province":"東京都","city":"西東京市","address":"西東京市住吉町6-15-6住吉会館2階","lat":35.74402,"lon":139.55215},{"name":"西東京市子ども家庭支援センター","province":"東京都","city":"西東京市","address":"西東京市住吉町6-15-6住吉会館1階","lat":35.74402,"lon":139.55216},{"name":"シュプロスひばりヶ丘教室","province":"東京都","city":"西東京市","address":"西東京市谷戸町二丁目15番13号","lat":35.748988,"lon":139.543105},{"name":"たまみずきひばり","province":"東京都","city":"西東京市","address":"西東京市北原町1-38-2","lat":35.738011,"lon":139.545997},{"name":"療育型児童デイサービスさざんか第１","province":"東京都","city":"西東京市","address":"西東京市田無町7-8-14","lat":35.732873,"lon":139.530581},{"name":"くろーばーきっず","province":"東京都","city":"西東京市","address":"西東京市田無町4-17-14","lat":35.729365,"lon":139.535556},{"name":"療育型児童デイサービスさざんか第５","province":"東京都","city":"西東京市","address":"西東京市田無町5-5-12","lat":35.731809,"lon":139.536209},{"name":"放課後等デイサービス　らぷあ田無","province":"東京都","city":"西東京市","address":"西東京市向台町1-16-20ふじマンション2階B号","lat":35.719558,"lon":139.543331},{"name":"ととろクラブ","province":"東京都","city":"西東京市","address":"西東京市芝久保町2-22-33","lat":35.725984,"lon":139.520824},{"name":"ととろキッズ","province":"東京都","city":"西東京市","address":"西東京市芝久保町2-22-32-102","lat":35.726248,"lon":139.52061},{"name":"ジョブチャレンジひばり","province":"東京都","city":"西東京市","address":"西東京市ひばりが丘3-1-23","lat":35.745766,"lon":139.537066},{"name":"シュプロスひばりヶ丘教室Ⅱ","province":"東京都","city":"西東京市","address":"西東京市ひばりが丘1-8-24","lat":35.750663,"lon":139.542288},{"name":"Pur　aile　ひばりが丘","province":"東京都","city":"西東京市","address":"西東京市ひばりが丘北3-7-14メゾンウィステリア1階","lat":35.75269,"lon":139.547988},{"name":"くまさん　保谷教室","province":"東京都","city":"西東京市","address":"西東京市東町二丁目9番7号","lat":35.746577,"lon":139.561434},{"name":"ＳＴＥＰ保谷","province":"東京都","city":"西東京市","address":"西東京市東町3-5-5","lat":35.747408,"lon":139.56625},{"name":"りぼん","province":"東京都","city":"西東京市","address":"西東京市保谷町2-10-12菊池ビル102号","lat":35.73036,"lon":139.554699},{"name":"ＳＴＥＰ西東京","province":"東京都","city":"西東京市","address":"西東京市保谷町1-8-4","lat":35.734434,"lon":139.555735},{"name":"ウイング西東京","province":"東京都","city":"西東京市","address":"西東京市東伏見2-4-10","lat":35.728263,"lon":139.563515},{"name":"りぼんＵ","province":"東京都","city":"西東京市","address":"西東京市柳沢6-4-3-106","lat":35.72736,"lon":139.552658},{"name":"西東京市子ども家庭支援センター","province":"東京都","city":"西東京市","address":"西東京市住吉町6-15-6住吉会館1階","lat":35.744433,"lon":139.55129},{"name":"西東京市子ども家庭支援センター","province":"東京都","city":"西東京市","address":"西東京市住吉町6-15-6住吉会館2階","lat":35.74402,"lon":139.55215},{"name":"西東京市子ども家庭支援センター","province":"東京都","city":"西東京市","address":"西東京市住吉町6-15-6住吉会館1階","lat":35.74402,"lon":139.55216},{"name":"シュプロスひばりヶ丘教室","province":"東京都","city":"西東京市","address":"西東京市谷戸町二丁目15番13号","lat":35.748988,"lon":139.543105},{"name":"たまみずきひばり","province":"東京都","city":"西東京市","address":"西東京市北原町1-38-2","lat":35.738011,"lon":139.545997},{"name":"療育型児童デイサービスさざんか第１","province":"東京都","city":"西東京市","address":"西東京市田無町7-8-14","lat":35.732873,"lon":139.530581},{"name":"くろーばーきっず","province":"東京都","city":"西東京市","address":"西東京市田無町4-17-14","lat":35.729365,"lon":139.535556},{"name":"療育型児童デイサービスさざんか第５","province":"東京都","city":"西東京市","address":"西東京市田無町5-5-12","lat":35.731809,"lon":139.536209},{"name":"放課後等デイサービス　らぷあ田無","province":"東京都","city":"西東京市","address":"西東京市向台町1-16-20ふじマンション2階B号","lat":35.719558,"lon":139.543331},{"name":"ととろクラブ","province":"東京都","city":"西東京市","address":"西東京市芝久保町2-22-33","lat":35.725984,"lon":139.520824},{"name":"ととろキッズ","province":"東京都","city":"西東京市","address":"西東京市芝久保町2-22-32-102","lat":35.726248,"lon":139.52061},{"name":"ジョブチャレンジひばり","province":"東京都","city":"西東京市","address":"西東京市ひばりが丘3-1-23","lat":35.745766,"lon":139.537066},{"name":"シュプロスひばりヶ丘教室Ⅱ","province":"東京都","city":"西東京市","address":"西東京市ひばりが丘1-8-24","lat":35.750663,"lon":139.542288},{"name":"Pur　aile　ひばりが丘","province":"東京都","city":"西東京市","address":"西東京市ひばりが丘北3-7-14メゾンウィステリア1階","lat":35.75269,"lon":139.547988},{"name":"くまさん　保谷教室","province":"東京都","city":"西東京市","address":"西東京市東町二丁目9番7号","lat":35.746577,"lon":139.561434},{"name":"ＳＴＥＰ保谷","province":"東京都","city":"西東京市","address":"西東京市東町3-5-5","lat":35.747408,"lon":139.56625},{"name":"りぼん","province":"東京都","city":"西東京市","address":"西東京市保谷町2-10-12菊池ビル102号","lat":35.73036,"lon":139.554699},{"name":"ＳＴＥＰ西東京","province":"東京都","city":"西東京市","address":"西東京市保谷町1-8-4","lat":35.734434,"lon":139.555735},{"name":"ウイング西東京","province":"東京都","city":"西東京市","address":"西東京市東伏見2-4-10","lat":35.728263,"lon":139.563515},{"name":"りぼんＵ","province":"東京都","city":"西東京市","address":"西東京市柳沢6-4-3-106","lat":35.72736,"lon":139.552658},{"name":"西東京市子ども家庭支援センター","province":"東京都","city":"西東京市","address":"西東京市住吉町6-15-6住吉会館1階","lat":35.744433,"lon":139.55129},{"name":"西東京市子ども家庭支援センター","province":"東京都","city":"西東京市","address":"西東京市住吉町6-15-6住吉会館2階","lat":35.74402,"lon":139.55215},{"name":"西東京市子ども家庭支援センター","province":"東京都","city":"西東京市","address":"西東京市住吉町6-15-6住吉会館1階","lat":35.74402,"lon":139.55216},{"name":"シュプロスひばりヶ丘教室","province":"東京都","city":"西東京市","address":"西東京市谷戸町二丁目15番13号","lat":35.748988,"lon":139.543105},{"name":"たまみずきひばり","province":"東京都","city":"西東京市","address":"西東京市北原町1-38-2","lat":35.738011,"lon":139.545997},{"name":"療育型児童デイサービスさざんか第１","province":"東京都","city":"西東京市","address":"西東京市田無町7-8-14","lat":35.732873,"lon":139.530581},{"name":"くろーばーきっず","province":"東京都","city":"西東京市","address":"西東京市田無町4-17-14","lat":35.729365,"lon":139.535556},{"name":"療育型児童デイサービスさざんか第５","province":"東京都","city":"西東京市","address":"西東京市田無町5-5-12","lat":35.731809,"lon":139.536209},{"name":"放課後等デイサービス　らぷあ田無","province":"東京都","city":"西東京市","address":"西東京市向台町1-16-20ふじマンション2階B号","lat":35.719558,"lon":139.543331},{"name":"ととろクラブ","province":"東京都","city":"西東京市","address":"西東京市芝久保町2-22-33","lat":35.725984,"lon":139.520824},{"name":"ととろキッズ","province":"東京都","city":"西東京市","address":"西東京市芝久保町2-22-32-102","lat":35.726248,"lon":139.52061},{"name":"ジョブチャレンジひばり","province":"東京都","city":"西東京市","address":"西東京市ひばりが丘3-1-23","lat":35.745766,"lon":139.537066},{"name":"シュプロスひばりヶ丘教室Ⅱ","province":"東京都","city":"西東京市","address":"西東京市ひばりが丘1-8-24","lat":35.750663,"lon":139.542288},{"name":"Pur　aile　ひばりが丘","province":"東京都","city":"西東京市","address":"西東京市ひばりが丘北3-7-14メゾンウィステリア1階","lat":35.75269,"lon":139.547988},{"name":"くまさん　保谷教室","province":"東京都","city":"西東京市","address":"西東京市東町二丁目9番7号","lat":35.746577,"lon":139.561434},{"name":"ＳＴＥＰ保谷","province":"東京都","city":"西東京市","address":"西東京市東町3-5-5","lat":35.747408,"lon":139.56625},{"name":"りぼん","province":"東京都","city":"西東京市","address":"西東京市保谷町2-10-12菊池ビル102号","lat":35.73036,"lon":139.554699},{"name":"ＳＴＥＰ西東京","province":"東京都","city":"西東京市","address":"西東京市保谷町1-8-4","lat":35.734434,"lon":139.555735},{"name":"ウイング西東京","province":"東京都","city":"西東京市","address":"西東京市東伏見2-4-10","lat":35.728263,"lon":139.563515},{"name":"りぼんＵ","province":"東京都","city":"西東京市","address":"西東京市柳沢6-4-3-106","lat":35.72736,"lon":139.552658},{"name":"西東京市子ども家庭支援センター","province":"東京都","city":"西東京市","address":"西東京市住吉町6-15-6住吉会館1階","lat":35.744433,"lon":139.55129},{"name":"西東京市子ども家庭支援センター","province":"東京都","city":"西東京市","address":"西東京市住吉町6-15-6住吉会館2階","lat":35.74402,"lon":139.55215},{"name":"西東京市子ども家庭支援センター","province":"東京都","city":"西東京市","address":"西東京市住吉町6-15-6住吉会館1階","lat":35.74402,"lon":139.55216},{"name":"シュプロスひばりヶ丘教室","province":"東京都","city":"西東京市","address":"西東京市谷戸町二丁目15番13号","lat":35.748988,"lon":139.543105},{"name":"たまみずきひばり","province":"東京都","city":"西東京市","address":"西東京市北原町1-38-2","lat":35.738011,"lon":139.545997},{"name":"療育型児童デイサービスさざんか第１","province":"東京都","city":"西東京市","address":"西東京市田無町7-8-14","lat":35.732873,"lon":139.530581},{"name":"くろーばーきっず","province":"東京都","city":"西東京市","address":"西東京市田無町4-17-14","lat":35.729365,"lon":139.535556},{"name":"療育型児童デイサービスさざんか第５","province":"東京都","city":"西東京市","address":"西東京市田無町5-5-12","lat":35.731809,"lon":139.536209},{"name":"放課後等デイサービス　らぷあ田無","province":"東京都","city":"西東京市","address":"西東京市向台町1-16-20ふじマンション2階B号","lat":35.719558,"lon":139.543331},{"name":"ととろクラブ","province":"東京都","city":"西東京市","address":"西東京市芝久保町2-22-33","lat":35.725984,"lon":139.520824},{"name":"ととろキッズ","province":"東京都","city":"西東京市","address":"西東京市芝久保町2-22-32-102","lat":35.726248,"lon":139.52061},{"name":"ジョブチャレンジひばり","province":"東京都","city":"西東京市","address":"西東京市ひばりが丘3-1-23","lat":35.745766,"lon":139.537066},{"name":"シュプロスひばりヶ丘教室Ⅱ","province":"東京都","city":"西東京市","address":"西東京市ひばりが丘1-8-24","lat":35.750663,"lon":139.542288},{"name":"Pur　aile　ひばりが丘","province":"東京都","city":"西東京市","address":"西東京市ひばりが丘北3-7-14メゾンウィステリア1階","lat":35.75269,"lon":139.547988},{"name":"くまさん　保谷教室","province":"東京都","city":"西東京市","address":"西東京市東町二丁目9番7号","lat":35.746577,"lon":139.561434},{"name":"ＳＴＥＰ保谷","province":"東京都","city":"西東京市","address":"西東京市東町3-5-5","lat":35.747408,"lon":139.56625},{"name":"りぼん","province":"東京都","city":"西東京市","address":"西東京市保谷町2-10-12菊池ビル102号","lat":35.73036,"lon":139.554699},{"name":"ＳＴＥＰ西東京","province":"東京都","city":"西東京市","address":"西東京市保谷町1-8-4","lat":35.734434,"lon":139.555735},{"name":"ウイング西東京","province":"東京都","city":"西東京市","address":"西東京市東伏見2-4-10","lat":35.728263,"lon":139.563515},{"name":"りぼんＵ","province":"東京都","city":"西東京市","address":"西東京市柳沢6-4-3-106","lat":35.72736,"lon":139.552658},{"name":"西東京市子ども家庭支援センター","province":"東京都","city":"西東京市","address":"西東京市住吉町6-15-6住吉会館1階","lat":35.744433,"lon":139.55129},{"name":"西東京市子ども家庭支援センター","province":"東京都","city":"西東京市","address":"西東京市住吉町6-15-6住吉会館2階","lat":35.74402,"lon":139.55215},{"name":"西東京市子ども家庭支援センター","province":"東京都","city":"西東京市","address":"西東京市住吉町6-15-6住吉会館1階","lat":35.74402,"lon":139.55216},{"name":"シュプロスひばりヶ丘教室","province":"東京都","city":"西東京市","address":"西東京市谷戸町二丁目15番13号","lat":35.748988,"lon":139.543105},{"name":"たまみずきひばり","province":"東京都","city":"西東京市","address":"西東京市北原町1-38-2","lat":35.738011,"lon":139.545997},{"name":"療育型児童デイサービスさざんか第１","province":"東京都","city":"西東京市","address":"西東京市田無町7-8-14","lat":35.732873,"lon":139.530581},{"name":"くろーばーきっず","province":"東京都","city":"西東京市","address":"西東京市田無町4-17-14","lat":35.729365,"lon":139.535556},{"name":"療育型児童デイサービスさざんか第５","province":"東京都","city":"西東京市","address":"西東京市田無町5-5-12","lat":35.731809,"lon":139.536209},{"name":"放課後等デイサービス　らぷあ田無","province":"東京都","city":"西東京市","address":"西東京市向台町1-16-20ふじマンション2階B号","lat":35.719558,"lon":139.543331},{"name":"ととろクラブ","province":"東京都","city":"西東京市","address":"西東京市芝久保町2-22-33","lat":35.725984,"lon":139.520824},{"name":"ととろキッズ","province":"東京都","city":"西東京市","address":"西東京市芝久保町2-22-32-102","lat":35.726248,"lon":139.52061},{"name":"ジョブチャレンジひばり","province":"東京都","city":"西東京市","address":"西東京市ひばりが丘3-1-23","lat":35.745766,"lon":139.537066},{"name":"シュプロスひばりヶ丘教室Ⅱ","province":"東京都","city":"西東京市","address":"西東京市ひばりが丘1-8-24","lat":35.750663,"lon":139.542288},{"name":"Pur　aile　ひばりが丘","province":"東京都","city":"西東京市","address":"西東京市ひばりが丘北3-7-14メゾンウィステリア1階","lat":35.75269,"lon":139.547988},{"name":"くまさん　保谷教室","province":"東京都","city":"西東京市","address":"西東京市東町二丁目9番7号","lat":35.746577,"lon":139.561434},{"name":"ＳＴＥＰ保谷","province":"東京都","city":"西東京市","address":"西東京市東町3-5-5","lat":35.747408,"lon":139.56625},{"name":"りぼん","province":"東京都","city":"西東京市","address":"西東京市保谷町2-10-12菊池ビル102号","lat":35.73036,"lon":139.554699},{"name":"ＳＴＥＰ西東京","province":"東京都","city":"西東京市","address":"西東京市保谷町1-8-4","lat":35.734434,"lon":139.555735},{"name":"ウイング西東京","province":"東京都","city":"西東京市","address":"西東京市東伏見2-4-10","lat":35.728263,"lon":139.563515},{"name":"りぼんＵ","province":"東京都","city":"西東京市","address":"西東京市柳沢6-4-3-106","lat":35.72736,"lon":139.552658},{"name":"西東京市子ども家庭支援センター","province":"東京都","city":"西東京市","address":"西東京市住吉町6-15-6住吉会館1階","lat":35.744433,"lon":139.55129},{"name":"西東京市子ども家庭支援センター","province":"東京都","city":"西東京市","address":"西東京市住吉町6-15-6住吉会館2階","lat":35.74402,"lon":139.55215},{"name":"西東京市子ども家庭支援センター","province":"東京都","city":"西東京市","address":"西東京市住吉町6-15-6住吉会館1階","lat":35.74402,"lon":139.55216},{"name":"シュプロスひばりヶ丘教室","province":"東京都","city":"西東京市","address":"西東京市谷戸町二丁目15番13号","lat":35.748988,"lon":139.543105},{"name":"たまみずきひばり","province":"東京都","city":"西東京市","address":"西東京市北原町1-38-2","lat":35.738011,"lon":139.545997},{"name":"療育型児童デイサービスさざんか第１","province":"東京都","city":"西東京市","address":"西東京市田無町7-8-14","lat":35.732873,"lon":139.530581},{"name":"くろーばーきっず","province":"東京都","city":"西東京市","address":"西東京市田無町4-17-14","lat":35.729365,"lon":139.535556},{"name":"療育型児童デイサービスさざんか第５","province":"東京都","city":"西東京市","address":"西東京市田無町5-5-12","lat":35.731809,"lon":139.536209},{"name":"放課後等デイサービス　らぷあ田無","province":"東京都","city":"西東京市","address":"西東京市向台町1-16-20ふじマンション2階B号","lat":35.719558,"lon":139.543331},{"name":"ととろクラブ","province":"東京都","city":"西東京市","address":"西東京市芝久保町2-22-33","lat":35.725984,"lon":139.520824},{"name":"ととろキッズ","province":"東京都","city":"西東京市","address":"西東京市芝久保町2-22-32-102","lat":35.726248,"lon":139.52061},{"name":"ジョブチャレンジひばり","province":"東京都","city":"西東京市","address":"西東京市ひばりが丘3-1-23","lat":35.745766,"lon":139.537066},{"name":"シュプロスひばりヶ丘教室Ⅱ","province":"東京都","city":"西東京市","address":"西東京市ひばりが丘1-8-24","lat":35.750663,"lon":139.542288},{"name":"Pur　aile　ひばりが丘","province":"東京都","city":"西東京市","address":"西東京市ひばりが丘北3-7-14メゾンウィステリア1階","lat":35.75269,"lon":139.547988},{"name":"くまさん　保谷教室","province":"東京都","city":"西東京市","address":"西東京市東町二丁目9番7号","lat":35.746577,"lon":139.561434},{"name":"ＳＴＥＰ保谷","province":"東京都","city":"西東京市","address":"西東京市東町3-5-5","lat":35.747408,"lon":139.56625},{"name":"りぼん","province":"東京都","city":"西東京市","address":"西東京市保谷町2-10-12菊池ビル102号","lat":35.73036,"lon":139.554699},{"name":"ＳＴＥＰ西東京","province":"東京都","city":"西東京市","address":"西東京市保谷町1-8-4","lat":35.734434,"lon":139.555735},{"name":"ウイング西東京","province":"東京都","city":"西東京市","address":"西東京市東伏見2-4-10","lat":35.728263,"lon":139.563515},{"name":"りぼんＵ","province":"東京都","city":"西東京市","address":"西東京市柳沢6-4-3-106","lat":35.72736,"lon":139.552658},{"name":"西東京市子ども家庭支援センター","province":"東京都","city":"西東京市","address":"西東京市住吉町6-15-6住吉会館1階","lat":35.744433,"lon":139.55129},{"name":"西東京市子ども家庭支援センター","province":"東京都","city":"西東京市","address":"西東京市住吉町6-15-6住吉会館2階","lat":35.74402,"lon":139.55215},{"name":"西東京市子ども家庭支援センター","province":"東京都","city":"西東京市","address":"西東京市住吉町6-15-6住吉会館1階","lat":35.74402,"lon":139.55216},{"name":"シュプロスひばりヶ丘教室","province":"東京都","city":"西東京市","address":"西東京市谷戸町二丁目15番13号","lat":35.748988,"lon":139.543105},{"name":"たまみずきひばり","province":"東京都","city":"西東京市","address":"西東京市北原町1-38-2","lat":35.738011,"lon":139.545997},{"name":"療育型児童デイサービスさざんか第１","province":"東京都","city":"西東京市","address":"西東京市田無町7-8-14","lat":35.732873,"lon":139.530581},{"name":"くろーばーきっず","province":"東京都","city":"西東京市","address":"西東京市田無町4-17-14","lat":35.729365,"lon":139.535556},{"name":"療育型児童デイサービスさざんか第５","province":"東京都","city":"西東京市","address":"西東京市田無町5-5-12","lat":35.731809,"lon":139.536209},{"name":"放課後等デイサービス　らぷあ田無","province":"東京都","city":"西東京市","address":"西東京市向台町1-16-20ふじマンション2階B号","lat":35.719558,"lon":139.543331},{"name":"ととろクラブ","province":"東京都","city":"西東京市","address":"西東京市芝久保町2-22-33","lat":35.725984,"lon":139.520824},{"name":"ととろキッズ","province":"東京都","city":"西東京市","address":"西東京市芝久保町2-22-32-102","lat":35.726248,"lon":139.52061},{"name":"ジョブチャレンジひばり","province":"東京都","city":"西東京市","address":"西東京市ひばりが丘3-1-23","lat":35.745766,"lon":139.537066},{"name":"シュプロスひばりヶ丘教室Ⅱ","province":"東京都","city":"西東京市","address":"西東京市ひばりが丘1-8-24","lat":35.750663,"lon":139.542288},{"name":"Pur　aile　ひばりが丘","province":"東京都","city":"西東京市","address":"西東京市ひばりが丘北3-7-14メゾンウィステリア1階","lat":35.75269,"lon":139.547988},{"name":"くまさん　保谷教室","province":"東京都","city":"西東京市","address":"西東京市東町二丁目9番7号","lat":35.746577,"lon":139.561434},{"name":"ＳＴＥＰ保谷","province":"東京都","city":"西東京市","address":"西東京市東町3-5-5","lat":35.747408,"lon":139.56625},{"name":"りぼん","province":"東京都","city":"西東京市","address":"西東京市保谷町2-10-12菊池ビル102号","lat":35.73036,"lon":139.554699},{"name":"ＳＴＥＰ西東京","province":"東京都","city":"西東京市","address":"西東京市保谷町1-8-4","lat":35.734434,"lon":139.555735},{"name":"ウイング西東京","province":"東京都","city":"西東京市","address":"西東京市東伏見2-4-10","lat":35.728263,"lon":139.563515},{"name":"りぼんＵ","province":"東京都","city":"西東京市","address":"西東京市柳沢6-4-3-106","lat":35.72736,"lon":139.552658},{"name":"西東京市子ども家庭支援センター","province":"東京都","city":"西東京市","address":"西東京市住吉町6-15-6住吉会館1階","lat":35.744433,"lon":139.55129},{"name":"西東京市子ども家庭支援センター","province":"東京都","city":"西東京市","address":"西東京市住吉町6-15-6住吉会館2階","lat":35.74402,"lon":139.55215},{"name":"西東京市子ども家庭支援センター","province":"東京都","city":"西東京市","address":"西東京市住吉町6-15-6住吉会館1階","lat":35.74402,"lon":139.55216},{"name":"シュプロスひばりヶ丘教室","province":"東京都","city":"西東京市","address":"西東京市谷戸町二丁目15番13号","lat":35.748988,"lon":139.543105},{"name":"たまみずきひばり","province":"東京都","city":"西東京市","address":"西東京市北原町1-38-2","lat":35.738011,"lon":139.545997},{"name":"療育型児童デイサービスさざんか第１","province":"東京都","city":"西東京市","address":"西東京市田無町7-8-14","lat":35.732873,"lon":139.530581},{"name":"くろーばーきっず","province":"東京都","city":"西東京市","address":"西東京市田無町4-17-14","lat":35.729365,"lon":139.535556},{"name":"療育型児童デイサービスさざんか第５","province":"東京都","city":"西東京市","address":"西東京市田無町5-5-12","lat":35.731809,"lon":139.536209},{"name":"放課後等デイサービス　らぷあ田無","province":"東京都","city":"西東京市","address":"西東京市向台町1-16-20ふじマンション2階B号","lat":35.719558,"lon":139.543331},{"name":"ととろクラブ","province":"東京都","city":"西東京市","address":"西東京市芝久保町2-22-33","lat":35.725984,"lon":139.520824},{"name":"ととろキッズ","province":"東京都","city":"西東京市","address":"西東京市芝久保町2-22-32-102","lat":35.726248,"lon":139.52061},{"name":"ジョブチャレンジひばり","province":"東京都","city":"西東京市","address":"西東京市ひばりが丘3-1-23","lat":35.745766,"lon":139.537066},{"name":"シュプロスひばりヶ丘教室Ⅱ","province":"東京都","city":"西東京市","address":"西東京市ひばりが丘1-8-24","lat":35.750663,"lon":139.542288},{"name":"Pur　aile　ひばりが丘","province":"東京都","city":"西東京市","address":"西東京市ひばりが丘北3-7-14メゾンウィステリア1階","lat":35.75269,"lon":139.547988},{"name":"くまさん　保谷教室","province":"東京都","city":"西東京市","address":"西東京市東町二丁目9番7号","lat":35.746577,"lon":139.561434},{"name":"ＳＴＥＰ保谷","province":"東京都","city":"西東京市","address":"西東京市東町3-5-5","lat":35.747408,"lon":139.56625},{"name":"りぼん","province":"東京都","city":"西東京市","address":"西東京市保谷町2-10-12菊池ビル102号","lat":35.73036,"lon":139.554699},{"name":"ＳＴＥＰ西東京","province":"東京都","city":"西東京市","address":"西東京市保谷町1-8-4","lat":35.734434,"lon":139.555735},{"name":"ウイング西東京","province":"東京都","city":"西東京市","address":"西東京市東伏見2-4-10","lat":35.728263,"lon":139.563515},{"name":"りぼんＵ","province":"東京都","city":"西東京市","address":"西東京市柳沢6-4-3-106","lat":35.72736,"lon":139.552658},{"name":"西東京市子ども家庭支援センター","province":"東京都","city":"西東京市","address":"西東京市住吉町6-15-6住吉会館1階","lat":35.744433,"lon":139.55129},{"name":"西東京市子ども家庭支援センター","province":"東京都","city":"西東京市","address":"西東京市住吉町6-15-6住吉会館2階","lat":35.74402,"lon":139.55215},{"name":"西東京市子ども家庭支援センター","province":"東京都","city":"西東京市","address":"西東京市住吉町6-15-6住吉会館1階","lat":35.74402,"lon":139.55216},{"name":"シュプロスひばりヶ丘教室","province":"東京都","city":"西東京市","address":"西東京市谷戸町二丁目15番13号","lat":35.748988,"lon":139.543105},{"name":"たまみずきひばり","province":"東京都","city":"西東京市","address":"西東京市北原町1-38-2","lat":35.738011,"lon":139.545997},{"name":"療育型児童デイサービスさざんか第１","province":"東京都","city":"西東京市","address":"西東京市田無町7-8-14","lat":35.732873,"lon":139.530581},{"name":"くろーばーきっず","province":"東京都","city":"西東京市","address":"西東京市田無町4-17-14","lat":35.729365,"lon":139.535556},{"name":"療育型児童デイサービスさざんか第５","province":"東京都","city":"西東京市","address":"西東京市田無町5-5-12","lat":35.731809,"lon":139.536209},{"name":"放課後等デイサービス　らぷあ田無","province":"東京都","city":"西東京市","address":"西東京市向台町1-16-20ふじマンション2階B号","lat":35.719558,"lon":139.543331},{"name":"ととろクラブ","province":"東京都","city":"西東京市","address":"西東京市芝久保町2-22-33","lat":35.725984,"lon":139.520824},{"name":"ととろキッズ","province":"東京都","city":"西東京市","address":"西東京市芝久保町2-22-32-102","lat":35.726248,"lon":139.52061},{"name":"ジョブチャレンジひばり","province":"東京都","city":"西東京市","address":"西東京市ひばりが丘3-1-23","lat":35.745766,"lon":139.537066},{"name":"シュプロスひばりヶ丘教室Ⅱ","province":"東京都","city":"西東京市","address":"西東京市ひばりが丘1-8-24","lat":35.750663,"lon":139.542288},{"name":"Pur　aile　ひばりが丘","province":"東京都","city":"西東京市","address":"西東京市ひばりが丘北3-7-14メゾンウィステリア1階","lat":35.75269,"lon":139.547988},{"name":"くまさん　保谷教室","province":"東京都","city":"西東京市","address":"西東京市東町二丁目9番7号","lat":35.746577,"lon":139.561434},{"name":"ＳＴＥＰ保谷","province":"東京都","city":"西東京市","address":"西東京市東町3-5-5","lat":35.747408,"lon":139.56625},{"name":"りぼん","province":"東京都","city":"西東京市","address":"西東京市保谷町2-10-12菊池ビル102号","lat":35.73036,"lon":139.554699},{"name":"ＳＴＥＰ西東京","province":"東京都","city":"西東京市","address":"西東京市保谷町1-8-4","lat":35.734434,"lon":139.555735},{"name":"ウイング西東京","province":"東京都","city":"西東京市","address":"西東京市東伏見2-4-10","lat":35.728263,"lon":139.563515},{"name":"りぼんＵ","province":"東京都","city":"西東京市","address":"西東京市柳沢6-4-3-106","lat":35.72736,"lon":139.552658},{"name":"西東京市子ども家庭支援センター","province":"東京都","city":"西東京市","address":"西東京市住吉町6-15-6住吉会館1階","lat":35.744433,"lon":139.55129},{"name":"西東京市子ども家庭支援センター","province":"東京都","city":"西東京市","address":"西東京市住吉町6-15-6住吉会館2階","lat":35.74402,"lon":139.55215},{"name":"西東京市子ども家庭支援センター","province":"東京都","city":"西東京市","address":"西東京市住吉町6-15-6住吉会館1階","lat":35.74402,"lon":139.55216},{"name":"シュプロスひばりヶ丘教室","province":"東京都","city":"西東京市","address":"西東京市谷戸町二丁目15番13号","lat":35.748988,"lon":139.543105},{"name":"たまみずきひばり","province":"東京都","city":"西東京市","address":"西東京市北原町1-38-2","lat":35.738011,"lon":139.545997},{"name":"療育型児童デイサービスさざんか第１","province":"東京都","city":"西東京市","address":"西東京市田無町7-8-14","lat":35.732873,"lon":139.530581},{"name":"くろーばーきっず","province":"東京都","city":"西東京市","address":"西東京市田無町4-17-14","lat":35.729365,"lon":139.535556},{"name":"療育型児童デイサービスさざんか第５","province":"東京都","city":"西東京市","address":"西東京市田無町5-5-12","lat":35.731809,"lon":139.536209},{"name":"放課後等デイサービス　らぷあ田無","province":"東京都","city":"西東京市","address":"西東京市向台町1-16-20ふじマンション2階B号","lat":35.719558,"lon":139.543331},{"name":"ととろクラブ","province":"東京都","city":"西東京市","address":"西東京市芝久保町2-22-33","lat":35.725984,"lon":139.520824},{"name":"ととろキッズ","province":"東京都","city":"西東京市","address":"西東京市芝久保町2-22-32-102","lat":35.726248,"lon":139.52061},{"name":"ジョブチャレンジひばり","province":"東京都","city":"西東京市","address":"西東京市ひばりが丘3-1-23","lat":35.745766,"lon":139.537066},{"name":"シュプロスひばりヶ丘教室Ⅱ","province":"東京都","city":"西東京市","address":"西東京市ひばりが丘1-8-24","lat":35.750663,"lon":139.542288},{"name":"Pur　aile　ひばりが丘","province":"東京都","city":"西東京市","address":"西東京市ひばりが丘北3-7-14メゾンウィステリア1階","lat":35.75269,"lon":139.547988},{"name":"くまさん　保谷教室","province":"東京都","city":"西東京市","address":"西東京市東町二丁目9番7号","lat":35.746577,"lon":139.561434},{"name":"ＳＴＥＰ保谷","province":"東京都","city":"西東京市","address":"西東京市東町3-5-5","lat":35.747408,"lon":139.56625},{"name":"りぼん","province":"東京都","city":"西東京市","address":"西東京市保谷町2-10-12菊池ビル102号","lat":35.73036,"lon":139.554699},{"name":"ＳＴＥＰ西東京","province":"東京都","city":"西東京市","address":"西東京市保谷町1-8-4","lat":35.734434,"lon":139.555735},{"name":"ウイング西東京","province":"東京都","city":"西東京市","address":"西東京市東伏見2-4-10","lat":35.728263,"lon":139.563515},{"name":"りぼんＵ","province":"東京都","city":"西東京市","address":"西東京市柳沢6-4-3-106","lat":35.72736,"lon":139.552658},{"name":"西東京市子ども家庭支援センター","province":"東京都","city":"西東京市","address":"西東京市住吉町6-15-6住吉会館1階","lat":35.744433,"lon":139.55129},{"name":"西東京市子ども家庭支援センター","province":"東京都","city":"西東京市","address":"西東京市住吉町6-15-6住吉会館2階","lat":35.74402,"lon":139.55215},{"name":"西東京市子ども家庭支援センター","province":"東京都","city":"西東京市","address":"西東京市住吉町6-15-6住吉会館1階","lat":35.74402,"lon":139.55216},{"name":"シュプロスひばりヶ丘教室","province":"東京都","city":"西東京市","address":"西東京市谷戸町二丁目15番13号","lat":35.748988,"lon":139.543105},{"name":"たまみずきひばり","province":"東京都","city":"西東京市","address":"西東京市北原町1-38-2","lat":35.738011,"lon":139.545997},{"name":"療育型児童デイサービスさざんか第１","province":"東京都","city":"西東京市","address":"西東京市田無町7-8-14","lat":35.732873,"lon":139.530581},{"name":"くろーばーきっず","province":"東京都","city":"西東京市","address":"西東京市田無町4-17-14","lat":35.729365,"lon":139.535556},{"name":"療育型児童デイサービスさざんか第５","province":"東京都","city":"西東京市","address":"西東京市田無町5-5-12","lat":35.731809,"lon":139.536209},{"name":"放課後等デイサービス　らぷあ田無","province":"東京都","city":"西東京市","address":"西東京市向台町1-16-20ふじマンション2階B号","lat":35.719558,"lon":139.543331},{"name":"ととろクラブ","province":"東京都","city":"西東京市","address":"西東京市芝久保町2-22-33","lat":35.725984,"lon":139.520824},{"name":"ととろキッズ","province":"東京都","city":"西東京市","address":"西東京市芝久保町2-22-32-102","lat":35.726248,"lon":139.52061},{"name":"ジョブチャレンジひばり","province":"東京都","city":"西東京市","address":"西東京市ひばりが丘3-1-23","lat":35.745766,"lon":139.537066},{"name":"シュプロスひばりヶ丘教室Ⅱ","province":"東京都","city":"西東京市","address":"西東京市ひばりが丘1-8-24","lat":35.750663,"lon":139.542288},{"name":"Pur　aile　ひばりが丘","province":"東京都","city":"西東京市","address":"西東京市ひばりが丘北3-7-14メゾンウィステリア1階","lat":35.75269,"lon":139.547988},{"name":"くまさん　保谷教室","province":"東京都","city":"西東京市","address":"西東京市東町二丁目9番7号","lat":35.746577,"lon":139.561434},{"name":"ＳＴＥＰ保谷","province":"東京都","city":"西東京市","address":"西東京市東町3-5-5","lat":35.747408,"lon":139.56625},{"name":"りぼん","province":"東京都","city":"西東京市","address":"西東京市保谷町2-10-12菊池ビル102号","lat":35.73036,"lon":139.554699},{"name":"ＳＴＥＰ西東京","province":"東京都","city":"西東京市","address":"西東京市保谷町1-8-4","lat":35.734434,"lon":139.555735},{"name":"ウイング西東京","province":"東京都","city":"西東京市","address":"西東京市東伏見2-4-10","lat":35.728263,"lon":139.563515},{"name":"りぼんＵ","province":"東京都","city":"西東京市","address":"西東京市柳沢6-4-3-106","lat":35.72736,"lon":139.552658},{"name":"西東京市子ども家庭支援センター","province":"東京都","city":"西東京市","address":"西東京市住吉町6-15-6住吉会館1階","lat":35.744433,"lon":139.55129},{"name":"西東京市子ども家庭支援センター","province":"東京都","city":"西東京市","address":"西東京市住吉町6-15-6住吉会館2階","lat":35.74402,"lon":139.55215},{"name":"西東京市子ども家庭支援センター","province":"東京都","city":"西東京市","address":"西東京市住吉町6-15-6住吉会館1階","lat":35.74402,"lon":139.55216}]}