{"keyword":"構築","data":[{"name":"東伏見","province":"東京都","city":"西東京市","address":"東京都西東京市東伏見6丁目10-22","lat":35.72516589,"lon":139.55749898},{"name":"田無町三丁目","province":"東京都","city":"西東京市","address":"東京都西東京市田無町1丁目2-31","lat":35.73104545,"lon":139.54369709},{"name":"ひばりが丘駅入口","province":"東京都","city":"西東京市","address":"東京都西東京市谷戸町3丁目27-25","lat":35.74978492,"lon":139.54359355},{"name":"田無駅北口","province":"東京都","city":"西東京市","address":"東京都西東京市田無町5丁目1-1","lat":35.72968164,"lon":139.53983915},{"name":"谷戸町三丁目","province":"東京都","city":"西東京市","address":"東京都西東京市谷戸町3丁目26-1","lat":35.74893224,"lon":139.54342137},{"name":"保谷栄小西","province":"東京都","city":"西東京市","address":"東京都西東京市栄町2丁目6-15","lat":35.75128492,"lon":139.55119012},{"name":"田無北原二丁目","province":"東京都","city":"西東京市","address":"東京都西東京市北原町2丁目8-7","lat":35.73858069,"lon":139.54366898},{"name":"新柳沢団地東","province":"東京都","city":"西東京市","address":"東京都西東京市東伏見5丁目10-30","lat":35.72226067,"lon":139.55774353},{"name":"ひばりが丘駅南","province":"東京都","city":"西東京市","address":"東京都西東京市谷戸町3丁目27","lat":35.74979604,"lon":139.54370743},{"name":"西武柳沢駅南","province":"東京都","city":"西東京市","address":"東京都西東京市柳沢2丁目19-15","lat":35.72568793,"lon":139.55214107},{"name":"谷戸町三丁目東","province":"東京都","city":"西東京市","address":"東京都西東京市谷戸町3丁目20","lat":35.74797685,"lon":139.54574622},{"name":"下保谷二丁目東","province":"東京都","city":"西東京市","address":"東京都西東京市下保谷2丁目9-3","lat":35.75104067,"lon":139.55864233},{"name":"芝久保浄水所","province":"東京都","city":"西東京市","address":"東京都西東京市芝久保町5丁目9-1","lat":35.7337808,"lon":139.52453742},{"name":"保谷町浄水所","province":"東京都","city":"西東京市","address":"東京都西東京市保谷町1丁目5-24","lat":35.73545076,"lon":139.55478209},{"name":"西東京栄町浄水所","province":"東京都","city":"西東京市","address":"東京都西東京市栄町2丁目7-6","lat":35.75167656,"lon":139.55222337},{"name":"田無警察署","province":"東京都","city":"西東京市","address":"西東京市田無町5-2-5","lat":35.72999,"lon":139.5386},{"name":"西東京消防署","province":"東京都","city":"西東京市","address":"西東京市中町1-1-6","lat":35.73898,"lon":139.5553},{"name":"市民向台運動場","province":"東京都","city":"西東京市","address":"西東京市向台町5-4","lat":35.72121,"lon":139.53},{"name":"東伏見","province":"東京都","city":"西東京市","address":"東京都西東京市東伏見6丁目10-22","lat":35.72516589,"lon":139.55749898},{"name":"田無町三丁目","province":"東京都","city":"西東京市","address":"東京都西東京市田無町1丁目2-31","lat":35.73104545,"lon":139.54369709},{"name":"ひばりが丘駅入口","province":"東京都","city":"西東京市","address":"東京都西東京市谷戸町3丁目27-25","lat":35.74978492,"lon":139.54359355},{"name":"田無駅北口","province":"東京都","city":"西東京市","address":"東京都西東京市田無町5丁目1-1","lat":35.72968164,"lon":139.53983915},{"name":"谷戸町三丁目","province":"東京都","city":"西東京市","address":"東京都西東京市谷戸町3丁目26-1","lat":35.74893224,"lon":139.54342137},{"name":"保谷栄小西","province":"東京都","city":"西東京市","address":"東京都西東京市栄町2丁目6-15","lat":35.75128492,"lon":139.55119012},{"name":"田無北原二丁目","province":"東京都","city":"西東京市","address":"東京都西東京市北原町2丁目8-7","lat":35.73858069,"lon":139.54366898},{"name":"新柳沢団地東","province":"東京都","city":"西東京市","address":"東京都西東京市東伏見5丁目10-30","lat":35.72226067,"lon":139.55774353},{"name":"ひばりが丘駅南","province":"東京都","city":"西東京市","address":"東京都西東京市谷戸町3丁目27","lat":35.74979604,"lon":139.54370743},{"name":"西武柳沢駅南","province":"東京都","city":"西東京市","address":"東京都西東京市柳沢2丁目19-15","lat":35.72568793,"lon":139.55214107},{"name":"谷戸町三丁目東","province":"東京都","city":"西東京市","address":"東京都西東京市谷戸町3丁目20","lat":35.74797685,"lon":139.54574622},{"name":"下保谷二丁目東","province":"東京都","city":"西東京市","address":"東京都西東京市下保谷2丁目9-3","lat":35.75104067,"lon":139.55864233},{"name":"芝久保浄水所","province":"東京都","city":"西東京市","address":"東京都西東京市芝久保町5丁目9-1","lat":35.7337808,"lon":139.52453742},{"name":"保谷町浄水所","province":"東京都","city":"西東京市","address":"東京都西東京市保谷町1丁目5-24","lat":35.73545076,"lon":139.55478209},{"name":"西東京栄町浄水所","province":"東京都","city":"西東京市","address":"東京都西東京市栄町2丁目7-6","lat":35.75167656,"lon":139.55222337},{"name":"田無警察署","province":"東京都","city":"西東京市","address":"西東京市田無町5-2-5","lat":35.72999,"lon":139.5386},{"name":"西東京消防署","province":"東京都","city":"西東京市","address":"西東京市中町1-1-6","lat":35.73898,"lon":139.5553},{"name":"東伏見","province":"東京都","city":"西東京市","address":"東京都西東京市東伏見6丁目10-22","lat":35.72516589,"lon":139.55749898},{"name":"田無町三丁目","province":"東京都","city":"西東京市","address":"東京都西東京市田無町1丁目2-31","lat":35.73104545,"lon":139.54369709},{"name":"ひばりが丘駅入口","province":"東京都","city":"西東京市","address":"東京都西東京市谷戸町3丁目27-25","lat":35.74978492,"lon":139.54359355},{"name":"田無駅北口","province":"東京都","city":"西東京市","address":"東京都西東京市田無町5丁目1-1","lat":35.72968164,"lon":139.53983915},{"name":"谷戸町三丁目","province":"東京都","city":"西東京市","address":"東京都西東京市谷戸町3丁目26-1","lat":35.74893224,"lon":139.54342137},{"name":"保谷栄小西","province":"東京都","city":"西東京市","address":"東京都西東京市栄町2丁目6-15","lat":35.75128492,"lon":139.55119012},{"name":"田無北原二丁目","province":"東京都","city":"西東京市","address":"東京都西東京市北原町2丁目8-7","lat":35.73858069,"lon":139.54366898},{"name":"新柳沢団地東","province":"東京都","city":"西東京市","address":"東京都西東京市東伏見5丁目10-30","lat":35.72226067,"lon":139.55774353},{"name":"ひばりが丘駅南","province":"東京都","city":"西東京市","address":"東京都西東京市谷戸町3丁目27","lat":35.74979604,"lon":139.54370743},{"name":"西武柳沢駅南","province":"東京都","city":"西東京市","address":"東京都西東京市柳沢2丁目19-15","lat":35.72568793,"lon":139.55214107},{"name":"谷戸町三丁目東","province":"東京都","city":"西東京市","address":"東京都西東京市谷戸町3丁目20","lat":35.74797685,"lon":139.54574622},{"name":"下保谷二丁目東","province":"東京都","city":"西東京市","address":"東京都西東京市下保谷2丁目9-3","lat":35.75104067,"lon":139.55864233},{"name":"芝久保浄水所","province":"東京都","city":"西東京市","address":"東京都西東京市芝久保町5丁目9-1","lat":35.7337808,"lon":139.52453742},{"name":"保谷町浄水所","province":"東京都","city":"西東京市","address":"東京都西東京市保谷町1丁目5-24","lat":35.73545076,"lon":139.55478209},{"name":"西東京栄町浄水所","province":"東京都","city":"西東京市","address":"東京都西東京市栄町2丁目7-6","lat":35.75167656,"lon":139.55222337},{"name":"田無警察署","province":"東京都","city":"西東京市","address":"西東京市田無町5-2-5","lat":35.72999,"lon":139.5386},{"name":"西東京消防署","province":"東京都","city":"西東京市","address":"西東京市中町1-1-6","lat":35.73898,"lon":139.5553},{"name":"東伏見","province":"東京都","city":"西東京市","address":"東京都西東京市東伏見6丁目10-22","lat":35.72516589,"lon":139.55749898},{"name":"田無町三丁目","province":"東京都","city":"西東京市","address":"東京都西東京市田無町1丁目2-31","lat":35.73104545,"lon":139.54369709},{"name":"ひばりが丘駅入口","province":"東京都","city":"西東京市","address":"東京都西東京市谷戸町3丁目27-25","lat":35.74978492,"lon":139.54359355},{"name":"田無駅北口","province":"東京都","city":"西東京市","address":"東京都西東京市田無町5丁目1-1","lat":35.72968164,"lon":139.53983915},{"name":"谷戸町三丁目","province":"東京都","city":"西東京市","address":"東京都西東京市谷戸町3丁目26-1","lat":35.74893224,"lon":139.54342137},{"name":"保谷栄小西","province":"東京都","city":"西東京市","address":"東京都西東京市栄町2丁目6-15","lat":35.75128492,"lon":139.55119012},{"name":"田無北原二丁目","province":"東京都","city":"西東京市","address":"東京都西東京市北原町2丁目8-7","lat":35.73858069,"lon":139.54366898},{"name":"新柳沢団地東","province":"東京都","city":"西東京市","address":"東京都西東京市東伏見5丁目10-30","lat":35.72226067,"lon":139.55774353},{"name":"ひばりが丘駅南","province":"東京都","city":"西東京市","address":"東京都西東京市谷戸町3丁目27","lat":35.74979604,"lon":139.54370743},{"name":"西武柳沢駅南","province":"東京都","city":"西東京市","address":"東京都西東京市柳沢2丁目19-15","lat":35.72568793,"lon":139.55214107},{"name":"谷戸町三丁目東","province":"東京都","city":"西東京市","address":"東京都西東京市谷戸町3丁目20","lat":35.74797685,"lon":139.54574622},{"name":"下保谷二丁目東","province":"東京都","city":"西東京市","address":"東京都西東京市下保谷2丁目9-3","lat":35.75104067,"lon":139.55864233},{"name":"芝久保浄水所","province":"東京都","city":"西東京市","address":"東京都西東京市芝久保町5丁目9-1","lat":35.7337808,"lon":139.52453742},{"name":"保谷町浄水所","province":"東京都","city":"西東京市","address":"東京都西東京市保谷町1丁目5-24","lat":35.73545076,"lon":139.55478209},{"name":"西東京栄町浄水所","province":"東京都","city":"西東京市","address":"東京都西東京市栄町2丁目7-6","lat":35.75167656,"lon":139.55222337},{"name":"田無警察署","province":"東京都","city":"西東京市","address":"西東京市田無町5-2-5","lat":35.72999,"lon":139.5386},{"name":"西東京消防署","province":"東京都","city":"西東京市","address":"西東京市中町1-1-6","lat":35.73898,"lon":139.5553},{"name":"東伏見","province":"東京都","city":"西東京市","address":"東京都西東京市東伏見6丁目10-22","lat":35.72516589,"lon":139.55749898},{"name":"田無町三丁目","province":"東京都","city":"西東京市","address":"東京都西東京市田無町1丁目2-31","lat":35.73104545,"lon":139.54369709},{"name":"ひばりが丘駅入口","province":"東京都","city":"西東京市","address":"東京都西東京市谷戸町3丁目27-25","lat":35.74978492,"lon":139.54359355},{"name":"田無駅北口","province":"東京都","city":"西東京市","address":"東京都西東京市田無町5丁目1-1","lat":35.72968164,"lon":139.53983915},{"name":"谷戸町三丁目","province":"東京都","city":"西東京市","address":"東京都西東京市谷戸町3丁目26-1","lat":35.74893224,"lon":139.54342137},{"name":"保谷栄小西","province":"東京都","city":"西東京市","address":"東京都西東京市栄町2丁目6-15","lat":35.75128492,"lon":139.55119012},{"name":"田無北原二丁目","province":"東京都","city":"西東京市","address":"東京都西東京市北原町2丁目8-7","lat":35.73858069,"lon":139.54366898},{"name":"新柳沢団地東","province":"東京都","city":"西東京市","address":"東京都西東京市東伏見5丁目10-30","lat":35.72226067,"lon":139.55774353},{"name":"ひばりが丘駅南","province":"東京都","city":"西東京市","address":"東京都西東京市谷戸町3丁目27","lat":35.74979604,"lon":139.54370743},{"name":"西武柳沢駅南","province":"東京都","city":"西東京市","address":"東京都西東京市柳沢2丁目19-15","lat":35.72568793,"lon":139.55214107},{"name":"谷戸町三丁目東","province":"東京都","city":"西東京市","address":"東京都西東京市谷戸町3丁目20","lat":35.74797685,"lon":139.54574622},{"name":"下保谷二丁目東","province":"東京都","city":"西東京市","address":"東京都西東京市下保谷2丁目9-3","lat":35.75104067,"lon":139.55864233},{"name":"芝久保浄水所","province":"東京都","city":"西東京市","address":"東京都西東京市芝久保町5丁目9-1","lat":35.7337808,"lon":139.52453742},{"name":"保谷町浄水所","province":"東京都","city":"西東京市","address":"東京都西東京市保谷町1丁目5-24","lat":35.73545076,"lon":139.55478209},{"name":"西東京栄町浄水所","province":"東京都","city":"西東京市","address":"東京都西東京市栄町2丁目7-6","lat":35.75167656,"lon":139.55222337},{"name":"田無警察署","province":"東京都","city":"西東京市","address":"西東京市田無町5-2-5","lat":35.72999,"lon":139.5386},{"name":"西東京消防署","province":"東京都","city":"西東京市","address":"西東京市中町1-1-6","lat":35.73898,"lon":139.5553},{"name":"東伏見","province":"東京都","city":"西東京市","address":"東京都西東京市東伏見6丁目10-22","lat":35.72516589,"lon":139.55749898},{"name":"田無町三丁目","province":"東京都","city":"西東京市","address":"東京都西東京市田無町1丁目2-31","lat":35.73104545,"lon":139.54369709},{"name":"ひばりが丘駅入口","province":"東京都","city":"西東京市","address":"東京都西東京市谷戸町3丁目27-25","lat":35.74978492,"lon":139.54359355},{"name":"田無駅北口","province":"東京都","city":"西東京市","address":"東京都西東京市田無町5丁目1-1","lat":35.72968164,"lon":139.53983915},{"name":"谷戸町三丁目","province":"東京都","city":"西東京市","address":"東京都西東京市谷戸町3丁目26-1","lat":35.74893224,"lon":139.54342137},{"name":"保谷栄小西","province":"東京都","city":"西東京市","address":"東京都西東京市栄町2丁目6-15","lat":35.75128492,"lon":139.55119012},{"name":"田無北原二丁目","province":"東京都","city":"西東京市","address":"東京都西東京市北原町2丁目8-7","lat":35.73858069,"lon":139.54366898},{"name":"新柳沢団地東","province":"東京都","city":"西東京市","address":"東京都西東京市東伏見5丁目10-30","lat":35.72226067,"lon":139.55774353},{"name":"ひばりが丘駅南","province":"東京都","city":"西東京市","address":"東京都西東京市谷戸町3丁目27","lat":35.74979604,"lon":139.54370743},{"name":"西武柳沢駅南","province":"東京都","city":"西東京市","address":"東京都西東京市柳沢2丁目19-15","lat":35.72568793,"lon":139.55214107},{"name":"谷戸町三丁目東","province":"東京都","city":"西東京市","address":"東京都西東京市谷戸町3丁目20","lat":35.74797685,"lon":139.54574622},{"name":"下保谷二丁目東","province":"東京都","city":"西東京市","address":"東京都西東京市下保谷2丁目9-3","lat":35.75104067,"lon":139.55864233},{"name":"芝久保浄水所","province":"東京都","city":"西東京市","address":"東京都西東京市芝久保町5丁目9-1","lat":35.7337808,"lon":139.52453742},{"name":"保谷町浄水所","province":"東京都","city":"西東京市","address":"東京都西東京市保谷町1丁目5-24","lat":35.73545076,"lon":139.55478209},{"name":"西東京栄町浄水所","province":"東京都","city":"西東京市","address":"東京都西東京市栄町2丁目7-6","lat":35.75167656,"lon":139.55222337},{"name":"田無警察署","province":"東京都","city":"西東京市","address":"西東京市田無町5-2-5","lat":35.72999,"lon":139.5386},{"name":"西東京消防署","province":"東京都","city":"西東京市","address":"西東京市中町1-1-6","lat":35.73898,"lon":139.5553},{"name":"東伏見","province":"東京都","city":"西東京市","address":"東京都西東京市東伏見6丁目10-22","lat":35.72516589,"lon":139.55749898},{"name":"田無町三丁目","province":"東京都","city":"西東京市","address":"東京都西東京市田無町1丁目2-31","lat":35.73104545,"lon":139.54369709},{"name":"ひばりが丘駅入口","province":"東京都","city":"西東京市","address":"東京都西東京市谷戸町3丁目27-25","lat":35.74978492,"lon":139.54359355},{"name":"田無駅北口","province":"東京都","city":"西東京市","address":"東京都西東京市田無町5丁目1-1","lat":35.72968164,"lon":139.53983915},{"name":"谷戸町三丁目","province":"東京都","city":"西東京市","address":"東京都西東京市谷戸町3丁目26-1","lat":35.74893224,"lon":139.54342137},{"name":"保谷栄小西","province":"東京都","city":"西東京市","address":"東京都西東京市栄町2丁目6-15","lat":35.75128492,"lon":139.55119012},{"name":"田無北原二丁目","province":"東京都","city":"西東京市","address":"東京都西東京市北原町2丁目8-7","lat":35.73858069,"lon":139.54366898},{"name":"新柳沢団地東","province":"東京都","city":"西東京市","address":"東京都西東京市東伏見5丁目10-30","lat":35.72226067,"lon":139.55774353},{"name":"ひばりが丘駅南","province":"東京都","city":"西東京市","address":"東京都西東京市谷戸町3丁目27","lat":35.74979604,"lon":139.54370743},{"name":"西武柳沢駅南","province":"東京都","city":"西東京市","address":"東京都西東京市柳沢2丁目19-15","lat":35.72568793,"lon":139.55214107},{"name":"谷戸町三丁目東","province":"東京都","city":"西東京市","address":"東京都西東京市谷戸町3丁目20","lat":35.74797685,"lon":139.54574622},{"name":"下保谷二丁目東","province":"東京都","city":"西東京市","address":"東京都西東京市下保谷2丁目9-3","lat":35.75104067,"lon":139.55864233},{"name":"芝久保浄水所","province":"東京都","city":"西東京市","address":"東京都西東京市芝久保町5丁目9-1","lat":35.7337808,"lon":139.52453742},{"name":"保谷町浄水所","province":"東京都","city":"西東京市","address":"東京都西東京市保谷町1丁目5-24","lat":35.73545076,"lon":139.55478209},{"name":"西東京栄町浄水所","province":"東京都","city":"西東京市","address":"東京都西東京市栄町2丁目7-6","lat":35.75167656,"lon":139.55222337},{"name":"田無警察署","province":"東京都","city":"西東京市","address":"西東京市田無町5-2-5","lat":35.72999,"lon":139.5386},{"name":"西東京消防署","province":"東京都","city":"西東京市","address":"西東京市中町1-1-6","lat":35.73898,"lon":139.5553},{"name":"東伏見","province":"東京都","city":"西東京市","address":"東京都西東京市東伏見6丁目10-22","lat":35.72516589,"lon":139.55749898},{"name":"田無町三丁目","province":"東京都","city":"西東京市","address":"東京都西東京市田無町1丁目2-31","lat":35.73104545,"lon":139.54369709},{"name":"ひばりが丘駅入口","province":"東京都","city":"西東京市","address":"東京都西東京市谷戸町3丁目27-25","lat":35.74978492,"lon":139.54359355},{"name":"田無駅北口","province":"東京都","city":"西東京市","address":"東京都西東京市田無町5丁目1-1","lat":35.72968164,"lon":139.53983915},{"name":"谷戸町三丁目","province":"東京都","city":"西東京市","address":"東京都西東京市谷戸町3丁目26-1","lat":35.74893224,"lon":139.54342137},{"name":"保谷栄小西","province":"東京都","city":"西東京市","address":"東京都西東京市栄町2丁目6-15","lat":35.75128492,"lon":139.55119012},{"name":"田無北原二丁目","province":"東京都","city":"西東京市","address":"東京都西東京市北原町2丁目8-7","lat":35.73858069,"lon":139.54366898},{"name":"新柳沢団地東","province":"東京都","city":"西東京市","address":"東京都西東京市東伏見5丁目10-30","lat":35.72226067,"lon":139.55774353},{"name":"ひばりが丘駅南","province":"東京都","city":"西東京市","address":"東京都西東京市谷戸町3丁目27","lat":35.74979604,"lon":139.54370743},{"name":"西武柳沢駅南","province":"東京都","city":"西東京市","address":"東京都西東京市柳沢2丁目19-15","lat":35.72568793,"lon":139.55214107},{"name":"谷戸町三丁目東","province":"東京都","city":"西東京市","address":"東京都西東京市谷戸町3丁目20","lat":35.74797685,"lon":139.54574622},{"name":"下保谷二丁目東","province":"東京都","city":"西東京市","address":"東京都西東京市下保谷2丁目9-3","lat":35.75104067,"lon":139.55864233},{"name":"芝久保浄水所","province":"東京都","city":"西東京市","address":"東京都西東京市芝久保町5丁目9-1","lat":35.7337808,"lon":139.52453742},{"name":"保谷町浄水所","province":"東京都","city":"西東京市","address":"東京都西東京市保谷町1丁目5-24","lat":35.73545076,"lon":139.55478209},{"name":"西東京栄町浄水所","province":"東京都","city":"西東京市","address":"東京都西東京市栄町2丁目7-6","lat":35.75167656,"lon":139.55222337},{"name":"田無警察署","province":"東京都","city":"西東京市","address":"西東京市田無町5-2-5","lat":35.72999,"lon":139.5386},{"name":"西東京消防署","province":"東京都","city":"西東京市","address":"西東京市中町1-1-6","lat":35.73898,"lon":139.5553},{"name":"東伏見","province":"東京都","city":"西東京市","address":"東京都西東京市東伏見6丁目10-22","lat":35.72516589,"lon":139.55749898},{"name":"田無町三丁目","province":"東京都","city":"西東京市","address":"東京都西東京市田無町1丁目2-31","lat":35.73104545,"lon":139.54369709},{"name":"ひばりが丘駅入口","province":"東京都","city":"西東京市","address":"東京都西東京市谷戸町3丁目27-25","lat":35.74978492,"lon":139.54359355},{"name":"田無駅北口","province":"東京都","city":"西東京市","address":"東京都西東京市田無町5丁目1-1","lat":35.72968164,"lon":139.53983915},{"name":"谷戸町三丁目","province":"東京都","city":"西東京市","address":"東京都西東京市谷戸町3丁目26-1","lat":35.74893224,"lon":139.54342137},{"name":"保谷栄小西","province":"東京都","city":"西東京市","address":"東京都西東京市栄町2丁目6-15","lat":35.75128492,"lon":139.55119012},{"name":"田無北原二丁目","province":"東京都","city":"西東京市","address":"東京都西東京市北原町2丁目8-7","lat":35.73858069,"lon":139.54366898},{"name":"新柳沢団地東","province":"東京都","city":"西東京市","address":"東京都西東京市東伏見5丁目10-30","lat":35.72226067,"lon":139.55774353},{"name":"ひばりが丘駅南","province":"東京都","city":"西東京市","address":"東京都西東京市谷戸町3丁目27","lat":35.74979604,"lon":139.54370743},{"name":"西武柳沢駅南","province":"東京都","city":"西東京市","address":"東京都西東京市柳沢2丁目19-15","lat":35.72568793,"lon":139.55214107},{"name":"谷戸町三丁目東","province":"東京都","city":"西東京市","address":"東京都西東京市谷戸町3丁目20","lat":35.74797685,"lon":139.54574622},{"name":"下保谷二丁目東","province":"東京都","city":"西東京市","address":"東京都西東京市下保谷2丁目9-3","lat":35.75104067,"lon":139.55864233},{"name":"芝久保浄水所","province":"東京都","city":"西東京市","address":"東京都西東京市芝久保町5丁目9-1","lat":35.7337808,"lon":139.52453742},{"name":"保谷町浄水所","province":"東京都","city":"西東京市","address":"東京都西東京市保谷町1丁目5-24","lat":35.73545076,"lon":139.55478209},{"name":"西東京栄町浄水所","province":"東京都","city":"西東京市","address":"東京都西東京市栄町2丁目7-6","lat":35.75167656,"lon":139.55222337},{"name":"田無警察署","province":"東京都","city":"西東京市","address":"西東京市田無町5-2-5","lat":35.72999,"lon":139.5386},{"name":"西東京消防署","province":"東京都","city":"西東京市","address":"西東京市中町1-1-6","lat":35.73898,"lon":139.5553},{"name":"東伏見","province":"東京都","city":"西東京市","address":"東京都西東京市東伏見6丁目10-22","lat":35.72516589,"lon":139.55749898},{"name":"田無町三丁目","province":"東京都","city":"西東京市","address":"東京都西東京市田無町1丁目2-31","lat":35.73104545,"lon":139.54369709},{"name":"ひばりが丘駅入口","province":"東京都","city":"西東京市","address":"東京都西東京市谷戸町3丁目27-25","lat":35.74978492,"lon":139.54359355},{"name":"田無駅北口","province":"東京都","city":"西東京市","address":"東京都西東京市田無町5丁目1-1","lat":35.72968164,"lon":139.53983915},{"name":"谷戸町三丁目","province":"東京都","city":"西東京市","address":"東京都西東京市谷戸町3丁目26-1","lat":35.74893224,"lon":139.54342137},{"name":"保谷栄小西","province":"東京都","city":"西東京市","address":"東京都西東京市栄町2丁目6-15","lat":35.75128492,"lon":139.55119012},{"name":"田無北原二丁目","province":"東京都","city":"西東京市","address":"東京都西東京市北原町2丁目8-7","lat":35.73858069,"lon":139.54366898},{"name":"新柳沢団地東","province":"東京都","city":"西東京市","address":"東京都西東京市東伏見5丁目10-30","lat":35.72226067,"lon":139.55774353},{"name":"ひばりが丘駅南","province":"東京都","city":"西東京市","address":"東京都西東京市谷戸町3丁目27","lat":35.74979604,"lon":139.54370743},{"name":"西武柳沢駅南","province":"東京都","city":"西東京市","address":"東京都西東京市柳沢2丁目19-15","lat":35.72568793,"lon":139.55214107},{"name":"谷戸町三丁目東","province":"東京都","city":"西東京市","address":"東京都西東京市谷戸町3丁目20","lat":35.74797685,"lon":139.54574622},{"name":"下保谷二丁目東","province":"東京都","city":"西東京市","address":"東京都西東京市下保谷2丁目9-3","lat":35.75104067,"lon":139.55864233},{"name":"芝久保浄水所","province":"東京都","city":"西東京市","address":"東京都西東京市芝久保町5丁目9-1","lat":35.7337808,"lon":139.52453742},{"name":"保谷町浄水所","province":"東京都","city":"西東京市","address":"東京都西東京市保谷町1丁目5-24","lat":35.73545076,"lon":139.55478209},{"name":"西東京栄町浄水所","province":"東京都","city":"西東京市","address":"東京都西東京市栄町2丁目7-6","lat":35.75167656,"lon":139.55222337},{"name":"田無警察署","province":"東京都","city":"西東京市","address":"西東京市田無町5-2-5","lat":35.72999,"lon":139.5386},{"name":"西東京消防署","province":"東京都","city":"西東京市","address":"西東京市中町1-1-6","lat":35.73898,"lon":139.5553},{"name":"東伏見","province":"東京都","city":"西東京市","address":"東京都西東京市東伏見6丁目10-22","lat":35.72516589,"lon":139.55749898},{"name":"田無町三丁目","province":"東京都","city":"西東京市","address":"東京都西東京市田無町1丁目2-31","lat":35.73104545,"lon":139.54369709},{"name":"ひばりが丘駅入口","province":"東京都","city":"西東京市","address":"東京都西東京市谷戸町3丁目27-25","lat":35.74978492,"lon":139.54359355},{"name":"田無駅北口","province":"東京都","city":"西東京市","address":"東京都西東京市田無町5丁目1-1","lat":35.72968164,"lon":139.53983915},{"name":"谷戸町三丁目","province":"東京都","city":"西東京市","address":"東京都西東京市谷戸町3丁目26-1","lat":35.74893224,"lon":139.54342137},{"name":"保谷栄小西","province":"東京都","city":"西東京市","address":"東京都西東京市栄町2丁目6-15","lat":35.75128492,"lon":139.55119012},{"name":"田無北原二丁目","province":"東京都","city":"西東京市","address":"東京都西東京市北原町2丁目8-7","lat":35.73858069,"lon":139.54366898},{"name":"新柳沢団地東","province":"東京都","city":"西東京市","address":"東京都西東京市東伏見5丁目10-30","lat":35.72226067,"lon":139.55774353},{"name":"ひばりが丘駅南","province":"東京都","city":"西東京市","address":"東京都西東京市谷戸町3丁目27","lat":35.74979604,"lon":139.54370743},{"name":"西武柳沢駅南","province":"東京都","city":"西東京市","address":"東京都西東京市柳沢2丁目19-15","lat":35.72568793,"lon":139.55214107},{"name":"谷戸町三丁目東","province":"東京都","city":"西東京市","address":"東京都西東京市谷戸町3丁目20","lat":35.74797685,"lon":139.54574622},{"name":"下保谷二丁目東","province":"東京都","city":"西東京市","address":"東京都西東京市下保谷2丁目9-3","lat":35.75104067,"lon":139.55864233},{"name":"芝久保浄水所","province":"東京都","city":"西東京市","address":"東京都西東京市芝久保町5丁目9-1","lat":35.7337808,"lon":139.52453742},{"name":"保谷町浄水所","province":"東京都","city":"西東京市","address":"東京都西東京市保谷町1丁目5-24","lat":35.73545076,"lon":139.55478209},{"name":"西東京栄町浄水所","province":"東京都","city":"西東京市","address":"東京都西東京市栄町2丁目7-6","lat":35.75167656,"lon":139.55222337},{"name":"田無警察署","province":"東京都","city":"西東京市","address":"西東京市田無町5-2-5","lat":35.72999,"lon":139.5386},{"name":"西東京消防署","province":"東京都","city":"西東京市","address":"西東京市中町1-1-6","lat":35.73898,"lon":139.5553},{"name":"東伏見","province":"東京都","city":"西東京市","address":"東京都西東京市東伏見6丁目10-22","lat":35.72516589,"lon":139.55749898},{"name":"田無町三丁目","province":"東京都","city":"西東京市","address":"東京都西東京市田無町1丁目2-31","lat":35.73104545,"lon":139.54369709},{"name":"ひばりが丘駅入口","province":"東京都","city":"西東京市","address":"東京都西東京市谷戸町3丁目27-25","lat":35.74978492,"lon":139.54359355},{"name":"田無駅北口","province":"東京都","city":"西東京市","address":"東京都西東京市田無町5丁目1-1","lat":35.72968164,"lon":139.53983915},{"name":"谷戸町三丁目","province":"東京都","city":"西東京市","address":"東京都西東京市谷戸町3丁目26-1","lat":35.74893224,"lon":139.54342137},{"name":"保谷栄小西","province":"東京都","city":"西東京市","address":"東京都西東京市栄町2丁目6-15","lat":35.75128492,"lon":139.55119012},{"name":"田無北原二丁目","province":"東京都","city":"西東京市","address":"東京都西東京市北原町2丁目8-7","lat":35.73858069,"lon":139.54366898},{"name":"新柳沢団地東","province":"東京都","city":"西東京市","address":"東京都西東京市東伏見5丁目10-30","lat":35.72226067,"lon":139.55774353},{"name":"ひばりが丘駅南","province":"東京都","city":"西東京市","address":"東京都西東京市谷戸町3丁目27","lat":35.74979604,"lon":139.54370743},{"name":"西武柳沢駅南","province":"東京都","city":"西東京市","address":"東京都西東京市柳沢2丁目19-15","lat":35.72568793,"lon":139.55214107},{"name":"谷戸町三丁目東","province":"東京都","city":"西東京市","address":"東京都西東京市谷戸町3丁目20","lat":35.74797685,"lon":139.54574622},{"name":"下保谷二丁目東","province":"東京都","city":"西東京市","address":"東京都西東京市下保谷2丁目9-3","lat":35.75104067,"lon":139.55864233},{"name":"芝久保浄水所","province":"東京都","city":"西東京市","address":"東京都西東京市芝久保町5丁目9-1","lat":35.7337808,"lon":139.52453742},{"name":"保谷町浄水所","province":"東京都","city":"西東京市","address":"東京都西東京市保谷町1丁目5-24","lat":35.73545076,"lon":139.55478209},{"name":"西東京栄町浄水所","province":"東京都","city":"西東京市","address":"東京都西東京市栄町2丁目7-6","lat":35.75167656,"lon":139.55222337},{"name":"田無警察署","province":"東京都","city":"西東京市","address":"西東京市田無町5-2-5","lat":35.72999,"lon":139.5386},{"name":"西東京消防署","province":"東京都","city":"西東京市","address":"西東京市中町1-1-6","lat":35.73898,"lon":139.5553},{"name":"東伏見","province":"東京都","city":"西東京市","address":"東京都西東京市東伏見6丁目10-22","lat":35.72516589,"lon":139.55749898},{"name":"田無町三丁目","province":"東京都","city":"西東京市","address":"東京都西東京市田無町1丁目2-31","lat":35.73104545,"lon":139.54369709},{"name":"ひばりが丘駅入口","province":"東京都","city":"西東京市","address":"東京都西東京市谷戸町3丁目27-25","lat":35.74978492,"lon":139.54359355},{"name":"田無駅北口","province":"東京都","city":"西東京市","address":"東京都西東京市田無町5丁目1-1","lat":35.72968164,"lon":139.53983915},{"name":"谷戸町三丁目","province":"東京都","city":"西東京市","address":"東京都西東京市谷戸町3丁目26-1","lat":35.74893224,"lon":139.54342137},{"name":"保谷栄小西","province":"東京都","city":"西東京市","address":"東京都西東京市栄町2丁目6-15","lat":35.75128492,"lon":139.55119012},{"name":"田無北原二丁目","province":"東京都","city":"西東京市","address":"東京都西東京市北原町2丁目8-7","lat":35.73858069,"lon":139.54366898},{"name":"新柳沢団地東","province":"東京都","city":"西東京市","address":"東京都西東京市東伏見5丁目10-30","lat":35.72226067,"lon":139.55774353},{"name":"ひばりが丘駅南","province":"東京都","city":"西東京市","address":"東京都西東京市谷戸町3丁目27","lat":35.74979604,"lon":139.54370743},{"name":"西武柳沢駅南","province":"東京都","city":"西東京市","address":"東京都西東京市柳沢2丁目19-15","lat":35.72568793,"lon":139.55214107},{"name":"谷戸町三丁目東","province":"東京都","city":"西東京市","address":"東京都西東京市谷戸町3丁目20","lat":35.74797685,"lon":139.54574622},{"name":"下保谷二丁目東","province":"東京都","city":"西東京市","address":"東京都西東京市下保谷2丁目9-3","lat":35.75104067,"lon":139.55864233},{"name":"芝久保浄水所","province":"東京都","city":"西東京市","address":"東京都西東京市芝久保町5丁目9-1","lat":35.7337808,"lon":139.52453742},{"name":"保谷町浄水所","province":"東京都","city":"西東京市","address":"東京都西東京市保谷町1丁目5-24","lat":35.73545076,"lon":139.55478209},{"name":"西東京栄町浄水所","province":"東京都","city":"西東京市","address":"東京都西東京市栄町2丁目7-6","lat":35.75167656,"lon":139.55222337},{"name":"田無警察署","province":"東京都","city":"西東京市","address":"西東京市田無町5-2-5","lat":35.72999,"lon":139.5386},{"name":"西東京消防署","province":"東京都","city":"西東京市","address":"西東京市中町1-1-6","lat":35.73898,"lon":139.5553}]}