{"keyword":"自転車","data":[{"name":"田無駅ガード下東自転車駐車場","province":"東京都","city":"西東京市","address":"東京都西東京市南町1丁目1","lat":35.72768753,"lon":139.54452773},{"name":"田無駅ガード下西自転車駐車場","province":"東京都","city":"西東京市","address":"東京都西東京市南町3丁目3","lat":35.72762639,"lon":139.54290565},{"name":"田無駅南口遊水池自転車駐車場","province":"東京都","city":"西東京市","address":"東京都西東京市南町4丁目9","lat":35.72473778,"lon":139.54030046},{"name":"ひばりヶ丘駅北口第2自転車駐車場（立体）","province":"東京都","city":"西東京市","address":"東京都西東京市ひばりが丘北3丁目2","lat":35.75151257,"lon":139.54662658},{"name":"ひばりヶ丘駅南口自転車駐車場","province":"東京都","city":"西東京市","address":"東京都西東京市住吉町3丁目10-25","lat":35.75069043,"lon":139.54597666},{"name":"ひばりヶ丘駅南口第2自転車駐車場","province":"東京都","city":"西東京市","address":"東京都西東京市ひばりが丘1丁目14","lat":35.75158469,"lon":139.54249635},{"name":"ひばりヶ丘駅南口谷戸自転車駐車場","province":"東京都","city":"西東京市","address":"東京都西東京市谷戸町3丁目21","lat":35.74911837,"lon":139.54524622},{"name":"保谷駅北口あらやしき自転車駐車場（地下式）","province":"東京都","city":"西東京市","address":"東京都西東京市下保谷4丁目8-18","lat":35.75074649,"lon":139.5671805},{"name":"保谷駅北口第2自転車駐車場（立体）","province":"東京都","city":"西東京市","address":"東京都西東京市下保谷4丁目11","lat":35.75059099,"lon":139.5684554},{"name":"保谷駅南口自転車駐車場（立体）","province":"東京都","city":"西東京市","address":"東京都西東京市東町4丁目13","lat":35.74547765,"lon":139.56628631},{"name":"保谷駅南口第1自転車駐車場","province":"東京都","city":"西東京市","address":"東京都西東京市東町3丁目4","lat":35.74647752,"lon":139.56593075},{"name":"田無駅北口第1自転車駐車場（立体）","province":"東京都","city":"西東京市","address":"東京都西東京市田無町4丁目5-34","lat":35.72795678,"lon":139.53708112},{"name":"田無駅北口第2自転車駐車場（立体）","province":"東京都","city":"西東京市","address":"東京都西東京市田無町4丁目5-34","lat":35.72795678,"lon":139.53708112},{"name":"田無駅南口自転車駐車場（立体）","province":"東京都","city":"西東京市","address":"東京都西東京市南町5丁目6-14","lat":35.72630144,"lon":139.53818111},{"name":"西武柳沢駅北口第1自転車駐車場（立体）","province":"東京都","city":"西東京市","address":"東京都西東京市保谷町3丁目24","lat":35.72928195,"lon":139.55135208},{"name":"西武柳沢駅北口第1-2自転車駐車場","province":"東京都","city":"西東京市","address":"東京都西東京市保谷町3丁目24","lat":35.72928195,"lon":139.55135208},{"name":"西武柳沢駅北口第2自転車駐車場","province":"東京都","city":"西東京市","address":"東京都西東京市保谷町3丁目11","lat":35.72872648,"lon":139.55234926},{"name":"西武柳沢駅南口自転車駐車場","province":"東京都","city":"西東京市","address":"東京都西東京市柳沢1丁目12","lat":35.72659063,"lon":139.55310762},{"name":"東伏見駅北口第1自転車駐車場","province":"東京都","city":"西東京市","address":"東京都西東京市富士町4丁目18","lat":35.7291878,"lon":139.56391215},{"name":"東伏見駅北口第2自転車駐車場","province":"東京都","city":"西東京市","address":"東京都西東京市富士町4丁目31","lat":35.72994879,"lon":139.56235113},{"name":"東伏見駅南口第1A・B自転車駐車場","province":"東京都","city":"西東京市","address":"東京都西東京市東伏見3丁目1","lat":35.72816575,"lon":139.56600368},{"name":"東伏見駅南口第2自転車駐車場","province":"東京都","city":"西東京市","address":"東京都西東京市東伏見2丁目2","lat":35.72831564,"lon":139.56209567},{"name":"ひばりヶ丘駅北口自転車駐車場","province":"東京都","city":"西東京市","address":"東京都西東京市ひばりが丘北3丁目1","lat":35.7512987,"lon":139.54670436}]}