{"keyword":"診療","data":[{"name":"田無スマイル歯科クリニック","province":"東京都","city":"西東京市","address":"東京都西東京市田無町二丁目1-1ASTA2階","lat":35.728216,"lon":139.54071},{"name":"本町歯科","province":"東京都","city":"西東京市","address":"東京都西東京市田無町二丁目9-6野崎ビル201","lat":35.729023,"lon":139.541139},{"name":"遠藤歯科医院","province":"東京都","city":"西東京市","address":"東京都西東京市田無町二丁目21-4","lat":35.728757,"lon":139.545718},{"name":"はせがわ歯科クリニック","province":"東京都","city":"西東京市","address":"東京都西東京市田無町三丁目1-13ラ・ベルドゥーレ田無101","lat":35.729627,"lon":139.540669},{"name":"田無北デンタルクリニック","province":"東京都","city":"西東京市","address":"東京都西東京市田無町三丁目1-16矢ヶ崎ビル1階","lat":35.72957,"lon":139.540268},{"name":"沼澤田無駅前歯科","province":"東京都","city":"西東京市","address":"東京都西東京市田無町四丁目2-11田無Aビル1階","lat":35.727796,"lon":139.539231},{"name":"ごうけ矯正歯科クリニック","province":"東京都","city":"西東京市","address":"東京都西東京市田無町四丁目4-13","lat":35.728225,"lon":139.538316},{"name":"パンダ歯科クリニック","province":"東京都","city":"西東京市","address":"東京都西東京市田無町四丁目4-15宮田ビル2階","lat":35.728271,"lon":139.538485},{"name":"山口歯科医院","province":"東京都","city":"西東京市","address":"東京都西東京市田無町四丁目9-10","lat":35.727115,"lon":139.535488},{"name":"サルビア歯科医院","province":"東京都","city":"西東京市","address":"東京都西東京市田無町四丁目11-11","lat":35.726782,"lon":139.533604},{"name":"田無町歯科クリニック","province":"東京都","city":"西東京市","address":"東京都西東京市田無町四丁目23-4","lat":35.729127,"lon":139.538166},{"name":"西東京口腔研クリニック","province":"東京都","city":"西東京市","address":"東京都西東京市田無町四丁目24-14横山ビル2階","lat":35.729582,"lon":139.538382},{"name":"沼澤歯科医院","province":"東京都","city":"西東京市","address":"東京都西東京市田無町四丁目27-9TK田無ビル2階","lat":35.728449,"lon":139.539263},{"name":"博山歯科クリニック","province":"東京都","city":"西東京市","address":"東京都西東京市田無町四丁目28-13恩幣ビル2階","lat":35.729059,"lon":139.539697},{"name":"堀歯科医院","province":"東京都","city":"西東京市","address":"東京都西東京市田無町五丁目8-10ライオンズマンション田無第2","lat":35.731789,"lon":139.539126},{"name":"グレースデンタルクリニック 多摩分院","province":"東京都","city":"西東京市","address":"東京都西東京市田無町五丁目9-1","lat":35.730842,"lon":139.539684},{"name":"ニイヤマ歯科","province":"東京都","city":"西東京市","address":"東京都西東京市田無町六丁目6-31","lat":35.730027,"lon":139.53547},{"name":"南田歯科医院","province":"東京都","city":"西東京市","address":"東京都西東京市南町一丁目5-9富士マンション1階","lat":35.727817,"lon":139.547842},{"name":"小川歯科","province":"東京都","city":"西東京市","address":"東京都西東京市南町二丁目2-7","lat":35.725477,"lon":139.547222},{"name":"天野歯科医院","province":"東京都","city":"西東京市","address":"東京都西東京市南町二丁目8-8","lat":35.724666,"lon":139.548413},{"name":"竹中歯科医院","province":"東京都","city":"西東京市","address":"東京都西東京市南町三丁目1-2","lat":35.727359,"lon":139.541335},{"name":"むとう歯科医院","province":"東京都","city":"西東京市","address":"東京都西東京市南町四丁目4-2プリンスプラザ田無2階","lat":35.727001,"lon":139.540739},{"name":"こみねキッズデンタルクリニック","province":"東京都","city":"西東京市","address":"東京都西東京市南町四丁目13-22","lat":35.722178,"lon":139.541094},{"name":"黒川歯科医院","province":"東京都","city":"西東京市","address":"東京都西東京市南町五丁目5-13IBSビル2階","lat":35.726931,"lon":139.538608},{"name":"伊藤歯科医院","province":"東京都","city":"西東京市","address":"東京都西東京市南町五丁目7-9","lat":35.725759,"lon":139.538786},{"name":"やましな歯科クリニック","province":"東京都","city":"西東京市","address":"東京都西東京市西原町四丁目2-8ホームセンターコーナン西東京田無店3階","lat":35.735681,"lon":139.525696},{"name":"野口歯科医院","province":"東京都","city":"西東京市","address":"東京都西東京市西原町四丁目3-49","lat":35.73654,"lon":139.526872},{"name":"にしはらクリニックビル歯科・口腔外科","province":"東京都","city":"西東京市","address":"東京都西東京市西原町五丁目1-8西原クリニックビル202","lat":35.737453,"lon":139.534891},{"name":"おばら歯科医院","province":"東京都","city":"西東京市","address":"東京都西東京市西原町五丁目3-1レアール田無105","lat":35.739058,"lon":139.532536},{"name":"神田歯科医院","province":"東京都","city":"西東京市","address":"東京都西東京市緑町三丁目5-30","lat":35.741651,"lon":139.542798},{"name":"HIBARIGAOKA DENTAL OFFICE","province":"東京都","city":"西東京市","address":"東京都西東京市谷戸町二丁目3-7フレスポひばりが丘3階301","lat":35.744808,"lon":139.542446},{"name":"シマデンタルクリニック","province":"東京都","city":"西東京市","address":"東京都西東京市谷戸町二丁目4-16","lat":35.745144,"lon":139.541748},{"name":"四津谷歯科医院","province":"東京都","city":"西東京市","address":"東京都西東京市谷戸町二丁目11-13杉田ビル2階","lat":35.746304,"lon":139.542745},{"name":"かじた歯科クリニック","province":"東京都","city":"西東京市","address":"東京都西東京市谷戸町二丁目13-12シャルマン1-1階","lat":35.748484,"lon":139.542852},{"name":"みむら矯正歯科","province":"東京都","city":"西東京市","address":"東京都西東京市谷戸町二丁目15-11ひばりが丘高野ビル6階","lat":35.749268,"lon":139.54322},{"name":"押見歯科診療室","province":"東京都","city":"西東京市","address":"東京都西東京市谷戸町三丁目26-1並木ビル2階","lat":35.748942,"lon":139.543419},{"name":"歯科吉岡医院","province":"東京都","city":"西東京市","address":"東京都西東京市谷戸町三丁目26-2","lat":35.749022,"lon":139.5435},{"name":"ひばりが丘ファミリー歯科","province":"東京都","city":"西東京市","address":"東京都西東京市谷戸町三丁目27-5桜Willマンション1階","lat":35.750205,"lon":139.543796},{"name":"城歯科クリニック","province":"東京都","city":"西東京市","address":"東京都西東京市向台町一丁目20-9","lat":35.721035,"lon":139.543142},{"name":"志藤歯科医院","province":"東京都","city":"西東京市","address":"東京都西東京市向台町三丁目6-7","lat":35.719561,"lon":139.537373},{"name":"向台ソラーレデンタルケア","province":"東京都","city":"西東京市","address":"東京都西東京市向台町四丁目21-11","lat":35.717442,"lon":139.532699},{"name":"しげる歯科","province":"東京都","city":"西東京市","address":"東京都西東京市向台町五丁目1-1","lat":35.722963,"lon":139.53303},{"name":"岩田歯科医院","province":"東京都","city":"西東京市","address":"東京都西東京市向台町六丁目16-4","lat":35.722221,"lon":139.526087},{"name":"ひがきデンタルクリニック","province":"東京都","city":"西東京市","address":"東京都西東京市芝久保町一丁目12-5イオンタウン田無芝久保店2階","lat":35.72423,"lon":139.52863},{"name":"浅野第三歯科診療所","province":"東京都","city":"西東京市","address":"東京都西東京市芝久保町二丁目19-12","lat":35.725597,"lon":139.5231},{"name":"浅沼歯科クリニック","province":"東京都","city":"西東京市","address":"東京都西東京市芝久保町三丁目4-32","lat":35.729599,"lon":139.52674},{"name":"いずみ歯科医院","province":"東京都","city":"西東京市","address":"東京都西東京市芝久保町三丁目19-54","lat":35.729494,"lon":139.518529},{"name":"みずた歯科医院","province":"東京都","city":"西東京市","address":"東京都西東京市新町二丁目2-2ドムス武蔵野1階","lat":35.715955,"lon":139.543609},{"name":"平田歯科クリニック","province":"東京都","city":"西東京市","address":"東京都西東京市新町二丁目4-3-2階","lat":35.714798,"lon":139.543792},{"name":"いわさき歯科クリニック","province":"東京都","city":"西東京市","address":"東京都西東京市新町二丁目9-18","lat":35.717132,"lon":139.542422},{"name":"なつデンタルクリニック","province":"東京都","city":"西東京市","address":"東京都西東京市新町四丁目6-7-1階","lat":35.711954,"lon":139.538641},{"name":"篠岡歯科医院","province":"東京都","city":"西東京市","address":"東京都西東京市柳沢一丁目1-5","lat":35.72827,"lon":139.55561},{"name":"さくら歯科クリニック","province":"東京都","city":"西東京市","address":"東京都西東京市柳沢一丁目1-26コーポ山崎2階","lat":35.728627,"lon":139.554836},{"name":"ウエダ歯科","province":"東京都","city":"西東京市","address":"東京都西東京市柳沢二丁目3-13-105","lat":35.72256,"lon":139.556213},{"name":"ひかり歯科医院","province":"東京都","city":"西東京市","address":"東京都西東京市柳沢三丁目1-4","lat":35.721863,"lon":139.557234},{"name":"松尾歯科医院","province":"東京都","city":"西東京市","address":"東京都西東京市柳沢三丁目2-5","lat":35.721689,"lon":139.556616},{"name":"西武柳沢南口歯科","province":"東京都","city":"西東京市","address":"東京都西東京市柳沢六丁目1-2山田ビル1階","lat":35.728239,"lon":139.552317},{"name":"荻野デンタルクリニック","province":"東京都","city":"西東京市","address":"東京都西東京市柳沢六丁目1-2宮澤ビル1階","lat":35.728239,"lon":139.552317},{"name":"三國歯科医院","province":"東京都","city":"西東京市","address":"東京都西東京市柳沢六丁目4-3107","lat":35.727466,"lon":139.55227},{"name":"西武柳沢デンタルクリニック","province":"東京都","city":"西東京市","address":"東京都西東京市柳沢六丁目6-3","lat":35.726165,"lon":139.552157},{"name":"野本歯科医院","province":"東京都","city":"西東京市","address":"東京都西東京市柳沢六丁目9-1","lat":35.728385,"lon":139.550839},{"name":"アップル歯科クリニック","province":"東京都","city":"西東京市","address":"東京都西東京市東伏見三丁目4-1東伏見STEP22","lat":35.727694,"lon":139.56424},{"name":"松本歯科医院","province":"東京都","city":"西東京市","address":"東京都西東京市保谷町三丁目3-23","lat":35.731411,"lon":139.552866},{"name":"おおたけ歯科医院","province":"東京都","city":"西東京市","address":"東京都西東京市保谷町三丁目9-2コーラルタウン1階","lat":35.72972,"lon":139.554479},{"name":"樋口歯科医院","province":"東京都","city":"西東京市","address":"東京都西東京市保谷町三丁目11-24","lat":35.728657,"lon":139.552705},{"name":"エンゼル歯科クリニック","province":"東京都","city":"西東京市","address":"東京都西東京市保谷町三丁目22-7","lat":35.730171,"lon":139.551302},{"name":"のぞみ歯科クリニック","province":"東京都","city":"西東京市","address":"東京都西東京市保谷町三丁目24-26","lat":35.729613,"lon":139.551822},{"name":"さくらい歯科医院","province":"東京都","city":"西東京市","address":"東京都西東京市保谷町五丁目6-5","lat":35.732531,"lon":139.550428},{"name":"たかしま歯科クリニック","province":"東京都","city":"西東京市","address":"東京都西東京市保谷町五丁目18-9ラフォーレ田無102","lat":35.731779,"lon":139.54667},{"name":"ナチュラル歯科クリニック","province":"東京都","city":"西東京市","address":"東京都西東京市保谷町六丁目14-5","lat":35.732048,"lon":139.552183},{"name":"ほりうち歯科医院","province":"東京都","city":"西東京市","address":"東京都西東京市富士町二丁目7-11ザオバービュー1階","lat":35.734064,"lon":139.569189},{"name":"天野矯正歯科","province":"東京都","city":"西東京市","address":"東京都西東京市富士町四丁目13-25シーリン東伏見2階","lat":35.729287,"lon":139.565793},{"name":"フジニカ歯科","province":"東京都","city":"西東京市","address":"東京都西東京市富士町四丁目14-1リヴェールRX1、2階","lat":35.730197,"lon":139.56594},{"name":"五十嵐歯科医院","province":"東京都","city":"西東京市","address":"東京都西東京市富士町四丁目16-8野口ビル1階","lat":35.729469,"lon":139.565241},{"name":"富士町歯科クリニック","province":"東京都","city":"西東京市","address":"東京都西東京市富士町四丁目18-11富士町ビル地下1階","lat":35.729053,"lon":139.563927},{"name":"おおうち矯正歯科小児歯科クリニック","province":"東京都","city":"西東京市","address":"東京都西東京市富士町四丁目33-10東伏見ヒルズ1階、2階","lat":35.729104,"lon":139.563378},{"name":"なかまち歯科クリニック","province":"東京都","city":"西東京市","address":"東京都西東京市中町五丁目18-15","lat":35.735362,"lon":139.56083},{"name":"たきもと歯科医院","province":"東京都","city":"西東京市","address":"東京都西東京市東町二丁目13-18","lat":35.747164,"lon":139.563443},{"name":"フォレストデンタルクリニック","province":"東京都","city":"西東京市","address":"東京都西東京市東町三丁目1-13-1階","lat":35.744713,"lon":139.565329},{"name":"たむらデンタルクリニック","province":"東京都","city":"西東京市","address":"東京都西東京市東町四丁目13-23メープルヴィレッジ1階","lat":35.745839,"lon":139.566287},{"name":"畑中歯科医院","province":"東京都","city":"西東京市","address":"東京都西東京市東町五丁目9-3シャトー本多A号","lat":35.738697,"lon":139.566073},{"name":"文理台歯科医院","province":"東京都","city":"西東京市","address":"東京都西東京市東町六丁目1-24","lat":35.741743,"lon":139.563248},{"name":"ナカジマデンタルクリニック","province":"東京都","city":"西東京市","address":"東京都西東京市東町六丁目4-18長沢ビル1階","lat":35.741705,"lon":139.565755},{"name":"ねま歯科医院","province":"東京都","city":"西東京市","address":"東京都西東京市泉町一丁目11-14上宿ビル1階","lat":35.738883,"lon":139.547055},{"name":"井出歯科","province":"東京都","city":"西東京市","address":"東京都西東京市泉町一丁目13-4","lat":35.738838,"lon":139.54894},{"name":"泉台歯科医院","province":"東京都","city":"西東京市","address":"東京都西東京市泉町六丁目1-3","lat":35.744823,"lon":139.554534},{"name":"かとう歯科医院","province":"東京都","city":"西東京市","address":"東京都西東京市住吉町三丁目8-15","lat":35.750004,"lon":139.545595},{"name":"ひばり三国歯科","province":"東京都","city":"西東京市","address":"東京都西東京市住吉町三丁目9-8ひばりヶ丘メディカルプラザ6階","lat":35.750776,"lon":139.545203},{"name":"藤井かおる歯科医院","province":"東京都","city":"西東京市","address":"東京都西東京市住吉町四丁目8-6","lat":35.748405,"lon":139.550064},{"name":"オレンジ歯科クリニック","province":"東京都","city":"西東京市","address":"東京都西東京市ひばりが丘一丁目1-1-5階","lat":35.751521,"lon":139.544142},{"name":"山本歯科医院","province":"東京都","city":"西東京市","address":"東京都西東京市ひばりが丘一丁目3-2","lat":35.750821,"lon":139.544065},{"name":"浅野歯科医院","province":"東京都","city":"西東京市","address":"東京都西東京市ひばりが丘一丁目3-3","lat":35.750751,"lon":139.543951},{"name":"山口歯科医院","province":"東京都","city":"西東京市","address":"東京都西東京市ひばりが丘一丁目5-12","lat":35.74977,"lon":139.54241},{"name":"西東京生協歯科","province":"東京都","city":"西東京市","address":"東京都西東京市ひばりが丘二丁目6-29小寺ビル1階","lat":35.747527,"lon":139.538042},{"name":"こうじゅ歯科医院","province":"東京都","city":"西東京市","address":"東京都西東京市ひばりが丘北一丁目10-24","lat":35.751018,"lon":139.55093},{"name":"仲川歯科医院","province":"東京都","city":"西東京市","address":"東京都西東京市ひばりが丘北二丁目8-15","lat":35.753763,"lon":139.549753},{"name":"鎌田歯科","province":"東京都","city":"西東京市","address":"東京都西東京市ひばりが丘北三丁目2-6","lat":35.75191,"lon":139.546733},{"name":"モンマ歯科","province":"東京都","city":"西東京市","address":"東京都西東京市ひばりが丘北三丁目3-14モンマビル1階","lat":35.751949,"lon":139.545161},{"name":"稲富歯科医院","province":"東京都","city":"西東京市","address":"東京都西東京市ひばりが丘北三丁目3-35","lat":35.751552,"lon":139.546366},{"name":"キンデンタルクリニック","province":"東京都","city":"西東京市","address":"東京都西東京市ひばりが丘北三丁目3-52PonteFelice2階","lat":35.751835,"lon":139.546075},{"name":"よつば歯科クリニック","province":"東京都","city":"西東京市","address":"東京都西東京市ひばりが丘北三丁目4-11セストリエール1階","lat":35.752571,"lon":139.546897},{"name":"横澤歯科医院","province":"東京都","city":"西東京市","address":"東京都西東京市ひばりが丘北四丁目1-2エボシビル2階","lat":35.752185,"lon":139.544533},{"name":"川島歯科クリニック","province":"東京都","city":"西東京市","address":"東京都西東京市ひばりが丘北四丁目4-16ラークヒルズ壱番館104","lat":35.754171,"lon":139.544273},{"name":"にしがみ歯科医院","province":"東京都","city":"西東京市","address":"東京都西東京市ひばりが丘北四丁目4-20土屋ビル1階","lat":35.753635,"lon":139.544345},{"name":"三浦歯科医院","province":"東京都","city":"西東京市","address":"東京都西東京市ひばりが丘北四丁目5-17","lat":35.75391,"lon":139.54519},{"name":"ふたば歯科医院","province":"東京都","city":"西東京市","address":"東京都西東京市ひばりが丘北四丁目8-24","lat":35.753678,"lon":139.546156},{"name":"大槻歯科医院","province":"東京都","city":"西東京市","address":"東京都西東京市北町一丁目4-2","lat":35.752662,"lon":139.557796},{"name":"こまむら歯科医院","province":"東京都","city":"西東京市","address":"東京都西東京市下保谷二丁目1-21","lat":35.750841,"lon":139.558441},{"name":"岩永歯科クリニック","province":"東京都","city":"西東京市","address":"東京都西東京市下保谷三丁目7-9","lat":35.755306,"lon":139.566986},{"name":"いくたま歯科医院","province":"東京都","city":"西東京市","address":"東京都西東京市下保谷四丁目8-27","lat":35.749804,"lon":139.566799},{"name":"まほろば歯科","province":"東京都","city":"西東京市","address":"東京都西東京市下保谷四丁目11-10カーサ西東京1階","lat":35.751136,"lon":139.567889},{"name":"保谷駅前歯科クリニック","province":"東京都","city":"西東京市","address":"東京都西東京市下保谷四丁目12-23SunriseHoyaビル1階","lat":35.749552,"lon":139.567378},{"name":"いのうえ歯科クリニック","province":"東京都","city":"西東京市","address":"東京都西東京市下保谷四丁目14-1-2階","lat":35.748445,"lon":139.56692},{"name":"さいとう歯科ファミリーメンテナンスルーム","province":"東京都","city":"西東京市","address":"東京都西東京市下保谷五丁目13-10","lat":35.749789,"lon":139.564532}]}