{"keyword":"認可","data":[{"name":"みどり保育園","province":"東京都","city":"西東京市","address":"西東京市緑町2-15-12","lat":35.74203,"lon":139.53615},{"name":"ぽけっとランド西東京保育園","province":"東京都","city":"西東京市","address":"西東京市谷戸町2-3-73階","lat":35.74469,"lon":139.54244},{"name":"田無保育園","province":"東京都","city":"西東京市","address":"西東京市緑町1-2-26","lat":35.73364,"lon":139.53914},{"name":"みどり保育園","province":"東京都","city":"西東京市","address":"西東京市緑町2-15-12","lat":35.74204,"lon":139.53615},{"name":"レイモンド田無保育園","province":"東京都","city":"西東京市","address":"西東京市田無町2-14-15","lat":35.72807,"lon":139.54273},{"name":"田無すくすく保育園","province":"東京都","city":"西東京市","address":"西東京市南町1-3-28","lat":35.72743,"lon":139.54684},{"name":"ポポラー東京ひばりが丘園","province":"東京都","city":"西東京市","address":"西東京市ひばりが丘3-4-2シティテラスひばりが丘共用棟1・2階","lat":35.74424,"lon":139.53301},{"name":"武蔵野どろんこ保育園","province":"東京都","city":"西東京市","address":"西東京市新町5-14-14","lat":35.71488,"lon":139.53388},{"name":"しもほうや保育園","province":"東京都","city":"西東京市","address":"西東京市下保谷3-8-15","lat":35.75458,"lon":139.56574},{"name":"けやき保育園","province":"東京都","city":"西東京市","address":"西東京市西原町4-5-96","lat":35.73921,"lon":139.53331}]}