{"keyword":"週","data":[{"name":"国立大学法人東京大学大学院農学生命科学研究科附属生態調和農学機構","province":"東京都","city":"西東京市","address":"東京都西東京市緑町1-1-1","lat":35.73263,"lon":139.540431},{"name":"国立大学法人東京大学大学院農学生命科学研究科附属田無演習林","province":"東京都","city":"西東京市","address":"東京都西東京市緑町1-1-8","lat":35.734344,"lon":139.539112},{"name":"芝久保調節池","province":"東京都","city":"西東京市","address":"東京都西東京市芝久保町1-18","lat":35.722936,"lon":139.524652},{"name":"向台調節池","province":"東京都","city":"西東京市","address":"東京都西東京市向台町5-4","lat":35.721136,"lon":139.52995},{"name":"都立小金井公園","province":"東京都","city":"西東京市","address":"東京都西東京市向台町6-4","lat":35.718332,"lon":139.524885},{"name":"都立東伏見公園","province":"東京都","city":"西東京市","address":"東京都西東京市東伏見1","lat":35.728449,"lon":139.559241},{"name":"早稲田大学東伏見キャンパス東伏見総合グラウンド","province":"東京都","city":"西東京市","address":"東京都西東京市東伏見2-7","lat":35.726844,"lon":139.561656},{"name":"MUFG PARK","province":"東京都","city":"西東京市","address":"東京都西東京市柳沢4-4","lat":35.718337,"lon":139.550842},{"name":"ひばりが丘総合運動場","province":"東京都","city":"西東京市","address":"東京都西東京市ひばりが丘3-1","lat":35.744816,"lon":139.53778},{"name":"岩倉高等学校総合運動場","province":"東京都","city":"西東京市","address":"東京都西東京市新町2-3-27","lat":35.713993,"lon":139.542077},{"name":"中原小学校","province":"東京都","city":"西東京市","address":"東京都西東京市ひばりが丘2-6-25","lat":35.746895,"lon":139.537761},{"name":"東京都立田無高等学校","province":"東京都","city":"西東京市","address":"東京都西東京市向台町5-4-34","lat":35.720209,"lon":139.529025},{"name":"東京都立保谷高等学校","province":"東京都","city":"西東京市","address":"東京都西東京市住吉町5-8-23","lat":35.745801,"lon":139.555429},{"name":"東京都立田無工業高等学校","province":"東京都","city":"西東京市","address":"東京都西東京市向台町1-9-1","lat":35.720514,"lon":139.548591},{"name":"学校法人武蔵野大学","province":"東京都","city":"西東京市","address":"東京都西東京市新町1-1-20","lat":35.716752,"lon":139.548918},{"name":"学校法人日本文華学園","province":"東京都","city":"西東京市","address":"東京都西東京市西原町4-5-85","lat":35.738298,"lon":139.53024},{"name":"下野谷遺跡","province":"東京都","city":"西東京市","address":"東京都西東京市東伏見六丁目","lat":35.725451,"lon":139.562007},{"name":"玉川上水・小金井サクラ","province":"東京都","city":"西東京市","address":"東京都西東京市新町五丁目・六丁目","lat":35.711125,"lon":139.53627},{"name":"田無神社本殿・拝殿","province":"東京都","city":"西東京市","address":"東京都西東京市田無町三丁目7-4","lat":35.729783,"lon":139.544085},{"name":"石幢六角地蔵尊","province":"東京都","city":"西東京市","address":"東京都西東京市西原町二丁目5-43","lat":35.736442,"lon":139.536345},{"name":"田無ばやし","province":"東京都","city":"西東京市","address":"東京都西東京市田無町三丁目7-4田無神社・伝承地","lat":35.729783,"lon":139.544085},{"name":"延慶の板碑","province":"東京都","city":"西東京市","address":"東京都西東京市西原町四丁目5-6西原総合教育施設2階郷土資料室","lat":35.736717,"lon":139.529074},{"name":"稗倉","province":"東京都","city":"西東京市","address":"東京都西東京市田無町二丁目12-7","lat":35.728588,"lon":139.542},{"name":"下田家文書（公用分例略記）","province":"東京都","city":"西東京市","address":"東京都西東京市田無町","lat":35.726013,"lon":139.537715},{"name":"北芝久保庚申塔","province":"東京都","city":"西東京市","address":"東京都西東京市芝久保町四丁目12-48","lat":35.73039,"lon":139.521828},{"name":"養老田碑","province":"東京都","city":"西東京市","address":"東京都西東京市田無町二丁目12","lat":35.728554,"lon":139.542004},{"name":"養老畑碑","province":"東京都","city":"西東京市","address":"東京都西東京市田無町四丁目5-21田無小学校","lat":35.728928,"lon":139.537586},{"name":"下田半兵衛富宅の木像","province":"東京都","city":"西東京市","address":"東京都西東京市田無町三丁目8-12総持寺","lat":35.729577,"lon":139.54267},{"name":"獅子頭(雄獅子・雌獅子)","province":"東京都","city":"西東京市","address":"東京都西東京市田無町三丁目7-4","lat":35.729783,"lon":139.544085},{"name":"高札(火付ケ御文言高札)","province":"東京都","city":"西東京市","address":"東京都西東京市西原町四丁目5-6西原総合教育施設2階郷土資料室","lat":35.736717,"lon":139.529074},{"name":"人馬賃銭御定メ掛札","province":"東京都","city":"西東京市","address":"東京都西東京市西原町四丁目5-6西原総合教育施設2階郷土資料室","lat":35.736717,"lon":139.529074},{"name":"韮山笠","province":"東京都","city":"西東京市","address":"東京都西東京市西原町四丁目5-6西原総合教育施設2階郷土資料室","lat":35.736717,"lon":139.529074},{"name":"十王堂一宇建立の碑","province":"東京都","city":"西東京市","address":"東京都西東京市向台町二丁目8向台墓地","lat":35.718767,"lon":139.54172},{"name":"玉井寛海法士の墓","province":"東京都","city":"西東京市","address":"東京都西東京市向台町二丁目8向台墓地","lat":35.718767,"lon":139.54172},{"name":"撃剣家並木先生の墓","province":"東京都","city":"西東京市","address":"東京都西東京市芝久保町二丁目11芝久保墓地","lat":35.728078,"lon":139.528081},{"name":"南芝久保庚申塔","province":"東京都","city":"西東京市","address":"東京都西東京市田無町六丁目1-12","lat":35.727094,"lon":139.53278},{"name":"地租改正絵図","province":"東京都","city":"西東京市","address":"東京都西東京市南町五丁目6-11中央図書館","lat":35.726013,"lon":139.537715},{"name":"文化九年 検地図","province":"東京都","city":"西東京市","address":"東京都西東京市田無町","lat":35.728854,"lon":139.541659},{"name":"文字庚申塔","province":"東京都","city":"西東京市","address":"東京都西東京市新町一丁目2","lat":35.7163,"lon":139.548101},{"name":"招魂塔","province":"東京都","city":"西東京市","address":"東京都西東京市新町一丁目2しらし窪墓地","lat":35.7163,"lon":139.548101},{"name":"六角地蔵石幢","province":"東京都","city":"西東京市","address":"東京都西東京市保谷町四丁目7","lat":35.728494,"lon":139.549841},{"name":"青面金剛庚申像","province":"東京都","city":"西東京市","address":"東京都西東京市泉町二丁目3-2","lat":35.73723,"lon":139.551019},{"name":"又六石仏群","province":"東京都","city":"西東京市","address":"東京都西東京市住吉町三丁目18","lat":35.747822,"lon":139.549585},{"name":"田無村御検地帳","province":"東京都","city":"西東京市","address":"東京都西東京市南町五丁目6-11中央図書館","lat":35.726013,"lon":139.537715},{"name":"真誠学舎関係文書","province":"東京都","city":"西東京市","address":"東京都西東京市西原町四丁目5-6西原総合教育施設2階郷土資料室","lat":35.736717,"lon":139.529074},{"name":"尉殿大権現 神号額","province":"東京都","city":"西東京市","address":"東京都西東京市田無町三丁目8-12総持寺","lat":35.729577,"lon":139.54267},{"name":"柳沢庚申塔","province":"東京都","city":"西東京市","address":"東京都西東京市田無町二丁目22","lat":35.728495,"lon":139.547028},{"name":"旧下田名主役宅","province":"東京都","city":"西東京市","address":"東京都西東京市田無町","lat":35.728854,"lon":139.541659},{"name":"木彫彩色三十番神神像","province":"東京都","city":"西東京市","address":"東京都西東京市下保谷三丁目11-17福泉寺","lat":35.753744,"lon":139.566528},{"name":"木彫彩色倶利迦羅不動明王像","province":"東京都","city":"西東京市","address":"東京都西東京市住吉町一丁目6-5寶晃院","lat":35.740964,"lon":139.549331},{"name":"石製尾張藩鷹場標杭","province":"東京都","city":"西東京市","address":"東京都西東京市保谷町","lat":35.741248,"lon":139.549302},{"name":"總持寺のケヤキ","province":"東京都","city":"西東京市","address":"東京都西東京市田無町三丁目8-12総持寺","lat":35.729577,"lon":139.54267},{"name":"田無神社のイチョウ","province":"東京都","city":"西東京市","address":"東京都西東京市田無町三丁目7-4田無神社","lat":35.729783,"lon":139.544085},{"name":"水子地蔵菩薩立像","province":"東京都","city":"西東京市","address":"東京都西東京市住吉町一丁目6-5寶晃院","lat":35.741248,"lon":139.549302},{"name":"西浦地蔵尊","province":"東京都","city":"西東京市","address":"東京都西東京市保谷町五丁目12-24","lat":35.734234,"lon":139.548413},{"name":"六地蔵菩薩立像","province":"東京都","city":"西東京市","address":"東京都西東京市住吉町一丁目2-12東禅寺","lat":35.742981,"lon":139.549757},{"name":"榛名大権現石造物群","province":"東京都","city":"西東京市","address":"東京都西東京市東伏見二丁目6-13氷川神社","lat":35.727853,"lon":139.563433},{"name":"石燈籠一対","province":"東京都","city":"西東京市","address":"東京都西東京市住吉町一丁目21-1尉殿神社","lat":35.743815,"lon":139.550297},{"name":"奉納絵馬群","province":"東京都","city":"西東京市","address":"東京都西東京市新町二丁目7-24阿波洲神社","lat":35.71568,"lon":139.541942},{"name":"一文銭向い目絵馬","province":"東京都","city":"西東京市","address":"東京都西東京市泉町二丁目7-25寶樹院","lat":35.73927,"lon":139.550767},{"name":"菅原道真石像","province":"東京都","city":"西東京市","address":"東京都西東京市北町六丁目7-19天神社","lat":35.753952,"lon":139.561041},{"name":"観音寺の宝篋印塔","province":"東京都","city":"西東京市","address":"東京都西東京市田無町五丁目7-5観音寺","lat":35.730628,"lon":139.537765},{"name":"馬駈け市大絵馬二枚","province":"東京都","city":"西東京市","address":"東京都西東京市泉町二丁目15-7如意輪寺","lat":35.741475,"lon":139.551457},{"name":"氏子中奉納題目塔二基","province":"東京都","city":"西東京市","address":"東京都西東京市北町六丁目7-19天神社","lat":35.753952,"lon":139.561041},{"name":"保谷囃子","province":"東京都","city":"西東京市","address":"東京都西東京市不定","lat":35.725515,"lon":139.538146},{"name":"岩船地蔵尊","province":"東京都","city":"西東京市","address":"東京都西東京市保谷町六丁目4-7","lat":35.735807,"lon":139.553412},{"name":"蓮見家文書","province":"東京都","city":"西東京市","address":"東京都西東京市北町","lat":35.726013,"lon":139.537715},{"name":"幕末の様式小銃","province":"東京都","city":"西東京市","address":"東京都西東京市向台町","lat":35.722202,"lon":139.525644},{"name":"天神社 拝殿","province":"東京都","city":"西東京市","address":"東京都西東京市北町六丁目7-19天神社","lat":35.753952,"lon":139.561041},{"name":"北原児童館","province":"東京都","city":"西東京市","address":"西東京市北原町1-16-2","lat":35.733701,"lon":139.544636},{"name":"西原北児童館","province":"東京都","city":"西東京市","address":"西東京市西原町4-5-96","lat":35.736569,"lon":139.530081},{"name":"田無児童館","province":"東京都","city":"西東京市","address":"西東京市田無町4-14-2","lat":35.727776,"lon":139.535084},{"name":"田無柳沢児童センター","province":"東京都","city":"西東京市","address":"西東京市向台町1-7-25","lat":35.721147,"lon":139.546903},{"name":"芝久保児童館","province":"東京都","city":"西東京市","address":"西東京市芝久保町1-16-18","lat":35.72471,"lon":139.525652},{"name":"ひばりが丘児童センター","province":"東京都","city":"西東京市","address":"西東京市ひばりが丘3-1-25","lat":35.746185,"lon":139.537016},{"name":"ひばりが丘北児童センター","province":"東京都","city":"西東京市","address":"西東京市ひばりが丘北1-6-8","lat":35.752554,"lon":139.549699},{"name":"下保谷児童センター","province":"東京都","city":"西東京市","address":"西東京市下保谷4-3-20","lat":35.750505,"lon":139.56502},{"name":"中町児童館","province":"東京都","city":"西東京市","address":"西東京市中町4-4-1","lat":35.737681,"lon":139.564378},{"name":"保谷柳沢児童館","province":"東京都","city":"西東京市","address":"西東京市柳沢2-6-11","lat":35.723524,"lon":139.556066},{"name":"新町児童館","province":"東京都","city":"西東京市","address":"西東京市新町5-2-7","lat":35.712939,"lon":139.536376},{"name":"西東京市社会福祉協議会","province":"東京都","city":"西東京市","address":"西東京市中町1-6-8保谷東分庁舎1階","lat":35.741186,"lon":139.559904},{"name":"西東京市中央図書館","province":"東京都","city":"西東京市","address":"東京都西東京市南町5丁目6-11","lat":35.72599036,"lon":139.53779505},{"name":"西東京市保谷駅前図書館","province":"東京都","city":"西東京市","address":"東京都西東京市東町3丁目14-30","lat":35.74831068,"lon":139.56756666},{"name":"西東京市芝久保図書館","province":"東京都","city":"西東京市","address":"東京都西東京市芝久保町5丁目4-48","lat":35.73266157,"lon":139.52805941},{"name":"西東京市谷戸図書館","province":"東京都","city":"西東京市","address":"東京都西東京市谷戸町1丁目17-2","lat":35.74151367,"lon":139.54369663},{"name":"西東京市柳沢図書館","province":"東京都","city":"西東京市","address":"東京都西東京市柳沢1丁目15-1","lat":35.72833767,"lon":139.55396858},{"name":"西東京市ひばりが丘図書館","province":"東京都","city":"西東京市","address":"東京都西東京市ひばりが丘1丁目2-1","lat":35.75178747,"lon":139.54347682},{"name":"北原児童館","province":"東京都","city":"西東京市","address":"西東京市北原町1-16-2","lat":35.73367,"lon":139.54465},{"name":"西原北児童館","province":"東京都","city":"西東京市","address":"西東京市西原町4-5-96","lat":35.73684,"lon":139.52879},{"name":"田無児童館","province":"東京都","city":"西東京市","address":"西東京市田無町4-14-2","lat":35.72773,"lon":139.53513},{"name":"田無柳沢児童センター","province":"東京都","city":"西東京市","address":"西東京市向台町1-7-25","lat":35.72259,"lon":139.54546},{"name":"芝久保児童館","province":"東京都","city":"西東京市","address":"西東京市芝久保町1-16-18","lat":35.7246,"lon":139.52583},{"name":"ひばりが丘児童センター","province":"東京都","city":"西東京市","address":"西東京市ひばりが丘3-1-25","lat":35.74507,"lon":139.53682},{"name":"ひばりが丘北児童センター","province":"東京都","city":"西東京市","address":"西東京市ひばりが丘北1-6-8","lat":35.75277,"lon":139.54977},{"name":"下保谷児童センター","province":"東京都","city":"西東京市","address":"西東京市下保谷4-3-20","lat":35.75048,"lon":139.56511},{"name":"中町児童館","province":"東京都","city":"西東京市","address":"西東京市中町4-4-1","lat":35.73714,"lon":139.56441},{"name":"保谷柳沢児童館","province":"東京都","city":"西東京市","address":"西東京市柳沢2-6-11","lat":35.72342,"lon":139.55627},{"name":"新町児童館","province":"東京都","city":"西東京市","address":"西東京市新町5-2-7","lat":35.71376,"lon":139.53653},{"name":"西東京市社会福祉協議会","province":"東京都","city":"西東京市","address":"西東京市田無町5-5-12田無総合福祉センター","lat":35.73098,"lon":139.53619},{"name":"ひばりが丘児童センター","province":"東京都","city":"西東京市","address":"西東京市ひばりが丘3-1-25","lat":35.746422,"lon":139.53688},{"name":"西東京市社会福祉協議会","province":"東京都","city":"西東京市","address":"西東京市田無町5-5-12田無総合福祉センター1階","lat":35.731819,"lon":139.535995},{"name":"西原北児童館","province":"東京都","city":"西東京市","address":"西東京市西原町4-5-96","lat":35.73921,"lon":139.53331},{"name":"芝久保浄水所","province":"東京都","city":"西東京市","address":"東京都西東京市芝久保町5丁目9-1","lat":35.7337808,"lon":139.52453742},{"name":"保谷町浄水所","province":"東京都","city":"西東京市","address":"東京都西東京市保谷町1丁目5-24","lat":35.73545076,"lon":139.55478209},{"name":"西東京栄町浄水所","province":"東京都","city":"西東京市","address":"東京都西東京市栄町2丁目7-6","lat":35.75167656,"lon":139.55222337},{"name":"向台運動場","province":"東京都","city":"西東京市","address":"東京都西東京市向台町5丁目4-44","lat":35.72149068,"lon":139.52844608},{"name":"西東京市立文理台公園","province":"東京都","city":"西東京市","address":"東京都西東京市東町1丁目4","lat":35.74431377,"lon":139.56142287},{"name":"＊?西東京市芝久保公民館","province":"東京都","city":"西東京市","address":"西東京市芝久保町5-4-48","lat":35.73269,"lon":139.528134},{"name":"＊?西東京市ひばりが丘公民館","province":"東京都","city":"西東京市","address":"西東京市ひばりが丘2-3-4","lat":35.747361,"lon":139.540589},{"name":"＊?西東京市保谷駅前公民館","province":"東京都","city":"西東京市","address":"西東京市東町3-14-30ステア5階","lat":35.748152,"lon":139.567268},{"name":"＊?西東京市谷戸公民館","province":"東京都","city":"西東京市","address":"西東京市谷戸町1-17-2","lat":35.741248,"lon":139.54395},{"name":"＊?西東京市田無公民館","province":"東京都","city":"西東京市","address":"西東京市南町5-6-11","lat":35.726018,"lon":139.537789},{"name":"＊?西東京市柳沢公民館","province":"東京都","city":"西東京市","address":"西東京市柳沢1-15-1","lat":35.728384,"lon":139.553957},{"name":"＊?西東京市中央図書館","province":"東京都","city":"西東京市","address":"西東京市南町5-6-11","lat":35.726018,"lon":139.537789},{"name":"＊?西東京市保谷駅前図書館","province":"東京都","city":"西東京市","address":"西東京市東町3-14-30ステア4階","lat":35.748151,"lon":139.567256},{"name":"＊?西東京市芝久保図書館","province":"東京都","city":"西東京市","address":"西東京市芝久保町5-4-48","lat":35.73269,"lon":139.528134},{"name":"＊?西東京市谷戸図書館","province":"東京都","city":"西東京市","address":"西東京市谷戸町1-17-2","lat":35.741248,"lon":139.54395},{"name":"＊?西東京市柳沢図書館","province":"東京都","city":"西東京市","address":"西東京市柳沢1-15-1","lat":35.728384,"lon":139.553957},{"name":"＊?西東京市ひばりが丘図書館","province":"東京都","city":"西東京市","address":"西東京市ひばりが丘1-2-1","lat":35.751801,"lon":139.54356},{"name":"＊?新町福祉会館図書サービス","province":"東京都","city":"西東京市","address":"西東京市新町5-2-7","lat":35.71296,"lon":139.536402},{"name":"西東京市役所保谷庁舎","province":"東京都","city":"西東京市","address":"西東京市中町1-5-1","lat":35.741595,"lon":139.558951},{"name":"田無警察署","province":"東京都","city":"西東京市","address":"西東京市田無町5-2-5","lat":35.72999,"lon":139.5386},{"name":"西東京消防署","province":"東京都","city":"西東京市","address":"西東京市中町1-1-6","lat":35.73898,"lon":139.5553},{"name":"市民向台運動場","province":"東京都","city":"西東京市","address":"西東京市向台町5-4","lat":35.72121,"lon":139.53},{"name":"東京ガス（株）保谷ビル","province":"東京都","city":"西東京市","address":"西東京市柳沢2-18-46","lat":35.72477,"lon":139.5523},{"name":"※西東京市役所保谷庁舎","province":"東京都","city":"西東京市","address":"東京都西東京市中町1丁目5-1","lat":35.74129184,"lon":139.55895096},{"name":"国立大学法人東京大学大学院農学生命科学研究科附属生態調和農学機構","province":"東京都","city":"西東京市","address":"東京都西東京市緑町1-1-1","lat":35.73263,"lon":139.540431},{"name":"国立大学法人東京大学大学院農学生命科学研究科附属田無演習林","province":"東京都","city":"西東京市","address":"東京都西東京市緑町1-1-8","lat":35.734344,"lon":139.539112},{"name":"芝久保調節池","province":"東京都","city":"西東京市","address":"東京都西東京市芝久保町1-18","lat":35.722936,"lon":139.524652},{"name":"向台調節池","province":"東京都","city":"西東京市","address":"東京都西東京市向台町5-4","lat":35.721136,"lon":139.52995},{"name":"都立小金井公園","province":"東京都","city":"西東京市","address":"東京都西東京市向台町6-4","lat":35.718332,"lon":139.524885},{"name":"都立東伏見公園","province":"東京都","city":"西東京市","address":"東京都西東京市東伏見1","lat":35.728449,"lon":139.559241},{"name":"早稲田大学東伏見キャンパス東伏見総合グラウンド","province":"東京都","city":"西東京市","address":"東京都西東京市東伏見2-7","lat":35.726844,"lon":139.561656},{"name":"MUFG PARK","province":"東京都","city":"西東京市","address":"東京都西東京市柳沢4-4","lat":35.718337,"lon":139.550842},{"name":"ひばりが丘総合運動場","province":"東京都","city":"西東京市","address":"東京都西東京市ひばりが丘3-1","lat":35.744816,"lon":139.53778},{"name":"岩倉高等学校総合運動場","province":"東京都","city":"西東京市","address":"東京都西東京市新町2-3-27","lat":35.713993,"lon":139.542077},{"name":"中原小学校","province":"東京都","city":"西東京市","address":"東京都西東京市ひばりが丘2-6-25","lat":35.746895,"lon":139.537761},{"name":"東京都立田無高等学校","province":"東京都","city":"西東京市","address":"東京都西東京市向台町5-4-34","lat":35.720209,"lon":139.529025},{"name":"東京都立保谷高等学校","province":"東京都","city":"西東京市","address":"東京都西東京市住吉町5-8-23","lat":35.745801,"lon":139.555429},{"name":"東京都立田無工業高等学校","province":"東京都","city":"西東京市","address":"東京都西東京市向台町1-9-1","lat":35.720514,"lon":139.548591},{"name":"学校法人武蔵野大学","province":"東京都","city":"西東京市","address":"東京都西東京市新町1-1-20","lat":35.716752,"lon":139.548918},{"name":"学校法人日本文華学園","province":"東京都","city":"西東京市","address":"東京都西東京市西原町4-5-85","lat":35.738298,"lon":139.53024},{"name":"下野谷遺跡","province":"東京都","city":"西東京市","address":"東京都西東京市東伏見六丁目","lat":35.725451,"lon":139.562007},{"name":"玉川上水・小金井サクラ","province":"東京都","city":"西東京市","address":"東京都西東京市新町五丁目・六丁目","lat":35.711125,"lon":139.53627},{"name":"田無神社本殿・拝殿","province":"東京都","city":"西東京市","address":"東京都西東京市田無町三丁目7-4","lat":35.729783,"lon":139.544085},{"name":"石幢六角地蔵尊","province":"東京都","city":"西東京市","address":"東京都西東京市西原町二丁目5-43","lat":35.736442,"lon":139.536345},{"name":"田無ばやし","province":"東京都","city":"西東京市","address":"東京都西東京市田無町三丁目7-4田無神社・伝承地","lat":35.729783,"lon":139.544085},{"name":"延慶の板碑","province":"東京都","city":"西東京市","address":"東京都西東京市西原町四丁目5-6西原総合教育施設2階郷土資料室","lat":35.736717,"lon":139.529074},{"name":"稗倉","province":"東京都","city":"西東京市","address":"東京都西東京市田無町二丁目12-7","lat":35.728588,"lon":139.542},{"name":"下田家文書（公用分例略記）","province":"東京都","city":"西東京市","address":"東京都西東京市田無町","lat":35.726013,"lon":139.537715},{"name":"北芝久保庚申塔","province":"東京都","city":"西東京市","address":"東京都西東京市芝久保町四丁目12-48","lat":35.73039,"lon":139.521828},{"name":"養老田碑","province":"東京都","city":"西東京市","address":"東京都西東京市田無町二丁目12","lat":35.728554,"lon":139.542004},{"name":"養老畑碑","province":"東京都","city":"西東京市","address":"東京都西東京市田無町四丁目5-21田無小学校","lat":35.728928,"lon":139.537586},{"name":"下田半兵衛富宅の木像","province":"東京都","city":"西東京市","address":"東京都西東京市田無町三丁目8-12総持寺","lat":35.729577,"lon":139.54267},{"name":"獅子頭(雄獅子・雌獅子)","province":"東京都","city":"西東京市","address":"東京都西東京市田無町三丁目7-4","lat":35.729783,"lon":139.544085},{"name":"高札(火付ケ御文言高札)","province":"東京都","city":"西東京市","address":"東京都西東京市西原町四丁目5-6西原総合教育施設2階郷土資料室","lat":35.736717,"lon":139.529074},{"name":"人馬賃銭御定メ掛札","province":"東京都","city":"西東京市","address":"東京都西東京市西原町四丁目5-6西原総合教育施設2階郷土資料室","lat":35.736717,"lon":139.529074},{"name":"韮山笠","province":"東京都","city":"西東京市","address":"東京都西東京市西原町四丁目5-6西原総合教育施設2階郷土資料室","lat":35.736717,"lon":139.529074},{"name":"十王堂一宇建立の碑","province":"東京都","city":"西東京市","address":"東京都西東京市向台町二丁目8向台墓地","lat":35.718767,"lon":139.54172},{"name":"玉井寛海法士の墓","province":"東京都","city":"西東京市","address":"東京都西東京市向台町二丁目8向台墓地","lat":35.718767,"lon":139.54172},{"name":"撃剣家並木先生の墓","province":"東京都","city":"西東京市","address":"東京都西東京市芝久保町二丁目11芝久保墓地","lat":35.728078,"lon":139.528081},{"name":"南芝久保庚申塔","province":"東京都","city":"西東京市","address":"東京都西東京市田無町六丁目1-12","lat":35.727094,"lon":139.53278},{"name":"地租改正絵図","province":"東京都","city":"西東京市","address":"東京都西東京市南町五丁目6-11中央図書館","lat":35.726013,"lon":139.537715},{"name":"文化九年 検地図","province":"東京都","city":"西東京市","address":"東京都西東京市田無町","lat":35.728854,"lon":139.541659},{"name":"文字庚申塔","province":"東京都","city":"西東京市","address":"東京都西東京市新町一丁目2","lat":35.7163,"lon":139.548101},{"name":"招魂塔","province":"東京都","city":"西東京市","address":"東京都西東京市新町一丁目2しらし窪墓地","lat":35.7163,"lon":139.548101},{"name":"六角地蔵石幢","province":"東京都","city":"西東京市","address":"東京都西東京市保谷町四丁目7","lat":35.728494,"lon":139.549841},{"name":"青面金剛庚申像","province":"東京都","city":"西東京市","address":"東京都西東京市泉町二丁目3-2","lat":35.73723,"lon":139.551019},{"name":"又六石仏群","province":"東京都","city":"西東京市","address":"東京都西東京市住吉町三丁目18","lat":35.747822,"lon":139.549585},{"name":"田無村御検地帳","province":"東京都","city":"西東京市","address":"東京都西東京市南町五丁目6-11中央図書館","lat":35.726013,"lon":139.537715},{"name":"真誠学舎関係文書","province":"東京都","city":"西東京市","address":"東京都西東京市西原町四丁目5-6西原総合教育施設2階郷土資料室","lat":35.736717,"lon":139.529074},{"name":"尉殿大権現 神号額","province":"東京都","city":"西東京市","address":"東京都西東京市田無町三丁目8-12総持寺","lat":35.729577,"lon":139.54267},{"name":"柳沢庚申塔","province":"東京都","city":"西東京市","address":"東京都西東京市田無町二丁目22","lat":35.728495,"lon":139.547028},{"name":"旧下田名主役宅","province":"東京都","city":"西東京市","address":"東京都西東京市田無町","lat":35.728854,"lon":139.541659},{"name":"木彫彩色三十番神神像","province":"東京都","city":"西東京市","address":"東京都西東京市下保谷三丁目11-17福泉寺","lat":35.753744,"lon":139.566528},{"name":"木彫彩色倶利迦羅不動明王像","province":"東京都","city":"西東京市","address":"東京都西東京市住吉町一丁目6-5寶晃院","lat":35.740964,"lon":139.549331},{"name":"石製尾張藩鷹場標杭","province":"東京都","city":"西東京市","address":"東京都西東京市保谷町","lat":35.741248,"lon":139.549302},{"name":"總持寺のケヤキ","province":"東京都","city":"西東京市","address":"東京都西東京市田無町三丁目8-12総持寺","lat":35.729577,"lon":139.54267},{"name":"田無神社のイチョウ","province":"東京都","city":"西東京市","address":"東京都西東京市田無町三丁目7-4田無神社","lat":35.729783,"lon":139.544085},{"name":"水子地蔵菩薩立像","province":"東京都","city":"西東京市","address":"東京都西東京市住吉町一丁目6-5寶晃院","lat":35.741248,"lon":139.549302},{"name":"西浦地蔵尊","province":"東京都","city":"西東京市","address":"東京都西東京市保谷町五丁目12-24","lat":35.734234,"lon":139.548413},{"name":"六地蔵菩薩立像","province":"東京都","city":"西東京市","address":"東京都西東京市住吉町一丁目2-12東禅寺","lat":35.742981,"lon":139.549757},{"name":"榛名大権現石造物群","province":"東京都","city":"西東京市","address":"東京都西東京市東伏見二丁目6-13氷川神社","lat":35.727853,"lon":139.563433},{"name":"石燈籠一対","province":"東京都","city":"西東京市","address":"東京都西東京市住吉町一丁目21-1尉殿神社","lat":35.743815,"lon":139.550297},{"name":"奉納絵馬群","province":"東京都","city":"西東京市","address":"東京都西東京市新町二丁目7-24阿波洲神社","lat":35.71568,"lon":139.541942},{"name":"一文銭向い目絵馬","province":"東京都","city":"西東京市","address":"東京都西東京市泉町二丁目7-25寶樹院","lat":35.73927,"lon":139.550767},{"name":"菅原道真石像","province":"東京都","city":"西東京市","address":"東京都西東京市北町六丁目7-19天神社","lat":35.753952,"lon":139.561041},{"name":"観音寺の宝篋印塔","province":"東京都","city":"西東京市","address":"東京都西東京市田無町五丁目7-5観音寺","lat":35.730628,"lon":139.537765},{"name":"馬駈け市大絵馬二枚","province":"東京都","city":"西東京市","address":"東京都西東京市泉町二丁目15-7如意輪寺","lat":35.741475,"lon":139.551457},{"name":"氏子中奉納題目塔二基","province":"東京都","city":"西東京市","address":"東京都西東京市北町六丁目7-19天神社","lat":35.753952,"lon":139.561041},{"name":"保谷囃子","province":"東京都","city":"西東京市","address":"東京都西東京市不定","lat":35.725515,"lon":139.538146},{"name":"岩船地蔵尊","province":"東京都","city":"西東京市","address":"東京都西東京市保谷町六丁目4-7","lat":35.735807,"lon":139.553412},{"name":"蓮見家文書","province":"東京都","city":"西東京市","address":"東京都西東京市北町","lat":35.726013,"lon":139.537715},{"name":"幕末の様式小銃","province":"東京都","city":"西東京市","address":"東京都西東京市向台町","lat":35.722202,"lon":139.525644},{"name":"天神社 拝殿","province":"東京都","city":"西東京市","address":"東京都西東京市北町六丁目7-19天神社","lat":35.753952,"lon":139.561041},{"name":"北原児童館","province":"東京都","city":"西東京市","address":"西東京市北原町1-16-2","lat":35.733701,"lon":139.544636},{"name":"西原北児童館","province":"東京都","city":"西東京市","address":"西東京市西原町4-5-96","lat":35.736569,"lon":139.530081},{"name":"田無児童館","province":"東京都","city":"西東京市","address":"西東京市田無町4-14-2","lat":35.727776,"lon":139.535084},{"name":"田無柳沢児童センター","province":"東京都","city":"西東京市","address":"西東京市向台町1-7-25","lat":35.721147,"lon":139.546903},{"name":"芝久保児童館","province":"東京都","city":"西東京市","address":"西東京市芝久保町1-16-18","lat":35.72471,"lon":139.525652},{"name":"ひばりが丘児童センター","province":"東京都","city":"西東京市","address":"西東京市ひばりが丘3-1-25","lat":35.746185,"lon":139.537016},{"name":"ひばりが丘北児童センター","province":"東京都","city":"西東京市","address":"西東京市ひばりが丘北1-6-8","lat":35.752554,"lon":139.549699},{"name":"下保谷児童センター","province":"東京都","city":"西東京市","address":"西東京市下保谷4-3-20","lat":35.750505,"lon":139.56502},{"name":"中町児童館","province":"東京都","city":"西東京市","address":"西東京市中町4-4-1","lat":35.737681,"lon":139.564378},{"name":"保谷柳沢児童館","province":"東京都","city":"西東京市","address":"西東京市柳沢2-6-11","lat":35.723524,"lon":139.556066},{"name":"新町児童館","province":"東京都","city":"西東京市","address":"西東京市新町5-2-7","lat":35.712939,"lon":139.536376},{"name":"西東京市社会福祉協議会","province":"東京都","city":"西東京市","address":"西東京市中町1-6-8保谷東分庁舎1階","lat":35.741186,"lon":139.559904},{"name":"西東京市中央図書館","province":"東京都","city":"西東京市","address":"東京都西東京市南町5丁目6-11","lat":35.72599036,"lon":139.53779505},{"name":"西東京市保谷駅前図書館","province":"東京都","city":"西東京市","address":"東京都西東京市東町3丁目14-30","lat":35.74831068,"lon":139.56756666},{"name":"西東京市芝久保図書館","province":"東京都","city":"西東京市","address":"東京都西東京市芝久保町5丁目4-48","lat":35.73266157,"lon":139.52805941},{"name":"西東京市谷戸図書館","province":"東京都","city":"西東京市","address":"東京都西東京市谷戸町1丁目17-2","lat":35.74151367,"lon":139.54369663},{"name":"西東京市柳沢図書館","province":"東京都","city":"西東京市","address":"東京都西東京市柳沢1丁目15-1","lat":35.72833767,"lon":139.55396858},{"name":"西東京市ひばりが丘図書館","province":"東京都","city":"西東京市","address":"東京都西東京市ひばりが丘1丁目2-1","lat":35.75178747,"lon":139.54347682},{"name":"北原児童館","province":"東京都","city":"西東京市","address":"西東京市北原町1-16-2","lat":35.73367,"lon":139.54465},{"name":"西原北児童館","province":"東京都","city":"西東京市","address":"西東京市西原町4-5-96","lat":35.73684,"lon":139.52879},{"name":"田無児童館","province":"東京都","city":"西東京市","address":"西東京市田無町4-14-2","lat":35.72773,"lon":139.53513},{"name":"田無柳沢児童センター","province":"東京都","city":"西東京市","address":"西東京市向台町1-7-25","lat":35.72259,"lon":139.54546},{"name":"芝久保児童館","province":"東京都","city":"西東京市","address":"西東京市芝久保町1-16-18","lat":35.7246,"lon":139.52583},{"name":"ひばりが丘児童センター","province":"東京都","city":"西東京市","address":"西東京市ひばりが丘3-1-25","lat":35.74507,"lon":139.53682},{"name":"ひばりが丘北児童センター","province":"東京都","city":"西東京市","address":"西東京市ひばりが丘北1-6-8","lat":35.75277,"lon":139.54977},{"name":"下保谷児童センター","province":"東京都","city":"西東京市","address":"西東京市下保谷4-3-20","lat":35.75048,"lon":139.56511},{"name":"中町児童館","province":"東京都","city":"西東京市","address":"西東京市中町4-4-1","lat":35.73714,"lon":139.56441},{"name":"保谷柳沢児童館","province":"東京都","city":"西東京市","address":"西東京市柳沢2-6-11","lat":35.72342,"lon":139.55627},{"name":"新町児童館","province":"東京都","city":"西東京市","address":"西東京市新町5-2-7","lat":35.71376,"lon":139.53653},{"name":"西東京市社会福祉協議会","province":"東京都","city":"西東京市","address":"西東京市田無町5-5-12田無総合福祉センター","lat":35.73098,"lon":139.53619},{"name":"ひばりが丘児童センター","province":"東京都","city":"西東京市","address":"西東京市ひばりが丘3-1-25","lat":35.746422,"lon":139.53688},{"name":"西東京市社会福祉協議会","province":"東京都","city":"西東京市","address":"西東京市田無町5-5-12田無総合福祉センター1階","lat":35.731819,"lon":139.535995},{"name":"西原北児童館","province":"東京都","city":"西東京市","address":"西東京市西原町4-5-96","lat":35.73921,"lon":139.53331},{"name":"芝久保浄水所","province":"東京都","city":"西東京市","address":"東京都西東京市芝久保町5丁目9-1","lat":35.7337808,"lon":139.52453742},{"name":"保谷町浄水所","province":"東京都","city":"西東京市","address":"東京都西東京市保谷町1丁目5-24","lat":35.73545076,"lon":139.55478209},{"name":"西東京栄町浄水所","province":"東京都","city":"西東京市","address":"東京都西東京市栄町2丁目7-6","lat":35.75167656,"lon":139.55222337},{"name":"＊?西東京市芝久保公民館","province":"東京都","city":"西東京市","address":"西東京市芝久保町5-4-48","lat":35.73269,"lon":139.528134},{"name":"＊?西東京市ひばりが丘公民館","province":"東京都","city":"西東京市","address":"西東京市ひばりが丘2-3-4","lat":35.747361,"lon":139.540589},{"name":"＊?西東京市保谷駅前公民館","province":"東京都","city":"西東京市","address":"西東京市東町3-14-30ステア5階","lat":35.748152,"lon":139.567268},{"name":"＊?西東京市谷戸公民館","province":"東京都","city":"西東京市","address":"西東京市谷戸町1-17-2","lat":35.741248,"lon":139.54395},{"name":"＊?西東京市田無公民館","province":"東京都","city":"西東京市","address":"西東京市南町5-6-11","lat":35.726018,"lon":139.537789},{"name":"＊?西東京市柳沢公民館","province":"東京都","city":"西東京市","address":"西東京市柳沢1-15-1","lat":35.728384,"lon":139.553957},{"name":"＊?西東京市中央図書館","province":"東京都","city":"西東京市","address":"西東京市南町5-6-11","lat":35.726018,"lon":139.537789},{"name":"＊?西東京市保谷駅前図書館","province":"東京都","city":"西東京市","address":"西東京市東町3-14-30ステア4階","lat":35.748151,"lon":139.567256},{"name":"＊?西東京市芝久保図書館","province":"東京都","city":"西東京市","address":"西東京市芝久保町5-4-48","lat":35.73269,"lon":139.528134},{"name":"＊?西東京市谷戸図書館","province":"東京都","city":"西東京市","address":"西東京市谷戸町1-17-2","lat":35.741248,"lon":139.54395},{"name":"＊?西東京市柳沢図書館","province":"東京都","city":"西東京市","address":"西東京市柳沢1-15-1","lat":35.728384,"lon":139.553957},{"name":"＊?西東京市ひばりが丘図書館","province":"東京都","city":"西東京市","address":"西東京市ひばりが丘1-2-1","lat":35.751801,"lon":139.54356},{"name":"＊?新町福祉会館図書サービス","province":"東京都","city":"西東京市","address":"西東京市新町5-2-7","lat":35.71296,"lon":139.536402},{"name":"西東京市役所保谷庁舎","province":"東京都","city":"西東京市","address":"西東京市中町1-5-1","lat":35.741595,"lon":139.558951},{"name":"田無警察署","province":"東京都","city":"西東京市","address":"西東京市田無町5-2-5","lat":35.72999,"lon":139.5386},{"name":"西東京消防署","province":"東京都","city":"西東京市","address":"西東京市中町1-1-6","lat":35.73898,"lon":139.5553},{"name":"市民向台運動場","province":"東京都","city":"西東京市","address":"西東京市向台町5-4","lat":35.72121,"lon":139.53},{"name":"東京ガス（株）保谷ビル","province":"東京都","city":"西東京市","address":"西東京市柳沢2-18-46","lat":35.72477,"lon":139.5523},{"name":"下野谷遺跡","province":"東京都","city":"西東京市","address":"東京都西東京市東伏見六丁目","lat":35.725451,"lon":139.562007},{"name":"玉川上水・小金井サクラ","province":"東京都","city":"西東京市","address":"東京都西東京市新町五丁目・六丁目","lat":35.711125,"lon":139.53627},{"name":"田無神社本殿・拝殿","province":"東京都","city":"西東京市","address":"東京都西東京市田無町三丁目7-4","lat":35.729783,"lon":139.544085},{"name":"石幢六角地蔵尊","province":"東京都","city":"西東京市","address":"東京都西東京市西原町二丁目5-43","lat":35.736442,"lon":139.536345},{"name":"田無ばやし","province":"東京都","city":"西東京市","address":"東京都西東京市田無町三丁目7-4田無神社・伝承地","lat":35.729783,"lon":139.544085},{"name":"延慶の板碑","province":"東京都","city":"西東京市","address":"東京都西東京市西原町四丁目5-6西原総合教育施設2階郷土資料室","lat":35.736717,"lon":139.529074},{"name":"稗倉","province":"東京都","city":"西東京市","address":"東京都西東京市田無町二丁目12-7","lat":35.728588,"lon":139.542},{"name":"下田家文書（公用分例略記）","province":"東京都","city":"西東京市","address":"東京都西東京市田無町","lat":35.726013,"lon":139.537715},{"name":"北芝久保庚申塔","province":"東京都","city":"西東京市","address":"東京都西東京市芝久保町四丁目12-48","lat":35.73039,"lon":139.521828},{"name":"養老田碑","province":"東京都","city":"西東京市","address":"東京都西東京市田無町二丁目12","lat":35.728554,"lon":139.542004},{"name":"養老畑碑","province":"東京都","city":"西東京市","address":"東京都西東京市田無町四丁目5-21田無小学校","lat":35.728928,"lon":139.537586},{"name":"下田半兵衛富宅の木像","province":"東京都","city":"西東京市","address":"東京都西東京市田無町三丁目8-12総持寺","lat":35.729577,"lon":139.54267},{"name":"獅子頭(雄獅子・雌獅子)","province":"東京都","city":"西東京市","address":"東京都西東京市田無町三丁目7-4","lat":35.729783,"lon":139.544085},{"name":"高札(火付ケ御文言高札)","province":"東京都","city":"西東京市","address":"東京都西東京市西原町四丁目5-6西原総合教育施設2階郷土資料室","lat":35.736717,"lon":139.529074},{"name":"人馬賃銭御定メ掛札","province":"東京都","city":"西東京市","address":"東京都西東京市西原町四丁目5-6西原総合教育施設2階郷土資料室","lat":35.736717,"lon":139.529074},{"name":"韮山笠","province":"東京都","city":"西東京市","address":"東京都西東京市西原町四丁目5-6西原総合教育施設2階郷土資料室","lat":35.736717,"lon":139.529074},{"name":"十王堂一宇建立の碑","province":"東京都","city":"西東京市","address":"東京都西東京市向台町二丁目8向台墓地","lat":35.718767,"lon":139.54172},{"name":"玉井寛海法士の墓","province":"東京都","city":"西東京市","address":"東京都西東京市向台町二丁目8向台墓地","lat":35.718767,"lon":139.54172},{"name":"撃剣家並木先生の墓","province":"東京都","city":"西東京市","address":"東京都西東京市芝久保町二丁目11芝久保墓地","lat":35.728078,"lon":139.528081},{"name":"南芝久保庚申塔","province":"東京都","city":"西東京市","address":"東京都西東京市田無町六丁目1-12","lat":35.727094,"lon":139.53278},{"name":"地租改正絵図","province":"東京都","city":"西東京市","address":"東京都西東京市南町五丁目6-11中央図書館","lat":35.726013,"lon":139.537715},{"name":"文化九年 検地図","province":"東京都","city":"西東京市","address":"東京都西東京市田無町","lat":35.728854,"lon":139.541659},{"name":"文字庚申塔","province":"東京都","city":"西東京市","address":"東京都西東京市新町一丁目2","lat":35.7163,"lon":139.548101},{"name":"招魂塔","province":"東京都","city":"西東京市","address":"東京都西東京市新町一丁目2しらし窪墓地","lat":35.7163,"lon":139.548101},{"name":"六角地蔵石幢","province":"東京都","city":"西東京市","address":"東京都西東京市保谷町四丁目7","lat":35.728494,"lon":139.549841},{"name":"青面金剛庚申像","province":"東京都","city":"西東京市","address":"東京都西東京市泉町二丁目3-2","lat":35.73723,"lon":139.551019},{"name":"又六石仏群","province":"東京都","city":"西東京市","address":"東京都西東京市住吉町三丁目18","lat":35.747822,"lon":139.549585},{"name":"田無村御検地帳","province":"東京都","city":"西東京市","address":"東京都西東京市南町五丁目6-11中央図書館","lat":35.726013,"lon":139.537715},{"name":"真誠学舎関係文書","province":"東京都","city":"西東京市","address":"東京都西東京市西原町四丁目5-6西原総合教育施設2階郷土資料室","lat":35.736717,"lon":139.529074},{"name":"尉殿大権現 神号額","province":"東京都","city":"西東京市","address":"東京都西東京市田無町三丁目8-12総持寺","lat":35.729577,"lon":139.54267},{"name":"柳沢庚申塔","province":"東京都","city":"西東京市","address":"東京都西東京市田無町二丁目22","lat":35.728495,"lon":139.547028},{"name":"旧下田名主役宅","province":"東京都","city":"西東京市","address":"東京都西東京市田無町","lat":35.728854,"lon":139.541659},{"name":"木彫彩色三十番神神像","province":"東京都","city":"西東京市","address":"東京都西東京市下保谷三丁目11-17福泉寺","lat":35.753744,"lon":139.566528},{"name":"木彫彩色倶利迦羅不動明王像","province":"東京都","city":"西東京市","address":"東京都西東京市住吉町一丁目6-5寶晃院","lat":35.740964,"lon":139.549331},{"name":"石製尾張藩鷹場標杭","province":"東京都","city":"西東京市","address":"東京都西東京市保谷町","lat":35.741248,"lon":139.549302},{"name":"總持寺のケヤキ","province":"東京都","city":"西東京市","address":"東京都西東京市田無町三丁目8-12総持寺","lat":35.729577,"lon":139.54267},{"name":"田無神社のイチョウ","province":"東京都","city":"西東京市","address":"東京都西東京市田無町三丁目7-4田無神社","lat":35.729783,"lon":139.544085},{"name":"水子地蔵菩薩立像","province":"東京都","city":"西東京市","address":"東京都西東京市住吉町一丁目6-5寶晃院","lat":35.741248,"lon":139.549302},{"name":"西浦地蔵尊","province":"東京都","city":"西東京市","address":"東京都西東京市保谷町五丁目12-24","lat":35.734234,"lon":139.548413},{"name":"六地蔵菩薩立像","province":"東京都","city":"西東京市","address":"東京都西東京市住吉町一丁目2-12東禅寺","lat":35.742981,"lon":139.549757},{"name":"榛名大権現石造物群","province":"東京都","city":"西東京市","address":"東京都西東京市東伏見二丁目6-13氷川神社","lat":35.727853,"lon":139.563433},{"name":"石燈籠一対","province":"東京都","city":"西東京市","address":"東京都西東京市住吉町一丁目21-1尉殿神社","lat":35.743815,"lon":139.550297},{"name":"奉納絵馬群","province":"東京都","city":"西東京市","address":"東京都西東京市新町二丁目7-24阿波洲神社","lat":35.71568,"lon":139.541942},{"name":"一文銭向い目絵馬","province":"東京都","city":"西東京市","address":"東京都西東京市泉町二丁目7-25寶樹院","lat":35.73927,"lon":139.550767},{"name":"菅原道真石像","province":"東京都","city":"西東京市","address":"東京都西東京市北町六丁目7-19天神社","lat":35.753952,"lon":139.561041},{"name":"観音寺の宝篋印塔","province":"東京都","city":"西東京市","address":"東京都西東京市田無町五丁目7-5観音寺","lat":35.730628,"lon":139.537765},{"name":"馬駈け市大絵馬二枚","province":"東京都","city":"西東京市","address":"東京都西東京市泉町二丁目15-7如意輪寺","lat":35.741475,"lon":139.551457},{"name":"氏子中奉納題目塔二基","province":"東京都","city":"西東京市","address":"東京都西東京市北町六丁目7-19天神社","lat":35.753952,"lon":139.561041},{"name":"保谷囃子","province":"東京都","city":"西東京市","address":"東京都西東京市不定","lat":35.725515,"lon":139.538146},{"name":"岩船地蔵尊","province":"東京都","city":"西東京市","address":"東京都西東京市保谷町六丁目4-7","lat":35.735807,"lon":139.553412},{"name":"蓮見家文書","province":"東京都","city":"西東京市","address":"東京都西東京市北町","lat":35.726013,"lon":139.537715},{"name":"幕末の様式小銃","province":"東京都","city":"西東京市","address":"東京都西東京市向台町","lat":35.722202,"lon":139.525644},{"name":"天神社 拝殿","province":"東京都","city":"西東京市","address":"東京都西東京市北町六丁目7-19天神社","lat":35.753952,"lon":139.561041},{"name":"北原児童館","province":"東京都","city":"西東京市","address":"西東京市北原町1-16-2","lat":35.733701,"lon":139.544636},{"name":"西原北児童館","province":"東京都","city":"西東京市","address":"西東京市西原町4-5-96","lat":35.736569,"lon":139.530081},{"name":"田無児童館","province":"東京都","city":"西東京市","address":"西東京市田無町4-14-2","lat":35.727776,"lon":139.535084},{"name":"田無柳沢児童センター","province":"東京都","city":"西東京市","address":"西東京市向台町1-7-25","lat":35.721147,"lon":139.546903},{"name":"芝久保児童館","province":"東京都","city":"西東京市","address":"西東京市芝久保町1-16-18","lat":35.72471,"lon":139.525652},{"name":"ひばりが丘児童センター","province":"東京都","city":"西東京市","address":"西東京市ひばりが丘3-1-25","lat":35.746185,"lon":139.537016},{"name":"ひばりが丘北児童センター","province":"東京都","city":"西東京市","address":"西東京市ひばりが丘北1-6-8","lat":35.752554,"lon":139.549699},{"name":"下保谷児童センター","province":"東京都","city":"西東京市","address":"西東京市下保谷4-3-20","lat":35.750505,"lon":139.56502},{"name":"中町児童館","province":"東京都","city":"西東京市","address":"西東京市中町4-4-1","lat":35.737681,"lon":139.564378},{"name":"保谷柳沢児童館","province":"東京都","city":"西東京市","address":"西東京市柳沢2-6-11","lat":35.723524,"lon":139.556066},{"name":"新町児童館","province":"東京都","city":"西東京市","address":"西東京市新町5-2-7","lat":35.712939,"lon":139.536376},{"name":"西東京市社会福祉協議会","province":"東京都","city":"西東京市","address":"西東京市中町1-6-8保谷東分庁舎1階","lat":35.741186,"lon":139.559904},{"name":"西東京市中央図書館","province":"東京都","city":"西東京市","address":"東京都西東京市南町5丁目6-11","lat":35.72599036,"lon":139.53779505},{"name":"西東京市保谷駅前図書館","province":"東京都","city":"西東京市","address":"東京都西東京市東町3丁目14-30","lat":35.74831068,"lon":139.56756666},{"name":"西東京市芝久保図書館","province":"東京都","city":"西東京市","address":"東京都西東京市芝久保町5丁目4-48","lat":35.73266157,"lon":139.52805941},{"name":"西東京市谷戸図書館","province":"東京都","city":"西東京市","address":"東京都西東京市谷戸町1丁目17-2","lat":35.74151367,"lon":139.54369663},{"name":"西東京市柳沢図書館","province":"東京都","city":"西東京市","address":"東京都西東京市柳沢1丁目15-1","lat":35.72833767,"lon":139.55396858},{"name":"西東京市ひばりが丘図書館","province":"東京都","city":"西東京市","address":"東京都西東京市ひばりが丘1丁目2-1","lat":35.75178747,"lon":139.54347682},{"name":"北原児童館","province":"東京都","city":"西東京市","address":"西東京市北原町1-16-2","lat":35.73367,"lon":139.54465},{"name":"西原北児童館","province":"東京都","city":"西東京市","address":"西東京市西原町4-5-96","lat":35.73684,"lon":139.52879},{"name":"田無児童館","province":"東京都","city":"西東京市","address":"西東京市田無町4-14-2","lat":35.72773,"lon":139.53513},{"name":"田無柳沢児童センター","province":"東京都","city":"西東京市","address":"西東京市向台町1-7-25","lat":35.72259,"lon":139.54546},{"name":"芝久保児童館","province":"東京都","city":"西東京市","address":"西東京市芝久保町1-16-18","lat":35.7246,"lon":139.52583},{"name":"ひばりが丘児童センター","province":"東京都","city":"西東京市","address":"西東京市ひばりが丘3-1-25","lat":35.74507,"lon":139.53682},{"name":"ひばりが丘北児童センター","province":"東京都","city":"西東京市","address":"西東京市ひばりが丘北1-6-8","lat":35.75277,"lon":139.54977},{"name":"下保谷児童センター","province":"東京都","city":"西東京市","address":"西東京市下保谷4-3-20","lat":35.75048,"lon":139.56511},{"name":"中町児童館","province":"東京都","city":"西東京市","address":"西東京市中町4-4-1","lat":35.73714,"lon":139.56441},{"name":"保谷柳沢児童館","province":"東京都","city":"西東京市","address":"西東京市柳沢2-6-11","lat":35.72342,"lon":139.55627},{"name":"新町児童館","province":"東京都","city":"西東京市","address":"西東京市新町5-2-7","lat":35.71376,"lon":139.53653},{"name":"西東京市社会福祉協議会","province":"東京都","city":"西東京市","address":"西東京市田無町5-5-12田無総合福祉センター","lat":35.73098,"lon":139.53619},{"name":"ひばりが丘児童センター","province":"東京都","city":"西東京市","address":"西東京市ひばりが丘3-1-25","lat":35.746422,"lon":139.53688},{"name":"西東京市社会福祉協議会","province":"東京都","city":"西東京市","address":"西東京市田無町5-5-12田無総合福祉センター1階","lat":35.731819,"lon":139.535995},{"name":"西原北児童館","province":"東京都","city":"西東京市","address":"西東京市西原町4-5-96","lat":35.73921,"lon":139.53331},{"name":"＊?西東京市芝久保公民館","province":"東京都","city":"西東京市","address":"西東京市芝久保町5-4-48","lat":35.73269,"lon":139.528134},{"name":"＊?西東京市ひばりが丘公民館","province":"東京都","city":"西東京市","address":"西東京市ひばりが丘2-3-4","lat":35.747361,"lon":139.540589},{"name":"＊?西東京市保谷駅前公民館","province":"東京都","city":"西東京市","address":"西東京市東町3-14-30ステア5階","lat":35.748152,"lon":139.567268},{"name":"＊?西東京市谷戸公民館","province":"東京都","city":"西東京市","address":"西東京市谷戸町1-17-2","lat":35.741248,"lon":139.54395},{"name":"＊?西東京市田無公民館","province":"東京都","city":"西東京市","address":"西東京市南町5-6-11","lat":35.726018,"lon":139.537789},{"name":"＊?西東京市柳沢公民館","province":"東京都","city":"西東京市","address":"西東京市柳沢1-15-1","lat":35.728384,"lon":139.553957},{"name":"＊?西東京市中央図書館","province":"東京都","city":"西東京市","address":"西東京市南町5-6-11","lat":35.726018,"lon":139.537789},{"name":"＊?西東京市保谷駅前図書館","province":"東京都","city":"西東京市","address":"西東京市東町3-14-30ステア4階","lat":35.748151,"lon":139.567256},{"name":"＊?西東京市芝久保図書館","province":"東京都","city":"西東京市","address":"西東京市芝久保町5-4-48","lat":35.73269,"lon":139.528134},{"name":"＊?西東京市谷戸図書館","province":"東京都","city":"西東京市","address":"西東京市谷戸町1-17-2","lat":35.741248,"lon":139.54395},{"name":"＊?西東京市柳沢図書館","province":"東京都","city":"西東京市","address":"西東京市柳沢1-15-1","lat":35.728384,"lon":139.553957},{"name":"＊?西東京市ひばりが丘図書館","province":"東京都","city":"西東京市","address":"西東京市ひばりが丘1-2-1","lat":35.751801,"lon":139.54356},{"name":"＊?新町福祉会館図書サービス","province":"東京都","city":"西東京市","address":"西東京市新町5-2-7","lat":35.71296,"lon":139.536402},{"name":"下野谷遺跡","province":"東京都","city":"西東京市","address":"東京都西東京市東伏見六丁目","lat":35.725451,"lon":139.562007},{"name":"玉川上水・小金井サクラ","province":"東京都","city":"西東京市","address":"東京都西東京市新町五丁目・六丁目","lat":35.711125,"lon":139.53627},{"name":"田無神社本殿・拝殿","province":"東京都","city":"西東京市","address":"東京都西東京市田無町三丁目7-4","lat":35.729783,"lon":139.544085},{"name":"石幢六角地蔵尊","province":"東京都","city":"西東京市","address":"東京都西東京市西原町二丁目5-43","lat":35.736442,"lon":139.536345},{"name":"田無ばやし","province":"東京都","city":"西東京市","address":"東京都西東京市田無町三丁目7-4田無神社・伝承地","lat":35.729783,"lon":139.544085},{"name":"延慶の板碑","province":"東京都","city":"西東京市","address":"東京都西東京市西原町四丁目5-6西原総合教育施設2階郷土資料室","lat":35.736717,"lon":139.529074},{"name":"稗倉","province":"東京都","city":"西東京市","address":"東京都西東京市田無町二丁目12-7","lat":35.728588,"lon":139.542},{"name":"下田家文書（公用分例略記）","province":"東京都","city":"西東京市","address":"東京都西東京市田無町","lat":35.726013,"lon":139.537715},{"name":"北芝久保庚申塔","province":"東京都","city":"西東京市","address":"東京都西東京市芝久保町四丁目12-48","lat":35.73039,"lon":139.521828},{"name":"養老田碑","province":"東京都","city":"西東京市","address":"東京都西東京市田無町二丁目12","lat":35.728554,"lon":139.542004},{"name":"養老畑碑","province":"東京都","city":"西東京市","address":"東京都西東京市田無町四丁目5-21田無小学校","lat":35.728928,"lon":139.537586},{"name":"下田半兵衛富宅の木像","province":"東京都","city":"西東京市","address":"東京都西東京市田無町三丁目8-12総持寺","lat":35.729577,"lon":139.54267},{"name":"獅子頭(雄獅子・雌獅子)","province":"東京都","city":"西東京市","address":"東京都西東京市田無町三丁目7-4","lat":35.729783,"lon":139.544085},{"name":"高札(火付ケ御文言高札)","province":"東京都","city":"西東京市","address":"東京都西東京市西原町四丁目5-6西原総合教育施設2階郷土資料室","lat":35.736717,"lon":139.529074},{"name":"人馬賃銭御定メ掛札","province":"東京都","city":"西東京市","address":"東京都西東京市西原町四丁目5-6西原総合教育施設2階郷土資料室","lat":35.736717,"lon":139.529074},{"name":"韮山笠","province":"東京都","city":"西東京市","address":"東京都西東京市西原町四丁目5-6西原総合教育施設2階郷土資料室","lat":35.736717,"lon":139.529074},{"name":"十王堂一宇建立の碑","province":"東京都","city":"西東京市","address":"東京都西東京市向台町二丁目8向台墓地","lat":35.718767,"lon":139.54172},{"name":"玉井寛海法士の墓","province":"東京都","city":"西東京市","address":"東京都西東京市向台町二丁目8向台墓地","lat":35.718767,"lon":139.54172},{"name":"撃剣家並木先生の墓","province":"東京都","city":"西東京市","address":"東京都西東京市芝久保町二丁目11芝久保墓地","lat":35.728078,"lon":139.528081},{"name":"南芝久保庚申塔","province":"東京都","city":"西東京市","address":"東京都西東京市田無町六丁目1-12","lat":35.727094,"lon":139.53278},{"name":"地租改正絵図","province":"東京都","city":"西東京市","address":"東京都西東京市南町五丁目6-11中央図書館","lat":35.726013,"lon":139.537715},{"name":"文化九年 検地図","province":"東京都","city":"西東京市","address":"東京都西東京市田無町","lat":35.728854,"lon":139.541659},{"name":"文字庚申塔","province":"東京都","city":"西東京市","address":"東京都西東京市新町一丁目2","lat":35.7163,"lon":139.548101},{"name":"招魂塔","province":"東京都","city":"西東京市","address":"東京都西東京市新町一丁目2しらし窪墓地","lat":35.7163,"lon":139.548101},{"name":"六角地蔵石幢","province":"東京都","city":"西東京市","address":"東京都西東京市保谷町四丁目7","lat":35.728494,"lon":139.549841},{"name":"青面金剛庚申像","province":"東京都","city":"西東京市","address":"東京都西東京市泉町二丁目3-2","lat":35.73723,"lon":139.551019},{"name":"又六石仏群","province":"東京都","city":"西東京市","address":"東京都西東京市住吉町三丁目18","lat":35.747822,"lon":139.549585},{"name":"田無村御検地帳","province":"東京都","city":"西東京市","address":"東京都西東京市南町五丁目6-11中央図書館","lat":35.726013,"lon":139.537715},{"name":"真誠学舎関係文書","province":"東京都","city":"西東京市","address":"東京都西東京市西原町四丁目5-6西原総合教育施設2階郷土資料室","lat":35.736717,"lon":139.529074},{"name":"尉殿大権現 神号額","province":"東京都","city":"西東京市","address":"東京都西東京市田無町三丁目8-12総持寺","lat":35.729577,"lon":139.54267},{"name":"柳沢庚申塔","province":"東京都","city":"西東京市","address":"東京都西東京市田無町二丁目22","lat":35.728495,"lon":139.547028},{"name":"旧下田名主役宅","province":"東京都","city":"西東京市","address":"東京都西東京市田無町","lat":35.728854,"lon":139.541659},{"name":"木彫彩色三十番神神像","province":"東京都","city":"西東京市","address":"東京都西東京市下保谷三丁目11-17福泉寺","lat":35.753744,"lon":139.566528},{"name":"木彫彩色倶利迦羅不動明王像","province":"東京都","city":"西東京市","address":"東京都西東京市住吉町一丁目6-5寶晃院","lat":35.740964,"lon":139.549331},{"name":"石製尾張藩鷹場標杭","province":"東京都","city":"西東京市","address":"東京都西東京市保谷町","lat":35.741248,"lon":139.549302},{"name":"總持寺のケヤキ","province":"東京都","city":"西東京市","address":"東京都西東京市田無町三丁目8-12総持寺","lat":35.729577,"lon":139.54267},{"name":"田無神社のイチョウ","province":"東京都","city":"西東京市","address":"東京都西東京市田無町三丁目7-4田無神社","lat":35.729783,"lon":139.544085},{"name":"水子地蔵菩薩立像","province":"東京都","city":"西東京市","address":"東京都西東京市住吉町一丁目6-5寶晃院","lat":35.741248,"lon":139.549302},{"name":"西浦地蔵尊","province":"東京都","city":"西東京市","address":"東京都西東京市保谷町五丁目12-24","lat":35.734234,"lon":139.548413},{"name":"六地蔵菩薩立像","province":"東京都","city":"西東京市","address":"東京都西東京市住吉町一丁目2-12東禅寺","lat":35.742981,"lon":139.549757},{"name":"榛名大権現石造物群","province":"東京都","city":"西東京市","address":"東京都西東京市東伏見二丁目6-13氷川神社","lat":35.727853,"lon":139.563433},{"name":"石燈籠一対","province":"東京都","city":"西東京市","address":"東京都西東京市住吉町一丁目21-1尉殿神社","lat":35.743815,"lon":139.550297},{"name":"奉納絵馬群","province":"東京都","city":"西東京市","address":"東京都西東京市新町二丁目7-24阿波洲神社","lat":35.71568,"lon":139.541942},{"name":"一文銭向い目絵馬","province":"東京都","city":"西東京市","address":"東京都西東京市泉町二丁目7-25寶樹院","lat":35.73927,"lon":139.550767},{"name":"菅原道真石像","province":"東京都","city":"西東京市","address":"東京都西東京市北町六丁目7-19天神社","lat":35.753952,"lon":139.561041},{"name":"観音寺の宝篋印塔","province":"東京都","city":"西東京市","address":"東京都西東京市田無町五丁目7-5観音寺","lat":35.730628,"lon":139.537765},{"name":"馬駈け市大絵馬二枚","province":"東京都","city":"西東京市","address":"東京都西東京市泉町二丁目15-7如意輪寺","lat":35.741475,"lon":139.551457},{"name":"氏子中奉納題目塔二基","province":"東京都","city":"西東京市","address":"東京都西東京市北町六丁目7-19天神社","lat":35.753952,"lon":139.561041},{"name":"保谷囃子","province":"東京都","city":"西東京市","address":"東京都西東京市不定","lat":35.725515,"lon":139.538146},{"name":"岩船地蔵尊","province":"東京都","city":"西東京市","address":"東京都西東京市保谷町六丁目4-7","lat":35.735807,"lon":139.553412},{"name":"蓮見家文書","province":"東京都","city":"西東京市","address":"東京都西東京市北町","lat":35.726013,"lon":139.537715},{"name":"幕末の様式小銃","province":"東京都","city":"西東京市","address":"東京都西東京市向台町","lat":35.722202,"lon":139.525644},{"name":"天神社 拝殿","province":"東京都","city":"西東京市","address":"東京都西東京市北町六丁目7-19天神社","lat":35.753952,"lon":139.561041},{"name":"北原児童館","province":"東京都","city":"西東京市","address":"西東京市北原町1-16-2","lat":35.733701,"lon":139.544636},{"name":"西原北児童館","province":"東京都","city":"西東京市","address":"西東京市西原町4-5-96","lat":35.736569,"lon":139.530081},{"name":"田無児童館","province":"東京都","city":"西東京市","address":"西東京市田無町4-14-2","lat":35.727776,"lon":139.535084},{"name":"田無柳沢児童センター","province":"東京都","city":"西東京市","address":"西東京市向台町1-7-25","lat":35.721147,"lon":139.546903},{"name":"芝久保児童館","province":"東京都","city":"西東京市","address":"西東京市芝久保町1-16-18","lat":35.72471,"lon":139.525652},{"name":"ひばりが丘児童センター","province":"東京都","city":"西東京市","address":"西東京市ひばりが丘3-1-25","lat":35.746185,"lon":139.537016},{"name":"ひばりが丘北児童センター","province":"東京都","city":"西東京市","address":"西東京市ひばりが丘北1-6-8","lat":35.752554,"lon":139.549699},{"name":"下保谷児童センター","province":"東京都","city":"西東京市","address":"西東京市下保谷4-3-20","lat":35.750505,"lon":139.56502},{"name":"中町児童館","province":"東京都","city":"西東京市","address":"西東京市中町4-4-1","lat":35.737681,"lon":139.564378},{"name":"保谷柳沢児童館","province":"東京都","city":"西東京市","address":"西東京市柳沢2-6-11","lat":35.723524,"lon":139.556066},{"name":"新町児童館","province":"東京都","city":"西東京市","address":"西東京市新町5-2-7","lat":35.712939,"lon":139.536376},{"name":"西東京市社会福祉協議会","province":"東京都","city":"西東京市","address":"西東京市中町1-6-8保谷東分庁舎1階","lat":35.741186,"lon":139.559904},{"name":"西東京市中央図書館","province":"東京都","city":"西東京市","address":"東京都西東京市南町5丁目6-11","lat":35.72599036,"lon":139.53779505},{"name":"西東京市保谷駅前図書館","province":"東京都","city":"西東京市","address":"東京都西東京市東町3丁目14-30","lat":35.74831068,"lon":139.56756666},{"name":"西東京市芝久保図書館","province":"東京都","city":"西東京市","address":"東京都西東京市芝久保町5丁目4-48","lat":35.73266157,"lon":139.52805941},{"name":"西東京市谷戸図書館","province":"東京都","city":"西東京市","address":"東京都西東京市谷戸町1丁目17-2","lat":35.74151367,"lon":139.54369663},{"name":"西東京市柳沢図書館","province":"東京都","city":"西東京市","address":"東京都西東京市柳沢1丁目15-1","lat":35.72833767,"lon":139.55396858},{"name":"西東京市ひばりが丘図書館","province":"東京都","city":"西東京市","address":"東京都西東京市ひばりが丘1丁目2-1","lat":35.75178747,"lon":139.54347682},{"name":"北原児童館","province":"東京都","city":"西東京市","address":"西東京市北原町1-16-2","lat":35.73367,"lon":139.54465},{"name":"西原北児童館","province":"東京都","city":"西東京市","address":"西東京市西原町4-5-96","lat":35.73684,"lon":139.52879},{"name":"田無児童館","province":"東京都","city":"西東京市","address":"西東京市田無町4-14-2","lat":35.72773,"lon":139.53513},{"name":"田無柳沢児童センター","province":"東京都","city":"西東京市","address":"西東京市向台町1-7-25","lat":35.72259,"lon":139.54546},{"name":"芝久保児童館","province":"東京都","city":"西東京市","address":"西東京市芝久保町1-16-18","lat":35.7246,"lon":139.52583},{"name":"ひばりが丘児童センター","province":"東京都","city":"西東京市","address":"西東京市ひばりが丘3-1-25","lat":35.74507,"lon":139.53682},{"name":"ひばりが丘北児童センター","province":"東京都","city":"西東京市","address":"西東京市ひばりが丘北1-6-8","lat":35.75277,"lon":139.54977},{"name":"下保谷児童センター","province":"東京都","city":"西東京市","address":"西東京市下保谷4-3-20","lat":35.75048,"lon":139.56511},{"name":"中町児童館","province":"東京都","city":"西東京市","address":"西東京市中町4-4-1","lat":35.73714,"lon":139.56441},{"name":"保谷柳沢児童館","province":"東京都","city":"西東京市","address":"西東京市柳沢2-6-11","lat":35.72342,"lon":139.55627},{"name":"新町児童館","province":"東京都","city":"西東京市","address":"西東京市新町5-2-7","lat":35.71376,"lon":139.53653},{"name":"西東京市社会福祉協議会","province":"東京都","city":"西東京市","address":"西東京市田無町5-5-12田無総合福祉センター","lat":35.73098,"lon":139.53619},{"name":"ひばりが丘児童センター","province":"東京都","city":"西東京市","address":"西東京市ひばりが丘3-1-25","lat":35.746422,"lon":139.53688},{"name":"西東京市社会福祉協議会","province":"東京都","city":"西東京市","address":"西東京市田無町5-5-12田無総合福祉センター1階","lat":35.731819,"lon":139.535995},{"name":"西原北児童館","province":"東京都","city":"西東京市","address":"西東京市西原町4-5-96","lat":35.73921,"lon":139.53331},{"name":"＊?西東京市芝久保公民館","province":"東京都","city":"西東京市","address":"西東京市芝久保町5-4-48","lat":35.73269,"lon":139.528134},{"name":"＊?西東京市ひばりが丘公民館","province":"東京都","city":"西東京市","address":"西東京市ひばりが丘2-3-4","lat":35.747361,"lon":139.540589},{"name":"＊?西東京市保谷駅前公民館","province":"東京都","city":"西東京市","address":"西東京市東町3-14-30ステア5階","lat":35.748152,"lon":139.567268},{"name":"＊?西東京市谷戸公民館","province":"東京都","city":"西東京市","address":"西東京市谷戸町1-17-2","lat":35.741248,"lon":139.54395},{"name":"＊?西東京市田無公民館","province":"東京都","city":"西東京市","address":"西東京市南町5-6-11","lat":35.726018,"lon":139.537789},{"name":"＊?西東京市柳沢公民館","province":"東京都","city":"西東京市","address":"西東京市柳沢1-15-1","lat":35.728384,"lon":139.553957},{"name":"＊?西東京市中央図書館","province":"東京都","city":"西東京市","address":"西東京市南町5-6-11","lat":35.726018,"lon":139.537789},{"name":"＊?西東京市保谷駅前図書館","province":"東京都","city":"西東京市","address":"西東京市東町3-14-30ステア4階","lat":35.748151,"lon":139.567256},{"name":"＊?西東京市芝久保図書館","province":"東京都","city":"西東京市","address":"西東京市芝久保町5-4-48","lat":35.73269,"lon":139.528134},{"name":"＊?西東京市谷戸図書館","province":"東京都","city":"西東京市","address":"西東京市谷戸町1-17-2","lat":35.741248,"lon":139.54395},{"name":"＊?西東京市柳沢図書館","province":"東京都","city":"西東京市","address":"西東京市柳沢1-15-1","lat":35.728384,"lon":139.553957},{"name":"＊?西東京市ひばりが丘図書館","province":"東京都","city":"西東京市","address":"西東京市ひばりが丘1-2-1","lat":35.751801,"lon":139.54356},{"name":"＊?新町福祉会館図書サービス","province":"東京都","city":"西東京市","address":"西東京市新町5-2-7","lat":35.71296,"lon":139.536402},{"name":"下野谷遺跡","province":"東京都","city":"西東京市","address":"東京都西東京市東伏見六丁目","lat":35.725451,"lon":139.562007},{"name":"玉川上水・小金井サクラ","province":"東京都","city":"西東京市","address":"東京都西東京市新町五丁目・六丁目","lat":35.711125,"lon":139.53627},{"name":"田無神社本殿・拝殿","province":"東京都","city":"西東京市","address":"東京都西東京市田無町三丁目7-4","lat":35.729783,"lon":139.544085},{"name":"石幢六角地蔵尊","province":"東京都","city":"西東京市","address":"東京都西東京市西原町二丁目5-43","lat":35.736442,"lon":139.536345},{"name":"田無ばやし","province":"東京都","city":"西東京市","address":"東京都西東京市田無町三丁目7-4田無神社・伝承地","lat":35.729783,"lon":139.544085},{"name":"延慶の板碑","province":"東京都","city":"西東京市","address":"東京都西東京市西原町四丁目5-6西原総合教育施設2階郷土資料室","lat":35.736717,"lon":139.529074},{"name":"稗倉","province":"東京都","city":"西東京市","address":"東京都西東京市田無町二丁目12-7","lat":35.728588,"lon":139.542},{"name":"下田家文書（公用分例略記）","province":"東京都","city":"西東京市","address":"東京都西東京市田無町","lat":35.726013,"lon":139.537715},{"name":"北芝久保庚申塔","province":"東京都","city":"西東京市","address":"東京都西東京市芝久保町四丁目12-48","lat":35.73039,"lon":139.521828},{"name":"養老田碑","province":"東京都","city":"西東京市","address":"東京都西東京市田無町二丁目12","lat":35.728554,"lon":139.542004},{"name":"養老畑碑","province":"東京都","city":"西東京市","address":"東京都西東京市田無町四丁目5-21田無小学校","lat":35.728928,"lon":139.537586},{"name":"下田半兵衛富宅の木像","province":"東京都","city":"西東京市","address":"東京都西東京市田無町三丁目8-12総持寺","lat":35.729577,"lon":139.54267},{"name":"獅子頭(雄獅子・雌獅子)","province":"東京都","city":"西東京市","address":"東京都西東京市田無町三丁目7-4","lat":35.729783,"lon":139.544085},{"name":"高札(火付ケ御文言高札)","province":"東京都","city":"西東京市","address":"東京都西東京市西原町四丁目5-6西原総合教育施設2階郷土資料室","lat":35.736717,"lon":139.529074},{"name":"人馬賃銭御定メ掛札","province":"東京都","city":"西東京市","address":"東京都西東京市西原町四丁目5-6西原総合教育施設2階郷土資料室","lat":35.736717,"lon":139.529074},{"name":"韮山笠","province":"東京都","city":"西東京市","address":"東京都西東京市西原町四丁目5-6西原総合教育施設2階郷土資料室","lat":35.736717,"lon":139.529074},{"name":"十王堂一宇建立の碑","province":"東京都","city":"西東京市","address":"東京都西東京市向台町二丁目8向台墓地","lat":35.718767,"lon":139.54172},{"name":"玉井寛海法士の墓","province":"東京都","city":"西東京市","address":"東京都西東京市向台町二丁目8向台墓地","lat":35.718767,"lon":139.54172},{"name":"撃剣家並木先生の墓","province":"東京都","city":"西東京市","address":"東京都西東京市芝久保町二丁目11芝久保墓地","lat":35.728078,"lon":139.528081},{"name":"南芝久保庚申塔","province":"東京都","city":"西東京市","address":"東京都西東京市田無町六丁目1-12","lat":35.727094,"lon":139.53278},{"name":"地租改正絵図","province":"東京都","city":"西東京市","address":"東京都西東京市南町五丁目6-11中央図書館","lat":35.726013,"lon":139.537715},{"name":"文化九年 検地図","province":"東京都","city":"西東京市","address":"東京都西東京市田無町","lat":35.728854,"lon":139.541659},{"name":"文字庚申塔","province":"東京都","city":"西東京市","address":"東京都西東京市新町一丁目2","lat":35.7163,"lon":139.548101},{"name":"招魂塔","province":"東京都","city":"西東京市","address":"東京都西東京市新町一丁目2しらし窪墓地","lat":35.7163,"lon":139.548101},{"name":"六角地蔵石幢","province":"東京都","city":"西東京市","address":"東京都西東京市保谷町四丁目7","lat":35.728494,"lon":139.549841},{"name":"青面金剛庚申像","province":"東京都","city":"西東京市","address":"東京都西東京市泉町二丁目3-2","lat":35.73723,"lon":139.551019},{"name":"又六石仏群","province":"東京都","city":"西東京市","address":"東京都西東京市住吉町三丁目18","lat":35.747822,"lon":139.549585},{"name":"田無村御検地帳","province":"東京都","city":"西東京市","address":"東京都西東京市南町五丁目6-11中央図書館","lat":35.726013,"lon":139.537715},{"name":"真誠学舎関係文書","province":"東京都","city":"西東京市","address":"東京都西東京市西原町四丁目5-6西原総合教育施設2階郷土資料室","lat":35.736717,"lon":139.529074},{"name":"尉殿大権現 神号額","province":"東京都","city":"西東京市","address":"東京都西東京市田無町三丁目8-12総持寺","lat":35.729577,"lon":139.54267},{"name":"柳沢庚申塔","province":"東京都","city":"西東京市","address":"東京都西東京市田無町二丁目22","lat":35.728495,"lon":139.547028},{"name":"旧下田名主役宅","province":"東京都","city":"西東京市","address":"東京都西東京市田無町","lat":35.728854,"lon":139.541659},{"name":"木彫彩色三十番神神像","province":"東京都","city":"西東京市","address":"東京都西東京市下保谷三丁目11-17福泉寺","lat":35.753744,"lon":139.566528},{"name":"木彫彩色倶利迦羅不動明王像","province":"東京都","city":"西東京市","address":"東京都西東京市住吉町一丁目6-5寶晃院","lat":35.740964,"lon":139.549331},{"name":"石製尾張藩鷹場標杭","province":"東京都","city":"西東京市","address":"東京都西東京市保谷町","lat":35.741248,"lon":139.549302},{"name":"總持寺のケヤキ","province":"東京都","city":"西東京市","address":"東京都西東京市田無町三丁目8-12総持寺","lat":35.729577,"lon":139.54267},{"name":"田無神社のイチョウ","province":"東京都","city":"西東京市","address":"東京都西東京市田無町三丁目7-4田無神社","lat":35.729783,"lon":139.544085},{"name":"水子地蔵菩薩立像","province":"東京都","city":"西東京市","address":"東京都西東京市住吉町一丁目6-5寶晃院","lat":35.741248,"lon":139.549302},{"name":"西浦地蔵尊","province":"東京都","city":"西東京市","address":"東京都西東京市保谷町五丁目12-24","lat":35.734234,"lon":139.548413},{"name":"六地蔵菩薩立像","province":"東京都","city":"西東京市","address":"東京都西東京市住吉町一丁目2-12東禅寺","lat":35.742981,"lon":139.549757},{"name":"榛名大権現石造物群","province":"東京都","city":"西東京市","address":"東京都西東京市東伏見二丁目6-13氷川神社","lat":35.727853,"lon":139.563433},{"name":"石燈籠一対","province":"東京都","city":"西東京市","address":"東京都西東京市住吉町一丁目21-1尉殿神社","lat":35.743815,"lon":139.550297},{"name":"奉納絵馬群","province":"東京都","city":"西東京市","address":"東京都西東京市新町二丁目7-24阿波洲神社","lat":35.71568,"lon":139.541942},{"name":"一文銭向い目絵馬","province":"東京都","city":"西東京市","address":"東京都西東京市泉町二丁目7-25寶樹院","lat":35.73927,"lon":139.550767},{"name":"菅原道真石像","province":"東京都","city":"西東京市","address":"東京都西東京市北町六丁目7-19天神社","lat":35.753952,"lon":139.561041},{"name":"観音寺の宝篋印塔","province":"東京都","city":"西東京市","address":"東京都西東京市田無町五丁目7-5観音寺","lat":35.730628,"lon":139.537765},{"name":"馬駈け市大絵馬二枚","province":"東京都","city":"西東京市","address":"東京都西東京市泉町二丁目15-7如意輪寺","lat":35.741475,"lon":139.551457},{"name":"氏子中奉納題目塔二基","province":"東京都","city":"西東京市","address":"東京都西東京市北町六丁目7-19天神社","lat":35.753952,"lon":139.561041},{"name":"保谷囃子","province":"東京都","city":"西東京市","address":"東京都西東京市不定","lat":35.725515,"lon":139.538146},{"name":"岩船地蔵尊","province":"東京都","city":"西東京市","address":"東京都西東京市保谷町六丁目4-7","lat":35.735807,"lon":139.553412},{"name":"蓮見家文書","province":"東京都","city":"西東京市","address":"東京都西東京市北町","lat":35.726013,"lon":139.537715},{"name":"幕末の様式小銃","province":"東京都","city":"西東京市","address":"東京都西東京市向台町","lat":35.722202,"lon":139.525644},{"name":"天神社 拝殿","province":"東京都","city":"西東京市","address":"東京都西東京市北町六丁目7-19天神社","lat":35.753952,"lon":139.561041},{"name":"北原児童館","province":"東京都","city":"西東京市","address":"西東京市北原町1-16-2","lat":35.733701,"lon":139.544636},{"name":"西原北児童館","province":"東京都","city":"西東京市","address":"西東京市西原町4-5-96","lat":35.736569,"lon":139.530081},{"name":"田無児童館","province":"東京都","city":"西東京市","address":"西東京市田無町4-14-2","lat":35.727776,"lon":139.535084},{"name":"田無柳沢児童センター","province":"東京都","city":"西東京市","address":"西東京市向台町1-7-25","lat":35.721147,"lon":139.546903},{"name":"芝久保児童館","province":"東京都","city":"西東京市","address":"西東京市芝久保町1-16-18","lat":35.72471,"lon":139.525652},{"name":"ひばりが丘児童センター","province":"東京都","city":"西東京市","address":"西東京市ひばりが丘3-1-25","lat":35.746185,"lon":139.537016},{"name":"ひばりが丘北児童センター","province":"東京都","city":"西東京市","address":"西東京市ひばりが丘北1-6-8","lat":35.752554,"lon":139.549699},{"name":"下保谷児童センター","province":"東京都","city":"西東京市","address":"西東京市下保谷4-3-20","lat":35.750505,"lon":139.56502},{"name":"中町児童館","province":"東京都","city":"西東京市","address":"西東京市中町4-4-1","lat":35.737681,"lon":139.564378},{"name":"保谷柳沢児童館","province":"東京都","city":"西東京市","address":"西東京市柳沢2-6-11","lat":35.723524,"lon":139.556066},{"name":"新町児童館","province":"東京都","city":"西東京市","address":"西東京市新町5-2-7","lat":35.712939,"lon":139.536376},{"name":"西東京市中央図書館","province":"東京都","city":"西東京市","address":"東京都西東京市南町5丁目6-11","lat":35.72599036,"lon":139.53779505},{"name":"西東京市保谷駅前図書館","province":"東京都","city":"西東京市","address":"東京都西東京市東町3丁目14-30","lat":35.74831068,"lon":139.56756666},{"name":"西東京市芝久保図書館","province":"東京都","city":"西東京市","address":"東京都西東京市芝久保町5丁目4-48","lat":35.73266157,"lon":139.52805941},{"name":"西東京市谷戸図書館","province":"東京都","city":"西東京市","address":"東京都西東京市谷戸町1丁目17-2","lat":35.74151367,"lon":139.54369663},{"name":"西東京市柳沢図書館","province":"東京都","city":"西東京市","address":"東京都西東京市柳沢1丁目15-1","lat":35.72833767,"lon":139.55396858},{"name":"西東京市ひばりが丘図書館","province":"東京都","city":"西東京市","address":"東京都西東京市ひばりが丘1丁目2-1","lat":35.75178747,"lon":139.54347682},{"name":"北原児童館","province":"東京都","city":"西東京市","address":"西東京市北原町1-16-2","lat":35.73367,"lon":139.54465},{"name":"西原北児童館","province":"東京都","city":"西東京市","address":"西東京市西原町4-5-96","lat":35.73684,"lon":139.52879},{"name":"田無児童館","province":"東京都","city":"西東京市","address":"西東京市田無町4-14-2","lat":35.72773,"lon":139.53513},{"name":"田無柳沢児童センター","province":"東京都","city":"西東京市","address":"西東京市向台町1-7-25","lat":35.72259,"lon":139.54546},{"name":"芝久保児童館","province":"東京都","city":"西東京市","address":"西東京市芝久保町1-16-18","lat":35.7246,"lon":139.52583},{"name":"ひばりが丘児童センター","province":"東京都","city":"西東京市","address":"西東京市ひばりが丘3-1-25","lat":35.74507,"lon":139.53682},{"name":"ひばりが丘北児童センター","province":"東京都","city":"西東京市","address":"西東京市ひばりが丘北1-6-8","lat":35.75277,"lon":139.54977},{"name":"下保谷児童センター","province":"東京都","city":"西東京市","address":"西東京市下保谷4-3-20","lat":35.75048,"lon":139.56511},{"name":"中町児童館","province":"東京都","city":"西東京市","address":"西東京市中町4-4-1","lat":35.73714,"lon":139.56441},{"name":"保谷柳沢児童館","province":"東京都","city":"西東京市","address":"西東京市柳沢2-6-11","lat":35.72342,"lon":139.55627},{"name":"新町児童館","province":"東京都","city":"西東京市","address":"西東京市新町5-2-7","lat":35.71376,"lon":139.53653},{"name":"ひばりが丘児童センター","province":"東京都","city":"西東京市","address":"西東京市ひばりが丘3-1-25","lat":35.746422,"lon":139.53688},{"name":"西原北児童館","province":"東京都","city":"西東京市","address":"西東京市西原町4-5-96","lat":35.73921,"lon":139.53331},{"name":"＊?西東京市芝久保公民館","province":"東京都","city":"西東京市","address":"西東京市芝久保町5-4-48","lat":35.73269,"lon":139.528134},{"name":"＊?西東京市ひばりが丘公民館","province":"東京都","city":"西東京市","address":"西東京市ひばりが丘2-3-4","lat":35.747361,"lon":139.540589},{"name":"＊?西東京市保谷駅前公民館","province":"東京都","city":"西東京市","address":"西東京市東町3-14-30ステア5階","lat":35.748152,"lon":139.567268},{"name":"＊?西東京市谷戸公民館","province":"東京都","city":"西東京市","address":"西東京市谷戸町1-17-2","lat":35.741248,"lon":139.54395},{"name":"＊?西東京市田無公民館","province":"東京都","city":"西東京市","address":"西東京市南町5-6-11","lat":35.726018,"lon":139.537789},{"name":"＊?西東京市柳沢公民館","province":"東京都","city":"西東京市","address":"西東京市柳沢1-15-1","lat":35.728384,"lon":139.553957},{"name":"＊?西東京市中央図書館","province":"東京都","city":"西東京市","address":"西東京市南町5-6-11","lat":35.726018,"lon":139.537789},{"name":"＊?西東京市保谷駅前図書館","province":"東京都","city":"西東京市","address":"西東京市東町3-14-30ステア4階","lat":35.748151,"lon":139.567256},{"name":"＊?西東京市芝久保図書館","province":"東京都","city":"西東京市","address":"西東京市芝久保町5-4-48","lat":35.73269,"lon":139.528134},{"name":"＊?西東京市谷戸図書館","province":"東京都","city":"西東京市","address":"西東京市谷戸町1-17-2","lat":35.741248,"lon":139.54395},{"name":"＊?西東京市柳沢図書館","province":"東京都","city":"西東京市","address":"西東京市柳沢1-15-1","lat":35.728384,"lon":139.553957},{"name":"＊?西東京市ひばりが丘図書館","province":"東京都","city":"西東京市","address":"西東京市ひばりが丘1-2-1","lat":35.751801,"lon":139.54356},{"name":"＊?新町福祉会館図書サービス","province":"東京都","city":"西東京市","address":"西東京市新町5-2-7","lat":35.71296,"lon":139.536402},{"name":"下野谷遺跡","province":"東京都","city":"西東京市","address":"東京都西東京市東伏見六丁目","lat":35.725451,"lon":139.562007},{"name":"玉川上水・小金井サクラ","province":"東京都","city":"西東京市","address":"東京都西東京市新町五丁目・六丁目","lat":35.711125,"lon":139.53627},{"name":"田無神社本殿・拝殿","province":"東京都","city":"西東京市","address":"東京都西東京市田無町三丁目7-4","lat":35.729783,"lon":139.544085},{"name":"石幢六角地蔵尊","province":"東京都","city":"西東京市","address":"東京都西東京市西原町二丁目5-43","lat":35.736442,"lon":139.536345},{"name":"田無ばやし","province":"東京都","city":"西東京市","address":"東京都西東京市田無町三丁目7-4田無神社・伝承地","lat":35.729783,"lon":139.544085},{"name":"延慶の板碑","province":"東京都","city":"西東京市","address":"東京都西東京市西原町四丁目5-6西原総合教育施設2階郷土資料室","lat":35.736717,"lon":139.529074},{"name":"稗倉","province":"東京都","city":"西東京市","address":"東京都西東京市田無町二丁目12-7","lat":35.728588,"lon":139.542},{"name":"下田家文書（公用分例略記）","province":"東京都","city":"西東京市","address":"東京都西東京市田無町","lat":35.726013,"lon":139.537715},{"name":"北芝久保庚申塔","province":"東京都","city":"西東京市","address":"東京都西東京市芝久保町四丁目12-48","lat":35.73039,"lon":139.521828},{"name":"養老田碑","province":"東京都","city":"西東京市","address":"東京都西東京市田無町二丁目12","lat":35.728554,"lon":139.542004},{"name":"養老畑碑","province":"東京都","city":"西東京市","address":"東京都西東京市田無町四丁目5-21田無小学校","lat":35.728928,"lon":139.537586},{"name":"下田半兵衛富宅の木像","province":"東京都","city":"西東京市","address":"東京都西東京市田無町三丁目8-12総持寺","lat":35.729577,"lon":139.54267},{"name":"獅子頭(雄獅子・雌獅子)","province":"東京都","city":"西東京市","address":"東京都西東京市田無町三丁目7-4","lat":35.729783,"lon":139.544085},{"name":"高札(火付ケ御文言高札)","province":"東京都","city":"西東京市","address":"東京都西東京市西原町四丁目5-6西原総合教育施設2階郷土資料室","lat":35.736717,"lon":139.529074},{"name":"人馬賃銭御定メ掛札","province":"東京都","city":"西東京市","address":"東京都西東京市西原町四丁目5-6西原総合教育施設2階郷土資料室","lat":35.736717,"lon":139.529074},{"name":"韮山笠","province":"東京都","city":"西東京市","address":"東京都西東京市西原町四丁目5-6西原総合教育施設2階郷土資料室","lat":35.736717,"lon":139.529074},{"name":"十王堂一宇建立の碑","province":"東京都","city":"西東京市","address":"東京都西東京市向台町二丁目8向台墓地","lat":35.718767,"lon":139.54172},{"name":"玉井寛海法士の墓","province":"東京都","city":"西東京市","address":"東京都西東京市向台町二丁目8向台墓地","lat":35.718767,"lon":139.54172},{"name":"撃剣家並木先生の墓","province":"東京都","city":"西東京市","address":"東京都西東京市芝久保町二丁目11芝久保墓地","lat":35.728078,"lon":139.528081},{"name":"南芝久保庚申塔","province":"東京都","city":"西東京市","address":"東京都西東京市田無町六丁目1-12","lat":35.727094,"lon":139.53278},{"name":"地租改正絵図","province":"東京都","city":"西東京市","address":"東京都西東京市南町五丁目6-11中央図書館","lat":35.726013,"lon":139.537715},{"name":"文化九年 検地図","province":"東京都","city":"西東京市","address":"東京都西東京市田無町","lat":35.728854,"lon":139.541659},{"name":"文字庚申塔","province":"東京都","city":"西東京市","address":"東京都西東京市新町一丁目2","lat":35.7163,"lon":139.548101},{"name":"招魂塔","province":"東京都","city":"西東京市","address":"東京都西東京市新町一丁目2しらし窪墓地","lat":35.7163,"lon":139.548101},{"name":"六角地蔵石幢","province":"東京都","city":"西東京市","address":"東京都西東京市保谷町四丁目7","lat":35.728494,"lon":139.549841},{"name":"青面金剛庚申像","province":"東京都","city":"西東京市","address":"東京都西東京市泉町二丁目3-2","lat":35.73723,"lon":139.551019},{"name":"又六石仏群","province":"東京都","city":"西東京市","address":"東京都西東京市住吉町三丁目18","lat":35.747822,"lon":139.549585},{"name":"田無村御検地帳","province":"東京都","city":"西東京市","address":"東京都西東京市南町五丁目6-11中央図書館","lat":35.726013,"lon":139.537715},{"name":"真誠学舎関係文書","province":"東京都","city":"西東京市","address":"東京都西東京市西原町四丁目5-6西原総合教育施設2階郷土資料室","lat":35.736717,"lon":139.529074},{"name":"尉殿大権現 神号額","province":"東京都","city":"西東京市","address":"東京都西東京市田無町三丁目8-12総持寺","lat":35.729577,"lon":139.54267},{"name":"柳沢庚申塔","province":"東京都","city":"西東京市","address":"東京都西東京市田無町二丁目22","lat":35.728495,"lon":139.547028},{"name":"旧下田名主役宅","province":"東京都","city":"西東京市","address":"東京都西東京市田無町","lat":35.728854,"lon":139.541659},{"name":"木彫彩色三十番神神像","province":"東京都","city":"西東京市","address":"東京都西東京市下保谷三丁目11-17福泉寺","lat":35.753744,"lon":139.566528},{"name":"木彫彩色倶利迦羅不動明王像","province":"東京都","city":"西東京市","address":"東京都西東京市住吉町一丁目6-5寶晃院","lat":35.740964,"lon":139.549331},{"name":"石製尾張藩鷹場標杭","province":"東京都","city":"西東京市","address":"東京都西東京市保谷町","lat":35.741248,"lon":139.549302},{"name":"總持寺のケヤキ","province":"東京都","city":"西東京市","address":"東京都西東京市田無町三丁目8-12総持寺","lat":35.729577,"lon":139.54267},{"name":"田無神社のイチョウ","province":"東京都","city":"西東京市","address":"東京都西東京市田無町三丁目7-4田無神社","lat":35.729783,"lon":139.544085},{"name":"水子地蔵菩薩立像","province":"東京都","city":"西東京市","address":"東京都西東京市住吉町一丁目6-5寶晃院","lat":35.741248,"lon":139.549302},{"name":"西浦地蔵尊","province":"東京都","city":"西東京市","address":"東京都西東京市保谷町五丁目12-24","lat":35.734234,"lon":139.548413},{"name":"六地蔵菩薩立像","province":"東京都","city":"西東京市","address":"東京都西東京市住吉町一丁目2-12東禅寺","lat":35.742981,"lon":139.549757},{"name":"榛名大権現石造物群","province":"東京都","city":"西東京市","address":"東京都西東京市東伏見二丁目6-13氷川神社","lat":35.727853,"lon":139.563433},{"name":"石燈籠一対","province":"東京都","city":"西東京市","address":"東京都西東京市住吉町一丁目21-1尉殿神社","lat":35.743815,"lon":139.550297},{"name":"奉納絵馬群","province":"東京都","city":"西東京市","address":"東京都西東京市新町二丁目7-24阿波洲神社","lat":35.71568,"lon":139.541942},{"name":"一文銭向い目絵馬","province":"東京都","city":"西東京市","address":"東京都西東京市泉町二丁目7-25寶樹院","lat":35.73927,"lon":139.550767},{"name":"菅原道真石像","province":"東京都","city":"西東京市","address":"東京都西東京市北町六丁目7-19天神社","lat":35.753952,"lon":139.561041},{"name":"観音寺の宝篋印塔","province":"東京都","city":"西東京市","address":"東京都西東京市田無町五丁目7-5観音寺","lat":35.730628,"lon":139.537765},{"name":"馬駈け市大絵馬二枚","province":"東京都","city":"西東京市","address":"東京都西東京市泉町二丁目15-7如意輪寺","lat":35.741475,"lon":139.551457},{"name":"氏子中奉納題目塔二基","province":"東京都","city":"西東京市","address":"東京都西東京市北町六丁目7-19天神社","lat":35.753952,"lon":139.561041},{"name":"保谷囃子","province":"東京都","city":"西東京市","address":"東京都西東京市不定","lat":35.725515,"lon":139.538146},{"name":"岩船地蔵尊","province":"東京都","city":"西東京市","address":"東京都西東京市保谷町六丁目4-7","lat":35.735807,"lon":139.553412},{"name":"蓮見家文書","province":"東京都","city":"西東京市","address":"東京都西東京市北町","lat":35.726013,"lon":139.537715},{"name":"幕末の様式小銃","province":"東京都","city":"西東京市","address":"東京都西東京市向台町","lat":35.722202,"lon":139.525644},{"name":"天神社 拝殿","province":"東京都","city":"西東京市","address":"東京都西東京市北町六丁目7-19天神社","lat":35.753952,"lon":139.561041},{"name":"北原児童館","province":"東京都","city":"西東京市","address":"西東京市北原町1-16-2","lat":35.733701,"lon":139.544636},{"name":"西原北児童館","province":"東京都","city":"西東京市","address":"西東京市西原町4-5-96","lat":35.736569,"lon":139.530081},{"name":"田無児童館","province":"東京都","city":"西東京市","address":"西東京市田無町4-14-2","lat":35.727776,"lon":139.535084},{"name":"田無柳沢児童センター","province":"東京都","city":"西東京市","address":"西東京市向台町1-7-25","lat":35.721147,"lon":139.546903},{"name":"芝久保児童館","province":"東京都","city":"西東京市","address":"西東京市芝久保町1-16-18","lat":35.72471,"lon":139.525652},{"name":"ひばりが丘児童センター","province":"東京都","city":"西東京市","address":"西東京市ひばりが丘3-1-25","lat":35.746185,"lon":139.537016},{"name":"ひばりが丘北児童センター","province":"東京都","city":"西東京市","address":"西東京市ひばりが丘北1-6-8","lat":35.752554,"lon":139.549699},{"name":"下保谷児童センター","province":"東京都","city":"西東京市","address":"西東京市下保谷4-3-20","lat":35.750505,"lon":139.56502},{"name":"中町児童館","province":"東京都","city":"西東京市","address":"西東京市中町4-4-1","lat":35.737681,"lon":139.564378},{"name":"保谷柳沢児童館","province":"東京都","city":"西東京市","address":"西東京市柳沢2-6-11","lat":35.723524,"lon":139.556066},{"name":"新町児童館","province":"東京都","city":"西東京市","address":"西東京市新町5-2-7","lat":35.712939,"lon":139.536376},{"name":"西東京市中央図書館","province":"東京都","city":"西東京市","address":"東京都西東京市南町5丁目6-11","lat":35.72599036,"lon":139.53779505},{"name":"西東京市保谷駅前図書館","province":"東京都","city":"西東京市","address":"東京都西東京市東町3丁目14-30","lat":35.74831068,"lon":139.56756666},{"name":"西東京市芝久保図書館","province":"東京都","city":"西東京市","address":"東京都西東京市芝久保町5丁目4-48","lat":35.73266157,"lon":139.52805941},{"name":"西東京市谷戸図書館","province":"東京都","city":"西東京市","address":"東京都西東京市谷戸町1丁目17-2","lat":35.74151367,"lon":139.54369663},{"name":"西東京市柳沢図書館","province":"東京都","city":"西東京市","address":"東京都西東京市柳沢1丁目15-1","lat":35.72833767,"lon":139.55396858},{"name":"西東京市ひばりが丘図書館","province":"東京都","city":"西東京市","address":"東京都西東京市ひばりが丘1丁目2-1","lat":35.75178747,"lon":139.54347682},{"name":"北原児童館","province":"東京都","city":"西東京市","address":"西東京市北原町1-16-2","lat":35.73367,"lon":139.54465},{"name":"西原北児童館","province":"東京都","city":"西東京市","address":"西東京市西原町4-5-96","lat":35.73684,"lon":139.52879},{"name":"田無児童館","province":"東京都","city":"西東京市","address":"西東京市田無町4-14-2","lat":35.72773,"lon":139.53513},{"name":"田無柳沢児童センター","province":"東京都","city":"西東京市","address":"西東京市向台町1-7-25","lat":35.72259,"lon":139.54546},{"name":"芝久保児童館","province":"東京都","city":"西東京市","address":"西東京市芝久保町1-16-18","lat":35.7246,"lon":139.52583},{"name":"ひばりが丘児童センター","province":"東京都","city":"西東京市","address":"西東京市ひばりが丘3-1-25","lat":35.74507,"lon":139.53682},{"name":"ひばりが丘北児童センター","province":"東京都","city":"西東京市","address":"西東京市ひばりが丘北1-6-8","lat":35.75277,"lon":139.54977},{"name":"下保谷児童センター","province":"東京都","city":"西東京市","address":"西東京市下保谷4-3-20","lat":35.75048,"lon":139.56511},{"name":"中町児童館","province":"東京都","city":"西東京市","address":"西東京市中町4-4-1","lat":35.73714,"lon":139.56441},{"name":"保谷柳沢児童館","province":"東京都","city":"西東京市","address":"西東京市柳沢2-6-11","lat":35.72342,"lon":139.55627},{"name":"新町児童館","province":"東京都","city":"西東京市","address":"西東京市新町5-2-7","lat":35.71376,"lon":139.53653},{"name":"ひばりが丘児童センター","province":"東京都","city":"西東京市","address":"西東京市ひばりが丘3-1-25","lat":35.746422,"lon":139.53688},{"name":"西原北児童館","province":"東京都","city":"西東京市","address":"西東京市西原町4-5-96","lat":35.73921,"lon":139.53331},{"name":"＊?西東京市芝久保公民館","province":"東京都","city":"西東京市","address":"西東京市芝久保町5-4-48","lat":35.73269,"lon":139.528134},{"name":"＊?西東京市ひばりが丘公民館","province":"東京都","city":"西東京市","address":"西東京市ひばりが丘2-3-4","lat":35.747361,"lon":139.540589},{"name":"＊?西東京市保谷駅前公民館","province":"東京都","city":"西東京市","address":"西東京市東町3-14-30ステア5階","lat":35.748152,"lon":139.567268},{"name":"＊?西東京市谷戸公民館","province":"東京都","city":"西東京市","address":"西東京市谷戸町1-17-2","lat":35.741248,"lon":139.54395},{"name":"＊?西東京市田無公民館","province":"東京都","city":"西東京市","address":"西東京市南町5-6-11","lat":35.726018,"lon":139.537789},{"name":"＊?西東京市柳沢公民館","province":"東京都","city":"西東京市","address":"西東京市柳沢1-15-1","lat":35.728384,"lon":139.553957},{"name":"＊?西東京市中央図書館","province":"東京都","city":"西東京市","address":"西東京市南町5-6-11","lat":35.726018,"lon":139.537789},{"name":"＊?西東京市保谷駅前図書館","province":"東京都","city":"西東京市","address":"西東京市東町3-14-30ステア4階","lat":35.748151,"lon":139.567256},{"name":"＊?西東京市芝久保図書館","province":"東京都","city":"西東京市","address":"西東京市芝久保町5-4-48","lat":35.73269,"lon":139.528134},{"name":"＊?西東京市谷戸図書館","province":"東京都","city":"西東京市","address":"西東京市谷戸町1-17-2","lat":35.741248,"lon":139.54395},{"name":"＊?西東京市柳沢図書館","province":"東京都","city":"西東京市","address":"西東京市柳沢1-15-1","lat":35.728384,"lon":139.553957},{"name":"＊?西東京市ひばりが丘図書館","province":"東京都","city":"西東京市","address":"西東京市ひばりが丘1-2-1","lat":35.751801,"lon":139.54356},{"name":"＊?新町福祉会館図書サービス","province":"東京都","city":"西東京市","address":"西東京市新町5-2-7","lat":35.71296,"lon":139.536402},{"name":"下野谷遺跡","province":"東京都","city":"西東京市","address":"東京都西東京市東伏見六丁目","lat":35.725451,"lon":139.562007},{"name":"玉川上水・小金井サクラ","province":"東京都","city":"西東京市","address":"東京都西東京市新町五丁目・六丁目","lat":35.711125,"lon":139.53627},{"name":"田無神社本殿・拝殿","province":"東京都","city":"西東京市","address":"東京都西東京市田無町三丁目7-4","lat":35.729783,"lon":139.544085},{"name":"石幢六角地蔵尊","province":"東京都","city":"西東京市","address":"東京都西東京市西原町二丁目5-43","lat":35.736442,"lon":139.536345},{"name":"田無ばやし","province":"東京都","city":"西東京市","address":"東京都西東京市田無町三丁目7-4田無神社・伝承地","lat":35.729783,"lon":139.544085},{"name":"延慶の板碑","province":"東京都","city":"西東京市","address":"東京都西東京市西原町四丁目5-6西原総合教育施設2階郷土資料室","lat":35.736717,"lon":139.529074},{"name":"稗倉","province":"東京都","city":"西東京市","address":"東京都西東京市田無町二丁目12-7","lat":35.728588,"lon":139.542},{"name":"下田家文書（公用分例略記）","province":"東京都","city":"西東京市","address":"東京都西東京市田無町","lat":35.726013,"lon":139.537715},{"name":"北芝久保庚申塔","province":"東京都","city":"西東京市","address":"東京都西東京市芝久保町四丁目12-48","lat":35.73039,"lon":139.521828},{"name":"養老田碑","province":"東京都","city":"西東京市","address":"東京都西東京市田無町二丁目12","lat":35.728554,"lon":139.542004},{"name":"養老畑碑","province":"東京都","city":"西東京市","address":"東京都西東京市田無町四丁目5-21田無小学校","lat":35.728928,"lon":139.537586},{"name":"下田半兵衛富宅の木像","province":"東京都","city":"西東京市","address":"東京都西東京市田無町三丁目8-12総持寺","lat":35.729577,"lon":139.54267},{"name":"獅子頭(雄獅子・雌獅子)","province":"東京都","city":"西東京市","address":"東京都西東京市田無町三丁目7-4","lat":35.729783,"lon":139.544085},{"name":"高札(火付ケ御文言高札)","province":"東京都","city":"西東京市","address":"東京都西東京市西原町四丁目5-6西原総合教育施設2階郷土資料室","lat":35.736717,"lon":139.529074},{"name":"人馬賃銭御定メ掛札","province":"東京都","city":"西東京市","address":"東京都西東京市西原町四丁目5-6西原総合教育施設2階郷土資料室","lat":35.736717,"lon":139.529074},{"name":"韮山笠","province":"東京都","city":"西東京市","address":"東京都西東京市西原町四丁目5-6西原総合教育施設2階郷土資料室","lat":35.736717,"lon":139.529074},{"name":"十王堂一宇建立の碑","province":"東京都","city":"西東京市","address":"東京都西東京市向台町二丁目8向台墓地","lat":35.718767,"lon":139.54172},{"name":"玉井寛海法士の墓","province":"東京都","city":"西東京市","address":"東京都西東京市向台町二丁目8向台墓地","lat":35.718767,"lon":139.54172},{"name":"撃剣家並木先生の墓","province":"東京都","city":"西東京市","address":"東京都西東京市芝久保町二丁目11芝久保墓地","lat":35.728078,"lon":139.528081},{"name":"南芝久保庚申塔","province":"東京都","city":"西東京市","address":"東京都西東京市田無町六丁目1-12","lat":35.727094,"lon":139.53278},{"name":"地租改正絵図","province":"東京都","city":"西東京市","address":"東京都西東京市南町五丁目6-11中央図書館","lat":35.726013,"lon":139.537715},{"name":"文化九年 検地図","province":"東京都","city":"西東京市","address":"東京都西東京市田無町","lat":35.728854,"lon":139.541659},{"name":"文字庚申塔","province":"東京都","city":"西東京市","address":"東京都西東京市新町一丁目2","lat":35.7163,"lon":139.548101},{"name":"招魂塔","province":"東京都","city":"西東京市","address":"東京都西東京市新町一丁目2しらし窪墓地","lat":35.7163,"lon":139.548101},{"name":"六角地蔵石幢","province":"東京都","city":"西東京市","address":"東京都西東京市保谷町四丁目7","lat":35.728494,"lon":139.549841},{"name":"青面金剛庚申像","province":"東京都","city":"西東京市","address":"東京都西東京市泉町二丁目3-2","lat":35.73723,"lon":139.551019},{"name":"又六石仏群","province":"東京都","city":"西東京市","address":"東京都西東京市住吉町三丁目18","lat":35.747822,"lon":139.549585},{"name":"田無村御検地帳","province":"東京都","city":"西東京市","address":"東京都西東京市南町五丁目6-11中央図書館","lat":35.726013,"lon":139.537715},{"name":"真誠学舎関係文書","province":"東京都","city":"西東京市","address":"東京都西東京市西原町四丁目5-6西原総合教育施設2階郷土資料室","lat":35.736717,"lon":139.529074},{"name":"尉殿大権現 神号額","province":"東京都","city":"西東京市","address":"東京都西東京市田無町三丁目8-12総持寺","lat":35.729577,"lon":139.54267},{"name":"柳沢庚申塔","province":"東京都","city":"西東京市","address":"東京都西東京市田無町二丁目22","lat":35.728495,"lon":139.547028},{"name":"旧下田名主役宅","province":"東京都","city":"西東京市","address":"東京都西東京市田無町","lat":35.728854,"lon":139.541659},{"name":"木彫彩色三十番神神像","province":"東京都","city":"西東京市","address":"東京都西東京市下保谷三丁目11-17福泉寺","lat":35.753744,"lon":139.566528},{"name":"木彫彩色倶利迦羅不動明王像","province":"東京都","city":"西東京市","address":"東京都西東京市住吉町一丁目6-5寶晃院","lat":35.740964,"lon":139.549331},{"name":"石製尾張藩鷹場標杭","province":"東京都","city":"西東京市","address":"東京都西東京市保谷町","lat":35.741248,"lon":139.549302},{"name":"總持寺のケヤキ","province":"東京都","city":"西東京市","address":"東京都西東京市田無町三丁目8-12総持寺","lat":35.729577,"lon":139.54267},{"name":"田無神社のイチョウ","province":"東京都","city":"西東京市","address":"東京都西東京市田無町三丁目7-4田無神社","lat":35.729783,"lon":139.544085},{"name":"水子地蔵菩薩立像","province":"東京都","city":"西東京市","address":"東京都西東京市住吉町一丁目6-5寶晃院","lat":35.741248,"lon":139.549302},{"name":"西浦地蔵尊","province":"東京都","city":"西東京市","address":"東京都西東京市保谷町五丁目12-24","lat":35.734234,"lon":139.548413},{"name":"六地蔵菩薩立像","province":"東京都","city":"西東京市","address":"東京都西東京市住吉町一丁目2-12東禅寺","lat":35.742981,"lon":139.549757},{"name":"榛名大権現石造物群","province":"東京都","city":"西東京市","address":"東京都西東京市東伏見二丁目6-13氷川神社","lat":35.727853,"lon":139.563433},{"name":"石燈籠一対","province":"東京都","city":"西東京市","address":"東京都西東京市住吉町一丁目21-1尉殿神社","lat":35.743815,"lon":139.550297},{"name":"奉納絵馬群","province":"東京都","city":"西東京市","address":"東京都西東京市新町二丁目7-24阿波洲神社","lat":35.71568,"lon":139.541942},{"name":"一文銭向い目絵馬","province":"東京都","city":"西東京市","address":"東京都西東京市泉町二丁目7-25寶樹院","lat":35.73927,"lon":139.550767},{"name":"菅原道真石像","province":"東京都","city":"西東京市","address":"東京都西東京市北町六丁目7-19天神社","lat":35.753952,"lon":139.561041},{"name":"観音寺の宝篋印塔","province":"東京都","city":"西東京市","address":"東京都西東京市田無町五丁目7-5観音寺","lat":35.730628,"lon":139.537765},{"name":"馬駈け市大絵馬二枚","province":"東京都","city":"西東京市","address":"東京都西東京市泉町二丁目15-7如意輪寺","lat":35.741475,"lon":139.551457},{"name":"氏子中奉納題目塔二基","province":"東京都","city":"西東京市","address":"東京都西東京市北町六丁目7-19天神社","lat":35.753952,"lon":139.561041},{"name":"保谷囃子","province":"東京都","city":"西東京市","address":"東京都西東京市不定","lat":35.725515,"lon":139.538146},{"name":"岩船地蔵尊","province":"東京都","city":"西東京市","address":"東京都西東京市保谷町六丁目4-7","lat":35.735807,"lon":139.553412},{"name":"蓮見家文書","province":"東京都","city":"西東京市","address":"東京都西東京市北町","lat":35.726013,"lon":139.537715},{"name":"幕末の様式小銃","province":"東京都","city":"西東京市","address":"東京都西東京市向台町","lat":35.722202,"lon":139.525644},{"name":"天神社 拝殿","province":"東京都","city":"西東京市","address":"東京都西東京市北町六丁目7-19天神社","lat":35.753952,"lon":139.561041},{"name":"北原児童館","province":"東京都","city":"西東京市","address":"西東京市北原町1-16-2","lat":35.733701,"lon":139.544636},{"name":"西原北児童館","province":"東京都","city":"西東京市","address":"西東京市西原町4-5-96","lat":35.736569,"lon":139.530081},{"name":"田無児童館","province":"東京都","city":"西東京市","address":"西東京市田無町4-14-2","lat":35.727776,"lon":139.535084},{"name":"田無柳沢児童センター","province":"東京都","city":"西東京市","address":"西東京市向台町1-7-25","lat":35.721147,"lon":139.546903},{"name":"芝久保児童館","province":"東京都","city":"西東京市","address":"西東京市芝久保町1-16-18","lat":35.72471,"lon":139.525652},{"name":"ひばりが丘児童センター","province":"東京都","city":"西東京市","address":"西東京市ひばりが丘3-1-25","lat":35.746185,"lon":139.537016},{"name":"ひばりが丘北児童センター","province":"東京都","city":"西東京市","address":"西東京市ひばりが丘北1-6-8","lat":35.752554,"lon":139.549699},{"name":"下保谷児童センター","province":"東京都","city":"西東京市","address":"西東京市下保谷4-3-20","lat":35.750505,"lon":139.56502},{"name":"中町児童館","province":"東京都","city":"西東京市","address":"西東京市中町4-4-1","lat":35.737681,"lon":139.564378},{"name":"保谷柳沢児童館","province":"東京都","city":"西東京市","address":"西東京市柳沢2-6-11","lat":35.723524,"lon":139.556066},{"name":"新町児童館","province":"東京都","city":"西東京市","address":"西東京市新町5-2-7","lat":35.712939,"lon":139.536376},{"name":"西東京市中央図書館","province":"東京都","city":"西東京市","address":"東京都西東京市南町5丁目6-11","lat":35.72599036,"lon":139.53779505},{"name":"西東京市保谷駅前図書館","province":"東京都","city":"西東京市","address":"東京都西東京市東町3丁目14-30","lat":35.74831068,"lon":139.56756666},{"name":"西東京市芝久保図書館","province":"東京都","city":"西東京市","address":"東京都西東京市芝久保町5丁目4-48","lat":35.73266157,"lon":139.52805941},{"name":"西東京市谷戸図書館","province":"東京都","city":"西東京市","address":"東京都西東京市谷戸町1丁目17-2","lat":35.74151367,"lon":139.54369663},{"name":"西東京市柳沢図書館","province":"東京都","city":"西東京市","address":"東京都西東京市柳沢1丁目15-1","lat":35.72833767,"lon":139.55396858},{"name":"西東京市ひばりが丘図書館","province":"東京都","city":"西東京市","address":"東京都西東京市ひばりが丘1丁目2-1","lat":35.75178747,"lon":139.54347682},{"name":"北原児童館","province":"東京都","city":"西東京市","address":"西東京市北原町1-16-2","lat":35.73367,"lon":139.54465},{"name":"西原北児童館","province":"東京都","city":"西東京市","address":"西東京市西原町4-5-96","lat":35.73684,"lon":139.52879},{"name":"田無児童館","province":"東京都","city":"西東京市","address":"西東京市田無町4-14-2","lat":35.72773,"lon":139.53513},{"name":"田無柳沢児童センター","province":"東京都","city":"西東京市","address":"西東京市向台町1-7-25","lat":35.72259,"lon":139.54546},{"name":"芝久保児童館","province":"東京都","city":"西東京市","address":"西東京市芝久保町1-16-18","lat":35.7246,"lon":139.52583},{"name":"ひばりが丘児童センター","province":"東京都","city":"西東京市","address":"西東京市ひばりが丘3-1-25","lat":35.74507,"lon":139.53682},{"name":"ひばりが丘北児童センター","province":"東京都","city":"西東京市","address":"西東京市ひばりが丘北1-6-8","lat":35.75277,"lon":139.54977},{"name":"下保谷児童センター","province":"東京都","city":"西東京市","address":"西東京市下保谷4-3-20","lat":35.75048,"lon":139.56511},{"name":"中町児童館","province":"東京都","city":"西東京市","address":"西東京市中町4-4-1","lat":35.73714,"lon":139.56441},{"name":"保谷柳沢児童館","province":"東京都","city":"西東京市","address":"西東京市柳沢2-6-11","lat":35.72342,"lon":139.55627},{"name":"新町児童館","province":"東京都","city":"西東京市","address":"西東京市新町5-2-7","lat":35.71376,"lon":139.53653},{"name":"ひばりが丘児童センター","province":"東京都","city":"西東京市","address":"西東京市ひばりが丘3-1-25","lat":35.746422,"lon":139.53688},{"name":"西原北児童館","province":"東京都","city":"西東京市","address":"西東京市西原町4-5-96","lat":35.73921,"lon":139.53331},{"name":"＊?西東京市芝久保公民館","province":"東京都","city":"西東京市","address":"西東京市芝久保町5-4-48","lat":35.73269,"lon":139.528134},{"name":"＊?西東京市ひばりが丘公民館","province":"東京都","city":"西東京市","address":"西東京市ひばりが丘2-3-4","lat":35.747361,"lon":139.540589},{"name":"＊?西東京市保谷駅前公民館","province":"東京都","city":"西東京市","address":"西東京市東町3-14-30ステア5階","lat":35.748152,"lon":139.567268},{"name":"＊?西東京市谷戸公民館","province":"東京都","city":"西東京市","address":"西東京市谷戸町1-17-2","lat":35.741248,"lon":139.54395},{"name":"＊?西東京市田無公民館","province":"東京都","city":"西東京市","address":"西東京市南町5-6-11","lat":35.726018,"lon":139.537789},{"name":"＊?西東京市柳沢公民館","province":"東京都","city":"西東京市","address":"西東京市柳沢1-15-1","lat":35.728384,"lon":139.553957},{"name":"＊?西東京市中央図書館","province":"東京都","city":"西東京市","address":"西東京市南町5-6-11","lat":35.726018,"lon":139.537789},{"name":"＊?西東京市保谷駅前図書館","province":"東京都","city":"西東京市","address":"西東京市東町3-14-30ステア4階","lat":35.748151,"lon":139.567256},{"name":"＊?西東京市芝久保図書館","province":"東京都","city":"西東京市","address":"西東京市芝久保町5-4-48","lat":35.73269,"lon":139.528134},{"name":"＊?西東京市谷戸図書館","province":"東京都","city":"西東京市","address":"西東京市谷戸町1-17-2","lat":35.741248,"lon":139.54395},{"name":"＊?西東京市柳沢図書館","province":"東京都","city":"西東京市","address":"西東京市柳沢1-15-1","lat":35.728384,"lon":139.553957},{"name":"＊?西東京市ひばりが丘図書館","province":"東京都","city":"西東京市","address":"西東京市ひばりが丘1-2-1","lat":35.751801,"lon":139.54356},{"name":"＊?新町福祉会館図書サービス","province":"東京都","city":"西東京市","address":"西東京市新町5-2-7","lat":35.71296,"lon":139.536402},{"name":"下野谷遺跡","province":"東京都","city":"西東京市","address":"東京都西東京市東伏見六丁目","lat":35.725451,"lon":139.562007},{"name":"玉川上水・小金井サクラ","province":"東京都","city":"西東京市","address":"東京都西東京市新町五丁目・六丁目","lat":35.711125,"lon":139.53627},{"name":"田無神社本殿・拝殿","province":"東京都","city":"西東京市","address":"東京都西東京市田無町三丁目7-4","lat":35.729783,"lon":139.544085},{"name":"石幢六角地蔵尊","province":"東京都","city":"西東京市","address":"東京都西東京市西原町二丁目5-43","lat":35.736442,"lon":139.536345},{"name":"田無ばやし","province":"東京都","city":"西東京市","address":"東京都西東京市田無町三丁目7-4田無神社・伝承地","lat":35.729783,"lon":139.544085},{"name":"延慶の板碑","province":"東京都","city":"西東京市","address":"東京都西東京市西原町四丁目5-6西原総合教育施設2階郷土資料室","lat":35.736717,"lon":139.529074},{"name":"稗倉","province":"東京都","city":"西東京市","address":"東京都西東京市田無町二丁目12-7","lat":35.728588,"lon":139.542},{"name":"下田家文書（公用分例略記）","province":"東京都","city":"西東京市","address":"東京都西東京市田無町","lat":35.726013,"lon":139.537715},{"name":"北芝久保庚申塔","province":"東京都","city":"西東京市","address":"東京都西東京市芝久保町四丁目12-48","lat":35.73039,"lon":139.521828},{"name":"養老田碑","province":"東京都","city":"西東京市","address":"東京都西東京市田無町二丁目12","lat":35.728554,"lon":139.542004},{"name":"養老畑碑","province":"東京都","city":"西東京市","address":"東京都西東京市田無町四丁目5-21田無小学校","lat":35.728928,"lon":139.537586},{"name":"下田半兵衛富宅の木像","province":"東京都","city":"西東京市","address":"東京都西東京市田無町三丁目8-12総持寺","lat":35.729577,"lon":139.54267},{"name":"獅子頭(雄獅子・雌獅子)","province":"東京都","city":"西東京市","address":"東京都西東京市田無町三丁目7-4","lat":35.729783,"lon":139.544085},{"name":"高札(火付ケ御文言高札)","province":"東京都","city":"西東京市","address":"東京都西東京市西原町四丁目5-6西原総合教育施設2階郷土資料室","lat":35.736717,"lon":139.529074},{"name":"人馬賃銭御定メ掛札","province":"東京都","city":"西東京市","address":"東京都西東京市西原町四丁目5-6西原総合教育施設2階郷土資料室","lat":35.736717,"lon":139.529074},{"name":"韮山笠","province":"東京都","city":"西東京市","address":"東京都西東京市西原町四丁目5-6西原総合教育施設2階郷土資料室","lat":35.736717,"lon":139.529074},{"name":"十王堂一宇建立の碑","province":"東京都","city":"西東京市","address":"東京都西東京市向台町二丁目8向台墓地","lat":35.718767,"lon":139.54172},{"name":"玉井寛海法士の墓","province":"東京都","city":"西東京市","address":"東京都西東京市向台町二丁目8向台墓地","lat":35.718767,"lon":139.54172},{"name":"撃剣家並木先生の墓","province":"東京都","city":"西東京市","address":"東京都西東京市芝久保町二丁目11芝久保墓地","lat":35.728078,"lon":139.528081},{"name":"南芝久保庚申塔","province":"東京都","city":"西東京市","address":"東京都西東京市田無町六丁目1-12","lat":35.727094,"lon":139.53278},{"name":"地租改正絵図","province":"東京都","city":"西東京市","address":"東京都西東京市南町五丁目6-11中央図書館","lat":35.726013,"lon":139.537715},{"name":"文化九年 検地図","province":"東京都","city":"西東京市","address":"東京都西東京市田無町","lat":35.728854,"lon":139.541659},{"name":"文字庚申塔","province":"東京都","city":"西東京市","address":"東京都西東京市新町一丁目2","lat":35.7163,"lon":139.548101},{"name":"招魂塔","province":"東京都","city":"西東京市","address":"東京都西東京市新町一丁目2しらし窪墓地","lat":35.7163,"lon":139.548101},{"name":"六角地蔵石幢","province":"東京都","city":"西東京市","address":"東京都西東京市保谷町四丁目7","lat":35.728494,"lon":139.549841},{"name":"青面金剛庚申像","province":"東京都","city":"西東京市","address":"東京都西東京市泉町二丁目3-2","lat":35.73723,"lon":139.551019},{"name":"又六石仏群","province":"東京都","city":"西東京市","address":"東京都西東京市住吉町三丁目18","lat":35.747822,"lon":139.549585},{"name":"田無村御検地帳","province":"東京都","city":"西東京市","address":"東京都西東京市南町五丁目6-11中央図書館","lat":35.726013,"lon":139.537715},{"name":"真誠学舎関係文書","province":"東京都","city":"西東京市","address":"東京都西東京市西原町四丁目5-6西原総合教育施設2階郷土資料室","lat":35.736717,"lon":139.529074},{"name":"尉殿大権現 神号額","province":"東京都","city":"西東京市","address":"東京都西東京市田無町三丁目8-12総持寺","lat":35.729577,"lon":139.54267},{"name":"柳沢庚申塔","province":"東京都","city":"西東京市","address":"東京都西東京市田無町二丁目22","lat":35.728495,"lon":139.547028},{"name":"旧下田名主役宅","province":"東京都","city":"西東京市","address":"東京都西東京市田無町","lat":35.728854,"lon":139.541659},{"name":"木彫彩色三十番神神像","province":"東京都","city":"西東京市","address":"東京都西東京市下保谷三丁目11-17福泉寺","lat":35.753744,"lon":139.566528},{"name":"木彫彩色倶利迦羅不動明王像","province":"東京都","city":"西東京市","address":"東京都西東京市住吉町一丁目6-5寶晃院","lat":35.740964,"lon":139.549331},{"name":"石製尾張藩鷹場標杭","province":"東京都","city":"西東京市","address":"東京都西東京市保谷町","lat":35.741248,"lon":139.549302},{"name":"總持寺のケヤキ","province":"東京都","city":"西東京市","address":"東京都西東京市田無町三丁目8-12総持寺","lat":35.729577,"lon":139.54267},{"name":"田無神社のイチョウ","province":"東京都","city":"西東京市","address":"東京都西東京市田無町三丁目7-4田無神社","lat":35.729783,"lon":139.544085},{"name":"水子地蔵菩薩立像","province":"東京都","city":"西東京市","address":"東京都西東京市住吉町一丁目6-5寶晃院","lat":35.741248,"lon":139.549302},{"name":"西浦地蔵尊","province":"東京都","city":"西東京市","address":"東京都西東京市保谷町五丁目12-24","lat":35.734234,"lon":139.548413},{"name":"六地蔵菩薩立像","province":"東京都","city":"西東京市","address":"東京都西東京市住吉町一丁目2-12東禅寺","lat":35.742981,"lon":139.549757},{"name":"榛名大権現石造物群","province":"東京都","city":"西東京市","address":"東京都西東京市東伏見二丁目6-13氷川神社","lat":35.727853,"lon":139.563433},{"name":"石燈籠一対","province":"東京都","city":"西東京市","address":"東京都西東京市住吉町一丁目21-1尉殿神社","lat":35.743815,"lon":139.550297},{"name":"奉納絵馬群","province":"東京都","city":"西東京市","address":"東京都西東京市新町二丁目7-24阿波洲神社","lat":35.71568,"lon":139.541942},{"name":"一文銭向い目絵馬","province":"東京都","city":"西東京市","address":"東京都西東京市泉町二丁目7-25寶樹院","lat":35.73927,"lon":139.550767},{"name":"菅原道真石像","province":"東京都","city":"西東京市","address":"東京都西東京市北町六丁目7-19天神社","lat":35.753952,"lon":139.561041},{"name":"観音寺の宝篋印塔","province":"東京都","city":"西東京市","address":"東京都西東京市田無町五丁目7-5観音寺","lat":35.730628,"lon":139.537765},{"name":"馬駈け市大絵馬二枚","province":"東京都","city":"西東京市","address":"東京都西東京市泉町二丁目15-7如意輪寺","lat":35.741475,"lon":139.551457},{"name":"氏子中奉納題目塔二基","province":"東京都","city":"西東京市","address":"東京都西東京市北町六丁目7-19天神社","lat":35.753952,"lon":139.561041},{"name":"保谷囃子","province":"東京都","city":"西東京市","address":"東京都西東京市不定","lat":35.725515,"lon":139.538146},{"name":"岩船地蔵尊","province":"東京都","city":"西東京市","address":"東京都西東京市保谷町六丁目4-7","lat":35.735807,"lon":139.553412},{"name":"蓮見家文書","province":"東京都","city":"西東京市","address":"東京都西東京市北町","lat":35.726013,"lon":139.537715},{"name":"幕末の様式小銃","province":"東京都","city":"西東京市","address":"東京都西東京市向台町","lat":35.722202,"lon":139.525644},{"name":"天神社 拝殿","province":"東京都","city":"西東京市","address":"東京都西東京市北町六丁目7-19天神社","lat":35.753952,"lon":139.561041},{"name":"北原児童館","province":"東京都","city":"西東京市","address":"西東京市北原町1-16-2","lat":35.733701,"lon":139.544636},{"name":"西原北児童館","province":"東京都","city":"西東京市","address":"西東京市西原町4-5-96","lat":35.736569,"lon":139.530081},{"name":"田無児童館","province":"東京都","city":"西東京市","address":"西東京市田無町4-14-2","lat":35.727776,"lon":139.535084},{"name":"田無柳沢児童センター","province":"東京都","city":"西東京市","address":"西東京市向台町1-7-25","lat":35.721147,"lon":139.546903},{"name":"芝久保児童館","province":"東京都","city":"西東京市","address":"西東京市芝久保町1-16-18","lat":35.72471,"lon":139.525652},{"name":"ひばりが丘児童センター","province":"東京都","city":"西東京市","address":"西東京市ひばりが丘3-1-25","lat":35.746185,"lon":139.537016},{"name":"ひばりが丘北児童センター","province":"東京都","city":"西東京市","address":"西東京市ひばりが丘北1-6-8","lat":35.752554,"lon":139.549699},{"name":"下保谷児童センター","province":"東京都","city":"西東京市","address":"西東京市下保谷4-3-20","lat":35.750505,"lon":139.56502},{"name":"中町児童館","province":"東京都","city":"西東京市","address":"西東京市中町4-4-1","lat":35.737681,"lon":139.564378},{"name":"保谷柳沢児童館","province":"東京都","city":"西東京市","address":"西東京市柳沢2-6-11","lat":35.723524,"lon":139.556066},{"name":"新町児童館","province":"東京都","city":"西東京市","address":"西東京市新町5-2-7","lat":35.712939,"lon":139.536376},{"name":"西東京市中央図書館","province":"東京都","city":"西東京市","address":"東京都西東京市南町5丁目6-11","lat":35.72599036,"lon":139.53779505},{"name":"西東京市保谷駅前図書館","province":"東京都","city":"西東京市","address":"東京都西東京市東町3丁目14-30","lat":35.74831068,"lon":139.56756666},{"name":"西東京市芝久保図書館","province":"東京都","city":"西東京市","address":"東京都西東京市芝久保町5丁目4-48","lat":35.73266157,"lon":139.52805941},{"name":"西東京市谷戸図書館","province":"東京都","city":"西東京市","address":"東京都西東京市谷戸町1丁目17-2","lat":35.74151367,"lon":139.54369663},{"name":"西東京市柳沢図書館","province":"東京都","city":"西東京市","address":"東京都西東京市柳沢1丁目15-1","lat":35.72833767,"lon":139.55396858},{"name":"西東京市ひばりが丘図書館","province":"東京都","city":"西東京市","address":"東京都西東京市ひばりが丘1丁目2-1","lat":35.75178747,"lon":139.54347682},{"name":"北原児童館","province":"東京都","city":"西東京市","address":"西東京市北原町1-16-2","lat":35.73367,"lon":139.54465},{"name":"西原北児童館","province":"東京都","city":"西東京市","address":"西東京市西原町4-5-96","lat":35.73684,"lon":139.52879},{"name":"田無児童館","province":"東京都","city":"西東京市","address":"西東京市田無町4-14-2","lat":35.72773,"lon":139.53513},{"name":"田無柳沢児童センター","province":"東京都","city":"西東京市","address":"西東京市向台町1-7-25","lat":35.72259,"lon":139.54546},{"name":"芝久保児童館","province":"東京都","city":"西東京市","address":"西東京市芝久保町1-16-18","lat":35.7246,"lon":139.52583},{"name":"ひばりが丘児童センター","province":"東京都","city":"西東京市","address":"西東京市ひばりが丘3-1-25","lat":35.74507,"lon":139.53682},{"name":"ひばりが丘北児童センター","province":"東京都","city":"西東京市","address":"西東京市ひばりが丘北1-6-8","lat":35.75277,"lon":139.54977},{"name":"下保谷児童センター","province":"東京都","city":"西東京市","address":"西東京市下保谷4-3-20","lat":35.75048,"lon":139.56511},{"name":"中町児童館","province":"東京都","city":"西東京市","address":"西東京市中町4-4-1","lat":35.73714,"lon":139.56441},{"name":"保谷柳沢児童館","province":"東京都","city":"西東京市","address":"西東京市柳沢2-6-11","lat":35.72342,"lon":139.55627},{"name":"新町児童館","province":"東京都","city":"西東京市","address":"西東京市新町5-2-7","lat":35.71376,"lon":139.53653},{"name":"ひばりが丘児童センター","province":"東京都","city":"西東京市","address":"西東京市ひばりが丘3-1-25","lat":35.746422,"lon":139.53688},{"name":"西原北児童館","province":"東京都","city":"西東京市","address":"西東京市西原町4-5-96","lat":35.73921,"lon":139.53331},{"name":"＊?西東京市中央図書館","province":"東京都","city":"西東京市","address":"西東京市南町5-6-11","lat":35.726018,"lon":139.537789},{"name":"＊?西東京市保谷駅前図書館","province":"東京都","city":"西東京市","address":"西東京市東町3-14-30ステア4階","lat":35.748151,"lon":139.567256},{"name":"＊?西東京市芝久保図書館","province":"東京都","city":"西東京市","address":"西東京市芝久保町5-4-48","lat":35.73269,"lon":139.528134},{"name":"＊?西東京市谷戸図書館","province":"東京都","city":"西東京市","address":"西東京市谷戸町1-17-2","lat":35.741248,"lon":139.54395},{"name":"＊?西東京市柳沢図書館","province":"東京都","city":"西東京市","address":"西東京市柳沢1-15-1","lat":35.728384,"lon":139.553957},{"name":"＊?西東京市ひばりが丘図書館","province":"東京都","city":"西東京市","address":"西東京市ひばりが丘1-2-1","lat":35.751801,"lon":139.54356},{"name":"＊?新町福祉会館図書サービス","province":"東京都","city":"西東京市","address":"西東京市新町5-2-7","lat":35.71296,"lon":139.536402},{"name":"下野谷遺跡","province":"東京都","city":"西東京市","address":"東京都西東京市東伏見六丁目","lat":35.725451,"lon":139.562007},{"name":"玉川上水・小金井サクラ","province":"東京都","city":"西東京市","address":"東京都西東京市新町五丁目・六丁目","lat":35.711125,"lon":139.53627},{"name":"田無神社本殿・拝殿","province":"東京都","city":"西東京市","address":"東京都西東京市田無町三丁目7-4","lat":35.729783,"lon":139.544085},{"name":"石幢六角地蔵尊","province":"東京都","city":"西東京市","address":"東京都西東京市西原町二丁目5-43","lat":35.736442,"lon":139.536345},{"name":"田無ばやし","province":"東京都","city":"西東京市","address":"東京都西東京市田無町三丁目7-4田無神社・伝承地","lat":35.729783,"lon":139.544085},{"name":"延慶の板碑","province":"東京都","city":"西東京市","address":"東京都西東京市西原町四丁目5-6西原総合教育施設2階郷土資料室","lat":35.736717,"lon":139.529074},{"name":"稗倉","province":"東京都","city":"西東京市","address":"東京都西東京市田無町二丁目12-7","lat":35.728588,"lon":139.542},{"name":"下田家文書（公用分例略記）","province":"東京都","city":"西東京市","address":"東京都西東京市田無町","lat":35.726013,"lon":139.537715},{"name":"北芝久保庚申塔","province":"東京都","city":"西東京市","address":"東京都西東京市芝久保町四丁目12-48","lat":35.73039,"lon":139.521828},{"name":"養老田碑","province":"東京都","city":"西東京市","address":"東京都西東京市田無町二丁目12","lat":35.728554,"lon":139.542004},{"name":"養老畑碑","province":"東京都","city":"西東京市","address":"東京都西東京市田無町四丁目5-21田無小学校","lat":35.728928,"lon":139.537586},{"name":"下田半兵衛富宅の木像","province":"東京都","city":"西東京市","address":"東京都西東京市田無町三丁目8-12総持寺","lat":35.729577,"lon":139.54267},{"name":"獅子頭(雄獅子・雌獅子)","province":"東京都","city":"西東京市","address":"東京都西東京市田無町三丁目7-4","lat":35.729783,"lon":139.544085},{"name":"高札(火付ケ御文言高札)","province":"東京都","city":"西東京市","address":"東京都西東京市西原町四丁目5-6西原総合教育施設2階郷土資料室","lat":35.736717,"lon":139.529074},{"name":"人馬賃銭御定メ掛札","province":"東京都","city":"西東京市","address":"東京都西東京市西原町四丁目5-6西原総合教育施設2階郷土資料室","lat":35.736717,"lon":139.529074},{"name":"韮山笠","province":"東京都","city":"西東京市","address":"東京都西東京市西原町四丁目5-6西原総合教育施設2階郷土資料室","lat":35.736717,"lon":139.529074},{"name":"十王堂一宇建立の碑","province":"東京都","city":"西東京市","address":"東京都西東京市向台町二丁目8向台墓地","lat":35.718767,"lon":139.54172},{"name":"玉井寛海法士の墓","province":"東京都","city":"西東京市","address":"東京都西東京市向台町二丁目8向台墓地","lat":35.718767,"lon":139.54172},{"name":"撃剣家並木先生の墓","province":"東京都","city":"西東京市","address":"東京都西東京市芝久保町二丁目11芝久保墓地","lat":35.728078,"lon":139.528081},{"name":"南芝久保庚申塔","province":"東京都","city":"西東京市","address":"東京都西東京市田無町六丁目1-12","lat":35.727094,"lon":139.53278},{"name":"地租改正絵図","province":"東京都","city":"西東京市","address":"東京都西東京市南町五丁目6-11中央図書館","lat":35.726013,"lon":139.537715},{"name":"文化九年 検地図","province":"東京都","city":"西東京市","address":"東京都西東京市田無町","lat":35.728854,"lon":139.541659},{"name":"文字庚申塔","province":"東京都","city":"西東京市","address":"東京都西東京市新町一丁目2","lat":35.7163,"lon":139.548101},{"name":"招魂塔","province":"東京都","city":"西東京市","address":"東京都西東京市新町一丁目2しらし窪墓地","lat":35.7163,"lon":139.548101},{"name":"六角地蔵石幢","province":"東京都","city":"西東京市","address":"東京都西東京市保谷町四丁目7","lat":35.728494,"lon":139.549841},{"name":"青面金剛庚申像","province":"東京都","city":"西東京市","address":"東京都西東京市泉町二丁目3-2","lat":35.73723,"lon":139.551019},{"name":"又六石仏群","province":"東京都","city":"西東京市","address":"東京都西東京市住吉町三丁目18","lat":35.747822,"lon":139.549585},{"name":"田無村御検地帳","province":"東京都","city":"西東京市","address":"東京都西東京市南町五丁目6-11中央図書館","lat":35.726013,"lon":139.537715},{"name":"真誠学舎関係文書","province":"東京都","city":"西東京市","address":"東京都西東京市西原町四丁目5-6西原総合教育施設2階郷土資料室","lat":35.736717,"lon":139.529074},{"name":"尉殿大権現 神号額","province":"東京都","city":"西東京市","address":"東京都西東京市田無町三丁目8-12総持寺","lat":35.729577,"lon":139.54267},{"name":"柳沢庚申塔","province":"東京都","city":"西東京市","address":"東京都西東京市田無町二丁目22","lat":35.728495,"lon":139.547028},{"name":"旧下田名主役宅","province":"東京都","city":"西東京市","address":"東京都西東京市田無町","lat":35.728854,"lon":139.541659},{"name":"木彫彩色三十番神神像","province":"東京都","city":"西東京市","address":"東京都西東京市下保谷三丁目11-17福泉寺","lat":35.753744,"lon":139.566528},{"name":"木彫彩色倶利迦羅不動明王像","province":"東京都","city":"西東京市","address":"東京都西東京市住吉町一丁目6-5寶晃院","lat":35.740964,"lon":139.549331},{"name":"石製尾張藩鷹場標杭","province":"東京都","city":"西東京市","address":"東京都西東京市保谷町","lat":35.741248,"lon":139.549302},{"name":"總持寺のケヤキ","province":"東京都","city":"西東京市","address":"東京都西東京市田無町三丁目8-12総持寺","lat":35.729577,"lon":139.54267},{"name":"田無神社のイチョウ","province":"東京都","city":"西東京市","address":"東京都西東京市田無町三丁目7-4田無神社","lat":35.729783,"lon":139.544085},{"name":"水子地蔵菩薩立像","province":"東京都","city":"西東京市","address":"東京都西東京市住吉町一丁目6-5寶晃院","lat":35.741248,"lon":139.549302},{"name":"西浦地蔵尊","province":"東京都","city":"西東京市","address":"東京都西東京市保谷町五丁目12-24","lat":35.734234,"lon":139.548413},{"name":"六地蔵菩薩立像","province":"東京都","city":"西東京市","address":"東京都西東京市住吉町一丁目2-12東禅寺","lat":35.742981,"lon":139.549757},{"name":"榛名大権現石造物群","province":"東京都","city":"西東京市","address":"東京都西東京市東伏見二丁目6-13氷川神社","lat":35.727853,"lon":139.563433},{"name":"石燈籠一対","province":"東京都","city":"西東京市","address":"東京都西東京市住吉町一丁目21-1尉殿神社","lat":35.743815,"lon":139.550297},{"name":"奉納絵馬群","province":"東京都","city":"西東京市","address":"東京都西東京市新町二丁目7-24阿波洲神社","lat":35.71568,"lon":139.541942},{"name":"一文銭向い目絵馬","province":"東京都","city":"西東京市","address":"東京都西東京市泉町二丁目7-25寶樹院","lat":35.73927,"lon":139.550767},{"name":"菅原道真石像","province":"東京都","city":"西東京市","address":"東京都西東京市北町六丁目7-19天神社","lat":35.753952,"lon":139.561041},{"name":"観音寺の宝篋印塔","province":"東京都","city":"西東京市","address":"東京都西東京市田無町五丁目7-5観音寺","lat":35.730628,"lon":139.537765},{"name":"馬駈け市大絵馬二枚","province":"東京都","city":"西東京市","address":"東京都西東京市泉町二丁目15-7如意輪寺","lat":35.741475,"lon":139.551457},{"name":"氏子中奉納題目塔二基","province":"東京都","city":"西東京市","address":"東京都西東京市北町六丁目7-19天神社","lat":35.753952,"lon":139.561041},{"name":"保谷囃子","province":"東京都","city":"西東京市","address":"東京都西東京市不定","lat":35.725515,"lon":139.538146},{"name":"岩船地蔵尊","province":"東京都","city":"西東京市","address":"東京都西東京市保谷町六丁目4-7","lat":35.735807,"lon":139.553412},{"name":"蓮見家文書","province":"東京都","city":"西東京市","address":"東京都西東京市北町","lat":35.726013,"lon":139.537715},{"name":"幕末の様式小銃","province":"東京都","city":"西東京市","address":"東京都西東京市向台町","lat":35.722202,"lon":139.525644},{"name":"天神社 拝殿","province":"東京都","city":"西東京市","address":"東京都西東京市北町六丁目7-19天神社","lat":35.753952,"lon":139.561041},{"name":"北原児童館","province":"東京都","city":"西東京市","address":"西東京市北原町1-16-2","lat":35.733701,"lon":139.544636},{"name":"西原北児童館","province":"東京都","city":"西東京市","address":"西東京市西原町4-5-96","lat":35.736569,"lon":139.530081},{"name":"田無児童館","province":"東京都","city":"西東京市","address":"西東京市田無町4-14-2","lat":35.727776,"lon":139.535084},