{"keyword":"避難","data":[{"name":"国立大学法人東京大学大学院農学生命科学研究科附属生態調和農学機構","province":"東京都","city":"西東京市","address":"東京都西東京市緑町1-1-1","lat":35.73263,"lon":139.540431},{"name":"国立大学法人東京大学大学院農学生命科学研究科附属田無演習林","province":"東京都","city":"西東京市","address":"東京都西東京市緑町1-1-8","lat":35.734344,"lon":139.539112},{"name":"芝久保調節池","province":"東京都","city":"西東京市","address":"東京都西東京市芝久保町1-18","lat":35.722936,"lon":139.524652},{"name":"向台調節池","province":"東京都","city":"西東京市","address":"東京都西東京市向台町5-4","lat":35.721136,"lon":139.52995},{"name":"都立小金井公園","province":"東京都","city":"西東京市","address":"東京都西東京市向台町6-4","lat":35.718332,"lon":139.524885},{"name":"都立東伏見公園","province":"東京都","city":"西東京市","address":"東京都西東京市東伏見1","lat":35.728449,"lon":139.559241},{"name":"早稲田大学東伏見キャンパス東伏見総合グラウンド","province":"東京都","city":"西東京市","address":"東京都西東京市東伏見2-7","lat":35.726844,"lon":139.561656},{"name":"MUFG PARK","province":"東京都","city":"西東京市","address":"東京都西東京市柳沢4-4","lat":35.718337,"lon":139.550842},{"name":"ひばりが丘総合運動場","province":"東京都","city":"西東京市","address":"東京都西東京市ひばりが丘3-1","lat":35.744816,"lon":139.53778},{"name":"岩倉高等学校総合運動場","province":"東京都","city":"西東京市","address":"東京都西東京市新町2-3-27","lat":35.713993,"lon":139.542077},{"name":"中原小学校","province":"東京都","city":"西東京市","address":"東京都西東京市ひばりが丘2-6-25","lat":35.746895,"lon":139.537761},{"name":"東京都立田無高等学校","province":"東京都","city":"西東京市","address":"東京都西東京市向台町5-4-34","lat":35.720209,"lon":139.529025},{"name":"東京都立保谷高等学校","province":"東京都","city":"西東京市","address":"東京都西東京市住吉町5-8-23","lat":35.745801,"lon":139.555429},{"name":"東京都立田無工業高等学校","province":"東京都","city":"西東京市","address":"東京都西東京市向台町1-9-1","lat":35.720514,"lon":139.548591},{"name":"学校法人武蔵野大学","province":"東京都","city":"西東京市","address":"東京都西東京市新町1-1-20","lat":35.716752,"lon":139.548918},{"name":"学校法人日本文華学園","province":"東京都","city":"西東京市","address":"東京都西東京市西原町4-5-85","lat":35.738298,"lon":139.53024}]}