{"keyword":"食堂","data":[{"name":"わいわいクッキング","province":"東京都","city":"西東京市","address":"東京都西東京市南町5丁目6-11","lat":35.72599036,"lon":139.53779505},{"name":"放課後キッチン・ごろごろ","province":"東京都","city":"西東京市","address":"東京都西東京市緑町3丁目8","lat":35.74209958,"lon":139.53754988},{"name":"やぎさわ子ども食堂","province":"東京都","city":"西東京市","address":"東京都西東京市柳沢2丁目11-13","lat":35.72471865,"lon":139.55418261},{"name":"子ども食堂　おひさまキッチン","province":"東京都","city":"西東京市","address":"東京都西東京市保谷町4丁目11-26","lat":35.7315705,"lon":139.54867444},{"name":"「木・々」　子ども食堂","province":"東京都","city":"西東京市","address":"東京都西東京市保谷町6丁目25-1","lat":35.73738938,"lon":139.55323492},{"name":"こども食堂　陽気なキッチン","province":"東京都","city":"西東京市","address":"東京都西東京市緑町2丁目1-8","lat":35.73772506,"lon":139.53613351},{"name":"浦野屋　やきとんてるてる　ひばりが丘店　子ども食堂","province":"東京都","city":"西東京市","address":"東京都西東京市ひばりが丘北4丁目2-24","lat":35.7532762,"lon":139.54437948},{"name":"こども食堂　げんき","province":"東京都","city":"西東京市","address":"東京都西東京市富士町1丁目1-1","lat":35.73536192,"lon":139.55654028},{"name":"こひつじ食堂","province":"東京都","city":"西東京市","address":"東京都西東京市住吉町6丁目14-5","lat":35.74452462,"lon":139.55197084},{"name":"ＹＬこども食堂","province":"東京都","city":"西東京市","address":"東京都西東京市ひばりが丘北1丁目7-14","lat":35.75302358,"lon":139.55014293},{"name":"こども食堂ジョイフル","province":"東京都","city":"西東京市","address":"東京都西東京市ひばりが丘北4丁目3-13","lat":35.75340399,"lon":139.54532385},{"name":"こども（おとな）食堂プネウマ","province":"東京都","city":"西東京市","address":"東京都西東京市東伏見5丁目9-6","lat":35.72270787,"lon":139.55857955},{"name":"こどもカフェ「とんのいえ」","province":"東京都","city":"西東京市","address":"東京都西東京市泉町4丁目3-21","lat":35.7429776,"lon":139.5525403},{"name":"ひばりが丘スープキッチン","province":"東京都","city":"西東京市","address":"東京都西東京市ひばりが丘2丁目12-16","lat":35.74814061,"lon":139.54047163},{"name":"こども・地域　あおぞら食堂","province":"東京都","city":"西東京市","address":"東京都西東京市向台町2丁目16-22","lat":35.72039383,"lon":139.53944241},{"name":"子ども食堂「ゆいな」","province":"東京都","city":"西東京市","address":"東京都西東京市南町5丁目1-15","lat":35.72656248,"lon":139.53607573},{"name":"むさとく こども食堂","province":"東京都","city":"西東京市","address":"東京都西東京市向台町6丁目14-2","lat":35.72251827,"lon":139.52545461}]}