{"keyword":"館","data":[{"name":"ひばりが丘児童センター","province":"東京都","city":"西東京市","address":"西東京市ひばりが丘3-1-25","lat":35.746422,"lon":139.53688},{"name":"西原北児童館","province":"東京都","city":"西東京市","address":"西東京市西原町4-5-96","lat":35.73921,"lon":139.53331},{"name":"＊?西東京市中央図書館","province":"東京都","city":"西東京市","address":"西東京市南町5-6-11","lat":35.726018,"lon":139.537789},{"name":"＊?西東京市保谷駅前図書館","province":"東京都","city":"西東京市","address":"西東京市東町3-14-30ステア4階","lat":35.748151,"lon":139.567256},{"name":"＊?西東京市芝久保図書館","province":"東京都","city":"西東京市","address":"西東京市芝久保町5-4-48","lat":35.73269,"lon":139.528134},{"name":"＊?西東京市谷戸図書館","province":"東京都","city":"西東京市","address":"西東京市谷戸町1-17-2","lat":35.741248,"lon":139.54395},{"name":"＊?西東京市柳沢図書館","province":"東京都","city":"西東京市","address":"西東京市柳沢1-15-1","lat":35.728384,"lon":139.553957},{"name":"＊?西東京市ひばりが丘図書館","province":"東京都","city":"西東京市","address":"西東京市ひばりが丘1-2-1","lat":35.751801,"lon":139.54356},{"name":"＊?新町福祉会館図書サービス","province":"東京都","city":"西東京市","address":"西東京市新町5-2-7","lat":35.71296,"lon":139.536402}]}