{"keyword":"役所","data":[{"name":"墨田二丁目出張所","province":"東京都","city":"墨田区","address":"墨田区墨田二丁目36番11号","lat":35.731063,"lon":139.818292},{"name":"港区役所","province":"東京都","city":"港区","address":"港区芝公園一丁目5番25号","lat":35.658203,"lon":139.75163,"URL":"<a href='https://www.city.minato.tokyo.jp/shisetsu/kuyakusho/kuyakusho/01.html' target='_blank'>https://www.city.minato.tokyo.jp/shisetsu/kuyakusho/kuyakusho/01.html</a>","分類":"区役所","地区":"芝地区","連絡先":"電話:03-3578-2111(代表) ファックス:03-3578-2034"},{"name":"芝地区総合支所","province":"東京都","city":"港区","address":"港区芝公園一丁目5番25号","lat":35.658185,"lon":139.751576,"URL":"<a href='https://www.city.minato.tokyo.jp/shisetsu/kuyakusho/shisho/01.html' target='_blank'>https://www.city.minato.tokyo.jp/shisetsu/kuyakusho/shisho/01.html</a>","分類":"総合支所・分室","地区":"芝地区","連絡先":"電話:03-3578-3111(代表) ファックス:03-3578-3235"},{"name":"麻布地区総合支所","province":"東京都","city":"港区","address":"港区六本木五丁目16番45号","lat":35.660657,"lon":139.735091,"URL":"<a href='https://www.city.minato.tokyo.jp/shisetsu/kuyakusho/shisho/02.html' target='_blank'>https://www.city.minato.tokyo.jp/shisetsu/kuyakusho/shisho/02.html</a>","分類":"総合支所・分室","地区":"麻布地区","連絡先":"電話:03-3583-4151(代表) ファックス:03-3583-3782"},{"name":"赤坂地区総合支所","province":"東京都","city":"港区","address":"港区赤坂四丁目18番13号","lat":35.674775,"lon":139.731725,"URL":"<a href='https://www.city.minato.tokyo.jp/shisetsu/kuyakusho/shisho/03.html' target='_blank'>https://www.city.minato.tokyo.jp/shisetsu/kuyakusho/shisho/03.html</a>","分類":"総合支所・分室","地区":"赤坂地区","連絡先":"電話:03-5413-7011(代表) ファックス:03-5413-2019(管理課及び協働推進課) ファックス:03-3402-8192(区民課)"},{"name":"高輪地区総合支所","province":"東京都","city":"港区","address":"港区高輪一丁目16番25号","lat":35.642076,"lon":139.734045,"URL":"<a href='https://www.city.minato.tokyo.jp/shisetsu/kuyakusho/shisho/04.html' target='_blank'>https://www.city.minato.tokyo.jp/shisetsu/kuyakusho/shisho/04.html</a>","分類":"総合支所・分室","地区":"高輪地区","連絡先":"電話:03-5421-7611(代表) ファックス:03-5421-7626"},{"name":"芝浦港南地区総合支所","province":"東京都","city":"港区","address":"港区芝浦一丁目16番1号","lat":35.646408,"lon":139.751501,"URL":"<a href='https://www.city.minato.tokyo.jp/shisetsu/kuyakusho/shisho/05.html' target='_blank'>https://www.city.minato.tokyo.jp/shisetsu/kuyakusho/shisho/05.html</a>","分類":"総合支所・分室","地区":"芝浦港南地区","連絡先":"電話:03-3456-4151(代表) ファックス:03-5445-4590"},{"name":"芝浦港南地区総合支所台場分室","province":"東京都","city":"港区","address":"港区台場一丁目5番1号","lat":35.629723,"lon":139.777312,"URL":"<a href='https://www.city.minato.tokyo.jp/shisetsu/kuyakusho/shisho/06.html' target='_blank'>https://www.city.minato.tokyo.jp/shisetsu/kuyakusho/shisho/06.html</a>","分類":"総合支所・分室","地区":"芝浦港南地区","連絡先":"協働推進課 台場担当 電話:03-5500-2365 区民課 窓口サービス係 電話:03-5500-2351 保健福祉係 電話:03-5500-2352 ファックス:03-5500-2366(各課共通)"}]}