{"keyword":"火葬","data":[{"name":"瑞江葬儀所","province":"東京都","city":"江戸川区","address":"東京都江戸川区春江町3丁目26-1","lat":35.694788,"lon":139.89013556},{"name":"町屋斎場","province":"東京都","city":"荒川区","address":"東京都荒川区町屋1丁目23-4","lat":35.74417616,"lon":139.78429088},{"name":"落合斎場","province":"東京都","city":"新宿区","address":"東京都新宿区上落合3丁目34-12","lat":35.7113901,"lon":139.68113917},{"name":"代々幡斎場","province":"東京都","city":"渋谷区","address":"東京都渋谷区西原2丁目42-1","lat":35.67335551,"lon":139.67732435},{"name":"四ツ木斎場","province":"東京都","city":"葛飾区","address":"東京都葛飾区白鳥2丁目9-1","lat":35.74872634,"lon":139.84334309},{"name":"桐ヶ谷火葬場","province":"東京都","city":"品川区","address":"東京都品川区西五反田5丁目32-20","lat":35.62232046,"lon":139.71367573},{"name":"堀ノ内斎場","province":"東京都","city":"杉並区","address":"東京都杉並区梅里1丁目2-27","lat":35.69562996,"lon":139.65120635},{"name":"戸田葬祭場","province":"東京都","city":"板橋区","address":"東京都板橋区舟渡4丁目15-1","lat":35.79523828,"lon":139.67609464},{"name":"臨海斎場","province":"東京都","city":"大田区","address":"東京都大田区東海1丁目3-1","lat":35.58556795,"lon":139.7528242},{"name":"青梅市火葬場","province":"東京都","city":"青梅市","address":"東京都青梅市長淵5丁目743","lat":35.77277491,"lon":139.26230902},{"name":"瑞穂斎場","province":"東京都","city":"西多摩郡瑞穂町","address":"東京都西多摩郡瑞穂町富士山栗原新田（大字）244","lat":35.78176225,"lon":139.34704573},{"name":"想い出を語るロマンの杜ひので斎場","province":"東京都","city":"西多摩郡日の出町","address":"東京都西多摩郡日の出町平井（大字）3092","lat":35.75204107,"lon":139.25521292},{"name":"八王子市斎場","province":"東京都","city":"八王子市","address":"東京都八王子市山田町1681-2","lat":35.6428166,"lon":139.31698648},{"name":"日野市営火葬場","province":"東京都","city":"日野市","address":"東京都日野市多摩平3丁目28-8","lat":35.66523759,"lon":139.37320031},{"name":"南多摩斎場","province":"東京都","city":"町田市","address":"東京都町田市上小山田町2147","lat":35.59878726,"lon":139.38638231},{"name":"立川・昭島・国立火葬場","province":"東京都","city":"立川市","address":"東京都立川市羽衣町3丁目20-18","lat":35.68886941,"lon":139.42420084},{"name":"日華多磨葬祭場","province":"東京都","city":"府中市","address":"東京都府中市多磨町2丁目1-1","lat":35.681731,"lon":139.51697931},{"name":"府中の森市民聖苑","province":"東京都","city":"府中市","address":"東京都府中市浅間町1丁目3","lat":35.67765858,"lon":139.49128998},{"name":"八丈町火葬場","province":"東京都","city":"八丈町","address":"東京都八丈町三根3481","lat":33.11565702,"lon":139.81339538},{"name":"小笠原村父島火葬場","province":"東京都","city":"小笠原村","address":"東京都小笠原村父島洲崎（字）","lat":27.07007957,"lon":142.19205502},{"name":"小笠原村母島火葬場","province":"東京都","city":"小笠原村","address":"東京都小笠原村母島評議平（字）","lat":26.63510151,"lon":142.16354967},{"name":"式根島火葬場","province":"東京都","city":"新島村","address":"東京都新島村式根島856-3","lat":34.32414059,"lon":139.20735046},{"name":"神津島村火葬場","province":"東京都","city":"神津島村","address":"東京都神津島村金長（字）","lat":34.19009808,"lon":139.13493004},{"name":"大島町火葬場","province":"東京都","city":"大島町","address":"東京都大島町元町黒まま（字）352-3","lat":34.75322759,"lon":139.36510537},{"name":"三宅村火葬場","province":"東京都","city":"三宅村","address":"東京都三宅村阿古548-10","lat":34.07648713,"lon":139.47527503}]}