{"category":"wireless","data":[{"name":"池袋西口駅前付近1","province":"東京都","city":"豊島区","address":"東京都豊島区西池袋1-15-7","lat":35.73049,"lon":139.70964},{"name":"池袋西口駅前付近2","province":"東京都","city":"豊島区","address":"東京都豊島区西池袋1-26-3","lat":35.73155,"lon":139.71007},{"name":"池袋東口駅前付近１","province":"東京都","city":"豊島区","address":"東京都豊島区南池袋1-27-8","lat":35.72952,"lon":139.71291},{"name":"池袋西口駅前付近3","province":"東京都","city":"豊島区","address":"東京都豊島区西池袋1-15-7","lat":35.73049,"lon":139.70964},{"name":"池袋東口駅前付近2","province":"東京都","city":"豊島区","address":"東京都豊島区東池袋1-41-6","lat":35.73172,"lon":139.71304},{"name":"池袋西口二又交番付近1","province":"東京都","city":"豊島区","address":"東京都豊島区池袋2-13-2","lat":35.73195,"lon":139.70729},{"name":"池袋サンシャイン60通り１","province":"東京都","city":"豊島区","address":"東京都豊島区東池袋1-29-4","lat":35.73044,"lon":139.71642},{"name":"池袋グリーン大通り１","province":"東京都","city":"豊島区","address":"東京都豊島区東池袋1-25-3","lat":35.72811,"lon":139.7164},{"name":"南池袋公園1","province":"東京都","city":"豊島区","address":"東京都豊島区南池袋2-21-1","lat":35.7276,"lon":139.71432},{"name":"豊島区本庁舎全フロア","province":"東京都","city":"豊島区","address":"東京都豊島区南池袋2-45-1","lat":35.72607,"lon":139.71666},{"name":"豊島区東池袋分庁舎","province":"東京都","city":"豊島区","address":"東京都豊島区東池袋1-39-2","lat":35.73244,"lon":139.71432},{"name":"豊島区西部区民事務所","province":"東京都","city":"豊島区","address":"東京都豊島区千早2-39-16","lat":35.73556,"lon":139.69102},{"name":"長崎小学校（地域本部）","province":"東京都","city":"豊島区","address":"東京都豊島区長崎2-6-3","lat":35.72841,"lon":139.69022},{"name":"南長崎スポーツセンター","province":"東京都","city":"豊島区","address":"東京都豊島区南長崎4-13-5","lat":35.72449,"lon":139.68369},{"name":"朋有小学校（地域本部）","province":"東京都","city":"豊島区","address":"東京都豊島区東池袋4-40-1","lat":35.72861,"lon":139.7233},{"name":"旧文成小学校","province":"東京都","city":"豊島区","address":"東京都豊島区池袋本町4-36-1","lat":35.74417,"lon":139.71436},{"name":"高南小学校（地域本部）","province":"東京都","city":"豊島区","address":"東京都豊島区高田2-12-7","lat":35.71659,"lon":139.71425},{"name":"椎名町小学校（地域本部）","province":"東京都","city":"豊島区","address":"東京都豊島区南長崎4-30-5","lat":35.72654,"lon":139.68579},{"name":"千早小学校（地域本部）","province":"東京都","city":"豊島区","address":"東京都豊島区千早3-33-5","lat":35.73492,"lon":139.68727},{"name":"高松小学校（地域本部）","province":"東京都","city":"豊島区","address":"東京都豊島区高松2-57-22","lat":35.73938,"lon":139.69722},{"name":"西池袋中学校（地域本部）","province":"東京都","city":"豊島区","address":"東京都豊島区西池袋4-7-1","lat":35.72736,"lon":139.70035},{"name":"池袋第三小学校（新校舎）","province":"東京都","city":"豊島区","address":"東京都豊島区西池袋3-14","lat":35.72832,"lon":139.70285},{"name":"駒込小学校（地域本部）","province":"東京都","city":"豊島区","address":"東京都豊島区駒込3-13-1","lat":35.73823,"lon":139.74313},{"name":"巣鴨小学校（地域本部）","province":"東京都","city":"豊島区","address":"東京都豊島区南大塚1-24-10","lat":35.7284,"lon":139.73468},{"name":"清和小学校（地域本部）","province":"東京都","city":"豊島区","address":"東京都豊島区巣鴨3-14-1","lat":35.73589,"lon":139.73328},{"name":"南池袋小学校（地域本部）","province":"東京都","city":"豊島区","address":"東京都豊島区南池袋3-18-12","lat":35.72404,"lon":139.71481},{"name":"池袋グリーン大通り2","province":"東京都","city":"豊島区","address":"東京都豊島区南池袋2-28-14","lat":35.72831,"lon":139.71475},{"name":"池袋東口駅前付近4","province":"東京都","city":"豊島区","address":"東京都豊島区南池袋1-27-7","lat":35.72952,"lon":139.71291},{"name":"サンシャイン通り1","province":"東京都","city":"豊島区","address":"東京都豊島区東池袋1-14-10","lat":35.73017,"lon":139.7149},{"name":"池袋駅北口付近１","province":"東京都","city":"豊島区","address":"東京都豊島区西池袋1-28-1","lat":35.73145,"lon":139.71075},{"name":"池袋郵便局前交差点付近1","province":"東京都","city":"豊島区","address":"東京都豊島区池袋2-8-1","lat":35.73279,"lon":139.70866},{"name":"南池袋1丁目交差点付近1","province":"東京都","city":"豊島区","address":"東京都豊島区南池袋2-15-3","lat":35.72676,"lon":139.71228},{"name":"乙女ロード１","province":"東京都","city":"豊島区","address":"東京都豊島区東池袋3-2-3","lat":35.73033,"lon":139.71782},{"name":"池袋東口駅前付近3","province":"東京都","city":"豊島区","address":"東京都豊島区東池袋1-42-8","lat":35.73235,"lon":139.71315},{"name":"東武池袋駅南口付近1","province":"東京都","city":"豊島区","address":"東京都豊島区西池袋1-12-1","lat":35.72973,"lon":139.70963},{"name":"としま産業振興プラザ1","province":"東京都","city":"豊島区","address":"東京都豊島区西池袋2-37-4","lat":35.72791,"lon":139.70682},{"name":"としま産業振興プラザ2","province":"東京都","city":"豊島区","address":"東京都豊島区西池袋2-37-4","lat":35.72791,"lon":139.70682},{"name":"巣鴨地蔵通り1","province":"東京都","city":"豊島区","address":"東京都豊島区巣鴨3-20-17","lat":35.73446,"lon":139.73561},{"name":"巣鴨南口駅前付近1","province":"東京都","city":"豊島区","address":"東京都豊島区巣鴨1-12-6","lat":35.73262,"lon":139.73996},{"name":"大塚北口駅前付近1","province":"東京都","city":"豊島区","address":"東京都豊島区北大塚2-1-1","lat":35.73191,"lon":139.72871},{"name":"大塚南口駅前付近1","province":"東京都","city":"豊島区","address":"東京都豊島区南大塚2-45-8","lat":35.73063,"lon":139.72955},{"name":"駒込北口駅前付近1","province":"東京都","city":"豊島区","address":"東京都豊島区駒込3-2-11","lat":35.73664,"lon":139.74628},{"name":"駒込南口駅前付近1","province":"東京都","city":"豊島区","address":"東京都豊島区駒込1-43-13","lat":35.7356,"lon":139.74663},{"name":"目白駅前交差点付近1","province":"東京都","city":"豊島区","address":"東京都豊島区目白2-39-1","lat":35.72157,"lon":139.70738},{"name":"鬼子母神","province":"東京都","city":"豊島区","address":"東京都豊島区雑司が谷3-15-20","lat":35.72192,"lon":139.71371},{"name":"雑司が谷案内処","province":"東京都","city":"豊島区","address":"東京都豊島区雑司が谷3-19-5","lat":35.72155,"lon":139.71494},{"name":"大塚駅北口付近1","province":"東京都","city":"豊島区","address":"東京都豊島区北大塚2-24-7","lat":35.73405,"lon":139.72847},{"name":"大塚南口駅前付近2","province":"東京都","city":"豊島区","address":"東京都豊島区南大塚2-45-8","lat":35.73063,"lon":139.72955},{"name":"椎名町北口駅前付近","province":"東京都","city":"豊島区","address":"東京都豊島区長崎1-1-22","lat":35.72659,"lon":139.6945},{"name":"東長崎北口駅前付近","province":"東京都","city":"豊島区","address":"東京都豊島区長崎4-8-2","lat":35.73083,"lon":139.68361},{"name":"新ホール(11AP)/エントランスホール(2AP)","province":"東京都","city":"豊島区","address":"東京都豊島区東池袋1-18-1","lat":35.73241,"lon":139.71548},{"name":"としま区民センター(9AP)","province":"東京都","city":"豊島区","address":"東京都豊島区東池袋1-20-10","lat":35.73116,"lon":139.7157},{"name":"豊島区東部区民事務所","province":"東京都","city":"豊島区","address":"東京都豊島区北大塚1-15-10","lat":35.73128,"lon":139.73157},{"name":"南長崎花咲公園（トキワ荘マンガミュージアム）","province":"東京都","city":"豊島区","address":"東京都豊島区南長崎3-9-22","lat":35.7243,"lon":139.68665},{"name":"南長崎花咲公園（駐車場）","province":"東京都","city":"豊島区","address":"東京都豊島区南長崎4-12-22","lat":35.7249,"lon":139.68509},{"name":"雑司が谷公園丘の上テラス(2AP)","province":"東京都","city":"豊島区","address":"東京都豊島区雑司が谷2-12-1","lat":35.71929,"lon":139.71667},{"name":"としまみどりの防災公園（2AP）","province":"東京都","city":"豊島区","address":"東京都豊島区東池袋4-42-16","lat":35.72778,"lon":139.72185},{"name":"大塚北口駅前付近2","province":"東京都","city":"豊島区","address":"東京都豊島区北大塚2-1-1","lat":35.73191,"lon":139.72871},{"name":"東京都立大塚病院","province":"東京都","city":"豊島区","address":"東京都豊島区南大塚2丁目8-1","lat":35.72526774,"lon":139.73230087},{"name":"区立西池袋公園","province":"東京都","city":"豊島区","address":"東京都豊島区西池袋3丁目20-1","lat":35.73053587,"lon":139.70552793},{"name":"都立文京高等学校","province":"東京都","city":"豊島区","address":"東京都豊島区西巣鴨1丁目1-5","lat":35.7358553,"lon":139.72898683},{"name":"都立大塚病院","province":"東京都","city":"豊島区","address":"東京都豊島区南大塚2丁目8-1","lat":35.72526774,"lon":139.73230087},{"name":"東京芸術劇場","province":"東京都","city":"豊島区","address":"東京都豊島区西池袋1丁目8-1","lat":35.72964715,"lon":139.70794721},{"name":"労働相談情報センター池袋事務所","province":"東京都","city":"豊島区","address":"東京都豊島区東池袋4丁目23-9","lat":35.72830311,"lon":139.71778254},{"name":"豊島市場","province":"東京都","city":"豊島区","address":"東京都豊島区巣鴨5丁目1-5","lat":35.73803576,"lon":139.73552231},{"name":"豊島高等学校","province":"東京都","city":"豊島区","address":"東京都豊島区千早4丁目9-21","lat":35.73865652,"lon":139.68286562},{"name":"文京高等学校","province":"東京都","city":"豊島区","address":"東京都豊島区西巣鴨1丁目1-5","lat":35.7358553,"lon":139.72898683},{"name":"千早高等学校","province":"東京都","city":"豊島区","address":"東京都豊島区千早3丁目46-21","lat":35.73628187,"lon":139.68532385},{"name":"池袋都民防災教育センター","province":"東京都","city":"豊島区","address":"東京都豊島区西池袋2丁目37-8","lat":35.72796675,"lon":139.70688903},{"name":"にしすがも創造舎（旧朝日中）","province":"東京都","city":"豊島区","address":"東京都豊島区西巣鴨4丁目9-1","lat":35.74388772,"lon":139.73004475},{"name":"豊島区立千登世橋中学校","province":"東京都","city":"豊島区","address":"東京都豊島区目白1丁目1-1","lat":35.7172653,"lon":139.7118946}]}