{"keyword":"センター","data":[{"name":"区民ひろば南池袋","province":"東京都","city":"豊島区","address":"豊島区南池袋3-5-12","lat":35.723434,"lon":139.714014},{"name":"区民ひろば西巣鴨第一","province":"東京都","city":"豊島区","address":"豊島区西巣鴨2-35-3","lat":35.740399,"lon":139.727815},{"name":"区民ひろば清和第一","province":"東京都","city":"豊島区","address":"豊島区巣鴨3-15-20","lat":35.735639,"lon":139.733767},{"name":"区民ひろば駒込","province":"東京都","city":"豊島区","address":"豊島区駒込2-2-4","lat":35.73705,"lon":139.747491},{"name":"区民ひろば南大塚","province":"東京都","city":"豊島区","address":"豊島区南大塚2-36-1","lat":35.729228,"lon":139.729823},{"name":"区民ひろば池袋本町","province":"東京都","city":"豊島区","address":"豊島区池袋本町3-9-4","lat":35.743612,"lon":139.712743},{"name":"区民ひろば上池袋","province":"東京都","city":"豊島区","address":"豊島区上池袋3-13-5","lat":35.739985,"lon":139.716665},{"name":"区民ひろば朋有","province":"東京都","city":"豊島区","address":"豊島区東池袋2-38-10","lat":35.731925,"lon":139.721529},{"name":"区民ひろば池袋","province":"東京都","city":"豊島区","address":"豊島区池袋4-21-10","lat":35.738446,"lon":139.708758},{"name":"区民ひろば西池袋","province":"東京都","city":"豊島区","address":"豊島区西池袋2-37-4としま産業振興プラザ2階","lat":35.727725,"lon":139.706781},{"name":"区民ひろば高南第一","province":"東京都","city":"豊島区","address":"豊島区高田2-11-2","lat":35.715682,"lon":139.71455},{"name":"区民ひろば高松","province":"東京都","city":"豊島区","address":"豊島区高松2-25-9","lat":35.738696,"lon":139.697562},{"name":"区民ひろば千早","province":"東京都","city":"豊島区","address":"豊島区要町3-7-10","lat":35.737157,"lon":139.687318},{"name":"区民ひろば長崎","province":"東京都","city":"豊島区","address":"豊島区長崎2-27-18","lat":35.729594,"lon":139.693087},{"name":"区民ひろば富士見台","province":"東京都","city":"豊島区","address":"豊島区南長崎1-6-1","lat":35.723911,"lon":139.691654},{"name":"区民ひろばさくら第一","province":"東京都","city":"豊島区","address":"豊島区南長崎6-20-15","lat":35.729699,"lon":139.681022}]}