{"keyword":"保育","data":[{"name":"豊島区立西巣鴨第三保育園","province":"東京都","city":"豊島区","address":"豊島区西巣鴨1-2-14","lat":35.736389,"lon":139.726445},{"name":"西巣鴨さくらそう保育園","province":"東京都","city":"豊島区","address":"豊島区西巣鴨1-1-13","lat":35.735608,"lon":139.729456},{"name":"西巣鴨・学びの保育園","province":"東京都","city":"豊島区","address":"豊島区西巣鴨4-13-5朝日シティパリオ西巣鴨2階","lat":35.744335,"lon":139.728609},{"name":"グローバルキッズ西巣鴨園","province":"東京都","city":"豊島区","address":"豊島区西巣鴨4-20-4ヴェルテラスすずき1階","lat":35.744482,"lon":139.730259},{"name":"おはよう保育園　西巣鴨","province":"東京都","city":"豊島区","address":"豊島区西巣鴨1-22-8","lat":35.736583,"lon":139.726506},{"name":"豊島区立巣鴨第一保育園","province":"東京都","city":"豊島区","address":"豊島区巣鴨3-15-20","lat":35.735639,"lon":139.733767},{"name":"太陽の子巣鴨駅前保育園","province":"東京都","city":"豊島区","address":"豊島区巣鴨1-14-8中野ビル2、3F","lat":35.733234,"lon":139.740908},{"name":"うぃず巣鴨駅前保育園","province":"東京都","city":"豊島区","address":"豊島区巣鴨3-23-12","lat":35.733686,"lon":139.736861},{"name":"豊島区立駒込第一保育園","province":"東京都","city":"豊島区","address":"豊島区駒込7-7-22","lat":35.740766,"lon":139.739019},{"name":"豊島区立駒込第二保育園","province":"東京都","city":"豊島区","address":"豊島区駒込5-1-3","lat":35.735956,"lon":139.738008},{"name":"豊島区立駒込第三保育園","province":"東京都","city":"豊島区","address":"豊島区駒込2-2-3","lat":35.737353,"lon":139.747835},{"name":"コンビプラザ駒込ちどり保育園","province":"東京都","city":"豊島区","address":"豊島区駒込3-3-19東京千鳥屋ビル2、3階","lat":35.737433,"lon":139.745838},{"name":"こまごめさくらさくほいくえん","province":"東京都","city":"豊島区","address":"豊島区駒込3-21-4","lat":35.738211,"lon":139.74518},{"name":"日生駒込駅前保育園ひびき","province":"東京都","city":"豊島区","address":"豊島区駒込1-28-16本澤ビル2階・3階","lat":35.736809,"lon":139.749193},{"name":"アンソレイユ保育園","province":"東京都","city":"豊島区","address":"豊島区北大塚3-12-12","lat":35.734266,"lon":139.72271},{"name":"東進ポップキッズ　大塚キャンパス","province":"東京都","city":"豊島区","address":"豊島区北大塚3-31-3","lat":35.735314,"lon":139.725437},{"name":"豊島区立南大塚保育園","province":"東京都","city":"豊島区","address":"豊島区南大塚2-36-3","lat":35.729039,"lon":139.729934},{"name":"若草保育園","province":"東京都","city":"豊島区","address":"豊島区南大塚1-10-3","lat":35.727909,"lon":139.736509},{"name":"大塚りとるぱんぷきんず","province":"東京都","city":"豊島区","address":"豊島区南大塚3-33-1JR大塚南口ビル5F","lat":35.731589,"lon":139.728543},{"name":"キッズガーデン南大塚","province":"東京都","city":"豊島区","address":"豊島区南大塚5-20-6大塚FTビル3階","lat":35.726159,"lon":139.733492},{"name":"大空と大地のなーさりぃ南大塚園","province":"東京都","city":"豊島区","address":"豊島区南大塚2-26-15南大塚ビル2階","lat":35.728209,"lon":139.729759},{"name":"豊島区立池袋第二保育園","province":"東京都","city":"豊島区","address":"豊島区池袋本町3-4-5","lat":35.742518,"lon":139.712302},{"name":"みのり保育園","province":"東京都","city":"豊島区","address":"豊島区池袋本町3-29-9","lat":35.744982,"lon":139.712113},{"name":"めぐみ保育園","province":"東京都","city":"豊島区","address":"豊島区池袋本町4-1-14","lat":35.742202,"lon":139.716535},{"name":"グローバルキッズ北池袋園","province":"東京都","city":"豊島区","address":"豊島区池袋本町1-26-5","lat":35.739621,"lon":139.713088},{"name":"太陽の子　池袋本町保育園","province":"東京都","city":"豊島区","address":"豊島区池袋本町1-31-2","lat":35.738419,"lon":139.715299},{"name":"アスク池袋本町保育園","province":"東京都","city":"豊島区","address":"豊島区池袋本町3-34-17","lat":35.745368,"lon":139.710455},{"name":"豊島区立池袋第一保育園","province":"東京都","city":"豊島区","address":"豊島区上池袋3-39-11","lat":35.739188,"lon":139.720635},{"name":"豊島区立東池袋第一保育園","province":"東京都","city":"豊島区","address":"豊島区東池袋2-60-19","lat":35.733486,"lon":139.717763},{"name":"豊島区立東池袋第二保育園","province":"東京都","city":"豊島区","address":"豊島区東池袋2-34-1(施設改修に伴い平成31年3月まで仮移転:豊島区南大塚3-27-1大塚台公園内)","lat":35.732492,"lon":139.722854},{"name":"あい・あい保育園　東池袋園","province":"東京都","city":"豊島区","address":"豊島区東池袋3-22-17東池袋セントラルプレイス1階","lat":35.731008,"lon":139.720907},{"name":"まちの保育園　東池袋","province":"東京都","city":"豊島区","address":"豊島区東池袋2-6-2ロイヤルアネックス1階","lat":35.729889,"lon":139.723979},{"name":"いけぶくろこころ保育園","province":"東京都","city":"豊島区","address":"豊島区池袋1-13-18イマス池袋ビル3階","lat":35.737108,"lon":139.713383},{"name":"豊島区立池袋第三保育園","province":"東京都","city":"豊島区","address":"豊島区池袋3-58-15","lat":35.735371,"lon":139.707697},{"name":"豊島区立池袋第五保育園","province":"東京都","city":"豊島区","address":"豊島区池袋3-26-22","lat":35.734297,"lon":139.705153},{"name":"わくわく保育園","province":"東京都","city":"豊島区","address":"豊島区池袋4-10-2","lat":35.738329,"lon":139.70743},{"name":"豊島区立西池袋第二保育園","province":"東京都","city":"豊島区","address":"豊島区西池袋4-22-18","lat":35.729227,"lon":139.698873},{"name":"西池袋そらいろ保育園","province":"東京都","city":"豊島区","address":"豊島区西池袋2-25-20","lat":35.726189,"lon":139.708533},{"name":"グローバルキッズ西池袋園","province":"東京都","city":"豊島区","address":"豊島区西池袋2-19-5ラクレーシュ目白","lat":35.725753,"lon":139.706634},{"name":"グローバルキッズ池袋駅前保育園","province":"東京都","city":"豊島区","address":"豊島区西池袋1-17-1東京都豊島合同庁舎1階","lat":35.730908,"lon":139.708386},{"name":"同援さくら保育園","province":"東京都","city":"豊島区","address":"豊島区南池袋3-7-8","lat":35.723498,"lon":139.712358},{"name":"グローバルキッズ東池袋園","province":"東京都","city":"豊島区","address":"豊島区南池袋2-45-3としまエコミューゼタウン2階","lat":35.726212,"lon":139.716516},{"name":"豊島区立目白第一保育園","province":"東京都","city":"豊島区","address":"豊島区目白5-18-2","lat":35.723695,"lon":139.695626},{"name":"豊島区立目白第二保育園","province":"東京都","city":"豊島区","address":"豊島区目白2-23-9","lat":35.723131,"lon":139.709403},{"name":"グローバルキッズ椎名町園","province":"東京都","city":"豊島区","address":"豊島区目白5-18-23","lat":35.723778,"lon":139.696235},{"name":"グローバルキッズ雑司が谷園","province":"東京都","city":"豊島区","address":"豊島区雑司が谷3-8-5","lat":35.721479,"lon":139.712908},{"name":"雑司が谷保育園","province":"東京都","city":"豊島区","address":"豊島区雑司ヶ谷1-22-5","lat":35.721243,"lon":139.719544},{"name":"豊島区立高南保育園","province":"東京都","city":"豊島区","address":"豊島区高田1-24-14","lat":35.715199,"lon":139.716639},{"name":"目白ちとせ保育園","province":"東京都","city":"豊島区","address":"豊島区高田3-36-11","lat":35.716338,"lon":139.709817},{"name":"ＳＡＫＵＲＡ保育園千川","province":"東京都","city":"豊島区","address":"豊島区千川2-30-2","lat":35.741687,"lon":139.691693},{"name":"豊島区立高松第二保育園","province":"東京都","city":"豊島区","address":"豊島区高松1-7-13","lat":35.736152,"lon":139.698776},{"name":"豊島区立要町保育園","province":"東京都","city":"豊島区","address":"豊島区要町3-17-11","lat":35.737412,"lon":139.686543},{"name":"せんかわみんなの家","province":"東京都","city":"豊島区","address":"豊島区要町3-54-8","lat":35.740412,"lon":139.68894},{"name":"あい・あい保育園　要町園","province":"東京都","city":"豊島区","address":"豊島区要町1-8-112階","lat":35.733891,"lon":139.694984},{"name":"太陽の子　要町保育園","province":"東京都","city":"豊島区","address":"豊島区要町1-9-1彌栄ビルI3階","lat":35.733738,"lon":139.698259},{"name":"キッズガーデン要町","province":"東京都","city":"豊島区","address":"豊島区要町1-25-7","lat":35.734971,"lon":139.69527},{"name":"アスクかなめ町保育園","province":"東京都","city":"豊島区","address":"豊島区要町3-22-10星野館ビル1階","lat":35.738729,"lon":139.688335},{"name":"しいの実保育園","province":"東京都","city":"豊島区","address":"豊島区千早1-31-5","lat":35.732649,"lon":139.693832},{"name":"千早子どもの家保育園","province":"東京都","city":"豊島区","address":"豊島区千早3-37-14","lat":35.735082,"lon":139.686415},{"name":"にじいろ保育園千早","province":"東京都","city":"豊島区","address":"豊島区千早1-6-7","lat":35.730722,"lon":139.69424},{"name":"グローバルキッズ千早園","province":"東京都","city":"豊島区","address":"豊島区千早3-45-11","lat":35.737057,"lon":139.687015},{"name":"豊島区立長崎保育園","province":"東京都","city":"豊島区","address":"豊島区長崎3-7-7","lat":35.728877,"lon":139.688757},{"name":"愛の家保育園","province":"東京都","city":"豊島区","address":"豊島区長崎4-11-3","lat":35.730146,"lon":139.684424},{"name":"アスク長崎一丁目保育園","province":"東京都","city":"豊島区","address":"豊島区長崎1-19-14","lat":35.729461,"lon":139.694123},{"name":"椎名町ちとせ保育園","province":"東京都","city":"豊島区","address":"豊島区長崎1-1-14","lat":35.726816,"lon":139.693687},{"name":"ゆらりん椎名町保育園","province":"東京都","city":"豊島区","address":"豊島区長崎1-10-8ネクストワン椎名町1階","lat":35.727994,"lon":139.696404},{"name":"豊島区立南長崎第一保育園","province":"東京都","city":"豊島区","address":"豊島区南長崎5-23-7","lat":35.730021,"lon":139.681813},{"name":"豊島区立南長崎第二保育園","province":"東京都","city":"豊島区","address":"豊島区南長崎2-3-21","lat":35.723753,"lon":139.689241},{"name":"椎名町ひまわり保育園","province":"東京都","city":"豊島区","address":"豊島区南長崎3-35-8","lat":35.727155,"lon":139.689279},{"name":"グローバルキッズ東長崎園","province":"東京都","city":"豊島区","address":"豊島区南長崎4-44-4","lat":35.727997,"lon":139.686602},{"name":"まなびの森保育園東長崎","province":"東京都","city":"豊島区","address":"豊島区南長崎5-20-17","lat":35.728785,"lon":139.681486},{"name":"おはよう保育園　椎名町","province":"東京都","city":"豊島区","address":"豊島区南長崎2-3-7","lat":35.723972,"lon":139.689202},{"name":"にじいろ保育園落合南長崎","province":"東京都","city":"豊島区","address":"豊島区南長崎4-18-4","lat":35.7257,"lon":139.684013}]}