{"keyword":"公共","data":[{"name":"東京芸術劇場","province":"東京都","city":"豊島区","address":"東京都豊島区西池袋1-8-1","lat":35.729842,"lon":139.708075},{"name":"豊島区本庁舎","province":"東京都","city":"豊島区","address":"東京都豊島区南池袋2-45-1","lat":35.72607,"lon":139.71666},{"name":"豊島区役所東池袋分庁舎（生活福祉課事務室分）","province":"東京都","city":"豊島区","address":"東京都豊島区東池袋1-39-2","lat":35.73244,"lon":139.71432},{"name":"豊島区役所東池袋分庁舎（福祉総務課事務室分）","province":"東京都","city":"豊島区","address":"東京都豊島区東池袋1-39-2","lat":35.73244,"lon":139.71432},{"name":"東部区民事務所","province":"東京都","city":"豊島区","address":"東京都豊島区北大塚1-15-10","lat":35.73128,"lon":139.73157},{"name":"西部区民事務所","province":"東京都","city":"豊島区","address":"東京都豊島区千早2-39-16","lat":35.73556,"lon":139.69102},{"name":"西部障害支援センター","province":"東京都","city":"豊島区","address":"東京都豊島区千早2-39-16","lat":35.73556,"lon":139.69102},{"name":"池袋保健所","province":"東京都","city":"豊島区","address":"東京都豊島区東池袋4-42-16","lat":35.72778,"lon":139.72185},{"name":"池袋三丁目物品保管室","province":"東京都","city":"豊島区","address":"東京都豊島区池袋3-30-22","lat":35.73549,"lon":139.70486},{"name":"池袋本町倉庫","province":"東京都","city":"豊島区","address":"東京都豊島区池袋本町1-40-7","lat":35.74013,"lon":139.71548},{"name":"雑司が谷倉庫","province":"東京都","city":"豊島区","address":"東京都豊島区雑司が谷1-34-5","lat":35.72028,"lon":139.72218},{"name":"高田倉庫","province":"東京都","city":"豊島区","address":"東京都豊島区高田2-11-2","lat":35.71572,"lon":139.71443},{"name":"旧真和中学校倉庫","province":"東京都","city":"豊島区","address":"東京都豊島区目白5-24-12","lat":35.72531,"lon":139.69717},{"name":"ほほえみクラブ室","province":"東京都","city":"豊島区","address":"東京都豊島区池袋本町1-6-12","lat":35.73747,"lon":139.71396},{"name":"地域文化財資料調査室","province":"東京都","city":"豊島区","address":"東京都豊島区西池袋2-30-15","lat":35.72734,"lon":139.70688},{"name":"文化デザイン課分室","province":"東京都","city":"豊島区","address":"東京都豊島区目白5-24-12","lat":35.72531,"lon":139.69717},{"name":"区民活動推進課分室","province":"東京都","city":"豊島区","address":"東京都豊島区南大塚2-36-1から2","lat":35.72909,"lon":139.72986},{"name":"生活産業課分室","province":"東京都","city":"豊島区","address":"東京都豊島区北大塚1-15-10","lat":35.73128,"lon":139.73157},{"name":"更生保護サポートセンター","province":"東京都","city":"豊島区","address":"東京都豊島区東池袋1-39-2","lat":35.73244,"lon":139.71432},{"name":"道路工事事務所","province":"東京都","city":"豊島区","address":"東京都豊島区上池袋3-17-1","lat":35.74092,"lon":139.71802},{"name":"豊島清掃事務所","province":"東京都","city":"豊島区","address":"東京都豊島区池袋本町1-7-3","lat":35.73812,"lon":139.71272},{"name":"公園管理事務所","province":"東京都","city":"豊島区","address":"東京都豊島区千早2-1-14","lat":35.73116,"lon":139.69292},{"name":"西部生活福祉課事務所","province":"東京都","city":"豊島区","address":"東京都豊島区目白5-24-12","lat":35.72531,"lon":139.69717},{"name":"シルバー人材センター","province":"東京都","city":"豊島区","address":"東京都豊島区東池袋2-55-6","lat":35.73351,"lon":139.71875},{"name":"男女平等推進センター","province":"東京都","city":"豊島区","address":"東京都豊島区西池袋2-37-4","lat":35.72791,"lon":139.70682},{"name":"区民ひろば仰高","province":"東京都","city":"豊島区","address":"東京都豊島区駒込4-12-3","lat":35.73732,"lon":139.74059},{"name":"区民ひろば清和第二","province":"東京都","city":"豊島区","address":"東京都豊島区巣鴨3-13-12","lat":35.73504,"lon":139.73199},{"name":"区民ひろば朝日","province":"東京都","city":"豊島区","address":"東京都豊島区巣鴨5-33-21","lat":35.74098,"lon":139.73323},{"name":"区民ひろば西巣鴨第二","province":"東京都","city":"豊島区","address":"東京都豊島区西巣鴨2-14-11","lat":35.73853,"lon":139.7276},{"name":"区民ひろば豊成","province":"東京都","city":"豊島区","address":"東京都豊島区上池袋1-28-7","lat":35.73697,"lon":139.72165},{"name":"区民ひろば池袋","province":"東京都","city":"豊島区","address":"東京都豊島区池袋3-30-22","lat":35.73549,"lon":139.70486},{"name":"区民ひろば高南第二","province":"東京都","city":"豊島区","address":"東京都豊島区高田3-38-7","lat":35.71617,"lon":139.71097},{"name":"区民ひろば目白","province":"東京都","city":"豊島区","address":"東京都豊島区目白2-20-26","lat":35.72238,"lon":139.70963},{"name":"区民ひろば椎名町","province":"東京都","city":"豊島区","address":"東京都豊島区南長崎4-12-7","lat":35.7249,"lon":139.68509},{"name":"区民ひろばさくら第二","province":"東京都","city":"豊島区","address":"東京都豊島区長崎6-37-11","lat":35.73645,"lon":139.68274},{"name":"区民ひろば要","province":"東京都","city":"豊島区","address":"東京都豊島区要町1-7-8","lat":35.73347,"lon":139.69513},{"name":"地域活動交流センター","province":"東京都","city":"豊島区","address":"東京都豊島区西池袋2-37-4","lat":35.72791,"lon":139.70682},{"name":"南池袋斎場","province":"東京都","city":"豊島区","address":"東京都豊島区南池袋4-25-2","lat":35.72343,"lon":139.71964},{"name":"巣鴨第一区民集会室","province":"東京都","city":"豊島区","address":"東京都豊島区巣鴨3-13-12","lat":35.73504,"lon":139.73199},{"name":"西巣鴨区民集会室","province":"東京都","city":"豊島区","address":"東京都豊島区西巣鴨2-35-3","lat":35.74051,"lon":139.72804},{"name":"北大塚区民集会室","province":"東京都","city":"豊島区","address":"東京都豊島区北大塚3-29-11","lat":35.73579,"lon":139.72534},{"name":"上池袋コミュニティセンター","province":"東京都","city":"豊島区","address":"東京都豊島区上池袋2-5-1","lat":35.7348,"lon":139.71475},{"name":"上池袋第二区民集会室","province":"東京都","city":"豊島区","address":"東京都豊島区上池袋3-13-5","lat":35.73996,"lon":139.71698},{"name":"上池袋第一区民集会室","province":"東京都","city":"豊島区","address":"東京都豊島区上池袋1-28-7","lat":35.73697,"lon":139.72165},{"name":"東池袋第二区民集会室","province":"東京都","city":"豊島区","address":"東京都豊島区東池袋2-38-10","lat":35.73165,"lon":139.72156},{"name":"西池袋第二区民集会室","province":"東京都","city":"豊島区","address":"東京都豊島区西池袋3-8-20","lat":35.72753,"lon":139.70329},{"name":"池袋第三区民集会室","province":"東京都","city":"豊島区","address":"東京都豊島区池袋3-29-10","lat":35.7357,"lon":139.70578},{"name":"池袋本町第二区民集会室","province":"東京都","city":"豊島区","address":"東京都豊島区池袋本町1-40-7","lat":35.74013,"lon":139.71548},{"name":"池袋本町第一区民集会室","province":"東京都","city":"豊島区","address":"東京都豊島区池袋本町3-9-4","lat":35.7436,"lon":139.71271},{"name":"雑司が谷区民集会室","province":"東京都","city":"豊島区","address":"東京都豊島区雑司が谷1-22-5","lat":35.72115,"lon":139.71953},{"name":"高田第一区民集会室","province":"東京都","city":"豊島区","address":"東京都豊島区高田2-11-2","lat":35.71572,"lon":139.71443},{"name":"高田第二区民集会室","province":"東京都","city":"豊島区","address":"東京都豊島区高田3-18-3","lat":35.71515,"lon":139.70723},{"name":"目白第一区民集会室","province":"東京都","city":"豊島区","address":"東京都豊島区目白4-31-8","lat":35.72601,"lon":139.69933},{"name":"南長崎第一区民集会室","province":"東京都","city":"豊島区","address":"東京都豊島区南長崎1-6-1","lat":35.72409,"lon":139.69156},{"name":"南長崎第二区民集会室","province":"東京都","city":"豊島区","address":"東京都豊島区南長崎6-20-15","lat":35.73013,"lon":139.68062},{"name":"長崎第五区民集会室","province":"東京都","city":"豊島区","address":"東京都豊島区長崎5-29-4","lat":35.73426,"lon":139.68391},{"name":"長崎第四区民集会室","province":"東京都","city":"豊島区","address":"東京都豊島区長崎6-34-10","lat":35.73537,"lon":139.68257},{"name":"長崎第三区民集会室","province":"東京都","city":"豊島区","address":"東京都豊島区長崎2-27-18","lat":35.72959,"lon":139.69295},{"name":"要町第二区民集会室","province":"東京都","city":"豊島区","address":"東京都豊島区要町3-7-10","lat":35.73709,"lon":139.68773},{"name":"高松区民集会室","province":"東京都","city":"豊島区","address":"東京都豊島区高松2-25-9","lat":35.73862,"lon":139.69783},{"name":"千川区民集会室","province":"東京都","city":"豊島区","address":"東京都豊島区千川2-9-10","lat":35.74112,"lon":139.69171},{"name":"巣鴨第三区民集会室","province":"東京都","city":"豊島区","address":"東京都豊島区巣鴨1-44-3","lat":35.73035,"lon":139.73676},{"name":"東池袋第四区民集会室","province":"東京都","city":"豊島区","address":"東京都豊島区東池袋4-32-15","lat":35.72641,"lon":139.7218},{"name":"目白第二区民集会室","province":"東京都","city":"豊島区","address":"東京都豊島区目白3-4-3","lat":35.72173,"lon":139.70589},{"name":"ふるさと千川館","province":"東京都","city":"豊島区","address":"東京都豊島区要町3-55-18","lat":35.74031,"lon":139.68839},{"name":"高齢者在宅サービスセンター長崎第二豊寿園","province":"東京都","city":"豊島区","address":"東京都豊島区長崎6-34-10","lat":35.73537,"lon":139.68257},{"name":"高齢者在宅サービスセンター千川豊寿園","province":"東京都","city":"豊島区","address":"東京都豊島区千川2-9-10","lat":35.74112,"lon":139.69171},{"name":"心身障害者福祉センター","province":"東京都","city":"豊島区","address":"東京都豊島区目白5-18-8","lat":35.72381,"lon":139.69547},{"name":"駒込生活実習所","province":"東京都","city":"豊島区","address":"東京都豊島区駒込4-7-1","lat":35.73521,"lon":139.74182},{"name":"駒込福祉作業所","province":"東京都","city":"豊島区","address":"東京都豊島区駒込4-7-1","lat":35.73521,"lon":139.74182},{"name":"目白生活実習所","province":"東京都","city":"豊島区","address":"東京都豊島区目白5-18-8","lat":35.72381,"lon":139.69547},{"name":"目白福祉作業所","province":"東京都","city":"豊島区","address":"東京都豊島区目白5-18-8","lat":35.72381,"lon":139.69547},{"name":"駒込福祉作業所分室","province":"東京都","city":"豊島区","address":"東京都豊島区池袋本町1-6-12","lat":35.73747,"lon":139.71396},{"name":"目白生活実習所分室","province":"東京都","city":"豊島区","address":"東京都豊島区上池袋2-5-1","lat":35.7348,"lon":139.71475},{"name":"福祉ホームさくらんぼ","province":"東京都","city":"豊島区","address":"東京都豊島区西池袋3-8-20","lat":35.72753,"lon":139.70329},{"name":"高田介護予防センター","province":"東京都","city":"豊島区","address":"東京都豊島区高田3-38-7","lat":35.71617,"lon":139.71097},{"name":"東池袋フレイル対策センター","province":"東京都","city":"豊島区","address":"東京都豊島区東池袋2-38-10","lat":35.73165,"lon":139.72156},{"name":"中央高齢者総合相談センター","province":"東京都","city":"豊島区","address":"東京都豊島区東池袋1-39-2","lat":35.73244,"lon":139.71432},{"name":"いけよんの郷高齢者総合相談センター","province":"東京都","city":"豊島区","address":"東京都豊島区池袋本町1-29-12","lat":35.73973,"lon":139.71463},{"name":"アトリエ村高齢者総合相談センター","province":"東京都","city":"豊島区","address":"東京都豊島区長崎4-23-1","lat":35.73022,"lon":139.68628},{"name":"豊島区医師会高齢者総合相談センター","province":"東京都","city":"豊島区","address":"東京都豊島区西池袋3-22-16","lat":35.73023,"lon":139.70639},{"name":"菊かおる園高齢者総合相談センター","province":"東京都","city":"豊島区","address":"東京都豊島区西巣鴨2-30-19","lat":35.73919,"lon":139.72845},{"name":"ふくろうの杜高齢者総合相談センター","province":"東京都","city":"豊島区","address":"東京都豊島区南池袋3-7-8","lat":35.72355,"lon":139.71231},{"name":"東部高齢者総合相談センター","province":"東京都","city":"豊島区","address":"東京都豊島区南大塚2-36-2","lat":35.72909,"lon":139.72986},{"name":"西部高齢者総合相談センター","province":"東京都","city":"豊島区","address":"東京都豊島区千早2-39-16","lat":35.73556,"lon":139.69102},{"name":"長崎休日診療所","province":"東京都","city":"豊島区","address":"東京都豊島区長崎2-27-18","lat":35.72959,"lon":139.69295},{"name":"池袋休日診療所","province":"東京都","city":"豊島区","address":"東京都豊島区東池袋4-42-16","lat":35.72778,"lon":139.72185},{"name":"口腔保健センター","province":"東京都","city":"豊島区","address":"東京都豊島区東池袋4-42-16","lat":35.72778,"lon":139.72185},{"name":"池袋あうる薬局","province":"東京都","city":"豊島区","address":"東京都豊島区東池袋4-42-16","lat":35.72778,"lon":139.72185},{"name":"豊島健康診査センター","province":"東京都","city":"豊島区","address":"東京都豊島区上池袋2-5-1","lat":35.7348,"lon":139.71475},{"name":"子どもスキップ駒込","province":"東京都","city":"豊島区","address":"東京都豊島区駒込3-13-1","lat":35.73823,"lon":139.74313},{"name":"子どもスキップ仰高","province":"東京都","city":"豊島区","address":"東京都豊島区駒込5-1-19","lat":35.7362,"lon":139.73834},{"name":"子どもスキップ朝日","province":"東京都","city":"豊島区","address":"東京都豊島区巣鴨5-33-1","lat":35.74098,"lon":139.73323},{"name":"子どもスキップ清和","province":"東京都","city":"豊島区","address":"東京都豊島区巣鴨3-13-12","lat":35.73504,"lon":139.73199},{"name":"子どもスキップ西巣鴨","province":"東京都","city":"豊島区","address":"東京都豊島区西巣鴨2-14-11","lat":35.73853,"lon":139.7276},{"name":"子どもスキップ巣鴨","province":"東京都","city":"豊島区","address":"東京都豊島区南大塚1-24-10","lat":35.7284,"lon":139.73468},{"name":"子どもスキップ池袋第一","province":"東京都","city":"豊島区","address":"東京都豊島区池袋本町4-36-1","lat":35.74417,"lon":139.71436},{"name":"子どもスキップ豊成","province":"東京都","city":"豊島区","address":"東京都豊島区上池袋1-18-24","lat":35.73488,"lon":139.72195},{"name":"子どもスキップ朋有","province":"東京都","city":"豊島区","address":"東京都豊島区東池袋4-40-1","lat":35.72861,"lon":139.7233},{"name":"子どもスキップ南池袋","province":"東京都","city":"豊島区","address":"東京都豊島区南池袋3-5-12","lat":35.72336,"lon":139.71379},{"name":"子どもスキップ池袋第三","province":"東京都","city":"豊島区","address":"東京都豊島区西池袋3-14-3","lat":35.72832,"lon":139.70285},{"name":"子どもスキップ池袋","province":"東京都","city":"豊島区","address":"東京都豊島区池袋4-23-8","lat":35.73771,"lon":139.70958},{"name":"子どもスキップ高南","province":"東京都","city":"豊島区","address":"東京都豊島区高田2-12-7","lat":35.71659,"lon":139.71425},{"name":"子どもスキップ目白","province":"東京都","city":"豊島区","address":"東京都豊島区目白2-11-6","lat":35.72074,"lon":139.70944},{"name":"子どもスキップ椎名町","province":"東京都","city":"豊島区","address":"東京都豊島区南長崎4-30-5","lat":35.72654,"lon":139.68579},{"name":"子どもスキップ富士見台","province":"東京都","city":"豊島区","address":"東京都豊島区南長崎1-10-5","lat":35.72458,"lon":139.69295},{"name":"子どもスキップ長崎","province":"東京都","city":"豊島区","address":"東京都豊島区長崎2-6-3","lat":35.72841,"lon":139.69022},{"name":"子どもスキップさくら","province":"東京都","city":"豊島区","address":"東京都豊島区長崎6-16-1","lat":35.73587,"lon":139.68004},{"name":"子どもスキップ千早","province":"東京都","city":"豊島区","address":"東京都豊島区千早3-33-5","lat":35.73492,"lon":139.68727},{"name":"子どもスキップ要","province":"東京都","city":"豊島区","address":"東京都豊島区要町2-3-20","lat":35.73409,"lon":139.69391},{"name":"子どもスキップ高松","province":"東京都","city":"豊島区","address":"東京都豊島区高松2-57-22","lat":35.73938,"lon":139.69722},{"name":"子どもスキップ池袋本町","province":"東京都","city":"豊島区","address":"東京都豊島区池袋本町1-43-1","lat":35.74055,"lon":139.71478},{"name":"ジャンプ長崎","province":"東京都","city":"豊島区","address":"東京都豊島区長崎2-24-13","lat":35.72928,"lon":139.69102},{"name":"西部子ども家庭支援センター","province":"東京都","city":"豊島区","address":"東京都豊島区千早4-6-14","lat":35.73753,"lon":139.68275},{"name":"東部子ども家庭支援センター","province":"東京都","city":"豊島区","address":"東京都豊島区上池袋2-35-22","lat":35.73687,"lon":139.7179},{"name":"駒込第一保育園","province":"東京都","city":"豊島区","address":"東京都豊島区駒込7-7-22","lat":35.74137,"lon":139.73889},{"name":"巣鴨第一保育園","province":"東京都","city":"豊島区","address":"東京都豊島区巣鴨3-15-20","lat":35.73552,"lon":139.73367},{"name":"西巣鴨第三保育園","province":"東京都","city":"豊島区","address":"東京都豊島区西巣鴨1-2-14","lat":35.73592,"lon":139.72667},{"name":"東池袋第二保育園","province":"東京都","city":"豊島区","address":"東京都豊島区東池袋2-34-1","lat":35.73262,"lon":139.72301},{"name":"西池袋第二保育園","province":"東京都","city":"豊島区","address":"東京都豊島区西池袋4-22-18","lat":35.72927,"lon":139.69858},{"name":"池袋第一保育園","province":"東京都","city":"豊島区","address":"東京都豊島区上池袋3-39-11","lat":35.73915,"lon":139.72083},{"name":"池袋第二保育園","province":"東京都","city":"豊島区","address":"東京都豊島区池袋本町3-4-5","lat":35.74249,"lon":139.71236},{"name":"池袋第三保育園","province":"東京都","city":"豊島区","address":"東京都豊島区池袋3-58-15","lat":35.73514,"lon":139.7075},{"name":"池袋第五保育園","province":"東京都","city":"豊島区","address":"東京都豊島区池袋3-26-22","lat":35.73443,"lon":139.70522},{"name":"高南保育園","province":"東京都","city":"豊島区","address":"東京都豊島区高田1-24-14","lat":35.71511,"lon":139.71658},{"name":"目白第一保育園","province":"東京都","city":"豊島区","address":"東京都豊島区目白5-18-2","lat":35.72381,"lon":139.69547},{"name":"目白第二保育園","province":"東京都","city":"豊島区","address":"東京都豊島区目白2-23-9","lat":35.723,"lon":139.70932},{"name":"南長崎第一保育園","province":"東京都","city":"豊島区","address":"東京都豊島区南長崎5-23-7","lat":35.72996,"lon":139.68173},{"name":"南長崎第二保育園","province":"東京都","city":"豊島区","address":"東京都豊島区南長崎2-3-21","lat":35.7238,"lon":139.68903},{"name":"長崎保育園","province":"東京都","city":"豊島区","address":"東京都豊島区長崎3-7-7","lat":35.72889,"lon":139.68889},{"name":"要町保育園","province":"東京都","city":"豊島区","address":"東京都豊島区要町3-17-11","lat":35.73743,"lon":139.68663},{"name":"高松第二保育園","province":"東京都","city":"豊島区","address":"東京都豊島区高松1-7-13","lat":35.73592,"lon":139.69852},{"name":"駒込第三保育園","province":"東京都","city":"豊島区","address":"東京都豊島区駒込2-2-3","lat":35.73686,"lon":139.74675},{"name":"南大塚保育園","province":"東京都","city":"豊島区","address":"東京都豊島区南大塚2-36-3","lat":35.72909,"lon":139.72986},{"name":"千早さくらそう保育園（豊島区臨時保育所）","province":"東京都","city":"豊島区","address":"東京都豊島区千早3-13-8","lat":35.73335,"lon":139.68704},{"name":"北大塚すくすくルーム","province":"東京都","city":"豊島区","address":"東京都豊島区北大塚3-18-19","lat":35.73431,"lon":139.7245},{"name":"豊島区立西巣鴨幼稚園","province":"東京都","city":"豊島区","address":"東京都豊島区西巣鴨2-14-11","lat":35.73853,"lon":139.7276},{"name":"豊島区立池袋幼稚園","province":"東京都","city":"豊島区","address":"東京都豊島区池袋3-30-22","lat":35.73549,"lon":139.70486},{"name":"豊島区立南長崎幼稚園","province":"東京都","city":"豊島区","address":"東京都豊島区南長崎4-12-7","lat":35.7249,"lon":139.68509},{"name":"駒込小学校","province":"東京都","city":"豊島区","address":"東京都豊島区駒込3-13-1","lat":35.73823,"lon":139.74313},{"name":"仰高小学校","province":"東京都","city":"豊島区","address":"東京都豊島区駒込5-1-19","lat":35.7362,"lon":139.73834},{"name":"朝日小学校","province":"東京都","city":"豊島区","address":"東京都豊島区巣鴨5-33-1","lat":35.74098,"lon":139.73323},{"name":"清和小学校","province":"東京都","city":"豊島区","address":"東京都豊島区巣鴨3-14-1","lat":35.73589,"lon":139.73328},{"name":"西巣鴨小学校","province":"東京都","city":"豊島区","address":"東京都豊島区西巣鴨1-27-1","lat":35.73845,"lon":139.72636},{"name":"巣鴨小学校","province":"東京都","city":"豊島区","address":"東京都豊島区南大塚1-24-10","lat":35.7284,"lon":139.73468},{"name":"池袋第一小学校","province":"東京都","city":"豊島区","address":"東京都豊島区池袋本町4-36-1","lat":35.74417,"lon":139.71436},{"name":"豊成小学校","province":"東京都","city":"豊島区","address":"東京都豊島区上池袋1-18-24","lat":35.73488,"lon":139.72195},{"name":"朋有小学校","province":"東京都","city":"豊島区","address":"東京都豊島区東池袋4-40-1","lat":35.72861,"lon":139.7233},{"name":"南池袋小学校","province":"東京都","city":"豊島区","address":"東京都豊島区南池袋3-18-12","lat":35.72404,"lon":139.71481},{"name":"池袋第三小学校","province":"東京都","city":"豊島区","address":"東京都豊島区西池袋3-14-3","lat":35.72832,"lon":139.70285},{"name":"池袋小学校","province":"東京都","city":"豊島区","address":"東京都豊島区池袋4-23-8","lat":35.73771,"lon":139.70958},{"name":"高南小学校","province":"東京都","city":"豊島区","address":"東京都豊島区高田2-12-7","lat":35.71659,"lon":139.71425},{"name":"目白小学校","province":"東京都","city":"豊島区","address":"東京都豊島区目白2-11-6","lat":35.72074,"lon":139.70944},{"name":"椎名町小学校","province":"東京都","city":"豊島区","address":"東京都豊島区南長崎4-30-5","lat":35.72654,"lon":139.68579},{"name":"富士見台小学校","province":"東京都","city":"豊島区","address":"東京都豊島区南長崎1-10-5","lat":35.72458,"lon":139.69295},{"name":"長崎小学校","province":"東京都","city":"豊島区","address":"東京都豊島区長崎2-6-3","lat":35.72841,"lon":139.69022},{"name":"さくら小学校","province":"東京都","city":"豊島区","address":"東京都豊島区長崎6-16-1","lat":35.73587,"lon":139.68004},{"name":"千早小学校","province":"東京都","city":"豊島区","address":"東京都豊島区千早3-33-5","lat":35.73492,"lon":139.68727},{"name":"要小学校","province":"東京都","city":"豊島区","address":"東京都豊島区要町2-3-20","lat":35.73409,"lon":139.69391},{"name":"高松小学校","province":"東京都","city":"豊島区","address":"東京都豊島区高松2-57-22","lat":35.73938,"lon":139.69722},{"name":"駒込中学校","province":"東京都","city":"豊島区","address":"東京都豊島区駒込4-5-1","lat":35.73574,"lon":139.74213},{"name":"巣鴨北中学校","province":"東京都","city":"豊島区","address":"東京都豊島区西巣鴨3-17-1","lat":35.74158,"lon":139.72913},{"name":"西巣鴨中学校","province":"東京都","city":"豊島区","address":"東京都豊島区南大塚3-18-1","lat":35.7286,"lon":139.72731},{"name":"西池袋中学校","province":"東京都","city":"豊島区","address":"東京都豊島区西池袋4-7-1","lat":35.72736,"lon":139.70035},{"name":"千登世橋中学校","province":"東京都","city":"豊島区","address":"東京都豊島区目白1-1-1","lat":35.71749,"lon":139.7119},{"name":"明豊中学校","province":"東京都","city":"豊島区","address":"東京都豊島区長崎5-31-29","lat":35.73539,"lon":139.68437},{"name":"千川中学校","province":"東京都","city":"豊島区","address":"東京都豊島区高松1-9-21","lat":35.73581,"lon":139.70007},{"name":"池袋本町小学校","province":"東京都","city":"豊島区","address":"東京都豊島区池袋本町1-43-1及び4-5-5","lat":35.74055,"lon":139.71478},{"name":"池袋中学校","province":"東京都","city":"豊島区","address":"東京都豊島区池袋本町1-43-1及び4-5-5","lat":35.74055,"lon":139.71478},{"name":"教育センター","province":"東京都","city":"豊島区","address":"東京都豊島区雑司が谷3-1-7","lat":35.71957,"lon":139.71385},{"name":"豊島リサイクルセンター","province":"東京都","city":"豊島区","address":"東京都豊島区北大塚3-29-11","lat":35.73579,"lon":139.72534},{"name":"大気汚染巣鴨測定室","province":"東京都","city":"豊島区","address":"東京都豊島区巣鴨3-13-12","lat":35.73504,"lon":139.73199},{"name":"大気汚染長崎測定室","province":"東京都","city":"豊島区","address":"東京都豊島区千早2-39-7","lat":35.73556,"lon":139.69102},{"name":"大気汚染池袋測定室","province":"東京都","city":"豊島区","address":"東京都豊島区南池袋2-45-1","lat":35.72607,"lon":139.71666},{"name":"上池袋二丁目地区リサイクルステーション","province":"東京都","city":"豊島区","address":"東京都豊島区上池袋2-26-7","lat":35.73595,"lon":139.71562},{"name":"南長崎一丁目地区リサイクルステーション","province":"東京都","city":"豊島区","address":"東京都豊島区南長崎1-14-9","lat":35.72524,"lon":139.69257},{"name":"長崎五丁目地区リサイクルステーション","province":"東京都","city":"豊島区","address":"東京都豊島区長崎5-29-4","lat":35.73426,"lon":139.68391},{"name":"巣鴨駅前公衆便所","province":"東京都","city":"豊島区","address":"東京都豊島区巣鴨1-16-1","lat":35.73342,"lon":139.73915},{"name":"巣鴨三丁目公衆便所","province":"東京都","city":"豊島区","address":"東京都豊島区巣鴨3-35-8","lat":35.73577,"lon":139.73553},{"name":"庚申塚広場公衆便所","province":"東京都","city":"豊島区","address":"東京都豊島区西巣鴨2-32-9","lat":35.73939,"lon":139.72942},{"name":"大塚駅前公衆便所","province":"東京都","city":"豊島区","address":"東京都豊島区南大塚3-33-1","lat":35.73174,"lon":139.72762},{"name":"池袋駅北口前公衆便所","province":"東京都","city":"豊島区","address":"東京都豊島区西池袋1-1-40","lat":35.72994,"lon":139.71051},{"name":"目白駅前公衆便所","province":"東京都","city":"豊島区","address":"東京都豊島区目白3-3-1","lat":35.72073,"lon":139.70639},{"name":"雑司が谷公園丘の上テラス","province":"東京都","city":"豊島区","address":"東京都豊島区雑司が谷2-12-1","lat":35.71929,"lon":139.71667},{"name":"南池袋公園管理棟","province":"東京都","city":"豊島区","address":"東京都豊島区南池袋2-21-1","lat":35.7276,"lon":139.71432},{"name":"としまみどりの防災公園（管理棟）","province":"東京都","city":"豊島区","address":"東京都豊島区東池袋4-42","lat":35.72778,"lon":139.72185},{"name":"としまみどりの防災公園（倉庫棟）","province":"東京都","city":"豊島区","address":"東京都豊島区東池袋4-42","lat":35.72778,"lon":139.72185},{"name":"目白庭園（赤鳥庵）","province":"東京都","city":"豊島区","address":"東京都豊島区目白3-20-18","lat":35.72418,"lon":139.70547},{"name":"西巣鴨二丁目第二アパート","province":"東京都","city":"豊島区","address":"東京都豊島区西巣鴨2-16-1","lat":35.73949,"lon":139.72675},{"name":"上池袋二丁目アパート","province":"東京都","city":"豊島区","address":"東京都豊島区上池袋2-25-9","lat":35.7361,"lon":139.7164},{"name":"ライブピア池袋本町","province":"東京都","city":"豊島区","address":"東京都豊島区池袋本町2-28-8","lat":35.74211,"lon":139.71144},{"name":"長崎六丁目アパート","province":"東京都","city":"豊島区","address":"東京都豊島区長崎6-3-3及び4-10","lat":35.73389,"lon":139.67949},{"name":"ライブピア長崎","province":"東京都","city":"豊島区","address":"東京都豊島区長崎5-27-5及び7","lat":35.73416,"lon":139.68442},{"name":"千早四丁目アパート","province":"東京都","city":"豊島区","address":"東京都豊島区千早4-32-11及び13","lat":35.73911,"lon":139.685},{"name":"要町三丁目アパート","province":"東京都","city":"豊島区","address":"東京都豊島区要町3-7-8","lat":35.73709,"lon":139.68773},{"name":"高松三丁目アパート","province":"東京都","city":"豊島区","address":"東京都豊島区高松3-5-5","lat":35.7412,"lon":139.69795},{"name":"高松三丁目第二アパート","province":"東京都","city":"豊島区","address":"東京都豊島区高松3-12-8及び9","lat":35.74205,"lon":139.6982},{"name":"高松三丁目第三アパート","province":"東京都","city":"豊島区","address":"東京都豊島区高松3-8-17","lat":35.74085,"lon":139.69533},{"name":"千川二丁目アパート","province":"東京都","city":"豊島区","address":"東京都豊島区千川2-5-14","lat":35.7404,"lon":139.69203},{"name":"巣鴨つつじ苑","province":"東京都","city":"豊島区","address":"東京都豊島区巣鴨4-15-11","lat":35.73743,"lon":139.73161},{"name":"池袋本町第二つつじ苑","province":"東京都","city":"豊島区","address":"東京都豊島区池袋本町2-28-8","lat":35.74211,"lon":139.71144},{"name":"高田つつじ苑","province":"東京都","city":"豊島区","address":"東京都豊島区高田1-2-12","lat":35.71309,"lon":139.7209},{"name":"南長崎つつじ苑","province":"東京都","city":"豊島区","address":"東京都豊島区南長崎1-14-9","lat":35.72524,"lon":139.69257},{"name":"長崎つつじ苑","province":"東京都","city":"豊島区","address":"東京都豊島区長崎6-34-10","lat":35.73537,"lon":139.68257},{"name":"千川つつじ苑","province":"東京都","city":"豊島区","address":"東京都豊島区千川2-9-10","lat":35.74112,"lon":139.69171},{"name":"池袋つつじ苑","province":"東京都","city":"豊島区","address":"東京都豊島区池袋2-23-14","lat":35.7332,"lon":139.70454},{"name":"池袋本町つつじ苑","province":"東京都","city":"豊島区","address":"東京都豊島区池袋本町1-30-14","lat":35.73948,"lon":139.71524},{"name":"要町第二つつじ苑","province":"東京都","city":"豊島区","address":"東京都豊島区要町1-6-6","lat":35.73334,"lon":139.6955},{"name":"要町つつじ苑","province":"東京都","city":"豊島区","address":"東京都豊島区要町3-9-16","lat":35.73744,"lon":139.68953},{"name":"北大塚つつじ苑","province":"東京都","city":"豊島区","address":"東京都豊島区北大塚1-33-22","lat":35.7338,"lon":139.73038},{"name":"西池袋つつじ苑","province":"東京都","city":"豊島区","address":"東京都豊島区西池袋3-11-10","lat":35.72801,"lon":139.70206},{"name":"西巣鴨つつじ苑","province":"東京都","city":"豊島区","address":"東京都豊島区西巣鴨2-1-4","lat":35.73704,"lon":139.72969},{"name":"南大塚つつじ苑","province":"東京都","city":"豊島区","address":"東京都豊島区南大塚1-8-12","lat":35.72732,"lon":139.73524},{"name":"南長崎第二つつじ苑","province":"東京都","city":"豊島区","address":"東京都豊島区南長崎2-2-16","lat":35.72316,"lon":139.68942},{"name":"ソシエ南池袋第二","province":"東京都","city":"豊島区","address":"東京都豊島区南池袋3-7-8","lat":35.72355,"lon":139.71231},{"name":"池袋南交差排水場","province":"東京都","city":"豊島区","address":"東京都豊島区西池袋2-43","lat":35.72715,"lon":139.70941},{"name":"千川二丁目資材倉庫","province":"東京都","city":"豊島区","address":"東京都豊島区千川2-9-10","lat":35.74112,"lon":139.69171},{"name":"道路工事事務所材料置場 作業場兼倉庫","province":"東京都","city":"豊島区","address":"東京都豊島区池袋本町4-50","lat":35.74177,"lon":139.71735},{"name":"アゼリア東池袋","province":"東京都","city":"豊島区","address":"東京都豊島区東池袋5-40-5","lat":35.72807,"lon":139.726},{"name":"駒込備蓄倉庫","province":"東京都","city":"豊島区","address":"東京都豊島区駒込2-2-4","lat":35.73686,"lon":139.74675},{"name":"西巣鴨備蓄倉庫","province":"東京都","city":"豊島区","address":"東京都豊島区西巣鴨3-17-1","lat":35.74158,"lon":139.72913},{"name":"北大塚備蓄倉庫","province":"東京都","city":"豊島区","address":"東京都豊島区北大塚3-29-11","lat":35.73579,"lon":139.72534},{"name":"西池袋備蓄倉庫","province":"東京都","city":"豊島区","address":"東京都豊島区西池袋3-20-1","lat":35.73058,"lon":139.70546},{"name":"高田備蓄倉庫","province":"東京都","city":"豊島区","address":"東京都豊島区目白1-1-1","lat":35.71749,"lon":139.7119},{"name":"上池袋備蓄倉庫","province":"東京都","city":"豊島区","address":"東京都豊島区上池袋1-33-20","lat":35.73575,"lon":139.72368},{"name":"駒込中学校救援センター格納庫","province":"東京都","city":"豊島区","address":"東京都豊島区駒込4-5-1","lat":35.73574,"lon":139.74213},{"name":"高田二丁目防災資機材格納庫","province":"東京都","city":"豊島区","address":"東京都豊島区高田2-11-2","lat":35.71572,"lon":139.71443},{"name":"長崎五丁目防災資機材格納庫","province":"東京都","city":"豊島区","address":"東京都豊島区長崎5-29-4","lat":35.73426,"lon":139.68391},{"name":"南池袋四丁目防災資器材倉庫","province":"東京都","city":"豊島区","address":"東京都豊島区南池袋4-7-9","lat":35.72202,"lon":139.71739},{"name":"目白二丁目第２児童遊園防災資器材倉庫","province":"東京都","city":"豊島区","address":"東京都豊島区目白2-5-10","lat":35.721,"lon":139.71214},{"name":"染井まちづくりセンター","province":"東京都","city":"豊島区","address":"東京都豊島区駒込6-29-6","lat":35.74108,"lon":139.74142},{"name":"上池袋第1まちづくりセンター","province":"東京都","city":"豊島区","address":"東京都豊島区上池袋2-26-7","lat":35.73595,"lon":139.71562},{"name":"上池袋第２まちづくりセンター","province":"東京都","city":"豊島区","address":"東京都豊島区上池袋4-40-12","lat":35.74271,"lon":139.71883},{"name":"東池袋４・５丁目まちづくりセンター","province":"東京都","city":"豊島区","address":"東京都豊島区東池袋5-13-8","lat":35.72575,"lon":139.72249},{"name":"としま区民センター","province":"東京都","city":"豊島区","address":"東京都豊島区東池袋1-20-10","lat":35.73116,"lon":139.7157},{"name":"としま産業振興プラザ","province":"東京都","city":"豊島区","address":"東京都豊島区西池袋2-37-4","lat":35.72791,"lon":139.70682},{"name":"としまスタートアップオフィス","province":"東京都","city":"豊島区","address":"東京都豊島区西池袋2-37-4","lat":35.72791,"lon":139.70682},{"name":"トキワ荘通りお休み処","province":"東京都","city":"豊島区","address":"東京都豊島区南長崎2-3-2","lat":35.7238,"lon":139.68903},{"name":"雑司が谷案内処（豊島区雑司が谷情報ステーション）","province":"東京都","city":"豊島区","address":"東京都豊島区雑司が谷3-19-5","lat":35.72155,"lon":139.71494},{"name":"トキワ荘マンガミュージアム","province":"東京都","city":"豊島区","address":"東京都豊島区南長崎3-9-22","lat":35.7243,"lon":139.68665},{"name":"旧丹羽邸蔵","province":"東京都","city":"豊島区","address":"東京都豊島区駒込3-12-8","lat":35.73767,"lon":139.74234},{"name":"鈴木信太郎記念館","province":"東京都","city":"豊島区","address":"東京都豊島区東池袋5-52-3","lat":35.72607,"lon":139.72905},{"name":"雑司が谷旧宣教師館","province":"東京都","city":"豊島区","address":"東京都豊島区雑司が谷1-25-5","lat":35.72072,"lon":139.7205},{"name":"巣鴨埋蔵文化財倉庫","province":"東京都","city":"豊島区","address":"東京都豊島区巣鴨3-8-7","lat":35.73415,"lon":139.73347},{"name":"飯能倉庫","province":"東京都","city":"豊島区","address":"東京都豊島区埼玉県飯能市飯能1000-8","lat":35.86802,"lon":139.31142},{"name":"熊谷守一美術館","province":"東京都","city":"豊島区","address":"東京都豊島区千早2-27-6","lat":35.73394,"lon":139.69102},{"name":"芸術文化劇場","province":"東京都","city":"豊島区","address":"東京都豊島区東池袋1-19","lat":35.73191,"lon":139.71573},{"name":"舞台芸術交流センター","province":"東京都","city":"豊島区","address":"東京都豊島区東池袋4-5-2","lat":35.7267,"lon":139.71896},{"name":"池袋西口公園舞台棟","province":"東京都","city":"豊島区","address":"東京都豊島区西池袋1-8-26","lat":35.72988,"lon":139.70824},{"name":"池袋西口公園グローバルリングカフェ・トイレ","province":"東京都","city":"豊島区","address":"東京都豊島区西池袋1-8-26","lat":35.72988,"lon":139.70824},{"name":"郷土資料館","province":"東京都","city":"豊島区","address":"東京都豊島区西池袋2-37-4","lat":35.72791,"lon":139.70682},{"name":"郷土資料館高田倉庫","province":"東京都","city":"豊島区","address":"東京都豊島区高田2-11-2","lat":35.71572,"lon":139.71443},{"name":"みらい館大明","province":"東京都","city":"豊島区","address":"東京都豊島区池袋3-30-8","lat":35.73549,"lon":139.70486},{"name":"ぞうしがや こどもステーション","province":"東京都","city":"豊島区","address":"東京都豊島区雑司が谷3-1-7","lat":35.71957,"lon":139.71385},{"name":"駒込地域文化創造館","province":"東京都","city":"豊島区","address":"東京都豊島区駒込2-2-4","lat":35.73686,"lon":139.74675},{"name":"巣鴨地域文化創造館","province":"東京都","city":"豊島区","address":"東京都豊島区巣鴨4-15-11","lat":35.73743,"lon":139.73161},{"name":"南大塚地域文化創造館","province":"東京都","city":"豊島区","address":"東京都豊島区南大塚2-36-1から2","lat":35.72909,"lon":139.72986},{"name":"雑司が谷地域文化創造館","province":"東京都","city":"豊島区","address":"東京都豊島区雑司が谷3-1-7","lat":35.71957,"lon":139.71385},{"name":"千早地域文化創造館多目的ホール","province":"東京都","city":"豊島区","address":"東京都豊島区千早2-39-16","lat":35.73556,"lon":139.69102},{"name":"千早地域文化創造館","province":"東京都","city":"豊島区","address":"東京都豊島区千早2-35-12","lat":35.73513,"lon":139.68858},{"name":"巣鴨体育館","province":"東京都","city":"豊島区","address":"東京都豊島区巣鴨3-8-7","lat":35.73415,"lon":139.73347},{"name":"池袋スポーツセンター","province":"東京都","city":"豊島区","address":"東京都豊島区上池袋2-5-1","lat":35.7348,"lon":139.71475},{"name":"雑司が谷体育館","province":"東京都","city":"豊島区","address":"東京都豊島区雑司が谷3-1-7","lat":35.71957,"lon":139.71385},{"name":"南長崎中央公園スポーツセンター","province":"東京都","city":"豊島区","address":"東京都豊島区南長崎4-13-5","lat":35.72449,"lon":139.68369},{"name":"豊島体育館","province":"東京都","city":"豊島区","address":"東京都豊島区要町3-47-8","lat":35.73994,"lon":139.68948},{"name":"西巣鴨体育場","province":"東京都","city":"豊島区","address":"東京都豊島区西巣鴨4-22-19","lat":35.74472,"lon":139.73116},{"name":"総合体育場","province":"東京都","city":"豊島区","address":"東京都豊島区東池袋4-41-30","lat":35.72938,"lon":139.72264},{"name":"三芳グランド","province":"東京都","city":"豊島区","address":"東京都豊島区埼玉県入間郡三芳町上富382-1","lat":35.82965,"lon":139.5123},{"name":"駒込図書館","province":"東京都","city":"豊島区","address":"東京都豊島区駒込2-2-2","lat":35.73686,"lon":139.74675},{"name":"巣鴨図書館","province":"東京都","city":"豊島区","address":"東京都豊島区巣鴨3-8-2","lat":35.73415,"lon":139.73347},{"name":"上池袋図書館","province":"東京都","city":"豊島区","address":"東京都豊島区上池袋2-45-15","lat":35.73846,"lon":139.71704},{"name":"中央図書館","province":"東京都","city":"豊島区","address":"東京都豊島区東池袋4-5-2","lat":35.7267,"lon":139.71896},{"name":"池袋図書館","province":"東京都","city":"豊島区","address":"東京都豊島区池袋3-29-10","lat":35.7357,"lon":139.70578},{"name":"目白図書館","province":"東京都","city":"豊島区","address":"東京都豊島区目白4-31-8","lat":35.72601,"lon":139.69933},{"name":"千早図書館","province":"東京都","city":"豊島区","address":"東京都豊島区千早2-44-2","lat":35.73575,"lon":139.68839},{"name":"旧第十中学校","province":"東京都","city":"豊島区","address":"東京都豊島区千早4-8-19","lat":35.73808,"lon":139.68181},{"name":"旧竹岡健康学園","province":"東京都","city":"豊島区","address":"東京都豊島区千葉県富津市竹岡380","lat":35.18702,"lon":139.86652},{"name":"旧朝日中学校","province":"東京都","city":"豊島区","address":"東京都豊島区西巣鴨4-9-1","lat":35.74346,"lon":139.72948},{"name":"旧真和中学校","province":"東京都","city":"豊島区","address":"東京都豊島区目白5-24-12","lat":35.72531,"lon":139.69717},{"name":"旧高松第一保育園","province":"東京都","city":"豊島区","address":"東京都豊島区高松3-10-7","lat":35.74176,"lon":139.6962},{"name":"旧保健福祉部分庁舎","province":"東京都","city":"豊島区","address":"東京都豊島区巣鴨4-22-17","lat":35.73672,"lon":139.73434},{"name":"雑司が谷三丁目区有地","province":"東京都","city":"豊島区","address":"東京都豊島区雑司が谷3-1","lat":35.71957,"lon":139.71385},{"name":"東池袋四・五丁目仮住居用住宅","province":"東京都","city":"豊島区","address":"東京都豊島区東池袋5-44-10","lat":35.72752,"lon":139.72639},{"name":"駒込東公園","province":"東京都","city":"豊島区","address":"東京都豊島区駒込1-22-1","lat":35.73572,"lon":139.74966},{"name":"染井吉野桜記念公園","province":"東京都","city":"豊島区","address":"東京都豊島区駒込2-2-1から2","lat":35.73686,"lon":139.74675},{"name":"駒込公園","province":"東京都","city":"豊島区","address":"東京都豊島区駒込2-3-23","lat":35.73757,"lon":139.74695},{"name":"駒込四丁目公園","province":"東京都","city":"豊島区","address":"東京都豊島区駒込4-7-25","lat":35.73521,"lon":139.74182},{"name":"駒込西公園","province":"東京都","city":"豊島区","address":"東京都豊島区駒込5-4-33","lat":35.73808,"lon":139.73907},{"name":"染井よしの桜の里公園","province":"東京都","city":"豊島区","address":"東京都豊島区駒込6-3-1","lat":35.73854,"lon":139.7415},{"name":"江戸橋公園","province":"東京都","city":"豊島区","address":"東京都豊島区巣鴨1-37-1","lat":35.73183,"lon":139.73671},{"name":"朝日公園","province":"東京都","city":"豊島区","address":"東京都豊島区巣鴨5-22-1","lat":35.74111,"lon":139.73239},{"name":"西巣鴨公園","province":"東京都","city":"豊島区","address":"東京都豊島区西巣鴨1-3-9","lat":35.73643,"lon":139.72568},{"name":"西巣鴨二丁目公園","province":"東京都","city":"豊島区","address":"東京都豊島区西巣鴨2-27-7","lat":35.74023,"lon":139.72751},{"name":"千川上水公園","province":"東京都","city":"豊島区","address":"東京都豊島区西巣鴨2-39-5","lat":35.74164,"lon":139.72681},{"name":"巣鴨公園","province":"東京都","city":"豊島区","address":"東京都豊島区北大塚1-12-10","lat":35.73223,"lon":139.73235},{"name":"北大塚二丁目公園","province":"東京都","city":"豊島区","address":"東京都豊島区北大塚2-34-2","lat":35.73505,"lon":139.72968},{"name":"北大塚公園","province":"東京都","city":"豊島区","address":"東京都豊島区北大塚3-12-15","lat":35.73384,"lon":139.72287},{"name":"南大塚からたち公園","province":"東京都","city":"豊島区","address":"東京都豊島区南大塚2-5-1","lat":35.72609,"lon":139.73358},{"name":"南大塚公園","province":"東京都","city":"豊島区","address":"東京都豊島区南大塚2-27-1","lat":35.7277,"lon":139.73125},{"name":"大塚台公園","province":"東京都","city":"豊島区","address":"東京都豊島区南大塚3-27-1","lat":35.73023,"lon":139.72575},{"name":"上池袋中央公園","province":"東京都","city":"豊島区","address":"東京都豊島区上池袋1-28-7","lat":35.73697,"lon":139.72165},{"name":"上池袋東公園","province":"東京都","city":"豊島区","address":"東京都豊島区上池袋1-30-20","lat":35.73619,"lon":139.7225},{"name":"宮仲公園","province":"東京都","city":"豊島区","address":"東京都豊島区上池袋1-36-1","lat":35.7361,"lon":139.72464},{"name":"上池袋公園","province":"東京都","city":"豊島区","address":"東京都豊島区上池袋2-25-9","lat":35.7361,"lon":139.7164},{"name":"上池袋さくら公園","province":"東京都","city":"豊島区","address":"東京都豊島区上池袋2-45-15","lat":35.73846,"lon":139.71704},{"name":"堀之内公園","province":"東京都","city":"豊島区","address":"東京都豊島区上池袋3-7","lat":35.73877,"lon":139.71889},{"name":"上池袋くすのき公園","province":"東京都","city":"豊島区","address":"東京都豊島区上池袋4-19-1","lat":35.74068,"lon":139.72095},{"name":"中池袋公園","province":"東京都","city":"豊島区","address":"東京都豊島区東池袋1-16-1","lat":35.73158,"lon":139.71504},{"name":"池袋駅前公園","province":"東京都","city":"豊島区","address":"東京都豊島区東池袋1-50-23","lat":35.73285,"lon":139.71278},{"name":"東池袋青空公園","province":"東京都","city":"豊島区","address":"東京都豊島区東池袋2-26-1","lat":35.73132,"lon":139.72345},{"name":"東池袋二丁目第三公園","province":"東京都","city":"豊島区","address":"東京都豊島区東池袋2-58-7","lat":35.73357,"lon":139.71832},{"name":"東池袋中央公園","province":"東京都","city":"豊島区","address":"東京都豊島区東池袋3-1-6","lat":35.72929,"lon":139.71919},{"name":"東池袋公園","province":"東京都","city":"豊島区","address":"東京都豊島区東池袋3-14-1","lat":35.7313,"lon":139.71777},{"name":"日出町第二公園","province":"東京都","city":"豊島区","address":"東京都豊島区東池袋4-4-1","lat":35.72619,"lon":139.71945},{"name":"東池袋四丁目公園","province":"東京都","city":"豊島区","address":"東京都豊島区東池袋4-18-11","lat":35.72657,"lon":139.7204},{"name":"日出町公園","province":"東京都","city":"豊島区","address":"東京都豊島区東池袋4-22-1","lat":35.7277,"lon":139.71878},{"name":"東池袋五丁目かしの実公園","province":"東京都","city":"豊島区","address":"東京都豊島区東池袋5-6-15","lat":35.72495,"lon":139.72177},{"name":"南池袋一丁目公園","province":"東京都","city":"豊島区","address":"東京都豊島区南池袋1-4-3","lat":35.72414,"lon":139.70947},{"name":"南池袋公園","province":"東京都","city":"豊島区","address":"東京都豊島区南池袋2-21-1","lat":35.7276,"lon":139.71432},{"name":"南池ふくろうひろば","province":"東京都","city":"豊島区","address":"東京都豊島区南池袋3-17-2","lat":35.72464,"lon":139.71324},{"name":"南池袋みどり公園","province":"東京都","city":"豊島区","address":"東京都豊島区南池袋4-7-9","lat":35.72202,"lon":139.71739},{"name":"南池袋第二公園","province":"東京都","city":"豊島区","address":"東京都豊島区南池袋4-8-5","lat":35.72245,"lon":139.71707},{"name":"南池袋四丁目日出公園","province":"東京都","city":"豊島区","address":"東京都豊島区南池袋4-12-16","lat":35.7245,"lon":139.71887},{"name":"池袋西口公園","province":"東京都","city":"豊島区","address":"東京都豊島区西池袋1-8-26","lat":35.72988,"lon":139.70824},{"name":"元池袋史跡公園","province":"東京都","city":"豊島区","address":"東京都豊島区西池袋1-9-12","lat":35.72892,"lon":139.70853},{"name":"上り屋敷公園","province":"東京都","city":"豊島区","address":"東京都豊島区西池袋2-14-2","lat":35.72642,"lon":139.70506},{"name":"西池袋公園","province":"東京都","city":"豊島区","address":"東京都豊島区西池袋3-20-1","lat":35.73058,"lon":139.70546},{"name":"谷端川南緑道","province":"東京都","city":"豊島区","address":"東京都豊島区西池袋4-5-5","lat":35.72675,"lon":139.69954},{"name":"西池袋第二公園","province":"東京都","city":"豊島区","address":"東京都豊島区西池袋4-40-18","lat":35.72708,"lon":139.69638},{"name":"谷端川第二親水公園","province":"東京都","city":"豊島区","address":"東京都豊島区西池袋5-22-11","lat":35.73084,"lon":139.69968},{"name":"池袋一丁目第二公園","province":"東京都","city":"豊島区","address":"東京都豊島区池袋1-8-11","lat":35.73622,"lon":139.71175},{"name":"池袋ふれあい公園","province":"東京都","city":"豊島区","address":"東京都豊島区池袋2-74-1","lat":35.73627,"lon":139.71048},{"name":"池袋三丁目公園","province":"東京都","city":"豊島区","address":"東京都豊島区池袋3-22-13","lat":35.73488,"lon":139.70387},{"name":"御嶽北公園","province":"東京都","city":"豊島区","address":"東京都豊島区池袋3-44-20","lat":35.73748,"lon":139.70613},{"name":"池袋第二公園","province":"東京都","city":"豊島区","address":"東京都豊島区池袋3-29-4","lat":35.7357,"lon":139.70578},{"name":"谷端川親水公園","province":"東京都","city":"豊島区","address":"東京都豊島区池袋3-2-5","lat":35.73333,"lon":139.70055},{"name":"池袋公園","province":"東京都","city":"豊島区","address":"東京都豊島区池袋4-22-9","lat":35.73798,"lon":139.70863},{"name":"池袋本町公園","province":"東京都","city":"豊島区","address":"東京都豊島区池袋本町1-27-1","lat":35.73978,"lon":139.71364},{"name":"谷端川北緑道","province":"東京都","city":"豊島区","address":"東京都豊島区池袋本町3-33-7","lat":35.745,"lon":139.71027},{"name":"池袋本町電車の見える公園","province":"東京都","city":"豊島区","address":"東京都豊島区池袋本町4-41","lat":35.74463,"lon":139.71581},{"name":"雑司が谷一丁目公園","province":"東京都","city":"豊島区","address":"東京都豊島区雑司が谷1-36-3","lat":35.72062,"lon":139.7215},{"name":"雑司が谷公園","province":"東京都","city":"豊島区","address":"東京都豊島区雑司が谷2-11-8","lat":35.71864,"lon":139.71642},{"name":"雑司が谷みみずく公園","province":"東京都","city":"豊島区","address":"東京都豊島区雑司が谷3-15-20","lat":35.72192,"lon":139.71371},{"name":"高田第二公園","province":"東京都","city":"豊島区","address":"東京都豊島区高田1-2-10","lat":35.71309,"lon":139.7209},{"name":"山吹の里公園","province":"東京都","city":"豊島区","address":"東京都豊島区高田1-10-5","lat":35.71413,"lon":139.71806},{"name":"高田公園","province":"東京都","city":"豊島区","address":"東京都豊島区高田1-28-3","lat":35.71536,"lon":139.71506},{"name":"高田第三公園","province":"東京都","city":"豊島区","address":"東京都豊島区高田3-18-7","lat":35.71515,"lon":139.70723},{"name":"高田中央三丁目公園","province":"東京都","city":"豊島区","address":"東京都豊島区高田3-38-6","lat":35.71617,"lon":139.71097},{"name":"目白三丁目公園","province":"東京都","city":"豊島区","address":"東京都豊島区目白3-15-17","lat":35.72311,"lon":139.70627},{"name":"椎名町公園","province":"東京都","city":"豊島区","address":"東京都豊島区南長崎1-20-1","lat":35.72582,"lon":139.69331},{"name":"南長崎花咲公園","province":"東京都","city":"豊島区","address":"東京都豊島区南長崎3-9-22","lat":35.7243,"lon":139.68665},{"name":"南長崎公園","province":"東京都","city":"豊島区","address":"東京都豊島区南長崎3-37-2","lat":35.72683,"lon":139.68835},{"name":"南長崎三丁目第二公園","province":"東京都","city":"豊島区","address":"東京都豊島区南長崎3-40-13","lat":35.72711,"lon":139.68703},{"name":"南長崎はらっぱ公園","province":"東京都","city":"豊島区","address":"東京都豊島区南長崎6-1-20","lat":35.72842,"lon":139.67993},{"name":"長崎公園","province":"東京都","city":"豊島区","address":"東京都豊島区長崎3-25-15","lat":35.73097,"lon":139.68803},{"name":"長五さくら公園","province":"東京都","city":"豊島区","address":"東京都豊島区長崎5-28-5","lat":35.73376,"lon":139.68375},{"name":"千早フラワー公園","province":"東京都","city":"豊島区","address":"東京都豊島区千早1-8-1","lat":35.73128,"lon":139.6935},{"name":"千早第二公園","province":"東京都","city":"豊島区","address":"東京都豊島区千早1-23-18","lat":35.73226,"lon":139.69672},{"name":"千早公園","province":"東京都","city":"豊島区","address":"東京都豊島区千早2-31-10","lat":35.73489,"lon":139.69057},{"name":"千早緑地公園","province":"東京都","city":"豊島区","address":"東京都豊島区千早2-34-2","lat":35.73446,"lon":139.68881},{"name":"千早二丁目公園","province":"東京都","city":"豊島区","address":"東京都豊島区千早2-35-15","lat":35.73513,"lon":139.68858},{"name":"小鳥がさえずる公園","province":"東京都","city":"豊島区","address":"東京都豊島区千早3-14-19","lat":35.73314,"lon":139.68637},{"name":"千早四丁目なかよし公園","province":"東京都","city":"豊島区","address":"東京都豊島区千早4-10-14","lat":35.73785,"lon":139.68356},{"name":"千早四丁目公園","province":"東京都","city":"豊島区","address":"東京都豊島区千早4-31-13","lat":35.73857,"lon":139.68506},{"name":"千川親水公園","province":"東京都","city":"豊島区","address":"東京都豊島区要町3-17-5","lat":35.73743,"lon":139.68663},{"name":"ふるさと千川ひろば","province":"東京都","city":"豊島区","address":"東京都豊島区要町3-54-16","lat":35.7407,"lon":139.68918},{"name":"千川彫刻公園","province":"東京都","city":"豊島区","address":"東京都豊島区千川1-24-2","lat":35.73841,"lon":139.69113},{"name":"南長崎中央公園","province":"東京都","city":"豊島区","address":"東京都豊島区南長崎4-13-5","lat":35.72449,"lon":139.68369},{"name":"門と蔵のある広場","province":"東京都","city":"豊島区","address":"東京都豊島区駒込3-12-8","lat":35.73767,"lon":139.74234},{"name":"池本だんだん公園","province":"東京都","city":"豊島区","address":"東京都豊島区池袋本町2-37-1","lat":35.74348,"lon":139.71011},{"name":"としまみどりの防災公園","province":"東京都","city":"豊島区","address":"東京都豊島区東池袋4-42","lat":35.72778,"lon":139.72185},{"name":"としまキッズパーク","province":"東京都","city":"豊島区","address":"東京都豊島区東池袋4-42","lat":35.72778,"lon":139.72185},{"name":"池袋の森","province":"東京都","city":"豊島区","address":"東京都豊島区池袋1-7-10","lat":35.73531,"lon":139.71199},{"name":"目白の森","province":"東京都","city":"豊島区","address":"東京都豊島区目白4-11-21","lat":35.72329,"lon":139.69879},{"name":"駒込二丁目児童遊園","province":"東京都","city":"豊島区","address":"東京都豊島区駒込2-10-8","lat":35.73833,"lon":139.74734},{"name":"そめいよしの児童遊園","province":"東京都","city":"豊島区","address":"東京都豊島区駒込6-1-6","lat":35.73793,"lon":139.74159},{"name":"駒込六丁目児童遊園","province":"東京都","city":"豊島区","address":"東京都豊島区駒込6-25-2","lat":35.74031,"lon":139.74333},{"name":"駒込七丁目第２児童遊園","province":"東京都","city":"豊島区","address":"東京都豊島区駒込7-7-4","lat":35.74137,"lon":139.73889},{"name":"駒込七丁目児童遊園","province":"東京都","city":"豊島区","address":"東京都豊島区駒込7-14-3","lat":35.74045,"lon":139.7401},{"name":"巣鴨一丁目児童遊園","province":"東京都","city":"豊島区","address":"東京都豊島区巣鴨1-2-8","lat":35.7319,"lon":139.7417},{"name":"巣鴨四丁目折戸児童遊園","province":"東京都","city":"豊島区","address":"東京都豊島区巣鴨4-12-10","lat":35.73777,"lon":139.73015},{"name":"巣鴨四丁目児童遊園","province":"東京都","city":"豊島区","address":"東京都豊島区巣鴨4-22-11","lat":35.73672,"lon":139.73434},{"name":"巣鴨四丁目第３児童遊園","province":"東京都","city":"豊島区","address":"東京都豊島区巣鴨4-22-17","lat":35.73672,"lon":139.73434},{"name":"巣鴨四丁目第２児童遊園","province":"東京都","city":"豊島区","address":"東京都豊島区巣鴨4-34-12","lat":35.73904,"lon":139.73083},{"name":"巣鴨五丁目児童遊園","province":"東京都","city":"豊島区","address":"東京都豊島区巣鴨5-35-18","lat":35.73964,"lon":139.73521},{"name":"西巣鴨四丁目児童遊園","province":"東京都","city":"豊島区","address":"東京都豊島区西巣鴨4-18-2","lat":35.74408,"lon":139.73001},{"name":"南大塚一丁目児童遊園","province":"東京都","city":"豊島区","address":"東京都豊島区南大塚1-12-11","lat":35.72747,"lon":139.73392},{"name":"南大塚二丁目ポケット児童遊園","province":"東京都","city":"豊島区","address":"東京都豊島区南大塚2-18-9","lat":35.72702,"lon":139.73294},{"name":"南大塚二丁目児童遊園","province":"東京都","city":"豊島区","address":"東京都豊島区南大塚2-36-3","lat":35.72909,"lon":139.72986},{"name":"上池袋一丁目児童遊園","province":"東京都","city":"豊島区","address":"東京都豊島区上池袋1-14-9","lat":35.7358,"lon":139.72014},{"name":"上池袋一丁目ゆったり広場児童遊園","province":"東京都","city":"豊島区","address":"東京都豊島区上池袋1-29-11","lat":35.73671,"lon":139.72215},{"name":"上池袋二丁目児童遊園","province":"東京都","city":"豊島区","address":"東京都豊島区上池袋2-23-10","lat":35.73631,"lon":139.71727},{"name":"上池袋三丁目第３児童遊園","province":"東京都","city":"豊島区","address":"東京都豊島区上池袋3-13-12","lat":35.73996,"lon":139.71698},{"name":"上池袋三丁目第２児童遊園","province":"東京都","city":"豊島区","address":"東京都豊島区上池袋3-27-5","lat":35.73911,"lon":139.71904},{"name":"上池袋四丁目児童遊園","province":"東京都","city":"豊島区","address":"東京都豊島区上池袋4-7-2","lat":35.73982,"lon":139.72258},{"name":"上池袋四丁目第２児童遊園","province":"東京都","city":"豊島区","address":"東京都豊島区上池袋4-39-6","lat":35.74292,"lon":139.71912},{"name":"東池袋二丁目あじさい児童遊園","province":"東京都","city":"豊島区","address":"東京都豊島区東池袋2-35-14","lat":35.73289,"lon":139.72249},{"name":"東池袋二丁目第２児童遊園","province":"東京都","city":"豊島区","address":"東京都豊島区東池袋2-60-7","lat":35.73359,"lon":139.7177},{"name":"東池袋五丁目第２児童遊園","province":"東京都","city":"豊島区","address":"東京都豊島区東池袋5-21-7","lat":35.72585,"lon":139.72365},{"name":"東池袋五丁目児童遊園","province":"東京都","city":"豊島区","address":"東京都豊島区東池袋5-41-14","lat":35.72729,"lon":139.72504},{"name":"雑司が谷中央児童遊園","province":"東京都","city":"豊島区","address":"東京都豊島区南池袋4-1-3","lat":35.72077,"lon":139.71753},{"name":"池袋一丁目児童遊園","province":"東京都","city":"豊島区","address":"東京都豊島区池袋1-13-13","lat":35.7371,"lon":139.71364},{"name":"池袋本町一丁目児童遊園","province":"東京都","city":"豊島区","address":"東京都豊島区池袋本町1-6-8","lat":35.73747,"lon":139.71396},{"name":"池袋本町二丁目児童遊園","province":"東京都","city":"豊島区","address":"東京都豊島区池袋本町2-39-7","lat":35.74425,"lon":139.70959},{"name":"池袋本町三丁目チビッ子児童遊園","province":"東京都","city":"豊島区","address":"東京都豊島区池袋本町3-7-15","lat":35.74332,"lon":139.71333},{"name":"池袋本町三丁目第２児童遊園","province":"東京都","city":"豊島区","address":"東京都豊島区池袋本町3-9-3","lat":35.7436,"lon":139.71271},{"name":"池袋本町三丁目児童遊園","province":"東京都","city":"豊島区","address":"東京都豊島区池袋本町3-13-7","lat":35.74306,"lon":139.71118},{"name":"池袋本町四丁目児童遊園","province":"東京都","city":"豊島区","address":"東京都豊島区池袋本町4-22-12","lat":35.74269,"lon":139.71559},{"name":"雑司が谷二丁目四つ家児童遊園","province":"東京都","city":"豊島区","address":"東京都豊島区雑司が谷2-1-6","lat":35.71742,"lon":139.71736},{"name":"高田一丁目児童遊園","province":"東京都","city":"豊島区","address":"東京都豊島区高田1-23-33","lat":35.71547,"lon":139.71724},{"name":"高田二丁目中央児童遊園","province":"東京都","city":"豊島区","address":"東京都豊島区高田2-6-2","lat":35.71527,"lon":139.71254},{"name":"目白二丁目第２児童遊園","province":"東京都","city":"豊島区","address":"東京都豊島区目白2-5-10","lat":35.721,"lon":139.71214},{"name":"目白二丁目児童遊園","province":"東京都","city":"豊島区","address":"東京都豊島区目白2-15-7","lat":35.7217,"lon":139.71068},{"name":"目白四丁目児童遊園","province":"東京都","city":"豊島区","address":"東京都豊島区目白4-11-15","lat":35.72329,"lon":139.69879},{"name":"目白四丁目旭出児童遊園","province":"東京都","city":"豊島区","address":"東京都豊島区目白4-19-11","lat":35.72477,"lon":139.70222},{"name":"目白五丁目児童遊園","province":"東京都","city":"豊島区","address":"東京都豊島区目白5-15-17","lat":35.72365,"lon":139.6973},{"name":"南長崎二丁目児童遊園","province":"東京都","city":"豊島区","address":"東京都豊島区南長崎2-2-21","lat":35.72316,"lon":139.68942},{"name":"南長崎三丁目児童遊園","province":"東京都","city":"豊島区","address":"東京都豊島区南長崎3-4-15","lat":35.7237,"lon":139.68774},{"name":"南長崎六丁目児童遊園","province":"東京都","city":"豊島区","address":"東京都豊島区南長崎6-35-17","lat":35.73183,"lon":139.67888},{"name":"長崎二丁目第２児童遊園","province":"東京都","city":"豊島区","address":"東京都豊島区長崎2-8-1","lat":35.72783,"lon":139.69135},{"name":"長崎二丁目中央児童遊園","province":"東京都","city":"豊島区","address":"東京都豊島区長崎2-25-11","lat":35.7296,"lon":139.69162},{"name":"長崎二丁目児童遊園","province":"東京都","city":"豊島区","address":"東京都豊島区長崎2-27-18","lat":35.72959,"lon":139.69295},{"name":"長崎四丁目うめの木児童遊園","province":"東京都","city":"豊島区","address":"東京都豊島区長崎4-3-8","lat":35.72902,"lon":139.68559},{"name":"長崎四丁目児童遊園","province":"東京都","city":"豊島区","address":"東京都豊島区長崎4-44-3","lat":35.7318,"lon":139.68681},{"name":"長崎六丁目さつき児童遊園","province":"東京都","city":"豊島区","address":"東京都豊島区長崎6-4-8","lat":35.73362,"lon":139.67929},{"name":"長崎六丁目児童遊園","province":"東京都","city":"豊島区","address":"東京都豊島区長崎6-39-1","lat":35.73723,"lon":139.68137},{"name":"千早三丁目児童遊園","province":"東京都","city":"豊島区","address":"東京都豊島区千早3-26-10","lat":35.73436,"lon":139.68626},{"name":"要町一丁目児童遊園","province":"東京都","city":"豊島区","address":"東京都豊島区要町1-25-3","lat":35.73496,"lon":139.69545},{"name":"要町三丁目児童遊園","province":"東京都","city":"豊島区","address":"東京都豊島区要町3-7-9","lat":35.73709,"lon":139.68773},{"name":"千川児童遊園","province":"東京都","city":"豊島区","address":"東京都豊島区要町3-19-2","lat":35.73863,"lon":139.687},{"name":"高松一丁目児童遊園","province":"東京都","city":"豊島区","address":"東京都豊島区高松1-6-5","lat":35.73521,"lon":139.69807},{"name":"高松二丁目児童遊園","province":"東京都","city":"豊島区","address":"東京都豊島区高松2-33-11","lat":35.73767,"lon":139.69937},{"name":"高松三丁目児童遊園","province":"東京都","city":"豊島区","address":"東京都豊島区高松3-5-6","lat":35.7412,"lon":139.69795},{"name":"千川二丁目第２児童遊園","province":"東京都","city":"豊島区","address":"東京都豊島区千川2-5-15","lat":35.7404,"lon":139.69203},{"name":"千川二丁目中央児童遊園","province":"東京都","city":"豊島区","address":"東京都豊島区千川2-11-17","lat":35.74136,"lon":139.69287},{"name":"千川二丁目児童遊園","province":"東京都","city":"豊島区","address":"東京都豊島区千川2-33-4","lat":35.74155,"lon":139.6904},{"name":"染井の杜広場仮児童遊園","province":"東京都","city":"豊島区","address":"東京都豊島区駒込4-3","lat":35.73547,"lon":139.74277},{"name":"御嶽神社境内仮児童遊園","province":"東京都","city":"豊島区","address":"東京都豊島区池袋3-51-2","lat":35.73651,"lon":139.70645},{"name":"目白二丁目仮児童遊園","province":"東京都","city":"豊島区","address":"東京都豊島区目白2-29先","lat":35.7236,"lon":139.70816},{"name":"目白四丁目仮児童遊園","province":"東京都","city":"豊島区","address":"東京都豊島区目白4-30先","lat":35.7263,"lon":139.69852},{"name":"南長崎五丁目稲荷神社境内仮児童遊園","province":"東京都","city":"豊島区","address":"東京都豊島区南長崎5-12-7","lat":35.7278,"lon":139.68382},{"name":"要町一丁目広場仮児童遊園","province":"東京都","city":"豊島区","address":"東京都豊島区要町1-42-7","lat":35.73672,"lon":139.69843},{"name":"富士浅間神社境内仮児童遊園","province":"東京都","city":"豊島区","address":"東京都豊島区高松2-9-3","lat":35.73787,"lon":139.6954},{"name":"南長崎三丁目仮児童遊園","province":"東京都","city":"豊島区","address":"東京都豊島区南長崎3-9","lat":35.7243,"lon":139.68665},{"name":"目白庭園","province":"東京都","city":"豊島区","address":"東京都豊島区目白3-20-18","lat":35.72418,"lon":139.70547},{"name":"椎名橋下広場","province":"東京都","city":"豊島区","address":"東京都豊島区西池袋4-39先","lat":35.72633,"lon":139.69626},{"name":"南長崎中央公園スポーツセンター（通路の一部）仮児童遊園","province":"東京都","city":"豊島区","address":"東京都豊島区南長崎4-13-5","lat":35.72449,"lon":139.68369},{"name":"池袋本町四丁目路傍緑地","province":"東京都","city":"豊島区","address":"東京都豊島区池袋本町4-46","lat":35.74493,"lon":139.71817},{"name":"宿坂路傍緑地","province":"東京都","city":"豊島区","address":"東京都豊島区高田2-11","lat":35.71572,"lon":139.71443},{"name":"千川緑地","province":"東京都","city":"豊島区","address":"東京都豊島区要町3-18","lat":35.73783,"lon":139.68652},{"name":"駒込駅北自転車駐車場","province":"東京都","city":"豊島区","address":"東京都豊島区駒込2-2-2","lat":35.73686,"lon":139.74675},{"name":"巣鴨駅北自転車駐車場","province":"東京都","city":"豊島区","address":"東京都豊島区巣鴨2-7-11","lat":35.73471,"lon":139.74046},{"name":"巣鴨駅南自転車駐車場","province":"東京都","city":"豊島区","address":"東京都豊島区巣鴨1-13-8","lat":35.73285,"lon":139.74033},{"name":"西巣鴨駅自転車駐車場","province":"東京都","city":"豊島区","address":"東京都豊島区西巣鴨3-26-1","lat":35.74348,"lon":139.72778},{"name":"池袋駅東自転車駐車場","province":"東京都","city":"豊島区","address":"東京都豊島区東池袋1-50-23","lat":35.73285,"lon":139.71278},{"name":"池袋駅南自転車駐車場","province":"東京都","city":"豊島区","address":"東京都豊島区南池袋2-21-6","lat":35.7276,"lon":139.71432},{"name":"池袋駅西自転車駐車場","province":"東京都","city":"豊島区","address":"東京都豊島区西池袋3-20-1","lat":35.73058,"lon":139.70546},{"name":"目白駅東自転車駐車場","province":"東京都","city":"豊島区","address":"東京都豊島区目白1-4-1","lat":35.71978,"lon":139.70642},{"name":"南長崎自転車駐車場","province":"東京都","city":"豊島区","address":"東京都豊島区南長崎4-13-5","lat":35.72449,"lon":139.68369},{"name":"要町駅南自転車駐車場","province":"東京都","city":"豊島区","address":"東京都豊島区要町1-4-11","lat":35.7334,"lon":139.69649},{"name":"千川駅北第一自転車駐車場","province":"東京都","city":"豊島区","address":"東京都豊島区要町3-44-8","lat":35.73908,"lon":139.68895},{"name":"千川駅南自転車駐車場","province":"東京都","city":"豊島区","address":"東京都豊島区要町3-9-16","lat":35.73744,"lon":139.68953},{"name":"巣鴨駅第三自転車駐車場","province":"東京都","city":"豊島区","address":"東京都豊島区巣鴨2-9-23","lat":35.73484,"lon":139.73824},{"name":"ウイロード自転車駐車場","province":"東京都","city":"豊島区","address":"東京都豊島区南池袋1-28-2","lat":35.72919,"lon":139.71141},{"name":"目白駅西自転車駐車場","province":"東京都","city":"豊島区","address":"東京都豊島区目白3-4-3","lat":35.72173,"lon":139.70589},{"name":"椎名橋自転車駐車場","province":"東京都","city":"豊島区","address":"東京都豊島区長崎1-9-30","lat":35.72727,"lon":139.69556},{"name":"新庚申塚路上自転車駐車場","province":"東京都","city":"豊島区","address":"東京都豊島区西巣鴨3-15先","lat":35.74192,"lon":139.72998},{"name":"千登世橋自転車駐車場","province":"東京都","city":"豊島区","address":"東京都豊島区雑司が谷3-1-7","lat":35.71957,"lon":139.71385},{"name":"巣鴨駅北口白山通り自転車駐車場","province":"東京都","city":"豊島区","address":"東京都豊島区巣鴨2-9先","lat":35.73484,"lon":139.73824},{"name":"池袋駅北自転車駐車場","province":"東京都","city":"豊島区","address":"東京都豊島区池袋1-4-20","lat":35.73453,"lon":139.71301},{"name":"池袋駅北第二自転車駐車場","province":"東京都","city":"豊島区","address":"東京都豊島区池袋1-4-20先","lat":35.73453,"lon":139.71301},{"name":"池袋駅東第二自転車駐車場","province":"東京都","city":"豊島区","address":"東京都豊島区東池袋1-50先","lat":35.73285,"lon":139.71278},{"name":"大塚駅北口路上自転車駐車場","province":"東京都","city":"豊島区","address":"東京都豊島区北大塚2-14","lat":35.73224,"lon":139.72934},{"name":"空蝉橋原動機付自転車駐車場","province":"東京都","city":"豊島区","address":"東京都豊島区北大塚2-3先","lat":35.73243,"lon":139.72667},{"name":"大塚駅北口第二自転車駐車場","province":"東京都","city":"豊島区","address":"東京都豊島区北大塚2-4先","lat":35.73289,"lon":139.72655},{"name":"大塚駅北口第三自転車駐車場","province":"東京都","city":"豊島区","address":"東京都豊島区北大塚2-4先","lat":35.73289,"lon":139.72655},{"name":"目白駅北自転車駐車場","province":"東京都","city":"豊島区","address":"東京都豊島区目白3-16","lat":35.72305,"lon":139.70688},{"name":"要町駅北自転車駐車場","province":"東京都","city":"豊島区","address":"東京都豊島区要町1-10-8","lat":35.73359,"lon":139.69859},{"name":"要町駅路上自転車駐車場","province":"東京都","city":"豊島区","address":"東京都豊島区要町1-2から9先他","lat":35.73288,"lon":139.69731},{"name":"千川駅路上自転車駐車場","province":"東京都","city":"豊島区","address":"東京都豊島区要町3-10から23先","lat":35.73753,"lon":139.69011},{"name":"千川駅西自転車駐車場","province":"東京都","city":"豊島区","address":"東京都豊島区要町3-22-11","lat":35.73887,"lon":139.68831},{"name":"千川駅北第二自転車駐車場","province":"東京都","city":"豊島区","address":"東京都豊島区要町3-55先","lat":35.74031,"lon":139.68839},{"name":"新大塚駅路上自転車駐車場","province":"東京都","city":"豊島区","address":"東京都豊島区南大塚3-1先","lat":35.72641,"lon":139.72951},{"name":"大塚駅北口第四自転車駐車場","province":"東京都","city":"豊島区","address":"東京都豊島区南大塚3-33-4","lat":35.73174,"lon":139.72762},{"name":"大塚駅南自転車駐車場","province":"東京都","city":"豊島区","address":"東京都豊島区南大塚3-33-3","lat":35.73174,"lon":139.72762},{"name":"池袋六ツ又陸橋自転車駐車場","province":"東京都","city":"豊島区","address":"東京都豊島区東池袋3-8先","lat":35.73281,"lon":139.71751},{"name":"池袋駅西第二自転車駐車場","province":"東京都","city":"豊島区","address":"東京都豊島区西池袋1-8-1","lat":35.72988,"lon":139.70824},{"name":"神田川第一登録制自転車置場","province":"東京都","city":"豊島区","address":"東京都豊島区高田3-9先","lat":35.71444,"lon":139.70654},{"name":"北池袋自転車置場","province":"東京都","city":"豊島区","address":"東京都豊島区上池袋4-29","lat":35.74129,"lon":139.71841},{"name":"北池袋自転車置場","province":"東京都","city":"豊島区","address":"東京都豊島区上池袋4-27","lat":35.74095,"lon":139.7193},{"name":"下板橋自転車置場","province":"東京都","city":"豊島区","address":"東京都豊島区池袋本町3-25先","lat":35.74527,"lon":139.71396},{"name":"東池袋登録制自転車置場","province":"東京都","city":"豊島区","address":"東京都豊島区南池袋2~4先","lat":35.72652,"lon":139.71501},{"name":"西巣鴨自転車保管所","province":"東京都","city":"豊島区","address":"東京都豊島区西巣鴨4-14","lat":35.74458,"lon":139.72832},{"name":"東池袋五丁目自転車保管所","province":"東京都","city":"豊島区","address":"東京都豊島区東池袋5-44","lat":35.72752,"lon":139.72639},{"name":"池袋三丁目自転車保管所","province":"東京都","city":"豊島区","address":"東京都豊島区池袋3-58","lat":35.73514,"lon":139.7075},{"name":"池袋駅西自転車駐車場内自転車保管所","province":"東京都","city":"豊島区","address":"東京都豊島区西池袋3-20-1","lat":35.73058,"lon":139.70546},{"name":"南長崎自転車保管所","province":"東京都","city":"豊島区","address":"東京都豊島区南長崎5-3","lat":35.72692,"lon":139.68196},{"name":"富士見橋下自転車保管所","province":"東京都","city":"豊島区","address":"東京都豊島区池袋本町1-1","lat":35.73727,"lon":139.71455},{"name":"第1辻広場(富士山広場)","province":"東京都","city":"豊島区","address":"東京都豊島区東池袋5-30-7","lat":35.72674,"lon":139.72395},{"name":"第2辻広場(太陽広場)","province":"東京都","city":"豊島区","address":"東京都豊島区東池袋5-24-5","lat":35.72625,"lon":139.72421},{"name":"第3辻広場(鎮守の森)","province":"東京都","city":"豊島区","address":"東京都豊島区東池袋5-6-12","lat":35.72495,"lon":139.72177},{"name":"第4辻広場(日光広場)","province":"東京都","city":"豊島区","address":"東京都豊島区東池袋4-15-5","lat":35.72596,"lon":139.72118},{"name":"第5辻広場(モーモ―広場)","province":"東京都","city":"豊島区","address":"東京都豊島区東池袋5-26-4","lat":35.72687,"lon":139.72496},{"name":"第6辻広場(四季の花広場)","province":"東京都","city":"豊島区","address":"東京都豊島区東池袋5-32-11","lat":35.72725,"lon":139.72389},{"name":"第7辻広場(日傘広場)","province":"東京都","city":"豊島区","address":"東京都豊島区東池袋5-6-5","lat":35.72495,"lon":139.72177},{"name":"第8辻広場(ガタガタ広場)","province":"東京都","city":"豊島区","address":"東京都豊島区東池袋5-19","lat":35.72671,"lon":139.7233},{"name":"第9辻広場(さわやか広場)","province":"東京都","city":"豊島区","address":"東京都豊島区東池袋5-40-11","lat":35.72807,"lon":139.726},{"name":"第10辻広場(なまず広場)","province":"東京都","city":"豊島区","address":"東京都豊島区東池袋5-43-12","lat":35.72704,"lon":139.72557},{"name":"第11辻広場(星ふる広場)","province":"東京都","city":"豊島区","address":"東京都豊島区東池袋5-35-19","lat":35.72781,"lon":139.72481},{"name":"第１コミュニティ広場","province":"東京都","city":"豊島区","address":"東京都豊島区駒込6-32-8","lat":35.74213,"lon":139.74136},{"name":"第2コミュニティ広場","province":"東京都","city":"豊島区","address":"東京都豊島区駒込6-30-1","lat":35.74141,"lon":139.74127},{"name":"第3コミュニティ広場","province":"東京都","city":"豊島区","address":"東京都豊島区巣鴨5-39-19","lat":35.74056,"lon":139.73639},{"name":"第4コミュニティ広場(朝日ほのぼのランド)","province":"東京都","city":"豊島区","address":"東京都豊島区巣鴨5-25-11","lat":35.74192,"lon":139.73192},{"name":"第5コミュニティ広場(わたしの庭、みんなの庭)","province":"東京都","city":"豊島区","address":"東京都豊島区駒込3-8-2","lat":35.73694,"lon":139.74373},{"name":"第6コミュニティ広場","province":"東京都","city":"豊島区","address":"東京都豊島区巣鴨5-49-4","lat":35.7398,"lon":139.73439},{"name":"上池袋第2まちかど広場(東雲ふれあい広場)","province":"東京都","city":"豊島区","address":"東京都豊島区上池袋4-40-9","lat":35.74271,"lon":139.71883},{"name":"ひだまり防災広場","province":"東京都","city":"豊島区","address":"東京都豊島区上池袋1-17-7","lat":35.73447,"lon":139.72105},{"name":"東通りふれあい広場","province":"東京都","city":"豊島区","address":"東京都豊島区南池袋2-4-4","lat":35.72458,"lon":139.71655},{"name":"防災ミニ広場","province":"東京都","city":"豊島区","address":"東京都豊島区東池袋4-32-1","lat":35.72641,"lon":139.7218}]}