{"keyword":"区","data":[{"name":"池袋保健所（地域保健課）","province":"東京都","city":"豊島区","address":"豊島区東池袋1-20-9","lat":35.731339,"lon":139.71556},{"name":"池袋保健所（生活衛生課）","province":"東京都","city":"豊島区","address":"豊島区東池袋1-20-9","lat":35.731339,"lon":139.71556},{"name":"池袋保健所（健康推進課）","province":"東京都","city":"豊島区","address":"豊島区東池袋1-20-9","lat":35.731339,"lon":139.71556},{"name":"長崎健康相談所","province":"東京都","city":"豊島区","address":"豊島区長崎2-27-18","lat":35.729594,"lon":139.693087},{"name":"池袋保健所（地域保健課）","province":"東京都","city":"豊島区","address":"東京都豊島区東池袋4丁目42-16","lat":35.72757828,"lon":139.72109618},{"name":"池袋保健所（保健予防課）","province":"東京都","city":"豊島区","address":"東京都豊島区東池袋4丁目42-16","lat":35.72757828,"lon":139.72109618},{"name":"池袋保健所（生活衛生課）","province":"東京都","city":"豊島区","address":"東京都豊島区東池袋4丁目42-16","lat":35.72757828,"lon":139.72109618},{"name":"池袋保健所（健康推進課）","province":"東京都","city":"豊島区","address":"東京都豊島区東池袋4丁目42-16","lat":35.72757828,"lon":139.72109618},{"name":"長崎健康相談所","province":"東京都","city":"豊島区","address":"東京都豊島区長崎3丁目6-24","lat":35.72873835,"lon":139.68815727},{"name":"池袋保健所（地域保健課）","province":"東京都","city":"豊島区","address":"豊島区東池袋4-42-16","lat":35.72778,"lon":139.72185},{"name":"池袋保健所（生活衛生課）","province":"東京都","city":"豊島区","address":"豊島区東池袋4-42-16","lat":35.72778,"lon":139.72185},{"name":"池袋保健所（健康推進課）","province":"東京都","city":"豊島区","address":"豊島区東池袋4-42-16","lat":35.72778,"lon":139.72185},{"name":"長崎健康相談所","province":"東京都","city":"豊島区","address":"豊島区長崎3-6-24","lat":35.72884,"lon":139.68799},{"name":"長崎健康相談所","province":"東京都","city":"豊島区","address":"豊島区長崎2-27-18","lat":35.72959,"lon":139.69295}]}