{"keyword":"医薬","data":[{"name":"豊島区","province":"東京都","city":"豊島区","address":"豊島区東池袋1-18-1","lat":35.73241337,"lon":139.715538},{"name":"豊島合同庁舎","province":"東京都","city":"豊島区","address":"東京都豊島区西池袋1丁目17-1","lat":35.73095,"lon":139.708405},{"name":"東京芸術劇場","province":"東京都","city":"豊島区","address":"東京都豊島区西池袋1丁目8-1","lat":35.72987,"lon":139.7082},{"name":"東京芸術劇場","province":"東京都","city":"豊島区","address":"東京都豊島区西池袋1丁目8","lat":35.72998,"lon":139.7078},{"name":"東京芸術劇場","province":"東京都","city":"豊島区","address":"東京都豊島区西池袋1丁目8-1","lat":35.7296,"lon":139.7077},{"name":"東京芸術劇場","province":"東京都","city":"豊島区","address":"東京都豊島区西池袋1丁目8-1","lat":35.72946,"lon":139.7081},{"name":"東京芸術劇場","province":"東京都","city":"豊島区","address":"東京都豊島区西池袋1丁目8","lat":35.72997,"lon":139.7078},{"name":"東京芸術劇場","province":"東京都","city":"豊島区","address":"東京都豊島区西池袋1丁目8","lat":35.72958,"lon":139.7082},{"name":"東京芸術劇場","province":"東京都","city":"豊島区","address":"東京都豊島区西池袋1丁目8-1","lat":35.7301,"lon":139.7083},{"name":"地方独立行政法人東京都立病院機構　東京都立大塚病院","province":"東京都","city":"豊島区","address":"東京都豊島区南大塚2丁目8-1","lat":35.725405,"lon":139.73251},{"name":"地方独立行政法人東京都立病院機構　東京都立大塚病院","province":"東京都","city":"豊島区","address":"東京都豊島区南大塚2丁目8-1","lat":35.725316,"lon":139.732052},{"name":"染井霊園","province":"東京都","city":"豊島区","address":"東京都豊島区駒込5丁目5","lat":35.738622,"lon":139.738376},{"name":"雑司ヶ谷霊園","province":"東京都","city":"豊島区","address":"東京都豊島区南池袋4丁目25","lat":35.722669,"lon":139.717842},{"name":"都営三田線駅巣鴨駅","province":"東京都","city":"豊島区","address":"東京都豊島区巣鴨3丁目27","lat":35.733428,"lon":139.738723},{"name":"都営三田線駅西巣鴨駅","province":"東京都","city":"豊島区","address":"東京都豊島区西巣鴨3丁目24","lat":35.743301,"lon":139.728923},{"name":"区民ひろば西巣鴨第一","province":"東京都","city":"豊島区","address":"東京都豊島区西巣鴨2丁目35-3","lat":35.740429,"lon":139.727833},{"name":"豊島区役所本庁舎","province":"東京都","city":"豊島区","address":"東京都豊島区南池袋2丁目45-3","lat":35.72615,"lon":139.716564},{"name":"豊島区役所本庁舎","province":"東京都","city":"豊島区","address":"東京都豊島区南池袋2丁目45-3","lat":35.726144,"lon":139.716565},{"name":"豊島区役所本庁舎","province":"東京都","city":"豊島区","address":"東京都豊島区南池袋2丁目45-3","lat":35.726148,"lon":139.716571},{"name":"豊島区役所本庁舎","province":"東京都","city":"豊島区","address":"東京都豊島区南池袋2丁目45-3","lat":35.726154,"lon":139.71657},{"name":"豊島区役所本庁舎","province":"東京都","city":"豊島区","address":"東京都豊島区南池袋2丁目45-3","lat":35.726156,"lon":139.716562},{"name":"豊島区役所本庁舎","province":"東京都","city":"豊島区","address":"東京都豊島区南池袋2丁目45-3","lat":35.726151,"lon":139.716557},{"name":"豊島区役所本庁舎","province":"東京都","city":"豊島区","address":"東京都豊島区南池袋2丁目45-3","lat":35.726145,"lon":139.716557},{"name":"豊島区役所東池袋分庁舎","province":"東京都","city":"豊島区","address":"東京都豊島区東池袋1丁目39-2","lat":35.732543,"lon":139.714499},{"name":"東部区民事務所","province":"東京都","city":"豊島区","address":"東京都豊島区北大塚1丁目15-10","lat":35.731248,"lon":139.73134},{"name":"西部区民事務所","province":"東京都","city":"豊島区","address":"東京都豊島区千早2丁目39-16","lat":35.735742,"lon":139.691025},{"name":"区民ひろば仰高","province":"東京都","city":"豊島区","address":"東京都豊島区駒込4丁目12-3","lat":35.736824,"lon":139.740331},{"name":"区民ひろば駒込","province":"東京都","city":"豊島区","address":"東京都豊島区駒込2丁目2-4","lat":35.737169,"lon":139.747741},{"name":"区民ひろば南大塚","province":"東京都","city":"豊島区","address":"東京都豊島区南大塚2丁目36-1","lat":35.729101,"lon":139.729551},{"name":"区民ひろば清和第一","province":"東京都","city":"豊島区","address":"東京都豊島区巣鴨3丁目15-20","lat":35.735686,"lon":139.733854},{"name":"区民ひろば清和第二","province":"東京都","city":"豊島区","address":"東京都豊島区巣鴨3丁目13-12","lat":35.735286,"lon":139.732376},{"name":"トキワ荘通りお休み処","province":"東京都","city":"豊島区","address":"東京都豊島区南長崎2丁目3-2","lat":35.723349,"lon":139.688919},{"name":"区民ひろば西巣鴨第二","province":"東京都","city":"豊島区","address":"東京都豊島区西巣鴨2丁目14-11","lat":35.738802,"lon":139.727799},{"name":"区民ひろば朝日","province":"東京都","city":"豊島区","address":"東京都豊島区巣鴨5丁目33-21","lat":35.740606,"lon":139.733535},{"name":"区民ひろば朝日","province":"東京都","city":"豊島区","address":"東京都豊島区巣鴨5丁目33-21","lat":35.740604,"lon":139.733536},{"name":"区民ひろば豊成","province":"東京都","city":"豊島区","address":"東京都豊島区上池袋1丁目28-7","lat":35.737067,"lon":139.721674},{"name":"区民ひろば上池袋","province":"東京都","city":"豊島区","address":"東京都豊島区上池袋3丁目13-5","lat":35.740073,"lon":139.716648},{"name":"区民ひろば池袋本町","province":"東京都","city":"豊島区","address":"東京都豊島区池袋本町3丁目9-4","lat":35.743688,"lon":139.712703},{"name":"区民ひろば池袋本町","province":"東京都","city":"豊島区","address":"東京都豊島区池袋本町3丁目9-4","lat":35.743637,"lon":139.712782},{"name":"区民ひろば西池袋","province":"東京都","city":"豊島区","address":"東京都豊島区西池袋2丁目37-4","lat":35.727765,"lon":139.706744},{"name":"区民ひろば南池袋","province":"東京都","city":"豊島区","address":"東京都豊島区南池袋3丁目5-12","lat":35.723415,"lon":139.713933},{"name":"区民ひろば高南第一","province":"東京都","city":"豊島区","address":"東京都豊島区高田2丁目11-2","lat":35.715695,"lon":139.714563},{"name":"区民ひろば目白","province":"東京都","city":"豊島区","address":"東京都豊島区目白2丁目20-26","lat":35.722248,"lon":139.709874},{"name":"区民ひろば長崎","province":"東京都","city":"豊島区","address":"東京都豊島区長崎2丁目27-18","lat":35.729607,"lon":139.693005},{"name":"区民ひろば長崎","province":"東京都","city":"豊島区","address":"東京都豊島区長崎2丁目27-18","lat":35.729673,"lon":139.693103},{"name":"区民ひろば富士見台","province":"東京都","city":"豊島区","address":"東京都豊島区南長崎1丁目6-1","lat":35.723985,"lon":139.69171},{"name":"区民ひろば千早","province":"東京都","city":"豊島区","address":"東京都豊島区要町3丁目7-10","lat":35.737195,"lon":139.687399},{"name":"区民ひろば高松","province":"東京都","city":"豊島区","address":"東京都豊島区高松2丁目25-9","lat":35.738778,"lon":139.697519},{"name":"区民ひろばさくら第二","province":"東京都","city":"豊島区","address":"東京都豊島区長崎6丁目37-11","lat":35.736607,"lon":139.682708},{"name":"区民ひろばさくら第一","province":"東京都","city":"豊島区","address":"東京都豊島区南長崎6丁目20-15","lat":35.729751,"lon":139.680965},{"name":"豊島区児童相談所・長崎健康相談所","province":"東京都","city":"豊島区","address":"東京都豊島区長崎3丁目6-24","lat":35.728683,"lon":139.688156},{"name":"区民ひろば池袋","province":"東京都","city":"豊島区","address":"東京都豊島区池袋4丁目21-10","lat":35.738386,"lon":139.70871},{"name":"西部生活福祉課総合施設","province":"東京都","city":"豊島区","address":"東京都豊島区要町1丁目5-1","lat":35.733041,"lon":139.696008},{"name":"要町第一区民集会室","province":"東京都","city":"豊島区","address":"東京都豊島区要町1丁目5-1","lat":35.733041,"lon":139.696008},{"name":"区民ひろば要","province":"東京都","city":"豊島区","address":"東京都豊島区要町1丁目5-1","lat":35.733041,"lon":139.696008},{"name":"池袋保健所","province":"東京都","city":"豊島区","address":"東京都豊島区東池袋4丁目42-16","lat":35.727771,"lon":139.721016},{"name":"池袋保健所","province":"東京都","city":"豊島区","address":"東京都豊島区東池袋4丁目42-16","lat":35.727794,"lon":139.721098},{"name":"中央図書館","province":"東京都","city":"豊島区","address":"東京都豊島区東池袋4丁目5-2","lat":35.726824,"lon":139.718816},{"name":"中央図書館","province":"東京都","city":"豊島区","address":"東京都豊島区東池袋4丁目5-2","lat":35.72688,"lon":139.718834},{"name":"巣鴨図書館","province":"東京都","city":"豊島区","address":"東京都豊島区巣鴨3丁目8-2","lat":35.73391,"lon":139.733194},{"name":"上池袋図書館","province":"東京都","city":"豊島区","address":"東京都豊島区上池袋2丁目45-15","lat":35.738607,"lon":139.716959},{"name":"池袋図書館","province":"東京都","city":"豊島区","address":"東京都豊島区池袋3丁目29-10","lat":35.735934,"lon":139.705839},{"name":"目白図書館","province":"東京都","city":"豊島区","address":"東京都豊島区目白4丁目31-8","lat":35.725692,"lon":139.698888},{"name":"目白図書館","province":"東京都","city":"豊島区","address":"東京都豊島区目白4丁目31-8","lat":35.725741,"lon":139.698893},{"name":"千早図書館","province":"東京都","city":"豊島区","address":"東京都豊島区千早2丁目44-2","lat":35.735727,"lon":139.688356},{"name":"駒込地域文化創造館","province":"東京都","city":"豊島区","address":"東京都豊島区駒込2丁目2-2","lat":35.737091,"lon":139.747253},{"name":"巣鴨地域文化創造館","province":"東京都","city":"豊島区","address":"東京都豊島区巣鴨4丁目15","lat":35.737551,"lon":139.73187},{"name":"巣鴨地域文化創造館","province":"東京都","city":"豊島区","address":"東京都豊島区巣鴨4丁目15-11","lat":35.737598,"lon":139.731809},{"name":"南大塚地域文化創造館","province":"東京都","city":"豊島区","address":"東京都豊島区南大塚2丁目36-1","lat":35.728975,"lon":139.729556},{"name":"千早地域文化創造館","province":"東京都","city":"豊島区","address":"東京都豊島区千早2丁目35-12","lat":35.735338,"lon":139.688619},{"name":"雑司が谷旧宣教師館","province":"東京都","city":"豊島区","address":"東京都豊島区雑司が谷1丁目25","lat":35.720854,"lon":139.720653},{"name":"昭和歴史文化記念館","province":"東京都","city":"豊島区","address":"東京都豊島区南長崎3丁目4","lat":35.723864,"lon":139.687776},{"name":"トキワ荘マンガミュージアム","province":"東京都","city":"豊島区","address":"東京都豊島区南長崎3丁目9","lat":35.724472,"lon":139.686028},{"name":"区民ひろば椎名町","province":"東京都","city":"豊島区","address":"東京都豊島区南長崎4丁目29-10","lat":35.726021,"lon":139.685567},{"name":"南大塚ホール","province":"東京都","city":"豊島区","address":"東京都豊島区南大塚2丁目36-1","lat":35.729318,"lon":139.729776},{"name":"あうるすぽっと","province":"東京都","city":"豊島区","address":"東京都豊島区東池袋4丁目5-2","lat":35.72688,"lon":139.718834},{"name":"あうるすぽっと","province":"東京都","city":"豊島区","address":"東京都豊島区東池袋4丁目5-2","lat":35.726824,"lon":139.718816},{"name":"東京建物BrilliaHALL","province":"東京都","city":"豊島区","address":"東京都豊島区東池袋1丁目19","lat":35.731718,"lon":139.715454},{"name":"東京建物BrilliaHALL","province":"東京都","city":"豊島区","address":"東京都豊島区東池袋1丁目19-1","lat":35.731721,"lon":139.715517},{"name":"駒込東公園","province":"東京都","city":"豊島区","address":"東京都豊島区駒込1丁目22","lat":35.735484,"lon":139.749714},{"name":"江戸橋公園","province":"東京都","city":"豊島区","address":"東京都豊島区巣鴨1丁目37","lat":35.731933,"lon":139.736664},{"name":"西巣鴨公園","province":"東京都","city":"豊島区","address":"東京都豊島区西巣鴨1丁目3","lat":35.736458,"lon":139.7252},{"name":"巣鴨公園","province":"東京都","city":"豊島区","address":"東京都豊島区北大塚1丁目12","lat":35.732323,"lon":139.73179},{"name":"宮仲公園","province":"東京都","city":"豊島区","address":"東京都豊島区上池袋1丁目36","lat":35.73593,"lon":139.724646},{"name":"上池袋公園","province":"東京都","city":"豊島区","address":"東京都豊島区上池袋2丁目25","lat":35.736176,"lon":139.716304},{"name":"上池袋くすのき公園","province":"東京都","city":"豊島区","address":"東京都豊島区上池袋4丁目19","lat":35.740266,"lon":139.720822},{"name":"池袋駅前公園","province":"東京都","city":"豊島区","address":"東京都豊島区東池袋1丁目50","lat":35.732769,"lon":139.713},{"name":"東池袋中央公園","province":"東京都","city":"豊島区","address":"東京都豊島区東池袋3丁目1","lat":35.730319,"lon":139.718749},{"name":"東池袋公園","province":"東京都","city":"豊島区","address":"東京都豊島区東池袋3丁目14","lat":35.73143,"lon":139.717571},{"name":"日出町第二公園","province":"東京都","city":"豊島区","address":"東京都豊島区東池袋4丁目4","lat":35.72609,"lon":139.719346},{"name":"南池袋公園","province":"東京都","city":"豊島区","address":"東京都豊島区南池袋2丁目21","lat":35.727826,"lon":139.714845},{"name":"池袋西口公園","province":"東京都","city":"豊島区","address":"東京都豊島区西池袋1丁目8-26","lat":35.730123,"lon":139.709226},{"name":"御嶽北公園","province":"東京都","city":"豊島区","address":"東京都豊島区池袋3丁目44","lat":35.737189,"lon":139.706276},{"name":"池袋公園","province":"東京都","city":"豊島区","address":"東京都豊島区池袋4丁目22","lat":35.737905,"lon":139.7085},{"name":"池袋本町公園","province":"東京都","city":"豊島区","address":"東京都豊島区池袋本町1丁目26","lat":35.740015,"lon":139.713544},{"name":"高田第二公園","province":"東京都","city":"豊島区","address":"東京都豊島区高田1丁目2","lat":35.713241,"lon":139.720962},{"name":"椎名町公園","province":"東京都","city":"豊島区","address":"東京都豊島区南長崎1丁目20","lat":35.72608,"lon":139.693019},{"name":"南長崎公園","province":"東京都","city":"豊島区","address":"東京都豊島区南長崎3丁目37","lat":35.726735,"lon":139.688392},{"name":"南長崎中央公園スポーツセンター","province":"東京都","city":"豊島区","address":"東京都豊島区南長崎4丁目13-5","lat":35.724821,"lon":139.683479},{"name":"千早二丁目公園","province":"東京都","city":"豊島区","address":"東京都豊島区千早2丁目35","lat":35.735067,"lon":139.688934},{"name":"池袋の森","province":"東京都","city":"豊島区","address":"東京都豊島区池袋1丁目7","lat":35.735087,"lon":139.711886},{"name":"目白の森","province":"東京都","city":"豊島区","address":"東京都豊島区目白4丁目11","lat":35.723105,"lon":139.699141},{"name":"目白庭園","province":"東京都","city":"豊島区","address":"東京都豊島区目白3丁目20","lat":35.724422,"lon":139.705826},{"name":"池袋一丁目第二公園","province":"東京都","city":"豊島区","address":"東京都豊島区池袋1丁目8","lat":35.736356,"lon":139.711748},{"name":"駒込公園","province":"東京都","city":"豊島区","address":"東京都豊島区駒込2丁目3","lat":35.737539,"lon":139.747197},{"name":"朝日公園","province":"東京都","city":"豊島区","address":"東京都豊島区巣鴨5丁目22","lat":35.741229,"lon":139.732554},{"name":"南池袋一丁目公園","province":"東京都","city":"豊島区","address":"東京都豊島区南池袋1丁目4","lat":35.724187,"lon":139.709337},{"name":"千早公園","province":"東京都","city":"豊島区","address":"東京都豊島区千早2丁目31","lat":35.735023,"lon":139.690185},{"name":"池袋第二公園","province":"東京都","city":"豊島区","address":"東京都豊島区池袋3丁目29","lat":35.73587,"lon":139.705376},{"name":"駒込四丁目公園","province":"東京都","city":"豊島区","address":"東京都豊島区駒込4丁目7","lat":35.735042,"lon":139.742565},{"name":"雑司が谷公園","province":"東京都","city":"豊島区","address":"東京都豊島区雑司が谷2丁目11","lat":35.718725,"lon":139.716504},{"name":"富士浅間神社境内仮児童遊園","province":"東京都","city":"豊島区","address":"東京都豊島区高松2丁目9","lat":35.737727,"lon":139.695165},{"name":"北大塚二丁目公園","province":"東京都","city":"豊島区","address":"東京都豊島区北大塚2丁目34","lat":35.734938,"lon":139.729251},{"name":"南長崎三丁目第二公園","province":"東京都","city":"豊島区","address":"東京都豊島区南長崎3丁目40","lat":35.72732,"lon":139.687328},{"name":"目白三丁目公園","province":"東京都","city":"豊島区","address":"東京都豊島区目白3丁目15","lat":35.722878,"lon":139.706344},{"name":"としまみどりの防災公園","province":"東京都","city":"豊島区","address":"東京都豊島区東池袋4丁目42","lat":35.727133,"lon":139.721968},{"name":"雑司が谷公園","province":"東京都","city":"豊島区","address":"東京都豊島区雑司が谷2丁目11","lat":35.71871,"lon":139.716476},{"name":"中池袋公園","province":"東京都","city":"豊島区","address":"東京都豊島区東池袋1丁目16","lat":35.731673,"lon":139.7149},{"name":"池袋駅北口前公衆便所","province":"東京都","city":"豊島区","address":"東京都豊島区西池袋1丁目1-40","lat":35.731707,"lon":139.711346},{"name":"大塚駅前公衆便所","province":"東京都","city":"豊島区","address":"東京都豊島区北大塚2丁目1","lat":35.731788,"lon":139.729395},{"name":"豊島体育館","province":"東京都","city":"豊島区","address":"東京都豊島区要町3丁目47-8","lat":35.740021,"lon":139.689306},{"name":"豊島体育館","province":"東京都","city":"豊島区","address":"東京都豊島区要町3丁目47-8","lat":35.739996,"lon":139.68923},{"name":"豊島体育館","province":"東京都","city":"豊島区","address":"東京都豊島区要町3丁目47-8","lat":35.740019,"lon":139.689273},{"name":"巣鴨体育館","province":"東京都","city":"豊島区","address":"東京都豊島区巣鴨3丁目8-7","lat":35.734233,"lon":139.733466},{"name":"雑司が谷体育館","province":"東京都","city":"豊島区","address":"東京都豊島区雑司が谷3丁目1-7","lat":35.719913,"lon":139.714026},{"name":"雑司が谷体育館","province":"東京都","city":"豊島区","address":"東京都豊島区雑司が谷3丁目1-7","lat":35.719641,"lon":139.71382},{"name":"池袋スポーツセンター","province":"東京都","city":"豊島区","address":"東京都豊島区上池袋2丁目5-1","lat":35.734776,"lon":139.715224},{"name":"池袋スポーツセンター","province":"東京都","city":"豊島区","address":"東京都豊島区上池袋2丁目5-1","lat":35.734771,"lon":139.715227},{"name":"池袋スポーツセンター","province":"東京都","city":"豊島区","address":"東京都豊島区上池袋2丁目5-1","lat":35.73477,"lon":139.715219},{"name":"池袋スポーツセンター","province":"東京都","city":"豊島区","address":"東京都豊島区上池袋2丁目5-1","lat":35.73478,"lon":139.715244},{"name":"南長崎スポーツセンター","province":"東京都","city":"豊島区","address":"東京都豊島区南長崎4丁目13-5","lat":35.724766,"lon":139.683149},{"name":"南長崎スポーツセンター","province":"東京都","city":"豊島区","address":"東京都豊島区南長崎4丁目13-5","lat":35.724853,"lon":139.683039},{"name":"南長崎スポーツセンター","province":"東京都","city":"豊島区","address":"東京都豊島区南長崎4丁目13-5","lat":35.724794,"lon":139.683101},{"name":"南長崎スポーツセンター","province":"東京都","city":"豊島区","address":"東京都豊島区南長崎4丁目13-5","lat":35.724731,"lon":139.683255},{"name":"南長崎スポーツセンター","province":"東京都","city":"豊島区","address":"東京都豊島区南長崎4丁目13-5","lat":35.724733,"lon":139.683158},{"name":"ジャンプ長崎","province":"東京都","city":"豊島区","address":"東京都豊島区長崎2丁目24-13","lat":35.730053,"lon":139.691291},{"name":"としま区民センター","province":"東京都","city":"豊島区","address":"東京都豊島区東池袋1丁目20-10","lat":35.731419,"lon":139.715613},{"name":"としま区民センター","province":"東京都","city":"豊島区","address":"東京都豊島区東池袋1丁目20-10","lat":35.731469,"lon":139.71566},{"name":"としま区民センター","province":"東京都","city":"豊島区","address":"東京都豊島区東池袋1丁目20-10","lat":35.731499,"lon":139.715698},{"name":"としま区民センター","province":"東京都","city":"豊島区","address":"東京都豊島区東池袋1丁目20-10","lat":35.731424,"lon":139.715815},{"name":"としま区民センター","province":"東京都","city":"豊島区","address":"東京都豊島区東池袋1丁目20-10","lat":35.731424,"lon":139.715823},{"name":"としま区民センター","province":"東京都","city":"豊島区","address":"東京都豊島区東池袋1丁目20-10","lat":35.73142,"lon":139.715816},{"name":"としま区民センター","province":"東京都","city":"豊島区","address":"東京都豊島区東池袋1丁目20-10","lat":35.731423,"lon":139.715823},{"name":"としま区民センター","province":"東京都","city":"豊島区","address":"東京都豊島区東池袋1丁目20-10","lat":35.731426,"lon":139.715804},{"name":"としま産業振興プラザ","province":"東京都","city":"豊島区","address":"東京都豊島区西池袋2丁目37-4","lat":35.72776,"lon":139.70673},{"name":"としま産業振興プラザ","province":"東京都","city":"豊島区","address":"東京都豊島区西池袋2丁目37-4","lat":35.727781,"lon":139.706727},{"name":"としま産業振興プラザ","province":"東京都","city":"豊島区","address":"東京都豊島区西池袋2丁目37-4","lat":35.727781,"lon":139.706738},{"name":"としま産業振興プラザ","province":"東京都","city":"豊島区","address":"東京都豊島区西池袋2丁目37-4","lat":35.727772,"lon":139.706741},{"name":"としま産業振興プラザ","province":"東京都","city":"豊島区","address":"東京都豊島区西池袋2丁目37-4","lat":35.727768,"lon":139.70673},{"name":"雑司が谷丘の上テラス","province":"東京都","city":"豊島区","address":"東京都豊島区雑司が谷2丁目12","lat":35.719687,"lon":139.716576},{"name":"区立西池袋公園","province":"東京都","city":"豊島区","address":"東京都豊島区西池袋3-20-1","lat":35.7291806,"lon":139.7064044},{"name":"都立文京高等学校","province":"東京都","city":"豊島区","address":"東京都豊島区西巣鴨1-1-5","lat":35.7358562,"lon":139.728987},{"name":"豊島区立池袋駅東自転車駐車場","province":"東京都","city":"豊島区","address":"東京都豊島区東池袋1丁目50-23","lat":35.73316079,"lon":139.71341604},{"name":"豊島区立ウイロード自転車駐車場","province":"東京都","city":"豊島区","address":"東京都豊島区南池袋1丁目28-2","lat":35.73090546,"lon":139.71243844},{"name":"豊島区立池袋六ツ又陸橋自転車駐車場","province":"東京都","city":"豊島区","address":"東京都豊島区東池袋3丁目8","lat":35.73273038,"lon":139.71741572},{"name":"豊島区立池袋駅北自転車駐車場","province":"東京都","city":"豊島区","address":"東京都豊島区池袋1丁目4-20","lat":35.73401623,"lon":139.7129105},{"name":"豊島区立池袋駅北第二自転車駐車場","province":"東京都","city":"豊島区","address":"東京都豊島区池袋1丁目4-20","lat":35.73401623,"lon":139.7129105},{"name":"豊島区立池袋駅西自転車駐車場","province":"東京都","city":"豊島区","address":"東京都豊島区西池袋3丁目20-1","lat":35.73053587,"lon":139.70552793},{"name":"豊島区立大塚駅北口路上自転車駐車場","province":"東京都","city":"豊島区","address":"東京都豊島区北大塚2丁目14","lat":35.73211685,"lon":139.7291592},{"name":"豊島区立大塚駅北口第二自転車駐車場","province":"東京都","city":"豊島区","address":"東京都豊島区北大塚2丁目6","lat":35.73250566,"lon":139.72768986},{"name":"豊島区立大塚駅北口第三自転車駐車場","province":"東京都","city":"豊島区","address":"東京都豊島区北大塚2丁目4","lat":35.73294447,"lon":139.72647328},{"name":"豊島区立目白駅東自転車駐車場","province":"東京都","city":"豊島区","address":"東京都豊島区目白1丁目4-1","lat":35.72109529,"lon":139.70682544},{"name":"豊島区立目白駅北自転車駐車場","province":"東京都","city":"豊島区","address":"東京都豊島区目白3丁目16-16","lat":35.72302008,"lon":139.70710867},{"name":"豊島区立目白駅西自転車駐車場","province":"東京都","city":"豊島区","address":"東京都豊島区目白3丁目4-3","lat":35.72157854,"lon":139.70593661},{"name":"豊島区立千登世橋自転車駐車場","province":"東京都","city":"豊島区","address":"東京都豊島区雑司が谷3丁目1-7","lat":35.71967619,"lon":139.71364435},{"name":"豊島区立巣鴨駅北自転車駐車場","province":"東京都","city":"豊島区","address":"東京都豊島区巣鴨2丁目7-11","lat":35.73489179,"lon":139.73949711},{"name":"豊島区立巣鴨駅第三自転車駐車場","province":"東京都","city":"豊島区","address":"東京都豊島区巣鴨2丁目9-23","lat":35.73497233,"lon":139.73907215},{"name":"豊島区立巣鴨駅南自転車駐車場","province":"東京都","city":"豊島区","address":"東京都豊島区巣鴨1丁目13-8","lat":35.73295315,"lon":139.74026101},{"name":"豊島区立巣鴨駅北口白山通り自転車駐車場","province":"東京都","city":"豊島区","address":"東京都豊島区巣鴨2丁目9","lat":35.73477233,"lon":139.73826666},{"name":"豊島区立駒込駅北自転車駐車場","province":"東京都","city":"豊島区","address":"東京都豊島区駒込2丁目2-2","lat":35.73718619,"lon":139.74734915},{"name":"豊島区立要町駅南自転車駐車場","province":"東京都","city":"豊島区","address":"東京都豊島区要町1丁目4-11","lat":35.73335753,"lon":139.69663135},{"name":"豊島区立要町駅北自転車駐車場","province":"東京都","city":"豊島区","address":"東京都豊島区要町1丁目10-8","lat":35.73371866,"lon":139.69870616},{"name":"豊島区立要町駅路上自転車駐車場","province":"東京都","city":"豊島区","address":"東京都豊島区要町1丁目1","lat":35.7329604,"lon":139.69835067},{"name":"豊島区立千川駅南自転車駐車場","province":"東京都","city":"豊島区","address":"東京都豊島区要町3丁目9-16","lat":35.73752908,"lon":139.68977064},{"name":"豊島区立千川駅北第一自転車駐車場","province":"東京都","city":"豊島区","address":"東京都豊島区要町3丁目44-8","lat":35.73915108,"lon":139.68868455},{"name":"豊島区立千川駅北第二自転車駐車場","province":"東京都","city":"豊島区","address":"東京都豊島区要町3丁目55","lat":35.74023152,"lon":139.6885984},{"name":"豊島区立千川駅路上自転車駐車場","province":"東京都","city":"豊島区","address":"東京都豊島区要町3丁目10","lat":35.73733189,"lon":139.69015673},{"name":"豊島区立椎名橋自転車駐車場","province":"東京都","city":"豊島区","address":"東京都豊島区長崎1丁目9-30","lat":35.72680823,"lon":139.69575671},{"name":"豊島区立南長崎自転車駐車場","province":"東京都","city":"豊島区","address":"東京都豊島区南長崎4丁目13-5","lat":35.72480809,"lon":139.68320786},{"name":"プラザ駐輪場","province":"東京都","city":"豊島区","address":"東京都豊島区西池袋1丁目11-1","lat":35.72881672,"lon":139.70932768},{"name":"アトレヴィ巣鴨駐輪場","province":"東京都","city":"豊島区","address":"東京都豊島区巣鴨2丁目7","lat":35.73461407,"lon":139.74040816},{"name":"ライズシティ池袋駐輪場","province":"東京都","city":"豊島区","address":"東京都豊島区東池袋4丁目5-2","lat":35.72696996,"lon":139.71890472},{"name":"西武スマイルパーク東長崎駅北口駐輪場","province":"東京都","city":"豊島区","address":"東京都豊島区長崎5丁目1","lat":35.73100461,"lon":139.68274375},{"name":"西武スマイルパーク東長崎駅南口駐輪場","province":"東京都","city":"豊島区","address":"東京都豊島区南長崎5丁目33-12","lat":35.73013526,"lon":139.68275767},{"name":"池袋北口A・B・C","province":"東京都","city":"豊島区","address":"東京都豊島区西池袋1丁目30","lat":35.73256081,"lon":139.7114468},{"name":"エコステーション２１アイテラス駐輪場","province":"東京都","city":"豊島区","address":"東京都豊島区南長崎4丁目5-20","lat":35.72430535,"lon":139.68255516},{"name":"豊島区立池袋駅東第二自転車駐車場","province":"東京都","city":"豊島区","address":"東京都豊島区東池袋1丁目50-35","lat":35.73161371,"lon":139.71235509},{"name":"豊島区立新大塚駅路上自転車駐車場","province":"東京都","city":"豊島区","address":"東京都豊島区南大塚2丁目8","lat":35.72533716,"lon":139.73159816},{"name":"三井のリパーク・池袋駅東口駐輪場","province":"東京都","city":"豊島区","address":"東京都豊島区東池袋1丁目14-3","lat":35.72998063,"lon":139.71487994},{"name":"JR大塚南口ビル駐輪場","province":"東京都","city":"豊島区","address":"東京都豊島区南大塚3丁目33-1","lat":35.73158912,"lon":139.7285426},{"name":"リーベンパーク目白駐輪場","province":"東京都","city":"豊島区","address":"東京都豊島区目白3丁目14","lat":35.72227292,"lon":139.70639765},{"name":"豊島区立池袋駅南自転車駐車場","province":"東京都","city":"豊島区","address":"東京都豊島区南池袋2丁目21-6","lat":35.72734479,"lon":139.71387458},{"name":"池袋パルコ別館Ｐ’パルコ駐輪場","province":"東京都","city":"豊島区","address":"東京都豊島区東池袋1丁目50-35","lat":35.73161371,"lon":139.71235509},{"name":"三井のリパーク要町駅前駐輪場","province":"東京都","city":"豊島区","address":"東京都豊島区千早1丁目20","lat":35.73238824,"lon":139.69867289},{"name":"豊島区立新庚申塚路上自転車駐車場","province":"東京都","city":"豊島区","address":"東京都豊島区西巣鴨3丁目15","lat":35.74174908,"lon":139.72985875},{"name":"豊島区立池袋駅西第二自転車駐車場","province":"東京都","city":"豊島区","address":"東京都豊島区西池袋1丁目8-1","lat":35.72964715,"lon":139.70794721},{"name":"エコステーション２１東池袋３丁目駐輪場","province":"東京都","city":"豊島区","address":"東京都豊島区東池袋3丁目3-5","lat":35.73012234,"lon":139.71726029},{"name":"サイクルポート要町1","province":"東京都","city":"豊島区","address":"東京都豊島区要町1丁目2-5","lat":35.73285205,"lon":139.69751186},{"name":"三井のリパーク池袋東口駅前第２駐輪場","province":"東京都","city":"豊島区","address":"東京都豊島区南池袋2丁目25-2","lat":35.72751975,"lon":139.71314964},{"name":"西武スマイルパークダイヤゲート池袋駐輪場","province":"東京都","city":"豊島区","address":"東京都豊島区南池袋1丁目16-15","lat":35.72667531,"lon":139.71023047},{"name":"パートナ駒込１丁目駐輪場","province":"東京都","city":"豊島区","address":"東京都豊島区駒込1丁目44","lat":35.7358613,"lon":139.74610208},{"name":"Parking in巣鴨駐輪場","province":"東京都","city":"豊島区","address":"東京都豊島区巣鴨1丁目15-2","lat":35.73345866,"lon":139.74046931},{"name":"西巣鴨","province":"東京都","city":"豊島区","address":"東京都豊島区西巣鴨3丁目27","lat":35.74406543,"lon":139.72763939},{"name":"新庚申塚","province":"東京都","city":"豊島区","address":"東京都豊島区巣鴨5丁目20-3","lat":35.74143803,"lon":139.73109477},{"name":"巣鴨駅北口","province":"東京都","city":"豊島区","address":"東京都豊島区巣鴨1丁目16-1","lat":35.73315589,"lon":139.73949718},{"name":"向原","province":"東京都","city":"豊島区","address":"東京都豊島区東池袋2丁目1-1","lat":35.72933652,"lon":139.72482357},{"name":"駒込駅北口","province":"東京都","city":"豊島区","address":"東京都豊島区駒込3丁目2-10","lat":35.73655844,"lon":139.74626593},{"name":"とげぬき地蔵入口","province":"東京都","city":"豊島区","address":"東京都豊島区巣鴨3丁目31-5","lat":35.73431124,"lon":139.73701956},{"name":"巣鴨駅南口第二","province":"東京都","city":"豊島区","address":"東京都豊島区巣鴨1丁目12-2","lat":35.73255876,"lon":139.74008604},{"name":"巣鴨小学校入口","province":"東京都","city":"豊島区","address":"東京都豊島区南大塚1丁目13-5","lat":35.72773414,"lon":139.73331735},{"name":"庚申塚","province":"東京都","city":"豊島区","address":"東京都豊島区西巣鴨3丁目1","lat":35.73978265,"lon":139.73011992},{"name":"大塚駅北口","province":"東京都","city":"豊島区","address":"東京都豊島区北大塚2丁目14","lat":35.73211685,"lon":139.7291592},{"name":"大塚駅南口","province":"東京都","city":"豊島区","address":"東京都豊島区南大塚3丁目33-1","lat":35.73158912,"lon":139.7285426},{"name":"東池袋二丁目","province":"東京都","city":"豊島区","address":"東京都豊島区東池袋2丁目20-2","lat":35.73047522,"lon":139.72289591},{"name":"南大塚三丁目","province":"東京都","city":"豊島区","address":"東京都豊島区南大塚2丁目26-15","lat":35.72820344,"lon":139.72971764},{"name":"巣鴨駅北口第二","province":"東京都","city":"豊島区","address":"東京都豊島区巣鴨2丁目1-1","lat":35.73388634,"lon":139.73864444},{"name":"南大塚二丁目","province":"東京都","city":"豊島区","address":"東京都豊島区南大塚1丁目1-8","lat":35.72581497,"lon":139.73535337},{"name":"南大塚一丁目","province":"東京都","city":"豊島区","address":"東京都豊島区南大塚1丁目47-5","lat":35.72875343,"lon":139.73212574},{"name":"向原北","province":"東京都","city":"豊島区","address":"東京都豊島区南大塚3丁目30-1","lat":35.73108356,"lon":139.72568454},{"name":"巣鴨ろう学校入口","province":"東京都","city":"豊島区","address":"東京都豊島区巣鴨4丁目8","lat":35.7363886,"lon":139.73027559},{"name":"巣鴨警察署入口第二","province":"東京都","city":"豊島区","address":"東京都豊島区北大塚1丁目17-9","lat":35.73214743,"lon":139.73022577},{"name":"空蝉橋南","province":"東京都","city":"豊島区","address":"東京都豊島区南大塚3丁目30-6","lat":35.73159183,"lon":139.72578451},{"name":"駒込東口商店街","province":"東京都","city":"豊島区","address":"東京都豊島区駒込1丁目17-2","lat":35.73513943,"lon":139.7520128},{"name":"都営南大塚住宅前","province":"東京都","city":"豊島区","address":"東京都豊島区南大塚3丁目44-14","lat":35.7293505,"lon":139.72895377},{"name":"サンシャイン６０南","province":"東京都","city":"豊島区","address":"東京都豊島区東池袋4丁目27","lat":35.7279032,"lon":139.71942686},{"name":"造幣局西","province":"東京都","city":"豊島区","address":"東京都豊島区東池袋4丁目42-1","lat":35.72672286,"lon":139.72213501},{"name":"巣鴨警察署入口","province":"東京都","city":"豊島区","address":"東京都豊島区北大塚1丁目14-5","lat":35.73189469,"lon":139.7305202},{"name":"大塚駅南口第二","province":"東京都","city":"豊島区","address":"東京都豊島区南大塚2丁目46-1","lat":35.73109477,"lon":139.72978974},{"name":"新田交番東","province":"東京都","city":"豊島区","address":"東京都豊島区北大塚3丁目29-9","lat":35.73576912,"lon":139.72561768},{"name":"南大塚二丁目第三","province":"東京都","city":"豊島区","address":"東京都豊島区南大塚3丁目2-10","lat":35.72728132,"lon":139.72943437},{"name":"大塚駅南口第三","province":"東京都","city":"豊島区","address":"東京都豊島区南大塚3丁目52-10","lat":35.73007265,"lon":139.72894819},{"name":"中央図書館前","province":"東京都","city":"豊島区","address":"東京都豊島区東池袋5丁目39-18","lat":35.72803946,"lon":139.72552356},{"name":"文化センター前","province":"東京都","city":"豊島区","address":"東京都豊島区東池袋3丁目18","lat":35.72976693,"lon":139.72121274},{"name":"日の出町第二公園北","province":"東京都","city":"豊島区","address":"東京都豊島区東池袋4丁目14","lat":35.72616453,"lon":139.72047129},{"name":"大塚駅南口第一","province":"東京都","city":"豊島区","address":"東京都豊島区南大塚2丁目45-8","lat":35.73063926,"lon":139.72955089},{"name":"池袋駅東口","province":"東京都","city":"豊島区","address":"東京都豊島区南池袋1丁目27-5","lat":35.72946951,"lon":139.71262182},{"name":"東池袋一丁目","province":"東京都","city":"豊島区","address":"東京都豊島区東池袋1丁目39-4","lat":35.73234701,"lon":139.71426878},{"name":"池袋駅東口交番前","province":"東京都","city":"豊島区","address":"東京都豊島区東池袋1丁目41-6","lat":35.73162483,"lon":139.7127995},{"name":"サンシャイン６０通り","province":"東京都","city":"豊島区","address":"東京都豊島区東池袋1丁目29-1","lat":35.73047505,"lon":139.71645756},{"name":"池袋東口五差路","province":"東京都","city":"豊島区","address":"東京都豊島区東池袋1丁目2-1","lat":35.72966396,"lon":139.71386893},{"name":"立教大学正門前","province":"東京都","city":"豊島区","address":"東京都豊島区西池袋5丁目10-5","lat":35.73116631,"lon":139.70395027},{"name":"東池袋","province":"東京都","city":"豊島区","address":"東京都豊島区東池袋4丁目7-2","lat":35.72708936,"lon":139.71775203},{"name":"上池袋二丁目","province":"東京都","city":"豊島区","address":"東京都豊島区上池袋1丁目10-11","lat":35.7360245,"lon":139.71970984},{"name":"池袋西口五差路","province":"東京都","city":"豊島区","address":"東京都豊島区西池袋1丁目18-6","lat":35.73146086,"lon":139.70881372},{"name":"池袋警察署前","province":"東京都","city":"豊島区","address":"東京都豊島区西池袋1丁目7-5","lat":35.72853614,"lon":139.70716399},{"name":"ビックリガード入口","province":"東京都","city":"豊島区","address":"東京都豊島区西池袋2丁目41-8","lat":35.72738353,"lon":139.70875557},{"name":"西武池袋駅前","province":"東京都","city":"豊島区","address":"東京都豊島区南池袋1丁目21-7","lat":35.72865571,"lon":139.712258},{"name":"池袋駅西口北","province":"東京都","city":"豊島区","address":"東京都豊島区西池袋1丁目23-1","lat":35.73177752,"lon":139.71002195},{"name":"東池袋中央公園前","province":"東京都","city":"豊島区","address":"東京都豊島区東池袋3丁目16-3","lat":35.73060011,"lon":139.71911566},{"name":"サンシャイン前","province":"東京都","city":"豊島区","address":"東京都豊島区東池袋1丁目27-8","lat":35.72921687,"lon":139.71658815},{"name":"中池袋公園入口","province":"東京都","city":"豊島区","address":"東京都豊島区東池袋1丁目9-8","lat":35.73124714,"lon":139.71428272},{"name":"上池袋郵便局前","province":"東京都","city":"豊島区","address":"東京都豊島区上池袋2丁目14-9","lat":35.73537454,"lon":139.71815722},{"name":"東京芸術劇場前","province":"東京都","city":"豊島区","address":"東京都豊島区西池袋1丁目7-10","lat":35.72901109,"lon":139.7073084},{"name":"上池袋三丁目","province":"東京都","city":"豊島区","address":"東京都豊島区上池袋3丁目33-22","lat":35.73783822,"lon":139.72118741},{"name":"池袋西口公園前","province":"東京都","city":"豊島区","address":"東京都豊島区西池袋1丁目8","lat":35.7290611,"lon":139.70773615},{"name":"南池袋公園入口","province":"東京都","city":"豊島区","address":"東京都豊島区南池袋1丁目25-1","lat":35.72846408,"lon":139.71308293},{"name":"中池袋公園入口南","province":"東京都","city":"豊島区","address":"東京都豊島区東池袋1丁目5-7","lat":35.7310388,"lon":139.71361056},{"name":"南池袋公園前","province":"東京都","city":"豊島区","address":"東京都豊島区東池袋1丁目24-1","lat":35.72870301,"lon":139.71547161},{"name":"池袋西口五差路北","province":"東京都","city":"豊島区","address":"東京都豊島区西池袋1丁目37-10","lat":35.73208856,"lon":139.70879704},{"name":"池袋大橋西詰南","province":"東京都","city":"豊島区","address":"東京都豊島区西池袋1丁目44-1","lat":35.73293578,"lon":139.71194952},{"name":"東池袋一丁目北","province":"東京都","city":"豊島区","address":"東京都豊島区東池袋1丁目18-1","lat":35.73241093,"lon":139.71548812},{"name":"サンシャイン南","province":"東京都","city":"豊島区","address":"東京都豊島区東池袋4丁目24-5","lat":35.72855307,"lon":139.71738534},{"name":"上池袋二丁目北","province":"東京都","city":"豊島区","address":"東京都豊島区上池袋1丁目23-6","lat":35.73662445,"lon":139.72044309},{"name":"池袋東口五差路北","province":"東京都","city":"豊島区","address":"東京都豊島区東池袋1丁目2-8","lat":35.7301778,"lon":139.7138939},{"name":"元池袋公園前","province":"東京都","city":"豊島区","address":"東京都豊島区西池袋1丁目9","lat":35.72896113,"lon":139.70857497},{"name":"健康プラザとしま前","province":"東京都","city":"豊島区","address":"東京都豊島区上池袋2丁目4-4","lat":35.7349412,"lon":139.71595187},{"name":"池袋駅東口中央","province":"東京都","city":"豊島区","address":"東京都豊島区南池袋1丁目28-2","lat":35.73090546,"lon":139.71243844},{"name":"目白駅前","province":"東京都","city":"豊島区","address":"東京都豊島区目白3丁目14-1","lat":35.7219424,"lon":139.7065171},{"name":"高田郵便局前","province":"東京都","city":"豊島区","address":"東京都豊島区高田2丁目5-14","lat":35.71522943,"lon":139.71212798},{"name":"千登世橋上","province":"東京都","city":"豊島区","address":"東京都豊島区目白1丁目7-17","lat":35.71899569,"lon":139.71291666},{"name":"千登世橋下","province":"東京都","city":"豊島区","address":"東京都豊島区雑司が谷3丁目3-25","lat":35.72011226,"lon":139.71367211},{"name":"東池袋四丁目","province":"東京都","city":"豊島区","address":"東京都豊島区南池袋2丁目41-12","lat":35.72573121,"lon":139.71872423},{"name":"南池袋一丁目","province":"東京都","city":"豊島区","address":"東京都豊島区南池袋3丁目13-10","lat":35.72641151,"lon":139.71184701},{"name":"椎名町駅入口","province":"東京都","city":"豊島区","address":"東京都豊島区南長崎1丁目17-17","lat":35.72515282,"lon":139.69460688},{"name":"南池袋一丁目第二","province":"東京都","city":"豊島区","address":"東京都豊島区南池袋1丁目19-6","lat":35.72781413,"lon":139.71230803},{"name":"学習院下電停前","province":"東京都","city":"豊島区","address":"東京都豊島区高田2丁目7-13","lat":35.71615156,"lon":139.71260847},{"name":"要町三丁目","province":"東京都","city":"豊島区","address":"東京都豊島区要町3丁目45-11","lat":35.73988153,"lon":139.68765404},{"name":"東池袋四丁目東","province":"東京都","city":"豊島区","address":"東京都豊島区南池袋4丁目18-12","lat":35.72475637,"lon":139.72061022},{"name":"南池袋四丁目","province":"東京都","city":"豊島区","address":"東京都豊島区南池袋4丁目22-17","lat":35.72384539,"lon":139.72165183},{"name":"南池袋一丁目南","province":"東京都","city":"豊島区","address":"東京都豊島区南池袋3丁目12-5","lat":35.72523385,"lon":139.71173873},{"name":"長崎六丁目","province":"東京都","city":"豊島区","address":"東京都豊島区長崎5丁目5-8","lat":35.73327096,"lon":139.68069382},{"name":"高田三丁目第二","province":"東京都","city":"豊島区","address":"東京都豊島区高田3丁目29-3","lat":35.71607082,"lon":139.7056674},{"name":"東池袋四丁目西","province":"東京都","city":"豊島区","address":"東京都豊島区東池袋4丁目4","lat":35.72643948,"lon":139.71960468},{"name":"佐々木学園前","province":"東京都","city":"豊島区","address":"東京都豊島区南池袋2丁目33-2","lat":35.72595887,"lon":139.71514953},{"name":"東池袋四丁目西第二","province":"東京都","city":"豊島区","address":"東京都豊島区東池袋4丁目5-1","lat":35.72659779,"lon":139.71902694},{"name":"ビックリガード下","province":"東京都","city":"豊島区","address":"東京都豊島区南池袋1丁目15","lat":35.72535877,"lon":139.70920561},{"name":"雑司が谷駅前","province":"東京都","city":"豊島区","address":"東京都豊島区高田2丁目17-20","lat":35.71841247,"lon":139.71423324},{"name":"学習院角第二","province":"東京都","city":"豊島区","address":"東京都豊島区目白2丁目39-3","lat":35.72181189,"lon":139.70723093},{"name":"霜降橋","province":"東京都","city":"豊島区","address":"東京都豊島区駒込2丁目8-4","lat":35.73968584,"lon":139.74687685},{"name":"滝野川七丁目","province":"東京都","city":"豊島区","address":"東京都豊島区西巣鴨2丁目21-4","lat":35.74060188,"lon":139.72478145},{"name":"滝野川三丁目東","province":"東京都","city":"豊島区","address":"東京都豊島区西巣鴨4丁目22","lat":35.74492374,"lon":139.73113906},{"name":"豊島区観光情報センター","province":"東京都","city":"豊島区","address":"東京都豊島区西池袋1-19-7","lat":35.73135,"lon":139.709614},{"name":"としま区民センター インフォメーション","province":"東京都","city":"豊島区","address":"東京都豊島区東池袋1-20-10","lat":35.731492,"lon":139.715573},{"name":"GLOBAL RING CAFE","province":"東京都","city":"豊島区","address":"東京都豊島区西池袋1-8-26","lat":35.730222,"lon":139.709126},{"name":"豊島区立トキワ荘マンガミュージアム","province":"東京都","city":"豊島区","address":"東京都豊島区南長崎3-9-22","lat":35.72443069,"lon":139.6862021},{"name":"豊島区トキワ荘通りお休み処","province":"東京都","city":"豊島区","address":"東京都豊島区南長崎2-3-2","lat":35.72359209,"lon":139.6889189},{"name":"東京都立大塚病院","province":"東京都","city":"豊島区","address":"東京都豊島区南大塚2丁目8-1","lat":35.72526774,"lon":139.73230087},{"name":"区立西池袋公園","province":"東京都","city":"豊島区","address":"東京都豊島区西池袋3丁目20-1","lat":35.73053587,"lon":139.70552793},{"name":"都立文京高等学校","province":"東京都","city":"豊島区","address":"東京都豊島区西巣鴨1丁目1-5","lat":35.7358553,"lon":139.72898683},{"name":"都立大塚病院","province":"東京都","city":"豊島区","address":"東京都豊島区南大塚2丁目8-1","lat":35.72526774,"lon":139.73230087},{"name":"にしすがも創造舎（旧朝日中）","province":"東京都","city":"豊島区","address":"東京都豊島区西巣鴨4丁目9-1","lat":35.74388772,"lon":139.73004475},{"name":"豊島区立千登世橋中学校","province":"東京都","city":"豊島区","address":"東京都豊島区目白1丁目1-1","lat":35.7172653,"lon":139.7118946},{"name":"豊島区本庁舎","province":"東京都","city":"豊島区","address":"豊島区東池袋1-18-1","lat":35.732413,"lon":139.715538},{"name":"第四建設事務所","province":"東京都","city":"豊島区","address":"豊島区南大塚2-36-2","lat":35.729037,"lon":139.730329},{"name":"第五方面交通機動隊目白分駐所","province":"東京都","city":"豊島区","address":"豊島区目白2-10-6","lat":35.72034,"lon":139.7108},{"name":"池袋警察署","province":"東京都","city":"豊島区","address":"豊島区西池袋1-7-5","lat":35.7285,"lon":139.7072},{"name":"巣鴨警察署","province":"東京都","city":"豊島区","address":"豊島区北大塚1-15-15","lat":35.73115,"lon":139.7322},{"name":"目白警察署","province":"東京都","city":"豊島区","address":"豊島区目白2-10-2","lat":35.72007,"lon":139.7114},{"name":"第五消防方面本部","province":"東京都","city":"豊島区","address":"豊島区西池袋2-37-8","lat":35.72794,"lon":139.7069},{"name":"池袋消防署","province":"東京都","city":"豊島区","address":"豊島区西池袋2-37-8","lat":35.72794,"lon":139.7069},{"name":"豊島消防署","province":"東京都","city":"豊島区","address":"豊島区東池袋3-19-20","lat":35.72978,"lon":139.7219},{"name":"東京都赤十字血液センター駒込事業所","province":"東京都","city":"豊島区","address":"豊島区駒込2-2-2","lat":35.73726,"lon":139.7473},{"name":"豊島清掃工場","province":"東京都","city":"豊島区","address":"豊島区上池袋2-5-1","lat":35.73481,"lon":139.7145},{"name":"豊島区区立総合体育場一帯","province":"東京都","city":"豊島区","address":"豊島区東池袋4","lat":35.72647,"lon":139.7206},{"name":"ソフトバンクモバイル（株）北池袋ビル","province":"東京都","city":"豊島区","address":"豊島区上池袋4-10-17","lat":35.73961,"lon":139.7228},{"name":"ソフトバンクテレコム（株）新東京ビル","province":"東京都","city":"豊島区","address":"豊島区上池袋4-10-17","lat":35.73961,"lon":139.7228},{"name":"東京電力（株）大塚支社","province":"東京都","city":"豊島区","address":"豊島区北大塚2-33-17","lat":35.73522,"lon":139.7284},{"name":"池袋駅","province":"東京都","city":"豊島区","address":"東京都豊島区南池袋1丁目28-2","lat":35.73090546,"lon":139.71243844},{"name":"南池袋ＰＡ","province":"東京都","city":"豊島区","address":"東京都豊島区","lat":35.72611722,"lon":139.71660773},{"name":"巣鴨自動車営業所","province":"東京都","city":"豊島区","address":"東京都豊島区巣鴨2丁目9-8","lat":35.73489175,"lon":139.73797779},{"name":"豊島区","province":"東京都","city":"豊島区","address":"豊島区東池袋1-18-1","lat":35.73241337,"lon":139.715538},{"name":"豊島合同庁舎","province":"東京都","city":"豊島区","address":"東京都豊島区西池袋1丁目17-1","lat":35.73095,"lon":139.708405},{"name":"東京芸術劇場","province":"東京都","city":"豊島区","address":"東京都豊島区西池袋1丁目8-1","lat":35.72987,"lon":139.7082},{"name":"東京芸術劇場","province":"東京都","city":"豊島区","address":"東京都豊島区西池袋1丁目8","lat":35.72998,"lon":139.7078},{"name":"東京芸術劇場","province":"東京都","city":"豊島区","address":"東京都豊島区西池袋1丁目8-1","lat":35.7296,"lon":139.7077},{"name":"東京芸術劇場","province":"東京都","city":"豊島区","address":"東京都豊島区西池袋1丁目8-1","lat":35.72946,"lon":139.7081},{"name":"東京芸術劇場","province":"東京都","city":"豊島区","address":"東京都豊島区西池袋1丁目8","lat":35.72997,"lon":139.7078},{"name":"東京芸術劇場","province":"東京都","city":"豊島区","address":"東京都豊島区西池袋1丁目8","lat":35.72958,"lon":139.7082},{"name":"東京芸術劇場","province":"東京都","city":"豊島区","address":"東京都豊島区西池袋1丁目8-1","lat":35.7301,"lon":139.7083},{"name":"地方独立行政法人東京都立病院機構　東京都立大塚病院","province":"東京都","city":"豊島区","address":"東京都豊島区南大塚2丁目8-1","lat":35.725405,"lon":139.73251},{"name":"地方独立行政法人東京都立病院機構　東京都立大塚病院","province":"東京都","city":"豊島区","address":"東京都豊島区南大塚2丁目8-1","lat":35.725316,"lon":139.732052},{"name":"染井霊園","province":"東京都","city":"豊島区","address":"東京都豊島区駒込5丁目5","lat":35.738622,"lon":139.738376},{"name":"雑司ヶ谷霊園","province":"東京都","city":"豊島区","address":"東京都豊島区南池袋4丁目25","lat":35.722669,"lon":139.717842},{"name":"都営三田線駅巣鴨駅","province":"東京都","city":"豊島区","address":"東京都豊島区巣鴨3丁目27","lat":35.733428,"lon":139.738723},{"name":"都営三田線駅西巣鴨駅","province":"東京都","city":"豊島区","address":"東京都豊島区西巣鴨3丁目24","lat":35.743301,"lon":139.728923},{"name":"区民ひろば西巣鴨第一","province":"東京都","city":"豊島区","address":"東京都豊島区西巣鴨2丁目35-3","lat":35.740429,"lon":139.727833},{"name":"豊島区役所本庁舎","province":"東京都","city":"豊島区","address":"東京都豊島区南池袋2丁目45-3","lat":35.72615,"lon":139.716564},{"name":"豊島区役所本庁舎","province":"東京都","city":"豊島区","address":"東京都豊島区南池袋2丁目45-3","lat":35.726144,"lon":139.716565},{"name":"豊島区役所本庁舎","province":"東京都","city":"豊島区","address":"東京都豊島区南池袋2丁目45-3","lat":35.726148,"lon":139.716571},{"name":"豊島区役所本庁舎","province":"東京都","city":"豊島区","address":"東京都豊島区南池袋2丁目45-3","lat":35.726154,"lon":139.71657},{"name":"豊島区役所本庁舎","province":"東京都","city":"豊島区","address":"東京都豊島区南池袋2丁目45-3","lat":35.726156,"lon":139.716562},{"name":"豊島区役所本庁舎","province":"東京都","city":"豊島区","address":"東京都豊島区南池袋2丁目45-3","lat":35.726151,"lon":139.716557},{"name":"豊島区役所本庁舎","province":"東京都","city":"豊島区","address":"東京都豊島区南池袋2丁目45-3","lat":35.726145,"lon":139.716557},{"name":"豊島区役所東池袋分庁舎","province":"東京都","city":"豊島区","address":"東京都豊島区東池袋1丁目39-2","lat":35.732543,"lon":139.714499},{"name":"東部区民事務所","province":"東京都","city":"豊島区","address":"東京都豊島区北大塚1丁目15-10","lat":35.731248,"lon":139.73134},{"name":"西部区民事務所","province":"東京都","city":"豊島区","address":"東京都豊島区千早2丁目39-16","lat":35.735742,"lon":139.691025},{"name":"区民ひろば仰高","province":"東京都","city":"豊島区","address":"東京都豊島区駒込4丁目12-3","lat":35.736824,"lon":139.740331},{"name":"区民ひろば駒込","province":"東京都","city":"豊島区","address":"東京都豊島区駒込2丁目2-4","lat":35.737169,"lon":139.747741},{"name":"区民ひろば南大塚","province":"東京都","city":"豊島区","address":"東京都豊島区南大塚2丁目36-1","lat":35.729101,"lon":139.729551},{"name":"区民ひろば清和第一","province":"東京都","city":"豊島区","address":"東京都豊島区巣鴨3丁目15-20","lat":35.735686,"lon":139.733854},{"name":"区民ひろば清和第二","province":"東京都","city":"豊島区","address":"東京都豊島区巣鴨3丁目13-12","lat":35.735286,"lon":139.732376},{"name":"トキワ荘通りお休み処","province":"東京都","city":"豊島区","address":"東京都豊島区南長崎2丁目3-2","lat":35.723349,"lon":139.688919},{"name":"区民ひろば西巣鴨第二","province":"東京都","city":"豊島区","address":"東京都豊島区西巣鴨2丁目14-11","lat":35.738802,"lon":139.727799},{"name":"区民ひろば朝日","province":"東京都","city":"豊島区","address":"東京都豊島区巣鴨5丁目33-21","lat":35.740606,"lon":139.733535},{"name":"区民ひろば朝日","province":"東京都","city":"豊島区","address":"東京都豊島区巣鴨5丁目33-21","lat":35.740604,"lon":139.733536},{"name":"区民ひろば豊成","province":"東京都","city":"豊島区","address":"東京都豊島区上池袋1丁目28-7","lat":35.737067,"lon":139.721674},{"name":"区民ひろば上池袋","province":"東京都","city":"豊島区","address":"東京都豊島区上池袋3丁目13-5","lat":35.740073,"lon":139.716648},{"name":"区民ひろば池袋本町","province":"東京都","city":"豊島区","address":"東京都豊島区池袋本町3丁目9-4","lat":35.743688,"lon":139.712703},{"name":"区民ひろば池袋本町","province":"東京都","city":"豊島区","address":"東京都豊島区池袋本町3丁目9-4","lat":35.743637,"lon":139.712782},{"name":"区民ひろば西池袋","province":"東京都","city":"豊島区","address":"東京都豊島区西池袋2丁目37-4","lat":35.727765,"lon":139.706744},{"name":"区民ひろば南池袋","province":"東京都","city":"豊島区","address":"東京都豊島区南池袋3丁目5-12","lat":35.723415,"lon":139.713933},{"name":"区民ひろば高南第一","province":"東京都","city":"豊島区","address":"東京都豊島区高田2丁目11-2","lat":35.715695,"lon":139.714563},{"name":"区民ひろば目白","province":"東京都","city":"豊島区","address":"東京都豊島区目白2丁目20-26","lat":35.722248,"lon":139.709874},{"name":"区民ひろば長崎","province":"東京都","city":"豊島区","address":"東京都豊島区長崎2丁目27-18","lat":35.729607,"lon":139.693005},{"name":"区民ひろば長崎","province":"東京都","city":"豊島区","address":"東京都豊島区長崎2丁目27-18","lat":35.729673,"lon":139.693103},{"name":"区民ひろば富士見台","province":"東京都","city":"豊島区","address":"東京都豊島区南長崎1丁目6-1","lat":35.723985,"lon":139.69171},{"name":"区民ひろば千早","province":"東京都","city":"豊島区","address":"東京都豊島区要町3丁目7-10","lat":35.737195,"lon":139.687399},{"name":"区民ひろば高松","province":"東京都","city":"豊島区","address":"東京都豊島区高松2丁目25-9","lat":35.738778,"lon":139.697519},{"name":"区民ひろばさくら第二","province":"東京都","city":"豊島区","address":"東京都豊島区長崎6丁目37-11","lat":35.736607,"lon":139.682708},{"name":"区民ひろばさくら第一","province":"東京都","city":"豊島区","address":"東京都豊島区南長崎6丁目20-15","lat":35.729751,"lon":139.680965},{"name":"豊島区児童相談所・長崎健康相談所","province":"東京都","city":"豊島区","address":"東京都豊島区長崎3丁目6-24","lat":35.728683,"lon":139.688156},{"name":"区民ひろば池袋","province":"東京都","city":"豊島区","address":"東京都豊島区池袋4丁目21-10","lat":35.738386,"lon":139.70871},{"name":"西部生活福祉課総合施設","province":"東京都","city":"豊島区","address":"東京都豊島区要町1丁目5-1","lat":35.733041,"lon":139.696008},{"name":"要町第一区民集会室","province":"東京都","city":"豊島区","address":"東京都豊島区要町1丁目5-1","lat":35.733041,"lon":139.696008},{"name":"区民ひろば要","province":"東京都","city":"豊島区","address":"東京都豊島区要町1丁目5-1","lat":35.733041,"lon":139.696008},{"name":"池袋保健所","province":"東京都","city":"豊島区","address":"東京都豊島区東池袋4丁目42-16","lat":35.727771,"lon":139.721016},{"name":"池袋保健所","province":"東京都","city":"豊島区","address":"東京都豊島区東池袋4丁目42-16","lat":35.727794,"lon":139.721098},{"name":"中央図書館","province":"東京都","city":"豊島区","address":"東京都豊島区東池袋4丁目5-2","lat":35.726824,"lon":139.718816},{"name":"中央図書館","province":"東京都","city":"豊島区","address":"東京都豊島区東池袋4丁目5-2","lat":35.72688,"lon":139.718834},{"name":"巣鴨図書館","province":"東京都","city":"豊島区","address":"東京都豊島区巣鴨3丁目8-2","lat":35.73391,"lon":139.733194},{"name":"上池袋図書館","province":"東京都","city":"豊島区","address":"東京都豊島区上池袋2丁目45-15","lat":35.738607,"lon":139.716959},{"name":"池袋図書館","province":"東京都","city":"豊島区","address":"東京都豊島区池袋3丁目29-10","lat":35.735934,"lon":139.705839},{"name":"目白図書館","province":"東京都","city":"豊島区","address":"東京都豊島区目白4丁目31-8","lat":35.725692,"lon":139.698888},{"name":"目白図書館","province":"東京都","city":"豊島区","address":"東京都豊島区目白4丁目31-8","lat":35.725741,"lon":139.698893},{"name":"千早図書館","province":"東京都","city":"豊島区","address":"東京都豊島区千早2丁目44-2","lat":35.735727,"lon":139.688356},{"name":"駒込地域文化創造館","province":"東京都","city":"豊島区","address":"東京都豊島区駒込2丁目2-2","lat":35.737091,"lon":139.747253},{"name":"巣鴨地域文化創造館","province":"東京都","city":"豊島区","address":"東京都豊島区巣鴨4丁目15","lat":35.737551,"lon":139.73187},{"name":"巣鴨地域文化創造館","province":"東京都","city":"豊島区","address":"東京都豊島区巣鴨4丁目15-11","lat":35.737598,"lon":139.731809},{"name":"南大塚地域文化創造館","province":"東京都","city":"豊島区","address":"東京都豊島区南大塚2丁目36-1","lat":35.728975,"lon":139.729556},{"name":"千早地域文化創造館","province":"東京都","city":"豊島区","address":"東京都豊島区千早2丁目35-12","lat":35.735338,"lon":139.688619},{"name":"雑司が谷旧宣教師館","province":"東京都","city":"豊島区","address":"東京都豊島区雑司が谷1丁目25","lat":35.720854,"lon":139.720653},{"name":"昭和歴史文化記念館","province":"東京都","city":"豊島区","address":"東京都豊島区南長崎3丁目4","lat":35.723864,"lon":139.687776},{"name":"トキワ荘マンガミュージアム","province":"東京都","city":"豊島区","address":"東京都豊島区南長崎3丁目9","lat":35.724472,"lon":139.686028},{"name":"区民ひろば椎名町","province":"東京都","city":"豊島区","address":"東京都豊島区南長崎4丁目29-10","lat":35.726021,"lon":139.685567},{"name":"南大塚ホール","province":"東京都","city":"豊島区","address":"東京都豊島区南大塚2丁目36-1","lat":35.729318,"lon":139.729776},{"name":"あうるすぽっと","province":"東京都","city":"豊島区","address":"東京都豊島区東池袋4丁目5-2","lat":35.72688,"lon":139.718834},{"name":"あうるすぽっと","province":"東京都","city":"豊島区","address":"東京都豊島区東池袋4丁目5-2","lat":35.726824,"lon":139.718816},{"name":"東京建物BrilliaHALL","province":"東京都","city":"豊島区","address":"東京都豊島区東池袋1丁目19","lat":35.731718,"lon":139.715454},{"name":"東京建物BrilliaHALL","province":"東京都","city":"豊島区","address":"東京都豊島区東池袋1丁目19-1","lat":35.731721,"lon":139.715517},{"name":"駒込東公園","province":"東京都","city":"豊島区","address":"東京都豊島区駒込1丁目22","lat":35.735484,"lon":139.749714},{"name":"江戸橋公園","province":"東京都","city":"豊島区","address":"東京都豊島区巣鴨1丁目37","lat":35.731933,"lon":139.736664},{"name":"西巣鴨公園","province":"東京都","city":"豊島区","address":"東京都豊島区西巣鴨1丁目3","lat":35.736458,"lon":139.7252},{"name":"巣鴨公園","province":"東京都","city":"豊島区","address":"東京都豊島区北大塚1丁目12","lat":35.732323,"lon":139.73179},{"name":"宮仲公園","province":"東京都","city":"豊島区","address":"東京都豊島区上池袋1丁目36","lat":35.73593,"lon":139.724646},{"name":"上池袋公園","province":"東京都","city":"豊島区","address":"東京都豊島区上池袋2丁目25","lat":35.736176,"lon":139.716304},{"name":"上池袋くすのき公園","province":"東京都","city":"豊島区","address":"東京都豊島区上池袋4丁目19","lat":35.740266,"lon":139.720822},{"name":"池袋駅前公園","province":"東京都","city":"豊島区","address":"東京都豊島区東池袋1丁目50","lat":35.732769,"lon":139.713},{"name":"東池袋中央公園","province":"東京都","city":"豊島区","address":"東京都豊島区東池袋3丁目1","lat":35.730319,"lon":139.718749},{"name":"東池袋公園","province":"東京都","city":"豊島区","address":"東京都豊島区東池袋3丁目14","lat":35.73143,"lon":139.717571},{"name":"日出町第二公園","province":"東京都","city":"豊島区","address":"東京都豊島区東池袋4丁目4","lat":35.72609,"lon":139.719346},{"name":"南池袋公園","province":"東京都","city":"豊島区","address":"東京都豊島区南池袋2丁目21","lat":35.727826,"lon":139.714845},{"name":"池袋西口公園","province":"東京都","city":"豊島区","address":"東京都豊島区西池袋1丁目8-26","lat":35.730123,"lon":139.709226},{"name":"御嶽北公園","province":"東京都","city":"豊島区","address":"東京都豊島区池袋3丁目44","lat":35.737189,"lon":139.706276},{"name":"池袋公園","province":"東京都","city":"豊島区","address":"東京都豊島区池袋4丁目22","lat":35.737905,"lon":139.7085},{"name":"池袋本町公園","province":"東京都","city":"豊島区","address":"東京都豊島区池袋本町1丁目26","lat":35.740015,"lon":139.713544},{"name":"高田第二公園","province":"東京都","city":"豊島区","address":"東京都豊島区高田1丁目2","lat":35.713241,"lon":139.720962},{"name":"椎名町公園","province":"東京都","city":"豊島区","address":"東京都豊島区南長崎1丁目20","lat":35.72608,"lon":139.693019},{"name":"南長崎公園","province":"東京都","city":"豊島区","address":"東京都豊島区南長崎3丁目37","lat":35.726735,"lon":139.688392},{"name":"南長崎中央公園スポーツセンター","province":"東京都","city":"豊島区","address":"東京都豊島区南長崎4丁目13-5","lat":35.724821,"lon":139.683479},{"name":"千早二丁目公園","province":"東京都","city":"豊島区","address":"東京都豊島区千早2丁目35","lat":35.735067,"lon":139.688934},{"name":"池袋の森","province":"東京都","city":"豊島区","address":"東京都豊島区池袋1丁目7","lat":35.735087,"lon":139.711886},{"name":"目白の森","province":"東京都","city":"豊島区","address":"東京都豊島区目白4丁目11","lat":35.723105,"lon":139.699141},{"name":"目白庭園","province":"東京都","city":"豊島区","address":"東京都豊島区目白3丁目20","lat":35.724422,"lon":139.705826},{"name":"池袋一丁目第二公園","province":"東京都","city":"豊島区","address":"東京都豊島区池袋1丁目8","lat":35.736356,"lon":139.711748},{"name":"駒込公園","province":"東京都","city":"豊島区","address":"東京都豊島区駒込2丁目3","lat":35.737539,"lon":139.747197},{"name":"朝日公園","province":"東京都","city":"豊島区","address":"東京都豊島区巣鴨5丁目22","lat":35.741229,"lon":139.732554},{"name":"南池袋一丁目公園","province":"東京都","city":"豊島区","address":"東京都豊島区南池袋1丁目4","lat":35.724187,"lon":139.709337},{"name":"千早公園","province":"東京都","city":"豊島区","address":"東京都豊島区千早2丁目31","lat":35.735023,"lon":139.690185},{"name":"池袋第二公園","province":"東京都","city":"豊島区","address":"東京都豊島区池袋3丁目29","lat":35.73587,"lon":139.705376},{"name":"駒込四丁目公園","province":"東京都","city":"豊島区","address":"東京都豊島区駒込4丁目7","lat":35.735042,"lon":139.742565},{"name":"雑司が谷公園","province":"東京都","city":"豊島区","address":"東京都豊島区雑司が谷2丁目11","lat":35.718725,"lon":139.716504},{"name":"富士浅間神社境内仮児童遊園","province":"東京都","city":"豊島区","address":"東京都豊島区高松2丁目9","lat":35.737727,"lon":139.695165},{"name":"北大塚二丁目公園","province":"東京都","city":"豊島区","address":"東京都豊島区北大塚2丁目34","lat":35.734938,"lon":139.729251},{"name":"南長崎三丁目第二公園","province":"東京都","city":"豊島区","address":"東京都豊島区南長崎3丁目40","lat":35.72732,"lon":139.687328},{"name":"目白三丁目公園","province":"東京都","city":"豊島区","address":"東京都豊島区目白3丁目15","lat":35.722878,"lon":139.706344},{"name":"としまみどりの防災公園","province":"東京都","city":"豊島区","address":"東京都豊島区東池袋4丁目42","lat":35.727133,"lon":139.721968},{"name":"雑司が谷公園","province":"東京都","city":"豊島区","address":"東京都豊島区雑司が谷2丁目11","lat":35.71871,"lon":139.716476},{"name":"中池袋公園","province":"東京都","city":"豊島区","address":"東京都豊島区東池袋1丁目16","lat":35.731673,"lon":139.7149},{"name":"池袋駅北口前公衆便所","province":"東京都","city":"豊島区","address":"東京都豊島区西池袋1丁目1-40","lat":35.731707,"lon":139.711346},{"name":"大塚駅前公衆便所","province":"東京都","city":"豊島区","address":"東京都豊島区北大塚2丁目1","lat":35.731788,"lon":139.729395},{"name":"豊島体育館","province":"東京都","city":"豊島区","address":"東京都豊島区要町3丁目47-8","lat":35.740021,"lon":139.689306},{"name":"豊島体育館","province":"東京都","city":"豊島区","address":"東京都豊島区要町3丁目47-8","lat":35.739996,"lon":139.68923},{"name":"豊島体育館","province":"東京都","city":"豊島区","address":"東京都豊島区要町3丁目47-8","lat":35.740019,"lon":139.689273},{"name":"巣鴨体育館","province":"東京都","city":"豊島区","address":"東京都豊島区巣鴨3丁目8-7","lat":35.734233,"lon":139.733466},{"name":"雑司が谷体育館","province":"東京都","city":"豊島区","address":"東京都豊島区雑司が谷3丁目1-7","lat":35.719913,"lon":139.714026},{"name":"雑司が谷体育館","province":"東京都","city":"豊島区","address":"東京都豊島区雑司が谷3丁目1-7","lat":35.719641,"lon":139.71382},{"name":"池袋スポーツセンター","province":"東京都","city":"豊島区","address":"東京都豊島区上池袋2丁目5-1","lat":35.734776,"lon":139.715224},{"name":"池袋スポーツセンター","province":"東京都","city":"豊島区","address":"東京都豊島区上池袋2丁目5-1","lat":35.734771,"lon":139.715227},{"name":"池袋スポーツセンター","province":"東京都","city":"豊島区","address":"東京都豊島区上池袋2丁目5-1","lat":35.73477,"lon":139.715219},{"name":"池袋スポーツセンター","province":"東京都","city":"豊島区","address":"東京都豊島区上池袋2丁目5-1","lat":35.73478,"lon":139.715244},{"name":"南長崎スポーツセンター","province":"東京都","city":"豊島区","address":"東京都豊島区南長崎4丁目13-5","lat":35.724766,"lon":139.683149},{"name":"南長崎スポーツセンター","province":"東京都","city":"豊島区","address":"東京都豊島区南長崎4丁目13-5","lat":35.724853,"lon":139.683039},{"name":"南長崎スポーツセンター","province":"東京都","city":"豊島区","address":"東京都豊島区南長崎4丁目13-5","lat":35.724794,"lon":139.683101},{"name":"南長崎スポーツセンター","province":"東京都","city":"豊島区","address":"東京都豊島区南長崎4丁目13-5","lat":35.724731,"lon":139.683255},{"name":"南長崎スポーツセンター","province":"東京都","city":"豊島区","address":"東京都豊島区南長崎4丁目13-5","lat":35.724733,"lon":139.683158},{"name":"ジャンプ長崎","province":"東京都","city":"豊島区","address":"東京都豊島区長崎2丁目24-13","lat":35.730053,"lon":139.691291},{"name":"としま区民センター","province":"東京都","city":"豊島区","address":"東京都豊島区東池袋1丁目20-10","lat":35.731419,"lon":139.715613},{"name":"としま区民センター","province":"東京都","city":"豊島区","address":"東京都豊島区東池袋1丁目20-10","lat":35.731469,"lon":139.71566},{"name":"としま区民センター","province":"東京都","city":"豊島区","address":"東京都豊島区東池袋1丁目20-10","lat":35.731499,"lon":139.715698},{"name":"としま区民センター","province":"東京都","city":"豊島区","address":"東京都豊島区東池袋1丁目20-10","lat":35.731424,"lon":139.715815},{"name":"としま区民センター","province":"東京都","city":"豊島区","address":"東京都豊島区東池袋1丁目20-10","lat":35.731424,"lon":139.715823},{"name":"としま区民センター","province":"東京都","city":"豊島区","address":"東京都豊島区東池袋1丁目20-10","lat":35.73142,"lon":139.715816},{"name":"としま区民センター","province":"東京都","city":"豊島区","address":"東京都豊島区東池袋1丁目20-10","lat":35.731423,"lon":139.715823},{"name":"としま区民センター","province":"東京都","city":"豊島区","address":"東京都豊島区東池袋1丁目20-10","lat":35.731426,"lon":139.715804},{"name":"としま産業振興プラザ","province":"東京都","city":"豊島区","address":"東京都豊島区西池袋2丁目37-4","lat":35.72776,"lon":139.70673},{"name":"としま産業振興プラザ","province":"東京都","city":"豊島区","address":"東京都豊島区西池袋2丁目37-4","lat":35.727781,"lon":139.706727},{"name":"としま産業振興プラザ","province":"東京都","city":"豊島区","address":"東京都豊島区西池袋2丁目37-4","lat":35.727781,"lon":139.706738},{"name":"としま産業振興プラザ","province":"東京都","city":"豊島区","address":"東京都豊島区西池袋2丁目37-4","lat":35.727772,"lon":139.706741},{"name":"としま産業振興プラザ","province":"東京都","city":"豊島区","address":"東京都豊島区西池袋2丁目37-4","lat":35.727768,"lon":139.70673},{"name":"雑司が谷丘の上テラス","province":"東京都","city":"豊島区","address":"東京都豊島区雑司が谷2丁目12","lat":35.719687,"lon":139.716576},{"name":"区立西池袋公園","province":"東京都","city":"豊島区","address":"東京都豊島区西池袋3-20-1","lat":35.7291806,"lon":139.7064044},{"name":"都立文京高等学校","province":"東京都","city":"豊島区","address":"東京都豊島区西巣鴨1-1-5","lat":35.7358562,"lon":139.728987},{"name":"豊島区立池袋駅東自転車駐車場","province":"東京都","city":"豊島区","address":"東京都豊島区東池袋1丁目50-23","lat":35.73316079,"lon":139.71341604},{"name":"豊島区立ウイロード自転車駐車場","province":"東京都","city":"豊島区","address":"東京都豊島区南池袋1丁目28-2","lat":35.73090546,"lon":139.71243844},{"name":"豊島区立池袋六ツ又陸橋自転車駐車場","province":"東京都","city":"豊島区","address":"東京都豊島区東池袋3丁目8","lat":35.73273038,"lon":139.71741572},{"name":"豊島区立池袋駅北自転車駐車場","province":"東京都","city":"豊島区","address":"東京都豊島区池袋1丁目4-20","lat":35.73401623,"lon":139.7129105},{"name":"豊島区立池袋駅北第二自転車駐車場","province":"東京都","city":"豊島区","address":"東京都豊島区池袋1丁目4-20","lat":35.73401623,"lon":139.7129105},{"name":"豊島区立池袋駅西自転車駐車場","province":"東京都","city":"豊島区","address":"東京都豊島区西池袋3丁目20-1","lat":35.73053587,"lon":139.70552793},{"name":"豊島区立大塚駅北口路上自転車駐車場","province":"東京都","city":"豊島区","address":"東京都豊島区北大塚2丁目14","lat":35.73211685,"lon":139.7291592},{"name":"豊島区立大塚駅北口第二自転車駐車場","province":"東京都","city":"豊島区","address":"東京都豊島区北大塚2丁目6","lat":35.73250566,"lon":139.72768986},{"name":"豊島区立大塚駅北口第三自転車駐車場","province":"東京都","city":"豊島区","address":"東京都豊島区北大塚2丁目4","lat":35.73294447,"lon":139.72647328},{"name":"豊島区立目白駅東自転車駐車場","province":"東京都","city":"豊島区","address":"東京都豊島区目白1丁目4-1","lat":35.72109529,"lon":139.70682544},{"name":"豊島区立目白駅北自転車駐車場","province":"東京都","city":"豊島区","address":"東京都豊島区目白3丁目16-16","lat":35.72302008,"lon":139.70710867},{"name":"豊島区立目白駅西自転車駐車場","province":"東京都","city":"豊島区","address":"東京都豊島区目白3丁目4-3","lat":35.72157854,"lon":139.70593661},{"name":"豊島区立千登世橋自転車駐車場","province":"東京都","city":"豊島区","address":"東京都豊島区雑司が谷3丁目1-7","lat":35.71967619,"lon":139.71364435},{"name":"豊島区立巣鴨駅北自転車駐車場","province":"東京都","city":"豊島区","address":"東京都豊島区巣鴨2丁目7-11","lat":35.73489179,"lon":139.73949711},{"name":"豊島区立巣鴨駅第三自転車駐車場","province":"東京都","city":"豊島区","address":"東京都豊島区巣鴨2丁目9-23","lat":35.73497233,"lon":139.73907215},{"name":"豊島区立巣鴨駅南自転車駐車場","province":"東京都","city":"豊島区","address":"東京都豊島区巣鴨1丁目13-8","lat":35.73295315,"lon":139.74026101},{"name":"豊島区立巣鴨駅北口白山通り自転車駐車場","province":"東京都","city":"豊島区","address":"東京都豊島区巣鴨2丁目9","lat":35.73477233,"lon":139.73826666},{"name":"豊島区立駒込駅北自転車駐車場","province":"東京都","city":"豊島区","address":"東京都豊島区駒込2丁目2-2","lat":35.73718619,"lon":139.74734915},{"name":"豊島区立要町駅南自転車駐車場","province":"東京都","city":"豊島区","address":"東京都豊島区要町1丁目4-11","lat":35.73335753,"lon":139.69663135},{"name":"豊島区立要町駅北自転車駐車場","province":"東京都","city":"豊島区","address":"東京都豊島区要町1丁目10-8","lat":35.73371866,"lon":139.69870616},{"name":"豊島区立要町駅路上自転車駐車場","province":"東京都","city":"豊島区","address":"東京都豊島区要町1丁目1","lat":35.7329604,"lon":139.69835067},{"name":"豊島区立千川駅南自転車駐車場","province":"東京都","city":"豊島区","address":"東京都豊島区要町3丁目9-16","lat":35.73752908,"lon":139.68977064},{"name":"豊島区立千川駅北第一自転車駐車場","province":"東京都","city":"豊島区","address":"東京都豊島区要町3丁目44-8","lat":35.73915108,"lon":139.68868455},{"name":"豊島区立千川駅北第二自転車駐車場","province":"東京都","city":"豊島区","address":"東京都豊島区要町3丁目55","lat":35.74023152,"lon":139.6885984},{"name":"豊島区立千川駅路上自転車駐車場","province":"東京都","city":"豊島区","address":"東京都豊島区要町3丁目10","lat":35.73733189,"lon":139.69015673},{"name":"豊島区立椎名橋自転車駐車場","province":"東京都","city":"豊島区","address":"東京都豊島区長崎1丁目9-30","lat":35.72680823,"lon":139.69575671},{"name":"豊島区立南長崎自転車駐車場","province":"東京都","city":"豊島区","address":"東京都豊島区南長崎4丁目13-5","lat":35.72480809,"lon":139.68320786},{"name":"プラザ駐輪場","province":"東京都","city":"豊島区","address":"東京都豊島区西池袋1丁目11-1","lat":35.72881672,"lon":139.70932768},{"name":"アトレヴィ巣鴨駐輪場","province":"東京都","city":"豊島区","address":"東京都豊島区巣鴨2丁目7","lat":35.73461407,"lon":139.74040816},{"name":"ライズシティ池袋駐輪場","province":"東京都","city":"豊島区","address":"東京都豊島区東池袋4丁目5-2","lat":35.72696996,"lon":139.71890472},{"name":"西武スマイルパーク東長崎駅北口駐輪場","province":"東京都","city":"豊島区","address":"東京都豊島区長崎5丁目1","lat":35.73100461,"lon":139.68274375},{"name":"西武スマイルパーク東長崎駅南口駐輪場","province":"東京都","city":"豊島区","address":"東京都豊島区南長崎5丁目33-12","lat":35.73013526,"lon":139.68275767},{"name":"池袋北口A・B・C","province":"東京都","city":"豊島区","address":"東京都豊島区西池袋1丁目30","lat":35.73256081,"lon":139.7114468},{"name":"エコステーション２１アイテラス駐輪場","province":"東京都","city":"豊島区","address":"東京都豊島区南長崎4丁目5-20","lat":35.72430535,"lon":139.68255516},{"name":"豊島区立池袋駅東第二自転車駐車場","province":"東京都","city":"豊島区","address":"東京都豊島区東池袋1丁目50-35","lat":35.73161371,"lon":139.71235509},{"name":"豊島区立新大塚駅路上自転車駐車場","province":"東京都","city":"豊島区","address":"東京都豊島区南大塚2丁目8","lat":35.72533716,"lon":139.73159816},{"name":"三井のリパーク・池袋駅東口駐輪場","province":"東京都","city":"豊島区","address":"東京都豊島区東池袋1丁目14-3","lat":35.72998063,"lon":139.71487994},{"name":"JR大塚南口ビル駐輪場","province":"東京都","city":"豊島区","address":"東京都豊島区南大塚3丁目33-1","lat":35.73158912,"lon":139.7285426},{"name":"リーベンパーク目白駐輪場","province":"東京都","city":"豊島区","address":"東京都豊島区目白3丁目14","lat":35.72227292,"lon":139.70639765},{"name":"豊島区立池袋駅南自転車駐車場","province":"東京都","city":"豊島区","address":"東京都豊島区南池袋2丁目21-6","lat":35.72734479,"lon":139.71387458},{"name":"池袋パルコ別館Ｐ’パルコ駐輪場","province":"東京都","city":"豊島区","address":"東京都豊島区東池袋1丁目50-35","lat":35.73161371,"lon":139.71235509},{"name":"三井のリパーク要町駅前駐輪場","province":"東京都","city":"豊島区","address":"東京都豊島区千早1丁目20","lat":35.73238824,"lon":139.69867289},{"name":"豊島区立新庚申塚路上自転車駐車場","province":"東京都","city":"豊島区","address":"東京都豊島区西巣鴨3丁目15","lat":35.74174908,"lon":139.72985875},{"name":"豊島区立池袋駅西第二自転車駐車場","province":"東京都","city":"豊島区","address":"東京都豊島区西池袋1丁目8-1","lat":35.72964715,"lon":139.70794721},{"name":"エコステーション２１東池袋３丁目駐輪場","province":"東京都","city":"豊島区","address":"東京都豊島区東池袋3丁目3-5","lat":35.73012234,"lon":139.71726029},{"name":"サイクルポート要町1","province":"東京都","city":"豊島区","address":"東京都豊島区要町1丁目2-5","lat":35.73285205,"lon":139.69751186},{"name":"三井のリパーク池袋東口駅前第２駐輪場","province":"東京都","city":"豊島区","address":"東京都豊島区南池袋2丁目25-2","lat":35.72751975,"lon":139.71314964},{"name":"西武スマイルパークダイヤゲート池袋駐輪場","province":"東京都","city":"豊島区","address":"東京都豊島区南池袋1丁目16-15","lat":35.72667531,"lon":139.71023047},{"name":"パートナ駒込１丁目駐輪場","province":"東京都","city":"豊島区","address":"東京都豊島区駒込1丁目44","lat":35.7358613,"lon":139.74610208},{"name":"Parking in巣鴨駐輪場","province":"東京都","city":"豊島区","address":"東京都豊島区巣鴨1丁目15-2","lat":35.73345866,"lon":139.74046931},{"name":"西巣鴨","province":"東京都","city":"豊島区","address":"東京都豊島区西巣鴨3丁目27","lat":35.74406543,"lon":139.72763939},{"name":"新庚申塚","province":"東京都","city":"豊島区","address":"東京都豊島区巣鴨5丁目20-3","lat":35.74143803,"lon":139.73109477},{"name":"巣鴨駅北口","province":"東京都","city":"豊島区","address":"東京都豊島区巣鴨1丁目16-1","lat":35.73315589,"lon":139.73949718},{"name":"向原","province":"東京都","city":"豊島区","address":"東京都豊島区東池袋2丁目1-1","lat":35.72933652,"lon":139.72482357},{"name":"駒込駅北口","province":"東京都","city":"豊島区","address":"東京都豊島区駒込3丁目2-10","lat":35.73655844,"lon":139.74626593},{"name":"とげぬき地蔵入口","province":"東京都","city":"豊島区","address":"東京都豊島区巣鴨3丁目31-5","lat":35.73431124,"lon":139.73701956},{"name":"巣鴨駅南口第二","province":"東京都","city":"豊島区","address":"東京都豊島区巣鴨1丁目12-2","lat":35.73255876,"lon":139.74008604},{"name":"巣鴨小学校入口","province":"東京都","city":"豊島区","address":"東京都豊島区南大塚1丁目13-5","lat":35.72773414,"lon":139.73331735},{"name":"庚申塚","province":"東京都","city":"豊島区","address":"東京都豊島区西巣鴨3丁目1","lat":35.73978265,"lon":139.73011992},{"name":"大塚駅北口","province":"東京都","city":"豊島区","address":"東京都豊島区北大塚2丁目14","lat":35.73211685,"lon":139.7291592},{"name":"大塚駅南口","province":"東京都","city":"豊島区","address":"東京都豊島区南大塚3丁目33-1","lat":35.73158912,"lon":139.7285426},{"name":"東池袋二丁目","province":"東京都","city":"豊島区","address":"東京都豊島区東池袋2丁目20-2","lat":35.73047522,"lon":139.72289591},{"name":"南大塚三丁目","province":"東京都","city":"豊島区","address":"東京都豊島区南大塚2丁目26-15","lat":35.72820344,"lon":139.72971764},{"name":"巣鴨駅北口第二","province":"東京都","city":"豊島区","address":"東京都豊島区巣鴨2丁目1-1","lat":35.73388634,"lon":139.73864444},{"name":"南大塚二丁目","province":"東京都","city":"豊島区","address":"東京都豊島区南大塚1丁目1-8","lat":35.72581497,"lon":139.73535337},{"name":"南大塚一丁目","province":"東京都","city":"豊島区","address":"東京都豊島区南大塚1丁目47-5","lat":35.72875343,"lon":139.73212574},{"name":"向原北","province":"東京都","city":"豊島区","address":"東京都豊島区南大塚3丁目30-1","lat":35.73108356,"lon":139.72568454},{"name":"巣鴨ろう学校入口","province":"東京都","city":"豊島区","address":"東京都豊島区巣鴨4丁目8","lat":35.7363886,"lon":139.73027559},{"name":"巣鴨警察署入口第二","province":"東京都","city":"豊島区","address":"東京都豊島区北大塚1丁目17-9","lat":35.73214743,"lon":139.73022577},{"name":"空蝉橋南","province":"東京都","city":"豊島区","address":"東京都豊島区南大塚3丁目30-6","lat":35.73159183,"lon":139.72578451},{"name":"駒込東口商店街","province":"東京都","city":"豊島区","address":"東京都豊島区駒込1丁目17-2","lat":35.73513943,"lon":139.7520128},{"name":"都営南大塚住宅前","province":"東京都","city":"豊島区","address":"東京都豊島区南大塚3丁目44-14","lat":35.7293505,"lon":139.72895377},{"name":"サンシャイン６０南","province":"東京都","city":"豊島区","address":"東京都豊島区東池袋4丁目27","lat":35.7279032,"lon":139.71942686},{"name":"造幣局西","province":"東京都","city":"豊島区","address":"東京都豊島区東池袋4丁目42-1","lat":35.72672286,"lon":139.72213501},{"name":"巣鴨警察署入口","province":"東京都","city":"豊島区","address":"東京都豊島区北大塚1丁目14-5","lat":35.73189469,"lon":139.7305202},{"name":"大塚駅南口第二","province":"東京都","city":"豊島区","address":"東京都豊島区南大塚2丁目46-1","lat":35.73109477,"lon":139.72978974},{"name":"新田交番東","province":"東京都","city":"豊島区","address":"東京都豊島区北大塚3丁目29-9","lat":35.73576912,"lon":139.72561768},{"name":"南大塚二丁目第三","province":"東京都","city":"豊島区","address":"東京都豊島区南大塚3丁目2-10","lat":35.72728132,"lon":139.72943437},{"name":"大塚駅南口第三","province":"東京都","city":"豊島区","address":"東京都豊島区南大塚3丁目52-10","lat":35.73007265,"lon":139.72894819},{"name":"中央図書館前","province":"東京都","city":"豊島区","address":"東京都豊島区東池袋5丁目39-18","lat":35.72803946,"lon":139.72552356},{"name":"文化センター前","province":"東京都","city":"豊島区","address":"東京都豊島区東池袋3丁目18","lat":35.72976693,"lon":139.72121274},{"name":"日の出町第二公園北","province":"東京都","city":"豊島区","address":"東京都豊島区東池袋4丁目14","lat":35.72616453,"lon":139.72047129},{"name":"大塚駅南口第一","province":"東京都","city":"豊島区","address":"東京都豊島区南大塚2丁目45-8","lat":35.73063926,"lon":139.72955089},{"name":"池袋駅東口","province":"東京都","city":"豊島区","address":"東京都豊島区南池袋1丁目27-5","lat":35.72946951,"lon":139.71262182},{"name":"東池袋一丁目","province":"東京都","city":"豊島区","address":"東京都豊島区東池袋1丁目39-4","lat":35.73234701,"lon":139.71426878},{"name":"池袋駅東口交番前","province":"東京都","city":"豊島区","address":"東京都豊島区東池袋1丁目41-6","lat":35.73162483,"lon":139.7127995},{"name":"サンシャイン６０通り","province":"東京都","city":"豊島区","address":"東京都豊島区東池袋1丁目29-1","lat":35.73047505,"lon":139.71645756},{"name":"池袋東口五差路","province":"東京都","city":"豊島区","address":"東京都豊島区東池袋1丁目2-1","lat":35.72966396,"lon":139.71386893},{"name":"立教大学正門前","province":"東京都","city":"豊島区","address":"東京都豊島区西池袋5丁目10-5","lat":35.73116631,"lon":139.70395027},{"name":"東池袋","province":"東京都","city":"豊島区","address":"東京都豊島区東池袋4丁目7-2","lat":35.72708936,"lon":139.71775203},{"name":"上池袋二丁目","province":"東京都","city":"豊島区","address":"東京都豊島区上池袋1丁目10-11","lat":35.7360245,"lon":139.71970984},{"name":"池袋西口五差路","province":"東京都","city":"豊島区","address":"東京都豊島区西池袋1丁目18-6","lat":35.73146086,"lon":139.70881372},{"name":"池袋警察署前","province":"東京都","city":"豊島区","address":"東京都豊島区西池袋1丁目7-5","lat":35.72853614,"lon":139.70716399},{"name":"ビックリガード入口","province":"東京都","city":"豊島区","address":"東京都豊島区西池袋2丁目41-8","lat":35.72738353,"lon":139.70875557},{"name":"西武池袋駅前","province":"東京都","city":"豊島区","address":"東京都豊島区南池袋1丁目21-7","lat":35.72865571,"lon":139.712258},{"name":"池袋駅西口北","province":"東京都","city":"豊島区","address":"東京都豊島区西池袋1丁目23-1","lat":35.73177752,"lon":139.71002195},{"name":"東池袋中央公園前","province":"東京都","city":"豊島区","address":"東京都豊島区東池袋3丁目16-3","lat":35.73060011,"lon":139.71911566},{"name":"サンシャイン前","province":"東京都","city":"豊島区","address":"東京都豊島区東池袋1丁目27-8","lat":35.72921687,"lon":139.71658815},{"name":"中池袋公園入口","province":"東京都","city":"豊島区","address":"東京都豊島区東池袋1丁目9-8","lat":35.73124714,"lon":139.71428272},{"name":"上池袋郵便局前","province":"東京都","city":"豊島区","address":"東京都豊島区上池袋2丁目14-9","lat":35.73537454,"lon":139.71815722},{"name":"東京芸術劇場前","province":"東京都","city":"豊島区","address":"東京都豊島区西池袋1丁目7-10","lat":35.72901109,"lon":139.7073084},{"name":"上池袋三丁目","province":"東京都","city":"豊島区","address":"東京都豊島区上池袋3丁目33-22","lat":35.73783822,"lon":139.72118741},{"name":"池袋西口公園前","province":"東京都","city":"豊島区","address":"東京都豊島区西池袋1丁目8","lat":35.7290611,"lon":139.70773615},{"name":"南池袋公園入口","province":"東京都","city":"豊島区","address":"東京都豊島区南池袋1丁目25-1","lat":35.72846408,"lon":139.71308293},{"name":"中池袋公園入口南","province":"東京都","city":"豊島区","address":"東京都豊島区東池袋1丁目5-7","lat":35.7310388,"lon":139.71361056},{"name":"南池袋公園前","province":"東京都","city":"豊島区","address":"東京都豊島区東池袋1丁目24-1","lat":35.72870301,"lon":139.71547161},{"name":"池袋西口五差路北","province":"東京都","city":"豊島区","address":"東京都豊島区西池袋1丁目37-10","lat":35.73208856,"lon":139.70879704},{"name":"池袋大橋西詰南","province":"東京都","city":"豊島区","address":"東京都豊島区西池袋1丁目44-1","lat":35.73293578,"lon":139.71194952},{"name":"東池袋一丁目北","province":"東京都","city":"豊島区","address":"東京都豊島区東池袋1丁目18-1","lat":35.73241093,"lon":139.71548812},{"name":"サンシャイン南","province":"東京都","city":"豊島区","address":"東京都豊島区東池袋4丁目24-5","lat":35.72855307,"lon":139.71738534},{"name":"上池袋二丁目北","province":"東京都","city":"豊島区","address":"東京都豊島区上池袋1丁目23-6","lat":35.73662445,"lon":139.72044309},{"name":"池袋東口五差路北","province":"東京都","city":"豊島区","address":"東京都豊島区東池袋1丁目2-8","lat":35.7301778,"lon":139.7138939},{"name":"元池袋公園前","province":"東京都","city":"豊島区","address":"東京都豊島区西池袋1丁目9","lat":35.72896113,"lon":139.70857497},{"name":"健康プラザとしま前","province":"東京都","city":"豊島区","address":"東京都豊島区上池袋2丁目4-4","lat":35.7349412,"lon":139.71595187},{"name":"池袋駅東口中央","province":"東京都","city":"豊島区","address":"東京都豊島区南池袋1丁目28-2","lat":35.73090546,"lon":139.71243844},{"name":"目白駅前","province":"東京都","city":"豊島区","address":"東京都豊島区目白3丁目14-1","lat":35.7219424,"lon":139.7065171},{"name":"高田郵便局前","province":"東京都","city":"豊島区","address":"東京都豊島区高田2丁目5-14","lat":35.71522943,"lon":139.71212798},{"name":"千登世橋上","province":"東京都","city":"豊島区","address":"東京都豊島区目白1丁目7-17","lat":35.71899569,"lon":139.71291666},{"name":"千登世橋下","province":"東京都","city":"豊島区","address":"東京都豊島区雑司が谷3丁目3-25","lat":35.72011226,"lon":139.71367211},{"name":"東池袋四丁目","province":"東京都","city":"豊島区","address":"東京都豊島区南池袋2丁目41-12","lat":35.72573121,"lon":139.71872423},{"name":"南池袋一丁目","province":"東京都","city":"豊島区","address":"東京都豊島区南池袋3丁目13-10","lat":35.72641151,"lon":139.71184701},{"name":"椎名町駅入口","province":"東京都","city":"豊島区","address":"東京都豊島区南長崎1丁目17-17","lat":35.72515282,"lon":139.69460688},{"name":"南池袋一丁目第二","province":"東京都","city":"豊島区","address":"東京都豊島区南池袋1丁目19-6","lat":35.72781413,"lon":139.71230803},{"name":"学習院下電停前","province":"東京都","city":"豊島区","address":"東京都豊島区高田2丁目7-13","lat":35.71615156,"lon":139.71260847},{"name":"要町三丁目","province":"東京都","city":"豊島区","address":"東京都豊島区要町3丁目45-11","lat":35.73988153,"lon":139.68765404},{"name":"東池袋四丁目東","province":"東京都","city":"豊島区","address":"東京都豊島区南池袋4丁目18-12","lat":35.72475637,"lon":139.72061022},{"name":"南池袋四丁目","province":"東京都","city":"豊島区","address":"東京都豊島区南池袋4丁目22-17","lat":35.72384539,"lon":139.72165183},{"name":"南池袋一丁目南","province":"東京都","city":"豊島区","address":"東京都豊島区南池袋3丁目12-5","lat":35.72523385,"lon":139.71173873},{"name":"長崎六丁目","province":"東京都","city":"豊島区","address":"東京都豊島区長崎5丁目5-8","lat":35.73327096,"lon":139.68069382},{"name":"高田三丁目第二","province":"東京都","city":"豊島区","address":"東京都豊島区高田3丁目29-3","lat":35.71607082,"lon":139.7056674},{"name":"東池袋四丁目西","province":"東京都","city":"豊島区","address":"東京都豊島区東池袋4丁目4","lat":35.72643948,"lon":139.71960468},{"name":"佐々木学園前","province":"東京都","city":"豊島区","address":"東京都豊島区南池袋2丁目33-2","lat":35.72595887,"lon":139.71514953},{"name":"東池袋四丁目西第二","province":"東京都","city":"豊島区","address":"東京都豊島区東池袋4丁目5-1","lat":35.72659779,"lon":139.71902694},{"name":"ビックリガード下","province":"東京都","city":"豊島区","address":"東京都豊島区南池袋1丁目15","lat":35.72535877,"lon":139.70920561},{"name":"雑司が谷駅前","province":"東京都","city":"豊島区","address":"東京都豊島区高田2丁目17-20","lat":35.71841247,"lon":139.71423324},{"name":"学習院角第二","province":"東京都","city":"豊島区","address":"東京都豊島区目白2丁目39-3","lat":35.72181189,"lon":139.70723093},{"name":"霜降橋","province":"東京都","city":"豊島区","address":"東京都豊島区駒込2丁目8-4","lat":35.73968584,"lon":139.74687685},{"name":"滝野川七丁目","province":"東京都","city":"豊島区","address":"東京都豊島区西巣鴨2丁目21-4","lat":35.74060188,"lon":139.72478145},{"name":"滝野川三丁目東","province":"東京都","city":"豊島区","address":"東京都豊島区西巣鴨4丁目22","lat":35.74492374,"lon":139.73113906},{"name":"豊島区観光情報センター","province":"東京都","city":"豊島区","address":"東京都豊島区西池袋1-19-7","lat":35.73135,"lon":139.709614},{"name":"としま区民センター インフォメーション","province":"東京都","city":"豊島区","address":"東京都豊島区東池袋1-20-10","lat":35.731492,"lon":139.715573},{"name":"GLOBAL RING CAFE","province":"東京都","city":"豊島区","address":"東京都豊島区西池袋1-8-26","lat":35.730222,"lon":139.709126},{"name":"豊島区立トキワ荘マンガミュージアム","province":"東京都","city":"豊島区","address":"東京都豊島区南長崎3-9-22","lat":35.72443069,"lon":139.6862021},{"name":"豊島区トキワ荘通りお休み処","province":"東京都","city":"豊島区","address":"東京都豊島区南長崎2-3-2","lat":35.72359209,"lon":139.6889189},{"name":"東京都立大塚病院","province":"東京都","city":"豊島区","address":"東京都豊島区南大塚2丁目8-1","lat":35.72526774,"lon":139.73230087},{"name":"区立西池袋公園","province":"東京都","city":"豊島区","address":"東京都豊島区西池袋3丁目20-1","lat":35.73053587,"lon":139.70552793},{"name":"都立文京高等学校","province":"東京都","city":"豊島区","address":"東京都豊島区西巣鴨1丁目1-5","lat":35.7358553,"lon":139.72898683},{"name":"都立大塚病院","province":"東京都","city":"豊島区","address":"東京都豊島区南大塚2丁目8-1","lat":35.72526774,"lon":139.73230087},{"name":"にしすがも創造舎（旧朝日中）","province":"東京都","city":"豊島区","address":"東京都豊島区西巣鴨4丁目9-1","lat":35.74388772,"lon":139.73004475},{"name":"豊島区立千登世橋中学校","province":"東京都","city":"豊島区","address":"東京都豊島区目白1丁目1-1","lat":35.7172653,"lon":139.7118946},{"name":"豊島区本庁舎","province":"東京都","city":"豊島区","address":"豊島区東池袋1-18-1","lat":35.732413,"lon":139.715538},{"name":"第四建設事務所","province":"東京都","city":"豊島区","address":"豊島区南大塚2-36-2","lat":35.729037,"lon":139.730329},{"name":"第五方面交通機動隊目白分駐所","province":"東京都","city":"豊島区","address":"豊島区目白2-10-6","lat":35.72034,"lon":139.7108},{"name":"池袋警察署","province":"東京都","city":"豊島区","address":"豊島区西池袋1-7-5","lat":35.7285,"lon":139.7072},{"name":"巣鴨警察署","province":"東京都","city":"豊島区","address":"豊島区北大塚1-15-15","lat":35.73115,"lon":139.7322},{"name":"目白警察署","province":"東京都","city":"豊島区","address":"豊島区目白2-10-2","lat":35.72007,"lon":139.7114},{"name":"第五消防方面本部","province":"東京都","city":"豊島区","address":"豊島区西池袋2-37-8","lat":35.72794,"lon":139.7069},{"name":"池袋消防署","province":"東京都","city":"豊島区","address":"豊島区西池袋2-37-8","lat":35.72794,"lon":139.7069},{"name":"豊島消防署","province":"東京都","city":"豊島区","address":"豊島区東池袋3-19-20","lat":35.72978,"lon":139.7219},{"name":"東京都赤十字血液センター駒込事業所","province":"東京都","city":"豊島区","address":"豊島区駒込2-2-2","lat":35.73726,"lon":139.7473},{"name":"豊島清掃工場","province":"東京都","city":"豊島区","address":"豊島区上池袋2-5-1","lat":35.73481,"lon":139.7145},{"name":"豊島区区立総合体育場一帯","province":"東京都","city":"豊島区","address":"豊島区東池袋4","lat":35.72647,"lon":139.7206},{"name":"ソフトバンクモバイル（株）北池袋ビル","province":"東京都","city":"豊島区","address":"豊島区上池袋4-10-17","lat":35.73961,"lon":139.7228},{"name":"ソフトバンクテレコム（株）新東京ビル","province":"東京都","city":"豊島区","address":"豊島区上池袋4-10-17","lat":35.73961,"lon":139.7228},{"name":"東京電力（株）大塚支社","province":"東京都","city":"豊島区","address":"豊島区北大塚2-33-17","lat":35.73522,"lon":139.7284},{"name":"池袋駅","province":"東京都","city":"豊島区","address":"東京都豊島区南池袋1丁目28-2","lat":35.73090546,"lon":139.71243844},{"name":"南池袋ＰＡ","province":"東京都","city":"豊島区","address":"東京都豊島区","lat":35.72611722,"lon":139.71660773},{"name":"巣鴨自動車営業所","province":"東京都","city":"豊島区","address":"東京都豊島区巣鴨2丁目9-8","lat":35.73489175,"lon":139.73797779},{"name":"豊島区","province":"東京都","city":"豊島区","address":"豊島区東池袋1-18-1","lat":35.73241337,"lon":139.715538},{"name":"豊島合同庁舎","province":"東京都","city":"豊島区","address":"東京都豊島区西池袋1丁目17-1","lat":35.73095,"lon":139.708405},{"name":"東京芸術劇場","province":"東京都","city":"豊島区","address":"東京都豊島区西池袋1丁目8-1","lat":35.72987,"lon":139.7082},{"name":"東京芸術劇場","province":"東京都","city":"豊島区","address":"東京都豊島区西池袋1丁目8","lat":35.72998,"lon":139.7078},{"name":"東京芸術劇場","province":"東京都","city":"豊島区","address":"東京都豊島区西池袋1丁目8-1","lat":35.7296,"lon":139.7077},{"name":"東京芸術劇場","province":"東京都","city":"豊島区","address":"東京都豊島区西池袋1丁目8-1","lat":35.72946,"lon":139.7081},{"name":"東京芸術劇場","province":"東京都","city":"豊島区","address":"東京都豊島区西池袋1丁目8","lat":35.72997,"lon":139.7078},{"name":"東京芸術劇場","province":"東京都","city":"豊島区","address":"東京都豊島区西池袋1丁目8","lat":35.72958,"lon":139.7082},{"name":"東京芸術劇場","province":"東京都","city":"豊島区","address":"東京都豊島区西池袋1丁目8-1","lat":35.7301,"lon":139.7083},{"name":"地方独立行政法人東京都立病院機構　東京都立大塚病院","province":"東京都","city":"豊島区","address":"東京都豊島区南大塚2丁目8-1","lat":35.725405,"lon":139.73251},{"name":"地方独立行政法人東京都立病院機構　東京都立大塚病院","province":"東京都","city":"豊島区","address":"東京都豊島区南大塚2丁目8-1","lat":35.725316,"lon":139.732052},{"name":"染井霊園","province":"東京都","city":"豊島区","address":"東京都豊島区駒込5丁目5","lat":35.738622,"lon":139.738376},{"name":"雑司ヶ谷霊園","province":"東京都","city":"豊島区","address":"東京都豊島区南池袋4丁目25","lat":35.722669,"lon":139.717842},{"name":"都営三田線駅巣鴨駅","province":"東京都","city":"豊島区","address":"東京都豊島区巣鴨3丁目27","lat":35.733428,"lon":139.738723},{"name":"都営三田線駅西巣鴨駅","province":"東京都","city":"豊島区","address":"東京都豊島区西巣鴨3丁目24","lat":35.743301,"lon":139.728923},{"name":"区民ひろば西巣鴨第一","province":"東京都","city":"豊島区","address":"東京都豊島区西巣鴨2丁目35-3","lat":35.740429,"lon":139.727833},{"name":"豊島区役所本庁舎","province":"東京都","city":"豊島区","address":"東京都豊島区南池袋2丁目45-3","lat":35.72615,"lon":139.716564},{"name":"豊島区役所本庁舎","province":"東京都","city":"豊島区","address":"東京都豊島区南池袋2丁目45-3","lat":35.726144,"lon":139.716565},{"name":"豊島区役所本庁舎","province":"東京都","city":"豊島区","address":"東京都豊島区南池袋2丁目45-3","lat":35.726148,"lon":139.716571},{"name":"豊島区役所本庁舎","province":"東京都","city":"豊島区","address":"東京都豊島区南池袋2丁目45-3","lat":35.726154,"lon":139.71657},{"name":"豊島区役所本庁舎","province":"東京都","city":"豊島区","address":"東京都豊島区南池袋2丁目45-3","lat":35.726156,"lon":139.716562},{"name":"豊島区役所本庁舎","province":"東京都","city":"豊島区","address":"東京都豊島区南池袋2丁目45-3","lat":35.726151,"lon":139.716557},{"name":"豊島区役所本庁舎","province":"東京都","city":"豊島区","address":"東京都豊島区南池袋2丁目45-3","lat":35.726145,"lon":139.716557},{"name":"豊島区役所東池袋分庁舎","province":"東京都","city":"豊島区","address":"東京都豊島区東池袋1丁目39-2","lat":35.732543,"lon":139.714499},{"name":"東部区民事務所","province":"東京都","city":"豊島区","address":"東京都豊島区北大塚1丁目15-10","lat":35.731248,"lon":139.73134},{"name":"西部区民事務所","province":"東京都","city":"豊島区","address":"東京都豊島区千早2丁目39-16","lat":35.735742,"lon":139.691025},{"name":"区民ひろば仰高","province":"東京都","city":"豊島区","address":"東京都豊島区駒込4丁目12-3","lat":35.736824,"lon":139.740331},{"name":"区民ひろば駒込","province":"東京都","city":"豊島区","address":"東京都豊島区駒込2丁目2-4","lat":35.737169,"lon":139.747741},{"name":"区民ひろば南大塚","province":"東京都","city":"豊島区","address":"東京都豊島区南大塚2丁目36-1","lat":35.729101,"lon":139.729551},{"name":"区民ひろば清和第一","province":"東京都","city":"豊島区","address":"東京都豊島区巣鴨3丁目15-20","lat":35.735686,"lon":139.733854},{"name":"区民ひろば清和第二","province":"東京都","city":"豊島区","address":"東京都豊島区巣鴨3丁目13-12","lat":35.735286,"lon":139.732376},{"name":"トキワ荘通りお休み処","province":"東京都","city":"豊島区","address":"東京都豊島区南長崎2丁目3-2","lat":35.723349,"lon":139.688919},{"name":"区民ひろば西巣鴨第二","province":"東京都","city":"豊島区","address":"東京都豊島区西巣鴨2丁目14-11","lat":35.738802,"lon":139.727799},{"name":"区民ひろば朝日","province":"東京都","city":"豊島区","address":"東京都豊島区巣鴨5丁目33-21","lat":35.740606,"lon":139.733535},{"name":"区民ひろば朝日","province":"東京都","city":"豊島区","address":"東京都豊島区巣鴨5丁目33-21","lat":35.740604,"lon":139.733536},{"name":"区民ひろば豊成","province":"東京都","city":"豊島区","address":"東京都豊島区上池袋1丁目28-7","lat":35.737067,"lon":139.721674},{"name":"区民ひろば上池袋","province":"東京都","city":"豊島区","address":"東京都豊島区上池袋3丁目13-5","lat":35.740073,"lon":139.716648},{"name":"区民ひろば池袋本町","province":"東京都","city":"豊島区","address":"東京都豊島区池袋本町3丁目9-4","lat":35.743688,"lon":139.712703},{"name":"区民ひろば池袋本町","province":"東京都","city":"豊島区","address":"東京都豊島区池袋本町3丁目9-4","lat":35.743637,"lon":139.712782},{"name":"区民ひろば西池袋","province":"東京都","city":"豊島区","address":"東京都豊島区西池袋2丁目37-4","lat":35.727765,"lon":139.706744},{"name":"区民ひろば南池袋","province":"東京都","city":"豊島区","address":"東京都豊島区南池袋3丁目5-12","lat":35.723415,"lon":139.713933},{"name":"区民ひろば高南第一","province":"東京都","city":"豊島区","address":"東京都豊島区高田2丁目11-2","lat":35.715695,"lon":139.714563},{"name":"区民ひろば目白","province":"東京都","city":"豊島区","address":"東京都豊島区目白2丁目20-26","lat":35.722248,"lon":139.709874},{"name":"区民ひろば長崎","province":"東京都","city":"豊島区","address":"東京都豊島区長崎2丁目27-18","lat":35.729607,"lon":139.693005},{"name":"区民ひろば長崎","province":"東京都","city":"豊島区","address":"東京都豊島区長崎2丁目27-18","lat":35.729673,"lon":139.693103},{"name":"区民ひろば富士見台","province":"東京都","city":"豊島区","address":"東京都豊島区南長崎1丁目6-1","lat":35.723985,"lon":139.69171},{"name":"区民ひろば千早","province":"東京都","city":"豊島区","address":"東京都豊島区要町3丁目7-10","lat":35.737195,"lon":139.687399},{"name":"区民ひろば高松","province":"東京都","city":"豊島区","address":"東京都豊島区高松2丁目25-9","lat":35.738778,"lon":139.697519},{"name":"区民ひろばさくら第二","province":"東京都","city":"豊島区","address":"東京都豊島区長崎6丁目37-11","lat":35.736607,"lon":139.682708},{"name":"区民ひろばさくら第一","province":"東京都","city":"豊島区","address":"東京都豊島区南長崎6丁目20-15","lat":35.729751,"lon":139.680965},{"name":"豊島区児童相談所・長崎健康相談所","province":"東京都","city":"豊島区","address":"東京都豊島区長崎3丁目6-24","lat":35.728683,"lon":139.688156},{"name":"区民ひろば池袋","province":"東京都","city":"豊島区","address":"東京都豊島区池袋4丁目21-10","lat":35.738386,"lon":139.70871},{"name":"西部生活福祉課総合施設","province":"東京都","city":"豊島区","address":"東京都豊島区要町1丁目5-1","lat":35.733041,"lon":139.696008},{"name":"要町第一区民集会室","province":"東京都","city":"豊島区","address":"東京都豊島区要町1丁目5-1","lat":35.733041,"lon":139.696008},{"name":"区民ひろば要","province":"東京都","city":"豊島区","address":"東京都豊島区要町1丁目5-1","lat":35.733041,"lon":139.696008},{"name":"池袋保健所","province":"東京都","city":"豊島区","address":"東京都豊島区東池袋4丁目42-16","lat":35.727771,"lon":139.721016},{"name":"池袋保健所","province":"東京都","city":"豊島区","address":"東京都豊島区東池袋4丁目42-16","lat":35.727794,"lon":139.721098},{"name":"中央図書館","province":"東京都","city":"豊島区","address":"東京都豊島区東池袋4丁目5-2","lat":35.726824,"lon":139.718816},{"name":"中央図書館","province":"東京都","city":"豊島区","address":"東京都豊島区東池袋4丁目5-2","lat":35.72688,"lon":139.718834},{"name":"巣鴨図書館","province":"東京都","city":"豊島区","address":"東京都豊島区巣鴨3丁目8-2","lat":35.73391,"lon":139.733194},{"name":"上池袋図書館","province":"東京都","city":"豊島区","address":"東京都豊島区上池袋2丁目45-15","lat":35.738607,"lon":139.716959},{"name":"池袋図書館","province":"東京都","city":"豊島区","address":"東京都豊島区池袋3丁目29-10","lat":35.735934,"lon":139.705839},{"name":"目白図書館","province":"東京都","city":"豊島区","address":"東京都豊島区目白4丁目31-8","lat":35.725692,"lon":139.698888},{"name":"目白図書館","province":"東京都","city":"豊島区","address":"東京都豊島区目白4丁目31-8","lat":35.725741,"lon":139.698893},{"name":"千早図書館","province":"東京都","city":"豊島区","address":"東京都豊島区千早2丁目44-2","lat":35.735727,"lon":139.688356},{"name":"駒込地域文化創造館","province":"東京都","city":"豊島区","address":"東京都豊島区駒込2丁目2-2","lat":35.737091,"lon":139.747253},{"name":"巣鴨地域文化創造館","province":"東京都","city":"豊島区","address":"東京都豊島区巣鴨4丁目15","lat":35.737551,"lon":139.73187},{"name":"巣鴨地域文化創造館","province":"東京都","city":"豊島区","address":"東京都豊島区巣鴨4丁目15-11","lat":35.737598,"lon":139.731809},{"name":"南大塚地域文化創造館","province":"東京都","city":"豊島区","address":"東京都豊島区南大塚2丁目36-1","lat":35.728975,"lon":139.729556},{"name":"千早地域文化創造館","province":"東京都","city":"豊島区","address":"東京都豊島区千早2丁目35-12","lat":35.735338,"lon":139.688619},{"name":"雑司が谷旧宣教師館","province":"東京都","city":"豊島区","address":"東京都豊島区雑司が谷1丁目25","lat":35.720854,"lon":139.720653},{"name":"昭和歴史文化記念館","province":"東京都","city":"豊島区","address":"東京都豊島区南長崎3丁目4","lat":35.723864,"lon":139.687776},{"name":"トキワ荘マンガミュージアム","province":"東京都","city":"豊島区","address":"東京都豊島区南長崎3丁目9","lat":35.724472,"lon":139.686028},{"name":"区民ひろば椎名町","province":"東京都","city":"豊島区","address":"東京都豊島区南長崎4丁目29-10","lat":35.726021,"lon":139.685567},{"name":"南大塚ホール","province":"東京都","city":"豊島区","address":"東京都豊島区南大塚2丁目36-1","lat":35.729318,"lon":139.729776},{"name":"あうるすぽっと","province":"東京都","city":"豊島区","address":"東京都豊島区東池袋4丁目5-2","lat":35.72688,"lon":139.718834},{"name":"あうるすぽっと","province":"東京都","city":"豊島区","address":"東京都豊島区東池袋4丁目5-2","lat":35.726824,"lon":139.718816},{"name":"東京建物BrilliaHALL","province":"東京都","city":"豊島区","address":"東京都豊島区東池袋1丁目19","lat":35.731718,"lon":139.715454},{"name":"東京建物BrilliaHALL","province":"東京都","city":"豊島区","address":"東京都豊島区東池袋1丁目19-1","lat":35.731721,"lon":139.715517},{"name":"駒込東公園","province":"東京都","city":"豊島区","address":"東京都豊島区駒込1丁目22","lat":35.735484,"lon":139.749714},{"name":"江戸橋公園","province":"東京都","city":"豊島区","address":"東京都豊島区巣鴨1丁目37","lat":35.731933,"lon":139.736664},{"name":"西巣鴨公園","province":"東京都","city":"豊島区","address":"東京都豊島区西巣鴨1丁目3","lat":35.736458,"lon":139.7252},{"name":"巣鴨公園","province":"東京都","city":"豊島区","address":"東京都豊島区北大塚1丁目12","lat":35.732323,"lon":139.73179},{"name":"宮仲公園","province":"東京都","city":"豊島区","address":"東京都豊島区上池袋1丁目36","lat":35.73593,"lon":139.724646},{"name":"上池袋公園","province":"東京都","city":"豊島区","address":"東京都豊島区上池袋2丁目25","lat":35.736176,"lon":139.716304},{"name":"上池袋くすのき公園","province":"東京都","city":"豊島区","address":"東京都豊島区上池袋4丁目19","lat":35.740266,"lon":139.720822},{"name":"池袋駅前公園","province":"東京都","city":"豊島区","address":"東京都豊島区東池袋1丁目50","lat":35.732769,"lon":139.713},{"name":"東池袋中央公園","province":"東京都","city":"豊島区","address":"東京都豊島区東池袋3丁目1","lat":35.730319,"lon":139.718749},{"name":"東池袋公園","province":"東京都","city":"豊島区","address":"東京都豊島区東池袋3丁目14","lat":35.73143,"lon":139.717571},{"name":"日出町第二公園","province":"東京都","city":"豊島区","address":"東京都豊島区東池袋4丁目4","lat":35.72609,"lon":139.719346},{"name":"南池袋公園","province":"東京都","city":"豊島区","address":"東京都豊島区南池袋2丁目21","lat":35.727826,"lon":139.714845},{"name":"池袋西口公園","province":"東京都","city":"豊島区","address":"東京都豊島区西池袋1丁目8-26","lat":35.730123,"lon":139.709226},{"name":"御嶽北公園","province":"東京都","city":"豊島区","address":"東京都豊島区池袋3丁目44","lat":35.737189,"lon":139.706276},{"name":"池袋公園","province":"東京都","city":"豊島区","address":"東京都豊島区池袋4丁目22","lat":35.737905,"lon":139.7085},{"name":"池袋本町公園","province":"東京都","city":"豊島区","address":"東京都豊島区池袋本町1丁目26","lat":35.740015,"lon":139.713544},{"name":"高田第二公園","province":"東京都","city":"豊島区","address":"東京都豊島区高田1丁目2","lat":35.713241,"lon":139.720962},{"name":"椎名町公園","province":"東京都","city":"豊島区","address":"東京都豊島区南長崎1丁目20","lat":35.72608,"lon":139.693019},{"name":"南長崎公園","province":"東京都","city":"豊島区","address":"東京都豊島区南長崎3丁目37","lat":35.726735,"lon":139.688392},{"name":"南長崎中央公園スポーツセンター","province":"東京都","city":"豊島区","address":"東京都豊島区南長崎4丁目13-5","lat":35.724821,"lon":139.683479},{"name":"千早二丁目公園","province":"東京都","city":"豊島区","address":"東京都豊島区千早2丁目35","lat":35.735067,"lon":139.688934},{"name":"池袋の森","province":"東京都","city":"豊島区","address":"東京都豊島区池袋1丁目7","lat":35.735087,"lon":139.711886},{"name":"目白の森","province":"東京都","city":"豊島区","address":"東京都豊島区目白4丁目11","lat":35.723105,"lon":139.699141},{"name":"目白庭園","province":"東京都","city":"豊島区","address":"東京都豊島区目白3丁目20","lat":35.724422,"lon":139.705826},{"name":"池袋一丁目第二公園","province":"東京都","city":"豊島区","address":"東京都豊島区池袋1丁目8","lat":35.736356,"lon":139.711748},{"name":"駒込公園","province":"東京都","city":"豊島区","address":"東京都豊島区駒込2丁目3","lat":35.737539,"lon":139.747197},{"name":"朝日公園","province":"東京都","city":"豊島区","address":"東京都豊島区巣鴨5丁目22","lat":35.741229,"lon":139.732554},{"name":"南池袋一丁目公園","province":"東京都","city":"豊島区","address":"東京都豊島区南池袋1丁目4","lat":35.724187,"lon":139.709337},{"name":"千早公園","province":"東京都","city":"豊島区","address":"東京都豊島区千早2丁目31","lat":35.735023,"lon":139.690185},{"name":"池袋第二公園","province":"東京都","city":"豊島区","address":"東京都豊島区池袋3丁目29","lat":35.73587,"lon":139.705376},{"name":"駒込四丁目公園","province":"東京都","city":"豊島区","address":"東京都豊島区駒込4丁目7","lat":35.735042,"lon":139.742565},{"name":"雑司が谷公園","province":"東京都","city":"豊島区","address":"東京都豊島区雑司が谷2丁目11","lat":35.718725,"lon":139.716504},{"name":"富士浅間神社境内仮児童遊園","province":"東京都","city":"豊島区","address":"東京都豊島区高松2丁目9","lat":35.737727,"lon":139.695165},{"name":"北大塚二丁目公園","province":"東京都","city":"豊島区","address":"東京都豊島区北大塚2丁目34","lat":35.734938,"lon":139.729251},{"name":"南長崎三丁目第二公園","province":"東京都","city":"豊島区","address":"東京都豊島区南長崎3丁目40","lat":35.72732,"lon":139.687328},{"name":"目白三丁目公園","province":"東京都","city":"豊島区","address":"東京都豊島区目白3丁目15","lat":35.722878,"lon":139.706344},{"name":"としまみどりの防災公園","province":"東京都","city":"豊島区","address":"東京都豊島区東池袋4丁目42","lat":35.727133,"lon":139.721968},{"name":"雑司が谷公園","province":"東京都","city":"豊島区","address":"東京都豊島区雑司が谷2丁目11","lat":35.71871,"lon":139.716476},{"name":"中池袋公園","province":"東京都","city":"豊島区","address":"東京都豊島区東池袋1丁目16","lat":35.731673,"lon":139.7149},{"name":"池袋駅北口前公衆便所","province":"東京都","city":"豊島区","address":"東京都豊島区西池袋1丁目1-40","lat":35.731707,"lon":139.711346},{"name":"大塚駅前公衆便所","province":"東京都","city":"豊島区","address":"東京都豊島区北大塚2丁目1","lat":35.731788,"lon":139.729395},{"name":"豊島体育館","province":"東京都","city":"豊島区","address":"東京都豊島区要町3丁目47-8","lat":35.740021,"lon":139.689306},{"name":"豊島体育館","province":"東京都","city":"豊島区","address":"東京都豊島区要町3丁目47-8","lat":35.739996,"lon":139.68923},{"name":"豊島体育館","province":"東京都","city":"豊島区","address":"東京都豊島区要町3丁目47-8","lat":35.740019,"lon":139.689273},{"name":"巣鴨体育館","province":"東京都","city":"豊島区","address":"東京都豊島区巣鴨3丁目8-7","lat":35.734233,"lon":139.733466},{"name":"雑司が谷体育館","province":"東京都","city":"豊島区","address":"東京都豊島区雑司が谷3丁目1-7","lat":35.719913,"lon":139.714026},{"name":"雑司が谷体育館","province":"東京都","city":"豊島区","address":"東京都豊島区雑司が谷3丁目1-7","lat":35.719641,"lon":139.71382},{"name":"池袋スポーツセンター","province":"東京都","city":"豊島区","address":"東京都豊島区上池袋2丁目5-1","lat":35.734776,"lon":139.715224},{"name":"池袋スポーツセンター","province":"東京都","city":"豊島区","address":"東京都豊島区上池袋2丁目5-1","lat":35.734771,"lon":139.715227},{"name":"池袋スポーツセンター","province":"東京都","city":"豊島区","address":"東京都豊島区上池袋2丁目5-1","lat":35.73477,"lon":139.715219},{"name":"池袋スポーツセンター","province":"東京都","city":"豊島区","address":"東京都豊島区上池袋2丁目5-1","lat":35.73478,"lon":139.715244},{"name":"南長崎スポーツセンター","province":"東京都","city":"豊島区","address":"東京都豊島区南長崎4丁目13-5","lat":35.724766,"lon":139.683149},{"name":"南長崎スポーツセンター","province":"東京都","city":"豊島区","address":"東京都豊島区南長崎4丁目13-5","lat":35.724853,"lon":139.683039},{"name":"南長崎スポーツセンター","province":"東京都","city":"豊島区","address":"東京都豊島区南長崎4丁目13-5","lat":35.724794,"lon":139.683101},{"name":"南長崎スポーツセンター","province":"東京都","city":"豊島区","address":"東京都豊島区南長崎4丁目13-5","lat":35.724731,"lon":139.683255},{"name":"南長崎スポーツセンター","province":"東京都","city":"豊島区","address":"東京都豊島区南長崎4丁目13-5","lat":35.724733,"lon":139.683158},{"name":"ジャンプ長崎","province":"東京都","city":"豊島区","address":"東京都豊島区長崎2丁目24-13","lat":35.730053,"lon":139.691291},{"name":"としま区民センター","province":"東京都","city":"豊島区","address":"東京都豊島区東池袋1丁目20-10","lat":35.731419,"lon":139.715613},{"name":"としま区民センター","province":"東京都","city":"豊島区","address":"東京都豊島区東池袋1丁目20-10","lat":35.731469,"lon":139.71566},{"name":"としま区民センター","province":"東京都","city":"豊島区","address":"東京都豊島区東池袋1丁目20-10","lat":35.731499,"lon":139.715698},{"name":"としま区民センター","province":"東京都","city":"豊島区","address":"東京都豊島区東池袋1丁目20-10","lat":35.731424,"lon":139.715815},{"name":"としま区民センター","province":"東京都","city":"豊島区","address":"東京都豊島区東池袋1丁目20-10","lat":35.731424,"lon":139.715823},{"name":"としま区民センター","province":"東京都","city":"豊島区","address":"東京都豊島区東池袋1丁目20-10","lat":35.73142,"lon":139.715816},{"name":"としま区民センター","province":"東京都","city":"豊島区","address":"東京都豊島区東池袋1丁目20-10","lat":35.731423,"lon":139.715823},{"name":"としま区民センター","province":"東京都","city":"豊島区","address":"東京都豊島区東池袋1丁目20-10","lat":35.731426,"lon":139.715804},{"name":"としま産業振興プラザ","province":"東京都","city":"豊島区","address":"東京都豊島区西池袋2丁目37-4","lat":35.72776,"lon":139.70673},{"name":"としま産業振興プラザ","province":"東京都","city":"豊島区","address":"東京都豊島区西池袋2丁目37-4","lat":35.727781,"lon":139.706727},{"name":"としま産業振興プラザ","province":"東京都","city":"豊島区","address":"東京都豊島区西池袋2丁目37-4","lat":35.727781,"lon":139.706738},{"name":"としま産業振興プラザ","province":"東京都","city":"豊島区","address":"東京都豊島区西池袋2丁目37-4","lat":35.727772,"lon":139.706741},{"name":"としま産業振興プラザ","province":"東京都","city":"豊島区","address":"東京都豊島区西池袋2丁目37-4","lat":35.727768,"lon":139.70673},{"name":"雑司が谷丘の上テラス","province":"東京都","city":"豊島区","address":"東京都豊島区雑司が谷2丁目12","lat":35.719687,"lon":139.716576},{"name":"豊島区立池袋駅東自転車駐車場","province":"東京都","city":"豊島区","address":"東京都豊島区東池袋1丁目50-23","lat":35.73316079,"lon":139.71341604},{"name":"豊島区立ウイロード自転車駐車場","province":"東京都","city":"豊島区","address":"東京都豊島区南池袋1丁目28-2","lat":35.73090546,"lon":139.71243844},{"name":"豊島区立池袋六ツ又陸橋自転車駐車場","province":"東京都","city":"豊島区","address":"東京都豊島区東池袋3丁目8","lat":35.73273038,"lon":139.71741572},{"name":"豊島区立池袋駅北自転車駐車場","province":"東京都","city":"豊島区","address":"東京都豊島区池袋1丁目4-20","lat":35.73401623,"lon":139.7129105},{"name":"豊島区立池袋駅北第二自転車駐車場","province":"東京都","city":"豊島区","address":"東京都豊島区池袋1丁目4-20","lat":35.73401623,"lon":139.7129105},{"name":"豊島区立池袋駅西自転車駐車場","province":"東京都","city":"豊島区","address":"東京都豊島区西池袋3丁目20-1","lat":35.73053587,"lon":139.70552793},{"name":"豊島区立大塚駅北口路上自転車駐車場","province":"東京都","city":"豊島区","address":"東京都豊島区北大塚2丁目14","lat":35.73211685,"lon":139.7291592},{"name":"豊島区立大塚駅北口第二自転車駐車場","province":"東京都","city":"豊島区","address":"東京都豊島区北大塚2丁目6","lat":35.73250566,"lon":139.72768986},{"name":"豊島区立大塚駅北口第三自転車駐車場","province":"東京都","city":"豊島区","address":"東京都豊島区北大塚2丁目4","lat":35.73294447,"lon":139.72647328},{"name":"豊島区立目白駅東自転車駐車場","province":"東京都","city":"豊島区","address":"東京都豊島区目白1丁目4-1","lat":35.72109529,"lon":139.70682544},{"name":"豊島区立目白駅北自転車駐車場","province":"東京都","city":"豊島区","address":"東京都豊島区目白3丁目16-16","lat":35.72302008,"lon":139.70710867},{"name":"豊島区立目白駅西自転車駐車場","province":"東京都","city":"豊島区","address":"東京都豊島区目白3丁目4-3","lat":35.72157854,"lon":139.70593661},{"name":"豊島区立千登世橋自転車駐車場","province":"東京都","city":"豊島区","address":"東京都豊島区雑司が谷3丁目1-7","lat":35.71967619,"lon":139.71364435},{"name":"豊島区立巣鴨駅北自転車駐車場","province":"東京都","city":"豊島区","address":"東京都豊島区巣鴨2丁目7-11","lat":35.73489179,"lon":139.73949711},{"name":"豊島区立巣鴨駅第三自転車駐車場","province":"東京都","city":"豊島区","address":"東京都豊島区巣鴨2丁目9-23","lat":35.73497233,"lon":139.73907215},{"name":"豊島区立巣鴨駅南自転車駐車場","province":"東京都","city":"豊島区","address":"東京都豊島区巣鴨1丁目13-8","lat":35.73295315,"lon":139.74026101},{"name":"豊島区立巣鴨駅北口白山通り自転車駐車場","province":"東京都","city":"豊島区","address":"東京都豊島区巣鴨2丁目9","lat":35.73477233,"lon":139.73826666},{"name":"豊島区立駒込駅北自転車駐車場","province":"東京都","city":"豊島区","address":"東京都豊島区駒込2丁目2-2","lat":35.73718619,"lon":139.74734915},{"name":"豊島区立要町駅南自転車駐車場","province":"東京都","city":"豊島区","address":"東京都豊島区要町1丁目4-11","lat":35.73335753,"lon":139.69663135},{"name":"豊島区立要町駅北自転車駐車場","province":"東京都","city":"豊島区","address":"東京都豊島区要町1丁目10-8","lat":35.73371866,"lon":139.69870616},{"name":"豊島区立要町駅路上自転車駐車場","province":"東京都","city":"豊島区","address":"東京都豊島区要町1丁目1","lat":35.7329604,"lon":139.69835067},{"name":"豊島区立千川駅南自転車駐車場","province":"東京都","city":"豊島区","address":"東京都豊島区要町3丁目9-16","lat":35.73752908,"lon":139.68977064},{"name":"豊島区立千川駅北第一自転車駐車場","province":"東京都","city":"豊島区","address":"東京都豊島区要町3丁目44-8","lat":35.73915108,"lon":139.68868455},{"name":"豊島区立千川駅北第二自転車駐車場","province":"東京都","city":"豊島区","address":"東京都豊島区要町3丁目55","lat":35.74023152,"lon":139.6885984},{"name":"豊島区立千川駅路上自転車駐車場","province":"東京都","city":"豊島区","address":"東京都豊島区要町3丁目10","lat":35.73733189,"lon":139.69015673},{"name":"豊島区立椎名橋自転車駐車場","province":"東京都","city":"豊島区","address":"東京都豊島区長崎1丁目9-30","lat":35.72680823,"lon":139.69575671},{"name":"豊島区立南長崎自転車駐車場","province":"東京都","city":"豊島区","address":"東京都豊島区南長崎4丁目13-5","lat":35.72480809,"lon":139.68320786},{"name":"プラザ駐輪場","province":"東京都","city":"豊島区","address":"東京都豊島区西池袋1丁目11-1","lat":35.72881672,"lon":139.70932768},{"name":"アトレヴィ巣鴨駐輪場","province":"東京都","city":"豊島区","address":"東京都豊島区巣鴨2丁目7","lat":35.73461407,"lon":139.74040816},{"name":"ライズシティ池袋駐輪場","province":"東京都","city":"豊島区","address":"東京都豊島区東池袋4丁目5-2","lat":35.72696996,"lon":139.71890472},{"name":"西武スマイルパーク東長崎駅北口駐輪場","province":"東京都","city":"豊島区","address":"東京都豊島区長崎5丁目1","lat":35.73100461,"lon":139.68274375},{"name":"西武スマイルパーク東長崎駅南口駐輪場","province":"東京都","city":"豊島区","address":"東京都豊島区南長崎5丁目33-12","lat":35.73013526,"lon":139.68275767},{"name":"池袋北口A・B・C","province":"東京都","city":"豊島区","address":"東京都豊島区西池袋1丁目30","lat":35.73256081,"lon":139.7114468},{"name":"エコステーション２１アイテラス駐輪場","province":"東京都","city":"豊島区","address":"東京都豊島区南長崎4丁目5-20","lat":35.72430535,"lon":139.68255516},{"name":"豊島区立池袋駅東第二自転車駐車場","province":"東京都","city":"豊島区","address":"東京都豊島区東池袋1丁目50-35","lat":35.73161371,"lon":139.71235509},{"name":"豊島区立新大塚駅路上自転車駐車場","province":"東京都","city":"豊島区","address":"東京都豊島区南大塚2丁目8","lat":35.72533716,"lon":139.73159816},{"name":"三井のリパーク・池袋駅東口駐輪場","province":"東京都","city":"豊島区","address":"東京都豊島区東池袋1丁目14-3","lat":35.72998063,"lon":139.71487994},{"name":"JR大塚南口ビル駐輪場","province":"東京都","city":"豊島区","address":"東京都豊島区南大塚3丁目33-1","lat":35.73158912,"lon":139.7285426},{"name":"リーベンパーク目白駐輪場","province":"東京都","city":"豊島区","address":"東京都豊島区目白3丁目14","lat":35.72227292,"lon":139.70639765},{"name":"豊島区立池袋駅南自転車駐車場","province":"東京都","city":"豊島区","address":"東京都豊島区南池袋2丁目21-6","lat":35.72734479,"lon":139.71387458},{"name":"池袋パルコ別館Ｐ’パルコ駐輪場","province":"東京都","city":"豊島区","address":"東京都豊島区東池袋1丁目50-35","lat":35.73161371,"lon":139.71235509},{"name":"三井のリパーク要町駅前駐輪場","province":"東京都","city":"豊島区","address":"東京都豊島区千早1丁目20","lat":35.73238824,"lon":139.69867289},{"name":"豊島区立新庚申塚路上自転車駐車場","province":"東京都","city":"豊島区","address":"東京都豊島区西巣鴨3丁目15","lat":35.74174908,"lon":139.72985875},{"name":"豊島区立池袋駅西第二自転車駐車場","province":"東京都","city":"豊島区","address":"東京都豊島区西池袋1丁目8-1","lat":35.72964715,"lon":139.70794721},{"name":"エコステーション２１東池袋３丁目駐輪場","province":"東京都","city":"豊島区","address":"東京都豊島区東池袋3丁目3-5","lat":35.73012234,"lon":139.71726029},{"name":"サイクルポート要町1","province":"東京都","city":"豊島区","address":"東京都豊島区要町1丁目2-5","lat":35.73285205,"lon":139.69751186},{"name":"三井のリパーク池袋東口駅前第２駐輪場","province":"東京都","city":"豊島区","address":"東京都豊島区南池袋2丁目25-2","lat":35.72751975,"lon":139.71314964},{"name":"西武スマイルパークダイヤゲート池袋駐輪場","province":"東京都","city":"豊島区","address":"東京都豊島区南池袋1丁目16-15","lat":35.72667531,"lon":139.71023047},{"name":"パートナ駒込１丁目駐輪場","province":"東京都","city":"豊島区","address":"東京都豊島区駒込1丁目44","lat":35.7358613,"lon":139.74610208},{"name":"Parking in巣鴨駐輪場","province":"東京都","city":"豊島区","address":"東京都豊島区巣鴨1丁目15-2","lat":35.73345866,"lon":139.74046931},{"name":"西巣鴨","province":"東京都","city":"豊島区","address":"東京都豊島区西巣鴨3丁目27","lat":35.74406543,"lon":139.72763939},{"name":"新庚申塚","province":"東京都","city":"豊島区","address":"東京都豊島区巣鴨5丁目20-3","lat":35.74143803,"lon":139.73109477},{"name":"巣鴨駅北口","province":"東京都","city":"豊島区","address":"東京都豊島区巣鴨1丁目16-1","lat":35.73315589,"lon":139.73949718},{"name":"向原","province":"東京都","city":"豊島区","address":"東京都豊島区東池袋2丁目1-1","lat":35.72933652,"lon":139.72482357},{"name":"駒込駅北口","province":"東京都","city":"豊島区","address":"東京都豊島区駒込3丁目2-10","lat":35.73655844,"lon":139.74626593},{"name":"とげぬき地蔵入口","province":"東京都","city":"豊島区","address":"東京都豊島区巣鴨3丁目31-5","lat":35.73431124,"lon":139.73701956},{"name":"巣鴨駅南口第二","province":"東京都","city":"豊島区","address":"東京都豊島区巣鴨1丁目12-2","lat":35.73255876,"lon":139.74008604},{"name":"巣鴨小学校入口","province":"東京都","city":"豊島区","address":"東京都豊島区南大塚1丁目13-5","lat":35.72773414,"lon":139.73331735},{"name":"庚申塚","province":"東京都","city":"豊島区","address":"東京都豊島区西巣鴨3丁目1","lat":35.73978265,"lon":139.73011992},{"name":"大塚駅北口","province":"東京都","city":"豊島区","address":"東京都豊島区北大塚2丁目14","lat":35.73211685,"lon":139.7291592},{"name":"大塚駅南口","province":"東京都","city":"豊島区","address":"東京都豊島区南大塚3丁目33-1","lat":35.73158912,"lon":139.7285426},{"name":"東池袋二丁目","province":"東京都","city":"豊島区","address":"東京都豊島区東池袋2丁目20-2","lat":35.73047522,"lon":139.72289591},{"name":"南大塚三丁目","province":"東京都","city":"豊島区","address":"東京都豊島区南大塚2丁目26-15","lat":35.72820344,"lon":139.72971764},{"name":"巣鴨駅北口第二","province":"東京都","city":"豊島区","address":"東京都豊島区巣鴨2丁目1-1","lat":35.73388634,"lon":139.73864444},{"name":"南大塚二丁目","province":"東京都","city":"豊島区","address":"東京都豊島区南大塚1丁目1-8","lat":35.72581497,"lon":139.73535337},{"name":"南大塚一丁目","province":"東京都","city":"豊島区","address":"東京都豊島区南大塚1丁目47-5","lat":35.72875343,"lon":139.73212574},{"name":"向原北","province":"東京都","city":"豊島区","address":"東京都豊島区南大塚3丁目30-1","lat":35.73108356,"lon":139.72568454},{"name":"巣鴨ろう学校入口","province":"東京都","city":"豊島区","address":"東京都豊島区巣鴨4丁目8","lat":35.7363886,"lon":139.73027559},{"name":"巣鴨警察署入口第二","province":"東京都","city":"豊島区","address":"東京都豊島区北大塚1丁目17-9","lat":35.73214743,"lon":139.73022577},{"name":"空蝉橋南","province":"東京都","city":"豊島区","address":"東京都豊島区南大塚3丁目30-6","lat":35.73159183,"lon":139.72578451},{"name":"駒込東口商店街","province":"東京都","city":"豊島区","address":"東京都豊島区駒込1丁目17-2","lat":35.73513943,"lon":139.7520128},{"name":"都営南大塚住宅前","province":"東京都","city":"豊島区","address":"東京都豊島区南大塚3丁目44-14","lat":35.7293505,"lon":139.72895377},{"name":"サンシャイン６０南","province":"東京都","city":"豊島区","address":"東京都豊島区東池袋4丁目27","lat":35.7279032,"lon":139.71942686},{"name":"造幣局西","province":"東京都","city":"豊島区","address":"東京都豊島区東池袋4丁目42-1","lat":35.72672286,"lon":139.72213501},{"name":"巣鴨警察署入口","province":"東京都","city":"豊島区","address":"東京都豊島区北大塚1丁目14-5","lat":35.73189469,"lon":139.7305202},{"name":"大塚駅南口第二","province":"東京都","city":"豊島区","address":"東京都豊島区南大塚2丁目46-1","lat":35.73109477,"lon":139.72978974},{"name":"新田交番東","province":"東京都","city":"豊島区","address":"東京都豊島区北大塚3丁目29-9","lat":35.73576912,"lon":139.72561768},{"name":"南大塚二丁目第三","province":"東京都","city":"豊島区","address":"東京都豊島区南大塚3丁目2-10","lat":35.72728132,"lon":139.72943437},{"name":"大塚駅南口第三","province":"東京都","city":"豊島区","address":"東京都豊島区南大塚3丁目52-10","lat":35.73007265,"lon":139.72894819},{"name":"中央図書館前","province":"東京都","city":"豊島区","address":"東京都豊島区東池袋5丁目39-18","lat":35.72803946,"lon":139.72552356},{"name":"文化センター前","province":"東京都","city":"豊島区","address":"東京都豊島区東池袋3丁目18","lat":35.72976693,"lon":139.72121274},{"name":"日の出町第二公園北","province":"東京都","city":"豊島区","address":"東京都豊島区東池袋4丁目14","lat":35.72616453,"lon":139.72047129},{"name":"大塚駅南口第一","province":"東京都","city":"豊島区","address":"東京都豊島区南大塚2丁目45-8","lat":35.73063926,"lon":139.72955089},{"name":"池袋駅東口","province":"東京都","city":"豊島区","address":"東京都豊島区南池袋1丁目27-5","lat":35.72946951,"lon":139.71262182},{"name":"東池袋一丁目","province":"東京都","city":"豊島区","address":"東京都豊島区東池袋1丁目39-4","lat":35.73234701,"lon":139.71426878},{"name":"池袋駅東口交番前","province":"東京都","city":"豊島区","address":"東京都豊島区東池袋1丁目41-6","lat":35.73162483,"lon":139.7127995},{"name":"サンシャイン６０通り","province":"東京都","city":"豊島区","address":"東京都豊島区東池袋1丁目29-1","lat":35.73047505,"lon":139.71645756},{"name":"池袋東口五差路","province":"東京都","city":"豊島区","address":"東京都豊島区東池袋1丁目2-1","lat":35.72966396,"lon":139.71386893},{"name":"立教大学正門前","province":"東京都","city":"豊島区","address":"東京都豊島区西池袋5丁目10-5","lat":35.73116631,"lon":139.70395027},{"name":"東池袋","province":"東京都","city":"豊島区","address":"東京都豊島区東池袋4丁目7-2","lat":35.72708936,"lon":139.71775203},{"name":"上池袋二丁目","province":"東京都","city":"豊島区","address":"東京都豊島区上池袋1丁目10-11","lat":35.7360245,"lon":139.71970984},{"name":"池袋西口五差路","province":"東京都","city":"豊島区","address":"東京都豊島区西池袋1丁目18-6","lat":35.73146086,"lon":139.70881372},{"name":"池袋警察署前","province":"東京都","city":"豊島区","address":"東京都豊島区西池袋1丁目7-5","lat":35.72853614,"lon":139.70716399},{"name":"ビックリガード入口","province":"東京都","city":"豊島区","address":"東京都豊島区西池袋2丁目41-8","lat":35.72738353,"lon":139.70875557},