{"keyword":"収蔵","data":[{"name":"区立西池袋公園","province":"東京都","city":"豊島区","address":"東京都豊島区西池袋3-20-1","lat":35.7291806,"lon":139.7064044},{"name":"都立文京高等学校","province":"東京都","city":"豊島区","address":"東京都豊島区西巣鴨1-1-5","lat":35.7358562,"lon":139.728987},{"name":"東京都立大塚病院","province":"東京都","city":"豊島区","address":"東京都豊島区南大塚2丁目8-1","lat":35.72526774,"lon":139.73230087},{"name":"区立西池袋公園","province":"東京都","city":"豊島区","address":"東京都豊島区西池袋3丁目20-1","lat":35.73053587,"lon":139.70552793},{"name":"都立文京高等学校","province":"東京都","city":"豊島区","address":"東京都豊島区西巣鴨1丁目1-5","lat":35.7358553,"lon":139.72898683},{"name":"都立大塚病院","province":"東京都","city":"豊島区","address":"東京都豊島区南大塚2丁目8-1","lat":35.72526774,"lon":139.73230087},{"name":"豊島区立総合体育場一帯","province":"東京都","city":"豊島区","address":"東京都豊島区東池袋4丁目","lat":35.72638951,"lon":139.72040461},{"name":"学習院大学グラウンド","province":"東京都","city":"豊島区","address":"東京都豊島区目白","lat":35.7210371,"lon":139.71148892},{"name":"区立西池袋公園","province":"東京都","city":"豊島区","address":"東京都豊島区西池袋3-20-1","lat":35.7291806,"lon":139.7064044},{"name":"都立文京高等学校","province":"東京都","city":"豊島区","address":"東京都豊島区西巣鴨1-1-5","lat":35.7358562,"lon":139.728987},{"name":"東京都立大塚病院","province":"東京都","city":"豊島区","address":"東京都豊島区南大塚2丁目8-1","lat":35.72526774,"lon":139.73230087},{"name":"区立西池袋公園","province":"東京都","city":"豊島区","address":"東京都豊島区西池袋3丁目20-1","lat":35.73053587,"lon":139.70552793},{"name":"都立文京高等学校","province":"東京都","city":"豊島区","address":"東京都豊島区西巣鴨1丁目1-5","lat":35.7358553,"lon":139.72898683},{"name":"都立大塚病院","province":"東京都","city":"豊島区","address":"東京都豊島区南大塚2丁目8-1","lat":35.72526774,"lon":139.73230087},{"name":"豊島区立総合体育場一帯","province":"東京都","city":"豊島区","address":"東京都豊島区東池袋4丁目","lat":35.72638951,"lon":139.72040461},{"name":"学習院大学グラウンド","province":"東京都","city":"豊島区","address":"東京都豊島区目白","lat":35.7210371,"lon":139.71148892},{"name":"区立西池袋公園","province":"東京都","city":"豊島区","address":"東京都豊島区西池袋3-20-1","lat":35.7291806,"lon":139.7064044},{"name":"都立文京高等学校","province":"東京都","city":"豊島区","address":"東京都豊島区西巣鴨1-1-5","lat":35.7358562,"lon":139.728987},{"name":"東京都立大塚病院","province":"東京都","city":"豊島区","address":"東京都豊島区南大塚2丁目8-1","lat":35.72526774,"lon":139.73230087},{"name":"区立西池袋公園","province":"東京都","city":"豊島区","address":"東京都豊島区西池袋3丁目20-1","lat":35.73053587,"lon":139.70552793},{"name":"都立文京高等学校","province":"東京都","city":"豊島区","address":"東京都豊島区西巣鴨1丁目1-5","lat":35.7358553,"lon":139.72898683},{"name":"都立大塚病院","province":"東京都","city":"豊島区","address":"東京都豊島区南大塚2丁目8-1","lat":35.72526774,"lon":139.73230087},{"name":"豊島区立総合体育場一帯","province":"東京都","city":"豊島区","address":"東京都豊島区東池袋4丁目","lat":35.72638951,"lon":139.72040461},{"name":"学習院大学グラウンド","province":"東京都","city":"豊島区","address":"東京都豊島区目白","lat":35.7210371,"lon":139.71148892},{"name":"区立西池袋公園","province":"東京都","city":"豊島区","address":"東京都豊島区西池袋3-20-1","lat":35.7291806,"lon":139.7064044},{"name":"都立文京高等学校","province":"東京都","city":"豊島区","address":"東京都豊島区西巣鴨1-1-5","lat":35.7358562,"lon":139.728987},{"name":"東京都立大塚病院","province":"東京都","city":"豊島区","address":"東京都豊島区南大塚2丁目8-1","lat":35.72526774,"lon":139.73230087},{"name":"都立大塚病院","province":"東京都","city":"豊島区","address":"東京都豊島区南大塚2丁目8-1","lat":35.72526774,"lon":139.73230087},{"name":"豊島区立総合体育場一帯","province":"東京都","city":"豊島区","address":"東京都豊島区東池袋4丁目","lat":35.72638951,"lon":139.72040461},{"name":"学習院大学グラウンド","province":"東京都","city":"豊島区","address":"東京都豊島区目白","lat":35.7210371,"lon":139.71148892},{"name":"区立西池袋公園","province":"東京都","city":"豊島区","address":"東京都豊島区西池袋3-20-1","lat":35.7291806,"lon":139.7064044},{"name":"都立文京高等学校","province":"東京都","city":"豊島区","address":"東京都豊島区西巣鴨1-1-5","lat":35.7358562,"lon":139.728987},{"name":"東京都立大塚病院","province":"東京都","city":"豊島区","address":"東京都豊島区南大塚2丁目8-1","lat":35.72526774,"lon":139.73230087},{"name":"都立大塚病院","province":"東京都","city":"豊島区","address":"東京都豊島区南大塚2丁目8-1","lat":35.72526774,"lon":139.73230087},{"name":"区立西池袋公園","province":"東京都","city":"豊島区","address":"東京都豊島区西池袋3-20-1","lat":35.7291806,"lon":139.7064044},{"name":"都立文京高等学校","province":"東京都","city":"豊島区","address":"東京都豊島区西巣鴨1-1-5","lat":35.7358562,"lon":139.728987},{"name":"東京都立大塚病院","province":"東京都","city":"豊島区","address":"東京都豊島区南大塚2丁目8-1","lat":35.72526774,"lon":139.73230087},{"name":"都立大塚病院","province":"東京都","city":"豊島区","address":"東京都豊島区南大塚2丁目8-1","lat":35.72526774,"lon":139.73230087},{"name":"区立西池袋公園","province":"東京都","city":"豊島区","address":"東京都豊島区西池袋3-20-1","lat":35.7291806,"lon":139.7064044},{"name":"都立文京高等学校","province":"東京都","city":"豊島区","address":"東京都豊島区西巣鴨1-1-5","lat":35.7358562,"lon":139.728987},{"name":"東京都立大塚病院","province":"東京都","city":"豊島区","address":"東京都豊島区南大塚2丁目8-1","lat":35.72526774,"lon":139.73230087},{"name":"都立大塚病院","province":"東京都","city":"豊島区","address":"東京都豊島区南大塚2丁目8-1","lat":35.72526774,"lon":139.73230087},{"name":"区立西池袋公園","province":"東京都","city":"豊島区","address":"東京都豊島区西池袋3-20-1","lat":35.7291806,"lon":139.7064044},{"name":"都立文京高等学校","province":"東京都","city":"豊島区","address":"東京都豊島区西巣鴨1-1-5","lat":35.7358562,"lon":139.728987},{"name":"東京都立大塚病院","province":"東京都","city":"豊島区","address":"東京都豊島区南大塚2丁目8-1","lat":35.72526774,"lon":139.73230087},{"name":"都立大塚病院","province":"東京都","city":"豊島区","address":"東京都豊島区南大塚2丁目8-1","lat":35.72526774,"lon":139.73230087},{"name":"区立西池袋公園","province":"東京都","city":"豊島区","address":"東京都豊島区西池袋3-20-1","lat":35.7291806,"lon":139.7064044},{"name":"都立文京高等学校","province":"東京都","city":"豊島区","address":"東京都豊島区西巣鴨1-1-5","lat":35.7358562,"lon":139.728987},{"name":"東京都立大塚病院","province":"東京都","city":"豊島区","address":"東京都豊島区南大塚2丁目8-1","lat":35.72526774,"lon":139.73230087},{"name":"都立大塚病院","province":"東京都","city":"豊島区","address":"東京都豊島区南大塚2丁目8-1","lat":35.72526774,"lon":139.73230087},{"name":"区立西池袋公園","province":"東京都","city":"豊島区","address":"東京都豊島区西池袋3-20-1","lat":35.7291806,"lon":139.7064044},{"name":"都立文京高等学校","province":"東京都","city":"豊島区","address":"東京都豊島区西巣鴨1-1-5","lat":35.7358562,"lon":139.728987},{"name":"東京都立大塚病院","province":"東京都","city":"豊島区","address":"東京都豊島区南大塚2丁目8-1","lat":35.72526774,"lon":139.73230087},{"name":"都立大塚病院","province":"東京都","city":"豊島区","address":"東京都豊島区南大塚2丁目8-1","lat":35.72526774,"lon":139.73230087},{"name":"区立西池袋公園","province":"東京都","city":"豊島区","address":"東京都豊島区西池袋3-20-1","lat":35.7291806,"lon":139.7064044},{"name":"都立文京高等学校","province":"東京都","city":"豊島区","address":"東京都豊島区西巣鴨1-1-5","lat":35.7358562,"lon":139.728987},{"name":"区立西池袋公園","province":"東京都","city":"豊島区","address":"東京都豊島区西池袋3-20-1","lat":35.7291806,"lon":139.7064044},{"name":"都立文京高等学校","province":"東京都","city":"豊島区","address":"東京都豊島区西巣鴨1-1-5","lat":35.7358562,"lon":139.728987},{"name":"区立西池袋公園","province":"東京都","city":"豊島区","address":"東京都豊島区西池袋3-20-1","lat":35.7291806,"lon":139.7064044},{"name":"都立文京高等学校","province":"東京都","city":"豊島区","address":"東京都豊島区西巣鴨1-1-5","lat":35.7358562,"lon":139.728987},{"name":"区立西池袋公園","province":"東京都","city":"豊島区","address":"東京都豊島区西池袋3-20-1","lat":35.7291806,"lon":139.7064044},{"name":"都立文京高等学校","province":"東京都","city":"豊島区","address":"東京都豊島区西巣鴨1-1-5","lat":35.7358562,"lon":139.728987},{"name":"区立西池袋公園","province":"東京都","city":"豊島区","address":"東京都豊島区西池袋3-20-1","lat":35.7291806,"lon":139.7064044},{"name":"都立文京高等学校","province":"東京都","city":"豊島区","address":"東京都豊島区西巣鴨1-1-5","lat":35.7358562,"lon":139.728987},{"name":"区立西池袋公園","province":"東京都","city":"豊島区","address":"東京都豊島区西池袋3-20-1","lat":35.7291806,"lon":139.7064044},{"name":"都立文京高等学校","province":"東京都","city":"豊島区","address":"東京都豊島区西巣鴨1-1-5","lat":35.7358562,"lon":139.728987},{"name":"区立西池袋公園","province":"東京都","city":"豊島区","address":"東京都豊島区西池袋3-20-1","lat":35.7291806,"lon":139.7064044},{"name":"都立文京高等学校","province":"東京都","city":"豊島区","address":"東京都豊島区西巣鴨1-1-5","lat":35.7358562,"lon":139.728987},{"name":"区立西池袋公園","province":"東京都","city":"豊島区","address":"東京都豊島区西池袋3-20-1","lat":35.7291806,"lon":139.7064044},{"name":"都立文京高等学校","province":"東京都","city":"豊島区","address":"東京都豊島区西巣鴨1-1-5","lat":35.7358562,"lon":139.728987},{"name":"区立西池袋公園","province":"東京都","city":"豊島区","address":"東京都豊島区西池袋3-20-1","lat":35.7291806,"lon":139.7064044},{"name":"都立文京高等学校","province":"東京都","city":"豊島区","address":"東京都豊島区西巣鴨1-1-5","lat":35.7358562,"lon":139.728987},{"name":"区立西池袋公園","province":"東京都","city":"豊島区","address":"東京都豊島区西池袋3-20-1","lat":35.7291806,"lon":139.7064044},{"name":"都立文京高等学校","province":"東京都","city":"豊島区","address":"東京都豊島区西巣鴨1-1-5","lat":35.7358562,"lon":139.728987},{"name":"区立西池袋公園","province":"東京都","city":"豊島区","address":"東京都豊島区西池袋3-20-1","lat":35.7291806,"lon":139.7064044},{"name":"都立文京高等学校","province":"東京都","city":"豊島区","address":"東京都豊島区西巣鴨1-1-5","lat":35.7358562,"lon":139.728987},{"name":"区立西池袋公園","province":"東京都","city":"豊島区","address":"東京都豊島区西池袋3-20-1","lat":35.7291806,"lon":139.7064044},{"name":"都立文京高等学校","province":"東京都","city":"豊島区","address":"東京都豊島区西巣鴨1-1-5","lat":35.7358562,"lon":139.728987},{"name":"区立西池袋公園","province":"東京都","city":"豊島区","address":"東京都豊島区西池袋3-20-1","lat":35.7291806,"lon":139.7064044},{"name":"都立文京高等学校","province":"東京都","city":"豊島区","address":"東京都豊島区西巣鴨1-1-5","lat":35.7358562,"lon":139.728987},{"name":"区立西池袋公園","province":"東京都","city":"豊島区","address":"東京都豊島区西池袋3-20-1","lat":35.7291806,"lon":139.7064044},{"name":"都立文京高等学校","province":"東京都","city":"豊島区","address":"東京都豊島区西巣鴨1-1-5","lat":35.7358562,"lon":139.728987},{"name":"区立西池袋公園","province":"東京都","city":"豊島区","address":"東京都豊島区西池袋3-20-1","lat":35.7291806,"lon":139.7064044},{"name":"都立文京高等学校","province":"東京都","city":"豊島区","address":"東京都豊島区西巣鴨1-1-5","lat":35.7358562,"lon":139.728987},{"name":"区立西池袋公園","province":"東京都","city":"豊島区","address":"東京都豊島区西池袋3-20-1","lat":35.7291806,"lon":139.7064044},{"name":"都立文京高等学校","province":"東京都","city":"豊島区","address":"東京都豊島区西巣鴨1-1-5","lat":35.7358562,"lon":139.728987},{"name":"区立西池袋公園","province":"東京都","city":"豊島区","address":"東京都豊島区西池袋3-20-1","lat":35.7291806,"lon":139.7064044},{"name":"都立文京高等学校","province":"東京都","city":"豊島区","address":"東京都豊島区西巣鴨1-1-5","lat":35.7358562,"lon":139.728987},{"name":"区立西池袋公園","province":"東京都","city":"豊島区","address":"東京都豊島区西池袋3-20-1","lat":35.7291806,"lon":139.7064044},{"name":"都立文京高等学校","province":"東京都","city":"豊島区","address":"東京都豊島区西巣鴨1-1-5","lat":35.7358562,"lon":139.728987},{"name":"区立西池袋公園","province":"東京都","city":"豊島区","address":"東京都豊島区西池袋3-20-1","lat":35.7291806,"lon":139.7064044},{"name":"都立文京高等学校","province":"東京都","city":"豊島区","address":"東京都豊島区西巣鴨1-1-5","lat":35.7358562,"lon":139.728987},{"name":"区立西池袋公園","province":"東京都","city":"豊島区","address":"東京都豊島区西池袋3-20-1","lat":35.7291806,"lon":139.7064044},{"name":"都立文京高等学校","province":"東京都","city":"豊島区","address":"東京都豊島区西巣鴨1-1-5","lat":35.7358562,"lon":139.728987},{"name":"区立西池袋公園","province":"東京都","city":"豊島区","address":"東京都豊島区西池袋3-20-1","lat":35.7291806,"lon":139.7064044},{"name":"都立文京高等学校","province":"東京都","city":"豊島区","address":"東京都豊島区西巣鴨1-1-5","lat":35.7358562,"lon":139.728987},{"name":"区立西池袋公園","province":"東京都","city":"豊島区","address":"東京都豊島区西池袋3-20-1","lat":35.7291806,"lon":139.7064044},{"name":"都立文京高等学校","province":"東京都","city":"豊島区","address":"東京都豊島区西巣鴨1-1-5","lat":35.7358562,"lon":139.728987},{"name":"区立西池袋公園","province":"東京都","city":"豊島区","address":"東京都豊島区西池袋3-20-1","lat":35.7291806,"lon":139.7064044},{"name":"都立文京高等学校","province":"東京都","city":"豊島区","address":"東京都豊島区西巣鴨1-1-5","lat":35.7358562,"lon":139.728987},{"name":"区立西池袋公園","province":"東京都","city":"豊島区","address":"東京都豊島区西池袋3-20-1","lat":35.7291806,"lon":139.7064044},{"name":"都立文京高等学校","province":"東京都","city":"豊島区","address":"東京都豊島区西巣鴨1-1-5","lat":35.7358562,"lon":139.728987},{"name":"区立西池袋公園","province":"東京都","city":"豊島区","address":"東京都豊島区西池袋3-20-1","lat":35.7291806,"lon":139.7064044},{"name":"都立文京高等学校","province":"東京都","city":"豊島区","address":"東京都豊島区西巣鴨1-1-5","lat":35.7358562,"lon":139.728987},{"name":"区立西池袋公園","province":"東京都","city":"豊島区","address":"東京都豊島区西池袋3-20-1","lat":35.7291806,"lon":139.7064044},{"name":"都立文京高等学校","province":"東京都","city":"豊島区","address":"東京都豊島区西巣鴨1-1-5","lat":35.7358562,"lon":139.728987},{"name":"区立西池袋公園","province":"東京都","city":"豊島区","address":"東京都豊島区西池袋3-20-1","lat":35.7291806,"lon":139.7064044},{"name":"都立文京高等学校","province":"東京都","city":"豊島区","address":"東京都豊島区西巣鴨1-1-5","lat":35.7358562,"lon":139.728987},{"name":"区立西池袋公園","province":"東京都","city":"豊島区","address":"東京都豊島区西池袋3-20-1","lat":35.7291806,"lon":139.7064044},{"name":"都立文京高等学校","province":"東京都","city":"豊島区","address":"東京都豊島区西巣鴨1-1-5","lat":35.7358562,"lon":139.728987},{"name":"区立西池袋公園","province":"東京都","city":"豊島区","address":"東京都豊島区西池袋3-20-1","lat":35.7291806,"lon":139.7064044},{"name":"都立文京高等学校","province":"東京都","city":"豊島区","address":"東京都豊島区西巣鴨1-1-5","lat":35.7358562,"lon":139.728987},{"name":"区立西池袋公園","province":"東京都","city":"豊島区","address":"東京都豊島区西池袋3-20-1","lat":35.7291806,"lon":139.7064044},{"name":"都立文京高等学校","province":"東京都","city":"豊島区","address":"東京都豊島区西巣鴨1-1-5","lat":35.7358562,"lon":139.728987},{"name":"区立西池袋公園","province":"東京都","city":"豊島区","address":"東京都豊島区西池袋3-20-1","lat":35.7291806,"lon":139.7064044},{"name":"都立文京高等学校","province":"東京都","city":"豊島区","address":"東京都豊島区西巣鴨1-1-5","lat":35.7358562,"lon":139.728987},{"name":"区立西池袋公園","province":"東京都","city":"豊島区","address":"東京都豊島区西池袋3-20-1","lat":35.7291806,"lon":139.7064044},{"name":"都立文京高等学校","province":"東京都","city":"豊島区","address":"東京都豊島区西巣鴨1-1-5","lat":35.7358562,"lon":139.728987},{"name":"区立西池袋公園","province":"東京都","city":"豊島区","address":"東京都豊島区西池袋3-20-1","lat":35.7291806,"lon":139.7064044},{"name":"都立文京高等学校","province":"東京都","city":"豊島区","address":"東京都豊島区西巣鴨1-1-5","lat":35.7358562,"lon":139.728987},{"name":"区立西池袋公園","province":"東京都","city":"豊島区","address":"東京都豊島区西池袋3-20-1","lat":35.7291806,"lon":139.7064044},{"name":"都立文京高等学校","province":"東京都","city":"豊島区","address":"東京都豊島区西巣鴨1-1-5","lat":35.7358562,"lon":139.728987},{"name":"区立西池袋公園","province":"東京都","city":"豊島区","address":"東京都豊島区西池袋3-20-1","lat":35.7291806,"lon":139.7064044},{"name":"都立文京高等学校","province":"東京都","city":"豊島区","address":"東京都豊島区西巣鴨1-1-5","lat":35.7358562,"lon":139.728987}]}