{"keyword":"宿泊","data":[{"name":"ちとせ橋寮","province":"東京都","city":"豊島区","address":"豊島区雑司ヶ谷3-8-16","lat":35.721184,"lon":139.712905},{"name":"ハピーテラス","province":"東京都","city":"豊島区","address":"東京都豊島区","lat":35.72611722,"lon":139.71660773},{"name":"やまて寮","province":"東京都","city":"豊島区","address":"豊島区南池袋4-18-9","lat":35.724704,"lon":139.720416},{"name":"雑司ヶ谷荘","province":"東京都","city":"豊島区","address":"豊島区雑司が谷3-1-3","lat":35.719162,"lon":139.713694},{"name":"長崎荘","province":"東京都","city":"豊島区","address":"豊島区長崎4-35-1","lat":35.731274,"lon":139.685057},{"name":"東池袋荘","province":"東京都","city":"豊島区","address":"豊島区東池袋2-37-11","lat":35.732525,"lon":139.721815},{"name":"さくら千早ハウス","province":"東京都","city":"豊島区","address":"豊島区千早3-31-8","lat":35.734657,"lon":139.688126},{"name":"東池袋荘","province":"東京都","city":"豊島区","address":"豊島区東池袋2-37-11","lat":35.73227,"lon":139.72192},{"name":"やまて寮","province":"東京都","city":"豊島区","address":"豊島区南池袋4-18-9","lat":35.72435,"lon":139.72029},{"name":"ちとせ橋寮","province":"東京都","city":"豊島区","address":"豊島区雑司ヶ谷3-8-16","lat":35.72149,"lon":139.71306},{"name":"雑司ヶ谷荘","province":"東京都","city":"豊島区","address":"豊島区雑司が谷3-1-3","lat":35.7195,"lon":139.71396},{"name":"さくら千早ハウス","province":"東京都","city":"豊島区","address":"豊島区千早3-31-8","lat":35.7344,"lon":139.68825},{"name":"長崎荘","province":"東京都","city":"豊島区","address":"豊島区長崎4-35-1","lat":35.73136,"lon":139.68503}]}