{"keyword":"店","data":[{"name":"大塚病院","province":"東京都","city":"豊島区","address":"東京都豊島区南大塚2丁目8-1","lat":35.72526774,"lon":139.73230087},{"name":"東京都立大塚病院","province":"東京都","city":"豊島区","address":"豊島区南大塚2-8-1","lat":35.725268,"lon":139.732301},{"name":"豊島区立中央図書館（ひかり文庫）","province":"東京都","city":"豊島区","address":"豊島区東池袋4-5-2ライズアリーナビル5階","lat":35.726948,"lon":139.718902},{"name":"ちとせ橋寮","province":"東京都","city":"豊島区","address":"豊島区雑司ヶ谷3-8-16","lat":35.721184,"lon":139.712905},{"name":"ハピーテラス","province":"東京都","city":"豊島区","address":"東京都豊島区","lat":35.72611722,"lon":139.71660773},{"name":"やまて寮","province":"東京都","city":"豊島区","address":"豊島区南池袋4-18-9","lat":35.724704,"lon":139.720416},{"name":"雑司ヶ谷荘","province":"東京都","city":"豊島区","address":"豊島区雑司が谷3-1-3","lat":35.719162,"lon":139.713694},{"name":"長崎荘","province":"東京都","city":"豊島区","address":"豊島区長崎4-35-1","lat":35.731274,"lon":139.685057},{"name":"東池袋荘","province":"東京都","city":"豊島区","address":"豊島区東池袋2-37-11","lat":35.732525,"lon":139.721815},{"name":"さくら千早ハウス","province":"東京都","city":"豊島区","address":"豊島区千早3-31-8","lat":35.734657,"lon":139.688126},{"name":"豊島区社会福祉協議会","province":"東京都","city":"豊島区","address":"豊島区東池袋1-39-2東池袋分庁舎","lat":35.732564,"lon":139.714344},{"name":"東池袋荘","province":"東京都","city":"豊島区","address":"豊島区東池袋2-37-11","lat":35.73227,"lon":139.72192},{"name":"やまて寮","province":"東京都","city":"豊島区","address":"豊島区南池袋4-18-9","lat":35.72435,"lon":139.72029},{"name":"ちとせ橋寮","province":"東京都","city":"豊島区","address":"豊島区雑司ヶ谷3-8-16","lat":35.72149,"lon":139.71306},{"name":"雑司ヶ谷荘","province":"東京都","city":"豊島区","address":"豊島区雑司が谷3-1-3","lat":35.7195,"lon":139.71396},{"name":"さくら千早ハウス","province":"東京都","city":"豊島区","address":"豊島区千早3-31-8","lat":35.7344,"lon":139.68825},{"name":"長崎荘","province":"東京都","city":"豊島区","address":"豊島区長崎4-35-1","lat":35.73136,"lon":139.68503},{"name":"(有)吾妻屋","province":"東京都","city":"豊島区","address":"東京都豊島区要町2丁目21-5","lat":35.73593768,"lon":139.69284545},{"name":"(有)岡田葬儀社本店","province":"東京都","city":"豊島区","address":"東京都豊島区南大塚2丁目26-10","lat":35.72751463,"lon":139.72972878},{"name":"松阪屋","province":"東京都","city":"豊島区","address":"東京都豊島区千早1丁目15-14","lat":35.73076896,"lon":139.69780636},{"name":"(株)後藤本店葬祭","province":"東京都","city":"豊島区","address":"東京都豊島区長崎2丁目6-23","lat":35.72832457,"lon":139.69055987},{"name":"(株)相馬屋","province":"東京都","city":"豊島区","address":"東京都豊島区池袋4丁目18-5","lat":35.73913221,"lon":139.70821901},{"name":"(株)後藤葬儀社","province":"東京都","city":"豊島区","address":"東京都豊島区池袋本町2丁目25-7","lat":35.74234854,"lon":139.70965486},{"name":"(有)今井葬儀社","province":"東京都","city":"豊島区","address":"東京都豊島区長崎4丁目16-11","lat":35.7296743,"lon":139.68628795},{"name":"東京都立大塚病院","province":"東京都","city":"豊島区","address":"豊島区南大塚2-8-1","lat":35.72527,"lon":139.73215},{"name":"啓成会義肢研究製作所","province":"東京都","city":"豊島区","address":"豊島区北大塚1-13-8","lat":35.73182,"lon":139.7318},{"name":"豊島区立中央図書館（ひかり文庫）","province":"東京都","city":"豊島区","address":"豊島区東池袋4-5-2ライズアリーナビル5階","lat":35.7267,"lon":139.71896},{"name":"ふるさと上池ハウス","province":"東京都","city":"豊島区","address":"豊島区上池袋1-18-27","lat":35.73488,"lon":139.72195},{"name":"やまて寮　　※現在、休止中","province":"東京都","city":"豊島区","address":"豊島区南池袋4-18-9","lat":35.72435,"lon":139.72029},{"name":"豊島区民社会福祉協議会","province":"東京都","city":"豊島区","address":"豊島区東池袋1-39-2区役所東池袋分庁舎3、4階","lat":35.73244,"lon":139.71432},{"name":"豊島区保健福祉部障害福祉課豊島区立心身障害者福祉センター","province":"東京都","city":"豊島区","address":"東京都豊島区目白5丁目18-8","lat":35.7240752,"lon":139.69585404},{"name":"医療法人社団明善会新大塚榎本クリニック","province":"東京都","city":"豊島区","address":"東京都豊島区南大塚3丁目11-9","lat":35.72828397,"lon":139.72900103},{"name":"医療法人社団明善会榎本クリニック","province":"東京都","city":"豊島区","address":"東京都豊島区西池袋1丁目2-5","lat":35.72775294,"lon":139.70910552},{"name":"LITALICOワークス大塚","province":"東京都","city":"豊島区","address":"東京都豊島区東池袋2丁目13-14","lat":35.73106133,"lon":139.72522902},{"name":"さら就労塾＠ぽれぽれ/池袋","province":"東京都","city":"豊島区","address":"東京都豊島区南池袋2丁目30-7","lat":35.72726985,"lon":139.71602717},{"name":"地域活動支援センターサンハウス","province":"東京都","city":"豊島区","address":"東京都豊島区千川2丁目37-6","lat":35.74264246,"lon":139.69179524},{"name":"株式会社ティラＬｉｎｋキャリアサポートセンター","province":"東京都","city":"豊島区","address":"東京都豊島区東池袋1丁目25-17","lat":35.7280781,"lon":139.7162299},{"name":"社会福祉法人豊芯会地域生活支援センターこかげ","province":"東京都","city":"豊島区","address":"東京都豊島区東池袋4丁目5-1","lat":35.72659779,"lon":139.71902694},{"name":"脳卒中・身体障害専門就労支援センター「リハス」大塚","province":"東京都","city":"豊島区","address":"東京都豊島区北大塚2丁目8-11","lat":35.73338887,"lon":139.72691211},{"name":"リハスワークとしま","province":"東京都","city":"豊島区","address":"東京都豊島区北大塚2丁目8-11","lat":35.73338887,"lon":139.72691211},{"name":"やまて寮　※現在、休止中","province":"東京都","city":"豊島区","address":"豊島区南池袋4-18-9","lat":35.72435,"lon":139.72029},{"name":"啓成会義肢研究製作所","province":"東京都","city":"豊島区","address":"豊島区北大塚1-13-8","lat":35.73186,"lon":139.731352},{"name":"豊島区民社会福祉協議会","province":"東京都","city":"豊島区","address":"豊島区東池袋1-39-2東池袋分庁舎3、4階","lat":35.732564,"lon":139.714344},{"name":"やまて寮※現在、休止中","province":"東京都","city":"豊島区","address":"豊島区南池袋4-18-9","lat":35.72435,"lon":139.72029},{"name":"豊島区民社会福祉協議会","province":"東京都","city":"豊島区","address":"豊島区東池袋1-39-2区役所東池袋分庁舎3、4階","lat":35.73244,"lon":139.71433},{"name":"ふるさと上池ハウス","province":"東京都","city":"豊島区","address":"豊島区上池袋1-18-27","lat":35.734451,"lon":139.721751},{"name":"大塚病院","province":"東京都","city":"豊島区","address":"東京都豊島区南大塚2丁目8-1","lat":35.72526774,"lon":139.73230087},{"name":"東京都立大塚病院","province":"東京都","city":"豊島区","address":"豊島区南大塚2-8-1","lat":35.725268,"lon":139.732301},{"name":"豊島区立中央図書館（ひかり文庫）","province":"東京都","city":"豊島区","address":"豊島区東池袋4-5-2ライズアリーナビル5階","lat":35.726948,"lon":139.718902},{"name":"ちとせ橋寮","province":"東京都","city":"豊島区","address":"豊島区雑司ヶ谷3-8-16","lat":35.721184,"lon":139.712905},{"name":"ハピーテラス","province":"東京都","city":"豊島区","address":"東京都豊島区","lat":35.72611722,"lon":139.71660773},{"name":"やまて寮","province":"東京都","city":"豊島区","address":"豊島区南池袋4-18-9","lat":35.724704,"lon":139.720416},{"name":"雑司ヶ谷荘","province":"東京都","city":"豊島区","address":"豊島区雑司が谷3-1-3","lat":35.719162,"lon":139.713694},{"name":"長崎荘","province":"東京都","city":"豊島区","address":"豊島区長崎4-35-1","lat":35.731274,"lon":139.685057},{"name":"東池袋荘","province":"東京都","city":"豊島区","address":"豊島区東池袋2-37-11","lat":35.732525,"lon":139.721815},{"name":"さくら千早ハウス","province":"東京都","city":"豊島区","address":"豊島区千早3-31-8","lat":35.734657,"lon":139.688126},{"name":"豊島区社会福祉協議会","province":"東京都","city":"豊島区","address":"豊島区東池袋1-39-2東池袋分庁舎","lat":35.732564,"lon":139.714344},{"name":"東池袋荘","province":"東京都","city":"豊島区","address":"豊島区東池袋2-37-11","lat":35.73227,"lon":139.72192},{"name":"やまて寮","province":"東京都","city":"豊島区","address":"豊島区南池袋4-18-9","lat":35.72435,"lon":139.72029},{"name":"ちとせ橋寮","province":"東京都","city":"豊島区","address":"豊島区雑司ヶ谷3-8-16","lat":35.72149,"lon":139.71306},{"name":"雑司ヶ谷荘","province":"東京都","city":"豊島区","address":"豊島区雑司が谷3-1-3","lat":35.7195,"lon":139.71396},{"name":"さくら千早ハウス","province":"東京都","city":"豊島区","address":"豊島区千早3-31-8","lat":35.7344,"lon":139.68825},{"name":"長崎荘","province":"東京都","city":"豊島区","address":"豊島区長崎4-35-1","lat":35.73136,"lon":139.68503},{"name":"(有)吾妻屋","province":"東京都","city":"豊島区","address":"東京都豊島区要町2丁目21-5","lat":35.73593768,"lon":139.69284545},{"name":"(有)岡田葬儀社本店","province":"東京都","city":"豊島区","address":"東京都豊島区南大塚2丁目26-10","lat":35.72751463,"lon":139.72972878},{"name":"松阪屋","province":"東京都","city":"豊島区","address":"東京都豊島区千早1丁目15-14","lat":35.73076896,"lon":139.69780636},{"name":"(株)後藤本店葬祭","province":"東京都","city":"豊島区","address":"東京都豊島区長崎2丁目6-23","lat":35.72832457,"lon":139.69055987},{"name":"(株)相馬屋","province":"東京都","city":"豊島区","address":"東京都豊島区池袋4丁目18-5","lat":35.73913221,"lon":139.70821901},{"name":"(株)後藤葬儀社","province":"東京都","city":"豊島区","address":"東京都豊島区池袋本町2丁目25-7","lat":35.74234854,"lon":139.70965486},{"name":"(有)今井葬儀社","province":"東京都","city":"豊島区","address":"東京都豊島区長崎4丁目16-11","lat":35.7296743,"lon":139.68628795},{"name":"東京都立大塚病院","province":"東京都","city":"豊島区","address":"豊島区南大塚2-8-1","lat":35.72527,"lon":139.73215},{"name":"啓成会義肢研究製作所","province":"東京都","city":"豊島区","address":"豊島区北大塚1-13-8","lat":35.73182,"lon":139.7318},{"name":"豊島区立中央図書館（ひかり文庫）","province":"東京都","city":"豊島区","address":"豊島区東池袋4-5-2ライズアリーナビル5階","lat":35.7267,"lon":139.71896},{"name":"ふるさと上池ハウス","province":"東京都","city":"豊島区","address":"豊島区上池袋1-18-27","lat":35.73488,"lon":139.72195},{"name":"やまて寮　　※現在、休止中","province":"東京都","city":"豊島区","address":"豊島区南池袋4-18-9","lat":35.72435,"lon":139.72029},{"name":"豊島区民社会福祉協議会","province":"東京都","city":"豊島区","address":"豊島区東池袋1-39-2区役所東池袋分庁舎3、4階","lat":35.73244,"lon":139.71432},{"name":"豊島区保健福祉部障害福祉課豊島区立心身障害者福祉センター","province":"東京都","city":"豊島区","address":"東京都豊島区目白5丁目18-8","lat":35.7240752,"lon":139.69585404},{"name":"医療法人社団明善会新大塚榎本クリニック","province":"東京都","city":"豊島区","address":"東京都豊島区南大塚3丁目11-9","lat":35.72828397,"lon":139.72900103},{"name":"医療法人社団明善会榎本クリニック","province":"東京都","city":"豊島区","address":"東京都豊島区西池袋1丁目2-5","lat":35.72775294,"lon":139.70910552},{"name":"LITALICOワークス大塚","province":"東京都","city":"豊島区","address":"東京都豊島区東池袋2丁目13-14","lat":35.73106133,"lon":139.72522902},{"name":"さら就労塾＠ぽれぽれ/池袋","province":"東京都","city":"豊島区","address":"東京都豊島区南池袋2丁目30-7","lat":35.72726985,"lon":139.71602717},{"name":"地域活動支援センターサンハウス","province":"東京都","city":"豊島区","address":"東京都豊島区千川2丁目37-6","lat":35.74264246,"lon":139.69179524},{"name":"株式会社ティラＬｉｎｋキャリアサポートセンター","province":"東京都","city":"豊島区","address":"東京都豊島区東池袋1丁目25-17","lat":35.7280781,"lon":139.7162299},{"name":"社会福祉法人豊芯会地域生活支援センターこかげ","province":"東京都","city":"豊島区","address":"東京都豊島区東池袋4丁目5-1","lat":35.72659779,"lon":139.71902694},{"name":"脳卒中・身体障害専門就労支援センター「リハス」大塚","province":"東京都","city":"豊島区","address":"東京都豊島区北大塚2丁目8-11","lat":35.73338887,"lon":139.72691211},{"name":"リハスワークとしま","province":"東京都","city":"豊島区","address":"東京都豊島区北大塚2丁目8-11","lat":35.73338887,"lon":139.72691211},{"name":"やまて寮　※現在、休止中","province":"東京都","city":"豊島区","address":"豊島区南池袋4-18-9","lat":35.72435,"lon":139.72029},{"name":"啓成会義肢研究製作所","province":"東京都","city":"豊島区","address":"豊島区北大塚1-13-8","lat":35.73186,"lon":139.731352},{"name":"豊島区民社会福祉協議会","province":"東京都","city":"豊島区","address":"豊島区東池袋1-39-2東池袋分庁舎3、4階","lat":35.732564,"lon":139.714344},{"name":"やまて寮※現在、休止中","province":"東京都","city":"豊島区","address":"豊島区南池袋4-18-9","lat":35.72435,"lon":139.72029},{"name":"豊島区民社会福祉協議会","province":"東京都","city":"豊島区","address":"豊島区東池袋1-39-2区役所東池袋分庁舎3、4階","lat":35.73244,"lon":139.71433},{"name":"ふるさと上池ハウス","province":"東京都","city":"豊島区","address":"豊島区上池袋1-18-27","lat":35.734451,"lon":139.721751},{"name":"大塚病院","province":"東京都","city":"豊島区","address":"東京都豊島区南大塚2丁目8-1","lat":35.72526774,"lon":139.73230087},{"name":"東京都立大塚病院","province":"東京都","city":"豊島区","address":"豊島区南大塚2-8-1","lat":35.725268,"lon":139.732301},{"name":"豊島区立中央図書館（ひかり文庫）","province":"東京都","city":"豊島区","address":"豊島区東池袋4-5-2ライズアリーナビル5階","lat":35.726948,"lon":139.718902},{"name":"ちとせ橋寮","province":"東京都","city":"豊島区","address":"豊島区雑司ヶ谷3-8-16","lat":35.721184,"lon":139.712905},{"name":"ハピーテラス","province":"東京都","city":"豊島区","address":"東京都豊島区","lat":35.72611722,"lon":139.71660773},{"name":"やまて寮","province":"東京都","city":"豊島区","address":"豊島区南池袋4-18-9","lat":35.724704,"lon":139.720416},{"name":"雑司ヶ谷荘","province":"東京都","city":"豊島区","address":"豊島区雑司が谷3-1-3","lat":35.719162,"lon":139.713694},{"name":"長崎荘","province":"東京都","city":"豊島区","address":"豊島区長崎4-35-1","lat":35.731274,"lon":139.685057},{"name":"東池袋荘","province":"東京都","city":"豊島区","address":"豊島区東池袋2-37-11","lat":35.732525,"lon":139.721815},{"name":"さくら千早ハウス","province":"東京都","city":"豊島区","address":"豊島区千早3-31-8","lat":35.734657,"lon":139.688126},{"name":"豊島区社会福祉協議会","province":"東京都","city":"豊島区","address":"豊島区東池袋1-39-2東池袋分庁舎","lat":35.732564,"lon":139.714344},{"name":"東池袋荘","province":"東京都","city":"豊島区","address":"豊島区東池袋2-37-11","lat":35.73227,"lon":139.72192},{"name":"やまて寮","province":"東京都","city":"豊島区","address":"豊島区南池袋4-18-9","lat":35.72435,"lon":139.72029},{"name":"ちとせ橋寮","province":"東京都","city":"豊島区","address":"豊島区雑司ヶ谷3-8-16","lat":35.72149,"lon":139.71306},{"name":"雑司ヶ谷荘","province":"東京都","city":"豊島区","address":"豊島区雑司が谷3-1-3","lat":35.7195,"lon":139.71396},{"name":"さくら千早ハウス","province":"東京都","city":"豊島区","address":"豊島区千早3-31-8","lat":35.7344,"lon":139.68825},{"name":"長崎荘","province":"東京都","city":"豊島区","address":"豊島区長崎4-35-1","lat":35.73136,"lon":139.68503},{"name":"(有)吾妻屋","province":"東京都","city":"豊島区","address":"東京都豊島区要町2丁目21-5","lat":35.73593768,"lon":139.69284545},{"name":"(有)岡田葬儀社本店","province":"東京都","city":"豊島区","address":"東京都豊島区南大塚2丁目26-10","lat":35.72751463,"lon":139.72972878},{"name":"松阪屋","province":"東京都","city":"豊島区","address":"東京都豊島区千早1丁目15-14","lat":35.73076896,"lon":139.69780636},{"name":"(株)後藤本店葬祭","province":"東京都","city":"豊島区","address":"東京都豊島区長崎2丁目6-23","lat":35.72832457,"lon":139.69055987},{"name":"(株)相馬屋","province":"東京都","city":"豊島区","address":"東京都豊島区池袋4丁目18-5","lat":35.73913221,"lon":139.70821901},{"name":"(株)後藤葬儀社","province":"東京都","city":"豊島区","address":"東京都豊島区池袋本町2丁目25-7","lat":35.74234854,"lon":139.70965486},{"name":"(有)今井葬儀社","province":"東京都","city":"豊島区","address":"東京都豊島区長崎4丁目16-11","lat":35.7296743,"lon":139.68628795},{"name":"東京都立大塚病院","province":"東京都","city":"豊島区","address":"豊島区南大塚2-8-1","lat":35.72527,"lon":139.73215},{"name":"啓成会義肢研究製作所","province":"東京都","city":"豊島区","address":"豊島区北大塚1-13-8","lat":35.73182,"lon":139.7318},{"name":"豊島区立中央図書館（ひかり文庫）","province":"東京都","city":"豊島区","address":"豊島区東池袋4-5-2ライズアリーナビル5階","lat":35.7267,"lon":139.71896},{"name":"ふるさと上池ハウス","province":"東京都","city":"豊島区","address":"豊島区上池袋1-18-27","lat":35.73488,"lon":139.72195},{"name":"やまて寮　　※現在、休止中","province":"東京都","city":"豊島区","address":"豊島区南池袋4-18-9","lat":35.72435,"lon":139.72029},{"name":"豊島区民社会福祉協議会","province":"東京都","city":"豊島区","address":"豊島区東池袋1-39-2区役所東池袋分庁舎3、4階","lat":35.73244,"lon":139.71432},{"name":"豊島区保健福祉部障害福祉課豊島区立心身障害者福祉センター","province":"東京都","city":"豊島区","address":"東京都豊島区目白5丁目18-8","lat":35.7240752,"lon":139.69585404},{"name":"医療法人社団明善会新大塚榎本クリニック","province":"東京都","city":"豊島区","address":"東京都豊島区南大塚3丁目11-9","lat":35.72828397,"lon":139.72900103},{"name":"医療法人社団明善会榎本クリニック","province":"東京都","city":"豊島区","address":"東京都豊島区西池袋1丁目2-5","lat":35.72775294,"lon":139.70910552},{"name":"LITALICOワークス大塚","province":"東京都","city":"豊島区","address":"東京都豊島区東池袋2丁目13-14","lat":35.73106133,"lon":139.72522902},{"name":"さら就労塾＠ぽれぽれ/池袋","province":"東京都","city":"豊島区","address":"東京都豊島区南池袋2丁目30-7","lat":35.72726985,"lon":139.71602717},{"name":"地域活動支援センターサンハウス","province":"東京都","city":"豊島区","address":"東京都豊島区千川2丁目37-6","lat":35.74264246,"lon":139.69179524},{"name":"株式会社ティラＬｉｎｋキャリアサポートセンター","province":"東京都","city":"豊島区","address":"東京都豊島区東池袋1丁目25-17","lat":35.7280781,"lon":139.7162299},{"name":"社会福祉法人豊芯会地域生活支援センターこかげ","province":"東京都","city":"豊島区","address":"東京都豊島区東池袋4丁目5-1","lat":35.72659779,"lon":139.71902694},{"name":"脳卒中・身体障害専門就労支援センター「リハス」大塚","province":"東京都","city":"豊島区","address":"東京都豊島区北大塚2丁目8-11","lat":35.73338887,"lon":139.72691211},{"name":"リハスワークとしま","province":"東京都","city":"豊島区","address":"東京都豊島区北大塚2丁目8-11","lat":35.73338887,"lon":139.72691211},{"name":"やまて寮　※現在、休止中","province":"東京都","city":"豊島区","address":"豊島区南池袋4-18-9","lat":35.72435,"lon":139.72029},{"name":"啓成会義肢研究製作所","province":"東京都","city":"豊島区","address":"豊島区北大塚1-13-8","lat":35.73186,"lon":139.731352},{"name":"豊島区民社会福祉協議会","province":"東京都","city":"豊島区","address":"豊島区東池袋1-39-2東池袋分庁舎3、4階","lat":35.732564,"lon":139.714344},{"name":"やまて寮※現在、休止中","province":"東京都","city":"豊島区","address":"豊島区南池袋4-18-9","lat":35.72435,"lon":139.72029},{"name":"豊島区民社会福祉協議会","province":"東京都","city":"豊島区","address":"豊島区東池袋1-39-2区役所東池袋分庁舎3、4階","lat":35.73244,"lon":139.71433},{"name":"ふるさと上池ハウス","province":"東京都","city":"豊島区","address":"豊島区上池袋1-18-27","lat":35.734451,"lon":139.721751},{"name":"大塚病院","province":"東京都","city":"豊島区","address":"東京都豊島区南大塚2丁目8-1","lat":35.72526774,"lon":139.73230087},{"name":"東京都立大塚病院","province":"東京都","city":"豊島区","address":"豊島区南大塚2-8-1","lat":35.725268,"lon":139.732301},{"name":"豊島区立中央図書館（ひかり文庫）","province":"東京都","city":"豊島区","address":"豊島区東池袋4-5-2ライズアリーナビル5階","lat":35.726948,"lon":139.718902},{"name":"ちとせ橋寮","province":"東京都","city":"豊島区","address":"豊島区雑司ヶ谷3-8-16","lat":35.721184,"lon":139.712905},{"name":"ハピーテラス","province":"東京都","city":"豊島区","address":"東京都豊島区","lat":35.72611722,"lon":139.71660773},{"name":"やまて寮","province":"東京都","city":"豊島区","address":"豊島区南池袋4-18-9","lat":35.724704,"lon":139.720416},{"name":"雑司ヶ谷荘","province":"東京都","city":"豊島区","address":"豊島区雑司が谷3-1-3","lat":35.719162,"lon":139.713694},{"name":"長崎荘","province":"東京都","city":"豊島区","address":"豊島区長崎4-35-1","lat":35.731274,"lon":139.685057},{"name":"東池袋荘","province":"東京都","city":"豊島区","address":"豊島区東池袋2-37-11","lat":35.732525,"lon":139.721815},{"name":"さくら千早ハウス","province":"東京都","city":"豊島区","address":"豊島区千早3-31-8","lat":35.734657,"lon":139.688126},{"name":"豊島区社会福祉協議会","province":"東京都","city":"豊島区","address":"豊島区東池袋1-39-2東池袋分庁舎","lat":35.732564,"lon":139.714344},{"name":"東池袋荘","province":"東京都","city":"豊島区","address":"豊島区東池袋2-37-11","lat":35.73227,"lon":139.72192},{"name":"やまて寮","province":"東京都","city":"豊島区","address":"豊島区南池袋4-18-9","lat":35.72435,"lon":139.72029},{"name":"ちとせ橋寮","province":"東京都","city":"豊島区","address":"豊島区雑司ヶ谷3-8-16","lat":35.72149,"lon":139.71306},{"name":"雑司ヶ谷荘","province":"東京都","city":"豊島区","address":"豊島区雑司が谷3-1-3","lat":35.7195,"lon":139.71396},{"name":"さくら千早ハウス","province":"東京都","city":"豊島区","address":"豊島区千早3-31-8","lat":35.7344,"lon":139.68825},{"name":"長崎荘","province":"東京都","city":"豊島区","address":"豊島区長崎4-35-1","lat":35.73136,"lon":139.68503},{"name":"(有)吾妻屋","province":"東京都","city":"豊島区","address":"東京都豊島区要町2丁目21-5","lat":35.73593768,"lon":139.69284545},{"name":"(有)岡田葬儀社本店","province":"東京都","city":"豊島区","address":"東京都豊島区南大塚2丁目26-10","lat":35.72751463,"lon":139.72972878},{"name":"松阪屋","province":"東京都","city":"豊島区","address":"東京都豊島区千早1丁目15-14","lat":35.73076896,"lon":139.69780636},{"name":"(株)後藤本店葬祭","province":"東京都","city":"豊島区","address":"東京都豊島区長崎2丁目6-23","lat":35.72832457,"lon":139.69055987},{"name":"(株)相馬屋","province":"東京都","city":"豊島区","address":"東京都豊島区池袋4丁目18-5","lat":35.73913221,"lon":139.70821901},{"name":"(株)後藤葬儀社","province":"東京都","city":"豊島区","address":"東京都豊島区池袋本町2丁目25-7","lat":35.74234854,"lon":139.70965486},{"name":"(有)今井葬儀社","province":"東京都","city":"豊島区","address":"東京都豊島区長崎4丁目16-11","lat":35.7296743,"lon":139.68628795},{"name":"東京都立大塚病院","province":"東京都","city":"豊島区","address":"豊島区南大塚2-8-1","lat":35.72527,"lon":139.73215},{"name":"啓成会義肢研究製作所","province":"東京都","city":"豊島区","address":"豊島区北大塚1-13-8","lat":35.73182,"lon":139.7318},{"name":"豊島区立中央図書館（ひかり文庫）","province":"東京都","city":"豊島区","address":"豊島区東池袋4-5-2ライズアリーナビル5階","lat":35.7267,"lon":139.71896},{"name":"ふるさと上池ハウス","province":"東京都","city":"豊島区","address":"豊島区上池袋1-18-27","lat":35.73488,"lon":139.72195},{"name":"やまて寮　　※現在、休止中","province":"東京都","city":"豊島区","address":"豊島区南池袋4-18-9","lat":35.72435,"lon":139.72029},{"name":"豊島区民社会福祉協議会","province":"東京都","city":"豊島区","address":"豊島区東池袋1-39-2区役所東池袋分庁舎3、4階","lat":35.73244,"lon":139.71432},{"name":"豊島区保健福祉部障害福祉課豊島区立心身障害者福祉センター","province":"東京都","city":"豊島区","address":"東京都豊島区目白5丁目18-8","lat":35.7240752,"lon":139.69585404},{"name":"医療法人社団明善会新大塚榎本クリニック","province":"東京都","city":"豊島区","address":"東京都豊島区南大塚3丁目11-9","lat":35.72828397,"lon":139.72900103},{"name":"医療法人社団明善会榎本クリニック","province":"東京都","city":"豊島区","address":"東京都豊島区西池袋1丁目2-5","lat":35.72775294,"lon":139.70910552},{"name":"LITALICOワークス大塚","province":"東京都","city":"豊島区","address":"東京都豊島区東池袋2丁目13-14","lat":35.73106133,"lon":139.72522902},{"name":"さら就労塾＠ぽれぽれ/池袋","province":"東京都","city":"豊島区","address":"東京都豊島区南池袋2丁目30-7","lat":35.72726985,"lon":139.71602717},{"name":"地域活動支援センターサンハウス","province":"東京都","city":"豊島区","address":"東京都豊島区千川2丁目37-6","lat":35.74264246,"lon":139.69179524},{"name":"株式会社ティラＬｉｎｋキャリアサポートセンター","province":"東京都","city":"豊島区","address":"東京都豊島区東池袋1丁目25-17","lat":35.7280781,"lon":139.7162299},{"name":"社会福祉法人豊芯会地域生活支援センターこかげ","province":"東京都","city":"豊島区","address":"東京都豊島区東池袋4丁目5-1","lat":35.72659779,"lon":139.71902694},{"name":"脳卒中・身体障害専門就労支援センター「リハス」大塚","province":"東京都","city":"豊島区","address":"東京都豊島区北大塚2丁目8-11","lat":35.73338887,"lon":139.72691211},{"name":"リハスワークとしま","province":"東京都","city":"豊島区","address":"東京都豊島区北大塚2丁目8-11","lat":35.73338887,"lon":139.72691211},{"name":"やまて寮　※現在、休止中","province":"東京都","city":"豊島区","address":"豊島区南池袋4-18-9","lat":35.72435,"lon":139.72029},{"name":"啓成会義肢研究製作所","province":"東京都","city":"豊島区","address":"豊島区北大塚1-13-8","lat":35.73186,"lon":139.731352},{"name":"豊島区民社会福祉協議会","province":"東京都","city":"豊島区","address":"豊島区東池袋1-39-2東池袋分庁舎3、4階","lat":35.732564,"lon":139.714344},{"name":"やまて寮※現在、休止中","province":"東京都","city":"豊島区","address":"豊島区南池袋4-18-9","lat":35.72435,"lon":139.72029},{"name":"豊島区民社会福祉協議会","province":"東京都","city":"豊島区","address":"豊島区東池袋1-39-2区役所東池袋分庁舎3、4階","lat":35.73244,"lon":139.71433},{"name":"ふるさと上池ハウス","province":"東京都","city":"豊島区","address":"豊島区上池袋1-18-27","lat":35.734451,"lon":139.721751},{"name":"大塚病院","province":"東京都","city":"豊島区","address":"東京都豊島区南大塚2丁目8-1","lat":35.72526774,"lon":139.73230087},{"name":"東京都立大塚病院","province":"東京都","city":"豊島区","address":"豊島区南大塚2-8-1","lat":35.725268,"lon":139.732301},{"name":"豊島区立中央図書館（ひかり文庫）","province":"東京都","city":"豊島区","address":"豊島区東池袋4-5-2ライズアリーナビル5階","lat":35.726948,"lon":139.718902},{"name":"ちとせ橋寮","province":"東京都","city":"豊島区","address":"豊島区雑司ヶ谷3-8-16","lat":35.721184,"lon":139.712905},{"name":"ハピーテラス","province":"東京都","city":"豊島区","address":"東京都豊島区","lat":35.72611722,"lon":139.71660773},{"name":"やまて寮","province":"東京都","city":"豊島区","address":"豊島区南池袋4-18-9","lat":35.724704,"lon":139.720416},{"name":"雑司ヶ谷荘","province":"東京都","city":"豊島区","address":"豊島区雑司が谷3-1-3","lat":35.719162,"lon":139.713694},{"name":"長崎荘","province":"東京都","city":"豊島区","address":"豊島区長崎4-35-1","lat":35.731274,"lon":139.685057},{"name":"東池袋荘","province":"東京都","city":"豊島区","address":"豊島区東池袋2-37-11","lat":35.732525,"lon":139.721815},{"name":"さくら千早ハウス","province":"東京都","city":"豊島区","address":"豊島区千早3-31-8","lat":35.734657,"lon":139.688126},{"name":"豊島区社会福祉協議会","province":"東京都","city":"豊島区","address":"豊島区東池袋1-39-2東池袋分庁舎","lat":35.732564,"lon":139.714344},{"name":"東池袋荘","province":"東京都","city":"豊島区","address":"豊島区東池袋2-37-11","lat":35.73227,"lon":139.72192},{"name":"やまて寮","province":"東京都","city":"豊島区","address":"豊島区南池袋4-18-9","lat":35.72435,"lon":139.72029},{"name":"ちとせ橋寮","province":"東京都","city":"豊島区","address":"豊島区雑司ヶ谷3-8-16","lat":35.72149,"lon":139.71306},{"name":"雑司ヶ谷荘","province":"東京都","city":"豊島区","address":"豊島区雑司が谷3-1-3","lat":35.7195,"lon":139.71396},{"name":"さくら千早ハウス","province":"東京都","city":"豊島区","address":"豊島区千早3-31-8","lat":35.7344,"lon":139.68825},{"name":"長崎荘","province":"東京都","city":"豊島区","address":"豊島区長崎4-35-1","lat":35.73136,"lon":139.68503},{"name":"(有)吾妻屋","province":"東京都","city":"豊島区","address":"東京都豊島区要町2丁目21-5","lat":35.73593768,"lon":139.69284545},{"name":"(有)岡田葬儀社本店","province":"東京都","city":"豊島区","address":"東京都豊島区南大塚2丁目26-10","lat":35.72751463,"lon":139.72972878},{"name":"松阪屋","province":"東京都","city":"豊島区","address":"東京都豊島区千早1丁目15-14","lat":35.73076896,"lon":139.69780636},{"name":"(株)後藤本店葬祭","province":"東京都","city":"豊島区","address":"東京都豊島区長崎2丁目6-23","lat":35.72832457,"lon":139.69055987},{"name":"(株)相馬屋","province":"東京都","city":"豊島区","address":"東京都豊島区池袋4丁目18-5","lat":35.73913221,"lon":139.70821901},{"name":"(株)後藤葬儀社","province":"東京都","city":"豊島区","address":"東京都豊島区池袋本町2丁目25-7","lat":35.74234854,"lon":139.70965486},{"name":"(有)今井葬儀社","province":"東京都","city":"豊島区","address":"東京都豊島区長崎4丁目16-11","lat":35.7296743,"lon":139.68628795},{"name":"東京都立大塚病院","province":"東京都","city":"豊島区","address":"豊島区南大塚2-8-1","lat":35.72527,"lon":139.73215},{"name":"啓成会義肢研究製作所","province":"東京都","city":"豊島区","address":"豊島区北大塚1-13-8","lat":35.73182,"lon":139.7318},{"name":"豊島区立中央図書館（ひかり文庫）","province":"東京都","city":"豊島区","address":"豊島区東池袋4-5-2ライズアリーナビル5階","lat":35.7267,"lon":139.71896},{"name":"ふるさと上池ハウス","province":"東京都","city":"豊島区","address":"豊島区上池袋1-18-27","lat":35.73488,"lon":139.72195},{"name":"やまて寮　　※現在、休止中","province":"東京都","city":"豊島区","address":"豊島区南池袋4-18-9","lat":35.72435,"lon":139.72029},{"name":"豊島区民社会福祉協議会","province":"東京都","city":"豊島区","address":"豊島区東池袋1-39-2区役所東池袋分庁舎3、4階","lat":35.73244,"lon":139.71432},{"name":"豊島区保健福祉部障害福祉課豊島区立心身障害者福祉センター","province":"東京都","city":"豊島区","address":"東京都豊島区目白5丁目18-8","lat":35.7240752,"lon":139.69585404},{"name":"医療法人社団明善会新大塚榎本クリニック","province":"東京都","city":"豊島区","address":"東京都豊島区南大塚3丁目11-9","lat":35.72828397,"lon":139.72900103},{"name":"医療法人社団明善会榎本クリニック","province":"東京都","city":"豊島区","address":"東京都豊島区西池袋1丁目2-5","lat":35.72775294,"lon":139.70910552},{"name":"LITALICOワークス大塚","province":"東京都","city":"豊島区","address":"東京都豊島区東池袋2丁目13-14","lat":35.73106133,"lon":139.72522902},{"name":"さら就労塾＠ぽれぽれ/池袋","province":"東京都","city":"豊島区","address":"東京都豊島区南池袋2丁目30-7","lat":35.72726985,"lon":139.71602717},{"name":"地域活動支援センターサンハウス","province":"東京都","city":"豊島区","address":"東京都豊島区千川2丁目37-6","lat":35.74264246,"lon":139.69179524},{"name":"株式会社ティラＬｉｎｋキャリアサポートセンター","province":"東京都","city":"豊島区","address":"東京都豊島区東池袋1丁目25-17","lat":35.7280781,"lon":139.7162299},{"name":"社会福祉法人豊芯会地域生活支援センターこかげ","province":"東京都","city":"豊島区","address":"東京都豊島区東池袋4丁目5-1","lat":35.72659779,"lon":139.71902694},{"name":"脳卒中・身体障害専門就労支援センター「リハス」大塚","province":"東京都","city":"豊島区","address":"東京都豊島区北大塚2丁目8-11","lat":35.73338887,"lon":139.72691211},{"name":"リハスワークとしま","province":"東京都","city":"豊島区","address":"東京都豊島区北大塚2丁目8-11","lat":35.73338887,"lon":139.72691211},{"name":"やまて寮　※現在、休止中","province":"東京都","city":"豊島区","address":"豊島区南池袋4-18-9","lat":35.72435,"lon":139.72029},{"name":"啓成会義肢研究製作所","province":"東京都","city":"豊島区","address":"豊島区北大塚1-13-8","lat":35.73186,"lon":139.731352},{"name":"豊島区民社会福祉協議会","province":"東京都","city":"豊島区","address":"豊島区東池袋1-39-2東池袋分庁舎3、4階","lat":35.732564,"lon":139.714344},{"name":"やまて寮※現在、休止中","province":"東京都","city":"豊島区","address":"豊島区南池袋4-18-9","lat":35.72435,"lon":139.72029},{"name":"豊島区民社会福祉協議会","province":"東京都","city":"豊島区","address":"豊島区東池袋1-39-2区役所東池袋分庁舎3、4階","lat":35.73244,"lon":139.71433},{"name":"ふるさと上池ハウス","province":"東京都","city":"豊島区","address":"豊島区上池袋1-18-27","lat":35.734451,"lon":139.721751},{"name":"東京都立大塚病院","province":"東京都","city":"豊島区","address":"豊島区南大塚2-8-1","lat":35.725268,"lon":139.732301},{"name":"豊島区立中央図書館（ひかり文庫）","province":"東京都","city":"豊島区","address":"豊島区東池袋4-5-2ライズアリーナビル5階","lat":35.726948,"lon":139.718902},{"name":"ちとせ橋寮","province":"東京都","city":"豊島区","address":"豊島区雑司ヶ谷3-8-16","lat":35.721184,"lon":139.712905},{"name":"ハピーテラス","province":"東京都","city":"豊島区","address":"東京都豊島区","lat":35.72611722,"lon":139.71660773},{"name":"やまて寮","province":"東京都","city":"豊島区","address":"豊島区南池袋4-18-9","lat":35.724704,"lon":139.720416},{"name":"雑司ヶ谷荘","province":"東京都","city":"豊島区","address":"豊島区雑司が谷3-1-3","lat":35.719162,"lon":139.713694},{"name":"長崎荘","province":"東京都","city":"豊島区","address":"豊島区長崎4-35-1","lat":35.731274,"lon":139.685057},{"name":"東池袋荘","province":"東京都","city":"豊島区","address":"豊島区東池袋2-37-11","lat":35.732525,"lon":139.721815},{"name":"さくら千早ハウス","province":"東京都","city":"豊島区","address":"豊島区千早3-31-8","lat":35.734657,"lon":139.688126},{"name":"豊島区社会福祉協議会","province":"東京都","city":"豊島区","address":"豊島区東池袋1-39-2東池袋分庁舎","lat":35.732564,"lon":139.714344},{"name":"東池袋荘","province":"東京都","city":"豊島区","address":"豊島区東池袋2-37-11","lat":35.73227,"lon":139.72192},{"name":"やまて寮","province":"東京都","city":"豊島区","address":"豊島区南池袋4-18-9","lat":35.72435,"lon":139.72029},{"name":"ちとせ橋寮","province":"東京都","city":"豊島区","address":"豊島区雑司ヶ谷3-8-16","lat":35.72149,"lon":139.71306},{"name":"雑司ヶ谷荘","province":"東京都","city":"豊島区","address":"豊島区雑司が谷3-1-3","lat":35.7195,"lon":139.71396},{"name":"さくら千早ハウス","province":"東京都","city":"豊島区","address":"豊島区千早3-31-8","lat":35.7344,"lon":139.68825},{"name":"長崎荘","province":"東京都","city":"豊島区","address":"豊島区長崎4-35-1","lat":35.73136,"lon":139.68503},{"name":"東京都立大塚病院","province":"東京都","city":"豊島区","address":"豊島区南大塚2-8-1","lat":35.72527,"lon":139.73215},{"name":"啓成会義肢研究製作所","province":"東京都","city":"豊島区","address":"豊島区北大塚1-13-8","lat":35.73182,"lon":139.7318},{"name":"豊島区立中央図書館（ひかり文庫）","province":"東京都","city":"豊島区","address":"豊島区東池袋4-5-2ライズアリーナビル5階","lat":35.7267,"lon":139.71896},{"name":"ふるさと上池ハウス","province":"東京都","city":"豊島区","address":"豊島区上池袋1-18-27","lat":35.73488,"lon":139.72195},{"name":"やまて寮　　※現在、休止中","province":"東京都","city":"豊島区","address":"豊島区南池袋4-18-9","lat":35.72435,"lon":139.72029},{"name":"豊島区民社会福祉協議会","province":"東京都","city":"豊島区","address":"豊島区東池袋1-39-2区役所東池袋分庁舎3、4階","lat":35.73244,"lon":139.71432},{"name":"豊島区保健福祉部障害福祉課豊島区立心身障害者福祉センター","province":"東京都","city":"豊島区","address":"東京都豊島区目白5丁目18-8","lat":35.7240752,"lon":139.69585404},{"name":"医療法人社団明善会新大塚榎本クリニック","province":"東京都","city":"豊島区","address":"東京都豊島区南大塚3丁目11-9","lat":35.72828397,"lon":139.72900103},{"name":"医療法人社団明善会榎本クリニック","province":"東京都","city":"豊島区","address":"東京都豊島区西池袋1丁目2-5","lat":35.72775294,"lon":139.70910552},{"name":"LITALICOワークス大塚","province":"東京都","city":"豊島区","address":"東京都豊島区東池袋2丁目13-14","lat":35.73106133,"lon":139.72522902},{"name":"さら就労塾＠ぽれぽれ/池袋","province":"東京都","city":"豊島区","address":"東京都豊島区南池袋2丁目30-7","lat":35.72726985,"lon":139.71602717},{"name":"地域活動支援センターサンハウス","province":"東京都","city":"豊島区","address":"東京都豊島区千川2丁目37-6","lat":35.74264246,"lon":139.69179524},{"name":"株式会社ティラＬｉｎｋキャリアサポートセンター","province":"東京都","city":"豊島区","address":"東京都豊島区東池袋1丁目25-17","lat":35.7280781,"lon":139.7162299},{"name":"社会福祉法人豊芯会地域生活支援センターこかげ","province":"東京都","city":"豊島区","address":"東京都豊島区東池袋4丁目5-1","lat":35.72659779,"lon":139.71902694},{"name":"脳卒中・身体障害専門就労支援センター「リハス」大塚","province":"東京都","city":"豊島区","address":"東京都豊島区北大塚2丁目8-11","lat":35.73338887,"lon":139.72691211},{"name":"リハスワークとしま","province":"東京都","city":"豊島区","address":"東京都豊島区北大塚2丁目8-11","lat":35.73338887,"lon":139.72691211},{"name":"やまて寮　※現在、休止中","province":"東京都","city":"豊島区","address":"豊島区南池袋4-18-9","lat":35.72435,"lon":139.72029},{"name":"啓成会義肢研究製作所","province":"東京都","city":"豊島区","address":"豊島区北大塚1-13-8","lat":35.73186,"lon":139.731352},{"name":"豊島区民社会福祉協議会","province":"東京都","city":"豊島区","address":"豊島区東池袋1-39-2東池袋分庁舎3、4階","lat":35.732564,"lon":139.714344},{"name":"やまて寮※現在、休止中","province":"東京都","city":"豊島区","address":"豊島区南池袋4-18-9","lat":35.72435,"lon":139.72029},{"name":"豊島区民社会福祉協議会","province":"東京都","city":"豊島区","address":"豊島区東池袋1-39-2区役所東池袋分庁舎3、4階","lat":35.73244,"lon":139.71433},{"name":"ふるさと上池ハウス","province":"東京都","city":"豊島区","address":"豊島区上池袋1-18-27","lat":35.734451,"lon":139.721751},{"name":"東京都立大塚病院","province":"東京都","city":"豊島区","address":"豊島区南大塚2-8-1","lat":35.725268,"lon":139.732301},{"name":"豊島区立中央図書館（ひかり文庫）","province":"東京都","city":"豊島区","address":"豊島区東池袋4-5-2ライズアリーナビル5階","lat":35.726948,"lon":139.718902},{"name":"ちとせ橋寮","province":"東京都","city":"豊島区","address":"豊島区雑司ヶ谷3-8-16","lat":35.721184,"lon":139.712905},{"name":"ハピーテラス","province":"東京都","city":"豊島区","address":"東京都豊島区","lat":35.72611722,"lon":139.71660773},{"name":"やまて寮","province":"東京都","city":"豊島区","address":"豊島区南池袋4-18-9","lat":35.724704,"lon":139.720416},{"name":"雑司ヶ谷荘","province":"東京都","city":"豊島区","address":"豊島区雑司が谷3-1-3","lat":35.719162,"lon":139.713694},{"name":"長崎荘","province":"東京都","city":"豊島区","address":"豊島区長崎4-35-1","lat":35.731274,"lon":139.685057},{"name":"東池袋荘","province":"東京都","city":"豊島区","address":"豊島区東池袋2-37-11","lat":35.732525,"lon":139.721815},{"name":"さくら千早ハウス","province":"東京都","city":"豊島区","address":"豊島区千早3-31-8","lat":35.734657,"lon":139.688126},{"name":"豊島区社会福祉協議会","province":"東京都","city":"豊島区","address":"豊島区東池袋1-39-2東池袋分庁舎","lat":35.732564,"lon":139.714344},{"name":"東池袋荘","province":"東京都","city":"豊島区","address":"豊島区東池袋2-37-11","lat":35.73227,"lon":139.72192},{"name":"やまて寮","province":"東京都","city":"豊島区","address":"豊島区南池袋4-18-9","lat":35.72435,"lon":139.72029},{"name":"ちとせ橋寮","province":"東京都","city":"豊島区","address":"豊島区雑司ヶ谷3-8-16","lat":35.72149,"lon":139.71306},{"name":"雑司ヶ谷荘","province":"東京都","city":"豊島区","address":"豊島区雑司が谷3-1-3","lat":35.7195,"lon":139.71396},{"name":"さくら千早ハウス","province":"東京都","city":"豊島区","address":"豊島区千早3-31-8","lat":35.7344,"lon":139.68825},{"name":"長崎荘","province":"東京都","city":"豊島区","address":"豊島区長崎4-35-1","lat":35.73136,"lon":139.68503},{"name":"東京都立大塚病院","province":"東京都","city":"豊島区","address":"豊島区南大塚2-8-1","lat":35.72527,"lon":139.73215},{"name":"啓成会義肢研究製作所","province":"東京都","city":"豊島区","address":"豊島区北大塚1-13-8","lat":35.73182,"lon":139.7318},{"name":"豊島区立中央図書館（ひかり文庫）","province":"東京都","city":"豊島区","address":"豊島区東池袋4-5-2ライズアリーナビル5階","lat":35.7267,"lon":139.71896},{"name":"ふるさと上池ハウス","province":"東京都","city":"豊島区","address":"豊島区上池袋1-18-27","lat":35.73488,"lon":139.72195},{"name":"やまて寮　　※現在、休止中","province":"東京都","city":"豊島区","address":"豊島区南池袋4-18-9","lat":35.72435,"lon":139.72029},{"name":"豊島区民社会福祉協議会","province":"東京都","city":"豊島区","address":"豊島区東池袋1-39-2区役所東池袋分庁舎3、4階","lat":35.73244,"lon":139.71432},{"name":"豊島区保健福祉部障害福祉課豊島区立心身障害者福祉センター","province":"東京都","city":"豊島区","address":"東京都豊島区目白5丁目18-8","lat":35.7240752,"lon":139.69585404},{"name":"医療法人社団明善会新大塚榎本クリニック","province":"東京都","city":"豊島区","address":"東京都豊島区南大塚3丁目11-9","lat":35.72828397,"lon":139.72900103},{"name":"医療法人社団明善会榎本クリニック","province":"東京都","city":"豊島区","address":"東京都豊島区西池袋1丁目2-5","lat":35.72775294,"lon":139.70910552},{"name":"LITALICOワークス大塚","province":"東京都","city":"豊島区","address":"東京都豊島区東池袋2丁目13-14","lat":35.73106133,"lon":139.72522902},{"name":"さら就労塾＠ぽれぽれ/池袋","province":"東京都","city":"豊島区","address":"東京都豊島区南池袋2丁目30-7","lat":35.72726985,"lon":139.71602717},{"name":"地域活動支援センターサンハウス","province":"東京都","city":"豊島区","address":"東京都豊島区千川2丁目37-6","lat":35.74264246,"lon":139.69179524},{"name":"株式会社ティラＬｉｎｋキャリアサポートセンター","province":"東京都","city":"豊島区","address":"東京都豊島区東池袋1丁目25-17","lat":35.7280781,"lon":139.7162299},{"name":"社会福祉法人豊芯会地域生活支援センターこかげ","province":"東京都","city":"豊島区","address":"東京都豊島区東池袋4丁目5-1","lat":35.72659779,"lon":139.71902694},{"name":"脳卒中・身体障害専門就労支援センター「リハス」大塚","province":"東京都","city":"豊島区","address":"東京都豊島区北大塚2丁目8-11","lat":35.73338887,"lon":139.72691211},{"name":"リハスワークとしま","province":"東京都","city":"豊島区","address":"東京都豊島区北大塚2丁目8-11","lat":35.73338887,"lon":139.72691211},{"name":"やまて寮　※現在、休止中","province":"東京都","city":"豊島区","address":"豊島区南池袋4-18-9","lat":35.72435,"lon":139.72029},{"name":"啓成会義肢研究製作所","province":"東京都","city":"豊島区","address":"豊島区北大塚1-13-8","lat":35.73186,"lon":139.731352},{"name":"豊島区民社会福祉協議会","province":"東京都","city":"豊島区","address":"豊島区東池袋1-39-2東池袋分庁舎3、4階","lat":35.732564,"lon":139.714344},{"name":"やまて寮※現在、休止中","province":"東京都","city":"豊島区","address":"豊島区南池袋4-18-9","lat":35.72435,"lon":139.72029},{"name":"豊島区民社会福祉協議会","province":"東京都","city":"豊島区","address":"豊島区東池袋1-39-2区役所東池袋分庁舎3、4階","lat":35.73244,"lon":139.71433},{"name":"ふるさと上池ハウス","province":"東京都","city":"豊島区","address":"豊島区上池袋1-18-27","lat":35.734451,"lon":139.721751},{"name":"東京都立大塚病院","province":"東京都","city":"豊島区","address":"豊島区南大塚2-8-1","lat":35.725268,"lon":139.732301},{"name":"豊島区立中央図書館（ひかり文庫）","province":"東京都","city":"豊島区","address":"豊島区東池袋4-5-2ライズアリーナビル5階","lat":35.726948,"lon":139.718902},{"name":"ちとせ橋寮","province":"東京都","city":"豊島区","address":"豊島区雑司ヶ谷3-8-16","lat":35.721184,"lon":139.712905},{"name":"ハピーテラス","province":"東京都","city":"豊島区","address":"東京都豊島区","lat":35.72611722,"lon":139.71660773},{"name":"やまて寮","province":"東京都","city":"豊島区","address":"豊島区南池袋4-18-9","lat":35.724704,"lon":139.720416},{"name":"雑司ヶ谷荘","province":"東京都","city":"豊島区","address":"豊島区雑司が谷3-1-3","lat":35.719162,"lon":139.713694},{"name":"長崎荘","province":"東京都","city":"豊島区","address":"豊島区長崎4-35-1","lat":35.731274,"lon":139.685057},{"name":"東池袋荘","province":"東京都","city":"豊島区","address":"豊島区東池袋2-37-11","lat":35.732525,"lon":139.721815},{"name":"さくら千早ハウス","province":"東京都","city":"豊島区","address":"豊島区千早3-31-8","lat":35.734657,"lon":139.688126},{"name":"豊島区社会福祉協議会","province":"東京都","city":"豊島区","address":"豊島区東池袋1-39-2東池袋分庁舎","lat":35.732564,"lon":139.714344},{"name":"東池袋荘","province":"東京都","city":"豊島区","address":"豊島区東池袋2-37-11","lat":35.73227,"lon":139.72192},{"name":"やまて寮","province":"東京都","city":"豊島区","address":"豊島区南池袋4-18-9","lat":35.72435,"lon":139.72029},{"name":"ちとせ橋寮","province":"東京都","city":"豊島区","address":"豊島区雑司ヶ谷3-8-16","lat":35.72149,"lon":139.71306},{"name":"雑司ヶ谷荘","province":"東京都","city":"豊島区","address":"豊島区雑司が谷3-1-3","lat":35.7195,"lon":139.71396},{"name":"さくら千早ハウス","province":"東京都","city":"豊島区","address":"豊島区千早3-31-8","lat":35.7344,"lon":139.68825},{"name":"長崎荘","province":"東京都","city":"豊島区","address":"豊島区長崎4-35-1","lat":35.73136,"lon":139.68503},{"name":"東京都立大塚病院","province":"東京都","city":"豊島区","address":"豊島区南大塚2-8-1","lat":35.72527,"lon":139.73215},{"name":"啓成会義肢研究製作所","province":"東京都","city":"豊島区","address":"豊島区北大塚1-13-8","lat":35.73182,"lon":139.7318},{"name":"豊島区立中央図書館（ひかり文庫）","province":"東京都","city":"豊島区","address":"豊島区東池袋4-5-2ライズアリーナビル5階","lat":35.7267,"lon":139.71896},{"name":"ふるさと上池ハウス","province":"東京都","city":"豊島区","address":"豊島区上池袋1-18-27","lat":35.73488,"lon":139.72195},{"name":"やまて寮　　※現在、休止中","province":"東京都","city":"豊島区","address":"豊島区南池袋4-18-9","lat":35.72435,"lon":139.72029},{"name":"豊島区民社会福祉協議会","province":"東京都","city":"豊島区","address":"豊島区東池袋1-39-2区役所東池袋分庁舎3、4階","lat":35.73244,"lon":139.71432},{"name":"豊島区保健福祉部障害福祉課豊島区立心身障害者福祉センター","province":"東京都","city":"豊島区","address":"東京都豊島区目白5丁目18-8","lat":35.7240752,"lon":139.69585404},{"name":"医療法人社団明善会新大塚榎本クリニック","province":"東京都","city":"豊島区","address":"東京都豊島区南大塚3丁目11-9","lat":35.72828397,"lon":139.72900103},{"name":"医療法人社団明善会榎本クリニック","province":"東京都","city":"豊島区","address":"東京都豊島区西池袋1丁目2-5","lat":35.72775294,"lon":139.70910552},{"name":"LITALICOワークス大塚","province":"東京都","city":"豊島区","address":"東京都豊島区東池袋2丁目13-14","lat":35.73106133,"lon":139.72522902},{"name":"さら就労塾＠ぽれぽれ/池袋","province":"東京都","city":"豊島区","address":"東京都豊島区南池袋2丁目30-7","lat":35.72726985,"lon":139.71602717},{"name":"地域活動支援センターサンハウス","province":"東京都","city":"豊島区","address":"東京都豊島区千川2丁目37-6","lat":35.74264246,"lon":139.69179524},{"name":"株式会社ティラＬｉｎｋキャリアサポートセンター","province":"東京都","city":"豊島区","address":"東京都豊島区東池袋1丁目25-17","lat":35.7280781,"lon":139.7162299},{"name":"社会福祉法人豊芯会地域生活支援センターこかげ","province":"東京都","city":"豊島区","address":"東京都豊島区東池袋4丁目5-1","lat":35.72659779,"lon":139.71902694},{"name":"脳卒中・身体障害専門就労支援センター「リハス」大塚","province":"東京都","city":"豊島区","address":"東京都豊島区北大塚2丁目8-11","lat":35.73338887,"lon":139.72691211},{"name":"リハスワークとしま","province":"東京都","city":"豊島区","address":"東京都豊島区北大塚2丁目8-11","lat":35.73338887,"lon":139.72691211},{"name":"やまて寮　※現在、休止中","province":"東京都","city":"豊島区","address":"豊島区南池袋4-18-9","lat":35.72435,"lon":139.72029},{"name":"啓成会義肢研究製作所","province":"東京都","city":"豊島区","address":"豊島区北大塚1-13-8","lat":35.73186,"lon":139.731352},{"name":"豊島区民社会福祉協議会","province":"東京都","city":"豊島区","address":"豊島区東池袋1-39-2東池袋分庁舎3、4階","lat":35.732564,"lon":139.714344},{"name":"やまて寮※現在、休止中","province":"東京都","city":"豊島区","address":"豊島区南池袋4-18-9","lat":35.72435,"lon":139.72029},{"name":"豊島区民社会福祉協議会","province":"東京都","city":"豊島区","address":"豊島区東池袋1-39-2区役所東池袋分庁舎3、4階","lat":35.73244,"lon":139.71433},{"name":"ふるさと上池ハウス","province":"東京都","city":"豊島区","address":"豊島区上池袋1-18-27","lat":35.734451,"lon":139.721751},{"name":"東京都立大塚病院","province":"東京都","city":"豊島区","address":"豊島区南大塚2-8-1","lat":35.725268,"lon":139.732301},{"name":"豊島区立中央図書館（ひかり文庫）","province":"東京都","city":"豊島区","address":"豊島区東池袋4-5-2ライズアリーナビル5階","lat":35.726948,"lon":139.718902},{"name":"ちとせ橋寮","province":"東京都","city":"豊島区","address":"豊島区雑司ヶ谷3-8-16","lat":35.721184,"lon":139.712905},{"name":"ハピーテラス","province":"東京都","city":"豊島区","address":"東京都豊島区","lat":35.72611722,"lon":139.71660773},{"name":"やまて寮","province":"東京都","city":"豊島区","address":"豊島区南池袋4-18-9","lat":35.724704,"lon":139.720416},{"name":"雑司ヶ谷荘","province":"東京都","city":"豊島区","address":"豊島区雑司が谷3-1-3","lat":35.719162,"lon":139.713694},{"name":"長崎荘","province":"東京都","city":"豊島区","address":"豊島区長崎4-35-1","lat":35.731274,"lon":139.685057},{"name":"東池袋荘","province":"東京都","city":"豊島区","address":"豊島区東池袋2-37-11","lat":35.732525,"lon":139.721815},{"name":"さくら千早ハウス","province":"東京都","city":"豊島区","address":"豊島区千早3-31-8","lat":35.734657,"lon":139.688126},{"name":"豊島区社会福祉協議会","province":"東京都","city":"豊島区","address":"豊島区東池袋1-39-2東池袋分庁舎","lat":35.732564,"lon":139.714344},{"name":"東池袋荘","province":"東京都","city":"豊島区","address":"豊島区東池袋2-37-11","lat":35.73227,"lon":139.72192},{"name":"やまて寮","province":"東京都","city":"豊島区","address":"豊島区南池袋4-18-9","lat":35.72435,"lon":139.72029},{"name":"ちとせ橋寮","province":"東京都","city":"豊島区","address":"豊島区雑司ヶ谷3-8-16","lat":35.72149,"lon":139.71306},{"name":"雑司ヶ谷荘","province":"東京都","city":"豊島区","address":"豊島区雑司が谷3-1-3","lat":35.7195,"lon":139.71396},{"name":"さくら千早ハウス","province":"東京都","city":"豊島区","address":"豊島区千早3-31-8","lat":35.7344,"lon":139.68825},{"name":"長崎荘","province":"東京都","city":"豊島区","address":"豊島区長崎4-35-1","lat":35.73136,"lon":139.68503},{"name":"東京都立大塚病院","province":"東京都","city":"豊島区","address":"豊島区南大塚2-8-1","lat":35.72527,"lon":139.73215},{"name":"啓成会義肢研究製作所","province":"東京都","city":"豊島区","address":"豊島区北大塚1-13-8","lat":35.73182,"lon":139.7318},{"name":"豊島区立中央図書館（ひかり文庫）","province":"東京都","city":"豊島区","address":"豊島区東池袋4-5-2ライズアリーナビル5階","lat":35.7267,"lon":139.71896},{"name":"ふるさと上池ハウス","province":"東京都","city":"豊島区","address":"豊島区上池袋1-18-27","lat":35.73488,"lon":139.72195},{"name":"やまて寮　　※現在、休止中","province":"東京都","city":"豊島区","address":"豊島区南池袋4-18-9","lat":35.72435,"lon":139.72029},{"name":"豊島区民社会福祉協議会","province":"東京都","city":"豊島区","address":"豊島区東池袋1-39-2区役所東池袋分庁舎3、4階","lat":35.73244,"lon":139.71432},{"name":"豊島区保健福祉部障害福祉課豊島区立心身障害者福祉センター","province":"東京都","city":"豊島区","address":"東京都豊島区目白5丁目18-8","lat":35.7240752,"lon":139.69585404},{"name":"医療法人社団明善会新大塚榎本クリニック","province":"東京都","city":"豊島区","address":"東京都豊島区南大塚3丁目11-9","lat":35.72828397,"lon":139.72900103},{"name":"医療法人社団明善会榎本クリニック","province":"東京都","city":"豊島区","address":"東京都豊島区西池袋1丁目2-5","lat":35.72775294,"lon":139.70910552},{"name":"LITALICOワークス大塚","province":"東京都","city":"豊島区","address":"東京都豊島区東池袋2丁目13-14","lat":35.73106133,"lon":139.72522902},{"name":"さら就労塾＠ぽれぽれ/池袋","province":"東京都","city":"豊島区","address":"東京都豊島区南池袋2丁目30-7","lat":35.72726985,"lon":139.71602717},{"name":"地域活動支援センターサンハウス","province":"東京都","city":"豊島区","address":"東京都豊島区千川2丁目37-6","lat":35.74264246,"lon":139.69179524},{"name":"株式会社ティラＬｉｎｋキャリアサポートセンター","province":"東京都","city":"豊島区","address":"東京都豊島区東池袋1丁目25-17","lat":35.7280781,"lon":139.7162299},{"name":"社会福祉法人豊芯会地域生活支援センターこかげ","province":"東京都","city":"豊島区","address":"東京都豊島区東池袋4丁目5-1","lat":35.72659779,"lon":139.71902694},{"name":"脳卒中・身体障害専門就労支援センター「リハス」大塚","province":"東京都","city":"豊島区","address":"東京都豊島区北大塚2丁目8-11","lat":35.73338887,"lon":139.72691211},{"name":"リハスワークとしま","province":"東京都","city":"豊島区","address":"東京都豊島区北大塚2丁目8-11","lat":35.73338887,"lon":139.72691211},{"name":"やまて寮　※現在、休止中","province":"東京都","city":"豊島区","address":"豊島区南池袋4-18-9","lat":35.72435,"lon":139.72029},{"name":"啓成会義肢研究製作所","province":"東京都","city":"豊島区","address":"豊島区北大塚1-13-8","lat":35.73186,"lon":139.731352},{"name":"豊島区民社会福祉協議会","province":"東京都","city":"豊島区","address":"豊島区東池袋1-39-2東池袋分庁舎3、4階","lat":35.732564,"lon":139.714344},{"name":"やまて寮※現在、休止中","province":"東京都","city":"豊島区","address":"豊島区南池袋4-18-9","lat":35.72435,"lon":139.72029},{"name":"豊島区民社会福祉協議会","province":"東京都","city":"豊島区","address":"豊島区東池袋1-39-2区役所東池袋分庁舎3、4階","lat":35.73244,"lon":139.71433},{"name":"ふるさと上池ハウス","province":"東京都","city":"豊島区","address":"豊島区上池袋1-18-27","lat":35.734451,"lon":139.721751},{"name":"東京都立大塚病院","province":"東京都","city":"豊島区","address":"豊島区南大塚2-8-1","lat":35.725268,"lon":139.732301},{"name":"豊島区立中央図書館（ひかり文庫）","province":"東京都","city":"豊島区","address":"豊島区東池袋4-5-2ライズアリーナビル5階","lat":35.726948,"lon":139.718902},{"name":"ちとせ橋寮","province":"東京都","city":"豊島区","address":"豊島区雑司ヶ谷3-8-16","lat":35.721184,"lon":139.712905},{"name":"ハピーテラス","province":"東京都","city":"豊島区","address":"東京都豊島区","lat":35.72611722,"lon":139.71660773},{"name":"やまて寮","province":"東京都","city":"豊島区","address":"豊島区南池袋4-18-9","lat":35.724704,"lon":139.720416},{"name":"雑司ヶ谷荘","province":"東京都","city":"豊島区","address":"豊島区雑司が谷3-1-3","lat":35.719162,"lon":139.713694},{"name":"長崎荘","province":"東京都","city":"豊島区","address":"豊島区長崎4-35-1","lat":35.731274,"lon":139.685057},{"name":"東池袋荘","province":"東京都","city":"豊島区","address":"豊島区東池袋2-37-11","lat":35.732525,"lon":139.721815},{"name":"さくら千早ハウス","province":"東京都","city":"豊島区","address":"豊島区千早3-31-8","lat":35.734657,"lon":139.688126},{"name":"豊島区社会福祉協議会","province":"東京都","city":"豊島区","address":"豊島区東池袋1-39-2東池袋分庁舎","lat":35.732564,"lon":139.714344},{"name":"東池袋荘","province":"東京都","city":"豊島区","address":"豊島区東池袋2-37-11","lat":35.73227,"lon":139.72192},{"name":"やまて寮","province":"東京都","city":"豊島区","address":"豊島区南池袋4-18-9","lat":35.72435,"lon":139.72029},{"name":"ちとせ橋寮","province":"東京都","city":"豊島区","address":"豊島区雑司ヶ谷3-8-16","lat":35.72149,"lon":139.71306},{"name":"雑司ヶ谷荘","province":"東京都","city":"豊島区","address":"豊島区雑司が谷3-1-3","lat":35.7195,"lon":139.71396},{"name":"さくら千早ハウス","province":"東京都","city":"豊島区","address":"豊島区千早3-31-8","lat":35.7344,"lon":139.68825},{"name":"長崎荘","province":"東京都","city":"豊島区","address":"豊島区長崎4-35-1","lat":35.73136,"lon":139.68503},{"name":"東京都立大塚病院","province":"東京都","city":"豊島区","address":"豊島区南大塚2-8-1","lat":35.72527,"lon":139.73215},{"name":"啓成会義肢研究製作所","province":"東京都","city":"豊島区","address":"豊島区北大塚1-13-8","lat":35.73182,"lon":139.7318},{"name":"豊島区立中央図書館（ひかり文庫）","province":"東京都","city":"豊島区","address":"豊島区東池袋4-5-2ライズアリーナビル5階","lat":35.7267,"lon":139.71896},{"name":"ふるさと上池ハウス","province":"東京都","city":"豊島区","address":"豊島区上池袋1-18-27","lat":35.73488,"lon":139.72195},{"name":"やまて寮　　※現在、休止中","province":"東京都","city":"豊島区","address":"豊島区南池袋4-18-9","lat":35.72435,"lon":139.72029},{"name":"豊島区民社会福祉協議会","province":"東京都","city":"豊島区","address":"豊島区東池袋1-39-2区役所東池袋分庁舎3、4階","lat":35.73244,"lon":139.71432},{"name":"豊島区保健福祉部障害福祉課豊島区立心身障害者福祉センター","province":"東京都","city":"豊島区","address":"東京都豊島区目白5丁目18-8","lat":35.7240752,"lon":139.69585404},{"name":"医療法人社団明善会新大塚榎本クリニック","province":"東京都","city":"豊島区","address":"東京都豊島区南大塚3丁目11-9","lat":35.72828397,"lon":139.72900103},{"name":"医療法人社団明善会榎本クリニック","province":"東京都","city":"豊島区","address":"東京都豊島区西池袋1丁目2-5","lat":35.72775294,"lon":139.70910552},{"name":"LITALICOワークス大塚","province":"東京都","city":"豊島区","address":"東京都豊島区東池袋2丁目13-14","lat":35.73106133,"lon":139.72522902},{"name":"さら就労塾＠ぽれぽれ/池袋","province":"東京都","city":"豊島区","address":"東京都豊島区南池袋2丁目30-7","lat":35.72726985,"lon":139.71602717},{"name":"地域活動支援センターサンハウス","province":"東京都","city":"豊島区","address":"東京都豊島区千川2丁目37-6","lat":35.74264246,"lon":139.69179524},{"name":"株式会社ティラＬｉｎｋキャリアサポートセンター","province":"東京都","city":"豊島区","address":"東京都豊島区東池袋1丁目25-17","lat":35.7280781,"lon":139.7162299},{"name":"社会福祉法人豊芯会地域生活支援センターこかげ","province":"東京都","city":"豊島区","address":"東京都豊島区東池袋4丁目5-1","lat":35.72659779,"lon":139.71902694},{"name":"脳卒中・身体障害専門就労支援センター「リハス」大塚","province":"東京都","city":"豊島区","address":"東京都豊島区北大塚2丁目8-11","lat":35.73338887,"lon":139.72691211},{"name":"リハスワークとしま","province":"東京都","city":"豊島区","address":"東京都豊島区北大塚2丁目8-11","lat":35.73338887,"lon":139.72691211},{"name":"やまて寮　※現在、休止中","province":"東京都","city":"豊島区","address":"豊島区南池袋4-18-9","lat":35.72435,"lon":139.72029},{"name":"啓成会義肢研究製作所","province":"東京都","city":"豊島区","address":"豊島区北大塚1-13-8","lat":35.73186,"lon":139.731352},{"name":"豊島区民社会福祉協議会","province":"東京都","city":"豊島区","address":"豊島区東池袋1-39-2東池袋分庁舎3、4階","lat":35.732564,"lon":139.714344},{"name":"やまて寮※現在、休止中","province":"東京都","city":"豊島区","address":"豊島区南池袋4-18-9","lat":35.72435,"lon":139.72029},{"name":"豊島区民社会福祉協議会","province":"東京都","city":"豊島区","address":"豊島区東池袋1-39-2区役所東池袋分庁舎3、4階","lat":35.73244,"lon":139.71433},{"name":"ふるさと上池ハウス","province":"東京都","city":"豊島区","address":"豊島区上池袋1-18-27","lat":35.734451,"lon":139.721751},{"name":"東京都立大塚病院","province":"東京都","city":"豊島区","address":"豊島区南大塚2-8-1","lat":35.725268,"lon":139.732301},{"name":"豊島区立中央図書館（ひかり文庫）","province":"東京都","city":"豊島区","address":"豊島区東池袋4-5-2ライズアリーナビル5階","lat":35.726948,"lon":139.718902},{"name":"ちとせ橋寮","province":"東京都","city":"豊島区","address":"豊島区雑司ヶ谷3-8-16","lat":35.721184,"lon":139.712905},{"name":"ハピーテラス","province":"東京都","city":"豊島区","address":"東京都豊島区","lat":35.72611722,"lon":139.71660773},{"name":"やまて寮","province":"東京都","city":"豊島区","address":"豊島区南池袋4-18-9","lat":35.724704,"lon":139.720416},{"name":"雑司ヶ谷荘","province":"東京都","city":"豊島区","address":"豊島区雑司が谷3-1-3","lat":35.719162,"lon":139.713694},{"name":"長崎荘","province":"東京都","city":"豊島区","address":"豊島区長崎4-35-1","lat":35.731274,"lon":139.685057},{"name":"東池袋荘","province":"東京都","city":"豊島区","address":"豊島区東池袋2-37-11","lat":35.732525,"lon":139.721815},{"name":"さくら千早ハウス","province":"東京都","city":"豊島区","address":"豊島区千早3-31-8","lat":35.734657,"lon":139.688126},{"name":"豊島区社会福祉協議会","province":"東京都","city":"豊島区","address":"豊島区東池袋1-39-2東池袋分庁舎","lat":35.732564,"lon":139.714344},{"name":"東池袋荘","province":"東京都","city":"豊島区","address":"豊島区東池袋2-37-11","lat":35.73227,"lon":139.72192},{"name":"やまて寮","province":"東京都","city":"豊島区","address":"豊島区南池袋4-18-9","lat":35.72435,"lon":139.72029},{"name":"ちとせ橋寮","province":"東京都","city":"豊島区","address":"豊島区雑司ヶ谷3-8-16","lat":35.72149,"lon":139.71306},{"name":"雑司ヶ谷荘","province":"東京都","city":"豊島区","address":"豊島区雑司が谷3-1-3","lat":35.7195,"lon":139.71396},{"name":"さくら千早ハウス","province":"東京都","city":"豊島区","address":"豊島区千早3-31-8","lat":35.7344,"lon":139.68825},{"name":"長崎荘","province":"東京都","city":"豊島区","address":"豊島区長崎4-35-1","lat":35.73136,"lon":139.68503},{"name":"東京都立大塚病院","province":"東京都","city":"豊島区","address":"豊島区南大塚2-8-1","lat":35.72527,"lon":139.73215},{"name":"啓成会義肢研究製作所","province":"東京都","city":"豊島区","address":"豊島区北大塚1-13-8","lat":35.73182,"lon":139.7318},{"name":"豊島区立中央図書館（ひかり文庫）","province":"東京都","city":"豊島区","address":"豊島区東池袋4-5-2ライズアリーナビル5階","lat":35.7267,"lon":139.71896},{"name":"ふるさと上池ハウス","province":"東京都","city":"豊島区","address":"豊島区上池袋1-18-27","lat":35.73488,"lon":139.72195},{"name":"やまて寮　　※現在、休止中","province":"東京都","city":"豊島区","address":"豊島区南池袋4-18-9","lat":35.72435,"lon":139.72029},{"name":"豊島区民社会福祉協議会","province":"東京都","city":"豊島区","address":"豊島区東池袋1-39-2区役所東池袋分庁舎3、4階","lat":35.73244,"lon":139.71432},{"name":"豊島区保健福祉部障害福祉課豊島区立心身障害者福祉センター","province":"東京都","city":"豊島区","address":"東京都豊島区目白5丁目18-8","lat":35.7240752,"lon":139.69585404},{"name":"医療法人社団明善会新大塚榎本クリニック","province":"東京都","city":"豊島区","address":"東京都豊島区南大塚3丁目11-9","lat":35.72828397,"lon":139.72900103},{"name":"医療法人社団明善会榎本クリニック","province":"東京都","city":"豊島区","address":"東京都豊島区西池袋1丁目2-5","lat":35.72775294,"lon":139.70910552},{"name":"LITALICOワークス大塚","province":"東京都","city":"豊島区","address":"東京都豊島区東池袋2丁目13-14","lat":35.73106133,"lon":139.72522902},{"name":"さら就労塾＠ぽれぽれ/池袋","province":"東京都","city":"豊島区","address":"東京都豊島区南池袋2丁目30-7","lat":35.72726985,"lon":139.71602717},{"name":"地域活動支援センターサンハウス","province":"東京都","city":"豊島区","address":"東京都豊島区千川2丁目37-6","lat":35.74264246,"lon":139.69179524},{"name":"株式会社ティラＬｉｎｋキャリアサポートセンター","province":"東京都","city":"豊島区","address":"東京都豊島区東池袋1丁目25-17","lat":35.7280781,"lon":139.7162299},{"name":"社会福祉法人豊芯会地域生活支援センターこかげ","province":"東京都","city":"豊島区","address":"東京都豊島区東池袋4丁目5-1","lat":35.72659779,"lon":139.71902694},{"name":"脳卒中・身体障害専門就労支援センター「リハス」大塚","province":"東京都","city":"豊島区","address":"東京都豊島区北大塚2丁目8-11","lat":35.73338887,"lon":139.72691211},{"name":"リハスワークとしま","province":"東京都","city":"豊島区","address":"東京都豊島区北大塚2丁目8-11","lat":35.73338887,"lon":139.72691211},{"name":"やまて寮　※現在、休止中","province":"東京都","city":"豊島区","address":"豊島区南池袋4-18-9","lat":35.72435,"lon":139.72029},{"name":"啓成会義肢研究製作所","province":"東京都","city":"豊島区","address":"豊島区北大塚1-13-8","lat":35.73186,"lon":139.731352},{"name":"豊島区民社会福祉協議会","province":"東京都","city":"豊島区","address":"豊島区東池袋1-39-2東池袋分庁舎3、4階","lat":35.732564,"lon":139.714344},{"name":"やまて寮※現在、休止中","province":"東京都","city":"豊島区","address":"豊島区南池袋4-18-9","lat":35.72435,"lon":139.72029},{"name":"豊島区民社会福祉協議会","province":"東京都","city":"豊島区","address":"豊島区東池袋1-39-2区役所東池袋分庁舎3、4階","lat":35.73244,"lon":139.71433},{"name":"ふるさと上池ハウス","province":"東京都","city":"豊島区","address":"豊島区上池袋1-18-27","lat":35.734451,"lon":139.721751},{"name":"東京都立大塚病院","province":"東京都","city":"豊島区","address":"豊島区南大塚2-8-1","lat":35.725268,"lon":139.732301},{"name":"豊島区立中央図書館（ひかり文庫）","province":"東京都","city":"豊島区","address":"豊島区東池袋4-5-2ライズアリーナビル5階","lat":35.726948,"lon":139.718902},{"name":"ちとせ橋寮","province":"東京都","city":"豊島区","address":"豊島区雑司ヶ谷3-8-16","lat":35.721184,"lon":139.712905},{"name":"ハピーテラス","province":"東京都","city":"豊島区","address":"東京都豊島区","lat":35.72611722,"lon":139.71660773},{"name":"やまて寮","province":"東京都","city":"豊島区","address":"豊島区南池袋4-18-9","lat":35.724704,"lon":139.720416},{"name":"雑司ヶ谷荘","province":"東京都","city":"豊島区","address":"豊島区雑司が谷3-1-3","lat":35.719162,"lon":139.713694},{"name":"長崎荘","province":"東京都","city":"豊島区","address":"豊島区長崎4-35-1","lat":35.731274,"lon":139.685057},{"name":"東池袋荘","province":"東京都","city":"豊島区","address":"豊島区東池袋2-37-11","lat":35.732525,"lon":139.721815},{"name":"さくら千早ハウス","province":"東京都","city":"豊島区","address":"豊島区千早3-31-8","lat":35.734657,"lon":139.688126},{"name":"豊島区社会福祉協議会","province":"東京都","city":"豊島区","address":"豊島区東池袋1-39-2東池袋分庁舎","lat":35.732564,"lon":139.714344},{"name":"東池袋荘","province":"東京都","city":"豊島区","address":"豊島区東池袋2-37-11","lat":35.73227,"lon":139.72192},{"name":"やまて寮","province":"東京都","city":"豊島区","address":"豊島区南池袋4-18-9","lat":35.72435,"lon":139.72029},{"name":"ちとせ橋寮","province":"東京都","city":"豊島区","address":"豊島区雑司ヶ谷3-8-16","lat":35.72149,"lon":139.71306},{"name":"雑司ヶ谷荘","province":"東京都","city":"豊島区","address":"豊島区雑司が谷3-1-3","lat":35.7195,"lon":139.71396},{"name":"さくら千早ハウス","province":"東京都","city":"豊島区","address":"豊島区千早3-31-8","lat":35.7344,"lon":139.68825},{"name":"長崎荘","province":"東京都","city":"豊島区","address":"豊島区長崎4-35-1","lat":35.73136,"lon":139.68503},{"name":"東京都立大塚病院","province":"東京都","city":"豊島区","address":"豊島区南大塚2-8-1","lat":35.72527,"lon":139.73215},{"name":"啓成会義肢研究製作所","province":"東京都","city":"豊島区","address":"豊島区北大塚1-13-8","lat":35.73182,"lon":139.7318},{"name":"豊島区立中央図書館（ひかり文庫）","province":"東京都","city":"豊島区","address":"豊島区東池袋4-5-2ライズアリーナビル5階","lat":35.7267,"lon":139.71896},{"name":"ふるさと上池ハウス","province":"東京都","city":"豊島区","address":"豊島区上池袋1-18-27","lat":35.73488,"lon":139.72195},{"name":"やまて寮　　※現在、休止中","province":"東京都","city":"豊島区","address":"豊島区南池袋4-18-9","lat":35.72435,"lon":139.72029},{"name":"豊島区民社会福祉協議会","province":"東京都","city":"豊島区","address":"豊島区東池袋1-39-2区役所東池袋分庁舎3、4階","lat":35.73244,"lon":139.71432},{"name":"豊島区保健福祉部障害福祉課豊島区立心身障害者福祉センター","province":"東京都","city":"豊島区","address":"東京都豊島区目白5丁目18-8","lat":35.7240752,"lon":139.69585404},{"name":"医療法人社団明善会新大塚榎本クリニック","province":"東京都","city":"豊島区","address":"東京都豊島区南大塚3丁目11-9","lat":35.72828397,"lon":139.72900103},{"name":"医療法人社団明善会榎本クリニック","province":"東京都","city":"豊島区","address":"東京都豊島区西池袋1丁目2-5","lat":35.72775294,"lon":139.70910552},{"name":"LITALICOワークス大塚","province":"東京都","city":"豊島区","address":"東京都豊島区東池袋2丁目13-14","lat":35.73106133,"lon":139.72522902},{"name":"さら就労塾＠ぽれぽれ/池袋","province":"東京都","city":"豊島区","address":"東京都豊島区南池袋2丁目30-7","lat":35.72726985,"lon":139.71602717},{"name":"地域活動支援センターサンハウス","province":"東京都","city":"豊島区","address":"東京都豊島区千川2丁目37-6","lat":35.74264246,"lon":139.69179524},{"name":"株式会社ティラＬｉｎｋキャリアサポートセンター","province":"東京都","city":"豊島区","address":"東京都豊島区東池袋1丁目25-17","lat":35.7280781,"lon":139.7162299},{"name":"社会福祉法人豊芯会地域生活支援センターこかげ","province":"東京都","city":"豊島区","address":"東京都豊島区東池袋4丁目5-1","lat":35.72659779,"lon":139.71902694},{"name":"脳卒中・身体障害専門就労支援センター「リハス」大塚","province":"東京都","city":"豊島区","address":"東京都豊島区北大塚2丁目8-11","lat":35.73338887,"lon":139.72691211},{"name":"リハスワークとしま","province":"東京都","city":"豊島区","address":"東京都豊島区北大塚2丁目8-11","lat":35.73338887,"lon":139.72691211},{"name":"やまて寮　※現在、休止中","province":"東京都","city":"豊島区","address":"豊島区南池袋4-18-9","lat":35.72435,"lon":139.72029},{"name":"啓成会義肢研究製作所","province":"東京都","city":"豊島区","address":"豊島区北大塚1-13-8","lat":35.73186,"lon":139.731352},{"name":"豊島区民社会福祉協議会","province":"東京都","city":"豊島区","address":"豊島区東池袋1-39-2東池袋分庁舎3、4階","lat":35.732564,"lon":139.714344},{"name":"やまて寮※現在、休止中","province":"東京都","city":"豊島区","address":"豊島区南池袋4-18-9","lat":35.72435,"lon":139.72029},{"name":"豊島区民社会福祉協議会","province":"東京都","city":"豊島区","address":"豊島区東池袋1-39-2区役所東池袋分庁舎3、4階","lat":35.73244,"lon":139.71433},{"name":"ふるさと上池ハウス","province":"東京都","city":"豊島区","address":"豊島区上池袋1-18-27","lat":35.734451,"lon":139.721751},{"name":"東京都立大塚病院","province":"東京都","city":"豊島区","address":"豊島区南大塚2-8-1","lat":35.725268,"lon":139.732301},{"name":"豊島区立中央図書館（ひかり文庫）","province":"東京都","city":"豊島区","address":"豊島区東池袋4-5-2ライズアリーナビル5階","lat":35.726948,"lon":139.718902},{"name":"ちとせ橋寮","province":"東京都","city":"豊島区","address":"豊島区雑司ヶ谷3-8-16","lat":35.721184,"lon":139.712905},{"name":"ハピーテラス","province":"東京都","city":"豊島区","address":"東京都豊島区","lat":35.72611722,"lon":139.71660773},{"name":"やまて寮","province":"東京都","city":"豊島区","address":"豊島区南池袋4-18-9","lat":35.724704,"lon":139.720416},{"name":"雑司ヶ谷荘","province":"東京都","city":"豊島区","address":"豊島区雑司が谷3-1-3","lat":35.719162,"lon":139.713694},{"name":"長崎荘","province":"東京都","city":"豊島区","address":"豊島区長崎4-35-1","lat":35.731274,"lon":139.685057},{"name":"東池袋荘","province":"東京都","city":"豊島区","address":"豊島区東池袋2-37-11","lat":35.732525,"lon":139.721815},{"name":"さくら千早ハウス","province":"東京都","city":"豊島区","address":"豊島区千早3-31-8","lat":35.734657,"lon":139.688126},{"name":"豊島区社会福祉協議会","province":"東京都","city":"豊島区","address":"豊島区東池袋1-39-2東池袋分庁舎","lat":35.732564,"lon":139.714344},{"name":"東池袋荘","province":"東京都","city":"豊島区","address":"豊島区東池袋2-37-11","lat":35.73227,"lon":139.72192},{"name":"やまて寮","province":"東京都","city":"豊島区","address":"豊島区南池袋4-18-9","lat":35.72435,"lon":139.72029},{"name":"ちとせ橋寮","province":"東京都","city":"豊島区","address":"豊島区雑司ヶ谷3-8-16","lat":35.72149,"lon":139.71306},{"name":"雑司ヶ谷荘","province":"東京都","city":"豊島区","address":"豊島区雑司が谷3-1-3","lat":35.7195,"lon":139.71396},{"name":"さくら千早ハウス","province":"東京都","city":"豊島区","address":"豊島区千早3-31-8","lat":35.7344,"lon":139.68825},{"name":"長崎荘","province":"東京都","city":"豊島区","address":"豊島区長崎4-35-1","lat":35.73136,"lon":139.68503},{"name":"東京都立大塚病院","province":"東京都","city":"豊島区","address":"豊島区南大塚2-8-1","lat":35.72527,"lon":139.73215},{"name":"啓成会義肢研究製作所","province":"東京都","city":"豊島区","address":"豊島区北大塚1-13-8","lat":35.73182,"lon":139.7318},{"name":"豊島区立中央図書館（ひかり文庫）","province":"東京都","city":"豊島区","address":"豊島区東池袋4-5-2ライズアリーナビル5階","lat":35.7267,"lon":139.71896},{"name":"ふるさと上池ハウス","province":"東京都","city":"豊島区","address":"豊島区上池袋1-18-27","lat":35.73488,"lon":139.72195},{"name":"やまて寮　　※現在、休止中","province":"東京都","city":"豊島区","address":"豊島区南池袋4-18-9","lat":35.72435,"lon":139.72029},{"name":"豊島区民社会福祉協議会","province":"東京都","city":"豊島区","address":"豊島区東池袋1-39-2区役所東池袋分庁舎3、4階","lat":35.73244,"lon":139.71432},{"name":"豊島区保健福祉部障害福祉課豊島区立心身障害者福祉センター","province":"東京都","city":"豊島区","address":"東京都豊島区目白5丁目18-8","lat":35.7240752,"lon":139.69585404},{"name":"医療法人社団明善会新大塚榎本クリニック","province":"東京都","city":"豊島区","address":"東京都豊島区南大塚3丁目11-9","lat":35.72828397,"lon":139.72900103},{"name":"医療法人社団明善会榎本クリニック","province":"東京都","city":"豊島区","address":"東京都豊島区西池袋1丁目2-5","lat":35.72775294,"lon":139.70910552},{"name":"LITALICOワークス大塚","province":"東京都","city":"豊島区","address":"東京都豊島区東池袋2丁目13-14","lat":35.73106133,"lon":139.72522902},{"name":"さら就労塾＠ぽれぽれ/池袋","province":"東京都","city":"豊島区","address":"東京都豊島区南池袋2丁目30-7","lat":35.72726985,"lon":139.71602717},{"name":"地域活動支援センターサンハウス","province":"東京都","city":"豊島区","address":"東京都豊島区千川2丁目37-6","lat":35.74264246,"lon":139.69179524},{"name":"株式会社ティラＬｉｎｋキャリアサポートセンター","province":"東京都","city":"豊島区","address":"東京都豊島区東池袋1丁目25-17","lat":35.7280781,"lon":139.7162299},{"name":"社会福祉法人豊芯会地域生活支援センターこかげ","province":"東京都","city":"豊島区","address":"東京都豊島区東池袋4丁目5-1","lat":35.72659779,"lon":139.71902694},{"name":"脳卒中・身体障害専門就労支援センター「リハス」大塚","province":"東京都","city":"豊島区","address":"東京都豊島区北大塚2丁目8-11","lat":35.73338887,"lon":139.72691211},{"name":"リハスワークとしま","province":"東京都","city":"豊島区","address":"東京都豊島区北大塚2丁目8-11","lat":35.73338887,"lon":139.72691211},{"name":"やまて寮　※現在、休止中","province":"東京都","city":"豊島区","address":"豊島区南池袋4-18-9","lat":35.72435,"lon":139.72029},{"name":"啓成会義肢研究製作所","province":"東京都","city":"豊島区","address":"豊島区北大塚1-13-8","lat":35.73186,"lon":139.731352},{"name":"豊島区民社会福祉協議会","province":"東京都","city":"豊島区","address":"豊島区東池袋1-39-2東池袋分庁舎3、4階","lat":35.732564,"lon":139.714344},{"name":"やまて寮※現在、休止中","province":"東京都","city":"豊島区","address":"豊島区南池袋4-18-9","lat":35.72435,"lon":139.72029},{"name":"豊島区民社会福祉協議会","province":"東京都","city":"豊島区","address":"豊島区東池袋1-39-2区役所東池袋分庁舎3、4階","lat":35.73244,"lon":139.71433},{"name":"ふるさと上池ハウス","province":"東京都","city":"豊島区","address":"豊島区上池袋1-18-27","lat":35.734451,"lon":139.721751},{"name":"東京都立大塚病院","province":"東京都","city":"豊島区","address":"豊島区南大塚2-8-1","lat":35.725268,"lon":139.732301},{"name":"豊島区立中央図書館（ひかり文庫）","province":"東京都","city":"豊島区","address":"豊島区東池袋4-5-2ライズアリーナビル5階","lat":35.726948,"lon":139.718902},{"name":"ちとせ橋寮","province":"東京都","city":"豊島区","address":"豊島区雑司ヶ谷3-8-16","lat":35.721184,"lon":139.712905},{"name":"ハピーテラス","province":"東京都","city":"豊島区","address":"東京都豊島区","lat":35.72611722,"lon":139.71660773},{"name":"やまて寮","province":"東京都","city":"豊島区","address":"豊島区南池袋4-18-9","lat":35.724704,"lon":139.720416},{"name":"雑司ヶ谷荘","province":"東京都","city":"豊島区","address":"豊島区雑司が谷3-1-3","lat":35.719162,"lon":139.713694},{"name":"長崎荘","province":"東京都","city":"豊島区","address":"豊島区長崎4-35-1","lat":35.731274,"lon":139.685057},{"name":"東池袋荘","province":"東京都","city":"豊島区","address":"豊島区東池袋2-37-11","lat":35.732525,"lon":139.721815},{"name":"さくら千早ハウス","province":"東京都","city":"豊島区","address":"豊島区千早3-31-8","lat":35.734657,"lon":139.688126},{"name":"豊島区社会福祉協議会","province":"東京都","city":"豊島区","address":"豊島区東池袋1-39-2東池袋分庁舎","lat":35.732564,"lon":139.714344},{"name":"東池袋荘","province":"東京都","city":"豊島区","address":"豊島区東池袋2-37-11","lat":35.73227,"lon":139.72192},{"name":"やまて寮","province":"東京都","city":"豊島区","address":"豊島区南池袋4-18-9","lat":35.72435,"lon":139.72029},{"name":"ちとせ橋寮","province":"東京都","city":"豊島区","address":"豊島区雑司ヶ谷3-8-16","lat":35.72149,"lon":139.71306},{"name":"雑司ヶ谷荘","province":"東京都","city":"豊島区","address":"豊島区雑司が谷3-1-3","lat":35.7195,"lon":139.71396},{"name":"さくら千早ハウス","province":"東京都","city":"豊島区","address":"豊島区千早3-31-8","lat":35.7344,"lon":139.68825},{"name":"長崎荘","province":"東京都","city":"豊島区","address":"豊島区長崎4-35-1","lat":35.73136,"lon":139.68503},{"name":"東京都立大塚病院","province":"東京都","city":"豊島区","address":"豊島区南大塚2-8-1","lat":35.72527,"lon":139.73215},{"name":"啓成会義肢研究製作所","province":"東京都","city":"豊島区","address":"豊島区北大塚1-13-8","lat":35.73182,"lon":139.7318},{"name":"豊島区立中央図書館（ひかり文庫）","province":"東京都","city":"豊島区","address":"豊島区東池袋4-5-2ライズアリーナビル5階","lat":35.7267,"lon":139.71896},{"name":"ふるさと上池ハウス","province":"東京都","city":"豊島区","address":"豊島区上池袋1-18-27","lat":35.73488,"lon":139.72195},{"name":"やまて寮　　※現在、休止中","province":"東京都","city":"豊島区","address":"豊島区南池袋4-18-9","lat":35.72435,"lon":139.72029},{"name":"豊島区民社会福祉協議会","province":"東京都","city":"豊島区","address":"豊島区東池袋1-39-2区役所東池袋分庁舎3、4階","lat":35.73244,"lon":139.71432},{"name":"豊島区保健福祉部障害福祉課豊島区立心身障害者福祉センター","province":"東京都","city":"豊島区","address":"東京都豊島区目白5丁目18-8","lat":35.7240752,"lon":139.69585404},{"name":"医療法人社団明善会新大塚榎本クリニック","province":"東京都","city":"豊島区","address":"東京都豊島区南大塚3丁目11-9","lat":35.72828397,"lon":139.72900103},{"name":"医療法人社団明善会榎本クリニック","province":"東京都","city":"豊島区","address":"東京都豊島区西池袋1丁目2-5","lat":35.72775294,"lon":139.70910552},{"name":"LITALICOワークス大塚","province":"東京都","city":"豊島区","address":"東京都豊島区東池袋2丁目13-14","lat":35.73106133,"lon":139.72522902},{"name":"さら就労塾＠ぽれぽれ/池袋","province":"東京都","city":"豊島区","address":"東京都豊島区南池袋2丁目30-7","lat":35.72726985,"lon":139.71602717},{"name":"地域活動支援センターサンハウス","province":"東京都","city":"豊島区","address":"東京都豊島区千川2丁目37-6","lat":35.74264246,"lon":139.69179524},{"name":"株式会社ティラＬｉｎｋキャリアサポートセンター","province":"東京都","city":"豊島区","address":"東京都豊島区東池袋1丁目25-17","lat":35.7280781,"lon":139.7162299},{"name":"社会福祉法人豊芯会地域生活支援センターこかげ","province":"東京都","city":"豊島区","address":"東京都豊島区東池袋4丁目5-1","lat":35.72659779,"lon":139.71902694},{"name":"脳卒中・身体障害専門就労支援センター「リハス」大塚","province":"東京都","city":"豊島区","address":"東京都豊島区北大塚2丁目8-11","lat":35.73338887,"lon":139.72691211},{"name":"リハスワークとしま","province":"東京都","city":"豊島区","address":"東京都豊島区北大塚2丁目8-11","lat":35.73338887,"lon":139.72691211},{"name":"やまて寮　※現在、休止中","province":"東京都","city":"豊島区","address":"豊島区南池袋4-18-9","lat":35.72435,"lon":139.72029},{"name":"啓成会義肢研究製作所","province":"東京都","city":"豊島区","address":"豊島区北大塚1-13-8","lat":35.73186,"lon":139.731352},{"name":"豊島区民社会福祉協議会","province":"東京都","city":"豊島区","address":"豊島区東池袋1-39-2東池袋分庁舎3、4階","lat":35.732564,"lon":139.714344},{"name":"やまて寮※現在、休止中","province":"東京都","city":"豊島区","address":"豊島区南池袋4-18-9","lat":35.72435,"lon":139.72029},{"name":"豊島区民社会福祉協議会","province":"東京都","city":"豊島区","address":"豊島区東池袋1-39-2区役所東池袋分庁舎3、4階","lat":35.73244,"lon":139.71433},{"name":"ふるさと上池ハウス","province":"東京都","city":"豊島区","address":"豊島区上池袋1-18-27","lat":35.734451,"lon":139.721751},{"name":"東京都立大塚病院","province":"東京都","city":"豊島区","address":"豊島区南大塚2-8-1","lat":35.725268,"lon":139.732301},{"name":"豊島区立中央図書館（ひかり文庫）","province":"東京都","city":"豊島区","address":"豊島区東池袋4-5-2ライズアリーナビル5階","lat":35.726948,"lon":139.718902},{"name":"ちとせ橋寮","province":"東京都","city":"豊島区","address":"豊島区雑司ヶ谷3-8-16","lat":35.721184,"lon":139.712905},{"name":"ハピーテラス","province":"東京都","city":"豊島区","address":"東京都豊島区","lat":35.72611722,"lon":139.71660773},{"name":"やまて寮","province":"東京都","city":"豊島区","address":"豊島区南池袋4-18-9","lat":35.724704,"lon":139.720416},{"name":"雑司ヶ谷荘","province":"東京都","city":"豊島区","address":"豊島区雑司が谷3-1-3","lat":35.719162,"lon":139.713694},{"name":"長崎荘","province":"東京都","city":"豊島区","address":"豊島区長崎4-35-1","lat":35.731274,"lon":139.685057},{"name":"東池袋荘","province":"東京都","city":"豊島区","address":"豊島区東池袋2-37-11","lat":35.732525,"lon":139.721815},{"name":"さくら千早ハウス","province":"東京都","city":"豊島区","address":"豊島区千早3-31-8","lat":35.734657,"lon":139.688126},{"name":"豊島区社会福祉協議会","province":"東京都","city":"豊島区","address":"豊島区東池袋1-39-2東池袋分庁舎","lat":35.732564,"lon":139.714344},{"name":"東池袋荘","province":"東京都","city":"豊島区","address":"豊島区東池袋2-37-11","lat":35.73227,"lon":139.72192},{"name":"やまて寮","province":"東京都","city":"豊島区","address":"豊島区南池袋4-18-9","lat":35.72435,"lon":139.72029},{"name":"ちとせ橋寮","province":"東京都","city":"豊島区","address":"豊島区雑司ヶ谷3-8-16","lat":35.72149,"lon":139.71306},{"name":"雑司ヶ谷荘","province":"東京都","city":"豊島区","address":"豊島区雑司が谷3-1-3","lat":35.7195,"lon":139.71396},{"name":"さくら千早ハウス","province":"東京都","city":"豊島区","address":"豊島区千早3-31-8","lat":35.7344,"lon":139.68825},{"name":"長崎荘","province":"東京都","city":"豊島区","address":"豊島区長崎4-35-1","lat":35.73136,"lon":139.68503},{"name":"東京都立大塚病院","province":"東京都","city":"豊島区","address":"豊島区南大塚2-8-1","lat":35.72527,"lon":139.73215},{"name":"啓成会義肢研究製作所","province":"東京都","city":"豊島区","address":"豊島区北大塚1-13-8","lat":35.73182,"lon":139.7318},{"name":"豊島区立中央図書館（ひかり文庫）","province":"東京都","city":"豊島区","address":"豊島区東池袋4-5-2ライズアリーナビル5階","lat":35.7267,"lon":139.71896},{"name":"ふるさと上池ハウス","province":"東京都","city":"豊島区","address":"豊島区上池袋1-18-27","lat":35.73488,"lon":139.72195},{"name":"やまて寮　　※現在、休止中","province":"東京都","city":"豊島区","address":"豊島区南池袋4-18-9","lat":35.72435,"lon":139.72029},{"name":"豊島区民社会福祉協議会","province":"東京都","city":"豊島区","address":"豊島区東池袋1-39-2区役所東池袋分庁舎3、4階","lat":35.73244,"lon":139.71432},{"name":"豊島区保健福祉部障害福祉課豊島区立心身障害者福祉センター","province":"東京都","city":"豊島区","address":"東京都豊島区目白5丁目18-8","lat":35.7240752,"lon":139.69585404},{"name":"医療法人社団明善会新大塚榎本クリニック","province":"東京都","city":"豊島区","address":"東京都豊島区南大塚3丁目11-9","lat":35.72828397,"lon":139.72900103},{"name":"医療法人社団明善会榎本クリニック","province":"東京都","city":"豊島区","address":"東京都豊島区西池袋1丁目2-5","lat":35.72775294,"lon":139.70910552},{"name":"LITALICOワークス大塚","province":"東京都","city":"豊島区","address":"東京都豊島区東池袋2丁目13-14","lat":35.73106133,"lon":139.72522902},{"name":"さら就労塾＠ぽれぽれ/池袋","province":"東京都","city":"豊島区","address":"東京都豊島区南池袋2丁目30-7","lat":35.72726985,"lon":139.71602717},{"name":"地域活動支援センターサンハウス","province":"東京都","city":"豊島区","address":"東京都豊島区千川2丁目37-6","lat":35.74264246,"lon":139.69179524},{"name":"株式会社ティラＬｉｎｋキャリアサポートセンター","province":"東京都","city":"豊島区","address":"東京都豊島区東池袋1丁目25-17","lat":35.7280781,"lon":139.7162299},{"name":"社会福祉法人豊芯会地域生活支援センターこかげ","province":"東京都","city":"豊島区","address":"東京都豊島区東池袋4丁目5-1","lat":35.72659779,"lon":139.71902694},{"name":"脳卒中・身体障害専門就労支援センター「リハス」大塚","province":"東京都","city":"豊島区","address":"東京都豊島区北大塚2丁目8-11","lat":35.73338887,"lon":139.72691211},{"name":"リハスワークとしま","province":"東京都","city":"豊島区","address":"東京都豊島区北大塚2丁目8-11","lat":35.73338887,"lon":139.72691211},{"name":"やまて寮　※現在、休止中","province":"東京都","city":"豊島区","address":"豊島区南池袋4-18-9","lat":35.72435,"lon":139.72029},{"name":"啓成会義肢研究製作所","province":"東京都","city":"豊島区","address":"豊島区北大塚1-13-8","lat":35.73186,"lon":139.731352},{"name":"豊島区民社会福祉協議会","province":"東京都","city":"豊島区","address":"豊島区東池袋1-39-2東池袋分庁舎3、4階","lat":35.732564,"lon":139.714344},{"name":"やまて寮※現在、休止中","province":"東京都","city":"豊島区","address":"豊島区南池袋4-18-9","lat":35.72435,"lon":139.72029},{"name":"豊島区民社会福祉協議会","province":"東京都","city":"豊島区","address":"豊島区東池袋1-39-2区役所東池袋分庁舎3、4階","lat":35.73244,"lon":139.71433},{"name":"ふるさと上池ハウス","province":"東京都","city":"豊島区","address":"豊島区上池袋1-18-27","lat":35.734451,"lon":139.721751},{"name":"東京都立大塚病院","province":"東京都","city":"豊島区","address":"豊島区南大塚2-8-1","lat":35.725268,"lon":139.732301},{"name":"豊島区立中央図書館（ひかり文庫）","province":"東京都","city":"豊島区","address":"豊島区東池袋4-5-2ライズアリーナビル5階","lat":35.726948,"lon":139.718902},{"name":"ちとせ橋寮","province":"東京都","city":"豊島区","address":"豊島区雑司ヶ谷3-8-16","lat":35.721184,"lon":139.712905},{"name":"ハピーテラス","province":"東京都","city":"豊島区","address":"東京都豊島区","lat":35.72611722,"lon":139.71660773},{"name":"やまて寮","province":"東京都","city":"豊島区","address":"豊島区南池袋4-18-9","lat":35.724704,"lon":139.720416},{"name":"雑司ヶ谷荘","province":"東京都","city":"豊島区","address":"豊島区雑司が谷3-1-3","lat":35.719162,"lon":139.713694},{"name":"長崎荘","province":"東京都","city":"豊島区","address":"豊島区長崎4-35-1","lat":35.731274,"lon":139.685057},{"name":"東池袋荘","province":"東京都","city":"豊島区","address":"豊島区東池袋2-37-11","lat":35.732525,"lon":139.721815},{"name":"さくら千早ハウス","province":"東京都","city":"豊島区","address":"豊島区千早3-31-8","lat":35.734657,"lon":139.688126},{"name":"豊島区社会福祉協議会","province":"東京都","city":"豊島区","address":"豊島区東池袋1-39-2東池袋分庁舎","lat":35.732564,"lon":139.714344},{"name":"東池袋荘","province":"東京都","city":"豊島区","address":"豊島区東池袋2-37-11","lat":35.73227,"lon":139.72192},{"name":"やまて寮","province":"東京都","city":"豊島区","address":"豊島区南池袋4-18-9","lat":35.72435,"lon":139.72029},{"name":"ちとせ橋寮","province":"東京都","city":"豊島区","address":"豊島区雑司ヶ谷3-8-16","lat":35.72149,"lon":139.71306},{"name":"雑司ヶ谷荘","province":"東京都","city":"豊島区","address":"豊島区雑司が谷3-1-3","lat":35.7195,"lon":139.71396},{"name":"さくら千早ハウス","province":"東京都","city":"豊島区","address":"豊島区千早3-31-8","lat":35.7344,"lon":139.68825},{"name":"長崎荘","province":"東京都","city":"豊島区","address":"豊島区長崎4-35-1","lat":35.73136,"lon":139.68503},{"name":"東京都立大塚病院","province":"東京都","city":"豊島区","address":"豊島区南大塚2-8-1","lat":35.72527,"lon":139.73215},{"name":"啓成会義肢研究製作所","province":"東京都","city":"豊島区","address":"豊島区北大塚1-13-8","lat":35.73182,"lon":139.7318},{"name":"豊島区立中央図書館（ひかり文庫）","province":"東京都","city":"豊島区","address":"豊島区東池袋4-5-2ライズアリーナビル5階","lat":35.7267,"lon":139.71896},{"name":"ふるさと上池ハウス","province":"東京都","city":"豊島区","address":"豊島区上池袋1-18-27","lat":35.73488,"lon":139.72195},{"name":"やまて寮　　※現在、休止中","province":"東京都","city":"豊島区","address":"豊島区南池袋4-18-9","lat":35.72435,"lon":139.72029},{"name":"豊島区民社会福祉協議会","province":"東京都","city":"豊島区","address":"豊島区東池袋1-39-2区役所東池袋分庁舎3、4階","lat":35.73244,"lon":139.71432},{"name":"豊島区保健福祉部障害福祉課豊島区立心身障害者福祉センター","province":"東京都","city":"豊島区","address":"東京都豊島区目白5丁目18-8","lat":35.7240752,"lon":139.69585404},{"name":"医療法人社団明善会新大塚榎本クリニック","province":"東京都","city":"豊島区","address":"東京都豊島区南大塚3丁目11-9","lat":35.72828397,"lon":139.72900103},{"name":"医療法人社団明善会榎本クリニック","province":"東京都","city":"豊島区","address":"東京都豊島区西池袋1丁目2-5","lat":35.72775294,"lon":139.70910552},{"name":"LITALICOワークス大塚","province":"東京都","city":"豊島区","address":"東京都豊島区東池袋2丁目13-14","lat":35.73106133,"lon":139.72522902},{"name":"さら就労塾＠ぽれぽれ/池袋","province":"東京都","city":"豊島区","address":"東京都豊島区南池袋2丁目30-7","lat":35.72726985,"lon":139.71602717},{"name":"地域活動支援センターサンハウス","province":"東京都","city":"豊島区","address":"東京都豊島区千川2丁目37-6","lat":35.74264246,"lon":139.69179524},{"name":"株式会社ティラＬｉｎｋキャリアサポートセンター","province":"東京都","city":"豊島区","address":"東京都豊島区東池袋1丁目25-17","lat":35.7280781,"lon":139.7162299},{"name":"社会福祉法人豊芯会地域生活支援センターこかげ","province":"東京都","city":"豊島区","address":"東京都豊島区東池袋4丁目5-1","lat":35.72659779,"lon":139.71902694},{"name":"脳卒中・身体障害専門就労支援センター「リハス」大塚","province":"東京都","city":"豊島区","address":"東京都豊島区北大塚2丁目8-11","lat":35.73338887,"lon":139.72691211},{"name":"リハスワークとしま","province":"東京都","city":"豊島区","address":"東京都豊島区北大塚2丁目8-11","lat":35.73338887,"lon":139.72691211},{"name":"やまて寮　※現在、休止中","province":"東京都","city":"豊島区","address":"豊島区南池袋4-18-9","lat":35.72435,"lon":139.72029},{"name":"啓成会義肢研究製作所","province":"東京都","city":"豊島区","address":"豊島区北大塚1-13-8","lat":35.73186,"lon":139.731352},{"name":"豊島区民社会福祉協議会","province":"東京都","city":"豊島区","address":"豊島区東池袋1-39-2東池袋分庁舎3、4階","lat":35.732564,"lon":139.714344},{"name":"やまて寮※現在、休止中","province":"東京都","city":"豊島区","address":"豊島区南池袋4-18-9","lat":35.72435,"lon":139.72029},{"name":"豊島区民社会福祉協議会","province":"東京都","city":"豊島区","address":"豊島区東池袋1-39-2区役所東池袋分庁舎3、4階","lat":35.73244,"lon":139.71433},{"name":"ふるさと上池ハウス","province":"東京都","city":"豊島区","address":"豊島区上池袋1-18-27","lat":35.734451,"lon":139.721751},{"name":"東京都立大塚病院","province":"東京都","city":"豊島区","address":"豊島区南大塚2-8-1","lat":35.725268,"lon":139.732301},{"name":"豊島区立中央図書館（ひかり文庫）","province":"東京都","city":"豊島区","address":"豊島区東池袋4-5-2ライズアリーナビル5階","lat":35.726948,"lon":139.718902},{"name":"ちとせ橋寮","province":"東京都","city":"豊島区","address":"豊島区雑司ヶ谷3-8-16","lat":35.721184,"lon":139.712905},{"name":"ハピーテラス","province":"東京都","city":"豊島区","address":"東京都豊島区","lat":35.72611722,"lon":139.71660773},{"name":"やまて寮","province":"東京都","city":"豊島区","address":"豊島区南池袋4-18-9","lat":35.724704,"lon":139.720416},{"name":"雑司ヶ谷荘","province":"東京都","city":"豊島区","address":"豊島区雑司が谷3-1-3","lat":35.719162,"lon":139.713694},{"name":"長崎荘","province":"東京都","city":"豊島区","address":"豊島区長崎4-35-1","lat":35.731274,"lon":139.685057},{"name":"東池袋荘","province":"東京都","city":"豊島区","address":"豊島区東池袋2-37-11","lat":35.732525,"lon":139.721815},{"name":"さくら千早ハウス","province":"東京都","city":"豊島区","address":"豊島区千早3-31-8","lat":35.734657,"lon":139.688126},{"name":"豊島区社会福祉協議会","province":"東京都","city":"豊島区","address":"豊島区東池袋1-39-2東池袋分庁舎","lat":35.732564,"lon":139.714344},{"name":"東池袋荘","province":"東京都","city":"豊島区","address":"豊島区東池袋2-37-11","lat":35.73227,"lon":139.72192},{"name":"やまて寮","province":"東京都","city":"豊島区","address":"豊島区南池袋4-18-9","lat":35.72435,"lon":139.72029},{"name":"ちとせ橋寮","province":"東京都","city":"豊島区","address":"豊島区雑司ヶ谷3-8-16","lat":35.72149,"lon":139.71306},{"name":"雑司ヶ谷荘","province":"東京都","city":"豊島区","address":"豊島区雑司が谷3-1-3","lat":35.7195,"lon":139.71396},{"name":"さくら千早ハウス","province":"東京都","city":"豊島区","address":"豊島区千早3-31-8","lat":35.7344,"lon":139.68825},{"name":"長崎荘","province":"東京都","city":"豊島区","address":"豊島区長崎4-35-1","lat":35.73136,"lon":139.68503},{"name":"東京都立大塚病院","province":"東京都","city":"豊島区","address":"豊島区南大塚2-8-1","lat":35.72527,"lon":139.73215},{"name":"啓成会義肢研究製作所","province":"東京都","city":"豊島区","address":"豊島区北大塚1-13-8","lat":35.73182,"lon":139.7318},{"name":"豊島区立中央図書館（ひかり文庫）","province":"東京都","city":"豊島区","address":"豊島区東池袋4-5-2ライズアリーナビル5階","lat":35.7267,"lon":139.71896},{"name":"ふるさと上池ハウス","province":"東京都","city":"豊島区","address":"豊島区上池袋1-18-27","lat":35.73488,"lon":139.72195},{"name":"やまて寮　　※現在、休止中","province":"東京都","city":"豊島区","address":"豊島区南池袋4-18-9","lat":35.72435,"lon":139.72029},{"name":"豊島区民社会福祉協議会","province":"東京都","city":"豊島区","address":"豊島区東池袋1-39-2区役所東池袋分庁舎3、4階","lat":35.73244,"lon":139.71432},{"name":"豊島区保健福祉部障害福祉課豊島区立心身障害者福祉センター","province":"東京都","city":"豊島区","address":"東京都豊島区目白5丁目18-8","lat":35.7240752,"lon":139.69585404},{"name":"医療法人社団明善会新大塚榎本クリニック","province":"東京都","city":"豊島区","address":"東京都豊島区南大塚3丁目11-9","lat":35.72828397,"lon":139.72900103},{"name":"医療法人社団明善会榎本クリニック","province":"東京都","city":"豊島区","address":"東京都豊島区西池袋1丁目2-5","lat":35.72775294,"lon":139.70910552},{"name":"LITALICOワークス大塚","province":"東京都","city":"豊島区","address":"東京都豊島区東池袋2丁目13-14","lat":35.73106133,"lon":139.72522902},{"name":"さら就労塾＠ぽれぽれ/池袋","province":"東京都","city":"豊島区","address":"東京都豊島区南池袋2丁目30-7","lat":35.72726985,"lon":139.71602717},{"name":"地域活動支援センターサンハウス","province":"東京都","city":"豊島区","address":"東京都豊島区千川2丁目37-6","lat":35.74264246,"lon":139.69179524},{"name":"株式会社ティラＬｉｎｋキャリアサポートセンター","province":"東京都","city":"豊島区","address":"東京都豊島区東池袋1丁目25-17","lat":35.7280781,"lon":139.7162299},{"name":"社会福祉法人豊芯会地域生活支援センターこかげ","province":"東京都","city":"豊島区","address":"東京都豊島区東池袋4丁目5-1","lat":35.72659779,"lon":139.71902694},{"name":"脳卒中・身体障害専門就労支援センター「リハス」大塚","province":"東京都","city":"豊島区","address":"東京都豊島区北大塚2丁目8-11","lat":35.73338887,"lon":139.72691211},{"name":"リハスワークとしま","province":"東京都","city":"豊島区","address":"東京都豊島区北大塚2丁目8-11","lat":35.73338887,"lon":139.72691211},{"name":"やまて寮　※現在、休止中","province":"東京都","city":"豊島区","address":"豊島区南池袋4-18-9","lat":35.72435,"lon":139.72029},{"name":"啓成会義肢研究製作所","province":"東京都","city":"豊島区","address":"豊島区北大塚1-13-8","lat":35.73186,"lon":139.731352},{"name":"豊島区民社会福祉協議会","province":"東京都","city":"豊島区","address":"豊島区東池袋1-39-2東池袋分庁舎3、4階","lat":35.732564,"lon":139.714344},{"name":"やまて寮※現在、休止中","province":"東京都","city":"豊島区","address":"豊島区南池袋4-18-9","lat":35.72435,"lon":139.72029},{"name":"豊島区民社会福祉協議会","province":"東京都","city":"豊島区","address":"豊島区東池袋1-39-2区役所東池袋分庁舎3、4階","lat":35.73244,"lon":139.71433},{"name":"ふるさと上池ハウス","province":"東京都","city":"豊島区","address":"豊島区上池袋1-18-27","lat":35.734451,"lon":139.721751},{"name":"東京都立大塚病院","province":"東京都","city":"豊島区","address":"豊島区南大塚2-8-1","lat":35.725268,"lon":139.732301},{"name":"豊島区立中央図書館（ひかり文庫）","province":"東京都","city":"豊島区","address":"豊島区東池袋4-5-2ライズアリーナビル5階","lat":35.726948,"lon":139.718902},{"name":"ちとせ橋寮","province":"東京都","city":"豊島区","address":"豊島区雑司ヶ谷3-8-16","lat":35.721184,"lon":139.712905},{"name":"ハピーテラス","province":"東京都","city":"豊島区","address":"東京都豊島区","lat":35.72611722,"lon":139.71660773},{"name":"やまて寮","province":"東京都","city":"豊島区","address":"豊島区南池袋4-18-9","lat":35.724704,"lon":139.720416},{"name":"雑司ヶ谷荘","province":"東京都","city":"豊島区","address":"豊島区雑司が谷3-1-3","lat":35.719162,"lon":139.713694},{"name":"長崎荘","province":"東京都","city":"豊島区","address":"豊島区長崎4-35-1","lat":35.731274,"lon":139.685057},{"name":"東池袋荘","province":"東京都","city":"豊島区","address":"豊島区東池袋2-37-11","lat":35.732525,"lon":139.721815},{"name":"さくら千早ハウス","province":"東京都","city":"豊島区","address":"豊島区千早3-31-8","lat":35.734657,"lon":139.688126},{"name":"豊島区社会福祉協議会","province":"東京都","city":"豊島区","address":"豊島区東池袋1-39-2東池袋分庁舎","lat":35.732564,"lon":139.714344},{"name":"東池袋荘","province":"東京都","city":"豊島区","address":"豊島区東池袋2-37-11","lat":35.73227,"lon":139.72192},{"name":"やまて寮","province":"東京都","city":"豊島区","address":"豊島区南池袋4-18-9","lat":35.72435,"lon":139.72029},{"name":"ちとせ橋寮","province":"東京都","city":"豊島区","address":"豊島区雑司ヶ谷3-8-16","lat":35.72149,"lon":139.71306},{"name":"雑司ヶ谷荘","province":"東京都","city":"豊島区","address":"豊島区雑司が谷3-1-3","lat":35.7195,"lon":139.71396},{"name":"さくら千早ハウス","province":"東京都","city":"豊島区","address":"豊島区千早3-31-8","lat":35.7344,"lon":139.68825},{"name":"長崎荘","province":"東京都","city":"豊島区","address":"豊島区長崎4-35-1","lat":35.73136,"lon":139.68503},{"name":"東京都立大塚病院","province":"東京都","city":"豊島区","address":"豊島区南大塚2-8-1","lat":35.72527,"lon":139.73215},{"name":"啓成会義肢研究製作所","province":"東京都","city":"豊島区","address":"豊島区北大塚1-13-8","lat":35.73182,"lon":139.7318},{"name":"豊島区立中央図書館（ひかり文庫）","province":"東京都","city":"豊島区","address":"豊島区東池袋4-5-2ライズアリーナビル5階","lat":35.7267,"lon":139.71896},{"name":"ふるさと上池ハウス","province":"東京都","city":"豊島区","address":"豊島区上池袋1-18-27","lat":35.73488,"lon":139.72195},{"name":"やまて寮　　※現在、休止中","province":"東京都","city":"豊島区","address":"豊島区南池袋4-18-9","lat":35.72435,"lon":139.72029},{"name":"豊島区民社会福祉協議会","province":"東京都","city":"豊島区","address":"豊島区東池袋1-39-2区役所東池袋分庁舎3、4階","lat":35.73244,"lon":139.71432},{"name":"豊島区保健福祉部障害福祉課豊島区立心身障害者福祉センター","province":"東京都","city":"豊島区","address":"東京都豊島区目白5丁目18-8","lat":35.7240752,"lon":139.69585404},{"name":"医療法人社団明善会新大塚榎本クリニック","province":"東京都","city":"豊島区","address":"東京都豊島区南大塚3丁目11-9","lat":35.72828397,"lon":139.72900103},{"name":"医療法人社団明善会榎本クリニック","province":"東京都","city":"豊島区","address":"東京都豊島区西池袋1丁目2-5","lat":35.72775294,"lon":139.70910552},{"name":"LITALICOワークス大塚","province":"東京都","city":"豊島区","address":"東京都豊島区東池袋2丁目13-14","lat":35.73106133,"lon":139.72522902},{"name":"さら就労塾＠ぽれぽれ/池袋","province":"東京都","city":"豊島区","address":"東京都豊島区南池袋2丁目30-7","lat":35.72726985,"lon":139.71602717},{"name":"地域活動支援センターサンハウス","province":"東京都","city":"豊島区","address":"東京都豊島区千川2丁目37-6","lat":35.74264246,"lon":139.69179524},{"name":"株式会社ティラＬｉｎｋキャリアサポートセンター","province":"東京都","city":"豊島区","address":"東京都豊島区東池袋1丁目25-17","lat":35.7280781,"lon":139.7162299},{"name":"社会福祉法人豊芯会地域生活支援センターこかげ","province":"東京都","city":"豊島区","address":"東京都豊島区東池袋4丁目5-1","lat":35.72659779,"lon":139.71902694},{"name":"脳卒中・身体障害専門就労支援センター「リハス」大塚","province":"東京都","city":"豊島区","address":"東京都豊島区北大塚2丁目8-11","lat":35.73338887,"lon":139.72691211},{"name":"リハスワークとしま","province":"東京都","city":"豊島区","address":"東京都豊島区北大塚2丁目8-11","lat":35.73338887,"lon":139.72691211},{"name":"やまて寮　※現在、休止中","province":"東京都","city":"豊島区","address":"豊島区南池袋4-18-9","lat":35.72435,"lon":139.72029},{"name":"啓成会義肢研究製作所","province":"東京都","city":"豊島区","address":"豊島区北大塚1-13-8","lat":35.73186,"lon":139.731352},{"name":"豊島区民社会福祉協議会","province":"東京都","city":"豊島区","address":"豊島区東池袋1-39-2東池袋分庁舎3、4階","lat":35.732564,"lon":139.714344},{"name":"やまて寮※現在、休止中","province":"東京都","city":"豊島区","address":"豊島区南池袋4-18-9","lat":35.72435,"lon":139.72029},{"name":"豊島区民社会福祉協議会","province":"東京都","city":"豊島区","address":"豊島区東池袋1-39-2区役所東池袋分庁舎3、4階","lat":35.73244,"lon":139.71433},{"name":"ふるさと上池ハウス","province":"東京都","city":"豊島区","address":"豊島区上池袋1-18-27","lat":35.734451,"lon":139.721751},{"name":"東京都立大塚病院","province":"東京都","city":"豊島区","address":"豊島区南大塚2-8-1","lat":35.725268,"lon":139.732301},{"name":"豊島区立中央図書館（ひかり文庫）","province":"東京都","city":"豊島区","address":"豊島区東池袋4-5-2ライズアリーナビル5階","lat":35.726948,"lon":139.718902},{"name":"ちとせ橋寮","province":"東京都","city":"豊島区","address":"豊島区雑司ヶ谷3-8-16","lat":35.721184,"lon":139.712905},{"name":"ハピーテラス","province":"東京都","city":"豊島区","address":"東京都豊島区","lat":35.72611722,"lon":139.71660773},{"name":"やまて寮","province":"東京都","city":"豊島区","address":"豊島区南池袋4-18-9","lat":35.724704,"lon":139.720416},{"name":"雑司ヶ谷荘","province":"東京都","city":"豊島区","address":"豊島区雑司が谷3-1-3","lat":35.719162,"lon":139.713694},{"name":"長崎荘","province":"東京都","city":"豊島区","address":"豊島区長崎4-35-1","lat":35.731274,"lon":139.685057},{"name":"東池袋荘","province":"東京都","city":"豊島区","address":"豊島区東池袋2-37-11","lat":35.732525,"lon":139.721815},{"name":"さくら千早ハウス","province":"東京都","city":"豊島区","address":"豊島区千早3-31-8","lat":35.734657,"lon":139.688126},{"name":"豊島区社会福祉協議会","province":"東京都","city":"豊島区","address":"豊島区東池袋1-39-2東池袋分庁舎","lat":35.732564,"lon":139.714344},{"name":"東池袋荘","province":"東京都","city":"豊島区","address":"豊島区東池袋2-37-11","lat":35.73227,"lon":139.72192},{"name":"やまて寮","province":"東京都","city":"豊島区","address":"豊島区南池袋4-18-9","lat":35.72435,"lon":139.72029},{"name":"ちとせ橋寮","province":"東京都","city":"豊島区","address":"豊島区雑司ヶ谷3-8-16","lat":35.72149,"lon":139.71306},{"name":"雑司ヶ谷荘","province":"東京都","city":"豊島区","address":"豊島区雑司が谷3-1-3","lat":35.7195,"lon":139.71396},{"name":"さくら千早ハウス","province":"東京都","city":"豊島区","address":"豊島区千早3-31-8","lat":35.7344,"lon":139.68825},{"name":"長崎荘","province":"東京都","city":"豊島区","address":"豊島区長崎4-35-1","lat":35.73136,"lon":139.68503},{"name":"東京都立大塚病院","province":"東京都","city":"豊島区","address":"豊島区南大塚2-8-1","lat":35.72527,"lon":139.73215},{"name":"啓成会義肢研究製作所","province":"東京都","city":"豊島区","address":"豊島区北大塚1-13-8","lat":35.73182,"lon":139.7318},{"name":"豊島区立中央図書館（ひかり文庫）","province":"東京都","city":"豊島区","address":"豊島区東池袋4-5-2ライズアリーナビル5階","lat":35.7267,"lon":139.71896},{"name":"ふるさと上池ハウス","province":"東京都","city":"豊島区","address":"豊島区上池袋1-18-27","lat":35.73488,"lon":139.72195},{"name":"やまて寮　　※現在、休止中","province":"東京都","city":"豊島区","address":"豊島区南池袋4-18-9","lat":35.72435,"lon":139.72029},{"name":"豊島区民社会福祉協議会","province":"東京都","city":"豊島区","address":"豊島区東池袋1-39-2区役所東池袋分庁舎3、4階","lat":35.73244,"lon":139.71432},{"name":"豊島区保健福祉部障害福祉課豊島区立心身障害者福祉センター","province":"東京都","city":"豊島区","address":"東京都豊島区目白5丁目18-8","lat":35.7240752,"lon":139.69585404},{"name":"医療法人社団明善会新大塚榎本クリニック","province":"東京都","city":"豊島区","address":"東京都豊島区南大塚3丁目11-9","lat":35.72828397,"lon":139.72900103},{"name":"医療法人社団明善会榎本クリニック","province":"東京都","city":"豊島区","address":"東京都豊島区西池袋1丁目2-5","lat":35.72775294,"lon":139.70910552},{"name":"LITALICOワークス大塚","province":"東京都","city":"豊島区","address":"東京都豊島区東池袋2丁目13-14","lat":35.73106133,"lon":139.72522902},{"name":"さら就労塾＠ぽれぽれ/池袋","province":"東京都","city":"豊島区","address":"東京都豊島区南池袋2丁目30-7","lat":35.72726985,"lon":139.71602717},{"name":"地域活動支援センターサンハウス","province":"東京都","city":"豊島区","address":"東京都豊島区千川2丁目37-6","lat":35.74264246,"lon":139.69179524},{"name":"株式会社ティラＬｉｎｋキャリアサポートセンター","province":"東京都","city":"豊島区","address":"東京都豊島区東池袋1丁目25-17","lat":35.7280781,"lon":139.7162299},{"name":"社会福祉法人豊芯会地域生活支援センターこかげ","province":"東京都","city":"豊島区","address":"東京都豊島区東池袋4丁目5-1","lat":35.72659779,"lon":139.71902694},{"name":"脳卒中・身体障害専門就労支援センター「リハス」大塚","province":"東京都","city":"豊島区","address":"東京都豊島区北大塚2丁目8-11","lat":35.73338887,"lon":139.72691211},{"name":"リハスワークとしま","province":"東京都","city":"豊島区","address":"東京都豊島区北大塚2丁目8-11","lat":35.73338887,"lon":139.72691211},{"name":"やまて寮　※現在、休止中","province":"東京都","city":"豊島区","address":"豊島区南池袋4-18-9","lat":35.72435,"lon":139.72029},{"name":"啓成会義肢研究製作所","province":"東京都","city":"豊島区","address":"豊島区北大塚1-13-8","lat":35.73186,"lon":139.731352},{"name":"豊島区民社会福祉協議会","province":"東京都","city":"豊島区","address":"豊島区東池袋1-39-2東池袋分庁舎3、4階","lat":35.732564,"lon":139.714344},{"name":"やまて寮※現在、休止中","province":"東京都","city":"豊島区","address":"豊島区南池袋4-18-9","lat":35.72435,"lon":139.72029},{"name":"豊島区民社会福祉協議会","province":"東京都","city":"豊島区","address":"豊島区東池袋1-39-2区役所東池袋分庁舎3、4階","lat":35.73244,"lon":139.71433},{"name":"ふるさと上池ハウス","province":"東京都","city":"豊島区","address":"豊島区上池袋1-18-27","lat":35.734451,"lon":139.721751},{"name":"東京都立大塚病院","province":"東京都","city":"豊島区","address":"豊島区南大塚2-8-1","lat":35.725268,"lon":139.732301},{"name":"豊島区立中央図書館（ひかり文庫）","province":"東京都","city":"豊島区","address":"豊島区東池袋4-5-2ライズアリーナビル5階","lat":35.726948,"lon":139.718902},{"name":"ちとせ橋寮","province":"東京都","city":"豊島区","address":"豊島区雑司ヶ谷3-8-16","lat":35.721184,"lon":139.712905},{"name":"ハピーテラス","province":"東京都","city":"豊島区","address":"東京都豊島区","lat":35.72611722,"lon":139.71660773},{"name":"やまて寮","province":"東京都","city":"豊島区","address":"豊島区南池袋4-18-9","lat":35.724704,"lon":139.720416},{"name":"雑司ヶ谷荘","province":"東京都","city":"豊島区","address":"豊島区雑司が谷3-1-3","lat":35.719162,"lon":139.713694},{"name":"長崎荘","province":"東京都","city":"豊島区","address":"豊島区長崎4-35-1","lat":35.731274,"lon":139.685057},{"name":"東池袋荘","province":"東京都","city":"豊島区","address":"豊島区東池袋2-37-11","lat":35.732525,"lon":139.721815},{"name":"さくら千早ハウス","province":"東京都","city":"豊島区","address":"豊島区千早3-31-8","lat":35.734657,"lon":139.688126},{"name":"豊島区社会福祉協議会","province":"東京都","city":"豊島区","address":"豊島区東池袋1-39-2東池袋分庁舎","lat":35.732564,"lon":139.714344},{"name":"東池袋荘","province":"東京都","city":"豊島区","address":"豊島区東池袋2-37-11","lat":35.73227,"lon":139.72192},{"name":"やまて寮","province":"東京都","city":"豊島区","address":"豊島区南池袋4-18-9","lat":35.72435,"lon":139.72029},{"name":"ちとせ橋寮","province":"東京都","city":"豊島区","address":"豊島区雑司ヶ谷3-8-16","lat":35.72149,"lon":139.71306},{"name":"雑司ヶ谷荘","province":"東京都","city":"豊島区","address":"豊島区雑司が谷3-1-3","lat":35.7195,"lon":139.71396},{"name":"さくら千早ハウス","province":"東京都","city":"豊島区","address":"豊島区千早3-31-8","lat":35.7344,"lon":139.68825},{"name":"長崎荘","province":"東京都","city":"豊島区","address":"豊島区長崎4-35-1","lat":35.73136,"lon":139.68503},{"name":"東京都立大塚病院","province":"東京都","city":"豊島区","address":"豊島区南大塚2-8-1","lat":35.72527,"lon":139.73215},{"name":"啓成会義肢研究製作所","province":"東京都","city":"豊島区","address":"豊島区北大塚1-13-8","lat":35.73182,"lon":139.7318},{"name":"豊島区立中央図書館（ひかり文庫）","province":"東京都","city":"豊島区","address":"豊島区東池袋4-5-2ライズアリーナビル5階","lat":35.7267,"lon":139.71896},{"name":"ふるさと上池ハウス","province":"東京都","city":"豊島区","address":"豊島区上池袋1-18-27","lat":35.73488,"lon":139.72195},{"name":"やまて寮　　※現在、休止中","province":"東京都","city":"豊島区","address":"豊島区南池袋4-18-9","lat":35.72435,"lon":139.72029},{"name":"豊島区民社会福祉協議会","province":"東京都","city":"豊島区","address":"豊島区東池袋1-39-2区役所東池袋分庁舎3、4階","lat":35.73244,"lon":139.71432},{"name":"豊島区保健福祉部障害福祉課豊島区立心身障害者福祉センター","province":"東京都","city":"豊島区","address":"東京都豊島区目白5丁目18-8","lat":35.7240752,"lon":139.69585404},{"name":"医療法人社団明善会新大塚榎本クリニック","province":"東京都","city":"豊島区","address":"東京都豊島区南大塚3丁目11-9","lat":35.72828397,"lon":139.72900103},{"name":"医療法人社団明善会榎本クリニック","province":"東京都","city":"豊島区","address":"東京都豊島区西池袋1丁目2-5","lat":35.72775294,"lon":139.70910552},{"name":"LITALICOワークス大塚","province":"東京都","city":"豊島区","address":"東京都豊島区東池袋2丁目13-14","lat":35.73106133,"lon":139.72522902},{"name":"さら就労塾＠ぽれぽれ/池袋","province":"東京都","city":"豊島区","address":"東京都豊島区南池袋2丁目30-7","lat":35.72726985,"lon":139.71602717},{"name":"地域活動支援センターサンハウス","province":"東京都","city":"豊島区","address":"東京都豊島区千川2丁目37-6","lat":35.74264246,"lon":139.69179524},{"name":"株式会社ティラＬｉｎｋキャリアサポートセンター","province":"東京都","city":"豊島区","address":"東京都豊島区東池袋1丁目25-17","lat":35.7280781,"lon":139.7162299},{"name":"社会福祉法人豊芯会地域生活支援センターこかげ","province":"東京都","city":"豊島区","address":"東京都豊島区東池袋4丁目5-1","lat":35.72659779,"lon":139.71902694},{"name":"脳卒中・身体障害専門就労支援センター「リハス」大塚","province":"東京都","city":"豊島区","address":"東京都豊島区北大塚2丁目8-11","lat":35.73338887,"lon":139.72691211},{"name":"リハスワークとしま","province":"東京都","city":"豊島区","address":"東京都豊島区北大塚2丁目8-11","lat":35.73338887,"lon":139.72691211},{"name":"やまて寮　※現在、休止中","province":"東京都","city":"豊島区","address":"豊島区南池袋4-18-9","lat":35.72435,"lon":139.72029},{"name":"啓成会義肢研究製作所","province":"東京都","city":"豊島区","address":"豊島区北大塚1-13-8","lat":35.73186,"lon":139.731352},{"name":"豊島区民社会福祉協議会","province":"東京都","city":"豊島区","address":"豊島区東池袋1-39-2東池袋分庁舎3、4階","lat":35.732564,"lon":139.714344},{"name":"やまて寮※現在、休止中","province":"東京都","city":"豊島区","address":"豊島区南池袋4-18-9","lat":35.72435,"lon":139.72029},{"name":"豊島区民社会福祉協議会","province":"東京都","city":"豊島区","address":"豊島区東池袋1-39-2区役所東池袋分庁舎3、4階","lat":35.73244,"lon":139.71433},{"name":"ふるさと上池ハウス","province":"東京都","city":"豊島区","address":"豊島区上池袋1-18-27","lat":35.734451,"lon":139.721751},{"name":"東京都立大塚病院","province":"東京都","city":"豊島区","address":"豊島区南大塚2-8-1","lat":35.725268,"lon":139.732301},{"name":"豊島区立中央図書館（ひかり文庫）","province":"東京都","city":"豊島区","address":"豊島区東池袋4-5-2ライズアリーナビル5階","lat":35.726948,"lon":139.718902},{"name":"ちとせ橋寮","province":"東京都","city":"豊島区","address":"豊島区雑司ヶ谷3-8-16","lat":35.721184,"lon":139.712905},{"name":"ハピーテラス","province":"東京都","city":"豊島区","address":"東京都豊島区","lat":35.72611722,"lon":139.71660773},{"name":"やまて寮","province":"東京都","city":"豊島区","address":"豊島区南池袋4-18-9","lat":35.724704,"lon":139.720416},{"name":"雑司ヶ谷荘","province":"東京都","city":"豊島区","address":"豊島区雑司が谷3-1-3","lat":35.719162,"lon":139.713694},{"name":"長崎荘","province":"東京都","city":"豊島区","address":"豊島区長崎4-35-1","lat":35.731274,"lon":139.685057},{"name":"東池袋荘","province":"東京都","city":"豊島区","address":"豊島区東池袋2-37-11","lat":35.732525,"lon":139.721815},{"name":"さくら千早ハウス","province":"東京都","city":"豊島区","address":"豊島区千早3-31-8","lat":35.734657,"lon":139.688126},{"name":"豊島区社会福祉協議会","province":"東京都","city":"豊島区","address":"豊島区東池袋1-39-2東池袋分庁舎","lat":35.732564,"lon":139.714344},{"name":"東池袋荘","province":"東京都","city":"豊島区","address":"豊島区東池袋2-37-11","lat":35.73227,"lon":139.72192},{"name":"やまて寮","province":"東京都","city":"豊島区","address":"豊島区南池袋4-18-9","lat":35.72435,"lon":139.72029},{"name":"ちとせ橋寮","province":"東京都","city":"豊島区","address":"豊島区雑司ヶ谷3-8-16","lat":35.72149,"lon":139.71306},{"name":"雑司ヶ谷荘","province":"東京都","city":"豊島区","address":"豊島区雑司が谷3-1-3","lat":35.7195,"lon":139.71396},{"name":"さくら千早ハウス","province":"東京都","city":"豊島区","address":"豊島区千早3-31-8","lat":35.7344,"lon":139.68825},{"name":"長崎荘","province":"東京都","city":"豊島区","address":"豊島区長崎4-35-1","lat":35.73136,"lon":139.68503},{"name":"東京都立大塚病院","province":"東京都","city":"豊島区","address":"豊島区南大塚2-8-1","lat":35.72527,"lon":139.73215},{"name":"啓成会義肢研究製作所","province":"東京都","city":"豊島区","address":"豊島区北大塚1-13-8","lat":35.73182,"lon":139.7318},{"name":"豊島区立中央図書館（ひかり文庫）","province":"東京都","city":"豊島区","address":"豊島区東池袋4-5-2ライズアリーナビル5階","lat":35.7267,"lon":139.71896},{"name":"ふるさと上池ハウス","province":"東京都","city":"豊島区","address":"豊島区上池袋1-18-27","lat":35.73488,"lon":139.72195},{"name":"やまて寮　　※現在、休止中","province":"東京都","city":"豊島区","address":"豊島区南池袋4-18-9","lat":35.72435,"lon":139.72029},{"name":"豊島区民社会福祉協議会","province":"東京都","city":"豊島区","address":"豊島区東池袋1-39-2区役所東池袋分庁舎3、4階","lat":35.73244,"lon":139.71432},{"name":"豊島区保健福祉部障害福祉課豊島区立心身障害者福祉センター","province":"東京都","city":"豊島区","address":"東京都豊島区目白5丁目18-8","lat":35.7240752,"lon":139.69585404},{"name":"医療法人社団明善会新大塚榎本クリニック","province":"東京都","city":"豊島区","address":"東京都豊島区南大塚3丁目11-9","lat":35.72828397,"lon":139.72900103},{"name":"医療法人社団明善会榎本クリニック","province":"東京都","city":"豊島区","address":"東京都豊島区西池袋1丁目2-5","lat":35.72775294,"lon":139.70910552},{"name":"LITALICOワークス大塚","province":"東京都","city":"豊島区","address":"東京都豊島区東池袋2丁目13-14","lat":35.73106133,"lon":139.72522902},{"name":"さら就労塾＠ぽれぽれ/池袋","province":"東京都","city":"豊島区","address":"東京都豊島区南池袋2丁目30-7","lat":35.72726985,"lon":139.71602717},{"name":"地域活動支援センターサンハウス","province":"東京都","city":"豊島区","address":"東京都豊島区千川2丁目37-6","lat":35.74264246,"lon":139.69179524},{"name":"株式会社ティラＬｉｎｋキャリアサポートセンター","province":"東京都","city":"豊島区","address":"東京都豊島区東池袋1丁目25-17","lat":35.7280781,"lon":139.7162299},{"name":"社会福祉法人豊芯会地域生活支援センターこかげ","province":"東京都","city":"豊島区","address":"東京都豊島区東池袋4丁目5-1","lat":35.72659779,"lon":139.71902694},{"name":"脳卒中・身体障害専門就労支援センター「リハス」大塚","province":"東京都","city":"豊島区","address":"東京都豊島区北大塚2丁目8-11","lat":35.73338887,"lon":139.72691211},{"name":"リハスワークとしま","province":"東京都","city":"豊島区","address":"東京都豊島区北大塚2丁目8-11","lat":35.73338887,"lon":139.72691211},{"name":"やまて寮　※現在、休止中","province":"東京都","city":"豊島区","address":"豊島区南池袋4-18-9","lat":35.72435,"lon":139.72029},{"name":"啓成会義肢研究製作所","province":"東京都","city":"豊島区","address":"豊島区北大塚1-13-8","lat":35.73186,"lon":139.731352},{"name":"豊島区民社会福祉協議会","province":"東京都","city":"豊島区","address":"豊島区東池袋1-39-2東池袋分庁舎3、4階","lat":35.732564,"lon":139.714344},{"name":"やまて寮※現在、休止中","province":"東京都","city":"豊島区","address":"豊島区南池袋4-18-9","lat":35.72435,"lon":139.72029},{"name":"豊島区民社会福祉協議会","province":"東京都","city":"豊島区","address":"豊島区東池袋1-39-2区役所東池袋分庁舎3、4階","lat":35.73244,"lon":139.71433},{"name":"ふるさと上池ハウス","province":"東京都","city":"豊島区","address":"豊島区上池袋1-18-27","lat":35.734451,"lon":139.721751},{"name":"東京都立大塚病院","province":"東京都","city":"豊島区","address":"豊島区南大塚2-8-1","lat":35.725268,"lon":139.732301},{"name":"豊島区立中央図書館（ひかり文庫）","province":"東京都","city":"豊島区","address":"豊島区東池袋4-5-2ライズアリーナビル5階","lat":35.726948,"lon":139.718902},{"name":"ちとせ橋寮","province":"東京都","city":"豊島区","address":"豊島区雑司ヶ谷3-8-16","lat":35.721184,"lon":139.712905},{"name":"ハピーテラス","province":"東京都","city":"豊島区","address":"東京都豊島区","lat":35.72611722,"lon":139.71660773},{"name":"やまて寮","province":"東京都","city":"豊島区","address":"豊島区南池袋4-18-9","lat":35.724704,"lon":139.720416},{"name":"雑司ヶ谷荘","province":"東京都","city":"豊島区","address":"豊島区雑司が谷3-1-3","lat":35.719162,"lon":139.713694},{"name":"長崎荘","province":"東京都","city":"豊島区","address":"豊島区長崎4-35-1","lat":35.731274,"lon":139.685057},{"name":"東池袋荘","province":"東京都","city":"豊島区","address":"豊島区東池袋2-37-11","lat":35.732525,"lon":139.721815},{"name":"さくら千早ハウス","province":"東京都","city":"豊島区","address":"豊島区千早3-31-8","lat":35.734657,"lon":139.688126},{"name":"豊島区社会福祉協議会","province":"東京都","city":"豊島区","address":"豊島区東池袋1-39-2東池袋分庁舎","lat":35.732564,"lon":139.714344},{"name":"東池袋荘","province":"東京都","city":"豊島区","address":"豊島区東池袋2-37-11","lat":35.73227,"lon":139.72192},{"name":"やまて寮","province":"東京都","city":"豊島区","address":"豊島区南池袋4-18-9","lat":35.72435,"lon":139.72029},{"name":"ちとせ橋寮","province":"東京都","city":"豊島区","address":"豊島区雑司ヶ谷3-8-16","lat":35.72149,"lon":139.71306},{"name":"雑司ヶ谷荘","province":"東京都","city":"豊島区","address":"豊島区雑司が谷3-1-3","lat":35.7195,"lon":139.71396},{"name":"さくら千早ハウス","province":"東京都","city":"豊島区","address":"豊島区千早3-31-8","lat":35.7344,"lon":139.68825},{"name":"長崎荘","province":"東京都","city":"豊島区","address":"豊島区長崎4-35-1","lat":35.73136,"lon":139.68503},{"name":"東京都立大塚病院","province":"東京都","city":"豊島区","address":"豊島区南大塚2-8-1","lat":35.72527,"lon":139.73215},{"name":"啓成会義肢研究製作所","province":"東京都","city":"豊島区","address":"豊島区北大塚1-13-8","lat":35.73182,"lon":139.7318},{"name":"豊島区立中央図書館（ひかり文庫）","province":"東京都","city":"豊島区","address":"豊島区東池袋4-5-2ライズアリーナビル5階","lat":35.7267,"lon":139.71896},{"name":"ふるさと上池ハウス","province":"東京都","city":"豊島区","address":"豊島区上池袋1-18-27","lat":35.73488,"lon":139.72195},{"name":"やまて寮　　※現在、休止中","province":"東京都","city":"豊島区","address":"豊島区南池袋4-18-9","lat":35.72435,"lon":139.72029},{"name":"豊島区民社会福祉協議会","province":"東京都","city":"豊島区","address":"豊島区東池袋1-39-2区役所東池袋分庁舎3、4階","lat":35.73244,"lon":139.71432},{"name":"豊島区保健福祉部障害福祉課豊島区立心身障害者福祉センター","province":"東京都","city":"豊島区","address":"東京都豊島区目白5丁目18-8","lat":35.7240752,"lon":139.69585404},{"name":"医療法人社団明善会新大塚榎本クリニック","province":"東京都","city":"豊島区","address":"東京都豊島区南大塚3丁目11-9","lat":35.72828397,"lon":139.72900103},{"name":"医療法人社団明善会榎本クリニック","province":"東京都","city":"豊島区","address":"東京都豊島区西池袋1丁目2-5","lat":35.72775294,"lon":139.70910552},{"name":"LITALICOワークス大塚","province":"東京都","city":"豊島区","address":"東京都豊島区東池袋2丁目13-14","lat":35.73106133,"lon":139.72522902},{"name":"さら就労塾＠ぽれぽれ/池袋","province":"東京都","city":"豊島区","address":"東京都豊島区南池袋2丁目30-7","lat":35.72726985,"lon":139.71602717},{"name":"地域活動支援センターサンハウス","province":"東京都","city":"豊島区","address":"東京都豊島区千川2丁目37-6","lat":35.74264246,"lon":139.69179524},{"name":"株式会社ティラＬｉｎｋキャリアサポートセンター","province":"東京都","city":"豊島区","address":"東京都豊島区東池袋1丁目25-17","lat":35.7280781,"lon":139.7162299},{"name":"社会福祉法人豊芯会地域生活支援センターこかげ","province":"東京都","city":"豊島区","address":"東京都豊島区東池袋4丁目5-1","lat":35.72659779,"lon":139.71902694},{"name":"脳卒中・身体障害専門就労支援センター「リハス」大塚","province":"東京都","city":"豊島区","address":"東京都豊島区北大塚2丁目8-11","lat":35.73338887,"lon":139.72691211},{"name":"リハスワークとしま","province":"東京都","city":"豊島区","address":"東京都豊島区北大塚2丁目8-11","lat":35.73338887,"lon":139.72691211},{"name":"やまて寮　※現在、休止中","province":"東京都","city":"豊島区","address":"豊島区南池袋4-18-9","lat":35.72435,"lon":139.72029},{"name":"啓成会義肢研究製作所","province":"東京都","city":"豊島区","address":"豊島区北大塚1-13-8","lat":35.73186,"lon":139.731352},{"name":"豊島区民社会福祉協議会","province":"東京都","city":"豊島区","address":"豊島区東池袋1-39-2東池袋分庁舎3、4階","lat":35.732564,"lon":139.714344},{"name":"やまて寮※現在、休止中","province":"東京都","city":"豊島区","address":"豊島区南池袋4-18-9","lat":35.72435,"lon":139.72029},{"name":"豊島区民社会福祉協議会","province":"東京都","city":"豊島区","address":"豊島区東池袋1-39-2区役所東池袋分庁舎3、4階","lat":35.73244,"lon":139.71433},{"name":"ふるさと上池ハウス","province":"東京都","city":"豊島区","address":"豊島区上池袋1-18-27","lat":35.734451,"lon":139.721751},{"name":"東京都立大塚病院","province":"東京都","city":"豊島区","address":"豊島区南大塚2-8-1","lat":35.725268,"lon":139.732301},{"name":"豊島区立中央図書館（ひかり文庫）","province":"東京都","city":"豊島区","address":"豊島区東池袋4-5-2ライズアリーナビル5階","lat":35.726948,"lon":139.718902},{"name":"ちとせ橋寮","province":"東京都","city":"豊島区","address":"豊島区雑司ヶ谷3-8-16","lat":35.721184,"lon":139.712905},{"name":"ハピーテラス","province":"東京都","city":"豊島区","address":"東京都豊島区","lat":35.72611722,"lon":139.71660773},{"name":"やまて寮","province":"東京都","city":"豊島区","address":"豊島区南池袋4-18-9","lat":35.724704,"lon":139.720416},{"name":"雑司ヶ谷荘","province":"東京都","city":"豊島区","address":"豊島区雑司が谷3-1-3","lat":35.719162,"lon":139.713694},{"name":"長崎荘","province":"東京都","city":"豊島区","address":"豊島区長崎4-35-1","lat":35.731274,"lon":139.685057},{"name":"東池袋荘","province":"東京都","city":"豊島区","address":"豊島区東池袋2-37-11","lat":35.732525,"lon":139.721815},{"name":"さくら千早ハウス","province":"東京都","city":"豊島区","address":"豊島区千早3-31-8","lat":35.734657,"lon":139.688126},{"name":"豊島区社会福祉協議会","province":"東京都","city":"豊島区","address":"豊島区東池袋1-39-2東池袋分庁舎","lat":35.732564,"lon":139.714344},{"name":"東池袋荘","province":"東京都","city":"豊島区","address":"豊島区東池袋2-37-11","lat":35.73227,"lon":139.72192},{"name":"やまて寮","province":"東京都","city":"豊島区","address":"豊島区南池袋4-18-9","lat":35.72435,"lon":139.72029},{"name":"ちとせ橋寮","province":"東京都","city":"豊島区","address":"豊島区雑司ヶ谷3-8-16","lat":35.72149,"lon":139.71306},{"name":"雑司ヶ谷荘","province":"東京都","city":"豊島区","address":"豊島区雑司が谷3-1-3","lat":35.7195,"lon":139.71396},{"name":"さくら千早ハウス","province":"東京都","city":"豊島区","address":"豊島区千早3-31-8","lat":35.7344,"lon":139.68825},{"name":"長崎荘","province":"東京都","city":"豊島区","address":"豊島区長崎4-35-1","lat":35.73136,"lon":139.68503},{"name":"東京都立大塚病院","province":"東京都","city":"豊島区","address":"豊島区南大塚2-8-1","lat":35.72527,"lon":139.73215},{"name":"啓成会義肢研究製作所","province":"東京都","city":"豊島区","address":"豊島区北大塚1-13-8","lat":35.73182,"lon":139.7318},{"name":"豊島区立中央図書館（ひかり文庫）","province":"東京都","city":"豊島区","address":"豊島区東池袋4-5-2ライズアリーナビル5階","lat":35.7267,"lon":139.71896},{"name":"ふるさと上池ハウス","province":"東京都","city":"豊島区","address":"豊島区上池袋1-18-27","lat":35.73488,"lon":139.72195},{"name":"やまて寮　　※現在、休止中","province":"東京都","city":"豊島区","address":"豊島区南池袋4-18-9","lat":35.72435,"lon":139.72029},{"name":"豊島区民社会福祉協議会","province":"東京都","city":"豊島区","address":"豊島区東池袋1-39-2区役所東池袋分庁舎3、4階","lat":35.73244,"lon":139.71432},{"name":"豊島区保健福祉部障害福祉課豊島区立心身障害者福祉センター","province":"東京都","city":"豊島区","address":"東京都豊島区目白5丁目18-8","lat":35.7240752,"lon":139.69585404},{"name":"医療法人社団明善会新大塚榎本クリニック","province":"東京都","city":"豊島区","address":"東京都豊島区南大塚3丁目11-9","lat":35.72828397,"lon":139.72900103},{"name":"医療法人社団明善会榎本クリニック","province":"東京都","city":"豊島区","address":"東京都豊島区西池袋1丁目2-5","lat":35.72775294,"lon":139.70910552},{"name":"LITALICOワークス大塚","province":"東京都","city":"豊島区","address":"東京都豊島区東池袋2丁目13-14","lat":35.73106133,"lon":139.72522902},{"name":"さら就労塾＠ぽれぽれ/池袋","province":"東京都","city":"豊島区","address":"東京都豊島区南池袋2丁目30-7","lat":35.72726985,"lon":139.71602717},{"name":"地域活動支援センターサンハウス","province":"東京都","city":"豊島区","address":"東京都豊島区千川2丁目37-6","lat":35.74264246,"lon":139.69179524},{"name":"株式会社ティラＬｉｎｋキャリアサポートセンター","province":"東京都","city":"豊島区","address":"東京都豊島区東池袋1丁目25-17","lat":35.7280781,"lon":139.7162299},{"name":"社会福祉法人豊芯会地域生活支援センターこかげ","province":"東京都","city":"豊島区","address":"東京都豊島区東池袋4丁目5-1","lat":35.72659779,"lon":139.71902694},{"name":"脳卒中・身体障害専門就労支援センター「リハス」大塚","province":"東京都","city":"豊島区","address":"東京都豊島区北大塚2丁目8-11","lat":35.73338887,"lon":139.72691211},{"name":"リハスワークとしま","province":"東京都","city":"豊島区","address":"東京都豊島区北大塚2丁目8-11","lat":35.73338887,"lon":139.72691211},{"name":"やまて寮　※現在、休止中","province":"東京都","city":"豊島区","address":"豊島区南池袋4-18-9","lat":35.72435,"lon":139.72029},{"name":"啓成会義肢研究製作所","province":"東京都","city":"豊島区","address":"豊島区北大塚1-13-8","lat":35.73186,"lon":139.731352},{"name":"豊島区民社会福祉協議会","province":"東京都","city":"豊島区","address":"豊島区東池袋1-39-2東池袋分庁舎3、4階","lat":35.732564,"lon":139.714344},{"name":"やまて寮※現在、休止中","province":"東京都","city":"豊島区","address":"豊島区南池袋4-18-9","lat":35.72435,"lon":139.72029},{"name":"豊島区民社会福祉協議会","province":"東京都","city":"豊島区","address":"豊島区東池袋1-39-2区役所東池袋分庁舎3、4階","lat":35.73244,"lon":139.71433},{"name":"ふるさと上池ハウス","province":"東京都","city":"豊島区","address":"豊島区上池袋1-18-27","lat":35.734451,"lon":139.721751},{"name":"東京都立大塚病院","province":"東京都","city":"豊島区","address":"豊島区南大塚2-8-1","lat":35.725268,"lon":139.732301},{"name":"豊島区立中央図書館（ひかり文庫）","province":"東京都","city":"豊島区","address":"豊島区東池袋4-5-2ライズアリーナビル5階","lat":35.726948,"lon":139.718902},{"name":"ちとせ橋寮","province":"東京都","city":"豊島区","address":"豊島区雑司ヶ谷3-8-16","lat":35.721184,"lon":139.712905},{"name":"ハピーテラス","province":"東京都","city":"豊島区","address":"東京都豊島区","lat":35.72611722,"lon":139.71660773},{"name":"やまて寮","province":"東京都","city":"豊島区","address":"豊島区南池袋4-18-9","lat":35.724704,"lon":139.720416},{"name":"雑司ヶ谷荘","province":"東京都","city":"豊島区","address":"豊島区雑司が谷3-1-3","lat":35.719162,"lon":139.713694},{"name":"長崎荘","province":"東京都","city":"豊島区","address":"豊島区長崎4-35-1","lat":35.731274,"lon":139.685057},{"name":"東池袋荘","province":"東京都","city":"豊島区","address":"豊島区東池袋2-37-11","lat":35.732525,"lon":139.721815},{"name":"さくら千早ハウス","province":"東京都","city":"豊島区","address":"豊島区千早3-31-8","lat":35.734657,"lon":139.688126},{"name":"豊島区社会福祉協議会","province":"東京都","city":"豊島区","address":"豊島区東池袋1-39-2東池袋分庁舎","lat":35.732564,"lon":139.714344},{"name":"東池袋荘","province":"東京都","city":"豊島区","address":"豊島区東池袋2-37-11","lat":35.73227,"lon":139.72192},{"name":"やまて寮","province":"東京都","city":"豊島区","address":"豊島区南池袋4-18-9","lat":35.72435,"lon":139.72029},{"name":"ちとせ橋寮","province":"東京都","city":"豊島区","address":"豊島区雑司ヶ谷3-8-16","lat":35.72149,"lon":139.71306},{"name":"雑司ヶ谷荘","province":"東京都","city":"豊島区","address":"豊島区雑司が谷3-1-3","lat":35.7195,"lon":139.71396},{"name":"さくら千早ハウス","province":"東京都","city":"豊島区","address":"豊島区千早3-31-8","lat":35.7344,"lon":139.68825},{"name":"長崎荘","province":"東京都","city":"豊島区","address":"豊島区長崎4-35-1","lat":35.73136,"lon":139.68503},{"name":"東京都立大塚病院","province":"東京都","city":"豊島区","address":"豊島区南大塚2-8-1","lat":35.72527,"lon":139.73215},{"name":"啓成会義肢研究製作所","province":"東京都","city":"豊島区","address":"豊島区北大塚1-13-8","lat":35.73182,"lon":139.7318},{"name":"豊島区立中央図書館（ひかり文庫）","province":"東京都","city":"豊島区","address":"豊島区東池袋4-5-2ライズアリーナビル5階","lat":35.7267,"lon":139.71896},{"name":"ふるさと上池ハウス","province":"東京都","city":"豊島区","address":"豊島区上池袋1-18-27","lat":35.73488,"lon":139.72195},{"name":"やまて寮　　※現在、休止中","province":"東京都","city":"豊島区","address":"豊島区南池袋4-18-9","lat":35.72435,"lon":139.72029},{"name":"豊島区民社会福祉協議会","province":"東京都","city":"豊島区","address":"豊島区東池袋1-39-2区役所東池袋分庁舎3、4階","lat":35.73244,"lon":139.71432},{"name":"豊島区保健福祉部障害福祉課豊島区立心身障害者福祉センター","province":"東京都","city":"豊島区","address":"東京都豊島区目白5丁目18-8","lat":35.7240752,"lon":139.69585404},{"name":"医療法人社団明善会新大塚榎本クリニック","province":"東京都","city":"豊島区","address":"東京都豊島区南大塚3丁目11-9","lat":35.72828397,"lon":139.72900103},{"name":"医療法人社団明善会榎本クリニック","province":"東京都","city":"豊島区","address":"東京都豊島区西池袋1丁目2-5","lat":35.72775294,"lon":139.70910552},{"name":"LITALICOワークス大塚","province":"東京都","city":"豊島区","address":"東京都豊島区東池袋2丁目13-14","lat":35.73106133,"lon":139.72522902},{"name":"さら就労塾＠ぽれぽれ/池袋","province":"東京都","city":"豊島区","address":"東京都豊島区南池袋2丁目30-7","lat":35.72726985,"lon":139.71602717},{"name":"地域活動支援センターサンハウス","province":"東京都","city":"豊島区","address":"東京都豊島区千川2丁目37-6","lat":35.74264246,"lon":139.69179524},{"name":"株式会社ティラＬｉｎｋキャリアサポートセンター","province":"東京都","city":"豊島区","address":"東京都豊島区東池袋1丁目25-17","lat":35.7280781,"lon":139.7162299},{"name":"社会福祉法人豊芯会地域生活支援センターこかげ","province":"東京都","city":"豊島区","address":"東京都豊島区東池袋4丁目5-1","lat":35.72659779,"lon":139.71902694},{"name":"脳卒中・身体障害専門就労支援センター「リハス」大塚","province":"東京都","city":"豊島区","address":"東京都豊島区北大塚2丁目8-11","lat":35.73338887,"lon":139.72691211},{"name":"リハスワークとしま","province":"東京都","city":"豊島区","address":"東京都豊島区北大塚2丁目8-11","lat":35.73338887,"lon":139.72691211},{"name":"やまて寮　※現在、休止中","province":"東京都","city":"豊島区","address":"豊島区南池袋4-18-9","lat":35.72435,"lon":139.72029},{"name":"啓成会義肢研究製作所","province":"東京都","city":"豊島区","address":"豊島区北大塚1-13-8","lat":35.73186,"lon":139.731352},{"name":"豊島区民社会福祉協議会","province":"東京都","city":"豊島区","address":"豊島区東池袋1-39-2東池袋分庁舎3、4階","lat":35.732564,"lon":139.714344},{"name":"やまて寮※現在、休止中","province":"東京都","city":"豊島区","address":"豊島区南池袋4-18-9","lat":35.72435,"lon":139.72029},{"name":"豊島区民社会福祉協議会","province":"東京都","city":"豊島区","address":"豊島区東池袋1-39-2区役所東池袋分庁舎3、4階","lat":35.73244,"lon":139.71433},{"name":"ふるさと上池ハウス","province":"東京都","city":"豊島区","address":"豊島区上池袋1-18-27","lat":35.734451,"lon":139.721751},{"name":"東京都立大塚病院","province":"東京都","city":"豊島区","address":"豊島区南大塚2-8-1","lat":35.725268,"lon":139.732301},{"name":"豊島区立中央図書館（ひかり文庫）","province":"東京都","city":"豊島区","address":"豊島区東池袋4-5-2ライズアリーナビル5階","lat":35.726948,"lon":139.718902},{"name":"ちとせ橋寮","province":"東京都","city":"豊島区","address":"豊島区雑司ヶ谷3-8-16","lat":35.721184,"lon":139.712905},{"name":"ハピーテラス","province":"東京都","city":"豊島区","address":"東京都豊島区","lat":35.72611722,"lon":139.71660773},{"name":"やまて寮","province":"東京都","city":"豊島区","address":"豊島区南池袋4-18-9","lat":35.724704,"lon":139.720416},{"name":"雑司ヶ谷荘","province":"東京都","city":"豊島区","address":"豊島区雑司が谷3-1-3","lat":35.719162,"lon":139.713694},{"name":"長崎荘","province":"東京都","city":"豊島区","address":"豊島区長崎4-35-1","lat":35.731274,"lon":139.685057},{"name":"東池袋荘","province":"東京都","city":"豊島区","address":"豊島区東池袋2-37-11","lat":35.732525,"lon":139.721815},{"name":"さくら千早ハウス","province":"東京都","city":"豊島区","address":"豊島区千早3-31-8","lat":35.734657,"lon":139.688126},{"name":"豊島区社会福祉協議会","province":"東京都","city":"豊島区","address":"豊島区東池袋1-39-2東池袋分庁舎","lat":35.732564,"lon":139.714344},{"name":"東池袋荘","province":"東京都","city":"豊島区","address":"豊島区東池袋2-37-11","lat":35.73227,"lon":139.72192},{"name":"やまて寮","province":"東京都","city":"豊島区","address":"豊島区南池袋4-18-9","lat":35.72435,"lon":139.72029},{"name":"ちとせ橋寮","province":"東京都","city":"豊島区","address":"豊島区雑司ヶ谷3-8-16","lat":35.72149,"lon":139.71306},{"name":"雑司ヶ谷荘","province":"東京都","city":"豊島区","address":"豊島区雑司が谷3-1-3","lat":35.7195,"lon":139.71396},{"name":"さくら千早ハウス","province":"東京都","city":"豊島区","address":"豊島区千早3-31-8","lat":35.7344,"lon":139.68825},{"name":"長崎荘","province":"東京都","city":"豊島区","address":"豊島区長崎4-35-1","lat":35.73136,"lon":139.68503},{"name":"東京都立大塚病院","province":"東京都","city":"豊島区","address":"豊島区南大塚2-8-1","lat":35.72527,"lon":139.73215},{"name":"啓成会義肢研究製作所","province":"東京都","city":"豊島区","address":"豊島区北大塚1-13-8","lat":35.73182,"lon":139.7318},{"name":"豊島区立中央図書館（ひかり文庫）","province":"東京都","city":"豊島区","address":"豊島区東池袋4-5-2ライズアリーナビル5階","lat":35.7267,"lon":139.71896},{"name":"ふるさと上池ハウス","province":"東京都","city":"豊島区","address":"豊島区上池袋1-18-27","lat":35.73488,"lon":139.72195},{"name":"やまて寮　　※現在、休止中","province":"東京都","city":"豊島区","address":"豊島区南池袋4-18-9","lat":35.72435,"lon":139.72029},{"name":"豊島区民社会福祉協議会","province":"東京都","city":"豊島区","address":"豊島区東池袋1-39-2区役所東池袋分庁舎3、4階","lat":35.73244,"lon":139.71432},{"name":"豊島区保健福祉部障害福祉課豊島区立心身障害者福祉センター","province":"東京都","city":"豊島区","address":"東京都豊島区目白5丁目18-8","lat":35.7240752,"lon":139.69585404},{"name":"医療法人社団明善会新大塚榎本クリニック","province":"東京都","city":"豊島区","address":"東京都豊島区南大塚3丁目11-9","lat":35.72828397,"lon":139.72900103},{"name":"医療法人社団明善会榎本クリニック","province":"東京都","city":"豊島区","address":"東京都豊島区西池袋1丁目2-5","lat":35.72775294,"lon":139.70910552},{"name":"LITALICOワークス大塚","province":"東京都","city":"豊島区","address":"東京都豊島区東池袋2丁目13-14","lat":35.73106133,"lon":139.72522902},{"name":"さら就労塾＠ぽれぽれ/池袋","province":"東京都","city":"豊島区","address":"東京都豊島区南池袋2丁目30-7","lat":35.72726985,"lon":139.71602717},{"name":"地域活動支援センターサンハウス","province":"東京都","city":"豊島区","address":"東京都豊島区千川2丁目37-6","lat":35.74264246,"lon":139.69179524},{"name":"株式会社ティラＬｉｎｋキャリアサポートセンター","province":"東京都","city":"豊島区","address":"東京都豊島区東池袋1丁目25-17","lat":35.7280781,"lon":139.7162299},{"name":"社会福祉法人豊芯会地域生活支援センターこかげ","province":"東京都","city":"豊島区","address":"東京都豊島区東池袋4丁目5-1","lat":35.72659779,"lon":139.71902694},{"name":"脳卒中・身体障害専門就労支援センター「リハス」大塚","province":"東京都","city":"豊島区","address":"東京都豊島区北大塚2丁目8-11","lat":35.73338887,"lon":139.72691211},{"name":"リハスワークとしま","province":"東京都","city":"豊島区","address":"東京都豊島区北大塚2丁目8-11","lat":35.73338887,"lon":139.72691211},{"name":"やまて寮　※現在、休止中","province":"東京都","city":"豊島区","address":"豊島区南池袋4-18-9","lat":35.72435,"lon":139.72029},{"name":"啓成会義肢研究製作所","province":"東京都","city":"豊島区","address":"豊島区北大塚1-13-8","lat":35.73186,"lon":139.731352},{"name":"豊島区民社会福祉協議会","province":"東京都","city":"豊島区","address":"豊島区東池袋1-39-2東池袋分庁舎3、4階","lat":35.732564,"lon":139.714344},{"name":"やまて寮※現在、休止中","province":"東京都","city":"豊島区","address":"豊島区南池袋4-18-9","lat":35.72435,"lon":139.72029},{"name":"豊島区民社会福祉協議会","province":"東京都","city":"豊島区","address":"豊島区東池袋1-39-2区役所東池袋分庁舎3、4階","lat":35.73244,"lon":139.71433},{"name":"ふるさと上池ハウス","province":"東京都","city":"豊島区","address":"豊島区上池袋1-18-27","lat":35.734451,"lon":139.721751},{"name":"東京都立大塚病院","province":"東京都","city":"豊島区","address":"豊島区南大塚2-8-1","lat":35.725268,"lon":139.732301},{"name":"豊島区立中央図書館（ひかり文庫）","province":"東京都","city":"豊島区","address":"豊島区東池袋4-5-2ライズアリーナビル5階","lat":35.726948,"lon":139.718902},{"name":"ちとせ橋寮","province":"東京都","city":"豊島区","address":"豊島区雑司ヶ谷3-8-16","lat":35.721184,"lon":139.712905},{"name":"ハピーテラス","province":"東京都","city":"豊島区","address":"東京都豊島区","lat":35.72611722,"lon":139.71660773},{"name":"やまて寮","province":"東京都","city":"豊島区","address":"豊島区南池袋4-18-9","lat":35.724704,"lon":139.720416},{"name":"雑司ヶ谷荘","province":"東京都","city":"豊島区","address":"豊島区雑司が谷3-1-3","lat":35.719162,"lon":139.713694},{"name":"長崎荘","province":"東京都","city":"豊島区","address":"豊島区長崎4-35-1","lat":35.731274,"lon":139.685057},{"name":"東池袋荘","province":"東京都","city":"豊島区","address":"豊島区東池袋2-37-11","lat":35.732525,"lon":139.721815},{"name":"さくら千早ハウス","province":"東京都","city":"豊島区","address":"豊島区千早3-31-8","lat":35.734657,"lon":139.688126},{"name":"豊島区社会福祉協議会","province":"東京都","city":"豊島区","address":"豊島区東池袋1-39-2東池袋分庁舎","lat":35.732564,"lon":139.714344},{"name":"東池袋荘","province":"東京都","city":"豊島区","address":"豊島区東池袋2-37-11","lat":35.73227,"lon":139.72192},{"name":"やまて寮","province":"東京都","city":"豊島区","address":"豊島区南池袋4-18-9","lat":35.72435,"lon":139.72029},{"name":"ちとせ橋寮","province":"東京都","city":"豊島区","address":"豊島区雑司ヶ谷3-8-16","lat":35.72149,"lon":139.71306},{"name":"雑司ヶ谷荘","province":"東京都","city":"豊島区","address":"豊島区雑司が谷3-1-3","lat":35.7195,"lon":139.71396},{"name":"さくら千早ハウス","province":"東京都","city":"豊島区","address":"豊島区千早3-31-8","lat":35.7344,"lon":139.68825},{"name":"長崎荘","province":"東京都","city":"豊島区","address":"豊島区長崎4-35-1","lat":35.73136,"lon":139.68503},{"name":"東京都立大塚病院","province":"東京都","city":"豊島区","address":"豊島区南大塚2-8-1","lat":35.72527,"lon":139.73215},{"name":"啓成会義肢研究製作所","province":"東京都","city":"豊島区","address":"豊島区北大塚1-13-8","lat":35.73182,"lon":139.7318},{"name":"豊島区立中央図書館（ひかり文庫）","province":"東京都","city":"豊島区","address":"豊島区東池袋4-5-2ライズアリーナビル5階","lat":35.7267,"lon":139.71896},{"name":"ふるさと上池ハウス","province":"東京都","city":"豊島区","address":"豊島区上池袋1-18-27","lat":35.73488,"lon":139.72195},{"name":"やまて寮　　※現在、休止中","province":"東京都","city":"豊島区","address":"豊島区南池袋4-18-9","lat":35.72435,"lon":139.72029},{"name":"豊島区民社会福祉協議会","province":"東京都","city":"豊島区","address":"豊島区東池袋1-39-2区役所東池袋分庁舎3、4階","lat":35.73244,"lon":139.71432},{"name":"豊島区保健福祉部障害福祉課豊島区立心身障害者福祉センター","province":"東京都","city":"豊島区","address":"東京都豊島区目白5丁目18-8","lat":35.7240752,"lon":139.69585404},{"name":"医療法人社団明善会新大塚榎本クリニック","province":"東京都","city":"豊島区","address":"東京都豊島区南大塚3丁目11-9","lat":35.72828397,"lon":139.72900103},{"name":"医療法人社団明善会榎本クリニック","province":"東京都","city":"豊島区","address":"東京都豊島区西池袋1丁目2-5","lat":35.72775294,"lon":139.70910552},{"name":"LITALICOワークス大塚","province":"東京都","city":"豊島区","address":"東京都豊島区東池袋2丁目13-14","lat":35.73106133,"lon":139.72522902},{"name":"さら就労塾＠ぽれぽれ/池袋","province":"東京都","city":"豊島区","address":"東京都豊島区南池袋2丁目30-7","lat":35.72726985,"lon":139.71602717},{"name":"地域活動支援センターサンハウス","province":"東京都","city":"豊島区","address":"東京都豊島区千川2丁目37-6","lat":35.74264246,"lon":139.69179524},{"name":"株式会社ティラＬｉｎｋキャリアサポートセンター","province":"東京都","city":"豊島区","address":"東京都豊島区東池袋1丁目25-17","lat":35.7280781,"lon":139.7162299},{"name":"社会福祉法人豊芯会地域生活支援センターこかげ","province":"東京都","city":"豊島区","address":"東京都豊島区東池袋4丁目5-1","lat":35.72659779,"lon":139.71902694},{"name":"脳卒中・身体障害専門就労支援センター「リハス」大塚","province":"東京都","city":"豊島区","address":"東京都豊島区北大塚2丁目8-11","lat":35.73338887,"lon":139.72691211},{"name":"リハスワークとしま","province":"東京都","city":"豊島区","address":"東京都豊島区北大塚2丁目8-11","lat":35.73338887,"lon":139.72691211},{"name":"やまて寮　※現在、休止中","province":"東京都","city":"豊島区","address":"豊島区南池袋4-18-9","lat":35.72435,"lon":139.72029},{"name":"啓成会義肢研究製作所","province":"東京都","city":"豊島区","address":"豊島区北大塚1-13-8","lat":35.73186,"lon":139.731352},{"name":"豊島区民社会福祉協議会","province":"東京都","city":"豊島区","address":"豊島区東池袋1-39-2東池袋分庁舎3、4階","lat":35.732564,"lon":139.714344},{"name":"やまて寮※現在、休止中","province":"東京都","city":"豊島区","address":"豊島区南池袋4-18-9","lat":35.72435,"lon":139.72029},{"name":"豊島区民社会福祉協議会","province":"東京都","city":"豊島区","address":"豊島区東池袋1-39-2区役所東池袋分庁舎3、4階","lat":35.73244,"lon":139.71433},{"name":"ふるさと上池ハウス","province":"東京都","city":"豊島区","address":"豊島区上池袋1-18-27","lat":35.734451,"lon":139.721751},{"name":"東京都立大塚病院","province":"東京都","city":"豊島区","address":"豊島区南大塚2-8-1","lat":35.725268,"lon":139.732301},{"name":"豊島区立中央図書館（ひかり文庫）","province":"東京都","city":"豊島区","address":"豊島区東池袋4-5-2ライズアリーナビル5階","lat":35.726948,"lon":139.718902},{"name":"ちとせ橋寮","province":"東京都","city":"豊島区","address":"豊島区雑司ヶ谷3-8-16","lat":35.721184,"lon":139.712905},{"name":"ハピーテラス","province":"東京都","city":"豊島区","address":"東京都豊島区","lat":35.72611722,"lon":139.71660773},{"name":"やまて寮","province":"東京都","city":"豊島区","address":"豊島区南池袋4-18-9","lat":35.724704,"lon":139.720416},{"name":"雑司ヶ谷荘","province":"東京都","city":"豊島区","address":"豊島区雑司が谷3-1-3","lat":35.719162,"lon":139.713694},{"name":"長崎荘","province":"東京都","city":"豊島区","address":"豊島区長崎4-35-1","lat":35.731274,"lon":139.685057},{"name":"東池袋荘","province":"東京都","city":"豊島区","address":"豊島区東池袋2-37-11","lat":35.732525,"lon":139.721815},{"name":"さくら千早ハウス","province":"東京都","city":"豊島区","address":"豊島区千早3-31-8","lat":35.734657,"lon":139.688126},{"name":"豊島区社会福祉協議会","province":"東京都","city":"豊島区","address":"豊島区東池袋1-39-2東池袋分庁舎","lat":35.732564,"lon":139.714344},{"name":"東池袋荘","province":"東京都","city":"豊島区","address":"豊島区東池袋2-37-11","lat":35.73227,"lon":139.72192},{"name":"やまて寮","province":"東京都","city":"豊島区","address":"豊島区南池袋4-18-9","lat":35.72435,"lon":139.72029},{"name":"ちとせ橋寮","province":"東京都","city":"豊島区","address":"豊島区雑司ヶ谷3-8-16","lat":35.72149,"lon":139.71306},{"name":"雑司ヶ谷荘","province":"東京都","city":"豊島区","address":"豊島区雑司が谷3-1-3","lat":35.7195,"lon":139.71396},{"name":"さくら千早ハウス","province":"東京都","city":"豊島区","address":"豊島区千早3-31-8","lat":35.7344,"lon":139.68825},{"name":"長崎荘","province":"東京都","city":"豊島区","address":"豊島区長崎4-35-1","lat":35.73136,"lon":139.68503},{"name":"東京都立大塚病院","province":"東京都","city":"豊島区","address":"豊島区南大塚2-8-1","lat":35.72527,"lon":139.73215},{"name":"啓成会義肢研究製作所","province":"東京都","city":"豊島区","address":"豊島区北大塚1-13-8","lat":35.73182,"lon":139.7318},{"name":"豊島区立中央図書館（ひかり文庫）","province":"東京都","city":"豊島区","address":"豊島区東池袋4-5-2ライズアリーナビル5階","lat":35.7267,"lon":139.71896},{"name":"ふるさと上池ハウス","province":"東京都","city":"豊島区","address":"豊島区上池袋1-18-27","lat":35.73488,"lon":139.72195},{"name":"やまて寮　　※現在、休止中","province":"東京都","city":"豊島区","address":"豊島区南池袋4-18-9","lat":35.72435,"lon":139.72029},{"name":"豊島区民社会福祉協議会","province":"東京都","city":"豊島区","address":"豊島区東池袋1-39-2区役所東池袋分庁舎3、4階","lat":35.73244,"lon":139.71432},{"name":"豊島区保健福祉部障害福祉課豊島区立心身障害者福祉センター","province":"東京都","city":"豊島区","address":"東京都豊島区目白5丁目18-8","lat":35.7240752,"lon":139.69585404},{"name":"医療法人社団明善会新大塚榎本クリニック","province":"東京都","city":"豊島区","address":"東京都豊島区南大塚3丁目11-9","lat":35.72828397,"lon":139.72900103},{"name":"医療法人社団明善会榎本クリニック","province":"東京都","city":"豊島区","address":"東京都豊島区西池袋1丁目2-5","lat":35.72775294,"lon":139.70910552},{"name":"LITALICOワークス大塚","province":"東京都","city":"豊島区","address":"東京都豊島区東池袋2丁目13-14","lat":35.73106133,"lon":139.72522902},{"name":"さら就労塾＠ぽれぽれ/池袋","province":"東京都","city":"豊島区","address":"東京都豊島区南池袋2丁目30-7","lat":35.72726985,"lon":139.71602717},{"name":"地域活動支援センターサンハウス","province":"東京都","city":"豊島区","address":"東京都豊島区千川2丁目37-6","lat":35.74264246,"lon":139.69179524},{"name":"株式会社ティラＬｉｎｋキャリアサポートセンター","province":"東京都","city":"豊島区","address":"東京都豊島区東池袋1丁目25-17","lat":35.7280781,"lon":139.7162299},{"name":"社会福祉法人豊芯会地域生活支援センターこかげ","province":"東京都","city":"豊島区","address":"東京都豊島区東池袋4丁目5-1","lat":35.72659779,"lon":139.71902694},{"name":"脳卒中・身体障害専門就労支援センター「リハス」大塚","province":"東京都","city":"豊島区","address":"東京都豊島区北大塚2丁目8-11","lat":35.73338887,"lon":139.72691211},{"name":"リハスワークとしま","province":"東京都","city":"豊島区","address":"東京都豊島区北大塚2丁目8-11","lat":35.73338887,"lon":139.72691211},{"name":"やまて寮　※現在、休止中","province":"東京都","city":"豊島区","address":"豊島区南池袋4-18-9","lat":35.72435,"lon":139.72029},{"name":"啓成会義肢研究製作所","province":"東京都","city":"豊島区","address":"豊島区北大塚1-13-8","lat":35.73186,"lon":139.731352},{"name":"豊島区民社会福祉協議会","province":"東京都","city":"豊島区","address":"豊島区東池袋1-39-2東池袋分庁舎3、4階","lat":35.732564,"lon":139.714344},{"name":"やまて寮※現在、休止中","province":"東京都","city":"豊島区","address":"豊島区南池袋4-18-9","lat":35.72435,"lon":139.72029},{"name":"豊島区民社会福祉協議会","province":"東京都","city":"豊島区","address":"豊島区東池袋1-39-2区役所東池袋分庁舎3、4階","lat":35.73244,"lon":139.71433},{"name":"ふるさと上池ハウス","province":"東京都","city":"豊島区","address":"豊島区上池袋1-18-27","lat":35.734451,"lon":139.721751},{"name":"東京都立大塚病院","province":"東京都","city":"豊島区","address":"豊島区南大塚2-8-1","lat":35.725268,"lon":139.732301},{"name":"豊島区立中央図書館（ひかり文庫）","province":"東京都","city":"豊島区","address":"豊島区東池袋4-5-2ライズアリーナビル5階","lat":35.726948,"lon":139.718902},{"name":"ちとせ橋寮","province":"東京都","city":"豊島区","address":"豊島区雑司ヶ谷3-8-16","lat":35.721184,"lon":139.712905},{"name":"ハピーテラス","province":"東京都","city":"豊島区","address":"東京都豊島区","lat":35.72611722,"lon":139.71660773},{"name":"やまて寮","province":"東京都","city":"豊島区","address":"豊島区南池袋4-18-9","lat":35.724704,"lon":139.720416},{"name":"雑司ヶ谷荘","province":"東京都","city":"豊島区","address":"豊島区雑司が谷3-1-3","lat":35.719162,"lon":139.713694},{"name":"長崎荘","province":"東京都","city":"豊島区","address":"豊島区長崎4-35-1","lat":35.731274,"lon":139.685057},{"name":"東池袋荘","province":"東京都","city":"豊島区","address":"豊島区東池袋2-37-11","lat":35.732525,"lon":139.721815},{"name":"さくら千早ハウス","province":"東京都","city":"豊島区","address":"豊島区千早3-31-8","lat":35.734657,"lon":139.688126},{"name":"豊島区社会福祉協議会","province":"東京都","city":"豊島区","address":"豊島区東池袋1-39-2東池袋分庁舎","lat":35.732564,"lon":139.714344},{"name":"東池袋荘","province":"東京都","city":"豊島区","address":"豊島区東池袋2-37-11","lat":35.73227,"lon":139.72192},{"name":"やまて寮","province":"東京都","city":"豊島区","address":"豊島区南池袋4-18-9","lat":35.72435,"lon":139.72029},{"name":"ちとせ橋寮","province":"東京都","city":"豊島区","address":"豊島区雑司ヶ谷3-8-16","lat":35.72149,"lon":139.71306},{"name":"雑司ヶ谷荘","province":"東京都","city":"豊島区","address":"豊島区雑司が谷3-1-3","lat":35.7195,"lon":139.71396},{"name":"さくら千早ハウス","province":"東京都","city":"豊島区","address":"豊島区千早3-31-8","lat":35.7344,"lon":139.68825},{"name":"長崎荘","province":"東京都","city":"豊島区","address":"豊島区長崎4-35-1","lat":35.73136,"lon":139.68503},{"name":"東京都立大塚病院","province":"東京都","city":"豊島区","address":"豊島区南大塚2-8-1","lat":35.72527,"lon":139.73215},{"name":"啓成会義肢研究製作所","province":"東京都","city":"豊島区","address":"豊島区北大塚1-13-8","lat":35.73182,"lon":139.7318},{"name":"豊島区立中央図書館（ひかり文庫）","province":"東京都","city":"豊島区","address":"豊島区東池袋4-5-2ライズアリーナビル5階","lat":35.7267,"lon":139.71896},{"name":"ふるさと上池ハウス","province":"東京都","city":"豊島区","address":"豊島区上池袋1-18-27","lat":35.73488,"lon":139.72195},{"name":"やまて寮　　※現在、休止中","province":"東京都","city":"豊島区","address":"豊島区南池袋4-18-9","lat":35.72435,"lon":139.72029},{"name":"豊島区民社会福祉協議会","province":"東京都","city":"豊島区","address":"豊島区東池袋1-39-2区役所東池袋分庁舎3、4階","lat":35.73244,"lon":139.71432},{"name":"豊島区保健福祉部障害福祉課豊島区立心身障害者福祉センター","province":"東京都","city":"豊島区","address":"東京都豊島区目白5丁目18-8","lat":35.7240752,"lon":139.69585404},{"name":"医療法人社団明善会新大塚榎本クリニック","province":"東京都","city":"豊島区","address":"東京都豊島区南大塚3丁目11-9","lat":35.72828397,"lon":139.72900103},{"name":"医療法人社団明善会榎本クリニック","province":"東京都","city":"豊島区","address":"東京都豊島区西池袋1丁目2-5","lat":35.72775294,"lon":139.70910552},{"name":"LITALICOワークス大塚","province":"東京都","city":"豊島区","address":"東京都豊島区東池袋2丁目13-14","lat":35.73106133,"lon":139.72522902},{"name":"さら就労塾＠ぽれぽれ/池袋","province":"東京都","city":"豊島区","address":"東京都豊島区南池袋2丁目30-7","lat":35.72726985,"lon":139.71602717},{"name":"地域活動支援センターサンハウス","province":"東京都","city":"豊島区","address":"東京都豊島区千川2丁目37-6","lat":35.74264246,"lon":139.69179524},{"name":"株式会社ティラＬｉｎｋキャリアサポートセンター","province":"東京都","city":"豊島区","address":"東京都豊島区東池袋1丁目25-17","lat":35.7280781,"lon":139.7162299},{"name":"社会福祉法人豊芯会地域生活支援センターこかげ","province":"東京都","city":"豊島区","address":"東京都豊島区東池袋4丁目5-1","lat":35.72659779,"lon":139.71902694},{"name":"脳卒中・身体障害専門就労支援センター「リハス」大塚","province":"東京都","city":"豊島区","address":"東京都豊島区北大塚2丁目8-11","lat":35.73338887,"lon":139.72691211},{"name":"リハスワークとしま","province":"東京都","city":"豊島区","address":"東京都豊島区北大塚2丁目8-11","lat":35.73338887,"lon":139.72691211},{"name":"やまて寮　※現在、休止中","province":"東京都","city":"豊島区","address":"豊島区南池袋4-18-9","lat":35.72435,"lon":139.72029},{"name":"啓成会義肢研究製作所","province":"東京都","city":"豊島区","address":"豊島区北大塚1-13-8","lat":35.73186,"lon":139.731352},{"name":"豊島区民社会福祉協議会","province":"東京都","city":"豊島区","address":"豊島区東池袋1-39-2東池袋分庁舎3、4階","lat":35.732564,"lon":139.714344},{"name":"やまて寮※現在、休止中","province":"東京都","city":"豊島区","address":"豊島区南池袋4-18-9","lat":35.72435,"lon":139.72029},{"name":"豊島区民社会福祉協議会","province":"東京都","city":"豊島区","address":"豊島区東池袋1-39-2区役所東池袋分庁舎3、4階","lat":35.73244,"lon":139.71433},{"name":"ふるさと上池ハウス","province":"東京都","city":"豊島区","address":"豊島区上池袋1-18-27","lat":35.734451,"lon":139.721751},{"name":"東京都立大塚病院","province":"東京都","city":"豊島区","address":"豊島区南大塚2-8-1","lat":35.725268,"lon":139.732301},{"name":"豊島区立中央図書館（ひかり文庫）","province":"東京都","city":"豊島区","address":"豊島区東池袋4-5-2ライズアリーナビル5階","lat":35.726948,"lon":139.718902},{"name":"ちとせ橋寮","province":"東京都","city":"豊島区","address":"豊島区雑司ヶ谷3-8-16","lat":35.721184,"lon":139.712905},{"name":"ハピーテラス","province":"東京都","city":"豊島区","address":"東京都豊島区","lat":35.72611722,"lon":139.71660773},{"name":"やまて寮","province":"東京都","city":"豊島区","address":"豊島区南池袋4-18-9","lat":35.724704,"lon":139.720416},{"name":"雑司ヶ谷荘","province":"東京都","city":"豊島区","address":"豊島区雑司が谷3-1-3","lat":35.719162,"lon":139.713694},{"name":"長崎荘","province":"東京都","city":"豊島区","address":"豊島区長崎4-35-1","lat":35.731274,"lon":139.685057},{"name":"東池袋荘","province":"東京都","city":"豊島区","address":"豊島区東池袋2-37-11","lat":35.732525,"lon":139.721815},{"name":"さくら千早ハウス","province":"東京都","city":"豊島区","address":"豊島区千早3-31-8","lat":35.734657,"lon":139.688126},{"name":"豊島区社会福祉協議会","province":"東京都","city":"豊島区","address":"豊島区東池袋1-39-2東池袋分庁舎","lat":35.732564,"lon":139.714344},{"name":"東池袋荘","province":"東京都","city":"豊島区","address":"豊島区東池袋2-37-11","lat":35.73227,"lon":139.72192},{"name":"やまて寮","province":"東京都","city":"豊島区","address":"豊島区南池袋4-18-9","lat":35.72435,"lon":139.72029},{"name":"ちとせ橋寮","province":"東京都","city":"豊島区","address":"豊島区雑司ヶ谷3-8-16","lat":35.72149,"lon":139.71306},{"name":"雑司ヶ谷荘","province":"東京都","city":"豊島区","address":"豊島区雑司が谷3-1-3","lat":35.7195,"lon":139.71396},{"name":"さくら千早ハウス","province":"東京都","city":"豊島区","address":"豊島区千早3-31-8","lat":35.7344,"lon":139.68825},{"name":"長崎荘","province":"東京都","city":"豊島区","address":"豊島区長崎4-35-1","lat":35.73136,"lon":139.68503},{"name":"東京都立大塚病院","province":"東京都","city":"豊島区","address":"豊島区南大塚2-8-1","lat":35.72527,"lon":139.73215},{"name":"啓成会義肢研究製作所","province":"東京都","city":"豊島区","address":"豊島区北大塚1-13-8","lat":35.73182,"lon":139.7318},{"name":"豊島区立中央図書館（ひかり文庫）","province":"東京都","city":"豊島区","address":"豊島区東池袋4-5-2ライズアリーナビル5階","lat":35.7267,"lon":139.71896},{"name":"ふるさと上池ハウス","province":"東京都","city":"豊島区","address":"豊島区上池袋1-18-27","lat":35.73488,"lon":139.72195},{"name":"やまて寮　　※現在、休止中","province":"東京都","city":"豊島区","address":"豊島区南池袋4-18-9","lat":35.72435,"lon":139.72029},{"name":"豊島区民社会福祉協議会","province":"東京都","city":"豊島区","address":"豊島区東池袋1-39-2区役所東池袋分庁舎3、4階","lat":35.73244,"lon":139.71432},{"name":"やまて寮　※現在、休止中","province":"東京都","city":"豊島区","address":"豊島区南池袋4-18-9","lat":35.72435,"lon":139.72029},{"name":"啓成会義肢研究製作所","province":"東京都","city":"豊島区","address":"豊島区北大塚1-13-8","lat":35.73186,"lon":139.731352},{"name":"豊島区民社会福祉協議会","province":"東京都","city":"豊島区","address":"豊島区東池袋1-39-2東池袋分庁舎3、4階","lat":35.732564,"lon":139.714344},{"name":"やまて寮※現在、休止中","province":"東京都","city":"豊島区","address":"豊島区南池袋4-18-9","lat":35.72435,"lon":139.72029},{"name":"豊島区民社会福祉協議会","province":"東京都","city":"豊島区","address":"豊島区東池袋1-39-2区役所東池袋分庁舎3、4階","lat":35.73244,"lon":139.71433},{"name":"ふるさと上池ハウス","province":"東京都","city":"豊島区","address":"豊島区上池袋1-18-27","lat":35.734451,"lon":139.721751},{"name":"東京都立大塚病院","province":"東京都","city":"豊島区","address":"豊島区南大塚2-8-1","lat":35.725268,"lon":139.732301},{"name":"豊島区立中央図書館（ひかり文庫）","province":"東京都","city":"豊島区","address":"豊島区東池袋4-5-2ライズアリーナビル5階","lat":35.726948,"lon":139.718902},{"name":"ちとせ橋寮","province":"東京都","city":"豊島区","address":"豊島区雑司ヶ谷3-8-16","lat":35.721184,"lon":139.712905},{"name":"ハピーテラス","province":"東京都","city":"豊島区","address":"東京都豊島区","lat":35.72611722,"lon":139.71660773},{"name":"やまて寮","province":"東京都","city":"豊島区","address":"豊島区南池袋4-18-9","lat":35.724704,"lon":139.720416},{"name":"雑司ヶ谷荘","province":"東京都","city":"豊島区","address":"豊島区雑司が谷3-1-3","lat":35.719162,"lon":139.713694},{"name":"長崎荘","province":"東京都","city":"豊島区","address":"豊島区長崎4-35-1","lat":35.731274,"lon":139.685057},{"name":"東池袋荘","province":"東京都","city":"豊島区","address":"豊島区東池袋2-37-11","lat":35.732525,"lon":139.721815},{"name":"さくら千早ハウス","province":"東京都","city":"豊島区","address":"豊島区千早3-31-8","lat":35.734657,"lon":139.688126},{"name":"豊島区社会福祉協議会","province":"東京都","city":"豊島区","address":"豊島区東池袋1-39-2東池袋分庁舎","lat":35.732564,"lon":139.714344},{"name":"東池袋荘","province":"東京都","city":"豊島区","address":"豊島区東池袋2-37-11","lat":35.73227,"lon":139.72192},{"name":"やまて寮","province":"東京都","city":"豊島区","address":"豊島区南池袋4-18-9","lat":35.72435,"lon":139.72029},{"name":"ちとせ橋寮","province":"東京都","city":"豊島区","address":"豊島区雑司ヶ谷3-8-16","lat":35.72149,"lon":139.71306},{"name":"雑司ヶ谷荘","province":"東京都","city":"豊島区","address":"豊島区雑司が谷3-1-3","lat":35.7195,"lon":139.71396},{"name":"さくら千早ハウス","province":"東京都","city":"豊島区","address":"豊島区千早3-31-8","lat":35.7344,"lon":139.68825},{"name":"長崎荘","province":"東京都","city":"豊島区","address":"豊島区長崎4-35-1","lat":35.73136,"lon":139.68503},{"name":"東京都立大塚病院","province":"東京都","city":"豊島区","address":"豊島区南大塚2-8-1","lat":35.72527,"lon":139.73215},{"name":"啓成会義肢研究製作所","province":"東京都","city":"豊島区","address":"豊島区北大塚1-13-8","lat":35.73182,"lon":139.7318},{"name":"豊島区立中央図書館（ひかり文庫）","province":"東京都","city":"豊島区","address":"豊島区東池袋4-5-2ライズアリーナビル5階","lat":35.7267,"lon":139.71896},{"name":"ふるさと上池ハウス","province":"東京都","city":"豊島区","address":"豊島区上池袋1-18-27","lat":35.73488,"lon":139.72195},{"name":"やまて寮　　※現在、休止中","province":"東京都","city":"豊島区","address":"豊島区南池袋4-18-9","lat":35.72435,"lon":139.72029},{"name":"豊島区民社会福祉協議会","province":"東京都","city":"豊島区","address":"豊島区東池袋1-39-2区役所東池袋分庁舎3、4階","lat":35.73244,"lon":139.71432},{"name":"やまて寮　※現在、休止中","province":"東京都","city":"豊島区","address":"豊島区南池袋4-18-9","lat":35.72435,"lon":139.72029},{"name":"啓成会義肢研究製作所","province":"東京都","city":"豊島区","address":"豊島区北大塚1-13-8","lat":35.73186,"lon":139.731352},{"name":"豊島区民社会福祉協議会","province":"東京都","city":"豊島区","address":"豊島区東池袋1-39-2東池袋分庁舎3、4階","lat":35.732564,"lon":139.714344},{"name":"やまて寮※現在、休止中","province":"東京都","city":"豊島区","address":"豊島区南池袋4-18-9","lat":35.72435,"lon":139.72029},{"name":"豊島区民社会福祉協議会","province":"東京都","city":"豊島区","address":"豊島区東池袋1-39-2区役所東池袋分庁舎3、4階","lat":35.73244,"lon":139.71433},{"name":"ふるさと上池ハウス","province":"東京都","city":"豊島区","address":"豊島区上池袋1-18-27","lat":35.734451,"lon":139.721751},{"name":"東京都立大塚病院","province":"東京都","city":"豊島区","address":"豊島区南大塚2-8-1","lat":35.725268,"lon":139.732301},{"name":"豊島区立中央図書館（ひかり文庫）","province":"東京都","city":"豊島区","address":"豊島区東池袋4-5-2ライズアリーナビル5階","lat":35.726948,"lon":139.718902},{"name":"ちとせ橋寮","province":"東京都","city":"豊島区","address":"豊島区雑司ヶ谷3-8-16","lat":35.721184,"lon":139.712905},{"name":"ハピーテラス","province":"東京都","city":"豊島区","address":"東京都豊島区","lat":35.72611722,"lon":139.71660773},{"name":"やまて寮","province":"東京都","city":"豊島区","address":"豊島区南池袋4-18-9","lat":35.724704,"lon":139.720416},{"name":"雑司ヶ谷荘","province":"東京都","city":"豊島区","address":"豊島区雑司が谷3-1-3","lat":35.719162,"lon":139.713694},{"name":"長崎荘","province":"東京都","city":"豊島区","address":"豊島区長崎4-35-1","lat":35.731274,"lon":139.685057},{"name":"東池袋荘","province":"東京都","city":"豊島区","address":"豊島区東池袋2-37-11","lat":35.732525,"lon":139.721815},{"name":"さくら千早ハウス","province":"東京都","city":"豊島区","address":"豊島区千早3-31-8","lat":35.734657,"lon":139.688126},{"name":"豊島区社会福祉協議会","province":"東京都","city":"豊島区","address":"豊島区東池袋1-39-2東池袋分庁舎","lat":35.732564,"lon":139.714344},{"name":"東池袋荘","province":"東京都","city":"豊島区","address":"豊島区東池袋2-37-11","lat":35.73227,"lon":139.72192},{"name":"やまて寮","province":"東京都","city":"豊島区","address":"豊島区南池袋4-18-9","lat":35.72435,"lon":139.72029},{"name":"ちとせ橋寮","province":"東京都","city":"豊島区","address":"豊島区雑司ヶ谷3-8-16","lat":35.72149,"lon":139.71306},{"name":"雑司ヶ谷荘","province":"東京都","city":"豊島区","address":"豊島区雑司が谷3-1-3","lat":35.7195,"lon":139.71396},{"name":"さくら千早ハウス","province":"東京都","city":"豊島区","address":"豊島区千早3-31-8","lat":35.7344,"lon":139.68825},{"name":"長崎荘","province":"東京都","city":"豊島区","address":"豊島区長崎4-35-1","lat":35.73136,"lon":139.68503},{"name":"東京都立大塚病院","province":"東京都","city":"豊島区","address":"豊島区南大塚2-8-1","lat":35.72527,"lon":139.73215},{"name":"啓成会義肢研究製作所","province":"東京都","city":"豊島区","address":"豊島区北大塚1-13-8","lat":35.73182,"lon":139.7318},{"name":"豊島区立中央図書館（ひかり文庫）","province":"東京都","city":"豊島区","address":"豊島区東池袋4-5-2ライズアリーナビル5階","lat":35.7267,"lon":139.71896},{"name":"ふるさと上池ハウス","province":"東京都","city":"豊島区","address":"豊島区上池袋1-18-27","lat":35.73488,"lon":139.72195},{"name":"やまて寮　　※現在、休止中","province":"東京都","city":"豊島区","address":"豊島区南池袋4-18-9","lat":35.72435,"lon":139.72029},{"name":"豊島区民社会福祉協議会","province":"東京都","city":"豊島区","address":"豊島区東池袋1-39-2区役所東池袋分庁舎3、4階","lat":35.73244,"lon":139.71432},{"name":"やまて寮　※現在、休止中","province":"東京都","city":"豊島区","address":"豊島区南池袋4-18-9","lat":35.72435,"lon":139.72029},{"name":"啓成会義肢研究製作所","province":"東京都","city":"豊島区","address":"豊島区北大塚1-13-8","lat":35.73186,"lon":139.731352},{"name":"豊島区民社会福祉協議会","province":"東京都","city":"豊島区","address":"豊島区東池袋1-39-2東池袋分庁舎3、4階","lat":35.732564,"lon":139.714344},{"name":"やまて寮※現在、休止中","province":"東京都","city":"豊島区","address":"豊島区南池袋4-18-9","lat":35.72435,"lon":139.72029},{"name":"豊島区民社会福祉協議会","province":"東京都","city":"豊島区","address":"豊島区東池袋1-39-2区役所東池袋分庁舎3、4階","lat":35.73244,"lon":139.71433},{"name":"ふるさと上池ハウス","province":"東京都","city":"豊島区","address":"豊島区上池袋1-18-27","lat":35.734451,"lon":139.721751},{"name":"東京都立大塚病院","province":"東京都","city":"豊島区","address":"豊島区南大塚2-8-1","lat":35.725268,"lon":139.732301},{"name":"豊島区立中央図書館（ひかり文庫）","province":"東京都","city":"豊島区","address":"豊島区東池袋4-5-2ライズアリーナビル5階","lat":35.726948,"lon":139.718902},{"name":"ちとせ橋寮","province":"東京都","city":"豊島区","address":"豊島区雑司ヶ谷3-8-16","lat":35.721184,"lon":139.712905},{"name":"ハピーテラス","province":"東京都","city":"豊島区","address":"東京都豊島区","lat":35.72611722,"lon":139.71660773},{"name":"やまて寮","province":"東京都","city":"豊島区","address":"豊島区南池袋4-18-9","lat":35.724704,"lon":139.720416},{"name":"雑司ヶ谷荘","province":"東京都","city":"豊島区","address":"豊島区雑司が谷3-1-3","lat":35.719162,"lon":139.713694},{"name":"長崎荘","province":"東京都","city":"豊島区","address":"豊島区長崎4-35-1","lat":35.731274,"lon":139.685057},{"name":"東池袋荘","province":"東京都","city":"豊島区","address":"豊島区東池袋2-37-11","lat":35.732525,"lon":139.721815},{"name":"さくら千早ハウス","province":"東京都","city":"豊島区","address":"豊島区千早3-31-8","lat":35.734657,"lon":139.688126},{"name":"豊島区社会福祉協議会","province":"東京都","city":"豊島区","address":"豊島区東池袋1-39-2東池袋分庁舎","lat":35.732564,"lon":139.714344},{"name":"東池袋荘","province":"東京都","city":"豊島区","address":"豊島区東池袋2-37-11","lat":35.73227,"lon":139.72192},{"name":"やまて寮","province":"東京都","city":"豊島区","address":"豊島区南池袋4-18-9","lat":35.72435,"lon":139.72029},{"name":"ちとせ橋寮","province":"東京都","city":"豊島区","address":"豊島区雑司ヶ谷3-8-16","lat":35.72149,"lon":139.71306},{"name":"雑司ヶ谷荘","province":"東京都","city":"豊島区","address":"豊島区雑司が谷3-1-3","lat":35.7195,"lon":139.71396},{"name":"さくら千早ハウス","province":"東京都","city":"豊島区","address":"豊島区千早3-31-8","lat":35.7344,"lon":139.68825},{"name":"長崎荘","province":"東京都","city":"豊島区","address":"豊島区長崎4-35-1","lat":35.73136,"lon":139.68503},{"name":"東京都立大塚病院","province":"東京都","city":"豊島区","address":"豊島区南大塚2-8-1","lat":35.72527,"lon":139.73215},{"name":"啓成会義肢研究製作所","province":"東京都","city":"豊島区","address":"豊島区北大塚1-13-8","lat":35.73182,"lon":139.7318},{"name":"豊島区立中央図書館（ひかり文庫）","province":"東京都","city":"豊島区","address":"豊島区東池袋4-5-2ライズアリーナビル5階","lat":35.7267,"lon":139.71896},{"name":"ふるさと上池ハウス","province":"東京都","city":"豊島区","address":"豊島区上池袋1-18-27","lat":35.73488,"lon":139.72195},{"name":"やまて寮　　※現在、休止中","province":"東京都","city":"豊島区","address":"豊島区南池袋4-18-9","lat":35.72435,"lon":139.72029},{"name":"豊島区民社会福祉協議会","province":"東京都","city":"豊島区","address":"豊島区東池袋1-39-2区役所東池袋分庁舎3、4階","lat":35.73244,"lon":139.71432},{"name":"やまて寮　※現在、休止中","province":"東京都","city":"豊島区","address":"豊島区南池袋4-18-9","lat":35.72435,"lon":139.72029},{"name":"啓成会義肢研究製作所","province":"東京都","city":"豊島区","address":"豊島区北大塚1-13-8","lat":35.73186,"lon":139.731352},{"name":"豊島区民社会福祉協議会","province":"東京都","city":"豊島区","address":"豊島区東池袋1-39-2東池袋分庁舎3、4階","lat":35.732564,"lon":139.714344},{"name":"やまて寮※現在、休止中","province":"東京都","city":"豊島区","address":"豊島区南池袋4-18-9","lat":35.72435,"lon":139.72029},{"name":"豊島区民社会福祉協議会","province":"東京都","city":"豊島区","address":"豊島区東池袋1-39-2区役所東池袋分庁舎3、4階","lat":35.73244,"lon":139.71433},{"name":"ふるさと上池ハウス","province":"東京都","city":"豊島区","address":"豊島区上池袋1-18-27","lat":35.734451,"lon":139.721751},{"name":"東京都立大塚病院","province":"東京都","city":"豊島区","address":"豊島区南大塚2-8-1","lat":35.725268,"lon":139.732301},{"name":"豊島区立中央図書館（ひかり文庫）","province":"東京都","city":"豊島区","address":"豊島区東池袋4-5-2ライズアリーナビル5階","lat":35.726948,"lon":139.718902},{"name":"ちとせ橋寮","province":"東京都","city":"豊島区","address":"豊島区雑司ヶ谷3-8-16","lat":35.721184,"lon":139.712905},{"name":"ハピーテラス","province":"東京都","city":"豊島区","address":"東京都豊島区","lat":35.72611722,"lon":139.71660773},{"name":"やまて寮","province":"東京都","city":"豊島区","address":"豊島区南池袋4-18-9","lat":35.724704,"lon":139.720416},{"name":"雑司ヶ谷荘","province":"東京都","city":"豊島区","address":"豊島区雑司が谷3-1-3","lat":35.719162,"lon":139.713694},{"name":"長崎荘","province":"東京都","city":"豊島区","address":"豊島区長崎4-35-1","lat":35.731274,"lon":139.685057},{"name":"東池袋荘","province":"東京都","city":"豊島区","address":"豊島区東池袋2-37-11","lat":35.732525,"lon":139.721815},{"name":"さくら千早ハウス","province":"東京都","city":"豊島区","address":"豊島区千早3-31-8","lat":35.734657,"lon":139.688126},{"name":"豊島区社会福祉協議会","province":"東京都","city":"豊島区","address":"豊島区東池袋1-39-2東池袋分庁舎","lat":35.732564,"lon":139.714344},{"name":"東池袋荘","province":"東京都","city":"豊島区","address":"豊島区東池袋2-37-11","lat":35.73227,"lon":139.72192},{"name":"やまて寮","province":"東京都","city":"豊島区","address":"豊島区南池袋4-18-9","lat":35.72435,"lon":139.72029},{"name":"ちとせ橋寮","province":"東京都","city":"豊島区","address":"豊島区雑司ヶ谷3-8-16","lat":35.72149,"lon":139.71306},{"name":"雑司ヶ谷荘","province":"東京都","city":"豊島区","address":"豊島区雑司が谷3-1-3","lat":35.7195,"lon":139.71396},{"name":"さくら千早ハウス","province":"東京都","city":"豊島区","address":"豊島区千早3-31-8","lat":35.7344,"lon":139.68825},{"name":"長崎荘","province":"東京都","city":"豊島区","address":"豊島区長崎4-35-1","lat":35.73136,"lon":139.68503},{"name":"東京都立大塚病院","province":"東京都","city":"豊島区","address":"豊島区南大塚2-8-1","lat":35.72527,"lon":139.73215},{"name":"啓成会義肢研究製作所","province":"東京都","city":"豊島区","address":"豊島区北大塚1-13-8","lat":35.73182,"lon":139.7318},{"name":"豊島区立中央図書館（ひかり文庫）","province":"東京都","city":"豊島区","address":"豊島区東池袋4-5-2ライズアリーナビル5階","lat":35.7267,"lon":139.71896},{"name":"ふるさと上池ハウス","province":"東京都","city":"豊島区","address":"豊島区上池袋1-18-27","lat":35.73488,"lon":139.72195},{"name":"やまて寮　　※現在、休止中","province":"東京都","city":"豊島区","address":"豊島区南池袋4-18-9","lat":35.72435,"lon":139.72029},{"name":"豊島区民社会福祉協議会","province":"東京都","city":"豊島区","address":"豊島区東池袋1-39-2区役所東池袋分庁舎3、4階","lat":35.73244,"lon":139.71432},{"name":"やまて寮　※現在、休止中","province":"東京都","city":"豊島区","address":"豊島区南池袋4-18-9","lat":35.72435,"lon":139.72029},{"name":"啓成会義肢研究製作所","province":"東京都","city":"豊島区","address":"豊島区北大塚1-13-8","lat":35.73186,"lon":139.731352},{"name":"豊島区民社会福祉協議会","province":"東京都","city":"豊島区","address":"豊島区東池袋1-39-2東池袋分庁舎3、4階","lat":35.732564,"lon":139.714344},{"name":"やまて寮※現在、休止中","province":"東京都","city":"豊島区","address":"豊島区南池袋4-18-9","lat":35.72435,"lon":139.72029},{"name":"豊島区民社会福祉協議会","province":"東京都","city":"豊島区","address":"豊島区東池袋1-39-2区役所東池袋分庁舎3、4階","lat":35.73244,"lon":139.71433},{"name":"ふるさと上池ハウス","province":"東京都","city":"豊島区","address":"豊島区上池袋1-18-27","lat":35.734451,"lon":139.721751},{"name":"東京都立大塚病院","province":"東京都","city":"豊島区","address":"豊島区南大塚2-8-1","lat":35.725268,"lon":139.732301},{"name":"豊島区立中央図書館（ひかり文庫）","province":"東京都","city":"豊島区","address":"豊島区東池袋4-5-2ライズアリーナビル5階","lat":35.726948,"lon":139.718902},{"name":"ちとせ橋寮","province":"東京都","city":"豊島区","address":"豊島区雑司ヶ谷3-8-16","lat":35.721184,"lon":139.712905},{"name":"ハピーテラス","province":"東京都","city":"豊島区","address":"東京都豊島区","lat":35.72611722,"lon":139.71660773},{"name":"やまて寮","province":"東京都","city":"豊島区","address":"豊島区南池袋4-18-9","lat":35.724704,"lon":139.720416},{"name":"雑司ヶ谷荘","province":"東京都","city":"豊島区","address":"豊島区雑司が谷3-1-3","lat":35.719162,"lon":139.713694},{"name":"長崎荘","province":"東京都","city":"豊島区","address":"豊島区長崎4-35-1","lat":35.731274,"lon":139.685057},{"name":"東池袋荘","province":"東京都","city":"豊島区","address":"豊島区東池袋2-37-11","lat":35.732525,"lon":139.721815},{"name":"さくら千早ハウス","province":"東京都","city":"豊島区","address":"豊島区千早3-31-8","lat":35.734657,"lon":139.688126},{"name":"豊島区社会福祉協議会","province":"東京都","city":"豊島区","address":"豊島区東池袋1-39-2東池袋分庁舎","lat":35.732564,"lon":139.714344},{"name":"東池袋荘","province":"東京都","city":"豊島区","address":"豊島区東池袋2-37-11","lat":35.73227,"lon":139.72192},{"name":"やまて寮","province":"東京都","city":"豊島区","address":"豊島区南池袋4-18-9","lat":35.72435,"lon":139.72029},{"name":"ちとせ橋寮","province":"東京都","city":"豊島区","address":"豊島区雑司ヶ谷3-8-16","lat":35.72149,"lon":139.71306},{"name":"雑司ヶ谷荘","province":"東京都","city":"豊島区","address":"豊島区雑司が谷3-1-3","lat":35.7195,"lon":139.71396},{"name":"さくら千早ハウス","province":"東京都","city":"豊島区","address":"豊島区千早3-31-8","lat":35.7344,"lon":139.68825},{"name":"長崎荘","province":"東京都","city":"豊島区","address":"豊島区長崎4-35-1","lat":35.73136,"lon":139.68503},{"name":"東京都立大塚病院","province":"東京都","city":"豊島区","address":"豊島区南大塚2-8-1","lat":35.72527,"lon":139.73215},{"name":"啓成会義肢研究製作所","province":"東京都","city":"豊島区","address":"豊島区北大塚1-13-8","lat":35.73182,"lon":139.7318},{"name":"豊島区立中央図書館（ひかり文庫）","province":"東京都","city":"豊島区","address":"豊島区東池袋4-5-2ライズアリーナビル5階","lat":35.7267,"lon":139.71896},{"name":"ふるさと上池ハウス","province":"東京都","city":"豊島区","address":"豊島区上池袋1-18-27","lat":35.73488,"lon":139.72195},{"name":"やまて寮　　※現在、休止中","province":"東京都","city":"豊島区","address":"豊島区南池袋4-18-9","lat":35.72435,"lon":139.72029},{"name":"豊島区民社会福祉協議会","province":"東京都","city":"豊島区","address":"豊島区東池袋1-39-2区役所東池袋分庁舎3、4階","lat":35.73244,"lon":139.71432},{"name":"やまて寮　※現在、休止中","province":"東京都","city":"豊島区","address":"豊島区南池袋4-18-9","lat":35.72435,"lon":139.72029},{"name":"啓成会義肢研究製作所","province":"東京都","city":"豊島区","address":"豊島区北大塚1-13-8","lat":35.73186,"lon":139.731352},{"name":"豊島区民社会福祉協議会","province":"東京都","city":"豊島区","address":"豊島区東池袋1-39-2東池袋分庁舎3、4階","lat":35.732564,"lon":139.714344},{"name":"やまて寮※現在、休止中","province":"東京都","city":"豊島区","address":"豊島区南池袋4-18-9","lat":35.72435,"lon":139.72029},{"name":"豊島区民社会福祉協議会","province":"東京都","city":"豊島区","address":"豊島区東池袋1-39-2区役所東池袋分庁舎3、4階","lat":35.73244,"lon":139.71433},{"name":"ふるさと上池ハウス","province":"東京都","city":"豊島区","address":"豊島区上池袋1-18-27","lat":35.734451,"lon":139.721751},{"name":"東京都立大塚病院","province":"東京都","city":"豊島区","address":"豊島区南大塚2-8-1","lat":35.725268,"lon":139.732301},{"name":"豊島区立中央図書館（ひかり文庫）","province":"東京都","city":"豊島区","address":"豊島区東池袋4-5-2ライズアリーナビル5階","lat":35.726948,"lon":139.718902},{"name":"ちとせ橋寮","province":"東京都","city":"豊島区","address":"豊島区雑司ヶ谷3-8-16","lat":35.721184,"lon":139.712905},{"name":"ハピーテラス","province":"東京都","city":"豊島区","address":"東京都豊島区","lat":35.72611722,"lon":139.71660773},{"name":"やまて寮","province":"東京都","city":"豊島区","address":"豊島区南池袋4-18-9","lat":35.724704,"lon":139.720416},{"name":"雑司ヶ谷荘","province":"東京都","city":"豊島区","address":"豊島区雑司が谷3-1-3","lat":35.719162,"lon":139.713694},{"name":"長崎荘","province":"東京都","city":"豊島区","address":"豊島区長崎4-35-1","lat":35.731274,"lon":139.685057},{"name":"東池袋荘","province":"東京都","city":"豊島区","address":"豊島区東池袋2-37-11","lat":35.732525,"lon":139.721815},{"name":"さくら千早ハウス","province":"東京都","city":"豊島区","address":"豊島区千早3-31-8","lat":35.734657,"lon":139.688126},{"name":"豊島区社会福祉協議会","province":"東京都","city":"豊島区","address":"豊島区東池袋1-39-2東池袋分庁舎","lat":35.732564,"lon":139.714344},{"name":"東池袋荘","province":"東京都","city":"豊島区","address":"豊島区東池袋2-37-11","lat":35.73227,"lon":139.72192},{"name":"やまて寮","province":"東京都","city":"豊島区","address":"豊島区南池袋4-18-9","lat":35.72435,"lon":139.72029},{"name":"ちとせ橋寮","province":"東京都","city":"豊島区","address":"豊島区雑司ヶ谷3-8-16","lat":35.72149,"lon":139.71306},{"name":"雑司ヶ谷荘","province":"東京都","city":"豊島区","address":"豊島区雑司が谷3-1-3","lat":35.7195,"lon":139.71396},{"name":"さくら千早ハウス","province":"東京都","city":"豊島区","address":"豊島区千早3-31-8","lat":35.7344,"lon":139.68825},{"name":"長崎荘","province":"東京都","city":"豊島区","address":"豊島区長崎4-35-1","lat":35.73136,"lon":139.68503},{"name":"東京都立大塚病院","province":"東京都","city":"豊島区","address":"豊島区南大塚2-8-1","lat":35.72527,"lon":139.73215},{"name":"啓成会義肢研究製作所","province":"東京都","city":"豊島区","address":"豊島区北大塚1-13-8","lat":35.73182,"lon":139.7318},{"name":"豊島区立中央図書館（ひかり文庫）","province":"東京都","city":"豊島区","address":"豊島区東池袋4-5-2ライズアリーナビル5階","lat":35.7267,"lon":139.71896},{"name":"ふるさと上池ハウス","province":"東京都","city":"豊島区","address":"豊島区上池袋1-18-27","lat":35.73488,"lon":139.72195},{"name":"やまて寮　　※現在、休止中","province":"東京都","city":"豊島区","address":"豊島区南池袋4-18-9","lat":35.72435,"lon":139.72029},{"name":"豊島区民社会福祉協議会","province":"東京都","city":"豊島区","address":"豊島区東池袋1-39-2区役所東池袋分庁舎3、4階","lat":35.73244,"lon":139.71432},{"name":"やまて寮　※現在、休止中","province":"東京都","city":"豊島区","address":"豊島区南池袋4-18-9","lat":35.72435,"lon":139.72029},{"name":"啓成会義肢研究製作所","province":"東京都","city":"豊島区","address":"豊島区北大塚1-13-8","lat":35.73186,"lon":139.731352},{"name":"豊島区民社会福祉協議会","province":"東京都","city":"豊島区","address":"豊島区東池袋1-39-2東池袋分庁舎3、4階","lat":35.732564,"lon":139.714344},{"name":"やまて寮※現在、休止中","province":"東京都","city":"豊島区","address":"豊島区南池袋4-18-9","lat":35.72435,"lon":139.72029},{"name":"豊島区民社会福祉協議会","province":"東京都","city":"豊島区","address":"豊島区東池袋1-39-2区役所東池袋分庁舎3、4階","lat":35.73244,"lon":139.71433},{"name":"ふるさと上池ハウス","province":"東京都","city":"豊島区","address":"豊島区上池袋1-18-27","lat":35.734451,"lon":139.721751},{"name":"東京都立大塚病院","province":"東京都","city":"豊島区","address":"豊島区南大塚2-8-1","lat":35.725268,"lon":139.732301},{"name":"豊島区立中央図書館（ひかり文庫）","province":"東京都","city":"豊島区","address":"豊島区東池袋4-5-2ライズアリーナビル5階","lat":35.726948,"lon":139.718902},{"name":"ちとせ橋寮","province":"東京都","city":"豊島区","address":"豊島区雑司ヶ谷3-8-16","lat":35.721184,"lon":139.712905},{"name":"ハピーテラス","province":"東京都","city":"豊島区","address":"東京都豊島区","lat":35.72611722,"lon":139.71660773},{"name":"やまて寮","province":"東京都","city":"豊島区","address":"豊島区南池袋4-18-9","lat":35.724704,"lon":139.720416},{"name":"雑司ヶ谷荘","province":"東京都","city":"豊島区","address":"豊島区雑司が谷3-1-3","lat":35.719162,"lon":139.713694},{"name":"長崎荘","province":"東京都","city":"豊島区","address":"豊島区長崎4-35-1","lat":35.731274,"lon":139.685057},{"name":"東池袋荘","province":"東京都","city":"豊島区","address":"豊島区東池袋2-37-11","lat":35.732525,"lon":139.721815},{"name":"さくら千早ハウス","province":"東京都","city":"豊島区","address":"豊島区千早3-31-8","lat":35.734657,"lon":139.688126},{"name":"豊島区社会福祉協議会","province":"東京都","city":"豊島区","address":"豊島区東池袋1-39-2東池袋分庁舎","lat":35.732564,"lon":139.714344},{"name":"東池袋荘","province":"東京都","city":"豊島区","address":"豊島区東池袋2-37-11","lat":35.73227,"lon":139.72192},{"name":"やまて寮","province":"東京都","city":"豊島区","address":"豊島区南池袋4-18-9","lat":35.72435,"lon":139.72029},{"name":"ちとせ橋寮","province":"東京都","city":"豊島区","address":"豊島区雑司ヶ谷3-8-16","lat":35.72149,"lon":139.71306},{"name":"雑司ヶ谷荘","province":"東京都","city":"豊島区","address":"豊島区雑司が谷3-1-3","lat":35.7195,"lon":139.71396},{"name":"さくら千早ハウス","province":"東京都","city":"豊島区","address":"豊島区千早3-31-8","lat":35.7344,"lon":139.68825},{"name":"長崎荘","province":"東京都","city":"豊島区","address":"豊島区長崎4-35-1","lat":35.73136,"lon":139.68503},{"name":"東京都立大塚病院","province":"東京都","city":"豊島区","address":"豊島区南大塚2-8-1","lat":35.72527,"lon":139.73215},{"name":"啓成会義肢研究製作所","province":"東京都","city":"豊島区","address":"豊島区北大塚1-13-8","lat":35.73182,"lon":139.7318},{"name":"豊島区立中央図書館（ひかり文庫）","province":"東京都","city":"豊島区","address":"豊島区東池袋4-5-2ライズアリーナビル5階","lat":35.7267,"lon":139.71896},{"name":"ふるさと上池ハウス","province":"東京都","city":"豊島区","address":"豊島区上池袋1-18-27","lat":35.73488,"lon":139.72195},{"name":"やまて寮　　※現在、休止中","province":"東京都","city":"豊島区","address":"豊島区南池袋4-18-9","lat":35.72435,"lon":139.72029},{"name":"豊島区民社会福祉協議会","province":"東京都","city":"豊島区","address":"豊島区東池袋1-39-2区役所東池袋分庁舎3、4階","lat":35.73244,"lon":139.71432},{"name":"やまて寮　※現在、休止中","province":"東京都","city":"豊島区","address":"豊島区南池袋4-18-9","lat":35.72435,"lon":139.72029},{"name":"啓成会義肢研究製作所","province":"東京都","city":"豊島区","address":"豊島区北大塚1-13-8","lat":35.73186,"lon":139.731352},{"name":"豊島区民社会福祉協議会","province":"東京都","city":"豊島区","address":"豊島区東池袋1-39-2東池袋分庁舎3、4階","lat":35.732564,"lon":139.714344},{"name":"やまて寮※現在、休止中","province":"東京都","city":"豊島区","address":"豊島区南池袋4-18-9","lat":35.72435,"lon":139.72029},{"name":"豊島区民社会福祉協議会","province":"東京都","city":"豊島区","address":"豊島区東池袋1-39-2区役所東池袋分庁舎3、4階","lat":35.73244,"lon":139.71433},{"name":"ふるさと上池ハウス","province":"東京都","city":"豊島区","address":"豊島区上池袋1-18-27","lat":35.734451,"lon":139.721751},{"name":"東京都立大塚病院","province":"東京都","city":"豊島区","address":"豊島区南大塚2-8-1","lat":35.725268,"lon":139.732301},{"name":"豊島区立中央図書館（ひかり文庫）","province":"東京都","city":"豊島区","address":"豊島区東池袋4-5-2ライズアリーナビル5階","lat":35.726948,"lon":139.718902},{"name":"ちとせ橋寮","province":"東京都","city":"豊島区","address":"豊島区雑司ヶ谷3-8-16","lat":35.721184,"lon":139.712905},{"name":"ハピーテラス","province":"東京都","city":"豊島区","address":"東京都豊島区","lat":35.72611722,"lon":139.71660773},{"name":"やまて寮","province":"東京都","city":"豊島区","address":"豊島区南池袋4-18-9","lat":35.724704,"lon":139.720416},{"name":"雑司ヶ谷荘","province":"東京都","city":"豊島区","address":"豊島区雑司が谷3-1-3","lat":35.719162,"lon":139.713694},{"name":"長崎荘","province":"東京都","city":"豊島区","address":"豊島区長崎4-35-1","lat":35.731274,"lon":139.685057},{"name":"東池袋荘","province":"東京都","city":"豊島区","address":"豊島区東池袋2-37-11","lat":35.732525,"lon":139.721815},{"name":"さくら千早ハウス","province":"東京都","city":"豊島区","address":"豊島区千早3-31-8","lat":35.734657,"lon":139.688126},{"name":"豊島区社会福祉協議会","province":"東京都","city":"豊島区","address":"豊島区東池袋1-39-2東池袋分庁舎","lat":35.732564,"lon":139.714344},{"name":"東池袋荘","province":"東京都","city":"豊島区","address":"豊島区東池袋2-37-11","lat":35.73227,"lon":139.72192},{"name":"やまて寮","province":"東京都","city":"豊島区","address":"豊島区南池袋4-18-9","lat":35.72435,"lon":139.72029},{"name":"ちとせ橋寮","province":"東京都","city":"豊島区","address":"豊島区雑司ヶ谷3-8-16","lat":35.72149,"lon":139.71306},{"name":"雑司ヶ谷荘","province":"東京都","city":"豊島区","address":"豊島区雑司が谷3-1-3","lat":35.7195,"lon":139.71396},{"name":"さくら千早ハウス","province":"東京都","city":"豊島区","address":"豊島区千早3-31-8","lat":35.7344,"lon":139.68825},{"name":"長崎荘","province":"東京都","city":"豊島区","address":"豊島区長崎4-35-1","lat":35.73136,"lon":139.68503},{"name":"東京都立大塚病院","province":"東京都","city":"豊島区","address":"豊島区南大塚2-8-1","lat":35.72527,"lon":139.73215},{"name":"啓成会義肢研究製作所","province":"東京都","city":"豊島区","address":"豊島区北大塚1-13-8","lat":35.73182,"lon":139.7318},{"name":"豊島区立中央図書館（ひかり文庫）","province":"東京都","city":"豊島区","address":"豊島区東池袋4-5-2ライズアリーナビル5階","lat":35.7267,"lon":139.71896},{"name":"ふるさと上池ハウス","province":"東京都","city":"豊島区","address":"豊島区上池袋1-18-27","lat":35.73488,"lon":139.72195},{"name":"やまて寮　　※現在、休止中","province":"東京都","city":"豊島区","address":"豊島区南池袋4-18-9","lat":35.72435,"lon":139.72029},{"name":"豊島区民社会福祉協議会","province":"東京都","city":"豊島区","address":"豊島区東池袋1-39-2区役所東池袋分庁舎3、4階","lat":35.73244,"lon":139.71432},{"name":"やまて寮　※現在、休止中","province":"東京都","city":"豊島区","address":"豊島区南池袋4-18-9","lat":35.72435,"lon":139.72029},{"name":"啓成会義肢研究製作所","province":"東京都","city":"豊島区","address":"豊島区北大塚1-13-8","lat":35.73186,"lon":139.731352},{"name":"豊島区民社会福祉協議会","province":"東京都","city":"豊島区","address":"豊島区東池袋1-39-2東池袋分庁舎3、4階","lat":35.732564,"lon":139.714344},{"name":"やまて寮※現在、休止中","province":"東京都","city":"豊島区","address":"豊島区南池袋4-18-9","lat":35.72435,"lon":139.72029},{"name":"豊島区民社会福祉協議会","province":"東京都","city":"豊島区","address":"豊島区東池袋1-39-2区役所東池袋分庁舎3、4階","lat":35.73244,"lon":139.71433},{"name":"ふるさと上池ハウス","province":"東京都","city":"豊島区","address":"豊島区上池袋1-18-27","lat":35.734451,"lon":139.721751},{"name":"東京都立大塚病院","province":"東京都","city":"豊島区","address":"豊島区南大塚2-8-1","lat":35.725268,"lon":139.732301},{"name":"豊島区立中央図書館（ひかり文庫）","province":"東京都","city":"豊島区","address":"豊島区東池袋4-5-2ライズアリーナビル5階","lat":35.726948,"lon":139.718902},{"name":"ちとせ橋寮","province":"東京都","city":"豊島区","address":"豊島区雑司ヶ谷3-8-16","lat":35.721184,"lon":139.712905},{"name":"ハピーテラス","province":"東京都","city":"豊島区","address":"東京都豊島区","lat":35.72611722,"lon":139.71660773},{"name":"やまて寮","province":"東京都","city":"豊島区","address":"豊島区南池袋4-18-9","lat":35.724704,"lon":139.720416},{"name":"雑司ヶ谷荘","province":"東京都","city":"豊島区","address":"豊島区雑司が谷3-1-3","lat":35.719162,"lon":139.713694},{"name":"長崎荘","province":"東京都","city":"豊島区","address":"豊島区長崎4-35-1","lat":35.731274,"lon":139.685057},{"name":"東池袋荘","province":"東京都","city":"豊島区","address":"豊島区東池袋2-37-11","lat":35.732525,"lon":139.721815},{"name":"さくら千早ハウス","province":"東京都","city":"豊島区","address":"豊島区千早3-31-8","lat":35.734657,"lon":139.688126},{"name":"豊島区社会福祉協議会","province":"東京都","city":"豊島区","address":"豊島区東池袋1-39-2東池袋分庁舎","lat":35.732564,"lon":139.714344},{"name":"東池袋荘","province":"東京都","city":"豊島区","address":"豊島区東池袋2-37-11","lat":35.73227,"lon":139.72192},{"name":"やまて寮","province":"東京都","city":"豊島区","address":"豊島区南池袋4-18-9","lat":35.72435,"lon":139.72029},{"name":"ちとせ橋寮","province":"東京都","city":"豊島区","address":"豊島区雑司ヶ谷3-8-16","lat":35.72149,"lon":139.71306},{"name":"雑司ヶ谷荘","province":"東京都","city":"豊島区","address":"豊島区雑司が谷3-1-3","lat":35.7195,"lon":139.71396},{"name":"さくら千早ハウス","province":"東京都","city":"豊島区","address":"豊島区千早3-31-8","lat":35.7344,"lon":139.68825},{"name":"長崎荘","province":"東京都","city":"豊島区","address":"豊島区長崎4-35-1","lat":35.73136,"lon":139.68503},{"name":"東京都立大塚病院","province":"東京都","city":"豊島区","address":"豊島区南大塚2-8-1","lat":35.72527,"lon":139.73215},{"name":"啓成会義肢研究製作所","province":"東京都","city":"豊島区","address":"豊島区北大塚1-13-8","lat":35.73182,"lon":139.7318},{"name":"豊島区立中央図書館（ひかり文庫）","province":"東京都","city":"豊島区","address":"豊島区東池袋4-5-2ライズアリーナビル5階","lat":35.7267,"lon":139.71896},{"name":"ふるさと上池ハウス","province":"東京都","city":"豊島区","address":"豊島区上池袋1-18-27","lat":35.73488,"lon":139.72195},{"name":"やまて寮　　※現在、休止中","province":"東京都","city":"豊島区","address":"豊島区南池袋4-18-9","lat":35.72435,"lon":139.72029},{"name":"豊島区民社会福祉協議会","province":"東京都","city":"豊島区","address":"豊島区東池袋1-39-2区役所東池袋分庁舎3、4階","lat":35.73244,"lon":139.71432},{"name":"やまて寮　※現在、休止中","province":"東京都","city":"豊島区","address":"豊島区南池袋4-18-9","lat":35.72435,"lon":139.72029},{"name":"啓成会義肢研究製作所","province":"東京都","city":"豊島区","address":"豊島区北大塚1-13-8","lat":35.73186,"lon":139.731352},{"name":"豊島区民社会福祉協議会","province":"東京都","city":"豊島区","address":"豊島区東池袋1-39-2東池袋分庁舎3、4階","lat":35.732564,"lon":139.714344},{"name":"やまて寮※現在、休止中","province":"東京都","city":"豊島区","address":"豊島区南池袋4-18-9","lat":35.72435,"lon":139.72029},{"name":"豊島区民社会福祉協議会","province":"東京都","city":"豊島区","address":"豊島区東池袋1-39-2区役所東池袋分庁舎3、4階","lat":35.73244,"lon":139.71433},{"name":"ふるさと上池ハウス","province":"東京都","city":"豊島区","address":"豊島区上池袋1-18-27","lat":35.734451,"lon":139.721751},{"name":"東京都立大塚病院","province":"東京都","city":"豊島区","address":"豊島区南大塚2-8-1","lat":35.725268,"lon":139.732301},{"name":"豊島区立中央図書館（ひかり文庫）","province":"東京都","city":"豊島区","address":"豊島区東池袋4-5-2ライズアリーナビル5階","lat":35.726948,"lon":139.718902},{"name":"ちとせ橋寮","province":"東京都","city":"豊島区","address":"豊島区雑司ヶ谷3-8-16","lat":35.721184,"lon":139.712905},{"name":"ハピーテラス","province":"東京都","city":"豊島区","address":"東京都豊島区","lat":35.72611722,"lon":139.71660773},{"name":"やまて寮","province":"東京都","city":"豊島区","address":"豊島区南池袋4-18-9","lat":35.724704,"lon":139.720416},{"name":"雑司ヶ谷荘","province":"東京都","city":"豊島区","address":"豊島区雑司が谷3-1-3","lat":35.719162,"lon":139.713694},{"name":"長崎荘","province":"東京都","city":"豊島区","address":"豊島区長崎4-35-1","lat":35.731274,"lon":139.685057},{"name":"東池袋荘","province":"東京都","city":"豊島区","address":"豊島区東池袋2-37-11","lat":35.732525,"lon":139.721815},{"name":"さくら千早ハウス","province":"東京都","city":"豊島区","address":"豊島区千早3-31-8","lat":35.734657,"lon":139.688126},{"name":"豊島区社会福祉協議会","province":"東京都","city":"豊島区","address":"豊島区東池袋1-39-2東池袋分庁舎","lat":35.732564,"lon":139.714344},{"name":"東池袋荘","province":"東京都","city":"豊島区","address":"豊島区東池袋2-37-11","lat":35.73227,"lon":139.72192},{"name":"やまて寮","province":"東京都","city":"豊島区","address":"豊島区南池袋4-18-9","lat":35.72435,"lon":139.72029},{"name":"ちとせ橋寮","province":"東京都","city":"豊島区","address":"豊島区雑司ヶ谷3-8-16","lat":35.72149,"lon":139.71306},{"name":"雑司ヶ谷荘","province":"東京都","city":"豊島区","address":"豊島区雑司が谷3-1-3","lat":35.7195,"lon":139.71396},{"name":"さくら千早ハウス","province":"東京都","city":"豊島区","address":"豊島区千早3-31-8","lat":35.7344,"lon":139.68825},{"name":"長崎荘","province":"東京都","city":"豊島区","address":"豊島区長崎4-35-1","lat":35.73136,"lon":139.68503},{"name":"東京都立大塚病院","province":"東京都","city":"豊島区","address":"豊島区南大塚2-8-1","lat":35.72527,"lon":139.73215},{"name":"啓成会義肢研究製作所","province":"東京都","city":"豊島区","address":"豊島区北大塚1-13-8","lat":35.73182,"lon":139.7318},{"name":"豊島区立中央図書館（ひかり文庫）","province":"東京都","city":"豊島区","address":"豊島区東池袋4-5-2ライズアリーナビル5階","lat":35.7267,"lon":139.71896},{"name":"ふるさと上池ハウス","province":"東京都","city":"豊島区","address":"豊島区上池袋1-18-27","lat":35.73488,"lon":139.72195},{"name":"やまて寮　　※現在、休止中","province":"東京都","city":"豊島区","address":"豊島区南池袋4-18-9","lat":35.72435,"lon":139.72029},{"name":"豊島区民社会福祉協議会","province":"東京都","city":"豊島区","address":"豊島区東池袋1-39-2区役所東池袋分庁舎3、4階","lat":35.73244,"lon":139.71432},{"name":"やまて寮　※現在、休止中","province":"東京都","city":"豊島区","address":"豊島区南池袋4-18-9","lat":35.72435,"lon":139.72029},{"name":"啓成会義肢研究製作所","province":"東京都","city":"豊島区","address":"豊島区北大塚1-13-8","lat":35.73186,"lon":139.731352},{"name":"豊島区民社会福祉協議会","province":"東京都","city":"豊島区","address":"豊島区東池袋1-39-2東池袋分庁舎3、4階","lat":35.732564,"lon":139.714344},{"name":"やまて寮※現在、休止中","province":"東京都","city":"豊島区","address":"豊島区南池袋4-18-9","lat":35.72435,"lon":139.72029},{"name":"豊島区民社会福祉協議会","province":"東京都","city":"豊島区","address":"豊島区東池袋1-39-2区役所東池袋分庁舎3、4階","lat":35.73244,"lon":139.71433},{"name":"ふるさと上池ハウス","province":"東京都","city":"豊島区","address":"豊島区上池袋1-18-27","lat":35.734451,"lon":139.721751},{"name":"東京都立大塚病院","province":"東京都","city":"豊島区","address":"豊島区南大塚2-8-1","lat":35.725268,"lon":139.732301},{"name":"豊島区立中央図書館（ひかり文庫）","province":"東京都","city":"豊島区","address":"豊島区東池袋4-5-2ライズアリーナビル5階","lat":35.726948,"lon":139.718902},{"name":"ちとせ橋寮","province":"東京都","city":"豊島区","address":"豊島区雑司ヶ谷3-8-16","lat":35.721184,"lon":139.712905},{"name":"ハピーテラス","province":"東京都","city":"豊島区","address":"東京都豊島区","lat":35.72611722,"lon":139.71660773},{"name":"やまて寮","province":"東京都","city":"豊島区","address":"豊島区南池袋4-18-9","lat":35.724704,"lon":139.720416},{"name":"雑司ヶ谷荘","province":"東京都","city":"豊島区","address":"豊島区雑司が谷3-1-3","lat":35.719162,"lon":139.713694},{"name":"長崎荘","province":"東京都","city":"豊島区","address":"豊島区長崎4-35-1","lat":35.731274,"lon":139.685057},{"name":"東池袋荘","province":"東京都","city":"豊島区","address":"豊島区東池袋2-37-11","lat":35.732525,"lon":139.721815},{"name":"さくら千早ハウス","province":"東京都","city":"豊島区","address":"豊島区千早3-31-8","lat":35.734657,"lon":139.688126},{"name":"豊島区社会福祉協議会","province":"東京都","city":"豊島区","address":"豊島区東池袋1-39-2東池袋分庁舎","lat":35.732564,"lon":139.714344},{"name":"東池袋荘","province":"東京都","city":"豊島区","address":"豊島区東池袋2-37-11","lat":35.73227,"lon":139.72192},{"name":"やまて寮","province":"東京都","city":"豊島区","address":"豊島区南池袋4-18-9","lat":35.72435,"lon":139.72029},{"name":"ちとせ橋寮","province":"東京都","city":"豊島区","address":"豊島区雑司ヶ谷3-8-16","lat":35.72149,"lon":139.71306},{"name":"雑司ヶ谷荘","province":"東京都","city":"豊島区","address":"豊島区雑司が谷3-1-3","lat":35.7195,"lon":139.71396},{"name":"さくら千早ハウス","province":"東京都","city":"豊島区","address":"豊島区千早3-31-8","lat":35.7344,"lon":139.68825},{"name":"長崎荘","province":"東京都","city":"豊島区","address":"豊島区長崎4-35-1","lat":35.73136,"lon":139.68503},{"name":"東京都立大塚病院","province":"東京都","city":"豊島区","address":"豊島区南大塚2-8-1","lat":35.72527,"lon":139.73215},{"name":"啓成会義肢研究製作所","province":"東京都","city":"豊島区","address":"豊島区北大塚1-13-8","lat":35.73182,"lon":139.7318},{"name":"豊島区立中央図書館（ひかり文庫）","province":"東京都","city":"豊島区","address":"豊島区東池袋4-5-2ライズアリーナビル5階","lat":35.7267,"lon":139.71896},{"name":"ふるさと上池ハウス","province":"東京都","city":"豊島区","address":"豊島区上池袋1-18-27","lat":35.73488,"lon":139.72195},{"name":"やまて寮　　※現在、休止中","province":"東京都","city":"豊島区","address":"豊島区南池袋4-18-9","lat":35.72435,"lon":139.72029},{"name":"豊島区民社会福祉協議会","province":"東京都","city":"豊島区","address":"豊島区東池袋1-39-2区役所東池袋分庁舎3、4階","lat":35.73244,"lon":139.71432},{"name":"やまて寮　※現在、休止中","province":"東京都","city":"豊島区","address":"豊島区南池袋4-18-9","lat":35.72435,"lon":139.72029},{"name":"啓成会義肢研究製作所","province":"東京都","city":"豊島区","address":"豊島区北大塚1-13-8","lat":35.73186,"lon":139.731352},{"name":"豊島区民社会福祉協議会","province":"東京都","city":"豊島区","address":"豊島区東池袋1-39-2東池袋分庁舎3、4階","lat":35.732564,"lon":139.714344},{"name":"やまて寮※現在、休止中","province":"東京都","city":"豊島区","address":"豊島区南池袋4-18-9","lat":35.72435,"lon":139.72029},{"name":"豊島区民社会福祉協議会","province":"東京都","city":"豊島区","address":"豊島区東池袋1-39-2区役所東池袋分庁舎3、4階","lat":35.73244,"lon":139.71433},{"name":"ふるさと上池ハウス","province":"東京都","city":"豊島区","address":"豊島区上池袋1-18-27","lat":35.734451,"lon":139.721751},{"name":"東京都立大塚病院","province":"東京都","city":"豊島区","address":"豊島区南大塚2-8-1","lat":35.725268,"lon":139.732301},{"name":"豊島区立中央図書館（ひかり文庫）","province":"東京都","city":"豊島区","address":"豊島区東池袋4-5-2ライズアリーナビル5階","lat":35.726948,"lon":139.718902},{"name":"ちとせ橋寮","province":"東京都","city":"豊島区","address":"豊島区雑司ヶ谷3-8-16","lat":35.721184,"lon":139.712905},{"name":"ハピーテラス","province":"東京都","city":"豊島区","address":"東京都豊島区","lat":35.72611722,"lon":139.71660773},{"name":"やまて寮","province":"東京都","city":"豊島区","address":"豊島区南池袋4-18-9","lat":35.724704,"lon":139.720416},{"name":"雑司ヶ谷荘","province":"東京都","city":"豊島区","address":"豊島区雑司が谷3-1-3","lat":35.719162,"lon":139.713694},{"name":"長崎荘","province":"東京都","city":"豊島区","address":"豊島区長崎4-35-1","lat":35.731274,"lon":139.685057},{"name":"東池袋荘","province":"東京都","city":"豊島区","address":"豊島区東池袋2-37-11","lat":35.732525,"lon":139.721815},{"name":"さくら千早ハウス","province":"東京都","city":"豊島区","address":"豊島区千早3-31-8","lat":35.734657,"lon":139.688126},{"name":"豊島区社会福祉協議会","province":"東京都","city":"豊島区","address":"豊島区東池袋1-39-2東池袋分庁舎","lat":35.732564,"lon":139.714344},{"name":"東池袋荘","province":"東京都","city":"豊島区","address":"豊島区東池袋2-37-11","lat":35.73227,"lon":139.72192},{"name":"やまて寮","province":"東京都","city":"豊島区","address":"豊島区南池袋4-18-9","lat":35.72435,"lon":139.72029},{"name":"ちとせ橋寮","province":"東京都","city":"豊島区","address":"豊島区雑司ヶ谷3-8-16","lat":35.72149,"lon":139.71306},{"name":"雑司ヶ谷荘","province":"東京都","city":"豊島区","address":"豊島区雑司が谷3-1-3","lat":35.7195,"lon":139.71396},{"name":"さくら千早ハウス","province":"東京都","city":"豊島区","address":"豊島区千早3-31-8","lat":35.7344,"lon":139.68825},{"name":"長崎荘","province":"東京都","city":"豊島区","address":"豊島区長崎4-35-1","lat":35.73136,"lon":139.68503},{"name":"東京都立大塚病院","province":"東京都","city":"豊島区","address":"豊島区南大塚2-8-1","lat":35.72527,"lon":139.73215},{"name":"啓成会義肢研究製作所","province":"東京都","city":"豊島区","address":"豊島区北大塚1-13-8","lat":35.73182,"lon":139.7318},{"name":"豊島区立中央図書館（ひかり文庫）","province":"東京都","city":"豊島区","address":"豊島区東池袋4-5-2ライズアリーナビル5階","lat":35.7267,"lon":139.71896},{"name":"ふるさと上池ハウス","province":"東京都","city":"豊島区","address":"豊島区上池袋1-18-27","lat":35.73488,"lon":139.72195},{"name":"やまて寮　　※現在、休止中","province":"東京都","city":"豊島区","address":"豊島区南池袋4-18-9","lat":35.72435,"lon":139.72029},{"name":"豊島区民社会福祉協議会","province":"東京都","city":"豊島区","address":"豊島区東池袋1-39-2区役所東池袋分庁舎3、4階","lat":35.73244,"lon":139.71432},{"name":"やまて寮　※現在、休止中","province":"東京都","city":"豊島区","address":"豊島区南池袋4-18-9","lat":35.72435,"lon":139.72029},{"name":"啓成会義肢研究製作所","province":"東京都","city":"豊島区","address":"豊島区北大塚1-13-8","lat":35.73186,"lon":139.731352},{"name":"豊島区民社会福祉協議会","province":"東京都","city":"豊島区","address":"豊島区東池袋1-39-2東池袋分庁舎3、4階","lat":35.732564,"lon":139.714344},{"name":"やまて寮※現在、休止中","province":"東京都","city":"豊島区","address":"豊島区南池袋4-18-9","lat":35.72435,"lon":139.72029},{"name":"豊島区民社会福祉協議会","province":"東京都","city":"豊島区","address":"豊島区東池袋1-39-2区役所東池袋分庁舎3、4階","lat":35.73244,"lon":139.71433},{"name":"ふるさと上池ハウス","province":"東京都","city":"豊島区","address":"豊島区上池袋1-18-27","lat":35.734451,"lon":139.721751},{"name":"東京都立大塚病院","province":"東京都","city":"豊島区","address":"豊島区南大塚2-8-1","lat":35.725268,"lon":139.732301},{"name":"豊島区立中央図書館（ひかり文庫）","province":"東京都","city":"豊島区","address":"豊島区東池袋4-5-2ライズアリーナビル5階","lat":35.726948,"lon":139.718902},{"name":"ちとせ橋寮","province":"東京都","city":"豊島区","address":"豊島区雑司ヶ谷3-8-16","lat":35.721184,"lon":139.712905},{"name":"ハピーテラス","province":"東京都","city":"豊島区","address":"東京都豊島区","lat":35.72611722,"lon":139.71660773},{"name":"やまて寮","province":"東京都","city":"豊島区","address":"豊島区南池袋4-18-9","lat":35.724704,"lon":139.720416},{"name":"雑司ヶ谷荘","province":"東京都","city":"豊島区","address":"豊島区雑司が谷3-1-3","lat":35.719162,"lon":139.713694},{"name":"長崎荘","province":"東京都","city":"豊島区","address":"豊島区長崎4-35-1","lat":35.731274,"lon":139.685057},{"name":"東池袋荘","province":"東京都","city":"豊島区","address":"豊島区東池袋2-37-11","lat":35.732525,"lon":139.721815},{"name":"さくら千早ハウス","province":"東京都","city":"豊島区","address":"豊島区千早3-31-8","lat":35.734657,"lon":139.688126},{"name":"豊島区社会福祉協議会","province":"東京都","city":"豊島区","address":"豊島区東池袋1-39-2東池袋分庁舎","lat":35.732564,"lon":139.714344},{"name":"東池袋荘","province":"東京都","city":"豊島区","address":"豊島区東池袋2-37-11","lat":35.73227,"lon":139.72192},{"name":"やまて寮","province":"東京都","city":"豊島区","address":"豊島区南池袋4-18-9","lat":35.72435,"lon":139.72029},{"name":"ちとせ橋寮","province":"東京都","city":"豊島区","address":"豊島区雑司ヶ谷3-8-16","lat":35.72149,"lon":139.71306},{"name":"雑司ヶ谷荘","province":"東京都","city":"豊島区","address":"豊島区雑司が谷3-1-3","lat":35.7195,"lon":139.71396},{"name":"さくら千早ハウス","province":"東京都","city":"豊島区","address":"豊島区千早3-31-8","lat":35.7344,"lon":139.68825},{"name":"長崎荘","province":"東京都","city":"豊島区","address":"豊島区長崎4-35-1","lat":35.73136,"lon":139.68503},{"name":"東京都立大塚病院","province":"東京都","city":"豊島区","address":"豊島区南大塚2-8-1","lat":35.72527,"lon":139.73215},{"name":"啓成会義肢研究製作所","province":"東京都","city":"豊島区","address":"豊島区北大塚1-13-8","lat":35.73182,"lon":139.7318},{"name":"豊島区立中央図書館（ひかり文庫）","province":"東京都","city":"豊島区","address":"豊島区東池袋4-5-2ライズアリーナビル5階","lat":35.7267,"lon":139.71896},{"name":"ふるさと上池ハウス","province":"東京都","city":"豊島区","address":"豊島区上池袋1-18-27","lat":35.73488,"lon":139.72195},{"name":"やまて寮　　※現在、休止中","province":"東京都","city":"豊島区","address":"豊島区南池袋4-18-9","lat":35.72435,"lon":139.72029},{"name":"豊島区民社会福祉協議会","province":"東京都","city":"豊島区","address":"豊島区東池袋1-39-2区役所東池袋分庁舎3、4階","lat":35.73244,"lon":139.71432},{"name":"やまて寮　※現在、休止中","province":"東京都","city":"豊島区","address":"豊島区南池袋4-18-9","lat":35.72435,"lon":139.72029},{"name":"啓成会義肢研究製作所","province":"東京都","city":"豊島区","address":"豊島区北大塚1-13-8","lat":35.73186,"lon":139.731352},{"name":"豊島区民社会福祉協議会","province":"東京都","city":"豊島区","address":"豊島区東池袋1-39-2東池袋分庁舎3、4階","lat":35.732564,"lon":139.714344},{"name":"やまて寮※現在、休止中","province":"東京都","city":"豊島区","address":"豊島区南池袋4-18-9","lat":35.72435,"lon":139.72029},{"name":"豊島区民社会福祉協議会","province":"東京都","city":"豊島区","address":"豊島区東池袋1-39-2区役所東池袋分庁舎3、4階","lat":35.73244,"lon":139.71433},{"name":"ふるさと上池ハウス","province":"東京都","city":"豊島区","address":"豊島区上池袋1-18-27","lat":35.734451,"lon":139.721751},{"name":"東京都立大塚病院","province":"東京都","city":"豊島区","address":"豊島区南大塚2-8-1","lat":35.725268,"lon":139.732301},{"name":"豊島区立中央図書館（ひかり文庫）","province":"東京都","city":"豊島区","address":"豊島区東池袋4-5-2ライズアリーナビル5階","lat":35.726948,"lon":139.718902},{"name":"ちとせ橋寮","province":"東京都","city":"豊島区","address":"豊島区雑司ヶ谷3-8-16","lat":35.721184,"lon":139.712905},{"name":"ハピーテラス","province":"東京都","city":"豊島区","address":"東京都豊島区","lat":35.72611722,"lon":139.71660773},{"name":"やまて寮","province":"東京都","city":"豊島区","address":"豊島区南池袋4-18-9","lat":35.724704,"lon":139.720416},{"name":"雑司ヶ谷荘","province":"東京都","city":"豊島区","address":"豊島区雑司が谷3-1-3","lat":35.719162,"lon":139.713694},{"name":"長崎荘","province":"東京都","city":"豊島区","address":"豊島区長崎4-35-1","lat":35.731274,"lon":139.685057},{"name":"東池袋荘","province":"東京都","city":"豊島区","address":"豊島区東池袋2-37-11","lat":35.732525,"lon":139.721815},{"name":"さくら千早ハウス","province":"東京都","city":"豊島区","address":"豊島区千早3-31-8","lat":35.734657,"lon":139.688126},{"name":"豊島区社会福祉協議会","province":"東京都","city":"豊島区","address":"豊島区東池袋1-39-2東池袋分庁舎","lat":35.732564,"lon":139.714344},{"name":"東池袋荘","province":"東京都","city":"豊島区","address":"豊島区東池袋2-37-11","lat":35.73227,"lon":139.72192},{"name":"やまて寮","province":"東京都","city":"豊島区","address":"豊島区南池袋4-18-9","lat":35.72435,"lon":139.72029},{"name":"ちとせ橋寮","province":"東京都","city":"豊島区","address":"豊島区雑司ヶ谷3-8-16","lat":35.72149,"lon":139.71306},{"name":"雑司ヶ谷荘","province":"東京都","city":"豊島区","address":"豊島区雑司が谷3-1-3","lat":35.7195,"lon":139.71396},{"name":"さくら千早ハウス","province":"東京都","city":"豊島区","address":"豊島区千早3-31-8","lat":35.7344,"lon":139.68825},{"name":"長崎荘","province":"東京都","city":"豊島区","address":"豊島区長崎4-35-1","lat":35.73136,"lon":139.68503},{"name":"東京都立大塚病院","province":"東京都","city":"豊島区","address":"豊島区南大塚2-8-1","lat":35.72527,"lon":139.73215},{"name":"啓成会義肢研究製作所","province":"東京都","city":"豊島区","address":"豊島区北大塚1-13-8","lat":35.73182,"lon":139.7318},{"name":"豊島区立中央図書館（ひかり文庫）","province":"東京都","city":"豊島区","address":"豊島区東池袋4-5-2ライズアリーナビル5階","lat":35.7267,"lon":139.71896},{"name":"ふるさと上池ハウス","province":"東京都","city":"豊島区","address":"豊島区上池袋1-18-27","lat":35.73488,"lon":139.72195},{"name":"やまて寮　　※現在、休止中","province":"東京都","city":"豊島区","address":"豊島区南池袋4-18-9","lat":35.72435,"lon":139.72029},{"name":"豊島区民社会福祉協議会","province":"東京都","city":"豊島区","address":"豊島区東池袋1-39-2区役所東池袋分庁舎3、4階","lat":35.73244,"lon":139.71432},{"name":"やまて寮　※現在、休止中","province":"東京都","city":"豊島区","address":"豊島区南池袋4-18-9","lat":35.72435,"lon":139.72029},{"name":"啓成会義肢研究製作所","province":"東京都","city":"豊島区","address":"豊島区北大塚1-13-8","lat":35.73186,"lon":139.731352},{"name":"豊島区民社会福祉協議会","province":"東京都","city":"豊島区","address":"豊島区東池袋1-39-2東池袋分庁舎3、4階","lat":35.732564,"lon":139.714344},{"name":"やまて寮※現在、休止中","province":"東京都","city":"豊島区","address":"豊島区南池袋4-18-9","lat":35.72435,"lon":139.72029},{"name":"豊島区民社会福祉協議会","province":"東京都","city":"豊島区","address":"豊島区東池袋1-39-2区役所東池袋分庁舎3、4階","lat":35.73244,"lon":139.71433},{"name":"ふるさと上池ハウス","province":"東京都","city":"豊島区","address":"豊島区上池袋1-18-27","lat":35.734451,"lon":139.721751},{"name":"東京都立大塚病院","province":"東京都","city":"豊島区","address":"豊島区南大塚2-8-1","lat":35.725268,"lon":139.732301},{"name":"豊島区立中央図書館（ひかり文庫）","province":"東京都","city":"豊島区","address":"豊島区東池袋4-5-2ライズアリーナビル5階","lat":35.726948,"lon":139.718902},{"name":"ちとせ橋寮","province":"東京都","city":"豊島区","address":"豊島区雑司ヶ谷3-8-16","lat":35.721184,"lon":139.712905},{"name":"ハピーテラス","province":"東京都","city":"豊島区","address":"東京都豊島区","lat":35.72611722,"lon":139.71660773},{"name":"やまて寮","province":"東京都","city":"豊島区","address":"豊島区南池袋4-18-9","lat":35.724704,"lon":139.720416},{"name":"雑司ヶ谷荘","province":"東京都","city":"豊島区","address":"豊島区雑司が谷3-1-3","lat":35.719162,"lon":139.713694},{"name":"長崎荘","province":"東京都","city":"豊島区","address":"豊島区長崎4-35-1","lat":35.731274,"lon":139.685057},{"name":"東池袋荘","province":"東京都","city":"豊島区","address":"豊島区東池袋2-37-11","lat":35.732525,"lon":139.721815},{"name":"さくら千早ハウス","province":"東京都","city":"豊島区","address":"豊島区千早3-31-8","lat":35.734657,"lon":139.688126},{"name":"豊島区社会福祉協議会","province":"東京都","city":"豊島区","address":"豊島区東池袋1-39-2東池袋分庁舎","lat":35.732564,"lon":139.714344},{"name":"東池袋荘","province":"東京都","city":"豊島区","address":"豊島区東池袋2-37-11","lat":35.73227,"lon":139.72192},{"name":"やまて寮","province":"東京都","city":"豊島区","address":"豊島区南池袋4-18-9","lat":35.72435,"lon":139.72029},{"name":"ちとせ橋寮","province":"東京都","city":"豊島区","address":"豊島区雑司ヶ谷3-8-16","lat":35.72149,"lon":139.71306},{"name":"雑司ヶ谷荘","province":"東京都","city":"豊島区","address":"豊島区雑司が谷3-1-3","lat":35.7195,"lon":139.71396},{"name":"さくら千早ハウス","province":"東京都","city":"豊島区","address":"豊島区千早3-31-8","lat":35.7344,"lon":139.68825},{"name":"長崎荘","province":"東京都","city":"豊島区","address":"豊島区長崎4-35-1","lat":35.73136,"lon":139.68503},{"name":"東京都立大塚病院","province":"東京都","city":"豊島区","address":"豊島区南大塚2-8-1","lat":35.72527,"lon":139.73215},{"name":"啓成会義肢研究製作所","province":"東京都","city":"豊島区","address":"豊島区北大塚1-13-8","lat":35.73182,"lon":139.7318},{"name":"豊島区立中央図書館（ひかり文庫）","province":"東京都","city":"豊島区","address":"豊島区東池袋4-5-2ライズアリーナビル5階","lat":35.7267,"lon":139.71896},{"name":"ふるさと上池ハウス","province":"東京都","city":"豊島区","address":"豊島区上池袋1-18-27","lat":35.73488,"lon":139.72195},{"name":"やまて寮　　※現在、休止中","province":"東京都","city":"豊島区","address":"豊島区南池袋4-18-9","lat":35.72435,"lon":139.72029},{"name":"豊島区民社会福祉協議会","province":"東京都","city":"豊島区","address":"豊島区東池袋1-39-2区役所東池袋分庁舎3、4階","lat":35.73244,"lon":139.71432},{"name":"やまて寮　※現在、休止中","province":"東京都","city":"豊島区","address":"豊島区南池袋4-18-9","lat":35.72435,"lon":139.72029},{"name":"啓成会義肢研究製作所","province":"東京都","city":"豊島区","address":"豊島区北大塚1-13-8","lat":35.73186,"lon":139.731352},{"name":"豊島区民社会福祉協議会","province":"東京都","city":"豊島区","address":"豊島区東池袋1-39-2東池袋分庁舎3、4階","lat":35.732564,"lon":139.714344},{"name":"やまて寮※現在、休止中","province":"東京都","city":"豊島区","address":"豊島区南池袋4-18-9","lat":35.72435,"lon":139.72029},{"name":"豊島区民社会福祉協議会","province":"東京都","city":"豊島区","address":"豊島区東池袋1-39-2区役所東池袋分庁舎3、4階","lat":35.73244,"lon":139.71433},{"name":"ふるさと上池ハウス","province":"東京都","city":"豊島区","address":"豊島区上池袋1-18-27","lat":35.734451,"lon":139.721751},{"name":"東京都立大塚病院","province":"東京都","city":"豊島区","address":"豊島区南大塚2-8-1","lat":35.725268,"lon":139.732301},{"name":"豊島区立中央図書館（ひかり文庫）","province":"東京都","city":"豊島区","address":"豊島区東池袋4-5-2ライズアリーナビル5階","lat":35.726948,"lon":139.718902},{"name":"ちとせ橋寮","province":"東京都","city":"豊島区","address":"豊島区雑司ヶ谷3-8-16","lat":35.721184,"lon":139.712905},{"name":"ハピーテラス","province":"東京都","city":"豊島区","address":"東京都豊島区","lat":35.72611722,"lon":139.71660773},{"name":"やまて寮","province":"東京都","city":"豊島区","address":"豊島区南池袋4-18-9","lat":35.724704,"lon":139.720416},{"name":"雑司ヶ谷荘","province":"東京都","city":"豊島区","address":"豊島区雑司が谷3-1-3","lat":35.719162,"lon":139.713694},{"name":"長崎荘","province":"東京都","city":"豊島区","address":"豊島区長崎4-35-1","lat":35.731274,"lon":139.685057},{"name":"東池袋荘","province":"東京都","city":"豊島区","address":"豊島区東池袋2-37-11","lat":35.732525,"lon":139.721815},{"name":"さくら千早ハウス","province":"東京都","city":"豊島区","address":"豊島区千早3-31-8","lat":35.734657,"lon":139.688126},{"name":"豊島区社会福祉協議会","province":"東京都","city":"豊島区","address":"豊島区東池袋1-39-2東池袋分庁舎","lat":35.732564,"lon":139.714344},{"name":"東池袋荘","province":"東京都","city":"豊島区","address":"豊島区東池袋2-37-11","lat":35.73227,"lon":139.72192},{"name":"やまて寮","province":"東京都","city":"豊島区","address":"豊島区南池袋4-18-9","lat":35.72435,"lon":139.72029},{"name":"ちとせ橋寮","province":"東京都","city":"豊島区","address":"豊島区雑司ヶ谷3-8-16","lat":35.72149,"lon":139.71306},{"name":"雑司ヶ谷荘","province":"東京都","city":"豊島区","address":"豊島区雑司が谷3-1-3","lat":35.7195,"lon":139.71396},{"name":"さくら千早ハウス","province":"東京都","city":"豊島区","address":"豊島区千早3-31-8","lat":35.7344,"lon":139.68825},{"name":"長崎荘","province":"東京都","city":"豊島区","address":"豊島区長崎4-35-1","lat":35.73136,"lon":139.68503},{"name":"東京都立大塚病院","province":"東京都","city":"豊島区","address":"豊島区南大塚2-8-1","lat":35.72527,"lon":139.73215},{"name":"啓成会義肢研究製作所","province":"東京都","city":"豊島区","address":"豊島区北大塚1-13-8","lat":35.73182,"lon":139.7318},{"name":"豊島区立中央図書館（ひかり文庫）","province":"東京都","city":"豊島区","address":"豊島区東池袋4-5-2ライズアリーナビル5階","lat":35.7267,"lon":139.71896},{"name":"ふるさと上池ハウス","province":"東京都","city":"豊島区","address":"豊島区上池袋1-18-27","lat":35.73488,"lon":139.72195},{"name":"やまて寮　　※現在、休止中","province":"東京都","city":"豊島区","address":"豊島区南池袋4-18-9","lat":35.72435,"lon":139.72029},{"name":"豊島区民社会福祉協議会","province":"東京都","city":"豊島区","address":"豊島区東池袋1-39-2区役所東池袋分庁舎3、4階","lat":35.73244,"lon":139.71432},{"name":"やまて寮　※現在、休止中","province":"東京都","city":"豊島区","address":"豊島区南池袋4-18-9","lat":35.72435,"lon":139.72029},{"name":"啓成会義肢研究製作所","province":"東京都","city":"豊島区","address":"豊島区北大塚1-13-8","lat":35.73186,"lon":139.731352},{"name":"豊島区民社会福祉協議会","province":"東京都","city":"豊島区","address":"豊島区東池袋1-39-2東池袋分庁舎3、4階","lat":35.732564,"lon":139.714344},{"name":"やまて寮※現在、休止中","province":"東京都","city":"豊島区","address":"豊島区南池袋4-18-9","lat":35.72435,"lon":139.72029},{"name":"豊島区民社会福祉協議会","province":"東京都","city":"豊島区","address":"豊島区東池袋1-39-2区役所東池袋分庁舎3、4階","lat":35.73244,"lon":139.71433},{"name":"ふるさと上池ハウス","province":"東京都","city":"豊島区","address":"豊島区上池袋1-18-27","lat":35.734451,"lon":139.721751},{"name":"東京都立大塚病院","province":"東京都","city":"豊島区","address":"豊島区南大塚2-8-1","lat":35.725268,"lon":139.732301},{"name":"豊島区立中央図書館（ひかり文庫）","province":"東京都","city":"豊島区","address":"豊島区東池袋4-5-2ライズアリーナビル5階","lat":35.726948,"lon":139.718902},{"name":"ちとせ橋寮","province":"東京都","city":"豊島区","address":"豊島区雑司ヶ谷3-8-16","lat":35.721184,"lon":139.712905},{"name":"ハピーテラス","province":"東京都","city":"豊島区","address":"東京都豊島区","lat":35.72611722,"lon":139.71660773},{"name":"やまて寮","province":"東京都","city":"豊島区","address":"豊島区南池袋4-18-9","lat":35.724704,"lon":139.720416},{"name":"雑司ヶ谷荘","province":"東京都","city":"豊島区","address":"豊島区雑司が谷3-1-3","lat":35.719162,"lon":139.713694},{"name":"長崎荘","province":"東京都","city":"豊島区","address":"豊島区長崎4-35-1","lat":35.731274,"lon":139.685057},{"name":"東池袋荘","province":"東京都","city":"豊島区","address":"豊島区東池袋2-37-11","lat":35.732525,"lon":139.721815},{"name":"さくら千早ハウス","province":"東京都","city":"豊島区","address":"豊島区千早3-31-8","lat":35.734657,"lon":139.688126},{"name":"豊島区社会福祉協議会","province":"東京都","city":"豊島区","address":"豊島区東池袋1-39-2東池袋分庁舎","lat":35.732564,"lon":139.714344},{"name":"東池袋荘","province":"東京都","city":"豊島区","address":"豊島区東池袋2-37-11","lat":35.73227,"lon":139.72192},{"name":"やまて寮","province":"東京都","city":"豊島区","address":"豊島区南池袋4-18-9","lat":35.72435,"lon":139.72029},{"name":"ちとせ橋寮","province":"東京都","city":"豊島区","address":"豊島区雑司ヶ谷3-8-16","lat":35.72149,"lon":139.71306},{"name":"雑司ヶ谷荘","province":"東京都","city":"豊島区","address":"豊島区雑司が谷3-1-3","lat":35.7195,"lon":139.71396},{"name":"さくら千早ハウス","province":"東京都","city":"豊島区","address":"豊島区千早3-31-8","lat":35.7344,"lon":139.68825},{"name":"長崎荘","province":"東京都","city":"豊島区","address":"豊島区長崎4-35-1","lat":35.73136,"lon":139.68503},{"name":"東京都立大塚病院","province":"東京都","city":"豊島区","address":"豊島区南大塚2-8-1","lat":35.72527,"lon":139.73215},{"name":"啓成会義肢研究製作所","province":"東京都","city":"豊島区","address":"豊島区北大塚1-13-8","lat":35.73182,"lon":139.7318},{"name":"豊島区立中央図書館（ひかり文庫）","province":"東京都","city":"豊島区","address":"豊島区東池袋4-5-2ライズアリーナビル5階","lat":35.7267,"lon":139.71896},{"name":"ふるさと上池ハウス","province":"東京都","city":"豊島区","address":"豊島区上池袋1-18-27","lat":35.73488,"lon":139.72195},{"name":"やまて寮　　※現在、休止中","province":"東京都","city":"豊島区","address":"豊島区南池袋4-18-9","lat":35.72435,"lon":139.72029},{"name":"豊島区民社会福祉協議会","province":"東京都","city":"豊島区","address":"豊島区東池袋1-39-2区役所東池袋分庁舎3、4階","lat":35.73244,"lon":139.71432},{"name":"やまて寮　※現在、休止中","province":"東京都","city":"豊島区","address":"豊島区南池袋4-18-9","lat":35.72435,"lon":139.72029},{"name":"啓成会義肢研究製作所","province":"東京都","city":"豊島区","address":"豊島区北大塚1-13-8","lat":35.73186,"lon":139.731352},{"name":"豊島区民社会福祉協議会","province":"東京都","city":"豊島区","address":"豊島区東池袋1-39-2東池袋分庁舎3、4階","lat":35.732564,"lon":139.714344},{"name":"やまて寮※現在、休止中","province":"東京都","city":"豊島区","address":"豊島区南池袋4-18-9","lat":35.72435,"lon":139.72029},{"name":"豊島区民社会福祉協議会","province":"東京都","city":"豊島区","address":"豊島区東池袋1-39-2区役所東池袋分庁舎3、4階","lat":35.73244,"lon":139.71433},{"name":"ふるさと上池ハウス","province":"東京都","city":"豊島区","address":"豊島区上池袋1-18-27","lat":35.734451,"lon":139.721751},{"name":"東京都立大塚病院","province":"東京都","city":"豊島区","address":"豊島区南大塚2-8-1","lat":35.725268,"lon":139.732301},{"name":"豊島区立中央図書館（ひかり文庫）","province":"東京都","city":"豊島区","address":"豊島区東池袋4-5-2ライズアリーナビル5階","lat":35.726948,"lon":139.718902},{"name":"ちとせ橋寮","province":"東京都","city":"豊島区","address":"豊島区雑司ヶ谷3-8-16","lat":35.721184,"lon":139.712905},{"name":"ハピーテラス","province":"東京都","city":"豊島区","address":"東京都豊島区","lat":35.72611722,"lon":139.71660773},{"name":"やまて寮","province":"東京都","city":"豊島区","address":"豊島区南池袋4-18-9","lat":35.724704,"lon":139.720416},{"name":"雑司ヶ谷荘","province":"東京都","city":"豊島区","address":"豊島区雑司が谷3-1-3","lat":35.719162,"lon":139.713694},{"name":"長崎荘","province":"東京都","city":"豊島区","address":"豊島区長崎4-35-1","lat":35.731274,"lon":139.685057},{"name":"東池袋荘","province":"東京都","city":"豊島区","address":"豊島区東池袋2-37-11","lat":35.732525,"lon":139.721815},{"name":"さくら千早ハウス","province":"東京都","city":"豊島区","address":"豊島区千早3-31-8","lat":35.734657,"lon":139.688126},{"name":"豊島区社会福祉協議会","province":"東京都","city":"豊島区","address":"豊島区東池袋1-39-2東池袋分庁舎","lat":35.732564,"lon":139.714344},{"name":"東池袋荘","province":"東京都","city":"豊島区","address":"豊島区東池袋2-37-11","lat":35.73227,"lon":139.72192},{"name":"やまて寮","province":"東京都","city":"豊島区","address":"豊島区南池袋4-18-9","lat":35.72435,"lon":139.72029},{"name":"ちとせ橋寮","province":"東京都","city":"豊島区","address":"豊島区雑司ヶ谷3-8-16","lat":35.72149,"lon":139.71306},{"name":"雑司ヶ谷荘","province":"東京都","city":"豊島区","address":"豊島区雑司が谷3-1-3","lat":35.7195,"lon":139.71396},{"name":"さくら千早ハウス","province":"東京都","city":"豊島区","address":"豊島区千早3-31-8","lat":35.7344,"lon":139.68825},{"name":"長崎荘","province":"東京都","city":"豊島区","address":"豊島区長崎4-35-1","lat":35.73136,"lon":139.68503},{"name":"東京都立大塚病院","province":"東京都","city":"豊島区","address":"豊島区南大塚2-8-1","lat":35.72527,"lon":139.73215},{"name":"啓成会義肢研究製作所","province":"東京都","city":"豊島区","address":"豊島区北大塚1-13-8","lat":35.73182,"lon":139.7318},{"name":"豊島区立中央図書館（ひかり文庫）","province":"東京都","city":"豊島区","address":"豊島区東池袋4-5-2ライズアリーナビル5階","lat":35.7267,"lon":139.71896},{"name":"ふるさと上池ハウス","province":"東京都","city":"豊島区","address":"豊島区上池袋1-18-27","lat":35.73488,"lon":139.72195},{"name":"やまて寮　　※現在、休止中","province":"東京都","city":"豊島区","address":"豊島区南池袋4-18-9","lat":35.72435,"lon":139.72029},{"name":"豊島区民社会福祉協議会","province":"東京都","city":"豊島区","address":"豊島区東池袋1-39-2区役所東池袋分庁舎3、4階","lat":35.73244,"lon":139.71432},{"name":"やまて寮　※現在、休止中","province":"東京都","city":"豊島区","address":"豊島区南池袋4-18-9","lat":35.72435,"lon":139.72029},{"name":"啓成会義肢研究製作所","province":"東京都","city":"豊島区","address":"豊島区北大塚1-13-8","lat":35.73186,"lon":139.731352},{"name":"豊島区民社会福祉協議会","province":"東京都","city":"豊島区","address":"豊島区東池袋1-39-2東池袋分庁舎3、4階","lat":35.732564,"lon":139.714344},{"name":"やまて寮※現在、休止中","province":"東京都","city":"豊島区","address":"豊島区南池袋4-18-9","lat":35.72435,"lon":139.72029},{"name":"豊島区民社会福祉協議会","province":"東京都","city":"豊島区","address":"豊島区東池袋1-39-2区役所東池袋分庁舎3、4階","lat":35.73244,"lon":139.71433},{"name":"ふるさと上池ハウス","province":"東京都","city":"豊島区","address":"豊島区上池袋1-18-27","lat":35.734451,"lon":139.721751},{"name":"東京都立大塚病院","province":"東京都","city":"豊島区","address":"豊島区南大塚2-8-1","lat":35.725268,"lon":139.732301},{"name":"豊島区立中央図書館（ひかり文庫）","province":"東京都","city":"豊島区","address":"豊島区東池袋4-5-2ライズアリーナビル5階","lat":35.726948,"lon":139.718902},{"name":"ちとせ橋寮","province":"東京都","city":"豊島区","address":"豊島区雑司ヶ谷3-8-16","lat":35.721184,"lon":139.712905},{"name":"ハピーテラス","province":"東京都","city":"豊島区","address":"東京都豊島区","lat":35.72611722,"lon":139.71660773},{"name":"やまて寮","province":"東京都","city":"豊島区","address":"豊島区南池袋4-18-9","lat":35.724704,"lon":139.720416},{"name":"雑司ヶ谷荘","province":"東京都","city":"豊島区","address":"豊島区雑司が谷3-1-3","lat":35.719162,"lon":139.713694},{"name":"長崎荘","province":"東京都","city":"豊島区","address":"豊島区長崎4-35-1","lat":35.731274,"lon":139.685057},{"name":"東池袋荘","province":"東京都","city":"豊島区","address":"豊島区東池袋2-37-11","lat":35.732525,"lon":139.721815},{"name":"さくら千早ハウス","province":"東京都","city":"豊島区","address":"豊島区千早3-31-8","lat":35.734657,"lon":139.688126},{"name":"豊島区社会福祉協議会","province":"東京都","city":"豊島区","address":"豊島区東池袋1-39-2東池袋分庁舎","lat":35.732564,"lon":139.714344},{"name":"東池袋荘","province":"東京都","city":"豊島区","address":"豊島区東池袋2-37-11","lat":35.73227,"lon":139.72192},{"name":"やまて寮","province":"東京都","city":"豊島区","address":"豊島区南池袋4-18-9","lat":35.72435,"lon":139.72029},{"name":"ちとせ橋寮","province":"東京都","city":"豊島区","address":"豊島区雑司ヶ谷3-8-16","lat":35.72149,"lon":139.71306},{"name":"雑司ヶ谷荘","province":"東京都","city":"豊島区","address":"豊島区雑司が谷3-1-3","lat":35.7195,"lon":139.71396},{"name":"さくら千早ハウス","province":"東京都","city":"豊島区","address":"豊島区千早3-31-8","lat":35.7344,"lon":139.68825},{"name":"長崎荘","province":"東京都","city":"豊島区","address":"豊島区長崎4-35-1","lat":35.73136,"lon":139.68503},{"name":"東京都立大塚病院","province":"東京都","city":"豊島区","address":"豊島区南大塚2-8-1","lat":35.72527,"lon":139.73215},{"name":"啓成会義肢研究製作所","province":"東京都","city":"豊島区","address":"豊島区北大塚1-13-8","lat":35.73182,"lon":139.7318},{"name":"豊島区立中央図書館（ひかり文庫）","province":"東京都","city":"豊島区","address":"豊島区東池袋4-5-2ライズアリーナビル5階","lat":35.7267,"lon":139.71896},{"name":"ふるさと上池ハウス","province":"東京都","city":"豊島区","address":"豊島区上池袋1-18-27","lat":35.73488,"lon":139.72195},{"name":"やまて寮　　※現在、休止中","province":"東京都","city":"豊島区","address":"豊島区南池袋4-18-9","lat":35.72435,"lon":139.72029},{"name":"豊島区民社会福祉協議会","province":"東京都","city":"豊島区","address":"豊島区東池袋1-39-2区役所東池袋分庁舎3、4階","lat":35.73244,"lon":139.71432},{"name":"やまて寮　※現在、休止中","province":"東京都","city":"豊島区","address":"豊島区南池袋4-18-9","lat":35.72435,"lon":139.72029},{"name":"啓成会義肢研究製作所","province":"東京都","city":"豊島区","address":"豊島区北大塚1-13-8","lat":35.73186,"lon":139.731352},{"name":"豊島区民社会福祉協議会","province":"東京都","city":"豊島区","address":"豊島区東池袋1-39-2東池袋分庁舎3、4階","lat":35.732564,"lon":139.714344},{"name":"やまて寮※現在、休止中","province":"東京都","city":"豊島区","address":"豊島区南池袋4-18-9","lat":35.72435,"lon":139.72029},{"name":"豊島区民社会福祉協議会","province":"東京都","city":"豊島区","address":"豊島区東池袋1-39-2区役所東池袋分庁舎3、4階","lat":35.73244,"lon":139.71433},{"name":"ふるさと上池ハウス","province":"東京都","city":"豊島区","address":"豊島区上池袋1-18-27","lat":35.734451,"lon":139.721751}]}