{"keyword":"放課後","data":[{"name":"手話でいきる子どもの児童発達支援・放課後等デイサービス　あ～とん塾","province":"東京都","city":"豊島区","address":"豊島区巣鴨3-6-12藤ビル2階","lat":35.734014,"lon":139.734409},{"name":"ハッピーキッズスペースみんと大塚","province":"東京都","city":"豊島区","address":"豊島区北大塚3-10-4岩田ビル1階","lat":35.734308,"lon":139.722004},{"name":"space","province":"東京都","city":"豊島区","address":"豊島区南大塚1-50-12糸原ビル2階","lat":35.730137,"lon":139.731812},{"name":"児童デイサービス・アニマートいけぶくろ","province":"東京都","city":"豊島区","address":"豊島区東池袋3-11-7","lat":35.732178,"lon":139.718835},{"name":"LITALICOジュニア池袋西口教室","province":"東京都","city":"豊島区","address":"豊島区池袋2-46-32階","lat":35.733719,"lon":139.710436},{"name":"オリーブキッズ　せんかわ","province":"東京都","city":"豊島区","address":"豊島区千川2-12-11府川ビル1階","lat":35.741868,"lon":139.693395},{"name":"エントランス池袋教室","province":"東京都","city":"豊島区","address":"豊島区要町2-9-12要町ホワイトビル2階E号","lat":35.735316,"lon":139.692765},{"name":"アフタースクールの会","province":"東京都","city":"豊島区","address":"豊島区長崎6-35-8","lat":35.735601,"lon":139.683005},{"name":"ジャックと豆の樹デイサービスセンター星","province":"東京都","city":"豊島区","address":"豊島区南長崎6-34-7風の樹ビル1F","lat":35.731899,"lon":139.679333},{"name":"放課後デイサービス　ホウェイルリゾート落合南長崎","province":"東京都","city":"豊島区","address":"豊島区南長崎3-6-14","lat":35.724172,"lon":139.687166},{"name":"放課後等デイサービス　ライトハウス","province":"東京都","city":"豊島区","address":"豊島区南長崎5-10-10エラール1階","lat":35.727174,"lon":139.68293},{"name":"運動発達支援スタジオＵＮＩＭＯ南長崎","province":"東京都","city":"豊島区","address":"豊島区南長崎4-1-1BAJビル1階","lat":35.723014,"lon":139.685841}]}