{"keyword":"椅子","data":[{"name":"豊島合同庁舎","province":"東京都","city":"豊島区","address":"東京都豊島区西池袋1丁目17-1","lat":35.73095,"lon":139.708405},{"name":"東京芸術劇場","province":"東京都","city":"豊島区","address":"東京都豊島区西池袋1丁目8-1","lat":35.72987,"lon":139.7082},{"name":"東京芸術劇場","province":"東京都","city":"豊島区","address":"東京都豊島区西池袋1丁目8","lat":35.72998,"lon":139.7078},{"name":"東京芸術劇場","province":"東京都","city":"豊島区","address":"東京都豊島区西池袋1丁目8-1","lat":35.7296,"lon":139.7077},{"name":"東京芸術劇場","province":"東京都","city":"豊島区","address":"東京都豊島区西池袋1丁目8-1","lat":35.72946,"lon":139.7081},{"name":"東京芸術劇場","province":"東京都","city":"豊島区","address":"東京都豊島区西池袋1丁目8","lat":35.72997,"lon":139.7078},{"name":"東京芸術劇場","province":"東京都","city":"豊島区","address":"東京都豊島区西池袋1丁目8","lat":35.72958,"lon":139.7082},{"name":"東京芸術劇場","province":"東京都","city":"豊島区","address":"東京都豊島区西池袋1丁目8-1","lat":35.7301,"lon":139.7083},{"name":"地方独立行政法人東京都立病院機構　東京都立大塚病院","province":"東京都","city":"豊島区","address":"東京都豊島区南大塚2丁目8-1","lat":35.725405,"lon":139.73251},{"name":"地方独立行政法人東京都立病院機構　東京都立大塚病院","province":"東京都","city":"豊島区","address":"東京都豊島区南大塚2丁目8-1","lat":35.725316,"lon":139.732052},{"name":"染井霊園","province":"東京都","city":"豊島区","address":"東京都豊島区駒込5丁目5","lat":35.738622,"lon":139.738376},{"name":"雑司ヶ谷霊園","province":"東京都","city":"豊島区","address":"東京都豊島区南池袋4丁目25","lat":35.722669,"lon":139.717842},{"name":"都営三田線駅巣鴨駅","province":"東京都","city":"豊島区","address":"東京都豊島区巣鴨3丁目27","lat":35.733428,"lon":139.738723},{"name":"都営三田線駅西巣鴨駅","province":"東京都","city":"豊島区","address":"東京都豊島区西巣鴨3丁目24","lat":35.743301,"lon":139.728923},{"name":"区民ひろば西巣鴨第一","province":"東京都","city":"豊島区","address":"東京都豊島区西巣鴨2丁目35-3","lat":35.740429,"lon":139.727833},{"name":"豊島区役所本庁舎","province":"東京都","city":"豊島区","address":"東京都豊島区南池袋2丁目45-3","lat":35.72615,"lon":139.716564},{"name":"豊島区役所本庁舎","province":"東京都","city":"豊島区","address":"東京都豊島区南池袋2丁目45-3","lat":35.726144,"lon":139.716565},{"name":"豊島区役所本庁舎","province":"東京都","city":"豊島区","address":"東京都豊島区南池袋2丁目45-3","lat":35.726148,"lon":139.716571},{"name":"豊島区役所本庁舎","province":"東京都","city":"豊島区","address":"東京都豊島区南池袋2丁目45-3","lat":35.726154,"lon":139.71657},{"name":"豊島区役所本庁舎","province":"東京都","city":"豊島区","address":"東京都豊島区南池袋2丁目45-3","lat":35.726156,"lon":139.716562},{"name":"豊島区役所本庁舎","province":"東京都","city":"豊島区","address":"東京都豊島区南池袋2丁目45-3","lat":35.726151,"lon":139.716557},{"name":"豊島区役所本庁舎","province":"東京都","city":"豊島区","address":"東京都豊島区南池袋2丁目45-3","lat":35.726145,"lon":139.716557},{"name":"豊島区役所東池袋分庁舎","province":"東京都","city":"豊島区","address":"東京都豊島区東池袋1丁目39-2","lat":35.732543,"lon":139.714499},{"name":"東部区民事務所","province":"東京都","city":"豊島区","address":"東京都豊島区北大塚1丁目15-10","lat":35.731248,"lon":139.73134},{"name":"西部区民事務所","province":"東京都","city":"豊島区","address":"東京都豊島区千早2丁目39-16","lat":35.735742,"lon":139.691025},{"name":"区民ひろば仰高","province":"東京都","city":"豊島区","address":"東京都豊島区駒込4丁目12-3","lat":35.736824,"lon":139.740331},{"name":"区民ひろば駒込","province":"東京都","city":"豊島区","address":"東京都豊島区駒込2丁目2-4","lat":35.737169,"lon":139.747741},{"name":"区民ひろば南大塚","province":"東京都","city":"豊島区","address":"東京都豊島区南大塚2丁目36-1","lat":35.729101,"lon":139.729551},{"name":"区民ひろば清和第一","province":"東京都","city":"豊島区","address":"東京都豊島区巣鴨3丁目15-20","lat":35.735686,"lon":139.733854},{"name":"区民ひろば清和第二","province":"東京都","city":"豊島区","address":"東京都豊島区巣鴨3丁目13-12","lat":35.735286,"lon":139.732376},{"name":"トキワ荘通りお休み処","province":"東京都","city":"豊島区","address":"東京都豊島区南長崎2丁目3-2","lat":35.723349,"lon":139.688919},{"name":"区民ひろば西巣鴨第二","province":"東京都","city":"豊島区","address":"東京都豊島区西巣鴨2丁目14-11","lat":35.738802,"lon":139.727799},{"name":"区民ひろば朝日","province":"東京都","city":"豊島区","address":"東京都豊島区巣鴨5丁目33-21","lat":35.740606,"lon":139.733535},{"name":"区民ひろば朝日","province":"東京都","city":"豊島区","address":"東京都豊島区巣鴨5丁目33-21","lat":35.740604,"lon":139.733536},{"name":"区民ひろば豊成","province":"東京都","city":"豊島区","address":"東京都豊島区上池袋1丁目28-7","lat":35.737067,"lon":139.721674},{"name":"区民ひろば上池袋","province":"東京都","city":"豊島区","address":"東京都豊島区上池袋3丁目13-5","lat":35.740073,"lon":139.716648},{"name":"区民ひろば池袋本町","province":"東京都","city":"豊島区","address":"東京都豊島区池袋本町3丁目9-4","lat":35.743688,"lon":139.712703},{"name":"区民ひろば池袋本町","province":"東京都","city":"豊島区","address":"東京都豊島区池袋本町3丁目9-4","lat":35.743637,"lon":139.712782},{"name":"区民ひろば西池袋","province":"東京都","city":"豊島区","address":"東京都豊島区西池袋2丁目37-4","lat":35.727765,"lon":139.706744},{"name":"区民ひろば南池袋","province":"東京都","city":"豊島区","address":"東京都豊島区南池袋3丁目5-12","lat":35.723415,"lon":139.713933},{"name":"区民ひろば高南第一","province":"東京都","city":"豊島区","address":"東京都豊島区高田2丁目11-2","lat":35.715695,"lon":139.714563},{"name":"区民ひろば目白","province":"東京都","city":"豊島区","address":"東京都豊島区目白2丁目20-26","lat":35.722248,"lon":139.709874},{"name":"区民ひろば長崎","province":"東京都","city":"豊島区","address":"東京都豊島区長崎2丁目27-18","lat":35.729607,"lon":139.693005},{"name":"区民ひろば長崎","province":"東京都","city":"豊島区","address":"東京都豊島区長崎2丁目27-18","lat":35.729673,"lon":139.693103},{"name":"区民ひろば富士見台","province":"東京都","city":"豊島区","address":"東京都豊島区南長崎1丁目6-1","lat":35.723985,"lon":139.69171},{"name":"区民ひろば千早","province":"東京都","city":"豊島区","address":"東京都豊島区要町3丁目7-10","lat":35.737195,"lon":139.687399},{"name":"区民ひろば高松","province":"東京都","city":"豊島区","address":"東京都豊島区高松2丁目25-9","lat":35.738778,"lon":139.697519},{"name":"区民ひろばさくら第二","province":"東京都","city":"豊島区","address":"東京都豊島区長崎6丁目37-11","lat":35.736607,"lon":139.682708},{"name":"区民ひろばさくら第一","province":"東京都","city":"豊島区","address":"東京都豊島区南長崎6丁目20-15","lat":35.729751,"lon":139.680965},{"name":"豊島区児童相談所・長崎健康相談所","province":"東京都","city":"豊島区","address":"東京都豊島区長崎3丁目6-24","lat":35.728683,"lon":139.688156},{"name":"区民ひろば池袋","province":"東京都","city":"豊島区","address":"東京都豊島区池袋4丁目21-10","lat":35.738386,"lon":139.70871},{"name":"西部生活福祉課総合施設","province":"東京都","city":"豊島区","address":"東京都豊島区要町1丁目5-1","lat":35.733041,"lon":139.696008},{"name":"要町第一区民集会室","province":"東京都","city":"豊島区","address":"東京都豊島区要町1丁目5-1","lat":35.733041,"lon":139.696008},{"name":"区民ひろば要","province":"東京都","city":"豊島区","address":"東京都豊島区要町1丁目5-1","lat":35.733041,"lon":139.696008},{"name":"池袋保健所","province":"東京都","city":"豊島区","address":"東京都豊島区東池袋4丁目42-16","lat":35.727771,"lon":139.721016},{"name":"池袋保健所","province":"東京都","city":"豊島区","address":"東京都豊島区東池袋4丁目42-16","lat":35.727794,"lon":139.721098},{"name":"中央図書館","province":"東京都","city":"豊島区","address":"東京都豊島区東池袋4丁目5-2","lat":35.726824,"lon":139.718816},{"name":"中央図書館","province":"東京都","city":"豊島区","address":"東京都豊島区東池袋4丁目5-2","lat":35.72688,"lon":139.718834},{"name":"巣鴨図書館","province":"東京都","city":"豊島区","address":"東京都豊島区巣鴨3丁目8-2","lat":35.73391,"lon":139.733194},{"name":"上池袋図書館","province":"東京都","city":"豊島区","address":"東京都豊島区上池袋2丁目45-15","lat":35.738607,"lon":139.716959},{"name":"池袋図書館","province":"東京都","city":"豊島区","address":"東京都豊島区池袋3丁目29-10","lat":35.735934,"lon":139.705839},{"name":"目白図書館","province":"東京都","city":"豊島区","address":"東京都豊島区目白4丁目31-8","lat":35.725692,"lon":139.698888},{"name":"目白図書館","province":"東京都","city":"豊島区","address":"東京都豊島区目白4丁目31-8","lat":35.725741,"lon":139.698893},{"name":"千早図書館","province":"東京都","city":"豊島区","address":"東京都豊島区千早2丁目44-2","lat":35.735727,"lon":139.688356},{"name":"駒込地域文化創造館","province":"東京都","city":"豊島区","address":"東京都豊島区駒込2丁目2-2","lat":35.737091,"lon":139.747253},{"name":"巣鴨地域文化創造館","province":"東京都","city":"豊島区","address":"東京都豊島区巣鴨4丁目15","lat":35.737551,"lon":139.73187},{"name":"巣鴨地域文化創造館","province":"東京都","city":"豊島区","address":"東京都豊島区巣鴨4丁目15-11","lat":35.737598,"lon":139.731809},{"name":"南大塚地域文化創造館","province":"東京都","city":"豊島区","address":"東京都豊島区南大塚2丁目36-1","lat":35.728975,"lon":139.729556},{"name":"千早地域文化創造館","province":"東京都","city":"豊島区","address":"東京都豊島区千早2丁目35-12","lat":35.735338,"lon":139.688619},{"name":"雑司が谷旧宣教師館","province":"東京都","city":"豊島区","address":"東京都豊島区雑司が谷1丁目25","lat":35.720854,"lon":139.720653},{"name":"昭和歴史文化記念館","province":"東京都","city":"豊島区","address":"東京都豊島区南長崎3丁目4","lat":35.723864,"lon":139.687776},{"name":"トキワ荘マンガミュージアム","province":"東京都","city":"豊島区","address":"東京都豊島区南長崎3丁目9","lat":35.724472,"lon":139.686028},{"name":"区民ひろば椎名町","province":"東京都","city":"豊島区","address":"東京都豊島区南長崎4丁目29-10","lat":35.726021,"lon":139.685567},{"name":"南大塚ホール","province":"東京都","city":"豊島区","address":"東京都豊島区南大塚2丁目36-1","lat":35.729318,"lon":139.729776},{"name":"あうるすぽっと","province":"東京都","city":"豊島区","address":"東京都豊島区東池袋4丁目5-2","lat":35.72688,"lon":139.718834},{"name":"あうるすぽっと","province":"東京都","city":"豊島区","address":"東京都豊島区東池袋4丁目5-2","lat":35.726824,"lon":139.718816},{"name":"東京建物BrilliaHALL","province":"東京都","city":"豊島区","address":"東京都豊島区東池袋1丁目19","lat":35.731718,"lon":139.715454},{"name":"東京建物BrilliaHALL","province":"東京都","city":"豊島区","address":"東京都豊島区東池袋1丁目19-1","lat":35.731721,"lon":139.715517},{"name":"駒込東公園","province":"東京都","city":"豊島区","address":"東京都豊島区駒込1丁目22","lat":35.735484,"lon":139.749714},{"name":"江戸橋公園","province":"東京都","city":"豊島区","address":"東京都豊島区巣鴨1丁目37","lat":35.731933,"lon":139.736664},{"name":"西巣鴨公園","province":"東京都","city":"豊島区","address":"東京都豊島区西巣鴨1丁目3","lat":35.736458,"lon":139.7252},{"name":"巣鴨公園","province":"東京都","city":"豊島区","address":"東京都豊島区北大塚1丁目12","lat":35.732323,"lon":139.73179},{"name":"宮仲公園","province":"東京都","city":"豊島区","address":"東京都豊島区上池袋1丁目36","lat":35.73593,"lon":139.724646},{"name":"上池袋公園","province":"東京都","city":"豊島区","address":"東京都豊島区上池袋2丁目25","lat":35.736176,"lon":139.716304},{"name":"上池袋くすのき公園","province":"東京都","city":"豊島区","address":"東京都豊島区上池袋4丁目19","lat":35.740266,"lon":139.720822},{"name":"池袋駅前公園","province":"東京都","city":"豊島区","address":"東京都豊島区東池袋1丁目50","lat":35.732769,"lon":139.713},{"name":"東池袋中央公園","province":"東京都","city":"豊島区","address":"東京都豊島区東池袋3丁目1","lat":35.730319,"lon":139.718749},{"name":"東池袋公園","province":"東京都","city":"豊島区","address":"東京都豊島区東池袋3丁目14","lat":35.73143,"lon":139.717571},{"name":"日出町第二公園","province":"東京都","city":"豊島区","address":"東京都豊島区東池袋4丁目4","lat":35.72609,"lon":139.719346},{"name":"南池袋公園","province":"東京都","city":"豊島区","address":"東京都豊島区南池袋2丁目21","lat":35.727826,"lon":139.714845},{"name":"池袋西口公園","province":"東京都","city":"豊島区","address":"東京都豊島区西池袋1丁目8-26","lat":35.730123,"lon":139.709226},{"name":"御嶽北公園","province":"東京都","city":"豊島区","address":"東京都豊島区池袋3丁目44","lat":35.737189,"lon":139.706276},{"name":"池袋公園","province":"東京都","city":"豊島区","address":"東京都豊島区池袋4丁目22","lat":35.737905,"lon":139.7085},{"name":"池袋本町公園","province":"東京都","city":"豊島区","address":"東京都豊島区池袋本町1丁目26","lat":35.740015,"lon":139.713544},{"name":"高田第二公園","province":"東京都","city":"豊島区","address":"東京都豊島区高田1丁目2","lat":35.713241,"lon":139.720962},{"name":"椎名町公園","province":"東京都","city":"豊島区","address":"東京都豊島区南長崎1丁目20","lat":35.72608,"lon":139.693019},{"name":"南長崎公園","province":"東京都","city":"豊島区","address":"東京都豊島区南長崎3丁目37","lat":35.726735,"lon":139.688392},{"name":"南長崎中央公園スポーツセンター","province":"東京都","city":"豊島区","address":"東京都豊島区南長崎4丁目13-5","lat":35.724821,"lon":139.683479},{"name":"千早二丁目公園","province":"東京都","city":"豊島区","address":"東京都豊島区千早2丁目35","lat":35.735067,"lon":139.688934},{"name":"池袋の森","province":"東京都","city":"豊島区","address":"東京都豊島区池袋1丁目7","lat":35.735087,"lon":139.711886},{"name":"目白の森","province":"東京都","city":"豊島区","address":"東京都豊島区目白4丁目11","lat":35.723105,"lon":139.699141},{"name":"目白庭園","province":"東京都","city":"豊島区","address":"東京都豊島区目白3丁目20","lat":35.724422,"lon":139.705826},{"name":"池袋一丁目第二公園","province":"東京都","city":"豊島区","address":"東京都豊島区池袋1丁目8","lat":35.736356,"lon":139.711748},{"name":"駒込公園","province":"東京都","city":"豊島区","address":"東京都豊島区駒込2丁目3","lat":35.737539,"lon":139.747197},{"name":"朝日公園","province":"東京都","city":"豊島区","address":"東京都豊島区巣鴨5丁目22","lat":35.741229,"lon":139.732554},{"name":"南池袋一丁目公園","province":"東京都","city":"豊島区","address":"東京都豊島区南池袋1丁目4","lat":35.724187,"lon":139.709337},{"name":"千早公園","province":"東京都","city":"豊島区","address":"東京都豊島区千早2丁目31","lat":35.735023,"lon":139.690185},{"name":"池袋第二公園","province":"東京都","city":"豊島区","address":"東京都豊島区池袋3丁目29","lat":35.73587,"lon":139.705376},{"name":"駒込四丁目公園","province":"東京都","city":"豊島区","address":"東京都豊島区駒込4丁目7","lat":35.735042,"lon":139.742565},{"name":"雑司が谷公園","province":"東京都","city":"豊島区","address":"東京都豊島区雑司が谷2丁目11","lat":35.718725,"lon":139.716504},{"name":"富士浅間神社境内仮児童遊園","province":"東京都","city":"豊島区","address":"東京都豊島区高松2丁目9","lat":35.737727,"lon":139.695165},{"name":"北大塚二丁目公園","province":"東京都","city":"豊島区","address":"東京都豊島区北大塚2丁目34","lat":35.734938,"lon":139.729251},{"name":"南長崎三丁目第二公園","province":"東京都","city":"豊島区","address":"東京都豊島区南長崎3丁目40","lat":35.72732,"lon":139.687328},{"name":"目白三丁目公園","province":"東京都","city":"豊島区","address":"東京都豊島区目白3丁目15","lat":35.722878,"lon":139.706344},{"name":"としまみどりの防災公園","province":"東京都","city":"豊島区","address":"東京都豊島区東池袋4丁目42","lat":35.727133,"lon":139.721968},{"name":"雑司が谷公園","province":"東京都","city":"豊島区","address":"東京都豊島区雑司が谷2丁目11","lat":35.71871,"lon":139.716476},{"name":"中池袋公園","province":"東京都","city":"豊島区","address":"東京都豊島区東池袋1丁目16","lat":35.731673,"lon":139.7149},{"name":"池袋駅北口前公衆便所","province":"東京都","city":"豊島区","address":"東京都豊島区西池袋1丁目1-40","lat":35.731707,"lon":139.711346},{"name":"大塚駅前公衆便所","province":"東京都","city":"豊島区","address":"東京都豊島区北大塚2丁目1","lat":35.731788,"lon":139.729395},{"name":"豊島体育館","province":"東京都","city":"豊島区","address":"東京都豊島区要町3丁目47-8","lat":35.740021,"lon":139.689306},{"name":"豊島体育館","province":"東京都","city":"豊島区","address":"東京都豊島区要町3丁目47-8","lat":35.739996,"lon":139.68923},{"name":"豊島体育館","province":"東京都","city":"豊島区","address":"東京都豊島区要町3丁目47-8","lat":35.740019,"lon":139.689273},{"name":"巣鴨体育館","province":"東京都","city":"豊島区","address":"東京都豊島区巣鴨3丁目8-7","lat":35.734233,"lon":139.733466},{"name":"雑司が谷体育館","province":"東京都","city":"豊島区","address":"東京都豊島区雑司が谷3丁目1-7","lat":35.719913,"lon":139.714026},{"name":"雑司が谷体育館","province":"東京都","city":"豊島区","address":"東京都豊島区雑司が谷3丁目1-7","lat":35.719641,"lon":139.71382},{"name":"池袋スポーツセンター","province":"東京都","city":"豊島区","address":"東京都豊島区上池袋2丁目5-1","lat":35.734776,"lon":139.715224},{"name":"池袋スポーツセンター","province":"東京都","city":"豊島区","address":"東京都豊島区上池袋2丁目5-1","lat":35.734771,"lon":139.715227},{"name":"池袋スポーツセンター","province":"東京都","city":"豊島区","address":"東京都豊島区上池袋2丁目5-1","lat":35.73477,"lon":139.715219},{"name":"池袋スポーツセンター","province":"東京都","city":"豊島区","address":"東京都豊島区上池袋2丁目5-1","lat":35.73478,"lon":139.715244},{"name":"南長崎スポーツセンター","province":"東京都","city":"豊島区","address":"東京都豊島区南長崎4丁目13-5","lat":35.724766,"lon":139.683149},{"name":"南長崎スポーツセンター","province":"東京都","city":"豊島区","address":"東京都豊島区南長崎4丁目13-5","lat":35.724853,"lon":139.683039},{"name":"南長崎スポーツセンター","province":"東京都","city":"豊島区","address":"東京都豊島区南長崎4丁目13-5","lat":35.724794,"lon":139.683101},{"name":"南長崎スポーツセンター","province":"東京都","city":"豊島区","address":"東京都豊島区南長崎4丁目13-5","lat":35.724731,"lon":139.683255},{"name":"南長崎スポーツセンター","province":"東京都","city":"豊島区","address":"東京都豊島区南長崎4丁目13-5","lat":35.724733,"lon":139.683158},{"name":"ジャンプ長崎","province":"東京都","city":"豊島区","address":"東京都豊島区長崎2丁目24-13","lat":35.730053,"lon":139.691291},{"name":"としま区民センター","province":"東京都","city":"豊島区","address":"東京都豊島区東池袋1丁目20-10","lat":35.731419,"lon":139.715613},{"name":"としま区民センター","province":"東京都","city":"豊島区","address":"東京都豊島区東池袋1丁目20-10","lat":35.731469,"lon":139.71566},{"name":"としま区民センター","province":"東京都","city":"豊島区","address":"東京都豊島区東池袋1丁目20-10","lat":35.731499,"lon":139.715698},{"name":"としま区民センター","province":"東京都","city":"豊島区","address":"東京都豊島区東池袋1丁目20-10","lat":35.731424,"lon":139.715815},{"name":"としま区民センター","province":"東京都","city":"豊島区","address":"東京都豊島区東池袋1丁目20-10","lat":35.731424,"lon":139.715823},{"name":"としま区民センター","province":"東京都","city":"豊島区","address":"東京都豊島区東池袋1丁目20-10","lat":35.73142,"lon":139.715816},{"name":"としま区民センター","province":"東京都","city":"豊島区","address":"東京都豊島区東池袋1丁目20-10","lat":35.731423,"lon":139.715823},{"name":"としま区民センター","province":"東京都","city":"豊島区","address":"東京都豊島区東池袋1丁目20-10","lat":35.731426,"lon":139.715804},{"name":"としま産業振興プラザ","province":"東京都","city":"豊島区","address":"東京都豊島区西池袋2丁目37-4","lat":35.72776,"lon":139.70673},{"name":"としま産業振興プラザ","province":"東京都","city":"豊島区","address":"東京都豊島区西池袋2丁目37-4","lat":35.727781,"lon":139.706727},{"name":"としま産業振興プラザ","province":"東京都","city":"豊島区","address":"東京都豊島区西池袋2丁目37-4","lat":35.727781,"lon":139.706738},{"name":"としま産業振興プラザ","province":"東京都","city":"豊島区","address":"東京都豊島区西池袋2丁目37-4","lat":35.727772,"lon":139.706741},{"name":"としま産業振興プラザ","province":"東京都","city":"豊島区","address":"東京都豊島区西池袋2丁目37-4","lat":35.727768,"lon":139.70673},{"name":"雑司が谷丘の上テラス","province":"東京都","city":"豊島区","address":"東京都豊島区雑司が谷2丁目12","lat":35.719687,"lon":139.716576}]}