{"keyword":"脳","data":[{"name":"豊島区保健福祉部障害福祉課豊島区立心身障害者福祉センター","province":"東京都","city":"豊島区","address":"東京都豊島区目白5丁目18-8","lat":35.7240752,"lon":139.69585404},{"name":"医療法人社団明善会新大塚榎本クリニック","province":"東京都","city":"豊島区","address":"東京都豊島区南大塚3丁目11-9","lat":35.72828397,"lon":139.72900103},{"name":"医療法人社団明善会榎本クリニック","province":"東京都","city":"豊島区","address":"東京都豊島区西池袋1丁目2-5","lat":35.72775294,"lon":139.70910552},{"name":"LITALICOワークス大塚","province":"東京都","city":"豊島区","address":"東京都豊島区東池袋2丁目13-14","lat":35.73106133,"lon":139.72522902},{"name":"さら就労塾＠ぽれぽれ/池袋","province":"東京都","city":"豊島区","address":"東京都豊島区南池袋2丁目30-7","lat":35.72726985,"lon":139.71602717},{"name":"地域活動支援センターサンハウス","province":"東京都","city":"豊島区","address":"東京都豊島区千川2丁目37-6","lat":35.74264246,"lon":139.69179524},{"name":"株式会社ティラＬｉｎｋキャリアサポートセンター","province":"東京都","city":"豊島区","address":"東京都豊島区東池袋1丁目25-17","lat":35.7280781,"lon":139.7162299},{"name":"社会福祉法人豊芯会地域生活支援センターこかげ","province":"東京都","city":"豊島区","address":"東京都豊島区東池袋4丁目5-1","lat":35.72659779,"lon":139.71902694},{"name":"脳卒中・身体障害専門就労支援センター「リハス」大塚","province":"東京都","city":"豊島区","address":"東京都豊島区北大塚2丁目8-11","lat":35.73338887,"lon":139.72691211},{"name":"リハスワークとしま","province":"東京都","city":"豊島区","address":"東京都豊島区北大塚2丁目8-11","lat":35.73338887,"lon":139.72691211}]}