{"keyword":"自転車","data":[{"name":"豊島区立池袋駅東自転車駐車場","province":"東京都","city":"豊島区","address":"東京都豊島区東池袋1丁目50-23","lat":35.73316079,"lon":139.71341604},{"name":"豊島区立ウイロード自転車駐車場","province":"東京都","city":"豊島区","address":"東京都豊島区南池袋1丁目28-2","lat":35.73090546,"lon":139.71243844},{"name":"豊島区立池袋六ツ又陸橋自転車駐車場","province":"東京都","city":"豊島区","address":"東京都豊島区東池袋3丁目8","lat":35.73273038,"lon":139.71741572},{"name":"豊島区立池袋駅北自転車駐車場","province":"東京都","city":"豊島区","address":"東京都豊島区池袋1丁目4-20","lat":35.73401623,"lon":139.7129105},{"name":"豊島区立池袋駅北第二自転車駐車場","province":"東京都","city":"豊島区","address":"東京都豊島区池袋1丁目4-20","lat":35.73401623,"lon":139.7129105},{"name":"豊島区立池袋駅西自転車駐車場","province":"東京都","city":"豊島区","address":"東京都豊島区西池袋3丁目20-1","lat":35.73053587,"lon":139.70552793},{"name":"豊島区立大塚駅北口路上自転車駐車場","province":"東京都","city":"豊島区","address":"東京都豊島区北大塚2丁目14","lat":35.73211685,"lon":139.7291592},{"name":"豊島区立大塚駅北口第二自転車駐車場","province":"東京都","city":"豊島区","address":"東京都豊島区北大塚2丁目6","lat":35.73250566,"lon":139.72768986},{"name":"豊島区立大塚駅北口第三自転車駐車場","province":"東京都","city":"豊島区","address":"東京都豊島区北大塚2丁目4","lat":35.73294447,"lon":139.72647328},{"name":"豊島区立目白駅東自転車駐車場","province":"東京都","city":"豊島区","address":"東京都豊島区目白1丁目4-1","lat":35.72109529,"lon":139.70682544},{"name":"豊島区立目白駅北自転車駐車場","province":"東京都","city":"豊島区","address":"東京都豊島区目白3丁目16-16","lat":35.72302008,"lon":139.70710867},{"name":"豊島区立目白駅西自転車駐車場","province":"東京都","city":"豊島区","address":"東京都豊島区目白3丁目4-3","lat":35.72157854,"lon":139.70593661},{"name":"豊島区立千登世橋自転車駐車場","province":"東京都","city":"豊島区","address":"東京都豊島区雑司が谷3丁目1-7","lat":35.71967619,"lon":139.71364435},{"name":"豊島区立巣鴨駅北自転車駐車場","province":"東京都","city":"豊島区","address":"東京都豊島区巣鴨2丁目7-11","lat":35.73489179,"lon":139.73949711},{"name":"豊島区立巣鴨駅第三自転車駐車場","province":"東京都","city":"豊島区","address":"東京都豊島区巣鴨2丁目9-23","lat":35.73497233,"lon":139.73907215},{"name":"豊島区立巣鴨駅南自転車駐車場","province":"東京都","city":"豊島区","address":"東京都豊島区巣鴨1丁目13-8","lat":35.73295315,"lon":139.74026101},{"name":"豊島区立巣鴨駅北口白山通り自転車駐車場","province":"東京都","city":"豊島区","address":"東京都豊島区巣鴨2丁目9","lat":35.73477233,"lon":139.73826666},{"name":"豊島区立駒込駅北自転車駐車場","province":"東京都","city":"豊島区","address":"東京都豊島区駒込2丁目2-2","lat":35.73718619,"lon":139.74734915},{"name":"豊島区立要町駅南自転車駐車場","province":"東京都","city":"豊島区","address":"東京都豊島区要町1丁目4-11","lat":35.73335753,"lon":139.69663135},{"name":"豊島区立要町駅北自転車駐車場","province":"東京都","city":"豊島区","address":"東京都豊島区要町1丁目10-8","lat":35.73371866,"lon":139.69870616},{"name":"豊島区立要町駅路上自転車駐車場","province":"東京都","city":"豊島区","address":"東京都豊島区要町1丁目1","lat":35.7329604,"lon":139.69835067},{"name":"豊島区立千川駅南自転車駐車場","province":"東京都","city":"豊島区","address":"東京都豊島区要町3丁目9-16","lat":35.73752908,"lon":139.68977064},{"name":"豊島区立千川駅北第一自転車駐車場","province":"東京都","city":"豊島区","address":"東京都豊島区要町3丁目44-8","lat":35.73915108,"lon":139.68868455},{"name":"豊島区立千川駅北第二自転車駐車場","province":"東京都","city":"豊島区","address":"東京都豊島区要町3丁目55","lat":35.74023152,"lon":139.6885984},{"name":"豊島区立千川駅路上自転車駐車場","province":"東京都","city":"豊島区","address":"東京都豊島区要町3丁目10","lat":35.73733189,"lon":139.69015673},{"name":"豊島区立椎名橋自転車駐車場","province":"東京都","city":"豊島区","address":"東京都豊島区長崎1丁目9-30","lat":35.72680823,"lon":139.69575671},{"name":"豊島区立南長崎自転車駐車場","province":"東京都","city":"豊島区","address":"東京都豊島区南長崎4丁目13-5","lat":35.72480809,"lon":139.68320786},{"name":"プラザ駐輪場","province":"東京都","city":"豊島区","address":"東京都豊島区西池袋1丁目11-1","lat":35.72881672,"lon":139.70932768},{"name":"アトレヴィ巣鴨駐輪場","province":"東京都","city":"豊島区","address":"東京都豊島区巣鴨2丁目7","lat":35.73461407,"lon":139.74040816},{"name":"ライズシティ池袋駐輪場","province":"東京都","city":"豊島区","address":"東京都豊島区東池袋4丁目5-2","lat":35.72696996,"lon":139.71890472},{"name":"西武スマイルパーク東長崎駅北口駐輪場","province":"東京都","city":"豊島区","address":"東京都豊島区長崎5丁目1","lat":35.73100461,"lon":139.68274375},{"name":"西武スマイルパーク東長崎駅南口駐輪場","province":"東京都","city":"豊島区","address":"東京都豊島区南長崎5丁目33-12","lat":35.73013526,"lon":139.68275767},{"name":"池袋北口A・B・C","province":"東京都","city":"豊島区","address":"東京都豊島区西池袋1丁目30","lat":35.73256081,"lon":139.7114468},{"name":"エコステーション２１アイテラス駐輪場","province":"東京都","city":"豊島区","address":"東京都豊島区南長崎4丁目5-20","lat":35.72430535,"lon":139.68255516},{"name":"豊島区立池袋駅東第二自転車駐車場","province":"東京都","city":"豊島区","address":"東京都豊島区東池袋1丁目50-35","lat":35.73161371,"lon":139.71235509},{"name":"豊島区立新大塚駅路上自転車駐車場","province":"東京都","city":"豊島区","address":"東京都豊島区南大塚2丁目8","lat":35.72533716,"lon":139.73159816},{"name":"三井のリパーク・池袋駅東口駐輪場","province":"東京都","city":"豊島区","address":"東京都豊島区東池袋1丁目14-3","lat":35.72998063,"lon":139.71487994},{"name":"JR大塚南口ビル駐輪場","province":"東京都","city":"豊島区","address":"東京都豊島区南大塚3丁目33-1","lat":35.73158912,"lon":139.7285426},{"name":"リーベンパーク目白駐輪場","province":"東京都","city":"豊島区","address":"東京都豊島区目白3丁目14","lat":35.72227292,"lon":139.70639765},{"name":"豊島区立池袋駅南自転車駐車場","province":"東京都","city":"豊島区","address":"東京都豊島区南池袋2丁目21-6","lat":35.72734479,"lon":139.71387458},{"name":"池袋パルコ別館Ｐ’パルコ駐輪場","province":"東京都","city":"豊島区","address":"東京都豊島区東池袋1丁目50-35","lat":35.73161371,"lon":139.71235509},{"name":"三井のリパーク要町駅前駐輪場","province":"東京都","city":"豊島区","address":"東京都豊島区千早1丁目20","lat":35.73238824,"lon":139.69867289},{"name":"豊島区立新庚申塚路上自転車駐車場","province":"東京都","city":"豊島区","address":"東京都豊島区西巣鴨3丁目15","lat":35.74174908,"lon":139.72985875},{"name":"豊島区立池袋駅西第二自転車駐車場","province":"東京都","city":"豊島区","address":"東京都豊島区西池袋1丁目8-1","lat":35.72964715,"lon":139.70794721},{"name":"エコステーション２１東池袋３丁目駐輪場","province":"東京都","city":"豊島区","address":"東京都豊島区東池袋3丁目3-5","lat":35.73012234,"lon":139.71726029},{"name":"サイクルポート要町1","province":"東京都","city":"豊島区","address":"東京都豊島区要町1丁目2-5","lat":35.73285205,"lon":139.69751186},{"name":"三井のリパーク池袋東口駅前第２駐輪場","province":"東京都","city":"豊島区","address":"東京都豊島区南池袋2丁目25-2","lat":35.72751975,"lon":139.71314964},{"name":"西武スマイルパークダイヤゲート池袋駐輪場","province":"東京都","city":"豊島区","address":"東京都豊島区南池袋1丁目16-15","lat":35.72667531,"lon":139.71023047},{"name":"パートナ駒込１丁目駐輪場","province":"東京都","city":"豊島区","address":"東京都豊島区駒込1丁目44","lat":35.7358613,"lon":139.74610208},{"name":"Parking in巣鴨駐輪場","province":"東京都","city":"豊島区","address":"東京都豊島区巣鴨1丁目15-2","lat":35.73345866,"lon":139.74046931}]}