{"keyword":"認可","data":[{"name":"豊島区立東池袋第一保育園","province":"東京都","city":"豊島区","address":"豊島区東池袋2-60-19","lat":35.73359,"lon":139.7177},{"name":"AIAI NURSERY 第一東池袋","province":"東京都","city":"豊島区","address":"豊島区東池袋3-22-17東池袋セントラルプレイス1階","lat":35.73102,"lon":139.72078},{"name":"AIAI NURSERY 第二東池袋","province":"東京都","city":"豊島区","address":"豊島区東池袋四丁目2番1-201号プラウドタワー東池袋ステーションアリーナ","lat":35.7256,"lon":139.72032},{"name":"AIAI NURSERY 要町","province":"東京都","city":"豊島区","address":"豊島区要町1-8-112階","lat":35.7338,"lon":139.6955},{"name":"豊島区立駒込第二保育園","province":"東京都","city":"豊島区","address":"豊島区駒込5-1-3","lat":35.7362,"lon":139.73834},{"name":"キッズガーデン南大塚","province":"東京都","city":"豊島区","address":"豊島区南大塚5-20-6大塚FTビル3階","lat":35.728012,"lon":139.730715},{"name":"あい・あい保育園　東池袋園","province":"東京都","city":"豊島区","address":"豊島区東池袋3-22-17東池袋セントラルプレイス1階","lat":35.73102,"lon":139.72078},{"name":"豊島区立池袋第三保育園","province":"東京都","city":"豊島区","address":"豊島区池袋3-58-15","lat":35.73514,"lon":139.7075},{"name":"あい・あい保育園　要町園","province":"東京都","city":"豊島区","address":"豊島区要町1-8-11","lat":35.7338,"lon":139.6955},{"name":"西巣鴨・学びの保育園","province":"東京都","city":"豊島区","address":"豊島区西巣鴨4-13-5朝日シティパリオ西巣鴨2階","lat":35.74433,"lon":139.72875},{"name":"うぃず巣鴨駅前保育園","province":"東京都","city":"豊島区","address":"豊島区巣鴨3-23-12","lat":35.73348,"lon":139.73669},{"name":"大空と大地のなーさりぃ第一南大塚園","province":"東京都","city":"豊島区","address":"豊島区南大塚2-26-15南大塚ビル2階","lat":35.72788,"lon":139.73009},{"name":"大空と大地のなーさりぃ第二南大塚園","province":"東京都","city":"豊島区","address":"豊島区南大塚2-26-15南大塚ビル3階","lat":35.72788,"lon":139.73009},{"name":"めぐみ保育園","province":"東京都","city":"豊島区","address":"豊島区池袋本町4-1-14","lat":35.74195,"lon":139.71668},{"name":"豊島区立池袋第一保育園","province":"東京都","city":"豊島区","address":"豊島区上池袋3-39-11","lat":35.73916,"lon":139.72083},{"name":"クオリスキッズ東池袋保育園","province":"東京都","city":"豊島区","address":"豊島区東池袋4-34-9","lat":35.72686,"lon":139.72257},{"name":"グローバルキッズ西池袋園","province":"東京都","city":"豊島区","address":"豊島区西池袋2-19-5ラクレーシュ目白","lat":35.7259,"lon":139.7066},{"name":"豊島区立駒込第一保育園","province":"東京都","city":"豊島区","address":"豊島区駒込7-7-22","lat":35.74037,"lon":139.73886},{"name":"キッズガーデン南大塚","province":"東京都","city":"豊島区","address":"豊島区南大塚5-20-6大塚FTビル3階","lat":35.72912,"lon":139.72707},{"name":"あい・あい保育園　東池袋園","province":"東京都","city":"豊島区","address":"豊島区東池袋3-22-17東池袋セントラルプレイス1階","lat":35.73137,"lon":139.7153}]}