{"keyword":"財団","data":[{"name":"H1T巣鴨","province":"東京都","city":"豊島区","address":"東京都豊島区巣鴨1丁目17-6","lat":35.73276148,"lon":139.73890002},{"name":"東京電力（株）大塚支社","province":"東京都","city":"豊島区","address":"豊島区北大塚2-33-17","lat":35.73522,"lon":139.7284},{"name":"H1T巣鴨","province":"東京都","city":"豊島区","address":"東京都豊島区巣鴨1丁目17-6","lat":35.73276148,"lon":139.73890002},{"name":"東京電力（株）大塚支社","province":"東京都","city":"豊島区","address":"豊島区北大塚2-33-17","lat":35.73522,"lon":139.7284},{"name":"H1T巣鴨","province":"東京都","city":"豊島区","address":"東京都豊島区巣鴨1丁目17-6","lat":35.73276148,"lon":139.73890002},{"name":"東京電力（株）大塚支社","province":"東京都","city":"豊島区","address":"豊島区北大塚2-33-17","lat":35.73522,"lon":139.7284},{"name":"H1T巣鴨","province":"東京都","city":"豊島区","address":"東京都豊島区巣鴨1丁目17-6","lat":35.73276148,"lon":139.73890002},{"name":"東京電力（株）大塚支社","province":"東京都","city":"豊島区","address":"豊島区北大塚2-33-17","lat":35.73522,"lon":139.7284},{"name":"東京電力（株）大塚支社","province":"東京都","city":"豊島区","address":"豊島区北大塚2-33-17","lat":35.73522,"lon":139.7284},{"name":"東京電力（株）大塚支社","province":"東京都","city":"豊島区","address":"豊島区北大塚2-33-17","lat":35.73522,"lon":139.7284},{"name":"東京電力（株）大塚支社","province":"東京都","city":"豊島区","address":"豊島区北大塚2-33-17","lat":35.73522,"lon":139.7284},{"name":"東京電力（株）大塚支社","province":"東京都","city":"豊島区","address":"豊島区北大塚2-33-17","lat":35.73522,"lon":139.7284},{"name":"東京電力（株）大塚支社","province":"東京都","city":"豊島区","address":"豊島区北大塚2-33-17","lat":35.73522,"lon":139.7284},{"name":"東京電力（株）大塚支社","province":"東京都","city":"豊島区","address":"豊島区北大塚2-33-17","lat":35.73522,"lon":139.7284},{"name":"東京電力（株）大塚支社","province":"東京都","city":"豊島区","address":"豊島区北大塚2-33-17","lat":35.73522,"lon":139.7284},{"name":"東京電力（株）大塚支社","province":"東京都","city":"豊島区","address":"豊島区北大塚2-33-17","lat":35.73522,"lon":139.7284},{"name":"東京電力（株）大塚支社","province":"東京都","city":"豊島区","address":"豊島区北大塚2-33-17","lat":35.73522,"lon":139.7284},{"name":"東京電力（株）大塚支社","province":"東京都","city":"豊島区","address":"豊島区北大塚2-33-17","lat":35.73522,"lon":139.7284},{"name":"東京電力（株）大塚支社","province":"東京都","city":"豊島区","address":"豊島区北大塚2-33-17","lat":35.73522,"lon":139.7284},{"name":"東京電力（株）大塚支社","province":"東京都","city":"豊島区","address":"豊島区北大塚2-33-17","lat":35.73522,"lon":139.7284},{"name":"東京電力（株）大塚支社","province":"東京都","city":"豊島区","address":"豊島区北大塚2-33-17","lat":35.73522,"lon":139.7284},{"name":"東京電力（株）大塚支社","province":"東京都","city":"豊島区","address":"豊島区北大塚2-33-17","lat":35.73522,"lon":139.7284},{"name":"東京電力（株）大塚支社","province":"東京都","city":"豊島区","address":"豊島区北大塚2-33-17","lat":35.73522,"lon":139.7284},{"name":"東京電力（株）大塚支社","province":"東京都","city":"豊島区","address":"豊島区北大塚2-33-17","lat":35.73522,"lon":139.7284},{"name":"東京電力（株）大塚支社","province":"東京都","city":"豊島区","address":"豊島区北大塚2-33-17","lat":35.73522,"lon":139.7284},{"name":"東京電力（株）大塚支社","province":"東京都","city":"豊島区","address":"豊島区北大塚2-33-17","lat":35.73522,"lon":139.7284},{"name":"東京電力（株）大塚支社","province":"東京都","city":"豊島区","address":"豊島区北大塚2-33-17","lat":35.73522,"lon":139.7284},{"name":"東京電力（株）大塚支社","province":"東京都","city":"豊島区","address":"豊島区北大塚2-33-17","lat":35.73522,"lon":139.7284},{"name":"東京電力（株）大塚支社","province":"東京都","city":"豊島区","address":"豊島区北大塚2-33-17","lat":35.73522,"lon":139.7284},{"name":"東京電力（株）大塚支社","province":"東京都","city":"豊島区","address":"豊島区北大塚2-33-17","lat":35.73522,"lon":139.7284},{"name":"東京電力（株）大塚支社","province":"東京都","city":"豊島区","address":"豊島区北大塚2-33-17","lat":35.73522,"lon":139.7284},{"name":"東京電力（株）大塚支社","province":"東京都","city":"豊島区","address":"豊島区北大塚2-33-17","lat":35.73522,"lon":139.7284},{"name":"東京電力（株）大塚支社","province":"東京都","city":"豊島区","address":"豊島区北大塚2-33-17","lat":35.73522,"lon":139.7284},{"name":"東京電力（株）大塚支社","province":"東京都","city":"豊島区","address":"豊島区北大塚2-33-17","lat":35.73522,"lon":139.7284},{"name":"東京電力（株）大塚支社","province":"東京都","city":"豊島区","address":"豊島区北大塚2-33-17","lat":35.73522,"lon":139.7284}]}