{"keyword":"音響","data":[{"name":"西巣鴨","province":"東京都","city":"豊島区","address":"東京都豊島区西巣鴨3丁目27","lat":35.74406543,"lon":139.72763939},{"name":"新庚申塚","province":"東京都","city":"豊島区","address":"東京都豊島区巣鴨5丁目20-3","lat":35.74143803,"lon":139.73109477},{"name":"巣鴨駅北口","province":"東京都","city":"豊島区","address":"東京都豊島区巣鴨1丁目16-1","lat":35.73315589,"lon":139.73949718},{"name":"向原","province":"東京都","city":"豊島区","address":"東京都豊島区東池袋2丁目1-1","lat":35.72933652,"lon":139.72482357},{"name":"駒込駅北口","province":"東京都","city":"豊島区","address":"東京都豊島区駒込3丁目2-10","lat":35.73655844,"lon":139.74626593},{"name":"とげぬき地蔵入口","province":"東京都","city":"豊島区","address":"東京都豊島区巣鴨3丁目31-5","lat":35.73431124,"lon":139.73701956},{"name":"巣鴨駅南口第二","province":"東京都","city":"豊島区","address":"東京都豊島区巣鴨1丁目12-2","lat":35.73255876,"lon":139.74008604},{"name":"巣鴨小学校入口","province":"東京都","city":"豊島区","address":"東京都豊島区南大塚1丁目13-5","lat":35.72773414,"lon":139.73331735},{"name":"庚申塚","province":"東京都","city":"豊島区","address":"東京都豊島区西巣鴨3丁目1","lat":35.73978265,"lon":139.73011992},{"name":"大塚駅北口","province":"東京都","city":"豊島区","address":"東京都豊島区北大塚2丁目14","lat":35.73211685,"lon":139.7291592},{"name":"大塚駅南口","province":"東京都","city":"豊島区","address":"東京都豊島区南大塚3丁目33-1","lat":35.73158912,"lon":139.7285426},{"name":"東池袋二丁目","province":"東京都","city":"豊島区","address":"東京都豊島区東池袋2丁目20-2","lat":35.73047522,"lon":139.72289591},{"name":"南大塚三丁目","province":"東京都","city":"豊島区","address":"東京都豊島区南大塚2丁目26-15","lat":35.72820344,"lon":139.72971764},{"name":"巣鴨駅北口第二","province":"東京都","city":"豊島区","address":"東京都豊島区巣鴨2丁目1-1","lat":35.73388634,"lon":139.73864444},{"name":"南大塚二丁目","province":"東京都","city":"豊島区","address":"東京都豊島区南大塚1丁目1-8","lat":35.72581497,"lon":139.73535337},{"name":"南大塚一丁目","province":"東京都","city":"豊島区","address":"東京都豊島区南大塚1丁目47-5","lat":35.72875343,"lon":139.73212574},{"name":"向原北","province":"東京都","city":"豊島区","address":"東京都豊島区南大塚3丁目30-1","lat":35.73108356,"lon":139.72568454},{"name":"巣鴨ろう学校入口","province":"東京都","city":"豊島区","address":"東京都豊島区巣鴨4丁目8","lat":35.7363886,"lon":139.73027559},{"name":"巣鴨警察署入口第二","province":"東京都","city":"豊島区","address":"東京都豊島区北大塚1丁目17-9","lat":35.73214743,"lon":139.73022577},{"name":"空蝉橋南","province":"東京都","city":"豊島区","address":"東京都豊島区南大塚3丁目30-6","lat":35.73159183,"lon":139.72578451},{"name":"駒込東口商店街","province":"東京都","city":"豊島区","address":"東京都豊島区駒込1丁目17-2","lat":35.73513943,"lon":139.7520128},{"name":"都営南大塚住宅前","province":"東京都","city":"豊島区","address":"東京都豊島区南大塚3丁目44-14","lat":35.7293505,"lon":139.72895377},{"name":"サンシャイン６０南","province":"東京都","city":"豊島区","address":"東京都豊島区東池袋4丁目27","lat":35.7279032,"lon":139.71942686},{"name":"造幣局西","province":"東京都","city":"豊島区","address":"東京都豊島区東池袋4丁目42-1","lat":35.72672286,"lon":139.72213501},{"name":"巣鴨警察署入口","province":"東京都","city":"豊島区","address":"東京都豊島区北大塚1丁目14-5","lat":35.73189469,"lon":139.7305202},{"name":"大塚駅南口第二","province":"東京都","city":"豊島区","address":"東京都豊島区南大塚2丁目46-1","lat":35.73109477,"lon":139.72978974},{"name":"新田交番東","province":"東京都","city":"豊島区","address":"東京都豊島区北大塚3丁目29-9","lat":35.73576912,"lon":139.72561768},{"name":"南大塚二丁目第三","province":"東京都","city":"豊島区","address":"東京都豊島区南大塚3丁目2-10","lat":35.72728132,"lon":139.72943437},{"name":"大塚駅南口第三","province":"東京都","city":"豊島区","address":"東京都豊島区南大塚3丁目52-10","lat":35.73007265,"lon":139.72894819},{"name":"中央図書館前","province":"東京都","city":"豊島区","address":"東京都豊島区東池袋5丁目39-18","lat":35.72803946,"lon":139.72552356},{"name":"文化センター前","province":"東京都","city":"豊島区","address":"東京都豊島区東池袋3丁目18","lat":35.72976693,"lon":139.72121274},{"name":"日の出町第二公園北","province":"東京都","city":"豊島区","address":"東京都豊島区東池袋4丁目14","lat":35.72616453,"lon":139.72047129},{"name":"大塚駅南口第一","province":"東京都","city":"豊島区","address":"東京都豊島区南大塚2丁目45-8","lat":35.73063926,"lon":139.72955089},{"name":"池袋駅東口","province":"東京都","city":"豊島区","address":"東京都豊島区南池袋1丁目27-5","lat":35.72946951,"lon":139.71262182},{"name":"東池袋一丁目","province":"東京都","city":"豊島区","address":"東京都豊島区東池袋1丁目39-4","lat":35.73234701,"lon":139.71426878},{"name":"池袋駅東口交番前","province":"東京都","city":"豊島区","address":"東京都豊島区東池袋1丁目41-6","lat":35.73162483,"lon":139.7127995},{"name":"サンシャイン６０通り","province":"東京都","city":"豊島区","address":"東京都豊島区東池袋1丁目29-1","lat":35.73047505,"lon":139.71645756},{"name":"池袋東口五差路","province":"東京都","city":"豊島区","address":"東京都豊島区東池袋1丁目2-1","lat":35.72966396,"lon":139.71386893},{"name":"立教大学正門前","province":"東京都","city":"豊島区","address":"東京都豊島区西池袋5丁目10-5","lat":35.73116631,"lon":139.70395027},{"name":"東池袋","province":"東京都","city":"豊島区","address":"東京都豊島区東池袋4丁目7-2","lat":35.72708936,"lon":139.71775203},{"name":"上池袋二丁目","province":"東京都","city":"豊島区","address":"東京都豊島区上池袋1丁目10-11","lat":35.7360245,"lon":139.71970984},{"name":"池袋西口五差路","province":"東京都","city":"豊島区","address":"東京都豊島区西池袋1丁目18-6","lat":35.73146086,"lon":139.70881372},{"name":"池袋警察署前","province":"東京都","city":"豊島区","address":"東京都豊島区西池袋1丁目7-5","lat":35.72853614,"lon":139.70716399},{"name":"ビックリガード入口","province":"東京都","city":"豊島区","address":"東京都豊島区西池袋2丁目41-8","lat":35.72738353,"lon":139.70875557},{"name":"西武池袋駅前","province":"東京都","city":"豊島区","address":"東京都豊島区南池袋1丁目21-7","lat":35.72865571,"lon":139.712258},{"name":"池袋駅西口北","province":"東京都","city":"豊島区","address":"東京都豊島区西池袋1丁目23-1","lat":35.73177752,"lon":139.71002195},{"name":"東池袋中央公園前","province":"東京都","city":"豊島区","address":"東京都豊島区東池袋3丁目16-3","lat":35.73060011,"lon":139.71911566},{"name":"サンシャイン前","province":"東京都","city":"豊島区","address":"東京都豊島区東池袋1丁目27-8","lat":35.72921687,"lon":139.71658815},{"name":"中池袋公園入口","province":"東京都","city":"豊島区","address":"東京都豊島区東池袋1丁目9-8","lat":35.73124714,"lon":139.71428272},{"name":"上池袋郵便局前","province":"東京都","city":"豊島区","address":"東京都豊島区上池袋2丁目14-9","lat":35.73537454,"lon":139.71815722},{"name":"東京芸術劇場前","province":"東京都","city":"豊島区","address":"東京都豊島区西池袋1丁目7-10","lat":35.72901109,"lon":139.7073084},{"name":"上池袋三丁目","province":"東京都","city":"豊島区","address":"東京都豊島区上池袋3丁目33-22","lat":35.73783822,"lon":139.72118741},{"name":"池袋西口公園前","province":"東京都","city":"豊島区","address":"東京都豊島区西池袋1丁目8","lat":35.7290611,"lon":139.70773615},{"name":"南池袋公園入口","province":"東京都","city":"豊島区","address":"東京都豊島区南池袋1丁目25-1","lat":35.72846408,"lon":139.71308293},{"name":"中池袋公園入口南","province":"東京都","city":"豊島区","address":"東京都豊島区東池袋1丁目5-7","lat":35.7310388,"lon":139.71361056},{"name":"南池袋公園前","province":"東京都","city":"豊島区","address":"東京都豊島区東池袋1丁目24-1","lat":35.72870301,"lon":139.71547161},{"name":"池袋西口五差路北","province":"東京都","city":"豊島区","address":"東京都豊島区西池袋1丁目37-10","lat":35.73208856,"lon":139.70879704},{"name":"池袋大橋西詰南","province":"東京都","city":"豊島区","address":"東京都豊島区西池袋1丁目44-1","lat":35.73293578,"lon":139.71194952},{"name":"東池袋一丁目北","province":"東京都","city":"豊島区","address":"東京都豊島区東池袋1丁目18-1","lat":35.73241093,"lon":139.71548812},{"name":"サンシャイン南","province":"東京都","city":"豊島区","address":"東京都豊島区東池袋4丁目24-5","lat":35.72855307,"lon":139.71738534},{"name":"上池袋二丁目北","province":"東京都","city":"豊島区","address":"東京都豊島区上池袋1丁目23-6","lat":35.73662445,"lon":139.72044309},{"name":"池袋東口五差路北","province":"東京都","city":"豊島区","address":"東京都豊島区東池袋1丁目2-8","lat":35.7301778,"lon":139.7138939},{"name":"元池袋公園前","province":"東京都","city":"豊島区","address":"東京都豊島区西池袋1丁目9","lat":35.72896113,"lon":139.70857497},{"name":"健康プラザとしま前","province":"東京都","city":"豊島区","address":"東京都豊島区上池袋2丁目4-4","lat":35.7349412,"lon":139.71595187},{"name":"池袋駅東口中央","province":"東京都","city":"豊島区","address":"東京都豊島区南池袋1丁目28-2","lat":35.73090546,"lon":139.71243844},{"name":"目白駅前","province":"東京都","city":"豊島区","address":"東京都豊島区目白3丁目14-1","lat":35.7219424,"lon":139.7065171},{"name":"高田郵便局前","province":"東京都","city":"豊島区","address":"東京都豊島区高田2丁目5-14","lat":35.71522943,"lon":139.71212798},{"name":"千登世橋上","province":"東京都","city":"豊島区","address":"東京都豊島区目白1丁目7-17","lat":35.71899569,"lon":139.71291666},{"name":"千登世橋下","province":"東京都","city":"豊島区","address":"東京都豊島区雑司が谷3丁目3-25","lat":35.72011226,"lon":139.71367211},{"name":"東池袋四丁目","province":"東京都","city":"豊島区","address":"東京都豊島区南池袋2丁目41-12","lat":35.72573121,"lon":139.71872423},{"name":"南池袋一丁目","province":"東京都","city":"豊島区","address":"東京都豊島区南池袋3丁目13-10","lat":35.72641151,"lon":139.71184701},{"name":"椎名町駅入口","province":"東京都","city":"豊島区","address":"東京都豊島区南長崎1丁目17-17","lat":35.72515282,"lon":139.69460688},{"name":"南池袋一丁目第二","province":"東京都","city":"豊島区","address":"東京都豊島区南池袋1丁目19-6","lat":35.72781413,"lon":139.71230803},{"name":"学習院下電停前","province":"東京都","city":"豊島区","address":"東京都豊島区高田2丁目7-13","lat":35.71615156,"lon":139.71260847},{"name":"要町三丁目","province":"東京都","city":"豊島区","address":"東京都豊島区要町3丁目45-11","lat":35.73988153,"lon":139.68765404},{"name":"東池袋四丁目東","province":"東京都","city":"豊島区","address":"東京都豊島区南池袋4丁目18-12","lat":35.72475637,"lon":139.72061022},{"name":"南池袋四丁目","province":"東京都","city":"豊島区","address":"東京都豊島区南池袋4丁目22-17","lat":35.72384539,"lon":139.72165183},{"name":"南池袋一丁目南","province":"東京都","city":"豊島区","address":"東京都豊島区南池袋3丁目12-5","lat":35.72523385,"lon":139.71173873},{"name":"長崎六丁目","province":"東京都","city":"豊島区","address":"東京都豊島区長崎5丁目5-8","lat":35.73327096,"lon":139.68069382},{"name":"高田三丁目第二","province":"東京都","city":"豊島区","address":"東京都豊島区高田3丁目29-3","lat":35.71607082,"lon":139.7056674},{"name":"東池袋四丁目西","province":"東京都","city":"豊島区","address":"東京都豊島区東池袋4丁目4","lat":35.72643948,"lon":139.71960468},{"name":"佐々木学園前","province":"東京都","city":"豊島区","address":"東京都豊島区南池袋2丁目33-2","lat":35.72595887,"lon":139.71514953},{"name":"東池袋四丁目西第二","province":"東京都","city":"豊島区","address":"東京都豊島区東池袋4丁目5-1","lat":35.72659779,"lon":139.71902694},{"name":"ビックリガード下","province":"東京都","city":"豊島区","address":"東京都豊島区南池袋1丁目15","lat":35.72535877,"lon":139.70920561},{"name":"雑司が谷駅前","province":"東京都","city":"豊島区","address":"東京都豊島区高田2丁目17-20","lat":35.71841247,"lon":139.71423324},{"name":"学習院角第二","province":"東京都","city":"豊島区","address":"東京都豊島区目白2丁目39-3","lat":35.72181189,"lon":139.70723093},{"name":"霜降橋","province":"東京都","city":"豊島区","address":"東京都豊島区駒込2丁目8-4","lat":35.73968584,"lon":139.74687685},{"name":"滝野川七丁目","province":"東京都","city":"豊島区","address":"東京都豊島区西巣鴨2丁目21-4","lat":35.74060188,"lon":139.72478145},{"name":"滝野川三丁目東","province":"東京都","city":"豊島区","address":"東京都豊島区西巣鴨4丁目22","lat":35.74492374,"lon":139.73113906}]}