{"keyword":"館","data":[{"name":"ジャンプ東池袋","province":"東京都","city":"豊島区","address":"豊島区東池袋2-38-10","lat":35.731925,"lon":139.721529},{"name":"豊島区立ジャンプ長崎","province":"東京都","city":"豊島区","address":"豊島区長崎2-24-13","lat":35.729969,"lon":139.691321},{"name":"豊島区立中央図書館","province":"東京都","city":"豊島区","address":"東京都豊島区東池袋4丁目5-2","lat":35.72696996,"lon":139.71890472},{"name":"豊島区立巣鴨図書館","province":"東京都","city":"豊島区","address":"東京都豊島区巣鴨3丁目8-2","lat":35.73395562,"lon":139.73310879},{"name":"豊島区立千早図書館","province":"東京都","city":"豊島区","address":"東京都豊島区千早2丁目44-2","lat":35.73562369,"lon":139.68841251},{"name":"豊島区立駒込図書館","province":"東京都","city":"豊島区","address":"東京都豊島区駒込2丁目2-2","lat":35.73718619,"lon":139.74734915},{"name":"豊島区立上池袋図書館","province":"東京都","city":"豊島区","address":"東京都豊島区上池袋2丁目45-15","lat":35.73863248,"lon":139.71699051},{"name":"豊島区立池袋図書館","province":"東京都","city":"豊島区","address":"東京都豊島区池袋3丁目29-10","lat":35.73595749,"lon":139.70579158},{"name":"豊島区立目白図書館","province":"東京都","city":"豊島区","address":"東京都豊島区目白4丁目31-8","lat":35.72577787,"lon":139.69887593},{"name":"ジャンプ東池袋","province":"東京都","city":"豊島区","address":"豊島区東池袋2-38-10","lat":35.73165,"lon":139.72156},{"name":"豊島区立ジャンプ長崎","province":"東京都","city":"豊島区","address":"豊島区長崎2-24-13","lat":35.72928,"lon":139.69102},{"name":"豊島区立ジャンプ長崎","province":"東京都","city":"豊島区","address":"豊島区長崎2-24-13","lat":35.72928,"lon":139.69103},{"name":"＊中央図書館","province":"東京都","city":"豊島区","address":"豊島区東池袋4-5-2ライズアリーナビル4・5階","lat":35.726957,"lon":139.71892},{"name":"＊?駒込図書館","province":"東京都","city":"豊島区","address":"豊島区駒込2-2-2","lat":35.737238,"lon":139.74741},{"name":"＊?巣鴨図書館","province":"東京都","city":"豊島区","address":"豊島区巣鴨3-8-2","lat":35.733959,"lon":139.73313},{"name":"＊?上池袋図書館","province":"東京都","city":"豊島区","address":"豊島区上池袋2-45-15","lat":35.738552,"lon":139.717009},{"name":"＊?池袋図書館","province":"東京都","city":"豊島区","address":"豊島区池袋3-29-10","lat":35.73594,"lon":139.705831},{"name":"＊?雑司が谷図書貸出コーナー","province":"東京都","city":"豊島区","address":"豊島区雑司が谷3-1-7","lat":35.719723,"lon":139.713751},{"name":"＊?目白図書館","province":"東京都","city":"豊島区","address":"豊島区目白4-31-8","lat":35.72576,"lon":139.698851},{"name":"＊?千早図書館","province":"東京都","city":"豊島区","address":"豊島区千早2-44-2","lat":35.73562,"lon":139.688442}]}