一連番号,測定地点住所,緯度,経度,座標系,道路名,環境基準類型,測定開始年月日,測定終了年月日,道路種別,車線数,車道端からの距離,地上からの高さ,昼間等価騒音レベル(dB),夜間等価騒音レベル(dB)
524,小平市中島町26-9,35.729717,139.434265,JGD2011,都道中島十番線(村山街道),a,2012-11-28,2012-11-29,4,2,2,1.2,67,64
525,小平市上水本町1-25-31,35.720364,139.464783,JGD2011,都道所沢府中線(府中街道),a,2012-11-28,2012-11-29,4,2,2,1.2,70,69
526,小平市上水本町3-11-11,35.717648,139.470566,JGD2011,都道杉並あきる野線(五日市街道),a,2012-11-28,2012-11-29,4,2,2,1.2,67,63
527,小平市鈴木町1-487,35.718842,139.496735,JGD2011,都道府中小平線(新小金井街道),a,2012-11-28,2012-11-29,4,2,5,1.2,70,68
528,小平市花小金井5-463,35.733681,139.512436,JGD2011,都道新宿青梅線(青梅街道),a,2012-11-28,2012-11-29,4,2,3,1.2,67,65
529,小平市津田町3-34-8,35.726337,139.470108,JGD2011,市道第B-20号(たかの街道),a,2012-11-28,2012-11-29,6,2,2,1.2,67,61
530,小平市小川町1丁目,35.729229,139.450027,JGD2011,都道新宿青梅線,A,2012-11-28,2012-11-29,4,2,2.1,1.2,70,67
531,小平市鈴木町2丁目,35.722298,139.506287,JGD2011,都道小川山田無線,A,2012-11-28,2012-11-29,4,2,3.7,1.2,67,63
532,小平市花小金井1丁目40,35.726364,139.517715,JGD2011,都道小川山田無線,A,2012-11-28,2012-11-29,4,2,1.3,1.2,65,61
