{"keyword":"喫煙","data":[{"name":"上野公園前交番裏","province":"東京都","city":"台東区","address":"東京都台東区上野公園1","lat":35.7112,"lon":139.77377},{"name":"JR上野駅（広小路口）ぺデストリアンデッキ上","province":"東京都","city":"台東区","address":"東京都台東区上野7丁目1","lat":35.71163,"lon":139.77628},{"name":"JR上野駅（浅草口）ペデストリアンデッキ上","province":"東京都","city":"台東区","address":"東京都台東区上野7丁目1","lat":35.71168,"lon":139.77726},{"name":"浅草寺境内 ①「二尊仏前」東","province":"東京都","city":"台東区","address":"東京都台東区浅草2丁目3","lat":35.71361,"lon":139.79737},{"name":"浅草寺境内 ②「観音前警備派出所」北","province":"東京都","city":"台東区","address":"東京都台東区浅草2丁目3","lat":35.71411,"lon":139.79726},{"name":"浅草寺境内 ③「北側トイレ」南","province":"東京都","city":"台東区","address":"東京都台東区浅草2丁目30","lat":35.71559,"lon":139.79706},{"name":"浅草寺境内 ④「はとバス駐車場」西","province":"東京都","city":"台東区","address":"東京都台東区浅草2丁目3","lat":35.71528,"lon":139.79597},{"name":"広徳公園内","province":"東京都","city":"台東区","address":"東京都台東区東上野4丁目5","lat":35.71248,"lon":139.78067},{"name":"池之端二丁目公衆トイレ横","province":"東京都","city":"台東区","address":"東京都台東区池之端2丁目4","lat":35.71358,"lon":139.76573},{"name":"本庁舎駐車場出口横","province":"東京都","city":"台東区","address":"東京都台東区東上野4丁目5","lat":35.712724,"lon":139.779469},{"name":"台東リバーサイドスポーツセンター体育館前","province":"東京都","city":"台東区","address":"東京都台東区今戸1丁目1","lat":35.717866,"lon":139.804235},{"name":"清川清掃車庫内","province":"東京都","city":"台東区","address":"東京都台東区清川2丁目24","lat":35.727847,"lon":139.805037},{"name":"鶯谷公園内","province":"東京都","city":"台東区","address":"東京都台東区根岸1丁目3","lat":35.721114,"lon":139.779621},{"name":"上野公園正岡子規記念球場横","province":"東京都","city":"台東区","address":"東京都台東区上野公園5","lat":35.714185,"lon":139.77416},{"name":"金竜公園内","province":"東京都","city":"台東区","address":"東京都台東区西浅草3丁目25","lat":35.716998,"lon":139.789717},{"name":"隅田公園内","province":"東京都","city":"台東区","address":"東京都台東区花川戸1丁目1","lat":35.712469,"lon":139.800097},{"name":"paspa 浅草橋","province":"東京都","city":"台東区","address":"東京都台東区柳橋2丁目6-8","lat":35.69849,"lon":139.78759},{"name":"ファミリーマート　台東一丁目店","province":"東京都","city":"台東区","address":"東京都台東区台東1丁目1-14","lat":35.70069,"lon":139.78038},{"name":"セブン-イレブン　東上野１丁目店","province":"東京都","city":"台東区","address":"東京都台東区東上野1丁目7-15","lat":35.70759,"lon":139.77987},{"name":"セブン-イレブン　台東松が谷１丁目店","province":"東京都","city":"台東区","address":"東京都台東区松が谷1丁目3-5","lat":35.71107,"lon":139.78613},{"name":"セブン-イレブン　田原町駅前店","province":"東京都","city":"台東区","address":"東京都台東区寿2丁目10-10","lat":35.70956,"lon":139.79066},{"name":"smokers peace in ミマツ書房","province":"東京都","city":"台東区","address":"東京都台東区台東3丁目44-4","lat":35.70564,"lon":139.77756},{"name":"ファミリーマート　台東四丁目店","province":"東京都","city":"台東区","address":"東京都台東区台東4丁目30-6","lat":35.70725,"lon":139.77768},{"name":"paspa 上野","province":"東京都","city":"台東区","address":"東京都台東区上野7丁目4-3","lat":35.71284,"lon":139.778},{"name":"paspa 御徒町","province":"東京都","city":"台東区","address":"東京都台東区上野6丁目9-1","lat":35.70902,"lon":139.77537},{"name":"SMOKING & COFFEE BAR SMOCO","province":"東京都","city":"台東区","address":"東京都台東区雷門2丁目19-10","lat":35.710627,"lon":139.79721},{"name":"アメ横センタービル喫煙所","province":"東京都","city":"台東区","address":"東京都台東区上野4丁目7-2","lat":35.709078,"lon":139.77454},{"name":"松葉公園内","province":"東京都","city":"台東区","address":"東京都台東区松が谷1丁目12","lat":35.712137,"lon":139.78738},{"name":"新橋駅前SL広場 指定喫煙場所","province":"","city":"","address":"新橋二丁目7番先","lat":35.66717,"lon":139.757464,"URL":"<a href='https://www.city.minato.tokyo.jp/shisetsu/sonota/kitsuen/01.html' target='_blank'>https://www.city.minato.tokyo.jp/shisetsu/sonota/kitsuen/01.html</a>","分類":"指定喫煙場所(屋外)","地区":"芝地区","連絡先":""},{"name":"新橋駅烏森口 指定喫煙場所","province":"","city":"","address":"新橋二丁目16番先","lat":35.666708,"lon":139.757691,"URL":"<a href='https://www.city.minato.tokyo.jp/shisetsu/sonota/kitsuen/02.html' target='_blank'>https://www.city.minato.tokyo.jp/shisetsu/sonota/kitsuen/02.html</a>","分類":"指定喫煙場所(屋外)","地区":"芝地区","連絡先":""},{"name":"桜田公園内 指定喫煙場所","province":"","city":"","address":"新橋三丁目16番15号","lat":35.665808,"lon":139.756795,"URL":"<a href='https://www.city.minato.tokyo.jp/shisetsu/sonota/kitsuen/03.html' target='_blank'>https://www.city.minato.tokyo.jp/shisetsu/sonota/kitsuen/03.html</a>","分類":"指定喫煙場所(屋外)","地区":"芝地区","連絡先":""},{"name":"浜松町駅北口 指定喫煙場所","province":"","city":"","address":"浜松町一丁目31番先","lat":35.656711,"lon":139.756845,"URL":"<a href='https://www.city.minato.tokyo.jp/shisetsu/sonota/kitsuen/05.html' target='_blank'>https://www.city.minato.tokyo.jp/shisetsu/sonota/kitsuen/05.html</a>","分類":"指定喫煙場所(屋外)","地区":"芝地区","連絡先":""},{"name":"六本木駅6番出口 指定喫煙場所","province":"","city":"","address":"六本木四丁目9番先","lat":35.663553,"lon":139.732583,"URL":"<a href='https://www.city.minato.tokyo.jp/shisetsu/sonota/kitsuen/11.html' target='_blank'>https://www.city.minato.tokyo.jp/shisetsu/sonota/kitsuen/11.html</a>","分類":"指定喫煙場所(屋外)","地区":"麻布地区","連絡先":""},{"name":"有栖川宮記念公園内 指定喫煙場所","province":"","city":"","address":"南麻布五丁目7番29号","lat":35.65126,"lon":139.726313,"URL":"<a href='https://www.city.minato.tokyo.jp/shisetsu/sonota/kitsuen/13.html' target='_blank'>https://www.city.minato.tokyo.jp/shisetsu/sonota/kitsuen/13.html</a>","分類":"指定喫煙場所(屋外)","地区":"麻布地区","連絡先":""},{"name":"溜池山王駅9番出口 指定喫煙場所","province":"","city":"","address":"赤坂二丁目3番先","lat":35.670664,"lon":139.74232,"URL":"<a href='https://www.city.minato.tokyo.jp/shisetsu/sonota/kitsuen/14.html' target='_blank'>https://www.city.minato.tokyo.jp/shisetsu/sonota/kitsuen/14.html</a>","分類":"指定喫煙場所(屋外)","地区":"赤坂地区","連絡先":""},{"name":"高橋是清翁記念公園 指定喫煙場所","province":"","city":"","address":"赤坂七丁目3番39号","lat":35.6741,"lon":139.72899,"URL":"<a href='https://www.city.minato.tokyo.jp/shisetsu/sonota/kitsuen/15.html' target='_blank'>https://www.city.minato.tokyo.jp/shisetsu/sonota/kitsuen/15.html</a>","分類":"指定喫煙場所(屋内)","地区":"赤坂地区","連絡先":""},{"name":"高輪二丁目東海大学前 指定喫煙場所","province":"","city":"","address":"高輪二丁目2番先","lat":35.638247,"lon":139.734548,"URL":"<a href='https://www.city.minato.tokyo.jp/shisetsu/sonota/kitsuen/16.html' target='_blank'>https://www.city.minato.tokyo.jp/shisetsu/sonota/kitsuen/16.html</a>","分類":"指定喫煙場所(屋外)","地区":"高輪地区","連絡先":""},{"name":"大門駅A6出口 指定喫煙場所","province":"","city":"","address":"芝大門一丁目13番先","lat":35.657045,"lon":139.753186,"URL":"<a href='https://www.city.minato.tokyo.jp/shisetsu/sonota/kitsuen/06.html' target='_blank'>https://www.city.minato.tokyo.jp/shisetsu/sonota/kitsuen/06.html</a>","分類":"指定喫煙場所(屋外)","地区":"芝地区","連絡先":""},{"name":"田町駅東口デッキ下 指定喫煙場所","province":"","city":"","address":"芝浦三丁目1番先","lat":35.645202,"lon":139.747735,"URL":"<a href='https://www.city.minato.tokyo.jp/shisetsu/sonota/kitsuen/17.html' target='_blank'>https://www.city.minato.tokyo.jp/shisetsu/sonota/kitsuen/17.html</a>","分類":"指定喫煙場所(屋外)","地区":"芝浦港南地区","連絡先":""},{"name":"田町駅西口(2階) 指定喫煙場所","province":"","city":"","address":"芝五丁目33番先","lat":35.646134,"lon":139.747143,"URL":"<a href='https://www.city.minato.tokyo.jp/shisetsu/sonota/kitsuen/07.html' target='_blank'>https://www.city.minato.tokyo.jp/shisetsu/sonota/kitsuen/07.html</a>","分類":"指定喫煙場所(屋外)","地区":"芝地区","連絡先":""},{"name":"品川駅港南口港南ふれあい広場指定喫煙場所","province":"","city":"","address":"港南二丁目14番先","lat":35.629452,"lon":139.741427,"URL":"<a href='https://www.city.minato.tokyo.jp/shisetsu/sonota/kitsuen/19.html' target='_blank'>https://www.city.minato.tokyo.jp/shisetsu/sonota/kitsuen/19.html</a>","分類":"指定喫煙場所(屋外)","地区":"芝浦港南地区","連絡先":""},{"name":"フジテレビ(敷地内)横指定喫煙場所","province":"","city":"","address":"台場二丁目4番8号","lat":35.627544,"lon":139.77528,"URL":"<a href='https://www.city.minato.tokyo.jp/shisetsu/sonota/kitsuen/20.html' target='_blank'>https://www.city.minato.tokyo.jp/shisetsu/sonota/kitsuen/20.html</a>","分類":"指定喫煙場所(屋外)","地区":"芝浦港南地区","連絡先":""},{"name":"田町駅西口(1階) 指定喫煙場所","province":"","city":"","address":"芝五丁目33番先","lat":35.646596,"lon":139.747028,"URL":"<a href='https://www.city.minato.tokyo.jp/shisetsu/sonota/kitsuen/08.html' target='_blank'>https://www.city.minato.tokyo.jp/shisetsu/sonota/kitsuen/08.html</a>","分類":"指定喫煙場所(屋外)","地区":"芝地区","連絡先":""},{"name":"シンボルプロムナード公園内デッキ上指定喫煙場所(1)","province":"","city":"","address":"台場一丁目8番先","lat":35.626572,"lon":139.772094,"URL":"<a href='https://www.city.minato.tokyo.jp/shisetsu/sonota/kitsuen/21.html' target='_blank'>https://www.city.minato.tokyo.jp/shisetsu/sonota/kitsuen/21.html</a>","分類":"指定喫煙場所(屋外)","地区":"芝浦港南地区","連絡先":""},{"name":"シンボルプロムナード公園内デッキ上指定喫煙場所(2)","province":"","city":"","address":"台場二丁目5番先","lat":35.626053,"lon":139.772421,"URL":"<a href='https://www.city.minato.tokyo.jp/shisetsu/sonota/kitsuen/22.html' target='_blank'>https://www.city.minato.tokyo.jp/shisetsu/sonota/kitsuen/22.html</a>","分類":"指定喫煙場所(屋外)","地区":"芝浦港南地区","連絡先":""},{"name":"芝浦1丁目リバーサイド 指定喫煙場所","province":"","city":"","address":"芝浦一丁目16番先","lat":35.645131,"lon":139.751842,"URL":"<a href='https://www.city.minato.tokyo.jp/shisetsu/sonota/kitsuen/24.html' target='_blank'>https://www.city.minato.tokyo.jp/shisetsu/sonota/kitsuen/24.html</a>","分類":"指定喫煙場所(屋外)","地区":"芝浦港南地区","連絡先":""},{"name":"都立芝公園内 指定喫煙場所","province":"","city":"","address":"芝公園一丁目4番","lat":35.659028,"lon":139.750859,"URL":"<a href='https://www.city.minato.tokyo.jp/shisetsu/sonota/kitsuen/25.html' target='_blank'>https://www.city.minato.tokyo.jp/shisetsu/sonota/kitsuen/25.html</a>","分類":"指定喫煙場所(屋外)","地区":"芝地区","連絡先":""},{"name":"ミカワヤビル1階 指定喫煙場所","province":"","city":"","address":"赤坂二丁目10番14号","lat":35.670353,"lon":139.741512,"URL":"<a href='https://www.city.minato.tokyo.jp/shisetsu/sonota/kitsuen/27.html' target='_blank'>https://www.city.minato.tokyo.jp/shisetsu/sonota/kitsuen/27.html</a>","分類":"指定喫煙場所(屋内)","地区":"赤坂地区","連絡先":""},{"name":"シーバンスS館 指定喫煙場所","province":"","city":"","address":"芝浦一丁目2番3号","lat":35.649333,"lon":139.756154,"URL":"<a href='https://www.city.minato.tokyo.jp/shisetsu/sonota/kitsuen/28.html' target='_blank'>https://www.city.minato.tokyo.jp/shisetsu/sonota/kitsuen/28.html</a>","分類":"指定喫煙場所(屋内)","地区":"芝浦港南地区","連絡先":""},{"name":"神谷町アネックス1F 指定喫煙場所","province":"","city":"","address":"虎ノ門五丁目3番2号","lat":35.663045,"lon":139.744425,"URL":"<a href='https://www.city.minato.tokyo.jp/shisetsu/sonota/kitsuen/29.html' target='_blank'>https://www.city.minato.tokyo.jp/shisetsu/sonota/kitsuen/29.html</a>","分類":"指定喫煙場所(屋内)","地区":"芝地区","連絡先":""},{"name":"表参道交差点 指定喫煙場所(1)","province":"","city":"","address":"北青山三丁目5番先","lat":35.665462,"lon":139.712268,"URL":"<a href='https://www.city.minato.tokyo.jp/shisetsu/sonota/kitsuen/30.html' target='_blank'>https://www.city.minato.tokyo.jp/shisetsu/sonota/kitsuen/30.html</a>","分類":"指定喫煙場所(屋外)","地区":"赤坂地区","連絡先":""},{"name":"表参道交差点 指定喫煙場所(2)","province":"","city":"","address":"北青山三丁目6番先","lat":35.665233,"lon":139.712002,"URL":"<a href='https://www.city.minato.tokyo.jp/shisetsu/sonota/kitsuen/31.html' target='_blank'>https://www.city.minato.tokyo.jp/shisetsu/sonota/kitsuen/31.html</a>","分類":"指定喫煙場所(屋外)","地区":"赤坂地区","連絡先":""},{"name":"一の橋公園内指定喫煙場所","province":"","city":"","address":"東麻布三丁目9番","lat":35.655918,"lon":139.737531,"URL":"<a href='https://www.city.minato.tokyo.jp/shisetsu/sonota/kitsuen/33.html' target='_blank'>https://www.city.minato.tokyo.jp/shisetsu/sonota/kitsuen/33.html</a>","分類":"指定喫煙場所(屋外)","地区":"麻布地区","連絡先":""},{"name":"芝浦中央公園A面指定喫煙場所","province":"","city":"","address":"港南一丁目2番28号","lat":35.633694,"lon":139.742404,"URL":"<a href='https://www.city.minato.tokyo.jp/shisetsu/sonota/kitsuen/35.html' target='_blank'>https://www.city.minato.tokyo.jp/shisetsu/sonota/kitsuen/35.html</a>","分類":"指定喫煙場所(屋外)","地区":"芝浦港南地区","連絡先":""},{"name":"六本木ヒルズ ヒルサイド2F TOHOシネマズ入口右側指定喫煙場所","province":"","city":"","address":"六本木六丁目10番1号","lat":35.65987,"lon":139.729815,"URL":"<a href='https://www.city.minato.tokyo.jp/shisetsu/sonota/kitsuen/37.html' target='_blank'>https://www.city.minato.tokyo.jp/shisetsu/sonota/kitsuen/37.html</a>","分類":"指定喫煙場所(屋外)","地区":"麻布地区","連絡先":""},{"name":"六本木ヒルズ イーストコート(六本木けやき坂通り)指定喫煙場所","province":"","city":"","address":"六本木六丁目12番4号","lat":35.658775,"lon":139.730941,"URL":"<a href='https://www.city.minato.tokyo.jp/shisetsu/sonota/kitsuen/38.html' target='_blank'>https://www.city.minato.tokyo.jp/shisetsu/sonota/kitsuen/38.html</a>","分類":"指定喫煙場所(屋外)","地区":"麻布地区","連絡先":""},{"name":"赤坂見附駅前指定喫煙場所","province":"","city":"","address":"赤坂三丁目2番先","lat":35.676569,"lon":139.737086,"URL":"<a href='https://www.city.minato.tokyo.jp/shisetsu/sonota/kitsuen/39.html' target='_blank'>https://www.city.minato.tokyo.jp/shisetsu/sonota/kitsuen/39.html</a>","分類":"指定喫煙場所(屋外)","地区":"赤坂地区","連絡先":""},{"name":"白金高輪駅3番出口前指定喫煙場所","province":"","city":"","address":"白金一丁目28番8号","lat":35.64364,"lon":139.734116,"URL":"<a href='https://www.city.minato.tokyo.jp/shisetsu/sonota/kitsuen/40.html' target='_blank'>https://www.city.minato.tokyo.jp/shisetsu/sonota/kitsuen/40.html</a>","分類":"指定喫煙場所(屋外)","地区":"高輪地区","連絡先":""},{"name":"センチュリー三田ビル1階 指定喫煙場所(ファミリーマート泉岳寺北店内)","province":"","city":"","address":"三田三丁目11番34号","lat":35.641804,"lon":139.741862,"URL":"<a href='https://www.city.minato.tokyo.jp/shisetsu/sonota/kitsuen/41.html' target='_blank'>https://www.city.minato.tokyo.jp/shisetsu/sonota/kitsuen/41.html</a>","分類":"指定喫煙場所(屋内)","地区":"芝地区","連絡先":""},{"name":"六本木インターナショナルビル1階 指定喫煙場所(セブンイレブン港区乃木坂駅南店内)","province":"","city":"","address":"六本木七丁目3番12号","lat":35.665965,"lon":139.728475,"URL":"<a href='https://www.city.minato.tokyo.jp/shisetsu/sonota/kitsuen/43.html' target='_blank'>https://www.city.minato.tokyo.jp/shisetsu/sonota/kitsuen/43.html</a>","分類":"指定喫煙場所(屋内)","地区":"麻布地区","連絡先":""},{"name":"NBF品川タワー2階 指定喫煙場所(ファミリーマート品川グランパサージュ店内)","province":"","city":"","address":"港南二丁目16番5号","lat":35.625937,"lon":139.740812,"URL":"<a href='https://www.city.minato.tokyo.jp/shisetsu/sonota/kitsuen/44.html' target='_blank'>https://www.city.minato.tokyo.jp/shisetsu/sonota/kitsuen/44.html</a>","分類":"指定喫煙場所(屋内)","地区":"芝浦港南地区","連絡先":""},{"name":"表参道A1出口前 指定喫煙場所","province":"","city":"","address":"北青山三丁目6番先","lat":35.665986,"lon":139.71047,"URL":"<a href='https://www.city.minato.tokyo.jp/shisetsu/sonota/kitsuen/51.html' target='_blank'>https://www.city.minato.tokyo.jp/shisetsu/sonota/kitsuen/51.html</a>","分類":"指定喫煙場所(屋外)","地区":"赤坂地区","連絡先":""},{"name":"こうなん星の公園 指定喫煙場所","province":"","city":"","address":"港南一丁目9番24号","lat":35.6297,"lon":139.742574,"URL":"<a href='https://www.city.minato.tokyo.jp/shisetsu/sonota/kitsuen/52.html' target='_blank'>https://www.city.minato.tokyo.jp/shisetsu/sonota/kitsuen/52.html</a>","分類":"指定喫煙場所(屋外)","地区":"芝浦港南地区","連絡先":""},{"name":"ファミリーマート元麻布店 指定喫煙場所","province":"","city":"","address":"元麻布二丁目2番12号","lat":35.654436,"lon":139.726274,"URL":"<a href='https://www.city.minato.tokyo.jp/shisetsu/sonota/kitsuen/53.html' target='_blank'>https://www.city.minato.tokyo.jp/shisetsu/sonota/kitsuen/53.html</a>","分類":"指定喫煙場所(屋内)","地区":"麻布地区","連絡先":""},{"name":"PASONA SQUARE指定喫煙場所","province":"","city":"","address":"南青山三丁目1番30号PASONASQUARE1階","lat":35.667813,"lon":139.715684,"URL":"<a href='https://www.city.minato.tokyo.jp/shisetsu/sonota/kitsuen/58.html' target='_blank'>https://www.city.minato.tokyo.jp/shisetsu/sonota/kitsuen/58.html</a>","分類":"指定喫煙場所(屋内)","地区":"赤坂地区","連絡先":""},{"name":"KDX南青山ビル1階指定喫煙場所(セブンイレブン南青山5丁目店内)","province":"東京都","city":"港区","address":"港区南青山五丁目13番3号","lat":35.661191,"lon":139.713931,"URL":"<a href='https://www.city.minato.tokyo.jp/shisetsu/sonota/kitsuen/59.html' target='_blank'>https://www.city.minato.tokyo.jp/shisetsu/sonota/kitsuen/59.html</a>","分類":"指定喫煙場所(屋内)","地区":"赤坂地区","連絡先":""},{"name":"ファースト岡田ビル1階指定喫煙場所(セブンイレブン三田駅北店内)","province":"東京都","city":"港区","address":"港区芝四丁目3番5号","lat":35.649021,"lon":139.750182,"URL":"<a href='https://www.city.minato.tokyo.jp/shisetsu/sonota/kitsuen/60.html' target='_blank'>https://www.city.minato.tokyo.jp/shisetsu/sonota/kitsuen/60.html</a>","分類":"指定喫煙場所(屋内)","地区":"芝地区","連絡先":""},{"name":"芝浦SECビル1階指定喫煙場所(ファミリーマート田町東口店内)","province":"東京都","city":"港区","address":"港区芝四丁目3番5号","lat":35.643075,"lon":139.749265,"URL":"<a href='https://www.city.minato.tokyo.jp/shisetsu/sonota/kitsuen/61.html' target='_blank'>https://www.city.minato.tokyo.jp/shisetsu/sonota/kitsuen/61.html</a>","分類":"指定喫煙場所(屋内)","地区":"芝浦港南地区","連絡先":""},{"name":"セブンイレブン新橋駅前店内指定喫煙場所","province":"東京都","city":"港区","address":"港区新橋一丁目13番7号","lat":35.667732,"lon":139.758132,"URL":"<a href='https://www.city.minato.tokyo.jp/shisetsu/sonota/kitsuen/63.html' target='_blank'>https://www.city.minato.tokyo.jp/shisetsu/sonota/kitsuen/63.html</a>","分類":"指定喫煙場所(屋内)","地区":"芝地区","連絡先":""},{"name":"イケダヤ品川ビル1階指定喫煙場所(セブンイレブン港区港南2丁目店内)","province":"東京都","city":"港区","address":"港区港南二丁目2番27号","lat":35.625492,"lon":139.745194,"URL":"<a href='https://www.city.minato.tokyo.jp/shisetsu/sonota/kitsuen/64.html' target='_blank'>https://www.city.minato.tokyo.jp/shisetsu/sonota/kitsuen/64.html</a>","分類":"指定喫煙場所(屋内)","地区":"芝浦港南地区","連絡先":""},{"name":"ステップ六本木1階指定喫煙場所(ファミリーマート六本木六丁目店内)","province":"東京都","city":"港区","address":"港区六本木六丁目8番10号","lat":35.661244,"lon":139.732752,"URL":"<a href='https://www.city.minato.tokyo.jp/shisetsu/sonota/kitsuen/65.html' target='_blank'>https://www.city.minato.tokyo.jp/shisetsu/sonota/kitsuen/65.html</a>","分類":"指定喫煙場所(屋内)","地区":"麻布地区","連絡先":""},{"name":"汐留ビルディング1階指定喫煙場所(セブンイレブン汐留ビルディング店内)","province":"東京都","city":"港区","address":"港区海岸一丁目2番20号","lat":35.657247,"lon":139.759569,"URL":"<a href='https://www.city.minato.tokyo.jp/shisetsu/sonota/kitsuen/66.html' target='_blank'>https://www.city.minato.tokyo.jp/shisetsu/sonota/kitsuen/66.html</a>","分類":"指定喫煙場所(屋内)","地区":"芝地区","連絡先":""},{"name":"台場フロンティアビル2階指定喫煙場所","province":"東京都","city":"港区","address":"港区台場二丁目3番2号","lat":35.628608,"lon":139.777603,"URL":"<a href='https://www.city.minato.tokyo.jp/shisetsu/sonota/kitsuen/67.html' target='_blank'>https://www.city.minato.tokyo.jp/shisetsu/sonota/kitsuen/67.html</a>","分類":"指定喫煙場所(屋内)","地区":"芝浦港南地区","連絡先":""},{"name":"デックス東京ビーチ1階指定喫煙場所(ファミリーマートお台場東京ビーチ店内)","province":"東京都","city":"港区","address":"港区台場一丁目6番1号","lat":35.62897,"lon":139.776453,"URL":"<a href='https://www.city.minato.tokyo.jp/shisetsu/sonota/kitsuen/68.html' target='_blank'>https://www.city.minato.tokyo.jp/shisetsu/sonota/kitsuen/68.html</a>","分類":"指定喫煙場所(屋内)","地区":"芝浦港南地区","連絡先":""},{"name":"六本木ファーストビル1階指定喫煙場所","province":"東京都","city":"港区","address":"港区六本木一丁目9番9号","lat":35.663237,"lon":139.741008,"URL":"<a href='https://www.city.minato.tokyo.jp/shisetsu/sonota/kitsuen/69.html' target='_blank'>https://www.city.minato.tokyo.jp/shisetsu/sonota/kitsuen/69.html</a>","分類":"指定喫煙場所(屋内)","地区":"麻布地区","連絡先":""},{"name":"No.R浜松町1階指定喫煙場所(セブンイレブン浜松町1丁目北店内)","province":"東京都","city":"港区","address":"港区浜松町一丁目2番1号","lat":35.660106,"lon":139.755971,"URL":"<a href='https://www.city.minato.tokyo.jp/shisetsu/sonota/kitsuen/70.html' target='_blank'>https://www.city.minato.tokyo.jp/shisetsu/sonota/kitsuen/70.html</a>","分類":"指定喫煙場所(屋内)","地区":"芝浦港南地区","連絡先":""},{"name":"TOKYU REIT虎ノ門ビル1階指定喫煙場所(セブンイレブン神谷町駅東店)","province":"東京都","city":"港区","address":"港区虎ノ門三丁目17番1号","lat":35.663863,"lon":139.746357,"URL":"<a href='https://www.city.minato.tokyo.jp/shisetsu/sonota/kitsuen/71.html' target='_blank'>https://www.city.minato.tokyo.jp/shisetsu/sonota/kitsuen/71.html</a>","分類":"指定喫煙場所(屋内)","地区":"麻布地区","連絡先":""},{"name":"フォーシーズ溜池山王ビル2階指定喫煙場所(ファミリーマート溜池山王駅南店内)","province":"東京都","city":"港区","address":"港区赤坂2丁目10番11号","lat":35.670065,"lon":139.741517,"URL":"<a href='https://www.city.minato.tokyo.jp/shisetsu/sonota/kitsuen/72.html' target='_blank'>https://www.city.minato.tokyo.jp/shisetsu/sonota/kitsuen/72.html</a>","分類":"指定喫煙場所(屋内)","地区":"赤坂地区","連絡先":""},{"name":"お台場海浜公園内指定喫煙場所(1)","province":"","city":"","address":"台場一丁目4番","lat":35.635076,"lon":139.774851,"URL":"<a href='https://www.city.minato.tokyo.jp/shisetsu/sonota/kitsuen/73.html' target='_blank'>https://www.city.minato.tokyo.jp/shisetsu/sonota/kitsuen/73.html</a>","分類":"指定喫煙場所(屋外)","地区":"芝浦港南地区","連絡先":""},{"name":"お台場海浜公園内指定喫煙場所(2)","province":"","city":"","address":"台場一丁目4番","lat":35.631422,"lon":139.777765,"URL":"<a href='https://www.city.minato.tokyo.jp/shisetsu/sonota/kitsuen/74.html' target='_blank'>https://www.city.minato.tokyo.jp/shisetsu/sonota/kitsuen/74.html</a>","分類":"指定喫煙場所(屋外)","地区":"芝浦港南地区","連絡先":""},{"name":"お台場海浜公園内指定喫煙場所(3)","province":"","city":"","address":"台場一丁目4番","lat":35.629841,"lon":139.775525,"URL":"<a href='https://www.city.minato.tokyo.jp/shisetsu/sonota/kitsuen/75.html' target='_blank'>https://www.city.minato.tokyo.jp/shisetsu/sonota/kitsuen/75.html</a>","分類":"指定喫煙場所(屋外)","地区":"芝浦港南地区","連絡先":""},{"name":"お台場海浜公園内指定喫煙場所(4)","province":"","city":"","address":"台場一丁目4番","lat":35.629328,"lon":139.7742,"URL":"<a href='https://www.city.minato.tokyo.jp/shisetsu/sonota/kitsuen/76.html' target='_blank'>https://www.city.minato.tokyo.jp/shisetsu/sonota/kitsuen/76.html</a>","分類":"指定喫煙場所(屋外)","地区":"芝浦港南地区","連絡先":""},{"name":"お台場海浜公園内指定喫煙場所(5)","province":"","city":"","address":"台場一丁目4番","lat":35.626455,"lon":139.769715,"URL":"<a href='https://www.city.minato.tokyo.jp/shisetsu/sonota/kitsuen/77.html' target='_blank'>https://www.city.minato.tokyo.jp/shisetsu/sonota/kitsuen/77.html</a>","分類":"指定喫煙場所(屋外)","地区":"芝浦港南地区","連絡先":""},{"name":"竹芝客船ターミナル指定喫煙場所(1)","province":"東京都","city":"港区","address":"港区海岸一丁目12番2号","lat":35.654166,"lon":139.762262,"URL":"<a href='https://www.city.minato.tokyo.jp/shisetsu/sonota/kitsuen/78.html' target='_blank'>https://www.city.minato.tokyo.jp/shisetsu/sonota/kitsuen/78.html</a>","分類":"指定喫煙場所(屋外)","地区":"芝地区","連絡先":""},{"name":"竹芝客船ターミナル指定喫煙場所(2)","province":"東京都","city":"港区","address":"港区海岸一丁目12番2号","lat":35.654218,"lon":139.762606,"URL":"<a href='https://www.city.minato.tokyo.jp/shisetsu/sonota/kitsuen/79.html' target='_blank'>https://www.city.minato.tokyo.jp/shisetsu/sonota/kitsuen/79.html</a>","分類":"指定喫煙場所(屋外)","地区":"芝地区","連絡先":""},{"name":"竹芝客船ターミナル指定喫煙場所(3)","province":"東京都","city":"港区","address":"港区海岸一丁目12番2号","lat":35.654712,"lon":139.76327,"URL":"<a href='https://www.city.minato.tokyo.jp/shisetsu/sonota/kitsuen/80.html' target='_blank'>https://www.city.minato.tokyo.jp/shisetsu/sonota/kitsuen/80.html</a>","分類":"指定喫煙場所(屋外)","地区":"芝地区","連絡先":""},{"name":"芝1丁目ビル階指定喫煙場所(セブンイレブン港区芝1丁目店内)","province":"東京都","city":"港区","address":"港区芝一丁目12番7号","lat":35.650904,"lon":139.75507,"URL":"<a href='https://www.city.minato.tokyo.jp/shisetsu/sonota/kitsuen/81.html' target='_blank'>https://www.city.minato.tokyo.jp/shisetsu/sonota/kitsuen/81.html</a>","分類":"指定喫煙場所(屋内)","地区":"芝地区","連絡先":""},{"name":"ラピロス六本木地下1階指定喫煙場所(ファミリーマート地下鉄六本木店内)","province":"東京都","city":"港区","address":"港区六本木六丁目1番24号","lat":35.662429,"lon":139.731886,"URL":"<a href='https://www.city.minato.tokyo.jp/shisetsu/sonota/kitsuen/82.html' target='_blank'>https://www.city.minato.tokyo.jp/shisetsu/sonota/kitsuen/82.html</a>","分類":"指定喫煙場所(屋内)","地区":"麻布地区","連絡先":""},{"name":"msb Tamachi 田町ステーションタワーS 1階指定喫煙場所","province":"東京都","city":"港区","address":"港区芝浦三丁目1番21号","lat":35.644973,"lon":139.749108,"URL":"<a href='https://www.city.minato.tokyo.jp/shisetsu/sonota/kitsuen/83.html' target='_blank'>https://www.city.minato.tokyo.jp/shisetsu/sonota/kitsuen/83.html</a>","分類":"指定喫煙場所(屋内)","地区":"芝浦港南地区","連絡先":""},{"name":"msb Tamachi 田町ステーションタワーS 2階指定喫煙場所","province":"東京都","city":"港区","address":"港区芝浦三丁目1番21号","lat":35.644973,"lon":139.749108,"URL":"<a href='https://www.city.minato.tokyo.jp/shisetsu/sonota/kitsuen/84.html' target='_blank'>https://www.city.minato.tokyo.jp/shisetsu/sonota/kitsuen/84.html</a>","分類":"指定喫煙場所(屋内)","地区":"芝浦港南地区","連絡先":""},{"name":"浜松町エクセレントビル2階指定喫煙場所","province":"東京都","city":"港区","address":"港区浜松町二丁目6番5号","lat":35.654439,"lon":139.755862,"URL":"<a href='https://www.city.minato.tokyo.jp/shisetsu/sonota/kitsuen/85.html' target='_blank'>https://www.city.minato.tokyo.jp/shisetsu/sonota/kitsuen/85.html</a>","分類":"指定喫煙場所(屋内)","地区":"芝地区","連絡先":""},{"name":"キャピタル赤坂ビル1階指定喫煙場所(ファミリーマート赤坂一丁目店内)","province":"東京都","city":"港区","address":"港区赤坂一丁目7番19号","lat":35.669355,"lon":139.741481,"URL":"<a href='https://www.city.minato.tokyo.jp/shisetsu/sonota/kitsuen/86.html' target='_blank'>https://www.city.minato.tokyo.jp/shisetsu/sonota/kitsuen/86.html</a>","分類":"指定喫煙場所(屋内)","地区":"赤坂地区","連絡先":""},{"name":"御成門BNビル1階指定喫煙場所 (セブンイレブン御成門駅北店内)","province":"東京都","city":"港区","address":"港区新橋六丁目16番10号","lat":35.662117,"lon":139.752195,"URL":"<a href='https://www.city.minato.tokyo.jp/shisetsu/sonota/kitsuen/87.html' target='_blank'>https://www.city.minato.tokyo.jp/shisetsu/sonota/kitsuen/87.html</a>","分類":"指定喫煙場所(屋内)","地区":"芝地区","連絡先":""},{"name":"新橋2丁目指定喫煙場所","province":"東京都","city":"港区","address":"港区新橋二丁目20番先","lat":35.666414,"lon":139.759852,"URL":"<a href='https://www.city.minato.tokyo.jp/shisetsu/sonota/kitsuen/88.html' target='_blank'>https://www.city.minato.tokyo.jp/shisetsu/sonota/kitsuen/88.html</a>","分類":"指定喫煙場所(屋外)","地区":"芝地区","連絡先":""},{"name":"芝生花ビル1階指定喫煙場所 (ファミリーマート芝五丁目店内)","province":"東京都","city":"港区","address":"港区芝五丁目10番8号","lat":35.648981,"lon":139.746268,"URL":"<a href='https://www.city.minato.tokyo.jp/shisetsu/sonota/kitsuen/89.html' target='_blank'>https://www.city.minato.tokyo.jp/shisetsu/sonota/kitsuen/89.html</a>","分類":"指定喫煙場所(屋内)","地区":"芝地区","連絡先":""},{"name":"エスプラザ弥生ビルII2階指定喫煙場所(ファミリーマート新橋駅西店内)","province":"東京都","city":"港区","address":"港区新橋二丁目15番9号","lat":35.666261,"lon":139.756655,"URL":"<a href='https://www.city.minato.tokyo.jp/shisetsu/sonota/kitsuen/90.html' target='_blank'>https://www.city.minato.tokyo.jp/shisetsu/sonota/kitsuen/90.html</a>","分類":"指定喫煙場所(屋内)","地区":"芝地区","連絡先":""},{"name":"鈴与竹芝ビル1階指定喫煙場所 (ファミリーマート南山堂竹芝駅前店内)","province":"東京都","city":"港区","address":"港区海岸一丁目13番3号","lat":35.654796,"lon":139.762177,"URL":"<a href='https://www.city.minato.tokyo.jp/shisetsu/sonota/kitsuen/91.html' target='_blank'>https://www.city.minato.tokyo.jp/shisetsu/sonota/kitsuen/91.html</a>","分類":"指定喫煙場所(屋内)","地区":"芝地区","連絡先":""},{"name":"鳳月堂ビル2階指定喫煙場所(ファミリーマート赤坂駅前店内)","province":"東京都","city":"港区","address":"港区赤坂二丁目14番28号","lat":35.672603,"lon":139.737053,"URL":"<a href='https://www.city.minato.tokyo.jp/shisetsu/sonota/kitsuen/93.html' target='_blank'>https://www.city.minato.tokyo.jp/shisetsu/sonota/kitsuen/93.html</a>","分類":"指定喫煙場所(屋内)","地区":"赤坂地区","連絡先":""},{"name":"the ARGYLE aoyamaビル2階指定喫煙場所","province":"東京都","city":"港区","address":"港区北青山二丁目14番4号","lat":35.669557,"lon":139.715792,"URL":"<a href='https://www.city.minato.tokyo.jp/shisetsu/sonota/kitsuen/95.html' target='_blank'>https://www.city.minato.tokyo.jp/shisetsu/sonota/kitsuen/95.html</a>","分類":"指定喫煙場所(屋内)","地区":"赤坂地区","連絡先":""},{"name":"msb Tamachi田町ステーションタワーN(1)","province":"東京都","city":"港区","address":"港区芝浦三丁目1番1号","lat":35.645843,"lon":139.749787,"URL":"<a href='https://www.city.minato.tokyo.jp/shisetsu/sonota/kitsuen/96.html' target='_blank'>https://www.city.minato.tokyo.jp/shisetsu/sonota/kitsuen/96.html</a>","分類":"指定喫煙場所(屋内)","地区":"芝浦港南地区","連絡先":""},{"name":"ファミリーマート港南一丁目店内指定喫煙場所","province":"東京都","city":"港区","address":"港区港南1-7-18A-PLACE品川東1階","lat":35.630965,"lon":139.744849,"URL":"<a href='https://www.city.minato.tokyo.jp/shisetsu/sonota/kitsuen/98.html' target='_blank'>https://www.city.minato.tokyo.jp/shisetsu/sonota/kitsuen/98.html</a>","分類":"指定喫煙場所(屋内)","地区":"芝浦港南地区","連絡先":""},{"name":"ウォーターズ竹芝シアター棟1F 指定喫煙場所","province":"東京都","city":"港区","address":"港区海岸1丁目10番45号","lat":35.656207,"lon":139.76267,"URL":"<a href='https://www.city.minato.tokyo.jp/shisetsu/sonota/kitsuen/99.html' target='_blank'>https://www.city.minato.tokyo.jp/shisetsu/sonota/kitsuen/99.html</a>","分類":"指定喫煙場所(屋内)","地区":"芝地区","連絡先":""},{"name":"ウォーターズ竹芝シアター棟2F 指定喫煙場所","province":"東京都","city":"港区","address":"港区海岸1丁目10番45号","lat":35.656207,"lon":139.76267,"URL":"<a href='https://www.city.minato.tokyo.jp/shisetsu/sonota/kitsuen/100.html' target='_blank'>https://www.city.minato.tokyo.jp/shisetsu/sonota/kitsuen/100.html</a>","分類":"指定喫煙場所(屋内)","地区":"芝地区","連絡先":""},{"name":"ヒューリックJP赤坂ビル1階 指定喫煙場所","province":"東京都","city":"港区","address":"港区赤坂二丁目5番8号","lat":35.672676,"lon":139.740019,"URL":"<a href='https://www.city.minato.tokyo.jp/shisetsu/sonota/kitsuen/101.html' target='_blank'>https://www.city.minato.tokyo.jp/shisetsu/sonota/kitsuen/101.html</a>","分類":"指定喫煙場所(屋内)","地区":"赤坂地区","連絡先":""},{"name":"セブンイレブン港区芝5丁目東店内 指定喫煙場所","province":"東京都","city":"港区","address":"港区芝五丁目22番3号","lat":35.648439,"lon":139.746563,"URL":"<a href='https://www.city.minato.tokyo.jp/shisetsu/sonota/kitsuen/102.html' target='_blank'>https://www.city.minato.tokyo.jp/shisetsu/sonota/kitsuen/102.html</a>","分類":"指定喫煙場所(屋内)","地区":"芝地区","連絡先":""},{"name":"関根ビル1階 指定喫煙場所","province":"東京都","city":"港区","address":"港区赤坂二丁目13番21号","lat":35.67282633371143,"lon":139.7380944073847,"URL":"<a href='https://www.city.minato.tokyo.jp/shisetsu/sonota/kitsuen/103.html' target='_blank'>https://www.city.minato.tokyo.jp/shisetsu/sonota/kitsuen/103.html</a>","分類":"指定喫煙場所(屋内)","地区":"赤坂地区","連絡先":""},{"name":"セブンイレブン芝2丁目金杉橋店内 指定喫煙場所","province":"東京都","city":"港区","address":"港区芝二丁目3番3号芝二丁目大門ビルディング1階","lat":35.65262436865979,"lon":139.7537560730543,"URL":"<a href='https://www.city.minato.tokyo.jp/shisetsu/sonota/kitsuen/104.html' target='_blank'>https://www.city.minato.tokyo.jp/shisetsu/sonota/kitsuen/104.html</a>","分類":"指定喫煙場所(屋内)","地区":"芝地区","連絡先":""},{"name":"日比谷フォートタワー1階 指定喫煙場所","province":"東京都","city":"港区","address":"港区西新橋一丁目1番1号1階","lat":35.67015324912093,"lon":139.7527055748486,"URL":"<a href='https://www.city.minato.tokyo.jp/shisetsu/sonota/kitsuen/105.html' target='_blank'>https://www.city.minato.tokyo.jp/shisetsu/sonota/kitsuen/105.html</a>","分類":"指定喫煙場所(屋内)","地区":"芝地区","連絡先":""},{"name":"日比谷フォートタワー2階 指定喫煙場所","province":"東京都","city":"港区","address":"港区西新橋一丁目1番1号2階","lat":35.67015324912093,"lon":139.7527055748486,"URL":"<a href='https://www.city.minato.tokyo.jp/shisetsu/sonota/kitsuen/106.html' target='_blank'>https://www.city.minato.tokyo.jp/shisetsu/sonota/kitsuen/106.html</a>","分類":"指定喫煙場所(屋内)","地区":"芝地区","連絡先":""},{"name":"日比谷フォートタワー11階 指定喫煙場所","province":"東京都","city":"港区","address":"港区西新橋一丁目1番1号11階","lat":35.67015324912093,"lon":139.7527055748486,"URL":"<a href='https://www.city.minato.tokyo.jp/shisetsu/sonota/kitsuen/107.html' target='_blank'>https://www.city.minato.tokyo.jp/shisetsu/sonota/kitsuen/107.html</a>","分類":"指定喫煙場所(屋内)","地区":"芝地区","連絡先":""},{"name":"東洋カーマックス芝3丁目第11駐車場内指定喫煙場所","province":"","city":"","address":"芝三丁目31番8号","lat":35.650876,"lon":139.74714,"URL":"<a href='https://www.city.minato.tokyo.jp/shisetsu/sonota/kitsuen/108.html' target='_blank'>https://www.city.minato.tokyo.jp/shisetsu/sonota/kitsuen/108.html</a>","分類":"指定喫煙場所(屋外)","地区":"芝地区","連絡先":""},{"name":"エコロパーク芝大門第3駐車場内指定喫煙場所","province":"東京都","city":"港区","address":"港区芝大門二丁目12番18号","lat":35.65459195376365,"lon":139.7539333332906,"URL":"<a href='https://www.city.minato.tokyo.jp/shisetsu/sonota/kitsuen/109.html' target='_blank'>https://www.city.minato.tokyo.jp/shisetsu/sonota/kitsuen/109.html</a>","分類":"指定喫煙場所(屋外)","地区":"芝地区","連絡先":""},{"name":"ニュー新橋ビル3階THE CAFE内指定喫煙場所","province":"東京都","city":"港区","address":"港区新橋二丁目16番1号","lat":35.66647972407418,"lon":139.7573496313515,"URL":"<a href='https://www.city.minato.tokyo.jp/shisetsu/sonota/kitsuen/110.html' target='_blank'>https://www.city.minato.tokyo.jp/shisetsu/sonota/kitsuen/110.html</a>","分類":"指定喫煙場所(屋内)","地区":"芝地区","連絡先":""},{"name":"paspa新橋4丁目指定喫煙場所","province":"東京都","city":"港区","address":"港区新橋四丁目24番7号","lat":35.66353334267899,"lon":139.7567875205811,"URL":"<a href='https://www.city.minato.tokyo.jp/shisetsu/sonota/kitsuen/111.html' target='_blank'>https://www.city.minato.tokyo.jp/shisetsu/sonota/kitsuen/111.html</a>","分類":"指定喫煙場所(屋内)","地区":"芝地区","連絡先":""},{"name":"加藤たばこ店内指定喫煙場所","province":"東京都","city":"港区","address":"港区高輪四丁目23番3号","lat":35.62639752239338,"lon":139.7375778783882,"URL":"<a href='https://www.city.minato.tokyo.jp/shisetsu/sonota/kitsuen/112.html' target='_blank'>https://www.city.minato.tokyo.jp/shisetsu/sonota/kitsuen/112.html</a>","分類":"指定喫煙場所(屋内)","地区":"高輪地区","連絡先":""},{"name":"四方ビル2階指定喫煙場所","province":"東京都","city":"港区","address":"港区赤坂三丁目12番21号","lat":35.67410936406294,"lon":139.737539382539,"URL":"<a href='https://www.city.minato.tokyo.jp/shisetsu/sonota/kitsuen/113.html' target='_blank'>https://www.city.minato.tokyo.jp/shisetsu/sonota/kitsuen/113.html</a>","分類":"指定喫煙場所(屋内)","地区":"赤坂地区","連絡先":""},{"name":"paspa赤坂指定喫煙場所","province":"東京都","city":"港区","address":"港区赤坂三丁目14番2号ドルミ赤坂103号室","lat":35.67385477205119,"lon":139.7373797433988,"URL":"<a href='https://www.city.minato.tokyo.jp/shisetsu/sonota/kitsuen/115.html' target='_blank'>https://www.city.minato.tokyo.jp/shisetsu/sonota/kitsuen/115.html</a>","分類":"指定喫煙場所(屋内)","地区":"麻布地区","連絡先":""},{"name":"セブンイレブン田町駅前店店内指定喫煙場所","province":"東京都","city":"港区","address":"港区芝五丁目34番7号田町センタービル1階","lat":35.64633321588096,"lon":139.7467817220754,"URL":"<a href='https://www.city.minato.tokyo.jp/shisetsu/sonota/kitsuen/117.html' target='_blank'>https://www.city.minato.tokyo.jp/shisetsu/sonota/kitsuen/117.html</a>","分類":"指定喫煙場所(屋内)","地区":"芝地区","連絡先":""},{"name":"THE TOBACCO SHIODOME指定喫煙場所","province":"東京都","city":"港区","address":"港区東新橋一丁目8番2号","lat":35.66300379341111,"lon":139.7620788104351,"URL":"<a href='https://www.city.minato.tokyo.jp/shisetsu/sonota/kitsuen/118.html' target='_blank'>https://www.city.minato.tokyo.jp/shisetsu/sonota/kitsuen/118.html</a>","分類":"指定喫煙場所(屋内)","地区":"芝地区","連絡先":""},{"name":"THE TOBACCO TORANOMON指定喫煙場所","province":"東京都","city":"港区","address":"港区虎ノ門二丁目3番17号虎ノ門2丁目タワー1階","lat":35.66836261273509,"lon":139.7467293104326,"URL":"<a href='https://www.city.minato.tokyo.jp/shisetsu/sonota/kitsuen/119.html' target='_blank'>https://www.city.minato.tokyo.jp/shisetsu/sonota/kitsuen/119.html</a>","分類":"指定喫煙場所(屋内)","地区":"芝地区","連絡先":""},{"name":"paspa浜松町指定喫煙場所","province":"東京都","city":"港区","address":"港区浜松町二丁目5番2号","lat":35.65437800798922,"lon":139.7564674852955,"URL":"<a href='https://www.city.minato.tokyo.jp/shisetsu/sonota/kitsuen/120.html' target='_blank'>https://www.city.minato.tokyo.jp/shisetsu/sonota/kitsuen/120.html</a>","分類":"指定喫煙場所(屋内)","地区":"芝地区","連絡先":""},{"name":"ファミリーマート南山堂第一京浜芝店内指定喫煙場所","province":"東京都","city":"港区","address":"港区芝二丁目14番5号芝二丁目大広ビル","lat":35.65079360569771,"lon":139.7535039032701,"URL":"<a href='https://www.city.minato.tokyo.jp/shisetsu/sonota/kitsuen/121.html' target='_blank'>https://www.city.minato.tokyo.jp/shisetsu/sonota/kitsuen/121.html</a>","分類":"指定喫煙場所(屋内)","地区":"芝地区","連絡先":""},{"name":"田町タワー1階指定喫煙場所","province":"東京都","city":"港区","address":"港区芝五丁目33番11号","lat":35.64713812384016,"lon":139.7485596597526,"URL":"<a href='https://www.city.minato.tokyo.jp/shisetsu/sonota/kitsuen/122.html' target='_blank'>https://www.city.minato.tokyo.jp/shisetsu/sonota/kitsuen/122.html</a>","分類":"指定喫煙場所(屋内)","地区":"芝地区","連絡先":""},{"name":"エコロパーク新橋第7駐車場内指定喫煙場所","province":"東京都","city":"港区","address":"港区新橋一丁目4番3号","lat":35.66782586108805,"lon":139.7593097174049,"URL":"<a href='https://www.city.minato.tokyo.jp/shisetsu/sonota/kitsuen/123.html' target='_blank'>https://www.city.minato.tokyo.jp/shisetsu/sonota/kitsuen/123.html</a>","分類":"指定喫煙場所(屋外)","地区":"芝地区","連絡先":""},{"name":"ファミリーマート西新橋一丁目店内指定喫煙場所","province":"東京都","city":"港区","address":"港区西新橋一丁目5番11号11東洋海事ビル","lat":35.66932362441603,"lon":139.7536083124461,"URL":"<a href='https://www.city.minato.tokyo.jp/shisetsu/sonota/kitsuen/124.html' target='_blank'>https://www.city.minato.tokyo.jp/shisetsu/sonota/kitsuen/124.html</a>","分類":"指定喫煙場所(屋内)","地区":"芝地区","連絡先":""},{"name":"ファミリーマート+ミヤモトドラッグ御成門店内指定喫煙場所","province":"東京都","city":"港区","address":"港区新橋六丁目17番15号菱進御成門ビル","lat":35.66104285562862,"lon":139.7518489068715,"URL":"<a href='https://www.city.minato.tokyo.jp/shisetsu/sonota/kitsuen/125.html' target='_blank'>https://www.city.minato.tokyo.jp/shisetsu/sonota/kitsuen/125.html</a>","分類":"指定喫煙場所(屋内)","地区":"芝地区","連絡先":""},{"name":"ゆうらいふセンター1階北側指定喫煙場所","province":"東京都","city":"港区","address":"港区海岸1丁目4番26号","lat":35.65412840172168,"lon":139.7598493835847,"URL":"<a href='https://www.city.minato.tokyo.jp/shisetsu/sonota/kitsuen/126.html' target='_blank'>https://www.city.minato.tokyo.jp/shisetsu/sonota/kitsuen/126.html</a>","分類":"指定喫煙場所(屋内)","地区":"芝浦港南地区","連絡先":""},{"name":"新虎安田ビル1階指定喫煙場所","province":"東京都","city":"港区","address":"港区新橋4丁目3番1号","lat":35.6649221834583,"lon":139.7546699576714,"URL":"<a href='https://www.city.minato.tokyo.jp/shisetsu/sonota/kitsuen/127.html' target='_blank'>https://www.city.minato.tokyo.jp/shisetsu/sonota/kitsuen/127.html</a>","分類":"指定喫煙場所(屋内)","地区":"芝地区","連絡先":""},{"name":"paspa溜池指定喫煙場所","province":"東京都","city":"港区","address":"港区赤坂1丁目1番16号細川ビルB1F","lat":35.67096587259067,"lon":139.7440452142706,"URL":"<a href='https://www.city.minato.tokyo.jp/shisetsu/sonota/kitsuen/128.html' target='_blank'>https://www.city.minato.tokyo.jp/shisetsu/sonota/kitsuen/128.html</a>","分類":"指定喫煙場所(屋内)","地区":"芝地区","連絡先":""},{"name":"ファミリーマート浜松町駅南店内指定喫煙場所","province":"東京都","city":"港区","address":"港区浜松町2丁目9番3号NBC浜松町ビル","lat":35.65399677259604,"lon":139.7564247546088,"URL":"<a href='https://www.city.minato.tokyo.jp/shisetsu/sonota/kitsuen/129.html' target='_blank'>https://www.city.minato.tokyo.jp/shisetsu/sonota/kitsuen/129.html</a>","分類":"指定喫煙場所(屋内)","地区":"芝地区","連絡先":""},{"name":"paspa虎ノ門3丁目指定喫煙場所","province":"東京都","city":"港区","address":"港区虎ノ門3丁目4番7号虎ノ門36森ビル地下1階","lat":35.66619527419011,"lon":139.7468429528997,"URL":"<a href='https://www.city.minato.tokyo.jp/shisetsu/sonota/kitsuen/130.html' target='_blank'>https://www.city.minato.tokyo.jp/shisetsu/sonota/kitsuen/130.html</a>","分類":"指定喫煙場所(屋内)","地区":"芝地区","連絡先":""}]}