{"keyword":"サテライト","data":[{"name":"オープンオフィス本厚木駅前","province":"神奈川県","city":"厚木市","address":"神奈川県厚木市中町4丁目14-1","lat":35.43907921,"lon":139.36276105},{"name":"リージャス 丸の内パシフィックセンチュリープレイスビジネスセンター","province":"東京都","city":"千代田区","address":"東京都千代田区丸の内1丁目11-1","lat":35.67810437,"lon":139.76683582},{"name":"リージャス 神谷町MTビルビジネスセンター","province":"東京都","city":"港区","address":"東京都港区虎ノ門4丁目3-20","lat":35.66350817,"lon":139.74463547},{"name":"リージャス 広尾ビジネスセンター","province":"東京都","city":"渋谷区","address":"東京都渋谷区広尾5丁目4-12","lat":35.65110343,"lon":139.7220435},{"name":"リージャス 恵比寿南ビジネスセンター","province":"東京都","city":"渋谷区","address":"東京都渋谷区恵比寿南1丁目20-6","lat":35.6438874,"lon":139.71027822},{"name":"PERSONAL SUITE 吉祥寺","province":"東京都","city":"武蔵野市","address":"東京都武蔵野市吉祥寺南町1丁目6-3","lat":35.70178292,"lon":139.58025352},{"name":"NewWork日吉","province":"神奈川県","city":"横浜市港北区","address":"神奈川県横浜市港北区日吉本町1丁目2-9","lat":35.55406348,"lon":139.64597779},{"name":"KEIO BIZ PLAZA 多摩センター","province":"東京都","city":"多摩市","address":"東京都多摩市落合1丁目10-1","lat":35.62536014,"lon":139.42422261},{"name":"NewWork調布","province":"東京都","city":"調布市","address":"東京都調布市布田4丁目20-2","lat":35.64869436,"lon":139.54343975},{"name":"NewWorkたまプラーザ","province":"神奈川県","city":"横浜市青葉区","address":"神奈川県横浜市青葉区美しが丘1丁目1-2","lat":35.57752891,"lon":139.55856743},{"name":"NewWork立川","province":"東京都","city":"立川市","address":"東京都立川市曙町1丁目27-10","lat":35.70001222,"lon":139.41070148},{"name":"NewWork赤羽","province":"東京都","city":"北区","address":"東京都北区赤羽西1丁目7-1","lat":35.77722516,"lon":139.71911652},{"name":"NewWork渋谷イースト9F","province":"東京都","city":"渋谷区","address":"東京都渋谷区渋谷3丁目6-1","lat":35.65790514,"lon":139.70484756},{"name":"NewWork川崎","province":"神奈川県","city":"川崎市川崎区","address":"神奈川県川崎市川崎区駅前本町26-4","lat":35.53044432,"lon":139.69680697},{"name":"NewWork自由が丘2F","province":"東京都","city":"世田谷区","address":"東京都世田谷区奥沢7丁目2-9","lat":35.60676282,"lon":139.66639692},{"name":"NewWork新橋","province":"東京都","city":"港区","address":"東京都港区新橋1丁目15-7","lat":35.66811632,"lon":139.75730365},{"name":"NewWork船橋","province":"千葉県","city":"船橋市","address":"千葉県船橋市本町5丁目3-5","lat":35.70239605,"lon":139.98648909},{"name":"NewWork鷺沼","province":"神奈川県","city":"川崎市宮前区","address":"神奈川県川崎市宮前区鷺沼3丁目2-9","lat":35.57998627,"lon":139.57226125},{"name":"NewWorkセンター南","province":"神奈川県","city":"横浜市都筑区","address":"神奈川県横浜市都筑区茅ケ崎中央5-1","lat":35.54442804,"lon":139.57247147},{"name":"NewWork青葉台","province":"神奈川県","city":"横浜市青葉区","address":"神奈川県横浜市青葉区青葉台1丁目6-12","lat":35.54193827,"lon":139.51667655},{"name":"NewWork松戸","province":"千葉県","city":"松戸市","address":"千葉県松戸市松戸1307-1","lat":35.7822239,"lon":139.89871878},{"name":"NewWork赤坂見附","province":"東京都","city":"千代田区","address":"東京都千代田区永田町2丁目13-1","lat":35.67483178,"lon":139.73868831},{"name":"NewWork戸塚","province":"神奈川県","city":"横浜市戸塚区","address":"神奈川県横浜市戸塚区戸塚町16-1","lat":35.40092013,"lon":139.53307656},{"name":"NewWork中野","province":"東京都","city":"中野区","address":"東京都中野区中野5丁目65-3","lat":35.70700958,"lon":139.66544627},{"name":"NewWork柏","province":"千葉県","city":"柏市","address":"千葉県柏市末広町7-3","lat":35.86410153,"lon":139.96967271},{"name":"NewWork渋谷イースト3F","province":"東京都","city":"渋谷区","address":"東京都渋谷区渋谷3丁目6-1","lat":35.65790514,"lon":139.70484756},{"name":"NewWork中目黒","province":"東京都","city":"目黒区","address":"東京都目黒区東山1丁目6-7","lat":35.64584245,"lon":139.69682369},{"name":"NewWork日吉2nd","province":"神奈川県","city":"横浜市港北区","address":"神奈川県横浜市港北区日吉本町1丁目1-6","lat":35.55380242,"lon":139.64619446},{"name":"NewWork蒲田","province":"東京都","city":"大田区","address":"東京都大田区西蒲田8丁目1-5","lat":35.56136677,"lon":139.71467257},{"name":"NewWork市が尾","province":"神奈川県","city":"横浜市青葉区","address":"神奈川県横浜市青葉区市ケ尾町1156-1","lat":35.55139036,"lon":139.54118525},{"name":"NewWork新百合ヶ丘","province":"神奈川県","city":"川崎市麻生区","address":"神奈川県川崎市麻生区上麻生1丁目5-1","lat":35.60261632,"lon":139.50862734},{"name":"NewWork大泉学園","province":"東京都","city":"練馬区","address":"東京都練馬区東大泉1丁目29-1","lat":35.75014709,"lon":139.58576502},{"name":"NewWork八王子","province":"東京都","city":"八王子市","address":"東京都八王子市旭町12-4","lat":35.65740449,"lon":139.34093389},{"name":"NewWork亀戸","province":"東京都","city":"江東区","address":"東京都江東区亀戸2丁目22-17","lat":35.69840004,"lon":139.82477263},{"name":"NewWork鎌倉4F","province":"神奈川県","city":"鎌倉市","address":"神奈川県鎌倉市御成町11-32","lat":35.31930534,"lon":139.5488229},{"name":"NewWork上大岡","province":"神奈川県","city":"横浜市港南区","address":"神奈川県横浜市港南区上大岡西1丁目13-8","lat":35.41052292,"lon":139.59564332},{"name":"NewWork三鷹","province":"東京都","city":"武蔵野市","address":"東京都武蔵野市中町1丁目9-5","lat":35.70520156,"lon":139.56028851},{"name":"NewWork下北沢","province":"東京都","city":"世田谷区","address":"東京都世田谷区北沢2丁目2-7","lat":35.65981236,"lon":139.66790064},{"name":"NewWork日本橋","province":"東京都","city":"中央区","address":"東京都中央区日本橋2丁目8-6","lat":35.68144035,"lon":139.77513517},{"name":"NewWork津田沼","province":"千葉県","city":"習志野市","address":"千葉県習志野市津田沼1丁目2-13","lat":35.69097263,"lon":140.02151721},{"name":"NewWork武蔵浦和","province":"埼玉県","city":"さいたま市南区","address":"埼玉県さいたま市南区沼影1丁目10-1","lat":35.84408894,"lon":139.64704335},{"name":"NewWork川越","province":"埼玉県","city":"川越市","address":"埼玉県川越市脇田本町15-10","lat":35.9072721,"lon":139.48158529},{"name":"NewWork東急百貨店吉祥寺店","province":"東京都","city":"武蔵野市","address":"東京都武蔵野市吉祥寺本町2丁目3-1","lat":35.70503805,"lon":139.57783694},{"name":"NewWorkひばりが丘","province":"東京都","city":"西東京市","address":"東京都西東京市ひばりが丘1丁目1-1","lat":35.75148474,"lon":139.54411012},{"name":"NewWork恵比寿","province":"東京都","city":"渋谷区","address":"東京都渋谷区東3丁目24-2","lat":35.64925066,"lon":139.70954474},{"name":"NewWork上野","province":"東京都","city":"台東区","address":"東京都台東区上野7丁目4-7","lat":35.7129927,"lon":139.77830908},{"name":"NewWork鎌倉3F","province":"神奈川県","city":"鎌倉市","address":"神奈川県鎌倉市御成町11-32","lat":35.31930534,"lon":139.5488229},{"name":"NewWork藤沢3F","province":"神奈川県","city":"藤沢市","address":"神奈川県藤沢市南藤沢4-3","lat":35.33780313,"lon":139.48973276},{"name":"NewWork大崎","province":"東京都","city":"品川区","address":"東京都品川区大崎1丁目6-1","lat":35.62070987,"lon":139.72878005},{"name":"NewWork大船","province":"神奈川県","city":"鎌倉市","address":"神奈川県鎌倉市大船1丁目11-16","lat":35.35152745,"lon":139.5316328},{"name":"NewWork浦安","province":"千葉県","city":"浦安市","address":"千葉県浦安市当代島1丁目1-22","lat":35.6659485,"lon":139.89222},{"name":"NewWork赤羽東口","province":"東京都","city":"北区","address":"東京都北区赤羽南1丁目9-11","lat":35.77785851,"lon":139.72251065},{"name":"NewWork浦和","province":"埼玉県","city":"さいたま市浦和区","address":"埼玉県さいたま市浦和区高砂2丁目2-3","lat":35.85692377,"lon":139.6539172},{"name":"NewWork柏南口","province":"千葉県","city":"柏市","address":"千葉県柏市中央町3-2","lat":35.85999109,"lon":139.96992275},{"name":"NewWork橋本","province":"神奈川県","city":"相模原市緑区","address":"神奈川県相模原市緑区橋本6丁目2-1","lat":35.59642985,"lon":139.34485279},{"name":"NewWork大宮2nd","province":"埼玉県","city":"さいたま市大宮区","address":"埼玉県さいたま市大宮区仲町2丁目65-2","lat":35.90485622,"lon":139.62774864},{"name":"NewWork新浦安","province":"千葉県","city":"浦安市","address":"千葉県浦安市入船1丁目5-2","lat":35.64864209,"lon":139.91297461},{"name":"NewWork三軒茶屋","province":"東京都","city":"世田谷区","address":"東京都世田谷区太子堂4丁目1-1","lat":35.64413642,"lon":139.66925105},{"name":"NewWork横浜鶴屋町","province":"神奈川県","city":"横浜市神奈川区","address":"神奈川県横浜市神奈川区鶴屋町2丁目17","lat":35.46823768,"lon":139.62222911},{"name":"NewWork武蔵小山","province":"東京都","city":"品川区","address":"東京都品川区小山3丁目15-1","lat":35.61986781,"lon":139.70444882},{"name":"NewWork桜新町","province":"東京都","city":"世田谷区","address":"東京都世田谷区桜新町1丁目12-10","lat":35.63152065,"lon":139.6445868},{"name":"NewWork錦糸町2nd","province":"東京都","city":"墨田区","address":"東京都墨田区江東橋3丁目10-8","lat":35.69577251,"lon":139.81295211},{"name":"NewWork自由が丘3F","province":"東京都","city":"世田谷区","address":"東京都世田谷区奥沢7丁目2-9","lat":35.60676282,"lon":139.66639692},{"name":"NewWork成城学園前","province":"東京都","city":"世田谷区","address":"東京都世田谷区成城2丁目34-14","lat":35.63951853,"lon":139.59943759},{"name":"H1T明大前","province":"東京都","city":"世田谷区","address":"東京都世田谷区松原2丁目28-20","lat":35.66735268,"lon":139.64928531},{"name":"H1T藤沢","province":"神奈川県","city":"藤沢市","address":"神奈川県藤沢市藤沢462","lat":35.33986949,"lon":139.48611086},{"name":"H1T日吉","province":"神奈川県","city":"横浜市港北区","address":"神奈川県横浜市港北区日吉本町1丁目4-14","lat":35.5545495,"lon":139.64552781},{"name":"H1T南越谷","province":"埼玉県","city":"越谷市","address":"埼玉県越谷市南越谷1丁目17-2","lat":35.87499689,"lon":139.79057717},{"name":"H1T高田馬場","province":"東京都","city":"新宿区","address":"東京都新宿区高田馬場1丁目35-3","lat":35.71295725,"lon":139.70425099},{"name":"H1T横浜西口 THE GARDEN","province":"神奈川県","city":"横浜市西区","address":"神奈川県横浜市西区北幸1丁目4-1","lat":35.46726284,"lon":139.61962109},{"name":"H1T経堂","province":"東京都","city":"世田谷区","address":"東京都世田谷区宮坂3丁目10-9","lat":35.65240963,"lon":139.63760063},{"name":"H1T巣鴨","province":"東京都","city":"豊島区","address":"東京都豊島区巣鴨1丁目17-6","lat":35.73276148,"lon":139.73890002},{"name":"H1T国立","province":"東京都","city":"国立市","address":"東京都国立市東1丁目4-8","lat":35.69829961,"lon":139.44721796},{"name":"H1T中野","province":"東京都","city":"中野区","address":"東京都中野区中央3丁目36-15","lat":35.69878294,"lon":139.67130721},{"name":"H1T稲毛","province":"千葉県","city":"千葉市稲毛区","address":"千葉県千葉市稲毛区小仲台6丁目1-1","lat":35.63839658,"lon":140.09317582},{"name":"H1T浅草橋","province":"東京都","city":"台東区","address":"東京都台東区柳橋1丁目20-4","lat":35.69758338,"lon":139.7869348},{"name":"H1T大崎","province":"東京都","city":"品川区","address":"東京都品川区大崎1丁目6-1","lat":35.62070987,"lon":139.72878005},{"name":"H1T西葛西","province":"東京都","city":"江戸川区","address":"東京都江戸川区西葛西6丁目8-10","lat":35.66439706,"lon":139.85854512},{"name":"H1T戸越銀座","province":"東京都","city":"品川区","address":"東京都品川区戸越3丁目1-18","lat":35.61518798,"lon":139.71688122},{"name":"H1T大井町","province":"東京都","city":"品川区","address":"東京都品川区東大井5丁目16-9","lat":35.60698945,"lon":139.73542165},{"name":"H1T浦安","province":"千葉県","city":"浦安市","address":"千葉県浦安市北栄1丁目17-14","lat":35.66532913,"lon":139.89293664},{"name":"高円寺純情ホテル","province":"大阪府","city":"大阪市中央区","address":"大阪府大阪市中央区","lat":34.68107502,"lon":135.50978711},{"name":"H1T大手町","province":"東京都","city":"千代田区","address":"東京都千代田区大手町2丁目1-1","lat":35.68524248,"lon":139.76623296},{"name":"H1T本八幡北口","province":"千葉県","city":"市川市","address":"千葉県市川市八幡3丁目6-1","lat":35.72217229,"lon":139.92581814},{"name":"H1T銀座","province":"東京都","city":"中央区","address":"東京都中央区銀座4丁目6-11","lat":35.67116898,"lon":139.76550284},{"name":"H1T海浜幕張","province":"千葉県","city":"千葉市美浜区","address":"千葉県千葉市美浜区ひび野2丁目4","lat":35.64780303,"lon":140.04041968},{"name":"H1T浦和","province":"埼玉県","city":"さいたま市浦和区","address":"埼玉県さいたま市浦和区仲町1丁目1-14","lat":35.85973459,"lon":139.656128}]}