{"keyword":"子ども","data":[{"name":"＊?富士見高原野外活動施設","province":"長野県","city":"諏訪郡富士見町","address":"長野県諏訪郡富士見町立沢字広原1-392","lat":35.936499,"lon":138.294321},{"name":"＊?富士見高原野外活動施設","province":"長野県","city":"諏訪郡富士見町","address":"長野県諏訪郡富士見町立沢字広原1-392","lat":35.936499,"lon":138.294321},{"name":"＊?富士見高原野外活動施設","province":"長野県","city":"諏訪郡富士見町","address":"長野県諏訪郡富士見町立沢字広原1-392","lat":35.936499,"lon":138.294321},{"name":"＊?富士見高原野外活動施設","province":"長野県","city":"諏訪郡富士見町","address":"長野県諏訪郡富士見町立沢字広原1-392","lat":35.936499,"lon":138.294321},{"name":"＊?富士見高原野外活動施設","province":"長野県","city":"諏訪郡富士見町","address":"長野県諏訪郡富士見町立沢字広原1-392","lat":35.936499,"lon":138.294321},{"name":"＊?富士見高原野外活動施設","province":"長野県","city":"諏訪郡富士見町","address":"長野県諏訪郡富士見町立沢字広原1-392","lat":35.936499,"lon":138.294321},{"name":"＊?富士見高原野外活動施設","province":"長野県","city":"諏訪郡富士見町","address":"長野県諏訪郡富士見町立沢字広原1-392","lat":35.936499,"lon":138.294321},{"name":"＊?富士見高原野外活動施設","province":"長野県","city":"諏訪郡富士見町","address":"長野県諏訪郡富士見町立沢字広原1-392","lat":35.936499,"lon":138.294321},{"name":"＊?富士見高原野外活動施設","province":"長野県","city":"諏訪郡富士見町","address":"長野県諏訪郡富士見町立沢字広原1-392","lat":35.936499,"lon":138.294321},{"name":"＊?富士見高原野外活動施設","province":"長野県","city":"諏訪郡富士見町","address":"長野県諏訪郡富士見町立沢字広原1-392","lat":35.936499,"lon":138.294321},{"name":"＊?富士見高原野外活動施設","province":"長野県","city":"諏訪郡富士見町","address":"長野県諏訪郡富士見町立沢字広原1-392","lat":35.936499,"lon":138.294321},{"name":"＊?富士見高原野外活動施設","province":"長野県","city":"諏訪郡富士見町","address":"長野県諏訪郡富士見町立沢字広原1-392","lat":35.936499,"lon":138.294321},{"name":"＊?富士見高原野外活動施設","province":"長野県","city":"諏訪郡富士見町","address":"長野県諏訪郡富士見町立沢字広原1-392","lat":35.936499,"lon":138.294321},{"name":"＊?富士見高原野外活動施設","province":"長野県","city":"諏訪郡富士見町","address":"長野県諏訪郡富士見町立沢字広原1-392","lat":35.936499,"lon":138.294321},{"name":"＊?富士見高原野外活動施設","province":"長野県","city":"諏訪郡富士見町","address":"長野県諏訪郡富士見町立沢字広原1-392","lat":35.936499,"lon":138.294321},{"name":"＊?富士見高原野外活動施設","province":"長野県","city":"諏訪郡富士見町","address":"長野県諏訪郡富士見町立沢字広原1-392","lat":35.936499,"lon":138.294321},{"name":"＊?富士見高原野外活動施設","province":"長野県","city":"諏訪郡富士見町","address":"長野県諏訪郡富士見町立沢字広原1-392","lat":35.936499,"lon":138.294321},{"name":"＊?富士見高原野外活動施設","province":"長野県","city":"諏訪郡富士見町","address":"長野県諏訪郡富士見町立沢字広原1-392","lat":35.936499,"lon":138.294321},{"name":"＊?富士見高原野外活動施設","province":"長野県","city":"諏訪郡富士見町","address":"長野県諏訪郡富士見町立沢字広原1-392","lat":35.936499,"lon":138.294321},{"name":"＊?富士見高原野外活動施設","province":"長野県","city":"諏訪郡富士見町","address":"長野県諏訪郡富士見町立沢字広原1-392","lat":35.936499,"lon":138.294321},{"name":"＊?富士見高原野外活動施設","province":"長野県","city":"諏訪郡富士見町","address":"長野県諏訪郡富士見町立沢字広原1-392","lat":35.936499,"lon":138.294321},{"name":"＊?富士見高原野外活動施設","province":"長野県","city":"諏訪郡富士見町","address":"長野県諏訪郡富士見町立沢字広原1-392","lat":35.936499,"lon":138.294321},{"name":"＊?富士見高原野外活動施設","province":"長野県","city":"諏訪郡富士見町","address":"長野県諏訪郡富士見町立沢字広原1-392","lat":35.936499,"lon":138.294321},{"name":"＊?富士見高原野外活動施設","province":"長野県","city":"諏訪郡富士見町","address":"長野県諏訪郡富士見町立沢字広原1-392","lat":35.936499,"lon":138.294321},{"name":"＊?富士見高原野外活動施設","province":"長野県","city":"諏訪郡富士見町","address":"長野県諏訪郡富士見町立沢字広原1-392","lat":35.936499,"lon":138.294321},{"name":"＊?富士見高原野外活動施設","province":"長野県","city":"諏訪郡富士見町","address":"長野県諏訪郡富士見町立沢字広原1-392","lat":35.936499,"lon":138.294321},{"name":"＊?富士見高原野外活動施設","province":"長野県","city":"諏訪郡富士見町","address":"長野県諏訪郡富士見町立沢字広原1-392","lat":35.936499,"lon":138.294321},{"name":"＊?富士見高原野外活動施設","province":"長野県","city":"諏訪郡富士見町","address":"長野県諏訪郡富士見町立沢字広原1-392","lat":35.936499,"lon":138.294321},{"name":"＊?富士見高原野外活動施設","province":"長野県","city":"諏訪郡富士見町","address":"長野県諏訪郡富士見町立沢字広原1-392","lat":35.936499,"lon":138.294321},{"name":"＊?富士見高原野外活動施設","province":"長野県","city":"諏訪郡富士見町","address":"長野県諏訪郡富士見町立沢字広原1-392","lat":35.936499,"lon":138.294321},{"name":"＊?富士見高原野外活動施設","province":"長野県","city":"諏訪郡富士見町","address":"長野県諏訪郡富士見町立沢字広原1-392","lat":35.936499,"lon":138.294321},{"name":"＊?富士見高原野外活動施設","province":"長野県","city":"諏訪郡富士見町","address":"長野県諏訪郡富士見町立沢字広原1-392","lat":35.936499,"lon":138.294321},{"name":"＊?富士見高原野外活動施設","province":"長野県","city":"諏訪郡富士見町","address":"長野県諏訪郡富士見町立沢字広原1-392","lat":35.936499,"lon":138.294321},{"name":"＊?富士見高原野外活動施設","province":"長野県","city":"諏訪郡富士見町","address":"長野県諏訪郡富士見町立沢字広原1-392","lat":35.936499,"lon":138.294321},{"name":"＊?富士見高原野外活動施設","province":"長野県","city":"諏訪郡富士見町","address":"長野県諏訪郡富士見町立沢字広原1-392","lat":35.936499,"lon":138.294321},{"name":"＊?富士見高原野外活動施設","province":"長野県","city":"諏訪郡富士見町","address":"長野県諏訪郡富士見町立沢字広原1-392","lat":35.936499,"lon":138.294321},{"name":"＊?富士見高原野外活動施設","province":"長野県","city":"諏訪郡富士見町","address":"長野県諏訪郡富士見町立沢字広原1-392","lat":35.936499,"lon":138.294321},{"name":"＊?富士見高原野外活動施設","province":"長野県","city":"諏訪郡富士見町","address":"長野県諏訪郡富士見町立沢字広原1-392","lat":35.936499,"lon":138.294321},{"name":"＊?富士見高原野外活動施設","province":"長野県","city":"諏訪郡富士見町","address":"長野県諏訪郡富士見町立沢字広原1-392","lat":35.936499,"lon":138.294321},{"name":"＊?富士見高原野外活動施設","province":"長野県","city":"諏訪郡富士見町","address":"長野県諏訪郡富士見町立沢字広原1-392","lat":35.936499,"lon":138.294321},{"name":"＊?富士見高原野外活動施設","province":"長野県","city":"諏訪郡富士見町","address":"長野県諏訪郡富士見町立沢字広原1-392","lat":35.936499,"lon":138.294321},{"name":"＊?富士見高原野外活動施設","province":"長野県","city":"諏訪郡富士見町","address":"長野県諏訪郡富士見町立沢字広原1-392","lat":35.936499,"lon":138.294321},{"name":"＊?富士見高原野外活動施設","province":"長野県","city":"諏訪郡富士見町","address":"長野県諏訪郡富士見町立沢字広原1-392","lat":35.936499,"lon":138.294321},{"name":"＊?富士見高原野外活動施設","province":"長野県","city":"諏訪郡富士見町","address":"長野県諏訪郡富士見町立沢字広原1-392","lat":35.936499,"lon":138.294321},{"name":"＊?富士見高原野外活動施設","province":"長野県","city":"諏訪郡富士見町","address":"長野県諏訪郡富士見町立沢字広原1-392","lat":35.936499,"lon":138.294321},{"name":"＊?富士見高原野外活動施設","province":"長野県","city":"諏訪郡富士見町","address":"長野県諏訪郡富士見町立沢字広原1-392","lat":35.936499,"lon":138.294321},{"name":"＊?富士見高原野外活動施設","province":"長野県","city":"諏訪郡富士見町","address":"長野県諏訪郡富士見町立沢字広原1-392","lat":35.936499,"lon":138.294321},{"name":"＊?富士見高原野外活動施設","province":"長野県","city":"諏訪郡富士見町","address":"長野県諏訪郡富士見町立沢字広原1-392","lat":35.936499,"lon":138.294321},{"name":"＊?富士見高原野外活動施設","province":"長野県","city":"諏訪郡富士見町","address":"長野県諏訪郡富士見町立沢字広原1-392","lat":35.936499,"lon":138.294321},{"name":"＊?富士見高原野外活動施設","province":"長野県","city":"諏訪郡富士見町","address":"長野県諏訪郡富士見町立沢字広原1-392","lat":35.936499,"lon":138.294321},{"name":"＊?富士見高原野外活動施設","province":"長野県","city":"諏訪郡富士見町","address":"長野県諏訪郡富士見町立沢字広原1-392","lat":35.936499,"lon":138.294321}]}