{"keyword":"センター","data":[{"name":"荒川老人福祉センター","province":"東京都","city":"荒川区","address":"荒川区荒川1-34-6","lat":35.73409,"lon":139.78777},{"name":"足立区悠々会館","province":"東京都","city":"足立区","address":"足立区西保木間4-9-1","lat":35.80355,"lon":139.79671},{"name":"文京区福祉センター湯島","province":"東京都","city":"文京区","address":"文京区本郷3-10-18","lat":35.70407,"lon":139.76379},{"name":"武蔵村山市第一老人福祉館","province":"東京都","city":"武蔵村山市","address":"武蔵村山市緑が丘14601111号棟1階","lat":35.74292,"lon":139.40791},{"name":"武蔵村山市さいかち老人福祉館","province":"東京都","city":"武蔵村山市","address":"武蔵村山市緑が丘14601133号棟1階","lat":35.74292,"lon":139.40791},{"name":"東大和市立老人福祉センター","province":"東京都","city":"東大和市","address":"東大和市奈良橋4-600","lat":35.75148,"lon":139.42589},{"name":"北品川シルバーセンター","province":"東京都","city":"品川区","address":"品川区北品川1-29-12","lat":35.62078,"lon":139.74176},{"name":"西麻布いきいきプラザ","province":"東京都","city":"港区","address":"港区西麻布2-13-3","lat":35.660902,"lon":139.722721},{"name":"南麻布いきいきプラザ","province":"東京都","city":"港区","address":"港区南麻布1-5-26","lat":35.651434,"lon":139.735101},{"name":"青南いきいきプラザ","province":"東京都","city":"港区","address":"港区南青山4-10-1","lat":35.666466,"lon":139.717313},{"name":"豊岡いきいきプラザ","province":"東京都","city":"港区","address":"港区三田5-7-7","lat":35.646502,"lon":139.739662},{"name":"文京福祉センター江戸川橋","province":"東京都","city":"文京区","address":"文京区小日向2-16-15","lat":35.710581,"lon":139.734582},{"name":"台東区立老人福祉センター","province":"東京都","city":"台東区","address":"台東区東上野2-25-14","lat":35.709474,"lon":139.781673},{"name":"すみだ福祉保健センター","province":"東京都","city":"墨田区","address":"墨田区向島3-36-7","lat":35.713374,"lon":139.810759},{"name":"深川老人福祉センター","province":"東京都","city":"江東区","address":"江東区平野1-2-3","lat":35.678464,"lon":139.798629},{"name":"城東老人福祉センター","province":"東京都","city":"江東区","address":"江東区北砂4-20-12","lat":35.677503,"lon":139.831953},{"name":"東品川シルバーセンター","province":"東京都","city":"品川区","address":"品川区東品川3-32-10","lat":35.614192,"lon":139.750748},{"name":"目黒区高齢者センター","province":"東京都","city":"目黒区","address":"目黒区目黒1-25-26","lat":35.63676,"lon":139.708151},{"name":"世田谷区立ひだまり友遊会館","province":"東京都","city":"世田谷区","address":"世田谷区若林4-37-8","lat":35.647869,"lon":139.656719},{"name":"杉並区立高齢者活動支援センター","province":"東京都","city":"杉並区","address":"杉並区高井戸東3-7-5","lat":35.683633,"lon":139.616582},{"name":"区民ひろば南池袋","province":"東京都","city":"豊島区","address":"豊島区南池袋3-5-12","lat":35.723434,"lon":139.714014},{"name":"名主の滝老人いこいの家","province":"東京都","city":"北区","address":"北区岸町1-15-25","lat":35.757836,"lon":139.73243},{"name":"滝野川老人いこいの家","province":"東京都","city":"北区","address":"北区滝野川1-46-7","lat":35.746932,"lon":139.734075},{"name":"荒川老人福祉センター","province":"東京都","city":"荒川区","address":"荒川区荒川1-34-6","lat":35.734258,"lon":139.786944},{"name":"仲町ふれあい館","province":"東京都","city":"板橋区","address":"板橋区仲町20-5","lat":35.751247,"lon":139.696289},{"name":"志村ふれあい館","province":"東京都","city":"板橋区","address":"板橋区志村3-32-6","lat":35.778916,"lon":139.690274},{"name":"中台ふれあい館","province":"東京都","city":"板橋区","address":"板橋区中台2-14-1","lat":35.7699,"lon":139.680223},{"name":"高島平ふれあい館","province":"東京都","city":"板橋区","address":"板橋区高島平8-29-1","lat":35.791924,"lon":139.664496},{"name":"徳丸ふれあい館","province":"東京都","city":"板橋区","address":"板橋区徳丸2-12-12","lat":35.77201,"lon":139.660316},{"name":"はつらつセンター豊玉","province":"東京都","city":"練馬区","address":"練馬区豊玉中3-3-12","lat":35.731918,"lon":139.655393},{"name":"はつらつセンター関","province":"東京都","city":"練馬区","address":"練馬区関町北1-7-2関区民センター内","lat":35.724489,"lon":139.577664},{"name":"はつらつセンター大泉","province":"東京都","city":"練馬区","address":"練馬区大泉学園町1-34-20","lat":35.763035,"lon":139.590778},{"name":"はつらつセンター光が丘","province":"東京都","city":"練馬区","address":"練馬区光が丘2-9-6光が丘区民センター内","lat":35.759486,"lon":139.629589},{"name":"足立区悠々会館","province":"東京都","city":"足立区","address":"足立区西保木間4-9-1","lat":35.803394,"lon":139.796656},{"name":"葛飾区シニア活動支援センター","province":"東京都","city":"葛飾区","address":"葛飾区立石6-38-11","lat":35.743852,"lon":139.854392},{"name":"くつろぎの家","province":"東京都","city":"江戸川区","address":"江戸川区江戸川2-13","lat":35.685403,"lon":139.905901},{"name":"立川市幸福祉会館","province":"東京都","city":"立川市","address":"立川市幸町5-57-14","lat":35.72589,"lon":139.423222},{"name":"立川市曙福祉会館","province":"東京都","city":"立川市","address":"立川市曙町3-44-17","lat":35.705779,"lon":139.424822},{"name":"立川市総合福祉センター","province":"東京都","city":"立川市","address":"立川市富士見町2-36-47","lat":35.701298,"lon":139.401802},{"name":"立川市柴崎福祉会館","province":"東京都","city":"立川市","address":"立川市柴崎町5-11-26","lat":35.688488,"lon":139.401342},{"name":"立川市一番福祉会館","province":"東京都","city":"立川市","address":"立川市一番町6-17-87","lat":35.734388,"lon":139.372685},{"name":"調布市総合福祉センター","province":"東京都","city":"調布市","address":"調布市小島町2-47-1","lat":35.651397,"lon":139.542753},{"name":"ふれあいもっこく館","province":"東京都","city":"町田市","address":"町田市原町田5-8-21健康福祉会館内","lat":35.54602,"lon":139.449987},{"name":"ふれあいもみじ館","province":"東京都","city":"町田市","address":"町田市金森東3-17-14","lat":35.530389,"lon":139.465247},{"name":"ふれあいいちょう館","province":"東京都","city":"町田市","address":"町田市大蔵町1984-1","lat":35.589019,"lon":139.46809},{"name":"ふれあいくぬぎ館","province":"東京都","city":"町田市","address":"町田市山崎町2160-4木曽山崎センター2階","lat":35.568567,"lon":139.436665},{"name":"小平市福祉会館","province":"東京都","city":"小平市","address":"小平市学園東町1-19-13","lat":35.726567,"lon":139.478114},{"name":"中央福祉センター","province":"東京都","city":"日野市","address":"日野市日野本町7-5-23","lat":35.679503,"lon":139.400098},{"name":"湯沢福祉センター","province":"東京都","city":"日野市","address":"日野市程久保873","lat":35.651851,"lon":139.416047},{"name":"くにたち福祉会館","province":"東京都","city":"国立市","address":"国立市富士見台2-38-5","lat":35.687451,"lon":139.444582},{"name":"福生市老人福祉センター","province":"東京都","city":"福生市","address":"福生市南田園2-13-1","lat":35.727485,"lon":139.332271},{"name":"東大和市立老人福祉センター","province":"東京都","city":"東大和市","address":"東大和市奈良橋4-600","lat":35.752423,"lon":139.425762},{"name":"滝山地区センター","province":"東京都","city":"東久留米市","address":"東久留米市滝山4-1-10","lat":35.744901,"lon":139.504464},{"name":"武蔵村山市福祉会館","province":"東京都","city":"武蔵村山市","address":"武蔵村山市中央2-117-1","lat":35.750828,"lon":139.393287},{"name":"多摩市老人福祉センター","province":"東京都","city":"多摩市","address":"多摩市南野3-15-1","lat":35.612536,"lon":139.412677},{"name":"羽村市老人福祉センターじゅらく苑","province":"東京都","city":"羽村市","address":"羽村市緑ケ丘5-2-6","lat":35.767935,"lon":139.310869},{"name":"羽村市高齢者在宅サービスセンターいこいの里","province":"東京都","city":"羽村市","address":"羽村市羽加美4-18-6","lat":35.760213,"lon":139.299373},{"name":"老人福祉センター","province":"東京都","city":"西東京市","address":"西東京市田無町5-5-12","lat":35.731809,"lon":139.536209},{"name":"ひばりが丘福祉会館","province":"東京都","city":"西東京市","address":"西東京市ひばりが丘2-8-27","lat":35.748538,"lon":139.53778},{"name":"下保谷福祉会館","province":"東京都","city":"西東京市","address":"西東京市下保谷4-3-20","lat":35.750505,"lon":139.56502},{"name":"住吉老人福祉センター","province":"東京都","city":"西東京市","address":"西東京市住吉町6-15-6","lat":35.744433,"lon":139.55129},{"name":"富士町福祉会館","province":"東京都","city":"西東京市","address":"西東京市富士町6-6-13","lat":35.730065,"lon":139.556899},{"name":"新町福祉会館","province":"東京都","city":"西東京市","address":"西東京市新町5-2-7","lat":35.712939,"lon":139.536376},{"name":"瑞穂町高齢者福祉センター寿楽","province":"東京都","city":"西多摩郡瑞穂町","address":"西多摩郡瑞穂町大字殿ケ谷1106","lat":35.771436,"lon":139.361831},{"name":"日の出町大久野老人福祉センター","province":"東京都","city":"西多摩郡日の出町","address":"西多摩郡日の出町大字大久野2120-1","lat":35.743702,"lon":139.228251},{"name":"日の出町本宿老人福祉センター","province":"東京都","city":"西多摩郡日の出町","address":"西多摩郡日の出町大字平井1982","lat":35.735785,"lon":139.260196},{"name":"日の出町平井・生涯青春ふれあい総合福祉センター","province":"東京都","city":"西多摩郡日の出町","address":"西多摩郡日の出町大字平井4118","lat":35.743154,"lon":139.274825},{"name":"檜原村ふれあいセンター","province":"東京都","city":"西多摩郡檜原村","address":"西多摩郡檜原村2717","lat":35.735304,"lon":139.143647},{"name":"新島村老人福祉センター","province":"東京都","city":"新島村","address":"新島村本村1-8-2","lat":34.376687,"lon":139.256188},{"name":"文京福祉センター湯島","province":"東京都","city":"文京区","address":"文京区本郷3-10-18","lat":35.718659,"lon":139.635873},{"name":"入谷老人福祉館","province":"東京都","city":"台東区","address":"台東区入谷1-16-9","lat":35.720498,"lon":139.785564},{"name":"橋場老人福祉館","province":"東京都","city":"台東区","address":"台東区橋場1-36-2","lat":35.724049,"lon":139.808249},{"name":"三筋老人福祉館","province":"東京都","city":"台東区","address":"台東区三筋2-16-4","lat":35.706107,"lon":139.786906},{"name":"深川老人福祉センター森下分館","province":"東京都","city":"江東区","address":"江東区森下5-11-1","lat":35.68483,"lon":139.808898},{"name":"亀戸老人福祉センター","province":"東京都","city":"江東区","address":"江東区亀戸9-33-2-101","lat":35.699173,"lon":139.841995},{"name":"北品川シルバーセンター","province":"東京都","city":"品川区","address":"品川区北品川1-29-12","lat":35.620532,"lon":139.741771},{"name":"関ケ原シルバーセンター","province":"東京都","city":"品川区","address":"品川区東大井6-11-11","lat":35.601935,"lon":139.736483},{"name":"南大井シルバーセンター","province":"東京都","city":"品川区","address":"品川区南大井3-7-13","lat":35.591827,"lon":139.7343},{"name":"西大井いきいきセンター","province":"東京都","city":"品川区","address":"品川区西大井2-5-21","lat":35.599254,"lon":139.721865},{"name":"上大崎シルバーセンター","province":"東京都","city":"品川区","address":"品川区上大崎1-3-12","lat":35.634597,"lon":139.722075},{"name":"ゆたかシルバーセンター","province":"東京都","city":"品川区","address":"品川区豊町3-2-15","lat":35.608336,"lon":139.719606},{"name":"後地シルバーセンター","province":"東京都","city":"品川区","address":"品川区小山2-9-19","lat":35.620629,"lon":139.709198},{"name":"小山シルバーセンター","province":"東京都","city":"品川区","address":"品川区小山5-17-18","lat":35.614835,"lon":139.701441},{"name":"旗の台シルバーセンター","province":"東京都","city":"品川区","address":"品川区旗の台4-13-1","lat":35.602584,"lon":139.704669},{"name":"上高田高齢者会館","province":"東京都","city":"中野区","address":"中野区上高田2-8-11","lat":35.710751,"lon":139.672451},{"name":"上高田東高齢者会館","province":"東京都","city":"中野区","address":"中野区上高田4-17-3","lat":35.712895,"lon":139.677856},{"name":"昭和高齢者会館","province":"東京都","city":"中野区","address":"中野区東中野3-19-18","lat":35.70834,"lon":139.680762},{"name":"東中野いこいの家","province":"東京都","city":"中野区","address":"中野区東中野4-9-22-201","lat":35.707471,"lon":139.685783},{"name":"宮園高齢者会館","province":"東京都","city":"中野区","address":"中野区中央2-18-21","lat":35.700364,"lon":139.682456},{"name":"本一高齢者会館","province":"東京都","city":"中野区","address":"中野区本町1-7-6","lat":35.693773,"lon":139.682676},{"name":"南部高齢者会館","province":"東京都","city":"中野区","address":"中野区南台5-27-24","lat":35.683293,"lon":139.660895},{"name":"しんやまの家","province":"東京都","city":"中野区","address":"中野区南台4-25-1","lat":35.680813,"lon":139.667472},{"name":"沼袋高齢者会館","province":"東京都","city":"中野区","address":"中野区沼袋1-34-14","lat":35.719708,"lon":139.665199},{"name":"野方高齢者会館","province":"東京都","city":"中野区","address":"中野区野方2-29-12","lat":35.71455,"lon":139.656569},{"name":"東山高齢者会館","province":"東京都","city":"中野区","address":"中野区野方4-41-7","lat":35.721905,"lon":139.656955},{"name":"鷺六高齢者会館","province":"東京都","city":"中野区","address":"中野区鷺宮6-25-8","lat":35.725645,"lon":139.630096},{"name":"若宮いこいの家","province":"東京都","city":"中野区","address":"中野区若宮1-49-1","lat":35.720122,"lon":139.648108},{"name":"鷺宮高齢者会館","province":"東京都","city":"中野区","address":"中野区若宮3-58-10","lat":35.722082,"lon":139.640337},{"name":"若宮高齢者会館","province":"東京都","city":"中野区","address":"中野区大和町4-51-11","lat":35.715464,"lon":139.642967},{"name":"白鷺高齢者会館","province":"東京都","city":"中野区","address":"中野区白鷲2-8-5","lat":35.718639,"lon":139.635862},{"name":"区民ひろば西巣鴨第一","province":"東京都","city":"豊島区","address":"豊島区西巣鴨2-35-3","lat":35.740399,"lon":139.727815},{"name":"区民ひろば清和第一","province":"東京都","city":"豊島区","address":"豊島区巣鴨3-15-20","lat":35.735639,"lon":139.733767},{"name":"区民ひろば駒込","province":"東京都","city":"豊島区","address":"豊島区駒込2-2-4","lat":35.73705,"lon":139.747491},{"name":"区民ひろば南大塚","province":"東京都","city":"豊島区","address":"豊島区南大塚2-36-1","lat":35.729228,"lon":139.729823},{"name":"区民ひろば池袋本町","province":"東京都","city":"豊島区","address":"豊島区池袋本町3-9-4","lat":35.743612,"lon":139.712743},{"name":"区民ひろば上池袋","province":"東京都","city":"豊島区","address":"豊島区上池袋3-13-5","lat":35.739985,"lon":139.716665},{"name":"区民ひろば朋有","province":"東京都","city":"豊島区","address":"豊島区東池袋2-38-10","lat":35.731925,"lon":139.721529},{"name":"区民ひろば池袋","province":"東京都","city":"豊島区","address":"豊島区池袋4-21-10","lat":35.738446,"lon":139.708758},{"name":"区民ひろば西池袋","province":"東京都","city":"豊島区","address":"豊島区西池袋2-37-4としま産業振興プラザ2階","lat":35.727725,"lon":139.706781},{"name":"区民ひろば高南第一","province":"東京都","city":"豊島区","address":"豊島区高田2-11-2","lat":35.715682,"lon":139.71455},{"name":"区民ひろば高松","province":"東京都","city":"豊島区","address":"豊島区高松2-25-9","lat":35.738696,"lon":139.697562},{"name":"区民ひろば千早","province":"東京都","city":"豊島区","address":"豊島区要町3-7-10","lat":35.737157,"lon":139.687318},{"name":"区民ひろば長崎","province":"東京都","city":"豊島区","address":"豊島区長崎2-27-18","lat":35.729594,"lon":139.693087},{"name":"区民ひろば富士見台","province":"東京都","city":"豊島区","address":"豊島区南長崎1-6-1","lat":35.723911,"lon":139.691654},{"name":"大谷田悠々館","province":"東京都","city":"足立区","address":"足立区大谷田1-1-2-101","lat":35.776839,"lon":139.844536},{"name":"大谷田谷中悠々館","province":"東京都","city":"足立区","address":"足立区大谷田4-16-6","lat":35.780903,"lon":139.838417},{"name":"長門悠々館","province":"東京都","city":"足立区","address":"足立区中川2-24-2-101","lat":35.768638,"lon":139.857191},{"name":"東和悠々館","province":"東京都","city":"足立区","address":"足立区東和3-12-9","lat":35.771123,"lon":139.839515},{"name":"東綾瀬悠々館","province":"東京都","city":"足立区","address":"足立区東綾瀬1-28-7","lat":35.766246,"lon":139.833077},{"name":"綾瀬悠々館","province":"東京都","city":"足立区","address":"足立区綾瀬3-17-9","lat":35.764682,"lon":139.824547},{"name":"弘道悠々館","province":"東京都","city":"足立区","address":"足立区弘道2-16-1-101","lat":35.768601,"lon":139.816833},{"name":"五反野悠々館","province":"東京都","city":"足立区","address":"足立区西綾瀬2-1-13","lat":35.76168,"lon":139.81397},{"name":"千住あずま悠々館","province":"東京都","city":"足立区","address":"足立区千住東2-21-18","lat":35.745754,"lon":139.810255},{"name":"千住柳町悠々館","province":"東京都","city":"足立区","address":"足立区千住柳町12-5","lat":35.753764,"lon":139.796161},{"name":"千住本町悠々館","province":"東京都","city":"足立区","address":"足立区千住5-6-2","lat":35.754728,"lon":139.803688},{"name":"千住河原町悠々館","province":"東京都","city":"足立区","address":"足立区千住河原町6-4","lat":35.744643,"lon":139.796165},{"name":"江南悠々館","province":"東京都","city":"足立区","address":"足立区小台2-4-18","lat":35.755913,"lon":139.7575},{"name":"中央本町悠々館","province":"東京都","city":"足立区","address":"足立区中央本町3-15-1","lat":35.772256,"lon":139.809662},{"name":"栗島悠々館","province":"東京都","city":"足立区","address":"足立区中央本町4-5-2","lat":35.776766,"lon":139.805824},{"name":"青井悠々館","province":"東京都","city":"足立区","address":"足立区青井5-11-40-101","lat":35.777047,"lon":139.819988},{"name":"六木悠々館","province":"東京都","city":"足立区","address":"足立区六木3-39-5-101","lat":35.799695,"lon":139.839983},{"name":"佐野悠々館","province":"東京都","city":"足立区","address":"足立区佐野2-43-5","lat":35.788127,"lon":139.840264},{"name":"加平悠々館","province":"東京都","city":"足立区","address":"足立区加平1-10-6","lat":35.775014,"lon":139.828127},{"name":"神明悠々館","province":"東京都","city":"足立区","address":"足立区神明南2-6-19","lat":35.787477,"lon":139.833273},{"name":"花畑悠々館","province":"東京都","city":"足立区","address":"足立区花畑4-16-8","lat":35.802789,"lon":139.807472},{"name":"桜花悠々館","province":"東京都","city":"足立区","address":"足立区花畑6-4-16","lat":35.804827,"lon":139.81689},{"name":"南花畑悠々館","province":"東京都","city":"足立区","address":"足立区南花畑3-14-7","lat":35.790501,"lon":139.824865},{"name":"花保悠々館","province":"東京都","city":"足立区","address":"足立区東保木間1-25-4-101","lat":35.790812,"lon":139.815213},{"name":"保塚悠々館","province":"東京都","city":"足立区","address":"足立区保塚町7-16","lat":35.786893,"lon":139.815927},{"name":"平野悠々館","province":"東京都","city":"足立区","address":"足立区平野2-2-14","lat":35.78221,"lon":139.804498},{"name":"東伊興悠々館","province":"東京都","city":"足立区","address":"足立区東伊興1-5-22","lat":35.803416,"lon":139.785835},{"name":"渕江悠々館","province":"東京都","city":"足立区","address":"足立区西保木間1-2-1-101","lat":35.795128,"lon":139.80142},{"name":"竹の塚六月悠々館","province":"東京都","city":"足立区","address":"足立区六月2-26-3-101","lat":35.788226,"lon":139.796532},{"name":"島根悠々館","province":"東京都","city":"足立区","address":"足立区島根4-19-1-101","lat":35.782657,"lon":139.796565},{"name":"梅島悠々館","province":"東京都","city":"足立区","address":"足立区梅島2-14-5","lat":35.775494,"lon":139.799318},{"name":"伊興悠々館","province":"東京都","city":"足立区","address":"足立区伊興5-22-13","lat":35.798147,"lon":139.780027},{"name":"西伊興悠々館","province":"東京都","city":"足立区","address":"足立区西伊興1-12-12","lat":35.790825,"lon":139.773525},{"name":"舎人悠々館","province":"東京都","city":"足立区","address":"足立区舎人1-3-26","lat":35.806001,"lon":139.773161},{"name":"入谷悠々館","province":"東京都","city":"足立区","address":"足立区舎人6-12-4-101","lat":35.811364,"lon":139.761934},{"name":"西新井悠々館","province":"東京都","city":"足立区","address":"足立区西新井7-19-6","lat":35.781887,"lon":139.772134},{"name":"栗原北悠々館","province":"東京都","city":"足立区","address":"足立区栗原4-19-15","lat":35.786801,"lon":139.784994},{"name":"西新井栄町悠々館","province":"東京都","city":"足立区","address":"足立区西新井栄町3-1-6-101","lat":35.774869,"lon":139.783733},{"name":"西新井本町悠々館","province":"東京都","city":"足立区","address":"足立区西新井本町2-30-37","lat":35.77653,"lon":139.771367},{"name":"梅田悠々館","province":"東京都","city":"足立区","address":"足立区梅田6-26-1","lat":35.76757,"lon":139.797474},{"name":"本木関原悠々館","province":"東京都","city":"足立区","address":"足立区関原1-21-11","lat":35.764662,"lon":139.787225},{"name":"興本悠々館","province":"東京都","city":"足立区","address":"足立区本木東町17-10","lat":35.767462,"lon":139.781136},{"name":"加賀悠々館","province":"東京都","city":"足立区","address":"足立区加賀2-31-6-101","lat":35.794286,"lon":139.760615},{"name":"鹿浜いきいき館悠々館","province":"東京都","city":"足立区","address":"足立区鹿浜2-24-2","lat":35.780595,"lon":139.749153},{"name":"押皿谷悠々館","province":"東京都","city":"足立区","address":"足立区鹿浜8-27-15","lat":35.789938,"lon":139.764951},{"name":"鹿浜悠々館","province":"東京都","city":"足立区","address":"足立区鹿浜6-8-1","lat":35.783962,"lon":139.758174},{"name":"新田悠々館","province":"東京都","city":"足立区","address":"足立区新田2-2-2","lat":35.771596,"lon":139.738226},{"name":"江北悠々館","province":"東京都","city":"足立区","address":"足立区江北2-8-2","lat":35.767214,"lon":139.763177},{"name":"扇悠々館","province":"東京都","city":"足立区","address":"足立区扇1-47-38","lat":35.765678,"lon":139.775337},{"name":"武蔵野市立高齢者総合センター","province":"東京都","city":"武蔵野市","address":"武蔵野市緑町2-4-1","lat":35.715364,"lon":139.56271},{"name":"三鷹市高齢者福祉センター","province":"東京都","city":"三鷹市","address":"三鷹市新川6-37-1","lat":35.681774,"lon":139.561834},{"name":"ふれあい桜館","province":"東京都","city":"町田市","address":"町田市下小山田町3580","lat":35.58529,"lon":139.40815},{"name":"ふれあいけやき館","province":"東京都","city":"町田市","address":"町田市相原町795-1堺市民センター内","lat":35.604175,"lon":139.333417},{"name":"高幡福祉センター","province":"東京都","city":"日野市","address":"日野市高幡864-4","lat":35.664647,"lon":139.41223},{"name":"北福祉館","province":"東京都","city":"国立市","address":"国立市北2-19-1","lat":35.700549,"lon":139.437447},{"name":"東福祉館","province":"東京都","city":"国立市","address":"国立市東3-18-32","lat":35.691428,"lon":139.454798},{"name":"狛江市老人福祉センター","province":"東京都","city":"狛江市","address":"狛江市元和泉2-35-1","lat":35.6333,"lon":139.567777},{"name":"中里地域市民センター","province":"東京都","city":"清瀬市","address":"清瀬市中里4-1301","lat":35.786499,"lon":139.514165},{"name":"野塩地域市民センター","province":"東京都","city":"清瀬市","address":"清瀬市野塩1-322-2","lat":35.77918,"lon":139.499424},{"name":"松山地域市民センター","province":"東京都","city":"清瀬市","address":"清瀬市松山2-6-25","lat":35.770998,"lon":139.51477},{"name":"大門町地区センター","province":"東京都","city":"東久留米市","address":"東久留米市大門町2-10-5","lat":35.764864,"lon":139.540735},{"name":"浅間町地区センター","province":"東京都","city":"東久留米市","address":"東久留米市浅間町2-24-16","lat":35.757842,"lon":139.541724},{"name":"ひばりが丘地区センター","province":"東京都","city":"東久留米市","address":"東久留米市ひばりが丘団地185","lat":35.746507,"lon":139.534244},{"name":"南町地区センター","province":"東京都","city":"東久留米市","address":"東久留米市南町3-9-45","lat":35.740758,"lon":139.520254},{"name":"野火止地区センター","province":"東京都","city":"東久留米市","address":"東久留米市野火止2-1-83","lat":35.763572,"lon":139.513323},{"name":"中央町地区センター","province":"東京都","city":"東久留米市","address":"東久留米市中央町6-1-1","lat":35.755912,"lon":139.519698},{"name":"武蔵村山市第五老人福祉館","province":"東京都","city":"武蔵村山市","address":"武蔵村山市神明2-7","lat":35.753903,"lon":139.401398},{"name":"武蔵村山市第三老人福祉館","province":"東京都","city":"武蔵村山市","address":"武蔵村山市本町4-40-1","lat":35.758208,"lon":139.386382},{"name":"武蔵村山市第一老人福祉館","province":"東京都","city":"武蔵村山市","address":"武蔵村山市緑が丘14601111号棟1階","lat":35.743477,"lon":139.407886},{"name":"武蔵村山市さいかち老人福祉館","province":"東京都","city":"武蔵村山市","address":"武蔵村山市緑が丘14601133号棟1階","lat":35.743477,"lon":139.407886},{"name":"武蔵村山市第四老人福祉館","province":"東京都","city":"武蔵村山市","address":"武蔵村山市岸町3-47-7","lat":35.766032,"lon":139.373067},{"name":"武蔵村山市第二老人福祉館","province":"東京都","city":"武蔵村山市","address":"武蔵村山市残堀2-22-1","lat":35.747561,"lon":139.371876},{"name":"多摩市立東寺方老人福祉館","province":"東京都","city":"多摩市","address":"多摩市東寺方626-7","lat":35.643283,"lon":139.437701},{"name":"多摩市立連光寺老人福祉館","province":"東京都","city":"多摩市","address":"多摩市連光寺3-57-1","lat":35.642745,"lon":139.45683},{"name":"多摩市立諏訪老人福祉館","province":"東京都","city":"多摩市","address":"多摩市諏訪5-4","lat":35.622311,"lon":139.450859},{"name":"多摩市立豊ケ丘老人福祉館","province":"東京都","city":"多摩市","address":"多摩市豊ケ丘5-6","lat":35.614328,"lon":139.434311},{"name":"東京都立精神保健福祉センター","province":"東京都","city":"台東区","address":"台東区下谷1-1-3","lat":35.717411,"lon":139.781113},{"name":"台東区立老人福祉センター","province":"東京都","city":"台東区","address":"台東区東上野2-25-14","lat":35.70953,"lon":139.78124},{"name":"深川老人福祉センター","province":"東京都","city":"江東区","address":"江東区平野1-2-3","lat":35.67817,"lon":139.79894},{"name":"世田谷区立ひだまり友遊会館","province":"東京都","city":"世田谷区","address":"世田谷区若林4-37-8","lat":35.6477,"lon":139.65682},{"name":"滝野川老人いこいの家","province":"東京都","city":"北区","address":"北区滝野川1-46-7","lat":35.74682,"lon":139.73413},{"name":"立川市柴崎福祉会館","province":"東京都","city":"立川市","address":"立川市柴崎町5-11-26","lat":35.68852,"lon":139.40071},{"name":"住吉老人福祉センター","province":"東京都","city":"西東京市","address":"西東京市住吉町6‐15‐6","lat":35.74402,"lon":139.55216},{"name":"檜原村ふれあいセンター","province":"東京都","city":"西多摩郡檜原村","address":"西多摩郡檜原村2717","lat":35.72683,"lon":139.16281},{"name":"文京区福祉センター湯島","province":"東京都","city":"文京区","address":"文京区本郷3-10-18","lat":35.70408,"lon":139.76379},{"name":"入谷老人福祉館","province":"東京都","city":"台東区","address":"台東区入谷1-16-9","lat":35.72047,"lon":139.78539},{"name":"北品川シルバーセンター","province":"東京都","city":"品川区","address":"品川区北品川1-29-12","lat":35.62079,"lon":139.74176},{"name":"関ケ原シルバーセンター","province":"東京都","city":"品川区","address":"品川区東大井6-11-11","lat":35.60222,"lon":139.7363},{"name":"西大井いきいきセンター","province":"東京都","city":"品川区","address":"品川区西大井2-5-21","lat":35.59926,"lon":139.72263},{"name":"上大崎シルバーセンター","province":"東京都","city":"品川区","address":"品川区上大崎1-3-12","lat":35.635,"lon":139.72195},{"name":"後地シルバーセンター","province":"東京都","city":"品川区","address":"品川区小山2-9-19","lat":35.62122,"lon":139.70931},{"name":"昭和高齢者会館","province":"東京都","city":"中野区","address":"中野区東中野3-19-18","lat":35.70847,"lon":139.68041},{"name":"宮園高齢者会館","province":"東京都","city":"中野区","address":"中野区中央2-18-21","lat":35.70025,"lon":139.68262},{"name":"東山高齢者会館","province":"東京都","city":"中野区","address":"中野区野方4-41-7","lat":35.72207,"lon":139.65683},{"name":"若宮いこいの家","province":"東京都","city":"中野区","address":"中野区若宮1-49-1","lat":35.72014,"lon":139.64806},{"name":"大谷田悠々館","province":"東京都","city":"足立区","address":"足立区大谷田1-1-2-101","lat":35.77963,"lon":139.84354},{"name":"竹の塚六月悠々館","province":"東京都","city":"足立区","address":"足立区六月2-26-3-101","lat":35.78807,"lon":139.79656},{"name":"湯沢福祉センター","province":"東京都","city":"日野市","address":"日野市程久保873","lat":35.64948,"lon":139.41303},{"name":"武蔵村山市第一老人福祉館","province":"東京都","city":"武蔵村山市","address":"武蔵村山市緑が丘14601111号棟1階","lat":35.74046,"lon":139.40483},{"name":"武蔵村山市さいかち老人福祉館","province":"東京都","city":"武蔵村山市","address":"武蔵村山市緑が丘14601133号棟1階","lat":35.74046,"lon":139.40483},{"name":"多摩市立連光寺老人福祉館","province":"東京都","city":"多摩市","address":"多摩市連光寺3-57-1","lat":35.64273,"lon":139.45685},{"name":"南麻布いきいきプラザ","province":"東京都","city":"港区","address":"港区南麻布1-5-26","lat":35.6534,"lon":139.72453},{"name":"品川区立東品川高齢者多世代交流支援施設　東品川ゆうゆうプラザ","province":"東京都","city":"品川区","address":"品川区東品川3-32-10","lat":35.61488,"lon":139.75073},{"name":"くつろぎの家","province":"東京都","city":"江戸川区","address":"江戸川区江戸川2-13","lat":35.68505,"lon":139.90593},{"name":"八王子市南大沢保健福祉センター","province":"東京都","city":"八王子市","address":"八王子市南大沢2-27八王子市南大沢総合センター1階","lat":35.61909,"lon":139.38385},{"name":"富士町福祉会館","province":"東京都","city":"西東京市","address":"西東京市富士町6-6-13","lat":35.73042,"lon":139.55818},{"name":"白鷺高齢者会館","province":"東京都","city":"中野区","address":"中野区白鷲2-8-5","lat":39.69055,"lon":141.16905},{"name":"青井悠々館","province":"東京都","city":"足立区","address":"足立区青井5-11-40-101","lat":35.77156,"lon":139.81064},{"name":"入谷悠々館","province":"東京都","city":"足立区","address":"足立区舎人6-12-4-101","lat":35.78478,"lon":139.82129},{"name":"武蔵村山市第四老人福祉館","province":"東京都","city":"武蔵村山市","address":"武蔵村山市岸町3-47-7","lat":35.75818,"lon":139.37148},{"name":"区民ひろばさくら第一","province":"東京都","city":"豊島区","address":"豊島区南長崎6-20-15","lat":35.729699,"lon":139.681022},{"name":"武蔵野市立高齢者総合センター社会活動センター","province":"東京都","city":"武蔵野市","address":"武蔵野市緑町2-4-1","lat":35.715364,"lon":139.56271},{"name":"青梅市小曾木保健福祉センター","province":"東京都","city":"青梅市","address":"青梅市小曾木4-2176-2","lat":35.823282,"lon":139.276406},{"name":"青梅市沢井保健福祉センター","province":"東京都","city":"青梅市","address":"青梅市沢井2-847-3","lat":35.805626,"lon":139.193488},{"name":"武蔵村山市第一老人福祉館（市立緑が丘ふれあいセンター内）","province":"東京都","city":"武蔵村山市","address":"武蔵村山市緑が丘1460","lat":35.743477,"lon":139.407886},{"name":"はつらつセンター光が丘","province":"東京都","city":"練馬区","address":"練馬区光が丘2-9-6","lat":35.75947426,"lon":139.6301846},{"name":"はつらつセンター関","province":"東京都","city":"練馬区","address":"練馬区関町北1-7-2","lat":35.72447904,"lon":139.5777963},{"name":"はつらつセンター豊玉","province":"東京都","city":"練馬区","address":"練馬区豊玉中3-3-12","lat":35.73215105,"lon":139.6553402},{"name":"はつらつセンター大泉","province":"東京都","city":"練馬区","address":"練馬区大泉学園町1-34-20","lat":35.76347178,"lon":139.5891734},{"name":"豊玉障害者地域生活支援センターきらら","province":"東京都","city":"練馬区","address":"練馬区豊玉北5-15-196階","lat":35.73601981,"lon":139.65499},{"name":"光が丘障害者地域生活支援センターすてっぷ","province":"東京都","city":"練馬区","address":"練馬区光が丘2-9-6","lat":35.75923654,"lon":139.6294759},{"name":"石神井障害者地域生活支援センターういんぐ","province":"東京都","city":"練馬区","address":"練馬区石神井町7-3-28","lat":35.74460505,"lon":139.6011285},{"name":"大泉障害者地域生活支援センターさくら","province":"東京都","city":"練馬区","address":"練馬区東大泉5-35-2","lat":35.74751322,"lon":139.5896138},{"name":"すみだ福祉保健センター","province":"東京都","city":"墨田区","address":"東京都墨田区向島3丁目36","lat":35.71311019,"lon":139.81073652},{"name":"東駒形ｺﾐｭﾆﾃｨ会館","province":"東京都","city":"墨田区","address":"東京都墨田区東駒形4丁目14-1","lat":35.70547984,"lon":139.80774036},{"name":"梅若橋ｺﾐｭﾆﾃｨ会館","province":"東京都","city":"墨田区","address":"東京都墨田区堤通2丁目9-1","lat":35.73539223,"lon":139.81675295},{"name":"横川ｺﾐｭﾆﾃｨ会館","province":"東京都","city":"墨田区","address":"東京都墨田区横川5丁目9-1","lat":35.70517431,"lon":139.81750923},{"name":"みどりｺﾐｭﾆﾃｨｾﾝﾀｰ","province":"東京都","city":"墨田区","address":"東京都墨田区緑3丁目7-3","lat":35.69361455,"lon":139.8032676},{"name":"向島保健センター","province":"東京都","city":"墨田区","address":"東京都墨田区東向島5丁目16-2","lat":35.72588248,"lon":139.82110559},{"name":"本所保健センター","province":"東京都","city":"墨田区","address":"東京都墨田区東駒形1丁目6-4","lat":35.7054382,"lon":139.79805828}]}