{"keyword":"政令","data":[{"name":"八王子市保健所","province":"東京都","city":"八王子市","address":"八王子市旭町13-18","lat":35.65731,"lon":139.341584},{"name":"八王子市大横保健福祉センター","province":"東京都","city":"八王子市","address":"八王子市大横町11-35","lat":35.664317,"lon":139.327815},{"name":"八王子市東浅川保健福祉センター","province":"東京都","city":"八王子市","address":"八王子市東浅川町551-1","lat":35.645238,"lon":139.292025},{"name":"八王子市南大沢保健福祉センター","province":"東京都","city":"八王子市","address":"八王子市南大沢2-27フレスコ南大沢公共施設棟1階","lat":35.611941,"lon":139.37926},{"name":"町田市保健所","province":"東京都","city":"町田市","address":"町田市森野2-2-22市庁舎7階","lat":35.549872,"lon":139.440026},{"name":"町田市保健所中町庁舎","province":"東京都","city":"町田市","address":"町田市中町2-13-3","lat":35.551224,"lon":139.443709},{"name":"町田市健康福祉会館","province":"東京都","city":"町田市","address":"町田市原町田5-8-21","lat":35.54602,"lon":139.449987},{"name":"町田市忠生保健センター","province":"東京都","city":"町田市","address":"町田市忠生3-14-2","lat":35.578366,"lon":139.416031},{"name":"町田市鶴川保健センター","province":"東京都","city":"町田市","address":"町田市大蔵町1981-4","lat":35.588886,"lon":139.467396}]}