{"keyword":"包括","data":[{"name":"地域包括支援センター　つつじケ丘","province":"東京都","city":"調布市","address":"東京都調布市東つつじケ丘1丁目5-2","lat":35.65966264,"lon":139.57605267},{"name":"地域包括支援センター　仙川","province":"東京都","city":"調布市","address":"東京都調布市若葉町2丁目22-2","lat":35.65607722,"lon":139.58863778},{"name":"地域包括支援センター　至誠しばさき","province":"東京都","city":"調布市","address":"東京都調布市柴崎1丁目6-8","lat":35.65465466,"lon":139.56391507},{"name":"地域包括支援センター　はなみずき","province":"東京都","city":"調布市","address":"東京都調布市深大寺北町4丁目17-7","lat":35.67945701,"lon":139.55199852},{"name":"地域包括支援センター　ゆうあいサブセンター","province":"東京都","city":"調布市","address":"東京都調布市八雲台1丁目22-1","lat":35.65435444,"lon":139.55306875},{"name":"地域包括支援センター　ちょうふ花園","province":"東京都","city":"調布市","address":"東京都調布市小島町2丁目45-22","lat":35.65048844,"lon":139.54219245},{"name":"地域包括支援センター　ちょうふの里","province":"東京都","city":"調布市","address":"東京都調布市西町290-5","lat":35.66764677,"lon":139.52306547},{"name":"地域包括支援センター　ちょうふの里サブセンター","province":"東京都","city":"調布市","address":"東京都調布市上石原3丁目54-2","lat":35.65003018,"lon":139.52506096},{"name":"第２育秀苑地域包括支援センター","province":"","city":"","address":"羽沢2-8-16","lat":35.74385383,"lon":139.6709087},{"name":"北町はるのひ地域包括支援センター","province":"","city":"","address":"北町6-35-7","lat":35.75708752,"lon":139.6494402},{"name":"田柄地域包括支援センター","province":"","city":"","address":"田柄4-12-10","lat":35.76299549,"lon":139.6356944},{"name":"高野台地域包括支援センター","province":"","city":"","address":"高野台1-7-29","lat":35.74092454,"lon":139.6164451},{"name":"大泉地域包括支援センター","province":"","city":"","address":"東大泉1-29-1","lat":35.75008261,"lon":139.5855834},{"name":"南大泉地域包括支援センター","province":"","city":"","address":"南大泉5-26-19","lat":35.75117927,"lon":139.5734415},{"name":"やすらぎミラージュ地域包括支援センター","province":"群馬県","city":"邑楽郡大泉町","address":"大泉町4-24-7","lat":35.76263394,"lon":139.5971484},{"name":"第二光陽苑地域包括支援センター","province":"","city":"","address":"関町北5-7-22","lat":35.73232881,"lon":139.5717956},{"name":"関町地域包括支援センター","province":"","city":"","address":"関町南4-9-28","lat":35.72218942,"lon":139.574099},{"name":"北町地域包括支援センター","province":"","city":"","address":"北町2-26-1","lat":35.76768053,"lon":139.6603589},{"name":"光が丘地域包括支援センター","province":"","city":"","address":"光が丘2-9-6","lat":35.75938627,"lon":139.6295384},{"name":"光が丘南地域包括支援センター","province":"","city":"","address":"光が丘3-3-1-103号","lat":35.75408972,"lon":139.6270065},{"name":"練馬地域包括支援センター","province":"","city":"","address":"練馬2-24-3","lat":35.74397504,"lon":139.6541377},{"name":"豊玉地域包括支援センター","province":"","city":"","address":"豊玉南3-9-13","lat":35.72769862,"lon":139.6525214},{"name":"練馬ゆめの木地域包括支援センター","province":"群馬県","city":"邑楽郡大泉町","address":"大泉町2-17-1","lat":35.76048762,"lon":139.6023445},{"name":"大泉北地域包括支援センター","province":"","city":"","address":"大泉学園町4-21-1","lat":35.76566671,"lon":139.5884814},{"name":"大泉学園地域包括支援センター","province":"","city":"","address":"大泉学園町2-20-21","lat":35.75985786,"lon":139.5876615},{"name":"練馬高松園地域包括支援センター","province":"","city":"","address":"高松2-9-3","lat":35.74666252,"lon":139.6301855},{"name":"フローラ石神井公園地域包括支援センター","province":"","city":"","address":"下石神井3-6-13","lat":35.73346234,"lon":139.6067549},{"name":"練馬区役所地域包括支援センター","province":"","city":"","address":"豊玉北6-12-1","lat":35.73578704,"lon":139.6513499},{"name":"石神井地域包括支援センター","province":"","city":"","address":"石神井町3-30-26","lat":35.74344742,"lon":139.6026709},{"name":"桜台地域包括支援センター","province":"","city":"","address":"桜台1-22-9","lat":35.73919195,"lon":139.6667278},{"name":"第３育秀苑地域包括支援センター","province":"","city":"","address":"土支田1-31-5","lat":35.76602984,"lon":139.6181145},{"name":"中村橋地域包括支援センター","province":"","city":"","address":"貫井1-9-1","lat":35.73810096,"lon":139.635551},{"name":"上石神井地域包括支援センター","province":"","city":"","address":"上石神井1-6-16","lat":35.72529563,"lon":139.5924592},{"name":"やすらぎシティ地域包括支援センター","province":"東京都","city":"練馬区","address":"練馬区東大泉7-27-49","lat":35.74401,"lon":139.5804683}]}