{"category":"toilet","data":[{"name":"野塩地域市民センター","province":"東京都","city":"清瀬市","address":"東京都清瀬市野塩1丁目322-2","lat":35.77918046,"lon":139.49942443},{"name":"清瀬上宮保育園","province":"東京都","city":"清瀬市","address":"東京都清瀬市竹丘3丁目8-1","lat":35.7663543,"lon":139.50205496,"males_count":0,"females_count":0,"multipurposes_count":0},{"name":"中央公園","province":"東京都","city":"清瀬市","address":"東京都清瀬市梅園1丁目1","lat":35.77285931,"lon":139.51162899},{"name":"中央図書館","province":"東京都","city":"清瀬市","address":"東京都清瀬市梅園1丁目1-21","lat":35.77335368,"lon":139.51144289},{"name":"松山地域市民センター","province":"東京都","city":"清瀬市","address":"東京都清瀬市松山2丁目6-25","lat":35.7709985,"lon":139.51477039},{"name":"竹丘地域市民センター","province":"東京都","city":"清瀬市","address":"東京都清瀬市竹丘1丁目11-1","lat":35.76594348,"lon":139.51154301},{"name":"子どもの発達支援・交流センター","province":"東京都","city":"清瀬市","address":"東京都清瀬市竹丘1丁目15-8","lat":35.76810988,"lon":139.51110135},{"name":"竹丘緑地公園","province":"東京都","city":"清瀬市","address":"東京都清瀬市竹丘2丁目7-2","lat":35.76565461,"lon":139.51072643},{"name":"竹丘なかよし公園","province":"東京都","city":"清瀬市","address":"東京都清瀬市竹丘1丁目14","lat":35.76714056,"lon":139.51156521},{"name":"清瀬せせらぎ公園","province":"東京都","city":"清瀬市","address":"東京都清瀬市中里2丁目1471","lat":35.78323576,"lon":139.51043456},{"name":"中里地域市民センター","province":"東京都","city":"清瀬市","address":"東京都清瀬市中里4丁目1301","lat":35.78649932,"lon":139.51416477},{"name":"中里柳瀬公園","province":"東京都","city":"清瀬市","address":"東京都清瀬市中里4丁目1301","lat":35.78649932,"lon":139.51416477},{"name":"市民活動センター","province":"東京都","city":"清瀬市","address":"東京都清瀬市上清戸2丁目6-10","lat":35.77917819,"lon":139.52102248},{"name":"郷土博物館","province":"東京都","city":"清瀬市","address":"東京都清瀬市上清戸2丁目6-41","lat":35.77974756,"lon":139.52105859},{"name":"アミュー","province":"東京都","city":"清瀬市","address":"東京都清瀬市元町1丁目2-11","lat":35.77223461,"lon":139.52116421},{"name":"クレア","province":"東京都","city":"清瀬市","address":"東京都清瀬市元町1丁目4-5","lat":35.77323447,"lon":139.5206198},{"name":"清瀬けやきホール","province":"東京都","city":"清瀬市","address":"東京都清瀬市元町1丁目6-6","lat":35.77468982,"lon":139.51958099},{"name":"消費生活センター","province":"東京都","city":"清瀬市","address":"東京都清瀬市元町1丁目4-17","lat":35.7745482,"lon":139.520617},{"name":"清瀬駅南口公衆トイレ","province":"東京都","city":"清瀬市","address":"東京都清瀬市松山1丁目2-4","lat":35.77180964,"lon":139.52016154},{"name":"市役所","province":"東京都","city":"清瀬市","address":"東京都清瀬市中里5丁目842","lat":35.78608019,"lon":139.52608035},{"name":"健康センター","province":"東京都","city":"清瀬市","address":"東京都清瀬市中里5丁目842","lat":35.78608019,"lon":139.52608035},{"name":"神山公園","province":"東京都","city":"清瀬市","address":"東京都清瀬市中清戸3丁目235","lat":35.77649824,"lon":139.53206854},{"name":"児童センター","province":"東京都","city":"清瀬市","address":"東京都清瀬市中清戸3丁目235-5","lat":35.77641211,"lon":139.53064926},{"name":"下宿地域市民センター","province":"東京都","city":"清瀬市","address":"東京都清瀬市下宿2丁目524-1","lat":35.79763995,"lon":139.53343242},{"name":"コミュニティプラザひまわり","province":"東京都","city":"清瀬市","address":"東京都清瀬市下清戸1丁目212-4","lat":35.77824813,"lon":139.53895134}]}