{"category":"wireless","data":[{"name":"清瀬市役所","province":"東京都","city":"清瀬市","address":"東京都清瀬市中里5丁目842","lat":35.78608019,"lon":139.52608035},{"name":"男女共同参画センター","province":"東京都","city":"清瀬市","address":"東京都清瀬市元町1丁目2-11","lat":35.77223461,"lon":139.52116421},{"name":"生涯学習センター","province":"東京都","city":"清瀬市","address":"東京都清瀬市元町1丁目2-11","lat":35.77223461,"lon":139.52116421},{"name":"アミューホール","province":"東京都","city":"清瀬市","address":"東京都清瀬市元町1丁目2-11","lat":35.77223461,"lon":139.52116421},{"name":"国立病院機構東京病院","province":"東京都","city":"清瀬市","address":"東京都清瀬市竹丘3丁目1-1","lat":35.76696263,"lon":139.5045714},{"name":"都立清瀬小児病院","province":"東京都","city":"清瀬市","address":"東京都清瀬市梅園1丁目3-1","lat":35.77061503,"lon":139.50738775},{"name":"清瀬市健康センター","province":"東京都","city":"清瀬市","address":"東京都清瀬市中里5丁目842","lat":35.78608019,"lon":139.52608035},{"name":"清瀬高等学校","province":"東京都","city":"清瀬市","address":"東京都清瀬市松山3丁目1-56","lat":35.76969866,"lon":139.51487318},{"name":"清瀬市本庁舎","province":"東京都","city":"清瀬市","address":"東京都清瀬市中里5丁目842","lat":35.78608019,"lon":139.52608035}]}