{"keyword":"し尿","data":[{"name":"期日前投票所","province":"東京都","city":"清瀬市","address":"東京都清瀬市中里5-842","lat":35.785761,"lon":139.526422},{"name":"期日前投票所","province":"東京都","city":"清瀬市","address":"東京都清瀬市元町1-2-11","lat":35.772182,"lon":139.521154},{"name":"第1投票所","province":"東京都","city":"清瀬市","address":"東京都清瀬市旭が丘2-8-1","lat":35.796663,"lon":139.539587},{"name":"第2投票所","province":"東京都","city":"清瀬市","address":"東京都清瀬市下宿2-524-1","lat":35.797491,"lon":139.533321},{"name":"第3投票所","province":"東京都","city":"清瀬市","address":"東京都清瀬市中里5-842","lat":35.786064,"lon":139.526056},{"name":"第4投票所","province":"東京都","city":"清瀬市","address":"東京都清瀬市元町1-2-11","lat":35.772182,"lon":139.521154},{"name":"第5投票所","province":"東京都","city":"清瀬市","address":"東京都清瀬市松山2-6-25","lat":35.770989,"lon":139.514809},{"name":"第6投票所","province":"東京都","city":"清瀬市","address":"東京都清瀬市松山3-1-92","lat":35.767974,"lon":139.512557},{"name":"第7投票所","province":"東京都","city":"清瀬市","address":"東京都清瀬市竹丘1-11-1","lat":35.765849,"lon":139.51142},{"name":"第8投票所","province":"東京都","city":"清瀬市","address":"東京都清瀬市梅園2-9-45","lat":35.771788,"lon":139.504655},{"name":"第9投票所","province":"東京都","city":"清瀬市","address":"東京都清瀬市野塩1-322-2","lat":35.779163,"lon":139.499466},{"name":"第10投票所","province":"東京都","city":"清瀬市","address":"東京都清瀬市元町2-16-8","lat":35.775287,"lon":139.511307},{"name":"第11投票所","province":"東京都","city":"清瀬市","address":"東京都清瀬市中里4-1301","lat":35.78652,"lon":139.514166},{"name":"第12投票所","province":"東京都","city":"清瀬市","address":"東京都清瀬市中清戸3-258-1","lat":35.775094,"lon":139.534001},{"name":"清瀬市子ども家庭支援センター","province":"東京都","city":"清瀬市","address":"清瀬市中清戸3-235-5清瀬市児童センター内","lat":35.776412,"lon":139.530649},{"name":"清瀬市健康センター","province":"東京都","city":"清瀬市","address":"清瀬市中里5-842","lat":35.786052,"lon":139.526353},{"name":"清瀬市","province":"東京都","city":"清瀬市","address":"清瀬市中里5-842","lat":35.7860525,"lon":139.5263525},{"name":"東京都職員共済組合清瀬運動場","province":"東京都","city":"清瀬市","address":"東京都清瀬市竹丘3丁目10-5","lat":35.763239,"lon":139.501765},{"name":"清瀬消防署","province":"東京都","city":"清瀬市","address":"東京都清瀬市中清戸2丁目850-1","lat":35.784199,"lon":139.527612},{"name":"清瀬市男女共同参画センター","province":"東京都","city":"清瀬市","address":"東京都清瀬市元町1丁目2-11","lat":35.772081,"lon":139.521166},{"name":"清瀬市立野塩地域市民センター","province":"東京都","city":"清瀬市","address":"東京都清瀬市野塩1丁目322-2","lat":35.779154,"lon":139.499453},{"name":"清瀬市消費生活センター","province":"東京都","city":"清瀬市","address":"東京都清瀬市元町1丁目4-17","lat":35.774432,"lon":139.520631},{"name":"清瀬市立松山地域市民センター","province":"東京都","city":"清瀬市","address":"東京都清瀬市松山2丁目6-25","lat":35.771015,"lon":139.514769},{"name":"清瀬市立中央図書館","province":"東京都","city":"清瀬市","address":"東京都清瀬市梅園1丁目1-21","lat":35.773061,"lon":139.511158},{"name":"清瀬市児童センター","province":"東京都","city":"清瀬市","address":"東京都清瀬市中清戸3丁目235-5","lat":35.776369,"lon":139.530591},{"name":"清瀬市しあわせ未来センター","province":"東京都","city":"清瀬市","address":"東京都清瀬市中里5丁目842","lat":35.786013,"lon":139.526003},{"name":"きよせボランティア・市民活動センター","province":"東京都","city":"清瀬市","address":"東京都清瀬市上清戸2丁目6-10","lat":35.779244,"lon":139.520989},{"name":"清瀬市役所本庁舎","province":"東京都","city":"清瀬市","address":"東京都清瀬市中里5丁目842","lat":35.7855,"lon":139.526736},{"name":"清瀬市生涯学習センター","province":"東京都","city":"清瀬市","address":"東京都清瀬市元町1丁目2-11","lat":35.772116,"lon":139.521038},{"name":"下清戸集会所","province":"東京都","city":"清瀬市","address":"東京都清瀬市下清戸5丁目","lat":35.786967,"lon":139.540721},{"name":"下清戸集会所","province":"東京都","city":"清瀬市","address":"東京都清瀬市下清戸5丁目855-3","lat":35.786898,"lon":139.540697},{"name":"清瀬市コミュニティプラザ","province":"東京都","city":"清瀬市","address":"東京都清瀬市下清戸1丁目212-4","lat":35.77785,"lon":139.539004},{"name":"清瀬市下宿地域市民センター","province":"東京都","city":"清瀬市","address":"東京都清瀬市下宿2丁目524-1","lat":35.797345,"lon":139.533076},{"name":"清瀬市立竹丘地域市民センター","province":"東京都","city":"清瀬市","address":"東京都清瀬市竹丘1丁目11","lat":35.765832,"lon":139.51142},{"name":"清瀬市立中清戸地域市民センター","province":"東京都","city":"清瀬市","address":"東京都清瀬市中清戸4丁目847","lat":35.785085,"lon":139.528109},{"name":"清瀬市立中里地域市民センター","province":"東京都","city":"清瀬市","address":"東京都清瀬市中里4丁目1301","lat":35.78659,"lon":139.514052},{"name":"清瀬市郷土博物館","province":"東京都","city":"清瀬市","address":"東京都清瀬市上清戸2丁目6-41","lat":35.779715,"lon":139.520962},{"name":"清瀬けやきホール","province":"東京都","city":"清瀬市","address":"東京都清瀬市元町1丁目6-6","lat":35.774541,"lon":139.519545},{"name":"清瀬けやきホール","province":"東京都","city":"清瀬市","address":"東京都清瀬市元町1丁目6-6","lat":35.774615,"lon":139.519615},{"name":"清瀬けやきホール","province":"東京都","city":"清瀬市","address":"東京都清瀬市元町1丁目6-6","lat":35.774663,"lon":139.519519},{"name":"清瀬中央公園","province":"東京都","city":"清瀬市","address":"東京都清瀬市梅園1丁目2","lat":35.773901,"lon":139.511016},{"name":"神山公園","province":"東京都","city":"清瀬市","address":"東京都清瀬市中清戸3丁目","lat":35.775562,"lon":139.531032},{"name":"金山緑地公園","province":"東京都","city":"清瀬市","address":"東京都清瀬市中里4丁目","lat":35.78918,"lon":139.522429},{"name":"竹丘緑地公園","province":"東京都","city":"清瀬市","address":"東京都清瀬市竹丘2丁目7","lat":35.765144,"lon":139.509776},{"name":"竹丘なかよし公園","province":"東京都","city":"清瀬市","address":"東京都清瀬市竹丘1丁目14","lat":35.767155,"lon":139.511048},{"name":"せせらぎ公園","province":"東京都","city":"清瀬市","address":"東京都清瀬市中里2丁目","lat":35.783195,"lon":139.510571},{"name":"中里柳瀬公園","province":"東京都","city":"清瀬市","address":"東京都清瀬市中里4丁目","lat":35.786545,"lon":139.514427},{"name":"中清戸けやき公園","province":"東京都","city":"清瀬市","address":"東京都清瀬市中清戸4丁目","lat":35.786343,"lon":139.529185},{"name":"清瀬駅南口公衆トイレ","province":"東京都","city":"清瀬市","address":"東京都清瀬市松山1丁目2","lat":35.771818,"lon":139.520245},{"name":"清瀬市障害者福祉センター","province":"東京都","city":"清瀬市","address":"東京都清瀬市上清戸1丁目16-62","lat":35.77336,"lon":139.527637},{"name":"清瀬市障害者福祉センター","province":"東京都","city":"清瀬市","address":"東京都清瀬市上清戸1丁目16-62","lat":35.77339,"lon":139.527597},{"name":"清瀬市子どもの発達支援・交流センターとことこ","province":"東京都","city":"清瀬市","address":"東京都清瀬市竹丘1丁目15-8","lat":35.768114,"lon":139.51107},{"name":"野塩多世代交流施設 えーるプラザ野塩","province":"東京都","city":"清瀬市","address":"東京都清瀬市野塩2丁目","lat":35.782297,"lon":139.502462},{"name":"照屋興業有限会社","province":"東京都","city":"清瀬市","address":"東京都清瀬市松山3丁目18-3","lat":35.76794612,"lon":139.51600089},{"name":"有限会社荒田葬儀社","province":"東京都","city":"清瀬市","address":"東京都清瀬市野塩4丁目79","lat":35.77432287,"lon":139.5053351},{"name":"株式会社AZUMA　東葬祭","province":"東京都","city":"清瀬市","address":"東京都清瀬市松山2丁目14-10","lat":35.77252049,"lon":139.51297887},{"name":"有限会社セレモサービス","province":"東京都","city":"清瀬市","address":"東京都清瀬市下清戸2丁目559-8","lat":35.78764126,"lon":139.53340464},{"name":"株式会社三愛メモリアル東京店","province":"東京都","city":"清瀬市","address":"東京都清瀬市元町1丁目7-5","lat":35.77446205,"lon":139.51841445},{"name":"株式会社彩花","province":"東京都","city":"清瀬市","address":"東京都清瀬市松山2丁目6-45","lat":35.77259557,"lon":139.51690627},{"name":"清瀬市しあわせ未来センター","province":"東京都","city":"清瀬市","address":"東京都清瀬市中里5丁目842","lat":35.78608019,"lon":139.52608035},{"name":"清瀬市しあわせ未来センター","province":"東京都","city":"清瀬市","address":"清瀬市中里5-842","lat":35.78557,"lon":139.52655},{"name":"清瀬市子ども家庭支援センター","province":"東京都","city":"清瀬市","address":"清瀬市中里5-842清瀬市役所北隣しあわせ未来センター内","lat":35.78591,"lon":139.52619},{"name":"清瀬市子ども家庭支援センター","province":"東京都","city":"清瀬市","address":"清瀬市中清戸3-235-5児童センターころぽっくる内","lat":35.77712,"lon":139.53165},{"name":"清瀬市健康センター","province":"東京都","city":"清瀬市","address":"清瀬市中里5-842","lat":35.78557,"lon":139.52655},{"name":"清瀬市子ども家庭支援センター","province":"東京都","city":"清瀬市","address":"清瀬市中清戸3-235-5清瀬市児童センター内","lat":35.77867,"lon":139.53389},{"name":"清瀬市立駅前図書館","province":"東京都","city":"清瀬市","address":"清瀬市元町1-4-5クレア4階","lat":35.773247,"lon":139.520493},{"name":"清瀬市立下宿図書館","province":"東京都","city":"清瀬市","address":"清瀬市下宿2-524-1下宿地域市民センター内","lat":35.798779,"lon":139.534714},{"name":"清瀬市立元町こども図書館","province":"東京都","city":"清瀬市","address":"清瀬市元町1-6-6清瀬けやきホール内","lat":35.77496,"lon":139.51918},{"name":"清瀬市立竹丘図書館","province":"東京都","city":"清瀬市","address":"清瀬市竹丘1-11-1竹丘地域市民センター内","lat":35.765816,"lon":139.511505},{"name":"清瀬市立中央図書館","province":"東京都","city":"清瀬市","address":"清瀬市梅園1-1-21","lat":35.773674,"lon":139.510666},{"name":"清瀬市立野塩図書館","province":"東京都","city":"清瀬市","address":"清瀬市野塩1-322-2野塩地域市民センター内","lat":35.776138,"lon":139.499527},{"name":"清瀬市郷土博物館","province":"東京都","city":"清瀬市","address":"清瀬市上清戸2-6-41","lat":35.780193,"lon":139.520142},{"name":"清瀬市男女共同参画センター","province":"東京都","city":"清瀬市","address":"清瀬市元町1-2-11アミュー4階","lat":35.772114,"lon":139.520966},{"name":"清瀬市生涯学習センター","province":"東京都","city":"清瀬市","address":"清瀬市元町1-2-11アミュー5~7階","lat":35.772114,"lon":139.520966},{"name":"清瀬市選挙管理委員会","province":"東京都","city":"清瀬市","address":"清瀬市中里5-842","lat":35.786055,"lon":139.526067},{"name":"清瀬市本庁舎","province":"東京都","city":"清瀬市","address":"清瀬市中里5-842","lat":35.786053,"lon":139.526353},{"name":"清瀬消防署","province":"東京都","city":"清瀬市","address":"清瀬市中清戸2-850-1","lat":35.78419,"lon":139.5276},{"name":"東京都共済組合清瀬運動場","province":"東京都","city":"清瀬市","address":"清瀬市竹丘3-10-5","lat":35.7646,"lon":139.5013},{"name":"期日前投票所","province":"東京都","city":"清瀬市","address":"東京都清瀬市中里5-842","lat":35.785761,"lon":139.526422},{"name":"期日前投票所","province":"東京都","city":"清瀬市","address":"東京都清瀬市元町1-2-11","lat":35.772182,"lon":139.521154},{"name":"第1投票所","province":"東京都","city":"清瀬市","address":"東京都清瀬市旭が丘2-8-1","lat":35.796663,"lon":139.539587},{"name":"第2投票所","province":"東京都","city":"清瀬市","address":"東京都清瀬市下宿2-524-1","lat":35.797491,"lon":139.533321},{"name":"第3投票所","province":"東京都","city":"清瀬市","address":"東京都清瀬市中里5-842","lat":35.786064,"lon":139.526056},{"name":"第4投票所","province":"東京都","city":"清瀬市","address":"東京都清瀬市元町1-2-11","lat":35.772182,"lon":139.521154},{"name":"第5投票所","province":"東京都","city":"清瀬市","address":"東京都清瀬市松山2-6-25","lat":35.770989,"lon":139.514809},{"name":"第6投票所","province":"東京都","city":"清瀬市","address":"東京都清瀬市松山3-1-92","lat":35.767974,"lon":139.512557},{"name":"第7投票所","province":"東京都","city":"清瀬市","address":"東京都清瀬市竹丘1-11-1","lat":35.765849,"lon":139.51142},{"name":"第8投票所","province":"東京都","city":"清瀬市","address":"東京都清瀬市梅園2-9-45","lat":35.771788,"lon":139.504655},{"name":"第9投票所","province":"東京都","city":"清瀬市","address":"東京都清瀬市野塩1-322-2","lat":35.779163,"lon":139.499466},{"name":"第10投票所","province":"東京都","city":"清瀬市","address":"東京都清瀬市元町2-16-8","lat":35.775287,"lon":139.511307},{"name":"第11投票所","province":"東京都","city":"清瀬市","address":"東京都清瀬市中里4-1301","lat":35.78652,"lon":139.514166},{"name":"第12投票所","province":"東京都","city":"清瀬市","address":"東京都清瀬市中清戸3-258-1","lat":35.775094,"lon":139.534001},{"name":"清瀬市子ども家庭支援センター","province":"東京都","city":"清瀬市","address":"清瀬市中清戸3-235-5清瀬市児童センター内","lat":35.776412,"lon":139.530649},{"name":"清瀬市健康センター","province":"東京都","city":"清瀬市","address":"清瀬市中里5-842","lat":35.786052,"lon":139.526353},{"name":"清瀬市","province":"東京都","city":"清瀬市","address":"清瀬市中里5-842","lat":35.7860525,"lon":139.5263525},{"name":"東京都職員共済組合清瀬運動場","province":"東京都","city":"清瀬市","address":"東京都清瀬市竹丘3丁目10-5","lat":35.763239,"lon":139.501765},{"name":"清瀬消防署","province":"東京都","city":"清瀬市","address":"東京都清瀬市中清戸2丁目850-1","lat":35.784199,"lon":139.527612},{"name":"清瀬市男女共同参画センター","province":"東京都","city":"清瀬市","address":"東京都清瀬市元町1丁目2-11","lat":35.772081,"lon":139.521166},{"name":"清瀬市立野塩地域市民センター","province":"東京都","city":"清瀬市","address":"東京都清瀬市野塩1丁目322-2","lat":35.779154,"lon":139.499453},{"name":"清瀬市消費生活センター","province":"東京都","city":"清瀬市","address":"東京都清瀬市元町1丁目4-17","lat":35.774432,"lon":139.520631},{"name":"清瀬市立松山地域市民センター","province":"東京都","city":"清瀬市","address":"東京都清瀬市松山2丁目6-25","lat":35.771015,"lon":139.514769},{"name":"清瀬市立中央図書館","province":"東京都","city":"清瀬市","address":"東京都清瀬市梅園1丁目1-21","lat":35.773061,"lon":139.511158},{"name":"清瀬市児童センター","province":"東京都","city":"清瀬市","address":"東京都清瀬市中清戸3丁目235-5","lat":35.776369,"lon":139.530591},{"name":"清瀬市しあわせ未来センター","province":"東京都","city":"清瀬市","address":"東京都清瀬市中里5丁目842","lat":35.786013,"lon":139.526003},{"name":"きよせボランティア・市民活動センター","province":"東京都","city":"清瀬市","address":"東京都清瀬市上清戸2丁目6-10","lat":35.779244,"lon":139.520989},{"name":"清瀬市役所本庁舎","province":"東京都","city":"清瀬市","address":"東京都清瀬市中里5丁目842","lat":35.7855,"lon":139.526736},{"name":"清瀬市生涯学習センター","province":"東京都","city":"清瀬市","address":"東京都清瀬市元町1丁目2-11","lat":35.772116,"lon":139.521038},{"name":"下清戸集会所","province":"東京都","city":"清瀬市","address":"東京都清瀬市下清戸5丁目","lat":35.786967,"lon":139.540721},{"name":"下清戸集会所","province":"東京都","city":"清瀬市","address":"東京都清瀬市下清戸5丁目855-3","lat":35.786898,"lon":139.540697},{"name":"清瀬市コミュニティプラザ","province":"東京都","city":"清瀬市","address":"東京都清瀬市下清戸1丁目212-4","lat":35.77785,"lon":139.539004},{"name":"清瀬市下宿地域市民センター","province":"東京都","city":"清瀬市","address":"東京都清瀬市下宿2丁目524-1","lat":35.797345,"lon":139.533076},{"name":"清瀬市立竹丘地域市民センター","province":"東京都","city":"清瀬市","address":"東京都清瀬市竹丘1丁目11","lat":35.765832,"lon":139.51142},{"name":"清瀬市立中清戸地域市民センター","province":"東京都","city":"清瀬市","address":"東京都清瀬市中清戸4丁目847","lat":35.785085,"lon":139.528109},{"name":"清瀬市立中里地域市民センター","province":"東京都","city":"清瀬市","address":"東京都清瀬市中里4丁目1301","lat":35.78659,"lon":139.514052},{"name":"清瀬市郷土博物館","province":"東京都","city":"清瀬市","address":"東京都清瀬市上清戸2丁目6-41","lat":35.779715,"lon":139.520962},{"name":"清瀬けやきホール","province":"東京都","city":"清瀬市","address":"東京都清瀬市元町1丁目6-6","lat":35.774541,"lon":139.519545},{"name":"清瀬けやきホール","province":"東京都","city":"清瀬市","address":"東京都清瀬市元町1丁目6-6","lat":35.774615,"lon":139.519615},{"name":"清瀬けやきホール","province":"東京都","city":"清瀬市","address":"東京都清瀬市元町1丁目6-6","lat":35.774663,"lon":139.519519},{"name":"清瀬中央公園","province":"東京都","city":"清瀬市","address":"東京都清瀬市梅園1丁目2","lat":35.773901,"lon":139.511016},{"name":"神山公園","province":"東京都","city":"清瀬市","address":"東京都清瀬市中清戸3丁目","lat":35.775562,"lon":139.531032},{"name":"金山緑地公園","province":"東京都","city":"清瀬市","address":"東京都清瀬市中里4丁目","lat":35.78918,"lon":139.522429},{"name":"竹丘緑地公園","province":"東京都","city":"清瀬市","address":"東京都清瀬市竹丘2丁目7","lat":35.765144,"lon":139.509776},{"name":"竹丘なかよし公園","province":"東京都","city":"清瀬市","address":"東京都清瀬市竹丘1丁目14","lat":35.767155,"lon":139.511048},{"name":"せせらぎ公園","province":"東京都","city":"清瀬市","address":"東京都清瀬市中里2丁目","lat":35.783195,"lon":139.510571},{"name":"中里柳瀬公園","province":"東京都","city":"清瀬市","address":"東京都清瀬市中里4丁目","lat":35.786545,"lon":139.514427},{"name":"中清戸けやき公園","province":"東京都","city":"清瀬市","address":"東京都清瀬市中清戸4丁目","lat":35.786343,"lon":139.529185},{"name":"清瀬駅南口公衆トイレ","province":"東京都","city":"清瀬市","address":"東京都清瀬市松山1丁目2","lat":35.771818,"lon":139.520245},{"name":"清瀬市障害者福祉センター","province":"東京都","city":"清瀬市","address":"東京都清瀬市上清戸1丁目16-62","lat":35.77336,"lon":139.527637},{"name":"清瀬市障害者福祉センター","province":"東京都","city":"清瀬市","address":"東京都清瀬市上清戸1丁目16-62","lat":35.77339,"lon":139.527597},{"name":"清瀬市子どもの発達支援・交流センターとことこ","province":"東京都","city":"清瀬市","address":"東京都清瀬市竹丘1丁目15-8","lat":35.768114,"lon":139.51107},{"name":"野塩多世代交流施設 えーるプラザ野塩","province":"東京都","city":"清瀬市","address":"東京都清瀬市野塩2丁目","lat":35.782297,"lon":139.502462},{"name":"照屋興業有限会社","province":"東京都","city":"清瀬市","address":"東京都清瀬市松山3丁目18-3","lat":35.76794612,"lon":139.51600089},{"name":"有限会社荒田葬儀社","province":"東京都","city":"清瀬市","address":"東京都清瀬市野塩4丁目79","lat":35.77432287,"lon":139.5053351},{"name":"株式会社AZUMA　東葬祭","province":"東京都","city":"清瀬市","address":"東京都清瀬市松山2丁目14-10","lat":35.77252049,"lon":139.51297887},{"name":"有限会社セレモサービス","province":"東京都","city":"清瀬市","address":"東京都清瀬市下清戸2丁目559-8","lat":35.78764126,"lon":139.53340464},{"name":"株式会社三愛メモリアル東京店","province":"東京都","city":"清瀬市","address":"東京都清瀬市元町1丁目7-5","lat":35.77446205,"lon":139.51841445},{"name":"株式会社彩花","province":"東京都","city":"清瀬市","address":"東京都清瀬市松山2丁目6-45","lat":35.77259557,"lon":139.51690627},{"name":"清瀬市しあわせ未来センター","province":"東京都","city":"清瀬市","address":"東京都清瀬市中里5丁目842","lat":35.78608019,"lon":139.52608035},{"name":"清瀬市しあわせ未来センター","province":"東京都","city":"清瀬市","address":"清瀬市中里5-842","lat":35.78557,"lon":139.52655},{"name":"清瀬市子ども家庭支援センター","province":"東京都","city":"清瀬市","address":"清瀬市中里5-842清瀬市役所北隣しあわせ未来センター内","lat":35.78591,"lon":139.52619},{"name":"清瀬市子ども家庭支援センター","province":"東京都","city":"清瀬市","address":"清瀬市中清戸3-235-5児童センターころぽっくる内","lat":35.77712,"lon":139.53165},{"name":"清瀬市健康センター","province":"東京都","city":"清瀬市","address":"清瀬市中里5-842","lat":35.78557,"lon":139.52655},{"name":"清瀬市子ども家庭支援センター","province":"東京都","city":"清瀬市","address":"清瀬市中清戸3-235-5清瀬市児童センター内","lat":35.77867,"lon":139.53389},{"name":"清瀬市立駅前図書館","province":"東京都","city":"清瀬市","address":"清瀬市元町1-4-5クレア4階","lat":35.773247,"lon":139.520493},{"name":"清瀬市立下宿図書館","province":"東京都","city":"清瀬市","address":"清瀬市下宿2-524-1下宿地域市民センター内","lat":35.798779,"lon":139.534714},{"name":"清瀬市立元町こども図書館","province":"東京都","city":"清瀬市","address":"清瀬市元町1-6-6清瀬けやきホール内","lat":35.77496,"lon":139.51918},{"name":"清瀬市立竹丘図書館","province":"東京都","city":"清瀬市","address":"清瀬市竹丘1-11-1竹丘地域市民センター内","lat":35.765816,"lon":139.511505},{"name":"清瀬市立中央図書館","province":"東京都","city":"清瀬市","address":"清瀬市梅園1-1-21","lat":35.773674,"lon":139.510666},{"name":"清瀬市立野塩図書館","province":"東京都","city":"清瀬市","address":"清瀬市野塩1-322-2野塩地域市民センター内","lat":35.776138,"lon":139.499527},{"name":"清瀬市郷土博物館","province":"東京都","city":"清瀬市","address":"清瀬市上清戸2-6-41","lat":35.780193,"lon":139.520142},{"name":"清瀬市男女共同参画センター","province":"東京都","city":"清瀬市","address":"清瀬市元町1-2-11アミュー4階","lat":35.772114,"lon":139.520966},{"name":"清瀬市生涯学習センター","province":"東京都","city":"清瀬市","address":"清瀬市元町1-2-11アミュー5~7階","lat":35.772114,"lon":139.520966},{"name":"清瀬市選挙管理委員会","province":"東京都","city":"清瀬市","address":"清瀬市中里5-842","lat":35.786055,"lon":139.526067},{"name":"期日前投票所","province":"東京都","city":"清瀬市","address":"東京都清瀬市中里5-842","lat":35.785761,"lon":139.526422},{"name":"期日前投票所","province":"東京都","city":"清瀬市","address":"東京都清瀬市元町1-2-11","lat":35.772182,"lon":139.521154},{"name":"第1投票所","province":"東京都","city":"清瀬市","address":"東京都清瀬市旭が丘2-8-1","lat":35.796663,"lon":139.539587},{"name":"第2投票所","province":"東京都","city":"清瀬市","address":"東京都清瀬市下宿2-524-1","lat":35.797491,"lon":139.533321},{"name":"第3投票所","province":"東京都","city":"清瀬市","address":"東京都清瀬市中里5-842","lat":35.786064,"lon":139.526056},{"name":"第4投票所","province":"東京都","city":"清瀬市","address":"東京都清瀬市元町1-2-11","lat":35.772182,"lon":139.521154},{"name":"第5投票所","province":"東京都","city":"清瀬市","address":"東京都清瀬市松山2-6-25","lat":35.770989,"lon":139.514809},{"name":"第6投票所","province":"東京都","city":"清瀬市","address":"東京都清瀬市松山3-1-92","lat":35.767974,"lon":139.512557},{"name":"第7投票所","province":"東京都","city":"清瀬市","address":"東京都清瀬市竹丘1-11-1","lat":35.765849,"lon":139.51142},{"name":"第8投票所","province":"東京都","city":"清瀬市","address":"東京都清瀬市梅園2-9-45","lat":35.771788,"lon":139.504655},{"name":"第9投票所","province":"東京都","city":"清瀬市","address":"東京都清瀬市野塩1-322-2","lat":35.779163,"lon":139.499466},{"name":"第10投票所","province":"東京都","city":"清瀬市","address":"東京都清瀬市元町2-16-8","lat":35.775287,"lon":139.511307},{"name":"第11投票所","province":"東京都","city":"清瀬市","address":"東京都清瀬市中里4-1301","lat":35.78652,"lon":139.514166},{"name":"第12投票所","province":"東京都","city":"清瀬市","address":"東京都清瀬市中清戸3-258-1","lat":35.775094,"lon":139.534001},{"name":"清瀬市子ども家庭支援センター","province":"東京都","city":"清瀬市","address":"清瀬市中清戸3-235-5清瀬市児童センター内","lat":35.776412,"lon":139.530649},{"name":"清瀬市健康センター","province":"東京都","city":"清瀬市","address":"清瀬市中里5-842","lat":35.786052,"lon":139.526353},{"name":"清瀬市","province":"東京都","city":"清瀬市","address":"清瀬市中里5-842","lat":35.7860525,"lon":139.5263525},{"name":"照屋興業有限会社","province":"東京都","city":"清瀬市","address":"東京都清瀬市松山3丁目18-3","lat":35.76794612,"lon":139.51600089},{"name":"有限会社荒田葬儀社","province":"東京都","city":"清瀬市","address":"東京都清瀬市野塩4丁目79","lat":35.77432287,"lon":139.5053351},{"name":"株式会社AZUMA　東葬祭","province":"東京都","city":"清瀬市","address":"東京都清瀬市松山2丁目14-10","lat":35.77252049,"lon":139.51297887},{"name":"有限会社セレモサービス","province":"東京都","city":"清瀬市","address":"東京都清瀬市下清戸2丁目559-8","lat":35.78764126,"lon":139.53340464},{"name":"株式会社三愛メモリアル東京店","province":"東京都","city":"清瀬市","address":"東京都清瀬市元町1丁目7-5","lat":35.77446205,"lon":139.51841445},{"name":"株式会社彩花","province":"東京都","city":"清瀬市","address":"東京都清瀬市松山2丁目6-45","lat":35.77259557,"lon":139.51690627},{"name":"清瀬市しあわせ未来センター","province":"東京都","city":"清瀬市","address":"東京都清瀬市中里5丁目842","lat":35.78608019,"lon":139.52608035},{"name":"清瀬市しあわせ未来センター","province":"東京都","city":"清瀬市","address":"清瀬市中里5-842","lat":35.78557,"lon":139.52655},{"name":"清瀬市子ども家庭支援センター","province":"東京都","city":"清瀬市","address":"清瀬市中里5-842清瀬市役所北隣しあわせ未来センター内","lat":35.78591,"lon":139.52619},{"name":"清瀬市子ども家庭支援センター","province":"東京都","city":"清瀬市","address":"清瀬市中清戸3-235-5児童センターころぽっくる内","lat":35.77712,"lon":139.53165},{"name":"清瀬市健康センター","province":"東京都","city":"清瀬市","address":"清瀬市中里5-842","lat":35.78557,"lon":139.52655},{"name":"清瀬市子ども家庭支援センター","province":"東京都","city":"清瀬市","address":"清瀬市中清戸3-235-5清瀬市児童センター内","lat":35.77867,"lon":139.53389},{"name":"清瀬市立駅前図書館","province":"東京都","city":"清瀬市","address":"清瀬市元町1-4-5クレア4階","lat":35.773247,"lon":139.520493},{"name":"清瀬市立下宿図書館","province":"東京都","city":"清瀬市","address":"清瀬市下宿2-524-1下宿地域市民センター内","lat":35.798779,"lon":139.534714},{"name":"清瀬市立元町こども図書館","province":"東京都","city":"清瀬市","address":"清瀬市元町1-6-6清瀬けやきホール内","lat":35.77496,"lon":139.51918},{"name":"清瀬市立竹丘図書館","province":"東京都","city":"清瀬市","address":"清瀬市竹丘1-11-1竹丘地域市民センター内","lat":35.765816,"lon":139.511505},{"name":"清瀬市立中央図書館","province":"東京都","city":"清瀬市","address":"清瀬市梅園1-1-21","lat":35.773674,"lon":139.510666},{"name":"清瀬市立野塩図書館","province":"東京都","city":"清瀬市","address":"清瀬市野塩1-322-2野塩地域市民センター内","lat":35.776138,"lon":139.499527},{"name":"清瀬市郷土博物館","province":"東京都","city":"清瀬市","address":"清瀬市上清戸2-6-41","lat":35.780193,"lon":139.520142},{"name":"清瀬市男女共同参画センター","province":"東京都","city":"清瀬市","address":"清瀬市元町1-2-11アミュー4階","lat":35.772114,"lon":139.520966},{"name":"清瀬市生涯学習センター","province":"東京都","city":"清瀬市","address":"清瀬市元町1-2-11アミュー5~7階","lat":35.772114,"lon":139.520966},{"name":"清瀬市選挙管理委員会","province":"東京都","city":"清瀬市","address":"清瀬市中里5-842","lat":35.786055,"lon":139.526067},{"name":"期日前投票所","province":"東京都","city":"清瀬市","address":"東京都清瀬市中里5-842","lat":35.785761,"lon":139.526422},{"name":"期日前投票所","province":"東京都","city":"清瀬市","address":"東京都清瀬市元町1-2-11","lat":35.772182,"lon":139.521154},{"name":"第1投票所","province":"東京都","city":"清瀬市","address":"東京都清瀬市旭が丘2-8-1","lat":35.796663,"lon":139.539587},{"name":"第2投票所","province":"東京都","city":"清瀬市","address":"東京都清瀬市下宿2-524-1","lat":35.797491,"lon":139.533321},{"name":"第3投票所","province":"東京都","city":"清瀬市","address":"東京都清瀬市中里5-842","lat":35.786064,"lon":139.526056},{"name":"第4投票所","province":"東京都","city":"清瀬市","address":"東京都清瀬市元町1-2-11","lat":35.772182,"lon":139.521154},{"name":"第5投票所","province":"東京都","city":"清瀬市","address":"東京都清瀬市松山2-6-25","lat":35.770989,"lon":139.514809},{"name":"第6投票所","province":"東京都","city":"清瀬市","address":"東京都清瀬市松山3-1-92","lat":35.767974,"lon":139.512557},{"name":"第7投票所","province":"東京都","city":"清瀬市","address":"東京都清瀬市竹丘1-11-1","lat":35.765849,"lon":139.51142},{"name":"第8投票所","province":"東京都","city":"清瀬市","address":"東京都清瀬市梅園2-9-45","lat":35.771788,"lon":139.504655},{"name":"第9投票所","province":"東京都","city":"清瀬市","address":"東京都清瀬市野塩1-322-2","lat":35.779163,"lon":139.499466},{"name":"第10投票所","province":"東京都","city":"清瀬市","address":"東京都清瀬市元町2-16-8","lat":35.775287,"lon":139.511307},{"name":"第11投票所","province":"東京都","city":"清瀬市","address":"東京都清瀬市中里4-1301","lat":35.78652,"lon":139.514166},{"name":"第12投票所","province":"東京都","city":"清瀬市","address":"東京都清瀬市中清戸3-258-1","lat":35.775094,"lon":139.534001},{"name":"清瀬市健康センター","province":"東京都","city":"清瀬市","address":"清瀬市中里5-842","lat":35.786052,"lon":139.526353},{"name":"清瀬市","province":"東京都","city":"清瀬市","address":"清瀬市中里5-842","lat":35.7860525,"lon":139.5263525},{"name":"照屋興業有限会社","province":"東京都","city":"清瀬市","address":"東京都清瀬市松山3丁目18-3","lat":35.76794612,"lon":139.51600089},{"name":"有限会社荒田葬儀社","province":"東京都","city":"清瀬市","address":"東京都清瀬市野塩4丁目79","lat":35.77432287,"lon":139.5053351},{"name":"株式会社AZUMA　東葬祭","province":"東京都","city":"清瀬市","address":"東京都清瀬市松山2丁目14-10","lat":35.77252049,"lon":139.51297887},{"name":"有限会社セレモサービス","province":"東京都","city":"清瀬市","address":"東京都清瀬市下清戸2丁目559-8","lat":35.78764126,"lon":139.53340464},{"name":"株式会社三愛メモリアル東京店","province":"東京都","city":"清瀬市","address":"東京都清瀬市元町1丁目7-5","lat":35.77446205,"lon":139.51841445},{"name":"株式会社彩花","province":"東京都","city":"清瀬市","address":"東京都清瀬市松山2丁目6-45","lat":35.77259557,"lon":139.51690627},{"name":"清瀬市しあわせ未来センター","province":"東京都","city":"清瀬市","address":"東京都清瀬市中里5丁目842","lat":35.78608019,"lon":139.52608035},{"name":"清瀬市しあわせ未来センター","province":"東京都","city":"清瀬市","address":"清瀬市中里5-842","lat":35.78557,"lon":139.52655},{"name":"清瀬市健康センター","province":"東京都","city":"清瀬市","address":"清瀬市中里5-842","lat":35.78557,"lon":139.52655},{"name":"清瀬市立駅前図書館","province":"東京都","city":"清瀬市","address":"清瀬市元町1-4-5クレア4階","lat":35.773247,"lon":139.520493},{"name":"清瀬市立下宿図書館","province":"東京都","city":"清瀬市","address":"清瀬市下宿2-524-1下宿地域市民センター内","lat":35.798779,"lon":139.534714},{"name":"清瀬市立元町こども図書館","province":"東京都","city":"清瀬市","address":"清瀬市元町1-6-6清瀬けやきホール内","lat":35.77496,"lon":139.51918},{"name":"清瀬市立竹丘図書館","province":"東京都","city":"清瀬市","address":"清瀬市竹丘1-11-1竹丘地域市民センター内","lat":35.765816,"lon":139.511505},{"name":"清瀬市立中央図書館","province":"東京都","city":"清瀬市","address":"清瀬市梅園1-1-21","lat":35.773674,"lon":139.510666},{"name":"清瀬市立野塩図書館","province":"東京都","city":"清瀬市","address":"清瀬市野塩1-322-2野塩地域市民センター内","lat":35.776138,"lon":139.499527},{"name":"清瀬市郷土博物館","province":"東京都","city":"清瀬市","address":"清瀬市上清戸2-6-41","lat":35.780193,"lon":139.520142},{"name":"清瀬市男女共同参画センター","province":"東京都","city":"清瀬市","address":"清瀬市元町1-2-11アミュー4階","lat":35.772114,"lon":139.520966},{"name":"清瀬市生涯学習センター","province":"東京都","city":"清瀬市","address":"清瀬市元町1-2-11アミュー5~7階","lat":35.772114,"lon":139.520966},{"name":"清瀬市選挙管理委員会","province":"東京都","city":"清瀬市","address":"清瀬市中里5-842","lat":35.786055,"lon":139.526067},{"name":"期日前投票所","province":"東京都","city":"清瀬市","address":"東京都清瀬市中里5-842","lat":35.785761,"lon":139.526422},{"name":"期日前投票所","province":"東京都","city":"清瀬市","address":"東京都清瀬市元町1-2-11","lat":35.772182,"lon":139.521154},{"name":"第1投票所","province":"東京都","city":"清瀬市","address":"東京都清瀬市旭が丘2-8-1","lat":35.796663,"lon":139.539587},{"name":"第2投票所","province":"東京都","city":"清瀬市","address":"東京都清瀬市下宿2-524-1","lat":35.797491,"lon":139.533321},{"name":"第3投票所","province":"東京都","city":"清瀬市","address":"東京都清瀬市中里5-842","lat":35.786064,"lon":139.526056},{"name":"第4投票所","province":"東京都","city":"清瀬市","address":"東京都清瀬市元町1-2-11","lat":35.772182,"lon":139.521154},{"name":"第5投票所","province":"東京都","city":"清瀬市","address":"東京都清瀬市松山2-6-25","lat":35.770989,"lon":139.514809},{"name":"第6投票所","province":"東京都","city":"清瀬市","address":"東京都清瀬市松山3-1-92","lat":35.767974,"lon":139.512557},{"name":"第7投票所","province":"東京都","city":"清瀬市","address":"東京都清瀬市竹丘1-11-1","lat":35.765849,"lon":139.51142},{"name":"第8投票所","province":"東京都","city":"清瀬市","address":"東京都清瀬市梅園2-9-45","lat":35.771788,"lon":139.504655},{"name":"第9投票所","province":"東京都","city":"清瀬市","address":"東京都清瀬市野塩1-322-2","lat":35.779163,"lon":139.499466},{"name":"第10投票所","province":"東京都","city":"清瀬市","address":"東京都清瀬市元町2-16-8","lat":35.775287,"lon":139.511307},{"name":"第11投票所","province":"東京都","city":"清瀬市","address":"東京都清瀬市中里4-1301","lat":35.78652,"lon":139.514166},{"name":"第12投票所","province":"東京都","city":"清瀬市","address":"東京都清瀬市中清戸3-258-1","lat":35.775094,"lon":139.534001},{"name":"清瀬市健康センター","province":"東京都","city":"清瀬市","address":"清瀬市中里5-842","lat":35.786052,"lon":139.526353},{"name":"清瀬市","province":"東京都","city":"清瀬市","address":"清瀬市中里5-842","lat":35.7860525,"lon":139.5263525},{"name":"照屋興業有限会社","province":"東京都","city":"清瀬市","address":"東京都清瀬市松山3丁目18-3","lat":35.76794612,"lon":139.51600089},{"name":"有限会社荒田葬儀社","province":"東京都","city":"清瀬市","address":"東京都清瀬市野塩4丁目79","lat":35.77432287,"lon":139.5053351},{"name":"株式会社AZUMA　東葬祭","province":"東京都","city":"清瀬市","address":"東京都清瀬市松山2丁目14-10","lat":35.77252049,"lon":139.51297887},{"name":"有限会社セレモサービス","province":"東京都","city":"清瀬市","address":"東京都清瀬市下清戸2丁目559-8","lat":35.78764126,"lon":139.53340464},{"name":"株式会社三愛メモリアル東京店","province":"東京都","city":"清瀬市","address":"東京都清瀬市元町1丁目7-5","lat":35.77446205,"lon":139.51841445},{"name":"株式会社彩花","province":"東京都","city":"清瀬市","address":"東京都清瀬市松山2丁目6-45","lat":35.77259557,"lon":139.51690627},{"name":"清瀬市しあわせ未来センター","province":"東京都","city":"清瀬市","address":"東京都清瀬市中里5丁目842","lat":35.78608019,"lon":139.52608035},{"name":"清瀬市しあわせ未来センター","province":"東京都","city":"清瀬市","address":"清瀬市中里5-842","lat":35.78557,"lon":139.52655},{"name":"清瀬市健康センター","province":"東京都","city":"清瀬市","address":"清瀬市中里5-842","lat":35.78557,"lon":139.52655},{"name":"清瀬市立駅前図書館","province":"東京都","city":"清瀬市","address":"清瀬市元町1-4-5クレア4階","lat":35.773247,"lon":139.520493},{"name":"清瀬市立下宿図書館","province":"東京都","city":"清瀬市","address":"清瀬市下宿2-524-1下宿地域市民センター内","lat":35.798779,"lon":139.534714},{"name":"清瀬市立元町こども図書館","province":"東京都","city":"清瀬市","address":"清瀬市元町1-6-6清瀬けやきホール内","lat":35.77496,"lon":139.51918},{"name":"清瀬市立竹丘図書館","province":"東京都","city":"清瀬市","address":"清瀬市竹丘1-11-1竹丘地域市民センター内","lat":35.765816,"lon":139.511505},{"name":"清瀬市立中央図書館","province":"東京都","city":"清瀬市","address":"清瀬市梅園1-1-21","lat":35.773674,"lon":139.510666},{"name":"清瀬市立野塩図書館","province":"東京都","city":"清瀬市","address":"清瀬市野塩1-322-2野塩地域市民センター内","lat":35.776138,"lon":139.499527},{"name":"清瀬市郷土博物館","province":"東京都","city":"清瀬市","address":"清瀬市上清戸2-6-41","lat":35.780193,"lon":139.520142},{"name":"清瀬市男女共同参画センター","province":"東京都","city":"清瀬市","address":"清瀬市元町1-2-11アミュー4階","lat":35.772114,"lon":139.520966},{"name":"清瀬市生涯学習センター","province":"東京都","city":"清瀬市","address":"清瀬市元町1-2-11アミュー5~7階","lat":35.772114,"lon":139.520966},{"name":"清瀬市選挙管理委員会","province":"東京都","city":"清瀬市","address":"清瀬市中里5-842","lat":35.786055,"lon":139.526067},{"name":"期日前投票所","province":"東京都","city":"清瀬市","address":"東京都清瀬市中里5-842","lat":35.785761,"lon":139.526422},{"name":"期日前投票所","province":"東京都","city":"清瀬市","address":"東京都清瀬市元町1-2-11","lat":35.772182,"lon":139.521154},{"name":"第1投票所","province":"東京都","city":"清瀬市","address":"東京都清瀬市旭が丘2-8-1","lat":35.796663,"lon":139.539587},{"name":"第2投票所","province":"東京都","city":"清瀬市","address":"東京都清瀬市下宿2-524-1","lat":35.797491,"lon":139.533321},{"name":"第3投票所","province":"東京都","city":"清瀬市","address":"東京都清瀬市中里5-842","lat":35.786064,"lon":139.526056},{"name":"第4投票所","province":"東京都","city":"清瀬市","address":"東京都清瀬市元町1-2-11","lat":35.772182,"lon":139.521154},{"name":"第5投票所","province":"東京都","city":"清瀬市","address":"東京都清瀬市松山2-6-25","lat":35.770989,"lon":139.514809},{"name":"第6投票所","province":"東京都","city":"清瀬市","address":"東京都清瀬市松山3-1-92","lat":35.767974,"lon":139.512557},{"name":"第7投票所","province":"東京都","city":"清瀬市","address":"東京都清瀬市竹丘1-11-1","lat":35.765849,"lon":139.51142},{"name":"第8投票所","province":"東京都","city":"清瀬市","address":"東京都清瀬市梅園2-9-45","lat":35.771788,"lon":139.504655},{"name":"第9投票所","province":"東京都","city":"清瀬市","address":"東京都清瀬市野塩1-322-2","lat":35.779163,"lon":139.499466},{"name":"第10投票所","province":"東京都","city":"清瀬市","address":"東京都清瀬市元町2-16-8","lat":35.775287,"lon":139.511307},{"name":"第11投票所","province":"東京都","city":"清瀬市","address":"東京都清瀬市中里4-1301","lat":35.78652,"lon":139.514166},{"name":"第12投票所","province":"東京都","city":"清瀬市","address":"東京都清瀬市中清戸3-258-1","lat":35.775094,"lon":139.534001},{"name":"清瀬市健康センター","province":"東京都","city":"清瀬市","address":"清瀬市中里5-842","lat":35.786052,"lon":139.526353},{"name":"清瀬市","province":"東京都","city":"清瀬市","address":"清瀬市中里5-842","lat":35.7860525,"lon":139.5263525},{"name":"清瀬市しあわせ未来センター","province":"東京都","city":"清瀬市","address":"東京都清瀬市中里5丁目842","lat":35.78608019,"lon":139.52608035},{"name":"清瀬市しあわせ未来センター","province":"東京都","city":"清瀬市","address":"清瀬市中里5-842","lat":35.78557,"lon":139.52655},{"name":"清瀬市健康センター","province":"東京都","city":"清瀬市","address":"清瀬市中里5-842","lat":35.78557,"lon":139.52655},{"name":"清瀬市立駅前図書館","province":"東京都","city":"清瀬市","address":"清瀬市元町1-4-5クレア4階","lat":35.773247,"lon":139.520493},{"name":"清瀬市立下宿図書館","province":"東京都","city":"清瀬市","address":"清瀬市下宿2-524-1下宿地域市民センター内","lat":35.798779,"lon":139.534714},{"name":"清瀬市立元町こども図書館","province":"東京都","city":"清瀬市","address":"清瀬市元町1-6-6清瀬けやきホール内","lat":35.77496,"lon":139.51918},{"name":"清瀬市立竹丘図書館","province":"東京都","city":"清瀬市","address":"清瀬市竹丘1-11-1竹丘地域市民センター内","lat":35.765816,"lon":139.511505},{"name":"清瀬市立中央図書館","province":"東京都","city":"清瀬市","address":"清瀬市梅園1-1-21","lat":35.773674,"lon":139.510666},{"name":"清瀬市立野塩図書館","province":"東京都","city":"清瀬市","address":"清瀬市野塩1-322-2野塩地域市民センター内","lat":35.776138,"lon":139.499527},{"name":"清瀬市郷土博物館","province":"東京都","city":"清瀬市","address":"清瀬市上清戸2-6-41","lat":35.780193,"lon":139.520142},{"name":"清瀬市男女共同参画センター","province":"東京都","city":"清瀬市","address":"清瀬市元町1-2-11アミュー4階","lat":35.772114,"lon":139.520966},{"name":"清瀬市生涯学習センター","province":"東京都","city":"清瀬市","address":"清瀬市元町1-2-11アミュー5~7階","lat":35.772114,"lon":139.520966},{"name":"清瀬市選挙管理委員会","province":"東京都","city":"清瀬市","address":"清瀬市中里5-842","lat":35.786055,"lon":139.526067},{"name":"期日前投票所","province":"東京都","city":"清瀬市","address":"東京都清瀬市中里5-842","lat":35.785761,"lon":139.526422},{"name":"期日前投票所","province":"東京都","city":"清瀬市","address":"東京都清瀬市元町1-2-11","lat":35.772182,"lon":139.521154},{"name":"第1投票所","province":"東京都","city":"清瀬市","address":"東京都清瀬市旭が丘2-8-1","lat":35.796663,"lon":139.539587},{"name":"第2投票所","province":"東京都","city":"清瀬市","address":"東京都清瀬市下宿2-524-1","lat":35.797491,"lon":139.533321},{"name":"第3投票所","province":"東京都","city":"清瀬市","address":"東京都清瀬市中里5-842","lat":35.786064,"lon":139.526056},{"name":"第4投票所","province":"東京都","city":"清瀬市","address":"東京都清瀬市元町1-2-11","lat":35.772182,"lon":139.521154},{"name":"第5投票所","province":"東京都","city":"清瀬市","address":"東京都清瀬市松山2-6-25","lat":35.770989,"lon":139.514809},{"name":"第6投票所","province":"東京都","city":"清瀬市","address":"東京都清瀬市松山3-1-92","lat":35.767974,"lon":139.512557},{"name":"第7投票所","province":"東京都","city":"清瀬市","address":"東京都清瀬市竹丘1-11-1","lat":35.765849,"lon":139.51142},{"name":"第8投票所","province":"東京都","city":"清瀬市","address":"東京都清瀬市梅園2-9-45","lat":35.771788,"lon":139.504655},{"name":"第9投票所","province":"東京都","city":"清瀬市","address":"東京都清瀬市野塩1-322-2","lat":35.779163,"lon":139.499466},{"name":"第10投票所","province":"東京都","city":"清瀬市","address":"東京都清瀬市元町2-16-8","lat":35.775287,"lon":139.511307},{"name":"第11投票所","province":"東京都","city":"清瀬市","address":"東京都清瀬市中里4-1301","lat":35.78652,"lon":139.514166},{"name":"第12投票所","province":"東京都","city":"清瀬市","address":"東京都清瀬市中清戸3-258-1","lat":35.775094,"lon":139.534001},{"name":"清瀬市健康センター","province":"東京都","city":"清瀬市","address":"清瀬市中里5-842","lat":35.786052,"lon":139.526353},{"name":"清瀬市しあわせ未来センター","province":"東京都","city":"清瀬市","address":"東京都清瀬市中里5丁目842","lat":35.78608019,"lon":139.52608035},{"name":"清瀬市しあわせ未来センター","province":"東京都","city":"清瀬市","address":"清瀬市中里5-842","lat":35.78557,"lon":139.52655},{"name":"清瀬市健康センター","province":"東京都","city":"清瀬市","address":"清瀬市中里5-842","lat":35.78557,"lon":139.52655},{"name":"清瀬市立駅前図書館","province":"東京都","city":"清瀬市","address":"清瀬市元町1-4-5クレア4階","lat":35.773247,"lon":139.520493},{"name":"清瀬市立下宿図書館","province":"東京都","city":"清瀬市","address":"清瀬市下宿2-524-1下宿地域市民センター内","lat":35.798779,"lon":139.534714},{"name":"清瀬市立元町こども図書館","province":"東京都","city":"清瀬市","address":"清瀬市元町1-6-6清瀬けやきホール内","lat":35.77496,"lon":139.51918},{"name":"清瀬市立竹丘図書館","province":"東京都","city":"清瀬市","address":"清瀬市竹丘1-11-1竹丘地域市民センター内","lat":35.765816,"lon":139.511505},{"name":"清瀬市立中央図書館","province":"東京都","city":"清瀬市","address":"清瀬市梅園1-1-21","lat":35.773674,"lon":139.510666},{"name":"清瀬市立野塩図書館","province":"東京都","city":"清瀬市","address":"清瀬市野塩1-322-2野塩地域市民センター内","lat":35.776138,"lon":139.499527},{"name":"清瀬市郷土博物館","province":"東京都","city":"清瀬市","address":"清瀬市上清戸2-6-41","lat":35.780193,"lon":139.520142},{"name":"清瀬市男女共同参画センター","province":"東京都","city":"清瀬市","address":"清瀬市元町1-2-11アミュー4階","lat":35.772114,"lon":139.520966},{"name":"清瀬市生涯学習センター","province":"東京都","city":"清瀬市","address":"清瀬市元町1-2-11アミュー5~7階","lat":35.772114,"lon":139.520966},{"name":"清瀬市選挙管理委員会","province":"東京都","city":"清瀬市","address":"清瀬市中里5-842","lat":35.786055,"lon":139.526067},{"name":"期日前投票所","province":"東京都","city":"清瀬市","address":"東京都清瀬市中里5-842","lat":35.785761,"lon":139.526422},{"name":"期日前投票所","province":"東京都","city":"清瀬市","address":"東京都清瀬市元町1-2-11","lat":35.772182,"lon":139.521154},{"name":"第1投票所","province":"東京都","city":"清瀬市","address":"東京都清瀬市旭が丘2-8-1","lat":35.796663,"lon":139.539587},{"name":"第2投票所","province":"東京都","city":"清瀬市","address":"東京都清瀬市下宿2-524-1","lat":35.797491,"lon":139.533321},{"name":"第3投票所","province":"東京都","city":"清瀬市","address":"東京都清瀬市中里5-842","lat":35.786064,"lon":139.526056},{"name":"第4投票所","province":"東京都","city":"清瀬市","address":"東京都清瀬市元町1-2-11","lat":35.772182,"lon":139.521154},{"name":"第5投票所","province":"東京都","city":"清瀬市","address":"東京都清瀬市松山2-6-25","lat":35.770989,"lon":139.514809},{"name":"第6投票所","province":"東京都","city":"清瀬市","address":"東京都清瀬市松山3-1-92","lat":35.767974,"lon":139.512557},{"name":"第7投票所","province":"東京都","city":"清瀬市","address":"東京都清瀬市竹丘1-11-1","lat":35.765849,"lon":139.51142},{"name":"第8投票所","province":"東京都","city":"清瀬市","address":"東京都清瀬市梅園2-9-45","lat":35.771788,"lon":139.504655},{"name":"第9投票所","province":"東京都","city":"清瀬市","address":"東京都清瀬市野塩1-322-2","lat":35.779163,"lon":139.499466},{"name":"第10投票所","province":"東京都","city":"清瀬市","address":"東京都清瀬市元町2-16-8","lat":35.775287,"lon":139.511307},{"name":"第11投票所","province":"東京都","city":"清瀬市","address":"東京都清瀬市中里4-1301","lat":35.78652,"lon":139.514166},{"name":"第12投票所","province":"東京都","city":"清瀬市","address":"東京都清瀬市中清戸3-258-1","lat":35.775094,"lon":139.534001},{"name":"清瀬市健康センター","province":"東京都","city":"清瀬市","address":"清瀬市中里5-842","lat":35.786052,"lon":139.526353},{"name":"清瀬市しあわせ未来センター","province":"東京都","city":"清瀬市","address":"東京都清瀬市中里5丁目842","lat":35.78608019,"lon":139.52608035},{"name":"清瀬市しあわせ未来センター","province":"東京都","city":"清瀬市","address":"清瀬市中里5-842","lat":35.78557,"lon":139.52655},{"name":"清瀬市健康センター","province":"東京都","city":"清瀬市","address":"清瀬市中里5-842","lat":35.78557,"lon":139.52655},{"name":"清瀬市立駅前図書館","province":"東京都","city":"清瀬市","address":"清瀬市元町1-4-5クレア4階","lat":35.773247,"lon":139.520493},{"name":"清瀬市立下宿図書館","province":"東京都","city":"清瀬市","address":"清瀬市下宿2-524-1下宿地域市民センター内","lat":35.798779,"lon":139.534714},{"name":"清瀬市立元町こども図書館","province":"東京都","city":"清瀬市","address":"清瀬市元町1-6-6清瀬けやきホール内","lat":35.77496,"lon":139.51918},{"name":"清瀬市立竹丘図書館","province":"東京都","city":"清瀬市","address":"清瀬市竹丘1-11-1竹丘地域市民センター内","lat":35.765816,"lon":139.511505},{"name":"清瀬市立中央図書館","province":"東京都","city":"清瀬市","address":"清瀬市梅園1-1-21","lat":35.773674,"lon":139.510666},{"name":"清瀬市立野塩図書館","province":"東京都","city":"清瀬市","address":"清瀬市野塩1-322-2野塩地域市民センター内","lat":35.776138,"lon":139.499527},{"name":"清瀬市郷土博物館","province":"東京都","city":"清瀬市","address":"清瀬市上清戸2-6-41","lat":35.780193,"lon":139.520142},{"name":"清瀬市男女共同参画センター","province":"東京都","city":"清瀬市","address":"清瀬市元町1-2-11アミュー4階","lat":35.772114,"lon":139.520966},{"name":"清瀬市生涯学習センター","province":"東京都","city":"清瀬市","address":"清瀬市元町1-2-11アミュー5~7階","lat":35.772114,"lon":139.520966},{"name":"清瀬市選挙管理委員会","province":"東京都","city":"清瀬市","address":"清瀬市中里5-842","lat":35.786055,"lon":139.526067},{"name":"期日前投票所","province":"東京都","city":"清瀬市","address":"東京都清瀬市中里5-842","lat":35.785761,"lon":139.526422},{"name":"期日前投票所","province":"東京都","city":"清瀬市","address":"東京都清瀬市元町1-2-11","lat":35.772182,"lon":139.521154},{"name":"第1投票所","province":"東京都","city":"清瀬市","address":"東京都清瀬市旭が丘2-8-1","lat":35.796663,"lon":139.539587},{"name":"第2投票所","province":"東京都","city":"清瀬市","address":"東京都清瀬市下宿2-524-1","lat":35.797491,"lon":139.533321},{"name":"第3投票所","province":"東京都","city":"清瀬市","address":"東京都清瀬市中里5-842","lat":35.786064,"lon":139.526056},{"name":"第4投票所","province":"東京都","city":"清瀬市","address":"東京都清瀬市元町1-2-11","lat":35.772182,"lon":139.521154},{"name":"第5投票所","province":"東京都","city":"清瀬市","address":"東京都清瀬市松山2-6-25","lat":35.770989,"lon":139.514809},{"name":"第6投票所","province":"東京都","city":"清瀬市","address":"東京都清瀬市松山3-1-92","lat":35.767974,"lon":139.512557},{"name":"第7投票所","province":"東京都","city":"清瀬市","address":"東京都清瀬市竹丘1-11-1","lat":35.765849,"lon":139.51142},{"name":"第8投票所","province":"東京都","city":"清瀬市","address":"東京都清瀬市梅園2-9-45","lat":35.771788,"lon":139.504655},{"name":"第9投票所","province":"東京都","city":"清瀬市","address":"東京都清瀬市野塩1-322-2","lat":35.779163,"lon":139.499466},{"name":"第10投票所","province":"東京都","city":"清瀬市","address":"東京都清瀬市元町2-16-8","lat":35.775287,"lon":139.511307},{"name":"第11投票所","province":"東京都","city":"清瀬市","address":"東京都清瀬市中里4-1301","lat":35.78652,"lon":139.514166},{"name":"第12投票所","province":"東京都","city":"清瀬市","address":"東京都清瀬市中清戸3-258-1","lat":35.775094,"lon":139.534001},{"name":"清瀬市健康センター","province":"東京都","city":"清瀬市","address":"清瀬市中里5-842","lat":35.786052,"lon":139.526353},{"name":"清瀬市しあわせ未来センター","province":"東京都","city":"清瀬市","address":"東京都清瀬市中里5丁目842","lat":35.78608019,"lon":139.52608035},{"name":"清瀬市しあわせ未来センター","province":"東京都","city":"清瀬市","address":"清瀬市中里5-842","lat":35.78557,"lon":139.52655},{"name":"清瀬市健康センター","province":"東京都","city":"清瀬市","address":"清瀬市中里5-842","lat":35.78557,"lon":139.52655},{"name":"清瀬市立駅前図書館","province":"東京都","city":"清瀬市","address":"清瀬市元町1-4-5クレア4階","lat":35.773247,"lon":139.520493},{"name":"清瀬市立下宿図書館","province":"東京都","city":"清瀬市","address":"清瀬市下宿2-524-1下宿地域市民センター内","lat":35.798779,"lon":139.534714},{"name":"清瀬市立元町こども図書館","province":"東京都","city":"清瀬市","address":"清瀬市元町1-6-6清瀬けやきホール内","lat":35.77496,"lon":139.51918},{"name":"清瀬市立竹丘図書館","province":"東京都","city":"清瀬市","address":"清瀬市竹丘1-11-1竹丘地域市民センター内","lat":35.765816,"lon":139.511505},{"name":"清瀬市立中央図書館","province":"東京都","city":"清瀬市","address":"清瀬市梅園1-1-21","lat":35.773674,"lon":139.510666},{"name":"清瀬市立野塩図書館","province":"東京都","city":"清瀬市","address":"清瀬市野塩1-322-2野塩地域市民センター内","lat":35.776138,"lon":139.499527},{"name":"清瀬市郷土博物館","province":"東京都","city":"清瀬市","address":"清瀬市上清戸2-6-41","lat":35.780193,"lon":139.520142},{"name":"清瀬市男女共同参画センター","province":"東京都","city":"清瀬市","address":"清瀬市元町1-2-11アミュー4階","lat":35.772114,"lon":139.520966},{"name":"清瀬市生涯学習センター","province":"東京都","city":"清瀬市","address":"清瀬市元町1-2-11アミュー5~7階","lat":35.772114,"lon":139.520966},{"name":"清瀬市選挙管理委員会","province":"東京都","city":"清瀬市","address":"清瀬市中里5-842","lat":35.786055,"lon":139.526067},{"name":"期日前投票所","province":"東京都","city":"清瀬市","address":"東京都清瀬市中里5-842","lat":35.785761,"lon":139.526422},{"name":"期日前投票所","province":"東京都","city":"清瀬市","address":"東京都清瀬市元町1-2-11","lat":35.772182,"lon":139.521154},{"name":"第1投票所","province":"東京都","city":"清瀬市","address":"東京都清瀬市旭が丘2-8-1","lat":35.796663,"lon":139.539587},{"name":"第2投票所","province":"東京都","city":"清瀬市","address":"東京都清瀬市下宿2-524-1","lat":35.797491,"lon":139.533321},{"name":"第3投票所","province":"東京都","city":"清瀬市","address":"東京都清瀬市中里5-842","lat":35.786064,"lon":139.526056},{"name":"第4投票所","province":"東京都","city":"清瀬市","address":"東京都清瀬市元町1-2-11","lat":35.772182,"lon":139.521154},{"name":"第5投票所","province":"東京都","city":"清瀬市","address":"東京都清瀬市松山2-6-25","lat":35.770989,"lon":139.514809},{"name":"第6投票所","province":"東京都","city":"清瀬市","address":"東京都清瀬市松山3-1-92","lat":35.767974,"lon":139.512557},{"name":"第7投票所","province":"東京都","city":"清瀬市","address":"東京都清瀬市竹丘1-11-1","lat":35.765849,"lon":139.51142},{"name":"第8投票所","province":"東京都","city":"清瀬市","address":"東京都清瀬市梅園2-9-45","lat":35.771788,"lon":139.504655},{"name":"第9投票所","province":"東京都","city":"清瀬市","address":"東京都清瀬市野塩1-322-2","lat":35.779163,"lon":139.499466},{"name":"第10投票所","province":"東京都","city":"清瀬市","address":"東京都清瀬市元町2-16-8","lat":35.775287,"lon":139.511307},{"name":"第11投票所","province":"東京都","city":"清瀬市","address":"東京都清瀬市中里4-1301","lat":35.78652,"lon":139.514166},{"name":"第12投票所","province":"東京都","city":"清瀬市","address":"東京都清瀬市中清戸3-258-1","lat":35.775094,"lon":139.534001},{"name":"清瀬市健康センター","province":"東京都","city":"清瀬市","address":"清瀬市中里5-842","lat":35.786052,"lon":139.526353},{"name":"清瀬市しあわせ未来センター","province":"東京都","city":"清瀬市","address":"東京都清瀬市中里5丁目842","lat":35.78608019,"lon":139.52608035},{"name":"清瀬市しあわせ未来センター","province":"東京都","city":"清瀬市","address":"清瀬市中里5-842","lat":35.78557,"lon":139.52655},{"name":"清瀬市健康センター","province":"東京都","city":"清瀬市","address":"清瀬市中里5-842","lat":35.78557,"lon":139.52655},{"name":"清瀬市立駅前図書館","province":"東京都","city":"清瀬市","address":"清瀬市元町1-4-5クレア4階","lat":35.773247,"lon":139.520493},{"name":"清瀬市立下宿図書館","province":"東京都","city":"清瀬市","address":"清瀬市下宿2-524-1下宿地域市民センター内","lat":35.798779,"lon":139.534714},{"name":"清瀬市立元町こども図書館","province":"東京都","city":"清瀬市","address":"清瀬市元町1-6-6清瀬けやきホール内","lat":35.77496,"lon":139.51918},{"name":"清瀬市立竹丘図書館","province":"東京都","city":"清瀬市","address":"清瀬市竹丘1-11-1竹丘地域市民センター内","lat":35.765816,"lon":139.511505},{"name":"清瀬市立中央図書館","province":"東京都","city":"清瀬市","address":"清瀬市梅園1-1-21","lat":35.773674,"lon":139.510666},{"name":"清瀬市立野塩図書館","province":"東京都","city":"清瀬市","address":"清瀬市野塩1-322-2野塩地域市民センター内","lat":35.776138,"lon":139.499527},{"name":"清瀬市郷土博物館","province":"東京都","city":"清瀬市","address":"清瀬市上清戸2-6-41","lat":35.780193,"lon":139.520142},{"name":"清瀬市男女共同参画センター","province":"東京都","city":"清瀬市","address":"清瀬市元町1-2-11アミュー4階","lat":35.772114,"lon":139.520966},{"name":"清瀬市生涯学習センター","province":"東京都","city":"清瀬市","address":"清瀬市元町1-2-11アミュー5~7階","lat":35.772114,"lon":139.520966},{"name":"清瀬市選挙管理委員会","province":"東京都","city":"清瀬市","address":"清瀬市中里5-842","lat":35.786055,"lon":139.526067},{"name":"期日前投票所","province":"東京都","city":"清瀬市","address":"東京都清瀬市中里5-842","lat":35.785761,"lon":139.526422},{"name":"期日前投票所","province":"東京都","city":"清瀬市","address":"東京都清瀬市元町1-2-11","lat":35.772182,"lon":139.521154},{"name":"第1投票所","province":"東京都","city":"清瀬市","address":"東京都清瀬市旭が丘2-8-1","lat":35.796663,"lon":139.539587},{"name":"第2投票所","province":"東京都","city":"清瀬市","address":"東京都清瀬市下宿2-524-1","lat":35.797491,"lon":139.533321},{"name":"第3投票所","province":"東京都","city":"清瀬市","address":"東京都清瀬市中里5-842","lat":35.786064,"lon":139.526056},{"name":"第4投票所","province":"東京都","city":"清瀬市","address":"東京都清瀬市元町1-2-11","lat":35.772182,"lon":139.521154},{"name":"第5投票所","province":"東京都","city":"清瀬市","address":"東京都清瀬市松山2-6-25","lat":35.770989,"lon":139.514809},{"name":"第6投票所","province":"東京都","city":"清瀬市","address":"東京都清瀬市松山3-1-92","lat":35.767974,"lon":139.512557},{"name":"第7投票所","province":"東京都","city":"清瀬市","address":"東京都清瀬市竹丘1-11-1","lat":35.765849,"lon":139.51142},{"name":"第8投票所","province":"東京都","city":"清瀬市","address":"東京都清瀬市梅園2-9-45","lat":35.771788,"lon":139.504655},{"name":"第9投票所","province":"東京都","city":"清瀬市","address":"東京都清瀬市野塩1-322-2","lat":35.779163,"lon":139.499466},{"name":"第10投票所","province":"東京都","city":"清瀬市","address":"東京都清瀬市元町2-16-8","lat":35.775287,"lon":139.511307},{"name":"第11投票所","province":"東京都","city":"清瀬市","address":"東京都清瀬市中里4-1301","lat":35.78652,"lon":139.514166},{"name":"第12投票所","province":"東京都","city":"清瀬市","address":"東京都清瀬市中清戸3-258-1","lat":35.775094,"lon":139.534001},{"name":"清瀬市健康センター","province":"東京都","city":"清瀬市","address":"清瀬市中里5-842","lat":35.786052,"lon":139.526353},{"name":"清瀬市しあわせ未来センター","province":"東京都","city":"清瀬市","address":"東京都清瀬市中里5丁目842","lat":35.78608019,"lon":139.52608035},{"name":"清瀬市しあわせ未来センター","province":"東京都","city":"清瀬市","address":"清瀬市中里5-842","lat":35.78557,"lon":139.52655},{"name":"清瀬市健康センター","province":"東京都","city":"清瀬市","address":"清瀬市中里5-842","lat":35.78557,"lon":139.52655},{"name":"清瀬市立駅前図書館","province":"東京都","city":"清瀬市","address":"清瀬市元町1-4-5クレア4階","lat":35.773247,"lon":139.520493},{"name":"清瀬市立下宿図書館","province":"東京都","city":"清瀬市","address":"清瀬市下宿2-524-1下宿地域市民センター内","lat":35.798779,"lon":139.534714},{"name":"清瀬市立元町こども図書館","province":"東京都","city":"清瀬市","address":"清瀬市元町1-6-6清瀬けやきホール内","lat":35.77496,"lon":139.51918},{"name":"清瀬市立竹丘図書館","province":"東京都","city":"清瀬市","address":"清瀬市竹丘1-11-1竹丘地域市民センター内","lat":35.765816,"lon":139.511505},{"name":"清瀬市立中央図書館","province":"東京都","city":"清瀬市","address":"清瀬市梅園1-1-21","lat":35.773674,"lon":139.510666},{"name":"清瀬市立野塩図書館","province":"東京都","city":"清瀬市","address":"清瀬市野塩1-322-2野塩地域市民センター内","lat":35.776138,"lon":139.499527},{"name":"清瀬市郷土博物館","province":"東京都","city":"清瀬市","address":"清瀬市上清戸2-6-41","lat":35.780193,"lon":139.520142},{"name":"清瀬市男女共同参画センター","province":"東京都","city":"清瀬市","address":"清瀬市元町1-2-11アミュー4階","lat":35.772114,"lon":139.520966},{"name":"清瀬市生涯学習センター","province":"東京都","city":"清瀬市","address":"清瀬市元町1-2-11アミュー5~7階","lat":35.772114,"lon":139.520966},{"name":"清瀬市選挙管理委員会","province":"東京都","city":"清瀬市","address":"清瀬市中里5-842","lat":35.786055,"lon":139.526067},{"name":"期日前投票所","province":"東京都","city":"清瀬市","address":"東京都清瀬市中里5-842","lat":35.785761,"lon":139.526422},{"name":"期日前投票所","province":"東京都","city":"清瀬市","address":"東京都清瀬市元町1-2-11","lat":35.772182,"lon":139.521154},{"name":"第1投票所","province":"東京都","city":"清瀬市","address":"東京都清瀬市旭が丘2-8-1","lat":35.796663,"lon":139.539587},{"name":"第2投票所","province":"東京都","city":"清瀬市","address":"東京都清瀬市下宿2-524-1","lat":35.797491,"lon":139.533321},{"name":"第3投票所","province":"東京都","city":"清瀬市","address":"東京都清瀬市中里5-842","lat":35.786064,"lon":139.526056},{"name":"第4投票所","province":"東京都","city":"清瀬市","address":"東京都清瀬市元町1-2-11","lat":35.772182,"lon":139.521154},{"name":"第5投票所","province":"東京都","city":"清瀬市","address":"東京都清瀬市松山2-6-25","lat":35.770989,"lon":139.514809},{"name":"第6投票所","province":"東京都","city":"清瀬市","address":"東京都清瀬市松山3-1-92","lat":35.767974,"lon":139.512557},{"name":"第7投票所","province":"東京都","city":"清瀬市","address":"東京都清瀬市竹丘1-11-1","lat":35.765849,"lon":139.51142},{"name":"第8投票所","province":"東京都","city":"清瀬市","address":"東京都清瀬市梅園2-9-45","lat":35.771788,"lon":139.504655},{"name":"第9投票所","province":"東京都","city":"清瀬市","address":"東京都清瀬市野塩1-322-2","lat":35.779163,"lon":139.499466},{"name":"第10投票所","province":"東京都","city":"清瀬市","address":"東京都清瀬市元町2-16-8","lat":35.775287,"lon":139.511307},{"name":"第11投票所","province":"東京都","city":"清瀬市","address":"東京都清瀬市中里4-1301","lat":35.78652,"lon":139.514166},{"name":"第12投票所","province":"東京都","city":"清瀬市","address":"東京都清瀬市中清戸3-258-1","lat":35.775094,"lon":139.534001},{"name":"清瀬市健康センター","province":"東京都","city":"清瀬市","address":"清瀬市中里5-842","lat":35.786052,"lon":139.526353},{"name":"清瀬市しあわせ未来センター","province":"東京都","city":"清瀬市","address":"東京都清瀬市中里5丁目842","lat":35.78608019,"lon":139.52608035},{"name":"清瀬市しあわせ未来センター","province":"東京都","city":"清瀬市","address":"清瀬市中里5-842","lat":35.78557,"lon":139.52655},{"name":"清瀬市健康センター","province":"東京都","city":"清瀬市","address":"清瀬市中里5-842","lat":35.78557,"lon":139.52655},{"name":"清瀬市選挙管理委員会","province":"東京都","city":"清瀬市","address":"清瀬市中里5-842","lat":35.786055,"lon":139.526067},{"name":"期日前投票所","province":"東京都","city":"清瀬市","address":"東京都清瀬市中里5-842","lat":35.785761,"lon":139.526422},{"name":"期日前投票所","province":"東京都","city":"清瀬市","address":"東京都清瀬市元町1-2-11","lat":35.772182,"lon":139.521154},{"name":"第1投票所","province":"東京都","city":"清瀬市","address":"東京都清瀬市旭が丘2-8-1","lat":35.796663,"lon":139.539587},{"name":"第2投票所","province":"東京都","city":"清瀬市","address":"東京都清瀬市下宿2-524-1","lat":35.797491,"lon":139.533321},{"name":"第3投票所","province":"東京都","city":"清瀬市","address":"東京都清瀬市中里5-842","lat":35.786064,"lon":139.526056},{"name":"第4投票所","province":"東京都","city":"清瀬市","address":"東京都清瀬市元町1-2-11","lat":35.772182,"lon":139.521154},{"name":"第5投票所","province":"東京都","city":"清瀬市","address":"東京都清瀬市松山2-6-25","lat":35.770989,"lon":139.514809},{"name":"第6投票所","province":"東京都","city":"清瀬市","address":"東京都清瀬市松山3-1-92","lat":35.767974,"lon":139.512557},{"name":"第7投票所","province":"東京都","city":"清瀬市","address":"東京都清瀬市竹丘1-11-1","lat":35.765849,"lon":139.51142},{"name":"第8投票所","province":"東京都","city":"清瀬市","address":"東京都清瀬市梅園2-9-45","lat":35.771788,"lon":139.504655},{"name":"第9投票所","province":"東京都","city":"清瀬市","address":"東京都清瀬市野塩1-322-2","lat":35.779163,"lon":139.499466},{"name":"第10投票所","province":"東京都","city":"清瀬市","address":"東京都清瀬市元町2-16-8","lat":35.775287,"lon":139.511307},{"name":"第11投票所","province":"東京都","city":"清瀬市","address":"東京都清瀬市中里4-1301","lat":35.78652,"lon":139.514166},{"name":"第12投票所","province":"東京都","city":"清瀬市","address":"東京都清瀬市中清戸3-258-1","lat":35.775094,"lon":139.534001},{"name":"清瀬市健康センター","province":"東京都","city":"清瀬市","address":"清瀬市中里5-842","lat":35.786052,"lon":139.526353},{"name":"清瀬市しあわせ未来センター","province":"東京都","city":"清瀬市","address":"東京都清瀬市中里5丁目842","lat":35.78608019,"lon":139.52608035},{"name":"清瀬市しあわせ未来センター","province":"東京都","city":"清瀬市","address":"清瀬市中里5-842","lat":35.78557,"lon":139.52655},{"name":"清瀬市健康センター","province":"東京都","city":"清瀬市","address":"清瀬市中里5-842","lat":35.78557,"lon":139.52655},{"name":"清瀬市選挙管理委員会","province":"東京都","city":"清瀬市","address":"清瀬市中里5-842","lat":35.786055,"lon":139.526067},{"name":"期日前投票所","province":"東京都","city":"清瀬市","address":"東京都清瀬市中里5-842","lat":35.785761,"lon":139.526422},{"name":"期日前投票所","province":"東京都","city":"清瀬市","address":"東京都清瀬市元町1-2-11","lat":35.772182,"lon":139.521154},{"name":"第1投票所","province":"東京都","city":"清瀬市","address":"東京都清瀬市旭が丘2-8-1","lat":35.796663,"lon":139.539587},{"name":"第2投票所","province":"東京都","city":"清瀬市","address":"東京都清瀬市下宿2-524-1","lat":35.797491,"lon":139.533321},{"name":"第3投票所","province":"東京都","city":"清瀬市","address":"東京都清瀬市中里5-842","lat":35.786064,"lon":139.526056},{"name":"第4投票所","province":"東京都","city":"清瀬市","address":"東京都清瀬市元町1-2-11","lat":35.772182,"lon":139.521154},{"name":"第5投票所","province":"東京都","city":"清瀬市","address":"東京都清瀬市松山2-6-25","lat":35.770989,"lon":139.514809},{"name":"第6投票所","province":"東京都","city":"清瀬市","address":"東京都清瀬市松山3-1-92","lat":35.767974,"lon":139.512557},{"name":"第7投票所","province":"東京都","city":"清瀬市","address":"東京都清瀬市竹丘1-11-1","lat":35.765849,"lon":139.51142},{"name":"第8投票所","province":"東京都","city":"清瀬市","address":"東京都清瀬市梅園2-9-45","lat":35.771788,"lon":139.504655},{"name":"第9投票所","province":"東京都","city":"清瀬市","address":"東京都清瀬市野塩1-322-2","lat":35.779163,"lon":139.499466},{"name":"第10投票所","province":"東京都","city":"清瀬市","address":"東京都清瀬市元町2-16-8","lat":35.775287,"lon":139.511307},{"name":"第11投票所","province":"東京都","city":"清瀬市","address":"東京都清瀬市中里4-1301","lat":35.78652,"lon":139.514166},{"name":"第12投票所","province":"東京都","city":"清瀬市","address":"東京都清瀬市中清戸3-258-1","lat":35.775094,"lon":139.534001},{"name":"清瀬市健康センター","province":"東京都","city":"清瀬市","address":"清瀬市中里5-842","lat":35.786052,"lon":139.526353},{"name":"清瀬市しあわせ未来センター","province":"東京都","city":"清瀬市","address":"東京都清瀬市中里5丁目842","lat":35.78608019,"lon":139.52608035},{"name":"清瀬市しあわせ未来センター","province":"東京都","city":"清瀬市","address":"清瀬市中里5-842","lat":35.78557,"lon":139.52655},{"name":"清瀬市健康センター","province":"東京都","city":"清瀬市","address":"清瀬市中里5-842","lat":35.78557,"lon":139.52655},{"name":"清瀬市選挙管理委員会","province":"東京都","city":"清瀬市","address":"清瀬市中里5-842","lat":35.786055,"lon":139.526067},{"name":"期日前投票所","province":"東京都","city":"清瀬市","address":"東京都清瀬市中里5-842","lat":35.785761,"lon":139.526422},{"name":"期日前投票所","province":"東京都","city":"清瀬市","address":"東京都清瀬市元町1-2-11","lat":35.772182,"lon":139.521154},{"name":"第1投票所","province":"東京都","city":"清瀬市","address":"東京都清瀬市旭が丘2-8-1","lat":35.796663,"lon":139.539587},{"name":"第2投票所","province":"東京都","city":"清瀬市","address":"東京都清瀬市下宿2-524-1","lat":35.797491,"lon":139.533321},{"name":"第3投票所","province":"東京都","city":"清瀬市","address":"東京都清瀬市中里5-842","lat":35.786064,"lon":139.526056},{"name":"第4投票所","province":"東京都","city":"清瀬市","address":"東京都清瀬市元町1-2-11","lat":35.772182,"lon":139.521154},{"name":"第5投票所","province":"東京都","city":"清瀬市","address":"東京都清瀬市松山2-6-25","lat":35.770989,"lon":139.514809},{"name":"第6投票所","province":"東京都","city":"清瀬市","address":"東京都清瀬市松山3-1-92","lat":35.767974,"lon":139.512557},{"name":"第7投票所","province":"東京都","city":"清瀬市","address":"東京都清瀬市竹丘1-11-1","lat":35.765849,"lon":139.51142},{"name":"第8投票所","province":"東京都","city":"清瀬市","address":"東京都清瀬市梅園2-9-45","lat":35.771788,"lon":139.504655},{"name":"第9投票所","province":"東京都","city":"清瀬市","address":"東京都清瀬市野塩1-322-2","lat":35.779163,"lon":139.499466},{"name":"第10投票所","province":"東京都","city":"清瀬市","address":"東京都清瀬市元町2-16-8","lat":35.775287,"lon":139.511307},{"name":"第11投票所","province":"東京都","city":"清瀬市","address":"東京都清瀬市中里4-1301","lat":35.78652,"lon":139.514166},{"name":"第12投票所","province":"東京都","city":"清瀬市","address":"東京都清瀬市中清戸3-258-1","lat":35.775094,"lon":139.534001},{"name":"清瀬市健康センター","province":"東京都","city":"清瀬市","address":"清瀬市中里5-842","lat":35.786052,"lon":139.526353},{"name":"清瀬市しあわせ未来センター","province":"東京都","city":"清瀬市","address":"東京都清瀬市中里5丁目842","lat":35.78608019,"lon":139.52608035},{"name":"清瀬市しあわせ未来センター","province":"東京都","city":"清瀬市","address":"清瀬市中里5-842","lat":35.78557,"lon":139.52655},{"name":"清瀬市健康センター","province":"東京都","city":"清瀬市","address":"清瀬市中里5-842","lat":35.78557,"lon":139.52655},{"name":"清瀬市選挙管理委員会","province":"東京都","city":"清瀬市","address":"清瀬市中里5-842","lat":35.786055,"lon":139.526067},{"name":"期日前投票所","province":"東京都","city":"清瀬市","address":"東京都清瀬市中里5-842","lat":35.785761,"lon":139.526422},{"name":"期日前投票所","province":"東京都","city":"清瀬市","address":"東京都清瀬市元町1-2-11","lat":35.772182,"lon":139.521154},{"name":"第1投票所","province":"東京都","city":"清瀬市","address":"東京都清瀬市旭が丘2-8-1","lat":35.796663,"lon":139.539587},{"name":"第2投票所","province":"東京都","city":"清瀬市","address":"東京都清瀬市下宿2-524-1","lat":35.797491,"lon":139.533321},{"name":"第3投票所","province":"東京都","city":"清瀬市","address":"東京都清瀬市中里5-842","lat":35.786064,"lon":139.526056},{"name":"第4投票所","province":"東京都","city":"清瀬市","address":"東京都清瀬市元町1-2-11","lat":35.772182,"lon":139.521154},{"name":"第5投票所","province":"東京都","city":"清瀬市","address":"東京都清瀬市松山2-6-25","lat":35.770989,"lon":139.514809},{"name":"第6投票所","province":"東京都","city":"清瀬市","address":"東京都清瀬市松山3-1-92","lat":35.767974,"lon":139.512557},{"name":"第7投票所","province":"東京都","city":"清瀬市","address":"東京都清瀬市竹丘1-11-1","lat":35.765849,"lon":139.51142},{"name":"第8投票所","province":"東京都","city":"清瀬市","address":"東京都清瀬市梅園2-9-45","lat":35.771788,"lon":139.504655},{"name":"第9投票所","province":"東京都","city":"清瀬市","address":"東京都清瀬市野塩1-322-2","lat":35.779163,"lon":139.499466},{"name":"第10投票所","province":"東京都","city":"清瀬市","address":"東京都清瀬市元町2-16-8","lat":35.775287,"lon":139.511307},{"name":"第11投票所","province":"東京都","city":"清瀬市","address":"東京都清瀬市中里4-1301","lat":35.78652,"lon":139.514166},{"name":"第12投票所","province":"東京都","city":"清瀬市","address":"東京都清瀬市中清戸3-258-1","lat":35.775094,"lon":139.534001},{"name":"清瀬市健康センター","province":"東京都","city":"清瀬市","address":"清瀬市中里5-842","lat":35.786052,"lon":139.526353},{"name":"清瀬市しあわせ未来センター","province":"東京都","city":"清瀬市","address":"東京都清瀬市中里5丁目842","lat":35.78608019,"lon":139.52608035},{"name":"清瀬市しあわせ未来センター","province":"東京都","city":"清瀬市","address":"清瀬市中里5-842","lat":35.78557,"lon":139.52655},{"name":"清瀬市健康センター","province":"東京都","city":"清瀬市","address":"清瀬市中里5-842","lat":35.78557,"lon":139.52655},{"name":"清瀬市選挙管理委員会","province":"東京都","city":"清瀬市","address":"清瀬市中里5-842","lat":35.786055,"lon":139.526067},{"name":"期日前投票所","province":"東京都","city":"清瀬市","address":"東京都清瀬市中里5-842","lat":35.785761,"lon":139.526422},{"name":"期日前投票所","province":"東京都","city":"清瀬市","address":"東京都清瀬市元町1-2-11","lat":35.772182,"lon":139.521154},{"name":"第1投票所","province":"東京都","city":"清瀬市","address":"東京都清瀬市旭が丘2-8-1","lat":35.796663,"lon":139.539587},{"name":"第2投票所","province":"東京都","city":"清瀬市","address":"東京都清瀬市下宿2-524-1","lat":35.797491,"lon":139.533321},{"name":"第3投票所","province":"東京都","city":"清瀬市","address":"東京都清瀬市中里5-842","lat":35.786064,"lon":139.526056},{"name":"第4投票所","province":"東京都","city":"清瀬市","address":"東京都清瀬市元町1-2-11","lat":35.772182,"lon":139.521154},{"name":"第5投票所","province":"東京都","city":"清瀬市","address":"東京都清瀬市松山2-6-25","lat":35.770989,"lon":139.514809},{"name":"第6投票所","province":"東京都","city":"清瀬市","address":"東京都清瀬市松山3-1-92","lat":35.767974,"lon":139.512557},{"name":"第7投票所","province":"東京都","city":"清瀬市","address":"東京都清瀬市竹丘1-11-1","lat":35.765849,"lon":139.51142},{"name":"第8投票所","province":"東京都","city":"清瀬市","address":"東京都清瀬市梅園2-9-45","lat":35.771788,"lon":139.504655},{"name":"第9投票所","province":"東京都","city":"清瀬市","address":"東京都清瀬市野塩1-322-2","lat":35.779163,"lon":139.499466},{"name":"第10投票所","province":"東京都","city":"清瀬市","address":"東京都清瀬市元町2-16-8","lat":35.775287,"lon":139.511307},{"name":"第11投票所","province":"東京都","city":"清瀬市","address":"東京都清瀬市中里4-1301","lat":35.78652,"lon":139.514166},{"name":"第12投票所","province":"東京都","city":"清瀬市","address":"東京都清瀬市中清戸3-258-1","lat":35.775094,"lon":139.534001},{"name":"清瀬市健康センター","province":"東京都","city":"清瀬市","address":"清瀬市中里5-842","lat":35.786052,"lon":139.526353},{"name":"清瀬市しあわせ未来センター","province":"東京都","city":"清瀬市","address":"東京都清瀬市中里5丁目842","lat":35.78608019,"lon":139.52608035},{"name":"清瀬市しあわせ未来センター","province":"東京都","city":"清瀬市","address":"清瀬市中里5-842","lat":35.78557,"lon":139.52655},{"name":"清瀬市健康センター","province":"東京都","city":"清瀬市","address":"清瀬市中里5-842","lat":35.78557,"lon":139.52655},{"name":"清瀬市選挙管理委員会","province":"東京都","city":"清瀬市","address":"清瀬市中里5-842","lat":35.786055,"lon":139.526067},{"name":"期日前投票所","province":"東京都","city":"清瀬市","address":"東京都清瀬市中里5-842","lat":35.785761,"lon":139.526422},{"name":"期日前投票所","province":"東京都","city":"清瀬市","address":"東京都清瀬市元町1-2-11","lat":35.772182,"lon":139.521154},{"name":"第1投票所","province":"東京都","city":"清瀬市","address":"東京都清瀬市旭が丘2-8-1","lat":35.796663,"lon":139.539587},{"name":"第2投票所","province":"東京都","city":"清瀬市","address":"東京都清瀬市下宿2-524-1","lat":35.797491,"lon":139.533321},{"name":"第3投票所","province":"東京都","city":"清瀬市","address":"東京都清瀬市中里5-842","lat":35.786064,"lon":139.526056},{"name":"第4投票所","province":"東京都","city":"清瀬市","address":"東京都清瀬市元町1-2-11","lat":35.772182,"lon":139.521154},{"name":"第5投票所","province":"東京都","city":"清瀬市","address":"東京都清瀬市松山2-6-25","lat":35.770989,"lon":139.514809},{"name":"第6投票所","province":"東京都","city":"清瀬市","address":"東京都清瀬市松山3-1-92","lat":35.767974,"lon":139.512557},{"name":"第7投票所","province":"東京都","city":"清瀬市","address":"東京都清瀬市竹丘1-11-1","lat":35.765849,"lon":139.51142},{"name":"第8投票所","province":"東京都","city":"清瀬市","address":"東京都清瀬市梅園2-9-45","lat":35.771788,"lon":139.504655},{"name":"第9投票所","province":"東京都","city":"清瀬市","address":"東京都清瀬市野塩1-322-2","lat":35.779163,"lon":139.499466},{"name":"第10投票所","province":"東京都","city":"清瀬市","address":"東京都清瀬市元町2-16-8","lat":35.775287,"lon":139.511307},{"name":"第11投票所","province":"東京都","city":"清瀬市","address":"東京都清瀬市中里4-1301","lat":35.78652,"lon":139.514166},{"name":"第12投票所","province":"東京都","city":"清瀬市","address":"東京都清瀬市中清戸3-258-1","lat":35.775094,"lon":139.534001},{"name":"清瀬市健康センター","province":"東京都","city":"清瀬市","address":"清瀬市中里5-842","lat":35.786052,"lon":139.526353},{"name":"清瀬市しあわせ未来センター","province":"東京都","city":"清瀬市","address":"東京都清瀬市中里5丁目842","lat":35.78608019,"lon":139.52608035},{"name":"清瀬市しあわせ未来センター","province":"東京都","city":"清瀬市","address":"清瀬市中里5-842","lat":35.78557,"lon":139.52655},{"name":"清瀬市健康センター","province":"東京都","city":"清瀬市","address":"清瀬市中里5-842","lat":35.78557,"lon":139.52655},{"name":"清瀬市選挙管理委員会","province":"東京都","city":"清瀬市","address":"清瀬市中里5-842","lat":35.786055,"lon":139.526067},{"name":"期日前投票所","province":"東京都","city":"清瀬市","address":"東京都清瀬市中里5-842","lat":35.785761,"lon":139.526422},{"name":"期日前投票所","province":"東京都","city":"清瀬市","address":"東京都清瀬市元町1-2-11","lat":35.772182,"lon":139.521154},{"name":"第1投票所","province":"東京都","city":"清瀬市","address":"東京都清瀬市旭が丘2-8-1","lat":35.796663,"lon":139.539587},{"name":"第2投票所","province":"東京都","city":"清瀬市","address":"東京都清瀬市下宿2-524-1","lat":35.797491,"lon":139.533321},{"name":"第3投票所","province":"東京都","city":"清瀬市","address":"東京都清瀬市中里5-842","lat":35.786064,"lon":139.526056},{"name":"第4投票所","province":"東京都","city":"清瀬市","address":"東京都清瀬市元町1-2-11","lat":35.772182,"lon":139.521154},{"name":"第5投票所","province":"東京都","city":"清瀬市","address":"東京都清瀬市松山2-6-25","lat":35.770989,"lon":139.514809},{"name":"第6投票所","province":"東京都","city":"清瀬市","address":"東京都清瀬市松山3-1-92","lat":35.767974,"lon":139.512557},{"name":"第7投票所","province":"東京都","city":"清瀬市","address":"東京都清瀬市竹丘1-11-1","lat":35.765849,"lon":139.51142},{"name":"第8投票所","province":"東京都","city":"清瀬市","address":"東京都清瀬市梅園2-9-45","lat":35.771788,"lon":139.504655},{"name":"第9投票所","province":"東京都","city":"清瀬市","address":"東京都清瀬市野塩1-322-2","lat":35.779163,"lon":139.499466},{"name":"第10投票所","province":"東京都","city":"清瀬市","address":"東京都清瀬市元町2-16-8","lat":35.775287,"lon":139.511307},{"name":"第11投票所","province":"東京都","city":"清瀬市","address":"東京都清瀬市中里4-1301","lat":35.78652,"lon":139.514166},{"name":"第12投票所","province":"東京都","city":"清瀬市","address":"東京都清瀬市中清戸3-258-1","lat":35.775094,"lon":139.534001},{"name":"清瀬市健康センター","province":"東京都","city":"清瀬市","address":"清瀬市中里5-842","lat":35.786052,"lon":139.526353},{"name":"清瀬市しあわせ未来センター","province":"東京都","city":"清瀬市","address":"東京都清瀬市中里5丁目842","lat":35.78608019,"lon":139.52608035},{"name":"清瀬市しあわせ未来センター","province":"東京都","city":"清瀬市","address":"清瀬市中里5-842","lat":35.78557,"lon":139.52655},{"name":"清瀬市健康センター","province":"東京都","city":"清瀬市","address":"清瀬市中里5-842","lat":35.78557,"lon":139.52655},{"name":"清瀬市選挙管理委員会","province":"東京都","city":"清瀬市","address":"清瀬市中里5-842","lat":35.786055,"lon":139.526067},{"name":"期日前投票所","province":"東京都","city":"清瀬市","address":"東京都清瀬市中里5-842","lat":35.785761,"lon":139.526422},{"name":"期日前投票所","province":"東京都","city":"清瀬市","address":"東京都清瀬市元町1-2-11","lat":35.772182,"lon":139.521154},{"name":"第1投票所","province":"東京都","city":"清瀬市","address":"東京都清瀬市旭が丘2-8-1","lat":35.796663,"lon":139.539587},{"name":"第2投票所","province":"東京都","city":"清瀬市","address":"東京都清瀬市下宿2-524-1","lat":35.797491,"lon":139.533321},{"name":"第3投票所","province":"東京都","city":"清瀬市","address":"東京都清瀬市中里5-842","lat":35.786064,"lon":139.526056},{"name":"第4投票所","province":"東京都","city":"清瀬市","address":"東京都清瀬市元町1-2-11","lat":35.772182,"lon":139.521154},{"name":"第5投票所","province":"東京都","city":"清瀬市","address":"東京都清瀬市松山2-6-25","lat":35.770989,"lon":139.514809},{"name":"第6投票所","province":"東京都","city":"清瀬市","address":"東京都清瀬市松山3-1-92","lat":35.767974,"lon":139.512557},{"name":"第7投票所","province":"東京都","city":"清瀬市","address":"東京都清瀬市竹丘1-11-1","lat":35.765849,"lon":139.51142},{"name":"第8投票所","province":"東京都","city":"清瀬市","address":"東京都清瀬市梅園2-9-45","lat":35.771788,"lon":139.504655},{"name":"第9投票所","province":"東京都","city":"清瀬市","address":"東京都清瀬市野塩1-322-2","lat":35.779163,"lon":139.499466},{"name":"第10投票所","province":"東京都","city":"清瀬市","address":"東京都清瀬市元町2-16-8","lat":35.775287,"lon":139.511307},{"name":"第11投票所","province":"東京都","city":"清瀬市","address":"東京都清瀬市中里4-1301","lat":35.78652,"lon":139.514166},{"name":"第12投票所","province":"東京都","city":"清瀬市","address":"東京都清瀬市中清戸3-258-1","lat":35.775094,"lon":139.534001},{"name":"清瀬市健康センター","province":"東京都","city":"清瀬市","address":"清瀬市中里5-842","lat":35.786052,"lon":139.526353},{"name":"清瀬市しあわせ未来センター","province":"東京都","city":"清瀬市","address":"東京都清瀬市中里5丁目842","lat":35.78608019,"lon":139.52608035},{"name":"清瀬市しあわせ未来センター","province":"東京都","city":"清瀬市","address":"清瀬市中里5-842","lat":35.78557,"lon":139.52655},{"name":"清瀬市健康センター","province":"東京都","city":"清瀬市","address":"清瀬市中里5-842","lat":35.78557,"lon":139.52655},{"name":"清瀬市選挙管理委員会","province":"東京都","city":"清瀬市","address":"清瀬市中里5-842","lat":35.786055,"lon":139.526067},{"name":"期日前投票所","province":"東京都","city":"清瀬市","address":"東京都清瀬市中里5-842","lat":35.785761,"lon":139.526422},{"name":"期日前投票所","province":"東京都","city":"清瀬市","address":"東京都清瀬市元町1-2-11","lat":35.772182,"lon":139.521154},{"name":"第1投票所","province":"東京都","city":"清瀬市","address":"東京都清瀬市旭が丘2-8-1","lat":35.796663,"lon":139.539587},{"name":"第2投票所","province":"東京都","city":"清瀬市","address":"東京都清瀬市下宿2-524-1","lat":35.797491,"lon":139.533321},{"name":"第3投票所","province":"東京都","city":"清瀬市","address":"東京都清瀬市中里5-842","lat":35.786064,"lon":139.526056},{"name":"第4投票所","province":"東京都","city":"清瀬市","address":"東京都清瀬市元町1-2-11","lat":35.772182,"lon":139.521154},{"name":"第5投票所","province":"東京都","city":"清瀬市","address":"東京都清瀬市松山2-6-25","lat":35.770989,"lon":139.514809},{"name":"第6投票所","province":"東京都","city":"清瀬市","address":"東京都清瀬市松山3-1-92","lat":35.767974,"lon":139.512557},{"name":"第7投票所","province":"東京都","city":"清瀬市","address":"東京都清瀬市竹丘1-11-1","lat":35.765849,"lon":139.51142},{"name":"第8投票所","province":"東京都","city":"清瀬市","address":"東京都清瀬市梅園2-9-45","lat":35.771788,"lon":139.504655},{"name":"第9投票所","province":"東京都","city":"清瀬市","address":"東京都清瀬市野塩1-322-2","lat":35.779163,"lon":139.499466},{"name":"第10投票所","province":"東京都","city":"清瀬市","address":"東京都清瀬市元町2-16-8","lat":35.775287,"lon":139.511307},{"name":"第11投票所","province":"東京都","city":"清瀬市","address":"東京都清瀬市中里4-1301","lat":35.78652,"lon":139.514166},{"name":"第12投票所","province":"東京都","city":"清瀬市","address":"東京都清瀬市中清戸3-258-1","lat":35.775094,"lon":139.534001},{"name":"清瀬市健康センター","province":"東京都","city":"清瀬市","address":"清瀬市中里5-842","lat":35.786052,"lon":139.526353},{"name":"清瀬市しあわせ未来センター","province":"東京都","city":"清瀬市","address":"東京都清瀬市中里5丁目842","lat":35.78608019,"lon":139.52608035},{"name":"清瀬市しあわせ未来センター","province":"東京都","city":"清瀬市","address":"清瀬市中里5-842","lat":35.78557,"lon":139.52655},{"name":"清瀬市健康センター","province":"東京都","city":"清瀬市","address":"清瀬市中里5-842","lat":35.78557,"lon":139.52655},{"name":"清瀬市選挙管理委員会","province":"東京都","city":"清瀬市","address":"清瀬市中里5-842","lat":35.786055,"lon":139.526067},{"name":"期日前投票所","province":"東京都","city":"清瀬市","address":"東京都清瀬市中里5-842","lat":35.785761,"lon":139.526422},{"name":"期日前投票所","province":"東京都","city":"清瀬市","address":"東京都清瀬市元町1-2-11","lat":35.772182,"lon":139.521154},{"name":"第1投票所","province":"東京都","city":"清瀬市","address":"東京都清瀬市旭が丘2-8-1","lat":35.796663,"lon":139.539587},{"name":"第2投票所","province":"東京都","city":"清瀬市","address":"東京都清瀬市下宿2-524-1","lat":35.797491,"lon":139.533321},{"name":"第3投票所","province":"東京都","city":"清瀬市","address":"東京都清瀬市中里5-842","lat":35.786064,"lon":139.526056},{"name":"第4投票所","province":"東京都","city":"清瀬市","address":"東京都清瀬市元町1-2-11","lat":35.772182,"lon":139.521154},{"name":"第5投票所","province":"東京都","city":"清瀬市","address":"東京都清瀬市松山2-6-25","lat":35.770989,"lon":139.514809},{"name":"第6投票所","province":"東京都","city":"清瀬市","address":"東京都清瀬市松山3-1-92","lat":35.767974,"lon":139.512557},{"name":"第7投票所","province":"東京都","city":"清瀬市","address":"東京都清瀬市竹丘1-11-1","lat":35.765849,"lon":139.51142},{"name":"第8投票所","province":"東京都","city":"清瀬市","address":"東京都清瀬市梅園2-9-45","lat":35.771788,"lon":139.504655},{"name":"第9投票所","province":"東京都","city":"清瀬市","address":"東京都清瀬市野塩1-322-2","lat":35.779163,"lon":139.499466},{"name":"第10投票所","province":"東京都","city":"清瀬市","address":"東京都清瀬市元町2-16-8","lat":35.775287,"lon":139.511307},{"name":"第11投票所","province":"東京都","city":"清瀬市","address":"東京都清瀬市中里4-1301","lat":35.78652,"lon":139.514166},{"name":"第12投票所","province":"東京都","city":"清瀬市","address":"東京都清瀬市中清戸3-258-1","lat":35.775094,"lon":139.534001},{"name":"清瀬市健康センター","province":"東京都","city":"清瀬市","address":"清瀬市中里5-842","lat":35.786052,"lon":139.526353},{"name":"清瀬市しあわせ未来センター","province":"東京都","city":"清瀬市","address":"東京都清瀬市中里5丁目842","lat":35.78608019,"lon":139.52608035},{"name":"清瀬市しあわせ未来センター","province":"東京都","city":"清瀬市","address":"清瀬市中里5-842","lat":35.78557,"lon":139.52655},{"name":"清瀬市健康センター","province":"東京都","city":"清瀬市","address":"清瀬市中里5-842","lat":35.78557,"lon":139.52655},{"name":"清瀬市選挙管理委員会","province":"東京都","city":"清瀬市","address":"清瀬市中里5-842","lat":35.786055,"lon":139.526067},{"name":"期日前投票所","province":"東京都","city":"清瀬市","address":"東京都清瀬市中里5-842","lat":35.785761,"lon":139.526422},{"name":"期日前投票所","province":"東京都","city":"清瀬市","address":"東京都清瀬市元町1-2-11","lat":35.772182,"lon":139.521154},{"name":"第1投票所","province":"東京都","city":"清瀬市","address":"東京都清瀬市旭が丘2-8-1","lat":35.796663,"lon":139.539587},{"name":"第2投票所","province":"東京都","city":"清瀬市","address":"東京都清瀬市下宿2-524-1","lat":35.797491,"lon":139.533321},{"name":"第3投票所","province":"東京都","city":"清瀬市","address":"東京都清瀬市中里5-842","lat":35.786064,"lon":139.526056},{"name":"第4投票所","province":"東京都","city":"清瀬市","address":"東京都清瀬市元町1-2-11","lat":35.772182,"lon":139.521154},{"name":"第5投票所","province":"東京都","city":"清瀬市","address":"東京都清瀬市松山2-6-25","lat":35.770989,"lon":139.514809},{"name":"第6投票所","province":"東京都","city":"清瀬市","address":"東京都清瀬市松山3-1-92","lat":35.767974,"lon":139.512557},{"name":"第7投票所","province":"東京都","city":"清瀬市","address":"東京都清瀬市竹丘1-11-1","lat":35.765849,"lon":139.51142},{"name":"第8投票所","province":"東京都","city":"清瀬市","address":"東京都清瀬市梅園2-9-45","lat":35.771788,"lon":139.504655},{"name":"第9投票所","province":"東京都","city":"清瀬市","address":"東京都清瀬市野塩1-322-2","lat":35.779163,"lon":139.499466},{"name":"第10投票所","province":"東京都","city":"清瀬市","address":"東京都清瀬市元町2-16-8","lat":35.775287,"lon":139.511307},{"name":"第11投票所","province":"東京都","city":"清瀬市","address":"東京都清瀬市中里4-1301","lat":35.78652,"lon":139.514166},{"name":"第12投票所","province":"東京都","city":"清瀬市","address":"東京都清瀬市中清戸3-258-1","lat":35.775094,"lon":139.534001},{"name":"清瀬市健康センター","province":"東京都","city":"清瀬市","address":"清瀬市中里5-842","lat":35.786052,"lon":139.526353},{"name":"清瀬市しあわせ未来センター","province":"東京都","city":"清瀬市","address":"東京都清瀬市中里5丁目842","lat":35.78608019,"lon":139.52608035},{"name":"清瀬市しあわせ未来センター","province":"東京都","city":"清瀬市","address":"清瀬市中里5-842","lat":35.78557,"lon":139.52655},{"name":"清瀬市健康センター","province":"東京都","city":"清瀬市","address":"清瀬市中里5-842","lat":35.78557,"lon":139.52655},{"name":"清瀬市選挙管理委員会","province":"東京都","city":"清瀬市","address":"清瀬市中里5-842","lat":35.786055,"lon":139.526067},{"name":"期日前投票所","province":"東京都","city":"清瀬市","address":"東京都清瀬市中里5-842","lat":35.785761,"lon":139.526422},{"name":"期日前投票所","province":"東京都","city":"清瀬市","address":"東京都清瀬市元町1-2-11","lat":35.772182,"lon":139.521154},{"name":"第1投票所","province":"東京都","city":"清瀬市","address":"東京都清瀬市旭が丘2-8-1","lat":35.796663,"lon":139.539587},{"name":"第2投票所","province":"東京都","city":"清瀬市","address":"東京都清瀬市下宿2-524-1","lat":35.797491,"lon":139.533321},{"name":"第3投票所","province":"東京都","city":"清瀬市","address":"東京都清瀬市中里5-842","lat":35.786064,"lon":139.526056},{"name":"第4投票所","province":"東京都","city":"清瀬市","address":"東京都清瀬市元町1-2-11","lat":35.772182,"lon":139.521154},{"name":"第5投票所","province":"東京都","city":"清瀬市","address":"東京都清瀬市松山2-6-25","lat":35.770989,"lon":139.514809},{"name":"第6投票所","province":"東京都","city":"清瀬市","address":"東京都清瀬市松山3-1-92","lat":35.767974,"lon":139.512557},{"name":"第7投票所","province":"東京都","city":"清瀬市","address":"東京都清瀬市竹丘1-11-1","lat":35.765849,"lon":139.51142},{"name":"第8投票所","province":"東京都","city":"清瀬市","address":"東京都清瀬市梅園2-9-45","lat":35.771788,"lon":139.504655},{"name":"第9投票所","province":"東京都","city":"清瀬市","address":"東京都清瀬市野塩1-322-2","lat":35.779163,"lon":139.499466},{"name":"第10投票所","province":"東京都","city":"清瀬市","address":"東京都清瀬市元町2-16-8","lat":35.775287,"lon":139.511307},{"name":"第11投票所","province":"東京都","city":"清瀬市","address":"東京都清瀬市中里4-1301","lat":35.78652,"lon":139.514166},{"name":"第12投票所","province":"東京都","city":"清瀬市","address":"東京都清瀬市中清戸3-258-1","lat":35.775094,"lon":139.534001},{"name":"清瀬市健康センター","province":"東京都","city":"清瀬市","address":"清瀬市中里5-842","lat":35.786052,"lon":139.526353},{"name":"清瀬市しあわせ未来センター","province":"東京都","city":"清瀬市","address":"東京都清瀬市中里5丁目842","lat":35.78608019,"lon":139.52608035},{"name":"清瀬市しあわせ未来センター","province":"東京都","city":"清瀬市","address":"清瀬市中里5-842","lat":35.78557,"lon":139.52655},{"name":"清瀬市健康センター","province":"東京都","city":"清瀬市","address":"清瀬市中里5-842","lat":35.78557,"lon":139.52655},{"name":"清瀬市選挙管理委員会","province":"東京都","city":"清瀬市","address":"清瀬市中里5-842","lat":35.786055,"lon":139.526067},{"name":"期日前投票所","province":"東京都","city":"清瀬市","address":"東京都清瀬市中里5-842","lat":35.785761,"lon":139.526422},{"name":"期日前投票所","province":"東京都","city":"清瀬市","address":"東京都清瀬市元町1-2-11","lat":35.772182,"lon":139.521154},{"name":"第1投票所","province":"東京都","city":"清瀬市","address":"東京都清瀬市旭が丘2-8-1","lat":35.796663,"lon":139.539587},{"name":"第2投票所","province":"東京都","city":"清瀬市","address":"東京都清瀬市下宿2-524-1","lat":35.797491,"lon":139.533321},{"name":"第3投票所","province":"東京都","city":"清瀬市","address":"東京都清瀬市中里5-842","lat":35.786064,"lon":139.526056},{"name":"第4投票所","province":"東京都","city":"清瀬市","address":"東京都清瀬市元町1-2-11","lat":35.772182,"lon":139.521154},{"name":"第5投票所","province":"東京都","city":"清瀬市","address":"東京都清瀬市松山2-6-25","lat":35.770989,"lon":139.514809},{"name":"第6投票所","province":"東京都","city":"清瀬市","address":"東京都清瀬市松山3-1-92","lat":35.767974,"lon":139.512557},{"name":"第7投票所","province":"東京都","city":"清瀬市","address":"東京都清瀬市竹丘1-11-1","lat":35.765849,"lon":139.51142},{"name":"第8投票所","province":"東京都","city":"清瀬市","address":"東京都清瀬市梅園2-9-45","lat":35.771788,"lon":139.504655},{"name":"第9投票所","province":"東京都","city":"清瀬市","address":"東京都清瀬市野塩1-322-2","lat":35.779163,"lon":139.499466},{"name":"第10投票所","province":"東京都","city":"清瀬市","address":"東京都清瀬市元町2-16-8","lat":35.775287,"lon":139.511307},{"name":"第11投票所","province":"東京都","city":"清瀬市","address":"東京都清瀬市中里4-1301","lat":35.78652,"lon":139.514166},{"name":"第12投票所","province":"東京都","city":"清瀬市","address":"東京都清瀬市中清戸3-258-1","lat":35.775094,"lon":139.534001},{"name":"清瀬市健康センター","province":"東京都","city":"清瀬市","address":"清瀬市中里5-842","lat":35.786052,"lon":139.526353},{"name":"清瀬市しあわせ未来センター","province":"東京都","city":"清瀬市","address":"東京都清瀬市中里5丁目842","lat":35.78608019,"lon":139.52608035},{"name":"清瀬市しあわせ未来センター","province":"東京都","city":"清瀬市","address":"清瀬市中里5-842","lat":35.78557,"lon":139.52655},{"name":"清瀬市健康センター","province":"東京都","city":"清瀬市","address":"清瀬市中里5-842","lat":35.78557,"lon":139.52655},{"name":"清瀬市選挙管理委員会","province":"東京都","city":"清瀬市","address":"清瀬市中里5-842","lat":35.786055,"lon":139.526067},{"name":"期日前投票所","province":"東京都","city":"清瀬市","address":"東京都清瀬市中里5-842","lat":35.785761,"lon":139.526422},{"name":"期日前投票所","province":"東京都","city":"清瀬市","address":"東京都清瀬市元町1-2-11","lat":35.772182,"lon":139.521154},{"name":"第1投票所","province":"東京都","city":"清瀬市","address":"東京都清瀬市旭が丘2-8-1","lat":35.796663,"lon":139.539587},{"name":"第2投票所","province":"東京都","city":"清瀬市","address":"東京都清瀬市下宿2-524-1","lat":35.797491,"lon":139.533321},{"name":"第3投票所","province":"東京都","city":"清瀬市","address":"東京都清瀬市中里5-842","lat":35.786064,"lon":139.526056},{"name":"第4投票所","province":"東京都","city":"清瀬市","address":"東京都清瀬市元町1-2-11","lat":35.772182,"lon":139.521154},{"name":"第5投票所","province":"東京都","city":"清瀬市","address":"東京都清瀬市松山2-6-25","lat":35.770989,"lon":139.514809},{"name":"第6投票所","province":"東京都","city":"清瀬市","address":"東京都清瀬市松山3-1-92","lat":35.767974,"lon":139.512557},{"name":"第7投票所","province":"東京都","city":"清瀬市","address":"東京都清瀬市竹丘1-11-1","lat":35.765849,"lon":139.51142},{"name":"第8投票所","province":"東京都","city":"清瀬市","address":"東京都清瀬市梅園2-9-45","lat":35.771788,"lon":139.504655},{"name":"第9投票所","province":"東京都","city":"清瀬市","address":"東京都清瀬市野塩1-322-2","lat":35.779163,"lon":139.499466},{"name":"第10投票所","province":"東京都","city":"清瀬市","address":"東京都清瀬市元町2-16-8","lat":35.775287,"lon":139.511307},{"name":"第11投票所","province":"東京都","city":"清瀬市","address":"東京都清瀬市中里4-1301","lat":35.78652,"lon":139.514166},{"name":"第12投票所","province":"東京都","city":"清瀬市","address":"東京都清瀬市中清戸3-258-1","lat":35.775094,"lon":139.534001},{"name":"清瀬市健康センター","province":"東京都","city":"清瀬市","address":"清瀬市中里5-842","lat":35.786052,"lon":139.526353},{"name":"清瀬市しあわせ未来センター","province":"東京都","city":"清瀬市","address":"東京都清瀬市中里5丁目842","lat":35.78608019,"lon":139.52608035},{"name":"清瀬市しあわせ未来センター","province":"東京都","city":"清瀬市","address":"清瀬市中里5-842","lat":35.78557,"lon":139.52655},{"name":"清瀬市健康センター","province":"東京都","city":"清瀬市","address":"清瀬市中里5-842","lat":35.78557,"lon":139.52655},{"name":"清瀬市選挙管理委員会","province":"東京都","city":"清瀬市","address":"清瀬市中里5-842","lat":35.786055,"lon":139.526067},{"name":"期日前投票所","province":"東京都","city":"清瀬市","address":"東京都清瀬市中里5-842","lat":35.785761,"lon":139.526422},{"name":"期日前投票所","province":"東京都","city":"清瀬市","address":"東京都清瀬市元町1-2-11","lat":35.772182,"lon":139.521154},{"name":"第1投票所","province":"東京都","city":"清瀬市","address":"東京都清瀬市旭が丘2-8-1","lat":35.796663,"lon":139.539587},{"name":"第2投票所","province":"東京都","city":"清瀬市","address":"東京都清瀬市下宿2-524-1","lat":35.797491,"lon":139.533321},{"name":"第3投票所","province":"東京都","city":"清瀬市","address":"東京都清瀬市中里5-842","lat":35.786064,"lon":139.526056},{"name":"第4投票所","province":"東京都","city":"清瀬市","address":"東京都清瀬市元町1-2-11","lat":35.772182,"lon":139.521154},{"name":"第5投票所","province":"東京都","city":"清瀬市","address":"東京都清瀬市松山2-6-25","lat":35.770989,"lon":139.514809},{"name":"第6投票所","province":"東京都","city":"清瀬市","address":"東京都清瀬市松山3-1-92","lat":35.767974,"lon":139.512557},{"name":"第7投票所","province":"東京都","city":"清瀬市","address":"東京都清瀬市竹丘1-11-1","lat":35.765849,"lon":139.51142},{"name":"第8投票所","province":"東京都","city":"清瀬市","address":"東京都清瀬市梅園2-9-45","lat":35.771788,"lon":139.504655},{"name":"第9投票所","province":"東京都","city":"清瀬市","address":"東京都清瀬市野塩1-322-2","lat":35.779163,"lon":139.499466},{"name":"第10投票所","province":"東京都","city":"清瀬市","address":"東京都清瀬市元町2-16-8","lat":35.775287,"lon":139.511307},{"name":"第11投票所","province":"東京都","city":"清瀬市","address":"東京都清瀬市中里4-1301","lat":35.78652,"lon":139.514166},{"name":"第12投票所","province":"東京都","city":"清瀬市","address":"東京都清瀬市中清戸3-258-1","lat":35.775094,"lon":139.534001},{"name":"清瀬市健康センター","province":"東京都","city":"清瀬市","address":"清瀬市中里5-842","lat":35.786052,"lon":139.526353},{"name":"清瀬市しあわせ未来センター","province":"東京都","city":"清瀬市","address":"東京都清瀬市中里5丁目842","lat":35.78608019,"lon":139.52608035},{"name":"清瀬市しあわせ未来センター","province":"東京都","city":"清瀬市","address":"清瀬市中里5-842","lat":35.78557,"lon":139.52655},{"name":"清瀬市健康センター","province":"東京都","city":"清瀬市","address":"清瀬市中里5-842","lat":35.78557,"lon":139.52655},{"name":"清瀬市選挙管理委員会","province":"東京都","city":"清瀬市","address":"清瀬市中里5-842","lat":35.786055,"lon":139.526067},{"name":"期日前投票所","province":"東京都","city":"清瀬市","address":"東京都清瀬市中里5-842","lat":35.785761,"lon":139.526422},{"name":"期日前投票所","province":"東京都","city":"清瀬市","address":"東京都清瀬市元町1-2-11","lat":35.772182,"lon":139.521154},{"name":"第1投票所","province":"東京都","city":"清瀬市","address":"東京都清瀬市旭が丘2-8-1","lat":35.796663,"lon":139.539587},{"name":"第2投票所","province":"東京都","city":"清瀬市","address":"東京都清瀬市下宿2-524-1","lat":35.797491,"lon":139.533321},{"name":"第3投票所","province":"東京都","city":"清瀬市","address":"東京都清瀬市中里5-842","lat":35.786064,"lon":139.526056},{"name":"第4投票所","province":"東京都","city":"清瀬市","address":"東京都清瀬市元町1-2-11","lat":35.772182,"lon":139.521154},{"name":"第5投票所","province":"東京都","city":"清瀬市","address":"東京都清瀬市松山2-6-25","lat":35.770989,"lon":139.514809},{"name":"第6投票所","province":"東京都","city":"清瀬市","address":"東京都清瀬市松山3-1-92","lat":35.767974,"lon":139.512557},{"name":"第7投票所","province":"東京都","city":"清瀬市","address":"東京都清瀬市竹丘1-11-1","lat":35.765849,"lon":139.51142},{"name":"第8投票所","province":"東京都","city":"清瀬市","address":"東京都清瀬市梅園2-9-45","lat":35.771788,"lon":139.504655},{"name":"第9投票所","province":"東京都","city":"清瀬市","address":"東京都清瀬市野塩1-322-2","lat":35.779163,"lon":139.499466},{"name":"第10投票所","province":"東京都","city":"清瀬市","address":"東京都清瀬市元町2-16-8","lat":35.775287,"lon":139.511307},{"name":"第11投票所","province":"東京都","city":"清瀬市","address":"東京都清瀬市中里4-1301","lat":35.78652,"lon":139.514166},{"name":"第12投票所","province":"東京都","city":"清瀬市","address":"東京都清瀬市中清戸3-258-1","lat":35.775094,"lon":139.534001},{"name":"清瀬市健康センター","province":"東京都","city":"清瀬市","address":"清瀬市中里5-842","lat":35.786052,"lon":139.526353},{"name":"清瀬市しあわせ未来センター","province":"東京都","city":"清瀬市","address":"東京都清瀬市中里5丁目842","lat":35.78608019,"lon":139.52608035},{"name":"清瀬市しあわせ未来センター","province":"東京都","city":"清瀬市","address":"清瀬市中里5-842","lat":35.78557,"lon":139.52655},{"name":"清瀬市健康センター","province":"東京都","city":"清瀬市","address":"清瀬市中里5-842","lat":35.78557,"lon":139.52655},{"name":"清瀬市選挙管理委員会","province":"東京都","city":"清瀬市","address":"清瀬市中里5-842","lat":35.786055,"lon":139.526067},{"name":"期日前投票所","province":"東京都","city":"清瀬市","address":"東京都清瀬市中里5-842","lat":35.785761,"lon":139.526422},{"name":"期日前投票所","province":"東京都","city":"清瀬市","address":"東京都清瀬市元町1-2-11","lat":35.772182,"lon":139.521154},{"name":"第1投票所","province":"東京都","city":"清瀬市","address":"東京都清瀬市旭が丘2-8-1","lat":35.796663,"lon":139.539587},{"name":"第2投票所","province":"東京都","city":"清瀬市","address":"東京都清瀬市下宿2-524-1","lat":35.797491,"lon":139.533321},{"name":"第3投票所","province":"東京都","city":"清瀬市","address":"東京都清瀬市中里5-842","lat":35.786064,"lon":139.526056},{"name":"第4投票所","province":"東京都","city":"清瀬市","address":"東京都清瀬市元町1-2-11","lat":35.772182,"lon":139.521154},{"name":"第5投票所","province":"東京都","city":"清瀬市","address":"東京都清瀬市松山2-6-25","lat":35.770989,"lon":139.514809},{"name":"第6投票所","province":"東京都","city":"清瀬市","address":"東京都清瀬市松山3-1-92","lat":35.767974,"lon":139.512557},{"name":"第7投票所","province":"東京都","city":"清瀬市","address":"東京都清瀬市竹丘1-11-1","lat":35.765849,"lon":139.51142},{"name":"第8投票所","province":"東京都","city":"清瀬市","address":"東京都清瀬市梅園2-9-45","lat":35.771788,"lon":139.504655},{"name":"第9投票所","province":"東京都","city":"清瀬市","address":"東京都清瀬市野塩1-322-2","lat":35.779163,"lon":139.499466},{"name":"第10投票所","province":"東京都","city":"清瀬市","address":"東京都清瀬市元町2-16-8","lat":35.775287,"lon":139.511307},{"name":"第11投票所","province":"東京都","city":"清瀬市","address":"東京都清瀬市中里4-1301","lat":35.78652,"lon":139.514166},{"name":"第12投票所","province":"東京都","city":"清瀬市","address":"東京都清瀬市中清戸3-258-1","lat":35.775094,"lon":139.534001},{"name":"清瀬市健康センター","province":"東京都","city":"清瀬市","address":"清瀬市中里5-842","lat":35.786052,"lon":139.526353},{"name":"清瀬市しあわせ未来センター","province":"東京都","city":"清瀬市","address":"東京都清瀬市中里5丁目842","lat":35.78608019,"lon":139.52608035},{"name":"清瀬市しあわせ未来センター","province":"東京都","city":"清瀬市","address":"清瀬市中里5-842","lat":35.78557,"lon":139.52655},{"name":"清瀬市健康センター","province":"東京都","city":"清瀬市","address":"清瀬市中里5-842","lat":35.78557,"lon":139.52655},{"name":"清瀬市選挙管理委員会","province":"東京都","city":"清瀬市","address":"清瀬市中里5-842","lat":35.786055,"lon":139.526067},{"name":"期日前投票所","province":"東京都","city":"清瀬市","address":"東京都清瀬市中里5-842","lat":35.785761,"lon":139.526422},{"name":"期日前投票所","province":"東京都","city":"清瀬市","address":"東京都清瀬市元町1-2-11","lat":35.772182,"lon":139.521154},{"name":"第1投票所","province":"東京都","city":"清瀬市","address":"東京都清瀬市旭が丘2-8-1","lat":35.796663,"lon":139.539587},{"name":"第2投票所","province":"東京都","city":"清瀬市","address":"東京都清瀬市下宿2-524-1","lat":35.797491,"lon":139.533321},{"name":"第3投票所","province":"東京都","city":"清瀬市","address":"東京都清瀬市中里5-842","lat":35.786064,"lon":139.526056},{"name":"第4投票所","province":"東京都","city":"清瀬市","address":"東京都清瀬市元町1-2-11","lat":35.772182,"lon":139.521154},{"name":"第5投票所","province":"東京都","city":"清瀬市","address":"東京都清瀬市松山2-6-25","lat":35.770989,"lon":139.514809},{"name":"第6投票所","province":"東京都","city":"清瀬市","address":"東京都清瀬市松山3-1-92","lat":35.767974,"lon":139.512557},{"name":"第7投票所","province":"東京都","city":"清瀬市","address":"東京都清瀬市竹丘1-11-1","lat":35.765849,"lon":139.51142},{"name":"第8投票所","province":"東京都","city":"清瀬市","address":"東京都清瀬市梅園2-9-45","lat":35.771788,"lon":139.504655},{"name":"第9投票所","province":"東京都","city":"清瀬市","address":"東京都清瀬市野塩1-322-2","lat":35.779163,"lon":139.499466},{"name":"第10投票所","province":"東京都","city":"清瀬市","address":"東京都清瀬市元町2-16-8","lat":35.775287,"lon":139.511307},{"name":"第11投票所","province":"東京都","city":"清瀬市","address":"東京都清瀬市中里4-1301","lat":35.78652,"lon":139.514166},{"name":"第12投票所","province":"東京都","city":"清瀬市","address":"東京都清瀬市中清戸3-258-1","lat":35.775094,"lon":139.534001},{"name":"清瀬市健康センター","province":"東京都","city":"清瀬市","address":"清瀬市中里5-842","lat":35.786052,"lon":139.526353},{"name":"清瀬市しあわせ未来センター","province":"東京都","city":"清瀬市","address":"東京都清瀬市中里5丁目842","lat":35.78608019,"lon":139.52608035},{"name":"清瀬市しあわせ未来センター","province":"東京都","city":"清瀬市","address":"清瀬市中里5-842","lat":35.78557,"lon":139.52655},{"name":"清瀬市健康センター","province":"東京都","city":"清瀬市","address":"清瀬市中里5-842","lat":35.78557,"lon":139.52655},{"name":"清瀬市選挙管理委員会","province":"東京都","city":"清瀬市","address":"清瀬市中里5-842","lat":35.786055,"lon":139.526067},{"name":"期日前投票所","province":"東京都","city":"清瀬市","address":"東京都清瀬市中里5-842","lat":35.785761,"lon":139.526422},{"name":"期日前投票所","province":"東京都","city":"清瀬市","address":"東京都清瀬市元町1-2-11","lat":35.772182,"lon":139.521154},{"name":"第1投票所","province":"東京都","city":"清瀬市","address":"東京都清瀬市旭が丘2-8-1","lat":35.796663,"lon":139.539587},{"name":"第2投票所","province":"東京都","city":"清瀬市","address":"東京都清瀬市下宿2-524-1","lat":35.797491,"lon":139.533321},{"name":"第3投票所","province":"東京都","city":"清瀬市","address":"東京都清瀬市中里5-842","lat":35.786064,"lon":139.526056},{"name":"第4投票所","province":"東京都","city":"清瀬市","address":"東京都清瀬市元町1-2-11","lat":35.772182,"lon":139.521154},{"name":"第5投票所","province":"東京都","city":"清瀬市","address":"東京都清瀬市松山2-6-25","lat":35.770989,"lon":139.514809},{"name":"第6投票所","province":"東京都","city":"清瀬市","address":"東京都清瀬市松山3-1-92","lat":35.767974,"lon":139.512557},{"name":"第7投票所","province":"東京都","city":"清瀬市","address":"東京都清瀬市竹丘1-11-1","lat":35.765849,"lon":139.51142},{"name":"第8投票所","province":"東京都","city":"清瀬市","address":"東京都清瀬市梅園2-9-45","lat":35.771788,"lon":139.504655},{"name":"第9投票所","province":"東京都","city":"清瀬市","address":"東京都清瀬市野塩1-322-2","lat":35.779163,"lon":139.499466},{"name":"第10投票所","province":"東京都","city":"清瀬市","address":"東京都清瀬市元町2-16-8","lat":35.775287,"lon":139.511307},{"name":"第11投票所","province":"東京都","city":"清瀬市","address":"東京都清瀬市中里4-1301","lat":35.78652,"lon":139.514166},{"name":"第12投票所","province":"東京都","city":"清瀬市","address":"東京都清瀬市中清戸3-258-1","lat":35.775094,"lon":139.534001},{"name":"清瀬市健康センター","province":"東京都","city":"清瀬市","address":"清瀬市中里5-842","lat":35.786052,"lon":139.526353},{"name":"清瀬市しあわせ未来センター","province":"東京都","city":"清瀬市","address":"東京都清瀬市中里5丁目842","lat":35.78608019,"lon":139.52608035},{"name":"清瀬市しあわせ未来センター","province":"東京都","city":"清瀬市","address":"清瀬市中里5-842","lat":35.78557,"lon":139.52655},{"name":"清瀬市健康センター","province":"東京都","city":"清瀬市","address":"清瀬市中里5-842","lat":35.78557,"lon":139.52655},{"name":"清瀬市選挙管理委員会","province":"東京都","city":"清瀬市","address":"清瀬市中里5-842","lat":35.786055,"lon":139.526067},{"name":"期日前投票所","province":"東京都","city":"清瀬市","address":"東京都清瀬市中里5-842","lat":35.785761,"lon":139.526422},{"name":"期日前投票所","province":"東京都","city":"清瀬市","address":"東京都清瀬市元町1-2-11","lat":35.772182,"lon":139.521154},{"name":"第1投票所","province":"東京都","city":"清瀬市","address":"東京都清瀬市旭が丘2-8-1","lat":35.796663,"lon":139.539587},{"name":"第2投票所","province":"東京都","city":"清瀬市","address":"東京都清瀬市下宿2-524-1","lat":35.797491,"lon":139.533321},{"name":"第3投票所","province":"東京都","city":"清瀬市","address":"東京都清瀬市中里5-842","lat":35.786064,"lon":139.526056},{"name":"第4投票所","province":"東京都","city":"清瀬市","address":"東京都清瀬市元町1-2-11","lat":35.772182,"lon":139.521154},{"name":"第5投票所","province":"東京都","city":"清瀬市","address":"東京都清瀬市松山2-6-25","lat":35.770989,"lon":139.514809},{"name":"第6投票所","province":"東京都","city":"清瀬市","address":"東京都清瀬市松山3-1-92","lat":35.767974,"lon":139.512557},{"name":"第7投票所","province":"東京都","city":"清瀬市","address":"東京都清瀬市竹丘1-11-1","lat":35.765849,"lon":139.51142},{"name":"第8投票所","province":"東京都","city":"清瀬市","address":"東京都清瀬市梅園2-9-45","lat":35.771788,"lon":139.504655},{"name":"第9投票所","province":"東京都","city":"清瀬市","address":"東京都清瀬市野塩1-322-2","lat":35.779163,"lon":139.499466},{"name":"第10投票所","province":"東京都","city":"清瀬市","address":"東京都清瀬市元町2-16-8","lat":35.775287,"lon":139.511307},{"name":"第11投票所","province":"東京都","city":"清瀬市","address":"東京都清瀬市中里4-1301","lat":35.78652,"lon":139.514166},{"name":"第12投票所","province":"東京都","city":"清瀬市","address":"東京都清瀬市中清戸3-258-1","lat":35.775094,"lon":139.534001},{"name":"清瀬市健康センター","province":"東京都","city":"清瀬市","address":"清瀬市中里5-842","lat":35.786052,"lon":139.526353},{"name":"清瀬市しあわせ未来センター","province":"東京都","city":"清瀬市","address":"東京都清瀬市中里5丁目842","lat":35.78608019,"lon":139.52608035},{"name":"清瀬市しあわせ未来センター","province":"東京都","city":"清瀬市","address":"清瀬市中里5-842","lat":35.78557,"lon":139.52655},{"name":"清瀬市健康センター","province":"東京都","city":"清瀬市","address":"清瀬市中里5-842","lat":35.78557,"lon":139.52655},{"name":"清瀬市選挙管理委員会","province":"東京都","city":"清瀬市","address":"清瀬市中里5-842","lat":35.786055,"lon":139.526067},{"name":"期日前投票所","province":"東京都","city":"清瀬市","address":"東京都清瀬市中里5-842","lat":35.785761,"lon":139.526422},{"name":"期日前投票所","province":"東京都","city":"清瀬市","address":"東京都清瀬市元町1-2-11","lat":35.772182,"lon":139.521154},{"name":"第1投票所","province":"東京都","city":"清瀬市","address":"東京都清瀬市旭が丘2-8-1","lat":35.796663,"lon":139.539587},{"name":"第2投票所","province":"東京都","city":"清瀬市","address":"東京都清瀬市下宿2-524-1","lat":35.797491,"lon":139.533321},{"name":"第3投票所","province":"東京都","city":"清瀬市","address":"東京都清瀬市中里5-842","lat":35.786064,"lon":139.526056},{"name":"第4投票所","province":"東京都","city":"清瀬市","address":"東京都清瀬市元町1-2-11","lat":35.772182,"lon":139.521154},{"name":"第5投票所","province":"東京都","city":"清瀬市","address":"東京都清瀬市松山2-6-25","lat":35.770989,"lon":139.514809},{"name":"第6投票所","province":"東京都","city":"清瀬市","address":"東京都清瀬市松山3-1-92","lat":35.767974,"lon":139.512557},{"name":"第7投票所","province":"東京都","city":"清瀬市","address":"東京都清瀬市竹丘1-11-1","lat":35.765849,"lon":139.51142},{"name":"第8投票所","province":"東京都","city":"清瀬市","address":"東京都清瀬市梅園2-9-45","lat":35.771788,"lon":139.504655},{"name":"第9投票所","province":"東京都","city":"清瀬市","address":"東京都清瀬市野塩1-322-2","lat":35.779163,"lon":139.499466},{"name":"第10投票所","province":"東京都","city":"清瀬市","address":"東京都清瀬市元町2-16-8","lat":35.775287,"lon":139.511307},{"name":"第11投票所","province":"東京都","city":"清瀬市","address":"東京都清瀬市中里4-1301","lat":35.78652,"lon":139.514166},{"name":"第12投票所","province":"東京都","city":"清瀬市","address":"東京都清瀬市中清戸3-258-1","lat":35.775094,"lon":139.534001},{"name":"清瀬市健康センター","province":"東京都","city":"清瀬市","address":"清瀬市中里5-842","lat":35.786052,"lon":139.526353},{"name":"清瀬市しあわせ未来センター","province":"東京都","city":"清瀬市","address":"東京都清瀬市中里5丁目842","lat":35.78608019,"lon":139.52608035},{"name":"清瀬市しあわせ未来センター","province":"東京都","city":"清瀬市","address":"清瀬市中里5-842","lat":35.78557,"lon":139.52655},{"name":"清瀬市健康センター","province":"東京都","city":"清瀬市","address":"清瀬市中里5-842","lat":35.78557,"lon":139.52655},{"name":"清瀬市選挙管理委員会","province":"東京都","city":"清瀬市","address":"清瀬市中里5-842","lat":35.786055,"lon":139.526067},{"name":"期日前投票所","province":"東京都","city":"清瀬市","address":"東京都清瀬市中里5-842","lat":35.785761,"lon":139.526422},{"name":"期日前投票所","province":"東京都","city":"清瀬市","address":"東京都清瀬市元町1-2-11","lat":35.772182,"lon":139.521154},{"name":"第1投票所","province":"東京都","city":"清瀬市","address":"東京都清瀬市旭が丘2-8-1","lat":35.796663,"lon":139.539587},{"name":"第2投票所","province":"東京都","city":"清瀬市","address":"東京都清瀬市下宿2-524-1","lat":35.797491,"lon":139.533321},{"name":"第3投票所","province":"東京都","city":"清瀬市","address":"東京都清瀬市中里5-842","lat":35.786064,"lon":139.526056},{"name":"第4投票所","province":"東京都","city":"清瀬市","address":"東京都清瀬市元町1-2-11","lat":35.772182,"lon":139.521154},{"name":"第5投票所","province":"東京都","city":"清瀬市","address":"東京都清瀬市松山2-6-25","lat":35.770989,"lon":139.514809},{"name":"第6投票所","province":"東京都","city":"清瀬市","address":"東京都清瀬市松山3-1-92","lat":35.767974,"lon":139.512557},{"name":"第7投票所","province":"東京都","city":"清瀬市","address":"東京都清瀬市竹丘1-11-1","lat":35.765849,"lon":139.51142},{"name":"第8投票所","province":"東京都","city":"清瀬市","address":"東京都清瀬市梅園2-9-45","lat":35.771788,"lon":139.504655},{"name":"第9投票所","province":"東京都","city":"清瀬市","address":"東京都清瀬市野塩1-322-2","lat":35.779163,"lon":139.499466},{"name":"第10投票所","province":"東京都","city":"清瀬市","address":"東京都清瀬市元町2-16-8","lat":35.775287,"lon":139.511307},{"name":"第11投票所","province":"東京都","city":"清瀬市","address":"東京都清瀬市中里4-1301","lat":35.78652,"lon":139.514166},{"name":"第12投票所","province":"東京都","city":"清瀬市","address":"東京都清瀬市中清戸3-258-1","lat":35.775094,"lon":139.534001},{"name":"清瀬市健康センター","province":"東京都","city":"清瀬市","address":"清瀬市中里5-842","lat":35.786052,"lon":139.526353},{"name":"清瀬市しあわせ未来センター","province":"東京都","city":"清瀬市","address":"東京都清瀬市中里5丁目842","lat":35.78608019,"lon":139.52608035},{"name":"清瀬市しあわせ未来センター","province":"東京都","city":"清瀬市","address":"清瀬市中里5-842","lat":35.78557,"lon":139.52655},{"name":"清瀬市健康センター","province":"東京都","city":"清瀬市","address":"清瀬市中里5-842","lat":35.78557,"lon":139.52655},{"name":"清瀬市選挙管理委員会","province":"東京都","city":"清瀬市","address":"清瀬市中里5-842","lat":35.786055,"lon":139.526067},{"name":"期日前投票所","province":"東京都","city":"清瀬市","address":"東京都清瀬市中里5-842","lat":35.785761,"lon":139.526422},{"name":"期日前投票所","province":"東京都","city":"清瀬市","address":"東京都清瀬市元町1-2-11","lat":35.772182,"lon":139.521154},{"name":"第1投票所","province":"東京都","city":"清瀬市","address":"東京都清瀬市旭が丘2-8-1","lat":35.796663,"lon":139.539587},{"name":"第2投票所","province":"東京都","city":"清瀬市","address":"東京都清瀬市下宿2-524-1","lat":35.797491,"lon":139.533321},{"name":"第3投票所","province":"東京都","city":"清瀬市","address":"東京都清瀬市中里5-842","lat":35.786064,"lon":139.526056},{"name":"第4投票所","province":"東京都","city":"清瀬市","address":"東京都清瀬市元町1-2-11","lat":35.772182,"lon":139.521154},{"name":"第5投票所","province":"東京都","city":"清瀬市","address":"東京都清瀬市松山2-6-25","lat":35.770989,"lon":139.514809},{"name":"第6投票所","province":"東京都","city":"清瀬市","address":"東京都清瀬市松山3-1-92","lat":35.767974,"lon":139.512557},{"name":"第7投票所","province":"東京都","city":"清瀬市","address":"東京都清瀬市竹丘1-11-1","lat":35.765849,"lon":139.51142},{"name":"第8投票所","province":"東京都","city":"清瀬市","address":"東京都清瀬市梅園2-9-45","lat":35.771788,"lon":139.504655},{"name":"第9投票所","province":"東京都","city":"清瀬市","address":"東京都清瀬市野塩1-322-2","lat":35.779163,"lon":139.499466},{"name":"第10投票所","province":"東京都","city":"清瀬市","address":"東京都清瀬市元町2-16-8","lat":35.775287,"lon":139.511307},{"name":"第11投票所","province":"東京都","city":"清瀬市","address":"東京都清瀬市中里4-1301","lat":35.78652,"lon":139.514166},{"name":"第12投票所","province":"東京都","city":"清瀬市","address":"東京都清瀬市中清戸3-258-1","lat":35.775094,"lon":139.534001},{"name":"清瀬市健康センター","province":"東京都","city":"清瀬市","address":"清瀬市中里5-842","lat":35.786052,"lon":139.526353},{"name":"清瀬市しあわせ未来センター","province":"東京都","city":"清瀬市","address":"東京都清瀬市中里5丁目842","lat":35.78608019,"lon":139.52608035},{"name":"清瀬市しあわせ未来センター","province":"東京都","city":"清瀬市","address":"清瀬市中里5-842","lat":35.78557,"lon":139.52655},{"name":"清瀬市健康センター","province":"東京都","city":"清瀬市","address":"清瀬市中里5-842","lat":35.78557,"lon":139.52655},{"name":"清瀬市選挙管理委員会","province":"東京都","city":"清瀬市","address":"清瀬市中里5-842","lat":35.786055,"lon":139.526067},{"name":"期日前投票所","province":"東京都","city":"清瀬市","address":"東京都清瀬市中里5-842","lat":35.785761,"lon":139.526422},{"name":"期日前投票所","province":"東京都","city":"清瀬市","address":"東京都清瀬市元町1-2-11","lat":35.772182,"lon":139.521154},{"name":"第1投票所","province":"東京都","city":"清瀬市","address":"東京都清瀬市旭が丘2-8-1","lat":35.796663,"lon":139.539587},{"name":"第2投票所","province":"東京都","city":"清瀬市","address":"東京都清瀬市下宿2-524-1","lat":35.797491,"lon":139.533321},{"name":"第3投票所","province":"東京都","city":"清瀬市","address":"東京都清瀬市中里5-842","lat":35.786064,"lon":139.526056},{"name":"第4投票所","province":"東京都","city":"清瀬市","address":"東京都清瀬市元町1-2-11","lat":35.772182,"lon":139.521154},{"name":"第5投票所","province":"東京都","city":"清瀬市","address":"東京都清瀬市松山2-6-25","lat":35.770989,"lon":139.514809},{"name":"第6投票所","province":"東京都","city":"清瀬市","address":"東京都清瀬市松山3-1-92","lat":35.767974,"lon":139.512557},{"name":"第7投票所","province":"東京都","city":"清瀬市","address":"東京都清瀬市竹丘1-11-1","lat":35.765849,"lon":139.51142},{"name":"第8投票所","province":"東京都","city":"清瀬市","address":"東京都清瀬市梅園2-9-45","lat":35.771788,"lon":139.504655},{"name":"第9投票所","province":"東京都","city":"清瀬市","address":"東京都清瀬市野塩1-322-2","lat":35.779163,"lon":139.499466},{"name":"第10投票所","province":"東京都","city":"清瀬市","address":"東京都清瀬市元町2-16-8","lat":35.775287,"lon":139.511307},{"name":"第11投票所","province":"東京都","city":"清瀬市","address":"東京都清瀬市中里4-1301","lat":35.78652,"lon":139.514166},{"name":"第12投票所","province":"東京都","city":"清瀬市","address":"東京都清瀬市中清戸3-258-1","lat":35.775094,"lon":139.534001},{"name":"清瀬市健康センター","province":"東京都","city":"清瀬市","address":"清瀬市中里5-842","lat":35.786052,"lon":139.526353},{"name":"清瀬市しあわせ未来センター","province":"東京都","city":"清瀬市","address":"東京都清瀬市中里5丁目842","lat":35.78608019,"lon":139.52608035},{"name":"清瀬市しあわせ未来センター","province":"東京都","city":"清瀬市","address":"清瀬市中里5-842","lat":35.78557,"lon":139.52655},{"name":"清瀬市健康センター","province":"東京都","city":"清瀬市","address":"清瀬市中里5-842","lat":35.78557,"lon":139.52655},{"name":"清瀬市選挙管理委員会","province":"東京都","city":"清瀬市","address":"清瀬市中里5-842","lat":35.786055,"lon":139.526067},{"name":"期日前投票所","province":"東京都","city":"清瀬市","address":"東京都清瀬市中里5-842","lat":35.785761,"lon":139.526422},{"name":"期日前投票所","province":"東京都","city":"清瀬市","address":"東京都清瀬市元町1-2-11","lat":35.772182,"lon":139.521154},{"name":"第1投票所","province":"東京都","city":"清瀬市","address":"東京都清瀬市旭が丘2-8-1","lat":35.796663,"lon":139.539587},{"name":"第2投票所","province":"東京都","city":"清瀬市","address":"東京都清瀬市下宿2-524-1","lat":35.797491,"lon":139.533321},{"name":"第3投票所","province":"東京都","city":"清瀬市","address":"東京都清瀬市中里5-842","lat":35.786064,"lon":139.526056},{"name":"第4投票所","province":"東京都","city":"清瀬市","address":"東京都清瀬市元町1-2-11","lat":35.772182,"lon":139.521154},{"name":"第5投票所","province":"東京都","city":"清瀬市","address":"東京都清瀬市松山2-6-25","lat":35.770989,"lon":139.514809},{"name":"第6投票所","province":"東京都","city":"清瀬市","address":"東京都清瀬市松山3-1-92","lat":35.767974,"lon":139.512557},{"name":"第7投票所","province":"東京都","city":"清瀬市","address":"東京都清瀬市竹丘1-11-1","lat":35.765849,"lon":139.51142},{"name":"第8投票所","province":"東京都","city":"清瀬市","address":"東京都清瀬市梅園2-9-45","lat":35.771788,"lon":139.504655},{"name":"第9投票所","province":"東京都","city":"清瀬市","address":"東京都清瀬市野塩1-322-2","lat":35.779163,"lon":139.499466},{"name":"第10投票所","province":"東京都","city":"清瀬市","address":"東京都清瀬市元町2-16-8","lat":35.775287,"lon":139.511307},{"name":"第11投票所","province":"東京都","city":"清瀬市","address":"東京都清瀬市中里4-1301","lat":35.78652,"lon":139.514166},{"name":"第12投票所","province":"東京都","city":"清瀬市","address":"東京都清瀬市中清戸3-258-1","lat":35.775094,"lon":139.534001},{"name":"清瀬市健康センター","province":"東京都","city":"清瀬市","address":"清瀬市中里5-842","lat":35.786052,"lon":139.526353},{"name":"清瀬市しあわせ未来センター","province":"東京都","city":"清瀬市","address":"東京都清瀬市中里5丁目842","lat":35.78608019,"lon":139.52608035},{"name":"清瀬市しあわせ未来センター","province":"東京都","city":"清瀬市","address":"清瀬市中里5-842","lat":35.78557,"lon":139.52655},{"name":"清瀬市健康センター","province":"東京都","city":"清瀬市","address":"清瀬市中里5-842","lat":35.78557,"lon":139.52655},{"name":"清瀬市選挙管理委員会","province":"東京都","city":"清瀬市","address":"清瀬市中里5-842","lat":35.786055,"lon":139.526067},{"name":"期日前投票所","province":"東京都","city":"清瀬市","address":"東京都清瀬市中里5-842","lat":35.785761,"lon":139.526422},{"name":"期日前投票所","province":"東京都","city":"清瀬市","address":"東京都清瀬市元町1-2-11","lat":35.772182,"lon":139.521154},{"name":"第1投票所","province":"東京都","city":"清瀬市","address":"東京都清瀬市旭が丘2-8-1","lat":35.796663,"lon":139.539587},{"name":"第2投票所","province":"東京都","city":"清瀬市","address":"東京都清瀬市下宿2-524-1","lat":35.797491,"lon":139.533321},{"name":"第3投票所","province":"東京都","city":"清瀬市","address":"東京都清瀬市中里5-842","lat":35.786064,"lon":139.526056},{"name":"第4投票所","province":"東京都","city":"清瀬市","address":"東京都清瀬市元町1-2-11","lat":35.772182,"lon":139.521154},{"name":"第5投票所","province":"東京都","city":"清瀬市","address":"東京都清瀬市松山2-6-25","lat":35.770989,"lon":139.514809},{"name":"第6投票所","province":"東京都","city":"清瀬市","address":"東京都清瀬市松山3-1-92","lat":35.767974,"lon":139.512557},{"name":"第7投票所","province":"東京都","city":"清瀬市","address":"東京都清瀬市竹丘1-11-1","lat":35.765849,"lon":139.51142},{"name":"第8投票所","province":"東京都","city":"清瀬市","address":"東京都清瀬市梅園2-9-45","lat":35.771788,"lon":139.504655},{"name":"第9投票所","province":"東京都","city":"清瀬市","address":"東京都清瀬市野塩1-322-2","lat":35.779163,"lon":139.499466},{"name":"第10投票所","province":"東京都","city":"清瀬市","address":"東京都清瀬市元町2-16-8","lat":35.775287,"lon":139.511307},{"name":"第11投票所","province":"東京都","city":"清瀬市","address":"東京都清瀬市中里4-1301","lat":35.78652,"lon":139.514166},{"name":"第12投票所","province":"東京都","city":"清瀬市","address":"東京都清瀬市中清戸3-258-1","lat":35.775094,"lon":139.534001},{"name":"清瀬市健康センター","province":"東京都","city":"清瀬市","address":"清瀬市中里5-842","lat":35.786052,"lon":139.526353},{"name":"清瀬市しあわせ未来センター","province":"東京都","city":"清瀬市","address":"東京都清瀬市中里5丁目842","lat":35.78608019,"lon":139.52608035},{"name":"清瀬市しあわせ未来センター","province":"東京都","city":"清瀬市","address":"清瀬市中里5-842","lat":35.78557,"lon":139.52655},{"name":"清瀬市健康センター","province":"東京都","city":"清瀬市","address":"清瀬市中里5-842","lat":35.78557,"lon":139.52655},{"name":"清瀬市選挙管理委員会","province":"東京都","city":"清瀬市","address":"清瀬市中里5-842","lat":35.786055,"lon":139.526067},{"name":"期日前投票所","province":"東京都","city":"清瀬市","address":"東京都清瀬市中里5-842","lat":35.785761,"lon":139.526422},{"name":"期日前投票所","province":"東京都","city":"清瀬市","address":"東京都清瀬市元町1-2-11","lat":35.772182,"lon":139.521154},{"name":"第1投票所","province":"東京都","city":"清瀬市","address":"東京都清瀬市旭が丘2-8-1","lat":35.796663,"lon":139.539587},{"name":"第2投票所","province":"東京都","city":"清瀬市","address":"東京都清瀬市下宿2-524-1","lat":35.797491,"lon":139.533321},{"name":"第3投票所","province":"東京都","city":"清瀬市","address":"東京都清瀬市中里5-842","lat":35.786064,"lon":139.526056},{"name":"第4投票所","province":"東京都","city":"清瀬市","address":"東京都清瀬市元町1-2-11","lat":35.772182,"lon":139.521154},{"name":"第5投票所","province":"東京都","city":"清瀬市","address":"東京都清瀬市松山2-6-25","lat":35.770989,"lon":139.514809},{"name":"第6投票所","province":"東京都","city":"清瀬市","address":"東京都清瀬市松山3-1-92","lat":35.767974,"lon":139.512557},{"name":"第7投票所","province":"東京都","city":"清瀬市","address":"東京都清瀬市竹丘1-11-1","lat":35.765849,"lon":139.51142},{"name":"第8投票所","province":"東京都","city":"清瀬市","address":"東京都清瀬市梅園2-9-45","lat":35.771788,"lon":139.504655},{"name":"第9投票所","province":"東京都","city":"清瀬市","address":"東京都清瀬市野塩1-322-2","lat":35.779163,"lon":139.499466},{"name":"第10投票所","province":"東京都","city":"清瀬市","address":"東京都清瀬市元町2-16-8","lat":35.775287,"lon":139.511307},{"name":"第11投票所","province":"東京都","city":"清瀬市","address":"東京都清瀬市中里4-1301","lat":35.78652,"lon":139.514166},{"name":"第12投票所","province":"東京都","city":"清瀬市","address":"東京都清瀬市中清戸3-258-1","lat":35.775094,"lon":139.534001},{"name":"清瀬市健康センター","province":"東京都","city":"清瀬市","address":"清瀬市中里5-842","lat":35.786052,"lon":139.526353},{"name":"清瀬市しあわせ未来センター","province":"東京都","city":"清瀬市","address":"東京都清瀬市中里5丁目842","lat":35.78608019,"lon":139.52608035},{"name":"清瀬市しあわせ未来センター","province":"東京都","city":"清瀬市","address":"清瀬市中里5-842","lat":35.78557,"lon":139.52655},{"name":"清瀬市健康センター","province":"東京都","city":"清瀬市","address":"清瀬市中里5-842","lat":35.78557,"lon":139.52655},{"name":"清瀬市選挙管理委員会","province":"東京都","city":"清瀬市","address":"清瀬市中里5-842","lat":35.786055,"lon":139.526067},{"name":"期日前投票所","province":"東京都","city":"清瀬市","address":"東京都清瀬市中里5-842","lat":35.785761,"lon":139.526422},{"name":"期日前投票所","province":"東京都","city":"清瀬市","address":"東京都清瀬市元町1-2-11","lat":35.772182,"lon":139.521154},{"name":"第1投票所","province":"東京都","city":"清瀬市","address":"東京都清瀬市旭が丘2-8-1","lat":35.796663,"lon":139.539587},{"name":"第2投票所","province":"東京都","city":"清瀬市","address":"東京都清瀬市下宿2-524-1","lat":35.797491,"lon":139.533321},{"name":"第3投票所","province":"東京都","city":"清瀬市","address":"東京都清瀬市中里5-842","lat":35.786064,"lon":139.526056},{"name":"第4投票所","province":"東京都","city":"清瀬市","address":"東京都清瀬市元町1-2-11","lat":35.772182,"lon":139.521154},{"name":"第5投票所","province":"東京都","city":"清瀬市","address":"東京都清瀬市松山2-6-25","lat":35.770989,"lon":139.514809},{"name":"第6投票所","province":"東京都","city":"清瀬市","address":"東京都清瀬市松山3-1-92","lat":35.767974,"lon":139.512557},{"name":"第7投票所","province":"東京都","city":"清瀬市","address":"東京都清瀬市竹丘1-11-1","lat":35.765849,"lon":139.51142},{"name":"第8投票所","province":"東京都","city":"清瀬市","address":"東京都清瀬市梅園2-9-45","lat":35.771788,"lon":139.504655},{"name":"第9投票所","province":"東京都","city":"清瀬市","address":"東京都清瀬市野塩1-322-2","lat":35.779163,"lon":139.499466},{"name":"第10投票所","province":"東京都","city":"清瀬市","address":"東京都清瀬市元町2-16-8","lat":35.775287,"lon":139.511307},{"name":"第11投票所","province":"東京都","city":"清瀬市","address":"東京都清瀬市中里4-1301","lat":35.78652,"lon":139.514166},{"name":"第12投票所","province":"東京都","city":"清瀬市","address":"東京都清瀬市中清戸3-258-1","lat":35.775094,"lon":139.534001},{"name":"清瀬市健康センター","province":"東京都","city":"清瀬市","address":"清瀬市中里5-842","lat":35.786052,"lon":139.526353},{"name":"清瀬市しあわせ未来センター","province":"東京都","city":"清瀬市","address":"東京都清瀬市中里5丁目842","lat":35.78608019,"lon":139.52608035},{"name":"清瀬市しあわせ未来センター","province":"東京都","city":"清瀬市","address":"清瀬市中里5-842","lat":35.78557,"lon":139.52655},{"name":"清瀬市健康センター","province":"東京都","city":"清瀬市","address":"清瀬市中里5-842","lat":35.78557,"lon":139.52655},{"name":"清瀬市選挙管理委員会","province":"東京都","city":"清瀬市","address":"清瀬市中里5-842","lat":35.786055,"lon":139.526067},{"name":"期日前投票所","province":"東京都","city":"清瀬市","address":"東京都清瀬市中里5-842","lat":35.785761,"lon":139.526422},{"name":"期日前投票所","province":"東京都","city":"清瀬市","address":"東京都清瀬市元町1-2-11","lat":35.772182,"lon":139.521154},{"name":"第1投票所","province":"東京都","city":"清瀬市","address":"東京都清瀬市旭が丘2-8-1","lat":35.796663,"lon":139.539587},{"name":"第2投票所","province":"東京都","city":"清瀬市","address":"東京都清瀬市下宿2-524-1","lat":35.797491,"lon":139.533321},{"name":"第3投票所","province":"東京都","city":"清瀬市","address":"東京都清瀬市中里5-842","lat":35.786064,"lon":139.526056},{"name":"第4投票所","province":"東京都","city":"清瀬市","address":"東京都清瀬市元町1-2-11","lat":35.772182,"lon":139.521154},{"name":"第5投票所","province":"東京都","city":"清瀬市","address":"東京都清瀬市松山2-6-25","lat":35.770989,"lon":139.514809},{"name":"第6投票所","province":"東京都","city":"清瀬市","address":"東京都清瀬市松山3-1-92","lat":35.767974,"lon":139.512557},{"name":"第7投票所","province":"東京都","city":"清瀬市","address":"東京都清瀬市竹丘1-11-1","lat":35.765849,"lon":139.51142},{"name":"第8投票所","province":"東京都","city":"清瀬市","address":"東京都清瀬市梅園2-9-45","lat":35.771788,"lon":139.504655},{"name":"第9投票所","province":"東京都","city":"清瀬市","address":"東京都清瀬市野塩1-322-2","lat":35.779163,"lon":139.499466},{"name":"第10投票所","province":"東京都","city":"清瀬市","address":"東京都清瀬市元町2-16-8","lat":35.775287,"lon":139.511307},{"name":"第11投票所","province":"東京都","city":"清瀬市","address":"東京都清瀬市中里4-1301","lat":35.78652,"lon":139.514166},{"name":"第12投票所","province":"東京都","city":"清瀬市","address":"東京都清瀬市中清戸3-258-1","lat":35.775094,"lon":139.534001},{"name":"清瀬市健康センター","province":"東京都","city":"清瀬市","address":"清瀬市中里5-842","lat":35.786052,"lon":139.526353},{"name":"清瀬市しあわせ未来センター","province":"東京都","city":"清瀬市","address":"東京都清瀬市中里5丁目842","lat":35.78608019,"lon":139.52608035},{"name":"清瀬市しあわせ未来センター","province":"東京都","city":"清瀬市","address":"清瀬市中里5-842","lat":35.78557,"lon":139.52655},{"name":"清瀬市健康センター","province":"東京都","city":"清瀬市","address":"清瀬市中里5-842","lat":35.78557,"lon":139.52655},{"name":"清瀬市選挙管理委員会","province":"東京都","city":"清瀬市","address":"清瀬市中里5-842","lat":35.786055,"lon":139.526067},{"name":"期日前投票所","province":"東京都","city":"清瀬市","address":"東京都清瀬市中里5-842","lat":35.785761,"lon":139.526422},{"name":"期日前投票所","province":"東京都","city":"清瀬市","address":"東京都清瀬市元町1-2-11","lat":35.772182,"lon":139.521154},{"name":"第1投票所","province":"東京都","city":"清瀬市","address":"東京都清瀬市旭が丘2-8-1","lat":35.796663,"lon":139.539587},{"name":"第2投票所","province":"東京都","city":"清瀬市","address":"東京都清瀬市下宿2-524-1","lat":35.797491,"lon":139.533321},{"name":"第3投票所","province":"東京都","city":"清瀬市","address":"東京都清瀬市中里5-842","lat":35.786064,"lon":139.526056},{"name":"第4投票所","province":"東京都","city":"清瀬市","address":"東京都清瀬市元町1-2-11","lat":35.772182,"lon":139.521154},{"name":"第5投票所","province":"東京都","city":"清瀬市","address":"東京都清瀬市松山2-6-25","lat":35.770989,"lon":139.514809},{"name":"第6投票所","province":"東京都","city":"清瀬市","address":"東京都清瀬市松山3-1-92","lat":35.767974,"lon":139.512557},{"name":"第7投票所","province":"東京都","city":"清瀬市","address":"東京都清瀬市竹丘1-11-1","lat":35.765849,"lon":139.51142},{"name":"第8投票所","province":"東京都","city":"清瀬市","address":"東京都清瀬市梅園2-9-45","lat":35.771788,"lon":139.504655},{"name":"第9投票所","province":"東京都","city":"清瀬市","address":"東京都清瀬市野塩1-322-2","lat":35.779163,"lon":139.499466},{"name":"第10投票所","province":"東京都","city":"清瀬市","address":"東京都清瀬市元町2-16-8","lat":35.775287,"lon":139.511307},{"name":"第11投票所","province":"東京都","city":"清瀬市","address":"東京都清瀬市中里4-1301","lat":35.78652,"lon":139.514166},{"name":"第12投票所","province":"東京都","city":"清瀬市","address":"東京都清瀬市中清戸3-258-1","lat":35.775094,"lon":139.534001},{"name":"清瀬市健康センター","province":"東京都","city":"清瀬市","address":"清瀬市中里5-842","lat":35.786052,"lon":139.526353},{"name":"清瀬市しあわせ未来センター","province":"東京都","city":"清瀬市","address":"東京都清瀬市中里5丁目842","lat":35.78608019,"lon":139.52608035},{"name":"清瀬市しあわせ未来センター","province":"東京都","city":"清瀬市","address":"清瀬市中里5-842","lat":35.78557,"lon":139.52655},{"name":"清瀬市健康センター","province":"東京都","city":"清瀬市","address":"清瀬市中里5-842","lat":35.78557,"lon":139.52655},{"name":"清瀬市選挙管理委員会","province":"東京都","city":"清瀬市","address":"清瀬市中里5-842","lat":35.786055,"lon":139.526067},{"name":"期日前投票所","province":"東京都","city":"清瀬市","address":"東京都清瀬市中里5-842","lat":35.785761,"lon":139.526422},{"name":"期日前投票所","province":"東京都","city":"清瀬市","address":"東京都清瀬市元町1-2-11","lat":35.772182,"lon":139.521154},{"name":"第1投票所","province":"東京都","city":"清瀬市","address":"東京都清瀬市旭が丘2-8-1","lat":35.796663,"lon":139.539587},{"name":"第2投票所","province":"東京都","city":"清瀬市","address":"東京都清瀬市下宿2-524-1","lat":35.797491,"lon":139.533321},{"name":"第3投票所","province":"東京都","city":"清瀬市","address":"東京都清瀬市中里5-842","lat":35.786064,"lon":139.526056},{"name":"第4投票所","province":"東京都","city":"清瀬市","address":"東京都清瀬市元町1-2-11","lat":35.772182,"lon":139.521154},{"name":"第5投票所","province":"東京都","city":"清瀬市","address":"東京都清瀬市松山2-6-25","lat":35.770989,"lon":139.514809},{"name":"第6投票所","province":"東京都","city":"清瀬市","address":"東京都清瀬市松山3-1-92","lat":35.767974,"lon":139.512557},{"name":"第7投票所","province":"東京都","city":"清瀬市","address":"東京都清瀬市竹丘1-11-1","lat":35.765849,"lon":139.51142},{"name":"第8投票所","province":"東京都","city":"清瀬市","address":"東京都清瀬市梅園2-9-45","lat":35.771788,"lon":139.504655},{"name":"第9投票所","province":"東京都","city":"清瀬市","address":"東京都清瀬市野塩1-322-2","lat":35.779163,"lon":139.499466},{"name":"第10投票所","province":"東京都","city":"清瀬市","address":"東京都清瀬市元町2-16-8","lat":35.775287,"lon":139.511307},{"name":"第11投票所","province":"東京都","city":"清瀬市","address":"東京都清瀬市中里4-1301","lat":35.78652,"lon":139.514166},{"name":"第12投票所","province":"東京都","city":"清瀬市","address":"東京都清瀬市中清戸3-258-1","lat":35.775094,"lon":139.534001},{"name":"清瀬市健康センター","province":"東京都","city":"清瀬市","address":"清瀬市中里5-842","lat":35.786052,"lon":139.526353},{"name":"清瀬市しあわせ未来センター","province":"東京都","city":"清瀬市","address":"東京都清瀬市中里5丁目842","lat":35.78608019,"lon":139.52608035},{"name":"清瀬市しあわせ未来センター","province":"東京都","city":"清瀬市","address":"清瀬市中里5-842","lat":35.78557,"lon":139.52655},{"name":"清瀬市健康センター","province":"東京都","city":"清瀬市","address":"清瀬市中里5-842","lat":35.78557,"lon":139.52655},{"name":"清瀬市選挙管理委員会","province":"東京都","city":"清瀬市","address":"清瀬市中里5-842","lat":35.786055,"lon":139.526067},{"name":"期日前投票所","province":"東京都","city":"清瀬市","address":"東京都清瀬市中里5-842","lat":35.785761,"lon":139.526422},{"name":"期日前投票所","province":"東京都","city":"清瀬市","address":"東京都清瀬市元町1-2-11","lat":35.772182,"lon":139.521154},{"name":"第1投票所","province":"東京都","city":"清瀬市","address":"東京都清瀬市旭が丘2-8-1","lat":35.796663,"lon":139.539587},{"name":"第2投票所","province":"東京都","city":"清瀬市","address":"東京都清瀬市下宿2-524-1","lat":35.797491,"lon":139.533321},{"name":"第3投票所","province":"東京都","city":"清瀬市","address":"東京都清瀬市中里5-842","lat":35.786064,"lon":139.526056},{"name":"第4投票所","province":"東京都","city":"清瀬市","address":"東京都清瀬市元町1-2-11","lat":35.772182,"lon":139.521154},{"name":"第5投票所","province":"東京都","city":"清瀬市","address":"東京都清瀬市松山2-6-25","lat":35.770989,"lon":139.514809},{"name":"第6投票所","province":"東京都","city":"清瀬市","address":"東京都清瀬市松山3-1-92","lat":35.767974,"lon":139.512557},{"name":"第7投票所","province":"東京都","city":"清瀬市","address":"東京都清瀬市竹丘1-11-1","lat":35.765849,"lon":139.51142},{"name":"第8投票所","province":"東京都","city":"清瀬市","address":"東京都清瀬市梅園2-9-45","lat":35.771788,"lon":139.504655},{"name":"第9投票所","province":"東京都","city":"清瀬市","address":"東京都清瀬市野塩1-322-2","lat":35.779163,"lon":139.499466},{"name":"第10投票所","province":"東京都","city":"清瀬市","address":"東京都清瀬市元町2-16-8","lat":35.775287,"lon":139.511307},{"name":"第11投票所","province":"東京都","city":"清瀬市","address":"東京都清瀬市中里4-1301","lat":35.78652,"lon":139.514166},{"name":"第12投票所","province":"東京都","city":"清瀬市","address":"東京都清瀬市中清戸3-258-1","lat":35.775094,"lon":139.534001},{"name":"清瀬市健康センター","province":"東京都","city":"清瀬市","address":"清瀬市中里5-842","lat":35.786052,"lon":139.526353},{"name":"清瀬市しあわせ未来センター","province":"東京都","city":"清瀬市","address":"東京都清瀬市中里5丁目842","lat":35.78608019,"lon":139.52608035},{"name":"清瀬市しあわせ未来センター","province":"東京都","city":"清瀬市","address":"清瀬市中里5-842","lat":35.78557,"lon":139.52655},{"name":"清瀬市健康センター","province":"東京都","city":"清瀬市","address":"清瀬市中里5-842","lat":35.78557,"lon":139.52655},{"name":"清瀬市選挙管理委員会","province":"東京都","city":"清瀬市","address":"清瀬市中里5-842","lat":35.786055,"lon":139.526067},{"name":"期日前投票所","province":"東京都","city":"清瀬市","address":"東京都清瀬市中里5-842","lat":35.785761,"lon":139.526422},{"name":"期日前投票所","province":"東京都","city":"清瀬市","address":"東京都清瀬市元町1-2-11","lat":35.772182,"lon":139.521154},{"name":"第1投票所","province":"東京都","city":"清瀬市","address":"東京都清瀬市旭が丘2-8-1","lat":35.796663,"lon":139.539587},{"name":"第2投票所","province":"東京都","city":"清瀬市","address":"東京都清瀬市下宿2-524-1","lat":35.797491,"lon":139.533321},{"name":"第3投票所","province":"東京都","city":"清瀬市","address":"東京都清瀬市中里5-842","lat":35.786064,"lon":139.526056},{"name":"第4投票所","province":"東京都","city":"清瀬市","address":"東京都清瀬市元町1-2-11","lat":35.772182,"lon":139.521154},{"name":"第5投票所","province":"東京都","city":"清瀬市","address":"東京都清瀬市松山2-6-25","lat":35.770989,"lon":139.514809},{"name":"第6投票所","province":"東京都","city":"清瀬市","address":"東京都清瀬市松山3-1-92","lat":35.767974,"lon":139.512557},{"name":"第7投票所","province":"東京都","city":"清瀬市","address":"東京都清瀬市竹丘1-11-1","lat":35.765849,"lon":139.51142},{"name":"第8投票所","province":"東京都","city":"清瀬市","address":"東京都清瀬市梅園2-9-45","lat":35.771788,"lon":139.504655},{"name":"第9投票所","province":"東京都","city":"清瀬市","address":"東京都清瀬市野塩1-322-2","lat":35.779163,"lon":139.499466},{"name":"第10投票所","province":"東京都","city":"清瀬市","address":"東京都清瀬市元町2-16-8","lat":35.775287,"lon":139.511307},{"name":"第11投票所","province":"東京都","city":"清瀬市","address":"東京都清瀬市中里4-1301","lat":35.78652,"lon":139.514166},{"name":"第12投票所","province":"東京都","city":"清瀬市","address":"東京都清瀬市中清戸3-258-1","lat":35.775094,"lon":139.534001},{"name":"清瀬市健康センター","province":"東京都","city":"清瀬市","address":"清瀬市中里5-842","lat":35.786052,"lon":139.526353},{"name":"清瀬市しあわせ未来センター","province":"東京都","city":"清瀬市","address":"東京都清瀬市中里5丁目842","lat":35.78608019,"lon":139.52608035},{"name":"清瀬市しあわせ未来センター","province":"東京都","city":"清瀬市","address":"清瀬市中里5-842","lat":35.78557,"lon":139.52655},{"name":"清瀬市健康センター","province":"東京都","city":"清瀬市","address":"清瀬市中里5-842","lat":35.78557,"lon":139.52655},{"name":"清瀬市選挙管理委員会","province":"東京都","city":"清瀬市","address":"清瀬市中里5-842","lat":35.786055,"lon":139.526067},{"name":"期日前投票所","province":"東京都","city":"清瀬市","address":"東京都清瀬市中里5-842","lat":35.785761,"lon":139.526422},{"name":"期日前投票所","province":"東京都","city":"清瀬市","address":"東京都清瀬市元町1-2-11","lat":35.772182,"lon":139.521154},{"name":"第1投票所","province":"東京都","city":"清瀬市","address":"東京都清瀬市旭が丘2-8-1","lat":35.796663,"lon":139.539587},{"name":"第2投票所","province":"東京都","city":"清瀬市","address":"東京都清瀬市下宿2-524-1","lat":35.797491,"lon":139.533321},{"name":"第3投票所","province":"東京都","city":"清瀬市","address":"東京都清瀬市中里5-842","lat":35.786064,"lon":139.526056},{"name":"第4投票所","province":"東京都","city":"清瀬市","address":"東京都清瀬市元町1-2-11","lat":35.772182,"lon":139.521154},{"name":"第5投票所","province":"東京都","city":"清瀬市","address":"東京都清瀬市松山2-6-25","lat":35.770989,"lon":139.514809},{"name":"第6投票所","province":"東京都","city":"清瀬市","address":"東京都清瀬市松山3-1-92","lat":35.767974,"lon":139.512557},{"name":"第7投票所","province":"東京都","city":"清瀬市","address":"東京都清瀬市竹丘1-11-1","lat":35.765849,"lon":139.51142},{"name":"第8投票所","province":"東京都","city":"清瀬市","address":"東京都清瀬市梅園2-9-45","lat":35.771788,"lon":139.504655},{"name":"第9投票所","province":"東京都","city":"清瀬市","address":"東京都清瀬市野塩1-322-2","lat":35.779163,"lon":139.499466},{"name":"第10投票所","province":"東京都","city":"清瀬市","address":"東京都清瀬市元町2-16-8","lat":35.775287,"lon":139.511307},{"name":"第11投票所","province":"東京都","city":"清瀬市","address":"東京都清瀬市中里4-1301","lat":35.78652,"lon":139.514166},{"name":"第12投票所","province":"東京都","city":"清瀬市","address":"東京都清瀬市中清戸3-258-1","lat":35.775094,"lon":139.534001},{"name":"清瀬市健康センター","province":"東京都","city":"清瀬市","address":"清瀬市中里5-842","lat":35.786052,"lon":139.526353},{"name":"清瀬市しあわせ未来センター","province":"東京都","city":"清瀬市","address":"東京都清瀬市中里5丁目842","lat":35.78608019,"lon":139.52608035},{"name":"清瀬市しあわせ未来センター","province":"東京都","city":"清瀬市","address":"清瀬市中里5-842","lat":35.78557,"lon":139.52655},{"name":"清瀬市健康センター","province":"東京都","city":"清瀬市","address":"清瀬市中里5-842","lat":35.78557,"lon":139.52655},{"name":"清瀬市選挙管理委員会","province":"東京都","city":"清瀬市","address":"清瀬市中里5-842","lat":35.786055,"lon":139.526067},{"name":"期日前投票所","province":"東京都","city":"清瀬市","address":"東京都清瀬市中里5-842","lat":35.785761,"lon":139.526422},{"name":"期日前投票所","province":"東京都","city":"清瀬市","address":"東京都清瀬市元町1-2-11","lat":35.772182,"lon":139.521154},{"name":"第1投票所","province":"東京都","city":"清瀬市","address":"東京都清瀬市旭が丘2-8-1","lat":35.796663,"lon":139.539587},{"name":"第2投票所","province":"東京都","city":"清瀬市","address":"東京都清瀬市下宿2-524-1","lat":35.797491,"lon":139.533321},{"name":"第3投票所","province":"東京都","city":"清瀬市","address":"東京都清瀬市中里5-842","lat":35.786064,"lon":139.526056},{"name":"第4投票所","province":"東京都","city":"清瀬市","address":"東京都清瀬市元町1-2-11","lat":35.772182,"lon":139.521154},{"name":"第5投票所","province":"東京都","city":"清瀬市","address":"東京都清瀬市松山2-6-25","lat":35.770989,"lon":139.514809},{"name":"第6投票所","province":"東京都","city":"清瀬市","address":"東京都清瀬市松山3-1-92","lat":35.767974,"lon":139.512557},{"name":"第7投票所","province":"東京都","city":"清瀬市","address":"東京都清瀬市竹丘1-11-1","lat":35.765849,"lon":139.51142},{"name":"第8投票所","province":"東京都","city":"清瀬市","address":"東京都清瀬市梅園2-9-45","lat":35.771788,"lon":139.504655},{"name":"第9投票所","province":"東京都","city":"清瀬市","address":"東京都清瀬市野塩1-322-2","lat":35.779163,"lon":139.499466},{"name":"第10投票所","province":"東京都","city":"清瀬市","address":"東京都清瀬市元町2-16-8","lat":35.775287,"lon":139.511307},{"name":"第11投票所","province":"東京都","city":"清瀬市","address":"東京都清瀬市中里4-1301","lat":35.78652,"lon":139.514166},{"name":"第12投票所","province":"東京都","city":"清瀬市","address":"東京都清瀬市中清戸3-258-1","lat":35.775094,"lon":139.534001},{"name":"清瀬市健康センター","province":"東京都","city":"清瀬市","address":"清瀬市中里5-842","lat":35.786052,"lon":139.526353},{"name":"清瀬市しあわせ未来センター","province":"東京都","city":"清瀬市","address":"東京都清瀬市中里5丁目842","lat":35.78608019,"lon":139.52608035},{"name":"清瀬市しあわせ未来センター","province":"東京都","city":"清瀬市","address":"清瀬市中里5-842","lat":35.78557,"lon":139.52655},{"name":"清瀬市健康センター","province":"東京都","city":"清瀬市","address":"清瀬市中里5-842","lat":35.78557,"lon":139.52655},{"name":"清瀬市選挙管理委員会","province":"東京都","city":"清瀬市","address":"清瀬市中里5-842","lat":35.786055,"lon":139.526067},{"name":"期日前投票所","province":"東京都","city":"清瀬市","address":"東京都清瀬市中里5-842","lat":35.785761,"lon":139.526422},{"name":"期日前投票所","province":"東京都","city":"清瀬市","address":"東京都清瀬市元町1-2-11","lat":35.772182,"lon":139.521154},{"name":"第1投票所","province":"東京都","city":"清瀬市","address":"東京都清瀬市旭が丘2-8-1","lat":35.796663,"lon":139.539587},{"name":"第2投票所","province":"東京都","city":"清瀬市","address":"東京都清瀬市下宿2-524-1","lat":35.797491,"lon":139.533321},{"name":"第3投票所","province":"東京都","city":"清瀬市","address":"東京都清瀬市中里5-842","lat":35.786064,"lon":139.526056},{"name":"第4投票所","province":"東京都","city":"清瀬市","address":"東京都清瀬市元町1-2-11","lat":35.772182,"lon":139.521154},{"name":"第5投票所","province":"東京都","city":"清瀬市","address":"東京都清瀬市松山2-6-25","lat":35.770989,"lon":139.514809},{"name":"第6投票所","province":"東京都","city":"清瀬市","address":"東京都清瀬市松山3-1-92","lat":35.767974,"lon":139.512557},{"name":"第7投票所","province":"東京都","city":"清瀬市","address":"東京都清瀬市竹丘1-11-1","lat":35.765849,"lon":139.51142},{"name":"第8投票所","province":"東京都","city":"清瀬市","address":"東京都清瀬市梅園2-9-45","lat":35.771788,"lon":139.504655},{"name":"第9投票所","province":"東京都","city":"清瀬市","address":"東京都清瀬市野塩1-322-2","lat":35.779163,"lon":139.499466},{"name":"第10投票所","province":"東京都","city":"清瀬市","address":"東京都清瀬市元町2-16-8","lat":35.775287,"lon":139.511307},{"name":"第11投票所","province":"東京都","city":"清瀬市","address":"東京都清瀬市中里4-1301","lat":35.78652,"lon":139.514166},{"name":"第12投票所","province":"東京都","city":"清瀬市","address":"東京都清瀬市中清戸3-258-1","lat":35.775094,"lon":139.534001},{"name":"清瀬市健康センター","province":"東京都","city":"清瀬市","address":"清瀬市中里5-842","lat":35.786052,"lon":139.526353},{"name":"清瀬市しあわせ未来センター","province":"東京都","city":"清瀬市","address":"東京都清瀬市中里5丁目842","lat":35.78608019,"lon":139.52608035},{"name":"清瀬市しあわせ未来センター","province":"東京都","city":"清瀬市","address":"清瀬市中里5-842","lat":35.78557,"lon":139.52655},{"name":"清瀬市健康センター","province":"東京都","city":"清瀬市","address":"清瀬市中里5-842","lat":35.78557,"lon":139.52655},{"name":"清瀬市選挙管理委員会","province":"東京都","city":"清瀬市","address":"清瀬市中里5-842","lat":35.786055,"lon":139.526067},{"name":"期日前投票所","province":"東京都","city":"清瀬市","address":"東京都清瀬市中里5-842","lat":35.785761,"lon":139.526422},{"name":"期日前投票所","province":"東京都","city":"清瀬市","address":"東京都清瀬市元町1-2-11","lat":35.772182,"lon":139.521154},{"name":"第1投票所","province":"東京都","city":"清瀬市","address":"東京都清瀬市旭が丘2-8-1","lat":35.796663,"lon":139.539587},{"name":"第2投票所","province":"東京都","city":"清瀬市","address":"東京都清瀬市下宿2-524-1","lat":35.797491,"lon":139.533321},{"name":"第3投票所","province":"東京都","city":"清瀬市","address":"東京都清瀬市中里5-842","lat":35.786064,"lon":139.526056},{"name":"第4投票所","province":"東京都","city":"清瀬市","address":"東京都清瀬市元町1-2-11","lat":35.772182,"lon":139.521154},{"name":"第5投票所","province":"東京都","city":"清瀬市","address":"東京都清瀬市松山2-6-25","lat":35.770989,"lon":139.514809},{"name":"第6投票所","province":"東京都","city":"清瀬市","address":"東京都清瀬市松山3-1-92","lat":35.767974,"lon":139.512557},{"name":"第7投票所","province":"東京都","city":"清瀬市","address":"東京都清瀬市竹丘1-11-1","lat":35.765849,"lon":139.51142},{"name":"第8投票所","province":"東京都","city":"清瀬市","address":"東京都清瀬市梅園2-9-45","lat":35.771788,"lon":139.504655},{"name":"第9投票所","province":"東京都","city":"清瀬市","address":"東京都清瀬市野塩1-322-2","lat":35.779163,"lon":139.499466},{"name":"第10投票所","province":"東京都","city":"清瀬市","address":"東京都清瀬市元町2-16-8","lat":35.775287,"lon":139.511307},{"name":"第11投票所","province":"東京都","city":"清瀬市","address":"東京都清瀬市中里4-1301","lat":35.78652,"lon":139.514166},{"name":"第12投票所","province":"東京都","city":"清瀬市","address":"東京都清瀬市中清戸3-258-1","lat":35.775094,"lon":139.534001},{"name":"清瀬市健康センター","province":"東京都","city":"清瀬市","address":"清瀬市中里5-842","lat":35.786052,"lon":139.526353},{"name":"清瀬市しあわせ未来センター","province":"東京都","city":"清瀬市","address":"東京都清瀬市中里5丁目842","lat":35.78608019,"lon":139.52608035},{"name":"清瀬市しあわせ未来センター","province":"東京都","city":"清瀬市","address":"清瀬市中里5-842","lat":35.78557,"lon":139.52655},{"name":"清瀬市健康センター","province":"東京都","city":"清瀬市","address":"清瀬市中里5-842","lat":35.78557,"lon":139.52655},{"name":"清瀬市選挙管理委員会","province":"東京都","city":"清瀬市","address":"清瀬市中里5-842","lat":35.786055,"lon":139.526067},{"name":"期日前投票所","province":"東京都","city":"清瀬市","address":"東京都清瀬市中里5-842","lat":35.785761,"lon":139.526422},{"name":"期日前投票所","province":"東京都","city":"清瀬市","address":"東京都清瀬市元町1-2-11","lat":35.772182,"lon":139.521154},{"name":"第1投票所","province":"東京都","city":"清瀬市","address":"東京都清瀬市旭が丘2-8-1","lat":35.796663,"lon":139.539587},{"name":"第2投票所","province":"東京都","city":"清瀬市","address":"東京都清瀬市下宿2-524-1","lat":35.797491,"lon":139.533321},{"name":"第3投票所","province":"東京都","city":"清瀬市","address":"東京都清瀬市中里5-842","lat":35.786064,"lon":139.526056},{"name":"第4投票所","province":"東京都","city":"清瀬市","address":"東京都清瀬市元町1-2-11","lat":35.772182,"lon":139.521154},{"name":"第5投票所","province":"東京都","city":"清瀬市","address":"東京都清瀬市松山2-6-25","lat":35.770989,"lon":139.514809},{"name":"第6投票所","province":"東京都","city":"清瀬市","address":"東京都清瀬市松山3-1-92","lat":35.767974,"lon":139.512557},{"name":"第7投票所","province":"東京都","city":"清瀬市","address":"東京都清瀬市竹丘1-11-1","lat":35.765849,"lon":139.51142},{"name":"第8投票所","province":"東京都","city":"清瀬市","address":"東京都清瀬市梅園2-9-45","lat":35.771788,"lon":139.504655},{"name":"第9投票所","province":"東京都","city":"清瀬市","address":"東京都清瀬市野塩1-322-2","lat":35.779163,"lon":139.499466},{"name":"第10投票所","province":"東京都","city":"清瀬市","address":"東京都清瀬市元町2-16-8","lat":35.775287,"lon":139.511307},{"name":"第11投票所","province":"東京都","city":"清瀬市","address":"東京都清瀬市中里4-1301","lat":35.78652,"lon":139.514166},{"name":"第12投票所","province":"東京都","city":"清瀬市","address":"東京都清瀬市中清戸3-258-1","lat":35.775094,"lon":139.534001},{"name":"清瀬市健康センター","province":"東京都","city":"清瀬市","address":"清瀬市中里5-842","lat":35.786052,"lon":139.526353},{"name":"清瀬市しあわせ未来センター","province":"東京都","city":"清瀬市","address":"東京都清瀬市中里5丁目842","lat":35.78608019,"lon":139.52608035},{"name":"清瀬市しあわせ未来センター","province":"東京都","city":"清瀬市","address":"清瀬市中里5-842","lat":35.78557,"lon":139.52655},{"name":"清瀬市健康センター","province":"東京都","city":"清瀬市","address":"清瀬市中里5-842","lat":35.78557,"lon":139.52655},{"name":"期日前投票所","province":"東京都","city":"清瀬市","address":"東京都清瀬市中里5-842","lat":35.785761,"lon":139.526422},{"name":"期日前投票所","province":"東京都","city":"清瀬市","address":"東京都清瀬市元町1-2-11","lat":35.772182,"lon":139.521154},{"name":"第1投票所","province":"東京都","city":"清瀬市","address":"東京都清瀬市旭が丘2-8-1","lat":35.796663,"lon":139.539587},{"name":"第2投票所","province":"東京都","city":"清瀬市","address":"東京都清瀬市下宿2-524-1","lat":35.797491,"lon":139.533321},{"name":"第3投票所","province":"東京都","city":"清瀬市","address":"東京都清瀬市中里5-842","lat":35.786064,"lon":139.526056},{"name":"第4投票所","province":"東京都","city":"清瀬市","address":"東京都清瀬市元町1-2-11","lat":35.772182,"lon":139.521154},{"name":"第5投票所","province":"東京都","city":"清瀬市","address":"東京都清瀬市松山2-6-25","lat":35.770989,"lon":139.514809},{"name":"第6投票所","province":"東京都","city":"清瀬市","address":"東京都清瀬市松山3-1-92","lat":35.767974,"lon":139.512557},{"name":"第7投票所","province":"東京都","city":"清瀬市","address":"東京都清瀬市竹丘1-11-1","lat":35.765849,"lon":139.51142},{"name":"第8投票所","province":"東京都","city":"清瀬市","address":"東京都清瀬市梅園2-9-45","lat":35.771788,"lon":139.504655},{"name":"第9投票所","province":"東京都","city":"清瀬市","address":"東京都清瀬市野塩1-322-2","lat":35.779163,"lon":139.499466},{"name":"第10投票所","province":"東京都","city":"清瀬市","address":"東京都清瀬市元町2-16-8","lat":35.775287,"lon":139.511307},{"name":"第11投票所","province":"東京都","city":"清瀬市","address":"東京都清瀬市中里4-1301","lat":35.78652,"lon":139.514166},{"name":"第12投票所","province":"東京都","city":"清瀬市","address":"東京都清瀬市中清戸3-258-1","lat":35.775094,"lon":139.534001},{"name":"清瀬市健康センター","province":"東京都","city":"清瀬市","address":"清瀬市中里5-842","lat":35.786052,"lon":139.526353},{"name":"清瀬市しあわせ未来センター","province":"東京都","city":"清瀬市","address":"東京都清瀬市中里5丁目842","lat":35.78608019,"lon":139.52608035},{"name":"清瀬市しあわせ未来センター","province":"東京都","city":"清瀬市","address":"清瀬市中里5-842","lat":35.78557,"lon":139.52655},{"name":"清瀬市健康センター","province":"東京都","city":"清瀬市","address":"清瀬市中里5-842","lat":35.78557,"lon":139.52655},{"name":"期日前投票所","province":"東京都","city":"清瀬市","address":"東京都清瀬市中里5-842","lat":35.785761,"lon":139.526422},{"name":"期日前投票所","province":"東京都","city":"清瀬市","address":"東京都清瀬市元町1-2-11","lat":35.772182,"lon":139.521154},{"name":"第1投票所","province":"東京都","city":"清瀬市","address":"東京都清瀬市旭が丘2-8-1","lat":35.796663,"lon":139.539587},{"name":"第2投票所","province":"東京都","city":"清瀬市","address":"東京都清瀬市下宿2-524-1","lat":35.797491,"lon":139.533321},{"name":"第3投票所","province":"東京都","city":"清瀬市","address":"東京都清瀬市中里5-842","lat":35.786064,"lon":139.526056},{"name":"第4投票所","province":"東京都","city":"清瀬市","address":"東京都清瀬市元町1-2-11","lat":35.772182,"lon":139.521154},{"name":"第5投票所","province":"東京都","city":"清瀬市","address":"東京都清瀬市松山2-6-25","lat":35.770989,"lon":139.514809},{"name":"第6投票所","province":"東京都","city":"清瀬市","address":"東京都清瀬市松山3-1-92","lat":35.767974,"lon":139.512557},{"name":"第7投票所","province":"東京都","city":"清瀬市","address":"東京都清瀬市竹丘1-11-1","lat":35.765849,"lon":139.51142},{"name":"第8投票所","province":"東京都","city":"清瀬市","address":"東京都清瀬市梅園2-9-45","lat":35.771788,"lon":139.504655},{"name":"第9投票所","province":"東京都","city":"清瀬市","address":"東京都清瀬市野塩1-322-2","lat":35.779163,"lon":139.499466},{"name":"第10投票所","province":"東京都","city":"清瀬市","address":"東京都清瀬市元町2-16-8","lat":35.775287,"lon":139.511307},{"name":"第11投票所","province":"東京都","city":"清瀬市","address":"東京都清瀬市中里4-1301","lat":35.78652,"lon":139.514166},{"name":"第12投票所","province":"東京都","city":"清瀬市","address":"東京都清瀬市中清戸3-258-1","lat":35.775094,"lon":139.534001},{"name":"清瀬市健康センター","province":"東京都","city":"清瀬市","address":"清瀬市中里5-842","lat":35.786052,"lon":139.526353},{"name":"清瀬市しあわせ未来センター","province":"東京都","city":"清瀬市","address":"東京都清瀬市中里5丁目842","lat":35.78608019,"lon":139.52608035},{"name":"清瀬市しあわせ未来センター","province":"東京都","city":"清瀬市","address":"清瀬市中里5-842","lat":35.78557,"lon":139.52655},{"name":"清瀬市健康センター","province":"東京都","city":"清瀬市","address":"清瀬市中里5-842","lat":35.78557,"lon":139.52655},{"name":"期日前投票所","province":"東京都","city":"清瀬市","address":"東京都清瀬市中里5-842","lat":35.785761,"lon":139.526422},{"name":"期日前投票所","province":"東京都","city":"清瀬市","address":"東京都清瀬市元町1-2-11","lat":35.772182,"lon":139.521154},{"name":"第1投票所","province":"東京都","city":"清瀬市","address":"東京都清瀬市旭が丘2-8-1","lat":35.796663,"lon":139.539587},{"name":"第2投票所","province":"東京都","city":"清瀬市","address":"東京都清瀬市下宿2-524-1","lat":35.797491,"lon":139.533321},{"name":"第3投票所","province":"東京都","city":"清瀬市","address":"東京都清瀬市中里5-842","lat":35.786064,"lon":139.526056},{"name":"第4投票所","province":"東京都","city":"清瀬市","address":"東京都清瀬市元町1-2-11","lat":35.772182,"lon":139.521154},{"name":"第5投票所","province":"東京都","city":"清瀬市","address":"東京都清瀬市松山2-6-25","lat":35.770989,"lon":139.514809},{"name":"第6投票所","province":"東京都","city":"清瀬市","address":"東京都清瀬市松山3-1-92","lat":35.767974,"lon":139.512557},{"name":"第7投票所","province":"東京都","city":"清瀬市","address":"東京都清瀬市竹丘1-11-1","lat":35.765849,"lon":139.51142},{"name":"第8投票所","province":"東京都","city":"清瀬市","address":"東京都清瀬市梅園2-9-45","lat":35.771788,"lon":139.504655},{"name":"第9投票所","province":"東京都","city":"清瀬市","address":"東京都清瀬市野塩1-322-2","lat":35.779163,"lon":139.499466},{"name":"第10投票所","province":"東京都","city":"清瀬市","address":"東京都清瀬市元町2-16-8","lat":35.775287,"lon":139.511307},{"name":"第11投票所","province":"東京都","city":"清瀬市","address":"東京都清瀬市中里4-1301","lat":35.78652,"lon":139.514166},{"name":"第12投票所","province":"東京都","city":"清瀬市","address":"東京都清瀬市中清戸3-258-1","lat":35.775094,"lon":139.534001},{"name":"清瀬市健康センター","province":"東京都","city":"清瀬市","address":"清瀬市中里5-842","lat":35.786052,"lon":139.526353},{"name":"清瀬市しあわせ未来センター","province":"東京都","city":"清瀬市","address":"東京都清瀬市中里5丁目842","lat":35.78608019,"lon":139.52608035},{"name":"清瀬市しあわせ未来センター","province":"東京都","city":"清瀬市","address":"清瀬市中里5-842","lat":35.78557,"lon":139.52655},{"name":"清瀬市健康センター","province":"東京都","city":"清瀬市","address":"清瀬市中里5-842","lat":35.78557,"lon":139.52655}]}