{"keyword":"クラブ","data":[{"name":"清瀬市立梅園第1第2第3学童クラブ","province":"東京都","city":"清瀬市","address":"東京都清瀬市梅園2-9-38","lat":35.771999,"lon":139.505174},{"name":"清瀬市立清明小第1第2学童クラブ","province":"東京都","city":"清瀬市","address":"東京都清瀬市旭が丘2-8-1","lat":35.796885,"lon":139.539993},{"name":"清瀬市立四小学童クラブ","province":"東京都","city":"清瀬市","address":"東京都清瀬市中里2-1471","lat":35.783236,"lon":139.510435},{"name":"清瀬市立八小第1第2学童クラブ","province":"東京都","city":"清瀬市","address":"東京都清瀬市中清戸4-1070","lat":35.787303,"lon":139.530847},{"name":"清瀬市立竹丘第1第２学童クラブ","province":"東京都","city":"清瀬市","address":"東京都清瀬市竹丘1-15-11","lat":35.767616,"lon":139.511404},{"name":"清瀬市立芝山小第1第2学童クラブ","province":"東京都","city":"清瀬市","address":"東京都清瀬市元町2-16-8","lat":35.775359,"lon":139.511204},{"name":"清瀬市立清瀬小第1学童クラブ","province":"東京都","city":"清瀬市","address":"東京都清瀬市中里5-741","lat":35.785211,"lon":139.525606},{"name":"清瀬市立三小第1第2学童クラブ","province":"東京都","city":"清瀬市","address":"東京都清瀬市竹丘1-15-4","lat":35.768568,"lon":139.509927},{"name":"清瀬市立中清戸第1第2学童クラブ","province":"東京都","city":"清瀬市","address":"東京都清瀬市中清戸1-556-1","lat":35.775051,"lon":139.528458},{"name":"清瀬市立清瀬小第2学童クラブ","province":"東京都","city":"清瀬市","address":"東京都清瀬市中里5-624","lat":35.78533,"lon":139.52593}]}