{"keyword":"保育","data":[{"name":"清瀬市立第３保育園","province":"東京都","city":"清瀬市","address":"清瀬市旭が丘3-755-1","lat":35.798096,"lon":139.539018},{"name":"すみれ保育園","province":"東京都","city":"清瀬市","address":"清瀬市中里3-1731-8","lat":35.779364,"lon":139.516623},{"name":"せせらぎ保育園","province":"東京都","city":"清瀬市","address":"清瀬市中里1-1704","lat":35.782214,"lon":139.515301},{"name":"中里どろんこ保育園","province":"東京都","city":"清瀬市","address":"清瀬市中里6-23-1","lat":35.790607,"lon":139.528763},{"name":"のしお保育園","province":"東京都","city":"清瀬市","address":"清瀬市野塩5-249","lat":35.77652,"lon":139.497722},{"name":"のしお一丁目保育園","province":"東京都","city":"清瀬市","address":"清瀬市野塩1-322-1","lat":35.778978,"lon":139.499877},{"name":"中清戸保育園","province":"東京都","city":"清瀬市","address":"清瀬市下清戸1-21-3","lat":35.778954,"lon":139.535724},{"name":"きよせ保育園","province":"東京都","city":"清瀬市","address":"清瀬市上清戸2-5-40","lat":35.779075,"lon":139.520309},{"name":"駅前乳児保育園","province":"東京都","city":"清瀬市","address":"清瀬市元町1-4-17","lat":35.774412,"lon":139.520667},{"name":"清瀬どろんこ保育園","province":"東京都","city":"清瀬市","address":"清瀬市松山3-1-24","lat":35.77104,"lon":139.511498},{"name":"清瀬市立第１保育園","province":"東京都","city":"清瀬市","address":"清瀬市松山3-1-73","lat":35.768488,"lon":139.513832},{"name":"メリーポピンズ清瀬ルーム","province":"東京都","city":"清瀬市","address":"清瀬市松山1-40-2","lat":35.768885,"lon":139.517106},{"name":"清瀬上宮保育園","province":"東京都","city":"清瀬市","address":"清瀬市竹丘3-8-1","lat":35.766354,"lon":139.502055},{"name":"清瀬市立第７保育園","province":"東京都","city":"清瀬市","address":"清瀬市竹丘1-15-11","lat":35.767615,"lon":139.511404},{"name":"清瀬市立乳児保育園","province":"東京都","city":"清瀬市","address":"清瀬市梅園2-9-38","lat":35.771998,"lon":139.505174}]}