{"keyword":"公園","data":[{"name":"下宿運動公園","province":"東京都","city":"清瀬市","address":"東京都清瀬市下宿2丁目524-1","lat":35.79763995,"lon":139.53343242},{"name":"清瀬内山運動公園","province":"東京都","city":"清瀬市","address":"東京都清瀬市下宿3丁目1375","lat":35.80428092,"lon":139.54147328},{"name":"中清戸けやき公園","province":"東京都","city":"清瀬市","address":"東京都清瀬市中清戸4丁目847","lat":35.78570808,"lon":139.52890228},{"name":"台田運動公園","province":"東京都","city":"清瀬市","address":"東京都清瀬市下宿1丁目1","lat":35.79541799,"lon":139.53235479},{"name":"旭が丘九小学び舎公園","province":"東京都","city":"清瀬市","address":"東京都清瀬市旭が丘3丁目343-19","lat":35.79685403,"lon":139.53850423},{"name":"中清戸下組稲荷児童遊園","province":"東京都","city":"清瀬市","address":"東京都清瀬市中清戸5丁目88","lat":35.77747041,"lon":139.53537377},{"name":"中里山戸児童遊園","province":"東京都","city":"清瀬市","address":"東京都清瀬市中里3丁目77-19","lat":35.78251668,"lon":139.5223918},{"name":"中里東\n児童遊園","province":"東京都","city":"清瀬市","address":"東京都清瀬市中里5丁目576-18","lat":35.78648849,"lon":139.52674418},{"name":"野塩坂下児童遊園","province":"東京都","city":"清瀬市","address":"東京都清瀬市野塩2丁目383","lat":35.78107465,"lon":139.49868002},{"name":"市営中里第一住宅内児童遊園","province":"東京都","city":"清瀬市","address":"東京都清瀬市中里2丁目1602","lat":35.78093882,"lon":139.51027626},{"name":"市営中里第三住宅内児童遊園","province":"東京都","city":"清瀬市","address":"東京都清瀬市中里2丁目1385-17","lat":35.78224429,"lon":139.51345096},{"name":"市営野塩柳原住宅内児童遊園","province":"東京都","city":"清瀬市","address":"東京都清瀬市野塩3丁目50","lat":35.77723086,"lon":139.50610999},{"name":"中里広場","province":"東京都","city":"清瀬市","address":"東京都清瀬市中里1丁目739-10","lat":35.77789484,"lon":139.51328155},{"name":"下宿台田ポケットパーク","province":"東京都","city":"清瀬市","address":"東京都清瀬市下宿1丁目200-22","lat":35.79384045,"lon":139.5337241},{"name":"市営中里第四住宅内ポケットパーク","province":"東京都","city":"清瀬市","address":"東京都清瀬市中里3丁目1058","lat":35.78249992,"lon":139.51811165},{"name":"野塩前原ポケットパーク","province":"東京都","city":"清瀬市","address":"東京都清瀬市野塩4丁目88-15","lat":35.77582544,"lon":139.50450737},{"name":"下清戸北浦西ポケットパーク","province":"東京都","city":"清瀬市","address":"東京都清瀬市下清戸2丁目581-1","lat":35.78582482,"lon":139.53270746},{"name":"中里四中東児童遊園","province":"東京都","city":"清瀬市","address":"東京都清瀬市中里1丁目1628-35","lat":35.77969175,"lon":139.50999295}]}