{"keyword":"医薬","data":[{"name":"清瀬駅北口地下駐輪場","province":"東京都","city":"清瀬市","address":"東京都清瀬市元町1-4-3","lat":35.772452,"lon":139.520581},{"name":"清瀬駅北口第２駐輪場","province":"東京都","city":"清瀬市","address":"東京都清瀬市上清戸1-6","lat":35.774316,"lon":139.52275},{"name":"清瀬駅南口駐輪場","province":"東京都","city":"清瀬市","address":"東京都清瀬市松山1-10-14","lat":35.771854,"lon":139.519051},{"name":"清瀬駅南口第2駐輪場","province":"東京都","city":"清瀬市","address":"東京都清瀬市松山1-3-6","lat":35.771019,"lon":139.520917},{"name":"秋津駅北口駐輪場","province":"東京都","city":"清瀬市","address":"東京都清瀬市野塩1-342-1","lat":35.778799,"lon":139.50021},{"name":"秋津駅南口駐輪場","province":"東京都","city":"清瀬市","address":"東京都清瀬市野塩5-280-22","lat":35.776632,"lon":139.496537},{"name":"特別養護老人ホーム 救世軍恵泉ホーム","province":"東京都","city":"清瀬市","address":"東京都清瀬市竹丘1-17-61","lat":35.769635,"lon":139.508107},{"name":"特別養護老人ホーム 上宮園","province":"東京都","city":"清瀬市","address":"東京都清瀬市竹丘3-3-31","lat":35.767543,"lon":139.502455},{"name":"特別養護老人ホーム 信愛の園","province":"東京都","city":"清瀬市","address":"東京都清瀬市梅園2-3-15","lat":35.772751,"lon":139.503522},{"name":"特別養護老人ホーム 清雅苑","province":"東京都","city":"清瀬市","address":"東京都清瀬市中里5-91-2","lat":35.789366,"lon":139.531891},{"name":"特別養護老人ホーム 聖ヨゼフ老人ホーム","province":"東京都","city":"清瀬市","address":"東京都清瀬市梅園3-14-72","lat":35.772165,"lon":139.501911},{"name":"清瀬どんぐりの家","province":"東京都","city":"清瀬市","address":"東京都清瀬市野塩4-230-1","lat":35.774754,"lon":139.500036},{"name":"工房わかば","province":"東京都","city":"清瀬市","address":"東京都清瀬市野塩4-59-8","lat":35.775592,"lon":139.506768},{"name":"清瀬療護園","province":"東京都","city":"清瀬市","address":"東京都清瀬市竹丘3-1-72","lat":35.765507,"lon":139.503219},{"name":"介護老人保健施設 たけおか","province":"東京都","city":"清瀬市","address":"東京都清瀬市竹丘2-3-21","lat":35.76518,"lon":139.50899},{"name":"介護老人保健施設 ラビアンローゼ","province":"東京都","city":"清瀬市","address":"東京都清瀬市下清戸3-385","lat":35.784884,"lon":139.538971},{"name":"介護老人保健施設 きよせ認知症ケアセンター","province":"東京都","city":"清瀬市","address":"東京都清瀬市中清戸5-27","lat":35.77695,"lon":139.536959},{"name":"介護老人福祉施設 すずらん※","province":"東京都","city":"清瀬市","address":"東京都清瀬市長野県北佐久郡立科町大字芦田720-1","lat":36.27413,"lon":138.32288},{"name":"障害者福祉センター","province":"東京都","city":"清瀬市","address":"東京都清瀬市上清戸1-16-62","lat":35.773273,"lon":139.527679},{"name":"子どもの発達支援・交流センターとことこ","province":"東京都","city":"清瀬市","address":"東京都清瀬市竹丘1-15-8","lat":35.768108,"lon":139.511079},{"name":"東京都立 清瀬特別支援学校","province":"東京都","city":"清瀬市","address":"東京都清瀬市松山3-1-97","lat":35.76896,"lon":139.511529},{"name":"ヒューマンライフケア清瀬","province":"東京都","city":"清瀬市","address":"東京都清瀬市元町1-8-25","lat":35.77412,"lon":139.519828},{"name":"ツクイ秋津","province":"東京都","city":"清瀬市","address":"東京都清瀬市野塩1-303-2","lat":35.779016,"lon":139.497067},{"name":"グループホーム清瀬","province":"東京都","city":"清瀬市","address":"東京都清瀬市中清戸5-132-1","lat":35.779676,"lon":139.532555},{"name":"グループホームさくらの苑","province":"東京都","city":"清瀬市","address":"東京都清瀬市中清戸5-27-3","lat":35.779659,"lon":139.532564},{"name":"しんあい清戸の里","province":"東京都","city":"清瀬市","address":"東京都清瀬市下清戸1-305-1","lat":35.780341,"lon":139.536013},{"name":"ホームステーションらいふ清瀬","province":"東京都","city":"清瀬市","address":"東京都清瀬市松山1-4-16","lat":35.770683,"lon":139.5207},{"name":"みどりの樹清瀬","province":"東京都","city":"清瀬市","address":"東京都清瀬市下清戸4-709-17","lat":35.786527,"lon":139.539276},{"name":"清瀬小学校","province":"東京都","city":"清瀬市","address":"東京都清瀬市中里5-741","lat":35.785719,"lon":139.525573},{"name":"芝山小学校","province":"東京都","city":"清瀬市","address":"東京都清瀬市元町2-16-8","lat":35.775287,"lon":139.511307},{"name":"第三小学校","province":"東京都","city":"清瀬市","address":"東京都清瀬市竹丘1-15-4","lat":35.768423,"lon":139.510224},{"name":"第四小学校","province":"東京都","city":"清瀬市","address":"東京都清瀬市中里2-1471","lat":35.783011,"lon":139.510224},{"name":"第六小学校","province":"東京都","city":"清瀬市","address":"東京都清瀬市梅園2-9-45","lat":35.771657,"lon":139.503822},{"name":"第七小学校","province":"東京都","city":"清瀬市","address":"東京都清瀬市松山3-1-92","lat":35.767974,"lon":139.512557},{"name":"第八小学校","province":"東京都","city":"清瀬市","address":"東京都清瀬市中清戸4-1070","lat":35.781332,"lon":139.530545},{"name":"第十小学校","province":"東京都","city":"清瀬市","address":"東京都清瀬市中清戸1-454-14","lat":35.775219,"lon":139.527966},{"name":"清明小学校","province":"東京都","city":"清瀬市","address":"東京都清瀬市旭が丘2-8-1","lat":35.796663,"lon":139.539587},{"name":"清瀬中学校","province":"東京都","city":"清瀬市","address":"東京都清瀬市中里5-624","lat":35.784843,"lon":139.52496},{"name":"第二中学校","province":"東京都","city":"清瀬市","address":"東京都清瀬市梅園2-9-15","lat":35.773323,"lon":139.505105},{"name":"第三中学校","province":"東京都","city":"清瀬市","address":"東京都清瀬市旭が丘1-262","lat":35.791564,"lon":139.534861},{"name":"第四中学校","province":"東京都","city":"清瀬市","address":"東京都清瀬市野塩3-2-3","lat":35.778777,"lon":139.507985},{"name":"第五中学校","province":"東京都","city":"清瀬市","address":"東京都清瀬市中清戸3-258-1","lat":35.775094,"lon":139.534001},{"name":"清瀬けやきホール","province":"東京都","city":"清瀬市","address":"東京都清瀬市元町1-6-6","lat":35.774561,"lon":139.519556},{"name":"コミュニティプラザひまわり","province":"東京都","city":"清瀬市","address":"東京都清瀬市下清戸1-212-4","lat":35.77804,"lon":139.537766},{"name":"松山地域市民センター","province":"東京都","city":"清瀬市","address":"東京都清瀬市松山2-6-25","lat":35.770989,"lon":139.514809},{"name":"野塩地域市民センター","province":"東京都","city":"清瀬市","address":"東京都清瀬市野塩1-322-2","lat":35.779163,"lon":139.499466},{"name":"下宿地域市民センター","province":"東京都","city":"清瀬市","address":"東京都清瀬市下宿2-524-1","lat":35.797491,"lon":139.533321},{"name":"竹丘地域市民センター","province":"東京都","city":"清瀬市","address":"東京都清瀬市竹丘1-11-1","lat":35.765849,"lon":139.51142},{"name":"中清戸地域市民センター","province":"東京都","city":"清瀬市","address":"東京都清瀬市中清戸4-847-5","lat":35.784853,"lon":139.527671},{"name":"中里地域市民センター","province":"東京都","city":"清瀬市","address":"東京都清瀬市中里4-1301","lat":35.78652,"lon":139.514166},{"name":"郷土博物館","province":"東京都","city":"清瀬市","address":"東京都清瀬市上清戸2-6-41","lat":35.779741,"lon":139.521002},{"name":"児童センター","province":"東京都","city":"清瀬市","address":"東京都清瀬市中清戸3-235-5","lat":35.776371,"lon":139.530674},{"name":"きよせボランティア・市民活動センター","province":"東京都","city":"清瀬市","address":"東京都清瀬市上清戸2-6-10","lat":35.779175,"lon":139.521079},{"name":"消費生活センター","province":"東京都","city":"清瀬市","address":"東京都清瀬市元町1-4-17","lat":35.774417,"lon":139.520637},{"name":"清瀬元町配水所","province":"東京都","city":"清瀬市","address":"東京都清瀬市元町2-27-12","lat":35.777665,"lon":139.51738},{"name":"市立第3保育園","province":"東京都","city":"清瀬市","address":"東京都清瀬市旭が丘3-755-1","lat":35.798093,"lon":139.539109},{"name":"清瀬梅園給水所","province":"東京都","city":"清瀬市","address":"東京都清瀬市梅園1-3","lat":35.771644,"lon":139.507321},{"name":"清瀬小学校","province":"東京都","city":"清瀬市","address":"東京都清瀬市中里5丁目741","lat":35.78521086,"lon":139.52560538},{"name":"芝山小学校","province":"東京都","city":"清瀬市","address":"東京都清瀬市元町2丁目16-8","lat":35.77535899,"lon":139.511204},{"name":"第三小学校","province":"東京都","city":"清瀬市","address":"東京都清瀬市竹丘1丁目15-4","lat":35.76856813,"lon":139.50992645},{"name":"第四小学校","province":"東京都","city":"清瀬市","address":"東京都清瀬市中里2丁目1471","lat":35.78323576,"lon":139.51043456},{"name":"清明小学校","province":"東京都","city":"清瀬市","address":"東京都清瀬市旭が丘2丁目8-1","lat":35.79688461,"lon":139.539993},{"name":"第六小学校","province":"東京都","city":"清瀬市","address":"東京都清瀬市梅園2丁目9-45","lat":35.77171482,"lon":139.50441299},{"name":"第七小学校","province":"東京都","city":"清瀬市","address":"東京都清瀬市松山3丁目1-92","lat":35.7680377,"lon":139.51264842},{"name":"第八小学校","province":"東京都","city":"清瀬市","address":"東京都清瀬市中清戸4丁目1070","lat":35.78730514,"lon":139.53083267},{"name":"第十小学校","province":"東京都","city":"清瀬市","address":"東京都清瀬市中清戸1丁目454-14","lat":35.77514829,"lon":139.52753573},{"name":"清瀬中学校","province":"東京都","city":"清瀬市","address":"東京都清瀬市中里5丁目624","lat":35.78481922,"lon":139.52486379},{"name":"第二中学校","province":"東京都","city":"清瀬市","address":"東京都清瀬市梅園2丁目9-15","lat":35.7733202,"lon":139.50502681},{"name":"第三中学校","province":"東京都","city":"清瀬市","address":"東京都清瀬市旭が丘1丁目262","lat":35.79147967,"lon":139.53471843},{"name":"第四中学校","province":"東京都","city":"清瀬市","address":"東京都清瀬市野塩3丁目2-3","lat":35.77872237,"lon":139.50745708},{"name":"第五中学校","province":"東京都","city":"清瀬市","address":"東京都清瀬市中清戸3丁目258-1","lat":35.77498457,"lon":139.53371287},{"name":"東京都立清瀬高等学校グラウンド","province":"東京都","city":"清瀬市","address":"東京都清瀬市松山3丁目1-56","lat":35.76969866,"lon":139.51487318},{"name":"都職員共済組合清瀬グランド","province":"東京都","city":"清瀬市","address":"東京都清瀬市竹丘3丁目10-5","lat":35.76460172,"lon":139.5013023},{"name":"東星学園体育館前校庭・幼稚園園庭","province":"東京都","city":"清瀬市","address":"東京都清瀬市梅園3丁目14-47","lat":35.77403671,"lon":139.50180485},{"name":"日本社会事業大学駐車場","province":"東京都","city":"清瀬市","address":"東京都清瀬市竹丘3丁目1-30","lat":35.76642387,"lon":139.50676289},{"name":"明治薬科大学清瀬キャンパス正門アクセスモール","province":"東京都","city":"清瀬市","address":"東京都清瀬市野塩2丁目522-1","lat":35.78130535,"lon":139.50652658},{"name":"国立看護大学校内グラウンド","province":"東京都","city":"清瀬市","address":"東京都清瀬市梅園1丁目2-1","lat":35.77402019,"lon":139.50818485},{"name":"(工事期間中受け入れ不可）都立清瀬特別支援学校","province":"東京都","city":"清瀬市","address":"東京都清瀬市松山3丁目1-97","lat":35.76895978,"lon":139.51152906},{"name":"清瀬市郷土博物館","province":"東京都","city":"清瀬市","address":"東京都清瀬市上清戸2-6-41","lat":35.7795,"lon":139.521},{"name":"旧森田家","province":"東京都","city":"清瀬市","address":"東京都清瀬市下宿2-524-1","lat":35.7976,"lon":139.533},{"name":"清瀬市","province":"東京都","city":"清瀬市","address":"清瀬市中里5-842","lat":35.7860525,"lon":139.5263525},{"name":"東京都職員共済組合清瀬運動場","province":"東京都","city":"清瀬市","address":"東京都清瀬市竹丘3丁目10-5","lat":35.763239,"lon":139.501765},{"name":"清瀬消防署","province":"東京都","city":"清瀬市","address":"東京都清瀬市中清戸2丁目850-1","lat":35.784199,"lon":139.527612},{"name":"清瀬市男女共同参画センター","province":"東京都","city":"清瀬市","address":"東京都清瀬市元町1丁目2-11","lat":35.772081,"lon":139.521166},{"name":"清瀬市立野塩地域市民センター","province":"東京都","city":"清瀬市","address":"東京都清瀬市野塩1丁目322-2","lat":35.779154,"lon":139.499453},{"name":"清瀬市消費生活センター","province":"東京都","city":"清瀬市","address":"東京都清瀬市元町1丁目4-17","lat":35.774432,"lon":139.520631},{"name":"清瀬市立松山地域市民センター","province":"東京都","city":"清瀬市","address":"東京都清瀬市松山2丁目6-25","lat":35.771015,"lon":139.514769},{"name":"清瀬市立中央図書館","province":"東京都","city":"清瀬市","address":"東京都清瀬市梅園1丁目1-21","lat":35.773061,"lon":139.511158},{"name":"清瀬市児童センター","province":"東京都","city":"清瀬市","address":"東京都清瀬市中清戸3丁目235-5","lat":35.776369,"lon":139.530591},{"name":"清瀬市しあわせ未来センター","province":"東京都","city":"清瀬市","address":"東京都清瀬市中里5丁目842","lat":35.786013,"lon":139.526003},{"name":"きよせボランティア・市民活動センター","province":"東京都","city":"清瀬市","address":"東京都清瀬市上清戸2丁目6-10","lat":35.779244,"lon":139.520989},{"name":"清瀬市役所本庁舎","province":"東京都","city":"清瀬市","address":"東京都清瀬市中里5丁目842","lat":35.7855,"lon":139.526736},{"name":"清瀬市生涯学習センター","province":"東京都","city":"清瀬市","address":"東京都清瀬市元町1丁目2-11","lat":35.772116,"lon":139.521038},{"name":"下清戸集会所","province":"東京都","city":"清瀬市","address":"東京都清瀬市下清戸5丁目","lat":35.786967,"lon":139.540721},{"name":"下清戸集会所","province":"東京都","city":"清瀬市","address":"東京都清瀬市下清戸5丁目855-3","lat":35.786898,"lon":139.540697},{"name":"清瀬市コミュニティプラザ","province":"東京都","city":"清瀬市","address":"東京都清瀬市下清戸1丁目212-4","lat":35.77785,"lon":139.539004},{"name":"清瀬市下宿地域市民センター","province":"東京都","city":"清瀬市","address":"東京都清瀬市下宿2丁目524-1","lat":35.797345,"lon":139.533076},{"name":"清瀬市立竹丘地域市民センター","province":"東京都","city":"清瀬市","address":"東京都清瀬市竹丘1丁目11","lat":35.765832,"lon":139.51142},{"name":"清瀬市立中清戸地域市民センター","province":"東京都","city":"清瀬市","address":"東京都清瀬市中清戸4丁目847","lat":35.785085,"lon":139.528109},{"name":"清瀬市立中里地域市民センター","province":"東京都","city":"清瀬市","address":"東京都清瀬市中里4丁目1301","lat":35.78659,"lon":139.514052},{"name":"清瀬市郷土博物館","province":"東京都","city":"清瀬市","address":"東京都清瀬市上清戸2丁目6-41","lat":35.779715,"lon":139.520962},{"name":"清瀬けやきホール","province":"東京都","city":"清瀬市","address":"東京都清瀬市元町1丁目6-6","lat":35.774541,"lon":139.519545},{"name":"清瀬けやきホール","province":"東京都","city":"清瀬市","address":"東京都清瀬市元町1丁目6-6","lat":35.774615,"lon":139.519615},{"name":"清瀬けやきホール","province":"東京都","city":"清瀬市","address":"東京都清瀬市元町1丁目6-6","lat":35.774663,"lon":139.519519},{"name":"清瀬中央公園","province":"東京都","city":"清瀬市","address":"東京都清瀬市梅園1丁目2","lat":35.773901,"lon":139.511016},{"name":"神山公園","province":"東京都","city":"清瀬市","address":"東京都清瀬市中清戸3丁目","lat":35.775562,"lon":139.531032},{"name":"金山緑地公園","province":"東京都","city":"清瀬市","address":"東京都清瀬市中里4丁目","lat":35.78918,"lon":139.522429},{"name":"竹丘緑地公園","province":"東京都","city":"清瀬市","address":"東京都清瀬市竹丘2丁目7","lat":35.765144,"lon":139.509776},{"name":"竹丘なかよし公園","province":"東京都","city":"清瀬市","address":"東京都清瀬市竹丘1丁目14","lat":35.767155,"lon":139.511048},{"name":"せせらぎ公園","province":"東京都","city":"清瀬市","address":"東京都清瀬市中里2丁目","lat":35.783195,"lon":139.510571},{"name":"中里柳瀬公園","province":"東京都","city":"清瀬市","address":"東京都清瀬市中里4丁目","lat":35.786545,"lon":139.514427},{"name":"中清戸けやき公園","province":"東京都","city":"清瀬市","address":"東京都清瀬市中清戸4丁目","lat":35.786343,"lon":139.529185},{"name":"清瀬駅南口公衆トイレ","province":"東京都","city":"清瀬市","address":"東京都清瀬市松山1丁目2","lat":35.771818,"lon":139.520245},{"name":"清瀬市障害者福祉センター","province":"東京都","city":"清瀬市","address":"東京都清瀬市上清戸1丁目16-62","lat":35.77336,"lon":139.527637},{"name":"清瀬市障害者福祉センター","province":"東京都","city":"清瀬市","address":"東京都清瀬市上清戸1丁目16-62","lat":35.77339,"lon":139.527597},{"name":"清瀬市子どもの発達支援・交流センターとことこ","province":"東京都","city":"清瀬市","address":"東京都清瀬市竹丘1丁目15-8","lat":35.768114,"lon":139.51107},{"name":"野塩多世代交流施設 えーるプラザ野塩","province":"東京都","city":"清瀬市","address":"東京都清瀬市野塩2丁目","lat":35.782297,"lon":139.502462},{"name":"清瀬元町配水所","province":"東京都","city":"清瀬市","address":"東京都清瀬市元町2-27-12","lat":35.777687,"lon":139.517376},{"name":"市立第３保育園","province":"東京都","city":"清瀬市","address":"東京都清瀬市旭が丘3-755-1","lat":35.7979192,"lon":139.5391642},{"name":"清瀬梅園給水所","province":"東京都","city":"清瀬市","address":"東京都清瀬市梅園1-3","lat":35.770799,"lon":139.5079632},{"name":"清瀬駅北口第2駐輪場","province":"東京都","city":"清瀬市","address":"東京都清瀬市上清戸1丁目6","lat":35.77465379,"lon":139.52268069},{"name":"清瀬駅南口駐輪場","province":"東京都","city":"清瀬市","address":"東京都清瀬市松山1丁目10-14","lat":35.77186793,"lon":139.51897276},{"name":"清瀬駅南口第2駐輪場","province":"東京都","city":"清瀬市","address":"東京都清瀬市松山1丁目3-6","lat":35.7710153,"lon":139.52093647},{"name":"清瀬市役所入口","province":"東京都","city":"清瀬市","address":"東京都清瀬市中清戸3丁目205","lat":35.78096152,"lon":139.53019096},{"name":"清瀬水天宮前","province":"東京都","city":"清瀬市","address":"東京都清瀬市中清戸2丁目616","lat":35.78005876,"lon":139.52625248},{"name":"台田団地入口","province":"東京都","city":"清瀬市","address":"東京都清瀬市中里5丁目636-22","lat":35.78700223,"lon":139.52292789},{"name":"国立東京病院前","province":"東京都","city":"清瀬市","address":"東京都清瀬市竹丘1丁目17","lat":35.76976789,"lon":139.50637674},{"name":"中清戸駐在所前","province":"東京都","city":"清瀬市","address":"東京都清瀬市上清戸2丁目1","lat":35.77943659,"lon":139.52496373},{"name":"中清戸団地入口","province":"東京都","city":"清瀬市","address":"東京都清瀬市中清戸4丁目1096","lat":35.78254192,"lon":139.53263518},{"name":"長命寺前","province":"東京都","city":"清瀬市","address":"東京都清瀬市下清戸2丁目470","lat":35.7837668,"lon":139.53509054},{"name":"けやき通り元町一丁目","province":"東京都","city":"清瀬市","address":"東京都清瀬市元町1丁目4-17","lat":35.7745482,"lon":139.520617},{"name":"中清戸五丁目東","province":"東京都","city":"清瀬市","address":"東京都清瀬市中清戸5丁目47-4","lat":35.78114768,"lon":139.53326563},{"name":"日本社会事業大学入口","province":"東京都","city":"清瀬市","address":"東京都清瀬市竹丘1丁目16","lat":35.76764323,"lon":139.50961816},{"name":"国立病院機構東京病院","province":"東京都","city":"清瀬市","address":"東京都清瀬市竹丘3丁目1-1","lat":35.76696263,"lon":139.5045714},{"name":"都立清瀬小児病院","province":"東京都","city":"清瀬市","address":"東京都清瀬市梅園1丁目3-1","lat":35.77061503,"lon":139.50738775},{"name":"＊?清瀬市生涯学習センター","province":"東京都","city":"清瀬市","address":"清瀬市元町1-2-11アミューー5~7階","lat":35.772216,"lon":139.521175},{"name":"清瀬市健康センター","province":"東京都","city":"清瀬市","address":"東京都清瀬市中里5丁目842","lat":35.78608019,"lon":139.52608035},{"name":"清瀬市本庁舎","province":"東京都","city":"清瀬市","address":"東京都清瀬市中里5丁目842","lat":35.78608019,"lon":139.52608035},{"name":"清瀬市本庁舎","province":"東京都","city":"清瀬市","address":"清瀬市中里5-842","lat":35.786053,"lon":139.526353},{"name":"清瀬消防署","province":"東京都","city":"清瀬市","address":"清瀬市中清戸2-850-1","lat":35.78419,"lon":139.5276},{"name":"（株）千代田","province":"東京都","city":"清瀬市","address":"清瀬市松山2-13-10","lat":35.77322,"lon":139.5138},{"name":"東京都共済組合清瀬運動場","province":"東京都","city":"清瀬市","address":"清瀬市竹丘3-10-5","lat":35.7646,"lon":139.5013},{"name":"※清瀬市本庁舎","province":"東京都","city":"清瀬市","address":"東京都清瀬市中里5丁目842","lat":35.78608019,"lon":139.52608035},{"name":"清瀬駅北口地下駐輪場","province":"東京都","city":"清瀬市","address":"東京都清瀬市元町1-4-3","lat":35.772452,"lon":139.520581},{"name":"清瀬駅北口第２駐輪場","province":"東京都","city":"清瀬市","address":"東京都清瀬市上清戸1-6","lat":35.774316,"lon":139.52275},{"name":"清瀬駅南口駐輪場","province":"東京都","city":"清瀬市","address":"東京都清瀬市松山1-10-14","lat":35.771854,"lon":139.519051},{"name":"清瀬駅南口第2駐輪場","province":"東京都","city":"清瀬市","address":"東京都清瀬市松山1-3-6","lat":35.771019,"lon":139.520917},{"name":"秋津駅北口駐輪場","province":"東京都","city":"清瀬市","address":"東京都清瀬市野塩1-342-1","lat":35.778799,"lon":139.50021},{"name":"秋津駅南口駐輪場","province":"東京都","city":"清瀬市","address":"東京都清瀬市野塩5-280-22","lat":35.776632,"lon":139.496537},{"name":"特別養護老人ホーム 救世軍恵泉ホーム","province":"東京都","city":"清瀬市","address":"東京都清瀬市竹丘1-17-61","lat":35.769635,"lon":139.508107},{"name":"特別養護老人ホーム 上宮園","province":"東京都","city":"清瀬市","address":"東京都清瀬市竹丘3-3-31","lat":35.767543,"lon":139.502455},{"name":"特別養護老人ホーム 信愛の園","province":"東京都","city":"清瀬市","address":"東京都清瀬市梅園2-3-15","lat":35.772751,"lon":139.503522},{"name":"特別養護老人ホーム 清雅苑","province":"東京都","city":"清瀬市","address":"東京都清瀬市中里5-91-2","lat":35.789366,"lon":139.531891},{"name":"特別養護老人ホーム 聖ヨゼフ老人ホーム","province":"東京都","city":"清瀬市","address":"東京都清瀬市梅園3-14-72","lat":35.772165,"lon":139.501911},{"name":"清瀬どんぐりの家","province":"東京都","city":"清瀬市","address":"東京都清瀬市野塩4-230-1","lat":35.774754,"lon":139.500036},{"name":"工房わかば","province":"東京都","city":"清瀬市","address":"東京都清瀬市野塩4-59-8","lat":35.775592,"lon":139.506768},{"name":"清瀬療護園","province":"東京都","city":"清瀬市","address":"東京都清瀬市竹丘3-1-72","lat":35.765507,"lon":139.503219},{"name":"介護老人保健施設 たけおか","province":"東京都","city":"清瀬市","address":"東京都清瀬市竹丘2-3-21","lat":35.76518,"lon":139.50899},{"name":"介護老人保健施設 ラビアンローゼ","province":"東京都","city":"清瀬市","address":"東京都清瀬市下清戸3-385","lat":35.784884,"lon":139.538971},{"name":"介護老人保健施設 きよせ認知症ケアセンター","province":"東京都","city":"清瀬市","address":"東京都清瀬市中清戸5-27","lat":35.77695,"lon":139.536959},{"name":"介護老人福祉施設 すずらん※","province":"東京都","city":"清瀬市","address":"東京都清瀬市長野県北佐久郡立科町大字芦田720-1","lat":36.27413,"lon":138.32288},{"name":"障害者福祉センター","province":"東京都","city":"清瀬市","address":"東京都清瀬市上清戸1-16-62","lat":35.773273,"lon":139.527679},{"name":"子どもの発達支援・交流センターとことこ","province":"東京都","city":"清瀬市","address":"東京都清瀬市竹丘1-15-8","lat":35.768108,"lon":139.511079},{"name":"東京都立 清瀬特別支援学校","province":"東京都","city":"清瀬市","address":"東京都清瀬市松山3-1-97","lat":35.76896,"lon":139.511529},{"name":"ヒューマンライフケア清瀬","province":"東京都","city":"清瀬市","address":"東京都清瀬市元町1-8-25","lat":35.77412,"lon":139.519828},{"name":"ツクイ秋津","province":"東京都","city":"清瀬市","address":"東京都清瀬市野塩1-303-2","lat":35.779016,"lon":139.497067},{"name":"グループホーム清瀬","province":"東京都","city":"清瀬市","address":"東京都清瀬市中清戸5-132-1","lat":35.779676,"lon":139.532555},{"name":"グループホームさくらの苑","province":"東京都","city":"清瀬市","address":"東京都清瀬市中清戸5-27-3","lat":35.779659,"lon":139.532564},{"name":"しんあい清戸の里","province":"東京都","city":"清瀬市","address":"東京都清瀬市下清戸1-305-1","lat":35.780341,"lon":139.536013},{"name":"ホームステーションらいふ清瀬","province":"東京都","city":"清瀬市","address":"東京都清瀬市松山1-4-16","lat":35.770683,"lon":139.5207},{"name":"みどりの樹清瀬","province":"東京都","city":"清瀬市","address":"東京都清瀬市下清戸4-709-17","lat":35.786527,"lon":139.539276},{"name":"清瀬小学校","province":"東京都","city":"清瀬市","address":"東京都清瀬市中里5-741","lat":35.785719,"lon":139.525573},{"name":"芝山小学校","province":"東京都","city":"清瀬市","address":"東京都清瀬市元町2-16-8","lat":35.775287,"lon":139.511307},{"name":"第三小学校","province":"東京都","city":"清瀬市","address":"東京都清瀬市竹丘1-15-4","lat":35.768423,"lon":139.510224},{"name":"第四小学校","province":"東京都","city":"清瀬市","address":"東京都清瀬市中里2-1471","lat":35.783011,"lon":139.510224},{"name":"第六小学校","province":"東京都","city":"清瀬市","address":"東京都清瀬市梅園2-9-45","lat":35.771657,"lon":139.503822},{"name":"第七小学校","province":"東京都","city":"清瀬市","address":"東京都清瀬市松山3-1-92","lat":35.767974,"lon":139.512557},{"name":"第八小学校","province":"東京都","city":"清瀬市","address":"東京都清瀬市中清戸4-1070","lat":35.781332,"lon":139.530545},{"name":"第十小学校","province":"東京都","city":"清瀬市","address":"東京都清瀬市中清戸1-454-14","lat":35.775219,"lon":139.527966},{"name":"清明小学校","province":"東京都","city":"清瀬市","address":"東京都清瀬市旭が丘2-8-1","lat":35.796663,"lon":139.539587},{"name":"清瀬中学校","province":"東京都","city":"清瀬市","address":"東京都清瀬市中里5-624","lat":35.784843,"lon":139.52496},{"name":"第二中学校","province":"東京都","city":"清瀬市","address":"東京都清瀬市梅園2-9-15","lat":35.773323,"lon":139.505105},{"name":"第三中学校","province":"東京都","city":"清瀬市","address":"東京都清瀬市旭が丘1-262","lat":35.791564,"lon":139.534861},{"name":"第四中学校","province":"東京都","city":"清瀬市","address":"東京都清瀬市野塩3-2-3","lat":35.778777,"lon":139.507985},{"name":"第五中学校","province":"東京都","city":"清瀬市","address":"東京都清瀬市中清戸3-258-1","lat":35.775094,"lon":139.534001},{"name":"清瀬けやきホール","province":"東京都","city":"清瀬市","address":"東京都清瀬市元町1-6-6","lat":35.774561,"lon":139.519556},{"name":"コミュニティプラザひまわり","province":"東京都","city":"清瀬市","address":"東京都清瀬市下清戸1-212-4","lat":35.77804,"lon":139.537766},{"name":"松山地域市民センター","province":"東京都","city":"清瀬市","address":"東京都清瀬市松山2-6-25","lat":35.770989,"lon":139.514809},{"name":"野塩地域市民センター","province":"東京都","city":"清瀬市","address":"東京都清瀬市野塩1-322-2","lat":35.779163,"lon":139.499466},{"name":"下宿地域市民センター","province":"東京都","city":"清瀬市","address":"東京都清瀬市下宿2-524-1","lat":35.797491,"lon":139.533321},{"name":"竹丘地域市民センター","province":"東京都","city":"清瀬市","address":"東京都清瀬市竹丘1-11-1","lat":35.765849,"lon":139.51142},{"name":"中清戸地域市民センター","province":"東京都","city":"清瀬市","address":"東京都清瀬市中清戸4-847-5","lat":35.784853,"lon":139.527671},{"name":"中里地域市民センター","province":"東京都","city":"清瀬市","address":"東京都清瀬市中里4-1301","lat":35.78652,"lon":139.514166},{"name":"郷土博物館","province":"東京都","city":"清瀬市","address":"東京都清瀬市上清戸2-6-41","lat":35.779741,"lon":139.521002},{"name":"児童センター","province":"東京都","city":"清瀬市","address":"東京都清瀬市中清戸3-235-5","lat":35.776371,"lon":139.530674},{"name":"きよせボランティア・市民活動センター","province":"東京都","city":"清瀬市","address":"東京都清瀬市上清戸2-6-10","lat":35.779175,"lon":139.521079},{"name":"消費生活センター","province":"東京都","city":"清瀬市","address":"東京都清瀬市元町1-4-17","lat":35.774417,"lon":139.520637},{"name":"清瀬元町配水所","province":"東京都","city":"清瀬市","address":"東京都清瀬市元町2-27-12","lat":35.777665,"lon":139.51738},{"name":"市立第3保育園","province":"東京都","city":"清瀬市","address":"東京都清瀬市旭が丘3-755-1","lat":35.798093,"lon":139.539109},{"name":"清瀬梅園給水所","province":"東京都","city":"清瀬市","address":"東京都清瀬市梅園1-3","lat":35.771644,"lon":139.507321},{"name":"清瀬小学校","province":"東京都","city":"清瀬市","address":"東京都清瀬市中里5丁目741","lat":35.78521086,"lon":139.52560538},{"name":"芝山小学校","province":"東京都","city":"清瀬市","address":"東京都清瀬市元町2丁目16-8","lat":35.77535899,"lon":139.511204},{"name":"第三小学校","province":"東京都","city":"清瀬市","address":"東京都清瀬市竹丘1丁目15-4","lat":35.76856813,"lon":139.50992645},{"name":"第四小学校","province":"東京都","city":"清瀬市","address":"東京都清瀬市中里2丁目1471","lat":35.78323576,"lon":139.51043456},{"name":"清明小学校","province":"東京都","city":"清瀬市","address":"東京都清瀬市旭が丘2丁目8-1","lat":35.79688461,"lon":139.539993},{"name":"第六小学校","province":"東京都","city":"清瀬市","address":"東京都清瀬市梅園2丁目9-45","lat":35.77171482,"lon":139.50441299},{"name":"第七小学校","province":"東京都","city":"清瀬市","address":"東京都清瀬市松山3丁目1-92","lat":35.7680377,"lon":139.51264842},{"name":"第八小学校","province":"東京都","city":"清瀬市","address":"東京都清瀬市中清戸4丁目1070","lat":35.78730514,"lon":139.53083267},{"name":"第十小学校","province":"東京都","city":"清瀬市","address":"東京都清瀬市中清戸1丁目454-14","lat":35.77514829,"lon":139.52753573},{"name":"清瀬中学校","province":"東京都","city":"清瀬市","address":"東京都清瀬市中里5丁目624","lat":35.78481922,"lon":139.52486379},{"name":"第二中学校","province":"東京都","city":"清瀬市","address":"東京都清瀬市梅園2丁目9-15","lat":35.7733202,"lon":139.50502681},{"name":"第三中学校","province":"東京都","city":"清瀬市","address":"東京都清瀬市旭が丘1丁目262","lat":35.79147967,"lon":139.53471843},{"name":"第四中学校","province":"東京都","city":"清瀬市","address":"東京都清瀬市野塩3丁目2-3","lat":35.77872237,"lon":139.50745708},{"name":"第五中学校","province":"東京都","city":"清瀬市","address":"東京都清瀬市中清戸3丁目258-1","lat":35.77498457,"lon":139.53371287},{"name":"東京都立清瀬高等学校グラウンド","province":"東京都","city":"清瀬市","address":"東京都清瀬市松山3丁目1-56","lat":35.76969866,"lon":139.51487318},{"name":"都職員共済組合清瀬グランド","province":"東京都","city":"清瀬市","address":"東京都清瀬市竹丘3丁目10-5","lat":35.76460172,"lon":139.5013023},{"name":"東星学園体育館前校庭・幼稚園園庭","province":"東京都","city":"清瀬市","address":"東京都清瀬市梅園3丁目14-47","lat":35.77403671,"lon":139.50180485},{"name":"日本社会事業大学駐車場","province":"東京都","city":"清瀬市","address":"東京都清瀬市竹丘3丁目1-30","lat":35.76642387,"lon":139.50676289},{"name":"明治薬科大学清瀬キャンパス正門アクセスモール","province":"東京都","city":"清瀬市","address":"東京都清瀬市野塩2丁目522-1","lat":35.78130535,"lon":139.50652658},{"name":"国立看護大学校内グラウンド","province":"東京都","city":"清瀬市","address":"東京都清瀬市梅園1丁目2-1","lat":35.77402019,"lon":139.50818485},{"name":"(工事期間中受け入れ不可）都立清瀬特別支援学校","province":"東京都","city":"清瀬市","address":"東京都清瀬市松山3丁目1-97","lat":35.76895978,"lon":139.51152906},{"name":"清瀬市郷土博物館","province":"東京都","city":"清瀬市","address":"東京都清瀬市上清戸2-6-41","lat":35.7795,"lon":139.521},{"name":"旧森田家","province":"東京都","city":"清瀬市","address":"東京都清瀬市下宿2-524-1","lat":35.7976,"lon":139.533},{"name":"清瀬市","province":"東京都","city":"清瀬市","address":"清瀬市中里5-842","lat":35.7860525,"lon":139.5263525},{"name":"東京都職員共済組合清瀬運動場","province":"東京都","city":"清瀬市","address":"東京都清瀬市竹丘3丁目10-5","lat":35.763239,"lon":139.501765},{"name":"清瀬消防署","province":"東京都","city":"清瀬市","address":"東京都清瀬市中清戸2丁目850-1","lat":35.784199,"lon":139.527612},{"name":"清瀬市男女共同参画センター","province":"東京都","city":"清瀬市","address":"東京都清瀬市元町1丁目2-11","lat":35.772081,"lon":139.521166},{"name":"清瀬市立野塩地域市民センター","province":"東京都","city":"清瀬市","address":"東京都清瀬市野塩1丁目322-2","lat":35.779154,"lon":139.499453},{"name":"清瀬市消費生活センター","province":"東京都","city":"清瀬市","address":"東京都清瀬市元町1丁目4-17","lat":35.774432,"lon":139.520631},{"name":"清瀬市立松山地域市民センター","province":"東京都","city":"清瀬市","address":"東京都清瀬市松山2丁目6-25","lat":35.771015,"lon":139.514769},{"name":"清瀬市立中央図書館","province":"東京都","city":"清瀬市","address":"東京都清瀬市梅園1丁目1-21","lat":35.773061,"lon":139.511158},{"name":"清瀬市児童センター","province":"東京都","city":"清瀬市","address":"東京都清瀬市中清戸3丁目235-5","lat":35.776369,"lon":139.530591},{"name":"清瀬市しあわせ未来センター","province":"東京都","city":"清瀬市","address":"東京都清瀬市中里5丁目842","lat":35.786013,"lon":139.526003},{"name":"きよせボランティア・市民活動センター","province":"東京都","city":"清瀬市","address":"東京都清瀬市上清戸2丁目6-10","lat":35.779244,"lon":139.520989},{"name":"清瀬市役所本庁舎","province":"東京都","city":"清瀬市","address":"東京都清瀬市中里5丁目842","lat":35.7855,"lon":139.526736},{"name":"清瀬市生涯学習センター","province":"東京都","city":"清瀬市","address":"東京都清瀬市元町1丁目2-11","lat":35.772116,"lon":139.521038},{"name":"下清戸集会所","province":"東京都","city":"清瀬市","address":"東京都清瀬市下清戸5丁目","lat":35.786967,"lon":139.540721},{"name":"下清戸集会所","province":"東京都","city":"清瀬市","address":"東京都清瀬市下清戸5丁目855-3","lat":35.786898,"lon":139.540697},{"name":"清瀬市コミュニティプラザ","province":"東京都","city":"清瀬市","address":"東京都清瀬市下清戸1丁目212-4","lat":35.77785,"lon":139.539004},{"name":"清瀬市下宿地域市民センター","province":"東京都","city":"清瀬市","address":"東京都清瀬市下宿2丁目524-1","lat":35.797345,"lon":139.533076},{"name":"清瀬市立竹丘地域市民センター","province":"東京都","city":"清瀬市","address":"東京都清瀬市竹丘1丁目11","lat":35.765832,"lon":139.51142},{"name":"清瀬市立中清戸地域市民センター","province":"東京都","city":"清瀬市","address":"東京都清瀬市中清戸4丁目847","lat":35.785085,"lon":139.528109},{"name":"清瀬市立中里地域市民センター","province":"東京都","city":"清瀬市","address":"東京都清瀬市中里4丁目1301","lat":35.78659,"lon":139.514052},{"name":"清瀬市郷土博物館","province":"東京都","city":"清瀬市","address":"東京都清瀬市上清戸2丁目6-41","lat":35.779715,"lon":139.520962},{"name":"清瀬けやきホール","province":"東京都","city":"清瀬市","address":"東京都清瀬市元町1丁目6-6","lat":35.774541,"lon":139.519545},{"name":"清瀬けやきホール","province":"東京都","city":"清瀬市","address":"東京都清瀬市元町1丁目6-6","lat":35.774615,"lon":139.519615},{"name":"清瀬けやきホール","province":"東京都","city":"清瀬市","address":"東京都清瀬市元町1丁目6-6","lat":35.774663,"lon":139.519519},{"name":"清瀬中央公園","province":"東京都","city":"清瀬市","address":"東京都清瀬市梅園1丁目2","lat":35.773901,"lon":139.511016},{"name":"神山公園","province":"東京都","city":"清瀬市","address":"東京都清瀬市中清戸3丁目","lat":35.775562,"lon":139.531032},{"name":"金山緑地公園","province":"東京都","city":"清瀬市","address":"東京都清瀬市中里4丁目","lat":35.78918,"lon":139.522429},{"name":"竹丘緑地公園","province":"東京都","city":"清瀬市","address":"東京都清瀬市竹丘2丁目7","lat":35.765144,"lon":139.509776},{"name":"竹丘なかよし公園","province":"東京都","city":"清瀬市","address":"東京都清瀬市竹丘1丁目14","lat":35.767155,"lon":139.511048},{"name":"せせらぎ公園","province":"東京都","city":"清瀬市","address":"東京都清瀬市中里2丁目","lat":35.783195,"lon":139.510571},{"name":"中里柳瀬公園","province":"東京都","city":"清瀬市","address":"東京都清瀬市中里4丁目","lat":35.786545,"lon":139.514427},{"name":"中清戸けやき公園","province":"東京都","city":"清瀬市","address":"東京都清瀬市中清戸4丁目","lat":35.786343,"lon":139.529185},{"name":"清瀬駅南口公衆トイレ","province":"東京都","city":"清瀬市","address":"東京都清瀬市松山1丁目2","lat":35.771818,"lon":139.520245},{"name":"清瀬市障害者福祉センター","province":"東京都","city":"清瀬市","address":"東京都清瀬市上清戸1丁目16-62","lat":35.77336,"lon":139.527637},{"name":"清瀬市障害者福祉センター","province":"東京都","city":"清瀬市","address":"東京都清瀬市上清戸1丁目16-62","lat":35.77339,"lon":139.527597},{"name":"清瀬市子どもの発達支援・交流センターとことこ","province":"東京都","city":"清瀬市","address":"東京都清瀬市竹丘1丁目15-8","lat":35.768114,"lon":139.51107},{"name":"野塩多世代交流施設 えーるプラザ野塩","province":"東京都","city":"清瀬市","address":"東京都清瀬市野塩2丁目","lat":35.782297,"lon":139.502462},{"name":"清瀬元町配水所","province":"東京都","city":"清瀬市","address":"東京都清瀬市元町2-27-12","lat":35.777687,"lon":139.517376},{"name":"市立第３保育園","province":"東京都","city":"清瀬市","address":"東京都清瀬市旭が丘3-755-1","lat":35.7979192,"lon":139.5391642},{"name":"清瀬梅園給水所","province":"東京都","city":"清瀬市","address":"東京都清瀬市梅園1-3","lat":35.770799,"lon":139.5079632},{"name":"清瀬駅北口第2駐輪場","province":"東京都","city":"清瀬市","address":"東京都清瀬市上清戸1丁目6","lat":35.77465379,"lon":139.52268069},{"name":"清瀬駅南口駐輪場","province":"東京都","city":"清瀬市","address":"東京都清瀬市松山1丁目10-14","lat":35.77186793,"lon":139.51897276},{"name":"清瀬駅南口第2駐輪場","province":"東京都","city":"清瀬市","address":"東京都清瀬市松山1丁目3-6","lat":35.7710153,"lon":139.52093647},{"name":"清瀬市役所入口","province":"東京都","city":"清瀬市","address":"東京都清瀬市中清戸3丁目205","lat":35.78096152,"lon":139.53019096},{"name":"清瀬水天宮前","province":"東京都","city":"清瀬市","address":"東京都清瀬市中清戸2丁目616","lat":35.78005876,"lon":139.52625248},{"name":"台田団地入口","province":"東京都","city":"清瀬市","address":"東京都清瀬市中里5丁目636-22","lat":35.78700223,"lon":139.52292789},{"name":"国立東京病院前","province":"東京都","city":"清瀬市","address":"東京都清瀬市竹丘1丁目17","lat":35.76976789,"lon":139.50637674},{"name":"中清戸駐在所前","province":"東京都","city":"清瀬市","address":"東京都清瀬市上清戸2丁目1","lat":35.77943659,"lon":139.52496373},{"name":"中清戸団地入口","province":"東京都","city":"清瀬市","address":"東京都清瀬市中清戸4丁目1096","lat":35.78254192,"lon":139.53263518},{"name":"長命寺前","province":"東京都","city":"清瀬市","address":"東京都清瀬市下清戸2丁目470","lat":35.7837668,"lon":139.53509054},{"name":"けやき通り元町一丁目","province":"東京都","city":"清瀬市","address":"東京都清瀬市元町1丁目4-17","lat":35.7745482,"lon":139.520617},{"name":"中清戸五丁目東","province":"東京都","city":"清瀬市","address":"東京都清瀬市中清戸5丁目47-4","lat":35.78114768,"lon":139.53326563},{"name":"日本社会事業大学入口","province":"東京都","city":"清瀬市","address":"東京都清瀬市竹丘1丁目16","lat":35.76764323,"lon":139.50961816},{"name":"国立病院機構東京病院","province":"東京都","city":"清瀬市","address":"東京都清瀬市竹丘3丁目1-1","lat":35.76696263,"lon":139.5045714},{"name":"都立清瀬小児病院","province":"東京都","city":"清瀬市","address":"東京都清瀬市梅園1丁目3-1","lat":35.77061503,"lon":139.50738775},{"name":"＊?清瀬市生涯学習センター","province":"東京都","city":"清瀬市","address":"清瀬市元町1-2-11アミューー5~7階","lat":35.772216,"lon":139.521175},{"name":"清瀬市健康センター","province":"東京都","city":"清瀬市","address":"東京都清瀬市中里5丁目842","lat":35.78608019,"lon":139.52608035},{"name":"清瀬市本庁舎","province":"東京都","city":"清瀬市","address":"東京都清瀬市中里5丁目842","lat":35.78608019,"lon":139.52608035},{"name":"清瀬市本庁舎","province":"東京都","city":"清瀬市","address":"清瀬市中里5-842","lat":35.786053,"lon":139.526353},{"name":"清瀬消防署","province":"東京都","city":"清瀬市","address":"清瀬市中清戸2-850-1","lat":35.78419,"lon":139.5276},{"name":"（株）千代田","province":"東京都","city":"清瀬市","address":"清瀬市松山2-13-10","lat":35.77322,"lon":139.5138},{"name":"東京都共済組合清瀬運動場","province":"東京都","city":"清瀬市","address":"清瀬市竹丘3-10-5","lat":35.7646,"lon":139.5013},{"name":"※清瀬市本庁舎","province":"東京都","city":"清瀬市","address":"東京都清瀬市中里5丁目842","lat":35.78608019,"lon":139.52608035},{"name":"清瀬駅北口地下駐輪場","province":"東京都","city":"清瀬市","address":"東京都清瀬市元町1-4-3","lat":35.772452,"lon":139.520581},{"name":"清瀬駅北口第２駐輪場","province":"東京都","city":"清瀬市","address":"東京都清瀬市上清戸1-6","lat":35.774316,"lon":139.52275},{"name":"清瀬駅南口駐輪場","province":"東京都","city":"清瀬市","address":"東京都清瀬市松山1-10-14","lat":35.771854,"lon":139.519051},{"name":"清瀬駅南口第2駐輪場","province":"東京都","city":"清瀬市","address":"東京都清瀬市松山1-3-6","lat":35.771019,"lon":139.520917},{"name":"秋津駅北口駐輪場","province":"東京都","city":"清瀬市","address":"東京都清瀬市野塩1-342-1","lat":35.778799,"lon":139.50021},{"name":"秋津駅南口駐輪場","province":"東京都","city":"清瀬市","address":"東京都清瀬市野塩5-280-22","lat":35.776632,"lon":139.496537},{"name":"特別養護老人ホーム 救世軍恵泉ホーム","province":"東京都","city":"清瀬市","address":"東京都清瀬市竹丘1-17-61","lat":35.769635,"lon":139.508107},{"name":"特別養護老人ホーム 上宮園","province":"東京都","city":"清瀬市","address":"東京都清瀬市竹丘3-3-31","lat":35.767543,"lon":139.502455},{"name":"特別養護老人ホーム 信愛の園","province":"東京都","city":"清瀬市","address":"東京都清瀬市梅園2-3-15","lat":35.772751,"lon":139.503522},{"name":"特別養護老人ホーム 清雅苑","province":"東京都","city":"清瀬市","address":"東京都清瀬市中里5-91-2","lat":35.789366,"lon":139.531891},{"name":"特別養護老人ホーム 聖ヨゼフ老人ホーム","province":"東京都","city":"清瀬市","address":"東京都清瀬市梅園3-14-72","lat":35.772165,"lon":139.501911},{"name":"清瀬どんぐりの家","province":"東京都","city":"清瀬市","address":"東京都清瀬市野塩4-230-1","lat":35.774754,"lon":139.500036},{"name":"工房わかば","province":"東京都","city":"清瀬市","address":"東京都清瀬市野塩4-59-8","lat":35.775592,"lon":139.506768},{"name":"清瀬療護園","province":"東京都","city":"清瀬市","address":"東京都清瀬市竹丘3-1-72","lat":35.765507,"lon":139.503219},{"name":"介護老人保健施設 たけおか","province":"東京都","city":"清瀬市","address":"東京都清瀬市竹丘2-3-21","lat":35.76518,"lon":139.50899},{"name":"介護老人保健施設 ラビアンローゼ","province":"東京都","city":"清瀬市","address":"東京都清瀬市下清戸3-385","lat":35.784884,"lon":139.538971},{"name":"介護老人保健施設 きよせ認知症ケアセンター","province":"東京都","city":"清瀬市","address":"東京都清瀬市中清戸5-27","lat":35.77695,"lon":139.536959},{"name":"介護老人福祉施設 すずらん※","province":"東京都","city":"清瀬市","address":"東京都清瀬市長野県北佐久郡立科町大字芦田720-1","lat":36.27413,"lon":138.32288},{"name":"障害者福祉センター","province":"東京都","city":"清瀬市","address":"東京都清瀬市上清戸1-16-62","lat":35.773273,"lon":139.527679},{"name":"子どもの発達支援・交流センターとことこ","province":"東京都","city":"清瀬市","address":"東京都清瀬市竹丘1-15-8","lat":35.768108,"lon":139.511079},{"name":"東京都立 清瀬特別支援学校","province":"東京都","city":"清瀬市","address":"東京都清瀬市松山3-1-97","lat":35.76896,"lon":139.511529},{"name":"ヒューマンライフケア清瀬","province":"東京都","city":"清瀬市","address":"東京都清瀬市元町1-8-25","lat":35.77412,"lon":139.519828},{"name":"ツクイ秋津","province":"東京都","city":"清瀬市","address":"東京都清瀬市野塩1-303-2","lat":35.779016,"lon":139.497067},{"name":"グループホーム清瀬","province":"東京都","city":"清瀬市","address":"東京都清瀬市中清戸5-132-1","lat":35.779676,"lon":139.532555},{"name":"グループホームさくらの苑","province":"東京都","city":"清瀬市","address":"東京都清瀬市中清戸5-27-3","lat":35.779659,"lon":139.532564},{"name":"しんあい清戸の里","province":"東京都","city":"清瀬市","address":"東京都清瀬市下清戸1-305-1","lat":35.780341,"lon":139.536013},{"name":"ホームステーションらいふ清瀬","province":"東京都","city":"清瀬市","address":"東京都清瀬市松山1-4-16","lat":35.770683,"lon":139.5207},{"name":"みどりの樹清瀬","province":"東京都","city":"清瀬市","address":"東京都清瀬市下清戸4-709-17","lat":35.786527,"lon":139.539276},{"name":"清瀬小学校","province":"東京都","city":"清瀬市","address":"東京都清瀬市中里5-741","lat":35.785719,"lon":139.525573},{"name":"芝山小学校","province":"東京都","city":"清瀬市","address":"東京都清瀬市元町2-16-8","lat":35.775287,"lon":139.511307},{"name":"第三小学校","province":"東京都","city":"清瀬市","address":"東京都清瀬市竹丘1-15-4","lat":35.768423,"lon":139.510224},{"name":"第四小学校","province":"東京都","city":"清瀬市","address":"東京都清瀬市中里2-1471","lat":35.783011,"lon":139.510224},{"name":"第六小学校","province":"東京都","city":"清瀬市","address":"東京都清瀬市梅園2-9-45","lat":35.771657,"lon":139.503822},{"name":"第七小学校","province":"東京都","city":"清瀬市","address":"東京都清瀬市松山3-1-92","lat":35.767974,"lon":139.512557},{"name":"第八小学校","province":"東京都","city":"清瀬市","address":"東京都清瀬市中清戸4-1070","lat":35.781332,"lon":139.530545},{"name":"第十小学校","province":"東京都","city":"清瀬市","address":"東京都清瀬市中清戸1-454-14","lat":35.775219,"lon":139.527966},{"name":"清明小学校","province":"東京都","city":"清瀬市","address":"東京都清瀬市旭が丘2-8-1","lat":35.796663,"lon":139.539587},{"name":"清瀬中学校","province":"東京都","city":"清瀬市","address":"東京都清瀬市中里5-624","lat":35.784843,"lon":139.52496},{"name":"第二中学校","province":"東京都","city":"清瀬市","address":"東京都清瀬市梅園2-9-15","lat":35.773323,"lon":139.505105},{"name":"第三中学校","province":"東京都","city":"清瀬市","address":"東京都清瀬市旭が丘1-262","lat":35.791564,"lon":139.534861},{"name":"第四中学校","province":"東京都","city":"清瀬市","address":"東京都清瀬市野塩3-2-3","lat":35.778777,"lon":139.507985},{"name":"第五中学校","province":"東京都","city":"清瀬市","address":"東京都清瀬市中清戸3-258-1","lat":35.775094,"lon":139.534001},{"name":"清瀬けやきホール","province":"東京都","city":"清瀬市","address":"東京都清瀬市元町1-6-6","lat":35.774561,"lon":139.519556},{"name":"コミュニティプラザひまわり","province":"東京都","city":"清瀬市","address":"東京都清瀬市下清戸1-212-4","lat":35.77804,"lon":139.537766},{"name":"松山地域市民センター","province":"東京都","city":"清瀬市","address":"東京都清瀬市松山2-6-25","lat":35.770989,"lon":139.514809},{"name":"野塩地域市民センター","province":"東京都","city":"清瀬市","address":"東京都清瀬市野塩1-322-2","lat":35.779163,"lon":139.499466},{"name":"下宿地域市民センター","province":"東京都","city":"清瀬市","address":"東京都清瀬市下宿2-524-1","lat":35.797491,"lon":139.533321},{"name":"竹丘地域市民センター","province":"東京都","city":"清瀬市","address":"東京都清瀬市竹丘1-11-1","lat":35.765849,"lon":139.51142},{"name":"中清戸地域市民センター","province":"東京都","city":"清瀬市","address":"東京都清瀬市中清戸4-847-5","lat":35.784853,"lon":139.527671},{"name":"中里地域市民センター","province":"東京都","city":"清瀬市","address":"東京都清瀬市中里4-1301","lat":35.78652,"lon":139.514166},{"name":"郷土博物館","province":"東京都","city":"清瀬市","address":"東京都清瀬市上清戸2-6-41","lat":35.779741,"lon":139.521002},{"name":"児童センター","province":"東京都","city":"清瀬市","address":"東京都清瀬市中清戸3-235-5","lat":35.776371,"lon":139.530674},{"name":"きよせボランティア・市民活動センター","province":"東京都","city":"清瀬市","address":"東京都清瀬市上清戸2-6-10","lat":35.779175,"lon":139.521079},{"name":"消費生活センター","province":"東京都","city":"清瀬市","address":"東京都清瀬市元町1-4-17","lat":35.774417,"lon":139.520637},{"name":"清瀬小学校","province":"東京都","city":"清瀬市","address":"東京都清瀬市中里5丁目741","lat":35.78521086,"lon":139.52560538},{"name":"芝山小学校","province":"東京都","city":"清瀬市","address":"東京都清瀬市元町2丁目16-8","lat":35.77535899,"lon":139.511204},{"name":"第三小学校","province":"東京都","city":"清瀬市","address":"東京都清瀬市竹丘1丁目15-4","lat":35.76856813,"lon":139.50992645},{"name":"第四小学校","province":"東京都","city":"清瀬市","address":"東京都清瀬市中里2丁目1471","lat":35.78323576,"lon":139.51043456},{"name":"清明小学校","province":"東京都","city":"清瀬市","address":"東京都清瀬市旭が丘2丁目8-1","lat":35.79688461,"lon":139.539993},{"name":"第六小学校","province":"東京都","city":"清瀬市","address":"東京都清瀬市梅園2丁目9-45","lat":35.77171482,"lon":139.50441299},{"name":"第七小学校","province":"東京都","city":"清瀬市","address":"東京都清瀬市松山3丁目1-92","lat":35.7680377,"lon":139.51264842},{"name":"第八小学校","province":"東京都","city":"清瀬市","address":"東京都清瀬市中清戸4丁目1070","lat":35.78730514,"lon":139.53083267},{"name":"第十小学校","province":"東京都","city":"清瀬市","address":"東京都清瀬市中清戸1丁目454-14","lat":35.77514829,"lon":139.52753573},{"name":"清瀬中学校","province":"東京都","city":"清瀬市","address":"東京都清瀬市中里5丁目624","lat":35.78481922,"lon":139.52486379},{"name":"第二中学校","province":"東京都","city":"清瀬市","address":"東京都清瀬市梅園2丁目9-15","lat":35.7733202,"lon":139.50502681},{"name":"第三中学校","province":"東京都","city":"清瀬市","address":"東京都清瀬市旭が丘1丁目262","lat":35.79147967,"lon":139.53471843},{"name":"第四中学校","province":"東京都","city":"清瀬市","address":"東京都清瀬市野塩3丁目2-3","lat":35.77872237,"lon":139.50745708},{"name":"第五中学校","province":"東京都","city":"清瀬市","address":"東京都清瀬市中清戸3丁目258-1","lat":35.77498457,"lon":139.53371287},{"name":"東京都立清瀬高等学校グラウンド","province":"東京都","city":"清瀬市","address":"東京都清瀬市松山3丁目1-56","lat":35.76969866,"lon":139.51487318},{"name":"都職員共済組合清瀬グランド","province":"東京都","city":"清瀬市","address":"東京都清瀬市竹丘3丁目10-5","lat":35.76460172,"lon":139.5013023},{"name":"東星学園体育館前校庭・幼稚園園庭","province":"東京都","city":"清瀬市","address":"東京都清瀬市梅園3丁目14-47","lat":35.77403671,"lon":139.50180485},{"name":"日本社会事業大学駐車場","province":"東京都","city":"清瀬市","address":"東京都清瀬市竹丘3丁目1-30","lat":35.76642387,"lon":139.50676289},{"name":"明治薬科大学清瀬キャンパス正門アクセスモール","province":"東京都","city":"清瀬市","address":"東京都清瀬市野塩2丁目522-1","lat":35.78130535,"lon":139.50652658},{"name":"国立看護大学校内グラウンド","province":"東京都","city":"清瀬市","address":"東京都清瀬市梅園1丁目2-1","lat":35.77402019,"lon":139.50818485},{"name":"(工事期間中受け入れ不可）都立清瀬特別支援学校","province":"東京都","city":"清瀬市","address":"東京都清瀬市松山3丁目1-97","lat":35.76895978,"lon":139.51152906},{"name":"清瀬市郷土博物館","province":"東京都","city":"清瀬市","address":"東京都清瀬市上清戸2-6-41","lat":35.7795,"lon":139.521},{"name":"旧森田家","province":"東京都","city":"清瀬市","address":"東京都清瀬市下宿2-524-1","lat":35.7976,"lon":139.533},{"name":"清瀬市","province":"東京都","city":"清瀬市","address":"清瀬市中里5-842","lat":35.7860525,"lon":139.5263525},{"name":"東京都職員共済組合清瀬運動場","province":"東京都","city":"清瀬市","address":"東京都清瀬市竹丘3丁目10-5","lat":35.763239,"lon":139.501765},{"name":"清瀬消防署","province":"東京都","city":"清瀬市","address":"東京都清瀬市中清戸2丁目850-1","lat":35.784199,"lon":139.527612},{"name":"清瀬市男女共同参画センター","province":"東京都","city":"清瀬市","address":"東京都清瀬市元町1丁目2-11","lat":35.772081,"lon":139.521166},{"name":"清瀬市立野塩地域市民センター","province":"東京都","city":"清瀬市","address":"東京都清瀬市野塩1丁目322-2","lat":35.779154,"lon":139.499453},{"name":"清瀬市消費生活センター","province":"東京都","city":"清瀬市","address":"東京都清瀬市元町1丁目4-17","lat":35.774432,"lon":139.520631},{"name":"清瀬市立松山地域市民センター","province":"東京都","city":"清瀬市","address":"東京都清瀬市松山2丁目6-25","lat":35.771015,"lon":139.514769},{"name":"清瀬市立中央図書館","province":"東京都","city":"清瀬市","address":"東京都清瀬市梅園1丁目1-21","lat":35.773061,"lon":139.511158},{"name":"清瀬市児童センター","province":"東京都","city":"清瀬市","address":"東京都清瀬市中清戸3丁目235-5","lat":35.776369,"lon":139.530591},{"name":"清瀬市しあわせ未来センター","province":"東京都","city":"清瀬市","address":"東京都清瀬市中里5丁目842","lat":35.786013,"lon":139.526003},{"name":"きよせボランティア・市民活動センター","province":"東京都","city":"清瀬市","address":"東京都清瀬市上清戸2丁目6-10","lat":35.779244,"lon":139.520989},{"name":"清瀬市役所本庁舎","province":"東京都","city":"清瀬市","address":"東京都清瀬市中里5丁目842","lat":35.7855,"lon":139.526736},{"name":"清瀬市生涯学習センター","province":"東京都","city":"清瀬市","address":"東京都清瀬市元町1丁目2-11","lat":35.772116,"lon":139.521038},{"name":"下清戸集会所","province":"東京都","city":"清瀬市","address":"東京都清瀬市下清戸5丁目","lat":35.786967,"lon":139.540721},{"name":"下清戸集会所","province":"東京都","city":"清瀬市","address":"東京都清瀬市下清戸5丁目855-3","lat":35.786898,"lon":139.540697},{"name":"清瀬市コミュニティプラザ","province":"東京都","city":"清瀬市","address":"東京都清瀬市下清戸1丁目212-4","lat":35.77785,"lon":139.539004},{"name":"清瀬市下宿地域市民センター","province":"東京都","city":"清瀬市","address":"東京都清瀬市下宿2丁目524-1","lat":35.797345,"lon":139.533076},{"name":"清瀬市立竹丘地域市民センター","province":"東京都","city":"清瀬市","address":"東京都清瀬市竹丘1丁目11","lat":35.765832,"lon":139.51142},{"name":"清瀬市立中清戸地域市民センター","province":"東京都","city":"清瀬市","address":"東京都清瀬市中清戸4丁目847","lat":35.785085,"lon":139.528109},{"name":"清瀬市立中里地域市民センター","province":"東京都","city":"清瀬市","address":"東京都清瀬市中里4丁目1301","lat":35.78659,"lon":139.514052},{"name":"清瀬市郷土博物館","province":"東京都","city":"清瀬市","address":"東京都清瀬市上清戸2丁目6-41","lat":35.779715,"lon":139.520962},{"name":"清瀬けやきホール","province":"東京都","city":"清瀬市","address":"東京都清瀬市元町1丁目6-6","lat":35.774541,"lon":139.519545},{"name":"清瀬けやきホール","province":"東京都","city":"清瀬市","address":"東京都清瀬市元町1丁目6-6","lat":35.774615,"lon":139.519615},{"name":"清瀬けやきホール","province":"東京都","city":"清瀬市","address":"東京都清瀬市元町1丁目6-6","lat":35.774663,"lon":139.519519},{"name":"清瀬中央公園","province":"東京都","city":"清瀬市","address":"東京都清瀬市梅園1丁目2","lat":35.773901,"lon":139.511016},{"name":"神山公園","province":"東京都","city":"清瀬市","address":"東京都清瀬市中清戸3丁目","lat":35.775562,"lon":139.531032},{"name":"金山緑地公園","province":"東京都","city":"清瀬市","address":"東京都清瀬市中里4丁目","lat":35.78918,"lon":139.522429},{"name":"竹丘緑地公園","province":"東京都","city":"清瀬市","address":"東京都清瀬市竹丘2丁目7","lat":35.765144,"lon":139.509776},{"name":"竹丘なかよし公園","province":"東京都","city":"清瀬市","address":"東京都清瀬市竹丘1丁目14","lat":35.767155,"lon":139.511048},{"name":"せせらぎ公園","province":"東京都","city":"清瀬市","address":"東京都清瀬市中里2丁目","lat":35.783195,"lon":139.510571},{"name":"中里柳瀬公園","province":"東京都","city":"清瀬市","address":"東京都清瀬市中里4丁目","lat":35.786545,"lon":139.514427},{"name":"中清戸けやき公園","province":"東京都","city":"清瀬市","address":"東京都清瀬市中清戸4丁目","lat":35.786343,"lon":139.529185},{"name":"清瀬駅南口公衆トイレ","province":"東京都","city":"清瀬市","address":"東京都清瀬市松山1丁目2","lat":35.771818,"lon":139.520245},{"name":"清瀬市障害者福祉センター","province":"東京都","city":"清瀬市","address":"東京都清瀬市上清戸1丁目16-62","lat":35.77336,"lon":139.527637},{"name":"清瀬市障害者福祉センター","province":"東京都","city":"清瀬市","address":"東京都清瀬市上清戸1丁目16-62","lat":35.77339,"lon":139.527597},{"name":"清瀬市子どもの発達支援・交流センターとことこ","province":"東京都","city":"清瀬市","address":"東京都清瀬市竹丘1丁目15-8","lat":35.768114,"lon":139.51107},{"name":"野塩多世代交流施設 えーるプラザ野塩","province":"東京都","city":"清瀬市","address":"東京都清瀬市野塩2丁目","lat":35.782297,"lon":139.502462},{"name":"清瀬駅北口第2駐輪場","province":"東京都","city":"清瀬市","address":"東京都清瀬市上清戸1丁目6","lat":35.77465379,"lon":139.52268069},{"name":"清瀬駅南口駐輪場","province":"東京都","city":"清瀬市","address":"東京都清瀬市松山1丁目10-14","lat":35.77186793,"lon":139.51897276},{"name":"清瀬駅南口第2駐輪場","province":"東京都","city":"清瀬市","address":"東京都清瀬市松山1丁目3-6","lat":35.7710153,"lon":139.52093647},{"name":"清瀬市役所入口","province":"東京都","city":"清瀬市","address":"東京都清瀬市中清戸3丁目205","lat":35.78096152,"lon":139.53019096},{"name":"清瀬水天宮前","province":"東京都","city":"清瀬市","address":"東京都清瀬市中清戸2丁目616","lat":35.78005876,"lon":139.52625248},{"name":"台田団地入口","province":"東京都","city":"清瀬市","address":"東京都清瀬市中里5丁目636-22","lat":35.78700223,"lon":139.52292789},{"name":"国立東京病院前","province":"東京都","city":"清瀬市","address":"東京都清瀬市竹丘1丁目17","lat":35.76976789,"lon":139.50637674},{"name":"中清戸駐在所前","province":"東京都","city":"清瀬市","address":"東京都清瀬市上清戸2丁目1","lat":35.77943659,"lon":139.52496373},{"name":"中清戸団地入口","province":"東京都","city":"清瀬市","address":"東京都清瀬市中清戸4丁目1096","lat":35.78254192,"lon":139.53263518},{"name":"長命寺前","province":"東京都","city":"清瀬市","address":"東京都清瀬市下清戸2丁目470","lat":35.7837668,"lon":139.53509054},{"name":"けやき通り元町一丁目","province":"東京都","city":"清瀬市","address":"東京都清瀬市元町1丁目4-17","lat":35.7745482,"lon":139.520617},{"name":"中清戸五丁目東","province":"東京都","city":"清瀬市","address":"東京都清瀬市中清戸5丁目47-4","lat":35.78114768,"lon":139.53326563},{"name":"日本社会事業大学入口","province":"東京都","city":"清瀬市","address":"東京都清瀬市竹丘1丁目16","lat":35.76764323,"lon":139.50961816},{"name":"＊?清瀬市生涯学習センター","province":"東京都","city":"清瀬市","address":"清瀬市元町1-2-11アミューー5~7階","lat":35.772216,"lon":139.521175},{"name":"清瀬市健康センター","province":"東京都","city":"清瀬市","address":"東京都清瀬市中里5丁目842","lat":35.78608019,"lon":139.52608035},{"name":"清瀬市本庁舎","province":"東京都","city":"清瀬市","address":"東京都清瀬市中里5丁目842","lat":35.78608019,"lon":139.52608035},{"name":"清瀬市本庁舎","province":"東京都","city":"清瀬市","address":"清瀬市中里5-842","lat":35.786053,"lon":139.526353},{"name":"清瀬消防署","province":"東京都","city":"清瀬市","address":"清瀬市中清戸2-850-1","lat":35.78419,"lon":139.5276},{"name":"東京都共済組合清瀬運動場","province":"東京都","city":"清瀬市","address":"清瀬市竹丘3-10-5","lat":35.7646,"lon":139.5013},{"name":"※清瀬市本庁舎","province":"東京都","city":"清瀬市","address":"東京都清瀬市中里5丁目842","lat":35.78608019,"lon":139.52608035},{"name":"清瀬駅北口地下駐輪場","province":"東京都","city":"清瀬市","address":"東京都清瀬市元町1-4-3","lat":35.772452,"lon":139.520581},{"name":"清瀬駅北口第２駐輪場","province":"東京都","city":"清瀬市","address":"東京都清瀬市上清戸1-6","lat":35.774316,"lon":139.52275},{"name":"清瀬駅南口駐輪場","province":"東京都","city":"清瀬市","address":"東京都清瀬市松山1-10-14","lat":35.771854,"lon":139.519051},{"name":"清瀬駅南口第2駐輪場","province":"東京都","city":"清瀬市","address":"東京都清瀬市松山1-3-6","lat":35.771019,"lon":139.520917},{"name":"秋津駅北口駐輪場","province":"東京都","city":"清瀬市","address":"東京都清瀬市野塩1-342-1","lat":35.778799,"lon":139.50021},{"name":"秋津駅南口駐輪場","province":"東京都","city":"清瀬市","address":"東京都清瀬市野塩5-280-22","lat":35.776632,"lon":139.496537},{"name":"特別養護老人ホーム 救世軍恵泉ホーム","province":"東京都","city":"清瀬市","address":"東京都清瀬市竹丘1-17-61","lat":35.769635,"lon":139.508107},{"name":"特別養護老人ホーム 上宮園","province":"東京都","city":"清瀬市","address":"東京都清瀬市竹丘3-3-31","lat":35.767543,"lon":139.502455},{"name":"特別養護老人ホーム 信愛の園","province":"東京都","city":"清瀬市","address":"東京都清瀬市梅園2-3-15","lat":35.772751,"lon":139.503522},{"name":"特別養護老人ホーム 清雅苑","province":"東京都","city":"清瀬市","address":"東京都清瀬市中里5-91-2","lat":35.789366,"lon":139.531891},{"name":"特別養護老人ホーム 聖ヨゼフ老人ホーム","province":"東京都","city":"清瀬市","address":"東京都清瀬市梅園3-14-72","lat":35.772165,"lon":139.501911},{"name":"清瀬どんぐりの家","province":"東京都","city":"清瀬市","address":"東京都清瀬市野塩4-230-1","lat":35.774754,"lon":139.500036},{"name":"工房わかば","province":"東京都","city":"清瀬市","address":"東京都清瀬市野塩4-59-8","lat":35.775592,"lon":139.506768},{"name":"清瀬療護園","province":"東京都","city":"清瀬市","address":"東京都清瀬市竹丘3-1-72","lat":35.765507,"lon":139.503219},{"name":"介護老人保健施設 たけおか","province":"東京都","city":"清瀬市","address":"東京都清瀬市竹丘2-3-21","lat":35.76518,"lon":139.50899},{"name":"介護老人保健施設 ラビアンローゼ","province":"東京都","city":"清瀬市","address":"東京都清瀬市下清戸3-385","lat":35.784884,"lon":139.538971},{"name":"介護老人保健施設 きよせ認知症ケアセンター","province":"東京都","city":"清瀬市","address":"東京都清瀬市中清戸5-27","lat":35.77695,"lon":139.536959},{"name":"介護老人福祉施設 すずらん※","province":"東京都","city":"清瀬市","address":"東京都清瀬市長野県北佐久郡立科町大字芦田720-1","lat":36.27413,"lon":138.32288},{"name":"障害者福祉センター","province":"東京都","city":"清瀬市","address":"東京都清瀬市上清戸1-16-62","lat":35.773273,"lon":139.527679},{"name":"子どもの発達支援・交流センターとことこ","province":"東京都","city":"清瀬市","address":"東京都清瀬市竹丘1-15-8","lat":35.768108,"lon":139.511079},{"name":"東京都立 清瀬特別支援学校","province":"東京都","city":"清瀬市","address":"東京都清瀬市松山3-1-97","lat":35.76896,"lon":139.511529},{"name":"ヒューマンライフケア清瀬","province":"東京都","city":"清瀬市","address":"東京都清瀬市元町1-8-25","lat":35.77412,"lon":139.519828},{"name":"ツクイ秋津","province":"東京都","city":"清瀬市","address":"東京都清瀬市野塩1-303-2","lat":35.779016,"lon":139.497067},{"name":"グループホーム清瀬","province":"東京都","city":"清瀬市","address":"東京都清瀬市中清戸5-132-1","lat":35.779676,"lon":139.532555},{"name":"グループホームさくらの苑","province":"東京都","city":"清瀬市","address":"東京都清瀬市中清戸5-27-3","lat":35.779659,"lon":139.532564},{"name":"しんあい清戸の里","province":"東京都","city":"清瀬市","address":"東京都清瀬市下清戸1-305-1","lat":35.780341,"lon":139.536013},{"name":"ホームステーションらいふ清瀬","province":"東京都","city":"清瀬市","address":"東京都清瀬市松山1-4-16","lat":35.770683,"lon":139.5207},{"name":"みどりの樹清瀬","province":"東京都","city":"清瀬市","address":"東京都清瀬市下清戸4-709-17","lat":35.786527,"lon":139.539276},{"name":"清瀬小学校","province":"東京都","city":"清瀬市","address":"東京都清瀬市中里5-741","lat":35.785719,"lon":139.525573},{"name":"芝山小学校","province":"東京都","city":"清瀬市","address":"東京都清瀬市元町2-16-8","lat":35.775287,"lon":139.511307},{"name":"第三小学校","province":"東京都","city":"清瀬市","address":"東京都清瀬市竹丘1-15-4","lat":35.768423,"lon":139.510224},{"name":"第四小学校","province":"東京都","city":"清瀬市","address":"東京都清瀬市中里2-1471","lat":35.783011,"lon":139.510224},{"name":"第六小学校","province":"東京都","city":"清瀬市","address":"東京都清瀬市梅園2-9-45","lat":35.771657,"lon":139.503822},{"name":"第七小学校","province":"東京都","city":"清瀬市","address":"東京都清瀬市松山3-1-92","lat":35.767974,"lon":139.512557},{"name":"第八小学校","province":"東京都","city":"清瀬市","address":"東京都清瀬市中清戸4-1070","lat":35.781332,"lon":139.530545},{"name":"第十小学校","province":"東京都","city":"清瀬市","address":"東京都清瀬市中清戸1-454-14","lat":35.775219,"lon":139.527966},{"name":"清明小学校","province":"東京都","city":"清瀬市","address":"東京都清瀬市旭が丘2-8-1","lat":35.796663,"lon":139.539587},{"name":"清瀬中学校","province":"東京都","city":"清瀬市","address":"東京都清瀬市中里5-624","lat":35.784843,"lon":139.52496},{"name":"第二中学校","province":"東京都","city":"清瀬市","address":"東京都清瀬市梅園2-9-15","lat":35.773323,"lon":139.505105},{"name":"第三中学校","province":"東京都","city":"清瀬市","address":"東京都清瀬市旭が丘1-262","lat":35.791564,"lon":139.534861},{"name":"第四中学校","province":"東京都","city":"清瀬市","address":"東京都清瀬市野塩3-2-3","lat":35.778777,"lon":139.507985},{"name":"第五中学校","province":"東京都","city":"清瀬市","address":"東京都清瀬市中清戸3-258-1","lat":35.775094,"lon":139.534001},{"name":"清瀬けやきホール","province":"東京都","city":"清瀬市","address":"東京都清瀬市元町1-6-6","lat":35.774561,"lon":139.519556},{"name":"コミュニティプラザひまわり","province":"東京都","city":"清瀬市","address":"東京都清瀬市下清戸1-212-4","lat":35.77804,"lon":139.537766},{"name":"松山地域市民センター","province":"東京都","city":"清瀬市","address":"東京都清瀬市松山2-6-25","lat":35.770989,"lon":139.514809},{"name":"野塩地域市民センター","province":"東京都","city":"清瀬市","address":"東京都清瀬市野塩1-322-2","lat":35.779163,"lon":139.499466},{"name":"下宿地域市民センター","province":"東京都","city":"清瀬市","address":"東京都清瀬市下宿2-524-1","lat":35.797491,"lon":139.533321},{"name":"竹丘地域市民センター","province":"東京都","city":"清瀬市","address":"東京都清瀬市竹丘1-11-1","lat":35.765849,"lon":139.51142},{"name":"中清戸地域市民センター","province":"東京都","city":"清瀬市","address":"東京都清瀬市中清戸4-847-5","lat":35.784853,"lon":139.527671},{"name":"中里地域市民センター","province":"東京都","city":"清瀬市","address":"東京都清瀬市中里4-1301","lat":35.78652,"lon":139.514166},{"name":"郷土博物館","province":"東京都","city":"清瀬市","address":"東京都清瀬市上清戸2-6-41","lat":35.779741,"lon":139.521002},{"name":"児童センター","province":"東京都","city":"清瀬市","address":"東京都清瀬市中清戸3-235-5","lat":35.776371,"lon":139.530674},{"name":"きよせボランティア・市民活動センター","province":"東京都","city":"清瀬市","address":"東京都清瀬市上清戸2-6-10","lat":35.779175,"lon":139.521079},{"name":"消費生活センター","province":"東京都","city":"清瀬市","address":"東京都清瀬市元町1-4-17","lat":35.774417,"lon":139.520637},{"name":"清瀬小学校","province":"東京都","city":"清瀬市","address":"東京都清瀬市中里5丁目741","lat":35.78521086,"lon":139.52560538},{"name":"芝山小学校","province":"東京都","city":"清瀬市","address":"東京都清瀬市元町2丁目16-8","lat":35.77535899,"lon":139.511204},{"name":"第三小学校","province":"東京都","city":"清瀬市","address":"東京都清瀬市竹丘1丁目15-4","lat":35.76856813,"lon":139.50992645},{"name":"第四小学校","province":"東京都","city":"清瀬市","address":"東京都清瀬市中里2丁目1471","lat":35.78323576,"lon":139.51043456},{"name":"清明小学校","province":"東京都","city":"清瀬市","address":"東京都清瀬市旭が丘2丁目8-1","lat":35.79688461,"lon":139.539993},{"name":"第六小学校","province":"東京都","city":"清瀬市","address":"東京都清瀬市梅園2丁目9-45","lat":35.77171482,"lon":139.50441299},{"name":"第七小学校","province":"東京都","city":"清瀬市","address":"東京都清瀬市松山3丁目1-92","lat":35.7680377,"lon":139.51264842},{"name":"第八小学校","province":"東京都","city":"清瀬市","address":"東京都清瀬市中清戸4丁目1070","lat":35.78730514,"lon":139.53083267},{"name":"第十小学校","province":"東京都","city":"清瀬市","address":"東京都清瀬市中清戸1丁目454-14","lat":35.77514829,"lon":139.52753573},{"name":"清瀬中学校","province":"東京都","city":"清瀬市","address":"東京都清瀬市中里5丁目624","lat":35.78481922,"lon":139.52486379},{"name":"第二中学校","province":"東京都","city":"清瀬市","address":"東京都清瀬市梅園2丁目9-15","lat":35.7733202,"lon":139.50502681},{"name":"第三中学校","province":"東京都","city":"清瀬市","address":"東京都清瀬市旭が丘1丁目262","lat":35.79147967,"lon":139.53471843},{"name":"第四中学校","province":"東京都","city":"清瀬市","address":"東京都清瀬市野塩3丁目2-3","lat":35.77872237,"lon":139.50745708},{"name":"第五中学校","province":"東京都","city":"清瀬市","address":"東京都清瀬市中清戸3丁目258-1","lat":35.77498457,"lon":139.53371287},{"name":"東京都立清瀬高等学校グラウンド","province":"東京都","city":"清瀬市","address":"東京都清瀬市松山3丁目1-56","lat":35.76969866,"lon":139.51487318},{"name":"都職員共済組合清瀬グランド","province":"東京都","city":"清瀬市","address":"東京都清瀬市竹丘3丁目10-5","lat":35.76460172,"lon":139.5013023},{"name":"東星学園体育館前校庭・幼稚園園庭","province":"東京都","city":"清瀬市","address":"東京都清瀬市梅園3丁目14-47","lat":35.77403671,"lon":139.50180485},{"name":"日本社会事業大学駐車場","province":"東京都","city":"清瀬市","address":"東京都清瀬市竹丘3丁目1-30","lat":35.76642387,"lon":139.50676289},{"name":"明治薬科大学清瀬キャンパス正門アクセスモール","province":"東京都","city":"清瀬市","address":"東京都清瀬市野塩2丁目522-1","lat":35.78130535,"lon":139.50652658},{"name":"国立看護大学校内グラウンド","province":"東京都","city":"清瀬市","address":"東京都清瀬市梅園1丁目2-1","lat":35.77402019,"lon":139.50818485},{"name":"(工事期間中受け入れ不可）都立清瀬特別支援学校","province":"東京都","city":"清瀬市","address":"東京都清瀬市松山3丁目1-97","lat":35.76895978,"lon":139.51152906},{"name":"清瀬市郷土博物館","province":"東京都","city":"清瀬市","address":"東京都清瀬市上清戸2-6-41","lat":35.7795,"lon":139.521},{"name":"旧森田家","province":"東京都","city":"清瀬市","address":"東京都清瀬市下宿2-524-1","lat":35.7976,"lon":139.533},{"name":"清瀬市","province":"東京都","city":"清瀬市","address":"清瀬市中里5-842","lat":35.7860525,"lon":139.5263525},{"name":"東京都職員共済組合清瀬運動場","province":"東京都","city":"清瀬市","address":"東京都清瀬市竹丘3丁目10-5","lat":35.763239,"lon":139.501765},{"name":"清瀬消防署","province":"東京都","city":"清瀬市","address":"東京都清瀬市中清戸2丁目850-1","lat":35.784199,"lon":139.527612},{"name":"清瀬市男女共同参画センター","province":"東京都","city":"清瀬市","address":"東京都清瀬市元町1丁目2-11","lat":35.772081,"lon":139.521166},{"name":"清瀬市立野塩地域市民センター","province":"東京都","city":"清瀬市","address":"東京都清瀬市野塩1丁目322-2","lat":35.779154,"lon":139.499453},{"name":"清瀬市消費生活センター","province":"東京都","city":"清瀬市","address":"東京都清瀬市元町1丁目4-17","lat":35.774432,"lon":139.520631},{"name":"清瀬市立松山地域市民センター","province":"東京都","city":"清瀬市","address":"東京都清瀬市松山2丁目6-25","lat":35.771015,"lon":139.514769},{"name":"清瀬市立中央図書館","province":"東京都","city":"清瀬市","address":"東京都清瀬市梅園1丁目1-21","lat":35.773061,"lon":139.511158},{"name":"清瀬市児童センター","province":"東京都","city":"清瀬市","address":"東京都清瀬市中清戸3丁目235-5","lat":35.776369,"lon":139.530591},{"name":"清瀬市しあわせ未来センター","province":"東京都","city":"清瀬市","address":"東京都清瀬市中里5丁目842","lat":35.786013,"lon":139.526003},{"name":"きよせボランティア・市民活動センター","province":"東京都","city":"清瀬市","address":"東京都清瀬市上清戸2丁目6-10","lat":35.779244,"lon":139.520989},{"name":"清瀬市役所本庁舎","province":"東京都","city":"清瀬市","address":"東京都清瀬市中里5丁目842","lat":35.7855,"lon":139.526736},{"name":"清瀬市生涯学習センター","province":"東京都","city":"清瀬市","address":"東京都清瀬市元町1丁目2-11","lat":35.772116,"lon":139.521038},{"name":"下清戸集会所","province":"東京都","city":"清瀬市","address":"東京都清瀬市下清戸5丁目","lat":35.786967,"lon":139.540721},{"name":"下清戸集会所","province":"東京都","city":"清瀬市","address":"東京都清瀬市下清戸5丁目855-3","lat":35.786898,"lon":139.540697},{"name":"清瀬市コミュニティプラザ","province":"東京都","city":"清瀬市","address":"東京都清瀬市下清戸1丁目212-4","lat":35.77785,"lon":139.539004},{"name":"清瀬市下宿地域市民センター","province":"東京都","city":"清瀬市","address":"東京都清瀬市下宿2丁目524-1","lat":35.797345,"lon":139.533076},{"name":"清瀬市立竹丘地域市民センター","province":"東京都","city":"清瀬市","address":"東京都清瀬市竹丘1丁目11","lat":35.765832,"lon":139.51142},{"name":"清瀬市立中清戸地域市民センター","province":"東京都","city":"清瀬市","address":"東京都清瀬市中清戸4丁目847","lat":35.785085,"lon":139.528109},{"name":"清瀬市立中里地域市民センター","province":"東京都","city":"清瀬市","address":"東京都清瀬市中里4丁目1301","lat":35.78659,"lon":139.514052},{"name":"清瀬市郷土博物館","province":"東京都","city":"清瀬市","address":"東京都清瀬市上清戸2丁目6-41","lat":35.779715,"lon":139.520962},{"name":"清瀬けやきホール","province":"東京都","city":"清瀬市","address":"東京都清瀬市元町1丁目6-6","lat":35.774541,"lon":139.519545},{"name":"清瀬けやきホール","province":"東京都","city":"清瀬市","address":"東京都清瀬市元町1丁目6-6","lat":35.774615,"lon":139.519615},{"name":"清瀬けやきホール","province":"東京都","city":"清瀬市","address":"東京都清瀬市元町1丁目6-6","lat":35.774663,"lon":139.519519},{"name":"清瀬中央公園","province":"東京都","city":"清瀬市","address":"東京都清瀬市梅園1丁目2","lat":35.773901,"lon":139.511016},{"name":"神山公園","province":"東京都","city":"清瀬市","address":"東京都清瀬市中清戸3丁目","lat":35.775562,"lon":139.531032},{"name":"金山緑地公園","province":"東京都","city":"清瀬市","address":"東京都清瀬市中里4丁目","lat":35.78918,"lon":139.522429},{"name":"竹丘緑地公園","province":"東京都","city":"清瀬市","address":"東京都清瀬市竹丘2丁目7","lat":35.765144,"lon":139.509776},{"name":"竹丘なかよし公園","province":"東京都","city":"清瀬市","address":"東京都清瀬市竹丘1丁目14","lat":35.767155,"lon":139.511048},{"name":"せせらぎ公園","province":"東京都","city":"清瀬市","address":"東京都清瀬市中里2丁目","lat":35.783195,"lon":139.510571},{"name":"中里柳瀬公園","province":"東京都","city":"清瀬市","address":"東京都清瀬市中里4丁目","lat":35.786545,"lon":139.514427},{"name":"中清戸けやき公園","province":"東京都","city":"清瀬市","address":"東京都清瀬市中清戸4丁目","lat":35.786343,"lon":139.529185},{"name":"清瀬駅南口公衆トイレ","province":"東京都","city":"清瀬市","address":"東京都清瀬市松山1丁目2","lat":35.771818,"lon":139.520245},{"name":"清瀬市障害者福祉センター","province":"東京都","city":"清瀬市","address":"東京都清瀬市上清戸1丁目16-62","lat":35.77336,"lon":139.527637},{"name":"清瀬市障害者福祉センター","province":"東京都","city":"清瀬市","address":"東京都清瀬市上清戸1丁目16-62","lat":35.77339,"lon":139.527597},{"name":"清瀬市子どもの発達支援・交流センターとことこ","province":"東京都","city":"清瀬市","address":"東京都清瀬市竹丘1丁目15-8","lat":35.768114,"lon":139.51107},{"name":"野塩多世代交流施設 えーるプラザ野塩","province":"東京都","city":"清瀬市","address":"東京都清瀬市野塩2丁目","lat":35.782297,"lon":139.502462},{"name":"清瀬駅北口第2駐輪場","province":"東京都","city":"清瀬市","address":"東京都清瀬市上清戸1丁目6","lat":35.77465379,"lon":139.52268069},{"name":"清瀬駅南口駐輪場","province":"東京都","city":"清瀬市","address":"東京都清瀬市松山1丁目10-14","lat":35.77186793,"lon":139.51897276},{"name":"清瀬駅南口第2駐輪場","province":"東京都","city":"清瀬市","address":"東京都清瀬市松山1丁目3-6","lat":35.7710153,"lon":139.52093647},{"name":"清瀬市役所入口","province":"東京都","city":"清瀬市","address":"東京都清瀬市中清戸3丁目205","lat":35.78096152,"lon":139.53019096},{"name":"清瀬水天宮前","province":"東京都","city":"清瀬市","address":"東京都清瀬市中清戸2丁目616","lat":35.78005876,"lon":139.52625248},{"name":"台田団地入口","province":"東京都","city":"清瀬市","address":"東京都清瀬市中里5丁目636-22","lat":35.78700223,"lon":139.52292789},{"name":"国立東京病院前","province":"東京都","city":"清瀬市","address":"東京都清瀬市竹丘1丁目17","lat":35.76976789,"lon":139.50637674},{"name":"中清戸駐在所前","province":"東京都","city":"清瀬市","address":"東京都清瀬市上清戸2丁目1","lat":35.77943659,"lon":139.52496373},{"name":"中清戸団地入口","province":"東京都","city":"清瀬市","address":"東京都清瀬市中清戸4丁目1096","lat":35.78254192,"lon":139.53263518},{"name":"長命寺前","province":"東京都","city":"清瀬市","address":"東京都清瀬市下清戸2丁目470","lat":35.7837668,"lon":139.53509054},{"name":"けやき通り元町一丁目","province":"東京都","city":"清瀬市","address":"東京都清瀬市元町1丁目4-17","lat":35.7745482,"lon":139.520617},{"name":"中清戸五丁目東","province":"東京都","city":"清瀬市","address":"東京都清瀬市中清戸5丁目47-4","lat":35.78114768,"lon":139.53326563},{"name":"日本社会事業大学入口","province":"東京都","city":"清瀬市","address":"東京都清瀬市竹丘1丁目16","lat":35.76764323,"lon":139.50961816},{"name":"＊?清瀬市生涯学習センター","province":"東京都","city":"清瀬市","address":"清瀬市元町1-2-11アミューー5~7階","lat":35.772216,"lon":139.521175},{"name":"清瀬市健康センター","province":"東京都","city":"清瀬市","address":"東京都清瀬市中里5丁目842","lat":35.78608019,"lon":139.52608035},{"name":"清瀬市本庁舎","province":"東京都","city":"清瀬市","address":"東京都清瀬市中里5丁目842","lat":35.78608019,"lon":139.52608035},{"name":"清瀬消防署","province":"東京都","city":"清瀬市","address":"清瀬市中清戸2-850-1","lat":35.78419,"lon":139.5276},{"name":"東京都共済組合清瀬運動場","province":"東京都","city":"清瀬市","address":"清瀬市竹丘3-10-5","lat":35.7646,"lon":139.5013},{"name":"※清瀬市本庁舎","province":"東京都","city":"清瀬市","address":"東京都清瀬市中里5丁目842","lat":35.78608019,"lon":139.52608035},{"name":"清瀬駅北口地下駐輪場","province":"東京都","city":"清瀬市","address":"東京都清瀬市元町1-4-3","lat":35.772452,"lon":139.520581},{"name":"清瀬駅北口第２駐輪場","province":"東京都","city":"清瀬市","address":"東京都清瀬市上清戸1-6","lat":35.774316,"lon":139.52275},{"name":"清瀬駅南口駐輪場","province":"東京都","city":"清瀬市","address":"東京都清瀬市松山1-10-14","lat":35.771854,"lon":139.519051},{"name":"清瀬駅南口第2駐輪場","province":"東京都","city":"清瀬市","address":"東京都清瀬市松山1-3-6","lat":35.771019,"lon":139.520917},{"name":"秋津駅北口駐輪場","province":"東京都","city":"清瀬市","address":"東京都清瀬市野塩1-342-1","lat":35.778799,"lon":139.50021},{"name":"秋津駅南口駐輪場","province":"東京都","city":"清瀬市","address":"東京都清瀬市野塩5-280-22","lat":35.776632,"lon":139.496537},{"name":"特別養護老人ホーム 救世軍恵泉ホーム","province":"東京都","city":"清瀬市","address":"東京都清瀬市竹丘1-17-61","lat":35.769635,"lon":139.508107},{"name":"特別養護老人ホーム 上宮園","province":"東京都","city":"清瀬市","address":"東京都清瀬市竹丘3-3-31","lat":35.767543,"lon":139.502455},{"name":"特別養護老人ホーム 信愛の園","province":"東京都","city":"清瀬市","address":"東京都清瀬市梅園2-3-15","lat":35.772751,"lon":139.503522},{"name":"特別養護老人ホーム 清雅苑","province":"東京都","city":"清瀬市","address":"東京都清瀬市中里5-91-2","lat":35.789366,"lon":139.531891},{"name":"特別養護老人ホーム 聖ヨゼフ老人ホーム","province":"東京都","city":"清瀬市","address":"東京都清瀬市梅園3-14-72","lat":35.772165,"lon":139.501911},{"name":"清瀬どんぐりの家","province":"東京都","city":"清瀬市","address":"東京都清瀬市野塩4-230-1","lat":35.774754,"lon":139.500036},{"name":"工房わかば","province":"東京都","city":"清瀬市","address":"東京都清瀬市野塩4-59-8","lat":35.775592,"lon":139.506768},{"name":"清瀬療護園","province":"東京都","city":"清瀬市","address":"東京都清瀬市竹丘3-1-72","lat":35.765507,"lon":139.503219},{"name":"介護老人保健施設 たけおか","province":"東京都","city":"清瀬市","address":"東京都清瀬市竹丘2-3-21","lat":35.76518,"lon":139.50899},{"name":"介護老人保健施設 ラビアンローゼ","province":"東京都","city":"清瀬市","address":"東京都清瀬市下清戸3-385","lat":35.784884,"lon":139.538971},{"name":"介護老人保健施設 きよせ認知症ケアセンター","province":"東京都","city":"清瀬市","address":"東京都清瀬市中清戸5-27","lat":35.77695,"lon":139.536959},{"name":"介護老人福祉施設 すずらん※","province":"東京都","city":"清瀬市","address":"東京都清瀬市長野県北佐久郡立科町大字芦田720-1","lat":36.27413,"lon":138.32288},{"name":"障害者福祉センター","province":"東京都","city":"清瀬市","address":"東京都清瀬市上清戸1-16-62","lat":35.773273,"lon":139.527679},{"name":"子どもの発達支援・交流センターとことこ","province":"東京都","city":"清瀬市","address":"東京都清瀬市竹丘1-15-8","lat":35.768108,"lon":139.511079},{"name":"東京都立 清瀬特別支援学校","province":"東京都","city":"清瀬市","address":"東京都清瀬市松山3-1-97","lat":35.76896,"lon":139.511529},{"name":"ヒューマンライフケア清瀬","province":"東京都","city":"清瀬市","address":"東京都清瀬市元町1-8-25","lat":35.77412,"lon":139.519828},{"name":"ツクイ秋津","province":"東京都","city":"清瀬市","address":"東京都清瀬市野塩1-303-2","lat":35.779016,"lon":139.497067},{"name":"グループホーム清瀬","province":"東京都","city":"清瀬市","address":"東京都清瀬市中清戸5-132-1","lat":35.779676,"lon":139.532555},{"name":"グループホームさくらの苑","province":"東京都","city":"清瀬市","address":"東京都清瀬市中清戸5-27-3","lat":35.779659,"lon":139.532564},{"name":"しんあい清戸の里","province":"東京都","city":"清瀬市","address":"東京都清瀬市下清戸1-305-1","lat":35.780341,"lon":139.536013},{"name":"ホームステーションらいふ清瀬","province":"東京都","city":"清瀬市","address":"東京都清瀬市松山1-4-16","lat":35.770683,"lon":139.5207},{"name":"みどりの樹清瀬","province":"東京都","city":"清瀬市","address":"東京都清瀬市下清戸4-709-17","lat":35.786527,"lon":139.539276},{"name":"清瀬小学校","province":"東京都","city":"清瀬市","address":"東京都清瀬市中里5-741","lat":35.785719,"lon":139.525573},{"name":"芝山小学校","province":"東京都","city":"清瀬市","address":"東京都清瀬市元町2-16-8","lat":35.775287,"lon":139.511307},{"name":"第三小学校","province":"東京都","city":"清瀬市","address":"東京都清瀬市竹丘1-15-4","lat":35.768423,"lon":139.510224},{"name":"第四小学校","province":"東京都","city":"清瀬市","address":"東京都清瀬市中里2-1471","lat":35.783011,"lon":139.510224},{"name":"第六小学校","province":"東京都","city":"清瀬市","address":"東京都清瀬市梅園2-9-45","lat":35.771657,"lon":139.503822},{"name":"第七小学校","province":"東京都","city":"清瀬市","address":"東京都清瀬市松山3-1-92","lat":35.767974,"lon":139.512557},{"name":"第八小学校","province":"東京都","city":"清瀬市","address":"東京都清瀬市中清戸4-1070","lat":35.781332,"lon":139.530545},{"name":"第十小学校","province":"東京都","city":"清瀬市","address":"東京都清瀬市中清戸1-454-14","lat":35.775219,"lon":139.527966},{"name":"清明小学校","province":"東京都","city":"清瀬市","address":"東京都清瀬市旭が丘2-8-1","lat":35.796663,"lon":139.539587},{"name":"清瀬中学校","province":"東京都","city":"清瀬市","address":"東京都清瀬市中里5-624","lat":35.784843,"lon":139.52496},{"name":"第二中学校","province":"東京都","city":"清瀬市","address":"東京都清瀬市梅園2-9-15","lat":35.773323,"lon":139.505105},{"name":"第三中学校","province":"東京都","city":"清瀬市","address":"東京都清瀬市旭が丘1-262","lat":35.791564,"lon":139.534861},{"name":"第四中学校","province":"東京都","city":"清瀬市","address":"東京都清瀬市野塩3-2-3","lat":35.778777,"lon":139.507985},{"name":"第五中学校","province":"東京都","city":"清瀬市","address":"東京都清瀬市中清戸3-258-1","lat":35.775094,"lon":139.534001},{"name":"清瀬けやきホール","province":"東京都","city":"清瀬市","address":"東京都清瀬市元町1-6-6","lat":35.774561,"lon":139.519556},{"name":"コミュニティプラザひまわり","province":"東京都","city":"清瀬市","address":"東京都清瀬市下清戸1-212-4","lat":35.77804,"lon":139.537766},{"name":"松山地域市民センター","province":"東京都","city":"清瀬市","address":"東京都清瀬市松山2-6-25","lat":35.770989,"lon":139.514809},{"name":"野塩地域市民センター","province":"東京都","city":"清瀬市","address":"東京都清瀬市野塩1-322-2","lat":35.779163,"lon":139.499466},{"name":"下宿地域市民センター","province":"東京都","city":"清瀬市","address":"東京都清瀬市下宿2-524-1","lat":35.797491,"lon":139.533321},{"name":"竹丘地域市民センター","province":"東京都","city":"清瀬市","address":"東京都清瀬市竹丘1-11-1","lat":35.765849,"lon":139.51142},{"name":"中清戸地域市民センター","province":"東京都","city":"清瀬市","address":"東京都清瀬市中清戸4-847-5","lat":35.784853,"lon":139.527671},{"name":"中里地域市民センター","province":"東京都","city":"清瀬市","address":"東京都清瀬市中里4-1301","lat":35.78652,"lon":139.514166},{"name":"郷土博物館","province":"東京都","city":"清瀬市","address":"東京都清瀬市上清戸2-6-41","lat":35.779741,"lon":139.521002},{"name":"児童センター","province":"東京都","city":"清瀬市","address":"東京都清瀬市中清戸3-235-5","lat":35.776371,"lon":139.530674},{"name":"きよせボランティア・市民活動センター","province":"東京都","city":"清瀬市","address":"東京都清瀬市上清戸2-6-10","lat":35.779175,"lon":139.521079},{"name":"消費生活センター","province":"東京都","city":"清瀬市","address":"東京都清瀬市元町1-4-17","lat":35.774417,"lon":139.520637},{"name":"清瀬小学校","province":"東京都","city":"清瀬市","address":"東京都清瀬市中里5丁目741","lat":35.78521086,"lon":139.52560538},{"name":"芝山小学校","province":"東京都","city":"清瀬市","address":"東京都清瀬市元町2丁目16-8","lat":35.77535899,"lon":139.511204},{"name":"第三小学校","province":"東京都","city":"清瀬市","address":"東京都清瀬市竹丘1丁目15-4","lat":35.76856813,"lon":139.50992645},{"name":"第四小学校","province":"東京都","city":"清瀬市","address":"東京都清瀬市中里2丁目1471","lat":35.78323576,"lon":139.51043456},{"name":"清明小学校","province":"東京都","city":"清瀬市","address":"東京都清瀬市旭が丘2丁目8-1","lat":35.79688461,"lon":139.539993},{"name":"第六小学校","province":"東京都","city":"清瀬市","address":"東京都清瀬市梅園2丁目9-45","lat":35.77171482,"lon":139.50441299},{"name":"第七小学校","province":"東京都","city":"清瀬市","address":"東京都清瀬市松山3丁目1-92","lat":35.7680377,"lon":139.51264842},{"name":"第八小学校","province":"東京都","city":"清瀬市","address":"東京都清瀬市中清戸4丁目1070","lat":35.78730514,"lon":139.53083267},{"name":"第十小学校","province":"東京都","city":"清瀬市","address":"東京都清瀬市中清戸1丁目454-14","lat":35.77514829,"lon":139.52753573},{"name":"清瀬中学校","province":"東京都","city":"清瀬市","address":"東京都清瀬市中里5丁目624","lat":35.78481922,"lon":139.52486379},{"name":"第二中学校","province":"東京都","city":"清瀬市","address":"東京都清瀬市梅園2丁目9-15","lat":35.7733202,"lon":139.50502681},{"name":"第三中学校","province":"東京都","city":"清瀬市","address":"東京都清瀬市旭が丘1丁目262","lat":35.79147967,"lon":139.53471843},{"name":"第四中学校","province":"東京都","city":"清瀬市","address":"東京都清瀬市野塩3丁目2-3","lat":35.77872237,"lon":139.50745708},{"name":"第五中学校","province":"東京都","city":"清瀬市","address":"東京都清瀬市中清戸3丁目258-1","lat":35.77498457,"lon":139.53371287},{"name":"東京都立清瀬高等学校グラウンド","province":"東京都","city":"清瀬市","address":"東京都清瀬市松山3丁目1-56","lat":35.76969866,"lon":139.51487318},{"name":"都職員共済組合清瀬グランド","province":"東京都","city":"清瀬市","address":"東京都清瀬市竹丘3丁目10-5","lat":35.76460172,"lon":139.5013023},{"name":"東星学園体育館前校庭・幼稚園園庭","province":"東京都","city":"清瀬市","address":"東京都清瀬市梅園3丁目14-47","lat":35.77403671,"lon":139.50180485},{"name":"日本社会事業大学駐車場","province":"東京都","city":"清瀬市","address":"東京都清瀬市竹丘3丁目1-30","lat":35.76642387,"lon":139.50676289},{"name":"明治薬科大学清瀬キャンパス正門アクセスモール","province":"東京都","city":"清瀬市","address":"東京都清瀬市野塩2丁目522-1","lat":35.78130535,"lon":139.50652658},{"name":"国立看護大学校内グラウンド","province":"東京都","city":"清瀬市","address":"東京都清瀬市梅園1丁目2-1","lat":35.77402019,"lon":139.50818485},{"name":"(工事期間中受け入れ不可）都立清瀬特別支援学校","province":"東京都","city":"清瀬市","address":"東京都清瀬市松山3丁目1-97","lat":35.76895978,"lon":139.51152906},{"name":"清瀬市郷土博物館","province":"東京都","city":"清瀬市","address":"東京都清瀬市上清戸2-6-41","lat":35.7795,"lon":139.521},{"name":"旧森田家","province":"東京都","city":"清瀬市","address":"東京都清瀬市下宿2-524-1","lat":35.7976,"lon":139.533},{"name":"清瀬市","province":"東京都","city":"清瀬市","address":"清瀬市中里5-842","lat":35.7860525,"lon":139.5263525},{"name":"清瀬駅北口第2駐輪場","province":"東京都","city":"清瀬市","address":"東京都清瀬市上清戸1丁目6","lat":35.77465379,"lon":139.52268069},{"name":"清瀬駅南口駐輪場","province":"東京都","city":"清瀬市","address":"東京都清瀬市松山1丁目10-14","lat":35.77186793,"lon":139.51897276},{"name":"清瀬駅南口第2駐輪場","province":"東京都","city":"清瀬市","address":"東京都清瀬市松山1丁目3-6","lat":35.7710153,"lon":139.52093647},{"name":"清瀬市役所入口","province":"東京都","city":"清瀬市","address":"東京都清瀬市中清戸3丁目205","lat":35.78096152,"lon":139.53019096},{"name":"清瀬水天宮前","province":"東京都","city":"清瀬市","address":"東京都清瀬市中清戸2丁目616","lat":35.78005876,"lon":139.52625248},{"name":"台田団地入口","province":"東京都","city":"清瀬市","address":"東京都清瀬市中里5丁目636-22","lat":35.78700223,"lon":139.52292789},{"name":"国立東京病院前","province":"東京都","city":"清瀬市","address":"東京都清瀬市竹丘1丁目17","lat":35.76976789,"lon":139.50637674},{"name":"中清戸駐在所前","province":"東京都","city":"清瀬市","address":"東京都清瀬市上清戸2丁目1","lat":35.77943659,"lon":139.52496373},{"name":"中清戸団地入口","province":"東京都","city":"清瀬市","address":"東京都清瀬市中清戸4丁目1096","lat":35.78254192,"lon":139.53263518},{"name":"長命寺前","province":"東京都","city":"清瀬市","address":"東京都清瀬市下清戸2丁目470","lat":35.7837668,"lon":139.53509054},{"name":"けやき通り元町一丁目","province":"東京都","city":"清瀬市","address":"東京都清瀬市元町1丁目4-17","lat":35.7745482,"lon":139.520617},{"name":"中清戸五丁目東","province":"東京都","city":"清瀬市","address":"東京都清瀬市中清戸5丁目47-4","lat":35.78114768,"lon":139.53326563},{"name":"日本社会事業大学入口","province":"東京都","city":"清瀬市","address":"東京都清瀬市竹丘1丁目16","lat":35.76764323,"lon":139.50961816},{"name":"＊?清瀬市生涯学習センター","province":"東京都","city":"清瀬市","address":"清瀬市元町1-2-11アミューー5~7階","lat":35.772216,"lon":139.521175},{"name":"清瀬市健康センター","province":"東京都","city":"清瀬市","address":"東京都清瀬市中里5丁目842","lat":35.78608019,"lon":139.52608035},{"name":"清瀬市本庁舎","province":"東京都","city":"清瀬市","address":"東京都清瀬市中里5丁目842","lat":35.78608019,"lon":139.52608035},{"name":"清瀬消防署","province":"東京都","city":"清瀬市","address":"清瀬市中清戸2-850-1","lat":35.78419,"lon":139.5276},{"name":"東京都共済組合清瀬運動場","province":"東京都","city":"清瀬市","address":"清瀬市竹丘3-10-5","lat":35.7646,"lon":139.5013},{"name":"※清瀬市本庁舎","province":"東京都","city":"清瀬市","address":"東京都清瀬市中里5丁目842","lat":35.78608019,"lon":139.52608035},{"name":"清瀬駅北口地下駐輪場","province":"東京都","city":"清瀬市","address":"東京都清瀬市元町1-4-3","lat":35.772452,"lon":139.520581},{"name":"清瀬駅北口第２駐輪場","province":"東京都","city":"清瀬市","address":"東京都清瀬市上清戸1-6","lat":35.774316,"lon":139.52275},{"name":"清瀬駅南口駐輪場","province":"東京都","city":"清瀬市","address":"東京都清瀬市松山1-10-14","lat":35.771854,"lon":139.519051},{"name":"清瀬駅南口第2駐輪場","province":"東京都","city":"清瀬市","address":"東京都清瀬市松山1-3-6","lat":35.771019,"lon":139.520917},{"name":"秋津駅北口駐輪場","province":"東京都","city":"清瀬市","address":"東京都清瀬市野塩1-342-1","lat":35.778799,"lon":139.50021},{"name":"秋津駅南口駐輪場","province":"東京都","city":"清瀬市","address":"東京都清瀬市野塩5-280-22","lat":35.776632,"lon":139.496537},{"name":"特別養護老人ホーム 救世軍恵泉ホーム","province":"東京都","city":"清瀬市","address":"東京都清瀬市竹丘1-17-61","lat":35.769635,"lon":139.508107},{"name":"特別養護老人ホーム 上宮園","province":"東京都","city":"清瀬市","address":"東京都清瀬市竹丘3-3-31","lat":35.767543,"lon":139.502455},{"name":"特別養護老人ホーム 信愛の園","province":"東京都","city":"清瀬市","address":"東京都清瀬市梅園2-3-15","lat":35.772751,"lon":139.503522},{"name":"特別養護老人ホーム 清雅苑","province":"東京都","city":"清瀬市","address":"東京都清瀬市中里5-91-2","lat":35.789366,"lon":139.531891},{"name":"特別養護老人ホーム 聖ヨゼフ老人ホーム","province":"東京都","city":"清瀬市","address":"東京都清瀬市梅園3-14-72","lat":35.772165,"lon":139.501911},{"name":"清瀬どんぐりの家","province":"東京都","city":"清瀬市","address":"東京都清瀬市野塩4-230-1","lat":35.774754,"lon":139.500036},{"name":"工房わかば","province":"東京都","city":"清瀬市","address":"東京都清瀬市野塩4-59-8","lat":35.775592,"lon":139.506768},{"name":"清瀬療護園","province":"東京都","city":"清瀬市","address":"東京都清瀬市竹丘3-1-72","lat":35.765507,"lon":139.503219},{"name":"介護老人保健施設 たけおか","province":"東京都","city":"清瀬市","address":"東京都清瀬市竹丘2-3-21","lat":35.76518,"lon":139.50899},{"name":"介護老人保健施設 ラビアンローゼ","province":"東京都","city":"清瀬市","address":"東京都清瀬市下清戸3-385","lat":35.784884,"lon":139.538971},{"name":"介護老人保健施設 きよせ認知症ケアセンター","province":"東京都","city":"清瀬市","address":"東京都清瀬市中清戸5-27","lat":35.77695,"lon":139.536959},{"name":"介護老人福祉施設 すずらん※","province":"東京都","city":"清瀬市","address":"東京都清瀬市長野県北佐久郡立科町大字芦田720-1","lat":36.27413,"lon":138.32288},{"name":"障害者福祉センター","province":"東京都","city":"清瀬市","address":"東京都清瀬市上清戸1-16-62","lat":35.773273,"lon":139.527679},{"name":"子どもの発達支援・交流センターとことこ","province":"東京都","city":"清瀬市","address":"東京都清瀬市竹丘1-15-8","lat":35.768108,"lon":139.511079},{"name":"東京都立 清瀬特別支援学校","province":"東京都","city":"清瀬市","address":"東京都清瀬市松山3-1-97","lat":35.76896,"lon":139.511529},{"name":"ヒューマンライフケア清瀬","province":"東京都","city":"清瀬市","address":"東京都清瀬市元町1-8-25","lat":35.77412,"lon":139.519828},{"name":"ツクイ秋津","province":"東京都","city":"清瀬市","address":"東京都清瀬市野塩1-303-2","lat":35.779016,"lon":139.497067},{"name":"グループホーム清瀬","province":"東京都","city":"清瀬市","address":"東京都清瀬市中清戸5-132-1","lat":35.779676,"lon":139.532555},{"name":"グループホームさくらの苑","province":"東京都","city":"清瀬市","address":"東京都清瀬市中清戸5-27-3","lat":35.779659,"lon":139.532564},{"name":"しんあい清戸の里","province":"東京都","city":"清瀬市","address":"東京都清瀬市下清戸1-305-1","lat":35.780341,"lon":139.536013},{"name":"ホームステーションらいふ清瀬","province":"東京都","city":"清瀬市","address":"東京都清瀬市松山1-4-16","lat":35.770683,"lon":139.5207},{"name":"みどりの樹清瀬","province":"東京都","city":"清瀬市","address":"東京都清瀬市下清戸4-709-17","lat":35.786527,"lon":139.539276},{"name":"清瀬小学校","province":"東京都","city":"清瀬市","address":"東京都清瀬市中里5-741","lat":35.785719,"lon":139.525573},{"name":"芝山小学校","province":"東京都","city":"清瀬市","address":"東京都清瀬市元町2-16-8","lat":35.775287,"lon":139.511307},{"name":"第三小学校","province":"東京都","city":"清瀬市","address":"東京都清瀬市竹丘1-15-4","lat":35.768423,"lon":139.510224},{"name":"第四小学校","province":"東京都","city":"清瀬市","address":"東京都清瀬市中里2-1471","lat":35.783011,"lon":139.510224},{"name":"第六小学校","province":"東京都","city":"清瀬市","address":"東京都清瀬市梅園2-9-45","lat":35.771657,"lon":139.503822},{"name":"第七小学校","province":"東京都","city":"清瀬市","address":"東京都清瀬市松山3-1-92","lat":35.767974,"lon":139.512557},{"name":"第八小学校","province":"東京都","city":"清瀬市","address":"東京都清瀬市中清戸4-1070","lat":35.781332,"lon":139.530545},{"name":"第十小学校","province":"東京都","city":"清瀬市","address":"東京都清瀬市中清戸1-454-14","lat":35.775219,"lon":139.527966},{"name":"清明小学校","province":"東京都","city":"清瀬市","address":"東京都清瀬市旭が丘2-8-1","lat":35.796663,"lon":139.539587},{"name":"清瀬中学校","province":"東京都","city":"清瀬市","address":"東京都清瀬市中里5-624","lat":35.784843,"lon":139.52496},{"name":"第二中学校","province":"東京都","city":"清瀬市","address":"東京都清瀬市梅園2-9-15","lat":35.773323,"lon":139.505105},{"name":"第三中学校","province":"東京都","city":"清瀬市","address":"東京都清瀬市旭が丘1-262","lat":35.791564,"lon":139.534861},{"name":"第四中学校","province":"東京都","city":"清瀬市","address":"東京都清瀬市野塩3-2-3","lat":35.778777,"lon":139.507985},{"name":"第五中学校","province":"東京都","city":"清瀬市","address":"東京都清瀬市中清戸3-258-1","lat":35.775094,"lon":139.534001},{"name":"清瀬けやきホール","province":"東京都","city":"清瀬市","address":"東京都清瀬市元町1-6-6","lat":35.774561,"lon":139.519556},{"name":"コミュニティプラザひまわり","province":"東京都","city":"清瀬市","address":"東京都清瀬市下清戸1-212-4","lat":35.77804,"lon":139.537766},{"name":"松山地域市民センター","province":"東京都","city":"清瀬市","address":"東京都清瀬市松山2-6-25","lat":35.770989,"lon":139.514809},{"name":"野塩地域市民センター","province":"東京都","city":"清瀬市","address":"東京都清瀬市野塩1-322-2","lat":35.779163,"lon":139.499466},{"name":"下宿地域市民センター","province":"東京都","city":"清瀬市","address":"東京都清瀬市下宿2-524-1","lat":35.797491,"lon":139.533321},{"name":"竹丘地域市民センター","province":"東京都","city":"清瀬市","address":"東京都清瀬市竹丘1-11-1","lat":35.765849,"lon":139.51142},{"name":"中清戸地域市民センター","province":"東京都","city":"清瀬市","address":"東京都清瀬市中清戸4-847-5","lat":35.784853,"lon":139.527671},{"name":"中里地域市民センター","province":"東京都","city":"清瀬市","address":"東京都清瀬市中里4-1301","lat":35.78652,"lon":139.514166},{"name":"郷土博物館","province":"東京都","city":"清瀬市","address":"東京都清瀬市上清戸2-6-41","lat":35.779741,"lon":139.521002},{"name":"児童センター","province":"東京都","city":"清瀬市","address":"東京都清瀬市中清戸3-235-5","lat":35.776371,"lon":139.530674},{"name":"きよせボランティア・市民活動センター","province":"東京都","city":"清瀬市","address":"東京都清瀬市上清戸2-6-10","lat":35.779175,"lon":139.521079},{"name":"消費生活センター","province":"東京都","city":"清瀬市","address":"東京都清瀬市元町1-4-17","lat":35.774417,"lon":139.520637},{"name":"清瀬小学校","province":"東京都","city":"清瀬市","address":"東京都清瀬市中里5丁目741","lat":35.78521086,"lon":139.52560538},{"name":"芝山小学校","province":"東京都","city":"清瀬市","address":"東京都清瀬市元町2丁目16-8","lat":35.77535899,"lon":139.511204},{"name":"第三小学校","province":"東京都","city":"清瀬市","address":"東京都清瀬市竹丘1丁目15-4","lat":35.76856813,"lon":139.50992645},{"name":"第四小学校","province":"東京都","city":"清瀬市","address":"東京都清瀬市中里2丁目1471","lat":35.78323576,"lon":139.51043456},{"name":"清明小学校","province":"東京都","city":"清瀬市","address":"東京都清瀬市旭が丘2丁目8-1","lat":35.79688461,"lon":139.539993},{"name":"第六小学校","province":"東京都","city":"清瀬市","address":"東京都清瀬市梅園2丁目9-45","lat":35.77171482,"lon":139.50441299},{"name":"第七小学校","province":"東京都","city":"清瀬市","address":"東京都清瀬市松山3丁目1-92","lat":35.7680377,"lon":139.51264842},{"name":"第八小学校","province":"東京都","city":"清瀬市","address":"東京都清瀬市中清戸4丁目1070","lat":35.78730514,"lon":139.53083267},{"name":"第十小学校","province":"東京都","city":"清瀬市","address":"東京都清瀬市中清戸1丁目454-14","lat":35.77514829,"lon":139.52753573},{"name":"清瀬中学校","province":"東京都","city":"清瀬市","address":"東京都清瀬市中里5丁目624","lat":35.78481922,"lon":139.52486379},{"name":"第二中学校","province":"東京都","city":"清瀬市","address":"東京都清瀬市梅園2丁目9-15","lat":35.7733202,"lon":139.50502681},{"name":"第三中学校","province":"東京都","city":"清瀬市","address":"東京都清瀬市旭が丘1丁目262","lat":35.79147967,"lon":139.53471843},{"name":"第四中学校","province":"東京都","city":"清瀬市","address":"東京都清瀬市野塩3丁目2-3","lat":35.77872237,"lon":139.50745708},{"name":"第五中学校","province":"東京都","city":"清瀬市","address":"東京都清瀬市中清戸3丁目258-1","lat":35.77498457,"lon":139.53371287},{"name":"東京都立清瀬高等学校グラウンド","province":"東京都","city":"清瀬市","address":"東京都清瀬市松山3丁目1-56","lat":35.76969866,"lon":139.51487318},{"name":"都職員共済組合清瀬グランド","province":"東京都","city":"清瀬市","address":"東京都清瀬市竹丘3丁目10-5","lat":35.76460172,"lon":139.5013023},{"name":"東星学園体育館前校庭・幼稚園園庭","province":"東京都","city":"清瀬市","address":"東京都清瀬市梅園3丁目14-47","lat":35.77403671,"lon":139.50180485},{"name":"日本社会事業大学駐車場","province":"東京都","city":"清瀬市","address":"東京都清瀬市竹丘3丁目1-30","lat":35.76642387,"lon":139.50676289},{"name":"明治薬科大学清瀬キャンパス正門アクセスモール","province":"東京都","city":"清瀬市","address":"東京都清瀬市野塩2丁目522-1","lat":35.78130535,"lon":139.50652658},{"name":"国立看護大学校内グラウンド","province":"東京都","city":"清瀬市","address":"東京都清瀬市梅園1丁目2-1","lat":35.77402019,"lon":139.50818485},{"name":"(工事期間中受け入れ不可）都立清瀬特別支援学校","province":"東京都","city":"清瀬市","address":"東京都清瀬市松山3丁目1-97","lat":35.76895978,"lon":139.51152906},{"name":"清瀬市郷土博物館","province":"東京都","city":"清瀬市","address":"東京都清瀬市上清戸2-6-41","lat":35.7795,"lon":139.521},{"name":"旧森田家","province":"東京都","city":"清瀬市","address":"東京都清瀬市下宿2-524-1","lat":35.7976,"lon":139.533},{"name":"清瀬市","province":"東京都","city":"清瀬市","address":"清瀬市中里5-842","lat":35.7860525,"lon":139.5263525},{"name":"清瀬駅北口第2駐輪場","province":"東京都","city":"清瀬市","address":"東京都清瀬市上清戸1丁目6","lat":35.77465379,"lon":139.52268069},{"name":"清瀬駅南口駐輪場","province":"東京都","city":"清瀬市","address":"東京都清瀬市松山1丁目10-14","lat":35.77186793,"lon":139.51897276},{"name":"清瀬駅南口第2駐輪場","province":"東京都","city":"清瀬市","address":"東京都清瀬市松山1丁目3-6","lat":35.7710153,"lon":139.52093647},{"name":"＊?清瀬市生涯学習センター","province":"東京都","city":"清瀬市","address":"清瀬市元町1-2-11アミューー5~7階","lat":35.772216,"lon":139.521175},{"name":"清瀬市健康センター","province":"東京都","city":"清瀬市","address":"東京都清瀬市中里5丁目842","lat":35.78608019,"lon":139.52608035},{"name":"清瀬市本庁舎","province":"東京都","city":"清瀬市","address":"東京都清瀬市中里5丁目842","lat":35.78608019,"lon":139.52608035},{"name":"清瀬消防署","province":"東京都","city":"清瀬市","address":"清瀬市中清戸2-850-1","lat":35.78419,"lon":139.5276},{"name":"東京都共済組合清瀬運動場","province":"東京都","city":"清瀬市","address":"清瀬市竹丘3-10-5","lat":35.7646,"lon":139.5013},{"name":"※清瀬市本庁舎","province":"東京都","city":"清瀬市","address":"東京都清瀬市中里5丁目842","lat":35.78608019,"lon":139.52608035},{"name":"清瀬駅北口地下駐輪場","province":"東京都","city":"清瀬市","address":"東京都清瀬市元町1-4-3","lat":35.772452,"lon":139.520581},{"name":"清瀬駅北口第２駐輪場","province":"東京都","city":"清瀬市","address":"東京都清瀬市上清戸1-6","lat":35.774316,"lon":139.52275},{"name":"清瀬駅南口駐輪場","province":"東京都","city":"清瀬市","address":"東京都清瀬市松山1-10-14","lat":35.771854,"lon":139.519051},{"name":"清瀬駅南口第2駐輪場","province":"東京都","city":"清瀬市","address":"東京都清瀬市松山1-3-6","lat":35.771019,"lon":139.520917},{"name":"秋津駅北口駐輪場","province":"東京都","city":"清瀬市","address":"東京都清瀬市野塩1-342-1","lat":35.778799,"lon":139.50021},{"name":"秋津駅南口駐輪場","province":"東京都","city":"清瀬市","address":"東京都清瀬市野塩5-280-22","lat":35.776632,"lon":139.496537},{"name":"特別養護老人ホーム 救世軍恵泉ホーム","province":"東京都","city":"清瀬市","address":"東京都清瀬市竹丘1-17-61","lat":35.769635,"lon":139.508107},{"name":"特別養護老人ホーム 上宮園","province":"東京都","city":"清瀬市","address":"東京都清瀬市竹丘3-3-31","lat":35.767543,"lon":139.502455},{"name":"特別養護老人ホーム 信愛の園","province":"東京都","city":"清瀬市","address":"東京都清瀬市梅園2-3-15","lat":35.772751,"lon":139.503522},{"name":"特別養護老人ホーム 清雅苑","province":"東京都","city":"清瀬市","address":"東京都清瀬市中里5-91-2","lat":35.789366,"lon":139.531891},{"name":"特別養護老人ホーム 聖ヨゼフ老人ホーム","province":"東京都","city":"清瀬市","address":"東京都清瀬市梅園3-14-72","lat":35.772165,"lon":139.501911},{"name":"清瀬どんぐりの家","province":"東京都","city":"清瀬市","address":"東京都清瀬市野塩4-230-1","lat":35.774754,"lon":139.500036},{"name":"工房わかば","province":"東京都","city":"清瀬市","address":"東京都清瀬市野塩4-59-8","lat":35.775592,"lon":139.506768},{"name":"清瀬療護園","province":"東京都","city":"清瀬市","address":"東京都清瀬市竹丘3-1-72","lat":35.765507,"lon":139.503219},{"name":"介護老人保健施設 たけおか","province":"東京都","city":"清瀬市","address":"東京都清瀬市竹丘2-3-21","lat":35.76518,"lon":139.50899},{"name":"介護老人保健施設 ラビアンローゼ","province":"東京都","city":"清瀬市","address":"東京都清瀬市下清戸3-385","lat":35.784884,"lon":139.538971},{"name":"介護老人保健施設 きよせ認知症ケアセンター","province":"東京都","city":"清瀬市","address":"東京都清瀬市中清戸5-27","lat":35.77695,"lon":139.536959},{"name":"介護老人福祉施設 すずらん※","province":"東京都","city":"清瀬市","address":"東京都清瀬市長野県北佐久郡立科町大字芦田720-1","lat":36.27413,"lon":138.32288},{"name":"障害者福祉センター","province":"東京都","city":"清瀬市","address":"東京都清瀬市上清戸1-16-62","lat":35.773273,"lon":139.527679},{"name":"子どもの発達支援・交流センターとことこ","province":"東京都","city":"清瀬市","address":"東京都清瀬市竹丘1-15-8","lat":35.768108,"lon":139.511079},{"name":"東京都立 清瀬特別支援学校","province":"東京都","city":"清瀬市","address":"東京都清瀬市松山3-1-97","lat":35.76896,"lon":139.511529},{"name":"ヒューマンライフケア清瀬","province":"東京都","city":"清瀬市","address":"東京都清瀬市元町1-8-25","lat":35.77412,"lon":139.519828},{"name":"ツクイ秋津","province":"東京都","city":"清瀬市","address":"東京都清瀬市野塩1-303-2","lat":35.779016,"lon":139.497067},{"name":"グループホーム清瀬","province":"東京都","city":"清瀬市","address":"東京都清瀬市中清戸5-132-1","lat":35.779676,"lon":139.532555},{"name":"グループホームさくらの苑","province":"東京都","city":"清瀬市","address":"東京都清瀬市中清戸5-27-3","lat":35.779659,"lon":139.532564},{"name":"しんあい清戸の里","province":"東京都","city":"清瀬市","address":"東京都清瀬市下清戸1-305-1","lat":35.780341,"lon":139.536013},{"name":"ホームステーションらいふ清瀬","province":"東京都","city":"清瀬市","address":"東京都清瀬市松山1-4-16","lat":35.770683,"lon":139.5207},{"name":"みどりの樹清瀬","province":"東京都","city":"清瀬市","address":"東京都清瀬市下清戸4-709-17","lat":35.786527,"lon":139.539276},{"name":"清瀬小学校","province":"東京都","city":"清瀬市","address":"東京都清瀬市中里5-741","lat":35.785719,"lon":139.525573},{"name":"芝山小学校","province":"東京都","city":"清瀬市","address":"東京都清瀬市元町2-16-8","lat":35.775287,"lon":139.511307},{"name":"第三小学校","province":"東京都","city":"清瀬市","address":"東京都清瀬市竹丘1-15-4","lat":35.768423,"lon":139.510224},{"name":"第四小学校","province":"東京都","city":"清瀬市","address":"東京都清瀬市中里2-1471","lat":35.783011,"lon":139.510224},{"name":"第六小学校","province":"東京都","city":"清瀬市","address":"東京都清瀬市梅園2-9-45","lat":35.771657,"lon":139.503822},{"name":"第七小学校","province":"東京都","city":"清瀬市","address":"東京都清瀬市松山3-1-92","lat":35.767974,"lon":139.512557},{"name":"第八小学校","province":"東京都","city":"清瀬市","address":"東京都清瀬市中清戸4-1070","lat":35.781332,"lon":139.530545},{"name":"第十小学校","province":"東京都","city":"清瀬市","address":"東京都清瀬市中清戸1-454-14","lat":35.775219,"lon":139.527966},{"name":"清明小学校","province":"東京都","city":"清瀬市","address":"東京都清瀬市旭が丘2-8-1","lat":35.796663,"lon":139.539587},{"name":"清瀬中学校","province":"東京都","city":"清瀬市","address":"東京都清瀬市中里5-624","lat":35.784843,"lon":139.52496},{"name":"第二中学校","province":"東京都","city":"清瀬市","address":"東京都清瀬市梅園2-9-15","lat":35.773323,"lon":139.505105},{"name":"第三中学校","province":"東京都","city":"清瀬市","address":"東京都清瀬市旭が丘1-262","lat":35.791564,"lon":139.534861},{"name":"第四中学校","province":"東京都","city":"清瀬市","address":"東京都清瀬市野塩3-2-3","lat":35.778777,"lon":139.507985},{"name":"第五中学校","province":"東京都","city":"清瀬市","address":"東京都清瀬市中清戸3-258-1","lat":35.775094,"lon":139.534001},{"name":"清瀬けやきホール","province":"東京都","city":"清瀬市","address":"東京都清瀬市元町1-6-6","lat":35.774561,"lon":139.519556},{"name":"コミュニティプラザひまわり","province":"東京都","city":"清瀬市","address":"東京都清瀬市下清戸1-212-4","lat":35.77804,"lon":139.537766},{"name":"松山地域市民センター","province":"東京都","city":"清瀬市","address":"東京都清瀬市松山2-6-25","lat":35.770989,"lon":139.514809},{"name":"野塩地域市民センター","province":"東京都","city":"清瀬市","address":"東京都清瀬市野塩1-322-2","lat":35.779163,"lon":139.499466},{"name":"下宿地域市民センター","province":"東京都","city":"清瀬市","address":"東京都清瀬市下宿2-524-1","lat":35.797491,"lon":139.533321},{"name":"竹丘地域市民センター","province":"東京都","city":"清瀬市","address":"東京都清瀬市竹丘1-11-1","lat":35.765849,"lon":139.51142},{"name":"中清戸地域市民センター","province":"東京都","city":"清瀬市","address":"東京都清瀬市中清戸4-847-5","lat":35.784853,"lon":139.527671},{"name":"中里地域市民センター","province":"東京都","city":"清瀬市","address":"東京都清瀬市中里4-1301","lat":35.78652,"lon":139.514166},{"name":"郷土博物館","province":"東京都","city":"清瀬市","address":"東京都清瀬市上清戸2-6-41","lat":35.779741,"lon":139.521002},{"name":"児童センター","province":"東京都","city":"清瀬市","address":"東京都清瀬市中清戸3-235-5","lat":35.776371,"lon":139.530674},{"name":"きよせボランティア・市民活動センター","province":"東京都","city":"清瀬市","address":"東京都清瀬市上清戸2-6-10","lat":35.779175,"lon":139.521079},{"name":"消費生活センター","province":"東京都","city":"清瀬市","address":"東京都清瀬市元町1-4-17","lat":35.774417,"lon":139.520637},{"name":"清瀬小学校","province":"東京都","city":"清瀬市","address":"東京都清瀬市中里5丁目741","lat":35.78521086,"lon":139.52560538},{"name":"芝山小学校","province":"東京都","city":"清瀬市","address":"東京都清瀬市元町2丁目16-8","lat":35.77535899,"lon":139.511204},{"name":"第三小学校","province":"東京都","city":"清瀬市","address":"東京都清瀬市竹丘1丁目15-4","lat":35.76856813,"lon":139.50992645},{"name":"第四小学校","province":"東京都","city":"清瀬市","address":"東京都清瀬市中里2丁目1471","lat":35.78323576,"lon":139.51043456},{"name":"清明小学校","province":"東京都","city":"清瀬市","address":"東京都清瀬市旭が丘2丁目8-1","lat":35.79688461,"lon":139.539993},{"name":"第六小学校","province":"東京都","city":"清瀬市","address":"東京都清瀬市梅園2丁目9-45","lat":35.77171482,"lon":139.50441299},{"name":"第七小学校","province":"東京都","city":"清瀬市","address":"東京都清瀬市松山3丁目1-92","lat":35.7680377,"lon":139.51264842},{"name":"第八小学校","province":"東京都","city":"清瀬市","address":"東京都清瀬市中清戸4丁目1070","lat":35.78730514,"lon":139.53083267},{"name":"第十小学校","province":"東京都","city":"清瀬市","address":"東京都清瀬市中清戸1丁目454-14","lat":35.77514829,"lon":139.52753573},{"name":"清瀬中学校","province":"東京都","city":"清瀬市","address":"東京都清瀬市中里5丁目624","lat":35.78481922,"lon":139.52486379},{"name":"第二中学校","province":"東京都","city":"清瀬市","address":"東京都清瀬市梅園2丁目9-15","lat":35.7733202,"lon":139.50502681},{"name":"第三中学校","province":"東京都","city":"清瀬市","address":"東京都清瀬市旭が丘1丁目262","lat":35.79147967,"lon":139.53471843},{"name":"第四中学校","province":"東京都","city":"清瀬市","address":"東京都清瀬市野塩3丁目2-3","lat":35.77872237,"lon":139.50745708},{"name":"第五中学校","province":"東京都","city":"清瀬市","address":"東京都清瀬市中清戸3丁目258-1","lat":35.77498457,"lon":139.53371287},{"name":"東京都立清瀬高等学校グラウンド","province":"東京都","city":"清瀬市","address":"東京都清瀬市松山3丁目1-56","lat":35.76969866,"lon":139.51487318},{"name":"都職員共済組合清瀬グランド","province":"東京都","city":"清瀬市","address":"東京都清瀬市竹丘3丁目10-5","lat":35.76460172,"lon":139.5013023},{"name":"東星学園体育館前校庭・幼稚園園庭","province":"東京都","city":"清瀬市","address":"東京都清瀬市梅園3丁目14-47","lat":35.77403671,"lon":139.50180485},{"name":"日本社会事業大学駐車場","province":"東京都","city":"清瀬市","address":"東京都清瀬市竹丘3丁目1-30","lat":35.76642387,"lon":139.50676289},{"name":"明治薬科大学清瀬キャンパス正門アクセスモール","province":"東京都","city":"清瀬市","address":"東京都清瀬市野塩2丁目522-1","lat":35.78130535,"lon":139.50652658},{"name":"国立看護大学校内グラウンド","province":"東京都","city":"清瀬市","address":"東京都清瀬市梅園1丁目2-1","lat":35.77402019,"lon":139.50818485},{"name":"(工事期間中受け入れ不可）都立清瀬特別支援学校","province":"東京都","city":"清瀬市","address":"東京都清瀬市松山3丁目1-97","lat":35.76895978,"lon":139.51152906},{"name":"清瀬市郷土博物館","province":"東京都","city":"清瀬市","address":"東京都清瀬市上清戸2-6-41","lat":35.7795,"lon":139.521},{"name":"旧森田家","province":"東京都","city":"清瀬市","address":"東京都清瀬市下宿2-524-1","lat":35.7976,"lon":139.533},{"name":"清瀬駅北口第2駐輪場","province":"東京都","city":"清瀬市","address":"東京都清瀬市上清戸1丁目6","lat":35.77465379,"lon":139.52268069},{"name":"清瀬駅南口駐輪場","province":"東京都","city":"清瀬市","address":"東京都清瀬市松山1丁目10-14","lat":35.77186793,"lon":139.51897276},{"name":"清瀬駅南口第2駐輪場","province":"東京都","city":"清瀬市","address":"東京都清瀬市松山1丁目3-6","lat":35.7710153,"lon":139.52093647},{"name":"＊?清瀬市生涯学習センター","province":"東京都","city":"清瀬市","address":"清瀬市元町1-2-11アミューー5~7階","lat":35.772216,"lon":139.521175},{"name":"清瀬市健康センター","province":"東京都","city":"清瀬市","address":"東京都清瀬市中里5丁目842","lat":35.78608019,"lon":139.52608035},{"name":"清瀬市本庁舎","province":"東京都","city":"清瀬市","address":"東京都清瀬市中里5丁目842","lat":35.78608019,"lon":139.52608035},{"name":"清瀬消防署","province":"東京都","city":"清瀬市","address":"清瀬市中清戸2-850-1","lat":35.78419,"lon":139.5276},{"name":"東京都共済組合清瀬運動場","province":"東京都","city":"清瀬市","address":"清瀬市竹丘3-10-5","lat":35.7646,"lon":139.5013},{"name":"※清瀬市本庁舎","province":"東京都","city":"清瀬市","address":"東京都清瀬市中里5丁目842","lat":35.78608019,"lon":139.52608035},{"name":"清瀬駅北口地下駐輪場","province":"東京都","city":"清瀬市","address":"東京都清瀬市元町1-4-3","lat":35.772452,"lon":139.520581},{"name":"清瀬駅北口第２駐輪場","province":"東京都","city":"清瀬市","address":"東京都清瀬市上清戸1-6","lat":35.774316,"lon":139.52275},{"name":"清瀬駅南口駐輪場","province":"東京都","city":"清瀬市","address":"東京都清瀬市松山1-10-14","lat":35.771854,"lon":139.519051},{"name":"清瀬駅南口第2駐輪場","province":"東京都","city":"清瀬市","address":"東京都清瀬市松山1-3-6","lat":35.771019,"lon":139.520917},{"name":"秋津駅北口駐輪場","province":"東京都","city":"清瀬市","address":"東京都清瀬市野塩1-342-1","lat":35.778799,"lon":139.50021},{"name":"秋津駅南口駐輪場","province":"東京都","city":"清瀬市","address":"東京都清瀬市野塩5-280-22","lat":35.776632,"lon":139.496537},{"name":"特別養護老人ホーム 救世軍恵泉ホーム","province":"東京都","city":"清瀬市","address":"東京都清瀬市竹丘1-17-61","lat":35.769635,"lon":139.508107},{"name":"特別養護老人ホーム 上宮園","province":"東京都","city":"清瀬市","address":"東京都清瀬市竹丘3-3-31","lat":35.767543,"lon":139.502455},{"name":"特別養護老人ホーム 信愛の園","province":"東京都","city":"清瀬市","address":"東京都清瀬市梅園2-3-15","lat":35.772751,"lon":139.503522},{"name":"特別養護老人ホーム 清雅苑","province":"東京都","city":"清瀬市","address":"東京都清瀬市中里5-91-2","lat":35.789366,"lon":139.531891},{"name":"特別養護老人ホーム 聖ヨゼフ老人ホーム","province":"東京都","city":"清瀬市","address":"東京都清瀬市梅園3-14-72","lat":35.772165,"lon":139.501911},{"name":"清瀬どんぐりの家","province":"東京都","city":"清瀬市","address":"東京都清瀬市野塩4-230-1","lat":35.774754,"lon":139.500036},{"name":"工房わかば","province":"東京都","city":"清瀬市","address":"東京都清瀬市野塩4-59-8","lat":35.775592,"lon":139.506768},{"name":"清瀬療護園","province":"東京都","city":"清瀬市","address":"東京都清瀬市竹丘3-1-72","lat":35.765507,"lon":139.503219},{"name":"介護老人保健施設 たけおか","province":"東京都","city":"清瀬市","address":"東京都清瀬市竹丘2-3-21","lat":35.76518,"lon":139.50899},{"name":"介護老人保健施設 ラビアンローゼ","province":"東京都","city":"清瀬市","address":"東京都清瀬市下清戸3-385","lat":35.784884,"lon":139.538971},{"name":"介護老人保健施設 きよせ認知症ケアセンター","province":"東京都","city":"清瀬市","address":"東京都清瀬市中清戸5-27","lat":35.77695,"lon":139.536959},{"name":"介護老人福祉施設 すずらん※","province":"東京都","city":"清瀬市","address":"東京都清瀬市長野県北佐久郡立科町大字芦田720-1","lat":36.27413,"lon":138.32288},{"name":"障害者福祉センター","province":"東京都","city":"清瀬市","address":"東京都清瀬市上清戸1-16-62","lat":35.773273,"lon":139.527679},{"name":"子どもの発達支援・交流センターとことこ","province":"東京都","city":"清瀬市","address":"東京都清瀬市竹丘1-15-8","lat":35.768108,"lon":139.511079},{"name":"東京都立 清瀬特別支援学校","province":"東京都","city":"清瀬市","address":"東京都清瀬市松山3-1-97","lat":35.76896,"lon":139.511529},{"name":"ヒューマンライフケア清瀬","province":"東京都","city":"清瀬市","address":"東京都清瀬市元町1-8-25","lat":35.77412,"lon":139.519828},{"name":"ツクイ秋津","province":"東京都","city":"清瀬市","address":"東京都清瀬市野塩1-303-2","lat":35.779016,"lon":139.497067},{"name":"グループホーム清瀬","province":"東京都","city":"清瀬市","address":"東京都清瀬市中清戸5-132-1","lat":35.779676,"lon":139.532555},{"name":"グループホームさくらの苑","province":"東京都","city":"清瀬市","address":"東京都清瀬市中清戸5-27-3","lat":35.779659,"lon":139.532564},{"name":"しんあい清戸の里","province":"東京都","city":"清瀬市","address":"東京都清瀬市下清戸1-305-1","lat":35.780341,"lon":139.536013},{"name":"ホームステーションらいふ清瀬","province":"東京都","city":"清瀬市","address":"東京都清瀬市松山1-4-16","lat":35.770683,"lon":139.5207},{"name":"みどりの樹清瀬","province":"東京都","city":"清瀬市","address":"東京都清瀬市下清戸4-709-17","lat":35.786527,"lon":139.539276},{"name":"清瀬小学校","province":"東京都","city":"清瀬市","address":"東京都清瀬市中里5-741","lat":35.785719,"lon":139.525573},{"name":"芝山小学校","province":"東京都","city":"清瀬市","address":"東京都清瀬市元町2-16-8","lat":35.775287,"lon":139.511307},{"name":"第三小学校","province":"東京都","city":"清瀬市","address":"東京都清瀬市竹丘1-15-4","lat":35.768423,"lon":139.510224},{"name":"第四小学校","province":"東京都","city":"清瀬市","address":"東京都清瀬市中里2-1471","lat":35.783011,"lon":139.510224},{"name":"第六小学校","province":"東京都","city":"清瀬市","address":"東京都清瀬市梅園2-9-45","lat":35.771657,"lon":139.503822},{"name":"第七小学校","province":"東京都","city":"清瀬市","address":"東京都清瀬市松山3-1-92","lat":35.767974,"lon":139.512557},{"name":"第八小学校","province":"東京都","city":"清瀬市","address":"東京都清瀬市中清戸4-1070","lat":35.781332,"lon":139.530545},{"name":"第十小学校","province":"東京都","city":"清瀬市","address":"東京都清瀬市中清戸1-454-14","lat":35.775219,"lon":139.527966},{"name":"清明小学校","province":"東京都","city":"清瀬市","address":"東京都清瀬市旭が丘2-8-1","lat":35.796663,"lon":139.539587},{"name":"清瀬中学校","province":"東京都","city":"清瀬市","address":"東京都清瀬市中里5-624","lat":35.784843,"lon":139.52496},{"name":"第二中学校","province":"東京都","city":"清瀬市","address":"東京都清瀬市梅園2-9-15","lat":35.773323,"lon":139.505105},{"name":"第三中学校","province":"東京都","city":"清瀬市","address":"東京都清瀬市旭が丘1-262","lat":35.791564,"lon":139.534861},{"name":"第四中学校","province":"東京都","city":"清瀬市","address":"東京都清瀬市野塩3-2-3","lat":35.778777,"lon":139.507985},{"name":"第五中学校","province":"東京都","city":"清瀬市","address":"東京都清瀬市中清戸3-258-1","lat":35.775094,"lon":139.534001},{"name":"清瀬けやきホール","province":"東京都","city":"清瀬市","address":"東京都清瀬市元町1-6-6","lat":35.774561,"lon":139.519556},{"name":"コミュニティプラザひまわり","province":"東京都","city":"清瀬市","address":"東京都清瀬市下清戸1-212-4","lat":35.77804,"lon":139.537766},{"name":"松山地域市民センター","province":"東京都","city":"清瀬市","address":"東京都清瀬市松山2-6-25","lat":35.770989,"lon":139.514809},{"name":"野塩地域市民センター","province":"東京都","city":"清瀬市","address":"東京都清瀬市野塩1-322-2","lat":35.779163,"lon":139.499466},{"name":"下宿地域市民センター","province":"東京都","city":"清瀬市","address":"東京都清瀬市下宿2-524-1","lat":35.797491,"lon":139.533321},{"name":"竹丘地域市民センター","province":"東京都","city":"清瀬市","address":"東京都清瀬市竹丘1-11-1","lat":35.765849,"lon":139.51142},{"name":"中清戸地域市民センター","province":"東京都","city":"清瀬市","address":"東京都清瀬市中清戸4-847-5","lat":35.784853,"lon":139.527671},{"name":"中里地域市民センター","province":"東京都","city":"清瀬市","address":"東京都清瀬市中里4-1301","lat":35.78652,"lon":139.514166},{"name":"郷土博物館","province":"東京都","city":"清瀬市","address":"東京都清瀬市上清戸2-6-41","lat":35.779741,"lon":139.521002},{"name":"児童センター","province":"東京都","city":"清瀬市","address":"東京都清瀬市中清戸3-235-5","lat":35.776371,"lon":139.530674},{"name":"きよせボランティア・市民活動センター","province":"東京都","city":"清瀬市","address":"東京都清瀬市上清戸2-6-10","lat":35.779175,"lon":139.521079},{"name":"消費生活センター","province":"東京都","city":"清瀬市","address":"東京都清瀬市元町1-4-17","lat":35.774417,"lon":139.520637},{"name":"清瀬小学校","province":"東京都","city":"清瀬市","address":"東京都清瀬市中里5丁目741","lat":35.78521086,"lon":139.52560538},{"name":"芝山小学校","province":"東京都","city":"清瀬市","address":"東京都清瀬市元町2丁目16-8","lat":35.77535899,"lon":139.511204},{"name":"第三小学校","province":"東京都","city":"清瀬市","address":"東京都清瀬市竹丘1丁目15-4","lat":35.76856813,"lon":139.50992645},{"name":"第四小学校","province":"東京都","city":"清瀬市","address":"東京都清瀬市中里2丁目1471","lat":35.78323576,"lon":139.51043456},{"name":"清明小学校","province":"東京都","city":"清瀬市","address":"東京都清瀬市旭が丘2丁目8-1","lat":35.79688461,"lon":139.539993},{"name":"第六小学校","province":"東京都","city":"清瀬市","address":"東京都清瀬市梅園2丁目9-45","lat":35.77171482,"lon":139.50441299},{"name":"第七小学校","province":"東京都","city":"清瀬市","address":"東京都清瀬市松山3丁目1-92","lat":35.7680377,"lon":139.51264842},{"name":"第八小学校","province":"東京都","city":"清瀬市","address":"東京都清瀬市中清戸4丁目1070","lat":35.78730514,"lon":139.53083267},{"name":"第十小学校","province":"東京都","city":"清瀬市","address":"東京都清瀬市中清戸1丁目454-14","lat":35.77514829,"lon":139.52753573},{"name":"清瀬中学校","province":"東京都","city":"清瀬市","address":"東京都清瀬市中里5丁目624","lat":35.78481922,"lon":139.52486379},{"name":"第二中学校","province":"東京都","city":"清瀬市","address":"東京都清瀬市梅園2丁目9-15","lat":35.7733202,"lon":139.50502681},