{"keyword":"収蔵","data":[{"name":"清瀬元町配水所","province":"東京都","city":"清瀬市","address":"東京都清瀬市元町2-27-12","lat":35.777665,"lon":139.51738},{"name":"市立第3保育園","province":"東京都","city":"清瀬市","address":"東京都清瀬市旭が丘3-755-1","lat":35.798093,"lon":139.539109},{"name":"清瀬梅園給水所","province":"東京都","city":"清瀬市","address":"東京都清瀬市梅園1-3","lat":35.771644,"lon":139.507321},{"name":"清瀬元町配水所","province":"東京都","city":"清瀬市","address":"東京都清瀬市元町2-27-12","lat":35.777687,"lon":139.517376},{"name":"市立第３保育園","province":"東京都","city":"清瀬市","address":"東京都清瀬市旭が丘3-755-1","lat":35.7979192,"lon":139.5391642},{"name":"清瀬梅園給水所","province":"東京都","city":"清瀬市","address":"東京都清瀬市梅園1-3","lat":35.770799,"lon":139.5079632},{"name":"国立病院機構東京病院","province":"東京都","city":"清瀬市","address":"東京都清瀬市竹丘3丁目1-1","lat":35.76696263,"lon":139.5045714},{"name":"都立清瀬小児病院","province":"東京都","city":"清瀬市","address":"東京都清瀬市梅園1丁目3-1","lat":35.77061503,"lon":139.50738775},{"name":"東京都共済組合清瀬運動場","province":"東京都","city":"清瀬市","address":"東京都清瀬市竹丘3丁目10-5","lat":35.76460172,"lon":139.5013023},{"name":"（株）千代田","province":"東京都","city":"清瀬市","address":"清瀬市松山2-13-10","lat":35.77322,"lon":139.5138},{"name":"清瀬元町配水所","province":"東京都","city":"清瀬市","address":"東京都清瀬市元町2-27-12","lat":35.777665,"lon":139.51738},{"name":"市立第3保育園","province":"東京都","city":"清瀬市","address":"東京都清瀬市旭が丘3-755-1","lat":35.798093,"lon":139.539109},{"name":"清瀬梅園給水所","province":"東京都","city":"清瀬市","address":"東京都清瀬市梅園1-3","lat":35.771644,"lon":139.507321},{"name":"清瀬元町配水所","province":"東京都","city":"清瀬市","address":"東京都清瀬市元町2-27-12","lat":35.777687,"lon":139.517376},{"name":"市立第３保育園","province":"東京都","city":"清瀬市","address":"東京都清瀬市旭が丘3-755-1","lat":35.7979192,"lon":139.5391642},{"name":"清瀬梅園給水所","province":"東京都","city":"清瀬市","address":"東京都清瀬市梅園1-3","lat":35.770799,"lon":139.5079632},{"name":"国立病院機構東京病院","province":"東京都","city":"清瀬市","address":"東京都清瀬市竹丘3丁目1-1","lat":35.76696263,"lon":139.5045714},{"name":"都立清瀬小児病院","province":"東京都","city":"清瀬市","address":"東京都清瀬市梅園1丁目3-1","lat":35.77061503,"lon":139.50738775},{"name":"東京都共済組合清瀬運動場","province":"東京都","city":"清瀬市","address":"東京都清瀬市竹丘3丁目10-5","lat":35.76460172,"lon":139.5013023},{"name":"（株）千代田","province":"東京都","city":"清瀬市","address":"清瀬市松山2-13-10","lat":35.77322,"lon":139.5138},{"name":"清瀬元町配水所","province":"東京都","city":"清瀬市","address":"東京都清瀬市元町2-27-12","lat":35.777665,"lon":139.51738},{"name":"市立第3保育園","province":"東京都","city":"清瀬市","address":"東京都清瀬市旭が丘3-755-1","lat":35.798093,"lon":139.539109},{"name":"清瀬梅園給水所","province":"東京都","city":"清瀬市","address":"東京都清瀬市梅園1-3","lat":35.771644,"lon":139.507321},{"name":"清瀬元町配水所","province":"東京都","city":"清瀬市","address":"東京都清瀬市元町2-27-12","lat":35.777687,"lon":139.517376},{"name":"市立第３保育園","province":"東京都","city":"清瀬市","address":"東京都清瀬市旭が丘3-755-1","lat":35.7979192,"lon":139.5391642},{"name":"清瀬梅園給水所","province":"東京都","city":"清瀬市","address":"東京都清瀬市梅園1-3","lat":35.770799,"lon":139.5079632},{"name":"国立病院機構東京病院","province":"東京都","city":"清瀬市","address":"東京都清瀬市竹丘3丁目1-1","lat":35.76696263,"lon":139.5045714},{"name":"都立清瀬小児病院","province":"東京都","city":"清瀬市","address":"東京都清瀬市梅園1丁目3-1","lat":35.77061503,"lon":139.50738775},{"name":"東京都共済組合清瀬運動場","province":"東京都","city":"清瀬市","address":"東京都清瀬市竹丘3丁目10-5","lat":35.76460172,"lon":139.5013023},{"name":"（株）千代田","province":"東京都","city":"清瀬市","address":"清瀬市松山2-13-10","lat":35.77322,"lon":139.5138},{"name":"清瀬元町配水所","province":"東京都","city":"清瀬市","address":"東京都清瀬市元町2-27-12","lat":35.777665,"lon":139.51738},{"name":"市立第3保育園","province":"東京都","city":"清瀬市","address":"東京都清瀬市旭が丘3-755-1","lat":35.798093,"lon":139.539109},{"name":"清瀬梅園給水所","province":"東京都","city":"清瀬市","address":"東京都清瀬市梅園1-3","lat":35.771644,"lon":139.507321},{"name":"清瀬元町配水所","province":"東京都","city":"清瀬市","address":"東京都清瀬市元町2-27-12","lat":35.777687,"lon":139.517376},{"name":"市立第３保育園","province":"東京都","city":"清瀬市","address":"東京都清瀬市旭が丘3-755-1","lat":35.7979192,"lon":139.5391642},{"name":"清瀬梅園給水所","province":"東京都","city":"清瀬市","address":"東京都清瀬市梅園1-3","lat":35.770799,"lon":139.5079632},{"name":"国立病院機構東京病院","province":"東京都","city":"清瀬市","address":"東京都清瀬市竹丘3丁目1-1","lat":35.76696263,"lon":139.5045714},{"name":"都立清瀬小児病院","province":"東京都","city":"清瀬市","address":"東京都清瀬市梅園1丁目3-1","lat":35.77061503,"lon":139.50738775},{"name":"東京都共済組合清瀬運動場","province":"東京都","city":"清瀬市","address":"東京都清瀬市竹丘3丁目10-5","lat":35.76460172,"lon":139.5013023},{"name":"（株）千代田","province":"東京都","city":"清瀬市","address":"清瀬市松山2-13-10","lat":35.77322,"lon":139.5138},{"name":"清瀬元町配水所","province":"東京都","city":"清瀬市","address":"東京都清瀬市元町2-27-12","lat":35.777665,"lon":139.51738},{"name":"市立第3保育園","province":"東京都","city":"清瀬市","address":"東京都清瀬市旭が丘3-755-1","lat":35.798093,"lon":139.539109},{"name":"清瀬梅園給水所","province":"東京都","city":"清瀬市","address":"東京都清瀬市梅園1-3","lat":35.771644,"lon":139.507321},{"name":"清瀬元町配水所","province":"東京都","city":"清瀬市","address":"東京都清瀬市元町2-27-12","lat":35.777687,"lon":139.517376},{"name":"市立第３保育園","province":"東京都","city":"清瀬市","address":"東京都清瀬市旭が丘3-755-1","lat":35.7979192,"lon":139.5391642},{"name":"清瀬梅園給水所","province":"東京都","city":"清瀬市","address":"東京都清瀬市梅園1-3","lat":35.770799,"lon":139.5079632},{"name":"国立病院機構東京病院","province":"東京都","city":"清瀬市","address":"東京都清瀬市竹丘3丁目1-1","lat":35.76696263,"lon":139.5045714},{"name":"都立清瀬小児病院","province":"東京都","city":"清瀬市","address":"東京都清瀬市梅園1丁目3-1","lat":35.77061503,"lon":139.50738775},{"name":"（株）千代田","province":"東京都","city":"清瀬市","address":"清瀬市松山2-13-10","lat":35.77322,"lon":139.5138},{"name":"清瀬元町配水所","province":"東京都","city":"清瀬市","address":"東京都清瀬市元町2-27-12","lat":35.777665,"lon":139.51738},{"name":"市立第3保育園","province":"東京都","city":"清瀬市","address":"東京都清瀬市旭が丘3-755-1","lat":35.798093,"lon":139.539109},{"name":"清瀬梅園給水所","province":"東京都","city":"清瀬市","address":"東京都清瀬市梅園1-3","lat":35.771644,"lon":139.507321},{"name":"清瀬元町配水所","province":"東京都","city":"清瀬市","address":"東京都清瀬市元町2-27-12","lat":35.777687,"lon":139.517376},{"name":"市立第３保育園","province":"東京都","city":"清瀬市","address":"東京都清瀬市旭が丘3-755-1","lat":35.7979192,"lon":139.5391642},{"name":"清瀬梅園給水所","province":"東京都","city":"清瀬市","address":"東京都清瀬市梅園1-3","lat":35.770799,"lon":139.5079632},{"name":"国立病院機構東京病院","province":"東京都","city":"清瀬市","address":"東京都清瀬市竹丘3丁目1-1","lat":35.76696263,"lon":139.5045714},{"name":"都立清瀬小児病院","province":"東京都","city":"清瀬市","address":"東京都清瀬市梅園1丁目3-1","lat":35.77061503,"lon":139.50738775},{"name":"（株）千代田","province":"東京都","city":"清瀬市","address":"清瀬市松山2-13-10","lat":35.77322,"lon":139.5138},{"name":"清瀬元町配水所","province":"東京都","city":"清瀬市","address":"東京都清瀬市元町2-27-12","lat":35.777665,"lon":139.51738},{"name":"市立第3保育園","province":"東京都","city":"清瀬市","address":"東京都清瀬市旭が丘3-755-1","lat":35.798093,"lon":139.539109},{"name":"清瀬梅園給水所","province":"東京都","city":"清瀬市","address":"東京都清瀬市梅園1-3","lat":35.771644,"lon":139.507321},{"name":"清瀬元町配水所","province":"東京都","city":"清瀬市","address":"東京都清瀬市元町2-27-12","lat":35.777687,"lon":139.517376},{"name":"市立第３保育園","province":"東京都","city":"清瀬市","address":"東京都清瀬市旭が丘3-755-1","lat":35.7979192,"lon":139.5391642},{"name":"清瀬梅園給水所","province":"東京都","city":"清瀬市","address":"東京都清瀬市梅園1-3","lat":35.770799,"lon":139.5079632},{"name":"国立病院機構東京病院","province":"東京都","city":"清瀬市","address":"東京都清瀬市竹丘3丁目1-1","lat":35.76696263,"lon":139.5045714},{"name":"都立清瀬小児病院","province":"東京都","city":"清瀬市","address":"東京都清瀬市梅園1丁目3-1","lat":35.77061503,"lon":139.50738775},{"name":"（株）千代田","province":"東京都","city":"清瀬市","address":"清瀬市松山2-13-10","lat":35.77322,"lon":139.5138},{"name":"清瀬元町配水所","province":"東京都","city":"清瀬市","address":"東京都清瀬市元町2-27-12","lat":35.777665,"lon":139.51738},{"name":"市立第3保育園","province":"東京都","city":"清瀬市","address":"東京都清瀬市旭が丘3-755-1","lat":35.798093,"lon":139.539109},{"name":"清瀬梅園給水所","province":"東京都","city":"清瀬市","address":"東京都清瀬市梅園1-3","lat":35.771644,"lon":139.507321},{"name":"清瀬元町配水所","province":"東京都","city":"清瀬市","address":"東京都清瀬市元町2-27-12","lat":35.777687,"lon":139.517376},{"name":"市立第３保育園","province":"東京都","city":"清瀬市","address":"東京都清瀬市旭が丘3-755-1","lat":35.7979192,"lon":139.5391642},{"name":"清瀬梅園給水所","province":"東京都","city":"清瀬市","address":"東京都清瀬市梅園1-3","lat":35.770799,"lon":139.5079632},{"name":"国立病院機構東京病院","province":"東京都","city":"清瀬市","address":"東京都清瀬市竹丘3丁目1-1","lat":35.76696263,"lon":139.5045714},{"name":"都立清瀬小児病院","province":"東京都","city":"清瀬市","address":"東京都清瀬市梅園1丁目3-1","lat":35.77061503,"lon":139.50738775},{"name":"（株）千代田","province":"東京都","city":"清瀬市","address":"清瀬市松山2-13-10","lat":35.77322,"lon":139.5138},{"name":"清瀬元町配水所","province":"東京都","city":"清瀬市","address":"東京都清瀬市元町2-27-12","lat":35.777665,"lon":139.51738},{"name":"市立第3保育園","province":"東京都","city":"清瀬市","address":"東京都清瀬市旭が丘3-755-1","lat":35.798093,"lon":139.539109},{"name":"清瀬梅園給水所","province":"東京都","city":"清瀬市","address":"東京都清瀬市梅園1-3","lat":35.771644,"lon":139.507321},{"name":"清瀬元町配水所","province":"東京都","city":"清瀬市","address":"東京都清瀬市元町2-27-12","lat":35.777687,"lon":139.517376},{"name":"市立第３保育園","province":"東京都","city":"清瀬市","address":"東京都清瀬市旭が丘3-755-1","lat":35.7979192,"lon":139.5391642},{"name":"清瀬梅園給水所","province":"東京都","city":"清瀬市","address":"東京都清瀬市梅園1-3","lat":35.770799,"lon":139.5079632},{"name":"国立病院機構東京病院","province":"東京都","city":"清瀬市","address":"東京都清瀬市竹丘3丁目1-1","lat":35.76696263,"lon":139.5045714},{"name":"都立清瀬小児病院","province":"東京都","city":"清瀬市","address":"東京都清瀬市梅園1丁目3-1","lat":35.77061503,"lon":139.50738775},{"name":"（株）千代田","province":"東京都","city":"清瀬市","address":"清瀬市松山2-13-10","lat":35.77322,"lon":139.5138},{"name":"清瀬元町配水所","province":"東京都","city":"清瀬市","address":"東京都清瀬市元町2-27-12","lat":35.777665,"lon":139.51738},{"name":"市立第3保育園","province":"東京都","city":"清瀬市","address":"東京都清瀬市旭が丘3-755-1","lat":35.798093,"lon":139.539109},{"name":"清瀬梅園給水所","province":"東京都","city":"清瀬市","address":"東京都清瀬市梅園1-3","lat":35.771644,"lon":139.507321},{"name":"清瀬元町配水所","province":"東京都","city":"清瀬市","address":"東京都清瀬市元町2-27-12","lat":35.777687,"lon":139.517376},{"name":"市立第３保育園","province":"東京都","city":"清瀬市","address":"東京都清瀬市旭が丘3-755-1","lat":35.7979192,"lon":139.5391642},{"name":"清瀬梅園給水所","province":"東京都","city":"清瀬市","address":"東京都清瀬市梅園1-3","lat":35.770799,"lon":139.5079632},{"name":"国立病院機構東京病院","province":"東京都","city":"清瀬市","address":"東京都清瀬市竹丘3丁目1-1","lat":35.76696263,"lon":139.5045714},{"name":"都立清瀬小児病院","province":"東京都","city":"清瀬市","address":"東京都清瀬市梅園1丁目3-1","lat":35.77061503,"lon":139.50738775},{"name":"（株）千代田","province":"東京都","city":"清瀬市","address":"清瀬市松山2-13-10","lat":35.77322,"lon":139.5138},{"name":"清瀬元町配水所","province":"東京都","city":"清瀬市","address":"東京都清瀬市元町2-27-12","lat":35.777665,"lon":139.51738},{"name":"市立第3保育園","province":"東京都","city":"清瀬市","address":"東京都清瀬市旭が丘3-755-1","lat":35.798093,"lon":139.539109},{"name":"清瀬梅園給水所","province":"東京都","city":"清瀬市","address":"東京都清瀬市梅園1-3","lat":35.771644,"lon":139.507321},{"name":"清瀬元町配水所","province":"東京都","city":"清瀬市","address":"東京都清瀬市元町2-27-12","lat":35.777687,"lon":139.517376},{"name":"市立第３保育園","province":"東京都","city":"清瀬市","address":"東京都清瀬市旭が丘3-755-1","lat":35.7979192,"lon":139.5391642},{"name":"清瀬梅園給水所","province":"東京都","city":"清瀬市","address":"東京都清瀬市梅園1-3","lat":35.770799,"lon":139.5079632},{"name":"（株）千代田","province":"東京都","city":"清瀬市","address":"清瀬市松山2-13-10","lat":35.77322,"lon":139.5138},{"name":"清瀬元町配水所","province":"東京都","city":"清瀬市","address":"東京都清瀬市元町2-27-12","lat":35.777665,"lon":139.51738},{"name":"市立第3保育園","province":"東京都","city":"清瀬市","address":"東京都清瀬市旭が丘3-755-1","lat":35.798093,"lon":139.539109},{"name":"清瀬梅園給水所","province":"東京都","city":"清瀬市","address":"東京都清瀬市梅園1-3","lat":35.771644,"lon":139.507321},{"name":"清瀬元町配水所","province":"東京都","city":"清瀬市","address":"東京都清瀬市元町2-27-12","lat":35.777687,"lon":139.517376},{"name":"市立第３保育園","province":"東京都","city":"清瀬市","address":"東京都清瀬市旭が丘3-755-1","lat":35.7979192,"lon":139.5391642},{"name":"清瀬梅園給水所","province":"東京都","city":"清瀬市","address":"東京都清瀬市梅園1-3","lat":35.770799,"lon":139.5079632},{"name":"（株）千代田","province":"東京都","city":"清瀬市","address":"清瀬市松山2-13-10","lat":35.77322,"lon":139.5138},{"name":"清瀬元町配水所","province":"東京都","city":"清瀬市","address":"東京都清瀬市元町2-27-12","lat":35.777687,"lon":139.517376},{"name":"市立第３保育園","province":"東京都","city":"清瀬市","address":"東京都清瀬市旭が丘3-755-1","lat":35.7979192,"lon":139.5391642},{"name":"清瀬梅園給水所","province":"東京都","city":"清瀬市","address":"東京都清瀬市梅園1-3","lat":35.770799,"lon":139.5079632},{"name":"（株）千代田","province":"東京都","city":"清瀬市","address":"清瀬市松山2-13-10","lat":35.77322,"lon":139.5138},{"name":"清瀬元町配水所","province":"東京都","city":"清瀬市","address":"東京都清瀬市元町2-27-12","lat":35.777687,"lon":139.517376},{"name":"市立第３保育園","province":"東京都","city":"清瀬市","address":"東京都清瀬市旭が丘3-755-1","lat":35.7979192,"lon":139.5391642},{"name":"清瀬梅園給水所","province":"東京都","city":"清瀬市","address":"東京都清瀬市梅園1-3","lat":35.770799,"lon":139.5079632},{"name":"（株）千代田","province":"東京都","city":"清瀬市","address":"清瀬市松山2-13-10","lat":35.77322,"lon":139.5138},{"name":"清瀬元町配水所","province":"東京都","city":"清瀬市","address":"東京都清瀬市元町2-27-12","lat":35.777687,"lon":139.517376},{"name":"市立第３保育園","province":"東京都","city":"清瀬市","address":"東京都清瀬市旭が丘3-755-1","lat":35.7979192,"lon":139.5391642},{"name":"清瀬梅園給水所","province":"東京都","city":"清瀬市","address":"東京都清瀬市梅園1-3","lat":35.770799,"lon":139.5079632},{"name":"（株）千代田","province":"東京都","city":"清瀬市","address":"清瀬市松山2-13-10","lat":35.77322,"lon":139.5138},{"name":"清瀬元町配水所","province":"東京都","city":"清瀬市","address":"東京都清瀬市元町2-27-12","lat":35.777687,"lon":139.517376},{"name":"市立第３保育園","province":"東京都","city":"清瀬市","address":"東京都清瀬市旭が丘3-755-1","lat":35.7979192,"lon":139.5391642},{"name":"清瀬梅園給水所","province":"東京都","city":"清瀬市","address":"東京都清瀬市梅園1-3","lat":35.770799,"lon":139.5079632},{"name":"（株）千代田","province":"東京都","city":"清瀬市","address":"清瀬市松山2-13-10","lat":35.77322,"lon":139.5138},{"name":"清瀬元町配水所","province":"東京都","city":"清瀬市","address":"東京都清瀬市元町2-27-12","lat":35.777687,"lon":139.517376},{"name":"市立第３保育園","province":"東京都","city":"清瀬市","address":"東京都清瀬市旭が丘3-755-1","lat":35.7979192,"lon":139.5391642},{"name":"清瀬梅園給水所","province":"東京都","city":"清瀬市","address":"東京都清瀬市梅園1-3","lat":35.770799,"lon":139.5079632},{"name":"（株）千代田","province":"東京都","city":"清瀬市","address":"清瀬市松山2-13-10","lat":35.77322,"lon":139.5138},{"name":"清瀬元町配水所","province":"東京都","city":"清瀬市","address":"東京都清瀬市元町2-27-12","lat":35.777687,"lon":139.517376},{"name":"市立第３保育園","province":"東京都","city":"清瀬市","address":"東京都清瀬市旭が丘3-755-1","lat":35.7979192,"lon":139.5391642},{"name":"清瀬梅園給水所","province":"東京都","city":"清瀬市","address":"東京都清瀬市梅園1-3","lat":35.770799,"lon":139.5079632},{"name":"（株）千代田","province":"東京都","city":"清瀬市","address":"清瀬市松山2-13-10","lat":35.77322,"lon":139.5138},{"name":"清瀬元町配水所","province":"東京都","city":"清瀬市","address":"東京都清瀬市元町2-27-12","lat":35.777687,"lon":139.517376},{"name":"市立第３保育園","province":"東京都","city":"清瀬市","address":"東京都清瀬市旭が丘3-755-1","lat":35.7979192,"lon":139.5391642},{"name":"清瀬梅園給水所","province":"東京都","city":"清瀬市","address":"東京都清瀬市梅園1-3","lat":35.770799,"lon":139.5079632},{"name":"（株）千代田","province":"東京都","city":"清瀬市","address":"清瀬市松山2-13-10","lat":35.77322,"lon":139.5138},{"name":"清瀬元町配水所","province":"東京都","city":"清瀬市","address":"東京都清瀬市元町2-27-12","lat":35.777687,"lon":139.517376},{"name":"市立第３保育園","province":"東京都","city":"清瀬市","address":"東京都清瀬市旭が丘3-755-1","lat":35.7979192,"lon":139.5391642},{"name":"清瀬梅園給水所","province":"東京都","city":"清瀬市","address":"東京都清瀬市梅園1-3","lat":35.770799,"lon":139.5079632},{"name":"（株）千代田","province":"東京都","city":"清瀬市","address":"清瀬市松山2-13-10","lat":35.77322,"lon":139.5138},{"name":"清瀬元町配水所","province":"東京都","city":"清瀬市","address":"東京都清瀬市元町2-27-12","lat":35.777687,"lon":139.517376},{"name":"市立第３保育園","province":"東京都","city":"清瀬市","address":"東京都清瀬市旭が丘3-755-1","lat":35.7979192,"lon":139.5391642},{"name":"清瀬梅園給水所","province":"東京都","city":"清瀬市","address":"東京都清瀬市梅園1-3","lat":35.770799,"lon":139.5079632},{"name":"（株）千代田","province":"東京都","city":"清瀬市","address":"清瀬市松山2-13-10","lat":35.77322,"lon":139.5138},{"name":"清瀬元町配水所","province":"東京都","city":"清瀬市","address":"東京都清瀬市元町2-27-12","lat":35.777687,"lon":139.517376},{"name":"市立第３保育園","province":"東京都","city":"清瀬市","address":"東京都清瀬市旭が丘3-755-1","lat":35.7979192,"lon":139.5391642},{"name":"清瀬梅園給水所","province":"東京都","city":"清瀬市","address":"東京都清瀬市梅園1-3","lat":35.770799,"lon":139.5079632},{"name":"（株）千代田","province":"東京都","city":"清瀬市","address":"清瀬市松山2-13-10","lat":35.77322,"lon":139.5138},{"name":"清瀬元町配水所","province":"東京都","city":"清瀬市","address":"東京都清瀬市元町2-27-12","lat":35.777687,"lon":139.517376},{"name":"市立第３保育園","province":"東京都","city":"清瀬市","address":"東京都清瀬市旭が丘3-755-1","lat":35.7979192,"lon":139.5391642},{"name":"清瀬梅園給水所","province":"東京都","city":"清瀬市","address":"東京都清瀬市梅園1-3","lat":35.770799,"lon":139.5079632},{"name":"（株）千代田","province":"東京都","city":"清瀬市","address":"清瀬市松山2-13-10","lat":35.77322,"lon":139.5138},{"name":"清瀬元町配水所","province":"東京都","city":"清瀬市","address":"東京都清瀬市元町2-27-12","lat":35.777687,"lon":139.517376},{"name":"市立第３保育園","province":"東京都","city":"清瀬市","address":"東京都清瀬市旭が丘3-755-1","lat":35.7979192,"lon":139.5391642},{"name":"清瀬梅園給水所","province":"東京都","city":"清瀬市","address":"東京都清瀬市梅園1-3","lat":35.770799,"lon":139.5079632},{"name":"（株）千代田","province":"東京都","city":"清瀬市","address":"清瀬市松山2-13-10","lat":35.77322,"lon":139.5138},{"name":"清瀬元町配水所","province":"東京都","city":"清瀬市","address":"東京都清瀬市元町2-27-12","lat":35.777687,"lon":139.517376},{"name":"市立第３保育園","province":"東京都","city":"清瀬市","address":"東京都清瀬市旭が丘3-755-1","lat":35.7979192,"lon":139.5391642},{"name":"清瀬梅園給水所","province":"東京都","city":"清瀬市","address":"東京都清瀬市梅園1-3","lat":35.770799,"lon":139.5079632},{"name":"（株）千代田","province":"東京都","city":"清瀬市","address":"清瀬市松山2-13-10","lat":35.77322,"lon":139.5138},{"name":"清瀬元町配水所","province":"東京都","city":"清瀬市","address":"東京都清瀬市元町2-27-12","lat":35.777687,"lon":139.517376},{"name":"市立第３保育園","province":"東京都","city":"清瀬市","address":"東京都清瀬市旭が丘3-755-1","lat":35.7979192,"lon":139.5391642},{"name":"清瀬梅園給水所","province":"東京都","city":"清瀬市","address":"東京都清瀬市梅園1-3","lat":35.770799,"lon":139.5079632},{"name":"（株）千代田","province":"東京都","city":"清瀬市","address":"清瀬市松山2-13-10","lat":35.77322,"lon":139.5138},{"name":"清瀬元町配水所","province":"東京都","city":"清瀬市","address":"東京都清瀬市元町2-27-12","lat":35.777687,"lon":139.517376},{"name":"市立第３保育園","province":"東京都","city":"清瀬市","address":"東京都清瀬市旭が丘3-755-1","lat":35.7979192,"lon":139.5391642},{"name":"清瀬梅園給水所","province":"東京都","city":"清瀬市","address":"東京都清瀬市梅園1-3","lat":35.770799,"lon":139.5079632},{"name":"（株）千代田","province":"東京都","city":"清瀬市","address":"清瀬市松山2-13-10","lat":35.77322,"lon":139.5138},{"name":"清瀬元町配水所","province":"東京都","city":"清瀬市","address":"東京都清瀬市元町2-27-12","lat":35.777687,"lon":139.517376},{"name":"市立第３保育園","province":"東京都","city":"清瀬市","address":"東京都清瀬市旭が丘3-755-1","lat":35.7979192,"lon":139.5391642},{"name":"清瀬梅園給水所","province":"東京都","city":"清瀬市","address":"東京都清瀬市梅園1-3","lat":35.770799,"lon":139.5079632},{"name":"（株）千代田","province":"東京都","city":"清瀬市","address":"清瀬市松山2-13-10","lat":35.77322,"lon":139.5138},{"name":"清瀬元町配水所","province":"東京都","city":"清瀬市","address":"東京都清瀬市元町2-27-12","lat":35.777687,"lon":139.517376},{"name":"市立第３保育園","province":"東京都","city":"清瀬市","address":"東京都清瀬市旭が丘3-755-1","lat":35.7979192,"lon":139.5391642},{"name":"清瀬梅園給水所","province":"東京都","city":"清瀬市","address":"東京都清瀬市梅園1-3","lat":35.770799,"lon":139.5079632},{"name":"（株）千代田","province":"東京都","city":"清瀬市","address":"清瀬市松山2-13-10","lat":35.77322,"lon":139.5138},{"name":"清瀬元町配水所","province":"東京都","city":"清瀬市","address":"東京都清瀬市元町2-27-12","lat":35.777687,"lon":139.517376},{"name":"市立第３保育園","province":"東京都","city":"清瀬市","address":"東京都清瀬市旭が丘3-755-1","lat":35.7979192,"lon":139.5391642},{"name":"清瀬梅園給水所","province":"東京都","city":"清瀬市","address":"東京都清瀬市梅園1-3","lat":35.770799,"lon":139.5079632},{"name":"（株）千代田","province":"東京都","city":"清瀬市","address":"清瀬市松山2-13-10","lat":35.77322,"lon":139.5138},{"name":"清瀬元町配水所","province":"東京都","city":"清瀬市","address":"東京都清瀬市元町2-27-12","lat":35.777687,"lon":139.517376},{"name":"市立第３保育園","province":"東京都","city":"清瀬市","address":"東京都清瀬市旭が丘3-755-1","lat":35.7979192,"lon":139.5391642},{"name":"清瀬梅園給水所","province":"東京都","city":"清瀬市","address":"東京都清瀬市梅園1-3","lat":35.770799,"lon":139.5079632},{"name":"（株）千代田","province":"東京都","city":"清瀬市","address":"清瀬市松山2-13-10","lat":35.77322,"lon":139.5138},{"name":"清瀬元町配水所","province":"東京都","city":"清瀬市","address":"東京都清瀬市元町2-27-12","lat":35.777687,"lon":139.517376},{"name":"市立第３保育園","province":"東京都","city":"清瀬市","address":"東京都清瀬市旭が丘3-755-1","lat":35.7979192,"lon":139.5391642},{"name":"清瀬梅園給水所","province":"東京都","city":"清瀬市","address":"東京都清瀬市梅園1-3","lat":35.770799,"lon":139.5079632},{"name":"（株）千代田","province":"東京都","city":"清瀬市","address":"清瀬市松山2-13-10","lat":35.77322,"lon":139.5138},{"name":"清瀬元町配水所","province":"東京都","city":"清瀬市","address":"東京都清瀬市元町2-27-12","lat":35.777687,"lon":139.517376},{"name":"市立第３保育園","province":"東京都","city":"清瀬市","address":"東京都清瀬市旭が丘3-755-1","lat":35.7979192,"lon":139.5391642},{"name":"清瀬梅園給水所","province":"東京都","city":"清瀬市","address":"東京都清瀬市梅園1-3","lat":35.770799,"lon":139.5079632},{"name":"清瀬元町配水所","province":"東京都","city":"清瀬市","address":"東京都清瀬市元町2-27-12","lat":35.777687,"lon":139.517376},{"name":"市立第３保育園","province":"東京都","city":"清瀬市","address":"東京都清瀬市旭が丘3-755-1","lat":35.7979192,"lon":139.5391642},{"name":"清瀬梅園給水所","province":"東京都","city":"清瀬市","address":"東京都清瀬市梅園1-3","lat":35.770799,"lon":139.5079632},{"name":"清瀬元町配水所","province":"東京都","city":"清瀬市","address":"東京都清瀬市元町2-27-12","lat":35.777687,"lon":139.517376},{"name":"市立第３保育園","province":"東京都","city":"清瀬市","address":"東京都清瀬市旭が丘3-755-1","lat":35.7979192,"lon":139.5391642},{"name":"清瀬梅園給水所","province":"東京都","city":"清瀬市","address":"東京都清瀬市梅園1-3","lat":35.770799,"lon":139.5079632},{"name":"清瀬元町配水所","province":"東京都","city":"清瀬市","address":"東京都清瀬市元町2-27-12","lat":35.777687,"lon":139.517376},{"name":"市立第３保育園","province":"東京都","city":"清瀬市","address":"東京都清瀬市旭が丘3-755-1","lat":35.7979192,"lon":139.5391642},{"name":"清瀬梅園給水所","province":"東京都","city":"清瀬市","address":"東京都清瀬市梅園1-3","lat":35.770799,"lon":139.5079632},{"name":"清瀬元町配水所","province":"東京都","city":"清瀬市","address":"東京都清瀬市元町2-27-12","lat":35.777687,"lon":139.517376},{"name":"市立第３保育園","province":"東京都","city":"清瀬市","address":"東京都清瀬市旭が丘3-755-1","lat":35.7979192,"lon":139.5391642},{"name":"清瀬梅園給水所","province":"東京都","city":"清瀬市","address":"東京都清瀬市梅園1-3","lat":35.770799,"lon":139.5079632},{"name":"清瀬元町配水所","province":"東京都","city":"清瀬市","address":"東京都清瀬市元町2-27-12","lat":35.777687,"lon":139.517376},{"name":"市立第３保育園","province":"東京都","city":"清瀬市","address":"東京都清瀬市旭が丘3-755-1","lat":35.7979192,"lon":139.5391642},{"name":"清瀬梅園給水所","province":"東京都","city":"清瀬市","address":"東京都清瀬市梅園1-3","lat":35.770799,"lon":139.5079632},{"name":"清瀬元町配水所","province":"東京都","city":"清瀬市","address":"東京都清瀬市元町2-27-12","lat":35.777687,"lon":139.517376},{"name":"市立第３保育園","province":"東京都","city":"清瀬市","address":"東京都清瀬市旭が丘3-755-1","lat":35.7979192,"lon":139.5391642},{"name":"清瀬梅園給水所","province":"東京都","city":"清瀬市","address":"東京都清瀬市梅園1-3","lat":35.770799,"lon":139.5079632},{"name":"清瀬元町配水所","province":"東京都","city":"清瀬市","address":"東京都清瀬市元町2-27-12","lat":35.777687,"lon":139.517376},{"name":"市立第３保育園","province":"東京都","city":"清瀬市","address":"東京都清瀬市旭が丘3-755-1","lat":35.7979192,"lon":139.5391642},{"name":"清瀬梅園給水所","province":"東京都","city":"清瀬市","address":"東京都清瀬市梅園1-3","lat":35.770799,"lon":139.5079632},{"name":"清瀬元町配水所","province":"東京都","city":"清瀬市","address":"東京都清瀬市元町2-27-12","lat":35.777687,"lon":139.517376},{"name":"市立第３保育園","province":"東京都","city":"清瀬市","address":"東京都清瀬市旭が丘3-755-1","lat":35.7979192,"lon":139.5391642},{"name":"清瀬梅園給水所","province":"東京都","city":"清瀬市","address":"東京都清瀬市梅園1-3","lat":35.770799,"lon":139.5079632},{"name":"清瀬元町配水所","province":"東京都","city":"清瀬市","address":"東京都清瀬市元町2-27-12","lat":35.777687,"lon":139.517376},{"name":"市立第３保育園","province":"東京都","city":"清瀬市","address":"東京都清瀬市旭が丘3-755-1","lat":35.7979192,"lon":139.5391642},{"name":"清瀬梅園給水所","province":"東京都","city":"清瀬市","address":"東京都清瀬市梅園1-3","lat":35.770799,"lon":139.5079632},{"name":"清瀬元町配水所","province":"東京都","city":"清瀬市","address":"東京都清瀬市元町2-27-12","lat":35.777687,"lon":139.517376},{"name":"市立第３保育園","province":"東京都","city":"清瀬市","address":"東京都清瀬市旭が丘3-755-1","lat":35.7979192,"lon":139.5391642},{"name":"清瀬梅園給水所","province":"東京都","city":"清瀬市","address":"東京都清瀬市梅園1-3","lat":35.770799,"lon":139.5079632},{"name":"清瀬元町配水所","province":"東京都","city":"清瀬市","address":"東京都清瀬市元町2-27-12","lat":35.777687,"lon":139.517376},{"name":"市立第３保育園","province":"東京都","city":"清瀬市","address":"東京都清瀬市旭が丘3-755-1","lat":35.7979192,"lon":139.5391642},{"name":"清瀬梅園給水所","province":"東京都","city":"清瀬市","address":"東京都清瀬市梅園1-3","lat":35.770799,"lon":139.5079632},{"name":"清瀬元町配水所","province":"東京都","city":"清瀬市","address":"東京都清瀬市元町2-27-12","lat":35.777687,"lon":139.517376},{"name":"市立第３保育園","province":"東京都","city":"清瀬市","address":"東京都清瀬市旭が丘3-755-1","lat":35.7979192,"lon":139.5391642},{"name":"清瀬梅園給水所","province":"東京都","city":"清瀬市","address":"東京都清瀬市梅園1-3","lat":35.770799,"lon":139.5079632}]}