{"keyword":"命令","data":[{"name":"清瀬市立梅園第1第2第3学童クラブ","province":"東京都","city":"清瀬市","address":"東京都清瀬市梅園2-9-38","lat":35.771999,"lon":139.505174},{"name":"清瀬市立清明小第1第2学童クラブ","province":"東京都","city":"清瀬市","address":"東京都清瀬市旭が丘2-8-1","lat":35.796885,"lon":139.539993},{"name":"清瀬市立四小学童クラブ","province":"東京都","city":"清瀬市","address":"東京都清瀬市中里2-1471","lat":35.783236,"lon":139.510435},{"name":"清瀬市立八小第1第2学童クラブ","province":"東京都","city":"清瀬市","address":"東京都清瀬市中清戸4-1070","lat":35.787303,"lon":139.530847},{"name":"清瀬市立竹丘第1第２学童クラブ","province":"東京都","city":"清瀬市","address":"東京都清瀬市竹丘1-15-11","lat":35.767616,"lon":139.511404},{"name":"清瀬市立芝山小第1第2学童クラブ","province":"東京都","city":"清瀬市","address":"東京都清瀬市元町2-16-8","lat":35.775359,"lon":139.511204},{"name":"清瀬市立清瀬小第1学童クラブ","province":"東京都","city":"清瀬市","address":"東京都清瀬市中里5-741","lat":35.785211,"lon":139.525606},{"name":"清瀬市立三小第1第2学童クラブ","province":"東京都","city":"清瀬市","address":"東京都清瀬市竹丘1-15-4","lat":35.768568,"lon":139.509927},{"name":"清瀬市立中清戸第1第2学童クラブ","province":"東京都","city":"清瀬市","address":"東京都清瀬市中清戸1-556-1","lat":35.775051,"lon":139.528458},{"name":"清瀬市立清瀬小第2学童クラブ","province":"東京都","city":"清瀬市","address":"東京都清瀬市中里5-624","lat":35.78533,"lon":139.52593},{"name":"清瀬市立第３保育園","province":"東京都","city":"清瀬市","address":"清瀬市旭が丘3-755-1","lat":35.79724,"lon":139.53879},{"name":"せせらぎ保育園","province":"東京都","city":"清瀬市","address":"清瀬市中里1-1704","lat":35.77921,"lon":139.51283},{"name":"すみれ保育園","province":"東京都","city":"清瀬市","address":"清瀬市中里3-1731-8","lat":35.77955,"lon":139.51706},{"name":"中里どろんこ保育園","province":"東京都","city":"清瀬市","address":"清瀬市中里6-23-1","lat":35.79083,"lon":139.52707},{"name":"のしお一丁目保育園","province":"東京都","city":"清瀬市","address":"清瀬市野塩1-322-1","lat":35.77913,"lon":139.49931},{"name":"のしお保育園","province":"東京都","city":"清瀬市","address":"清瀬市野塩5-249","lat":35.77622,"lon":139.49803},{"name":"中清戸保育園","province":"東京都","city":"清瀬市","address":"清瀬市下清戸1-21-3","lat":35.77878,"lon":139.53598},{"name":"きよせ保育園","province":"東京都","city":"清瀬市","address":"清瀬市上清戸2-5-40","lat":35.77921,"lon":139.51973},{"name":"清瀬駅前保育園","province":"東京都","city":"清瀬市","address":"清瀬市元町1-9-15","lat":35.77323,"lon":139.51839},{"name":"メリーポピンズ清瀬ルーム","province":"東京都","city":"清瀬市","address":"清瀬市松山1-40-2","lat":35.76819,"lon":139.51726},{"name":"メリーポピンズ松山ルーム","province":"東京都","city":"清瀬市","address":"清瀬市松山1-40-24","lat":35.76819,"lon":139.51726},{"name":"清瀬どろんこ保育園","province":"東京都","city":"清瀬市","address":"清瀬市松山3-1-24","lat":35.77222,"lon":139.51265},{"name":"清瀬市立第１保育園","province":"東京都","city":"清瀬市","address":"清瀬市松山3-1-73","lat":35.77222,"lon":139.51265},{"name":"清瀬市立第７保育園","province":"東京都","city":"清瀬市","address":"清瀬市竹丘1-15-11","lat":35.76803,"lon":139.51082},{"name":"清瀬上宮保育園","province":"東京都","city":"清瀬市","address":"清瀬市竹丘3-8-1","lat":35.76622,"lon":139.50188},{"name":"清瀬駅前乳児保育園","province":"東京都","city":"清瀬市","address":"清瀬市元町1-4-17","lat":35.77325,"lon":139.52049},{"name":"中里どろんこ保育園","province":"東京都","city":"清瀬市","address":"清瀬市中里6-23-1","lat":35.790082,"lon":139.527966},{"name":"駅前乳児保育園","province":"東京都","city":"清瀬市","address":"清瀬市元町1-4-17","lat":35.77325,"lon":139.52049},{"name":"清瀬市立乳児保育園","province":"東京都","city":"清瀬市","address":"清瀬市梅園2-9-38","lat":35.77246,"lon":139.50479},{"name":"清瀬市健康センター","province":"東京都","city":"清瀬市","address":"東京都清瀬市中里5丁目842","lat":35.78608019,"lon":139.52608035},{"name":"清瀬市本庁舎","province":"東京都","city":"清瀬市","address":"東京都清瀬市中里5丁目842","lat":35.78608019,"lon":139.52608035},{"name":"清瀬市本庁舎","province":"東京都","city":"清瀬市","address":"清瀬市中里5-842","lat":35.786053,"lon":139.526353},{"name":"清瀬消防署","province":"東京都","city":"清瀬市","address":"清瀬市中清戸2-850-1","lat":35.78419,"lon":139.5276},{"name":"（株）千代田","province":"東京都","city":"清瀬市","address":"清瀬市松山2-13-10","lat":35.77322,"lon":139.5138},{"name":"東京都共済組合清瀬運動場","province":"東京都","city":"清瀬市","address":"清瀬市竹丘3-10-5","lat":35.7646,"lon":139.5013},{"name":"※清瀬市本庁舎","province":"東京都","city":"清瀬市","address":"東京都清瀬市中里5丁目842","lat":35.78608019,"lon":139.52608035},{"name":"清瀬市立梅園第1第2第3学童クラブ","province":"東京都","city":"清瀬市","address":"東京都清瀬市梅園2-9-38","lat":35.771999,"lon":139.505174},{"name":"清瀬市立清明小第1第2学童クラブ","province":"東京都","city":"清瀬市","address":"東京都清瀬市旭が丘2-8-1","lat":35.796885,"lon":139.539993},{"name":"清瀬市立四小学童クラブ","province":"東京都","city":"清瀬市","address":"東京都清瀬市中里2-1471","lat":35.783236,"lon":139.510435},{"name":"清瀬市立八小第1第2学童クラブ","province":"東京都","city":"清瀬市","address":"東京都清瀬市中清戸4-1070","lat":35.787303,"lon":139.530847},{"name":"清瀬市立竹丘第1第２学童クラブ","province":"東京都","city":"清瀬市","address":"東京都清瀬市竹丘1-15-11","lat":35.767616,"lon":139.511404},{"name":"清瀬市立芝山小第1第2学童クラブ","province":"東京都","city":"清瀬市","address":"東京都清瀬市元町2-16-8","lat":35.775359,"lon":139.511204},{"name":"清瀬市立清瀬小第1学童クラブ","province":"東京都","city":"清瀬市","address":"東京都清瀬市中里5-741","lat":35.785211,"lon":139.525606},{"name":"清瀬市立三小第1第2学童クラブ","province":"東京都","city":"清瀬市","address":"東京都清瀬市竹丘1-15-4","lat":35.768568,"lon":139.509927},{"name":"清瀬市立中清戸第1第2学童クラブ","province":"東京都","city":"清瀬市","address":"東京都清瀬市中清戸1-556-1","lat":35.775051,"lon":139.528458},{"name":"清瀬市立清瀬小第2学童クラブ","province":"東京都","city":"清瀬市","address":"東京都清瀬市中里5-624","lat":35.78533,"lon":139.52593},{"name":"清瀬市立第３保育園","province":"東京都","city":"清瀬市","address":"清瀬市旭が丘3-755-1","lat":35.79724,"lon":139.53879},{"name":"せせらぎ保育園","province":"東京都","city":"清瀬市","address":"清瀬市中里1-1704","lat":35.77921,"lon":139.51283},{"name":"すみれ保育園","province":"東京都","city":"清瀬市","address":"清瀬市中里3-1731-8","lat":35.77955,"lon":139.51706},{"name":"中里どろんこ保育園","province":"東京都","city":"清瀬市","address":"清瀬市中里6-23-1","lat":35.79083,"lon":139.52707},{"name":"のしお一丁目保育園","province":"東京都","city":"清瀬市","address":"清瀬市野塩1-322-1","lat":35.77913,"lon":139.49931},{"name":"のしお保育園","province":"東京都","city":"清瀬市","address":"清瀬市野塩5-249","lat":35.77622,"lon":139.49803},{"name":"中清戸保育園","province":"東京都","city":"清瀬市","address":"清瀬市下清戸1-21-3","lat":35.77878,"lon":139.53598},{"name":"きよせ保育園","province":"東京都","city":"清瀬市","address":"清瀬市上清戸2-5-40","lat":35.77921,"lon":139.51973},{"name":"清瀬駅前保育園","province":"東京都","city":"清瀬市","address":"清瀬市元町1-9-15","lat":35.77323,"lon":139.51839},{"name":"メリーポピンズ清瀬ルーム","province":"東京都","city":"清瀬市","address":"清瀬市松山1-40-2","lat":35.76819,"lon":139.51726},{"name":"メリーポピンズ松山ルーム","province":"東京都","city":"清瀬市","address":"清瀬市松山1-40-24","lat":35.76819,"lon":139.51726},{"name":"清瀬どろんこ保育園","province":"東京都","city":"清瀬市","address":"清瀬市松山3-1-24","lat":35.77222,"lon":139.51265},{"name":"清瀬市立第１保育園","province":"東京都","city":"清瀬市","address":"清瀬市松山3-1-73","lat":35.77222,"lon":139.51265},{"name":"清瀬市立第７保育園","province":"東京都","city":"清瀬市","address":"清瀬市竹丘1-15-11","lat":35.76803,"lon":139.51082},{"name":"清瀬上宮保育園","province":"東京都","city":"清瀬市","address":"清瀬市竹丘3-8-1","lat":35.76622,"lon":139.50188},{"name":"清瀬駅前乳児保育園","province":"東京都","city":"清瀬市","address":"清瀬市元町1-4-17","lat":35.77325,"lon":139.52049},{"name":"中里どろんこ保育園","province":"東京都","city":"清瀬市","address":"清瀬市中里6-23-1","lat":35.790082,"lon":139.527966},{"name":"駅前乳児保育園","province":"東京都","city":"清瀬市","address":"清瀬市元町1-4-17","lat":35.77325,"lon":139.52049},{"name":"清瀬市立乳児保育園","province":"東京都","city":"清瀬市","address":"清瀬市梅園2-9-38","lat":35.77246,"lon":139.50479},{"name":"清瀬市健康センター","province":"東京都","city":"清瀬市","address":"東京都清瀬市中里5丁目842","lat":35.78608019,"lon":139.52608035},{"name":"清瀬市本庁舎","province":"東京都","city":"清瀬市","address":"東京都清瀬市中里5丁目842","lat":35.78608019,"lon":139.52608035},{"name":"清瀬市本庁舎","province":"東京都","city":"清瀬市","address":"清瀬市中里5-842","lat":35.786053,"lon":139.526353},{"name":"清瀬消防署","province":"東京都","city":"清瀬市","address":"清瀬市中清戸2-850-1","lat":35.78419,"lon":139.5276},{"name":"（株）千代田","province":"東京都","city":"清瀬市","address":"清瀬市松山2-13-10","lat":35.77322,"lon":139.5138},{"name":"東京都共済組合清瀬運動場","province":"東京都","city":"清瀬市","address":"清瀬市竹丘3-10-5","lat":35.7646,"lon":139.5013},{"name":"※清瀬市本庁舎","province":"東京都","city":"清瀬市","address":"東京都清瀬市中里5丁目842","lat":35.78608019,"lon":139.52608035},{"name":"清瀬市立梅園第1第2第3学童クラブ","province":"東京都","city":"清瀬市","address":"東京都清瀬市梅園2-9-38","lat":35.771999,"lon":139.505174},{"name":"清瀬市立清明小第1第2学童クラブ","province":"東京都","city":"清瀬市","address":"東京都清瀬市旭が丘2-8-1","lat":35.796885,"lon":139.539993},{"name":"清瀬市立四小学童クラブ","province":"東京都","city":"清瀬市","address":"東京都清瀬市中里2-1471","lat":35.783236,"lon":139.510435},{"name":"清瀬市立八小第1第2学童クラブ","province":"東京都","city":"清瀬市","address":"東京都清瀬市中清戸4-1070","lat":35.787303,"lon":139.530847},{"name":"清瀬市立竹丘第1第２学童クラブ","province":"東京都","city":"清瀬市","address":"東京都清瀬市竹丘1-15-11","lat":35.767616,"lon":139.511404},{"name":"清瀬市立芝山小第1第2学童クラブ","province":"東京都","city":"清瀬市","address":"東京都清瀬市元町2-16-8","lat":35.775359,"lon":139.511204},{"name":"清瀬市立清瀬小第1学童クラブ","province":"東京都","city":"清瀬市","address":"東京都清瀬市中里5-741","lat":35.785211,"lon":139.525606},{"name":"清瀬市立三小第1第2学童クラブ","province":"東京都","city":"清瀬市","address":"東京都清瀬市竹丘1-15-4","lat":35.768568,"lon":139.509927},{"name":"清瀬市立中清戸第1第2学童クラブ","province":"東京都","city":"清瀬市","address":"東京都清瀬市中清戸1-556-1","lat":35.775051,"lon":139.528458},{"name":"清瀬市立清瀬小第2学童クラブ","province":"東京都","city":"清瀬市","address":"東京都清瀬市中里5-624","lat":35.78533,"lon":139.52593},{"name":"清瀬市立第３保育園","province":"東京都","city":"清瀬市","address":"清瀬市旭が丘3-755-1","lat":35.79724,"lon":139.53879},{"name":"せせらぎ保育園","province":"東京都","city":"清瀬市","address":"清瀬市中里1-1704","lat":35.77921,"lon":139.51283},{"name":"すみれ保育園","province":"東京都","city":"清瀬市","address":"清瀬市中里3-1731-8","lat":35.77955,"lon":139.51706},{"name":"中里どろんこ保育園","province":"東京都","city":"清瀬市","address":"清瀬市中里6-23-1","lat":35.79083,"lon":139.52707},{"name":"のしお一丁目保育園","province":"東京都","city":"清瀬市","address":"清瀬市野塩1-322-1","lat":35.77913,"lon":139.49931},{"name":"のしお保育園","province":"東京都","city":"清瀬市","address":"清瀬市野塩5-249","lat":35.77622,"lon":139.49803},{"name":"中清戸保育園","province":"東京都","city":"清瀬市","address":"清瀬市下清戸1-21-3","lat":35.77878,"lon":139.53598},{"name":"きよせ保育園","province":"東京都","city":"清瀬市","address":"清瀬市上清戸2-5-40","lat":35.77921,"lon":139.51973},{"name":"清瀬駅前保育園","province":"東京都","city":"清瀬市","address":"清瀬市元町1-9-15","lat":35.77323,"lon":139.51839},{"name":"メリーポピンズ清瀬ルーム","province":"東京都","city":"清瀬市","address":"清瀬市松山1-40-2","lat":35.76819,"lon":139.51726},{"name":"メリーポピンズ松山ルーム","province":"東京都","city":"清瀬市","address":"清瀬市松山1-40-24","lat":35.76819,"lon":139.51726},{"name":"清瀬どろんこ保育園","province":"東京都","city":"清瀬市","address":"清瀬市松山3-1-24","lat":35.77222,"lon":139.51265},{"name":"清瀬市立第１保育園","province":"東京都","city":"清瀬市","address":"清瀬市松山3-1-73","lat":35.77222,"lon":139.51265},{"name":"清瀬市立第７保育園","province":"東京都","city":"清瀬市","address":"清瀬市竹丘1-15-11","lat":35.76803,"lon":139.51082},{"name":"清瀬上宮保育園","province":"東京都","city":"清瀬市","address":"清瀬市竹丘3-8-1","lat":35.76622,"lon":139.50188},{"name":"清瀬駅前乳児保育園","province":"東京都","city":"清瀬市","address":"清瀬市元町1-4-17","lat":35.77325,"lon":139.52049},{"name":"中里どろんこ保育園","province":"東京都","city":"清瀬市","address":"清瀬市中里6-23-1","lat":35.790082,"lon":139.527966},{"name":"駅前乳児保育園","province":"東京都","city":"清瀬市","address":"清瀬市元町1-4-17","lat":35.77325,"lon":139.52049},{"name":"清瀬市立乳児保育園","province":"東京都","city":"清瀬市","address":"清瀬市梅園2-9-38","lat":35.77246,"lon":139.50479},{"name":"清瀬市立梅園第1第2第3学童クラブ","province":"東京都","city":"清瀬市","address":"東京都清瀬市梅園2-9-38","lat":35.771999,"lon":139.505174},{"name":"清瀬市立清明小第1第2学童クラブ","province":"東京都","city":"清瀬市","address":"東京都清瀬市旭が丘2-8-1","lat":35.796885,"lon":139.539993},{"name":"清瀬市立四小学童クラブ","province":"東京都","city":"清瀬市","address":"東京都清瀬市中里2-1471","lat":35.783236,"lon":139.510435},{"name":"清瀬市立八小第1第2学童クラブ","province":"東京都","city":"清瀬市","address":"東京都清瀬市中清戸4-1070","lat":35.787303,"lon":139.530847},{"name":"清瀬市立竹丘第1第２学童クラブ","province":"東京都","city":"清瀬市","address":"東京都清瀬市竹丘1-15-11","lat":35.767616,"lon":139.511404},{"name":"清瀬市立芝山小第1第2学童クラブ","province":"東京都","city":"清瀬市","address":"東京都清瀬市元町2-16-8","lat":35.775359,"lon":139.511204},{"name":"清瀬市立清瀬小第1学童クラブ","province":"東京都","city":"清瀬市","address":"東京都清瀬市中里5-741","lat":35.785211,"lon":139.525606},{"name":"清瀬市立三小第1第2学童クラブ","province":"東京都","city":"清瀬市","address":"東京都清瀬市竹丘1-15-4","lat":35.768568,"lon":139.509927},{"name":"清瀬市立中清戸第1第2学童クラブ","province":"東京都","city":"清瀬市","address":"東京都清瀬市中清戸1-556-1","lat":35.775051,"lon":139.528458},{"name":"清瀬市立清瀬小第2学童クラブ","province":"東京都","city":"清瀬市","address":"東京都清瀬市中里5-624","lat":35.78533,"lon":139.52593},{"name":"清瀬市立第３保育園","province":"東京都","city":"清瀬市","address":"清瀬市旭が丘3-755-1","lat":35.79724,"lon":139.53879},{"name":"せせらぎ保育園","province":"東京都","city":"清瀬市","address":"清瀬市中里1-1704","lat":35.77921,"lon":139.51283},{"name":"すみれ保育園","province":"東京都","city":"清瀬市","address":"清瀬市中里3-1731-8","lat":35.77955,"lon":139.51706},{"name":"中里どろんこ保育園","province":"東京都","city":"清瀬市","address":"清瀬市中里6-23-1","lat":35.79083,"lon":139.52707},{"name":"のしお一丁目保育園","province":"東京都","city":"清瀬市","address":"清瀬市野塩1-322-1","lat":35.77913,"lon":139.49931},{"name":"のしお保育園","province":"東京都","city":"清瀬市","address":"清瀬市野塩5-249","lat":35.77622,"lon":139.49803},{"name":"中清戸保育園","province":"東京都","city":"清瀬市","address":"清瀬市下清戸1-21-3","lat":35.77878,"lon":139.53598},{"name":"きよせ保育園","province":"東京都","city":"清瀬市","address":"清瀬市上清戸2-5-40","lat":35.77921,"lon":139.51973},{"name":"清瀬駅前保育園","province":"東京都","city":"清瀬市","address":"清瀬市元町1-9-15","lat":35.77323,"lon":139.51839},{"name":"メリーポピンズ清瀬ルーム","province":"東京都","city":"清瀬市","address":"清瀬市松山1-40-2","lat":35.76819,"lon":139.51726},{"name":"メリーポピンズ松山ルーム","province":"東京都","city":"清瀬市","address":"清瀬市松山1-40-24","lat":35.76819,"lon":139.51726},{"name":"清瀬どろんこ保育園","province":"東京都","city":"清瀬市","address":"清瀬市松山3-1-24","lat":35.77222,"lon":139.51265},{"name":"清瀬市立第１保育園","province":"東京都","city":"清瀬市","address":"清瀬市松山3-1-73","lat":35.77222,"lon":139.51265},{"name":"清瀬市立第７保育園","province":"東京都","city":"清瀬市","address":"清瀬市竹丘1-15-11","lat":35.76803,"lon":139.51082},{"name":"清瀬上宮保育園","province":"東京都","city":"清瀬市","address":"清瀬市竹丘3-8-1","lat":35.76622,"lon":139.50188},{"name":"清瀬駅前乳児保育園","province":"東京都","city":"清瀬市","address":"清瀬市元町1-4-17","lat":35.77325,"lon":139.52049},{"name":"中里どろんこ保育園","province":"東京都","city":"清瀬市","address":"清瀬市中里6-23-1","lat":35.790082,"lon":139.527966},{"name":"駅前乳児保育園","province":"東京都","city":"清瀬市","address":"清瀬市元町1-4-17","lat":35.77325,"lon":139.52049},{"name":"清瀬市立乳児保育園","province":"東京都","city":"清瀬市","address":"清瀬市梅園2-9-38","lat":35.77246,"lon":139.50479},{"name":"清瀬市立梅園第1第2第3学童クラブ","province":"東京都","city":"清瀬市","address":"東京都清瀬市梅園2-9-38","lat":35.771999,"lon":139.505174},{"name":"清瀬市立清明小第1第2学童クラブ","province":"東京都","city":"清瀬市","address":"東京都清瀬市旭が丘2-8-1","lat":35.796885,"lon":139.539993},{"name":"清瀬市立四小学童クラブ","province":"東京都","city":"清瀬市","address":"東京都清瀬市中里2-1471","lat":35.783236,"lon":139.510435},{"name":"清瀬市立八小第1第2学童クラブ","province":"東京都","city":"清瀬市","address":"東京都清瀬市中清戸4-1070","lat":35.787303,"lon":139.530847},{"name":"清瀬市立竹丘第1第２学童クラブ","province":"東京都","city":"清瀬市","address":"東京都清瀬市竹丘1-15-11","lat":35.767616,"lon":139.511404},{"name":"清瀬市立芝山小第1第2学童クラブ","province":"東京都","city":"清瀬市","address":"東京都清瀬市元町2-16-8","lat":35.775359,"lon":139.511204},{"name":"清瀬市立清瀬小第1学童クラブ","province":"東京都","city":"清瀬市","address":"東京都清瀬市中里5-741","lat":35.785211,"lon":139.525606},{"name":"清瀬市立三小第1第2学童クラブ","province":"東京都","city":"清瀬市","address":"東京都清瀬市竹丘1-15-4","lat":35.768568,"lon":139.509927},{"name":"清瀬市立中清戸第1第2学童クラブ","province":"東京都","city":"清瀬市","address":"東京都清瀬市中清戸1-556-1","lat":35.775051,"lon":139.528458},{"name":"清瀬市立清瀬小第2学童クラブ","province":"東京都","city":"清瀬市","address":"東京都清瀬市中里5-624","lat":35.78533,"lon":139.52593},{"name":"清瀬市立第３保育園","province":"東京都","city":"清瀬市","address":"清瀬市旭が丘3-755-1","lat":35.79724,"lon":139.53879},{"name":"せせらぎ保育園","province":"東京都","city":"清瀬市","address":"清瀬市中里1-1704","lat":35.77921,"lon":139.51283},{"name":"すみれ保育園","province":"東京都","city":"清瀬市","address":"清瀬市中里3-1731-8","lat":35.77955,"lon":139.51706},{"name":"中里どろんこ保育園","province":"東京都","city":"清瀬市","address":"清瀬市中里6-23-1","lat":35.79083,"lon":139.52707},{"name":"のしお一丁目保育園","province":"東京都","city":"清瀬市","address":"清瀬市野塩1-322-1","lat":35.77913,"lon":139.49931},{"name":"のしお保育園","province":"東京都","city":"清瀬市","address":"清瀬市野塩5-249","lat":35.77622,"lon":139.49803},{"name":"中清戸保育園","province":"東京都","city":"清瀬市","address":"清瀬市下清戸1-21-3","lat":35.77878,"lon":139.53598},{"name":"きよせ保育園","province":"東京都","city":"清瀬市","address":"清瀬市上清戸2-5-40","lat":35.77921,"lon":139.51973},{"name":"清瀬駅前保育園","province":"東京都","city":"清瀬市","address":"清瀬市元町1-9-15","lat":35.77323,"lon":139.51839},{"name":"メリーポピンズ清瀬ルーム","province":"東京都","city":"清瀬市","address":"清瀬市松山1-40-2","lat":35.76819,"lon":139.51726},{"name":"メリーポピンズ松山ルーム","province":"東京都","city":"清瀬市","address":"清瀬市松山1-40-24","lat":35.76819,"lon":139.51726},{"name":"清瀬どろんこ保育園","province":"東京都","city":"清瀬市","address":"清瀬市松山3-1-24","lat":35.77222,"lon":139.51265},{"name":"清瀬市立第１保育園","province":"東京都","city":"清瀬市","address":"清瀬市松山3-1-73","lat":35.77222,"lon":139.51265},{"name":"清瀬市立第７保育園","province":"東京都","city":"清瀬市","address":"清瀬市竹丘1-15-11","lat":35.76803,"lon":139.51082},{"name":"清瀬上宮保育園","province":"東京都","city":"清瀬市","address":"清瀬市竹丘3-8-1","lat":35.76622,"lon":139.50188},{"name":"清瀬駅前乳児保育園","province":"東京都","city":"清瀬市","address":"清瀬市元町1-4-17","lat":35.77325,"lon":139.52049},{"name":"中里どろんこ保育園","province":"東京都","city":"清瀬市","address":"清瀬市中里6-23-1","lat":35.790082,"lon":139.527966},{"name":"駅前乳児保育園","province":"東京都","city":"清瀬市","address":"清瀬市元町1-4-17","lat":35.77325,"lon":139.52049},{"name":"清瀬市立乳児保育園","province":"東京都","city":"清瀬市","address":"清瀬市梅園2-9-38","lat":35.77246,"lon":139.50479},{"name":"清瀬市立梅園第1第2第3学童クラブ","province":"東京都","city":"清瀬市","address":"東京都清瀬市梅園2-9-38","lat":35.771999,"lon":139.505174},{"name":"清瀬市立清明小第1第2学童クラブ","province":"東京都","city":"清瀬市","address":"東京都清瀬市旭が丘2-8-1","lat":35.796885,"lon":139.539993},{"name":"清瀬市立四小学童クラブ","province":"東京都","city":"清瀬市","address":"東京都清瀬市中里2-1471","lat":35.783236,"lon":139.510435},{"name":"清瀬市立八小第1第2学童クラブ","province":"東京都","city":"清瀬市","address":"東京都清瀬市中清戸4-1070","lat":35.787303,"lon":139.530847},{"name":"清瀬市立竹丘第1第２学童クラブ","province":"東京都","city":"清瀬市","address":"東京都清瀬市竹丘1-15-11","lat":35.767616,"lon":139.511404},{"name":"清瀬市立芝山小第1第2学童クラブ","province":"東京都","city":"清瀬市","address":"東京都清瀬市元町2-16-8","lat":35.775359,"lon":139.511204},{"name":"清瀬市立清瀬小第1学童クラブ","province":"東京都","city":"清瀬市","address":"東京都清瀬市中里5-741","lat":35.785211,"lon":139.525606},{"name":"清瀬市立三小第1第2学童クラブ","province":"東京都","city":"清瀬市","address":"東京都清瀬市竹丘1-15-4","lat":35.768568,"lon":139.509927},{"name":"清瀬市立中清戸第1第2学童クラブ","province":"東京都","city":"清瀬市","address":"東京都清瀬市中清戸1-556-1","lat":35.775051,"lon":139.528458},{"name":"清瀬市立清瀬小第2学童クラブ","province":"東京都","city":"清瀬市","address":"東京都清瀬市中里5-624","lat":35.78533,"lon":139.52593},{"name":"清瀬市立第３保育園","province":"東京都","city":"清瀬市","address":"清瀬市旭が丘3-755-1","lat":35.79724,"lon":139.53879},{"name":"せせらぎ保育園","province":"東京都","city":"清瀬市","address":"清瀬市中里1-1704","lat":35.77921,"lon":139.51283},{"name":"すみれ保育園","province":"東京都","city":"清瀬市","address":"清瀬市中里3-1731-8","lat":35.77955,"lon":139.51706},{"name":"中里どろんこ保育園","province":"東京都","city":"清瀬市","address":"清瀬市中里6-23-1","lat":35.79083,"lon":139.52707},{"name":"のしお一丁目保育園","province":"東京都","city":"清瀬市","address":"清瀬市野塩1-322-1","lat":35.77913,"lon":139.49931},{"name":"のしお保育園","province":"東京都","city":"清瀬市","address":"清瀬市野塩5-249","lat":35.77622,"lon":139.49803},{"name":"中清戸保育園","province":"東京都","city":"清瀬市","address":"清瀬市下清戸1-21-3","lat":35.77878,"lon":139.53598},{"name":"きよせ保育園","province":"東京都","city":"清瀬市","address":"清瀬市上清戸2-5-40","lat":35.77921,"lon":139.51973},{"name":"清瀬駅前保育園","province":"東京都","city":"清瀬市","address":"清瀬市元町1-9-15","lat":35.77323,"lon":139.51839},{"name":"メリーポピンズ清瀬ルーム","province":"東京都","city":"清瀬市","address":"清瀬市松山1-40-2","lat":35.76819,"lon":139.51726},{"name":"メリーポピンズ松山ルーム","province":"東京都","city":"清瀬市","address":"清瀬市松山1-40-24","lat":35.76819,"lon":139.51726},{"name":"清瀬どろんこ保育園","province":"東京都","city":"清瀬市","address":"清瀬市松山3-1-24","lat":35.77222,"lon":139.51265},{"name":"清瀬市立第１保育園","province":"東京都","city":"清瀬市","address":"清瀬市松山3-1-73","lat":35.77222,"lon":139.51265},{"name":"清瀬市立第７保育園","province":"東京都","city":"清瀬市","address":"清瀬市竹丘1-15-11","lat":35.76803,"lon":139.51082},{"name":"清瀬上宮保育園","province":"東京都","city":"清瀬市","address":"清瀬市竹丘3-8-1","lat":35.76622,"lon":139.50188},{"name":"清瀬駅前乳児保育園","province":"東京都","city":"清瀬市","address":"清瀬市元町1-4-17","lat":35.77325,"lon":139.52049},{"name":"中里どろんこ保育園","province":"東京都","city":"清瀬市","address":"清瀬市中里6-23-1","lat":35.790082,"lon":139.527966},{"name":"駅前乳児保育園","province":"東京都","city":"清瀬市","address":"清瀬市元町1-4-17","lat":35.77325,"lon":139.52049},{"name":"清瀬市立乳児保育園","province":"東京都","city":"清瀬市","address":"清瀬市梅園2-9-38","lat":35.77246,"lon":139.50479},{"name":"清瀬市立梅園第1第2第3学童クラブ","province":"東京都","city":"清瀬市","address":"東京都清瀬市梅園2-9-38","lat":35.771999,"lon":139.505174},{"name":"清瀬市立清明小第1第2学童クラブ","province":"東京都","city":"清瀬市","address":"東京都清瀬市旭が丘2-8-1","lat":35.796885,"lon":139.539993},{"name":"清瀬市立四小学童クラブ","province":"東京都","city":"清瀬市","address":"東京都清瀬市中里2-1471","lat":35.783236,"lon":139.510435},{"name":"清瀬市立八小第1第2学童クラブ","province":"東京都","city":"清瀬市","address":"東京都清瀬市中清戸4-1070","lat":35.787303,"lon":139.530847},{"name":"清瀬市立竹丘第1第２学童クラブ","province":"東京都","city":"清瀬市","address":"東京都清瀬市竹丘1-15-11","lat":35.767616,"lon":139.511404},{"name":"清瀬市立芝山小第1第2学童クラブ","province":"東京都","city":"清瀬市","address":"東京都清瀬市元町2-16-8","lat":35.775359,"lon":139.511204},{"name":"清瀬市立清瀬小第1学童クラブ","province":"東京都","city":"清瀬市","address":"東京都清瀬市中里5-741","lat":35.785211,"lon":139.525606},{"name":"清瀬市立三小第1第2学童クラブ","province":"東京都","city":"清瀬市","address":"東京都清瀬市竹丘1-15-4","lat":35.768568,"lon":139.509927},{"name":"清瀬市立中清戸第1第2学童クラブ","province":"東京都","city":"清瀬市","address":"東京都清瀬市中清戸1-556-1","lat":35.775051,"lon":139.528458},{"name":"清瀬市立清瀬小第2学童クラブ","province":"東京都","city":"清瀬市","address":"東京都清瀬市中里5-624","lat":35.78533,"lon":139.52593},{"name":"清瀬市立第３保育園","province":"東京都","city":"清瀬市","address":"清瀬市旭が丘3-755-1","lat":35.79724,"lon":139.53879},{"name":"せせらぎ保育園","province":"東京都","city":"清瀬市","address":"清瀬市中里1-1704","lat":35.77921,"lon":139.51283},{"name":"すみれ保育園","province":"東京都","city":"清瀬市","address":"清瀬市中里3-1731-8","lat":35.77955,"lon":139.51706},{"name":"中里どろんこ保育園","province":"東京都","city":"清瀬市","address":"清瀬市中里6-23-1","lat":35.79083,"lon":139.52707},{"name":"のしお一丁目保育園","province":"東京都","city":"清瀬市","address":"清瀬市野塩1-322-1","lat":35.77913,"lon":139.49931},{"name":"のしお保育園","province":"東京都","city":"清瀬市","address":"清瀬市野塩5-249","lat":35.77622,"lon":139.49803},{"name":"中清戸保育園","province":"東京都","city":"清瀬市","address":"清瀬市下清戸1-21-3","lat":35.77878,"lon":139.53598},{"name":"きよせ保育園","province":"東京都","city":"清瀬市","address":"清瀬市上清戸2-5-40","lat":35.77921,"lon":139.51973},{"name":"清瀬駅前保育園","province":"東京都","city":"清瀬市","address":"清瀬市元町1-9-15","lat":35.77323,"lon":139.51839},{"name":"メリーポピンズ清瀬ルーム","province":"東京都","city":"清瀬市","address":"清瀬市松山1-40-2","lat":35.76819,"lon":139.51726},{"name":"メリーポピンズ松山ルーム","province":"東京都","city":"清瀬市","address":"清瀬市松山1-40-24","lat":35.76819,"lon":139.51726},{"name":"清瀬どろんこ保育園","province":"東京都","city":"清瀬市","address":"清瀬市松山3-1-24","lat":35.77222,"lon":139.51265},{"name":"清瀬市立第１保育園","province":"東京都","city":"清瀬市","address":"清瀬市松山3-1-73","lat":35.77222,"lon":139.51265},{"name":"清瀬市立第７保育園","province":"東京都","city":"清瀬市","address":"清瀬市竹丘1-15-11","lat":35.76803,"lon":139.51082},{"name":"清瀬上宮保育園","province":"東京都","city":"清瀬市","address":"清瀬市竹丘3-8-1","lat":35.76622,"lon":139.50188},{"name":"清瀬駅前乳児保育園","province":"東京都","city":"清瀬市","address":"清瀬市元町1-4-17","lat":35.77325,"lon":139.52049},{"name":"中里どろんこ保育園","province":"東京都","city":"清瀬市","address":"清瀬市中里6-23-1","lat":35.790082,"lon":139.527966},{"name":"駅前乳児保育園","province":"東京都","city":"清瀬市","address":"清瀬市元町1-4-17","lat":35.77325,"lon":139.52049},{"name":"清瀬市立乳児保育園","province":"東京都","city":"清瀬市","address":"清瀬市梅園2-9-38","lat":35.77246,"lon":139.50479},{"name":"清瀬市立梅園第1第2第3学童クラブ","province":"東京都","city":"清瀬市","address":"東京都清瀬市梅園2-9-38","lat":35.771999,"lon":139.505174},{"name":"清瀬市立清明小第1第2学童クラブ","province":"東京都","city":"清瀬市","address":"東京都清瀬市旭が丘2-8-1","lat":35.796885,"lon":139.539993},{"name":"清瀬市立四小学童クラブ","province":"東京都","city":"清瀬市","address":"東京都清瀬市中里2-1471","lat":35.783236,"lon":139.510435},{"name":"清瀬市立八小第1第2学童クラブ","province":"東京都","city":"清瀬市","address":"東京都清瀬市中清戸4-1070","lat":35.787303,"lon":139.530847},{"name":"清瀬市立竹丘第1第２学童クラブ","province":"東京都","city":"清瀬市","address":"東京都清瀬市竹丘1-15-11","lat":35.767616,"lon":139.511404},{"name":"清瀬市立芝山小第1第2学童クラブ","province":"東京都","city":"清瀬市","address":"東京都清瀬市元町2-16-8","lat":35.775359,"lon":139.511204},{"name":"清瀬市立清瀬小第1学童クラブ","province":"東京都","city":"清瀬市","address":"東京都清瀬市中里5-741","lat":35.785211,"lon":139.525606},{"name":"清瀬市立三小第1第2学童クラブ","province":"東京都","city":"清瀬市","address":"東京都清瀬市竹丘1-15-4","lat":35.768568,"lon":139.509927},{"name":"清瀬市立中清戸第1第2学童クラブ","province":"東京都","city":"清瀬市","address":"東京都清瀬市中清戸1-556-1","lat":35.775051,"lon":139.528458},{"name":"清瀬市立清瀬小第2学童クラブ","province":"東京都","city":"清瀬市","address":"東京都清瀬市中里5-624","lat":35.78533,"lon":139.52593},{"name":"清瀬市立第３保育園","province":"東京都","city":"清瀬市","address":"清瀬市旭が丘3-755-1","lat":35.79724,"lon":139.53879},{"name":"せせらぎ保育園","province":"東京都","city":"清瀬市","address":"清瀬市中里1-1704","lat":35.77921,"lon":139.51283},{"name":"すみれ保育園","province":"東京都","city":"清瀬市","address":"清瀬市中里3-1731-8","lat":35.77955,"lon":139.51706},{"name":"中里どろんこ保育園","province":"東京都","city":"清瀬市","address":"清瀬市中里6-23-1","lat":35.79083,"lon":139.52707},{"name":"のしお一丁目保育園","province":"東京都","city":"清瀬市","address":"清瀬市野塩1-322-1","lat":35.77913,"lon":139.49931},{"name":"のしお保育園","province":"東京都","city":"清瀬市","address":"清瀬市野塩5-249","lat":35.77622,"lon":139.49803},{"name":"中清戸保育園","province":"東京都","city":"清瀬市","address":"清瀬市下清戸1-21-3","lat":35.77878,"lon":139.53598},{"name":"きよせ保育園","province":"東京都","city":"清瀬市","address":"清瀬市上清戸2-5-40","lat":35.77921,"lon":139.51973},{"name":"清瀬駅前保育園","province":"東京都","city":"清瀬市","address":"清瀬市元町1-9-15","lat":35.77323,"lon":139.51839},{"name":"メリーポピンズ清瀬ルーム","province":"東京都","city":"清瀬市","address":"清瀬市松山1-40-2","lat":35.76819,"lon":139.51726},{"name":"メリーポピンズ松山ルーム","province":"東京都","city":"清瀬市","address":"清瀬市松山1-40-24","lat":35.76819,"lon":139.51726},{"name":"清瀬どろんこ保育園","province":"東京都","city":"清瀬市","address":"清瀬市松山3-1-24","lat":35.77222,"lon":139.51265},{"name":"清瀬市立第１保育園","province":"東京都","city":"清瀬市","address":"清瀬市松山3-1-73","lat":35.77222,"lon":139.51265},{"name":"清瀬市立第７保育園","province":"東京都","city":"清瀬市","address":"清瀬市竹丘1-15-11","lat":35.76803,"lon":139.51082},{"name":"清瀬上宮保育園","province":"東京都","city":"清瀬市","address":"清瀬市竹丘3-8-1","lat":35.76622,"lon":139.50188},{"name":"清瀬駅前乳児保育園","province":"東京都","city":"清瀬市","address":"清瀬市元町1-4-17","lat":35.77325,"lon":139.52049},{"name":"中里どろんこ保育園","province":"東京都","city":"清瀬市","address":"清瀬市中里6-23-1","lat":35.790082,"lon":139.527966},{"name":"駅前乳児保育園","province":"東京都","city":"清瀬市","address":"清瀬市元町1-4-17","lat":35.77325,"lon":139.52049},{"name":"清瀬市立乳児保育園","province":"東京都","city":"清瀬市","address":"清瀬市梅園2-9-38","lat":35.77246,"lon":139.50479},{"name":"清瀬市立梅園第1第2第3学童クラブ","province":"東京都","city":"清瀬市","address":"東京都清瀬市梅園2-9-38","lat":35.771999,"lon":139.505174},{"name":"清瀬市立清明小第1第2学童クラブ","province":"東京都","city":"清瀬市","address":"東京都清瀬市旭が丘2-8-1","lat":35.796885,"lon":139.539993},{"name":"清瀬市立四小学童クラブ","province":"東京都","city":"清瀬市","address":"東京都清瀬市中里2-1471","lat":35.783236,"lon":139.510435},{"name":"清瀬市立八小第1第2学童クラブ","province":"東京都","city":"清瀬市","address":"東京都清瀬市中清戸4-1070","lat":35.787303,"lon":139.530847},{"name":"清瀬市立竹丘第1第２学童クラブ","province":"東京都","city":"清瀬市","address":"東京都清瀬市竹丘1-15-11","lat":35.767616,"lon":139.511404},{"name":"清瀬市立芝山小第1第2学童クラブ","province":"東京都","city":"清瀬市","address":"東京都清瀬市元町2-16-8","lat":35.775359,"lon":139.511204},{"name":"清瀬市立清瀬小第1学童クラブ","province":"東京都","city":"清瀬市","address":"東京都清瀬市中里5-741","lat":35.785211,"lon":139.525606},{"name":"清瀬市立三小第1第2学童クラブ","province":"東京都","city":"清瀬市","address":"東京都清瀬市竹丘1-15-4","lat":35.768568,"lon":139.509927},{"name":"清瀬市立中清戸第1第2学童クラブ","province":"東京都","city":"清瀬市","address":"東京都清瀬市中清戸1-556-1","lat":35.775051,"lon":139.528458},{"name":"清瀬市立清瀬小第2学童クラブ","province":"東京都","city":"清瀬市","address":"東京都清瀬市中里5-624","lat":35.78533,"lon":139.52593},{"name":"清瀬市立第３保育園","province":"東京都","city":"清瀬市","address":"清瀬市旭が丘3-755-1","lat":35.79724,"lon":139.53879},{"name":"せせらぎ保育園","province":"東京都","city":"清瀬市","address":"清瀬市中里1-1704","lat":35.77921,"lon":139.51283},{"name":"すみれ保育園","province":"東京都","city":"清瀬市","address":"清瀬市中里3-1731-8","lat":35.77955,"lon":139.51706},{"name":"中里どろんこ保育園","province":"東京都","city":"清瀬市","address":"清瀬市中里6-23-1","lat":35.79083,"lon":139.52707},{"name":"のしお一丁目保育園","province":"東京都","city":"清瀬市","address":"清瀬市野塩1-322-1","lat":35.77913,"lon":139.49931},{"name":"のしお保育園","province":"東京都","city":"清瀬市","address":"清瀬市野塩5-249","lat":35.77622,"lon":139.49803},{"name":"中清戸保育園","province":"東京都","city":"清瀬市","address":"清瀬市下清戸1-21-3","lat":35.77878,"lon":139.53598},{"name":"きよせ保育園","province":"東京都","city":"清瀬市","address":"清瀬市上清戸2-5-40","lat":35.77921,"lon":139.51973},{"name":"清瀬駅前保育園","province":"東京都","city":"清瀬市","address":"清瀬市元町1-9-15","lat":35.77323,"lon":139.51839},{"name":"メリーポピンズ清瀬ルーム","province":"東京都","city":"清瀬市","address":"清瀬市松山1-40-2","lat":35.76819,"lon":139.51726},{"name":"メリーポピンズ松山ルーム","province":"東京都","city":"清瀬市","address":"清瀬市松山1-40-24","lat":35.76819,"lon":139.51726},{"name":"清瀬どろんこ保育園","province":"東京都","city":"清瀬市","address":"清瀬市松山3-1-24","lat":35.77222,"lon":139.51265},{"name":"清瀬市立第１保育園","province":"東京都","city":"清瀬市","address":"清瀬市松山3-1-73","lat":35.77222,"lon":139.51265},{"name":"清瀬市立第７保育園","province":"東京都","city":"清瀬市","address":"清瀬市竹丘1-15-11","lat":35.76803,"lon":139.51082},{"name":"清瀬上宮保育園","province":"東京都","city":"清瀬市","address":"清瀬市竹丘3-8-1","lat":35.76622,"lon":139.50188},{"name":"清瀬駅前乳児保育園","province":"東京都","city":"清瀬市","address":"清瀬市元町1-4-17","lat":35.77325,"lon":139.52049},{"name":"中里どろんこ保育園","province":"東京都","city":"清瀬市","address":"清瀬市中里6-23-1","lat":35.790082,"lon":139.527966},{"name":"駅前乳児保育園","province":"東京都","city":"清瀬市","address":"清瀬市元町1-4-17","lat":35.77325,"lon":139.52049},{"name":"清瀬市立乳児保育園","province":"東京都","city":"清瀬市","address":"清瀬市梅園2-9-38","lat":35.77246,"lon":139.50479},{"name":"清瀬市立梅園第1第2第3学童クラブ","province":"東京都","city":"清瀬市","address":"東京都清瀬市梅園2-9-38","lat":35.771999,"lon":139.505174},{"name":"清瀬市立清明小第1第2学童クラブ","province":"東京都","city":"清瀬市","address":"東京都清瀬市旭が丘2-8-1","lat":35.796885,"lon":139.539993},{"name":"清瀬市立四小学童クラブ","province":"東京都","city":"清瀬市","address":"東京都清瀬市中里2-1471","lat":35.783236,"lon":139.510435},{"name":"清瀬市立八小第1第2学童クラブ","province":"東京都","city":"清瀬市","address":"東京都清瀬市中清戸4-1070","lat":35.787303,"lon":139.530847},{"name":"清瀬市立竹丘第1第２学童クラブ","province":"東京都","city":"清瀬市","address":"東京都清瀬市竹丘1-15-11","lat":35.767616,"lon":139.511404},{"name":"清瀬市立芝山小第1第2学童クラブ","province":"東京都","city":"清瀬市","address":"東京都清瀬市元町2-16-8","lat":35.775359,"lon":139.511204},{"name":"清瀬市立清瀬小第1学童クラブ","province":"東京都","city":"清瀬市","address":"東京都清瀬市中里5-741","lat":35.785211,"lon":139.525606},{"name":"清瀬市立三小第1第2学童クラブ","province":"東京都","city":"清瀬市","address":"東京都清瀬市竹丘1-15-4","lat":35.768568,"lon":139.509927},{"name":"清瀬市立中清戸第1第2学童クラブ","province":"東京都","city":"清瀬市","address":"東京都清瀬市中清戸1-556-1","lat":35.775051,"lon":139.528458},{"name":"清瀬市立清瀬小第2学童クラブ","province":"東京都","city":"清瀬市","address":"東京都清瀬市中里5-624","lat":35.78533,"lon":139.52593},{"name":"清瀬市立第３保育園","province":"東京都","city":"清瀬市","address":"清瀬市旭が丘3-755-1","lat":35.79724,"lon":139.53879},{"name":"せせらぎ保育園","province":"東京都","city":"清瀬市","address":"清瀬市中里1-1704","lat":35.77921,"lon":139.51283},{"name":"すみれ保育園","province":"東京都","city":"清瀬市","address":"清瀬市中里3-1731-8","lat":35.77955,"lon":139.51706},{"name":"中里どろんこ保育園","province":"東京都","city":"清瀬市","address":"清瀬市中里6-23-1","lat":35.79083,"lon":139.52707},{"name":"のしお一丁目保育園","province":"東京都","city":"清瀬市","address":"清瀬市野塩1-322-1","lat":35.77913,"lon":139.49931},{"name":"のしお保育園","province":"東京都","city":"清瀬市","address":"清瀬市野塩5-249","lat":35.77622,"lon":139.49803},{"name":"中清戸保育園","province":"東京都","city":"清瀬市","address":"清瀬市下清戸1-21-3","lat":35.77878,"lon":139.53598},{"name":"きよせ保育園","province":"東京都","city":"清瀬市","address":"清瀬市上清戸2-5-40","lat":35.77921,"lon":139.51973},{"name":"清瀬駅前保育園","province":"東京都","city":"清瀬市","address":"清瀬市元町1-9-15","lat":35.77323,"lon":139.51839},{"name":"メリーポピンズ清瀬ルーム","province":"東京都","city":"清瀬市","address":"清瀬市松山1-40-2","lat":35.76819,"lon":139.51726},{"name":"メリーポピンズ松山ルーム","province":"東京都","city":"清瀬市","address":"清瀬市松山1-40-24","lat":35.76819,"lon":139.51726},{"name":"清瀬どろんこ保育園","province":"東京都","city":"清瀬市","address":"清瀬市松山3-1-24","lat":35.77222,"lon":139.51265},{"name":"清瀬市立第１保育園","province":"東京都","city":"清瀬市","address":"清瀬市松山3-1-73","lat":35.77222,"lon":139.51265},{"name":"清瀬市立第７保育園","province":"東京都","city":"清瀬市","address":"清瀬市竹丘1-15-11","lat":35.76803,"lon":139.51082},{"name":"清瀬上宮保育園","province":"東京都","city":"清瀬市","address":"清瀬市竹丘3-8-1","lat":35.76622,"lon":139.50188},{"name":"清瀬駅前乳児保育園","province":"東京都","city":"清瀬市","address":"清瀬市元町1-4-17","lat":35.77325,"lon":139.52049},{"name":"中里どろんこ保育園","province":"東京都","city":"清瀬市","address":"清瀬市中里6-23-1","lat":35.790082,"lon":139.527966},{"name":"駅前乳児保育園","province":"東京都","city":"清瀬市","address":"清瀬市元町1-4-17","lat":35.77325,"lon":139.52049},{"name":"清瀬市立乳児保育園","province":"東京都","city":"清瀬市","address":"清瀬市梅園2-9-38","lat":35.77246,"lon":139.50479},{"name":"清瀬市立梅園第1第2第3学童クラブ","province":"東京都","city":"清瀬市","address":"東京都清瀬市梅園2-9-38","lat":35.771999,"lon":139.505174},{"name":"清瀬市立清明小第1第2学童クラブ","province":"東京都","city":"清瀬市","address":"東京都清瀬市旭が丘2-8-1","lat":35.796885,"lon":139.539993},{"name":"清瀬市立四小学童クラブ","province":"東京都","city":"清瀬市","address":"東京都清瀬市中里2-1471","lat":35.783236,"lon":139.510435},{"name":"清瀬市立八小第1第2学童クラブ","province":"東京都","city":"清瀬市","address":"東京都清瀬市中清戸4-1070","lat":35.787303,"lon":139.530847},{"name":"清瀬市立竹丘第1第２学童クラブ","province":"東京都","city":"清瀬市","address":"東京都清瀬市竹丘1-15-11","lat":35.767616,"lon":139.511404},{"name":"清瀬市立芝山小第1第2学童クラブ","province":"東京都","city":"清瀬市","address":"東京都清瀬市元町2-16-8","lat":35.775359,"lon":139.511204},{"name":"清瀬市立清瀬小第1学童クラブ","province":"東京都","city":"清瀬市","address":"東京都清瀬市中里5-741","lat":35.785211,"lon":139.525606},{"name":"清瀬市立三小第1第2学童クラブ","province":"東京都","city":"清瀬市","address":"東京都清瀬市竹丘1-15-4","lat":35.768568,"lon":139.509927},{"name":"清瀬市立中清戸第1第2学童クラブ","province":"東京都","city":"清瀬市","address":"東京都清瀬市中清戸1-556-1","lat":35.775051,"lon":139.528458},{"name":"清瀬市立清瀬小第2学童クラブ","province":"東京都","city":"清瀬市","address":"東京都清瀬市中里5-624","lat":35.78533,"lon":139.52593},{"name":"清瀬市立第３保育園","province":"東京都","city":"清瀬市","address":"清瀬市旭が丘3-755-1","lat":35.79724,"lon":139.53879},{"name":"せせらぎ保育園","province":"東京都","city":"清瀬市","address":"清瀬市中里1-1704","lat":35.77921,"lon":139.51283},{"name":"すみれ保育園","province":"東京都","city":"清瀬市","address":"清瀬市中里3-1731-8","lat":35.77955,"lon":139.51706},{"name":"中里どろんこ保育園","province":"東京都","city":"清瀬市","address":"清瀬市中里6-23-1","lat":35.79083,"lon":139.52707},{"name":"のしお一丁目保育園","province":"東京都","city":"清瀬市","address":"清瀬市野塩1-322-1","lat":35.77913,"lon":139.49931},{"name":"のしお保育園","province":"東京都","city":"清瀬市","address":"清瀬市野塩5-249","lat":35.77622,"lon":139.49803},{"name":"中清戸保育園","province":"東京都","city":"清瀬市","address":"清瀬市下清戸1-21-3","lat":35.77878,"lon":139.53598},{"name":"きよせ保育園","province":"東京都","city":"清瀬市","address":"清瀬市上清戸2-5-40","lat":35.77921,"lon":139.51973},{"name":"清瀬駅前保育園","province":"東京都","city":"清瀬市","address":"清瀬市元町1-9-15","lat":35.77323,"lon":139.51839},{"name":"メリーポピンズ清瀬ルーム","province":"東京都","city":"清瀬市","address":"清瀬市松山1-40-2","lat":35.76819,"lon":139.51726},{"name":"メリーポピンズ松山ルーム","province":"東京都","city":"清瀬市","address":"清瀬市松山1-40-24","lat":35.76819,"lon":139.51726},{"name":"清瀬どろんこ保育園","province":"東京都","city":"清瀬市","address":"清瀬市松山3-1-24","lat":35.77222,"lon":139.51265},{"name":"清瀬市立第１保育園","province":"東京都","city":"清瀬市","address":"清瀬市松山3-1-73","lat":35.77222,"lon":139.51265},{"name":"清瀬市立第７保育園","province":"東京都","city":"清瀬市","address":"清瀬市竹丘1-15-11","lat":35.76803,"lon":139.51082},{"name":"清瀬上宮保育園","province":"東京都","city":"清瀬市","address":"清瀬市竹丘3-8-1","lat":35.76622,"lon":139.50188},{"name":"清瀬駅前乳児保育園","province":"東京都","city":"清瀬市","address":"清瀬市元町1-4-17","lat":35.77325,"lon":139.52049},{"name":"中里どろんこ保育園","province":"東京都","city":"清瀬市","address":"清瀬市中里6-23-1","lat":35.790082,"lon":139.527966},{"name":"駅前乳児保育園","province":"東京都","city":"清瀬市","address":"清瀬市元町1-4-17","lat":35.77325,"lon":139.52049},{"name":"清瀬市立乳児保育園","province":"東京都","city":"清瀬市","address":"清瀬市梅園2-9-38","lat":35.77246,"lon":139.50479},{"name":"清瀬市立梅園第1第2第3学童クラブ","province":"東京都","city":"清瀬市","address":"東京都清瀬市梅園2-9-38","lat":35.771999,"lon":139.505174},{"name":"清瀬市立清明小第1第2学童クラブ","province":"東京都","city":"清瀬市","address":"東京都清瀬市旭が丘2-8-1","lat":35.796885,"lon":139.539993},{"name":"清瀬市立四小学童クラブ","province":"東京都","city":"清瀬市","address":"東京都清瀬市中里2-1471","lat":35.783236,"lon":139.510435},{"name":"清瀬市立八小第1第2学童クラブ","province":"東京都","city":"清瀬市","address":"東京都清瀬市中清戸4-1070","lat":35.787303,"lon":139.530847},{"name":"清瀬市立竹丘第1第２学童クラブ","province":"東京都","city":"清瀬市","address":"東京都清瀬市竹丘1-15-11","lat":35.767616,"lon":139.511404},{"name":"清瀬市立芝山小第1第2学童クラブ","province":"東京都","city":"清瀬市","address":"東京都清瀬市元町2-16-8","lat":35.775359,"lon":139.511204},{"name":"清瀬市立清瀬小第1学童クラブ","province":"東京都","city":"清瀬市","address":"東京都清瀬市中里5-741","lat":35.785211,"lon":139.525606},{"name":"清瀬市立三小第1第2学童クラブ","province":"東京都","city":"清瀬市","address":"東京都清瀬市竹丘1-15-4","lat":35.768568,"lon":139.509927},{"name":"清瀬市立中清戸第1第2学童クラブ","province":"東京都","city":"清瀬市","address":"東京都清瀬市中清戸1-556-1","lat":35.775051,"lon":139.528458},{"name":"清瀬市立清瀬小第2学童クラブ","province":"東京都","city":"清瀬市","address":"東京都清瀬市中里5-624","lat":35.78533,"lon":139.52593},{"name":"清瀬市立第３保育園","province":"東京都","city":"清瀬市","address":"清瀬市旭が丘3-755-1","lat":35.79724,"lon":139.53879},{"name":"せせらぎ保育園","province":"東京都","city":"清瀬市","address":"清瀬市中里1-1704","lat":35.77921,"lon":139.51283},{"name":"すみれ保育園","province":"東京都","city":"清瀬市","address":"清瀬市中里3-1731-8","lat":35.77955,"lon":139.51706},{"name":"中里どろんこ保育園","province":"東京都","city":"清瀬市","address":"清瀬市中里6-23-1","lat":35.79083,"lon":139.52707},{"name":"のしお一丁目保育園","province":"東京都","city":"清瀬市","address":"清瀬市野塩1-322-1","lat":35.77913,"lon":139.49931},{"name":"のしお保育園","province":"東京都","city":"清瀬市","address":"清瀬市野塩5-249","lat":35.77622,"lon":139.49803},{"name":"中清戸保育園","province":"東京都","city":"清瀬市","address":"清瀬市下清戸1-21-3","lat":35.77878,"lon":139.53598},{"name":"きよせ保育園","province":"東京都","city":"清瀬市","address":"清瀬市上清戸2-5-40","lat":35.77921,"lon":139.51973},{"name":"清瀬駅前保育園","province":"東京都","city":"清瀬市","address":"清瀬市元町1-9-15","lat":35.77323,"lon":139.51839},{"name":"メリーポピンズ清瀬ルーム","province":"東京都","city":"清瀬市","address":"清瀬市松山1-40-2","lat":35.76819,"lon":139.51726},{"name":"メリーポピンズ松山ルーム","province":"東京都","city":"清瀬市","address":"清瀬市松山1-40-24","lat":35.76819,"lon":139.51726},{"name":"清瀬どろんこ保育園","province":"東京都","city":"清瀬市","address":"清瀬市松山3-1-24","lat":35.77222,"lon":139.51265},{"name":"清瀬市立第１保育園","province":"東京都","city":"清瀬市","address":"清瀬市松山3-1-73","lat":35.77222,"lon":139.51265},{"name":"清瀬市立第７保育園","province":"東京都","city":"清瀬市","address":"清瀬市竹丘1-15-11","lat":35.76803,"lon":139.51082},{"name":"清瀬上宮保育園","province":"東京都","city":"清瀬市","address":"清瀬市竹丘3-8-1","lat":35.76622,"lon":139.50188},{"name":"清瀬駅前乳児保育園","province":"東京都","city":"清瀬市","address":"清瀬市元町1-4-17","lat":35.77325,"lon":139.52049},{"name":"中里どろんこ保育園","province":"東京都","city":"清瀬市","address":"清瀬市中里6-23-1","lat":35.790082,"lon":139.527966},{"name":"駅前乳児保育園","province":"東京都","city":"清瀬市","address":"清瀬市元町1-4-17","lat":35.77325,"lon":139.52049},{"name":"清瀬市立乳児保育園","province":"東京都","city":"清瀬市","address":"清瀬市梅園2-9-38","lat":35.77246,"lon":139.50479},{"name":"清瀬市立梅園第1第2第3学童クラブ","province":"東京都","city":"清瀬市","address":"東京都清瀬市梅園2-9-38","lat":35.771999,"lon":139.505174},{"name":"清瀬市立清明小第1第2学童クラブ","province":"東京都","city":"清瀬市","address":"東京都清瀬市旭が丘2-8-1","lat":35.796885,"lon":139.539993},{"name":"清瀬市立四小学童クラブ","province":"東京都","city":"清瀬市","address":"東京都清瀬市中里2-1471","lat":35.783236,"lon":139.510435},{"name":"清瀬市立八小第1第2学童クラブ","province":"東京都","city":"清瀬市","address":"東京都清瀬市中清戸4-1070","lat":35.787303,"lon":139.530847},{"name":"清瀬市立竹丘第1第２学童クラブ","province":"東京都","city":"清瀬市","address":"東京都清瀬市竹丘1-15-11","lat":35.767616,"lon":139.511404},{"name":"清瀬市立芝山小第1第2学童クラブ","province":"東京都","city":"清瀬市","address":"東京都清瀬市元町2-16-8","lat":35.775359,"lon":139.511204},{"name":"清瀬市立清瀬小第1学童クラブ","province":"東京都","city":"清瀬市","address":"東京都清瀬市中里5-741","lat":35.785211,"lon":139.525606},{"name":"清瀬市立三小第1第2学童クラブ","province":"東京都","city":"清瀬市","address":"東京都清瀬市竹丘1-15-4","lat":35.768568,"lon":139.509927},{"name":"清瀬市立中清戸第1第2学童クラブ","province":"東京都","city":"清瀬市","address":"東京都清瀬市中清戸1-556-1","lat":35.775051,"lon":139.528458},{"name":"清瀬市立清瀬小第2学童クラブ","province":"東京都","city":"清瀬市","address":"東京都清瀬市中里5-624","lat":35.78533,"lon":139.52593},{"name":"清瀬市立第３保育園","province":"東京都","city":"清瀬市","address":"清瀬市旭が丘3-755-1","lat":35.79724,"lon":139.53879},{"name":"せせらぎ保育園","province":"東京都","city":"清瀬市","address":"清瀬市中里1-1704","lat":35.77921,"lon":139.51283},{"name":"すみれ保育園","province":"東京都","city":"清瀬市","address":"清瀬市中里3-1731-8","lat":35.77955,"lon":139.51706},{"name":"中里どろんこ保育園","province":"東京都","city":"清瀬市","address":"清瀬市中里6-23-1","lat":35.79083,"lon":139.52707},{"name":"のしお一丁目保育園","province":"東京都","city":"清瀬市","address":"清瀬市野塩1-322-1","lat":35.77913,"lon":139.49931},{"name":"のしお保育園","province":"東京都","city":"清瀬市","address":"清瀬市野塩5-249","lat":35.77622,"lon":139.49803},{"name":"中清戸保育園","province":"東京都","city":"清瀬市","address":"清瀬市下清戸1-21-3","lat":35.77878,"lon":139.53598},{"name":"きよせ保育園","province":"東京都","city":"清瀬市","address":"清瀬市上清戸2-5-40","lat":35.77921,"lon":139.51973},{"name":"清瀬駅前保育園","province":"東京都","city":"清瀬市","address":"清瀬市元町1-9-15","lat":35.77323,"lon":139.51839},{"name":"メリーポピンズ清瀬ルーム","province":"東京都","city":"清瀬市","address":"清瀬市松山1-40-2","lat":35.76819,"lon":139.51726},{"name":"メリーポピンズ松山ルーム","province":"東京都","city":"清瀬市","address":"清瀬市松山1-40-24","lat":35.76819,"lon":139.51726},{"name":"清瀬どろんこ保育園","province":"東京都","city":"清瀬市","address":"清瀬市松山3-1-24","lat":35.77222,"lon":139.51265},{"name":"清瀬市立第１保育園","province":"東京都","city":"清瀬市","address":"清瀬市松山3-1-73","lat":35.77222,"lon":139.51265},{"name":"清瀬市立第７保育園","province":"東京都","city":"清瀬市","address":"清瀬市竹丘1-15-11","lat":35.76803,"lon":139.51082},{"name":"清瀬上宮保育園","province":"東京都","city":"清瀬市","address":"清瀬市竹丘3-8-1","lat":35.76622,"lon":139.50188},{"name":"清瀬駅前乳児保育園","province":"東京都","city":"清瀬市","address":"清瀬市元町1-4-17","lat":35.77325,"lon":139.52049},{"name":"中里どろんこ保育園","province":"東京都","city":"清瀬市","address":"清瀬市中里6-23-1","lat":35.790082,"lon":139.527966},{"name":"駅前乳児保育園","province":"東京都","city":"清瀬市","address":"清瀬市元町1-4-17","lat":35.77325,"lon":139.52049},{"name":"清瀬市立乳児保育園","province":"東京都","city":"清瀬市","address":"清瀬市梅園2-9-38","lat":35.77246,"lon":139.50479},{"name":"清瀬市立梅園第1第2第3学童クラブ","province":"東京都","city":"清瀬市","address":"東京都清瀬市梅園2-9-38","lat":35.771999,"lon":139.505174},{"name":"清瀬市立清明小第1第2学童クラブ","province":"東京都","city":"清瀬市","address":"東京都清瀬市旭が丘2-8-1","lat":35.796885,"lon":139.539993},{"name":"清瀬市立四小学童クラブ","province":"東京都","city":"清瀬市","address":"東京都清瀬市中里2-1471","lat":35.783236,"lon":139.510435},{"name":"清瀬市立八小第1第2学童クラブ","province":"東京都","city":"清瀬市","address":"東京都清瀬市中清戸4-1070","lat":35.787303,"lon":139.530847},{"name":"清瀬市立竹丘第1第２学童クラブ","province":"東京都","city":"清瀬市","address":"東京都清瀬市竹丘1-15-11","lat":35.767616,"lon":139.511404},{"name":"清瀬市立芝山小第1第2学童クラブ","province":"東京都","city":"清瀬市","address":"東京都清瀬市元町2-16-8","lat":35.775359,"lon":139.511204},{"name":"清瀬市立清瀬小第1学童クラブ","province":"東京都","city":"清瀬市","address":"東京都清瀬市中里5-741","lat":35.785211,"lon":139.525606},{"name":"清瀬市立三小第1第2学童クラブ","province":"東京都","city":"清瀬市","address":"東京都清瀬市竹丘1-15-4","lat":35.768568,"lon":139.509927},{"name":"清瀬市立中清戸第1第2学童クラブ","province":"東京都","city":"清瀬市","address":"東京都清瀬市中清戸1-556-1","lat":35.775051,"lon":139.528458},{"name":"清瀬市立清瀬小第2学童クラブ","province":"東京都","city":"清瀬市","address":"東京都清瀬市中里5-624","lat":35.78533,"lon":139.52593},{"name":"清瀬市立第３保育園","province":"東京都","city":"清瀬市","address":"清瀬市旭が丘3-755-1","lat":35.79724,"lon":139.53879},{"name":"せせらぎ保育園","province":"東京都","city":"清瀬市","address":"清瀬市中里1-1704","lat":35.77921,"lon":139.51283},{"name":"すみれ保育園","province":"東京都","city":"清瀬市","address":"清瀬市中里3-1731-8","lat":35.77955,"lon":139.51706},{"name":"中里どろんこ保育園","province":"東京都","city":"清瀬市","address":"清瀬市中里6-23-1","lat":35.79083,"lon":139.52707},{"name":"のしお一丁目保育園","province":"東京都","city":"清瀬市","address":"清瀬市野塩1-322-1","lat":35.77913,"lon":139.49931},{"name":"のしお保育園","province":"東京都","city":"清瀬市","address":"清瀬市野塩5-249","lat":35.77622,"lon":139.49803},{"name":"中清戸保育園","province":"東京都","city":"清瀬市","address":"清瀬市下清戸1-21-3","lat":35.77878,"lon":139.53598},{"name":"きよせ保育園","province":"東京都","city":"清瀬市","address":"清瀬市上清戸2-5-40","lat":35.77921,"lon":139.51973},{"name":"清瀬駅前保育園","province":"東京都","city":"清瀬市","address":"清瀬市元町1-9-15","lat":35.77323,"lon":139.51839},{"name":"メリーポピンズ清瀬ルーム","province":"東京都","city":"清瀬市","address":"清瀬市松山1-40-2","lat":35.76819,"lon":139.51726},{"name":"メリーポピンズ松山ルーム","province":"東京都","city":"清瀬市","address":"清瀬市松山1-40-24","lat":35.76819,"lon":139.51726},{"name":"清瀬どろんこ保育園","province":"東京都","city":"清瀬市","address":"清瀬市松山3-1-24","lat":35.77222,"lon":139.51265},{"name":"清瀬市立第１保育園","province":"東京都","city":"清瀬市","address":"清瀬市松山3-1-73","lat":35.77222,"lon":139.51265},{"name":"清瀬市立第７保育園","province":"東京都","city":"清瀬市","address":"清瀬市竹丘1-15-11","lat":35.76803,"lon":139.51082},{"name":"清瀬上宮保育園","province":"東京都","city":"清瀬市","address":"清瀬市竹丘3-8-1","lat":35.76622,"lon":139.50188},{"name":"清瀬駅前乳児保育園","province":"東京都","city":"清瀬市","address":"清瀬市元町1-4-17","lat":35.77325,"lon":139.52049},{"name":"中里どろんこ保育園","province":"東京都","city":"清瀬市","address":"清瀬市中里6-23-1","lat":35.790082,"lon":139.527966},{"name":"駅前乳児保育園","province":"東京都","city":"清瀬市","address":"清瀬市元町1-4-17","lat":35.77325,"lon":139.52049},{"name":"清瀬市立乳児保育園","province":"東京都","city":"清瀬市","address":"清瀬市梅園2-9-38","lat":35.77246,"lon":139.50479},{"name":"清瀬市立梅園第1第2第3学童クラブ","province":"東京都","city":"清瀬市","address":"東京都清瀬市梅園2-9-38","lat":35.771999,"lon":139.505174},{"name":"清瀬市立清明小第1第2学童クラブ","province":"東京都","city":"清瀬市","address":"東京都清瀬市旭が丘2-8-1","lat":35.796885,"lon":139.539993},{"name":"清瀬市立四小学童クラブ","province":"東京都","city":"清瀬市","address":"東京都清瀬市中里2-1471","lat":35.783236,"lon":139.510435},{"name":"清瀬市立八小第1第2学童クラブ","province":"東京都","city":"清瀬市","address":"東京都清瀬市中清戸4-1070","lat":35.787303,"lon":139.530847},{"name":"清瀬市立竹丘第1第２学童クラブ","province":"東京都","city":"清瀬市","address":"東京都清瀬市竹丘1-15-11","lat":35.767616,"lon":139.511404},{"name":"清瀬市立芝山小第1第2学童クラブ","province":"東京都","city":"清瀬市","address":"東京都清瀬市元町2-16-8","lat":35.775359,"lon":139.511204},{"name":"清瀬市立清瀬小第1学童クラブ","province":"東京都","city":"清瀬市","address":"東京都清瀬市中里5-741","lat":35.785211,"lon":139.525606},{"name":"清瀬市立三小第1第2学童クラブ","province":"東京都","city":"清瀬市","address":"東京都清瀬市竹丘1-15-4","lat":35.768568,"lon":139.509927},{"name":"清瀬市立中清戸第1第2学童クラブ","province":"東京都","city":"清瀬市","address":"東京都清瀬市中清戸1-556-1","lat":35.775051,"lon":139.528458},{"name":"清瀬市立清瀬小第2学童クラブ","province":"東京都","city":"清瀬市","address":"東京都清瀬市中里5-624","lat":35.78533,"lon":139.52593},{"name":"清瀬市立第３保育園","province":"東京都","city":"清瀬市","address":"清瀬市旭が丘3-755-1","lat":35.79724,"lon":139.53879},{"name":"せせらぎ保育園","province":"東京都","city":"清瀬市","address":"清瀬市中里1-1704","lat":35.77921,"lon":139.51283},{"name":"すみれ保育園","province":"東京都","city":"清瀬市","address":"清瀬市中里3-1731-8","lat":35.77955,"lon":139.51706},{"name":"中里どろんこ保育園","province":"東京都","city":"清瀬市","address":"清瀬市中里6-23-1","lat":35.79083,"lon":139.52707},{"name":"のしお一丁目保育園","province":"東京都","city":"清瀬市","address":"清瀬市野塩1-322-1","lat":35.77913,"lon":139.49931},{"name":"のしお保育園","province":"東京都","city":"清瀬市","address":"清瀬市野塩5-249","lat":35.77622,"lon":139.49803},{"name":"中清戸保育園","province":"東京都","city":"清瀬市","address":"清瀬市下清戸1-21-3","lat":35.77878,"lon":139.53598},{"name":"きよせ保育園","province":"東京都","city":"清瀬市","address":"清瀬市上清戸2-5-40","lat":35.77921,"lon":139.51973},{"name":"清瀬駅前保育園","province":"東京都","city":"清瀬市","address":"清瀬市元町1-9-15","lat":35.77323,"lon":139.51839},{"name":"メリーポピンズ清瀬ルーム","province":"東京都","city":"清瀬市","address":"清瀬市松山1-40-2","lat":35.76819,"lon":139.51726},{"name":"メリーポピンズ松山ルーム","province":"東京都","city":"清瀬市","address":"清瀬市松山1-40-24","lat":35.76819,"lon":139.51726},{"name":"清瀬どろんこ保育園","province":"東京都","city":"清瀬市","address":"清瀬市松山3-1-24","lat":35.77222,"lon":139.51265},{"name":"清瀬市立第１保育園","province":"東京都","city":"清瀬市","address":"清瀬市松山3-1-73","lat":35.77222,"lon":139.51265},{"name":"清瀬市立第７保育園","province":"東京都","city":"清瀬市","address":"清瀬市竹丘1-15-11","lat":35.76803,"lon":139.51082},{"name":"清瀬上宮保育園","province":"東京都","city":"清瀬市","address":"清瀬市竹丘3-8-1","lat":35.76622,"lon":139.50188},{"name":"清瀬駅前乳児保育園","province":"東京都","city":"清瀬市","address":"清瀬市元町1-4-17","lat":35.77325,"lon":139.52049},{"name":"中里どろんこ保育園","province":"東京都","city":"清瀬市","address":"清瀬市中里6-23-1","lat":35.790082,"lon":139.527966},{"name":"駅前乳児保育園","province":"東京都","city":"清瀬市","address":"清瀬市元町1-4-17","lat":35.77325,"lon":139.52049},{"name":"清瀬市立乳児保育園","province":"東京都","city":"清瀬市","address":"清瀬市梅園2-9-38","lat":35.77246,"lon":139.50479},{"name":"清瀬市立梅園第1第2第3学童クラブ","province":"東京都","city":"清瀬市","address":"東京都清瀬市梅園2-9-38","lat":35.771999,"lon":139.505174},{"name":"清瀬市立清明小第1第2学童クラブ","province":"東京都","city":"清瀬市","address":"東京都清瀬市旭が丘2-8-1","lat":35.796885,"lon":139.539993},{"name":"清瀬市立四小学童クラブ","province":"東京都","city":"清瀬市","address":"東京都清瀬市中里2-1471","lat":35.783236,"lon":139.510435},{"name":"清瀬市立八小第1第2学童クラブ","province":"東京都","city":"清瀬市","address":"東京都清瀬市中清戸4-1070","lat":35.787303,"lon":139.530847},{"name":"清瀬市立竹丘第1第２学童クラブ","province":"東京都","city":"清瀬市","address":"東京都清瀬市竹丘1-15-11","lat":35.767616,"lon":139.511404},{"name":"清瀬市立芝山小第1第2学童クラブ","province":"東京都","city":"清瀬市","address":"東京都清瀬市元町2-16-8","lat":35.775359,"lon":139.511204},{"name":"清瀬市立清瀬小第1学童クラブ","province":"東京都","city":"清瀬市","address":"東京都清瀬市中里5-741","lat":35.785211,"lon":139.525606},{"name":"清瀬市立三小第1第2学童クラブ","province":"東京都","city":"清瀬市","address":"東京都清瀬市竹丘1-15-4","lat":35.768568,"lon":139.509927},{"name":"清瀬市立中清戸第1第2学童クラブ","province":"東京都","city":"清瀬市","address":"東京都清瀬市中清戸1-556-1","lat":35.775051,"lon":139.528458},{"name":"清瀬市立清瀬小第2学童クラブ","province":"東京都","city":"清瀬市","address":"東京都清瀬市中里5-624","lat":35.78533,"lon":139.52593},{"name":"清瀬市立第３保育園","province":"東京都","city":"清瀬市","address":"清瀬市旭が丘3-755-1","lat":35.79724,"lon":139.53879},{"name":"せせらぎ保育園","province":"東京都","city":"清瀬市","address":"清瀬市中里1-1704","lat":35.77921,"lon":139.51283},{"name":"すみれ保育園","province":"東京都","city":"清瀬市","address":"清瀬市中里3-1731-8","lat":35.77955,"lon":139.51706},{"name":"中里どろんこ保育園","province":"東京都","city":"清瀬市","address":"清瀬市中里6-23-1","lat":35.79083,"lon":139.52707},{"name":"のしお一丁目保育園","province":"東京都","city":"清瀬市","address":"清瀬市野塩1-322-1","lat":35.77913,"lon":139.49931},{"name":"のしお保育園","province":"東京都","city":"清瀬市","address":"清瀬市野塩5-249","lat":35.77622,"lon":139.49803},{"name":"中清戸保育園","province":"東京都","city":"清瀬市","address":"清瀬市下清戸1-21-3","lat":35.77878,"lon":139.53598},{"name":"きよせ保育園","province":"東京都","city":"清瀬市","address":"清瀬市上清戸2-5-40","lat":35.77921,"lon":139.51973},{"name":"清瀬駅前保育園","province":"東京都","city":"清瀬市","address":"清瀬市元町1-9-15","lat":35.77323,"lon":139.51839},{"name":"メリーポピンズ清瀬ルーム","province":"東京都","city":"清瀬市","address":"清瀬市松山1-40-2","lat":35.76819,"lon":139.51726},{"name":"メリーポピンズ松山ルーム","province":"東京都","city":"清瀬市","address":"清瀬市松山1-40-24","lat":35.76819,"lon":139.51726},{"name":"清瀬どろんこ保育園","province":"東京都","city":"清瀬市","address":"清瀬市松山3-1-24","lat":35.77222,"lon":139.51265},{"name":"清瀬市立第１保育園","province":"東京都","city":"清瀬市","address":"清瀬市松山3-1-73","lat":35.77222,"lon":139.51265},{"name":"清瀬市立第７保育園","province":"東京都","city":"清瀬市","address":"清瀬市竹丘1-15-11","lat":35.76803,"lon":139.51082},{"name":"清瀬上宮保育園","province":"東京都","city":"清瀬市","address":"清瀬市竹丘3-8-1","lat":35.76622,"lon":139.50188},{"name":"清瀬駅前乳児保育園","province":"東京都","city":"清瀬市","address":"清瀬市元町1-4-17","lat":35.77325,"lon":139.52049},{"name":"中里どろんこ保育園","province":"東京都","city":"清瀬市","address":"清瀬市中里6-23-1","lat":35.790082,"lon":139.527966},{"name":"駅前乳児保育園","province":"東京都","city":"清瀬市","address":"清瀬市元町1-4-17","lat":35.77325,"lon":139.52049},{"name":"清瀬市立乳児保育園","province":"東京都","city":"清瀬市","address":"清瀬市梅園2-9-38","lat":35.77246,"lon":139.50479},{"name":"清瀬市立梅園第1第2第3学童クラブ","province":"東京都","city":"清瀬市","address":"東京都清瀬市梅園2-9-38","lat":35.771999,"lon":139.505174},{"name":"清瀬市立清明小第1第2学童クラブ","province":"東京都","city":"清瀬市","address":"東京都清瀬市旭が丘2-8-1","lat":35.796885,"lon":139.539993},{"name":"清瀬市立四小学童クラブ","province":"東京都","city":"清瀬市","address":"東京都清瀬市中里2-1471","lat":35.783236,"lon":139.510435},{"name":"清瀬市立八小第1第2学童クラブ","province":"東京都","city":"清瀬市","address":"東京都清瀬市中清戸4-1070","lat":35.787303,"lon":139.530847},{"name":"清瀬市立竹丘第1第２学童クラブ","province":"東京都","city":"清瀬市","address":"東京都清瀬市竹丘1-15-11","lat":35.767616,"lon":139.511404},{"name":"清瀬市立芝山小第1第2学童クラブ","province":"東京都","city":"清瀬市","address":"東京都清瀬市元町2-16-8","lat":35.775359,"lon":139.511204},{"name":"清瀬市立清瀬小第1学童クラブ","province":"東京都","city":"清瀬市","address":"東京都清瀬市中里5-741","lat":35.785211,"lon":139.525606},{"name":"清瀬市立三小第1第2学童クラブ","province":"東京都","city":"清瀬市","address":"東京都清瀬市竹丘1-15-4","lat":35.768568,"lon":139.509927},{"name":"清瀬市立中清戸第1第2学童クラブ","province":"東京都","city":"清瀬市","address":"東京都清瀬市中清戸1-556-1","lat":35.775051,"lon":139.528458},{"name":"清瀬市立清瀬小第2学童クラブ","province":"東京都","city":"清瀬市","address":"東京都清瀬市中里5-624","lat":35.78533,"lon":139.52593},{"name":"清瀬市立第３保育園","province":"東京都","city":"清瀬市","address":"清瀬市旭が丘3-755-1","lat":35.79724,"lon":139.53879},{"name":"せせらぎ保育園","province":"東京都","city":"清瀬市","address":"清瀬市中里1-1704","lat":35.77921,"lon":139.51283},{"name":"すみれ保育園","province":"東京都","city":"清瀬市","address":"清瀬市中里3-1731-8","lat":35.77955,"lon":139.51706},{"name":"中里どろんこ保育園","province":"東京都","city":"清瀬市","address":"清瀬市中里6-23-1","lat":35.79083,"lon":139.52707},{"name":"のしお一丁目保育園","province":"東京都","city":"清瀬市","address":"清瀬市野塩1-322-1","lat":35.77913,"lon":139.49931},{"name":"のしお保育園","province":"東京都","city":"清瀬市","address":"清瀬市野塩5-249","lat":35.77622,"lon":139.49803},{"name":"中清戸保育園","province":"東京都","city":"清瀬市","address":"清瀬市下清戸1-21-3","lat":35.77878,"lon":139.53598},{"name":"きよせ保育園","province":"東京都","city":"清瀬市","address":"清瀬市上清戸2-5-40","lat":35.77921,"lon":139.51973},{"name":"清瀬駅前保育園","province":"東京都","city":"清瀬市","address":"清瀬市元町1-9-15","lat":35.77323,"lon":139.51839},{"name":"メリーポピンズ清瀬ルーム","province":"東京都","city":"清瀬市","address":"清瀬市松山1-40-2","lat":35.76819,"lon":139.51726},{"name":"メリーポピンズ松山ルーム","province":"東京都","city":"清瀬市","address":"清瀬市松山1-40-24","lat":35.76819,"lon":139.51726},{"name":"清瀬どろんこ保育園","province":"東京都","city":"清瀬市","address":"清瀬市松山3-1-24","lat":35.77222,"lon":139.51265},{"name":"清瀬市立第１保育園","province":"東京都","city":"清瀬市","address":"清瀬市松山3-1-73","lat":35.77222,"lon":139.51265},{"name":"清瀬市立第７保育園","province":"東京都","city":"清瀬市","address":"清瀬市竹丘1-15-11","lat":35.76803,"lon":139.51082},{"name":"清瀬上宮保育園","province":"東京都","city":"清瀬市","address":"清瀬市竹丘3-8-1","lat":35.76622,"lon":139.50188},{"name":"清瀬駅前乳児保育園","province":"東京都","city":"清瀬市","address":"清瀬市元町1-4-17","lat":35.77325,"lon":139.52049},{"name":"中里どろんこ保育園","province":"東京都","city":"清瀬市","address":"清瀬市中里6-23-1","lat":35.790082,"lon":139.527966},{"name":"駅前乳児保育園","province":"東京都","city":"清瀬市","address":"清瀬市元町1-4-17","lat":35.77325,"lon":139.52049},{"name":"清瀬市立乳児保育園","province":"東京都","city":"清瀬市","address":"清瀬市梅園2-9-38","lat":35.77246,"lon":139.50479},{"name":"清瀬市立梅園第1第2第3学童クラブ","province":"東京都","city":"清瀬市","address":"東京都清瀬市梅園2-9-38","lat":35.771999,"lon":139.505174},{"name":"清瀬市立清明小第1第2学童クラブ","province":"東京都","city":"清瀬市","address":"東京都清瀬市旭が丘2-8-1","lat":35.796885,"lon":139.539993},{"name":"清瀬市立四小学童クラブ","province":"東京都","city":"清瀬市","address":"東京都清瀬市中里2-1471","lat":35.783236,"lon":139.510435},{"name":"清瀬市立八小第1第2学童クラブ","province":"東京都","city":"清瀬市","address":"東京都清瀬市中清戸4-1070","lat":35.787303,"lon":139.530847},{"name":"清瀬市立竹丘第1第２学童クラブ","province":"東京都","city":"清瀬市","address":"東京都清瀬市竹丘1-15-11","lat":35.767616,"lon":139.511404},{"name":"清瀬市立芝山小第1第2学童クラブ","province":"東京都","city":"清瀬市","address":"東京都清瀬市元町2-16-8","lat":35.775359,"lon":139.511204},{"name":"清瀬市立清瀬小第1学童クラブ","province":"東京都","city":"清瀬市","address":"東京都清瀬市中里5-741","lat":35.785211,"lon":139.525606},{"name":"清瀬市立三小第1第2学童クラブ","province":"東京都","city":"清瀬市","address":"東京都清瀬市竹丘1-15-4","lat":35.768568,"lon":139.509927},{"name":"清瀬市立中清戸第1第2学童クラブ","province":"東京都","city":"清瀬市","address":"東京都清瀬市中清戸1-556-1","lat":35.775051,"lon":139.528458},{"name":"清瀬市立清瀬小第2学童クラブ","province":"東京都","city":"清瀬市","address":"東京都清瀬市中里5-624","lat":35.78533,"lon":139.52593},{"name":"清瀬市立第３保育園","province":"東京都","city":"清瀬市","address":"清瀬市旭が丘3-755-1","lat":35.79724,"lon":139.53879},{"name":"せせらぎ保育園","province":"東京都","city":"清瀬市","address":"清瀬市中里1-1704","lat":35.77921,"lon":139.51283},{"name":"すみれ保育園","province":"東京都","city":"清瀬市","address":"清瀬市中里3-1731-8","lat":35.77955,"lon":139.51706},{"name":"中里どろんこ保育園","province":"東京都","city":"清瀬市","address":"清瀬市中里6-23-1","lat":35.79083,"lon":139.52707},{"name":"のしお一丁目保育園","province":"東京都","city":"清瀬市","address":"清瀬市野塩1-322-1","lat":35.77913,"lon":139.49931},{"name":"のしお保育園","province":"東京都","city":"清瀬市","address":"清瀬市野塩5-249","lat":35.77622,"lon":139.49803},{"name":"中清戸保育園","province":"東京都","city":"清瀬市","address":"清瀬市下清戸1-21-3","lat":35.77878,"lon":139.53598},{"name":"きよせ保育園","province":"東京都","city":"清瀬市","address":"清瀬市上清戸2-5-40","lat":35.77921,"lon":139.51973},{"name":"清瀬駅前保育園","province":"東京都","city":"清瀬市","address":"清瀬市元町1-9-15","lat":35.77323,"lon":139.51839},{"name":"メリーポピンズ清瀬ルーム","province":"東京都","city":"清瀬市","address":"清瀬市松山1-40-2","lat":35.76819,"lon":139.51726},{"name":"メリーポピンズ松山ルーム","province":"東京都","city":"清瀬市","address":"清瀬市松山1-40-24","lat":35.76819,"lon":139.51726},{"name":"清瀬どろんこ保育園","province":"東京都","city":"清瀬市","address":"清瀬市松山3-1-24","lat":35.77222,"lon":139.51265},{"name":"清瀬市立第１保育園","province":"東京都","city":"清瀬市","address":"清瀬市松山3-1-73","lat":35.77222,"lon":139.51265},{"name":"清瀬市立第７保育園","province":"東京都","city":"清瀬市","address":"清瀬市竹丘1-15-11","lat":35.76803,"lon":139.51082},{"name":"清瀬上宮保育園","province":"東京都","city":"清瀬市","address":"清瀬市竹丘3-8-1","lat":35.76622,"lon":139.50188},{"name":"清瀬駅前乳児保育園","province":"東京都","city":"清瀬市","address":"清瀬市元町1-4-17","lat":35.77325,"lon":139.52049},{"name":"中里どろんこ保育園","province":"東京都","city":"清瀬市","address":"清瀬市中里6-23-1","lat":35.790082,"lon":139.527966},{"name":"駅前乳児保育園","province":"東京都","city":"清瀬市","address":"清瀬市元町1-4-17","lat":35.77325,"lon":139.52049},{"name":"清瀬市立乳児保育園","province":"東京都","city":"清瀬市","address":"清瀬市梅園2-9-38","lat":35.77246,"lon":139.50479},{"name":"清瀬市立梅園第1第2第3学童クラブ","province":"東京都","city":"清瀬市","address":"東京都清瀬市梅園2-9-38","lat":35.771999,"lon":139.505174},{"name":"清瀬市立清明小第1第2学童クラブ","province":"東京都","city":"清瀬市","address":"東京都清瀬市旭が丘2-8-1","lat":35.796885,"lon":139.539993},{"name":"清瀬市立四小学童クラブ","province":"東京都","city":"清瀬市","address":"東京都清瀬市中里2-1471","lat":35.783236,"lon":139.510435},{"name":"清瀬市立八小第1第2学童クラブ","province":"東京都","city":"清瀬市","address":"東京都清瀬市中清戸4-1070","lat":35.787303,"lon":139.530847},{"name":"清瀬市立竹丘第1第２学童クラブ","province":"東京都","city":"清瀬市","address":"東京都清瀬市竹丘1-15-11","lat":35.767616,"lon":139.511404},{"name":"清瀬市立芝山小第1第2学童クラブ","province":"東京都","city":"清瀬市","address":"東京都清瀬市元町2-16-8","lat":35.775359,"lon":139.511204},{"name":"清瀬市立清瀬小第1学童クラブ","province":"東京都","city":"清瀬市","address":"東京都清瀬市中里5-741","lat":35.785211,"lon":139.525606},{"name":"清瀬市立三小第1第2学童クラブ","province":"東京都","city":"清瀬市","address":"東京都清瀬市竹丘1-15-4","lat":35.768568,"lon":139.509927},{"name":"清瀬市立中清戸第1第2学童クラブ","province":"東京都","city":"清瀬市","address":"東京都清瀬市中清戸1-556-1","lat":35.775051,"lon":139.528458},{"name":"清瀬市立清瀬小第2学童クラブ","province":"東京都","city":"清瀬市","address":"東京都清瀬市中里5-624","lat":35.78533,"lon":139.52593},{"name":"清瀬市立第３保育園","province":"東京都","city":"清瀬市","address":"清瀬市旭が丘3-755-1","lat":35.79724,"lon":139.53879},{"name":"せせらぎ保育園","province":"東京都","city":"清瀬市","address":"清瀬市中里1-1704","lat":35.77921,"lon":139.51283},{"name":"すみれ保育園","province":"東京都","city":"清瀬市","address":"清瀬市中里3-1731-8","lat":35.77955,"lon":139.51706},{"name":"中里どろんこ保育園","province":"東京都","city":"清瀬市","address":"清瀬市中里6-23-1","lat":35.79083,"lon":139.52707},{"name":"のしお一丁目保育園","province":"東京都","city":"清瀬市","address":"清瀬市野塩1-322-1","lat":35.77913,"lon":139.49931},{"name":"のしお保育園","province":"東京都","city":"清瀬市","address":"清瀬市野塩5-249","lat":35.77622,"lon":139.49803},{"name":"中清戸保育園","province":"東京都","city":"清瀬市","address":"清瀬市下清戸1-21-3","lat":35.77878,"lon":139.53598},{"name":"きよせ保育園","province":"東京都","city":"清瀬市","address":"清瀬市上清戸2-5-40","lat":35.77921,"lon":139.51973},{"name":"清瀬駅前保育園","province":"東京都","city":"清瀬市","address":"清瀬市元町1-9-15","lat":35.77323,"lon":139.51839},{"name":"メリーポピンズ清瀬ルーム","province":"東京都","city":"清瀬市","address":"清瀬市松山1-40-2","lat":35.76819,"lon":139.51726},{"name":"メリーポピンズ松山ルーム","province":"東京都","city":"清瀬市","address":"清瀬市松山1-40-24","lat":35.76819,"lon":139.51726},{"name":"清瀬どろんこ保育園","province":"東京都","city":"清瀬市","address":"清瀬市松山3-1-24","lat":35.77222,"lon":139.51265},{"name":"清瀬市立第１保育園","province":"東京都","city":"清瀬市","address":"清瀬市松山3-1-73","lat":35.77222,"lon":139.51265},{"name":"清瀬市立第７保育園","province":"東京都","city":"清瀬市","address":"清瀬市竹丘1-15-11","lat":35.76803,"lon":139.51082},{"name":"清瀬上宮保育園","province":"東京都","city":"清瀬市","address":"清瀬市竹丘3-8-1","lat":35.76622,"lon":139.50188},{"name":"清瀬駅前乳児保育園","province":"東京都","city":"清瀬市","address":"清瀬市元町1-4-17","lat":35.77325,"lon":139.52049},{"name":"中里どろんこ保育園","province":"東京都","city":"清瀬市","address":"清瀬市中里6-23-1","lat":35.790082,"lon":139.527966},{"name":"駅前乳児保育園","province":"東京都","city":"清瀬市","address":"清瀬市元町1-4-17","lat":35.77325,"lon":139.52049},{"name":"清瀬市立乳児保育園","province":"東京都","city":"清瀬市","address":"清瀬市梅園2-9-38","lat":35.77246,"lon":139.50479},{"name":"清瀬市立梅園第1第2第3学童クラブ","province":"東京都","city":"清瀬市","address":"東京都清瀬市梅園2-9-38","lat":35.771999,"lon":139.505174},{"name":"清瀬市立清明小第1第2学童クラブ","province":"東京都","city":"清瀬市","address":"東京都清瀬市旭が丘2-8-1","lat":35.796885,"lon":139.539993},{"name":"清瀬市立四小学童クラブ","province":"東京都","city":"清瀬市","address":"東京都清瀬市中里2-1471","lat":35.783236,"lon":139.510435},{"name":"清瀬市立八小第1第2学童クラブ","province":"東京都","city":"清瀬市","address":"東京都清瀬市中清戸4-1070","lat":35.787303,"lon":139.530847},{"name":"清瀬市立竹丘第1第２学童クラブ","province":"東京都","city":"清瀬市","address":"東京都清瀬市竹丘1-15-11","lat":35.767616,"lon":139.511404},{"name":"清瀬市立芝山小第1第2学童クラブ","province":"東京都","city":"清瀬市","address":"東京都清瀬市元町2-16-8","lat":35.775359,"lon":139.511204},{"name":"清瀬市立清瀬小第1学童クラブ","province":"東京都","city":"清瀬市","address":"東京都清瀬市中里5-741","lat":35.785211,"lon":139.525606},{"name":"清瀬市立三小第1第2学童クラブ","province":"東京都","city":"清瀬市","address":"東京都清瀬市竹丘1-15-4","lat":35.768568,"lon":139.509927},{"name":"清瀬市立中清戸第1第2学童クラブ","province":"東京都","city":"清瀬市","address":"東京都清瀬市中清戸1-556-1","lat":35.775051,"lon":139.528458},{"name":"清瀬市立清瀬小第2学童クラブ","province":"東京都","city":"清瀬市","address":"東京都清瀬市中里5-624","lat":35.78533,"lon":139.52593},{"name":"清瀬市立第３保育園","province":"東京都","city":"清瀬市","address":"清瀬市旭が丘3-755-1","lat":35.79724,"lon":139.53879},{"name":"せせらぎ保育園","province":"東京都","city":"清瀬市","address":"清瀬市中里1-1704","lat":35.77921,"lon":139.51283},{"name":"すみれ保育園","province":"東京都","city":"清瀬市","address":"清瀬市中里3-1731-8","lat":35.77955,"lon":139.51706},{"name":"中里どろんこ保育園","province":"東京都","city":"清瀬市","address":"清瀬市中里6-23-1","lat":35.79083,"lon":139.52707},{"name":"のしお一丁目保育園","province":"東京都","city":"清瀬市","address":"清瀬市野塩1-322-1","lat":35.77913,"lon":139.49931},{"name":"のしお保育園","province":"東京都","city":"清瀬市","address":"清瀬市野塩5-249","lat":35.77622,"lon":139.49803},{"name":"中清戸保育園","province":"東京都","city":"清瀬市","address":"清瀬市下清戸1-21-3","lat":35.77878,"lon":139.53598},{"name":"きよせ保育園","province":"東京都","city":"清瀬市","address":"清瀬市上清戸2-5-40","lat":35.77921,"lon":139.51973},{"name":"清瀬駅前保育園","province":"東京都","city":"清瀬市","address":"清瀬市元町1-9-15","lat":35.77323,"lon":139.51839},{"name":"メリーポピンズ清瀬ルーム","province":"東京都","city":"清瀬市","address":"清瀬市松山1-40-2","lat":35.76819,"lon":139.51726},{"name":"メリーポピンズ松山ルーム","province":"東京都","city":"清瀬市","address":"清瀬市松山1-40-24","lat":35.76819,"lon":139.51726},{"name":"清瀬どろんこ保育園","province":"東京都","city":"清瀬市","address":"清瀬市松山3-1-24","lat":35.77222,"lon":139.51265},{"name":"清瀬市立第１保育園","province":"東京都","city":"清瀬市","address":"清瀬市松山3-1-73","lat":35.77222,"lon":139.51265},{"name":"清瀬市立第７保育園","province":"東京都","city":"清瀬市","address":"清瀬市竹丘1-15-11","lat":35.76803,"lon":139.51082},{"name":"清瀬上宮保育園","province":"東京都","city":"清瀬市","address":"清瀬市竹丘3-8-1","lat":35.76622,"lon":139.50188},{"name":"清瀬駅前乳児保育園","province":"東京都","city":"清瀬市","address":"清瀬市元町1-4-17","lat":35.77325,"lon":139.52049},{"name":"中里どろんこ保育園","province":"東京都","city":"清瀬市","address":"清瀬市中里6-23-1","lat":35.790082,"lon":139.527966},{"name":"駅前乳児保育園","province":"東京都","city":"清瀬市","address":"清瀬市元町1-4-17","lat":35.77325,"lon":139.52049},{"name":"清瀬市立乳児保育園","province":"東京都","city":"清瀬市","address":"清瀬市梅園2-9-38","lat":35.77246,"lon":139.50479},{"name":"清瀬市立梅園第1第2第3学童クラブ","province":"東京都","city":"清瀬市","address":"東京都清瀬市梅園2-9-38","lat":35.771999,"lon":139.505174},{"name":"清瀬市立清明小第1第2学童クラブ","province":"東京都","city":"清瀬市","address":"東京都清瀬市旭が丘2-8-1","lat":35.796885,"lon":139.539993},{"name":"清瀬市立四小学童クラブ","province":"東京都","city":"清瀬市","address":"東京都清瀬市中里2-1471","lat":35.783236,"lon":139.510435},{"name":"清瀬市立八小第1第2学童クラブ","province":"東京都","city":"清瀬市","address":"東京都清瀬市中清戸4-1070","lat":35.787303,"lon":139.530847},{"name":"清瀬市立竹丘第1第２学童クラブ","province":"東京都","city":"清瀬市","address":"東京都清瀬市竹丘1-15-11","lat":35.767616,"lon":139.511404},{"name":"清瀬市立芝山小第1第2学童クラブ","province":"東京都","city":"清瀬市","address":"東京都清瀬市元町2-16-8","lat":35.775359,"lon":139.511204},{"name":"清瀬市立清瀬小第1学童クラブ","province":"東京都","city":"清瀬市","address":"東京都清瀬市中里5-741","lat":35.785211,"lon":139.525606},{"name":"清瀬市立三小第1第2学童クラブ","province":"東京都","city":"清瀬市","address":"東京都清瀬市竹丘1-15-4","lat":35.768568,"lon":139.509927},{"name":"清瀬市立中清戸第1第2学童クラブ","province":"東京都","city":"清瀬市","address":"東京都清瀬市中清戸1-556-1","lat":35.775051,"lon":139.528458},{"name":"清瀬市立清瀬小第2学童クラブ","province":"東京都","city":"清瀬市","address":"東京都清瀬市中里5-624","lat":35.78533,"lon":139.52593},{"name":"清瀬市立第３保育園","province":"東京都","city":"清瀬市","address":"清瀬市旭が丘3-755-1","lat":35.79724,"lon":139.53879},{"name":"せせらぎ保育園","province":"東京都","city":"清瀬市","address":"清瀬市中里1-1704","lat":35.77921,"lon":139.51283},{"name":"すみれ保育園","province":"東京都","city":"清瀬市","address":"清瀬市中里3-1731-8","lat":35.77955,"lon":139.51706},{"name":"中里どろんこ保育園","province":"東京都","city":"清瀬市","address":"清瀬市中里6-23-1","lat":35.79083,"lon":139.52707},{"name":"のしお一丁目保育園","province":"東京都","city":"清瀬市","address":"清瀬市野塩1-322-1","lat":35.77913,"lon":139.49931},{"name":"のしお保育園","province":"東京都","city":"清瀬市","address":"清瀬市野塩5-249","lat":35.77622,"lon":139.49803},{"name":"中清戸保育園","province":"東京都","city":"清瀬市","address":"清瀬市下清戸1-21-3","lat":35.77878,"lon":139.53598},{"name":"きよせ保育園","province":"東京都","city":"清瀬市","address":"清瀬市上清戸2-5-40","lat":35.77921,"lon":139.51973},{"name":"清瀬駅前保育園","province":"東京都","city":"清瀬市","address":"清瀬市元町1-9-15","lat":35.77323,"lon":139.51839},{"name":"メリーポピンズ清瀬ルーム","province":"東京都","city":"清瀬市","address":"清瀬市松山1-40-2","lat":35.76819,"lon":139.51726},{"name":"メリーポピンズ松山ルーム","province":"東京都","city":"清瀬市","address":"清瀬市松山1-40-24","lat":35.76819,"lon":139.51726},{"name":"清瀬どろんこ保育園","province":"東京都","city":"清瀬市","address":"清瀬市松山3-1-24","lat":35.77222,"lon":139.51265},{"name":"清瀬市立第１保育園","province":"東京都","city":"清瀬市","address":"清瀬市松山3-1-73","lat":35.77222,"lon":139.51265},{"name":"清瀬市立第７保育園","province":"東京都","city":"清瀬市","address":"清瀬市竹丘1-15-11","lat":35.76803,"lon":139.51082},{"name":"清瀬上宮保育園","province":"東京都","city":"清瀬市","address":"清瀬市竹丘3-8-1","lat":35.76622,"lon":139.50188},{"name":"清瀬駅前乳児保育園","province":"東京都","city":"清瀬市","address":"清瀬市元町1-4-17","lat":35.77325,"lon":139.52049},{"name":"中里どろんこ保育園","province":"東京都","city":"清瀬市","address":"清瀬市中里6-23-1","lat":35.790082,"lon":139.527966},{"name":"駅前乳児保育園","province":"東京都","city":"清瀬市","address":"清瀬市元町1-4-17","lat":35.77325,"lon":139.52049},{"name":"清瀬市立乳児保育園","province":"東京都","city":"清瀬市","address":"清瀬市梅園2-9-38","lat":35.77246,"lon":139.50479},{"name":"清瀬市立梅園第1第2第3学童クラブ","province":"東京都","city":"清瀬市","address":"東京都清瀬市梅園2-9-38","lat":35.771999,"lon":139.505174},{"name":"清瀬市立清明小第1第2学童クラブ","province":"東京都","city":"清瀬市","address":"東京都清瀬市旭が丘2-8-1","lat":35.796885,"lon":139.539993},{"name":"清瀬市立四小学童クラブ","province":"東京都","city":"清瀬市","address":"東京都清瀬市中里2-1471","lat":35.783236,"lon":139.510435},{"name":"清瀬市立八小第1第2学童クラブ","province":"東京都","city":"清瀬市","address":"東京都清瀬市中清戸4-1070","lat":35.787303,"lon":139.530847},{"name":"清瀬市立竹丘第1第２学童クラブ","province":"東京都","city":"清瀬市","address":"東京都清瀬市竹丘1-15-11","lat":35.767616,"lon":139.511404},{"name":"清瀬市立芝山小第1第2学童クラブ","province":"東京都","city":"清瀬市","address":"東京都清瀬市元町2-16-8","lat":35.775359,"lon":139.511204},{"name":"清瀬市立清瀬小第1学童クラブ","province":"東京都","city":"清瀬市","address":"東京都清瀬市中里5-741","lat":35.785211,"lon":139.525606},{"name":"清瀬市立三小第1第2学童クラブ","province":"東京都","city":"清瀬市","address":"東京都清瀬市竹丘1-15-4","lat":35.768568,"lon":139.509927},{"name":"清瀬市立中清戸第1第2学童クラブ","province":"東京都","city":"清瀬市","address":"東京都清瀬市中清戸1-556-1","lat":35.775051,"lon":139.528458},{"name":"清瀬市立清瀬小第2学童クラブ","province":"東京都","city":"清瀬市","address":"東京都清瀬市中里5-624","lat":35.78533,"lon":139.52593},{"name":"清瀬市立第３保育園","province":"東京都","city":"清瀬市","address":"清瀬市旭が丘3-755-1","lat":35.79724,"lon":139.53879},{"name":"せせらぎ保育園","province":"東京都","city":"清瀬市","address":"清瀬市中里1-1704","lat":35.77921,"lon":139.51283},{"name":"すみれ保育園","province":"東京都","city":"清瀬市","address":"清瀬市中里3-1731-8","lat":35.77955,"lon":139.51706},{"name":"中里どろんこ保育園","province":"東京都","city":"清瀬市","address":"清瀬市中里6-23-1","lat":35.79083,"lon":139.52707},{"name":"のしお一丁目保育園","province":"東京都","city":"清瀬市","address":"清瀬市野塩1-322-1","lat":35.77913,"lon":139.49931},{"name":"のしお保育園","province":"東京都","city":"清瀬市","address":"清瀬市野塩5-249","lat":35.77622,"lon":139.49803},{"name":"中清戸保育園","province":"東京都","city":"清瀬市","address":"清瀬市下清戸1-21-3","lat":35.77878,"lon":139.53598},{"name":"きよせ保育園","province":"東京都","city":"清瀬市","address":"清瀬市上清戸2-5-40","lat":35.77921,"lon":139.51973},{"name":"清瀬駅前保育園","province":"東京都","city":"清瀬市","address":"清瀬市元町1-9-15","lat":35.77323,"lon":139.51839},{"name":"メリーポピンズ清瀬ルーム","province":"東京都","city":"清瀬市","address":"清瀬市松山1-40-2","lat":35.76819,"lon":139.51726},{"name":"メリーポピンズ松山ルーム","province":"東京都","city":"清瀬市","address":"清瀬市松山1-40-24","lat":35.76819,"lon":139.51726},{"name":"清瀬どろんこ保育園","province":"東京都","city":"清瀬市","address":"清瀬市松山3-1-24","lat":35.77222,"lon":139.51265},{"name":"清瀬市立第１保育園","province":"東京都","city":"清瀬市","address":"清瀬市松山3-1-73","lat":35.77222,"lon":139.51265},{"name":"清瀬市立第７保育園","province":"東京都","city":"清瀬市","address":"清瀬市竹丘1-15-11","lat":35.76803,"lon":139.51082},{"name":"清瀬上宮保育園","province":"東京都","city":"清瀬市","address":"清瀬市竹丘3-8-1","lat":35.76622,"lon":139.50188},{"name":"清瀬駅前乳児保育園","province":"東京都","city":"清瀬市","address":"清瀬市元町1-4-17","lat":35.77325,"lon":139.52049},{"name":"中里どろんこ保育園","province":"東京都","city":"清瀬市","address":"清瀬市中里6-23-1","lat":35.790082,"lon":139.527966},{"name":"駅前乳児保育園","province":"東京都","city":"清瀬市","address":"清瀬市元町1-4-17","lat":35.77325,"lon":139.52049},{"name":"清瀬市立乳児保育園","province":"東京都","city":"清瀬市","address":"清瀬市梅園2-9-38","lat":35.77246,"lon":139.50479},{"name":"清瀬市立梅園第1第2第3学童クラブ","province":"東京都","city":"清瀬市","address":"東京都清瀬市梅園2-9-38","lat":35.771999,"lon":139.505174},{"name":"清瀬市立清明小第1第2学童クラブ","province":"東京都","city":"清瀬市","address":"東京都清瀬市旭が丘2-8-1","lat":35.796885,"lon":139.539993},{"name":"清瀬市立四小学童クラブ","province":"東京都","city":"清瀬市","address":"東京都清瀬市中里2-1471","lat":35.783236,"lon":139.510435},{"name":"清瀬市立八小第1第2学童クラブ","province":"東京都","city":"清瀬市","address":"東京都清瀬市中清戸4-1070","lat":35.787303,"lon":139.530847},{"name":"清瀬市立竹丘第1第２学童クラブ","province":"東京都","city":"清瀬市","address":"東京都清瀬市竹丘1-15-11","lat":35.767616,"lon":139.511404},{"name":"清瀬市立芝山小第1第2学童クラブ","province":"東京都","city":"清瀬市","address":"東京都清瀬市元町2-16-8","lat":35.775359,"lon":139.511204},{"name":"清瀬市立清瀬小第1学童クラブ","province":"東京都","city":"清瀬市","address":"東京都清瀬市中里5-741","lat":35.785211,"lon":139.525606},{"name":"清瀬市立三小第1第2学童クラブ","province":"東京都","city":"清瀬市","address":"東京都清瀬市竹丘1-15-4","lat":35.768568,"lon":139.509927},{"name":"清瀬市立中清戸第1第2学童クラブ","province":"東京都","city":"清瀬市","address":"東京都清瀬市中清戸1-556-1","lat":35.775051,"lon":139.528458},{"name":"清瀬市立清瀬小第2学童クラブ","province":"東京都","city":"清瀬市","address":"東京都清瀬市中里5-624","lat":35.78533,"lon":139.52593},{"name":"清瀬市立第３保育園","province":"東京都","city":"清瀬市","address":"清瀬市旭が丘3-755-1","lat":35.79724,"lon":139.53879},{"name":"せせらぎ保育園","province":"東京都","city":"清瀬市","address":"清瀬市中里1-1704","lat":35.77921,"lon":139.51283},{"name":"すみれ保育園","province":"東京都","city":"清瀬市","address":"清瀬市中里3-1731-8","lat":35.77955,"lon":139.51706},{"name":"中里どろんこ保育園","province":"東京都","city":"清瀬市","address":"清瀬市中里6-23-1","lat":35.79083,"lon":139.52707},{"name":"のしお一丁目保育園","province":"東京都","city":"清瀬市","address":"清瀬市野塩1-322-1","lat":35.77913,"lon":139.49931},{"name":"のしお保育園","province":"東京都","city":"清瀬市","address":"清瀬市野塩5-249","lat":35.77622,"lon":139.49803},{"name":"中清戸保育園","province":"東京都","city":"清瀬市","address":"清瀬市下清戸1-21-3","lat":35.77878,"lon":139.53598},{"name":"きよせ保育園","province":"東京都","city":"清瀬市","address":"清瀬市上清戸2-5-40","lat":35.77921,"lon":139.51973},{"name":"清瀬駅前保育園","province":"東京都","city":"清瀬市","address":"清瀬市元町1-9-15","lat":35.77323,"lon":139.51839},{"name":"メリーポピンズ清瀬ルーム","province":"東京都","city":"清瀬市","address":"清瀬市松山1-40-2","lat":35.76819,"lon":139.51726},{"name":"メリーポピンズ松山ルーム","province":"東京都","city":"清瀬市","address":"清瀬市松山1-40-24","lat":35.76819,"lon":139.51726},{"name":"清瀬どろんこ保育園","province":"東京都","city":"清瀬市","address":"清瀬市松山3-1-24","lat":35.77222,"lon":139.51265},{"name":"清瀬市立第１保育園","province":"東京都","city":"清瀬市","address":"清瀬市松山3-1-73","lat":35.77222,"lon":139.51265},{"name":"清瀬市立第７保育園","province":"東京都","city":"清瀬市","address":"清瀬市竹丘1-15-11","lat":35.76803,"lon":139.51082},{"name":"清瀬上宮保育園","province":"東京都","city":"清瀬市","address":"清瀬市竹丘3-8-1","lat":35.76622,"lon":139.50188},{"name":"清瀬駅前乳児保育園","province":"東京都","city":"清瀬市","address":"清瀬市元町1-4-17","lat":35.77325,"lon":139.52049},{"name":"中里どろんこ保育園","province":"東京都","city":"清瀬市","address":"清瀬市中里6-23-1","lat":35.790082,"lon":139.527966},{"name":"駅前乳児保育園","province":"東京都","city":"清瀬市","address":"清瀬市元町1-4-17","lat":35.77325,"lon":139.52049},{"name":"清瀬市立乳児保育園","province":"東京都","city":"清瀬市","address":"清瀬市梅園2-9-38","lat":35.77246,"lon":139.50479},{"name":"清瀬市立梅園第1第2第3学童クラブ","province":"東京都","city":"清瀬市","address":"東京都清瀬市梅園2-9-38","lat":35.771999,"lon":139.505174},{"name":"清瀬市立清明小第1第2学童クラブ","province":"東京都","city":"清瀬市","address":"東京都清瀬市旭が丘2-8-1","lat":35.796885,"lon":139.539993},{"name":"清瀬市立四小学童クラブ","province":"東京都","city":"清瀬市","address":"東京都清瀬市中里2-1471","lat":35.783236,"lon":139.510435},{"name":"清瀬市立八小第1第2学童クラブ","province":"東京都","city":"清瀬市","address":"東京都清瀬市中清戸4-1070","lat":35.787303,"lon":139.530847},{"name":"清瀬市立竹丘第1第２学童クラブ","province":"東京都","city":"清瀬市","address":"東京都清瀬市竹丘1-15-11","lat":35.767616,"lon":139.511404},{"name":"清瀬市立芝山小第1第2学童クラブ","province":"東京都","city":"清瀬市","address":"東京都清瀬市元町2-16-8","lat":35.775359,"lon":139.511204},{"name":"清瀬市立清瀬小第1学童クラブ","province":"東京都","city":"清瀬市","address":"東京都清瀬市中里5-741","lat":35.785211,"lon":139.525606},{"name":"清瀬市立三小第1第2学童クラブ","province":"東京都","city":"清瀬市","address":"東京都清瀬市竹丘1-15-4","lat":35.768568,"lon":139.509927},{"name":"清瀬市立中清戸第1第2学童クラブ","province":"東京都","city":"清瀬市","address":"東京都清瀬市中清戸1-556-1","lat":35.775051,"lon":139.528458},{"name":"清瀬市立清瀬小第2学童クラブ","province":"東京都","city":"清瀬市","address":"東京都清瀬市中里5-624","lat":35.78533,"lon":139.52593},{"name":"清瀬市立第３保育園","province":"東京都","city":"清瀬市","address":"清瀬市旭が丘3-755-1","lat":35.79724,"lon":139.53879},{"name":"せせらぎ保育園","province":"東京都","city":"清瀬市","address":"清瀬市中里1-1704","lat":35.77921,"lon":139.51283},{"name":"すみれ保育園","province":"東京都","city":"清瀬市","address":"清瀬市中里3-1731-8","lat":35.77955,"lon":139.51706},{"name":"中里どろんこ保育園","province":"東京都","city":"清瀬市","address":"清瀬市中里6-23-1","lat":35.79083,"lon":139.52707},{"name":"のしお一丁目保育園","province":"東京都","city":"清瀬市","address":"清瀬市野塩1-322-1","lat":35.77913,"lon":139.49931},{"name":"のしお保育園","province":"東京都","city":"清瀬市","address":"清瀬市野塩5-249","lat":35.77622,"lon":139.49803},{"name":"中清戸保育園","province":"東京都","city":"清瀬市","address":"清瀬市下清戸1-21-3","lat":35.77878,"lon":139.53598},{"name":"きよせ保育園","province":"東京都","city":"清瀬市","address":"清瀬市上清戸2-5-40","lat":35.77921,"lon":139.51973},{"name":"清瀬駅前保育園","province":"東京都","city":"清瀬市","address":"清瀬市元町1-9-15","lat":35.77323,"lon":139.51839},{"name":"メリーポピンズ清瀬ルーム","province":"東京都","city":"清瀬市","address":"清瀬市松山1-40-2","lat":35.76819,"lon":139.51726},{"name":"メリーポピンズ松山ルーム","province":"東京都","city":"清瀬市","address":"清瀬市松山1-40-24","lat":35.76819,"lon":139.51726},{"name":"清瀬どろんこ保育園","province":"東京都","city":"清瀬市","address":"清瀬市松山3-1-24","lat":35.77222,"lon":139.51265},{"name":"清瀬市立第１保育園","province":"東京都","city":"清瀬市","address":"清瀬市松山3-1-73","lat":35.77222,"lon":139.51265},{"name":"清瀬市立第７保育園","province":"東京都","city":"清瀬市","address":"清瀬市竹丘1-15-11","lat":35.76803,"lon":139.51082},{"name":"清瀬上宮保育園","province":"東京都","city":"清瀬市","address":"清瀬市竹丘3-8-1","lat":35.76622,"lon":139.50188},{"name":"清瀬駅前乳児保育園","province":"東京都","city":"清瀬市","address":"清瀬市元町1-4-17","lat":35.77325,"lon":139.52049},{"name":"中里どろんこ保育園","province":"東京都","city":"清瀬市","address":"清瀬市中里6-23-1","lat":35.790082,"lon":139.527966},{"name":"駅前乳児保育園","province":"東京都","city":"清瀬市","address":"清瀬市元町1-4-17","lat":35.77325,"lon":139.52049},{"name":"清瀬市立乳児保育園","province":"東京都","city":"清瀬市","address":"清瀬市梅園2-9-38","lat":35.77246,"lon":139.50479},{"name":"清瀬市立梅園第1第2第3学童クラブ","province":"東京都","city":"清瀬市","address":"東京都清瀬市梅園2-9-38","lat":35.771999,"lon":139.505174},{"name":"清瀬市立清明小第1第2学童クラブ","province":"東京都","city":"清瀬市","address":"東京都清瀬市旭が丘2-8-1","lat":35.796885,"lon":139.539993},{"name":"清瀬市立四小学童クラブ","province":"東京都","city":"清瀬市","address":"東京都清瀬市中里2-1471","lat":35.783236,"lon":139.510435},{"name":"清瀬市立八小第1第2学童クラブ","province":"東京都","city":"清瀬市","address":"東京都清瀬市中清戸4-1070","lat":35.787303,"lon":139.530847},{"name":"清瀬市立竹丘第1第２学童クラブ","province":"東京都","city":"清瀬市","address":"東京都清瀬市竹丘1-15-11","lat":35.767616,"lon":139.511404},{"name":"清瀬市立芝山小第1第2学童クラブ","province":"東京都","city":"清瀬市","address":"東京都清瀬市元町2-16-8","lat":35.775359,"lon":139.511204},{"name":"清瀬市立清瀬小第1学童クラブ","province":"東京都","city":"清瀬市","address":"東京都清瀬市中里5-741","lat":35.785211,"lon":139.525606},{"name":"清瀬市立三小第1第2学童クラブ","province":"東京都","city":"清瀬市","address":"東京都清瀬市竹丘1-15-4","lat":35.768568,"lon":139.509927},{"name":"清瀬市立中清戸第1第2学童クラブ","province":"東京都","city":"清瀬市","address":"東京都清瀬市中清戸1-556-1","lat":35.775051,"lon":139.528458},{"name":"清瀬市立清瀬小第2学童クラブ","province":"東京都","city":"清瀬市","address":"東京都清瀬市中里5-624","lat":35.78533,"lon":139.52593},{"name":"清瀬市立第３保育園","province":"東京都","city":"清瀬市","address":"清瀬市旭が丘3-755-1","lat":35.79724,"lon":139.53879},{"name":"せせらぎ保育園","province":"東京都","city":"清瀬市","address":"清瀬市中里1-1704","lat":35.77921,"lon":139.51283},{"name":"すみれ保育園","province":"東京都","city":"清瀬市","address":"清瀬市中里3-1731-8","lat":35.77955,"lon":139.51706},{"name":"中里どろんこ保育園","province":"東京都","city":"清瀬市","address":"清瀬市中里6-23-1","lat":35.79083,"lon":139.52707},{"name":"のしお一丁目保育園","province":"東京都","city":"清瀬市","address":"清瀬市野塩1-322-1","lat":35.77913,"lon":139.49931},{"name":"のしお保育園","province":"東京都","city":"清瀬市","address":"清瀬市野塩5-249","lat":35.77622,"lon":139.49803},{"name":"中清戸保育園","province":"東京都","city":"清瀬市","address":"清瀬市下清戸1-21-3","lat":35.77878,"lon":139.53598},{"name":"きよせ保育園","province":"東京都","city":"清瀬市","address":"清瀬市上清戸2-5-40","lat":35.77921,"lon":139.51973},{"name":"清瀬駅前保育園","province":"東京都","city":"清瀬市","address":"清瀬市元町1-9-15","lat":35.77323,"lon":139.51839},{"name":"メリーポピンズ清瀬ルーム","province":"東京都","city":"清瀬市","address":"清瀬市松山1-40-2","lat":35.76819,"lon":139.51726},{"name":"メリーポピンズ松山ルーム","province":"東京都","city":"清瀬市","address":"清瀬市松山1-40-24","lat":35.76819,"lon":139.51726},{"name":"清瀬どろんこ保育園","province":"東京都","city":"清瀬市","address":"清瀬市松山3-1-24","lat":35.77222,"lon":139.51265},{"name":"清瀬市立第１保育園","province":"東京都","city":"清瀬市","address":"清瀬市松山3-1-73","lat":35.77222,"lon":139.51265},{"name":"清瀬市立第７保育園","province":"東京都","city":"清瀬市","address":"清瀬市竹丘1-15-11","lat":35.76803,"lon":139.51082},{"name":"清瀬上宮保育園","province":"東京都","city":"清瀬市","address":"清瀬市竹丘3-8-1","lat":35.76622,"lon":139.50188},{"name":"清瀬駅前乳児保育園","province":"東京都","city":"清瀬市","address":"清瀬市元町1-4-17","lat":35.77325,"lon":139.52049},{"name":"中里どろんこ保育園","province":"東京都","city":"清瀬市","address":"清瀬市中里6-23-1","lat":35.790082,"lon":139.527966},{"name":"駅前乳児保育園","province":"東京都","city":"清瀬市","address":"清瀬市元町1-4-17","lat":35.77325,"lon":139.52049},{"name":"清瀬市立乳児保育園","province":"東京都","city":"清瀬市","address":"清瀬市梅園2-9-38","lat":35.77246,"lon":139.50479},{"name":"清瀬市立梅園第1第2第3学童クラブ","province":"東京都","city":"清瀬市","address":"東京都清瀬市梅園2-9-38","lat":35.771999,"lon":139.505174},{"name":"清瀬市立清明小第1第2学童クラブ","province":"東京都","city":"清瀬市","address":"東京都清瀬市旭が丘2-8-1","lat":35.796885,"lon":139.539993},{"name":"清瀬市立四小学童クラブ","province":"東京都","city":"清瀬市","address":"東京都清瀬市中里2-1471","lat":35.783236,"lon":139.510435},{"name":"清瀬市立八小第1第2学童クラブ","province":"東京都","city":"清瀬市","address":"東京都清瀬市中清戸4-1070","lat":35.787303,"lon":139.530847},{"name":"清瀬市立竹丘第1第２学童クラブ","province":"東京都","city":"清瀬市","address":"東京都清瀬市竹丘1-15-11","lat":35.767616,"lon":139.511404},{"name":"清瀬市立芝山小第1第2学童クラブ","province":"東京都","city":"清瀬市","address":"東京都清瀬市元町2-16-8","lat":35.775359,"lon":139.511204},{"name":"清瀬市立清瀬小第1学童クラブ","province":"東京都","city":"清瀬市","address":"東京都清瀬市中里5-741","lat":35.785211,"lon":139.525606},{"name":"清瀬市立三小第1第2学童クラブ","province":"東京都","city":"清瀬市","address":"東京都清瀬市竹丘1-15-4","lat":35.768568,"lon":139.509927},{"name":"清瀬市立中清戸第1第2学童クラブ","province":"東京都","city":"清瀬市","address":"東京都清瀬市中清戸1-556-1","lat":35.775051,"lon":139.528458},{"name":"清瀬市立清瀬小第2学童クラブ","province":"東京都","city":"清瀬市","address":"東京都清瀬市中里5-624","lat":35.78533,"lon":139.52593},{"name":"清瀬市立第３保育園","province":"東京都","city":"清瀬市","address":"清瀬市旭が丘3-755-1","lat":35.79724,"lon":139.53879},{"name":"せせらぎ保育園","province":"東京都","city":"清瀬市","address":"清瀬市中里1-1704","lat":35.77921,"lon":139.51283},{"name":"すみれ保育園","province":"東京都","city":"清瀬市","address":"清瀬市中里3-1731-8","lat":35.77955,"lon":139.51706},{"name":"中里どろんこ保育園","province":"東京都","city":"清瀬市","address":"清瀬市中里6-23-1","lat":35.79083,"lon":139.52707},{"name":"のしお一丁目保育園","province":"東京都","city":"清瀬市","address":"清瀬市野塩1-322-1","lat":35.77913,"lon":139.49931},{"name":"のしお保育園","province":"東京都","city":"清瀬市","address":"清瀬市野塩5-249","lat":35.77622,"lon":139.49803},{"name":"中清戸保育園","province":"東京都","city":"清瀬市","address":"清瀬市下清戸1-21-3","lat":35.77878,"lon":139.53598},{"name":"きよせ保育園","province":"東京都","city":"清瀬市","address":"清瀬市上清戸2-5-40","lat":35.77921,"lon":139.51973},{"name":"清瀬駅前保育園","province":"東京都","city":"清瀬市","address":"清瀬市元町1-9-15","lat":35.77323,"lon":139.51839},{"name":"メリーポピンズ清瀬ルーム","province":"東京都","city":"清瀬市","address":"清瀬市松山1-40-2","lat":35.76819,"lon":139.51726},{"name":"メリーポピンズ松山ルーム","province":"東京都","city":"清瀬市","address":"清瀬市松山1-40-24","lat":35.76819,"lon":139.51726},{"name":"清瀬どろんこ保育園","province":"東京都","city":"清瀬市","address":"清瀬市松山3-1-24","lat":35.77222,"lon":139.51265},{"name":"清瀬市立第１保育園","province":"東京都","city":"清瀬市","address":"清瀬市松山3-1-73","lat":35.77222,"lon":139.51265},{"name":"清瀬市立第７保育園","province":"東京都","city":"清瀬市","address":"清瀬市竹丘1-15-11","lat":35.76803,"lon":139.51082},{"name":"清瀬上宮保育園","province":"東京都","city":"清瀬市","address":"清瀬市竹丘3-8-1","lat":35.76622,"lon":139.50188},{"name":"清瀬駅前乳児保育園","province":"東京都","city":"清瀬市","address":"清瀬市元町1-4-17","lat":35.77325,"lon":139.52049},{"name":"中里どろんこ保育園","province":"東京都","city":"清瀬市","address":"清瀬市中里6-23-1","lat":35.790082,"lon":139.527966},{"name":"駅前乳児保育園","province":"東京都","city":"清瀬市","address":"清瀬市元町1-4-17","lat":35.77325,"lon":139.52049},{"name":"清瀬市立乳児保育園","province":"東京都","city":"清瀬市","address":"清瀬市梅園2-9-38","lat":35.77246,"lon":139.50479},{"name":"清瀬市立梅園第1第2第3学童クラブ","province":"東京都","city":"清瀬市","address":"東京都清瀬市梅園2-9-38","lat":35.771999,"lon":139.505174},{"name":"清瀬市立清明小第1第2学童クラブ","province":"東京都","city":"清瀬市","address":"東京都清瀬市旭が丘2-8-1","lat":35.796885,"lon":139.539993},{"name":"清瀬市立四小学童クラブ","province":"東京都","city":"清瀬市","address":"東京都清瀬市中里2-1471","lat":35.783236,"lon":139.510435},{"name":"清瀬市立八小第1第2学童クラブ","province":"東京都","city":"清瀬市","address":"東京都清瀬市中清戸4-1070","lat":35.787303,"lon":139.530847},{"name":"清瀬市立竹丘第1第２学童クラブ","province":"東京都","city":"清瀬市","address":"東京都清瀬市竹丘1-15-11","lat":35.767616,"lon":139.511404},{"name":"清瀬市立芝山小第1第2学童クラブ","province":"東京都","city":"清瀬市","address":"東京都清瀬市元町2-16-8","lat":35.775359,"lon":139.511204},{"name":"清瀬市立清瀬小第1学童クラブ","province":"東京都","city":"清瀬市","address":"東京都清瀬市中里5-741","lat":35.785211,"lon":139.525606},{"name":"清瀬市立三小第1第2学童クラブ","province":"東京都","city":"清瀬市","address":"東京都清瀬市竹丘1-15-4","lat":35.768568,"lon":139.509927},{"name":"清瀬市立中清戸第1第2学童クラブ","province":"東京都","city":"清瀬市","address":"東京都清瀬市中清戸1-556-1","lat":35.775051,"lon":139.528458},{"name":"清瀬市立清瀬小第2学童クラブ","province":"東京都","city":"清瀬市","address":"東京都清瀬市中里5-624","lat":35.78533,"lon":139.52593},{"name":"清瀬市立第３保育園","province":"東京都","city":"清瀬市","address":"清瀬市旭が丘3-755-1","lat":35.79724,"lon":139.53879},{"name":"せせらぎ保育園","province":"東京都","city":"清瀬市","address":"清瀬市中里1-1704","lat":35.77921,"lon":139.51283},{"name":"すみれ保育園","province":"東京都","city":"清瀬市","address":"清瀬市中里3-1731-8","lat":35.77955,"lon":139.51706},{"name":"中里どろんこ保育園","province":"東京都","city":"清瀬市","address":"清瀬市中里6-23-1","lat":35.79083,"lon":139.52707},{"name":"のしお一丁目保育園","province":"東京都","city":"清瀬市","address":"清瀬市野塩1-322-1","lat":35.77913,"lon":139.49931},{"name":"のしお保育園","province":"東京都","city":"清瀬市","address":"清瀬市野塩5-249","lat":35.77622,"lon":139.49803},{"name":"中清戸保育園","province":"東京都","city":"清瀬市","address":"清瀬市下清戸1-21-3","lat":35.77878,"lon":139.53598},{"name":"きよせ保育園","province":"東京都","city":"清瀬市","address":"清瀬市上清戸2-5-40","lat":35.77921,"lon":139.51973},{"name":"清瀬駅前保育園","province":"東京都","city":"清瀬市","address":"清瀬市元町1-9-15","lat":35.77323,"lon":139.51839},{"name":"メリーポピンズ清瀬ルーム","province":"東京都","city":"清瀬市","address":"清瀬市松山1-40-2","lat":35.76819,"lon":139.51726},{"name":"メリーポピンズ松山ルーム","province":"東京都","city":"清瀬市","address":"清瀬市松山1-40-24","lat":35.76819,"lon":139.51726},{"name":"清瀬どろんこ保育園","province":"東京都","city":"清瀬市","address":"清瀬市松山3-1-24","lat":35.77222,"lon":139.51265},{"name":"清瀬市立第１保育園","province":"東京都","city":"清瀬市","address":"清瀬市松山3-1-73","lat":35.77222,"lon":139.51265},{"name":"清瀬市立第７保育園","province":"東京都","city":"清瀬市","address":"清瀬市竹丘1-15-11","lat":35.76803,"lon":139.51082},{"name":"清瀬上宮保育園","province":"東京都","city":"清瀬市","address":"清瀬市竹丘3-8-1","lat":35.76622,"lon":139.50188},{"name":"清瀬駅前乳児保育園","province":"東京都","city":"清瀬市","address":"清瀬市元町1-4-17","lat":35.77325,"lon":139.52049},{"name":"中里どろんこ保育園","province":"東京都","city":"清瀬市","address":"清瀬市中里6-23-1","lat":35.790082,"lon":139.527966},{"name":"駅前乳児保育園","province":"東京都","city":"清瀬市","address":"清瀬市元町1-4-17","lat":35.77325,"lon":139.52049},{"name":"清瀬市立乳児保育園","province":"東京都","city":"清瀬市","address":"清瀬市梅園2-9-38","lat":35.77246,"lon":139.50479},{"name":"清瀬市立梅園第1第2第3学童クラブ","province":"東京都","city":"清瀬市","address":"東京都清瀬市梅園2-9-38","lat":35.771999,"lon":139.505174},{"name":"清瀬市立清明小第1第2学童クラブ","province":"東京都","city":"清瀬市","address":"東京都清瀬市旭が丘2-8-1","lat":35.796885,"lon":139.539993},{"name":"清瀬市立四小学童クラブ","province":"東京都","city":"清瀬市","address":"東京都清瀬市中里2-1471","lat":35.783236,"lon":139.510435},{"name":"清瀬市立八小第1第2学童クラブ","province":"東京都","city":"清瀬市","address":"東京都清瀬市中清戸4-1070","lat":35.787303,"lon":139.530847},{"name":"清瀬市立竹丘第1第２学童クラブ","province":"東京都","city":"清瀬市","address":"東京都清瀬市竹丘1-15-11","lat":35.767616,"lon":139.511404},{"name":"清瀬市立芝山小第1第2学童クラブ","province":"東京都","city":"清瀬市","address":"東京都清瀬市元町2-16-8","lat":35.775359,"lon":139.511204},{"name":"清瀬市立清瀬小第1学童クラブ","province":"東京都","city":"清瀬市","address":"東京都清瀬市中里5-741","lat":35.785211,"lon":139.525606},{"name":"清瀬市立三小第1第2学童クラブ","province":"東京都","city":"清瀬市","address":"東京都清瀬市竹丘1-15-4","lat":35.768568,"lon":139.509927},{"name":"清瀬市立中清戸第1第2学童クラブ","province":"東京都","city":"清瀬市","address":"東京都清瀬市中清戸1-556-1","lat":35.775051,"lon":139.528458},{"name":"清瀬市立清瀬小第2学童クラブ","province":"東京都","city":"清瀬市","address":"東京都清瀬市中里5-624","lat":35.78533,"lon":139.52593},{"name":"清瀬市立第３保育園","province":"東京都","city":"清瀬市","address":"清瀬市旭が丘3-755-1","lat":35.79724,"lon":139.53879},{"name":"せせらぎ保育園","province":"東京都","city":"清瀬市","address":"清瀬市中里1-1704","lat":35.77921,"lon":139.51283},{"name":"すみれ保育園","province":"東京都","city":"清瀬市","address":"清瀬市中里3-1731-8","lat":35.77955,"lon":139.51706},{"name":"中里どろんこ保育園","province":"東京都","city":"清瀬市","address":"清瀬市中里6-23-1","lat":35.79083,"lon":139.52707},{"name":"のしお一丁目保育園","province":"東京都","city":"清瀬市","address":"清瀬市野塩1-322-1","lat":35.77913,"lon":139.49931},{"name":"のしお保育園","province":"東京都","city":"清瀬市","address":"清瀬市野塩5-249","lat":35.77622,"lon":139.49803},{"name":"中清戸保育園","province":"東京都","city":"清瀬市","address":"清瀬市下清戸1-21-3","lat":35.77878,"lon":139.53598},{"name":"きよせ保育園","province":"東京都","city":"清瀬市","address":"清瀬市上清戸2-5-40","lat":35.77921,"lon":139.51973},{"name":"清瀬駅前保育園","province":"東京都","city":"清瀬市","address":"清瀬市元町1-9-15","lat":35.77323,"lon":139.51839},{"name":"メリーポピンズ清瀬ルーム","province":"東京都","city":"清瀬市","address":"清瀬市松山1-40-2","lat":35.76819,"lon":139.51726},{"name":"メリーポピンズ松山ルーム","province":"東京都","city":"清瀬市","address":"清瀬市松山1-40-24","lat":35.76819,"lon":139.51726},{"name":"清瀬どろんこ保育園","province":"東京都","city":"清瀬市","address":"清瀬市松山3-1-24","lat":35.77222,"lon":139.51265},{"name":"清瀬市立第１保育園","province":"東京都","city":"清瀬市","address":"清瀬市松山3-1-73","lat":35.77222,"lon":139.51265},{"name":"清瀬市立第７保育園","province":"東京都","city":"清瀬市","address":"清瀬市竹丘1-15-11","lat":35.76803,"lon":139.51082},{"name":"清瀬上宮保育園","province":"東京都","city":"清瀬市","address":"清瀬市竹丘3-8-1","lat":35.76622,"lon":139.50188},{"name":"清瀬駅前乳児保育園","province":"東京都","city":"清瀬市","address":"清瀬市元町1-4-17","lat":35.77325,"lon":139.52049},{"name":"中里どろんこ保育園","province":"東京都","city":"清瀬市","address":"清瀬市中里6-23-1","lat":35.790082,"lon":139.527966},{"name":"駅前乳児保育園","province":"東京都","city":"清瀬市","address":"清瀬市元町1-4-17","lat":35.77325,"lon":139.52049},{"name":"清瀬市立乳児保育園","province":"東京都","city":"清瀬市","address":"清瀬市梅園2-9-38","lat":35.77246,"lon":139.50479},{"name":"清瀬市立梅園第1第2第3学童クラブ","province":"東京都","city":"清瀬市","address":"東京都清瀬市梅園2-9-38","lat":35.771999,"lon":139.505174},{"name":"清瀬市立清明小第1第2学童クラブ","province":"東京都","city":"清瀬市","address":"東京都清瀬市旭が丘2-8-1","lat":35.796885,"lon":139.539993},{"name":"清瀬市立四小学童クラブ","province":"東京都","city":"清瀬市","address":"東京都清瀬市中里2-1471","lat":35.783236,"lon":139.510435},{"name":"清瀬市立八小第1第2学童クラブ","province":"東京都","city":"清瀬市","address":"東京都清瀬市中清戸4-1070","lat":35.787303,"lon":139.530847},{"name":"清瀬市立竹丘第1第２学童クラブ","province":"東京都","city":"清瀬市","address":"東京都清瀬市竹丘1-15-11","lat":35.767616,"lon":139.511404},{"name":"清瀬市立芝山小第1第2学童クラブ","province":"東京都","city":"清瀬市","address":"東京都清瀬市元町2-16-8","lat":35.775359,"lon":139.511204},{"name":"清瀬市立清瀬小第1学童クラブ","province":"東京都","city":"清瀬市","address":"東京都清瀬市中里5-741","lat":35.785211,"lon":139.525606},{"name":"清瀬市立三小第1第2学童クラブ","province":"東京都","city":"清瀬市","address":"東京都清瀬市竹丘1-15-4","lat":35.768568,"lon":139.509927},{"name":"清瀬市立中清戸第1第2学童クラブ","province":"東京都","city":"清瀬市","address":"東京都清瀬市中清戸1-556-1","lat":35.775051,"lon":139.528458},{"name":"清瀬市立清瀬小第2学童クラブ","province":"東京都","city":"清瀬市","address":"東京都清瀬市中里5-624","lat":35.78533,"lon":139.52593},{"name":"清瀬市立第３保育園","province":"東京都","city":"清瀬市","address":"清瀬市旭が丘3-755-1","lat":35.79724,"lon":139.53879},{"name":"せせらぎ保育園","province":"東京都","city":"清瀬市","address":"清瀬市中里1-1704","lat":35.77921,"lon":139.51283},{"name":"すみれ保育園","province":"東京都","city":"清瀬市","address":"清瀬市中里3-1731-8","lat":35.77955,"lon":139.51706},{"name":"中里どろんこ保育園","province":"東京都","city":"清瀬市","address":"清瀬市中里6-23-1","lat":35.79083,"lon":139.52707},{"name":"のしお一丁目保育園","province":"東京都","city":"清瀬市","address":"清瀬市野塩1-322-1","lat":35.77913,"lon":139.49931},{"name":"のしお保育園","province":"東京都","city":"清瀬市","address":"清瀬市野塩5-249","lat":35.77622,"lon":139.49803},{"name":"中清戸保育園","province":"東京都","city":"清瀬市","address":"清瀬市下清戸1-21-3","lat":35.77878,"lon":139.53598},{"name":"きよせ保育園","province":"東京都","city":"清瀬市","address":"清瀬市上清戸2-5-40","lat":35.77921,"lon":139.51973},{"name":"清瀬駅前保育園","province":"東京都","city":"清瀬市","address":"清瀬市元町1-9-15","lat":35.77323,"lon":139.51839},{"name":"メリーポピンズ清瀬ルーム","province":"東京都","city":"清瀬市","address":"清瀬市松山1-40-2","lat":35.76819,"lon":139.51726},{"name":"メリーポピンズ松山ルーム","province":"東京都","city":"清瀬市","address":"清瀬市松山1-40-24","lat":35.76819,"lon":139.51726},{"name":"清瀬どろんこ保育園","province":"東京都","city":"清瀬市","address":"清瀬市松山3-1-24","lat":35.77222,"lon":139.51265},{"name":"清瀬市立第１保育園","province":"東京都","city":"清瀬市","address":"清瀬市松山3-1-73","lat":35.77222,"lon":139.51265},{"name":"清瀬市立第７保育園","province":"東京都","city":"清瀬市","address":"清瀬市竹丘1-15-11","lat":35.76803,"lon":139.51082},{"name":"清瀬上宮保育園","province":"東京都","city":"清瀬市","address":"清瀬市竹丘3-8-1","lat":35.76622,"lon":139.50188},{"name":"清瀬駅前乳児保育園","province":"東京都","city":"清瀬市","address":"清瀬市元町1-4-17","lat":35.77325,"lon":139.52049},{"name":"中里どろんこ保育園","province":"東京都","city":"清瀬市","address":"清瀬市中里6-23-1","lat":35.790082,"lon":139.527966},{"name":"駅前乳児保育園","province":"東京都","city":"清瀬市","address":"清瀬市元町1-4-17","lat":35.77325,"lon":139.52049},{"name":"清瀬市立乳児保育園","province":"東京都","city":"清瀬市","address":"清瀬市梅園2-9-38","lat":35.77246,"lon":139.50479},{"name":"清瀬市立梅園第1第2第3学童クラブ","province":"東京都","city":"清瀬市","address":"東京都清瀬市梅園2-9-38","lat":35.771999,"lon":139.505174},{"name":"清瀬市立清明小第1第2学童クラブ","province":"東京都","city":"清瀬市","address":"東京都清瀬市旭が丘2-8-1","lat":35.796885,"lon":139.539993},{"name":"清瀬市立四小学童クラブ","province":"東京都","city":"清瀬市","address":"東京都清瀬市中里2-1471","lat":35.783236,"lon":139.510435},{"name":"清瀬市立八小第1第2学童クラブ","province":"東京都","city":"清瀬市","address":"東京都清瀬市中清戸4-1070","lat":35.787303,"lon":139.530847},{"name":"清瀬市立竹丘第1第２学童クラブ","province":"東京都","city":"清瀬市","address":"東京都清瀬市竹丘1-15-11","lat":35.767616,"lon":139.511404},{"name":"清瀬市立芝山小第1第2学童クラブ","province":"東京都","city":"清瀬市","address":"東京都清瀬市元町2-16-8","lat":35.775359,"lon":139.511204},{"name":"清瀬市立清瀬小第1学童クラブ","province":"東京都","city":"清瀬市","address":"東京都清瀬市中里5-741","lat":35.785211,"lon":139.525606},{"name":"清瀬市立三小第1第2学童クラブ","province":"東京都","city":"清瀬市","address":"東京都清瀬市竹丘1-15-4","lat":35.768568,"lon":139.509927},{"name":"清瀬市立中清戸第1第2学童クラブ","province":"東京都","city":"清瀬市","address":"東京都清瀬市中清戸1-556-1","lat":35.775051,"lon":139.528458},{"name":"清瀬市立清瀬小第2学童クラブ","province":"東京都","city":"清瀬市","address":"東京都清瀬市中里5-624","lat":35.78533,"lon":139.52593},{"name":"清瀬市立第３保育園","province":"東京都","city":"清瀬市","address":"清瀬市旭が丘3-755-1","lat":35.79724,"lon":139.53879},{"name":"せせらぎ保育園","province":"東京都","city":"清瀬市","address":"清瀬市中里1-1704","lat":35.77921,"lon":139.51283},{"name":"すみれ保育園","province":"東京都","city":"清瀬市","address":"清瀬市中里3-1731-8","lat":35.77955,"lon":139.51706},{"name":"中里どろんこ保育園","province":"東京都","city":"清瀬市","address":"清瀬市中里6-23-1","lat":35.79083,"lon":139.52707},{"name":"のしお一丁目保育園","province":"東京都","city":"清瀬市","address":"清瀬市野塩1-322-1","lat":35.77913,"lon":139.49931},{"name":"のしお保育園","province":"東京都","city":"清瀬市","address":"清瀬市野塩5-249","lat":35.77622,"lon":139.49803},{"name":"中清戸保育園","province":"東京都","city":"清瀬市","address":"清瀬市下清戸1-21-3","lat":35.77878,"lon":139.53598},{"name":"きよせ保育園","province":"東京都","city":"清瀬市","address":"清瀬市上清戸2-5-40","lat":35.77921,"lon":139.51973},{"name":"清瀬駅前保育園","province":"東京都","city":"清瀬市","address":"清瀬市元町1-9-15","lat":35.77323,"lon":139.51839},{"name":"メリーポピンズ清瀬ルーム","province":"東京都","city":"清瀬市","address":"清瀬市松山1-40-2","lat":35.76819,"lon":139.51726},{"name":"メリーポピンズ松山ルーム","province":"東京都","city":"清瀬市","address":"清瀬市松山1-40-24","lat":35.76819,"lon":139.51726},{"name":"清瀬どろんこ保育園","province":"東京都","city":"清瀬市","address":"清瀬市松山3-1-24","lat":35.77222,"lon":139.51265},{"name":"清瀬市立第１保育園","province":"東京都","city":"清瀬市","address":"清瀬市松山3-1-73","lat":35.77222,"lon":139.51265},{"name":"清瀬市立第７保育園","province":"東京都","city":"清瀬市","address":"清瀬市竹丘1-15-11","lat":35.76803,"lon":139.51082},{"name":"清瀬上宮保育園","province":"東京都","city":"清瀬市","address":"清瀬市竹丘3-8-1","lat":35.76622,"lon":139.50188},{"name":"清瀬駅前乳児保育園","province":"東京都","city":"清瀬市","address":"清瀬市元町1-4-17","lat":35.77325,"lon":139.52049},{"name":"中里どろんこ保育園","province":"東京都","city":"清瀬市","address":"清瀬市中里6-23-1","lat":35.790082,"lon":139.527966},{"name":"駅前乳児保育園","province":"東京都","city":"清瀬市","address":"清瀬市元町1-4-17","lat":35.77325,"lon":139.52049},{"name":"清瀬市立乳児保育園","province":"東京都","city":"清瀬市","address":"清瀬市梅園2-9-38","lat":35.77246,"lon":139.50479},{"name":"清瀬市立梅園第1第2第3学童クラブ","province":"東京都","city":"清瀬市","address":"東京都清瀬市梅園2-9-38","lat":35.771999,"lon":139.505174},{"name":"清瀬市立清明小第1第2学童クラブ","province":"東京都","city":"清瀬市","address":"東京都清瀬市旭が丘2-8-1","lat":35.796885,"lon":139.539993},{"name":"清瀬市立四小学童クラブ","province":"東京都","city":"清瀬市","address":"東京都清瀬市中里2-1471","lat":35.783236,"lon":139.510435},{"name":"清瀬市立八小第1第2学童クラブ","province":"東京都","city":"清瀬市","address":"東京都清瀬市中清戸4-1070","lat":35.787303,"lon":139.530847},{"name":"清瀬市立竹丘第1第２学童クラブ","province":"東京都","city":"清瀬市","address":"東京都清瀬市竹丘1-15-11","lat":35.767616,"lon":139.511404},{"name":"清瀬市立芝山小第1第2学童クラブ","province":"東京都","city":"清瀬市","address":"東京都清瀬市元町2-16-8","lat":35.775359,"lon":139.511204},{"name":"清瀬市立清瀬小第1学童クラブ","province":"東京都","city":"清瀬市","address":"東京都清瀬市中里5-741","lat":35.785211,"lon":139.525606},{"name":"清瀬市立三小第1第2学童クラブ","province":"東京都","city":"清瀬市","address":"東京都清瀬市竹丘1-15-4","lat":35.768568,"lon":139.509927},{"name":"清瀬市立中清戸第1第2学童クラブ","province":"東京都","city":"清瀬市","address":"東京都清瀬市中清戸1-556-1","lat":35.775051,"lon":139.528458},{"name":"清瀬市立清瀬小第2学童クラブ","province":"東京都","city":"清瀬市","address":"東京都清瀬市中里5-624","lat":35.78533,"lon":139.52593},{"name":"清瀬市立第３保育園","province":"東京都","city":"清瀬市","address":"清瀬市旭が丘3-755-1","lat":35.79724,"lon":139.53879},{"name":"せせらぎ保育園","province":"東京都","city":"清瀬市","address":"清瀬市中里1-1704","lat":35.77921,"lon":139.51283},{"name":"すみれ保育園","province":"東京都","city":"清瀬市","address":"清瀬市中里3-1731-8","lat":35.77955,"lon":139.51706},{"name":"中里どろんこ保育園","province":"東京都","city":"清瀬市","address":"清瀬市中里6-23-1","lat":35.79083,"lon":139.52707},{"name":"のしお一丁目保育園","province":"東京都","city":"清瀬市","address":"清瀬市野塩1-322-1","lat":35.77913,"lon":139.49931},{"name":"のしお保育園","province":"東京都","city":"清瀬市","address":"清瀬市野塩5-249","lat":35.77622,"lon":139.49803},{"name":"中清戸保育園","province":"東京都","city":"清瀬市","address":"清瀬市下清戸1-21-3","lat":35.77878,"lon":139.53598},{"name":"きよせ保育園","province":"東京都","city":"清瀬市","address":"清瀬市上清戸2-5-40","lat":35.77921,"lon":139.51973},{"name":"清瀬駅前保育園","province":"東京都","city":"清瀬市","address":"清瀬市元町1-9-15","lat":35.77323,"lon":139.51839},{"name":"メリーポピンズ清瀬ルーム","province":"東京都","city":"清瀬市","address":"清瀬市松山1-40-2","lat":35.76819,"lon":139.51726},{"name":"メリーポピンズ松山ルーム","province":"東京都","city":"清瀬市","address":"清瀬市松山1-40-24","lat":35.76819,"lon":139.51726},{"name":"清瀬どろんこ保育園","province":"東京都","city":"清瀬市","address":"清瀬市松山3-1-24","lat":35.77222,"lon":139.51265},{"name":"清瀬市立第１保育園","province":"東京都","city":"清瀬市","address":"清瀬市松山3-1-73","lat":35.77222,"lon":139.51265},{"name":"清瀬市立第７保育園","province":"東京都","city":"清瀬市","address":"清瀬市竹丘1-15-11","lat":35.76803,"lon":139.51082},{"name":"清瀬上宮保育園","province":"東京都","city":"清瀬市","address":"清瀬市竹丘3-8-1","lat":35.76622,"lon":139.50188},{"name":"清瀬駅前乳児保育園","province":"東京都","city":"清瀬市","address":"清瀬市元町1-4-17","lat":35.77325,"lon":139.52049},{"name":"中里どろんこ保育園","province":"東京都","city":"清瀬市","address":"清瀬市中里6-23-1","lat":35.790082,"lon":139.527966},{"name":"駅前乳児保育園","province":"東京都","city":"清瀬市","address":"清瀬市元町1-4-17","lat":35.77325,"lon":139.52049},{"name":"清瀬市立乳児保育園","province":"東京都","city":"清瀬市","address":"清瀬市梅園2-9-38","lat":35.77246,"lon":139.50479},{"name":"清瀬市立梅園第1第2第3学童クラブ","province":"東京都","city":"清瀬市","address":"東京都清瀬市梅園2-9-38","lat":35.771999,"lon":139.505174},{"name":"清瀬市立清明小第1第2学童クラブ","province":"東京都","city":"清瀬市","address":"東京都清瀬市旭が丘2-8-1","lat":35.796885,"lon":139.539993},{"name":"清瀬市立四小学童クラブ","province":"東京都","city":"清瀬市","address":"東京都清瀬市中里2-1471","lat":35.783236,"lon":139.510435},{"name":"清瀬市立八小第1第2学童クラブ","province":"東京都","city":"清瀬市","address":"東京都清瀬市中清戸4-1070","lat":35.787303,"lon":139.530847},{"name":"清瀬市立竹丘第1第２学童クラブ","province":"東京都","city":"清瀬市","address":"東京都清瀬市竹丘1-15-11","lat":35.767616,"lon":139.511404},{"name":"清瀬市立芝山小第1第2学童クラブ","province":"東京都","city":"清瀬市","address":"東京都清瀬市元町2-16-8","lat":35.775359,"lon":139.511204},{"name":"清瀬市立清瀬小第1学童クラブ","province":"東京都","city":"清瀬市","address":"東京都清瀬市中里5-741","lat":35.785211,"lon":139.525606},{"name":"清瀬市立三小第1第2学童クラブ","province":"東京都","city":"清瀬市","address":"東京都清瀬市竹丘1-15-4","lat":35.768568,"lon":139.509927},{"name":"清瀬市立中清戸第1第2学童クラブ","province":"東京都","city":"清瀬市","address":"東京都清瀬市中清戸1-556-1","lat":35.775051,"lon":139.528458},{"name":"清瀬市立清瀬小第2学童クラブ","province":"東京都","city":"清瀬市","address":"東京都清瀬市中里5-624","lat":35.78533,"lon":139.52593},{"name":"清瀬市立第３保育園","province":"東京都","city":"清瀬市","address":"清瀬市旭が丘3-755-1","lat":35.79724,"lon":139.53879},{"name":"せせらぎ保育園","province":"東京都","city":"清瀬市","address":"清瀬市中里1-1704","lat":35.77921,"lon":139.51283},{"name":"すみれ保育園","province":"東京都","city":"清瀬市","address":"清瀬市中里3-1731-8","lat":35.77955,"lon":139.51706},{"name":"中里どろんこ保育園","province":"東京都","city":"清瀬市","address":"清瀬市中里6-23-1","lat":35.79083,"lon":139.52707},{"name":"のしお一丁目保育園","province":"東京都","city":"清瀬市","address":"清瀬市野塩1-322-1","lat":35.77913,"lon":139.49931},{"name":"のしお保育園","province":"東京都","city":"清瀬市","address":"清瀬市野塩5-249","lat":35.77622,"lon":139.49803},{"name":"中清戸保育園","province":"東京都","city":"清瀬市","address":"清瀬市下清戸1-21-3","lat":35.77878,"lon":139.53598},{"name":"きよせ保育園","province":"東京都","city":"清瀬市","address":"清瀬市上清戸2-5-40","lat":35.77921,"lon":139.51973},{"name":"清瀬駅前保育園","province":"東京都","city":"清瀬市","address":"清瀬市元町1-9-15","lat":35.77323,"lon":139.51839},{"name":"メリーポピンズ清瀬ルーム","province":"東京都","city":"清瀬市","address":"清瀬市松山1-40-2","lat":35.76819,"lon":139.51726},{"name":"メリーポピンズ松山ルーム","province":"東京都","city":"清瀬市","address":"清瀬市松山1-40-24","lat":35.76819,"lon":139.51726},{"name":"清瀬どろんこ保育園","province":"東京都","city":"清瀬市","address":"清瀬市松山3-1-24","lat":35.77222,"lon":139.51265},{"name":"清瀬市立第１保育園","province":"東京都","city":"清瀬市","address":"清瀬市松山3-1-73","lat":35.77222,"lon":139.51265},{"name":"清瀬市立第７保育園","province":"東京都","city":"清瀬市","address":"清瀬市竹丘1-15-11","lat":35.76803,"lon":139.51082},{"name":"清瀬上宮保育園","province":"東京都","city":"清瀬市","address":"清瀬市竹丘3-8-1","lat":35.76622,"lon":139.50188},{"name":"清瀬駅前乳児保育園","province":"東京都","city":"清瀬市","address":"清瀬市元町1-4-17","lat":35.77325,"lon":139.52049},{"name":"中里どろんこ保育園","province":"東京都","city":"清瀬市","address":"清瀬市中里6-23-1","lat":35.790082,"lon":139.527966},{"name":"駅前乳児保育園","province":"東京都","city":"清瀬市","address":"清瀬市元町1-4-17","lat":35.77325,"lon":139.52049},{"name":"清瀬市立乳児保育園","province":"東京都","city":"清瀬市","address":"清瀬市梅園2-9-38","lat":35.77246,"lon":139.50479},{"name":"清瀬市立梅園第1第2第3学童クラブ","province":"東京都","city":"清瀬市","address":"東京都清瀬市梅園2-9-38","lat":35.771999,"lon":139.505174},{"name":"清瀬市立清明小第1第2学童クラブ","province":"東京都","city":"清瀬市","address":"東京都清瀬市旭が丘2-8-1","lat":35.796885,"lon":139.539993},{"name":"清瀬市立四小学童クラブ","province":"東京都","city":"清瀬市","address":"東京都清瀬市中里2-1471","lat":35.783236,"lon":139.510435},{"name":"清瀬市立八小第1第2学童クラブ","province":"東京都","city":"清瀬市","address":"東京都清瀬市中清戸4-1070","lat":35.787303,"lon":139.530847},{"name":"清瀬市立竹丘第1第２学童クラブ","province":"東京都","city":"清瀬市","address":"東京都清瀬市竹丘1-15-11","lat":35.767616,"lon":139.511404},{"name":"清瀬市立芝山小第1第2学童クラブ","province":"東京都","city":"清瀬市","address":"東京都清瀬市元町2-16-8","lat":35.775359,"lon":139.511204},{"name":"清瀬市立清瀬小第1学童クラブ","province":"東京都","city":"清瀬市","address":"東京都清瀬市中里5-741","lat":35.785211,"lon":139.525606},{"name":"清瀬市立三小第1第2学童クラブ","province":"東京都","city":"清瀬市","address":"東京都清瀬市竹丘1-15-4","lat":35.768568,"lon":139.509927},{"name":"清瀬市立中清戸第1第2学童クラブ","province":"東京都","city":"清瀬市","address":"東京都清瀬市中清戸1-556-1","lat":35.775051,"lon":139.528458},{"name":"清瀬市立清瀬小第2学童クラブ","province":"東京都","city":"清瀬市","address":"東京都清瀬市中里5-624","lat":35.78533,"lon":139.52593},{"name":"清瀬市立第３保育園","province":"東京都","city":"清瀬市","address":"清瀬市旭が丘3-755-1","lat":35.79724,"lon":139.53879},{"name":"せせらぎ保育園","province":"東京都","city":"清瀬市","address":"清瀬市中里1-1704","lat":35.77921,"lon":139.51283},{"name":"すみれ保育園","province":"東京都","city":"清瀬市","address":"清瀬市中里3-1731-8","lat":35.77955,"lon":139.51706},{"name":"中里どろんこ保育園","province":"東京都","city":"清瀬市","address":"清瀬市中里6-23-1","lat":35.79083,"lon":139.52707},{"name":"のしお一丁目保育園","province":"東京都","city":"清瀬市","address":"清瀬市野塩1-322-1","lat":35.77913,"lon":139.49931},{"name":"のしお保育園","province":"東京都","city":"清瀬市","address":"清瀬市野塩5-249","lat":35.77622,"lon":139.49803},{"name":"中清戸保育園","province":"東京都","city":"清瀬市","address":"清瀬市下清戸1-21-3","lat":35.77878,"lon":139.53598},{"name":"きよせ保育園","province":"東京都","city":"清瀬市","address":"清瀬市上清戸2-5-40","lat":35.77921,"lon":139.51973},{"name":"清瀬駅前保育園","province":"東京都","city":"清瀬市","address":"清瀬市元町1-9-15","lat":35.77323,"lon":139.51839},{"name":"メリーポピンズ清瀬ルーム","province":"東京都","city":"清瀬市","address":"清瀬市松山1-40-2","lat":35.76819,"lon":139.51726},{"name":"メリーポピンズ松山ルーム","province":"東京都","city":"清瀬市","address":"清瀬市松山1-40-24","lat":35.76819,"lon":139.51726},{"name":"清瀬どろんこ保育園","province":"東京都","city":"清瀬市","address":"清瀬市松山3-1-24","lat":35.77222,"lon":139.51265},{"name":"清瀬市立第１保育園","province":"東京都","city":"清瀬市","address":"清瀬市松山3-1-73","lat":35.77222,"lon":139.51265},{"name":"清瀬市立第７保育園","province":"東京都","city":"清瀬市","address":"清瀬市竹丘1-15-11","lat":35.76803,"lon":139.51082},{"name":"清瀬上宮保育園","province":"東京都","city":"清瀬市","address":"清瀬市竹丘3-8-1","lat":35.76622,"lon":139.50188},{"name":"清瀬駅前乳児保育園","province":"東京都","city":"清瀬市","address":"清瀬市元町1-4-17","lat":35.77325,"lon":139.52049},{"name":"中里どろんこ保育園","province":"東京都","city":"清瀬市","address":"清瀬市中里6-23-1","lat":35.790082,"lon":139.527966},{"name":"駅前乳児保育園","province":"東京都","city":"清瀬市","address":"清瀬市元町1-4-17","lat":35.77325,"lon":139.52049},{"name":"清瀬市立乳児保育園","province":"東京都","city":"清瀬市","address":"清瀬市梅園2-9-38","lat":35.77246,"lon":139.50479},{"name":"清瀬市立梅園第1第2第3学童クラブ","province":"東京都","city":"清瀬市","address":"東京都清瀬市梅園2-9-38","lat":35.771999,"lon":139.505174},{"name":"清瀬市立清明小第1第2学童クラブ","province":"東京都","city":"清瀬市","address":"東京都清瀬市旭が丘2-8-1","lat":35.796885,"lon":139.539993},{"name":"清瀬市立四小学童クラブ","province":"東京都","city":"清瀬市","address":"東京都清瀬市中里2-1471","lat":35.783236,"lon":139.510435},{"name":"清瀬市立八小第1第2学童クラブ","province":"東京都","city":"清瀬市","address":"東京都清瀬市中清戸4-1070","lat":35.787303,"lon":139.530847},{"name":"清瀬市立竹丘第1第２学童クラブ","province":"東京都","city":"清瀬市","address":"東京都清瀬市竹丘1-15-11","lat":35.767616,"lon":139.511404},{"name":"清瀬市立芝山小第1第2学童クラブ","province":"東京都","city":"清瀬市","address":"東京都清瀬市元町2-16-8","lat":35.775359,"lon":139.511204},{"name":"清瀬市立清瀬小第1学童クラブ","province":"東京都","city":"清瀬市","address":"東京都清瀬市中里5-741","lat":35.785211,"lon":139.525606},{"name":"清瀬市立三小第1第2学童クラブ","province":"東京都","city":"清瀬市","address":"東京都清瀬市竹丘1-15-4","lat":35.768568,"lon":139.509927},{"name":"清瀬市立中清戸第1第2学童クラブ","province":"東京都","city":"清瀬市","address":"東京都清瀬市中清戸1-556-1","lat":35.775051,"lon":139.528458},{"name":"清瀬市立清瀬小第2学童クラブ","province":"東京都","city":"清瀬市","address":"東京都清瀬市中里5-624","lat":35.78533,"lon":139.52593},{"name":"清瀬市立第３保育園","province":"東京都","city":"清瀬市","address":"清瀬市旭が丘3-755-1","lat":35.79724,"lon":139.53879},{"name":"せせらぎ保育園","province":"東京都","city":"清瀬市","address":"清瀬市中里1-1704","lat":35.77921,"lon":139.51283},{"name":"すみれ保育園","province":"東京都","city":"清瀬市","address":"清瀬市中里3-1731-8","lat":35.77955,"lon":139.51706},{"name":"中里どろんこ保育園","province":"東京都","city":"清瀬市","address":"清瀬市中里6-23-1","lat":35.79083,"lon":139.52707},{"name":"のしお一丁目保育園","province":"東京都","city":"清瀬市","address":"清瀬市野塩1-322-1","lat":35.77913,"lon":139.49931},{"name":"のしお保育園","province":"東京都","city":"清瀬市","address":"清瀬市野塩5-249","lat":35.77622,"lon":139.49803},{"name":"中清戸保育園","province":"東京都","city":"清瀬市","address":"清瀬市下清戸1-21-3","lat":35.77878,"lon":139.53598},{"name":"きよせ保育園","province":"東京都","city":"清瀬市","address":"清瀬市上清戸2-5-40","lat":35.77921,"lon":139.51973},{"name":"清瀬駅前保育園","province":"東京都","city":"清瀬市","address":"清瀬市元町1-9-15","lat":35.77323,"lon":139.51839},{"name":"メリーポピンズ清瀬ルーム","province":"東京都","city":"清瀬市","address":"清瀬市松山1-40-2","lat":35.76819,"lon":139.51726},{"name":"メリーポピンズ松山ルーム","province":"東京都","city":"清瀬市","address":"清瀬市松山1-40-24","lat":35.76819,"lon":139.51726},{"name":"清瀬どろんこ保育園","province":"東京都","city":"清瀬市","address":"清瀬市松山3-1-24","lat":35.77222,"lon":139.51265},{"name":"清瀬市立第１保育園","province":"東京都","city":"清瀬市","address":"清瀬市松山3-1-73","lat":35.77222,"lon":139.51265},{"name":"清瀬市立第７保育園","province":"東京都","city":"清瀬市","address":"清瀬市竹丘1-15-11","lat":35.76803,"lon":139.51082},{"name":"清瀬上宮保育園","province":"東京都","city":"清瀬市","address":"清瀬市竹丘3-8-1","lat":35.76622,"lon":139.50188},{"name":"清瀬駅前乳児保育園","province":"東京都","city":"清瀬市","address":"清瀬市元町1-4-17","lat":35.77325,"lon":139.52049},{"name":"中里どろんこ保育園","province":"東京都","city":"清瀬市","address":"清瀬市中里6-23-1","lat":35.790082,"lon":139.527966},{"name":"駅前乳児保育園","province":"東京都","city":"清瀬市","address":"清瀬市元町1-4-17","lat":35.77325,"lon":139.52049},{"name":"清瀬市立乳児保育園","province":"東京都","city":"清瀬市","address":"清瀬市梅園2-9-38","lat":35.77246,"lon":139.50479},{"name":"清瀬市立梅園第1第2第3学童クラブ","province":"東京都","city":"清瀬市","address":"東京都清瀬市梅園2-9-38","lat":35.771999,"lon":139.505174},{"name":"清瀬市立清明小第1第2学童クラブ","province":"東京都","city":"清瀬市","address":"東京都清瀬市旭が丘2-8-1","lat":35.796885,"lon":139.539993},{"name":"清瀬市立四小学童クラブ","province":"東京都","city":"清瀬市","address":"東京都清瀬市中里2-1471","lat":35.783236,"lon":139.510435},{"name":"清瀬市立八小第1第2学童クラブ","province":"東京都","city":"清瀬市","address":"東京都清瀬市中清戸4-1070","lat":35.787303,"lon":139.530847},{"name":"清瀬市立竹丘第1第２学童クラブ","province":"東京都","city":"清瀬市","address":"東京都清瀬市竹丘1-15-11","lat":35.767616,"lon":139.511404},{"name":"清瀬市立芝山小第1第2学童クラブ","province":"東京都","city":"清瀬市","address":"東京都清瀬市元町2-16-8","lat":35.775359,"lon":139.511204},{"name":"清瀬市立清瀬小第1学童クラブ","province":"東京都","city":"清瀬市","address":"東京都清瀬市中里5-741","lat":35.785211,"lon":139.525606},{"name":"清瀬市立三小第1第2学童クラブ","province":"東京都","city":"清瀬市","address":"東京都清瀬市竹丘1-15-4","lat":35.768568,"lon":139.509927},{"name":"清瀬市立中清戸第1第2学童クラブ","province":"東京都","city":"清瀬市","address":"東京都清瀬市中清戸1-556-1","lat":35.775051,"lon":139.528458},{"name":"清瀬市立清瀬小第2学童クラブ","province":"東京都","city":"清瀬市","address":"東京都清瀬市中里5-624","lat":35.78533,"lon":139.52593},{"name":"清瀬市立第３保育園","province":"東京都","city":"清瀬市","address":"清瀬市旭が丘3-755-1","lat":35.79724,"lon":139.53879},{"name":"せせらぎ保育園","province":"東京都","city":"清瀬市","address":"清瀬市中里1-1704","lat":35.77921,"lon":139.51283},{"name":"すみれ保育園","province":"東京都","city":"清瀬市","address":"清瀬市中里3-1731-8","lat":35.77955,"lon":139.51706},{"name":"中里どろんこ保育園","province":"東京都","city":"清瀬市","address":"清瀬市中里6-23-1","lat":35.79083,"lon":139.52707},{"name":"のしお一丁目保育園","province":"東京都","city":"清瀬市","address":"清瀬市野塩1-322-1","lat":35.77913,"lon":139.49931},{"name":"のしお保育園","province":"東京都","city":"清瀬市","address":"清瀬市野塩5-249","lat":35.77622,"lon":139.49803},{"name":"中清戸保育園","province":"東京都","city":"清瀬市","address":"清瀬市下清戸1-21-3","lat":35.77878,"lon":139.53598},{"name":"きよせ保育園","province":"東京都","city":"清瀬市","address":"清瀬市上清戸2-5-40","lat":35.77921,"lon":139.51973},{"name":"清瀬駅前保育園","province":"東京都","city":"清瀬市","address":"清瀬市元町1-9-15","lat":35.77323,"lon":139.51839},{"name":"メリーポピンズ清瀬ルーム","province":"東京都","city":"清瀬市","address":"清瀬市松山1-40-2","lat":35.76819,"lon":139.51726},{"name":"メリーポピンズ松山ルーム","province":"東京都","city":"清瀬市","address":"清瀬市松山1-40-24","lat":35.76819,"lon":139.51726},{"name":"清瀬どろんこ保育園","province":"東京都","city":"清瀬市","address":"清瀬市松山3-1-24","lat":35.77222,"lon":139.51265},{"name":"清瀬市立第１保育園","province":"東京都","city":"清瀬市","address":"清瀬市松山3-1-73","lat":35.77222,"lon":139.51265},{"name":"清瀬市立第７保育園","province":"東京都","city":"清瀬市","address":"清瀬市竹丘1-15-11","lat":35.76803,"lon":139.51082},{"name":"清瀬上宮保育園","province":"東京都","city":"清瀬市","address":"清瀬市竹丘3-8-1","lat":35.76622,"lon":139.50188},{"name":"清瀬駅前乳児保育園","province":"東京都","city":"清瀬市","address":"清瀬市元町1-4-17","lat":35.77325,"lon":139.52049},{"name":"中里どろんこ保育園","province":"東京都","city":"清瀬市","address":"清瀬市中里6-23-1","lat":35.790082,"lon":139.527966},{"name":"駅前乳児保育園","province":"東京都","city":"清瀬市","address":"清瀬市元町1-4-17","lat":35.77325,"lon":139.52049},{"name":"清瀬市立乳児保育園","province":"東京都","city":"清瀬市","address":"清瀬市梅園2-9-38","lat":35.77246,"lon":139.50479},{"name":"清瀬市立梅園第1第2第3学童クラブ","province":"東京都","city":"清瀬市","address":"東京都清瀬市梅園2-9-38","lat":35.771999,"lon":139.505174},{"name":"清瀬市立清明小第1第2学童クラブ","province":"東京都","city":"清瀬市","address":"東京都清瀬市旭が丘2-8-1","lat":35.796885,"lon":139.539993},{"name":"清瀬市立四小学童クラブ","province":"東京都","city":"清瀬市","address":"東京都清瀬市中里2-1471","lat":35.783236,"lon":139.510435},{"name":"清瀬市立八小第1第2学童クラブ","province":"東京都","city":"清瀬市","address":"東京都清瀬市中清戸4-1070","lat":35.787303,"lon":139.530847},{"name":"清瀬市立竹丘第1第２学童クラブ","province":"東京都","city":"清瀬市","address":"東京都清瀬市竹丘1-15-11","lat":35.767616,"lon":139.511404},{"name":"清瀬市立芝山小第1第2学童クラブ","province":"東京都","city":"清瀬市","address":"東京都清瀬市元町2-16-8","lat":35.775359,"lon":139.511204},{"name":"清瀬市立清瀬小第1学童クラブ","province":"東京都","city":"清瀬市","address":"東京都清瀬市中里5-741","lat":35.785211,"lon":139.525606},{"name":"清瀬市立三小第1第2学童クラブ","province":"東京都","city":"清瀬市","address":"東京都清瀬市竹丘1-15-4","lat":35.768568,"lon":139.509927},{"name":"清瀬市立中清戸第1第2学童クラブ","province":"東京都","city":"清瀬市","address":"東京都清瀬市中清戸1-556-1","lat":35.775051,"lon":139.528458},{"name":"清瀬市立清瀬小第2学童クラブ","province":"東京都","city":"清瀬市","address":"東京都清瀬市中里5-624","lat":35.78533,"lon":139.52593},{"name":"清瀬市立第３保育園","province":"東京都","city":"清瀬市","address":"清瀬市旭が丘3-755-1","lat":35.79724,"lon":139.53879},{"name":"せせらぎ保育園","province":"東京都","city":"清瀬市","address":"清瀬市中里1-1704","lat":35.77921,"lon":139.51283},{"name":"すみれ保育園","province":"東京都","city":"清瀬市","address":"清瀬市中里3-1731-8","lat":35.77955,"lon":139.51706},{"name":"中里どろんこ保育園","province":"東京都","city":"清瀬市","address":"清瀬市中里6-23-1","lat":35.79083,"lon":139.52707},{"name":"のしお一丁目保育園","province":"東京都","city":"清瀬市","address":"清瀬市野塩1-322-1","lat":35.77913,"lon":139.49931},{"name":"のしお保育園","province":"東京都","city":"清瀬市","address":"清瀬市野塩5-249","lat":35.77622,"lon":139.49803},{"name":"中清戸保育園","province":"東京都","city":"清瀬市","address":"清瀬市下清戸1-21-3","lat":35.77878,"lon":139.53598},{"name":"きよせ保育園","province":"東京都","city":"清瀬市","address":"清瀬市上清戸2-5-40","lat":35.77921,"lon":139.51973},{"name":"清瀬駅前保育園","province":"東京都","city":"清瀬市","address":"清瀬市元町1-9-15","lat":35.77323,"lon":139.51839},{"name":"メリーポピンズ清瀬ルーム","province":"東京都","city":"清瀬市","address":"清瀬市松山1-40-2","lat":35.76819,"lon":139.51726},{"name":"メリーポピンズ松山ルーム","province":"東京都","city":"清瀬市","address":"清瀬市松山1-40-24","lat":35.76819,"lon":139.51726},{"name":"清瀬どろんこ保育園","province":"東京都","city":"清瀬市","address":"清瀬市松山3-1-24","lat":35.77222,"lon":139.51265},{"name":"清瀬市立第１保育園","province":"東京都","city":"清瀬市","address":"清瀬市松山3-1-73","lat":35.77222,"lon":139.51265},{"name":"清瀬市立第７保育園","province":"東京都","city":"清瀬市","address":"清瀬市竹丘1-15-11","lat":35.76803,"lon":139.51082},{"name":"清瀬上宮保育園","province":"東京都","city":"清瀬市","address":"清瀬市竹丘3-8-1","lat":35.76622,"lon":139.50188},{"name":"清瀬駅前乳児保育園","province":"東京都","city":"清瀬市","address":"清瀬市元町1-4-17","lat":35.77325,"lon":139.52049},{"name":"中里どろんこ保育園","province":"東京都","city":"清瀬市","address":"清瀬市中里6-23-1","lat":35.790082,"lon":139.527966},{"name":"駅前乳児保育園","province":"東京都","city":"清瀬市","address":"清瀬市元町1-4-17","lat":35.77325,"lon":139.52049},{"name":"清瀬市立乳児保育園","province":"東京都","city":"清瀬市","address":"清瀬市梅園2-9-38","lat":35.77246,"lon":139.50479},{"name":"清瀬市立梅園第1第2第3学童クラブ","province":"東京都","city":"清瀬市","address":"東京都清瀬市梅園2-9-38","lat":35.771999,"lon":139.505174},{"name":"清瀬市立清明小第1第2学童クラブ","province":"東京都","city":"清瀬市","address":"東京都清瀬市旭が丘2-8-1","lat":35.796885,"lon":139.539993},{"name":"清瀬市立四小学童クラブ","province":"東京都","city":"清瀬市","address":"東京都清瀬市中里2-1471","lat":35.783236,"lon":139.510435},{"name":"清瀬市立八小第1第2学童クラブ","province":"東京都","city":"清瀬市","address":"東京都清瀬市中清戸4-1070","lat":35.787303,"lon":139.530847},{"name":"清瀬市立竹丘第1第２学童クラブ","province":"東京都","city":"清瀬市","address":"東京都清瀬市竹丘1-15-11","lat":35.767616,"lon":139.511404},{"name":"清瀬市立芝山小第1第2学童クラブ","province":"東京都","city":"清瀬市","address":"東京都清瀬市元町2-16-8","lat":35.775359,"lon":139.511204},{"name":"清瀬市立清瀬小第1学童クラブ","province":"東京都","city":"清瀬市","address":"東京都清瀬市中里5-741","lat":35.785211,"lon":139.525606},{"name":"清瀬市立三小第1第2学童クラブ","province":"東京都","city":"清瀬市","address":"東京都清瀬市竹丘1-15-4","lat":35.768568,"lon":139.509927},{"name":"清瀬市立中清戸第1第2学童クラブ","province":"東京都","city":"清瀬市","address":"東京都清瀬市中清戸1-556-1","lat":35.775051,"lon":139.528458},{"name":"清瀬市立清瀬小第2学童クラブ","province":"東京都","city":"清瀬市","address":"東京都清瀬市中里5-624","lat":35.78533,"lon":139.52593},{"name":"清瀬市立第３保育園","province":"東京都","city":"清瀬市","address":"清瀬市旭が丘3-755-1","lat":35.79724,"lon":139.53879},{"name":"せせらぎ保育園","province":"東京都","city":"清瀬市","address":"清瀬市中里1-1704","lat":35.77921,"lon":139.51283},{"name":"すみれ保育園","province":"東京都","city":"清瀬市","address":"清瀬市中里3-1731-8","lat":35.77955,"lon":139.51706},{"name":"中里どろんこ保育園","province":"東京都","city":"清瀬市","address":"清瀬市中里6-23-1","lat":35.79083,"lon":139.52707},{"name":"のしお一丁目保育園","province":"東京都","city":"清瀬市","address":"清瀬市野塩1-322-1","lat":35.77913,"lon":139.49931},{"name":"のしお保育園","province":"東京都","city":"清瀬市","address":"清瀬市野塩5-249","lat":35.77622,"lon":139.49803},{"name":"中清戸保育園","province":"東京都","city":"清瀬市","address":"清瀬市下清戸1-21-3","lat":35.77878,"lon":139.53598},{"name":"きよせ保育園","province":"東京都","city":"清瀬市","address":"清瀬市上清戸2-5-40","lat":35.77921,"lon":139.51973},{"name":"清瀬駅前保育園","province":"東京都","city":"清瀬市","address":"清瀬市元町1-9-15","lat":35.77323,"lon":139.51839},{"name":"メリーポピンズ清瀬ルーム","province":"東京都","city":"清瀬市","address":"清瀬市松山1-40-2","lat":35.76819,"lon":139.51726},{"name":"メリーポピンズ松山ルーム","province":"東京都","city":"清瀬市","address":"清瀬市松山1-40-24","lat":35.76819,"lon":139.51726},{"name":"清瀬どろんこ保育園","province":"東京都","city":"清瀬市","address":"清瀬市松山3-1-24","lat":35.77222,"lon":139.51265},{"name":"清瀬市立第１保育園","province":"東京都","city":"清瀬市","address":"清瀬市松山3-1-73","lat":35.77222,"lon":139.51265},{"name":"清瀬市立第７保育園","province":"東京都","city":"清瀬市","address":"清瀬市竹丘1-15-11","lat":35.76803,"lon":139.51082},{"name":"清瀬上宮保育園","province":"東京都","city":"清瀬市","address":"清瀬市竹丘3-8-1","lat":35.76622,"lon":139.50188},{"name":"清瀬駅前乳児保育園","province":"東京都","city":"清瀬市","address":"清瀬市元町1-4-17","lat":35.77325,"lon":139.52049},{"name":"中里どろんこ保育園","province":"東京都","city":"清瀬市","address":"清瀬市中里6-23-1","lat":35.790082,"lon":139.527966},{"name":"駅前乳児保育園","province":"東京都","city":"清瀬市","address":"清瀬市元町1-4-17","lat":35.77325,"lon":139.52049},{"name":"清瀬市立乳児保育園","province":"東京都","city":"清瀬市","address":"清瀬市梅園2-9-38","lat":35.77246,"lon":139.50479},{"name":"清瀬市立梅園第1第2第3学童クラブ","province":"東京都","city":"清瀬市","address":"東京都清瀬市梅園2-9-38","lat":35.771999,"lon":139.505174},{"name":"清瀬市立清明小第1第2学童クラブ","province":"東京都","city":"清瀬市","address":"東京都清瀬市旭が丘2-8-1","lat":35.796885,"lon":139.539993},{"name":"清瀬市立四小学童クラブ","province":"東京都","city":"清瀬市","address":"東京都清瀬市中里2-1471","lat":35.783236,"lon":139.510435},{"name":"清瀬市立八小第1第2学童クラブ","province":"東京都","city":"清瀬市","address":"東京都清瀬市中清戸4-1070","lat":35.787303,"lon":139.530847},{"name":"清瀬市立竹丘第1第２学童クラブ","province":"東京都","city":"清瀬市","address":"東京都清瀬市竹丘1-15-11","lat":35.767616,"lon":139.511404},{"name":"清瀬市立芝山小第1第2学童クラブ","province":"東京都","city":"清瀬市","address":"東京都清瀬市元町2-16-8","lat":35.775359,"lon":139.511204},{"name":"清瀬市立清瀬小第1学童クラブ","province":"東京都","city":"清瀬市","address":"東京都清瀬市中里5-741","lat":35.785211,"lon":139.525606},{"name":"清瀬市立三小第1第2学童クラブ","province":"東京都","city":"清瀬市","address":"東京都清瀬市竹丘1-15-4","lat":35.768568,"lon":139.509927},{"name":"清瀬市立中清戸第1第2学童クラブ","province":"東京都","city":"清瀬市","address":"東京都清瀬市中清戸1-556-1","lat":35.775051,"lon":139.528458},{"name":"清瀬市立清瀬小第2学童クラブ","province":"東京都","city":"清瀬市","address":"東京都清瀬市中里5-624","lat":35.78533,"lon":139.52593},{"name":"清瀬市立第３保育園","province":"東京都","city":"清瀬市","address":"清瀬市旭が丘3-755-1","lat":35.79724,"lon":139.53879},{"name":"せせらぎ保育園","province":"東京都","city":"清瀬市","address":"清瀬市中里1-1704","lat":35.77921,"lon":139.51283},{"name":"すみれ保育園","province":"東京都","city":"清瀬市","address":"清瀬市中里3-1731-8","lat":35.77955,"lon":139.51706},{"name":"中里どろんこ保育園","province":"東京都","city":"清瀬市","address":"清瀬市中里6-23-1","lat":35.79083,"lon":139.52707},{"name":"のしお一丁目保育園","province":"東京都","city":"清瀬市","address":"清瀬市野塩1-322-1","lat":35.77913,"lon":139.49931},{"name":"のしお保育園","province":"東京都","city":"清瀬市","address":"清瀬市野塩5-249","lat":35.77622,"lon":139.49803},{"name":"中清戸保育園","province":"東京都","city":"清瀬市","address":"清瀬市下清戸1-21-3","lat":35.77878,"lon":139.53598},{"name":"きよせ保育園","province":"東京都","city":"清瀬市","address":"清瀬市上清戸2-5-40","lat":35.77921,"lon":139.51973},{"name":"清瀬駅前保育園","province":"東京都","city":"清瀬市","address":"清瀬市元町1-9-15","lat":35.77323,"lon":139.51839},{"name":"メリーポピンズ清瀬ルーム","province":"東京都","city":"清瀬市","address":"清瀬市松山1-40-2","lat":35.76819,"lon":139.51726},{"name":"メリーポピンズ松山ルーム","province":"東京都","city":"清瀬市","address":"清瀬市松山1-40-24","lat":35.76819,"lon":139.51726},{"name":"清瀬どろんこ保育園","province":"東京都","city":"清瀬市","address":"清瀬市松山3-1-24","lat":35.77222,"lon":139.51265},{"name":"清瀬市立第１保育園","province":"東京都","city":"清瀬市","address":"清瀬市松山3-1-73","lat":35.77222,"lon":139.51265},{"name":"清瀬市立第７保育園","province":"東京都","city":"清瀬市","address":"清瀬市竹丘1-15-11","lat":35.76803,"lon":139.51082},{"name":"清瀬上宮保育園","province":"東京都","city":"清瀬市","address":"清瀬市竹丘3-8-1","lat":35.76622,"lon":139.50188},{"name":"清瀬駅前乳児保育園","province":"東京都","city":"清瀬市","address":"清瀬市元町1-4-17","lat":35.77325,"lon":139.52049},{"name":"中里どろんこ保育園","province":"東京都","city":"清瀬市","address":"清瀬市中里6-23-1","lat":35.790082,"lon":139.527966},{"name":"駅前乳児保育園","province":"東京都","city":"清瀬市","address":"清瀬市元町1-4-17","lat":35.77325,"lon":139.52049},{"name":"清瀬市立乳児保育園","province":"東京都","city":"清瀬市","address":"清瀬市梅園2-9-38","lat":35.77246,"lon":139.50479},{"name":"清瀬市立梅園第1第2第3学童クラブ","province":"東京都","city":"清瀬市","address":"東京都清瀬市梅園2-9-38","lat":35.771999,"lon":139.505174},{"name":"清瀬市立清明小第1第2学童クラブ","province":"東京都","city":"清瀬市","address":"東京都清瀬市旭が丘2-8-1","lat":35.796885,"lon":139.539993},{"name":"清瀬市立四小学童クラブ","province":"東京都","city":"清瀬市","address":"東京都清瀬市中里2-1471","lat":35.783236,"lon":139.510435},{"name":"清瀬市立八小第1第2学童クラブ","province":"東京都","city":"清瀬市","address":"東京都清瀬市中清戸4-1070","lat":35.787303,"lon":139.530847},{"name":"清瀬市立竹丘第1第２学童クラブ","province":"東京都","city":"清瀬市","address":"東京都清瀬市竹丘1-15-11","lat":35.767616,"lon":139.511404},{"name":"清瀬市立芝山小第1第2学童クラブ","province":"東京都","city":"清瀬市","address":"東京都清瀬市元町2-16-8","lat":35.775359,"lon":139.511204},{"name":"清瀬市立清瀬小第1学童クラブ","province":"東京都","city":"清瀬市","address":"東京都清瀬市中里5-741","lat":35.785211,"lon":139.525606},{"name":"清瀬市立三小第1第2学童クラブ","province":"東京都","city":"清瀬市","address":"東京都清瀬市竹丘1-15-4","lat":35.768568,"lon":139.509927},{"name":"清瀬市立中清戸第1第2学童クラブ","province":"東京都","city":"清瀬市","address":"東京都清瀬市中清戸1-556-1","lat":35.775051,"lon":139.528458},{"name":"清瀬市立清瀬小第2学童クラブ","province":"東京都","city":"清瀬市","address":"東京都清瀬市中里5-624","lat":35.78533,"lon":139.52593},{"name":"清瀬市立第３保育園","province":"東京都","city":"清瀬市","address":"清瀬市旭が丘3-755-1","lat":35.79724,"lon":139.53879},{"name":"せせらぎ保育園","province":"東京都","city":"清瀬市","address":"清瀬市中里1-1704","lat":35.77921,"lon":139.51283},{"name":"すみれ保育園","province":"東京都","city":"清瀬市","address":"清瀬市中里3-1731-8","lat":35.77955,"lon":139.51706},{"name":"中里どろんこ保育園","province":"東京都","city":"清瀬市","address":"清瀬市中里6-23-1","lat":35.79083,"lon":139.52707},{"name":"のしお一丁目保育園","province":"東京都","city":"清瀬市","address":"清瀬市野塩1-322-1","lat":35.77913,"lon":139.49931},{"name":"のしお保育園","province":"東京都","city":"清瀬市","address":"清瀬市野塩5-249","lat":35.77622,"lon":139.49803},{"name":"中清戸保育園","province":"東京都","city":"清瀬市","address":"清瀬市下清戸1-21-3","lat":35.77878,"lon":139.53598},{"name":"きよせ保育園","province":"東京都","city":"清瀬市","address":"清瀬市上清戸2-5-40","lat":35.77921,"lon":139.51973},{"name":"清瀬駅前保育園","province":"東京都","city":"清瀬市","address":"清瀬市元町1-9-15","lat":35.77323,"lon":139.51839},{"name":"メリーポピンズ清瀬ルーム","province":"東京都","city":"清瀬市","address":"清瀬市松山1-40-2","lat":35.76819,"lon":139.51726},{"name":"メリーポピンズ松山ルーム","province":"東京都","city":"清瀬市","address":"清瀬市松山1-40-24","lat":35.76819,"lon":139.51726},{"name":"清瀬どろんこ保育園","province":"東京都","city":"清瀬市","address":"清瀬市松山3-1-24","lat":35.77222,"lon":139.51265},{"name":"清瀬市立第１保育園","province":"東京都","city":"清瀬市","address":"清瀬市松山3-1-73","lat":35.77222,"lon":139.51265},{"name":"清瀬市立第７保育園","province":"東京都","city":"清瀬市","address":"清瀬市竹丘1-15-11","lat":35.76803,"lon":139.51082},{"name":"清瀬上宮保育園","province":"東京都","city":"清瀬市","address":"清瀬市竹丘3-8-1","lat":35.76622,"lon":139.50188},{"name":"清瀬駅前乳児保育園","province":"東京都","city":"清瀬市","address":"清瀬市元町1-4-17","lat":35.77325,"lon":139.52049},{"name":"中里どろんこ保育園","province":"東京都","city":"清瀬市","address":"清瀬市中里6-23-1","lat":35.790082,"lon":139.527966},{"name":"駅前乳児保育園","province":"東京都","city":"清瀬市","address":"清瀬市元町1-4-17","lat":35.77325,"lon":139.52049},{"name":"清瀬市立乳児保育園","province":"東京都","city":"清瀬市","address":"清瀬市梅園2-9-38","lat":35.77246,"lon":139.50479},{"name":"清瀬市立梅園第1第2第3学童クラブ","province":"東京都","city":"清瀬市","address":"東京都清瀬市梅園2-9-38","lat":35.771999,"lon":139.505174},{"name":"清瀬市立清明小第1第2学童クラブ","province":"東京都","city":"清瀬市","address":"東京都清瀬市旭が丘2-8-1","lat":35.796885,"lon":139.539993},{"name":"清瀬市立四小学童クラブ","province":"東京都","city":"清瀬市","address":"東京都清瀬市中里2-1471","lat":35.783236,"lon":139.510435},{"name":"清瀬市立八小第1第2学童クラブ","province":"東京都","city":"清瀬市","address":"東京都清瀬市中清戸4-1070","lat":35.787303,"lon":139.530847},{"name":"清瀬市立竹丘第1第２学童クラブ","province":"東京都","city":"清瀬市","address":"東京都清瀬市竹丘1-15-11","lat":35.767616,"lon":139.511404},{"name":"清瀬市立芝山小第1第2学童クラブ","province":"東京都","city":"清瀬市","address":"東京都清瀬市元町2-16-8","lat":35.775359,"lon":139.511204},{"name":"清瀬市立清瀬小第1学童クラブ","province":"東京都","city":"清瀬市","address":"東京都清瀬市中里5-741","lat":35.785211,"lon":139.525606},{"name":"清瀬市立三小第1第2学童クラブ","province":"東京都","city":"清瀬市","address":"東京都清瀬市竹丘1-15-4","lat":35.768568,"lon":139.509927},{"name":"清瀬市立中清戸第1第2学童クラブ","province":"東京都","city":"清瀬市","address":"東京都清瀬市中清戸1-556-1","lat":35.775051,"lon":139.528458},{"name":"清瀬市立清瀬小第2学童クラブ","province":"東京都","city":"清瀬市","address":"東京都清瀬市中里5-624","lat":35.78533,"lon":139.52593},{"name":"清瀬市立第３保育園","province":"東京都","city":"清瀬市","address":"清瀬市旭が丘3-755-1","lat":35.79724,"lon":139.53879},{"name":"せせらぎ保育園","province":"東京都","city":"清瀬市","address":"清瀬市中里1-1704","lat":35.77921,"lon":139.51283},{"name":"すみれ保育園","province":"東京都","city":"清瀬市","address":"清瀬市中里3-1731-8","lat":35.77955,"lon":139.51706},{"name":"中里どろんこ保育園","province":"東京都","city":"清瀬市","address":"清瀬市中里6-23-1","lat":35.79083,"lon":139.52707},{"name":"のしお一丁目保育園","province":"東京都","city":"清瀬市","address":"清瀬市野塩1-322-1","lat":35.77913,"lon":139.49931},{"name":"のしお保育園","province":"東京都","city":"清瀬市","address":"清瀬市野塩5-249","lat":35.77622,"lon":139.49803},{"name":"中清戸保育園","province":"東京都","city":"清瀬市","address":"清瀬市下清戸1-21-3","lat":35.77878,"lon":139.53598},{"name":"きよせ保育園","province":"東京都","city":"清瀬市","address":"清瀬市上清戸2-5-40","lat":35.77921,"lon":139.51973},{"name":"清瀬駅前保育園","province":"東京都","city":"清瀬市","address":"清瀬市元町1-9-15","lat":35.77323,"lon":139.51839},{"name":"メリーポピンズ清瀬ルーム","province":"東京都","city":"清瀬市","address":"清瀬市松山1-40-2","lat":35.76819,"lon":139.51726},{"name":"メリーポピンズ松山ルーム","province":"東京都","city":"清瀬市","address":"清瀬市松山1-40-24","lat":35.76819,"lon":139.51726},{"name":"清瀬どろんこ保育園","province":"東京都","city":"清瀬市","address":"清瀬市松山3-1-24","lat":35.77222,"lon":139.51265},{"name":"清瀬市立第１保育園","province":"東京都","city":"清瀬市","address":"清瀬市松山3-1-73","lat":35.77222,"lon":139.51265},{"name":"清瀬市立第７保育園","province":"東京都","city":"清瀬市","address":"清瀬市竹丘1-15-11","lat":35.76803,"lon":139.51082},{"name":"清瀬上宮保育園","province":"東京都","city":"清瀬市","address":"清瀬市竹丘3-8-1","lat":35.76622,"lon":139.50188},{"name":"清瀬駅前乳児保育園","province":"東京都","city":"清瀬市","address":"清瀬市元町1-4-17","lat":35.77325,"lon":139.52049},{"name":"中里どろんこ保育園","province":"東京都","city":"清瀬市","address":"清瀬市中里6-23-1","lat":35.790082,"lon":139.527966},{"name":"駅前乳児保育園","province":"東京都","city":"清瀬市","address":"清瀬市元町1-4-17","lat":35.77325,"lon":139.52049},{"name":"清瀬市立乳児保育園","province":"東京都","city":"清瀬市","address":"清瀬市梅園2-9-38","lat":35.77246,"lon":139.50479},{"name":"清瀬市立梅園第1第2第3学童クラブ","province":"東京都","city":"清瀬市","address":"東京都清瀬市梅園2-9-38","lat":35.771999,"lon":139.505174},{"name":"清瀬市立清明小第1第2学童クラブ","province":"東京都","city":"清瀬市","address":"東京都清瀬市旭が丘2-8-1","lat":35.796885,"lon":139.539993},{"name":"清瀬市立四小学童クラブ","province":"東京都","city":"清瀬市","address":"東京都清瀬市中里2-1471","lat":35.783236,"lon":139.510435},{"name":"清瀬市立八小第1第2学童クラブ","province":"東京都","city":"清瀬市","address":"東京都清瀬市中清戸4-1070","lat":35.787303,"lon":139.530847},{"name":"清瀬市立竹丘第1第２学童クラブ","province":"東京都","city":"清瀬市","address":"東京都清瀬市竹丘1-15-11","lat":35.767616,"lon":139.511404},{"name":"清瀬市立芝山小第1第2学童クラブ","province":"東京都","city":"清瀬市","address":"東京都清瀬市元町2-16-8","lat":35.775359,"lon":139.511204},{"name":"清瀬市立清瀬小第1学童クラブ","province":"東京都","city":"清瀬市","address":"東京都清瀬市中里5-741","lat":35.785211,"lon":139.525606},{"name":"清瀬市立三小第1第2学童クラブ","province":"東京都","city":"清瀬市","address":"東京都清瀬市竹丘1-15-4","lat":35.768568,"lon":139.509927},{"name":"清瀬市立中清戸第1第2学童クラブ","province":"東京都","city":"清瀬市","address":"東京都清瀬市中清戸1-556-1","lat":35.775051,"lon":139.528458},{"name":"清瀬市立清瀬小第2学童クラブ","province":"東京都","city":"清瀬市","address":"東京都清瀬市中里5-624","lat":35.78533,"lon":139.52593},{"name":"清瀬市立第３保育園","province":"東京都","city":"清瀬市","address":"清瀬市旭が丘3-755-1","lat":35.79724,"lon":139.53879},{"name":"せせらぎ保育園","province":"東京都","city":"清瀬市","address":"清瀬市中里1-1704","lat":35.77921,"lon":139.51283},{"name":"すみれ保育園","province":"東京都","city":"清瀬市","address":"清瀬市中里3-1731-8","lat":35.77955,"lon":139.51706},{"name":"中里どろんこ保育園","province":"東京都","city":"清瀬市","address":"清瀬市中里6-23-1","lat":35.79083,"lon":139.52707},{"name":"のしお一丁目保育園","province":"東京都","city":"清瀬市","address":"清瀬市野塩1-322-1","lat":35.77913,"lon":139.49931},{"name":"のしお保育園","province":"東京都","city":"清瀬市","address":"清瀬市野塩5-249","lat":35.77622,"lon":139.49803},{"name":"中清戸保育園","province":"東京都","city":"清瀬市","address":"清瀬市下清戸1-21-3","lat":35.77878,"lon":139.53598},{"name":"きよせ保育園","province":"東京都","city":"清瀬市","address":"清瀬市上清戸2-5-40","lat":35.77921,"lon":139.51973},{"name":"清瀬駅前保育園","province":"東京都","city":"清瀬市","address":"清瀬市元町1-9-15","lat":35.77323,"lon":139.51839},{"name":"メリーポピンズ清瀬ルーム","province":"東京都","city":"清瀬市","address":"清瀬市松山1-40-2","lat":35.76819,"lon":139.51726},{"name":"メリーポピンズ松山ルーム","province":"東京都","city":"清瀬市","address":"清瀬市松山1-40-24","lat":35.76819,"lon":139.51726},{"name":"清瀬どろんこ保育園","province":"東京都","city":"清瀬市","address":"清瀬市松山3-1-24","lat":35.77222,"lon":139.51265},{"name":"清瀬市立第１保育園","province":"東京都","city":"清瀬市","address":"清瀬市松山3-1-73","lat":35.77222,"lon":139.51265},{"name":"清瀬市立第７保育園","province":"東京都","city":"清瀬市","address":"清瀬市竹丘1-15-11","lat":35.76803,"lon":139.51082},{"name":"清瀬上宮保育園","province":"東京都","city":"清瀬市","address":"清瀬市竹丘3-8-1","lat":35.76622,"lon":139.50188},{"name":"清瀬駅前乳児保育園","province":"東京都","city":"清瀬市","address":"清瀬市元町1-4-17","lat":35.77325,"lon":139.52049},{"name":"中里どろんこ保育園","province":"東京都","city":"清瀬市","address":"清瀬市中里6-23-1","lat":35.790082,"lon":139.527966},{"name":"駅前乳児保育園","province":"東京都","city":"清瀬市","address":"清瀬市元町1-4-17","lat":35.77325,"lon":139.52049},{"name":"清瀬市立乳児保育園","province":"東京都","city":"清瀬市","address":"清瀬市梅園2-9-38","lat":35.77246,"lon":139.50479},{"name":"清瀬市立梅園第1第2第3学童クラブ","province":"東京都","city":"清瀬市","address":"東京都清瀬市梅園2-9-38","lat":35.771999,"lon":139.505174},{"name":"清瀬市立清明小第1第2学童クラブ","province":"東京都","city":"清瀬市","address":"東京都清瀬市旭が丘2-8-1","lat":35.796885,"lon":139.539993},{"name":"清瀬市立四小学童クラブ","province":"東京都","city":"清瀬市","address":"東京都清瀬市中里2-1471","lat":35.783236,"lon":139.510435},{"name":"清瀬市立八小第1第2学童クラブ","province":"東京都","city":"清瀬市","address":"東京都清瀬市中清戸4-1070","lat":35.787303,"lon":139.530847},{"name":"清瀬市立竹丘第1第２学童クラブ","province":"東京都","city":"清瀬市","address":"東京都清瀬市竹丘1-15-11","lat":35.767616,"lon":139.511404},{"name":"清瀬市立芝山小第1第2学童クラブ","province":"東京都","city":"清瀬市","address":"東京都清瀬市元町2-16-8","lat":35.775359,"lon":139.511204},{"name":"清瀬市立清瀬小第1学童クラブ","province":"東京都","city":"清瀬市","address":"東京都清瀬市中里5-741","lat":35.785211,"lon":139.525606},{"name":"清瀬市立三小第1第2学童クラブ","province":"東京都","city":"清瀬市","address":"東京都清瀬市竹丘1-15-4","lat":35.768568,"lon":139.509927},{"name":"清瀬市立中清戸第1第2学童クラブ","province":"東京都","city":"清瀬市","address":"東京都清瀬市中清戸1-556-1","lat":35.775051,"lon":139.528458},{"name":"清瀬市立清瀬小第2学童クラブ","province":"東京都","city":"清瀬市","address":"東京都清瀬市中里5-624","lat":35.78533,"lon":139.52593},{"name":"清瀬市立第３保育園","province":"東京都","city":"清瀬市","address":"清瀬市旭が丘3-755-1","lat":35.79724,"lon":139.53879},{"name":"せせらぎ保育園","province":"東京都","city":"清瀬市","address":"清瀬市中里1-1704","lat":35.77921,"lon":139.51283},{"name":"すみれ保育園","province":"東京都","city":"清瀬市","address":"清瀬市中里3-1731-8","lat":35.77955,"lon":139.51706},{"name":"中里どろんこ保育園","province":"東京都","city":"清瀬市","address":"清瀬市中里6-23-1","lat":35.79083,"lon":139.52707},{"name":"のしお一丁目保育園","province":"東京都","city":"清瀬市","address":"清瀬市野塩1-322-1","lat":35.77913,"lon":139.49931},{"name":"のしお保育園","province":"東京都","city":"清瀬市","address":"清瀬市野塩5-249","lat":35.77622,"lon":139.49803},{"name":"中清戸保育園","province":"東京都","city":"清瀬市","address":"清瀬市下清戸1-21-3","lat":35.77878,"lon":139.53598},{"name":"きよせ保育園","province":"東京都","city":"清瀬市","address":"清瀬市上清戸2-5-40","lat":35.77921,"lon":139.51973},{"name":"清瀬駅前保育園","province":"東京都","city":"清瀬市","address":"清瀬市元町1-9-15","lat":35.77323,"lon":139.51839},{"name":"メリーポピンズ清瀬ルーム","province":"東京都","city":"清瀬市","address":"清瀬市松山1-40-2","lat":35.76819,"lon":139.51726},{"name":"メリーポピンズ松山ルーム","province":"東京都","city":"清瀬市","address":"清瀬市松山1-40-24","lat":35.76819,"lon":139.51726},{"name":"清瀬どろんこ保育園","province":"東京都","city":"清瀬市","address":"清瀬市松山3-1-24","lat":35.77222,"lon":139.51265},{"name":"清瀬市立第１保育園","province":"東京都","city":"清瀬市","address":"清瀬市松山3-1-73","lat":35.77222,"lon":139.51265},{"name":"清瀬市立第７保育園","province":"東京都","city":"清瀬市","address":"清瀬市竹丘1-15-11","lat":35.76803,"lon":139.51082},{"name":"清瀬上宮保育園","province":"東京都","city":"清瀬市","address":"清瀬市竹丘3-8-1","lat":35.76622,"lon":139.50188},{"name":"清瀬駅前乳児保育園","province":"東京都","city":"清瀬市","address":"清瀬市元町1-4-17","lat":35.77325,"lon":139.52049},{"name":"中里どろんこ保育園","province":"東京都","city":"清瀬市","address":"清瀬市中里6-23-1","lat":35.790082,"lon":139.527966},{"name":"駅前乳児保育園","province":"東京都","city":"清瀬市","address":"清瀬市元町1-4-17","lat":35.77325,"lon":139.52049},{"name":"清瀬市立乳児保育園","province":"東京都","city":"清瀬市","address":"清瀬市梅園2-9-38","lat":35.77246,"lon":139.50479},{"name":"清瀬市立梅園第1第2第3学童クラブ","province":"東京都","city":"清瀬市","address":"東京都清瀬市梅園2-9-38","lat":35.771999,"lon":139.505174},{"name":"清瀬市立清明小第1第2学童クラブ","province":"東京都","city":"清瀬市","address":"東京都清瀬市旭が丘2-8-1","lat":35.796885,"lon":139.539993},{"name":"清瀬市立四小学童クラブ","province":"東京都","city":"清瀬市","address":"東京都清瀬市中里2-1471","lat":35.783236,"lon":139.510435},{"name":"清瀬市立八小第1第2学童クラブ","province":"東京都","city":"清瀬市","address":"東京都清瀬市中清戸4-1070","lat":35.787303,"lon":139.530847},{"name":"清瀬市立竹丘第1第２学童クラブ","province":"東京都","city":"清瀬市","address":"東京都清瀬市竹丘1-15-11","lat":35.767616,"lon":139.511404},{"name":"清瀬市立芝山小第1第2学童クラブ","province":"東京都","city":"清瀬市","address":"東京都清瀬市元町2-16-8","lat":35.775359,"lon":139.511204},{"name":"清瀬市立清瀬小第1学童クラブ","province":"東京都","city":"清瀬市","address":"東京都清瀬市中里5-741","lat":35.785211,"lon":139.525606},{"name":"清瀬市立三小第1第2学童クラブ","province":"東京都","city":"清瀬市","address":"東京都清瀬市竹丘1-15-4","lat":35.768568,"lon":139.509927},{"name":"清瀬市立中清戸第1第2学童クラブ","province":"東京都","city":"清瀬市","address":"東京都清瀬市中清戸1-556-1","lat":35.775051,"lon":139.528458},{"name":"清瀬市立清瀬小第2学童クラブ","province":"東京都","city":"清瀬市","address":"東京都清瀬市中里5-624","lat":35.78533,"lon":139.52593},{"name":"清瀬市立第３保育園","province":"東京都","city":"清瀬市","address":"清瀬市旭が丘3-755-1","lat":35.79724,"lon":139.53879},{"name":"せせらぎ保育園","province":"東京都","city":"清瀬市","address":"清瀬市中里1-1704","lat":35.77921,"lon":139.51283},{"name":"すみれ保育園","province":"東京都","city":"清瀬市","address":"清瀬市中里3-1731-8","lat":35.77955,"lon":139.51706},{"name":"中里どろんこ保育園","province":"東京都","city":"清瀬市","address":"清瀬市中里6-23-1","lat":35.79083,"lon":139.52707},{"name":"のしお一丁目保育園","province":"東京都","city":"清瀬市","address":"清瀬市野塩1-322-1","lat":35.77913,"lon":139.49931},{"name":"のしお保育園","province":"東京都","city":"清瀬市","address":"清瀬市野塩5-249","lat":35.77622,"lon":139.49803},{"name":"中清戸保育園","province":"東京都","city":"清瀬市","address":"清瀬市下清戸1-21-3","lat":35.77878,"lon":139.53598},{"name":"きよせ保育園","province":"東京都","city":"清瀬市","address":"清瀬市上清戸2-5-40","lat":35.77921,"lon":139.51973},{"name":"清瀬駅前保育園","province":"東京都","city":"清瀬市","address":"清瀬市元町1-9-15","lat":35.77323,"lon":139.51839},{"name":"メリーポピンズ清瀬ルーム","province":"東京都","city":"清瀬市","address":"清瀬市松山1-40-2","lat":35.76819,"lon":139.51726},{"name":"メリーポピンズ松山ルーム","province":"東京都","city":"清瀬市","address":"清瀬市松山1-40-24","lat":35.76819,"lon":139.51726},{"name":"清瀬どろんこ保育園","province":"東京都","city":"清瀬市","address":"清瀬市松山3-1-24","lat":35.77222,"lon":139.51265},{"name":"清瀬市立第１保育園","province":"東京都","city":"清瀬市","address":"清瀬市松山3-1-73","lat":35.77222,"lon":139.51265},{"name":"清瀬市立第７保育園","province":"東京都","city":"清瀬市","address":"清瀬市竹丘1-15-11","lat":35.76803,"lon":139.51082},{"name":"清瀬上宮保育園","province":"東京都","city":"清瀬市","address":"清瀬市竹丘3-8-1","lat":35.76622,"lon":139.50188},{"name":"清瀬駅前乳児保育園","province":"東京都","city":"清瀬市","address":"清瀬市元町1-4-17","lat":35.77325,"lon":139.52049},{"name":"中里どろんこ保育園","province":"東京都","city":"清瀬市","address":"清瀬市中里6-23-1","lat":35.790082,"lon":139.527966},{"name":"駅前乳児保育園","province":"東京都","city":"清瀬市","address":"清瀬市元町1-4-17","lat":35.77325,"lon":139.52049},{"name":"清瀬市立乳児保育園","province":"東京都","city":"清瀬市","address":"清瀬市梅園2-9-38","lat":35.77246,"lon":139.50479},{"name":"清瀬市立梅園第1第2第3学童クラブ","province":"東京都","city":"清瀬市","address":"東京都清瀬市梅園2-9-38","lat":35.771999,"lon":139.505174},{"name":"清瀬市立清明小第1第2学童クラブ","province":"東京都","city":"清瀬市","address":"東京都清瀬市旭が丘2-8-1","lat":35.796885,"lon":139.539993},{"name":"清瀬市立四小学童クラブ","province":"東京都","city":"清瀬市","address":"東京都清瀬市中里2-1471","lat":35.783236,"lon":139.510435},{"name":"清瀬市立八小第1第2学童クラブ","province":"東京都","city":"清瀬市","address":"東京都清瀬市中清戸4-1070","lat":35.787303,"lon":139.530847},{"name":"清瀬市立竹丘第1第２学童クラブ","province":"東京都","city":"清瀬市","address":"東京都清瀬市竹丘1-15-11","lat":35.767616,"lon":139.511404},{"name":"清瀬市立芝山小第1第2学童クラブ","province":"東京都","city":"清瀬市","address":"東京都清瀬市元町2-16-8","lat":35.775359,"lon":139.511204},{"name":"清瀬市立清瀬小第1学童クラブ","province":"東京都","city":"清瀬市","address":"東京都清瀬市中里5-741","lat":35.785211,"lon":139.525606},{"name":"清瀬市立三小第1第2学童クラブ","province":"東京都","city":"清瀬市","address":"東京都清瀬市竹丘1-15-4","lat":35.768568,"lon":139.509927},{"name":"清瀬市立中清戸第1第2学童クラブ","province":"東京都","city":"清瀬市","address":"東京都清瀬市中清戸1-556-1","lat":35.775051,"lon":139.528458},{"name":"清瀬市立清瀬小第2学童クラブ","province":"東京都","city":"清瀬市","address":"東京都清瀬市中里5-624","lat":35.78533,"lon":139.52593},{"name":"清瀬市立第３保育園","province":"東京都","city":"清瀬市","address":"清瀬市旭が丘3-755-1","lat":35.79724,"lon":139.53879},{"name":"せせらぎ保育園","province":"東京都","city":"清瀬市","address":"清瀬市中里1-1704","lat":35.77921,"lon":139.51283},{"name":"すみれ保育園","province":"東京都","city":"清瀬市","address":"清瀬市中里3-1731-8","lat":35.77955,"lon":139.51706},{"name":"中里どろんこ保育園","province":"東京都","city":"清瀬市","address":"清瀬市中里6-23-1","lat":35.79083,"lon":139.52707},{"name":"のしお一丁目保育園","province":"東京都","city":"清瀬市","address":"清瀬市野塩1-322-1","lat":35.77913,"lon":139.49931},{"name":"のしお保育園","province":"東京都","city":"清瀬市","address":"清瀬市野塩5-249","lat":35.77622,"lon":139.49803},{"name":"中清戸保育園","province":"東京都","city":"清瀬市","address":"清瀬市下清戸1-21-3","lat":35.77878,"lon":139.53598},{"name":"きよせ保育園","province":"東京都","city":"清瀬市","address":"清瀬市上清戸2-5-40","lat":35.77921,"lon":139.51973},{"name":"清瀬駅前保育園","province":"東京都","city":"清瀬市","address":"清瀬市元町1-9-15","lat":35.77323,"lon":139.51839},{"name":"メリーポピンズ清瀬ルーム","province":"東京都","city":"清瀬市","address":"清瀬市松山1-40-2","lat":35.76819,"lon":139.51726},{"name":"メリーポピンズ松山ルーム","province":"東京都","city":"清瀬市","address":"清瀬市松山1-40-24","lat":35.76819,"lon":139.51726},{"name":"清瀬どろんこ保育園","province":"東京都","city":"清瀬市","address":"清瀬市松山3-1-24","lat":35.77222,"lon":139.51265},{"name":"清瀬市立第１保育園","province":"東京都","city":"清瀬市","address":"清瀬市松山3-1-73","lat":35.77222,"lon":139.51265},{"name":"清瀬市立第７保育園","province":"東京都","city":"清瀬市","address":"清瀬市竹丘1-15-11","lat":35.76803,"lon":139.51082},{"name":"清瀬上宮保育園","province":"東京都","city":"清瀬市","address":"清瀬市竹丘3-8-1","lat":35.76622,"lon":139.50188},{"name":"清瀬駅前乳児保育園","province":"東京都","city":"清瀬市","address":"清瀬市元町1-4-17","lat":35.77325,"lon":139.52049},{"name":"中里どろんこ保育園","province":"東京都","city":"清瀬市","address":"清瀬市中里6-23-1","lat":35.790082,"lon":139.527966},{"name":"駅前乳児保育園","province":"東京都","city":"清瀬市","address":"清瀬市元町1-4-17","lat":35.77325,"lon":139.52049},{"name":"清瀬市立乳児保育園","province":"東京都","city":"清瀬市","address":"清瀬市梅園2-9-38","lat":35.77246,"lon":139.50479},{"name":"清瀬市立梅園第1第2第3学童クラブ","province":"東京都","city":"清瀬市","address":"東京都清瀬市梅園2-9-38","lat":35.771999,"lon":139.505174},{"name":"清瀬市立清明小第1第2学童クラブ","province":"東京都","city":"清瀬市","address":"東京都清瀬市旭が丘2-8-1","lat":35.796885,"lon":139.539993},{"name":"清瀬市立四小学童クラブ","province":"東京都","city":"清瀬市","address":"東京都清瀬市中里2-1471","lat":35.783236,"lon":139.510435},{"name":"清瀬市立八小第1第2学童クラブ","province":"東京都","city":"清瀬市","address":"東京都清瀬市中清戸4-1070","lat":35.787303,"lon":139.530847},{"name":"清瀬市立竹丘第1第２学童クラブ","province":"東京都","city":"清瀬市","address":"東京都清瀬市竹丘1-15-11","lat":35.767616,"lon":139.511404},{"name":"清瀬市立芝山小第1第2学童クラブ","province":"東京都","city":"清瀬市","address":"東京都清瀬市元町2-16-8","lat":35.775359,"lon":139.511204},{"name":"清瀬市立清瀬小第1学童クラブ","province":"東京都","city":"清瀬市","address":"東京都清瀬市中里5-741","lat":35.785211,"lon":139.525606},{"name":"清瀬市立三小第1第2学童クラブ","province":"東京都","city":"清瀬市","address":"東京都清瀬市竹丘1-15-4","lat":35.768568,"lon":139.509927},{"name":"清瀬市立中清戸第1第2学童クラブ","province":"東京都","city":"清瀬市","address":"東京都清瀬市中清戸1-556-1","lat":35.775051,"lon":139.528458},{"name":"清瀬市立清瀬小第2学童クラブ","province":"東京都","city":"清瀬市","address":"東京都清瀬市中里5-624","lat":35.78533,"lon":139.52593},{"name":"清瀬市立第３保育園","province":"東京都","city":"清瀬市","address":"清瀬市旭が丘3-755-1","lat":35.79724,"lon":139.53879},{"name":"せせらぎ保育園","province":"東京都","city":"清瀬市","address":"清瀬市中里1-1704","lat":35.77921,"lon":139.51283},{"name":"すみれ保育園","province":"東京都","city":"清瀬市","address":"清瀬市中里3-1731-8","lat":35.77955,"lon":139.51706},{"name":"中里どろんこ保育園","province":"東京都","city":"清瀬市","address":"清瀬市中里6-23-1","lat":35.79083,"lon":139.52707},{"name":"のしお一丁目保育園","province":"東京都","city":"清瀬市","address":"清瀬市野塩1-322-1","lat":35.77913,"lon":139.49931},{"name":"のしお保育園","province":"東京都","city":"清瀬市","address":"清瀬市野塩5-249","lat":35.77622,"lon":139.49803},{"name":"中清戸保育園","province":"東京都","city":"清瀬市","address":"清瀬市下清戸1-21-3","lat":35.77878,"lon":139.53598},{"name":"きよせ保育園","province":"東京都","city":"清瀬市","address":"清瀬市上清戸2-5-40","lat":35.77921,"lon":139.51973},{"name":"清瀬駅前保育園","province":"東京都","city":"清瀬市","address":"清瀬市元町1-9-15","lat":35.77323,"lon":139.51839},{"name":"メリーポピンズ清瀬ルーム","province":"東京都","city":"清瀬市","address":"清瀬市松山1-40-2","lat":35.76819,"lon":139.51726},{"name":"メリーポピンズ松山ルーム","province":"東京都","city":"清瀬市","address":"清瀬市松山1-40-24","lat":35.76819,"lon":139.51726},{"name":"清瀬どろんこ保育園","province":"東京都","city":"清瀬市","address":"清瀬市松山3-1-24","lat":35.77222,"lon":139.51265},{"name":"清瀬市立第１保育園","province":"東京都","city":"清瀬市","address":"清瀬市松山3-1-73","lat":35.77222,"lon":139.51265},{"name":"清瀬市立第７保育園","province":"東京都","city":"清瀬市","address":"清瀬市竹丘1-15-11","lat":35.76803,"lon":139.51082},{"name":"清瀬上宮保育園","province":"東京都","city":"清瀬市","address":"清瀬市竹丘3-8-1","lat":35.76622,"lon":139.50188},{"name":"清瀬駅前乳児保育園","province":"東京都","city":"清瀬市","address":"清瀬市元町1-4-17","lat":35.77325,"lon":139.52049},{"name":"中里どろんこ保育園","province":"東京都","city":"清瀬市","address":"清瀬市中里6-23-1","lat":35.790082,"lon":139.527966},{"name":"駅前乳児保育園","province":"東京都","city":"清瀬市","address":"清瀬市元町1-4-17","lat":35.77325,"lon":139.52049},{"name":"清瀬市立乳児保育園","province":"東京都","city":"清瀬市","address":"清瀬市梅園2-9-38","lat":35.77246,"lon":139.50479},{"name":"清瀬市立梅園第1第2第3学童クラブ","province":"東京都","city":"清瀬市","address":"東京都清瀬市梅園2-9-38","lat":35.771999,"lon":139.505174},{"name":"清瀬市立清明小第1第2学童クラブ","province":"東京都","city":"清瀬市","address":"東京都清瀬市旭が丘2-8-1","lat":35.796885,"lon":139.539993},{"name":"清瀬市立四小学童クラブ","province":"東京都","city":"清瀬市","address":"東京都清瀬市中里2-1471","lat":35.783236,"lon":139.510435},{"name":"清瀬市立八小第1第2学童クラブ","province":"東京都","city":"清瀬市","address":"東京都清瀬市中清戸4-1070","lat":35.787303,"lon":139.530847},{"name":"清瀬市立竹丘第1第２学童クラブ","province":"東京都","city":"清瀬市","address":"東京都清瀬市竹丘1-15-11","lat":35.767616,"lon":139.511404},{"name":"清瀬市立芝山小第1第2学童クラブ","province":"東京都","city":"清瀬市","address":"東京都清瀬市元町2-16-8","lat":35.775359,"lon":139.511204},{"name":"清瀬市立清瀬小第1学童クラブ","province":"東京都","city":"清瀬市","address":"東京都清瀬市中里5-741","lat":35.785211,"lon":139.525606},{"name":"清瀬市立三小第1第2学童クラブ","province":"東京都","city":"清瀬市","address":"東京都清瀬市竹丘1-15-4","lat":35.768568,"lon":139.509927},{"name":"清瀬市立中清戸第1第2学童クラブ","province":"東京都","city":"清瀬市","address":"東京都清瀬市中清戸1-556-1","lat":35.775051,"lon":139.528458},{"name":"清瀬市立清瀬小第2学童クラブ","province":"東京都","city":"清瀬市","address":"東京都清瀬市中里5-624","lat":35.78533,"lon":139.52593},{"name":"清瀬市立第３保育園","province":"東京都","city":"清瀬市","address":"清瀬市旭が丘3-755-1","lat":35.79724,"lon":139.53879},{"name":"せせらぎ保育園","province":"東京都","city":"清瀬市","address":"清瀬市中里1-1704","lat":35.77921,"lon":139.51283},{"name":"すみれ保育園","province":"東京都","city":"清瀬市","address":"清瀬市中里3-1731-8","lat":35.77955,"lon":139.51706},{"name":"中里どろんこ保育園","province":"東京都","city":"清瀬市","address":"清瀬市中里6-23-1","lat":35.79083,"lon":139.52707},{"name":"のしお一丁目保育園","province":"東京都","city":"清瀬市","address":"清瀬市野塩1-322-1","lat":35.77913,"lon":139.49931},{"name":"のしお保育園","province":"東京都","city":"清瀬市","address":"清瀬市野塩5-249","lat":35.77622,"lon":139.49803},{"name":"中清戸保育園","province":"東京都","city":"清瀬市","address":"清瀬市下清戸1-21-3","lat":35.77878,"lon":139.53598},{"name":"きよせ保育園","province":"東京都","city":"清瀬市","address":"清瀬市上清戸2-5-40","lat":35.77921,"lon":139.51973},{"name":"清瀬駅前保育園","province":"東京都","city":"清瀬市","address":"清瀬市元町1-9-15","lat":35.77323,"lon":139.51839},{"name":"メリーポピンズ清瀬ルーム","province":"東京都","city":"清瀬市","address":"清瀬市松山1-40-2","lat":35.76819,"lon":139.51726},{"name":"メリーポピンズ松山ルーム","province":"東京都","city":"清瀬市","address":"清瀬市松山1-40-24","lat":35.76819,"lon":139.51726},{"name":"清瀬どろんこ保育園","province":"東京都","city":"清瀬市","address":"清瀬市松山3-1-24","lat":35.77222,"lon":139.51265},{"name":"清瀬市立第１保育園","province":"東京都","city":"清瀬市","address":"清瀬市松山3-1-73","lat":35.77222,"lon":139.51265},{"name":"清瀬市立第７保育園","province":"東京都","city":"清瀬市","address":"清瀬市竹丘1-15-11","lat":35.76803,"lon":139.51082},{"name":"清瀬上宮保育園","province":"東京都","city":"清瀬市","address":"清瀬市竹丘3-8-1","lat":35.76622,"lon":139.50188},{"name":"清瀬駅前乳児保育園","province":"東京都","city":"清瀬市","address":"清瀬市元町1-4-17","lat":35.77325,"lon":139.52049},{"name":"中里どろんこ保育園","province":"東京都","city":"清瀬市","address":"清瀬市中里6-23-1","lat":35.790082,"lon":139.527966},{"name":"駅前乳児保育園","province":"東京都","city":"清瀬市","address":"清瀬市元町1-4-17","lat":35.77325,"lon":139.52049},{"name":"清瀬市立乳児保育園","province":"東京都","city":"清瀬市","address":"清瀬市梅園2-9-38","lat":35.77246,"lon":139.50479},{"name":"清瀬市立梅園第1第2第3学童クラブ","province":"東京都","city":"清瀬市","address":"東京都清瀬市梅園2-9-38","lat":35.771999,"lon":139.505174},{"name":"清瀬市立清明小第1第2学童クラブ","province":"東京都","city":"清瀬市","address":"東京都清瀬市旭が丘2-8-1","lat":35.796885,"lon":139.539993},{"name":"清瀬市立四小学童クラブ","province":"東京都","city":"清瀬市","address":"東京都清瀬市中里2-1471","lat":35.783236,"lon":139.510435},{"name":"清瀬市立八小第1第2学童クラブ","province":"東京都","city":"清瀬市","address":"東京都清瀬市中清戸4-1070","lat":35.787303,"lon":139.530847},{"name":"清瀬市立竹丘第1第２学童クラブ","province":"東京都","city":"清瀬市","address":"東京都清瀬市竹丘1-15-11","lat":35.767616,"lon":139.511404},{"name":"清瀬市立芝山小第1第2学童クラブ","province":"東京都","city":"清瀬市","address":"東京都清瀬市元町2-16-8","lat":35.775359,"lon":139.511204},{"name":"清瀬市立清瀬小第1学童クラブ","province":"東京都","city":"清瀬市","address":"東京都清瀬市中里5-741","lat":35.785211,"lon":139.525606},{"name":"清瀬市立三小第1第2学童クラブ","province":"東京都","city":"清瀬市","address":"東京都清瀬市竹丘1-15-4","lat":35.768568,"lon":139.509927},{"name":"清瀬市立中清戸第1第2学童クラブ","province":"東京都","city":"清瀬市","address":"東京都清瀬市中清戸1-556-1","lat":35.775051,"lon":139.528458},{"name":"清瀬市立清瀬小第2学童クラブ","province":"東京都","city":"清瀬市","address":"東京都清瀬市中里5-624","lat":35.78533,"lon":139.52593},{"name":"清瀬市立第３保育園","province":"東京都","city":"清瀬市","address":"清瀬市旭が丘3-755-1","lat":35.79724,"lon":139.53879},{"name":"せせらぎ保育園","province":"東京都","city":"清瀬市","address":"清瀬市中里1-1704","lat":35.77921,"lon":139.51283},{"name":"すみれ保育園","province":"東京都","city":"清瀬市","address":"清瀬市中里3-1731-8","lat":35.77955,"lon":139.51706},{"name":"中里どろんこ保育園","province":"東京都","city":"清瀬市","address":"清瀬市中里6-23-1","lat":35.79083,"lon":139.52707},{"name":"のしお一丁目保育園","province":"東京都","city":"清瀬市","address":"清瀬市野塩1-322-1","lat":35.77913,"lon":139.49931},{"name":"のしお保育園","province":"東京都","city":"清瀬市","address":"清瀬市野塩5-249","lat":35.77622,"lon":139.49803},{"name":"中清戸保育園","province":"東京都","city":"清瀬市","address":"清瀬市下清戸1-21-3","lat":35.77878,"lon":139.53598},{"name":"きよせ保育園","province":"東京都","city":"清瀬市","address":"清瀬市上清戸2-5-40","lat":35.77921,"lon":139.51973},{"name":"清瀬駅前保育園","province":"東京都","city":"清瀬市","address":"清瀬市元町1-9-15","lat":35.77323,"lon":139.51839},{"name":"メリーポピンズ清瀬ルーム","province":"東京都","city":"清瀬市","address":"清瀬市松山1-40-2","lat":35.76819,"lon":139.51726},{"name":"メリーポピンズ松山ルーム","province":"東京都","city":"清瀬市","address":"清瀬市松山1-40-24","lat":35.76819,"lon":139.51726},{"name":"清瀬どろんこ保育園","province":"東京都","city":"清瀬市","address":"清瀬市松山3-1-24","lat":35.77222,"lon":139.51265},{"name":"清瀬市立第１保育園","province":"東京都","city":"清瀬市","address":"清瀬市松山3-1-73","lat":35.77222,"lon":139.51265},{"name":"清瀬市立第７保育園","province":"東京都","city":"清瀬市","address":"清瀬市竹丘1-15-11","lat":35.76803,"lon":139.51082},{"name":"清瀬上宮保育園","province":"東京都","city":"清瀬市","address":"清瀬市竹丘3-8-1","lat":35.76622,"lon":139.50188},{"name":"清瀬駅前乳児保育園","province":"東京都","city":"清瀬市","address":"清瀬市元町1-4-17","lat":35.77325,"lon":139.52049},{"name":"中里どろんこ保育園","province":"東京都","city":"清瀬市","address":"清瀬市中里6-23-1","lat":35.790082,"lon":139.527966},{"name":"駅前乳児保育園","province":"東京都","city":"清瀬市","address":"清瀬市元町1-4-17","lat":35.77325,"lon":139.52049},{"name":"清瀬市立乳児保育園","province":"東京都","city":"清瀬市","address":"清瀬市梅園2-9-38","lat":35.77246,"lon":139.50479},{"name":"清瀬市立梅園第1第2第3学童クラブ","province":"東京都","city":"清瀬市","address":"東京都清瀬市梅園2-9-38","lat":35.771999,"lon":139.505174},{"name":"清瀬市立清明小第1第2学童クラブ","province":"東京都","city":"清瀬市","address":"東京都清瀬市旭が丘2-8-1","lat":35.796885,"lon":139.539993},{"name":"清瀬市立四小学童クラブ","province":"東京都","city":"清瀬市","address":"東京都清瀬市中里2-1471","lat":35.783236,"lon":139.510435},{"name":"清瀬市立八小第1第2学童クラブ","province":"東京都","city":"清瀬市","address":"東京都清瀬市中清戸4-1070","lat":35.787303,"lon":139.530847},{"name":"清瀬市立竹丘第1第２学童クラブ","province":"東京都","city":"清瀬市","address":"東京都清瀬市竹丘1-15-11","lat":35.767616,"lon":139.511404},{"name":"清瀬市立芝山小第1第2学童クラブ","province":"東京都","city":"清瀬市","address":"東京都清瀬市元町2-16-8","lat":35.775359,"lon":139.511204},{"name":"清瀬市立清瀬小第1学童クラブ","province":"東京都","city":"清瀬市","address":"東京都清瀬市中里5-741","lat":35.785211,"lon":139.525606},{"name":"清瀬市立三小第1第2学童クラブ","province":"東京都","city":"清瀬市","address":"東京都清瀬市竹丘1-15-4","lat":35.768568,"lon":139.509927},{"name":"清瀬市立中清戸第1第2学童クラブ","province":"東京都","city":"清瀬市","address":"東京都清瀬市中清戸1-556-1","lat":35.775051,"lon":139.528458},{"name":"清瀬市立清瀬小第2学童クラブ","province":"東京都","city":"清瀬市","address":"東京都清瀬市中里5-624","lat":35.78533,"lon":139.52593},{"name":"清瀬市立第３保育園","province":"東京都","city":"清瀬市","address":"清瀬市旭が丘3-755-1","lat":35.79724,"lon":139.53879},{"name":"せせらぎ保育園","province":"東京都","city":"清瀬市","address":"清瀬市中里1-1704","lat":35.77921,"lon":139.51283},{"name":"すみれ保育園","province":"東京都","city":"清瀬市","address":"清瀬市中里3-1731-8","lat":35.77955,"lon":139.51706},{"name":"中里どろんこ保育園","province":"東京都","city":"清瀬市","address":"清瀬市中里6-23-1","lat":35.79083,"lon":139.52707},{"name":"のしお一丁目保育園","province":"東京都","city":"清瀬市","address":"清瀬市野塩1-322-1","lat":35.77913,"lon":139.49931},{"name":"のしお保育園","province":"東京都","city":"清瀬市","address":"清瀬市野塩5-249","lat":35.77622,"lon":139.49803},{"name":"中清戸保育園","province":"東京都","city":"清瀬市","address":"清瀬市下清戸1-21-3","lat":35.77878,"lon":139.53598},{"name":"きよせ保育園","province":"東京都","city":"清瀬市","address":"清瀬市上清戸2-5-40","lat":35.77921,"lon":139.51973},{"name":"清瀬駅前保育園","province":"東京都","city":"清瀬市","address":"清瀬市元町1-9-15","lat":35.77323,"lon":139.51839},{"name":"メリーポピンズ清瀬ルーム","province":"東京都","city":"清瀬市","address":"清瀬市松山1-40-2","lat":35.76819,"lon":139.51726},{"name":"メリーポピンズ松山ルーム","province":"東京都","city":"清瀬市","address":"清瀬市松山1-40-24","lat":35.76819,"lon":139.51726},{"name":"清瀬どろんこ保育園","province":"東京都","city":"清瀬市","address":"清瀬市松山3-1-24","lat":35.77222,"lon":139.51265},{"name":"清瀬市立第１保育園","province":"東京都","city":"清瀬市","address":"清瀬市松山3-1-73","lat":35.77222,"lon":139.51265},{"name":"清瀬市立第７保育園","province":"東京都","city":"清瀬市","address":"清瀬市竹丘1-15-11","lat":35.76803,"lon":139.51082},{"name":"清瀬上宮保育園","province":"東京都","city":"清瀬市","address":"清瀬市竹丘3-8-1","lat":35.76622,"lon":139.50188},{"name":"清瀬駅前乳児保育園","province":"東京都","city":"清瀬市","address":"清瀬市元町1-4-17","lat":35.77325,"lon":139.52049},{"name":"中里どろんこ保育園","province":"東京都","city":"清瀬市","address":"清瀬市中里6-23-1","lat":35.790082,"lon":139.527966},{"name":"駅前乳児保育園","province":"東京都","city":"清瀬市","address":"清瀬市元町1-4-17","lat":35.77325,"lon":139.52049},{"name":"清瀬市立乳児保育園","province":"東京都","city":"清瀬市","address":"清瀬市梅園2-9-38","lat":35.77246,"lon":139.50479},{"name":"清瀬市立梅園第1第2第3学童クラブ","province":"東京都","city":"清瀬市","address":"東京都清瀬市梅園2-9-38","lat":35.771999,"lon":139.505174},{"name":"清瀬市立清明小第1第2学童クラブ","province":"東京都","city":"清瀬市","address":"東京都清瀬市旭が丘2-8-1","lat":35.796885,"lon":139.539993},{"name":"清瀬市立四小学童クラブ","province":"東京都","city":"清瀬市","address":"東京都清瀬市中里2-1471","lat":35.783236,"lon":139.510435},{"name":"清瀬市立八小第1第2学童クラブ","province":"東京都","city":"清瀬市","address":"東京都清瀬市中清戸4-1070","lat":35.787303,"lon":139.530847},{"name":"清瀬市立竹丘第1第２学童クラブ","province":"東京都","city":"清瀬市","address":"東京都清瀬市竹丘1-15-11","lat":35.767616,"lon":139.511404},{"name":"清瀬市立芝山小第1第2学童クラブ","province":"東京都","city":"清瀬市","address":"東京都清瀬市元町2-16-8","lat":35.775359,"lon":139.511204},{"name":"清瀬市立清瀬小第1学童クラブ","province":"東京都","city":"清瀬市","address":"東京都清瀬市中里5-741","lat":35.785211,"lon":139.525606},{"name":"清瀬市立三小第1第2学童クラブ","province":"東京都","city":"清瀬市","address":"東京都清瀬市竹丘1-15-4","lat":35.768568,"lon":139.509927},{"name":"清瀬市立中清戸第1第2学童クラブ","province":"東京都","city":"清瀬市","address":"東京都清瀬市中清戸1-556-1","lat":35.775051,"lon":139.528458},{"name":"清瀬市立清瀬小第2学童クラブ","province":"東京都","city":"清瀬市","address":"東京都清瀬市中里5-624","lat":35.78533,"lon":139.52593},{"name":"清瀬市立第３保育園","province":"東京都","city":"清瀬市","address":"清瀬市旭が丘3-755-1","lat":35.79724,"lon":139.53879},{"name":"せせらぎ保育園","province":"東京都","city":"清瀬市","address":"清瀬市中里1-1704","lat":35.77921,"lon":139.51283},{"name":"すみれ保育園","province":"東京都","city":"清瀬市","address":"清瀬市中里3-1731-8","lat":35.77955,"lon":139.51706},{"name":"中里どろんこ保育園","province":"東京都","city":"清瀬市","address":"清瀬市中里6-23-1","lat":35.79083,"lon":139.52707},{"name":"のしお一丁目保育園","province":"東京都","city":"清瀬市","address":"清瀬市野塩1-322-1","lat":35.77913,"lon":139.49931},{"name":"のしお保育園","province":"東京都","city":"清瀬市","address":"清瀬市野塩5-249","lat":35.77622,"lon":139.49803},{"name":"中清戸保育園","province":"東京都","city":"清瀬市","address":"清瀬市下清戸1-21-3","lat":35.77878,"lon":139.53598},{"name":"きよせ保育園","province":"東京都","city":"清瀬市","address":"清瀬市上清戸2-5-40","lat":35.77921,"lon":139.51973},{"name":"清瀬駅前保育園","province":"東京都","city":"清瀬市","address":"清瀬市元町1-9-15","lat":35.77323,"lon":139.51839},{"name":"メリーポピンズ清瀬ルーム","province":"東京都","city":"清瀬市","address":"清瀬市松山1-40-2","lat":35.76819,"lon":139.51726},{"name":"メリーポピンズ松山ルーム","province":"東京都","city":"清瀬市","address":"清瀬市松山1-40-24","lat":35.76819,"lon":139.51726},{"name":"清瀬どろんこ保育園","province":"東京都","city":"清瀬市","address":"清瀬市松山3-1-24","lat":35.77222,"lon":139.51265},{"name":"清瀬市立第１保育園","province":"東京都","city":"清瀬市","address":"清瀬市松山3-1-73","lat":35.77222,"lon":139.51265},{"name":"清瀬市立第７保育園","province":"東京都","city":"清瀬市","address":"清瀬市竹丘1-15-11","lat":35.76803,"lon":139.51082},{"name":"清瀬上宮保育園","province":"東京都","city":"清瀬市","address":"清瀬市竹丘3-8-1","lat":35.76622,"lon":139.50188},{"name":"清瀬駅前乳児保育園","province":"東京都","city":"清瀬市","address":"清瀬市元町1-4-17","lat":35.77325,"lon":139.52049},{"name":"中里どろんこ保育園","province":"東京都","city":"清瀬市","address":"清瀬市中里6-23-1","lat":35.790082,"lon":139.527966},{"name":"駅前乳児保育園","province":"東京都","city":"清瀬市","address":"清瀬市元町1-4-17","lat":35.77325,"lon":139.52049},{"name":"清瀬市立乳児保育園","province":"東京都","city":"清瀬市","address":"清瀬市梅園2-9-38","lat":35.77246,"lon":139.50479}]}