{"keyword":"商品","data":[{"name":"特別養護老人ホーム 救世軍恵泉ホーム","province":"東京都","city":"清瀬市","address":"東京都清瀬市竹丘1-17-61","lat":35.769635,"lon":139.508107},{"name":"特別養護老人ホーム 上宮園","province":"東京都","city":"清瀬市","address":"東京都清瀬市竹丘3-3-31","lat":35.767543,"lon":139.502455},{"name":"特別養護老人ホーム 信愛の園","province":"東京都","city":"清瀬市","address":"東京都清瀬市梅園2-3-15","lat":35.772751,"lon":139.503522},{"name":"特別養護老人ホーム 清雅苑","province":"東京都","city":"清瀬市","address":"東京都清瀬市中里5-91-2","lat":35.789366,"lon":139.531891},{"name":"特別養護老人ホーム 聖ヨゼフ老人ホーム","province":"東京都","city":"清瀬市","address":"東京都清瀬市梅園3-14-72","lat":35.772165,"lon":139.501911},{"name":"清瀬どんぐりの家","province":"東京都","city":"清瀬市","address":"東京都清瀬市野塩4-230-1","lat":35.774754,"lon":139.500036},{"name":"工房わかば","province":"東京都","city":"清瀬市","address":"東京都清瀬市野塩4-59-8","lat":35.775592,"lon":139.506768},{"name":"清瀬療護園","province":"東京都","city":"清瀬市","address":"東京都清瀬市竹丘3-1-72","lat":35.765507,"lon":139.503219},{"name":"介護老人保健施設 たけおか","province":"東京都","city":"清瀬市","address":"東京都清瀬市竹丘2-3-21","lat":35.76518,"lon":139.50899},{"name":"介護老人保健施設 ラビアンローゼ","province":"東京都","city":"清瀬市","address":"東京都清瀬市下清戸3-385","lat":35.784884,"lon":139.538971},{"name":"介護老人保健施設 きよせ認知症ケアセンター","province":"東京都","city":"清瀬市","address":"東京都清瀬市中清戸5-27","lat":35.77695,"lon":139.536959},{"name":"介護老人福祉施設 すずらん※","province":"東京都","city":"清瀬市","address":"東京都清瀬市長野県北佐久郡立科町大字芦田720-1","lat":36.27413,"lon":138.32288},{"name":"障害者福祉センター","province":"東京都","city":"清瀬市","address":"東京都清瀬市上清戸1-16-62","lat":35.773273,"lon":139.527679},{"name":"子どもの発達支援・交流センターとことこ","province":"東京都","city":"清瀬市","address":"東京都清瀬市竹丘1-15-8","lat":35.768108,"lon":139.511079},{"name":"東京都立 清瀬特別支援学校","province":"東京都","city":"清瀬市","address":"東京都清瀬市松山3-1-97","lat":35.76896,"lon":139.511529},{"name":"ヒューマンライフケア清瀬","province":"東京都","city":"清瀬市","address":"東京都清瀬市元町1-8-25","lat":35.77412,"lon":139.519828},{"name":"ツクイ秋津","province":"東京都","city":"清瀬市","address":"東京都清瀬市野塩1-303-2","lat":35.779016,"lon":139.497067},{"name":"グループホーム清瀬","province":"東京都","city":"清瀬市","address":"東京都清瀬市中清戸5-132-1","lat":35.779676,"lon":139.532555},{"name":"グループホームさくらの苑","province":"東京都","city":"清瀬市","address":"東京都清瀬市中清戸5-27-3","lat":35.779659,"lon":139.532564},{"name":"しんあい清戸の里","province":"東京都","city":"清瀬市","address":"東京都清瀬市下清戸1-305-1","lat":35.780341,"lon":139.536013},{"name":"ホームステーションらいふ清瀬","province":"東京都","city":"清瀬市","address":"東京都清瀬市松山1-4-16","lat":35.770683,"lon":139.5207},{"name":"みどりの樹清瀬","province":"東京都","city":"清瀬市","address":"東京都清瀬市下清戸4-709-17","lat":35.786527,"lon":139.539276},{"name":"下宿児童館","province":"東京都","city":"清瀬市","address":"清瀬市下宿2-524-1","lat":35.79759,"lon":139.533366},{"name":"野塩児童館","province":"東京都","city":"清瀬市","address":"清瀬市野塩1-322-2","lat":35.77918,"lon":139.499424},{"name":"清瀬市中央児童館","province":"東京都","city":"清瀬市","address":"清瀬市中清戸3-235-5","lat":35.776412,"lon":139.530649},{"name":"日本社会事業大学附属　子ども学園","province":"東京都","city":"清瀬市","address":"清瀬市梅園1-2-50","lat":35.773956,"lon":139.50729},{"name":"清瀬作業所","province":"東京都","city":"清瀬市","address":"清瀬市松山2-18-2","lat":35.774134,"lon":139.511501},{"name":"清瀬療護園","province":"東京都","city":"清瀬市","address":"清瀬市竹丘3-1-72","lat":35.764535,"lon":139.504321},{"name":"東京都清瀬喜望園","province":"東京都","city":"清瀬市","address":"清瀬市竹丘3-1-72","lat":35.764535,"lon":139.504321},{"name":"清瀬市社会福祉協議会","province":"東京都","city":"清瀬市","address":"清瀬市下清戸1-212-4清瀬市コミュニティプラザ2階","lat":35.778162,"lon":139.538732},{"name":"清瀬市子ども家庭支援センター","province":"東京都","city":"清瀬市","address":"清瀬市中清戸3-235-5清瀬市児童センター内","lat":35.776412,"lon":139.530649},{"name":"清瀬市健康センター","province":"東京都","city":"清瀬市","address":"清瀬市中里5-842","lat":35.786052,"lon":139.526353},{"name":"東京都職員共済組合清瀬運動場","province":"東京都","city":"清瀬市","address":"東京都清瀬市竹丘3丁目10-5","lat":35.763239,"lon":139.501765},{"name":"清瀬消防署","province":"東京都","city":"清瀬市","address":"東京都清瀬市中清戸2丁目850-1","lat":35.784199,"lon":139.527612},{"name":"清瀬市男女共同参画センター","province":"東京都","city":"清瀬市","address":"東京都清瀬市元町1丁目2-11","lat":35.772081,"lon":139.521166},{"name":"清瀬市立野塩地域市民センター","province":"東京都","city":"清瀬市","address":"東京都清瀬市野塩1丁目322-2","lat":35.779154,"lon":139.499453},{"name":"清瀬市消費生活センター","province":"東京都","city":"清瀬市","address":"東京都清瀬市元町1丁目4-17","lat":35.774432,"lon":139.520631},{"name":"清瀬市立松山地域市民センター","province":"東京都","city":"清瀬市","address":"東京都清瀬市松山2丁目6-25","lat":35.771015,"lon":139.514769},{"name":"清瀬市立中央図書館","province":"東京都","city":"清瀬市","address":"東京都清瀬市梅園1丁目1-21","lat":35.773061,"lon":139.511158},{"name":"清瀬市児童センター","province":"東京都","city":"清瀬市","address":"東京都清瀬市中清戸3丁目235-5","lat":35.776369,"lon":139.530591},{"name":"清瀬市しあわせ未来センター","province":"東京都","city":"清瀬市","address":"東京都清瀬市中里5丁目842","lat":35.786013,"lon":139.526003},{"name":"きよせボランティア・市民活動センター","province":"東京都","city":"清瀬市","address":"東京都清瀬市上清戸2丁目6-10","lat":35.779244,"lon":139.520989},{"name":"清瀬市役所本庁舎","province":"東京都","city":"清瀬市","address":"東京都清瀬市中里5丁目842","lat":35.7855,"lon":139.526736},{"name":"清瀬市生涯学習センター","province":"東京都","city":"清瀬市","address":"東京都清瀬市元町1丁目2-11","lat":35.772116,"lon":139.521038},{"name":"下清戸集会所","province":"東京都","city":"清瀬市","address":"東京都清瀬市下清戸5丁目","lat":35.786967,"lon":139.540721},{"name":"下清戸集会所","province":"東京都","city":"清瀬市","address":"東京都清瀬市下清戸5丁目855-3","lat":35.786898,"lon":139.540697},{"name":"清瀬市コミュニティプラザ","province":"東京都","city":"清瀬市","address":"東京都清瀬市下清戸1丁目212-4","lat":35.77785,"lon":139.539004},{"name":"清瀬市下宿地域市民センター","province":"東京都","city":"清瀬市","address":"東京都清瀬市下宿2丁目524-1","lat":35.797345,"lon":139.533076},{"name":"清瀬市立竹丘地域市民センター","province":"東京都","city":"清瀬市","address":"東京都清瀬市竹丘1丁目11","lat":35.765832,"lon":139.51142},{"name":"清瀬市立中清戸地域市民センター","province":"東京都","city":"清瀬市","address":"東京都清瀬市中清戸4丁目847","lat":35.785085,"lon":139.528109},{"name":"清瀬市立中里地域市民センター","province":"東京都","city":"清瀬市","address":"東京都清瀬市中里4丁目1301","lat":35.78659,"lon":139.514052},{"name":"清瀬市郷土博物館","province":"東京都","city":"清瀬市","address":"東京都清瀬市上清戸2丁目6-41","lat":35.779715,"lon":139.520962},{"name":"清瀬けやきホール","province":"東京都","city":"清瀬市","address":"東京都清瀬市元町1丁目6-6","lat":35.774541,"lon":139.519545},{"name":"清瀬けやきホール","province":"東京都","city":"清瀬市","address":"東京都清瀬市元町1丁目6-6","lat":35.774615,"lon":139.519615},{"name":"清瀬けやきホール","province":"東京都","city":"清瀬市","address":"東京都清瀬市元町1丁目6-6","lat":35.774663,"lon":139.519519},{"name":"清瀬中央公園","province":"東京都","city":"清瀬市","address":"東京都清瀬市梅園1丁目2","lat":35.773901,"lon":139.511016},{"name":"神山公園","province":"東京都","city":"清瀬市","address":"東京都清瀬市中清戸3丁目","lat":35.775562,"lon":139.531032},{"name":"金山緑地公園","province":"東京都","city":"清瀬市","address":"東京都清瀬市中里4丁目","lat":35.78918,"lon":139.522429},{"name":"竹丘緑地公園","province":"東京都","city":"清瀬市","address":"東京都清瀬市竹丘2丁目7","lat":35.765144,"lon":139.509776},{"name":"竹丘なかよし公園","province":"東京都","city":"清瀬市","address":"東京都清瀬市竹丘1丁目14","lat":35.767155,"lon":139.511048},{"name":"せせらぎ公園","province":"東京都","city":"清瀬市","address":"東京都清瀬市中里2丁目","lat":35.783195,"lon":139.510571},{"name":"中里柳瀬公園","province":"東京都","city":"清瀬市","address":"東京都清瀬市中里4丁目","lat":35.786545,"lon":139.514427},{"name":"中清戸けやき公園","province":"東京都","city":"清瀬市","address":"東京都清瀬市中清戸4丁目","lat":35.786343,"lon":139.529185},{"name":"清瀬駅南口公衆トイレ","province":"東京都","city":"清瀬市","address":"東京都清瀬市松山1丁目2","lat":35.771818,"lon":139.520245},{"name":"清瀬市障害者福祉センター","province":"東京都","city":"清瀬市","address":"東京都清瀬市上清戸1丁目16-62","lat":35.77336,"lon":139.527637},{"name":"清瀬市障害者福祉センター","province":"東京都","city":"清瀬市","address":"東京都清瀬市上清戸1丁目16-62","lat":35.77339,"lon":139.527597},{"name":"清瀬市子どもの発達支援・交流センターとことこ","province":"東京都","city":"清瀬市","address":"東京都清瀬市竹丘1丁目15-8","lat":35.768114,"lon":139.51107},{"name":"野塩多世代交流施設 えーるプラザ野塩","province":"東京都","city":"清瀬市","address":"東京都清瀬市野塩2丁目","lat":35.782297,"lon":139.502462},{"name":"清瀬市しあわせ未来センター","province":"東京都","city":"清瀬市","address":"東京都清瀬市中里5丁目842","lat":35.78608019,"lon":139.52608035},{"name":"中里地域市民センター","province":"東京都","city":"清瀬市","address":"清瀬市中里4-1301","lat":35.78615,"lon":139.51431},{"name":"野塩地域市民センター","province":"東京都","city":"清瀬市","address":"清瀬市野塩1-322-2","lat":35.77913,"lon":139.49931},{"name":"中清戸地域市民センター","province":"東京都","city":"清瀬市","address":"清瀬市中清戸4-847-5","lat":35.78493,"lon":139.52788},{"name":"松山地域市民センター","province":"東京都","city":"清瀬市","address":"清瀬市松山2-6-25","lat":35.77155,"lon":139.51575},{"name":"慈生会ナザレットの家","province":"東京都","city":"清瀬市","address":"清瀬市梅園3-14-23","lat":35.77177,"lon":139.50096},{"name":"子供の家","province":"東京都","city":"清瀬市","address":"清瀬市松山3-12-17","lat":35.76651,"lon":139.51405},{"name":"ベトレヘム学園","province":"東京都","city":"清瀬市","address":"清瀬市梅園3-14-23","lat":35.77177,"lon":139.50096},{"name":"下宿児童館","province":"東京都","city":"清瀬市","address":"清瀬市下宿2-524-1","lat":35.79878,"lon":139.53471},{"name":"野塩児童館","province":"東京都","city":"清瀬市","address":"清瀬市野塩1-322-2","lat":35.77913,"lon":139.49931},{"name":"清瀬市中央児童館","province":"東京都","city":"清瀬市","address":"清瀬市中清戸3-235-5","lat":35.77712,"lon":139.53165},{"name":"あすなろ荘","province":"東京都","city":"清瀬市","address":"東京都清瀬市","lat":35.78534142,"lon":139.52677749},{"name":"清瀬市社会福祉協議会","province":"東京都","city":"清瀬市","address":"清瀬市下清戸1-212-4清瀬市コミュニティプラザ2階","lat":35.77874,"lon":139.53719},{"name":"清瀬市","province":"東京都","city":"清瀬市","address":"清瀬市中里5-842","lat":35.78557,"lon":139.52655},{"name":"清瀬市しあわせ未来センター","province":"東京都","city":"清瀬市","address":"清瀬市中里5-842","lat":35.78557,"lon":139.52655},{"name":"清瀬市子ども家庭支援センター","province":"東京都","city":"清瀬市","address":"清瀬市中里5-842清瀬市役所北隣しあわせ未来センター内","lat":35.78591,"lon":139.52619},{"name":"清瀬市子ども家庭支援センター","province":"東京都","city":"清瀬市","address":"清瀬市中清戸3-235-5児童センターころぽっくる内","lat":35.77712,"lon":139.53165},{"name":"清瀬市健康センター","province":"東京都","city":"清瀬市","address":"清瀬市中里5-842","lat":35.78557,"lon":139.52655},{"name":"中里地域市民センター","province":"東京都","city":"清瀬市","address":"清瀬市中里4-1301","lat":35.786499,"lon":139.514165},{"name":"野塩地域市民センター","province":"東京都","city":"清瀬市","address":"清瀬市野塩1-322-2","lat":35.77918,"lon":139.499424},{"name":"松山地域市民センター","province":"東京都","city":"清瀬市","address":"清瀬市松山2-6-25","lat":35.770998,"lon":139.51477},{"name":"慈生会ナザレットの家","province":"東京都","city":"清瀬市","address":"清瀬市梅園3-14-23","lat":35.770518,"lon":139.501347},{"name":"子供の家","province":"東京都","city":"清瀬市","address":"清瀬市松山3-12-17","lat":35.76651,"lon":139.514053},{"name":"ベトレヘム学園","province":"東京都","city":"清瀬市","address":"清瀬市梅園3-14-23","lat":35.770518,"lon":139.501347},{"name":"清瀬市子ども家庭支援センター","province":"東京都","city":"清瀬市","address":"清瀬市中清戸3-235-5清瀬市児童センター内","lat":35.77867,"lon":139.53389},{"name":"国立病院機構東京病院","province":"東京都","city":"清瀬市","address":"東京都清瀬市竹丘3丁目1-1","lat":35.76696263,"lon":139.5045714},{"name":"＊?清瀬市生涯学習センター","province":"東京都","city":"清瀬市","address":"清瀬市元町1-2-11アミューー5~7階","lat":35.772216,"lon":139.521175},{"name":"＊?清瀬市男女共同参画センター（アイレック）","province":"東京都","city":"清瀬市","address":"清瀬市元町1-2-11アミュー4階","lat":35.772206,"lon":139.521171},{"name":"清瀬市","province":"東京都","city":"清瀬市","address":"清瀬市中里5-842","lat":35.786052,"lon":139.526353},{"name":"清瀬市健康センター","province":"東京都","city":"清瀬市","address":"東京都清瀬市中里5丁目842","lat":35.78608019,"lon":139.52608035},{"name":"清瀬消防署","province":"東京都","city":"清瀬市","address":"清瀬市中清戸2-850-1","lat":35.78419,"lon":139.5276},{"name":"（株）千代田","province":"東京都","city":"清瀬市","address":"清瀬市松山2-13-10","lat":35.77322,"lon":139.5138},{"name":"東京都共済組合清瀬運動場","province":"東京都","city":"清瀬市","address":"清瀬市竹丘3-10-5","lat":35.7646,"lon":139.5013},{"name":"特別養護老人ホーム 救世軍恵泉ホーム","province":"東京都","city":"清瀬市","address":"東京都清瀬市竹丘1-17-61","lat":35.769635,"lon":139.508107},{"name":"特別養護老人ホーム 上宮園","province":"東京都","city":"清瀬市","address":"東京都清瀬市竹丘3-3-31","lat":35.767543,"lon":139.502455},{"name":"特別養護老人ホーム 信愛の園","province":"東京都","city":"清瀬市","address":"東京都清瀬市梅園2-3-15","lat":35.772751,"lon":139.503522},{"name":"特別養護老人ホーム 清雅苑","province":"東京都","city":"清瀬市","address":"東京都清瀬市中里5-91-2","lat":35.789366,"lon":139.531891},{"name":"特別養護老人ホーム 聖ヨゼフ老人ホーム","province":"東京都","city":"清瀬市","address":"東京都清瀬市梅園3-14-72","lat":35.772165,"lon":139.501911},{"name":"清瀬どんぐりの家","province":"東京都","city":"清瀬市","address":"東京都清瀬市野塩4-230-1","lat":35.774754,"lon":139.500036},{"name":"工房わかば","province":"東京都","city":"清瀬市","address":"東京都清瀬市野塩4-59-8","lat":35.775592,"lon":139.506768},{"name":"清瀬療護園","province":"東京都","city":"清瀬市","address":"東京都清瀬市竹丘3-1-72","lat":35.765507,"lon":139.503219},{"name":"介護老人保健施設 たけおか","province":"東京都","city":"清瀬市","address":"東京都清瀬市竹丘2-3-21","lat":35.76518,"lon":139.50899},{"name":"介護老人保健施設 ラビアンローゼ","province":"東京都","city":"清瀬市","address":"東京都清瀬市下清戸3-385","lat":35.784884,"lon":139.538971},{"name":"介護老人保健施設 きよせ認知症ケアセンター","province":"東京都","city":"清瀬市","address":"東京都清瀬市中清戸5-27","lat":35.77695,"lon":139.536959},{"name":"介護老人福祉施設 すずらん※","province":"東京都","city":"清瀬市","address":"東京都清瀬市長野県北佐久郡立科町大字芦田720-1","lat":36.27413,"lon":138.32288},{"name":"障害者福祉センター","province":"東京都","city":"清瀬市","address":"東京都清瀬市上清戸1-16-62","lat":35.773273,"lon":139.527679},{"name":"子どもの発達支援・交流センターとことこ","province":"東京都","city":"清瀬市","address":"東京都清瀬市竹丘1-15-8","lat":35.768108,"lon":139.511079},{"name":"東京都立 清瀬特別支援学校","province":"東京都","city":"清瀬市","address":"東京都清瀬市松山3-1-97","lat":35.76896,"lon":139.511529},{"name":"ヒューマンライフケア清瀬","province":"東京都","city":"清瀬市","address":"東京都清瀬市元町1-8-25","lat":35.77412,"lon":139.519828},{"name":"ツクイ秋津","province":"東京都","city":"清瀬市","address":"東京都清瀬市野塩1-303-2","lat":35.779016,"lon":139.497067},{"name":"グループホーム清瀬","province":"東京都","city":"清瀬市","address":"東京都清瀬市中清戸5-132-1","lat":35.779676,"lon":139.532555},{"name":"グループホームさくらの苑","province":"東京都","city":"清瀬市","address":"東京都清瀬市中清戸5-27-3","lat":35.779659,"lon":139.532564},{"name":"しんあい清戸の里","province":"東京都","city":"清瀬市","address":"東京都清瀬市下清戸1-305-1","lat":35.780341,"lon":139.536013},{"name":"ホームステーションらいふ清瀬","province":"東京都","city":"清瀬市","address":"東京都清瀬市松山1-4-16","lat":35.770683,"lon":139.5207},{"name":"みどりの樹清瀬","province":"東京都","city":"清瀬市","address":"東京都清瀬市下清戸4-709-17","lat":35.786527,"lon":139.539276},{"name":"下宿児童館","province":"東京都","city":"清瀬市","address":"清瀬市下宿2-524-1","lat":35.79759,"lon":139.533366},{"name":"野塩児童館","province":"東京都","city":"清瀬市","address":"清瀬市野塩1-322-2","lat":35.77918,"lon":139.499424},{"name":"清瀬市中央児童館","province":"東京都","city":"清瀬市","address":"清瀬市中清戸3-235-5","lat":35.776412,"lon":139.530649},{"name":"日本社会事業大学附属　子ども学園","province":"東京都","city":"清瀬市","address":"清瀬市梅園1-2-50","lat":35.773956,"lon":139.50729},{"name":"清瀬作業所","province":"東京都","city":"清瀬市","address":"清瀬市松山2-18-2","lat":35.774134,"lon":139.511501},{"name":"清瀬療護園","province":"東京都","city":"清瀬市","address":"清瀬市竹丘3-1-72","lat":35.764535,"lon":139.504321},{"name":"東京都清瀬喜望園","province":"東京都","city":"清瀬市","address":"清瀬市竹丘3-1-72","lat":35.764535,"lon":139.504321},{"name":"清瀬市子ども家庭支援センター","province":"東京都","city":"清瀬市","address":"清瀬市中清戸3-235-5清瀬市児童センター内","lat":35.776412,"lon":139.530649},{"name":"清瀬市健康センター","province":"東京都","city":"清瀬市","address":"清瀬市中里5-842","lat":35.786052,"lon":139.526353},{"name":"東京都職員共済組合清瀬運動場","province":"東京都","city":"清瀬市","address":"東京都清瀬市竹丘3丁目10-5","lat":35.763239,"lon":139.501765},{"name":"清瀬消防署","province":"東京都","city":"清瀬市","address":"東京都清瀬市中清戸2丁目850-1","lat":35.784199,"lon":139.527612},{"name":"清瀬市男女共同参画センター","province":"東京都","city":"清瀬市","address":"東京都清瀬市元町1丁目2-11","lat":35.772081,"lon":139.521166},{"name":"清瀬市立野塩地域市民センター","province":"東京都","city":"清瀬市","address":"東京都清瀬市野塩1丁目322-2","lat":35.779154,"lon":139.499453},{"name":"清瀬市消費生活センター","province":"東京都","city":"清瀬市","address":"東京都清瀬市元町1丁目4-17","lat":35.774432,"lon":139.520631},{"name":"清瀬市立松山地域市民センター","province":"東京都","city":"清瀬市","address":"東京都清瀬市松山2丁目6-25","lat":35.771015,"lon":139.514769},{"name":"清瀬市立中央図書館","province":"東京都","city":"清瀬市","address":"東京都清瀬市梅園1丁目1-21","lat":35.773061,"lon":139.511158},{"name":"清瀬市児童センター","province":"東京都","city":"清瀬市","address":"東京都清瀬市中清戸3丁目235-5","lat":35.776369,"lon":139.530591},{"name":"清瀬市しあわせ未来センター","province":"東京都","city":"清瀬市","address":"東京都清瀬市中里5丁目842","lat":35.786013,"lon":139.526003},{"name":"きよせボランティア・市民活動センター","province":"東京都","city":"清瀬市","address":"東京都清瀬市上清戸2丁目6-10","lat":35.779244,"lon":139.520989},{"name":"清瀬市役所本庁舎","province":"東京都","city":"清瀬市","address":"東京都清瀬市中里5丁目842","lat":35.7855,"lon":139.526736},{"name":"清瀬市生涯学習センター","province":"東京都","city":"清瀬市","address":"東京都清瀬市元町1丁目2-11","lat":35.772116,"lon":139.521038},{"name":"下清戸集会所","province":"東京都","city":"清瀬市","address":"東京都清瀬市下清戸5丁目","lat":35.786967,"lon":139.540721},{"name":"下清戸集会所","province":"東京都","city":"清瀬市","address":"東京都清瀬市下清戸5丁目855-3","lat":35.786898,"lon":139.540697},{"name":"清瀬市コミュニティプラザ","province":"東京都","city":"清瀬市","address":"東京都清瀬市下清戸1丁目212-4","lat":35.77785,"lon":139.539004},{"name":"清瀬市下宿地域市民センター","province":"東京都","city":"清瀬市","address":"東京都清瀬市下宿2丁目524-1","lat":35.797345,"lon":139.533076},{"name":"清瀬市立竹丘地域市民センター","province":"東京都","city":"清瀬市","address":"東京都清瀬市竹丘1丁目11","lat":35.765832,"lon":139.51142},{"name":"清瀬市立中清戸地域市民センター","province":"東京都","city":"清瀬市","address":"東京都清瀬市中清戸4丁目847","lat":35.785085,"lon":139.528109},{"name":"清瀬市立中里地域市民センター","province":"東京都","city":"清瀬市","address":"東京都清瀬市中里4丁目1301","lat":35.78659,"lon":139.514052},{"name":"清瀬市郷土博物館","province":"東京都","city":"清瀬市","address":"東京都清瀬市上清戸2丁目6-41","lat":35.779715,"lon":139.520962},{"name":"清瀬けやきホール","province":"東京都","city":"清瀬市","address":"東京都清瀬市元町1丁目6-6","lat":35.774541,"lon":139.519545},{"name":"清瀬けやきホール","province":"東京都","city":"清瀬市","address":"東京都清瀬市元町1丁目6-6","lat":35.774615,"lon":139.519615},{"name":"清瀬けやきホール","province":"東京都","city":"清瀬市","address":"東京都清瀬市元町1丁目6-6","lat":35.774663,"lon":139.519519},{"name":"清瀬中央公園","province":"東京都","city":"清瀬市","address":"東京都清瀬市梅園1丁目2","lat":35.773901,"lon":139.511016},{"name":"神山公園","province":"東京都","city":"清瀬市","address":"東京都清瀬市中清戸3丁目","lat":35.775562,"lon":139.531032},{"name":"金山緑地公園","province":"東京都","city":"清瀬市","address":"東京都清瀬市中里4丁目","lat":35.78918,"lon":139.522429},{"name":"竹丘緑地公園","province":"東京都","city":"清瀬市","address":"東京都清瀬市竹丘2丁目7","lat":35.765144,"lon":139.509776},{"name":"竹丘なかよし公園","province":"東京都","city":"清瀬市","address":"東京都清瀬市竹丘1丁目14","lat":35.767155,"lon":139.511048},{"name":"せせらぎ公園","province":"東京都","city":"清瀬市","address":"東京都清瀬市中里2丁目","lat":35.783195,"lon":139.510571},{"name":"中里柳瀬公園","province":"東京都","city":"清瀬市","address":"東京都清瀬市中里4丁目","lat":35.786545,"lon":139.514427},{"name":"中清戸けやき公園","province":"東京都","city":"清瀬市","address":"東京都清瀬市中清戸4丁目","lat":35.786343,"lon":139.529185},{"name":"清瀬駅南口公衆トイレ","province":"東京都","city":"清瀬市","address":"東京都清瀬市松山1丁目2","lat":35.771818,"lon":139.520245},{"name":"清瀬市障害者福祉センター","province":"東京都","city":"清瀬市","address":"東京都清瀬市上清戸1丁目16-62","lat":35.77336,"lon":139.527637},{"name":"清瀬市障害者福祉センター","province":"東京都","city":"清瀬市","address":"東京都清瀬市上清戸1丁目16-62","lat":35.77339,"lon":139.527597},{"name":"清瀬市子どもの発達支援・交流センターとことこ","province":"東京都","city":"清瀬市","address":"東京都清瀬市竹丘1丁目15-8","lat":35.768114,"lon":139.51107},{"name":"野塩多世代交流施設 えーるプラザ野塩","province":"東京都","city":"清瀬市","address":"東京都清瀬市野塩2丁目","lat":35.782297,"lon":139.502462},{"name":"清瀬市しあわせ未来センター","province":"東京都","city":"清瀬市","address":"東京都清瀬市中里5丁目842","lat":35.78608019,"lon":139.52608035},{"name":"中里地域市民センター","province":"東京都","city":"清瀬市","address":"清瀬市中里4-1301","lat":35.78615,"lon":139.51431},{"name":"野塩地域市民センター","province":"東京都","city":"清瀬市","address":"清瀬市野塩1-322-2","lat":35.77913,"lon":139.49931},{"name":"中清戸地域市民センター","province":"東京都","city":"清瀬市","address":"清瀬市中清戸4-847-5","lat":35.78493,"lon":139.52788},{"name":"松山地域市民センター","province":"東京都","city":"清瀬市","address":"清瀬市松山2-6-25","lat":35.77155,"lon":139.51575},{"name":"慈生会ナザレットの家","province":"東京都","city":"清瀬市","address":"清瀬市梅園3-14-23","lat":35.77177,"lon":139.50096},{"name":"子供の家","province":"東京都","city":"清瀬市","address":"清瀬市松山3-12-17","lat":35.76651,"lon":139.51405},{"name":"ベトレヘム学園","province":"東京都","city":"清瀬市","address":"清瀬市梅園3-14-23","lat":35.77177,"lon":139.50096},{"name":"下宿児童館","province":"東京都","city":"清瀬市","address":"清瀬市下宿2-524-1","lat":35.79878,"lon":139.53471},{"name":"野塩児童館","province":"東京都","city":"清瀬市","address":"清瀬市野塩1-322-2","lat":35.77913,"lon":139.49931},{"name":"清瀬市中央児童館","province":"東京都","city":"清瀬市","address":"清瀬市中清戸3-235-5","lat":35.77712,"lon":139.53165},{"name":"あすなろ荘","province":"東京都","city":"清瀬市","address":"東京都清瀬市","lat":35.78534142,"lon":139.52677749},{"name":"清瀬市","province":"東京都","city":"清瀬市","address":"清瀬市中里5-842","lat":35.78557,"lon":139.52655},{"name":"清瀬市しあわせ未来センター","province":"東京都","city":"清瀬市","address":"清瀬市中里5-842","lat":35.78557,"lon":139.52655},{"name":"清瀬市子ども家庭支援センター","province":"東京都","city":"清瀬市","address":"清瀬市中里5-842清瀬市役所北隣しあわせ未来センター内","lat":35.78591,"lon":139.52619},{"name":"清瀬市子ども家庭支援センター","province":"東京都","city":"清瀬市","address":"清瀬市中清戸3-235-5児童センターころぽっくる内","lat":35.77712,"lon":139.53165},{"name":"清瀬市健康センター","province":"東京都","city":"清瀬市","address":"清瀬市中里5-842","lat":35.78557,"lon":139.52655},{"name":"中里地域市民センター","province":"東京都","city":"清瀬市","address":"清瀬市中里4-1301","lat":35.786499,"lon":139.514165},{"name":"野塩地域市民センター","province":"東京都","city":"清瀬市","address":"清瀬市野塩1-322-2","lat":35.77918,"lon":139.499424},{"name":"松山地域市民センター","province":"東京都","city":"清瀬市","address":"清瀬市松山2-6-25","lat":35.770998,"lon":139.51477},{"name":"慈生会ナザレットの家","province":"東京都","city":"清瀬市","address":"清瀬市梅園3-14-23","lat":35.770518,"lon":139.501347},{"name":"子供の家","province":"東京都","city":"清瀬市","address":"清瀬市松山3-12-17","lat":35.76651,"lon":139.514053},{"name":"ベトレヘム学園","province":"東京都","city":"清瀬市","address":"清瀬市梅園3-14-23","lat":35.770518,"lon":139.501347},{"name":"清瀬市子ども家庭支援センター","province":"東京都","city":"清瀬市","address":"清瀬市中清戸3-235-5清瀬市児童センター内","lat":35.77867,"lon":139.53389},{"name":"＊?清瀬市生涯学習センター","province":"東京都","city":"清瀬市","address":"清瀬市元町1-2-11アミューー5~7階","lat":35.772216,"lon":139.521175},{"name":"＊?清瀬市男女共同参画センター（アイレック）","province":"東京都","city":"清瀬市","address":"清瀬市元町1-2-11アミュー4階","lat":35.772206,"lon":139.521171},{"name":"清瀬市","province":"東京都","city":"清瀬市","address":"清瀬市中里5-842","lat":35.786052,"lon":139.526353},{"name":"清瀬市健康センター","province":"東京都","city":"清瀬市","address":"東京都清瀬市中里5丁目842","lat":35.78608019,"lon":139.52608035},{"name":"清瀬消防署","province":"東京都","city":"清瀬市","address":"清瀬市中清戸2-850-1","lat":35.78419,"lon":139.5276},{"name":"東京都共済組合清瀬運動場","province":"東京都","city":"清瀬市","address":"清瀬市竹丘3-10-5","lat":35.7646,"lon":139.5013},{"name":"特別養護老人ホーム 救世軍恵泉ホーム","province":"東京都","city":"清瀬市","address":"東京都清瀬市竹丘1-17-61","lat":35.769635,"lon":139.508107},{"name":"特別養護老人ホーム 上宮園","province":"東京都","city":"清瀬市","address":"東京都清瀬市竹丘3-3-31","lat":35.767543,"lon":139.502455},{"name":"特別養護老人ホーム 信愛の園","province":"東京都","city":"清瀬市","address":"東京都清瀬市梅園2-3-15","lat":35.772751,"lon":139.503522},{"name":"特別養護老人ホーム 清雅苑","province":"東京都","city":"清瀬市","address":"東京都清瀬市中里5-91-2","lat":35.789366,"lon":139.531891},{"name":"特別養護老人ホーム 聖ヨゼフ老人ホーム","province":"東京都","city":"清瀬市","address":"東京都清瀬市梅園3-14-72","lat":35.772165,"lon":139.501911},{"name":"清瀬どんぐりの家","province":"東京都","city":"清瀬市","address":"東京都清瀬市野塩4-230-1","lat":35.774754,"lon":139.500036},{"name":"工房わかば","province":"東京都","city":"清瀬市","address":"東京都清瀬市野塩4-59-8","lat":35.775592,"lon":139.506768},{"name":"清瀬療護園","province":"東京都","city":"清瀬市","address":"東京都清瀬市竹丘3-1-72","lat":35.765507,"lon":139.503219},{"name":"介護老人保健施設 たけおか","province":"東京都","city":"清瀬市","address":"東京都清瀬市竹丘2-3-21","lat":35.76518,"lon":139.50899},{"name":"介護老人保健施設 ラビアンローゼ","province":"東京都","city":"清瀬市","address":"東京都清瀬市下清戸3-385","lat":35.784884,"lon":139.538971},{"name":"介護老人保健施設 きよせ認知症ケアセンター","province":"東京都","city":"清瀬市","address":"東京都清瀬市中清戸5-27","lat":35.77695,"lon":139.536959},{"name":"介護老人福祉施設 すずらん※","province":"東京都","city":"清瀬市","address":"東京都清瀬市長野県北佐久郡立科町大字芦田720-1","lat":36.27413,"lon":138.32288},{"name":"障害者福祉センター","province":"東京都","city":"清瀬市","address":"東京都清瀬市上清戸1-16-62","lat":35.773273,"lon":139.527679},{"name":"子どもの発達支援・交流センターとことこ","province":"東京都","city":"清瀬市","address":"東京都清瀬市竹丘1-15-8","lat":35.768108,"lon":139.511079},{"name":"東京都立 清瀬特別支援学校","province":"東京都","city":"清瀬市","address":"東京都清瀬市松山3-1-97","lat":35.76896,"lon":139.511529},{"name":"ヒューマンライフケア清瀬","province":"東京都","city":"清瀬市","address":"東京都清瀬市元町1-8-25","lat":35.77412,"lon":139.519828},{"name":"ツクイ秋津","province":"東京都","city":"清瀬市","address":"東京都清瀬市野塩1-303-2","lat":35.779016,"lon":139.497067},{"name":"グループホーム清瀬","province":"東京都","city":"清瀬市","address":"東京都清瀬市中清戸5-132-1","lat":35.779676,"lon":139.532555},{"name":"グループホームさくらの苑","province":"東京都","city":"清瀬市","address":"東京都清瀬市中清戸5-27-3","lat":35.779659,"lon":139.532564},{"name":"しんあい清戸の里","province":"東京都","city":"清瀬市","address":"東京都清瀬市下清戸1-305-1","lat":35.780341,"lon":139.536013},{"name":"ホームステーションらいふ清瀬","province":"東京都","city":"清瀬市","address":"東京都清瀬市松山1-4-16","lat":35.770683,"lon":139.5207},{"name":"みどりの樹清瀬","province":"東京都","city":"清瀬市","address":"東京都清瀬市下清戸4-709-17","lat":35.786527,"lon":139.539276},{"name":"下宿児童館","province":"東京都","city":"清瀬市","address":"清瀬市下宿2-524-1","lat":35.79759,"lon":139.533366},{"name":"野塩児童館","province":"東京都","city":"清瀬市","address":"清瀬市野塩1-322-2","lat":35.77918,"lon":139.499424},{"name":"清瀬市中央児童館","province":"東京都","city":"清瀬市","address":"清瀬市中清戸3-235-5","lat":35.776412,"lon":139.530649},{"name":"日本社会事業大学附属　子ども学園","province":"東京都","city":"清瀬市","address":"清瀬市梅園1-2-50","lat":35.773956,"lon":139.50729},{"name":"清瀬作業所","province":"東京都","city":"清瀬市","address":"清瀬市松山2-18-2","lat":35.774134,"lon":139.511501},{"name":"清瀬療護園","province":"東京都","city":"清瀬市","address":"清瀬市竹丘3-1-72","lat":35.764535,"lon":139.504321},{"name":"東京都清瀬喜望園","province":"東京都","city":"清瀬市","address":"清瀬市竹丘3-1-72","lat":35.764535,"lon":139.504321},{"name":"中里地域市民センター","province":"東京都","city":"清瀬市","address":"清瀬市中里4-1301","lat":35.78615,"lon":139.51431},{"name":"野塩地域市民センター","province":"東京都","city":"清瀬市","address":"清瀬市野塩1-322-2","lat":35.77913,"lon":139.49931},{"name":"中清戸地域市民センター","province":"東京都","city":"清瀬市","address":"清瀬市中清戸4-847-5","lat":35.78493,"lon":139.52788},{"name":"松山地域市民センター","province":"東京都","city":"清瀬市","address":"清瀬市松山2-6-25","lat":35.77155,"lon":139.51575},{"name":"慈生会ナザレットの家","province":"東京都","city":"清瀬市","address":"清瀬市梅園3-14-23","lat":35.77177,"lon":139.50096},{"name":"子供の家","province":"東京都","city":"清瀬市","address":"清瀬市松山3-12-17","lat":35.76651,"lon":139.51405},{"name":"ベトレヘム学園","province":"東京都","city":"清瀬市","address":"清瀬市梅園3-14-23","lat":35.77177,"lon":139.50096},{"name":"下宿児童館","province":"東京都","city":"清瀬市","address":"清瀬市下宿2-524-1","lat":35.79878,"lon":139.53471},{"name":"野塩児童館","province":"東京都","city":"清瀬市","address":"清瀬市野塩1-322-2","lat":35.77913,"lon":139.49931},{"name":"清瀬市中央児童館","province":"東京都","city":"清瀬市","address":"清瀬市中清戸3-235-5","lat":35.77712,"lon":139.53165},{"name":"あすなろ荘","province":"東京都","city":"清瀬市","address":"東京都清瀬市","lat":35.78534142,"lon":139.52677749},{"name":"清瀬市","province":"東京都","city":"清瀬市","address":"清瀬市中里5-842","lat":35.78557,"lon":139.52655},{"name":"中里地域市民センター","province":"東京都","city":"清瀬市","address":"清瀬市中里4-1301","lat":35.786499,"lon":139.514165},{"name":"野塩地域市民センター","province":"東京都","city":"清瀬市","address":"清瀬市野塩1-322-2","lat":35.77918,"lon":139.499424},{"name":"松山地域市民センター","province":"東京都","city":"清瀬市","address":"清瀬市松山2-6-25","lat":35.770998,"lon":139.51477},{"name":"慈生会ナザレットの家","province":"東京都","city":"清瀬市","address":"清瀬市梅園3-14-23","lat":35.770518,"lon":139.501347},{"name":"子供の家","province":"東京都","city":"清瀬市","address":"清瀬市松山3-12-17","lat":35.76651,"lon":139.514053},{"name":"ベトレヘム学園","province":"東京都","city":"清瀬市","address":"清瀬市梅園3-14-23","lat":35.770518,"lon":139.501347},{"name":"＊?清瀬市生涯学習センター","province":"東京都","city":"清瀬市","address":"清瀬市元町1-2-11アミューー5~7階","lat":35.772216,"lon":139.521175},{"name":"＊?清瀬市男女共同参画センター（アイレック）","province":"東京都","city":"清瀬市","address":"清瀬市元町1-2-11アミュー4階","lat":35.772206,"lon":139.521171},{"name":"清瀬市","province":"東京都","city":"清瀬市","address":"清瀬市中里5-842","lat":35.786052,"lon":139.526353},{"name":"清瀬市健康センター","province":"東京都","city":"清瀬市","address":"東京都清瀬市中里5丁目842","lat":35.78608019,"lon":139.52608035},{"name":"特別養護老人ホーム 救世軍恵泉ホーム","province":"東京都","city":"清瀬市","address":"東京都清瀬市竹丘1-17-61","lat":35.769635,"lon":139.508107},{"name":"特別養護老人ホーム 上宮園","province":"東京都","city":"清瀬市","address":"東京都清瀬市竹丘3-3-31","lat":35.767543,"lon":139.502455},{"name":"特別養護老人ホーム 信愛の園","province":"東京都","city":"清瀬市","address":"東京都清瀬市梅園2-3-15","lat":35.772751,"lon":139.503522},{"name":"特別養護老人ホーム 清雅苑","province":"東京都","city":"清瀬市","address":"東京都清瀬市中里5-91-2","lat":35.789366,"lon":139.531891},{"name":"特別養護老人ホーム 聖ヨゼフ老人ホーム","province":"東京都","city":"清瀬市","address":"東京都清瀬市梅園3-14-72","lat":35.772165,"lon":139.501911},{"name":"清瀬どんぐりの家","province":"東京都","city":"清瀬市","address":"東京都清瀬市野塩4-230-1","lat":35.774754,"lon":139.500036},{"name":"工房わかば","province":"東京都","city":"清瀬市","address":"東京都清瀬市野塩4-59-8","lat":35.775592,"lon":139.506768},{"name":"清瀬療護園","province":"東京都","city":"清瀬市","address":"東京都清瀬市竹丘3-1-72","lat":35.765507,"lon":139.503219},{"name":"介護老人保健施設 たけおか","province":"東京都","city":"清瀬市","address":"東京都清瀬市竹丘2-3-21","lat":35.76518,"lon":139.50899},{"name":"介護老人保健施設 ラビアンローゼ","province":"東京都","city":"清瀬市","address":"東京都清瀬市下清戸3-385","lat":35.784884,"lon":139.538971},{"name":"介護老人保健施設 きよせ認知症ケアセンター","province":"東京都","city":"清瀬市","address":"東京都清瀬市中清戸5-27","lat":35.77695,"lon":139.536959},{"name":"介護老人福祉施設 すずらん※","province":"東京都","city":"清瀬市","address":"東京都清瀬市長野県北佐久郡立科町大字芦田720-1","lat":36.27413,"lon":138.32288},{"name":"障害者福祉センター","province":"東京都","city":"清瀬市","address":"東京都清瀬市上清戸1-16-62","lat":35.773273,"lon":139.527679},{"name":"子どもの発達支援・交流センターとことこ","province":"東京都","city":"清瀬市","address":"東京都清瀬市竹丘1-15-8","lat":35.768108,"lon":139.511079},{"name":"東京都立 清瀬特別支援学校","province":"東京都","city":"清瀬市","address":"東京都清瀬市松山3-1-97","lat":35.76896,"lon":139.511529},{"name":"ヒューマンライフケア清瀬","province":"東京都","city":"清瀬市","address":"東京都清瀬市元町1-8-25","lat":35.77412,"lon":139.519828},{"name":"ツクイ秋津","province":"東京都","city":"清瀬市","address":"東京都清瀬市野塩1-303-2","lat":35.779016,"lon":139.497067},{"name":"グループホーム清瀬","province":"東京都","city":"清瀬市","address":"東京都清瀬市中清戸5-132-1","lat":35.779676,"lon":139.532555},{"name":"グループホームさくらの苑","province":"東京都","city":"清瀬市","address":"東京都清瀬市中清戸5-27-3","lat":35.779659,"lon":139.532564},{"name":"しんあい清戸の里","province":"東京都","city":"清瀬市","address":"東京都清瀬市下清戸1-305-1","lat":35.780341,"lon":139.536013},{"name":"ホームステーションらいふ清瀬","province":"東京都","city":"清瀬市","address":"東京都清瀬市松山1-4-16","lat":35.770683,"lon":139.5207},{"name":"みどりの樹清瀬","province":"東京都","city":"清瀬市","address":"東京都清瀬市下清戸4-709-17","lat":35.786527,"lon":139.539276},{"name":"日本社会事業大学附属　子ども学園","province":"東京都","city":"清瀬市","address":"清瀬市梅園1-2-50","lat":35.773956,"lon":139.50729},{"name":"清瀬作業所","province":"東京都","city":"清瀬市","address":"清瀬市松山2-18-2","lat":35.774134,"lon":139.511501},{"name":"清瀬療護園","province":"東京都","city":"清瀬市","address":"清瀬市竹丘3-1-72","lat":35.764535,"lon":139.504321},{"name":"東京都清瀬喜望園","province":"東京都","city":"清瀬市","address":"清瀬市竹丘3-1-72","lat":35.764535,"lon":139.504321},{"name":"中里地域市民センター","province":"東京都","city":"清瀬市","address":"清瀬市中里4-1301","lat":35.78615,"lon":139.51431},{"name":"野塩地域市民センター","province":"東京都","city":"清瀬市","address":"清瀬市野塩1-322-2","lat":35.77913,"lon":139.49931},{"name":"中清戸地域市民センター","province":"東京都","city":"清瀬市","address":"清瀬市中清戸4-847-5","lat":35.78493,"lon":139.52788},{"name":"松山地域市民センター","province":"東京都","city":"清瀬市","address":"清瀬市松山2-6-25","lat":35.77155,"lon":139.51575},{"name":"慈生会ナザレットの家","province":"東京都","city":"清瀬市","address":"清瀬市梅園3-14-23","lat":35.77177,"lon":139.50096},{"name":"子供の家","province":"東京都","city":"清瀬市","address":"清瀬市松山3-12-17","lat":35.76651,"lon":139.51405},{"name":"ベトレヘム学園","province":"東京都","city":"清瀬市","address":"清瀬市梅園3-14-23","lat":35.77177,"lon":139.50096},{"name":"あすなろ荘","province":"東京都","city":"清瀬市","address":"東京都清瀬市","lat":35.78534142,"lon":139.52677749},{"name":"清瀬市","province":"東京都","city":"清瀬市","address":"清瀬市中里5-842","lat":35.78557,"lon":139.52655},{"name":"中里地域市民センター","province":"東京都","city":"清瀬市","address":"清瀬市中里4-1301","lat":35.786499,"lon":139.514165},{"name":"野塩地域市民センター","province":"東京都","city":"清瀬市","address":"清瀬市野塩1-322-2","lat":35.77918,"lon":139.499424},{"name":"松山地域市民センター","province":"東京都","city":"清瀬市","address":"清瀬市松山2-6-25","lat":35.770998,"lon":139.51477},{"name":"慈生会ナザレットの家","province":"東京都","city":"清瀬市","address":"清瀬市梅園3-14-23","lat":35.770518,"lon":139.501347},{"name":"子供の家","province":"東京都","city":"清瀬市","address":"清瀬市松山3-12-17","lat":35.76651,"lon":139.514053},{"name":"ベトレヘム学園","province":"東京都","city":"清瀬市","address":"清瀬市梅園3-14-23","lat":35.770518,"lon":139.501347},{"name":"＊?清瀬市生涯学習センター","province":"東京都","city":"清瀬市","address":"清瀬市元町1-2-11アミューー5~7階","lat":35.772216,"lon":139.521175},{"name":"＊?清瀬市男女共同参画センター（アイレック）","province":"東京都","city":"清瀬市","address":"清瀬市元町1-2-11アミュー4階","lat":35.772206,"lon":139.521171},{"name":"清瀬市","province":"東京都","city":"清瀬市","address":"清瀬市中里5-842","lat":35.786052,"lon":139.526353},{"name":"特別養護老人ホーム 救世軍恵泉ホーム","province":"東京都","city":"清瀬市","address":"東京都清瀬市竹丘1-17-61","lat":35.769635,"lon":139.508107},{"name":"特別養護老人ホーム 上宮園","province":"東京都","city":"清瀬市","address":"東京都清瀬市竹丘3-3-31","lat":35.767543,"lon":139.502455},{"name":"特別養護老人ホーム 信愛の園","province":"東京都","city":"清瀬市","address":"東京都清瀬市梅園2-3-15","lat":35.772751,"lon":139.503522},{"name":"特別養護老人ホーム 清雅苑","province":"東京都","city":"清瀬市","address":"東京都清瀬市中里5-91-2","lat":35.789366,"lon":139.531891},{"name":"特別養護老人ホーム 聖ヨゼフ老人ホーム","province":"東京都","city":"清瀬市","address":"東京都清瀬市梅園3-14-72","lat":35.772165,"lon":139.501911},{"name":"清瀬どんぐりの家","province":"東京都","city":"清瀬市","address":"東京都清瀬市野塩4-230-1","lat":35.774754,"lon":139.500036},{"name":"工房わかば","province":"東京都","city":"清瀬市","address":"東京都清瀬市野塩4-59-8","lat":35.775592,"lon":139.506768},{"name":"清瀬療護園","province":"東京都","city":"清瀬市","address":"東京都清瀬市竹丘3-1-72","lat":35.765507,"lon":139.503219},{"name":"介護老人保健施設 たけおか","province":"東京都","city":"清瀬市","address":"東京都清瀬市竹丘2-3-21","lat":35.76518,"lon":139.50899},{"name":"介護老人保健施設 ラビアンローゼ","province":"東京都","city":"清瀬市","address":"東京都清瀬市下清戸3-385","lat":35.784884,"lon":139.538971},{"name":"介護老人保健施設 きよせ認知症ケアセンター","province":"東京都","city":"清瀬市","address":"東京都清瀬市中清戸5-27","lat":35.77695,"lon":139.536959},{"name":"介護老人福祉施設 すずらん※","province":"東京都","city":"清瀬市","address":"東京都清瀬市長野県北佐久郡立科町大字芦田720-1","lat":36.27413,"lon":138.32288},{"name":"障害者福祉センター","province":"東京都","city":"清瀬市","address":"東京都清瀬市上清戸1-16-62","lat":35.773273,"lon":139.527679},{"name":"子どもの発達支援・交流センターとことこ","province":"東京都","city":"清瀬市","address":"東京都清瀬市竹丘1-15-8","lat":35.768108,"lon":139.511079},{"name":"東京都立 清瀬特別支援学校","province":"東京都","city":"清瀬市","address":"東京都清瀬市松山3-1-97","lat":35.76896,"lon":139.511529},{"name":"ヒューマンライフケア清瀬","province":"東京都","city":"清瀬市","address":"東京都清瀬市元町1-8-25","lat":35.77412,"lon":139.519828},{"name":"ツクイ秋津","province":"東京都","city":"清瀬市","address":"東京都清瀬市野塩1-303-2","lat":35.779016,"lon":139.497067},{"name":"グループホーム清瀬","province":"東京都","city":"清瀬市","address":"東京都清瀬市中清戸5-132-1","lat":35.779676,"lon":139.532555},{"name":"グループホームさくらの苑","province":"東京都","city":"清瀬市","address":"東京都清瀬市中清戸5-27-3","lat":35.779659,"lon":139.532564},{"name":"しんあい清戸の里","province":"東京都","city":"清瀬市","address":"東京都清瀬市下清戸1-305-1","lat":35.780341,"lon":139.536013},{"name":"ホームステーションらいふ清瀬","province":"東京都","city":"清瀬市","address":"東京都清瀬市松山1-4-16","lat":35.770683,"lon":139.5207},{"name":"みどりの樹清瀬","province":"東京都","city":"清瀬市","address":"東京都清瀬市下清戸4-709-17","lat":35.786527,"lon":139.539276},{"name":"日本社会事業大学附属　子ども学園","province":"東京都","city":"清瀬市","address":"清瀬市梅園1-2-50","lat":35.773956,"lon":139.50729},{"name":"清瀬作業所","province":"東京都","city":"清瀬市","address":"清瀬市松山2-18-2","lat":35.774134,"lon":139.511501},{"name":"清瀬療護園","province":"東京都","city":"清瀬市","address":"清瀬市竹丘3-1-72","lat":35.764535,"lon":139.504321},{"name":"東京都清瀬喜望園","province":"東京都","city":"清瀬市","address":"清瀬市竹丘3-1-72","lat":35.764535,"lon":139.504321},{"name":"中里地域市民センター","province":"東京都","city":"清瀬市","address":"清瀬市中里4-1301","lat":35.78615,"lon":139.51431},{"name":"野塩地域市民センター","province":"東京都","city":"清瀬市","address":"清瀬市野塩1-322-2","lat":35.77913,"lon":139.49931},{"name":"中清戸地域市民センター","province":"東京都","city":"清瀬市","address":"清瀬市中清戸4-847-5","lat":35.78493,"lon":139.52788},{"name":"松山地域市民センター","province":"東京都","city":"清瀬市","address":"清瀬市松山2-6-25","lat":35.77155,"lon":139.51575},{"name":"慈生会ナザレットの家","province":"東京都","city":"清瀬市","address":"清瀬市梅園3-14-23","lat":35.77177,"lon":139.50096},{"name":"子供の家","province":"東京都","city":"清瀬市","address":"清瀬市松山3-12-17","lat":35.76651,"lon":139.51405},{"name":"ベトレヘム学園","province":"東京都","city":"清瀬市","address":"清瀬市梅園3-14-23","lat":35.77177,"lon":139.50096},{"name":"あすなろ荘","province":"東京都","city":"清瀬市","address":"東京都清瀬市","lat":35.78534142,"lon":139.52677749},{"name":"清瀬市","province":"東京都","city":"清瀬市","address":"清瀬市中里5-842","lat":35.78557,"lon":139.52655},{"name":"中里地域市民センター","province":"東京都","city":"清瀬市","address":"清瀬市中里4-1301","lat":35.786499,"lon":139.514165},{"name":"野塩地域市民センター","province":"東京都","city":"清瀬市","address":"清瀬市野塩1-322-2","lat":35.77918,"lon":139.499424},{"name":"松山地域市民センター","province":"東京都","city":"清瀬市","address":"清瀬市松山2-6-25","lat":35.770998,"lon":139.51477},{"name":"慈生会ナザレットの家","province":"東京都","city":"清瀬市","address":"清瀬市梅園3-14-23","lat":35.770518,"lon":139.501347},{"name":"子供の家","province":"東京都","city":"清瀬市","address":"清瀬市松山3-12-17","lat":35.76651,"lon":139.514053},{"name":"ベトレヘム学園","province":"東京都","city":"清瀬市","address":"清瀬市梅園3-14-23","lat":35.770518,"lon":139.501347},{"name":"＊?清瀬市生涯学習センター","province":"東京都","city":"清瀬市","address":"清瀬市元町1-2-11アミューー5~7階","lat":35.772216,"lon":139.521175},{"name":"＊?清瀬市男女共同参画センター（アイレック）","province":"東京都","city":"清瀬市","address":"清瀬市元町1-2-11アミュー4階","lat":35.772206,"lon":139.521171},{"name":"清瀬市","province":"東京都","city":"清瀬市","address":"清瀬市中里5-842","lat":35.786052,"lon":139.526353},{"name":"特別養護老人ホーム 救世軍恵泉ホーム","province":"東京都","city":"清瀬市","address":"東京都清瀬市竹丘1-17-61","lat":35.769635,"lon":139.508107},{"name":"特別養護老人ホーム 上宮園","province":"東京都","city":"清瀬市","address":"東京都清瀬市竹丘3-3-31","lat":35.767543,"lon":139.502455},{"name":"特別養護老人ホーム 信愛の園","province":"東京都","city":"清瀬市","address":"東京都清瀬市梅園2-3-15","lat":35.772751,"lon":139.503522},{"name":"特別養護老人ホーム 清雅苑","province":"東京都","city":"清瀬市","address":"東京都清瀬市中里5-91-2","lat":35.789366,"lon":139.531891},{"name":"特別養護老人ホーム 聖ヨゼフ老人ホーム","province":"東京都","city":"清瀬市","address":"東京都清瀬市梅園3-14-72","lat":35.772165,"lon":139.501911},{"name":"清瀬どんぐりの家","province":"東京都","city":"清瀬市","address":"東京都清瀬市野塩4-230-1","lat":35.774754,"lon":139.500036},{"name":"工房わかば","province":"東京都","city":"清瀬市","address":"東京都清瀬市野塩4-59-8","lat":35.775592,"lon":139.506768},{"name":"清瀬療護園","province":"東京都","city":"清瀬市","address":"東京都清瀬市竹丘3-1-72","lat":35.765507,"lon":139.503219},{"name":"介護老人保健施設 たけおか","province":"東京都","city":"清瀬市","address":"東京都清瀬市竹丘2-3-21","lat":35.76518,"lon":139.50899},{"name":"介護老人保健施設 ラビアンローゼ","province":"東京都","city":"清瀬市","address":"東京都清瀬市下清戸3-385","lat":35.784884,"lon":139.538971},{"name":"介護老人保健施設 きよせ認知症ケアセンター","province":"東京都","city":"清瀬市","address":"東京都清瀬市中清戸5-27","lat":35.77695,"lon":139.536959},{"name":"介護老人福祉施設 すずらん※","province":"東京都","city":"清瀬市","address":"東京都清瀬市長野県北佐久郡立科町大字芦田720-1","lat":36.27413,"lon":138.32288},{"name":"障害者福祉センター","province":"東京都","city":"清瀬市","address":"東京都清瀬市上清戸1-16-62","lat":35.773273,"lon":139.527679},{"name":"子どもの発達支援・交流センターとことこ","province":"東京都","city":"清瀬市","address":"東京都清瀬市竹丘1-15-8","lat":35.768108,"lon":139.511079},{"name":"東京都立 清瀬特別支援学校","province":"東京都","city":"清瀬市","address":"東京都清瀬市松山3-1-97","lat":35.76896,"lon":139.511529},{"name":"ヒューマンライフケア清瀬","province":"東京都","city":"清瀬市","address":"東京都清瀬市元町1-8-25","lat":35.77412,"lon":139.519828},{"name":"ツクイ秋津","province":"東京都","city":"清瀬市","address":"東京都清瀬市野塩1-303-2","lat":35.779016,"lon":139.497067},{"name":"グループホーム清瀬","province":"東京都","city":"清瀬市","address":"東京都清瀬市中清戸5-132-1","lat":35.779676,"lon":139.532555},{"name":"グループホームさくらの苑","province":"東京都","city":"清瀬市","address":"東京都清瀬市中清戸5-27-3","lat":35.779659,"lon":139.532564},{"name":"しんあい清戸の里","province":"東京都","city":"清瀬市","address":"東京都清瀬市下清戸1-305-1","lat":35.780341,"lon":139.536013},{"name":"ホームステーションらいふ清瀬","province":"東京都","city":"清瀬市","address":"東京都清瀬市松山1-4-16","lat":35.770683,"lon":139.5207},{"name":"みどりの樹清瀬","province":"東京都","city":"清瀬市","address":"東京都清瀬市下清戸4-709-17","lat":35.786527,"lon":139.539276},{"name":"日本社会事業大学附属　子ども学園","province":"東京都","city":"清瀬市","address":"清瀬市梅園1-2-50","lat":35.773956,"lon":139.50729},{"name":"清瀬作業所","province":"東京都","city":"清瀬市","address":"清瀬市松山2-18-2","lat":35.774134,"lon":139.511501},{"name":"清瀬療護園","province":"東京都","city":"清瀬市","address":"清瀬市竹丘3-1-72","lat":35.764535,"lon":139.504321},{"name":"東京都清瀬喜望園","province":"東京都","city":"清瀬市","address":"清瀬市竹丘3-1-72","lat":35.764535,"lon":139.504321},{"name":"中里地域市民センター","province":"東京都","city":"清瀬市","address":"清瀬市中里4-1301","lat":35.78615,"lon":139.51431},{"name":"野塩地域市民センター","province":"東京都","city":"清瀬市","address":"清瀬市野塩1-322-2","lat":35.77913,"lon":139.49931},{"name":"中清戸地域市民センター","province":"東京都","city":"清瀬市","address":"清瀬市中清戸4-847-5","lat":35.78493,"lon":139.52788},{"name":"松山地域市民センター","province":"東京都","city":"清瀬市","address":"清瀬市松山2-6-25","lat":35.77155,"lon":139.51575},{"name":"慈生会ナザレットの家","province":"東京都","city":"清瀬市","address":"清瀬市梅園3-14-23","lat":35.77177,"lon":139.50096},{"name":"子供の家","province":"東京都","city":"清瀬市","address":"清瀬市松山3-12-17","lat":35.76651,"lon":139.51405},{"name":"ベトレヘム学園","province":"東京都","city":"清瀬市","address":"清瀬市梅園3-14-23","lat":35.77177,"lon":139.50096},{"name":"あすなろ荘","province":"東京都","city":"清瀬市","address":"東京都清瀬市","lat":35.78534142,"lon":139.52677749},{"name":"清瀬市","province":"東京都","city":"清瀬市","address":"清瀬市中里5-842","lat":35.78557,"lon":139.52655},{"name":"中里地域市民センター","province":"東京都","city":"清瀬市","address":"清瀬市中里4-1301","lat":35.786499,"lon":139.514165},{"name":"野塩地域市民センター","province":"東京都","city":"清瀬市","address":"清瀬市野塩1-322-2","lat":35.77918,"lon":139.499424},{"name":"松山地域市民センター","province":"東京都","city":"清瀬市","address":"清瀬市松山2-6-25","lat":35.770998,"lon":139.51477},{"name":"慈生会ナザレットの家","province":"東京都","city":"清瀬市","address":"清瀬市梅園3-14-23","lat":35.770518,"lon":139.501347},{"name":"子供の家","province":"東京都","city":"清瀬市","address":"清瀬市松山3-12-17","lat":35.76651,"lon":139.514053},{"name":"ベトレヘム学園","province":"東京都","city":"清瀬市","address":"清瀬市梅園3-14-23","lat":35.770518,"lon":139.501347},{"name":"＊?清瀬市生涯学習センター","province":"東京都","city":"清瀬市","address":"清瀬市元町1-2-11アミューー5~7階","lat":35.772216,"lon":139.521175},{"name":"清瀬市","province":"東京都","city":"清瀬市","address":"清瀬市中里5-842","lat":35.786052,"lon":139.526353},{"name":"特別養護老人ホーム 救世軍恵泉ホーム","province":"東京都","city":"清瀬市","address":"東京都清瀬市竹丘1-17-61","lat":35.769635,"lon":139.508107},{"name":"特別養護老人ホーム 上宮園","province":"東京都","city":"清瀬市","address":"東京都清瀬市竹丘3-3-31","lat":35.767543,"lon":139.502455},{"name":"特別養護老人ホーム 信愛の園","province":"東京都","city":"清瀬市","address":"東京都清瀬市梅園2-3-15","lat":35.772751,"lon":139.503522},{"name":"特別養護老人ホーム 清雅苑","province":"東京都","city":"清瀬市","address":"東京都清瀬市中里5-91-2","lat":35.789366,"lon":139.531891},{"name":"特別養護老人ホーム 聖ヨゼフ老人ホーム","province":"東京都","city":"清瀬市","address":"東京都清瀬市梅園3-14-72","lat":35.772165,"lon":139.501911},{"name":"清瀬どんぐりの家","province":"東京都","city":"清瀬市","address":"東京都清瀬市野塩4-230-1","lat":35.774754,"lon":139.500036},{"name":"工房わかば","province":"東京都","city":"清瀬市","address":"東京都清瀬市野塩4-59-8","lat":35.775592,"lon":139.506768},{"name":"清瀬療護園","province":"東京都","city":"清瀬市","address":"東京都清瀬市竹丘3-1-72","lat":35.765507,"lon":139.503219},{"name":"介護老人保健施設 たけおか","province":"東京都","city":"清瀬市","address":"東京都清瀬市竹丘2-3-21","lat":35.76518,"lon":139.50899},{"name":"介護老人保健施設 ラビアンローゼ","province":"東京都","city":"清瀬市","address":"東京都清瀬市下清戸3-385","lat":35.784884,"lon":139.538971},{"name":"介護老人保健施設 きよせ認知症ケアセンター","province":"東京都","city":"清瀬市","address":"東京都清瀬市中清戸5-27","lat":35.77695,"lon":139.536959},{"name":"介護老人福祉施設 すずらん※","province":"東京都","city":"清瀬市","address":"東京都清瀬市長野県北佐久郡立科町大字芦田720-1","lat":36.27413,"lon":138.32288},{"name":"障害者福祉センター","province":"東京都","city":"清瀬市","address":"東京都清瀬市上清戸1-16-62","lat":35.773273,"lon":139.527679},{"name":"子どもの発達支援・交流センターとことこ","province":"東京都","city":"清瀬市","address":"東京都清瀬市竹丘1-15-8","lat":35.768108,"lon":139.511079},{"name":"東京都立 清瀬特別支援学校","province":"東京都","city":"清瀬市","address":"東京都清瀬市松山3-1-97","lat":35.76896,"lon":139.511529},{"name":"ヒューマンライフケア清瀬","province":"東京都","city":"清瀬市","address":"東京都清瀬市元町1-8-25","lat":35.77412,"lon":139.519828},{"name":"ツクイ秋津","province":"東京都","city":"清瀬市","address":"東京都清瀬市野塩1-303-2","lat":35.779016,"lon":139.497067},{"name":"グループホーム清瀬","province":"東京都","city":"清瀬市","address":"東京都清瀬市中清戸5-132-1","lat":35.779676,"lon":139.532555},{"name":"グループホームさくらの苑","province":"東京都","city":"清瀬市","address":"東京都清瀬市中清戸5-27-3","lat":35.779659,"lon":139.532564},{"name":"しんあい清戸の里","province":"東京都","city":"清瀬市","address":"東京都清瀬市下清戸1-305-1","lat":35.780341,"lon":139.536013},{"name":"ホームステーションらいふ清瀬","province":"東京都","city":"清瀬市","address":"東京都清瀬市松山1-4-16","lat":35.770683,"lon":139.5207},{"name":"みどりの樹清瀬","province":"東京都","city":"清瀬市","address":"東京都清瀬市下清戸4-709-17","lat":35.786527,"lon":139.539276},{"name":"日本社会事業大学附属　子ども学園","province":"東京都","city":"清瀬市","address":"清瀬市梅園1-2-50","lat":35.773956,"lon":139.50729},{"name":"清瀬作業所","province":"東京都","city":"清瀬市","address":"清瀬市松山2-18-2","lat":35.774134,"lon":139.511501},{"name":"清瀬療護園","province":"東京都","city":"清瀬市","address":"清瀬市竹丘3-1-72","lat":35.764535,"lon":139.504321},{"name":"東京都清瀬喜望園","province":"東京都","city":"清瀬市","address":"清瀬市竹丘3-1-72","lat":35.764535,"lon":139.504321},{"name":"中里地域市民センター","province":"東京都","city":"清瀬市","address":"清瀬市中里4-1301","lat":35.78615,"lon":139.51431},{"name":"野塩地域市民センター","province":"東京都","city":"清瀬市","address":"清瀬市野塩1-322-2","lat":35.77913,"lon":139.49931},{"name":"中清戸地域市民センター","province":"東京都","city":"清瀬市","address":"清瀬市中清戸4-847-5","lat":35.78493,"lon":139.52788},{"name":"松山地域市民センター","province":"東京都","city":"清瀬市","address":"清瀬市松山2-6-25","lat":35.77155,"lon":139.51575},{"name":"慈生会ナザレットの家","province":"東京都","city":"清瀬市","address":"清瀬市梅園3-14-23","lat":35.77177,"lon":139.50096},{"name":"子供の家","province":"東京都","city":"清瀬市","address":"清瀬市松山3-12-17","lat":35.76651,"lon":139.51405},{"name":"ベトレヘム学園","province":"東京都","city":"清瀬市","address":"清瀬市梅園3-14-23","lat":35.77177,"lon":139.50096},{"name":"あすなろ荘","province":"東京都","city":"清瀬市","address":"東京都清瀬市","lat":35.78534142,"lon":139.52677749},{"name":"清瀬市","province":"東京都","city":"清瀬市","address":"清瀬市中里5-842","lat":35.78557,"lon":139.52655},{"name":"中里地域市民センター","province":"東京都","city":"清瀬市","address":"清瀬市中里4-1301","lat":35.786499,"lon":139.514165},{"name":"野塩地域市民センター","province":"東京都","city":"清瀬市","address":"清瀬市野塩1-322-2","lat":35.77918,"lon":139.499424},{"name":"松山地域市民センター","province":"東京都","city":"清瀬市","address":"清瀬市松山2-6-25","lat":35.770998,"lon":139.51477},{"name":"慈生会ナザレットの家","province":"東京都","city":"清瀬市","address":"清瀬市梅園3-14-23","lat":35.770518,"lon":139.501347},{"name":"子供の家","province":"東京都","city":"清瀬市","address":"清瀬市松山3-12-17","lat":35.76651,"lon":139.514053},{"name":"ベトレヘム学園","province":"東京都","city":"清瀬市","address":"清瀬市梅園3-14-23","lat":35.770518,"lon":139.501347},{"name":"＊?清瀬市生涯学習センター","province":"東京都","city":"清瀬市","address":"清瀬市元町1-2-11アミューー5~7階","lat":35.772216,"lon":139.521175},{"name":"清瀬市","province":"東京都","city":"清瀬市","address":"清瀬市中里5-842","lat":35.786052,"lon":139.526353},{"name":"特別養護老人ホーム 救世軍恵泉ホーム","province":"東京都","city":"清瀬市","address":"東京都清瀬市竹丘1-17-61","lat":35.769635,"lon":139.508107},{"name":"特別養護老人ホーム 上宮園","province":"東京都","city":"清瀬市","address":"東京都清瀬市竹丘3-3-31","lat":35.767543,"lon":139.502455},{"name":"特別養護老人ホーム 信愛の園","province":"東京都","city":"清瀬市","address":"東京都清瀬市梅園2-3-15","lat":35.772751,"lon":139.503522},{"name":"特別養護老人ホーム 清雅苑","province":"東京都","city":"清瀬市","address":"東京都清瀬市中里5-91-2","lat":35.789366,"lon":139.531891},{"name":"特別養護老人ホーム 聖ヨゼフ老人ホーム","province":"東京都","city":"清瀬市","address":"東京都清瀬市梅園3-14-72","lat":35.772165,"lon":139.501911},{"name":"清瀬どんぐりの家","province":"東京都","city":"清瀬市","address":"東京都清瀬市野塩4-230-1","lat":35.774754,"lon":139.500036},{"name":"工房わかば","province":"東京都","city":"清瀬市","address":"東京都清瀬市野塩4-59-8","lat":35.775592,"lon":139.506768},{"name":"清瀬療護園","province":"東京都","city":"清瀬市","address":"東京都清瀬市竹丘3-1-72","lat":35.765507,"lon":139.503219},{"name":"介護老人保健施設 たけおか","province":"東京都","city":"清瀬市","address":"東京都清瀬市竹丘2-3-21","lat":35.76518,"lon":139.50899},{"name":"介護老人保健施設 ラビアンローゼ","province":"東京都","city":"清瀬市","address":"東京都清瀬市下清戸3-385","lat":35.784884,"lon":139.538971},{"name":"介護老人保健施設 きよせ認知症ケアセンター","province":"東京都","city":"清瀬市","address":"東京都清瀬市中清戸5-27","lat":35.77695,"lon":139.536959},{"name":"介護老人福祉施設 すずらん※","province":"東京都","city":"清瀬市","address":"東京都清瀬市長野県北佐久郡立科町大字芦田720-1","lat":36.27413,"lon":138.32288},{"name":"障害者福祉センター","province":"東京都","city":"清瀬市","address":"東京都清瀬市上清戸1-16-62","lat":35.773273,"lon":139.527679},{"name":"子どもの発達支援・交流センターとことこ","province":"東京都","city":"清瀬市","address":"東京都清瀬市竹丘1-15-8","lat":35.768108,"lon":139.511079},{"name":"東京都立 清瀬特別支援学校","province":"東京都","city":"清瀬市","address":"東京都清瀬市松山3-1-97","lat":35.76896,"lon":139.511529},{"name":"ヒューマンライフケア清瀬","province":"東京都","city":"清瀬市","address":"東京都清瀬市元町1-8-25","lat":35.77412,"lon":139.519828},{"name":"ツクイ秋津","province":"東京都","city":"清瀬市","address":"東京都清瀬市野塩1-303-2","lat":35.779016,"lon":139.497067},{"name":"グループホーム清瀬","province":"東京都","city":"清瀬市","address":"東京都清瀬市中清戸5-132-1","lat":35.779676,"lon":139.532555},{"name":"グループホームさくらの苑","province":"東京都","city":"清瀬市","address":"東京都清瀬市中清戸5-27-3","lat":35.779659,"lon":139.532564},{"name":"しんあい清戸の里","province":"東京都","city":"清瀬市","address":"東京都清瀬市下清戸1-305-1","lat":35.780341,"lon":139.536013},{"name":"ホームステーションらいふ清瀬","province":"東京都","city":"清瀬市","address":"東京都清瀬市松山1-4-16","lat":35.770683,"lon":139.5207},{"name":"みどりの樹清瀬","province":"東京都","city":"清瀬市","address":"東京都清瀬市下清戸4-709-17","lat":35.786527,"lon":139.539276},{"name":"清瀬作業所","province":"東京都","city":"清瀬市","address":"清瀬市松山2-18-2","lat":35.774134,"lon":139.511501},{"name":"清瀬療護園","province":"東京都","city":"清瀬市","address":"清瀬市竹丘3-1-72","lat":35.764535,"lon":139.504321},{"name":"東京都清瀬喜望園","province":"東京都","city":"清瀬市","address":"清瀬市竹丘3-1-72","lat":35.764535,"lon":139.504321},{"name":"中里地域市民センター","province":"東京都","city":"清瀬市","address":"清瀬市中里4-1301","lat":35.78615,"lon":139.51431},{"name":"野塩地域市民センター","province":"東京都","city":"清瀬市","address":"清瀬市野塩1-322-2","lat":35.77913,"lon":139.49931},{"name":"中清戸地域市民センター","province":"東京都","city":"清瀬市","address":"清瀬市中清戸4-847-5","lat":35.78493,"lon":139.52788},{"name":"松山地域市民センター","province":"東京都","city":"清瀬市","address":"清瀬市松山2-6-25","lat":35.77155,"lon":139.51575},{"name":"子供の家","province":"東京都","city":"清瀬市","address":"清瀬市松山3-12-17","lat":35.76651,"lon":139.51405},{"name":"ベトレヘム学園","province":"東京都","city":"清瀬市","address":"清瀬市梅園3-14-23","lat":35.77177,"lon":139.50096},{"name":"清瀬市","province":"東京都","city":"清瀬市","address":"清瀬市中里5-842","lat":35.78557,"lon":139.52655},{"name":"中里地域市民センター","province":"東京都","city":"清瀬市","address":"清瀬市中里4-1301","lat":35.786499,"lon":139.514165},{"name":"野塩地域市民センター","province":"東京都","city":"清瀬市","address":"清瀬市野塩1-322-2","lat":35.77918,"lon":139.499424},{"name":"松山地域市民センター","province":"東京都","city":"清瀬市","address":"清瀬市松山2-6-25","lat":35.770998,"lon":139.51477},{"name":"子供の家","province":"東京都","city":"清瀬市","address":"清瀬市松山3-12-17","lat":35.76651,"lon":139.514053},{"name":"ベトレヘム学園","province":"東京都","city":"清瀬市","address":"清瀬市梅園3-14-23","lat":35.770518,"lon":139.501347},{"name":"清瀬市","province":"東京都","city":"清瀬市","address":"清瀬市中里5-842","lat":35.786052,"lon":139.526353},{"name":"清瀬作業所","province":"東京都","city":"清瀬市","address":"清瀬市松山2-18-2","lat":35.774134,"lon":139.511501},{"name":"清瀬療護園","province":"東京都","city":"清瀬市","address":"清瀬市竹丘3-1-72","lat":35.764535,"lon":139.504321},{"name":"東京都清瀬喜望園","province":"東京都","city":"清瀬市","address":"清瀬市竹丘3-1-72","lat":35.764535,"lon":139.504321},{"name":"中里地域市民センター","province":"東京都","city":"清瀬市","address":"清瀬市中里4-1301","lat":35.78615,"lon":139.51431},{"name":"野塩地域市民センター","province":"東京都","city":"清瀬市","address":"清瀬市野塩1-322-2","lat":35.77913,"lon":139.49931},{"name":"中清戸地域市民センター","province":"東京都","city":"清瀬市","address":"清瀬市中清戸4-847-5","lat":35.78493,"lon":139.52788},{"name":"松山地域市民センター","province":"東京都","city":"清瀬市","address":"清瀬市松山2-6-25","lat":35.77155,"lon":139.51575},{"name":"子供の家","province":"東京都","city":"清瀬市","address":"清瀬市松山3-12-17","lat":35.76651,"lon":139.51405},{"name":"ベトレヘム学園","province":"東京都","city":"清瀬市","address":"清瀬市梅園3-14-23","lat":35.77177,"lon":139.50096},{"name":"清瀬市","province":"東京都","city":"清瀬市","address":"清瀬市中里5-842","lat":35.78557,"lon":139.52655},{"name":"中里地域市民センター","province":"東京都","city":"清瀬市","address":"清瀬市中里4-1301","lat":35.786499,"lon":139.514165},{"name":"野塩地域市民センター","province":"東京都","city":"清瀬市","address":"清瀬市野塩1-322-2","lat":35.77918,"lon":139.499424},{"name":"松山地域市民センター","province":"東京都","city":"清瀬市","address":"清瀬市松山2-6-25","lat":35.770998,"lon":139.51477},{"name":"子供の家","province":"東京都","city":"清瀬市","address":"清瀬市松山3-12-17","lat":35.76651,"lon":139.514053},{"name":"ベトレヘム学園","province":"東京都","city":"清瀬市","address":"清瀬市梅園3-14-23","lat":35.770518,"lon":139.501347},{"name":"清瀬市","province":"東京都","city":"清瀬市","address":"清瀬市中里5-842","lat":35.786052,"lon":139.526353},{"name":"清瀬作業所","province":"東京都","city":"清瀬市","address":"清瀬市松山2-18-2","lat":35.774134,"lon":139.511501},{"name":"清瀬療護園","province":"東京都","city":"清瀬市","address":"清瀬市竹丘3-1-72","lat":35.764535,"lon":139.504321},{"name":"東京都清瀬喜望園","province":"東京都","city":"清瀬市","address":"清瀬市竹丘3-1-72","lat":35.764535,"lon":139.504321},{"name":"中里地域市民センター","province":"東京都","city":"清瀬市","address":"清瀬市中里4-1301","lat":35.78615,"lon":139.51431},{"name":"野塩地域市民センター","province":"東京都","city":"清瀬市","address":"清瀬市野塩1-322-2","lat":35.77913,"lon":139.49931},{"name":"中清戸地域市民センター","province":"東京都","city":"清瀬市","address":"清瀬市中清戸4-847-5","lat":35.78493,"lon":139.52788},{"name":"松山地域市民センター","province":"東京都","city":"清瀬市","address":"清瀬市松山2-6-25","lat":35.77155,"lon":139.51575},{"name":"子供の家","province":"東京都","city":"清瀬市","address":"清瀬市松山3-12-17","lat":35.76651,"lon":139.51405},{"name":"ベトレヘム学園","province":"東京都","city":"清瀬市","address":"清瀬市梅園3-14-23","lat":35.77177,"lon":139.50096},{"name":"清瀬市","province":"東京都","city":"清瀬市","address":"清瀬市中里5-842","lat":35.78557,"lon":139.52655},{"name":"中里地域市民センター","province":"東京都","city":"清瀬市","address":"清瀬市中里4-1301","lat":35.786499,"lon":139.514165},{"name":"野塩地域市民センター","province":"東京都","city":"清瀬市","address":"清瀬市野塩1-322-2","lat":35.77918,"lon":139.499424},{"name":"松山地域市民センター","province":"東京都","city":"清瀬市","address":"清瀬市松山2-6-25","lat":35.770998,"lon":139.51477},{"name":"子供の家","province":"東京都","city":"清瀬市","address":"清瀬市松山3-12-17","lat":35.76651,"lon":139.514053},{"name":"ベトレヘム学園","province":"東京都","city":"清瀬市","address":"清瀬市梅園3-14-23","lat":35.770518,"lon":139.501347},{"name":"清瀬市","province":"東京都","city":"清瀬市","address":"清瀬市中里5-842","lat":35.786052,"lon":139.526353},{"name":"清瀬作業所","province":"東京都","city":"清瀬市","address":"清瀬市松山2-18-2","lat":35.774134,"lon":139.511501},{"name":"清瀬療護園","province":"東京都","city":"清瀬市","address":"清瀬市竹丘3-1-72","lat":35.764535,"lon":139.504321},{"name":"東京都清瀬喜望園","province":"東京都","city":"清瀬市","address":"清瀬市竹丘3-1-72","lat":35.764535,"lon":139.504321},{"name":"中里地域市民センター","province":"東京都","city":"清瀬市","address":"清瀬市中里4-1301","lat":35.78615,"lon":139.51431},{"name":"野塩地域市民センター","province":"東京都","city":"清瀬市","address":"清瀬市野塩1-322-2","lat":35.77913,"lon":139.49931},{"name":"中清戸地域市民センター","province":"東京都","city":"清瀬市","address":"清瀬市中清戸4-847-5","lat":35.78493,"lon":139.52788},{"name":"松山地域市民センター","province":"東京都","city":"清瀬市","address":"清瀬市松山2-6-25","lat":35.77155,"lon":139.51575},{"name":"子供の家","province":"東京都","city":"清瀬市","address":"清瀬市松山3-12-17","lat":35.76651,"lon":139.51405},{"name":"ベトレヘム学園","province":"東京都","city":"清瀬市","address":"清瀬市梅園3-14-23","lat":35.77177,"lon":139.50096},{"name":"清瀬市","province":"東京都","city":"清瀬市","address":"清瀬市中里5-842","lat":35.78557,"lon":139.52655},{"name":"中里地域市民センター","province":"東京都","city":"清瀬市","address":"清瀬市中里4-1301","lat":35.786499,"lon":139.514165},{"name":"野塩地域市民センター","province":"東京都","city":"清瀬市","address":"清瀬市野塩1-322-2","lat":35.77918,"lon":139.499424},{"name":"松山地域市民センター","province":"東京都","city":"清瀬市","address":"清瀬市松山2-6-25","lat":35.770998,"lon":139.51477},{"name":"子供の家","province":"東京都","city":"清瀬市","address":"清瀬市松山3-12-17","lat":35.76651,"lon":139.514053},{"name":"ベトレヘム学園","province":"東京都","city":"清瀬市","address":"清瀬市梅園3-14-23","lat":35.770518,"lon":139.501347},{"name":"清瀬市","province":"東京都","city":"清瀬市","address":"清瀬市中里5-842","lat":35.786052,"lon":139.526353},{"name":"清瀬作業所","province":"東京都","city":"清瀬市","address":"清瀬市松山2-18-2","lat":35.774134,"lon":139.511501},{"name":"清瀬療護園","province":"東京都","city":"清瀬市","address":"清瀬市竹丘3-1-72","lat":35.764535,"lon":139.504321},{"name":"東京都清瀬喜望園","province":"東京都","city":"清瀬市","address":"清瀬市竹丘3-1-72","lat":35.764535,"lon":139.504321},{"name":"中里地域市民センター","province":"東京都","city":"清瀬市","address":"清瀬市中里4-1301","lat":35.78615,"lon":139.51431},{"name":"野塩地域市民センター","province":"東京都","city":"清瀬市","address":"清瀬市野塩1-322-2","lat":35.77913,"lon":139.49931},{"name":"中清戸地域市民センター","province":"東京都","city":"清瀬市","address":"清瀬市中清戸4-847-5","lat":35.78493,"lon":139.52788},{"name":"松山地域市民センター","province":"東京都","city":"清瀬市","address":"清瀬市松山2-6-25","lat":35.77155,"lon":139.51575},{"name":"子供の家","province":"東京都","city":"清瀬市","address":"清瀬市松山3-12-17","lat":35.76651,"lon":139.51405},{"name":"ベトレヘム学園","province":"東京都","city":"清瀬市","address":"清瀬市梅園3-14-23","lat":35.77177,"lon":139.50096},{"name":"清瀬市","province":"東京都","city":"清瀬市","address":"清瀬市中里5-842","lat":35.78557,"lon":139.52655},{"name":"中里地域市民センター","province":"東京都","city":"清瀬市","address":"清瀬市中里4-1301","lat":35.786499,"lon":139.514165},{"name":"野塩地域市民センター","province":"東京都","city":"清瀬市","address":"清瀬市野塩1-322-2","lat":35.77918,"lon":139.499424},{"name":"松山地域市民センター","province":"東京都","city":"清瀬市","address":"清瀬市松山2-6-25","lat":35.770998,"lon":139.51477},{"name":"子供の家","province":"東京都","city":"清瀬市","address":"清瀬市松山3-12-17","lat":35.76651,"lon":139.514053},{"name":"ベトレヘム学園","province":"東京都","city":"清瀬市","address":"清瀬市梅園3-14-23","lat":35.770518,"lon":139.501347},{"name":"清瀬市","province":"東京都","city":"清瀬市","address":"清瀬市中里5-842","lat":35.786052,"lon":139.526353},{"name":"清瀬作業所","province":"東京都","city":"清瀬市","address":"清瀬市松山2-18-2","lat":35.774134,"lon":139.511501},{"name":"清瀬療護園","province":"東京都","city":"清瀬市","address":"清瀬市竹丘3-1-72","lat":35.764535,"lon":139.504321},{"name":"東京都清瀬喜望園","province":"東京都","city":"清瀬市","address":"清瀬市竹丘3-1-72","lat":35.764535,"lon":139.504321},{"name":"中里地域市民センター","province":"東京都","city":"清瀬市","address":"清瀬市中里4-1301","lat":35.78615,"lon":139.51431},{"name":"野塩地域市民センター","province":"東京都","city":"清瀬市","address":"清瀬市野塩1-322-2","lat":35.77913,"lon":139.49931},{"name":"中清戸地域市民センター","province":"東京都","city":"清瀬市","address":"清瀬市中清戸4-847-5","lat":35.78493,"lon":139.52788},{"name":"松山地域市民センター","province":"東京都","city":"清瀬市","address":"清瀬市松山2-6-25","lat":35.77155,"lon":139.51575},{"name":"子供の家","province":"東京都","city":"清瀬市","address":"清瀬市松山3-12-17","lat":35.76651,"lon":139.51405},{"name":"ベトレヘム学園","province":"東京都","city":"清瀬市","address":"清瀬市梅園3-14-23","lat":35.77177,"lon":139.50096},{"name":"清瀬市","province":"東京都","city":"清瀬市","address":"清瀬市中里5-842","lat":35.78557,"lon":139.52655},{"name":"中里地域市民センター","province":"東京都","city":"清瀬市","address":"清瀬市中里4-1301","lat":35.786499,"lon":139.514165},{"name":"野塩地域市民センター","province":"東京都","city":"清瀬市","address":"清瀬市野塩1-322-2","lat":35.77918,"lon":139.499424},{"name":"松山地域市民センター","province":"東京都","city":"清瀬市","address":"清瀬市松山2-6-25","lat":35.770998,"lon":139.51477},{"name":"子供の家","province":"東京都","city":"清瀬市","address":"清瀬市松山3-12-17","lat":35.76651,"lon":139.514053},{"name":"ベトレヘム学園","province":"東京都","city":"清瀬市","address":"清瀬市梅園3-14-23","lat":35.770518,"lon":139.501347},{"name":"清瀬市","province":"東京都","city":"清瀬市","address":"清瀬市中里5-842","lat":35.786052,"lon":139.526353},{"name":"清瀬作業所","province":"東京都","city":"清瀬市","address":"清瀬市松山2-18-2","lat":35.774134,"lon":139.511501},{"name":"清瀬療護園","province":"東京都","city":"清瀬市","address":"清瀬市竹丘3-1-72","lat":35.764535,"lon":139.504321},{"name":"東京都清瀬喜望園","province":"東京都","city":"清瀬市","address":"清瀬市竹丘3-1-72","lat":35.764535,"lon":139.504321},{"name":"中里地域市民センター","province":"東京都","city":"清瀬市","address":"清瀬市中里4-1301","lat":35.78615,"lon":139.51431},{"name":"野塩地域市民センター","province":"東京都","city":"清瀬市","address":"清瀬市野塩1-322-2","lat":35.77913,"lon":139.49931},{"name":"中清戸地域市民センター","province":"東京都","city":"清瀬市","address":"清瀬市中清戸4-847-5","lat":35.78493,"lon":139.52788},{"name":"松山地域市民センター","province":"東京都","city":"清瀬市","address":"清瀬市松山2-6-25","lat":35.77155,"lon":139.51575},{"name":"子供の家","province":"東京都","city":"清瀬市","address":"清瀬市松山3-12-17","lat":35.76651,"lon":139.51405},{"name":"ベトレヘム学園","province":"東京都","city":"清瀬市","address":"清瀬市梅園3-14-23","lat":35.77177,"lon":139.50096},{"name":"清瀬市","province":"東京都","city":"清瀬市","address":"清瀬市中里5-842","lat":35.78557,"lon":139.52655},{"name":"中里地域市民センター","province":"東京都","city":"清瀬市","address":"清瀬市中里4-1301","lat":35.786499,"lon":139.514165},{"name":"野塩地域市民センター","province":"東京都","city":"清瀬市","address":"清瀬市野塩1-322-2","lat":35.77918,"lon":139.499424},{"name":"松山地域市民センター","province":"東京都","city":"清瀬市","address":"清瀬市松山2-6-25","lat":35.770998,"lon":139.51477},{"name":"子供の家","province":"東京都","city":"清瀬市","address":"清瀬市松山3-12-17","lat":35.76651,"lon":139.514053},{"name":"ベトレヘム学園","province":"東京都","city":"清瀬市","address":"清瀬市梅園3-14-23","lat":35.770518,"lon":139.501347},{"name":"清瀬市","province":"東京都","city":"清瀬市","address":"清瀬市中里5-842","lat":35.786052,"lon":139.526353},{"name":"清瀬作業所","province":"東京都","city":"清瀬市","address":"清瀬市松山2-18-2","lat":35.774134,"lon":139.511501},{"name":"清瀬療護園","province":"東京都","city":"清瀬市","address":"清瀬市竹丘3-1-72","lat":35.764535,"lon":139.504321},{"name":"東京都清瀬喜望園","province":"東京都","city":"清瀬市","address":"清瀬市竹丘3-1-72","lat":35.764535,"lon":139.504321},{"name":"中里地域市民センター","province":"東京都","city":"清瀬市","address":"清瀬市中里4-1301","lat":35.78615,"lon":139.51431},{"name":"野塩地域市民センター","province":"東京都","city":"清瀬市","address":"清瀬市野塩1-322-2","lat":35.77913,"lon":139.49931},{"name":"中清戸地域市民センター","province":"東京都","city":"清瀬市","address":"清瀬市中清戸4-847-5","lat":35.78493,"lon":139.52788},{"name":"松山地域市民センター","province":"東京都","city":"清瀬市","address":"清瀬市松山2-6-25","lat":35.77155,"lon":139.51575},{"name":"子供の家","province":"東京都","city":"清瀬市","address":"清瀬市松山3-12-17","lat":35.76651,"lon":139.51405},{"name":"ベトレヘム学園","province":"東京都","city":"清瀬市","address":"清瀬市梅園3-14-23","lat":35.77177,"lon":139.50096},{"name":"清瀬市","province":"東京都","city":"清瀬市","address":"清瀬市中里5-842","lat":35.78557,"lon":139.52655},{"name":"中里地域市民センター","province":"東京都","city":"清瀬市","address":"清瀬市中里4-1301","lat":35.786499,"lon":139.514165},{"name":"野塩地域市民センター","province":"東京都","city":"清瀬市","address":"清瀬市野塩1-322-2","lat":35.77918,"lon":139.499424},{"name":"松山地域市民センター","province":"東京都","city":"清瀬市","address":"清瀬市松山2-6-25","lat":35.770998,"lon":139.51477},{"name":"子供の家","province":"東京都","city":"清瀬市","address":"清瀬市松山3-12-17","lat":35.76651,"lon":139.514053},{"name":"ベトレヘム学園","province":"東京都","city":"清瀬市","address":"清瀬市梅園3-14-23","lat":35.770518,"lon":139.501347},{"name":"清瀬市","province":"東京都","city":"清瀬市","address":"清瀬市中里5-842","lat":35.786052,"lon":139.526353},{"name":"清瀬作業所","province":"東京都","city":"清瀬市","address":"清瀬市松山2-18-2","lat":35.774134,"lon":139.511501},{"name":"清瀬療護園","province":"東京都","city":"清瀬市","address":"清瀬市竹丘3-1-72","lat":35.764535,"lon":139.504321},{"name":"東京都清瀬喜望園","province":"東京都","city":"清瀬市","address":"清瀬市竹丘3-1-72","lat":35.764535,"lon":139.504321},{"name":"中里地域市民センター","province":"東京都","city":"清瀬市","address":"清瀬市中里4-1301","lat":35.78615,"lon":139.51431},{"name":"野塩地域市民センター","province":"東京都","city":"清瀬市","address":"清瀬市野塩1-322-2","lat":35.77913,"lon":139.49931},{"name":"中清戸地域市民センター","province":"東京都","city":"清瀬市","address":"清瀬市中清戸4-847-5","lat":35.78493,"lon":139.52788},{"name":"松山地域市民センター","province":"東京都","city":"清瀬市","address":"清瀬市松山2-6-25","lat":35.77155,"lon":139.51575},{"name":"子供の家","province":"東京都","city":"清瀬市","address":"清瀬市松山3-12-17","lat":35.76651,"lon":139.51405},{"name":"ベトレヘム学園","province":"東京都","city":"清瀬市","address":"清瀬市梅園3-14-23","lat":35.77177,"lon":139.50096},{"name":"清瀬市","province":"東京都","city":"清瀬市","address":"清瀬市中里5-842","lat":35.78557,"lon":139.52655},{"name":"中里地域市民センター","province":"東京都","city":"清瀬市","address":"清瀬市中里4-1301","lat":35.786499,"lon":139.514165},{"name":"野塩地域市民センター","province":"東京都","city":"清瀬市","address":"清瀬市野塩1-322-2","lat":35.77918,"lon":139.499424},{"name":"松山地域市民センター","province":"東京都","city":"清瀬市","address":"清瀬市松山2-6-25","lat":35.770998,"lon":139.51477},{"name":"子供の家","province":"東京都","city":"清瀬市","address":"清瀬市松山3-12-17","lat":35.76651,"lon":139.514053},{"name":"ベトレヘム学園","province":"東京都","city":"清瀬市","address":"清瀬市梅園3-14-23","lat":35.770518,"lon":139.501347},{"name":"清瀬市","province":"東京都","city":"清瀬市","address":"清瀬市中里5-842","lat":35.786052,"lon":139.526353},{"name":"清瀬作業所","province":"東京都","city":"清瀬市","address":"清瀬市松山2-18-2","lat":35.774134,"lon":139.511501},{"name":"清瀬療護園","province":"東京都","city":"清瀬市","address":"清瀬市竹丘3-1-72","lat":35.764535,"lon":139.504321},{"name":"東京都清瀬喜望園","province":"東京都","city":"清瀬市","address":"清瀬市竹丘3-1-72","lat":35.764535,"lon":139.504321},{"name":"中里地域市民センター","province":"東京都","city":"清瀬市","address":"清瀬市中里4-1301","lat":35.78615,"lon":139.51431},{"name":"野塩地域市民センター","province":"東京都","city":"清瀬市","address":"清瀬市野塩1-322-2","lat":35.77913,"lon":139.49931},{"name":"中清戸地域市民センター","province":"東京都","city":"清瀬市","address":"清瀬市中清戸4-847-5","lat":35.78493,"lon":139.52788},{"name":"松山地域市民センター","province":"東京都","city":"清瀬市","address":"清瀬市松山2-6-25","lat":35.77155,"lon":139.51575},{"name":"子供の家","province":"東京都","city":"清瀬市","address":"清瀬市松山3-12-17","lat":35.76651,"lon":139.51405},{"name":"ベトレヘム学園","province":"東京都","city":"清瀬市","address":"清瀬市梅園3-14-23","lat":35.77177,"lon":139.50096},{"name":"清瀬市","province":"東京都","city":"清瀬市","address":"清瀬市中里5-842","lat":35.78557,"lon":139.52655},{"name":"中里地域市民センター","province":"東京都","city":"清瀬市","address":"清瀬市中里4-1301","lat":35.786499,"lon":139.514165},{"name":"野塩地域市民センター","province":"東京都","city":"清瀬市","address":"清瀬市野塩1-322-2","lat":35.77918,"lon":139.499424},{"name":"松山地域市民センター","province":"東京都","city":"清瀬市","address":"清瀬市松山2-6-25","lat":35.770998,"lon":139.51477},{"name":"子供の家","province":"東京都","city":"清瀬市","address":"清瀬市松山3-12-17","lat":35.76651,"lon":139.514053},{"name":"ベトレヘム学園","province":"東京都","city":"清瀬市","address":"清瀬市梅園3-14-23","lat":35.770518,"lon":139.501347},{"name":"清瀬市","province":"東京都","city":"清瀬市","address":"清瀬市中里5-842","lat":35.786052,"lon":139.526353},{"name":"清瀬作業所","province":"東京都","city":"清瀬市","address":"清瀬市松山2-18-2","lat":35.774134,"lon":139.511501},{"name":"清瀬療護園","province":"東京都","city":"清瀬市","address":"清瀬市竹丘3-1-72","lat":35.764535,"lon":139.504321},{"name":"東京都清瀬喜望園","province":"東京都","city":"清瀬市","address":"清瀬市竹丘3-1-72","lat":35.764535,"lon":139.504321},{"name":"中里地域市民センター","province":"東京都","city":"清瀬市","address":"清瀬市中里4-1301","lat":35.78615,"lon":139.51431},{"name":"野塩地域市民センター","province":"東京都","city":"清瀬市","address":"清瀬市野塩1-322-2","lat":35.77913,"lon":139.49931},{"name":"中清戸地域市民センター","province":"東京都","city":"清瀬市","address":"清瀬市中清戸4-847-5","lat":35.78493,"lon":139.52788},{"name":"松山地域市民センター","province":"東京都","city":"清瀬市","address":"清瀬市松山2-6-25","lat":35.77155,"lon":139.51575},{"name":"子供の家","province":"東京都","city":"清瀬市","address":"清瀬市松山3-12-17","lat":35.76651,"lon":139.51405},{"name":"ベトレヘム学園","province":"東京都","city":"清瀬市","address":"清瀬市梅園3-14-23","lat":35.77177,"lon":139.50096},{"name":"清瀬市","province":"東京都","city":"清瀬市","address":"清瀬市中里5-842","lat":35.78557,"lon":139.52655},{"name":"中里地域市民センター","province":"東京都","city":"清瀬市","address":"清瀬市中里4-1301","lat":35.786499,"lon":139.514165},{"name":"野塩地域市民センター","province":"東京都","city":"清瀬市","address":"清瀬市野塩1-322-2","lat":35.77918,"lon":139.499424},{"name":"松山地域市民センター","province":"東京都","city":"清瀬市","address":"清瀬市松山2-6-25","lat":35.770998,"lon":139.51477},{"name":"子供の家","province":"東京都","city":"清瀬市","address":"清瀬市松山3-12-17","lat":35.76651,"lon":139.514053},{"name":"ベトレヘム学園","province":"東京都","city":"清瀬市","address":"清瀬市梅園3-14-23","lat":35.770518,"lon":139.501347},{"name":"清瀬市","province":"東京都","city":"清瀬市","address":"清瀬市中里5-842","lat":35.786052,"lon":139.526353},{"name":"清瀬作業所","province":"東京都","city":"清瀬市","address":"清瀬市松山2-18-2","lat":35.774134,"lon":139.511501},{"name":"清瀬療護園","province":"東京都","city":"清瀬市","address":"清瀬市竹丘3-1-72","lat":35.764535,"lon":139.504321},{"name":"東京都清瀬喜望園","province":"東京都","city":"清瀬市","address":"清瀬市竹丘3-1-72","lat":35.764535,"lon":139.504321},{"name":"中里地域市民センター","province":"東京都","city":"清瀬市","address":"清瀬市中里4-1301","lat":35.78615,"lon":139.51431},{"name":"野塩地域市民センター","province":"東京都","city":"清瀬市","address":"清瀬市野塩1-322-2","lat":35.77913,"lon":139.49931},{"name":"中清戸地域市民センター","province":"東京都","city":"清瀬市","address":"清瀬市中清戸4-847-5","lat":35.78493,"lon":139.52788},{"name":"松山地域市民センター","province":"東京都","city":"清瀬市","address":"清瀬市松山2-6-25","lat":35.77155,"lon":139.51575},{"name":"子供の家","province":"東京都","city":"清瀬市","address":"清瀬市松山3-12-17","lat":35.76651,"lon":139.51405},{"name":"ベトレヘム学園","province":"東京都","city":"清瀬市","address":"清瀬市梅園3-14-23","lat":35.77177,"lon":139.50096},{"name":"清瀬市","province":"東京都","city":"清瀬市","address":"清瀬市中里5-842","lat":35.78557,"lon":139.52655},{"name":"中里地域市民センター","province":"東京都","city":"清瀬市","address":"清瀬市中里4-1301","lat":35.786499,"lon":139.514165},{"name":"野塩地域市民センター","province":"東京都","city":"清瀬市","address":"清瀬市野塩1-322-2","lat":35.77918,"lon":139.499424},{"name":"松山地域市民センター","province":"東京都","city":"清瀬市","address":"清瀬市松山2-6-25","lat":35.770998,"lon":139.51477},{"name":"子供の家","province":"東京都","city":"清瀬市","address":"清瀬市松山3-12-17","lat":35.76651,"lon":139.514053},{"name":"ベトレヘム学園","province":"東京都","city":"清瀬市","address":"清瀬市梅園3-14-23","lat":35.770518,"lon":139.501347},{"name":"清瀬市","province":"東京都","city":"清瀬市","address":"清瀬市中里5-842","lat":35.786052,"lon":139.526353},{"name":"清瀬作業所","province":"東京都","city":"清瀬市","address":"清瀬市松山2-18-2","lat":35.774134,"lon":139.511501},{"name":"清瀬療護園","province":"東京都","city":"清瀬市","address":"清瀬市竹丘3-1-72","lat":35.764535,"lon":139.504321},{"name":"東京都清瀬喜望園","province":"東京都","city":"清瀬市","address":"清瀬市竹丘3-1-72","lat":35.764535,"lon":139.504321},{"name":"中里地域市民センター","province":"東京都","city":"清瀬市","address":"清瀬市中里4-1301","lat":35.78615,"lon":139.51431},{"name":"野塩地域市民センター","province":"東京都","city":"清瀬市","address":"清瀬市野塩1-322-2","lat":35.77913,"lon":139.49931},{"name":"中清戸地域市民センター","province":"東京都","city":"清瀬市","address":"清瀬市中清戸4-847-5","lat":35.78493,"lon":139.52788},{"name":"松山地域市民センター","province":"東京都","city":"清瀬市","address":"清瀬市松山2-6-25","lat":35.77155,"lon":139.51575},{"name":"子供の家","province":"東京都","city":"清瀬市","address":"清瀬市松山3-12-17","lat":35.76651,"lon":139.51405},{"name":"ベトレヘム学園","province":"東京都","city":"清瀬市","address":"清瀬市梅園3-14-23","lat":35.77177,"lon":139.50096},{"name":"清瀬市","province":"東京都","city":"清瀬市","address":"清瀬市中里5-842","lat":35.78557,"lon":139.52655},{"name":"中里地域市民センター","province":"東京都","city":"清瀬市","address":"清瀬市中里4-1301","lat":35.786499,"lon":139.514165},{"name":"野塩地域市民センター","province":"東京都","city":"清瀬市","address":"清瀬市野塩1-322-2","lat":35.77918,"lon":139.499424},{"name":"松山地域市民センター","province":"東京都","city":"清瀬市","address":"清瀬市松山2-6-25","lat":35.770998,"lon":139.51477},{"name":"子供の家","province":"東京都","city":"清瀬市","address":"清瀬市松山3-12-17","lat":35.76651,"lon":139.514053},{"name":"ベトレヘム学園","province":"東京都","city":"清瀬市","address":"清瀬市梅園3-14-23","lat":35.770518,"lon":139.501347},{"name":"清瀬市","province":"東京都","city":"清瀬市","address":"清瀬市中里5-842","lat":35.786052,"lon":139.526353},{"name":"清瀬作業所","province":"東京都","city":"清瀬市","address":"清瀬市松山2-18-2","lat":35.774134,"lon":139.511501},{"name":"清瀬療護園","province":"東京都","city":"清瀬市","address":"清瀬市竹丘3-1-72","lat":35.764535,"lon":139.504321},{"name":"東京都清瀬喜望園","province":"東京都","city":"清瀬市","address":"清瀬市竹丘3-1-72","lat":35.764535,"lon":139.504321},{"name":"中里地域市民センター","province":"東京都","city":"清瀬市","address":"清瀬市中里4-1301","lat":35.78615,"lon":139.51431},{"name":"野塩地域市民センター","province":"東京都","city":"清瀬市","address":"清瀬市野塩1-322-2","lat":35.77913,"lon":139.49931},{"name":"中清戸地域市民センター","province":"東京都","city":"清瀬市","address":"清瀬市中清戸4-847-5","lat":35.78493,"lon":139.52788},{"name":"松山地域市民センター","province":"東京都","city":"清瀬市","address":"清瀬市松山2-6-25","lat":35.77155,"lon":139.51575},{"name":"子供の家","province":"東京都","city":"清瀬市","address":"清瀬市松山3-12-17","lat":35.76651,"lon":139.51405},{"name":"ベトレヘム学園","province":"東京都","city":"清瀬市","address":"清瀬市梅園3-14-23","lat":35.77177,"lon":139.50096},{"name":"清瀬市","province":"東京都","city":"清瀬市","address":"清瀬市中里5-842","lat":35.78557,"lon":139.52655},{"name":"中里地域市民センター","province":"東京都","city":"清瀬市","address":"清瀬市中里4-1301","lat":35.786499,"lon":139.514165},{"name":"野塩地域市民センター","province":"東京都","city":"清瀬市","address":"清瀬市野塩1-322-2","lat":35.77918,"lon":139.499424},{"name":"松山地域市民センター","province":"東京都","city":"清瀬市","address":"清瀬市松山2-6-25","lat":35.770998,"lon":139.51477},{"name":"子供の家","province":"東京都","city":"清瀬市","address":"清瀬市松山3-12-17","lat":35.76651,"lon":139.514053},{"name":"ベトレヘム学園","province":"東京都","city":"清瀬市","address":"清瀬市梅園3-14-23","lat":35.770518,"lon":139.501347},{"name":"清瀬市","province":"東京都","city":"清瀬市","address":"清瀬市中里5-842","lat":35.786052,"lon":139.526353},{"name":"清瀬作業所","province":"東京都","city":"清瀬市","address":"清瀬市松山2-18-2","lat":35.774134,"lon":139.511501},{"name":"清瀬療護園","province":"東京都","city":"清瀬市","address":"清瀬市竹丘3-1-72","lat":35.764535,"lon":139.504321},{"name":"東京都清瀬喜望園","province":"東京都","city":"清瀬市","address":"清瀬市竹丘3-1-72","lat":35.764535,"lon":139.504321},{"name":"中里地域市民センター","province":"東京都","city":"清瀬市","address":"清瀬市中里4-1301","lat":35.78615,"lon":139.51431},{"name":"野塩地域市民センター","province":"東京都","city":"清瀬市","address":"清瀬市野塩1-322-2","lat":35.77913,"lon":139.49931},{"name":"中清戸地域市民センター","province":"東京都","city":"清瀬市","address":"清瀬市中清戸4-847-5","lat":35.78493,"lon":139.52788},{"name":"松山地域市民センター","province":"東京都","city":"清瀬市","address":"清瀬市松山2-6-25","lat":35.77155,"lon":139.51575},{"name":"子供の家","province":"東京都","city":"清瀬市","address":"清瀬市松山3-12-17","lat":35.76651,"lon":139.51405},{"name":"ベトレヘム学園","province":"東京都","city":"清瀬市","address":"清瀬市梅園3-14-23","lat":35.77177,"lon":139.50096},{"name":"清瀬市","province":"東京都","city":"清瀬市","address":"清瀬市中里5-842","lat":35.78557,"lon":139.52655},{"name":"中里地域市民センター","province":"東京都","city":"清瀬市","address":"清瀬市中里4-1301","lat":35.786499,"lon":139.514165},{"name":"野塩地域市民センター","province":"東京都","city":"清瀬市","address":"清瀬市野塩1-322-2","lat":35.77918,"lon":139.499424},{"name":"松山地域市民センター","province":"東京都","city":"清瀬市","address":"清瀬市松山2-6-25","lat":35.770998,"lon":139.51477},{"name":"子供の家","province":"東京都","city":"清瀬市","address":"清瀬市松山3-12-17","lat":35.76651,"lon":139.514053},{"name":"ベトレヘム学園","province":"東京都","city":"清瀬市","address":"清瀬市梅園3-14-23","lat":35.770518,"lon":139.501347},{"name":"清瀬市","province":"東京都","city":"清瀬市","address":"清瀬市中里5-842","lat":35.786052,"lon":139.526353},{"name":"清瀬作業所","province":"東京都","city":"清瀬市","address":"清瀬市松山2-18-2","lat":35.774134,"lon":139.511501},{"name":"清瀬療護園","province":"東京都","city":"清瀬市","address":"清瀬市竹丘3-1-72","lat":35.764535,"lon":139.504321},{"name":"東京都清瀬喜望園","province":"東京都","city":"清瀬市","address":"清瀬市竹丘3-1-72","lat":35.764535,"lon":139.504321},{"name":"中里地域市民センター","province":"東京都","city":"清瀬市","address":"清瀬市中里4-1301","lat":35.78615,"lon":139.51431},{"name":"野塩地域市民センター","province":"東京都","city":"清瀬市","address":"清瀬市野塩1-322-2","lat":35.77913,"lon":139.49931},{"name":"中清戸地域市民センター","province":"東京都","city":"清瀬市","address":"清瀬市中清戸4-847-5","lat":35.78493,"lon":139.52788},{"name":"松山地域市民センター","province":"東京都","city":"清瀬市","address":"清瀬市松山2-6-25","lat":35.77155,"lon":139.51575},{"name":"子供の家","province":"東京都","city":"清瀬市","address":"清瀬市松山3-12-17","lat":35.76651,"lon":139.51405},{"name":"ベトレヘム学園","province":"東京都","city":"清瀬市","address":"清瀬市梅園3-14-23","lat":35.77177,"lon":139.50096},{"name":"清瀬市","province":"東京都","city":"清瀬市","address":"清瀬市中里5-842","lat":35.78557,"lon":139.52655},{"name":"中里地域市民センター","province":"東京都","city":"清瀬市","address":"清瀬市中里4-1301","lat":35.786499,"lon":139.514165},{"name":"野塩地域市民センター","province":"東京都","city":"清瀬市","address":"清瀬市野塩1-322-2","lat":35.77918,"lon":139.499424},{"name":"松山地域市民センター","province":"東京都","city":"清瀬市","address":"清瀬市松山2-6-25","lat":35.770998,"lon":139.51477},{"name":"子供の家","province":"東京都","city":"清瀬市","address":"清瀬市松山3-12-17","lat":35.76651,"lon":139.514053},{"name":"ベトレヘム学園","province":"東京都","city":"清瀬市","address":"清瀬市梅園3-14-23","lat":35.770518,"lon":139.501347},{"name":"清瀬市","province":"東京都","city":"清瀬市","address":"清瀬市中里5-842","lat":35.786052,"lon":139.526353},{"name":"清瀬作業所","province":"東京都","city":"清瀬市","address":"清瀬市松山2-18-2","lat":35.774134,"lon":139.511501},{"name":"清瀬療護園","province":"東京都","city":"清瀬市","address":"清瀬市竹丘3-1-72","lat":35.764535,"lon":139.504321},{"name":"東京都清瀬喜望園","province":"東京都","city":"清瀬市","address":"清瀬市竹丘3-1-72","lat":35.764535,"lon":139.504321},{"name":"中里地域市民センター","province":"東京都","city":"清瀬市","address":"清瀬市中里4-1301","lat":35.78615,"lon":139.51431},{"name":"野塩地域市民センター","province":"東京都","city":"清瀬市","address":"清瀬市野塩1-322-2","lat":35.77913,"lon":139.49931},{"name":"中清戸地域市民センター","province":"東京都","city":"清瀬市","address":"清瀬市中清戸4-847-5","lat":35.78493,"lon":139.52788},{"name":"松山地域市民センター","province":"東京都","city":"清瀬市","address":"清瀬市松山2-6-25","lat":35.77155,"lon":139.51575},{"name":"子供の家","province":"東京都","city":"清瀬市","address":"清瀬市松山3-12-17","lat":35.76651,"lon":139.51405},{"name":"ベトレヘム学園","province":"東京都","city":"清瀬市","address":"清瀬市梅園3-14-23","lat":35.77177,"lon":139.50096},{"name":"清瀬市","province":"東京都","city":"清瀬市","address":"清瀬市中里5-842","lat":35.78557,"lon":139.52655},{"name":"中里地域市民センター","province":"東京都","city":"清瀬市","address":"清瀬市中里4-1301","lat":35.786499,"lon":139.514165},{"name":"野塩地域市民センター","province":"東京都","city":"清瀬市","address":"清瀬市野塩1-322-2","lat":35.77918,"lon":139.499424},{"name":"松山地域市民センター","province":"東京都","city":"清瀬市","address":"清瀬市松山2-6-25","lat":35.770998,"lon":139.51477},{"name":"子供の家","province":"東京都","city":"清瀬市","address":"清瀬市松山3-12-17","lat":35.76651,"lon":139.514053},{"name":"ベトレヘム学園","province":"東京都","city":"清瀬市","address":"清瀬市梅園3-14-23","lat":35.770518,"lon":139.501347},{"name":"清瀬市","province":"東京都","city":"清瀬市","address":"清瀬市中里5-842","lat":35.786052,"lon":139.526353},{"name":"清瀬作業所","province":"東京都","city":"清瀬市","address":"清瀬市松山2-18-2","lat":35.774134,"lon":139.511501},{"name":"清瀬療護園","province":"東京都","city":"清瀬市","address":"清瀬市竹丘3-1-72","lat":35.764535,"lon":139.504321},{"name":"東京都清瀬喜望園","province":"東京都","city":"清瀬市","address":"清瀬市竹丘3-1-72","lat":35.764535,"lon":139.504321},{"name":"中里地域市民センター","province":"東京都","city":"清瀬市","address":"清瀬市中里4-1301","lat":35.78615,"lon":139.51431},{"name":"野塩地域市民センター","province":"東京都","city":"清瀬市","address":"清瀬市野塩1-322-2","lat":35.77913,"lon":139.49931},{"name":"中清戸地域市民センター","province":"東京都","city":"清瀬市","address":"清瀬市中清戸4-847-5","lat":35.78493,"lon":139.52788},{"name":"松山地域市民センター","province":"東京都","city":"清瀬市","address":"清瀬市松山2-6-25","lat":35.77155,"lon":139.51575},{"name":"子供の家","province":"東京都","city":"清瀬市","address":"清瀬市松山3-12-17","lat":35.76651,"lon":139.51405},{"name":"ベトレヘム学園","province":"東京都","city":"清瀬市","address":"清瀬市梅園3-14-23","lat":35.77177,"lon":139.50096},{"name":"清瀬市","province":"東京都","city":"清瀬市","address":"清瀬市中里5-842","lat":35.78557,"lon":139.52655},{"name":"中里地域市民センター","province":"東京都","city":"清瀬市","address":"清瀬市中里4-1301","lat":35.786499,"lon":139.514165},{"name":"野塩地域市民センター","province":"東京都","city":"清瀬市","address":"清瀬市野塩1-322-2","lat":35.77918,"lon":139.499424},{"name":"松山地域市民センター","province":"東京都","city":"清瀬市","address":"清瀬市松山2-6-25","lat":35.770998,"lon":139.51477},{"name":"子供の家","province":"東京都","city":"清瀬市","address":"清瀬市松山3-12-17","lat":35.76651,"lon":139.514053},{"name":"ベトレヘム学園","province":"東京都","city":"清瀬市","address":"清瀬市梅園3-14-23","lat":35.770518,"lon":139.501347},{"name":"清瀬市","province":"東京都","city":"清瀬市","address":"清瀬市中里5-842","lat":35.786052,"lon":139.526353},{"name":"清瀬作業所","province":"東京都","city":"清瀬市","address":"清瀬市松山2-18-2","lat":35.774134,"lon":139.511501},{"name":"清瀬療護園","province":"東京都","city":"清瀬市","address":"清瀬市竹丘3-1-72","lat":35.764535,"lon":139.504321},{"name":"東京都清瀬喜望園","province":"東京都","city":"清瀬市","address":"清瀬市竹丘3-1-72","lat":35.764535,"lon":139.504321},{"name":"中里地域市民センター","province":"東京都","city":"清瀬市","address":"清瀬市中里4-1301","lat":35.78615,"lon":139.51431},{"name":"野塩地域市民センター","province":"東京都","city":"清瀬市","address":"清瀬市野塩1-322-2","lat":35.77913,"lon":139.49931},{"name":"中清戸地域市民センター","province":"東京都","city":"清瀬市","address":"清瀬市中清戸4-847-5","lat":35.78493,"lon":139.52788},{"name":"松山地域市民センター","province":"東京都","city":"清瀬市","address":"清瀬市松山2-6-25","lat":35.77155,"lon":139.51575},{"name":"子供の家","province":"東京都","city":"清瀬市","address":"清瀬市松山3-12-17","lat":35.76651,"lon":139.51405},{"name":"ベトレヘム学園","province":"東京都","city":"清瀬市","address":"清瀬市梅園3-14-23","lat":35.77177,"lon":139.50096},{"name":"清瀬市","province":"東京都","city":"清瀬市","address":"清瀬市中里5-842","lat":35.78557,"lon":139.52655},{"name":"中里地域市民センター","province":"東京都","city":"清瀬市","address":"清瀬市中里4-1301","lat":35.786499,"lon":139.514165},{"name":"野塩地域市民センター","province":"東京都","city":"清瀬市","address":"清瀬市野塩1-322-2","lat":35.77918,"lon":139.499424},{"name":"松山地域市民センター","province":"東京都","city":"清瀬市","address":"清瀬市松山2-6-25","lat":35.770998,"lon":139.51477},{"name":"子供の家","province":"東京都","city":"清瀬市","address":"清瀬市松山3-12-17","lat":35.76651,"lon":139.514053},{"name":"ベトレヘム学園","province":"東京都","city":"清瀬市","address":"清瀬市梅園3-14-23","lat":35.770518,"lon":139.501347},{"name":"清瀬市","province":"東京都","city":"清瀬市","address":"清瀬市中里5-842","lat":35.786052,"lon":139.526353},{"name":"清瀬作業所","province":"東京都","city":"清瀬市","address":"清瀬市松山2-18-2","lat":35.774134,"lon":139.511501},{"name":"清瀬療護園","province":"東京都","city":"清瀬市","address":"清瀬市竹丘3-1-72","lat":35.764535,"lon":139.504321},{"name":"東京都清瀬喜望園","province":"東京都","city":"清瀬市","address":"清瀬市竹丘3-1-72","lat":35.764535,"lon":139.504321},{"name":"中里地域市民センター","province":"東京都","city":"清瀬市","address":"清瀬市中里4-1301","lat":35.78615,"lon":139.51431},{"name":"野塩地域市民センター","province":"東京都","city":"清瀬市","address":"清瀬市野塩1-322-2","lat":35.77913,"lon":139.49931},{"name":"中清戸地域市民センター","province":"東京都","city":"清瀬市","address":"清瀬市中清戸4-847-5","lat":35.78493,"lon":139.52788},{"name":"松山地域市民センター","province":"東京都","city":"清瀬市","address":"清瀬市松山2-6-25","lat":35.77155,"lon":139.51575},{"name":"子供の家","province":"東京都","city":"清瀬市","address":"清瀬市松山3-12-17","lat":35.76651,"lon":139.51405},{"name":"ベトレヘム学園","province":"東京都","city":"清瀬市","address":"清瀬市梅園3-14-23","lat":35.77177,"lon":139.50096},{"name":"清瀬市","province":"東京都","city":"清瀬市","address":"清瀬市中里5-842","lat":35.78557,"lon":139.52655},{"name":"中里地域市民センター","province":"東京都","city":"清瀬市","address":"清瀬市中里4-1301","lat":35.786499,"lon":139.514165},{"name":"野塩地域市民センター","province":"東京都","city":"清瀬市","address":"清瀬市野塩1-322-2","lat":35.77918,"lon":139.499424},{"name":"松山地域市民センター","province":"東京都","city":"清瀬市","address":"清瀬市松山2-6-25","lat":35.770998,"lon":139.51477},{"name":"子供の家","province":"東京都","city":"清瀬市","address":"清瀬市松山3-12-17","lat":35.76651,"lon":139.514053},{"name":"ベトレヘム学園","province":"東京都","city":"清瀬市","address":"清瀬市梅園3-14-23","lat":35.770518,"lon":139.501347},{"name":"清瀬市","province":"東京都","city":"清瀬市","address":"清瀬市中里5-842","lat":35.786052,"lon":139.526353},{"name":"清瀬作業所","province":"東京都","city":"清瀬市","address":"清瀬市松山2-18-2","lat":35.774134,"lon":139.511501},{"name":"清瀬療護園","province":"東京都","city":"清瀬市","address":"清瀬市竹丘3-1-72","lat":35.764535,"lon":139.504321},{"name":"東京都清瀬喜望園","province":"東京都","city":"清瀬市","address":"清瀬市竹丘3-1-72","lat":35.764535,"lon":139.504321},{"name":"中里地域市民センター","province":"東京都","city":"清瀬市","address":"清瀬市中里4-1301","lat":35.78615,"lon":139.51431},{"name":"野塩地域市民センター","province":"東京都","city":"清瀬市","address":"清瀬市野塩1-322-2","lat":35.77913,"lon":139.49931},{"name":"中清戸地域市民センター","province":"東京都","city":"清瀬市","address":"清瀬市中清戸4-847-5","lat":35.78493,"lon":139.52788},{"name":"松山地域市民センター","province":"東京都","city":"清瀬市","address":"清瀬市松山2-6-25","lat":35.77155,"lon":139.51575},{"name":"子供の家","province":"東京都","city":"清瀬市","address":"清瀬市松山3-12-17","lat":35.76651,"lon":139.51405},{"name":"ベトレヘム学園","province":"東京都","city":"清瀬市","address":"清瀬市梅園3-14-23","lat":35.77177,"lon":139.50096},{"name":"清瀬市","province":"東京都","city":"清瀬市","address":"清瀬市中里5-842","lat":35.78557,"lon":139.52655},{"name":"中里地域市民センター","province":"東京都","city":"清瀬市","address":"清瀬市中里4-1301","lat":35.786499,"lon":139.514165},{"name":"野塩地域市民センター","province":"東京都","city":"清瀬市","address":"清瀬市野塩1-322-2","lat":35.77918,"lon":139.499424},{"name":"松山地域市民センター","province":"東京都","city":"清瀬市","address":"清瀬市松山2-6-25","lat":35.770998,"lon":139.51477},{"name":"子供の家","province":"東京都","city":"清瀬市","address":"清瀬市松山3-12-17","lat":35.76651,"lon":139.514053},{"name":"ベトレヘム学園","province":"東京都","city":"清瀬市","address":"清瀬市梅園3-14-23","lat":35.770518,"lon":139.501347},{"name":"清瀬市","province":"東京都","city":"清瀬市","address":"清瀬市中里5-842","lat":35.786052,"lon":139.526353},{"name":"清瀬作業所","province":"東京都","city":"清瀬市","address":"清瀬市松山2-18-2","lat":35.774134,"lon":139.511501},{"name":"清瀬療護園","province":"東京都","city":"清瀬市","address":"清瀬市竹丘3-1-72","lat":35.764535,"lon":139.504321},{"name":"東京都清瀬喜望園","province":"東京都","city":"清瀬市","address":"清瀬市竹丘3-1-72","lat":35.764535,"lon":139.504321},{"name":"中里地域市民センター","province":"東京都","city":"清瀬市","address":"清瀬市中里4-1301","lat":35.78615,"lon":139.51431},{"name":"野塩地域市民センター","province":"東京都","city":"清瀬市","address":"清瀬市野塩1-322-2","lat":35.77913,"lon":139.49931},{"name":"中清戸地域市民センター","province":"東京都","city":"清瀬市","address":"清瀬市中清戸4-847-5","lat":35.78493,"lon":139.52788},{"name":"松山地域市民センター","province":"東京都","city":"清瀬市","address":"清瀬市松山2-6-25","lat":35.77155,"lon":139.51575},{"name":"子供の家","province":"東京都","city":"清瀬市","address":"清瀬市松山3-12-17","lat":35.76651,"lon":139.51405},{"name":"ベトレヘム学園","province":"東京都","city":"清瀬市","address":"清瀬市梅園3-14-23","lat":35.77177,"lon":139.50096},{"name":"清瀬市","province":"東京都","city":"清瀬市","address":"清瀬市中里5-842","lat":35.78557,"lon":139.52655},{"name":"中里地域市民センター","province":"東京都","city":"清瀬市","address":"清瀬市中里4-1301","lat":35.786499,"lon":139.514165},{"name":"野塩地域市民センター","province":"東京都","city":"清瀬市","address":"清瀬市野塩1-322-2","lat":35.77918,"lon":139.499424},{"name":"松山地域市民センター","province":"東京都","city":"清瀬市","address":"清瀬市松山2-6-25","lat":35.770998,"lon":139.51477},{"name":"子供の家","province":"東京都","city":"清瀬市","address":"清瀬市松山3-12-17","lat":35.76651,"lon":139.514053},{"name":"ベトレヘム学園","province":"東京都","city":"清瀬市","address":"清瀬市梅園3-14-23","lat":35.770518,"lon":139.501347},{"name":"清瀬市","province":"東京都","city":"清瀬市","address":"清瀬市中里5-842","lat":35.786052,"lon":139.526353},{"name":"清瀬作業所","province":"東京都","city":"清瀬市","address":"清瀬市松山2-18-2","lat":35.774134,"lon":139.511501},{"name":"清瀬療護園","province":"東京都","city":"清瀬市","address":"清瀬市竹丘3-1-72","lat":35.764535,"lon":139.504321},{"name":"東京都清瀬喜望園","province":"東京都","city":"清瀬市","address":"清瀬市竹丘3-1-72","lat":35.764535,"lon":139.504321},{"name":"中里地域市民センター","province":"東京都","city":"清瀬市","address":"清瀬市中里4-1301","lat":35.78615,"lon":139.51431},{"name":"野塩地域市民センター","province":"東京都","city":"清瀬市","address":"清瀬市野塩1-322-2","lat":35.77913,"lon":139.49931},{"name":"中清戸地域市民センター","province":"東京都","city":"清瀬市","address":"清瀬市中清戸4-847-5","lat":35.78493,"lon":139.52788},{"name":"松山地域市民センター","province":"東京都","city":"清瀬市","address":"清瀬市松山2-6-25","lat":35.77155,"lon":139.51575},{"name":"子供の家","province":"東京都","city":"清瀬市","address":"清瀬市松山3-12-17","lat":35.76651,"lon":139.51405},{"name":"ベトレヘム学園","province":"東京都","city":"清瀬市","address":"清瀬市梅園3-14-23","lat":35.77177,"lon":139.50096},{"name":"清瀬市","province":"東京都","city":"清瀬市","address":"清瀬市中里5-842","lat":35.78557,"lon":139.52655},{"name":"中里地域市民センター","province":"東京都","city":"清瀬市","address":"清瀬市中里4-1301","lat":35.786499,"lon":139.514165},{"name":"野塩地域市民センター","province":"東京都","city":"清瀬市","address":"清瀬市野塩1-322-2","lat":35.77918,"lon":139.499424},{"name":"松山地域市民センター","province":"東京都","city":"清瀬市","address":"清瀬市松山2-6-25","lat":35.770998,"lon":139.51477},{"name":"子供の家","province":"東京都","city":"清瀬市","address":"清瀬市松山3-12-17","lat":35.76651,"lon":139.514053},{"name":"ベトレヘム学園","province":"東京都","city":"清瀬市","address":"清瀬市梅園3-14-23","lat":35.770518,"lon":139.501347},{"name":"清瀬市","province":"東京都","city":"清瀬市","address":"清瀬市中里5-842","lat":35.786052,"lon":139.526353},{"name":"清瀬作業所","province":"東京都","city":"清瀬市","address":"清瀬市松山2-18-2","lat":35.774134,"lon":139.511501},{"name":"清瀬療護園","province":"東京都","city":"清瀬市","address":"清瀬市竹丘3-1-72","lat":35.764535,"lon":139.504321},{"name":"東京都清瀬喜望園","province":"東京都","city":"清瀬市","address":"清瀬市竹丘3-1-72","lat":35.764535,"lon":139.504321},{"name":"中里地域市民センター","province":"東京都","city":"清瀬市","address":"清瀬市中里4-1301","lat":35.78615,"lon":139.51431},{"name":"野塩地域市民センター","province":"東京都","city":"清瀬市","address":"清瀬市野塩1-322-2","lat":35.77913,"lon":139.49931},{"name":"中清戸地域市民センター","province":"東京都","city":"清瀬市","address":"清瀬市中清戸4-847-5","lat":35.78493,"lon":139.52788},{"name":"松山地域市民センター","province":"東京都","city":"清瀬市","address":"清瀬市松山2-6-25","lat":35.77155,"lon":139.51575},{"name":"子供の家","province":"東京都","city":"清瀬市","address":"清瀬市松山3-12-17","lat":35.76651,"lon":139.51405},{"name":"ベトレヘム学園","province":"東京都","city":"清瀬市","address":"清瀬市梅園3-14-23","lat":35.77177,"lon":139.50096},{"name":"清瀬市","province":"東京都","city":"清瀬市","address":"清瀬市中里5-842","lat":35.78557,"lon":139.52655},{"name":"中里地域市民センター","province":"東京都","city":"清瀬市","address":"清瀬市中里4-1301","lat":35.786499,"lon":139.514165},{"name":"野塩地域市民センター","province":"東京都","city":"清瀬市","address":"清瀬市野塩1-322-2","lat":35.77918,"lon":139.499424},{"name":"松山地域市民センター","province":"東京都","city":"清瀬市","address":"清瀬市松山2-6-25","lat":35.770998,"lon":139.51477},{"name":"子供の家","province":"東京都","city":"清瀬市","address":"清瀬市松山3-12-17","lat":35.76651,"lon":139.514053},{"name":"ベトレヘム学園","province":"東京都","city":"清瀬市","address":"清瀬市梅園3-14-23","lat":35.770518,"lon":139.501347},{"name":"清瀬市","province":"東京都","city":"清瀬市","address":"清瀬市中里5-842","lat":35.786052,"lon":139.526353},{"name":"清瀬作業所","province":"東京都","city":"清瀬市","address":"清瀬市松山2-18-2","lat":35.774134,"lon":139.511501},{"name":"清瀬療護園","province":"東京都","city":"清瀬市","address":"清瀬市竹丘3-1-72","lat":35.764535,"lon":139.504321},{"name":"東京都清瀬喜望園","province":"東京都","city":"清瀬市","address":"清瀬市竹丘3-1-72","lat":35.764535,"lon":139.504321},{"name":"中里地域市民センター","province":"東京都","city":"清瀬市","address":"清瀬市中里4-1301","lat":35.78615,"lon":139.51431},{"name":"野塩地域市民センター","province":"東京都","city":"清瀬市","address":"清瀬市野塩1-322-2","lat":35.77913,"lon":139.49931},{"name":"中清戸地域市民センター","province":"東京都","city":"清瀬市","address":"清瀬市中清戸4-847-5","lat":35.78493,"lon":139.52788},{"name":"松山地域市民センター","province":"東京都","city":"清瀬市","address":"清瀬市松山2-6-25","lat":35.77155,"lon":139.51575},{"name":"子供の家","province":"東京都","city":"清瀬市","address":"清瀬市松山3-12-17","lat":35.76651,"lon":139.51405},{"name":"ベトレヘム学園","province":"東京都","city":"清瀬市","address":"清瀬市梅園3-14-23","lat":35.77177,"lon":139.50096},{"name":"清瀬市","province":"東京都","city":"清瀬市","address":"清瀬市中里5-842","lat":35.78557,"lon":139.52655},{"name":"中里地域市民センター","province":"東京都","city":"清瀬市","address":"清瀬市中里4-1301","lat":35.786499,"lon":139.514165},{"name":"野塩地域市民センター","province":"東京都","city":"清瀬市","address":"清瀬市野塩1-322-2","lat":35.77918,"lon":139.499424},{"name":"松山地域市民センター","province":"東京都","city":"清瀬市","address":"清瀬市松山2-6-25","lat":35.770998,"lon":139.51477},{"name":"子供の家","province":"東京都","city":"清瀬市","address":"清瀬市松山3-12-17","lat":35.76651,"lon":139.514053},{"name":"ベトレヘム学園","province":"東京都","city":"清瀬市","address":"清瀬市梅園3-14-23","lat":35.770518,"lon":139.501347},{"name":"清瀬市","province":"東京都","city":"清瀬市","address":"清瀬市中里5-842","lat":35.786052,"lon":139.526353},{"name":"清瀬作業所","province":"東京都","city":"清瀬市","address":"清瀬市松山2-18-2","lat":35.774134,"lon":139.511501},{"name":"清瀬療護園","province":"東京都","city":"清瀬市","address":"清瀬市竹丘3-1-72","lat":35.764535,"lon":139.504321},{"name":"東京都清瀬喜望園","province":"東京都","city":"清瀬市","address":"清瀬市竹丘3-1-72","lat":35.764535,"lon":139.504321},{"name":"中里地域市民センター","province":"東京都","city":"清瀬市","address":"清瀬市中里4-1301","lat":35.78615,"lon":139.51431},{"name":"野塩地域市民センター","province":"東京都","city":"清瀬市","address":"清瀬市野塩1-322-2","lat":35.77913,"lon":139.49931},{"name":"中清戸地域市民センター","province":"東京都","city":"清瀬市","address":"清瀬市中清戸4-847-5","lat":35.78493,"lon":139.52788},{"name":"松山地域市民センター","province":"東京都","city":"清瀬市","address":"清瀬市松山2-6-25","lat":35.77155,"lon":139.51575},{"name":"子供の家","province":"東京都","city":"清瀬市","address":"清瀬市松山3-12-17","lat":35.76651,"lon":139.51405},{"name":"ベトレヘム学園","province":"東京都","city":"清瀬市","address":"清瀬市梅園3-14-23","lat":35.77177,"lon":139.50096},{"name":"清瀬市","province":"東京都","city":"清瀬市","address":"清瀬市中里5-842","lat":35.78557,"lon":139.52655},{"name":"中里地域市民センター","province":"東京都","city":"清瀬市","address":"清瀬市中里4-1301","lat":35.786499,"lon":139.514165},{"name":"野塩地域市民センター","province":"東京都","city":"清瀬市","address":"清瀬市野塩1-322-2","lat":35.77918,"lon":139.499424},{"name":"松山地域市民センター","province":"東京都","city":"清瀬市","address":"清瀬市松山2-6-25","lat":35.770998,"lon":139.51477},{"name":"子供の家","province":"東京都","city":"清瀬市","address":"清瀬市松山3-12-17","lat":35.76651,"lon":139.514053},{"name":"ベトレヘム学園","province":"東京都","city":"清瀬市","address":"清瀬市梅園3-14-23","lat":35.770518,"lon":139.501347},{"name":"清瀬市","province":"東京都","city":"清瀬市","address":"清瀬市中里5-842","lat":35.786052,"lon":139.526353},{"name":"清瀬作業所","province":"東京都","city":"清瀬市","address":"清瀬市松山2-18-2","lat":35.774134,"lon":139.511501},{"name":"清瀬療護園","province":"東京都","city":"清瀬市","address":"清瀬市竹丘3-1-72","lat":35.764535,"lon":139.504321},{"name":"東京都清瀬喜望園","province":"東京都","city":"清瀬市","address":"清瀬市竹丘3-1-72","lat":35.764535,"lon":139.504321},{"name":"中里地域市民センター","province":"東京都","city":"清瀬市","address":"清瀬市中里4-1301","lat":35.78615,"lon":139.51431},{"name":"野塩地域市民センター","province":"東京都","city":"清瀬市","address":"清瀬市野塩1-322-2","lat":35.77913,"lon":139.49931},{"name":"中清戸地域市民センター","province":"東京都","city":"清瀬市","address":"清瀬市中清戸4-847-5","lat":35.78493,"lon":139.52788},{"name":"松山地域市民センター","province":"東京都","city":"清瀬市","address":"清瀬市松山2-6-25","lat":35.77155,"lon":139.51575},{"name":"子供の家","province":"東京都","city":"清瀬市","address":"清瀬市松山3-12-17","lat":35.76651,"lon":139.51405},{"name":"ベトレヘム学園","province":"東京都","city":"清瀬市","address":"清瀬市梅園3-14-23","lat":35.77177,"lon":139.50096},{"name":"清瀬市","province":"東京都","city":"清瀬市","address":"清瀬市中里5-842","lat":35.78557,"lon":139.52655},{"name":"中里地域市民センター","province":"東京都","city":"清瀬市","address":"清瀬市中里4-1301","lat":35.786499,"lon":139.514165},{"name":"野塩地域市民センター","province":"東京都","city":"清瀬市","address":"清瀬市野塩1-322-2","lat":35.77918,"lon":139.499424},{"name":"松山地域市民センター","province":"東京都","city":"清瀬市","address":"清瀬市松山2-6-25","lat":35.770998,"lon":139.51477},{"name":"子供の家","province":"東京都","city":"清瀬市","address":"清瀬市松山3-12-17","lat":35.76651,"lon":139.514053},{"name":"ベトレヘム学園","province":"東京都","city":"清瀬市","address":"清瀬市梅園3-14-23","lat":35.770518,"lon":139.501347},{"name":"清瀬市","province":"東京都","city":"清瀬市","address":"清瀬市中里5-842","lat":35.786052,"lon":139.526353},{"name":"清瀬作業所","province":"東京都","city":"清瀬市","address":"清瀬市松山2-18-2","lat":35.774134,"lon":139.511501},{"name":"清瀬療護園","province":"東京都","city":"清瀬市","address":"清瀬市竹丘3-1-72","lat":35.764535,"lon":139.504321},{"name":"東京都清瀬喜望園","province":"東京都","city":"清瀬市","address":"清瀬市竹丘3-1-72","lat":35.764535,"lon":139.504321},{"name":"中里地域市民センター","province":"東京都","city":"清瀬市","address":"清瀬市中里4-1301","lat":35.78615,"lon":139.51431},{"name":"野塩地域市民センター","province":"東京都","city":"清瀬市","address":"清瀬市野塩1-322-2","lat":35.77913,"lon":139.49931},{"name":"中清戸地域市民センター","province":"東京都","city":"清瀬市","address":"清瀬市中清戸4-847-5","lat":35.78493,"lon":139.52788},{"name":"松山地域市民センター","province":"東京都","city":"清瀬市","address":"清瀬市松山2-6-25","lat":35.77155,"lon":139.51575},{"name":"子供の家","province":"東京都","city":"清瀬市","address":"清瀬市松山3-12-17","lat":35.76651,"lon":139.51405},{"name":"ベトレヘム学園","province":"東京都","city":"清瀬市","address":"清瀬市梅園3-14-23","lat":35.77177,"lon":139.50096},{"name":"清瀬市","province":"東京都","city":"清瀬市","address":"清瀬市中里5-842","lat":35.78557,"lon":139.52655},{"name":"中里地域市民センター","province":"東京都","city":"清瀬市","address":"清瀬市中里4-1301","lat":35.786499,"lon":139.514165},{"name":"野塩地域市民センター","province":"東京都","city":"清瀬市","address":"清瀬市野塩1-322-2","lat":35.77918,"lon":139.499424},{"name":"松山地域市民センター","province":"東京都","city":"清瀬市","address":"清瀬市松山2-6-25","lat":35.770998,"lon":139.51477},{"name":"子供の家","province":"東京都","city":"清瀬市","address":"清瀬市松山3-12-17","lat":35.76651,"lon":139.514053},{"name":"ベトレヘム学園","province":"東京都","city":"清瀬市","address":"清瀬市梅園3-14-23","lat":35.770518,"lon":139.501347},{"name":"清瀬市","province":"東京都","city":"清瀬市","address":"清瀬市中里5-842","lat":35.786052,"lon":139.526353},{"name":"清瀬作業所","province":"東京都","city":"清瀬市","address":"清瀬市松山2-18-2","lat":35.774134,"lon":139.511501},{"name":"清瀬療護園","province":"東京都","city":"清瀬市","address":"清瀬市竹丘3-1-72","lat":35.764535,"lon":139.504321},{"name":"東京都清瀬喜望園","province":"東京都","city":"清瀬市","address":"清瀬市竹丘3-1-72","lat":35.764535,"lon":139.504321},{"name":"中里地域市民センター","province":"東京都","city":"清瀬市","address":"清瀬市中里4-1301","lat":35.78615,"lon":139.51431},{"name":"野塩地域市民センター","province":"東京都","city":"清瀬市","address":"清瀬市野塩1-322-2","lat":35.77913,"lon":139.49931},{"name":"中清戸地域市民センター","province":"東京都","city":"清瀬市","address":"清瀬市中清戸4-847-5","lat":35.78493,"lon":139.52788},{"name":"松山地域市民センター","province":"東京都","city":"清瀬市","address":"清瀬市松山2-6-25","lat":35.77155,"lon":139.51575},{"name":"子供の家","province":"東京都","city":"清瀬市","address":"清瀬市松山3-12-17","lat":35.76651,"lon":139.51405},{"name":"ベトレヘム学園","province":"東京都","city":"清瀬市","address":"清瀬市梅園3-14-23","lat":35.77177,"lon":139.50096},{"name":"清瀬市","province":"東京都","city":"清瀬市","address":"清瀬市中里5-842","lat":35.78557,"lon":139.52655},{"name":"中里地域市民センター","province":"東京都","city":"清瀬市","address":"清瀬市中里4-1301","lat":35.786499,"lon":139.514165},{"name":"野塩地域市民センター","province":"東京都","city":"清瀬市","address":"清瀬市野塩1-322-2","lat":35.77918,"lon":139.499424},{"name":"松山地域市民センター","province":"東京都","city":"清瀬市","address":"清瀬市松山2-6-25","lat":35.770998,"lon":139.51477},{"name":"子供の家","province":"東京都","city":"清瀬市","address":"清瀬市松山3-12-17","lat":35.76651,"lon":139.514053},{"name":"ベトレヘム学園","province":"東京都","city":"清瀬市","address":"清瀬市梅園3-14-23","lat":35.770518,"lon":139.501347},{"name":"清瀬市","province":"東京都","city":"清瀬市","address":"清瀬市中里5-842","lat":35.786052,"lon":139.526353},{"name":"清瀬作業所","province":"東京都","city":"清瀬市","address":"清瀬市松山2-18-2","lat":35.774134,"lon":139.511501},{"name":"清瀬療護園","province":"東京都","city":"清瀬市","address":"清瀬市竹丘3-1-72","lat":35.764535,"lon":139.504321},{"name":"東京都清瀬喜望園","province":"東京都","city":"清瀬市","address":"清瀬市竹丘3-1-72","lat":35.764535,"lon":139.504321},{"name":"中里地域市民センター","province":"東京都","city":"清瀬市","address":"清瀬市中里4-1301","lat":35.78615,"lon":139.51431},{"name":"野塩地域市民センター","province":"東京都","city":"清瀬市","address":"清瀬市野塩1-322-2","lat":35.77913,"lon":139.49931},{"name":"中清戸地域市民センター","province":"東京都","city":"清瀬市","address":"清瀬市中清戸4-847-5","lat":35.78493,"lon":139.52788},{"name":"松山地域市民センター","province":"東京都","city":"清瀬市","address":"清瀬市松山2-6-25","lat":35.77155,"lon":139.51575},{"name":"子供の家","province":"東京都","city":"清瀬市","address":"清瀬市松山3-12-17","lat":35.76651,"lon":139.51405},{"name":"ベトレヘム学園","province":"東京都","city":"清瀬市","address":"清瀬市梅園3-14-23","lat":35.77177,"lon":139.50096},{"name":"清瀬市","province":"東京都","city":"清瀬市","address":"清瀬市中里5-842","lat":35.78557,"lon":139.52655},{"name":"中里地域市民センター","province":"東京都","city":"清瀬市","address":"清瀬市中里4-1301","lat":35.786499,"lon":139.514165},{"name":"野塩地域市民センター","province":"東京都","city":"清瀬市","address":"清瀬市野塩1-322-2","lat":35.77918,"lon":139.499424},{"name":"松山地域市民センター","province":"東京都","city":"清瀬市","address":"清瀬市松山2-6-25","lat":35.770998,"lon":139.51477},{"name":"子供の家","province":"東京都","city":"清瀬市","address":"清瀬市松山3-12-17","lat":35.76651,"lon":139.514053},{"name":"ベトレヘム学園","province":"東京都","city":"清瀬市","address":"清瀬市梅園3-14-23","lat":35.770518,"lon":139.501347},{"name":"清瀬市","province":"東京都","city":"清瀬市","address":"清瀬市中里5-842","lat":35.786052,"lon":139.526353},{"name":"清瀬作業所","province":"東京都","city":"清瀬市","address":"清瀬市松山2-18-2","lat":35.774134,"lon":139.511501},{"name":"清瀬療護園","province":"東京都","city":"清瀬市","address":"清瀬市竹丘3-1-72","lat":35.764535,"lon":139.504321},{"name":"東京都清瀬喜望園","province":"東京都","city":"清瀬市","address":"清瀬市竹丘3-1-72","lat":35.764535,"lon":139.504321},{"name":"中里地域市民センター","province":"東京都","city":"清瀬市","address":"清瀬市中里4-1301","lat":35.78615,"lon":139.51431},{"name":"野塩地域市民センター","province":"東京都","city":"清瀬市","address":"清瀬市野塩1-322-2","lat":35.77913,"lon":139.49931},{"name":"中清戸地域市民センター","province":"東京都","city":"清瀬市","address":"清瀬市中清戸4-847-5","lat":35.78493,"lon":139.52788},{"name":"松山地域市民センター","province":"東京都","city":"清瀬市","address":"清瀬市松山2-6-25","lat":35.77155,"lon":139.51575},{"name":"子供の家","province":"東京都","city":"清瀬市","address":"清瀬市松山3-12-17","lat":35.76651,"lon":139.51405},{"name":"ベトレヘム学園","province":"東京都","city":"清瀬市","address":"清瀬市梅園3-14-23","lat":35.77177,"lon":139.50096},{"name":"清瀬市","province":"東京都","city":"清瀬市","address":"清瀬市中里5-842","lat":35.78557,"lon":139.52655},{"name":"中里地域市民センター","province":"東京都","city":"清瀬市","address":"清瀬市中里4-1301","lat":35.786499,"lon":139.514165},{"name":"野塩地域市民センター","province":"東京都","city":"清瀬市","address":"清瀬市野塩1-322-2","lat":35.77918,"lon":139.499424},{"name":"松山地域市民センター","province":"東京都","city":"清瀬市","address":"清瀬市松山2-6-25","lat":35.770998,"lon":139.51477},{"name":"子供の家","province":"東京都","city":"清瀬市","address":"清瀬市松山3-12-17","lat":35.76651,"lon":139.514053},{"name":"ベトレヘム学園","province":"東京都","city":"清瀬市","address":"清瀬市梅園3-14-23","lat":35.770518,"lon":139.501347},{"name":"清瀬市","province":"東京都","city":"清瀬市","address":"清瀬市中里5-842","lat":35.786052,"lon":139.526353},{"name":"清瀬作業所","province":"東京都","city":"清瀬市","address":"清瀬市松山2-18-2","lat":35.774134,"lon":139.511501},{"name":"清瀬療護園","province":"東京都","city":"清瀬市","address":"清瀬市竹丘3-1-72","lat":35.764535,"lon":139.504321},{"name":"東京都清瀬喜望園","province":"東京都","city":"清瀬市","address":"清瀬市竹丘3-1-72","lat":35.764535,"lon":139.504321},{"name":"中里地域市民センター","province":"東京都","city":"清瀬市","address":"清瀬市中里4-1301","lat":35.78615,"lon":139.51431},{"name":"野塩地域市民センター","province":"東京都","city":"清瀬市","address":"清瀬市野塩1-322-2","lat":35.77913,"lon":139.49931},{"name":"中清戸地域市民センター","province":"東京都","city":"清瀬市","address":"清瀬市中清戸4-847-5","lat":35.78493,"lon":139.52788},{"name":"松山地域市民センター","province":"東京都","city":"清瀬市","address":"清瀬市松山2-6-25","lat":35.77155,"lon":139.51575},{"name":"子供の家","province":"東京都","city":"清瀬市","address":"清瀬市松山3-12-17","lat":35.76651,"lon":139.51405},{"name":"ベトレヘム学園","province":"東京都","city":"清瀬市","address":"清瀬市梅園3-14-23","lat":35.77177,"lon":139.50096},{"name":"清瀬市","province":"東京都","city":"清瀬市","address":"清瀬市中里5-842","lat":35.78557,"lon":139.52655},{"name":"中里地域市民センター","province":"東京都","city":"清瀬市","address":"清瀬市中里4-1301","lat":35.786499,"lon":139.514165},{"name":"野塩地域市民センター","province":"東京都","city":"清瀬市","address":"清瀬市野塩1-322-2","lat":35.77918,"lon":139.499424},{"name":"松山地域市民センター","province":"東京都","city":"清瀬市","address":"清瀬市松山2-6-25","lat":35.770998,"lon":139.51477},{"name":"子供の家","province":"東京都","city":"清瀬市","address":"清瀬市松山3-12-17","lat":35.76651,"lon":139.514053},{"name":"ベトレヘム学園","province":"東京都","city":"清瀬市","address":"清瀬市梅園3-14-23","lat":35.770518,"lon":139.501347},{"name":"清瀬市","province":"東京都","city":"清瀬市","address":"清瀬市中里5-842","lat":35.786052,"lon":139.526353},{"name":"清瀬作業所","province":"東京都","city":"清瀬市","address":"清瀬市松山2-18-2","lat":35.774134,"lon":139.511501},{"name":"清瀬療護園","province":"東京都","city":"清瀬市","address":"清瀬市竹丘3-1-72","lat":35.764535,"lon":139.504321},{"name":"東京都清瀬喜望園","province":"東京都","city":"清瀬市","address":"清瀬市竹丘3-1-72","lat":35.764535,"lon":139.504321},{"name":"中里地域市民センター","province":"東京都","city":"清瀬市","address":"清瀬市中里4-1301","lat":35.78615,"lon":139.51431},{"name":"野塩地域市民センター","province":"東京都","city":"清瀬市","address":"清瀬市野塩1-322-2","lat":35.77913,"lon":139.49931},{"name":"中清戸地域市民センター","province":"東京都","city":"清瀬市","address":"清瀬市中清戸4-847-5","lat":35.78493,"lon":139.52788},{"name":"松山地域市民センター","province":"東京都","city":"清瀬市","address":"清瀬市松山2-6-25","lat":35.77155,"lon":139.51575},{"name":"子供の家","province":"東京都","city":"清瀬市","address":"清瀬市松山3-12-17","lat":35.76651,"lon":139.51405},{"name":"ベトレヘム学園","province":"東京都","city":"清瀬市","address":"清瀬市梅園3-14-23","lat":35.77177,"lon":139.50096},{"name":"清瀬市","province":"東京都","city":"清瀬市","address":"清瀬市中里5-842","lat":35.78557,"lon":139.52655},{"name":"中里地域市民センター","province":"東京都","city":"清瀬市","address":"清瀬市中里4-1301","lat":35.786499,"lon":139.514165},{"name":"野塩地域市民センター","province":"東京都","city":"清瀬市","address":"清瀬市野塩1-322-2","lat":35.77918,"lon":139.499424},{"name":"松山地域市民センター","province":"東京都","city":"清瀬市","address":"清瀬市松山2-6-25","lat":35.770998,"lon":139.51477},{"name":"子供の家","province":"東京都","city":"清瀬市","address":"清瀬市松山3-12-17","lat":35.76651,"lon":139.514053},{"name":"ベトレヘム学園","province":"東京都","city":"清瀬市","address":"清瀬市梅園3-14-23","lat":35.770518,"lon":139.501347},{"name":"清瀬市","province":"東京都","city":"清瀬市","address":"清瀬市中里5-842","lat":35.786052,"lon":139.526353},{"name":"清瀬作業所","province":"東京都","city":"清瀬市","address":"清瀬市松山2-18-2","lat":35.774134,"lon":139.511501},{"name":"清瀬療護園","province":"東京都","city":"清瀬市","address":"清瀬市竹丘3-1-72","lat":35.764535,"lon":139.504321},{"name":"東京都清瀬喜望園","province":"東京都","city":"清瀬市","address":"清瀬市竹丘3-1-72","lat":35.764535,"lon":139.504321},{"name":"中里地域市民センター","province":"東京都","city":"清瀬市","address":"清瀬市中里4-1301","lat":35.78615,"lon":139.51431},{"name":"野塩地域市民センター","province":"東京都","city":"清瀬市","address":"清瀬市野塩1-322-2","lat":35.77913,"lon":139.49931},{"name":"中清戸地域市民センター","province":"東京都","city":"清瀬市","address":"清瀬市中清戸4-847-5","lat":35.78493,"lon":139.52788},{"name":"松山地域市民センター","province":"東京都","city":"清瀬市","address":"清瀬市松山2-6-25","lat":35.77155,"lon":139.51575},{"name":"子供の家","province":"東京都","city":"清瀬市","address":"清瀬市松山3-12-17","lat":35.76651,"lon":139.51405},{"name":"ベトレヘム学園","province":"東京都","city":"清瀬市","address":"清瀬市梅園3-14-23","lat":35.77177,"lon":139.50096},{"name":"清瀬市","province":"東京都","city":"清瀬市","address":"清瀬市中里5-842","lat":35.78557,"lon":139.52655},{"name":"中里地域市民センター","province":"東京都","city":"清瀬市","address":"清瀬市中里4-1301","lat":35.786499,"lon":139.514165},{"name":"野塩地域市民センター","province":"東京都","city":"清瀬市","address":"清瀬市野塩1-322-2","lat":35.77918,"lon":139.499424},{"name":"松山地域市民センター","province":"東京都","city":"清瀬市","address":"清瀬市松山2-6-25","lat":35.770998,"lon":139.51477},{"name":"子供の家","province":"東京都","city":"清瀬市","address":"清瀬市松山3-12-17","lat":35.76651,"lon":139.514053},{"name":"ベトレヘム学園","province":"東京都","city":"清瀬市","address":"清瀬市梅園3-14-23","lat":35.770518,"lon":139.501347},{"name":"清瀬市","province":"東京都","city":"清瀬市","address":"清瀬市中里5-842","lat":35.786052,"lon":139.526353},{"name":"清瀬作業所","province":"東京都","city":"清瀬市","address":"清瀬市松山2-18-2","lat":35.774134,"lon":139.511501},{"name":"清瀬療護園","province":"東京都","city":"清瀬市","address":"清瀬市竹丘3-1-72","lat":35.764535,"lon":139.504321},{"name":"東京都清瀬喜望園","province":"東京都","city":"清瀬市","address":"清瀬市竹丘3-1-72","lat":35.764535,"lon":139.504321},{"name":"中里地域市民センター","province":"東京都","city":"清瀬市","address":"清瀬市中里4-1301","lat":35.78615,"lon":139.51431},{"name":"野塩地域市民センター","province":"東京都","city":"清瀬市","address":"清瀬市野塩1-322-2","lat":35.77913,"lon":139.49931},{"name":"中清戸地域市民センター","province":"東京都","city":"清瀬市","address":"清瀬市中清戸4-847-5","lat":35.78493,"lon":139.52788},{"name":"松山地域市民センター","province":"東京都","city":"清瀬市","address":"清瀬市松山2-6-25","lat":35.77155,"lon":139.51575},{"name":"子供の家","province":"東京都","city":"清瀬市","address":"清瀬市松山3-12-17","lat":35.76651,"lon":139.51405},{"name":"ベトレヘム学園","province":"東京都","city":"清瀬市","address":"清瀬市梅園3-14-23","lat":35.77177,"lon":139.50096},{"name":"清瀬市","province":"東京都","city":"清瀬市","address":"清瀬市中里5-842","lat":35.78557,"lon":139.52655},{"name":"中里地域市民センター","province":"東京都","city":"清瀬市","address":"清瀬市中里4-1301","lat":35.786499,"lon":139.514165},{"name":"野塩地域市民センター","province":"東京都","city":"清瀬市","address":"清瀬市野塩1-322-2","lat":35.77918,"lon":139.499424},{"name":"松山地域市民センター","province":"東京都","city":"清瀬市","address":"清瀬市松山2-6-25","lat":35.770998,"lon":139.51477},{"name":"子供の家","province":"東京都","city":"清瀬市","address":"清瀬市松山3-12-17","lat":35.76651,"lon":139.514053},{"name":"ベトレヘム学園","province":"東京都","city":"清瀬市","address":"清瀬市梅園3-14-23","lat":35.770518,"lon":139.501347},{"name":"清瀬市","province":"東京都","city":"清瀬市","address":"清瀬市中里5-842","lat":35.786052,"lon":139.526353},{"name":"清瀬作業所","province":"東京都","city":"清瀬市","address":"清瀬市松山2-18-2","lat":35.774134,"lon":139.511501},{"name":"清瀬療護園","province":"東京都","city":"清瀬市","address":"清瀬市竹丘3-1-72","lat":35.764535,"lon":139.504321},{"name":"東京都清瀬喜望園","province":"東京都","city":"清瀬市","address":"清瀬市竹丘3-1-72","lat":35.764535,"lon":139.504321},{"name":"中里地域市民センター","province":"東京都","city":"清瀬市","address":"清瀬市中里4-1301","lat":35.78615,"lon":139.51431},{"name":"野塩地域市民センター","province":"東京都","city":"清瀬市","address":"清瀬市野塩1-322-2","lat":35.77913,"lon":139.49931},{"name":"中清戸地域市民センター","province":"東京都","city":"清瀬市","address":"清瀬市中清戸4-847-5","lat":35.78493,"lon":139.52788},{"name":"松山地域市民センター","province":"東京都","city":"清瀬市","address":"清瀬市松山2-6-25","lat":35.77155,"lon":139.51575},{"name":"子供の家","province":"東京都","city":"清瀬市","address":"清瀬市松山3-12-17","lat":35.76651,"lon":139.51405},{"name":"ベトレヘム学園","province":"東京都","city":"清瀬市","address":"清瀬市梅園3-14-23","lat":35.77177,"lon":139.50096},{"name":"清瀬市","province":"東京都","city":"清瀬市","address":"清瀬市中里5-842","lat":35.78557,"lon":139.52655},{"name":"中里地域市民センター","province":"東京都","city":"清瀬市","address":"清瀬市中里4-1301","lat":35.786499,"lon":139.514165},{"name":"野塩地域市民センター","province":"東京都","city":"清瀬市","address":"清瀬市野塩1-322-2","lat":35.77918,"lon":139.499424},{"name":"松山地域市民センター","province":"東京都","city":"清瀬市","address":"清瀬市松山2-6-25","lat":35.770998,"lon":139.51477},{"name":"子供の家","province":"東京都","city":"清瀬市","address":"清瀬市松山3-12-17","lat":35.76651,"lon":139.514053},{"name":"ベトレヘム学園","province":"東京都","city":"清瀬市","address":"清瀬市梅園3-14-23","lat":35.770518,"lon":139.501347},{"name":"清瀬市","province":"東京都","city":"清瀬市","address":"清瀬市中里5-842","lat":35.786052,"lon":139.526353},{"name":"清瀬作業所","province":"東京都","city":"清瀬市","address":"清瀬市松山2-18-2","lat":35.774134,"lon":139.511501},{"name":"清瀬療護園","province":"東京都","city":"清瀬市","address":"清瀬市竹丘3-1-72","lat":35.764535,"lon":139.504321},{"name":"東京都清瀬喜望園","province":"東京都","city":"清瀬市","address":"清瀬市竹丘3-1-72","lat":35.764535,"lon":139.504321},{"name":"中里地域市民センター","province":"東京都","city":"清瀬市","address":"清瀬市中里4-1301","lat":35.78615,"lon":139.51431},{"name":"野塩地域市民センター","province":"東京都","city":"清瀬市","address":"清瀬市野塩1-322-2","lat":35.77913,"lon":139.49931},{"name":"中清戸地域市民センター","province":"東京都","city":"清瀬市","address":"清瀬市中清戸4-847-5","lat":35.78493,"lon":139.52788},{"name":"松山地域市民センター","province":"東京都","city":"清瀬市","address":"清瀬市松山2-6-25","lat":35.77155,"lon":139.51575},{"name":"子供の家","province":"東京都","city":"清瀬市","address":"清瀬市松山3-12-17","lat":35.76651,"lon":139.51405},{"name":"ベトレヘム学園","province":"東京都","city":"清瀬市","address":"清瀬市梅園3-14-23","lat":35.77177,"lon":139.50096},{"name":"清瀬市","province":"東京都","city":"清瀬市","address":"清瀬市中里5-842","lat":35.78557,"lon":139.52655},{"name":"中里地域市民センター","province":"東京都","city":"清瀬市","address":"清瀬市中里4-1301","lat":35.786499,"lon":139.514165},{"name":"野塩地域市民センター","province":"東京都","city":"清瀬市","address":"清瀬市野塩1-322-2","lat":35.77918,"lon":139.499424},{"name":"松山地域市民センター","province":"東京都","city":"清瀬市","address":"清瀬市松山2-6-25","lat":35.770998,"lon":139.51477},{"name":"子供の家","province":"東京都","city":"清瀬市","address":"清瀬市松山3-12-17","lat":35.76651,"lon":139.514053},{"name":"ベトレヘム学園","province":"東京都","city":"清瀬市","address":"清瀬市梅園3-14-23","lat":35.770518,"lon":139.501347},{"name":"清瀬市","province":"東京都","city":"清瀬市","address":"清瀬市中里5-842","lat":35.786052,"lon":139.526353},{"name":"清瀬作業所","province":"東京都","city":"清瀬市","address":"清瀬市松山2-18-2","lat":35.774134,"lon":139.511501},{"name":"清瀬療護園","province":"東京都","city":"清瀬市","address":"清瀬市竹丘3-1-72","lat":35.764535,"lon":139.504321},{"name":"東京都清瀬喜望園","province":"東京都","city":"清瀬市","address":"清瀬市竹丘3-1-72","lat":35.764535,"lon":139.504321},{"name":"中里地域市民センター","province":"東京都","city":"清瀬市","address":"清瀬市中里4-1301","lat":35.78615,"lon":139.51431},{"name":"野塩地域市民センター","province":"東京都","city":"清瀬市","address":"清瀬市野塩1-322-2","lat":35.77913,"lon":139.49931},{"name":"中清戸地域市民センター","province":"東京都","city":"清瀬市","address":"清瀬市中清戸4-847-5","lat":35.78493,"lon":139.52788},{"name":"松山地域市民センター","province":"東京都","city":"清瀬市","address":"清瀬市松山2-6-25","lat":35.77155,"lon":139.51575},{"name":"子供の家","province":"東京都","city":"清瀬市","address":"清瀬市松山3-12-17","lat":35.76651,"lon":139.51405},{"name":"ベトレヘム学園","province":"東京都","city":"清瀬市","address":"清瀬市梅園3-14-23","lat":35.77177,"lon":139.50096},{"name":"清瀬市","province":"東京都","city":"清瀬市","address":"清瀬市中里5-842","lat":35.78557,"lon":139.52655},{"name":"中里地域市民センター","province":"東京都","city":"清瀬市","address":"清瀬市中里4-1301","lat":35.786499,"lon":139.514165},{"name":"野塩地域市民センター","province":"東京都","city":"清瀬市","address":"清瀬市野塩1-322-2","lat":35.77918,"lon":139.499424},{"name":"松山地域市民センター","province":"東京都","city":"清瀬市","address":"清瀬市松山2-6-25","lat":35.770998,"lon":139.51477},{"name":"子供の家","province":"東京都","city":"清瀬市","address":"清瀬市松山3-12-17","lat":35.76651,"lon":139.514053},{"name":"ベトレヘム学園","province":"東京都","city":"清瀬市","address":"清瀬市梅園3-14-23","lat":35.770518,"lon":139.501347},{"name":"清瀬市","province":"東京都","city":"清瀬市","address":"清瀬市中里5-842","lat":35.786052,"lon":139.526353},{"name":"清瀬作業所","province":"東京都","city":"清瀬市","address":"清瀬市松山2-18-2","lat":35.774134,"lon":139.511501},{"name":"清瀬療護園","province":"東京都","city":"清瀬市","address":"清瀬市竹丘3-1-72","lat":35.764535,"lon":139.504321},{"name":"東京都清瀬喜望園","province":"東京都","city":"清瀬市","address":"清瀬市竹丘3-1-72","lat":35.764535,"lon":139.504321},{"name":"中里地域市民センター","province":"東京都","city":"清瀬市","address":"清瀬市中里4-1301","lat":35.78615,"lon":139.51431},{"name":"野塩地域市民センター","province":"東京都","city":"清瀬市","address":"清瀬市野塩1-322-2","lat":35.77913,"lon":139.49931},{"name":"中清戸地域市民センター","province":"東京都","city":"清瀬市","address":"清瀬市中清戸4-847-5","lat":35.78493,"lon":139.52788},{"name":"松山地域市民センター","province":"東京都","city":"清瀬市","address":"清瀬市松山2-6-25","lat":35.77155,"lon":139.51575},{"name":"子供の家","province":"東京都","city":"清瀬市","address":"清瀬市松山3-12-17","lat":35.76651,"lon":139.51405},{"name":"ベトレヘム学園","province":"東京都","city":"清瀬市","address":"清瀬市梅園3-14-23","lat":35.77177,"lon":139.50096},{"name":"清瀬市","province":"東京都","city":"清瀬市","address":"清瀬市中里5-842","lat":35.78557,"lon":139.52655},{"name":"中里地域市民センター","province":"東京都","city":"清瀬市","address":"清瀬市中里4-1301","lat":35.786499,"lon":139.514165},{"name":"野塩地域市民センター","province":"東京都","city":"清瀬市","address":"清瀬市野塩1-322-2","lat":35.77918,"lon":139.499424},{"name":"松山地域市民センター","province":"東京都","city":"清瀬市","address":"清瀬市松山2-6-25","lat":35.770998,"lon":139.51477},{"name":"子供の家","province":"東京都","city":"清瀬市","address":"清瀬市松山3-12-17","lat":35.76651,"lon":139.514053},{"name":"ベトレヘム学園","province":"東京都","city":"清瀬市","address":"清瀬市梅園3-14-23","lat":35.770518,"lon":139.501347},{"name":"清瀬市","province":"東京都","city":"清瀬市","address":"清瀬市中里5-842","lat":35.786052,"lon":139.526353},{"name":"清瀬作業所","province":"東京都","city":"清瀬市","address":"清瀬市松山2-18-2","lat":35.774134,"lon":139.511501},{"name":"清瀬療護園","province":"東京都","city":"清瀬市","address":"清瀬市竹丘3-1-72","lat":35.764535,"lon":139.504321},{"name":"東京都清瀬喜望園","province":"東京都","city":"清瀬市","address":"清瀬市竹丘3-1-72","lat":35.764535,"lon":139.504321},{"name":"中里地域市民センター","province":"東京都","city":"清瀬市","address":"清瀬市中里4-1301","lat":35.78615,"lon":139.51431},{"name":"野塩地域市民センター","province":"東京都","city":"清瀬市","address":"清瀬市野塩1-322-2","lat":35.77913,"lon":139.49931},{"name":"中清戸地域市民センター","province":"東京都","city":"清瀬市","address":"清瀬市中清戸4-847-5","lat":35.78493,"lon":139.52788},{"name":"松山地域市民センター","province":"東京都","city":"清瀬市","address":"清瀬市松山2-6-25","lat":35.77155,"lon":139.51575},{"name":"子供の家","province":"東京都","city":"清瀬市","address":"清瀬市松山3-12-17","lat":35.76651,"lon":139.51405},{"name":"ベトレヘム学園","province":"東京都","city":"清瀬市","address":"清瀬市梅園3-14-23","lat":35.77177,"lon":139.50096},{"name":"清瀬市","province":"東京都","city":"清瀬市","address":"清瀬市中里5-842","lat":35.78557,"lon":139.52655},{"name":"中里地域市民センター","province":"東京都","city":"清瀬市","address":"清瀬市中里4-1301","lat":35.786499,"lon":139.514165},{"name":"野塩地域市民センター","province":"東京都","city":"清瀬市","address":"清瀬市野塩1-322-2","lat":35.77918,"lon":139.499424},{"name":"松山地域市民センター","province":"東京都","city":"清瀬市","address":"清瀬市松山2-6-25","lat":35.770998,"lon":139.51477},{"name":"子供の家","province":"東京都","city":"清瀬市","address":"清瀬市松山3-12-17","lat":35.76651,"lon":139.514053},{"name":"ベトレヘム学園","province":"東京都","city":"清瀬市","address":"清瀬市梅園3-14-23","lat":35.770518,"lon":139.501347},{"name":"清瀬市","province":"東京都","city":"清瀬市","address":"清瀬市中里5-842","lat":35.786052,"lon":139.526353},{"name":"清瀬作業所","province":"東京都","city":"清瀬市","address":"清瀬市松山2-18-2","lat":35.774134,"lon":139.511501},{"name":"清瀬療護園","province":"東京都","city":"清瀬市","address":"清瀬市竹丘3-1-72","lat":35.764535,"lon":139.504321},{"name":"東京都清瀬喜望園","province":"東京都","city":"清瀬市","address":"清瀬市竹丘3-1-72","lat":35.764535,"lon":139.504321},{"name":"中里地域市民センター","province":"東京都","city":"清瀬市","address":"清瀬市中里4-1301","lat":35.78615,"lon":139.51431},{"name":"野塩地域市民センター","province":"東京都","city":"清瀬市","address":"清瀬市野塩1-322-2","lat":35.77913,"lon":139.49931},{"name":"中清戸地域市民センター","province":"東京都","city":"清瀬市","address":"清瀬市中清戸4-847-5","lat":35.78493,"lon":139.52788},{"name":"松山地域市民センター","province":"東京都","city":"清瀬市","address":"清瀬市松山2-6-25","lat":35.77155,"lon":139.51575},{"name":"子供の家","province":"東京都","city":"清瀬市","address":"清瀬市松山3-12-17","lat":35.76651,"lon":139.51405},{"name":"ベトレヘム学園","province":"東京都","city":"清瀬市","address":"清瀬市梅園3-14-23","lat":35.77177,"lon":139.50096},{"name":"清瀬市","province":"東京都","city":"清瀬市","address":"清瀬市中里5-842","lat":35.78557,"lon":139.52655},{"name":"中里地域市民センター","province":"東京都","city":"清瀬市","address":"清瀬市中里4-1301","lat":35.786499,"lon":139.514165},{"name":"野塩地域市民センター","province":"東京都","city":"清瀬市","address":"清瀬市野塩1-322-2","lat":35.77918,"lon":139.499424},{"name":"松山地域市民センター","province":"東京都","city":"清瀬市","address":"清瀬市松山2-6-25","lat":35.770998,"lon":139.51477},{"name":"子供の家","province":"東京都","city":"清瀬市","address":"清瀬市松山3-12-17","lat":35.76651,"lon":139.514053},{"name":"ベトレヘム学園","province":"東京都","city":"清瀬市","address":"清瀬市梅園3-14-23","lat":35.770518,"lon":139.501347},{"name":"清瀬市","province":"東京都","city":"清瀬市","address":"清瀬市中里5-842","lat":35.786052,"lon":139.526353},{"name":"清瀬作業所","province":"東京都","city":"清瀬市","address":"清瀬市松山2-18-2","lat":35.774134,"lon":139.511501},{"name":"清瀬療護園","province":"東京都","city":"清瀬市","address":"清瀬市竹丘3-1-72","lat":35.764535,"lon":139.504321},{"name":"東京都清瀬喜望園","province":"東京都","city":"清瀬市","address":"清瀬市竹丘3-1-72","lat":35.764535,"lon":139.504321},{"name":"中里地域市民センター","province":"東京都","city":"清瀬市","address":"清瀬市中里4-1301","lat":35.78615,"lon":139.51431},{"name":"野塩地域市民センター","province":"東京都","city":"清瀬市","address":"清瀬市野塩1-322-2","lat":35.77913,"lon":139.49931},{"name":"中清戸地域市民センター","province":"東京都","city":"清瀬市","address":"清瀬市中清戸4-847-5","lat":35.78493,"lon":139.52788},{"name":"松山地域市民センター","province":"東京都","city":"清瀬市","address":"清瀬市松山2-6-25","lat":35.77155,"lon":139.51575},{"name":"子供の家","province":"東京都","city":"清瀬市","address":"清瀬市松山3-12-17","lat":35.76651,"lon":139.51405},{"name":"ベトレヘム学園","province":"東京都","city":"清瀬市","address":"清瀬市梅園3-14-23","lat":35.77177,"lon":139.50096},{"name":"清瀬市","province":"東京都","city":"清瀬市","address":"清瀬市中里5-842","lat":35.78557,"lon":139.52655},{"name":"中里地域市民センター","province":"東京都","city":"清瀬市","address":"清瀬市中里4-1301","lat":35.786499,"lon":139.514165},{"name":"野塩地域市民センター","province":"東京都","city":"清瀬市","address":"清瀬市野塩1-322-2","lat":35.77918,"lon":139.499424},{"name":"松山地域市民センター","province":"東京都","city":"清瀬市","address":"清瀬市松山2-6-25","lat":35.770998,"lon":139.51477},{"name":"子供の家","province":"東京都","city":"清瀬市","address":"清瀬市松山3-12-17","lat":35.76651,"lon":139.514053},{"name":"ベトレヘム学園","province":"東京都","city":"清瀬市","address":"清瀬市梅園3-14-23","lat":35.770518,"lon":139.501347},{"name":"清瀬市","province":"東京都","city":"清瀬市","address":"清瀬市中里5-842","lat":35.786052,"lon":139.526353},{"name":"清瀬作業所","province":"東京都","city":"清瀬市","address":"清瀬市松山2-18-2","lat":35.774134,"lon":139.511501},{"name":"清瀬療護園","province":"東京都","city":"清瀬市","address":"清瀬市竹丘3-1-72","lat":35.764535,"lon":139.504321},{"name":"東京都清瀬喜望園","province":"東京都","city":"清瀬市","address":"清瀬市竹丘3-1-72","lat":35.764535,"lon":139.504321},{"name":"中里地域市民センター","province":"東京都","city":"清瀬市","address":"清瀬市中里4-1301","lat":35.78615,"lon":139.51431},{"name":"野塩地域市民センター","province":"東京都","city":"清瀬市","address":"清瀬市野塩1-322-2","lat":35.77913,"lon":139.49931},{"name":"中清戸地域市民センター","province":"東京都","city":"清瀬市","address":"清瀬市中清戸4-847-5","lat":35.78493,"lon":139.52788},{"name":"松山地域市民センター","province":"東京都","city":"清瀬市","address":"清瀬市松山2-6-25","lat":35.77155,"lon":139.51575},{"name":"子供の家","province":"東京都","city":"清瀬市","address":"清瀬市松山3-12-17","lat":35.76651,"lon":139.51405},{"name":"ベトレヘム学園","province":"東京都","city":"清瀬市","address":"清瀬市梅園3-14-23","lat":35.77177,"lon":139.50096},{"name":"清瀬市","province":"東京都","city":"清瀬市","address":"清瀬市中里5-842","lat":35.78557,"lon":139.52655},{"name":"中里地域市民センター","province":"東京都","city":"清瀬市","address":"清瀬市中里4-1301","lat":35.786499,"lon":139.514165},{"name":"野塩地域市民センター","province":"東京都","city":"清瀬市","address":"清瀬市野塩1-322-2","lat":35.77918,"lon":139.499424},{"name":"松山地域市民センター","province":"東京都","city":"清瀬市","address":"清瀬市松山2-6-25","lat":35.770998,"lon":139.51477},{"name":"子供の家","province":"東京都","city":"清瀬市","address":"清瀬市松山3-12-17","lat":35.76651,"lon":139.514053},{"name":"ベトレヘム学園","province":"東京都","city":"清瀬市","address":"清瀬市梅園3-14-23","lat":35.770518,"lon":139.501347},{"name":"清瀬市","province":"東京都","city":"清瀬市","address":"清瀬市中里5-842","lat":35.786052,"lon":139.526353},{"name":"清瀬作業所","province":"東京都","city":"清瀬市","address":"清瀬市松山2-18-2","lat":35.774134,"lon":139.511501},{"name":"清瀬療護園","province":"東京都","city":"清瀬市","address":"清瀬市竹丘3-1-72","lat":35.764535,"lon":139.504321},{"name":"東京都清瀬喜望園","province":"東京都","city":"清瀬市","address":"清瀬市竹丘3-1-72","lat":35.764535,"lon":139.504321},{"name":"中里地域市民センター","province":"東京都","city":"清瀬市","address":"清瀬市中里4-1301","lat":35.78615,"lon":139.51431},{"name":"野塩地域市民センター","province":"東京都","city":"清瀬市","address":"清瀬市野塩1-322-2","lat":35.77913,"lon":139.49931},{"name":"中清戸地域市民センター","province":"東京都","city":"清瀬市","address":"清瀬市中清戸4-847-5","lat":35.78493,"lon":139.52788},{"name":"松山地域市民センター","province":"東京都","city":"清瀬市","address":"清瀬市松山2-6-25","lat":35.77155,"lon":139.51575},{"name":"子供の家","province":"東京都","city":"清瀬市","address":"清瀬市松山3-12-17","lat":35.76651,"lon":139.51405},{"name":"ベトレヘム学園","province":"東京都","city":"清瀬市","address":"清瀬市梅園3-14-23","lat":35.77177,"lon":139.50096},{"name":"清瀬市","province":"東京都","city":"清瀬市","address":"清瀬市中里5-842","lat":35.78557,"lon":139.52655},{"name":"中里地域市民センター","province":"東京都","city":"清瀬市","address":"清瀬市中里4-1301","lat":35.786499,"lon":139.514165},{"name":"野塩地域市民センター","province":"東京都","city":"清瀬市","address":"清瀬市野塩1-322-2","lat":35.77918,"lon":139.499424},{"name":"松山地域市民センター","province":"東京都","city":"清瀬市","address":"清瀬市松山2-6-25","lat":35.770998,"lon":139.51477},{"name":"子供の家","province":"東京都","city":"清瀬市","address":"清瀬市松山3-12-17","lat":35.76651,"lon":139.514053},{"name":"ベトレヘム学園","province":"東京都","city":"清瀬市","address":"清瀬市梅園3-14-23","lat":35.770518,"lon":139.501347},{"name":"清瀬市","province":"東京都","city":"清瀬市","address":"清瀬市中里5-842","lat":35.786052,"lon":139.526353},{"name":"清瀬作業所","province":"東京都","city":"清瀬市","address":"清瀬市松山2-18-2","lat":35.774134,"lon":139.511501},{"name":"清瀬療護園","province":"東京都","city":"清瀬市","address":"清瀬市竹丘3-1-72","lat":35.764535,"lon":139.504321},{"name":"東京都清瀬喜望園","province":"東京都","city":"清瀬市","address":"清瀬市竹丘3-1-72","lat":35.764535,"lon":139.504321},{"name":"中里地域市民センター","province":"東京都","city":"清瀬市","address":"清瀬市中里4-1301","lat":35.78615,"lon":139.51431},{"name":"野塩地域市民センター","province":"東京都","city":"清瀬市","address":"清瀬市野塩1-322-2","lat":35.77913,"lon":139.49931},{"name":"中清戸地域市民センター","province":"東京都","city":"清瀬市","address":"清瀬市中清戸4-847-5","lat":35.78493,"lon":139.52788},{"name":"松山地域市民センター","province":"東京都","city":"清瀬市","address":"清瀬市松山2-6-25","lat":35.77155,"lon":139.51575},{"name":"子供の家","province":"東京都","city":"清瀬市","address":"清瀬市松山3-12-17","lat":35.76651,"lon":139.51405},{"name":"ベトレヘム学園","province":"東京都","city":"清瀬市","address":"清瀬市梅園3-14-23","lat":35.77177,"lon":139.50096},{"name":"清瀬市","province":"東京都","city":"清瀬市","address":"清瀬市中里5-842","lat":35.78557,"lon":139.52655},{"name":"中里地域市民センター","province":"東京都","city":"清瀬市","address":"清瀬市中里4-1301","lat":35.786499,"lon":139.514165},{"name":"野塩地域市民センター","province":"東京都","city":"清瀬市","address":"清瀬市野塩1-322-2","lat":35.77918,"lon":139.499424},{"name":"松山地域市民センター","province":"東京都","city":"清瀬市","address":"清瀬市松山2-6-25","lat":35.770998,"lon":139.51477},{"name":"子供の家","province":"東京都","city":"清瀬市","address":"清瀬市松山3-12-17","lat":35.76651,"lon":139.514053},{"name":"ベトレヘム学園","province":"東京都","city":"清瀬市","address":"清瀬市梅園3-14-23","lat":35.770518,"lon":139.501347},{"name":"清瀬市","province":"東京都","city":"清瀬市","address":"清瀬市中里5-842","lat":35.786052,"lon":139.526353},{"name":"清瀬作業所","province":"東京都","city":"清瀬市","address":"清瀬市松山2-18-2","lat":35.774134,"lon":139.511501},{"name":"清瀬療護園","province":"東京都","city":"清瀬市","address":"清瀬市竹丘3-1-72","lat":35.764535,"lon":139.504321},{"name":"東京都清瀬喜望園","province":"東京都","city":"清瀬市","address":"清瀬市竹丘3-1-72","lat":35.764535,"lon":139.504321},{"name":"中里地域市民センター","province":"東京都","city":"清瀬市","address":"清瀬市中里4-1301","lat":35.78615,"lon":139.51431},{"name":"野塩地域市民センター","province":"東京都","city":"清瀬市","address":"清瀬市野塩1-322-2","lat":35.77913,"lon":139.49931},{"name":"中清戸地域市民センター","province":"東京都","city":"清瀬市","address":"清瀬市中清戸4-847-5","lat":35.78493,"lon":139.52788},{"name":"松山地域市民センター","province":"東京都","city":"清瀬市","address":"清瀬市松山2-6-25","lat":35.77155,"lon":139.51575},{"name":"子供の家","province":"東京都","city":"清瀬市","address":"清瀬市松山3-12-17","lat":35.76651,"lon":139.51405},{"name":"ベトレヘム学園","province":"東京都","city":"清瀬市","address":"清瀬市梅園3-14-23","lat":35.77177,"lon":139.50096},{"name":"清瀬市","province":"東京都","city":"清瀬市","address":"清瀬市中里5-842","lat":35.78557,"lon":139.52655},{"name":"中里地域市民センター","province":"東京都","city":"清瀬市","address":"清瀬市中里4-1301","lat":35.786499,"lon":139.514165},{"name":"野塩地域市民センター","province":"東京都","city":"清瀬市","address":"清瀬市野塩1-322-2","lat":35.77918,"lon":139.499424},{"name":"松山地域市民センター","province":"東京都","city":"清瀬市","address":"清瀬市松山2-6-25","lat":35.770998,"lon":139.51477},{"name":"子供の家","province":"東京都","city":"清瀬市","address":"清瀬市松山3-12-17","lat":35.76651,"lon":139.514053},{"name":"ベトレヘム学園","province":"東京都","city":"清瀬市","address":"清瀬市梅園3-14-23","lat":35.770518,"lon":139.501347},{"name":"清瀬市","province":"東京都","city":"清瀬市","address":"清瀬市中里5-842","lat":35.786052,"lon":139.526353},{"name":"清瀬作業所","province":"東京都","city":"清瀬市","address":"清瀬市松山2-18-2","lat":35.774134,"lon":139.511501},{"name":"清瀬療護園","province":"東京都","city":"清瀬市","address":"清瀬市竹丘3-1-72","lat":35.764535,"lon":139.504321},{"name":"東京都清瀬喜望園","province":"東京都","city":"清瀬市","address":"清瀬市竹丘3-1-72","lat":35.764535,"lon":139.504321},{"name":"中里地域市民センター","province":"東京都","city":"清瀬市","address":"清瀬市中里4-1301","lat":35.78615,"lon":139.51431},{"name":"野塩地域市民センター","province":"東京都","city":"清瀬市","address":"清瀬市野塩1-322-2","lat":35.77913,"lon":139.49931},{"name":"中清戸地域市民センター","province":"東京都","city":"清瀬市","address":"清瀬市中清戸4-847-5","lat":35.78493,"lon":139.52788},{"name":"松山地域市民センター","province":"東京都","city":"清瀬市","address":"清瀬市松山2-6-25","lat":35.77155,"lon":139.51575},{"name":"子供の家","province":"東京都","city":"清瀬市","address":"清瀬市松山3-12-17","lat":35.76651,"lon":139.51405},{"name":"ベトレヘム学園","province":"東京都","city":"清瀬市","address":"清瀬市梅園3-14-23","lat":35.77177,"lon":139.50096},{"name":"清瀬市","province":"東京都","city":"清瀬市","address":"清瀬市中里5-842","lat":35.78557,"lon":139.52655},{"name":"中里地域市民センター","province":"東京都","city":"清瀬市","address":"清瀬市中里4-1301","lat":35.786499,"lon":139.514165},{"name":"野塩地域市民センター","province":"東京都","city":"清瀬市","address":"清瀬市野塩1-322-2","lat":35.77918,"lon":139.499424},{"name":"松山地域市民センター","province":"東京都","city":"清瀬市","address":"清瀬市松山2-6-25","lat":35.770998,"lon":139.51477},{"name":"子供の家","province":"東京都","city":"清瀬市","address":"清瀬市松山3-12-17","lat":35.76651,"lon":139.514053},{"name":"ベトレヘム学園","province":"東京都","city":"清瀬市","address":"清瀬市梅園3-14-23","lat":35.770518,"lon":139.501347},{"name":"清瀬市","province":"東京都","city":"清瀬市","address":"清瀬市中里5-842","lat":35.786052,"lon":139.526353},{"name":"清瀬作業所","province":"東京都","city":"清瀬市","address":"清瀬市松山2-18-2","lat":35.774134,"lon":139.511501},{"name":"清瀬療護園","province":"東京都","city":"清瀬市","address":"清瀬市竹丘3-1-72","lat":35.764535,"lon":139.504321},{"name":"東京都清瀬喜望園","province":"東京都","city":"清瀬市","address":"清瀬市竹丘3-1-72","lat":35.764535,"lon":139.504321},{"name":"中里地域市民センター","province":"東京都","city":"清瀬市","address":"清瀬市中里4-1301","lat":35.78615,"lon":139.51431},{"name":"野塩地域市民センター","province":"東京都","city":"清瀬市","address":"清瀬市野塩1-322-2","lat":35.77913,"lon":139.49931},{"name":"中清戸地域市民センター","province":"東京都","city":"清瀬市","address":"清瀬市中清戸4-847-5","lat":35.78493,"lon":139.52788},{"name":"松山地域市民センター","province":"東京都","city":"清瀬市","address":"清瀬市松山2-6-25","lat":35.77155,"lon":139.51575},{"name":"子供の家","province":"東京都","city":"清瀬市","address":"清瀬市松山3-12-17","lat":35.76651,"lon":139.51405},{"name":"ベトレヘム学園","province":"東京都","city":"清瀬市","address":"清瀬市梅園3-14-23","lat":35.77177,"lon":139.50096},{"name":"清瀬市","province":"東京都","city":"清瀬市","address":"清瀬市中里5-842","lat":35.78557,"lon":139.52655},{"name":"中里地域市民センター","province":"東京都","city":"清瀬市","address":"清瀬市中里4-1301","lat":35.786499,"lon":139.514165},{"name":"野塩地域市民センター","province":"東京都","city":"清瀬市","address":"清瀬市野塩1-322-2","lat":35.77918,"lon":139.499424},{"name":"松山地域市民センター","province":"東京都","city":"清瀬市","address":"清瀬市松山2-6-25","lat":35.770998,"lon":139.51477},{"name":"子供の家","province":"東京都","city":"清瀬市","address":"清瀬市松山3-12-17","lat":35.76651,"lon":139.514053},{"name":"ベトレヘム学園","province":"東京都","city":"清瀬市","address":"清瀬市梅園3-14-23","lat":35.770518,"lon":139.501347},{"name":"清瀬市","province":"東京都","city":"清瀬市","address":"清瀬市中里5-842","lat":35.786052,"lon":139.526353}]}