{"keyword":"園","data":[{"name":"清瀬市立第１保育園","province":"東京都","city":"清瀬市","address":"東京都清瀬市松山3-1-73","lat":35.76854,"lon":139.513793},{"name":"清瀬市立第３保育園","province":"東京都","city":"清瀬市","address":"東京都清瀬市旭が丘3-755-1","lat":35.798149,"lon":139.539049},{"name":"清瀬市立第７保育園","province":"東京都","city":"清瀬市","address":"東京都清瀬市竹丘1-15-11","lat":35.7674773924427,"lon":139.511489487701},{"name":"駅前乳児保育園","province":"東京都","city":"清瀬市","address":"東京都清瀬市元町1-4-17","lat":35.774459,"lon":139.520659},{"name":"清瀬上宮保育園","province":"東京都","city":"清瀬市","address":"東京都清瀬市竹丘3-8-1","lat":35.766485,"lon":139.502184},{"name":"のしお保育園","province":"東京都","city":"清瀬市","address":"東京都清瀬市野塩5-249","lat":35.775625,"lon":139.498258},{"name":"中清戸保育園","province":"東京都","city":"清瀬市","address":"東京都清瀬市下清戸1-21-3","lat":35.7789537,"lon":139.5357242},{"name":"すみれ保育園","province":"東京都","city":"清瀬市","address":"東京都清瀬市中里3-1731-8","lat":35.779377,"lon":139.516684},{"name":"すみれ保育園分園","province":"東京都","city":"清瀬市","address":"東京都清瀬市松山2-2-15","lat":35.76980066,"lon":139.5161346},{"name":"きよせ保育園","province":"東京都","city":"清瀬市","address":"東京都清瀬市上清戸2-5-40","lat":35.779072,"lon":139.520273},{"name":"きよせ保育園分園","province":"東京都","city":"清瀬市","address":"東京都清瀬市上清戸2-6-6","lat":35.780447081307,"lon":139.521775542266},{"name":"せせらぎ保育園","province":"東京都","city":"清瀬市","address":"東京都清瀬市中里1-1704","lat":35.78171,"lon":139.515078},{"name":"清瀬どろんこ\n保育園","province":"東京都","city":"清瀬市","address":"東京都清瀬市松山3-1-24","lat":35.770975,"lon":139.510062},{"name":"のしお一丁目\n保育園","province":"東京都","city":"清瀬市","address":"東京都清瀬市野塩1-322-1","lat":35.7791157707731,"lon":139.499920603149},{"name":"メリーポピンズ\n清瀬ルーム","province":"東京都","city":"清瀬市","address":"東京都清瀬市松山1-40-2","lat":35.7688317238889,"lon":139.517100385597},{"name":"中里どろんこ\n保育園","province":"東京都","city":"清瀬市","address":"東京都清瀬市中里6-25-1","lat":35.770975,"lon":139.510062},{"name":"認定こども園\nひかり","province":"東京都","city":"清瀬市","address":"東京都清瀬市旭が丘2-5-3","lat":35.7956185,"lon":139.5400653},{"name":"ピッコロルーム","province":"東京都","city":"清瀬市","address":"東京都清瀬市元町2-18-10","lat":35.7759150338664,"lon":139.512636716827},{"name":"ゆりかごファースト\nスクール","province":"東京都","city":"清瀬市","address":"東京都清瀬市元町1-8-35","lat":35.7729873,"lon":139.5198868},{"name":"ちゃいるど保育園","province":"東京都","city":"清瀬市","address":"東京都清瀬市上清戸2-5-36","lat":35.7795198,"lon":139.519800499999},{"name":"あいあい\nちびっこルーム","province":"東京都","city":"清瀬市","address":"東京都清瀬市竹丘3-2-61","lat":35.769071,"lon":139.503703099999},{"name":"ちあふるガーデン","province":"東京都","city":"清瀬市","address":"東京都清瀬市中里1-1707-4","lat":35.781976,"lon":139.515618},{"name":"なかよし保育園","province":"東京都","city":"清瀬市","address":"東京都清瀬市竹丘3-1-1","lat":35.7679127262192,"lon":139.50621843338},{"name":"清瀬市立第７保育園","province":"東京都","city":"清瀬市","address":"東京都清瀬市竹丘1-15-11","lat":35.76747739,"lon":139.5114895},{"name":"きよせ保育園分園","province":"東京都","city":"清瀬市","address":"東京都清瀬市上清戸2-6-6","lat":35.78044708,"lon":139.5217755},{"name":"ピッコロルーム","province":"東京都","city":"清瀬市","address":"東京都清瀬市元町2-18-10","lat":35.77591503,"lon":139.5126367},{"name":"ちゃいるど保育園","province":"東京都","city":"清瀬市","address":"東京都清瀬市上清戸2-5-36","lat":35.7795198,"lon":139.5198005},{"name":"なかよし保育園","province":"東京都","city":"清瀬市","address":"東京都清瀬市竹丘3-1-1","lat":35.76791273,"lon":139.5062184}]}