{"keyword":"店","data":[{"name":"日本社会事業大学附属　子ども学園","province":"東京都","city":"清瀬市","address":"清瀬市梅園1-2-50","lat":35.773956,"lon":139.50729},{"name":"救世軍清瀬病院","province":"東京都","city":"清瀬市","address":"清瀬市竹丘1-17-9","lat":35.770235,"lon":139.507249},{"name":"清瀬リハビリテーション病院","province":"東京都","city":"清瀬市","address":"清瀬市竹丘3-3-33","lat":35.767971,"lon":139.502652},{"name":"信愛病院","province":"東京都","city":"清瀬市","address":"清瀬市梅園2-5-9","lat":35.77382,"lon":139.503152},{"name":"ベトレヘムの園病院","province":"東京都","city":"清瀬市","address":"清瀬市梅園3-14-72","lat":35.772012,"lon":139.501658},{"name":"清瀬市社会福祉協議会","province":"東京都","city":"清瀬市","address":"清瀬市下清戸1-212-4清瀬市コミュニティプラザ2階","lat":35.778162,"lon":139.538732},{"name":"照屋興業有限会社","province":"東京都","city":"清瀬市","address":"東京都清瀬市松山3丁目18-3","lat":35.76794612,"lon":139.51600089},{"name":"有限会社荒田葬儀社","province":"東京都","city":"清瀬市","address":"東京都清瀬市野塩4丁目79","lat":35.77432287,"lon":139.5053351},{"name":"株式会社AZUMA　東葬祭","province":"東京都","city":"清瀬市","address":"東京都清瀬市松山2丁目14-10","lat":35.77252049,"lon":139.51297887},{"name":"有限会社セレモサービス","province":"東京都","city":"清瀬市","address":"東京都清瀬市下清戸2丁目559-8","lat":35.78764126,"lon":139.53340464},{"name":"株式会社三愛メモリアル東京店","province":"東京都","city":"清瀬市","address":"東京都清瀬市元町1丁目7-5","lat":35.77446205,"lon":139.51841445},{"name":"株式会社彩花","province":"東京都","city":"清瀬市","address":"東京都清瀬市松山2丁目6-45","lat":35.77259557,"lon":139.51690627},{"name":"慈生会ナザレットの家","province":"東京都","city":"清瀬市","address":"清瀬市梅園3-14-23","lat":35.77177,"lon":139.50096},{"name":"あすなろ荘","province":"東京都","city":"清瀬市","address":"東京都清瀬市","lat":35.78534142,"lon":139.52677749},{"name":"救世軍自省館","province":"東京都","city":"清瀬市","address":"清瀬市竹丘1-17-60","lat":35.76948,"lon":139.50812},{"name":"清瀬市社会福祉協議会","province":"東京都","city":"清瀬市","address":"清瀬市下清戸1-212-4清瀬市コミュニティプラザ2階","lat":35.77874,"lon":139.53719},{"name":"救世軍自省館","province":"東京都","city":"清瀬市","address":"清瀬市竹丘1-17-60","lat":35.769099,"lon":139.507385},{"name":"清瀬市障害者福祉センター","province":"東京都","city":"清瀬市","address":"東京都清瀬市上清戸1丁目16-62","lat":35.77325963,"lon":139.52768577},{"name":"社会福祉法人椎の木会地域生活支援センターどんぐり","province":"東京都","city":"清瀬市","address":"東京都清瀬市元町1丁目13-24","lat":35.77437316,"lon":139.5181228},{"name":"社会福祉法人東京アフターケア協会汽車の家作業所","province":"東京都","city":"清瀬市","address":"東京都清瀬市松山2丁目18-2","lat":35.77407026,"lon":139.51148455},{"name":"社会福祉法人東京アフターケア協会清瀬作業所","province":"東京都","city":"清瀬市","address":"東京都清瀬市松山2丁目18-2","lat":35.77407026,"lon":139.51148455},{"name":"社会福祉法人東京アフターケア協会セルプ清瀬","province":"東京都","city":"清瀬市","address":"東京都清瀬市松山2丁目18-2","lat":35.77407026,"lon":139.51148455},{"name":"慈生会ナザレットの家","province":"東京都","city":"清瀬市","address":"清瀬市梅園3-14-23","lat":35.770518,"lon":139.501347},{"name":"＊?清瀬市生涯学習センター","province":"東京都","city":"清瀬市","address":"清瀬市元町1-2-11アミューー5~7階","lat":35.772216,"lon":139.521175},{"name":"日本社会事業大学附属　子ども学園","province":"東京都","city":"清瀬市","address":"清瀬市梅園1-2-50","lat":35.773956,"lon":139.50729},{"name":"救世軍清瀬病院","province":"東京都","city":"清瀬市","address":"清瀬市竹丘1-17-9","lat":35.770235,"lon":139.507249},{"name":"清瀬リハビリテーション病院","province":"東京都","city":"清瀬市","address":"清瀬市竹丘3-3-33","lat":35.767971,"lon":139.502652},{"name":"信愛病院","province":"東京都","city":"清瀬市","address":"清瀬市梅園2-5-9","lat":35.77382,"lon":139.503152},{"name":"ベトレヘムの園病院","province":"東京都","city":"清瀬市","address":"清瀬市梅園3-14-72","lat":35.772012,"lon":139.501658},{"name":"清瀬市社会福祉協議会","province":"東京都","city":"清瀬市","address":"清瀬市下清戸1-212-4清瀬市コミュニティプラザ2階","lat":35.778162,"lon":139.538732},{"name":"照屋興業有限会社","province":"東京都","city":"清瀬市","address":"東京都清瀬市松山3丁目18-3","lat":35.76794612,"lon":139.51600089},{"name":"有限会社荒田葬儀社","province":"東京都","city":"清瀬市","address":"東京都清瀬市野塩4丁目79","lat":35.77432287,"lon":139.5053351},{"name":"株式会社AZUMA　東葬祭","province":"東京都","city":"清瀬市","address":"東京都清瀬市松山2丁目14-10","lat":35.77252049,"lon":139.51297887},{"name":"有限会社セレモサービス","province":"東京都","city":"清瀬市","address":"東京都清瀬市下清戸2丁目559-8","lat":35.78764126,"lon":139.53340464},{"name":"株式会社三愛メモリアル東京店","province":"東京都","city":"清瀬市","address":"東京都清瀬市元町1丁目7-5","lat":35.77446205,"lon":139.51841445},{"name":"株式会社彩花","province":"東京都","city":"清瀬市","address":"東京都清瀬市松山2丁目6-45","lat":35.77259557,"lon":139.51690627},{"name":"慈生会ナザレットの家","province":"東京都","city":"清瀬市","address":"清瀬市梅園3-14-23","lat":35.77177,"lon":139.50096},{"name":"あすなろ荘","province":"東京都","city":"清瀬市","address":"東京都清瀬市","lat":35.78534142,"lon":139.52677749},{"name":"救世軍自省館","province":"東京都","city":"清瀬市","address":"清瀬市竹丘1-17-60","lat":35.76948,"lon":139.50812},{"name":"清瀬市社会福祉協議会","province":"東京都","city":"清瀬市","address":"清瀬市下清戸1-212-4清瀬市コミュニティプラザ2階","lat":35.77874,"lon":139.53719},{"name":"救世軍自省館","province":"東京都","city":"清瀬市","address":"清瀬市竹丘1-17-60","lat":35.769099,"lon":139.507385},{"name":"清瀬市障害者福祉センター","province":"東京都","city":"清瀬市","address":"東京都清瀬市上清戸1丁目16-62","lat":35.77325963,"lon":139.52768577},{"name":"社会福祉法人椎の木会地域生活支援センターどんぐり","province":"東京都","city":"清瀬市","address":"東京都清瀬市元町1丁目13-24","lat":35.77437316,"lon":139.5181228},{"name":"社会福祉法人東京アフターケア協会汽車の家作業所","province":"東京都","city":"清瀬市","address":"東京都清瀬市松山2丁目18-2","lat":35.77407026,"lon":139.51148455},{"name":"社会福祉法人東京アフターケア協会清瀬作業所","province":"東京都","city":"清瀬市","address":"東京都清瀬市松山2丁目18-2","lat":35.77407026,"lon":139.51148455},{"name":"社会福祉法人東京アフターケア協会セルプ清瀬","province":"東京都","city":"清瀬市","address":"東京都清瀬市松山2丁目18-2","lat":35.77407026,"lon":139.51148455},{"name":"慈生会ナザレットの家","province":"東京都","city":"清瀬市","address":"清瀬市梅園3-14-23","lat":35.770518,"lon":139.501347},{"name":"日本社会事業大学附属　子ども学園","province":"東京都","city":"清瀬市","address":"清瀬市梅園1-2-50","lat":35.773956,"lon":139.50729},{"name":"救世軍清瀬病院","province":"東京都","city":"清瀬市","address":"清瀬市竹丘1-17-9","lat":35.770235,"lon":139.507249},{"name":"清瀬リハビリテーション病院","province":"東京都","city":"清瀬市","address":"清瀬市竹丘3-3-33","lat":35.767971,"lon":139.502652},{"name":"信愛病院","province":"東京都","city":"清瀬市","address":"清瀬市梅園2-5-9","lat":35.77382,"lon":139.503152},{"name":"ベトレヘムの園病院","province":"東京都","city":"清瀬市","address":"清瀬市梅園3-14-72","lat":35.772012,"lon":139.501658},{"name":"清瀬市社会福祉協議会","province":"東京都","city":"清瀬市","address":"清瀬市下清戸1-212-4清瀬市コミュニティプラザ2階","lat":35.778162,"lon":139.538732},{"name":"照屋興業有限会社","province":"東京都","city":"清瀬市","address":"東京都清瀬市松山3丁目18-3","lat":35.76794612,"lon":139.51600089},{"name":"有限会社荒田葬儀社","province":"東京都","city":"清瀬市","address":"東京都清瀬市野塩4丁目79","lat":35.77432287,"lon":139.5053351},{"name":"株式会社AZUMA　東葬祭","province":"東京都","city":"清瀬市","address":"東京都清瀬市松山2丁目14-10","lat":35.77252049,"lon":139.51297887},{"name":"有限会社セレモサービス","province":"東京都","city":"清瀬市","address":"東京都清瀬市下清戸2丁目559-8","lat":35.78764126,"lon":139.53340464},{"name":"株式会社三愛メモリアル東京店","province":"東京都","city":"清瀬市","address":"東京都清瀬市元町1丁目7-5","lat":35.77446205,"lon":139.51841445},{"name":"株式会社彩花","province":"東京都","city":"清瀬市","address":"東京都清瀬市松山2丁目6-45","lat":35.77259557,"lon":139.51690627},{"name":"慈生会ナザレットの家","province":"東京都","city":"清瀬市","address":"清瀬市梅園3-14-23","lat":35.77177,"lon":139.50096},{"name":"あすなろ荘","province":"東京都","city":"清瀬市","address":"東京都清瀬市","lat":35.78534142,"lon":139.52677749},{"name":"救世軍自省館","province":"東京都","city":"清瀬市","address":"清瀬市竹丘1-17-60","lat":35.76948,"lon":139.50812},{"name":"清瀬市社会福祉協議会","province":"東京都","city":"清瀬市","address":"清瀬市下清戸1-212-4清瀬市コミュニティプラザ2階","lat":35.77874,"lon":139.53719},{"name":"救世軍自省館","province":"東京都","city":"清瀬市","address":"清瀬市竹丘1-17-60","lat":35.769099,"lon":139.507385},{"name":"清瀬市障害者福祉センター","province":"東京都","city":"清瀬市","address":"東京都清瀬市上清戸1丁目16-62","lat":35.77325963,"lon":139.52768577},{"name":"社会福祉法人椎の木会地域生活支援センターどんぐり","province":"東京都","city":"清瀬市","address":"東京都清瀬市元町1丁目13-24","lat":35.77437316,"lon":139.5181228},{"name":"社会福祉法人東京アフターケア協会汽車の家作業所","province":"東京都","city":"清瀬市","address":"東京都清瀬市松山2丁目18-2","lat":35.77407026,"lon":139.51148455},{"name":"社会福祉法人東京アフターケア協会清瀬作業所","province":"東京都","city":"清瀬市","address":"東京都清瀬市松山2丁目18-2","lat":35.77407026,"lon":139.51148455},{"name":"社会福祉法人東京アフターケア協会セルプ清瀬","province":"東京都","city":"清瀬市","address":"東京都清瀬市松山2丁目18-2","lat":35.77407026,"lon":139.51148455},{"name":"慈生会ナザレットの家","province":"東京都","city":"清瀬市","address":"清瀬市梅園3-14-23","lat":35.770518,"lon":139.501347},{"name":"日本社会事業大学附属　子ども学園","province":"東京都","city":"清瀬市","address":"清瀬市梅園1-2-50","lat":35.773956,"lon":139.50729},{"name":"救世軍清瀬病院","province":"東京都","city":"清瀬市","address":"清瀬市竹丘1-17-9","lat":35.770235,"lon":139.507249},{"name":"清瀬リハビリテーション病院","province":"東京都","city":"清瀬市","address":"清瀬市竹丘3-3-33","lat":35.767971,"lon":139.502652},{"name":"信愛病院","province":"東京都","city":"清瀬市","address":"清瀬市梅園2-5-9","lat":35.77382,"lon":139.503152},{"name":"ベトレヘムの園病院","province":"東京都","city":"清瀬市","address":"清瀬市梅園3-14-72","lat":35.772012,"lon":139.501658},{"name":"清瀬市社会福祉協議会","province":"東京都","city":"清瀬市","address":"清瀬市下清戸1-212-4清瀬市コミュニティプラザ2階","lat":35.778162,"lon":139.538732},{"name":"照屋興業有限会社","province":"東京都","city":"清瀬市","address":"東京都清瀬市松山3丁目18-3","lat":35.76794612,"lon":139.51600089},{"name":"有限会社荒田葬儀社","province":"東京都","city":"清瀬市","address":"東京都清瀬市野塩4丁目79","lat":35.77432287,"lon":139.5053351},{"name":"株式会社AZUMA　東葬祭","province":"東京都","city":"清瀬市","address":"東京都清瀬市松山2丁目14-10","lat":35.77252049,"lon":139.51297887},{"name":"有限会社セレモサービス","province":"東京都","city":"清瀬市","address":"東京都清瀬市下清戸2丁目559-8","lat":35.78764126,"lon":139.53340464},{"name":"株式会社三愛メモリアル東京店","province":"東京都","city":"清瀬市","address":"東京都清瀬市元町1丁目7-5","lat":35.77446205,"lon":139.51841445},{"name":"株式会社彩花","province":"東京都","city":"清瀬市","address":"東京都清瀬市松山2丁目6-45","lat":35.77259557,"lon":139.51690627},{"name":"慈生会ナザレットの家","province":"東京都","city":"清瀬市","address":"清瀬市梅園3-14-23","lat":35.77177,"lon":139.50096},{"name":"あすなろ荘","province":"東京都","city":"清瀬市","address":"東京都清瀬市","lat":35.78534142,"lon":139.52677749},{"name":"救世軍自省館","province":"東京都","city":"清瀬市","address":"清瀬市竹丘1-17-60","lat":35.76948,"lon":139.50812},{"name":"清瀬市社会福祉協議会","province":"東京都","city":"清瀬市","address":"清瀬市下清戸1-212-4清瀬市コミュニティプラザ2階","lat":35.77874,"lon":139.53719},{"name":"救世軍自省館","province":"東京都","city":"清瀬市","address":"清瀬市竹丘1-17-60","lat":35.769099,"lon":139.507385},{"name":"清瀬市障害者福祉センター","province":"東京都","city":"清瀬市","address":"東京都清瀬市上清戸1丁目16-62","lat":35.77325963,"lon":139.52768577},{"name":"社会福祉法人椎の木会地域生活支援センターどんぐり","province":"東京都","city":"清瀬市","address":"東京都清瀬市元町1丁目13-24","lat":35.77437316,"lon":139.5181228},{"name":"社会福祉法人東京アフターケア協会汽車の家作業所","province":"東京都","city":"清瀬市","address":"東京都清瀬市松山2丁目18-2","lat":35.77407026,"lon":139.51148455},{"name":"社会福祉法人東京アフターケア協会清瀬作業所","province":"東京都","city":"清瀬市","address":"東京都清瀬市松山2丁目18-2","lat":35.77407026,"lon":139.51148455},{"name":"社会福祉法人東京アフターケア協会セルプ清瀬","province":"東京都","city":"清瀬市","address":"東京都清瀬市松山2丁目18-2","lat":35.77407026,"lon":139.51148455},{"name":"慈生会ナザレットの家","province":"東京都","city":"清瀬市","address":"清瀬市梅園3-14-23","lat":35.770518,"lon":139.501347},{"name":"日本社会事業大学附属　子ども学園","province":"東京都","city":"清瀬市","address":"清瀬市梅園1-2-50","lat":35.773956,"lon":139.50729},{"name":"救世軍清瀬病院","province":"東京都","city":"清瀬市","address":"清瀬市竹丘1-17-9","lat":35.770235,"lon":139.507249},{"name":"清瀬リハビリテーション病院","province":"東京都","city":"清瀬市","address":"清瀬市竹丘3-3-33","lat":35.767971,"lon":139.502652},{"name":"信愛病院","province":"東京都","city":"清瀬市","address":"清瀬市梅園2-5-9","lat":35.77382,"lon":139.503152},{"name":"ベトレヘムの園病院","province":"東京都","city":"清瀬市","address":"清瀬市梅園3-14-72","lat":35.772012,"lon":139.501658},{"name":"清瀬市社会福祉協議会","province":"東京都","city":"清瀬市","address":"清瀬市下清戸1-212-4清瀬市コミュニティプラザ2階","lat":35.778162,"lon":139.538732},{"name":"照屋興業有限会社","province":"東京都","city":"清瀬市","address":"東京都清瀬市松山3丁目18-3","lat":35.76794612,"lon":139.51600089},{"name":"有限会社荒田葬儀社","province":"東京都","city":"清瀬市","address":"東京都清瀬市野塩4丁目79","lat":35.77432287,"lon":139.5053351},{"name":"株式会社AZUMA　東葬祭","province":"東京都","city":"清瀬市","address":"東京都清瀬市松山2丁目14-10","lat":35.77252049,"lon":139.51297887},{"name":"有限会社セレモサービス","province":"東京都","city":"清瀬市","address":"東京都清瀬市下清戸2丁目559-8","lat":35.78764126,"lon":139.53340464},{"name":"株式会社三愛メモリアル東京店","province":"東京都","city":"清瀬市","address":"東京都清瀬市元町1丁目7-5","lat":35.77446205,"lon":139.51841445},{"name":"株式会社彩花","province":"東京都","city":"清瀬市","address":"東京都清瀬市松山2丁目6-45","lat":35.77259557,"lon":139.51690627},{"name":"慈生会ナザレットの家","province":"東京都","city":"清瀬市","address":"清瀬市梅園3-14-23","lat":35.77177,"lon":139.50096},{"name":"あすなろ荘","province":"東京都","city":"清瀬市","address":"東京都清瀬市","lat":35.78534142,"lon":139.52677749},{"name":"救世軍自省館","province":"東京都","city":"清瀬市","address":"清瀬市竹丘1-17-60","lat":35.76948,"lon":139.50812},{"name":"清瀬市社会福祉協議会","province":"東京都","city":"清瀬市","address":"清瀬市下清戸1-212-4清瀬市コミュニティプラザ2階","lat":35.77874,"lon":139.53719},{"name":"救世軍自省館","province":"東京都","city":"清瀬市","address":"清瀬市竹丘1-17-60","lat":35.769099,"lon":139.507385},{"name":"清瀬市障害者福祉センター","province":"東京都","city":"清瀬市","address":"東京都清瀬市上清戸1丁目16-62","lat":35.77325963,"lon":139.52768577},{"name":"社会福祉法人椎の木会地域生活支援センターどんぐり","province":"東京都","city":"清瀬市","address":"東京都清瀬市元町1丁目13-24","lat":35.77437316,"lon":139.5181228},{"name":"社会福祉法人東京アフターケア協会汽車の家作業所","province":"東京都","city":"清瀬市","address":"東京都清瀬市松山2丁目18-2","lat":35.77407026,"lon":139.51148455},{"name":"社会福祉法人東京アフターケア協会清瀬作業所","province":"東京都","city":"清瀬市","address":"東京都清瀬市松山2丁目18-2","lat":35.77407026,"lon":139.51148455},{"name":"社会福祉法人東京アフターケア協会セルプ清瀬","province":"東京都","city":"清瀬市","address":"東京都清瀬市松山2丁目18-2","lat":35.77407026,"lon":139.51148455},{"name":"慈生会ナザレットの家","province":"東京都","city":"清瀬市","address":"清瀬市梅園3-14-23","lat":35.770518,"lon":139.501347},{"name":"日本社会事業大学附属　子ども学園","province":"東京都","city":"清瀬市","address":"清瀬市梅園1-2-50","lat":35.773956,"lon":139.50729},{"name":"救世軍清瀬病院","province":"東京都","city":"清瀬市","address":"清瀬市竹丘1-17-9","lat":35.770235,"lon":139.507249},{"name":"清瀬リハビリテーション病院","province":"東京都","city":"清瀬市","address":"清瀬市竹丘3-3-33","lat":35.767971,"lon":139.502652},{"name":"信愛病院","province":"東京都","city":"清瀬市","address":"清瀬市梅園2-5-9","lat":35.77382,"lon":139.503152},{"name":"ベトレヘムの園病院","province":"東京都","city":"清瀬市","address":"清瀬市梅園3-14-72","lat":35.772012,"lon":139.501658},{"name":"清瀬市社会福祉協議会","province":"東京都","city":"清瀬市","address":"清瀬市下清戸1-212-4清瀬市コミュニティプラザ2階","lat":35.778162,"lon":139.538732},{"name":"慈生会ナザレットの家","province":"東京都","city":"清瀬市","address":"清瀬市梅園3-14-23","lat":35.77177,"lon":139.50096},{"name":"あすなろ荘","province":"東京都","city":"清瀬市","address":"東京都清瀬市","lat":35.78534142,"lon":139.52677749},{"name":"救世軍自省館","province":"東京都","city":"清瀬市","address":"清瀬市竹丘1-17-60","lat":35.76948,"lon":139.50812},{"name":"清瀬市社会福祉協議会","province":"東京都","city":"清瀬市","address":"清瀬市下清戸1-212-4清瀬市コミュニティプラザ2階","lat":35.77874,"lon":139.53719},{"name":"救世軍自省館","province":"東京都","city":"清瀬市","address":"清瀬市竹丘1-17-60","lat":35.769099,"lon":139.507385},{"name":"清瀬市障害者福祉センター","province":"東京都","city":"清瀬市","address":"東京都清瀬市上清戸1丁目16-62","lat":35.77325963,"lon":139.52768577},{"name":"社会福祉法人椎の木会地域生活支援センターどんぐり","province":"東京都","city":"清瀬市","address":"東京都清瀬市元町1丁目13-24","lat":35.77437316,"lon":139.5181228},{"name":"社会福祉法人東京アフターケア協会汽車の家作業所","province":"東京都","city":"清瀬市","address":"東京都清瀬市松山2丁目18-2","lat":35.77407026,"lon":139.51148455},{"name":"社会福祉法人東京アフターケア協会清瀬作業所","province":"東京都","city":"清瀬市","address":"東京都清瀬市松山2丁目18-2","lat":35.77407026,"lon":139.51148455},{"name":"社会福祉法人東京アフターケア協会セルプ清瀬","province":"東京都","city":"清瀬市","address":"東京都清瀬市松山2丁目18-2","lat":35.77407026,"lon":139.51148455},{"name":"慈生会ナザレットの家","province":"東京都","city":"清瀬市","address":"清瀬市梅園3-14-23","lat":35.770518,"lon":139.501347},{"name":"日本社会事業大学附属　子ども学園","province":"東京都","city":"清瀬市","address":"清瀬市梅園1-2-50","lat":35.773956,"lon":139.50729},{"name":"救世軍清瀬病院","province":"東京都","city":"清瀬市","address":"清瀬市竹丘1-17-9","lat":35.770235,"lon":139.507249},{"name":"清瀬リハビリテーション病院","province":"東京都","city":"清瀬市","address":"清瀬市竹丘3-3-33","lat":35.767971,"lon":139.502652},{"name":"信愛病院","province":"東京都","city":"清瀬市","address":"清瀬市梅園2-5-9","lat":35.77382,"lon":139.503152},{"name":"ベトレヘムの園病院","province":"東京都","city":"清瀬市","address":"清瀬市梅園3-14-72","lat":35.772012,"lon":139.501658},{"name":"清瀬市社会福祉協議会","province":"東京都","city":"清瀬市","address":"清瀬市下清戸1-212-4清瀬市コミュニティプラザ2階","lat":35.778162,"lon":139.538732},{"name":"慈生会ナザレットの家","province":"東京都","city":"清瀬市","address":"清瀬市梅園3-14-23","lat":35.77177,"lon":139.50096},{"name":"あすなろ荘","province":"東京都","city":"清瀬市","address":"東京都清瀬市","lat":35.78534142,"lon":139.52677749},{"name":"救世軍自省館","province":"東京都","city":"清瀬市","address":"清瀬市竹丘1-17-60","lat":35.76948,"lon":139.50812},{"name":"清瀬市社会福祉協議会","province":"東京都","city":"清瀬市","address":"清瀬市下清戸1-212-4清瀬市コミュニティプラザ2階","lat":35.77874,"lon":139.53719},{"name":"救世軍自省館","province":"東京都","city":"清瀬市","address":"清瀬市竹丘1-17-60","lat":35.769099,"lon":139.507385},{"name":"清瀬市障害者福祉センター","province":"東京都","city":"清瀬市","address":"東京都清瀬市上清戸1丁目16-62","lat":35.77325963,"lon":139.52768577},{"name":"社会福祉法人椎の木会地域生活支援センターどんぐり","province":"東京都","city":"清瀬市","address":"東京都清瀬市元町1丁目13-24","lat":35.77437316,"lon":139.5181228},{"name":"社会福祉法人東京アフターケア協会汽車の家作業所","province":"東京都","city":"清瀬市","address":"東京都清瀬市松山2丁目18-2","lat":35.77407026,"lon":139.51148455},{"name":"社会福祉法人東京アフターケア協会清瀬作業所","province":"東京都","city":"清瀬市","address":"東京都清瀬市松山2丁目18-2","lat":35.77407026,"lon":139.51148455},{"name":"社会福祉法人東京アフターケア協会セルプ清瀬","province":"東京都","city":"清瀬市","address":"東京都清瀬市松山2丁目18-2","lat":35.77407026,"lon":139.51148455},{"name":"慈生会ナザレットの家","province":"東京都","city":"清瀬市","address":"清瀬市梅園3-14-23","lat":35.770518,"lon":139.501347},{"name":"日本社会事業大学附属　子ども学園","province":"東京都","city":"清瀬市","address":"清瀬市梅園1-2-50","lat":35.773956,"lon":139.50729},{"name":"救世軍清瀬病院","province":"東京都","city":"清瀬市","address":"清瀬市竹丘1-17-9","lat":35.770235,"lon":139.507249},{"name":"清瀬リハビリテーション病院","province":"東京都","city":"清瀬市","address":"清瀬市竹丘3-3-33","lat":35.767971,"lon":139.502652},{"name":"信愛病院","province":"東京都","city":"清瀬市","address":"清瀬市梅園2-5-9","lat":35.77382,"lon":139.503152},{"name":"ベトレヘムの園病院","province":"東京都","city":"清瀬市","address":"清瀬市梅園3-14-72","lat":35.772012,"lon":139.501658},{"name":"清瀬市社会福祉協議会","province":"東京都","city":"清瀬市","address":"清瀬市下清戸1-212-4清瀬市コミュニティプラザ2階","lat":35.778162,"lon":139.538732},{"name":"慈生会ナザレットの家","province":"東京都","city":"清瀬市","address":"清瀬市梅園3-14-23","lat":35.77177,"lon":139.50096},{"name":"あすなろ荘","province":"東京都","city":"清瀬市","address":"東京都清瀬市","lat":35.78534142,"lon":139.52677749},{"name":"救世軍自省館","province":"東京都","city":"清瀬市","address":"清瀬市竹丘1-17-60","lat":35.76948,"lon":139.50812},{"name":"清瀬市社会福祉協議会","province":"東京都","city":"清瀬市","address":"清瀬市下清戸1-212-4清瀬市コミュニティプラザ2階","lat":35.77874,"lon":139.53719},{"name":"救世軍自省館","province":"東京都","city":"清瀬市","address":"清瀬市竹丘1-17-60","lat":35.769099,"lon":139.507385},{"name":"清瀬市障害者福祉センター","province":"東京都","city":"清瀬市","address":"東京都清瀬市上清戸1丁目16-62","lat":35.77325963,"lon":139.52768577},{"name":"社会福祉法人椎の木会地域生活支援センターどんぐり","province":"東京都","city":"清瀬市","address":"東京都清瀬市元町1丁目13-24","lat":35.77437316,"lon":139.5181228},{"name":"社会福祉法人東京アフターケア協会汽車の家作業所","province":"東京都","city":"清瀬市","address":"東京都清瀬市松山2丁目18-2","lat":35.77407026,"lon":139.51148455},{"name":"社会福祉法人東京アフターケア協会清瀬作業所","province":"東京都","city":"清瀬市","address":"東京都清瀬市松山2丁目18-2","lat":35.77407026,"lon":139.51148455},{"name":"社会福祉法人東京アフターケア協会セルプ清瀬","province":"東京都","city":"清瀬市","address":"東京都清瀬市松山2丁目18-2","lat":35.77407026,"lon":139.51148455},{"name":"慈生会ナザレットの家","province":"東京都","city":"清瀬市","address":"清瀬市梅園3-14-23","lat":35.770518,"lon":139.501347},{"name":"日本社会事業大学附属　子ども学園","province":"東京都","city":"清瀬市","address":"清瀬市梅園1-2-50","lat":35.773956,"lon":139.50729},{"name":"救世軍清瀬病院","province":"東京都","city":"清瀬市","address":"清瀬市竹丘1-17-9","lat":35.770235,"lon":139.507249},{"name":"清瀬リハビリテーション病院","province":"東京都","city":"清瀬市","address":"清瀬市竹丘3-3-33","lat":35.767971,"lon":139.502652},{"name":"信愛病院","province":"東京都","city":"清瀬市","address":"清瀬市梅園2-5-9","lat":35.77382,"lon":139.503152},{"name":"ベトレヘムの園病院","province":"東京都","city":"清瀬市","address":"清瀬市梅園3-14-72","lat":35.772012,"lon":139.501658},{"name":"清瀬市社会福祉協議会","province":"東京都","city":"清瀬市","address":"清瀬市下清戸1-212-4清瀬市コミュニティプラザ2階","lat":35.778162,"lon":139.538732},{"name":"慈生会ナザレットの家","province":"東京都","city":"清瀬市","address":"清瀬市梅園3-14-23","lat":35.77177,"lon":139.50096},{"name":"あすなろ荘","province":"東京都","city":"清瀬市","address":"東京都清瀬市","lat":35.78534142,"lon":139.52677749},{"name":"救世軍自省館","province":"東京都","city":"清瀬市","address":"清瀬市竹丘1-17-60","lat":35.76948,"lon":139.50812},{"name":"清瀬市社会福祉協議会","province":"東京都","city":"清瀬市","address":"清瀬市下清戸1-212-4清瀬市コミュニティプラザ2階","lat":35.77874,"lon":139.53719},{"name":"救世軍自省館","province":"東京都","city":"清瀬市","address":"清瀬市竹丘1-17-60","lat":35.769099,"lon":139.507385},{"name":"清瀬市障害者福祉センター","province":"東京都","city":"清瀬市","address":"東京都清瀬市上清戸1丁目16-62","lat":35.77325963,"lon":139.52768577},{"name":"社会福祉法人椎の木会地域生活支援センターどんぐり","province":"東京都","city":"清瀬市","address":"東京都清瀬市元町1丁目13-24","lat":35.77437316,"lon":139.5181228},{"name":"社会福祉法人東京アフターケア協会汽車の家作業所","province":"東京都","city":"清瀬市","address":"東京都清瀬市松山2丁目18-2","lat":35.77407026,"lon":139.51148455},{"name":"社会福祉法人東京アフターケア協会清瀬作業所","province":"東京都","city":"清瀬市","address":"東京都清瀬市松山2丁目18-2","lat":35.77407026,"lon":139.51148455},{"name":"社会福祉法人東京アフターケア協会セルプ清瀬","province":"東京都","city":"清瀬市","address":"東京都清瀬市松山2丁目18-2","lat":35.77407026,"lon":139.51148455},{"name":"慈生会ナザレットの家","province":"東京都","city":"清瀬市","address":"清瀬市梅園3-14-23","lat":35.770518,"lon":139.501347},{"name":"日本社会事業大学附属　子ども学園","province":"東京都","city":"清瀬市","address":"清瀬市梅園1-2-50","lat":35.773956,"lon":139.50729},{"name":"救世軍清瀬病院","province":"東京都","city":"清瀬市","address":"清瀬市竹丘1-17-9","lat":35.770235,"lon":139.507249},{"name":"清瀬リハビリテーション病院","province":"東京都","city":"清瀬市","address":"清瀬市竹丘3-3-33","lat":35.767971,"lon":139.502652},{"name":"信愛病院","province":"東京都","city":"清瀬市","address":"清瀬市梅園2-5-9","lat":35.77382,"lon":139.503152},{"name":"ベトレヘムの園病院","province":"東京都","city":"清瀬市","address":"清瀬市梅園3-14-72","lat":35.772012,"lon":139.501658},{"name":"清瀬市社会福祉協議会","province":"東京都","city":"清瀬市","address":"清瀬市下清戸1-212-4清瀬市コミュニティプラザ2階","lat":35.778162,"lon":139.538732},{"name":"慈生会ナザレットの家","province":"東京都","city":"清瀬市","address":"清瀬市梅園3-14-23","lat":35.77177,"lon":139.50096},{"name":"あすなろ荘","province":"東京都","city":"清瀬市","address":"東京都清瀬市","lat":35.78534142,"lon":139.52677749},{"name":"救世軍自省館","province":"東京都","city":"清瀬市","address":"清瀬市竹丘1-17-60","lat":35.76948,"lon":139.50812},{"name":"清瀬市社会福祉協議会","province":"東京都","city":"清瀬市","address":"清瀬市下清戸1-212-4清瀬市コミュニティプラザ2階","lat":35.77874,"lon":139.53719},{"name":"救世軍自省館","province":"東京都","city":"清瀬市","address":"清瀬市竹丘1-17-60","lat":35.769099,"lon":139.507385},{"name":"清瀬市障害者福祉センター","province":"東京都","city":"清瀬市","address":"東京都清瀬市上清戸1丁目16-62","lat":35.77325963,"lon":139.52768577},{"name":"社会福祉法人椎の木会地域生活支援センターどんぐり","province":"東京都","city":"清瀬市","address":"東京都清瀬市元町1丁目13-24","lat":35.77437316,"lon":139.5181228},{"name":"社会福祉法人東京アフターケア協会汽車の家作業所","province":"東京都","city":"清瀬市","address":"東京都清瀬市松山2丁目18-2","lat":35.77407026,"lon":139.51148455},{"name":"社会福祉法人東京アフターケア協会清瀬作業所","province":"東京都","city":"清瀬市","address":"東京都清瀬市松山2丁目18-2","lat":35.77407026,"lon":139.51148455},{"name":"社会福祉法人東京アフターケア協会セルプ清瀬","province":"東京都","city":"清瀬市","address":"東京都清瀬市松山2丁目18-2","lat":35.77407026,"lon":139.51148455},{"name":"慈生会ナザレットの家","province":"東京都","city":"清瀬市","address":"清瀬市梅園3-14-23","lat":35.770518,"lon":139.501347},{"name":"日本社会事業大学附属　子ども学園","province":"東京都","city":"清瀬市","address":"清瀬市梅園1-2-50","lat":35.773956,"lon":139.50729},{"name":"救世軍清瀬病院","province":"東京都","city":"清瀬市","address":"清瀬市竹丘1-17-9","lat":35.770235,"lon":139.507249},{"name":"清瀬リハビリテーション病院","province":"東京都","city":"清瀬市","address":"清瀬市竹丘3-3-33","lat":35.767971,"lon":139.502652},{"name":"信愛病院","province":"東京都","city":"清瀬市","address":"清瀬市梅園2-5-9","lat":35.77382,"lon":139.503152},{"name":"ベトレヘムの園病院","province":"東京都","city":"清瀬市","address":"清瀬市梅園3-14-72","lat":35.772012,"lon":139.501658},{"name":"清瀬市社会福祉協議会","province":"東京都","city":"清瀬市","address":"清瀬市下清戸1-212-4清瀬市コミュニティプラザ2階","lat":35.778162,"lon":139.538732},{"name":"慈生会ナザレットの家","province":"東京都","city":"清瀬市","address":"清瀬市梅園3-14-23","lat":35.77177,"lon":139.50096},{"name":"あすなろ荘","province":"東京都","city":"清瀬市","address":"東京都清瀬市","lat":35.78534142,"lon":139.52677749},{"name":"救世軍自省館","province":"東京都","city":"清瀬市","address":"清瀬市竹丘1-17-60","lat":35.76948,"lon":139.50812},{"name":"清瀬市社会福祉協議会","province":"東京都","city":"清瀬市","address":"清瀬市下清戸1-212-4清瀬市コミュニティプラザ2階","lat":35.77874,"lon":139.53719},{"name":"救世軍自省館","province":"東京都","city":"清瀬市","address":"清瀬市竹丘1-17-60","lat":35.769099,"lon":139.507385},{"name":"清瀬市障害者福祉センター","province":"東京都","city":"清瀬市","address":"東京都清瀬市上清戸1丁目16-62","lat":35.77325963,"lon":139.52768577},{"name":"社会福祉法人椎の木会地域生活支援センターどんぐり","province":"東京都","city":"清瀬市","address":"東京都清瀬市元町1丁目13-24","lat":35.77437316,"lon":139.5181228},{"name":"社会福祉法人東京アフターケア協会汽車の家作業所","province":"東京都","city":"清瀬市","address":"東京都清瀬市松山2丁目18-2","lat":35.77407026,"lon":139.51148455},{"name":"社会福祉法人東京アフターケア協会清瀬作業所","province":"東京都","city":"清瀬市","address":"東京都清瀬市松山2丁目18-2","lat":35.77407026,"lon":139.51148455},{"name":"社会福祉法人東京アフターケア協会セルプ清瀬","province":"東京都","city":"清瀬市","address":"東京都清瀬市松山2丁目18-2","lat":35.77407026,"lon":139.51148455},{"name":"慈生会ナザレットの家","province":"東京都","city":"清瀬市","address":"清瀬市梅園3-14-23","lat":35.770518,"lon":139.501347},{"name":"日本社会事業大学附属　子ども学園","province":"東京都","city":"清瀬市","address":"清瀬市梅園1-2-50","lat":35.773956,"lon":139.50729},{"name":"救世軍清瀬病院","province":"東京都","city":"清瀬市","address":"清瀬市竹丘1-17-9","lat":35.770235,"lon":139.507249},{"name":"清瀬リハビリテーション病院","province":"東京都","city":"清瀬市","address":"清瀬市竹丘3-3-33","lat":35.767971,"lon":139.502652},{"name":"信愛病院","province":"東京都","city":"清瀬市","address":"清瀬市梅園2-5-9","lat":35.77382,"lon":139.503152},{"name":"ベトレヘムの園病院","province":"東京都","city":"清瀬市","address":"清瀬市梅園3-14-72","lat":35.772012,"lon":139.501658},{"name":"清瀬市社会福祉協議会","province":"東京都","city":"清瀬市","address":"清瀬市下清戸1-212-4清瀬市コミュニティプラザ2階","lat":35.778162,"lon":139.538732},{"name":"慈生会ナザレットの家","province":"東京都","city":"清瀬市","address":"清瀬市梅園3-14-23","lat":35.77177,"lon":139.50096},{"name":"あすなろ荘","province":"東京都","city":"清瀬市","address":"東京都清瀬市","lat":35.78534142,"lon":139.52677749},{"name":"救世軍自省館","province":"東京都","city":"清瀬市","address":"清瀬市竹丘1-17-60","lat":35.76948,"lon":139.50812},{"name":"清瀬市社会福祉協議会","province":"東京都","city":"清瀬市","address":"清瀬市下清戸1-212-4清瀬市コミュニティプラザ2階","lat":35.77874,"lon":139.53719},{"name":"救世軍自省館","province":"東京都","city":"清瀬市","address":"清瀬市竹丘1-17-60","lat":35.769099,"lon":139.507385},{"name":"清瀬市障害者福祉センター","province":"東京都","city":"清瀬市","address":"東京都清瀬市上清戸1丁目16-62","lat":35.77325963,"lon":139.52768577},{"name":"社会福祉法人椎の木会地域生活支援センターどんぐり","province":"東京都","city":"清瀬市","address":"東京都清瀬市元町1丁目13-24","lat":35.77437316,"lon":139.5181228},{"name":"社会福祉法人東京アフターケア協会汽車の家作業所","province":"東京都","city":"清瀬市","address":"東京都清瀬市松山2丁目18-2","lat":35.77407026,"lon":139.51148455},{"name":"社会福祉法人東京アフターケア協会清瀬作業所","province":"東京都","city":"清瀬市","address":"東京都清瀬市松山2丁目18-2","lat":35.77407026,"lon":139.51148455},{"name":"社会福祉法人東京アフターケア協会セルプ清瀬","province":"東京都","city":"清瀬市","address":"東京都清瀬市松山2丁目18-2","lat":35.77407026,"lon":139.51148455},{"name":"慈生会ナザレットの家","province":"東京都","city":"清瀬市","address":"清瀬市梅園3-14-23","lat":35.770518,"lon":139.501347},{"name":"日本社会事業大学附属　子ども学園","province":"東京都","city":"清瀬市","address":"清瀬市梅園1-2-50","lat":35.773956,"lon":139.50729},{"name":"救世軍清瀬病院","province":"東京都","city":"清瀬市","address":"清瀬市竹丘1-17-9","lat":35.770235,"lon":139.507249},{"name":"清瀬リハビリテーション病院","province":"東京都","city":"清瀬市","address":"清瀬市竹丘3-3-33","lat":35.767971,"lon":139.502652},{"name":"信愛病院","province":"東京都","city":"清瀬市","address":"清瀬市梅園2-5-9","lat":35.77382,"lon":139.503152},{"name":"ベトレヘムの園病院","province":"東京都","city":"清瀬市","address":"清瀬市梅園3-14-72","lat":35.772012,"lon":139.501658},{"name":"清瀬市社会福祉協議会","province":"東京都","city":"清瀬市","address":"清瀬市下清戸1-212-4清瀬市コミュニティプラザ2階","lat":35.778162,"lon":139.538732},{"name":"慈生会ナザレットの家","province":"東京都","city":"清瀬市","address":"清瀬市梅園3-14-23","lat":35.77177,"lon":139.50096},{"name":"あすなろ荘","province":"東京都","city":"清瀬市","address":"東京都清瀬市","lat":35.78534142,"lon":139.52677749},{"name":"救世軍自省館","province":"東京都","city":"清瀬市","address":"清瀬市竹丘1-17-60","lat":35.76948,"lon":139.50812},{"name":"清瀬市社会福祉協議会","province":"東京都","city":"清瀬市","address":"清瀬市下清戸1-212-4清瀬市コミュニティプラザ2階","lat":35.77874,"lon":139.53719},{"name":"救世軍自省館","province":"東京都","city":"清瀬市","address":"清瀬市竹丘1-17-60","lat":35.769099,"lon":139.507385},{"name":"清瀬市障害者福祉センター","province":"東京都","city":"清瀬市","address":"東京都清瀬市上清戸1丁目16-62","lat":35.77325963,"lon":139.52768577},{"name":"社会福祉法人椎の木会地域生活支援センターどんぐり","province":"東京都","city":"清瀬市","address":"東京都清瀬市元町1丁目13-24","lat":35.77437316,"lon":139.5181228},{"name":"社会福祉法人東京アフターケア協会汽車の家作業所","province":"東京都","city":"清瀬市","address":"東京都清瀬市松山2丁目18-2","lat":35.77407026,"lon":139.51148455},{"name":"社会福祉法人東京アフターケア協会清瀬作業所","province":"東京都","city":"清瀬市","address":"東京都清瀬市松山2丁目18-2","lat":35.77407026,"lon":139.51148455},{"name":"社会福祉法人東京アフターケア協会セルプ清瀬","province":"東京都","city":"清瀬市","address":"東京都清瀬市松山2丁目18-2","lat":35.77407026,"lon":139.51148455},{"name":"慈生会ナザレットの家","province":"東京都","city":"清瀬市","address":"清瀬市梅園3-14-23","lat":35.770518,"lon":139.501347},{"name":"日本社会事業大学附属　子ども学園","province":"東京都","city":"清瀬市","address":"清瀬市梅園1-2-50","lat":35.773956,"lon":139.50729},{"name":"救世軍清瀬病院","province":"東京都","city":"清瀬市","address":"清瀬市竹丘1-17-9","lat":35.770235,"lon":139.507249},{"name":"清瀬リハビリテーション病院","province":"東京都","city":"清瀬市","address":"清瀬市竹丘3-3-33","lat":35.767971,"lon":139.502652},{"name":"信愛病院","province":"東京都","city":"清瀬市","address":"清瀬市梅園2-5-9","lat":35.77382,"lon":139.503152},{"name":"ベトレヘムの園病院","province":"東京都","city":"清瀬市","address":"清瀬市梅園3-14-72","lat":35.772012,"lon":139.501658},{"name":"清瀬市社会福祉協議会","province":"東京都","city":"清瀬市","address":"清瀬市下清戸1-212-4清瀬市コミュニティプラザ2階","lat":35.778162,"lon":139.538732},{"name":"慈生会ナザレットの家","province":"東京都","city":"清瀬市","address":"清瀬市梅園3-14-23","lat":35.77177,"lon":139.50096},{"name":"あすなろ荘","province":"東京都","city":"清瀬市","address":"東京都清瀬市","lat":35.78534142,"lon":139.52677749},{"name":"救世軍自省館","province":"東京都","city":"清瀬市","address":"清瀬市竹丘1-17-60","lat":35.76948,"lon":139.50812},{"name":"清瀬市社会福祉協議会","province":"東京都","city":"清瀬市","address":"清瀬市下清戸1-212-4清瀬市コミュニティプラザ2階","lat":35.77874,"lon":139.53719},{"name":"救世軍自省館","province":"東京都","city":"清瀬市","address":"清瀬市竹丘1-17-60","lat":35.769099,"lon":139.507385},{"name":"清瀬市障害者福祉センター","province":"東京都","city":"清瀬市","address":"東京都清瀬市上清戸1丁目16-62","lat":35.77325963,"lon":139.52768577},{"name":"社会福祉法人椎の木会地域生活支援センターどんぐり","province":"東京都","city":"清瀬市","address":"東京都清瀬市元町1丁目13-24","lat":35.77437316,"lon":139.5181228},{"name":"社会福祉法人東京アフターケア協会汽車の家作業所","province":"東京都","city":"清瀬市","address":"東京都清瀬市松山2丁目18-2","lat":35.77407026,"lon":139.51148455},{"name":"社会福祉法人東京アフターケア協会清瀬作業所","province":"東京都","city":"清瀬市","address":"東京都清瀬市松山2丁目18-2","lat":35.77407026,"lon":139.51148455},{"name":"社会福祉法人東京アフターケア協会セルプ清瀬","province":"東京都","city":"清瀬市","address":"東京都清瀬市松山2丁目18-2","lat":35.77407026,"lon":139.51148455},{"name":"慈生会ナザレットの家","province":"東京都","city":"清瀬市","address":"清瀬市梅園3-14-23","lat":35.770518,"lon":139.501347},{"name":"日本社会事業大学附属　子ども学園","province":"東京都","city":"清瀬市","address":"清瀬市梅園1-2-50","lat":35.773956,"lon":139.50729},{"name":"救世軍清瀬病院","province":"東京都","city":"清瀬市","address":"清瀬市竹丘1-17-9","lat":35.770235,"lon":139.507249},{"name":"清瀬リハビリテーション病院","province":"東京都","city":"清瀬市","address":"清瀬市竹丘3-3-33","lat":35.767971,"lon":139.502652},{"name":"信愛病院","province":"東京都","city":"清瀬市","address":"清瀬市梅園2-5-9","lat":35.77382,"lon":139.503152},{"name":"ベトレヘムの園病院","province":"東京都","city":"清瀬市","address":"清瀬市梅園3-14-72","lat":35.772012,"lon":139.501658},{"name":"清瀬市社会福祉協議会","province":"東京都","city":"清瀬市","address":"清瀬市下清戸1-212-4清瀬市コミュニティプラザ2階","lat":35.778162,"lon":139.538732},{"name":"慈生会ナザレットの家","province":"東京都","city":"清瀬市","address":"清瀬市梅園3-14-23","lat":35.77177,"lon":139.50096},{"name":"あすなろ荘","province":"東京都","city":"清瀬市","address":"東京都清瀬市","lat":35.78534142,"lon":139.52677749},{"name":"救世軍自省館","province":"東京都","city":"清瀬市","address":"清瀬市竹丘1-17-60","lat":35.76948,"lon":139.50812},{"name":"清瀬市社会福祉協議会","province":"東京都","city":"清瀬市","address":"清瀬市下清戸1-212-4清瀬市コミュニティプラザ2階","lat":35.77874,"lon":139.53719},{"name":"救世軍自省館","province":"東京都","city":"清瀬市","address":"清瀬市竹丘1-17-60","lat":35.769099,"lon":139.507385},{"name":"清瀬市障害者福祉センター","province":"東京都","city":"清瀬市","address":"東京都清瀬市上清戸1丁目16-62","lat":35.77325963,"lon":139.52768577},{"name":"社会福祉法人椎の木会地域生活支援センターどんぐり","province":"東京都","city":"清瀬市","address":"東京都清瀬市元町1丁目13-24","lat":35.77437316,"lon":139.5181228},{"name":"社会福祉法人東京アフターケア協会汽車の家作業所","province":"東京都","city":"清瀬市","address":"東京都清瀬市松山2丁目18-2","lat":35.77407026,"lon":139.51148455},{"name":"社会福祉法人東京アフターケア協会清瀬作業所","province":"東京都","city":"清瀬市","address":"東京都清瀬市松山2丁目18-2","lat":35.77407026,"lon":139.51148455},{"name":"社会福祉法人東京アフターケア協会セルプ清瀬","province":"東京都","city":"清瀬市","address":"東京都清瀬市松山2丁目18-2","lat":35.77407026,"lon":139.51148455},{"name":"慈生会ナザレットの家","province":"東京都","city":"清瀬市","address":"清瀬市梅園3-14-23","lat":35.770518,"lon":139.501347},{"name":"日本社会事業大学附属　子ども学園","province":"東京都","city":"清瀬市","address":"清瀬市梅園1-2-50","lat":35.773956,"lon":139.50729},{"name":"救世軍清瀬病院","province":"東京都","city":"清瀬市","address":"清瀬市竹丘1-17-9","lat":35.770235,"lon":139.507249},{"name":"清瀬リハビリテーション病院","province":"東京都","city":"清瀬市","address":"清瀬市竹丘3-3-33","lat":35.767971,"lon":139.502652},{"name":"信愛病院","province":"東京都","city":"清瀬市","address":"清瀬市梅園2-5-9","lat":35.77382,"lon":139.503152},{"name":"ベトレヘムの園病院","province":"東京都","city":"清瀬市","address":"清瀬市梅園3-14-72","lat":35.772012,"lon":139.501658},{"name":"清瀬市社会福祉協議会","province":"東京都","city":"清瀬市","address":"清瀬市下清戸1-212-4清瀬市コミュニティプラザ2階","lat":35.778162,"lon":139.538732},{"name":"慈生会ナザレットの家","province":"東京都","city":"清瀬市","address":"清瀬市梅園3-14-23","lat":35.77177,"lon":139.50096},{"name":"あすなろ荘","province":"東京都","city":"清瀬市","address":"東京都清瀬市","lat":35.78534142,"lon":139.52677749},{"name":"救世軍自省館","province":"東京都","city":"清瀬市","address":"清瀬市竹丘1-17-60","lat":35.76948,"lon":139.50812},{"name":"清瀬市社会福祉協議会","province":"東京都","city":"清瀬市","address":"清瀬市下清戸1-212-4清瀬市コミュニティプラザ2階","lat":35.77874,"lon":139.53719},{"name":"救世軍自省館","province":"東京都","city":"清瀬市","address":"清瀬市竹丘1-17-60","lat":35.769099,"lon":139.507385},{"name":"清瀬市障害者福祉センター","province":"東京都","city":"清瀬市","address":"東京都清瀬市上清戸1丁目16-62","lat":35.77325963,"lon":139.52768577},{"name":"社会福祉法人椎の木会地域生活支援センターどんぐり","province":"東京都","city":"清瀬市","address":"東京都清瀬市元町1丁目13-24","lat":35.77437316,"lon":139.5181228},{"name":"社会福祉法人東京アフターケア協会汽車の家作業所","province":"東京都","city":"清瀬市","address":"東京都清瀬市松山2丁目18-2","lat":35.77407026,"lon":139.51148455},{"name":"社会福祉法人東京アフターケア協会清瀬作業所","province":"東京都","city":"清瀬市","address":"東京都清瀬市松山2丁目18-2","lat":35.77407026,"lon":139.51148455},{"name":"社会福祉法人東京アフターケア協会セルプ清瀬","province":"東京都","city":"清瀬市","address":"東京都清瀬市松山2丁目18-2","lat":35.77407026,"lon":139.51148455},{"name":"慈生会ナザレットの家","province":"東京都","city":"清瀬市","address":"清瀬市梅園3-14-23","lat":35.770518,"lon":139.501347},{"name":"日本社会事業大学附属　子ども学園","province":"東京都","city":"清瀬市","address":"清瀬市梅園1-2-50","lat":35.773956,"lon":139.50729},{"name":"救世軍清瀬病院","province":"東京都","city":"清瀬市","address":"清瀬市竹丘1-17-9","lat":35.770235,"lon":139.507249},{"name":"清瀬リハビリテーション病院","province":"東京都","city":"清瀬市","address":"清瀬市竹丘3-3-33","lat":35.767971,"lon":139.502652},{"name":"信愛病院","province":"東京都","city":"清瀬市","address":"清瀬市梅園2-5-9","lat":35.77382,"lon":139.503152},{"name":"ベトレヘムの園病院","province":"東京都","city":"清瀬市","address":"清瀬市梅園3-14-72","lat":35.772012,"lon":139.501658},{"name":"清瀬市社会福祉協議会","province":"東京都","city":"清瀬市","address":"清瀬市下清戸1-212-4清瀬市コミュニティプラザ2階","lat":35.778162,"lon":139.538732},{"name":"慈生会ナザレットの家","province":"東京都","city":"清瀬市","address":"清瀬市梅園3-14-23","lat":35.77177,"lon":139.50096},{"name":"あすなろ荘","province":"東京都","city":"清瀬市","address":"東京都清瀬市","lat":35.78534142,"lon":139.52677749},{"name":"救世軍自省館","province":"東京都","city":"清瀬市","address":"清瀬市竹丘1-17-60","lat":35.76948,"lon":139.50812},{"name":"清瀬市社会福祉協議会","province":"東京都","city":"清瀬市","address":"清瀬市下清戸1-212-4清瀬市コミュニティプラザ2階","lat":35.77874,"lon":139.53719},{"name":"救世軍自省館","province":"東京都","city":"清瀬市","address":"清瀬市竹丘1-17-60","lat":35.769099,"lon":139.507385},{"name":"清瀬市障害者福祉センター","province":"東京都","city":"清瀬市","address":"東京都清瀬市上清戸1丁目16-62","lat":35.77325963,"lon":139.52768577},{"name":"社会福祉法人椎の木会地域生活支援センターどんぐり","province":"東京都","city":"清瀬市","address":"東京都清瀬市元町1丁目13-24","lat":35.77437316,"lon":139.5181228},{"name":"社会福祉法人東京アフターケア協会汽車の家作業所","province":"東京都","city":"清瀬市","address":"東京都清瀬市松山2丁目18-2","lat":35.77407026,"lon":139.51148455},{"name":"社会福祉法人東京アフターケア協会清瀬作業所","province":"東京都","city":"清瀬市","address":"東京都清瀬市松山2丁目18-2","lat":35.77407026,"lon":139.51148455},{"name":"社会福祉法人東京アフターケア協会セルプ清瀬","province":"東京都","city":"清瀬市","address":"東京都清瀬市松山2丁目18-2","lat":35.77407026,"lon":139.51148455},{"name":"慈生会ナザレットの家","province":"東京都","city":"清瀬市","address":"清瀬市梅園3-14-23","lat":35.770518,"lon":139.501347},{"name":"日本社会事業大学附属　子ども学園","province":"東京都","city":"清瀬市","address":"清瀬市梅園1-2-50","lat":35.773956,"lon":139.50729},{"name":"救世軍清瀬病院","province":"東京都","city":"清瀬市","address":"清瀬市竹丘1-17-9","lat":35.770235,"lon":139.507249},{"name":"清瀬リハビリテーション病院","province":"東京都","city":"清瀬市","address":"清瀬市竹丘3-3-33","lat":35.767971,"lon":139.502652},{"name":"信愛病院","province":"東京都","city":"清瀬市","address":"清瀬市梅園2-5-9","lat":35.77382,"lon":139.503152},{"name":"ベトレヘムの園病院","province":"東京都","city":"清瀬市","address":"清瀬市梅園3-14-72","lat":35.772012,"lon":139.501658},{"name":"清瀬市社会福祉協議会","province":"東京都","city":"清瀬市","address":"清瀬市下清戸1-212-4清瀬市コミュニティプラザ2階","lat":35.778162,"lon":139.538732},{"name":"慈生会ナザレットの家","province":"東京都","city":"清瀬市","address":"清瀬市梅園3-14-23","lat":35.77177,"lon":139.50096},{"name":"あすなろ荘","province":"東京都","city":"清瀬市","address":"東京都清瀬市","lat":35.78534142,"lon":139.52677749},{"name":"救世軍自省館","province":"東京都","city":"清瀬市","address":"清瀬市竹丘1-17-60","lat":35.76948,"lon":139.50812},{"name":"清瀬市社会福祉協議会","province":"東京都","city":"清瀬市","address":"清瀬市下清戸1-212-4清瀬市コミュニティプラザ2階","lat":35.77874,"lon":139.53719},{"name":"救世軍自省館","province":"東京都","city":"清瀬市","address":"清瀬市竹丘1-17-60","lat":35.769099,"lon":139.507385},{"name":"清瀬市障害者福祉センター","province":"東京都","city":"清瀬市","address":"東京都清瀬市上清戸1丁目16-62","lat":35.77325963,"lon":139.52768577},{"name":"社会福祉法人椎の木会地域生活支援センターどんぐり","province":"東京都","city":"清瀬市","address":"東京都清瀬市元町1丁目13-24","lat":35.77437316,"lon":139.5181228},{"name":"社会福祉法人東京アフターケア協会汽車の家作業所","province":"東京都","city":"清瀬市","address":"東京都清瀬市松山2丁目18-2","lat":35.77407026,"lon":139.51148455},{"name":"社会福祉法人東京アフターケア協会清瀬作業所","province":"東京都","city":"清瀬市","address":"東京都清瀬市松山2丁目18-2","lat":35.77407026,"lon":139.51148455},{"name":"社会福祉法人東京アフターケア協会セルプ清瀬","province":"東京都","city":"清瀬市","address":"東京都清瀬市松山2丁目18-2","lat":35.77407026,"lon":139.51148455},{"name":"慈生会ナザレットの家","province":"東京都","city":"清瀬市","address":"清瀬市梅園3-14-23","lat":35.770518,"lon":139.501347},{"name":"日本社会事業大学附属　子ども学園","province":"東京都","city":"清瀬市","address":"清瀬市梅園1-2-50","lat":35.773956,"lon":139.50729},{"name":"救世軍清瀬病院","province":"東京都","city":"清瀬市","address":"清瀬市竹丘1-17-9","lat":35.770235,"lon":139.507249},{"name":"清瀬リハビリテーション病院","province":"東京都","city":"清瀬市","address":"清瀬市竹丘3-3-33","lat":35.767971,"lon":139.502652},{"name":"信愛病院","province":"東京都","city":"清瀬市","address":"清瀬市梅園2-5-9","lat":35.77382,"lon":139.503152},{"name":"ベトレヘムの園病院","province":"東京都","city":"清瀬市","address":"清瀬市梅園3-14-72","lat":35.772012,"lon":139.501658},{"name":"清瀬市社会福祉協議会","province":"東京都","city":"清瀬市","address":"清瀬市下清戸1-212-4清瀬市コミュニティプラザ2階","lat":35.778162,"lon":139.538732},{"name":"慈生会ナザレットの家","province":"東京都","city":"清瀬市","address":"清瀬市梅園3-14-23","lat":35.77177,"lon":139.50096},{"name":"あすなろ荘","province":"東京都","city":"清瀬市","address":"東京都清瀬市","lat":35.78534142,"lon":139.52677749},{"name":"救世軍自省館","province":"東京都","city":"清瀬市","address":"清瀬市竹丘1-17-60","lat":35.76948,"lon":139.50812},{"name":"清瀬市社会福祉協議会","province":"東京都","city":"清瀬市","address":"清瀬市下清戸1-212-4清瀬市コミュニティプラザ2階","lat":35.77874,"lon":139.53719},{"name":"救世軍自省館","province":"東京都","city":"清瀬市","address":"清瀬市竹丘1-17-60","lat":35.769099,"lon":139.507385},{"name":"清瀬市障害者福祉センター","province":"東京都","city":"清瀬市","address":"東京都清瀬市上清戸1丁目16-62","lat":35.77325963,"lon":139.52768577},{"name":"社会福祉法人椎の木会地域生活支援センターどんぐり","province":"東京都","city":"清瀬市","address":"東京都清瀬市元町1丁目13-24","lat":35.77437316,"lon":139.5181228},{"name":"社会福祉法人東京アフターケア協会汽車の家作業所","province":"東京都","city":"清瀬市","address":"東京都清瀬市松山2丁目18-2","lat":35.77407026,"lon":139.51148455},{"name":"社会福祉法人東京アフターケア協会清瀬作業所","province":"東京都","city":"清瀬市","address":"東京都清瀬市松山2丁目18-2","lat":35.77407026,"lon":139.51148455},{"name":"社会福祉法人東京アフターケア協会セルプ清瀬","province":"東京都","city":"清瀬市","address":"東京都清瀬市松山2丁目18-2","lat":35.77407026,"lon":139.51148455},{"name":"慈生会ナザレットの家","province":"東京都","city":"清瀬市","address":"清瀬市梅園3-14-23","lat":35.770518,"lon":139.501347},{"name":"日本社会事業大学附属　子ども学園","province":"東京都","city":"清瀬市","address":"清瀬市梅園1-2-50","lat":35.773956,"lon":139.50729},{"name":"救世軍清瀬病院","province":"東京都","city":"清瀬市","address":"清瀬市竹丘1-17-9","lat":35.770235,"lon":139.507249},{"name":"清瀬リハビリテーション病院","province":"東京都","city":"清瀬市","address":"清瀬市竹丘3-3-33","lat":35.767971,"lon":139.502652},{"name":"信愛病院","province":"東京都","city":"清瀬市","address":"清瀬市梅園2-5-9","lat":35.77382,"lon":139.503152},{"name":"ベトレヘムの園病院","province":"東京都","city":"清瀬市","address":"清瀬市梅園3-14-72","lat":35.772012,"lon":139.501658},{"name":"清瀬市社会福祉協議会","province":"東京都","city":"清瀬市","address":"清瀬市下清戸1-212-4清瀬市コミュニティプラザ2階","lat":35.778162,"lon":139.538732},{"name":"慈生会ナザレットの家","province":"東京都","city":"清瀬市","address":"清瀬市梅園3-14-23","lat":35.77177,"lon":139.50096},{"name":"あすなろ荘","province":"東京都","city":"清瀬市","address":"東京都清瀬市","lat":35.78534142,"lon":139.52677749},{"name":"救世軍自省館","province":"東京都","city":"清瀬市","address":"清瀬市竹丘1-17-60","lat":35.76948,"lon":139.50812},{"name":"清瀬市社会福祉協議会","province":"東京都","city":"清瀬市","address":"清瀬市下清戸1-212-4清瀬市コミュニティプラザ2階","lat":35.77874,"lon":139.53719},{"name":"救世軍自省館","province":"東京都","city":"清瀬市","address":"清瀬市竹丘1-17-60","lat":35.769099,"lon":139.507385},{"name":"清瀬市障害者福祉センター","province":"東京都","city":"清瀬市","address":"東京都清瀬市上清戸1丁目16-62","lat":35.77325963,"lon":139.52768577},{"name":"社会福祉法人椎の木会地域生活支援センターどんぐり","province":"東京都","city":"清瀬市","address":"東京都清瀬市元町1丁目13-24","lat":35.77437316,"lon":139.5181228},{"name":"社会福祉法人東京アフターケア協会汽車の家作業所","province":"東京都","city":"清瀬市","address":"東京都清瀬市松山2丁目18-2","lat":35.77407026,"lon":139.51148455},{"name":"社会福祉法人東京アフターケア協会清瀬作業所","province":"東京都","city":"清瀬市","address":"東京都清瀬市松山2丁目18-2","lat":35.77407026,"lon":139.51148455},{"name":"社会福祉法人東京アフターケア協会セルプ清瀬","province":"東京都","city":"清瀬市","address":"東京都清瀬市松山2丁目18-2","lat":35.77407026,"lon":139.51148455},{"name":"慈生会ナザレットの家","province":"東京都","city":"清瀬市","address":"清瀬市梅園3-14-23","lat":35.770518,"lon":139.501347},{"name":"日本社会事業大学附属　子ども学園","province":"東京都","city":"清瀬市","address":"清瀬市梅園1-2-50","lat":35.773956,"lon":139.50729},{"name":"救世軍清瀬病院","province":"東京都","city":"清瀬市","address":"清瀬市竹丘1-17-9","lat":35.770235,"lon":139.507249},{"name":"清瀬リハビリテーション病院","province":"東京都","city":"清瀬市","address":"清瀬市竹丘3-3-33","lat":35.767971,"lon":139.502652},{"name":"信愛病院","province":"東京都","city":"清瀬市","address":"清瀬市梅園2-5-9","lat":35.77382,"lon":139.503152},{"name":"ベトレヘムの園病院","province":"東京都","city":"清瀬市","address":"清瀬市梅園3-14-72","lat":35.772012,"lon":139.501658},{"name":"清瀬市社会福祉協議会","province":"東京都","city":"清瀬市","address":"清瀬市下清戸1-212-4清瀬市コミュニティプラザ2階","lat":35.778162,"lon":139.538732},{"name":"慈生会ナザレットの家","province":"東京都","city":"清瀬市","address":"清瀬市梅園3-14-23","lat":35.77177,"lon":139.50096},{"name":"あすなろ荘","province":"東京都","city":"清瀬市","address":"東京都清瀬市","lat":35.78534142,"lon":139.52677749},{"name":"救世軍自省館","province":"東京都","city":"清瀬市","address":"清瀬市竹丘1-17-60","lat":35.76948,"lon":139.50812},{"name":"清瀬市社会福祉協議会","province":"東京都","city":"清瀬市","address":"清瀬市下清戸1-212-4清瀬市コミュニティプラザ2階","lat":35.77874,"lon":139.53719},{"name":"救世軍自省館","province":"東京都","city":"清瀬市","address":"清瀬市竹丘1-17-60","lat":35.769099,"lon":139.507385},{"name":"清瀬市障害者福祉センター","province":"東京都","city":"清瀬市","address":"東京都清瀬市上清戸1丁目16-62","lat":35.77325963,"lon":139.52768577},{"name":"社会福祉法人椎の木会地域生活支援センターどんぐり","province":"東京都","city":"清瀬市","address":"東京都清瀬市元町1丁目13-24","lat":35.77437316,"lon":139.5181228},{"name":"社会福祉法人東京アフターケア協会汽車の家作業所","province":"東京都","city":"清瀬市","address":"東京都清瀬市松山2丁目18-2","lat":35.77407026,"lon":139.51148455},{"name":"社会福祉法人東京アフターケア協会清瀬作業所","province":"東京都","city":"清瀬市","address":"東京都清瀬市松山2丁目18-2","lat":35.77407026,"lon":139.51148455},{"name":"社会福祉法人東京アフターケア協会セルプ清瀬","province":"東京都","city":"清瀬市","address":"東京都清瀬市松山2丁目18-2","lat":35.77407026,"lon":139.51148455},{"name":"慈生会ナザレットの家","province":"東京都","city":"清瀬市","address":"清瀬市梅園3-14-23","lat":35.770518,"lon":139.501347},{"name":"日本社会事業大学附属　子ども学園","province":"東京都","city":"清瀬市","address":"清瀬市梅園1-2-50","lat":35.773956,"lon":139.50729},{"name":"救世軍清瀬病院","province":"東京都","city":"清瀬市","address":"清瀬市竹丘1-17-9","lat":35.770235,"lon":139.507249},{"name":"清瀬リハビリテーション病院","province":"東京都","city":"清瀬市","address":"清瀬市竹丘3-3-33","lat":35.767971,"lon":139.502652},{"name":"信愛病院","province":"東京都","city":"清瀬市","address":"清瀬市梅園2-5-9","lat":35.77382,"lon":139.503152},{"name":"ベトレヘムの園病院","province":"東京都","city":"清瀬市","address":"清瀬市梅園3-14-72","lat":35.772012,"lon":139.501658},{"name":"清瀬市社会福祉協議会","province":"東京都","city":"清瀬市","address":"清瀬市下清戸1-212-4清瀬市コミュニティプラザ2階","lat":35.778162,"lon":139.538732},{"name":"慈生会ナザレットの家","province":"東京都","city":"清瀬市","address":"清瀬市梅園3-14-23","lat":35.77177,"lon":139.50096},{"name":"あすなろ荘","province":"東京都","city":"清瀬市","address":"東京都清瀬市","lat":35.78534142,"lon":139.52677749},{"name":"救世軍自省館","province":"東京都","city":"清瀬市","address":"清瀬市竹丘1-17-60","lat":35.76948,"lon":139.50812},{"name":"清瀬市社会福祉協議会","province":"東京都","city":"清瀬市","address":"清瀬市下清戸1-212-4清瀬市コミュニティプラザ2階","lat":35.77874,"lon":139.53719},{"name":"救世軍自省館","province":"東京都","city":"清瀬市","address":"清瀬市竹丘1-17-60","lat":35.769099,"lon":139.507385},{"name":"清瀬市障害者福祉センター","province":"東京都","city":"清瀬市","address":"東京都清瀬市上清戸1丁目16-62","lat":35.77325963,"lon":139.52768577},{"name":"社会福祉法人椎の木会地域生活支援センターどんぐり","province":"東京都","city":"清瀬市","address":"東京都清瀬市元町1丁目13-24","lat":35.77437316,"lon":139.5181228},{"name":"社会福祉法人東京アフターケア協会汽車の家作業所","province":"東京都","city":"清瀬市","address":"東京都清瀬市松山2丁目18-2","lat":35.77407026,"lon":139.51148455},{"name":"社会福祉法人東京アフターケア協会清瀬作業所","province":"東京都","city":"清瀬市","address":"東京都清瀬市松山2丁目18-2","lat":35.77407026,"lon":139.51148455},{"name":"社会福祉法人東京アフターケア協会セルプ清瀬","province":"東京都","city":"清瀬市","address":"東京都清瀬市松山2丁目18-2","lat":35.77407026,"lon":139.51148455},{"name":"慈生会ナザレットの家","province":"東京都","city":"清瀬市","address":"清瀬市梅園3-14-23","lat":35.770518,"lon":139.501347},{"name":"日本社会事業大学附属　子ども学園","province":"東京都","city":"清瀬市","address":"清瀬市梅園1-2-50","lat":35.773956,"lon":139.50729},{"name":"救世軍清瀬病院","province":"東京都","city":"清瀬市","address":"清瀬市竹丘1-17-9","lat":35.770235,"lon":139.507249},{"name":"清瀬リハビリテーション病院","province":"東京都","city":"清瀬市","address":"清瀬市竹丘3-3-33","lat":35.767971,"lon":139.502652},{"name":"信愛病院","province":"東京都","city":"清瀬市","address":"清瀬市梅園2-5-9","lat":35.77382,"lon":139.503152},{"name":"ベトレヘムの園病院","province":"東京都","city":"清瀬市","address":"清瀬市梅園3-14-72","lat":35.772012,"lon":139.501658},{"name":"清瀬市社会福祉協議会","province":"東京都","city":"清瀬市","address":"清瀬市下清戸1-212-4清瀬市コミュニティプラザ2階","lat":35.778162,"lon":139.538732},{"name":"慈生会ナザレットの家","province":"東京都","city":"清瀬市","address":"清瀬市梅園3-14-23","lat":35.77177,"lon":139.50096},{"name":"あすなろ荘","province":"東京都","city":"清瀬市","address":"東京都清瀬市","lat":35.78534142,"lon":139.52677749},{"name":"救世軍自省館","province":"東京都","city":"清瀬市","address":"清瀬市竹丘1-17-60","lat":35.76948,"lon":139.50812},{"name":"清瀬市社会福祉協議会","province":"東京都","city":"清瀬市","address":"清瀬市下清戸1-212-4清瀬市コミュニティプラザ2階","lat":35.77874,"lon":139.53719},{"name":"救世軍自省館","province":"東京都","city":"清瀬市","address":"清瀬市竹丘1-17-60","lat":35.769099,"lon":139.507385},{"name":"清瀬市障害者福祉センター","province":"東京都","city":"清瀬市","address":"東京都清瀬市上清戸1丁目16-62","lat":35.77325963,"lon":139.52768577},{"name":"社会福祉法人椎の木会地域生活支援センターどんぐり","province":"東京都","city":"清瀬市","address":"東京都清瀬市元町1丁目13-24","lat":35.77437316,"lon":139.5181228},{"name":"社会福祉法人東京アフターケア協会汽車の家作業所","province":"東京都","city":"清瀬市","address":"東京都清瀬市松山2丁目18-2","lat":35.77407026,"lon":139.51148455},{"name":"社会福祉法人東京アフターケア協会清瀬作業所","province":"東京都","city":"清瀬市","address":"東京都清瀬市松山2丁目18-2","lat":35.77407026,"lon":139.51148455},{"name":"社会福祉法人東京アフターケア協会セルプ清瀬","province":"東京都","city":"清瀬市","address":"東京都清瀬市松山2丁目18-2","lat":35.77407026,"lon":139.51148455},{"name":"慈生会ナザレットの家","province":"東京都","city":"清瀬市","address":"清瀬市梅園3-14-23","lat":35.770518,"lon":139.501347},{"name":"日本社会事業大学附属　子ども学園","province":"東京都","city":"清瀬市","address":"清瀬市梅園1-2-50","lat":35.773956,"lon":139.50729},{"name":"救世軍清瀬病院","province":"東京都","city":"清瀬市","address":"清瀬市竹丘1-17-9","lat":35.770235,"lon":139.507249},{"name":"清瀬リハビリテーション病院","province":"東京都","city":"清瀬市","address":"清瀬市竹丘3-3-33","lat":35.767971,"lon":139.502652},{"name":"信愛病院","province":"東京都","city":"清瀬市","address":"清瀬市梅園2-5-9","lat":35.77382,"lon":139.503152},{"name":"ベトレヘムの園病院","province":"東京都","city":"清瀬市","address":"清瀬市梅園3-14-72","lat":35.772012,"lon":139.501658},{"name":"清瀬市社会福祉協議会","province":"東京都","city":"清瀬市","address":"清瀬市下清戸1-212-4清瀬市コミュニティプラザ2階","lat":35.778162,"lon":139.538732},{"name":"慈生会ナザレットの家","province":"東京都","city":"清瀬市","address":"清瀬市梅園3-14-23","lat":35.77177,"lon":139.50096},{"name":"あすなろ荘","province":"東京都","city":"清瀬市","address":"東京都清瀬市","lat":35.78534142,"lon":139.52677749},{"name":"救世軍自省館","province":"東京都","city":"清瀬市","address":"清瀬市竹丘1-17-60","lat":35.76948,"lon":139.50812},{"name":"清瀬市社会福祉協議会","province":"東京都","city":"清瀬市","address":"清瀬市下清戸1-212-4清瀬市コミュニティプラザ2階","lat":35.77874,"lon":139.53719},{"name":"救世軍自省館","province":"東京都","city":"清瀬市","address":"清瀬市竹丘1-17-60","lat":35.769099,"lon":139.507385},{"name":"清瀬市障害者福祉センター","province":"東京都","city":"清瀬市","address":"東京都清瀬市上清戸1丁目16-62","lat":35.77325963,"lon":139.52768577},{"name":"社会福祉法人椎の木会地域生活支援センターどんぐり","province":"東京都","city":"清瀬市","address":"東京都清瀬市元町1丁目13-24","lat":35.77437316,"lon":139.5181228},{"name":"社会福祉法人東京アフターケア協会汽車の家作業所","province":"東京都","city":"清瀬市","address":"東京都清瀬市松山2丁目18-2","lat":35.77407026,"lon":139.51148455},{"name":"社会福祉法人東京アフターケア協会清瀬作業所","province":"東京都","city":"清瀬市","address":"東京都清瀬市松山2丁目18-2","lat":35.77407026,"lon":139.51148455},{"name":"社会福祉法人東京アフターケア協会セルプ清瀬","province":"東京都","city":"清瀬市","address":"東京都清瀬市松山2丁目18-2","lat":35.77407026,"lon":139.51148455},{"name":"慈生会ナザレットの家","province":"東京都","city":"清瀬市","address":"清瀬市梅園3-14-23","lat":35.770518,"lon":139.501347},{"name":"日本社会事業大学附属　子ども学園","province":"東京都","city":"清瀬市","address":"清瀬市梅園1-2-50","lat":35.773956,"lon":139.50729},{"name":"救世軍清瀬病院","province":"東京都","city":"清瀬市","address":"清瀬市竹丘1-17-9","lat":35.770235,"lon":139.507249},{"name":"清瀬リハビリテーション病院","province":"東京都","city":"清瀬市","address":"清瀬市竹丘3-3-33","lat":35.767971,"lon":139.502652},{"name":"信愛病院","province":"東京都","city":"清瀬市","address":"清瀬市梅園2-5-9","lat":35.77382,"lon":139.503152},{"name":"ベトレヘムの園病院","province":"東京都","city":"清瀬市","address":"清瀬市梅園3-14-72","lat":35.772012,"lon":139.501658},{"name":"清瀬市社会福祉協議会","province":"東京都","city":"清瀬市","address":"清瀬市下清戸1-212-4清瀬市コミュニティプラザ2階","lat":35.778162,"lon":139.538732},{"name":"慈生会ナザレットの家","province":"東京都","city":"清瀬市","address":"清瀬市梅園3-14-23","lat":35.77177,"lon":139.50096},{"name":"あすなろ荘","province":"東京都","city":"清瀬市","address":"東京都清瀬市","lat":35.78534142,"lon":139.52677749},{"name":"救世軍自省館","province":"東京都","city":"清瀬市","address":"清瀬市竹丘1-17-60","lat":35.76948,"lon":139.50812},{"name":"清瀬市社会福祉協議会","province":"東京都","city":"清瀬市","address":"清瀬市下清戸1-212-4清瀬市コミュニティプラザ2階","lat":35.77874,"lon":139.53719},{"name":"救世軍自省館","province":"東京都","city":"清瀬市","address":"清瀬市竹丘1-17-60","lat":35.769099,"lon":139.507385},{"name":"清瀬市障害者福祉センター","province":"東京都","city":"清瀬市","address":"東京都清瀬市上清戸1丁目16-62","lat":35.77325963,"lon":139.52768577},{"name":"社会福祉法人椎の木会地域生活支援センターどんぐり","province":"東京都","city":"清瀬市","address":"東京都清瀬市元町1丁目13-24","lat":35.77437316,"lon":139.5181228},{"name":"社会福祉法人東京アフターケア協会汽車の家作業所","province":"東京都","city":"清瀬市","address":"東京都清瀬市松山2丁目18-2","lat":35.77407026,"lon":139.51148455},{"name":"社会福祉法人東京アフターケア協会清瀬作業所","province":"東京都","city":"清瀬市","address":"東京都清瀬市松山2丁目18-2","lat":35.77407026,"lon":139.51148455},{"name":"社会福祉法人東京アフターケア協会セルプ清瀬","province":"東京都","city":"清瀬市","address":"東京都清瀬市松山2丁目18-2","lat":35.77407026,"lon":139.51148455},{"name":"慈生会ナザレットの家","province":"東京都","city":"清瀬市","address":"清瀬市梅園3-14-23","lat":35.770518,"lon":139.501347},{"name":"日本社会事業大学附属　子ども学園","province":"東京都","city":"清瀬市","address":"清瀬市梅園1-2-50","lat":35.773956,"lon":139.50729},{"name":"救世軍清瀬病院","province":"東京都","city":"清瀬市","address":"清瀬市竹丘1-17-9","lat":35.770235,"lon":139.507249},{"name":"清瀬リハビリテーション病院","province":"東京都","city":"清瀬市","address":"清瀬市竹丘3-3-33","lat":35.767971,"lon":139.502652},{"name":"信愛病院","province":"東京都","city":"清瀬市","address":"清瀬市梅園2-5-9","lat":35.77382,"lon":139.503152},{"name":"ベトレヘムの園病院","province":"東京都","city":"清瀬市","address":"清瀬市梅園3-14-72","lat":35.772012,"lon":139.501658},{"name":"清瀬市社会福祉協議会","province":"東京都","city":"清瀬市","address":"清瀬市下清戸1-212-4清瀬市コミュニティプラザ2階","lat":35.778162,"lon":139.538732},{"name":"慈生会ナザレットの家","province":"東京都","city":"清瀬市","address":"清瀬市梅園3-14-23","lat":35.77177,"lon":139.50096},{"name":"あすなろ荘","province":"東京都","city":"清瀬市","address":"東京都清瀬市","lat":35.78534142,"lon":139.52677749},{"name":"救世軍自省館","province":"東京都","city":"清瀬市","address":"清瀬市竹丘1-17-60","lat":35.76948,"lon":139.50812},{"name":"清瀬市社会福祉協議会","province":"東京都","city":"清瀬市","address":"清瀬市下清戸1-212-4清瀬市コミュニティプラザ2階","lat":35.77874,"lon":139.53719},{"name":"救世軍自省館","province":"東京都","city":"清瀬市","address":"清瀬市竹丘1-17-60","lat":35.769099,"lon":139.507385},{"name":"清瀬市障害者福祉センター","province":"東京都","city":"清瀬市","address":"東京都清瀬市上清戸1丁目16-62","lat":35.77325963,"lon":139.52768577},{"name":"社会福祉法人椎の木会地域生活支援センターどんぐり","province":"東京都","city":"清瀬市","address":"東京都清瀬市元町1丁目13-24","lat":35.77437316,"lon":139.5181228},{"name":"社会福祉法人東京アフターケア協会汽車の家作業所","province":"東京都","city":"清瀬市","address":"東京都清瀬市松山2丁目18-2","lat":35.77407026,"lon":139.51148455},{"name":"社会福祉法人東京アフターケア協会清瀬作業所","province":"東京都","city":"清瀬市","address":"東京都清瀬市松山2丁目18-2","lat":35.77407026,"lon":139.51148455},{"name":"社会福祉法人東京アフターケア協会セルプ清瀬","province":"東京都","city":"清瀬市","address":"東京都清瀬市松山2丁目18-2","lat":35.77407026,"lon":139.51148455},{"name":"慈生会ナザレットの家","province":"東京都","city":"清瀬市","address":"清瀬市梅園3-14-23","lat":35.770518,"lon":139.501347},{"name":"日本社会事業大学附属　子ども学園","province":"東京都","city":"清瀬市","address":"清瀬市梅園1-2-50","lat":35.773956,"lon":139.50729},{"name":"救世軍清瀬病院","province":"東京都","city":"清瀬市","address":"清瀬市竹丘1-17-9","lat":35.770235,"lon":139.507249},{"name":"清瀬リハビリテーション病院","province":"東京都","city":"清瀬市","address":"清瀬市竹丘3-3-33","lat":35.767971,"lon":139.502652},{"name":"信愛病院","province":"東京都","city":"清瀬市","address":"清瀬市梅園2-5-9","lat":35.77382,"lon":139.503152},{"name":"ベトレヘムの園病院","province":"東京都","city":"清瀬市","address":"清瀬市梅園3-14-72","lat":35.772012,"lon":139.501658},{"name":"清瀬市社会福祉協議会","province":"東京都","city":"清瀬市","address":"清瀬市下清戸1-212-4清瀬市コミュニティプラザ2階","lat":35.778162,"lon":139.538732},{"name":"慈生会ナザレットの家","province":"東京都","city":"清瀬市","address":"清瀬市梅園3-14-23","lat":35.77177,"lon":139.50096},{"name":"あすなろ荘","province":"東京都","city":"清瀬市","address":"東京都清瀬市","lat":35.78534142,"lon":139.52677749},{"name":"救世軍自省館","province":"東京都","city":"清瀬市","address":"清瀬市竹丘1-17-60","lat":35.76948,"lon":139.50812},{"name":"清瀬市社会福祉協議会","province":"東京都","city":"清瀬市","address":"清瀬市下清戸1-212-4清瀬市コミュニティプラザ2階","lat":35.77874,"lon":139.53719},{"name":"救世軍自省館","province":"東京都","city":"清瀬市","address":"清瀬市竹丘1-17-60","lat":35.769099,"lon":139.507385},{"name":"清瀬市障害者福祉センター","province":"東京都","city":"清瀬市","address":"東京都清瀬市上清戸1丁目16-62","lat":35.77325963,"lon":139.52768577},{"name":"社会福祉法人椎の木会地域生活支援センターどんぐり","province":"東京都","city":"清瀬市","address":"東京都清瀬市元町1丁目13-24","lat":35.77437316,"lon":139.5181228},{"name":"社会福祉法人東京アフターケア協会汽車の家作業所","province":"東京都","city":"清瀬市","address":"東京都清瀬市松山2丁目18-2","lat":35.77407026,"lon":139.51148455},{"name":"社会福祉法人東京アフターケア協会清瀬作業所","province":"東京都","city":"清瀬市","address":"東京都清瀬市松山2丁目18-2","lat":35.77407026,"lon":139.51148455},{"name":"社会福祉法人東京アフターケア協会セルプ清瀬","province":"東京都","city":"清瀬市","address":"東京都清瀬市松山2丁目18-2","lat":35.77407026,"lon":139.51148455},{"name":"慈生会ナザレットの家","province":"東京都","city":"清瀬市","address":"清瀬市梅園3-14-23","lat":35.770518,"lon":139.501347},{"name":"日本社会事業大学附属　子ども学園","province":"東京都","city":"清瀬市","address":"清瀬市梅園1-2-50","lat":35.773956,"lon":139.50729},{"name":"救世軍清瀬病院","province":"東京都","city":"清瀬市","address":"清瀬市竹丘1-17-9","lat":35.770235,"lon":139.507249},{"name":"清瀬リハビリテーション病院","province":"東京都","city":"清瀬市","address":"清瀬市竹丘3-3-33","lat":35.767971,"lon":139.502652},{"name":"信愛病院","province":"東京都","city":"清瀬市","address":"清瀬市梅園2-5-9","lat":35.77382,"lon":139.503152},{"name":"ベトレヘムの園病院","province":"東京都","city":"清瀬市","address":"清瀬市梅園3-14-72","lat":35.772012,"lon":139.501658},{"name":"清瀬市社会福祉協議会","province":"東京都","city":"清瀬市","address":"清瀬市下清戸1-212-4清瀬市コミュニティプラザ2階","lat":35.778162,"lon":139.538732},{"name":"慈生会ナザレットの家","province":"東京都","city":"清瀬市","address":"清瀬市梅園3-14-23","lat":35.77177,"lon":139.50096},{"name":"あすなろ荘","province":"東京都","city":"清瀬市","address":"東京都清瀬市","lat":35.78534142,"lon":139.52677749},{"name":"救世軍自省館","province":"東京都","city":"清瀬市","address":"清瀬市竹丘1-17-60","lat":35.76948,"lon":139.50812},{"name":"清瀬市社会福祉協議会","province":"東京都","city":"清瀬市","address":"清瀬市下清戸1-212-4清瀬市コミュニティプラザ2階","lat":35.77874,"lon":139.53719},{"name":"救世軍自省館","province":"東京都","city":"清瀬市","address":"清瀬市竹丘1-17-60","lat":35.769099,"lon":139.507385},{"name":"清瀬市障害者福祉センター","province":"東京都","city":"清瀬市","address":"東京都清瀬市上清戸1丁目16-62","lat":35.77325963,"lon":139.52768577},{"name":"社会福祉法人椎の木会地域生活支援センターどんぐり","province":"東京都","city":"清瀬市","address":"東京都清瀬市元町1丁目13-24","lat":35.77437316,"lon":139.5181228},{"name":"社会福祉法人東京アフターケア協会汽車の家作業所","province":"東京都","city":"清瀬市","address":"東京都清瀬市松山2丁目18-2","lat":35.77407026,"lon":139.51148455},{"name":"社会福祉法人東京アフターケア協会清瀬作業所","province":"東京都","city":"清瀬市","address":"東京都清瀬市松山2丁目18-2","lat":35.77407026,"lon":139.51148455},{"name":"社会福祉法人東京アフターケア協会セルプ清瀬","province":"東京都","city":"清瀬市","address":"東京都清瀬市松山2丁目18-2","lat":35.77407026,"lon":139.51148455},{"name":"慈生会ナザレットの家","province":"東京都","city":"清瀬市","address":"清瀬市梅園3-14-23","lat":35.770518,"lon":139.501347},{"name":"日本社会事業大学附属　子ども学園","province":"東京都","city":"清瀬市","address":"清瀬市梅園1-2-50","lat":35.773956,"lon":139.50729},{"name":"救世軍清瀬病院","province":"東京都","city":"清瀬市","address":"清瀬市竹丘1-17-9","lat":35.770235,"lon":139.507249},{"name":"清瀬リハビリテーション病院","province":"東京都","city":"清瀬市","address":"清瀬市竹丘3-3-33","lat":35.767971,"lon":139.502652},{"name":"信愛病院","province":"東京都","city":"清瀬市","address":"清瀬市梅園2-5-9","lat":35.77382,"lon":139.503152},{"name":"ベトレヘムの園病院","province":"東京都","city":"清瀬市","address":"清瀬市梅園3-14-72","lat":35.772012,"lon":139.501658},{"name":"清瀬市社会福祉協議会","province":"東京都","city":"清瀬市","address":"清瀬市下清戸1-212-4清瀬市コミュニティプラザ2階","lat":35.778162,"lon":139.538732},{"name":"慈生会ナザレットの家","province":"東京都","city":"清瀬市","address":"清瀬市梅園3-14-23","lat":35.77177,"lon":139.50096},{"name":"あすなろ荘","province":"東京都","city":"清瀬市","address":"東京都清瀬市","lat":35.78534142,"lon":139.52677749},{"name":"救世軍自省館","province":"東京都","city":"清瀬市","address":"清瀬市竹丘1-17-60","lat":35.76948,"lon":139.50812},{"name":"清瀬市社会福祉協議会","province":"東京都","city":"清瀬市","address":"清瀬市下清戸1-212-4清瀬市コミュニティプラザ2階","lat":35.77874,"lon":139.53719},{"name":"救世軍自省館","province":"東京都","city":"清瀬市","address":"清瀬市竹丘1-17-60","lat":35.769099,"lon":139.507385},{"name":"慈生会ナザレットの家","province":"東京都","city":"清瀬市","address":"清瀬市梅園3-14-23","lat":35.770518,"lon":139.501347},{"name":"日本社会事業大学附属　子ども学園","province":"東京都","city":"清瀬市","address":"清瀬市梅園1-2-50","lat":35.773956,"lon":139.50729},{"name":"救世軍清瀬病院","province":"東京都","city":"清瀬市","address":"清瀬市竹丘1-17-9","lat":35.770235,"lon":139.507249},{"name":"清瀬リハビリテーション病院","province":"東京都","city":"清瀬市","address":"清瀬市竹丘3-3-33","lat":35.767971,"lon":139.502652},{"name":"信愛病院","province":"東京都","city":"清瀬市","address":"清瀬市梅園2-5-9","lat":35.77382,"lon":139.503152},{"name":"ベトレヘムの園病院","province":"東京都","city":"清瀬市","address":"清瀬市梅園3-14-72","lat":35.772012,"lon":139.501658},{"name":"清瀬市社会福祉協議会","province":"東京都","city":"清瀬市","address":"清瀬市下清戸1-212-4清瀬市コミュニティプラザ2階","lat":35.778162,"lon":139.538732},{"name":"慈生会ナザレットの家","province":"東京都","city":"清瀬市","address":"清瀬市梅園3-14-23","lat":35.77177,"lon":139.50096},{"name":"あすなろ荘","province":"東京都","city":"清瀬市","address":"東京都清瀬市","lat":35.78534142,"lon":139.52677749},{"name":"救世軍自省館","province":"東京都","city":"清瀬市","address":"清瀬市竹丘1-17-60","lat":35.76948,"lon":139.50812},{"name":"清瀬市社会福祉協議会","province":"東京都","city":"清瀬市","address":"清瀬市下清戸1-212-4清瀬市コミュニティプラザ2階","lat":35.77874,"lon":139.53719},{"name":"救世軍自省館","province":"東京都","city":"清瀬市","address":"清瀬市竹丘1-17-60","lat":35.769099,"lon":139.507385},{"name":"慈生会ナザレットの家","province":"東京都","city":"清瀬市","address":"清瀬市梅園3-14-23","lat":35.770518,"lon":139.501347},{"name":"日本社会事業大学附属　子ども学園","province":"東京都","city":"清瀬市","address":"清瀬市梅園1-2-50","lat":35.773956,"lon":139.50729},{"name":"救世軍清瀬病院","province":"東京都","city":"清瀬市","address":"清瀬市竹丘1-17-9","lat":35.770235,"lon":139.507249},{"name":"清瀬リハビリテーション病院","province":"東京都","city":"清瀬市","address":"清瀬市竹丘3-3-33","lat":35.767971,"lon":139.502652},{"name":"信愛病院","province":"東京都","city":"清瀬市","address":"清瀬市梅園2-5-9","lat":35.77382,"lon":139.503152},{"name":"ベトレヘムの園病院","province":"東京都","city":"清瀬市","address":"清瀬市梅園3-14-72","lat":35.772012,"lon":139.501658},{"name":"清瀬市社会福祉協議会","province":"東京都","city":"清瀬市","address":"清瀬市下清戸1-212-4清瀬市コミュニティプラザ2階","lat":35.778162,"lon":139.538732},{"name":"慈生会ナザレットの家","province":"東京都","city":"清瀬市","address":"清瀬市梅園3-14-23","lat":35.77177,"lon":139.50096},{"name":"あすなろ荘","province":"東京都","city":"清瀬市","address":"東京都清瀬市","lat":35.78534142,"lon":139.52677749},{"name":"救世軍自省館","province":"東京都","city":"清瀬市","address":"清瀬市竹丘1-17-60","lat":35.76948,"lon":139.50812},{"name":"清瀬市社会福祉協議会","province":"東京都","city":"清瀬市","address":"清瀬市下清戸1-212-4清瀬市コミュニティプラザ2階","lat":35.77874,"lon":139.53719},{"name":"救世軍自省館","province":"東京都","city":"清瀬市","address":"清瀬市竹丘1-17-60","lat":35.769099,"lon":139.507385},{"name":"慈生会ナザレットの家","province":"東京都","city":"清瀬市","address":"清瀬市梅園3-14-23","lat":35.770518,"lon":139.501347},{"name":"日本社会事業大学附属　子ども学園","province":"東京都","city":"清瀬市","address":"清瀬市梅園1-2-50","lat":35.773956,"lon":139.50729},{"name":"救世軍清瀬病院","province":"東京都","city":"清瀬市","address":"清瀬市竹丘1-17-9","lat":35.770235,"lon":139.507249},{"name":"清瀬リハビリテーション病院","province":"東京都","city":"清瀬市","address":"清瀬市竹丘3-3-33","lat":35.767971,"lon":139.502652},{"name":"信愛病院","province":"東京都","city":"清瀬市","address":"清瀬市梅園2-5-9","lat":35.77382,"lon":139.503152},{"name":"ベトレヘムの園病院","province":"東京都","city":"清瀬市","address":"清瀬市梅園3-14-72","lat":35.772012,"lon":139.501658},{"name":"清瀬市社会福祉協議会","province":"東京都","city":"清瀬市","address":"清瀬市下清戸1-212-4清瀬市コミュニティプラザ2階","lat":35.778162,"lon":139.538732},{"name":"慈生会ナザレットの家","province":"東京都","city":"清瀬市","address":"清瀬市梅園3-14-23","lat":35.77177,"lon":139.50096},{"name":"あすなろ荘","province":"東京都","city":"清瀬市","address":"東京都清瀬市","lat":35.78534142,"lon":139.52677749},{"name":"救世軍自省館","province":"東京都","city":"清瀬市","address":"清瀬市竹丘1-17-60","lat":35.76948,"lon":139.50812},{"name":"清瀬市社会福祉協議会","province":"東京都","city":"清瀬市","address":"清瀬市下清戸1-212-4清瀬市コミュニティプラザ2階","lat":35.77874,"lon":139.53719},{"name":"救世軍自省館","province":"東京都","city":"清瀬市","address":"清瀬市竹丘1-17-60","lat":35.769099,"lon":139.507385},{"name":"慈生会ナザレットの家","province":"東京都","city":"清瀬市","address":"清瀬市梅園3-14-23","lat":35.770518,"lon":139.501347},{"name":"日本社会事業大学附属　子ども学園","province":"東京都","city":"清瀬市","address":"清瀬市梅園1-2-50","lat":35.773956,"lon":139.50729},{"name":"救世軍清瀬病院","province":"東京都","city":"清瀬市","address":"清瀬市竹丘1-17-9","lat":35.770235,"lon":139.507249},{"name":"清瀬リハビリテーション病院","province":"東京都","city":"清瀬市","address":"清瀬市竹丘3-3-33","lat":35.767971,"lon":139.502652},{"name":"信愛病院","province":"東京都","city":"清瀬市","address":"清瀬市梅園2-5-9","lat":35.77382,"lon":139.503152},{"name":"ベトレヘムの園病院","province":"東京都","city":"清瀬市","address":"清瀬市梅園3-14-72","lat":35.772012,"lon":139.501658},{"name":"清瀬市社会福祉協議会","province":"東京都","city":"清瀬市","address":"清瀬市下清戸1-212-4清瀬市コミュニティプラザ2階","lat":35.778162,"lon":139.538732},{"name":"慈生会ナザレットの家","province":"東京都","city":"清瀬市","address":"清瀬市梅園3-14-23","lat":35.77177,"lon":139.50096},{"name":"あすなろ荘","province":"東京都","city":"清瀬市","address":"東京都清瀬市","lat":35.78534142,"lon":139.52677749},{"name":"救世軍自省館","province":"東京都","city":"清瀬市","address":"清瀬市竹丘1-17-60","lat":35.76948,"lon":139.50812},{"name":"清瀬市社会福祉協議会","province":"東京都","city":"清瀬市","address":"清瀬市下清戸1-212-4清瀬市コミュニティプラザ2階","lat":35.77874,"lon":139.53719},{"name":"救世軍自省館","province":"東京都","city":"清瀬市","address":"清瀬市竹丘1-17-60","lat":35.769099,"lon":139.507385},{"name":"慈生会ナザレットの家","province":"東京都","city":"清瀬市","address":"清瀬市梅園3-14-23","lat":35.770518,"lon":139.501347},{"name":"日本社会事業大学附属　子ども学園","province":"東京都","city":"清瀬市","address":"清瀬市梅園1-2-50","lat":35.773956,"lon":139.50729},{"name":"救世軍清瀬病院","province":"東京都","city":"清瀬市","address":"清瀬市竹丘1-17-9","lat":35.770235,"lon":139.507249},{"name":"清瀬リハビリテーション病院","province":"東京都","city":"清瀬市","address":"清瀬市竹丘3-3-33","lat":35.767971,"lon":139.502652},{"name":"信愛病院","province":"東京都","city":"清瀬市","address":"清瀬市梅園2-5-9","lat":35.77382,"lon":139.503152},{"name":"ベトレヘムの園病院","province":"東京都","city":"清瀬市","address":"清瀬市梅園3-14-72","lat":35.772012,"lon":139.501658},{"name":"清瀬市社会福祉協議会","province":"東京都","city":"清瀬市","address":"清瀬市下清戸1-212-4清瀬市コミュニティプラザ2階","lat":35.778162,"lon":139.538732},{"name":"慈生会ナザレットの家","province":"東京都","city":"清瀬市","address":"清瀬市梅園3-14-23","lat":35.77177,"lon":139.50096},{"name":"あすなろ荘","province":"東京都","city":"清瀬市","address":"東京都清瀬市","lat":35.78534142,"lon":139.52677749},{"name":"救世軍自省館","province":"東京都","city":"清瀬市","address":"清瀬市竹丘1-17-60","lat":35.76948,"lon":139.50812},{"name":"清瀬市社会福祉協議会","province":"東京都","city":"清瀬市","address":"清瀬市下清戸1-212-4清瀬市コミュニティプラザ2階","lat":35.77874,"lon":139.53719},{"name":"救世軍自省館","province":"東京都","city":"清瀬市","address":"清瀬市竹丘1-17-60","lat":35.769099,"lon":139.507385},{"name":"慈生会ナザレットの家","province":"東京都","city":"清瀬市","address":"清瀬市梅園3-14-23","lat":35.770518,"lon":139.501347},{"name":"日本社会事業大学附属　子ども学園","province":"東京都","city":"清瀬市","address":"清瀬市梅園1-2-50","lat":35.773956,"lon":139.50729},{"name":"救世軍清瀬病院","province":"東京都","city":"清瀬市","address":"清瀬市竹丘1-17-9","lat":35.770235,"lon":139.507249},{"name":"清瀬リハビリテーション病院","province":"東京都","city":"清瀬市","address":"清瀬市竹丘3-3-33","lat":35.767971,"lon":139.502652},{"name":"信愛病院","province":"東京都","city":"清瀬市","address":"清瀬市梅園2-5-9","lat":35.77382,"lon":139.503152},{"name":"ベトレヘムの園病院","province":"東京都","city":"清瀬市","address":"清瀬市梅園3-14-72","lat":35.772012,"lon":139.501658},{"name":"清瀬市社会福祉協議会","province":"東京都","city":"清瀬市","address":"清瀬市下清戸1-212-4清瀬市コミュニティプラザ2階","lat":35.778162,"lon":139.538732},{"name":"慈生会ナザレットの家","province":"東京都","city":"清瀬市","address":"清瀬市梅園3-14-23","lat":35.77177,"lon":139.50096},{"name":"あすなろ荘","province":"東京都","city":"清瀬市","address":"東京都清瀬市","lat":35.78534142,"lon":139.52677749},{"name":"救世軍自省館","province":"東京都","city":"清瀬市","address":"清瀬市竹丘1-17-60","lat":35.76948,"lon":139.50812},{"name":"清瀬市社会福祉協議会","province":"東京都","city":"清瀬市","address":"清瀬市下清戸1-212-4清瀬市コミュニティプラザ2階","lat":35.77874,"lon":139.53719},{"name":"救世軍自省館","province":"東京都","city":"清瀬市","address":"清瀬市竹丘1-17-60","lat":35.769099,"lon":139.507385},{"name":"慈生会ナザレットの家","province":"東京都","city":"清瀬市","address":"清瀬市梅園3-14-23","lat":35.770518,"lon":139.501347},{"name":"日本社会事業大学附属　子ども学園","province":"東京都","city":"清瀬市","address":"清瀬市梅園1-2-50","lat":35.773956,"lon":139.50729},{"name":"救世軍清瀬病院","province":"東京都","city":"清瀬市","address":"清瀬市竹丘1-17-9","lat":35.770235,"lon":139.507249},{"name":"清瀬リハビリテーション病院","province":"東京都","city":"清瀬市","address":"清瀬市竹丘3-3-33","lat":35.767971,"lon":139.502652},{"name":"信愛病院","province":"東京都","city":"清瀬市","address":"清瀬市梅園2-5-9","lat":35.77382,"lon":139.503152},{"name":"ベトレヘムの園病院","province":"東京都","city":"清瀬市","address":"清瀬市梅園3-14-72","lat":35.772012,"lon":139.501658},{"name":"清瀬市社会福祉協議会","province":"東京都","city":"清瀬市","address":"清瀬市下清戸1-212-4清瀬市コミュニティプラザ2階","lat":35.778162,"lon":139.538732},{"name":"慈生会ナザレットの家","province":"東京都","city":"清瀬市","address":"清瀬市梅園3-14-23","lat":35.77177,"lon":139.50096},{"name":"あすなろ荘","province":"東京都","city":"清瀬市","address":"東京都清瀬市","lat":35.78534142,"lon":139.52677749},{"name":"救世軍自省館","province":"東京都","city":"清瀬市","address":"清瀬市竹丘1-17-60","lat":35.76948,"lon":139.50812},{"name":"清瀬市社会福祉協議会","province":"東京都","city":"清瀬市","address":"清瀬市下清戸1-212-4清瀬市コミュニティプラザ2階","lat":35.77874,"lon":139.53719},{"name":"救世軍自省館","province":"東京都","city":"清瀬市","address":"清瀬市竹丘1-17-60","lat":35.769099,"lon":139.507385},{"name":"慈生会ナザレットの家","province":"東京都","city":"清瀬市","address":"清瀬市梅園3-14-23","lat":35.770518,"lon":139.501347},{"name":"日本社会事業大学附属　子ども学園","province":"東京都","city":"清瀬市","address":"清瀬市梅園1-2-50","lat":35.773956,"lon":139.50729},{"name":"救世軍清瀬病院","province":"東京都","city":"清瀬市","address":"清瀬市竹丘1-17-9","lat":35.770235,"lon":139.507249},{"name":"清瀬リハビリテーション病院","province":"東京都","city":"清瀬市","address":"清瀬市竹丘3-3-33","lat":35.767971,"lon":139.502652},{"name":"信愛病院","province":"東京都","city":"清瀬市","address":"清瀬市梅園2-5-9","lat":35.77382,"lon":139.503152},{"name":"ベトレヘムの園病院","province":"東京都","city":"清瀬市","address":"清瀬市梅園3-14-72","lat":35.772012,"lon":139.501658},{"name":"清瀬市社会福祉協議会","province":"東京都","city":"清瀬市","address":"清瀬市下清戸1-212-4清瀬市コミュニティプラザ2階","lat":35.778162,"lon":139.538732},{"name":"慈生会ナザレットの家","province":"東京都","city":"清瀬市","address":"清瀬市梅園3-14-23","lat":35.77177,"lon":139.50096},{"name":"あすなろ荘","province":"東京都","city":"清瀬市","address":"東京都清瀬市","lat":35.78534142,"lon":139.52677749},{"name":"救世軍自省館","province":"東京都","city":"清瀬市","address":"清瀬市竹丘1-17-60","lat":35.76948,"lon":139.50812},{"name":"清瀬市社会福祉協議会","province":"東京都","city":"清瀬市","address":"清瀬市下清戸1-212-4清瀬市コミュニティプラザ2階","lat":35.77874,"lon":139.53719},{"name":"救世軍自省館","province":"東京都","city":"清瀬市","address":"清瀬市竹丘1-17-60","lat":35.769099,"lon":139.507385},{"name":"慈生会ナザレットの家","province":"東京都","city":"清瀬市","address":"清瀬市梅園3-14-23","lat":35.770518,"lon":139.501347},{"name":"日本社会事業大学附属　子ども学園","province":"東京都","city":"清瀬市","address":"清瀬市梅園1-2-50","lat":35.773956,"lon":139.50729},{"name":"救世軍清瀬病院","province":"東京都","city":"清瀬市","address":"清瀬市竹丘1-17-9","lat":35.770235,"lon":139.507249},{"name":"清瀬リハビリテーション病院","province":"東京都","city":"清瀬市","address":"清瀬市竹丘3-3-33","lat":35.767971,"lon":139.502652},{"name":"信愛病院","province":"東京都","city":"清瀬市","address":"清瀬市梅園2-5-9","lat":35.77382,"lon":139.503152},{"name":"ベトレヘムの園病院","province":"東京都","city":"清瀬市","address":"清瀬市梅園3-14-72","lat":35.772012,"lon":139.501658},{"name":"清瀬市社会福祉協議会","province":"東京都","city":"清瀬市","address":"清瀬市下清戸1-212-4清瀬市コミュニティプラザ2階","lat":35.778162,"lon":139.538732},{"name":"慈生会ナザレットの家","province":"東京都","city":"清瀬市","address":"清瀬市梅園3-14-23","lat":35.77177,"lon":139.50096},{"name":"あすなろ荘","province":"東京都","city":"清瀬市","address":"東京都清瀬市","lat":35.78534142,"lon":139.52677749},{"name":"救世軍自省館","province":"東京都","city":"清瀬市","address":"清瀬市竹丘1-17-60","lat":35.76948,"lon":139.50812},{"name":"清瀬市社会福祉協議会","province":"東京都","city":"清瀬市","address":"清瀬市下清戸1-212-4清瀬市コミュニティプラザ2階","lat":35.77874,"lon":139.53719},{"name":"救世軍自省館","province":"東京都","city":"清瀬市","address":"清瀬市竹丘1-17-60","lat":35.769099,"lon":139.507385},{"name":"慈生会ナザレットの家","province":"東京都","city":"清瀬市","address":"清瀬市梅園3-14-23","lat":35.770518,"lon":139.501347},{"name":"日本社会事業大学附属　子ども学園","province":"東京都","city":"清瀬市","address":"清瀬市梅園1-2-50","lat":35.773956,"lon":139.50729},{"name":"救世軍清瀬病院","province":"東京都","city":"清瀬市","address":"清瀬市竹丘1-17-9","lat":35.770235,"lon":139.507249},{"name":"清瀬リハビリテーション病院","province":"東京都","city":"清瀬市","address":"清瀬市竹丘3-3-33","lat":35.767971,"lon":139.502652},{"name":"信愛病院","province":"東京都","city":"清瀬市","address":"清瀬市梅園2-5-9","lat":35.77382,"lon":139.503152},{"name":"ベトレヘムの園病院","province":"東京都","city":"清瀬市","address":"清瀬市梅園3-14-72","lat":35.772012,"lon":139.501658},{"name":"清瀬市社会福祉協議会","province":"東京都","city":"清瀬市","address":"清瀬市下清戸1-212-4清瀬市コミュニティプラザ2階","lat":35.778162,"lon":139.538732},{"name":"慈生会ナザレットの家","province":"東京都","city":"清瀬市","address":"清瀬市梅園3-14-23","lat":35.77177,"lon":139.50096},{"name":"あすなろ荘","province":"東京都","city":"清瀬市","address":"東京都清瀬市","lat":35.78534142,"lon":139.52677749},{"name":"救世軍自省館","province":"東京都","city":"清瀬市","address":"清瀬市竹丘1-17-60","lat":35.76948,"lon":139.50812},{"name":"清瀬市社会福祉協議会","province":"東京都","city":"清瀬市","address":"清瀬市下清戸1-212-4清瀬市コミュニティプラザ2階","lat":35.77874,"lon":139.53719},{"name":"救世軍自省館","province":"東京都","city":"清瀬市","address":"清瀬市竹丘1-17-60","lat":35.769099,"lon":139.507385},{"name":"慈生会ナザレットの家","province":"東京都","city":"清瀬市","address":"清瀬市梅園3-14-23","lat":35.770518,"lon":139.501347},{"name":"日本社会事業大学附属　子ども学園","province":"東京都","city":"清瀬市","address":"清瀬市梅園1-2-50","lat":35.773956,"lon":139.50729},{"name":"救世軍清瀬病院","province":"東京都","city":"清瀬市","address":"清瀬市竹丘1-17-9","lat":35.770235,"lon":139.507249},{"name":"清瀬リハビリテーション病院","province":"東京都","city":"清瀬市","address":"清瀬市竹丘3-3-33","lat":35.767971,"lon":139.502652},{"name":"信愛病院","province":"東京都","city":"清瀬市","address":"清瀬市梅園2-5-9","lat":35.77382,"lon":139.503152},{"name":"ベトレヘムの園病院","province":"東京都","city":"清瀬市","address":"清瀬市梅園3-14-72","lat":35.772012,"lon":139.501658},{"name":"清瀬市社会福祉協議会","province":"東京都","city":"清瀬市","address":"清瀬市下清戸1-212-4清瀬市コミュニティプラザ2階","lat":35.778162,"lon":139.538732},{"name":"慈生会ナザレットの家","province":"東京都","city":"清瀬市","address":"清瀬市梅園3-14-23","lat":35.77177,"lon":139.50096},{"name":"あすなろ荘","province":"東京都","city":"清瀬市","address":"東京都清瀬市","lat":35.78534142,"lon":139.52677749},{"name":"救世軍自省館","province":"東京都","city":"清瀬市","address":"清瀬市竹丘1-17-60","lat":35.76948,"lon":139.50812},{"name":"清瀬市社会福祉協議会","province":"東京都","city":"清瀬市","address":"清瀬市下清戸1-212-4清瀬市コミュニティプラザ2階","lat":35.77874,"lon":139.53719},{"name":"救世軍自省館","province":"東京都","city":"清瀬市","address":"清瀬市竹丘1-17-60","lat":35.769099,"lon":139.507385},{"name":"慈生会ナザレットの家","province":"東京都","city":"清瀬市","address":"清瀬市梅園3-14-23","lat":35.770518,"lon":139.501347},{"name":"日本社会事業大学附属　子ども学園","province":"東京都","city":"清瀬市","address":"清瀬市梅園1-2-50","lat":35.773956,"lon":139.50729},{"name":"救世軍清瀬病院","province":"東京都","city":"清瀬市","address":"清瀬市竹丘1-17-9","lat":35.770235,"lon":139.507249},{"name":"清瀬リハビリテーション病院","province":"東京都","city":"清瀬市","address":"清瀬市竹丘3-3-33","lat":35.767971,"lon":139.502652},{"name":"信愛病院","province":"東京都","city":"清瀬市","address":"清瀬市梅園2-5-9","lat":35.77382,"lon":139.503152},{"name":"ベトレヘムの園病院","province":"東京都","city":"清瀬市","address":"清瀬市梅園3-14-72","lat":35.772012,"lon":139.501658},{"name":"清瀬市社会福祉協議会","province":"東京都","city":"清瀬市","address":"清瀬市下清戸1-212-4清瀬市コミュニティプラザ2階","lat":35.778162,"lon":139.538732},{"name":"慈生会ナザレットの家","province":"東京都","city":"清瀬市","address":"清瀬市梅園3-14-23","lat":35.77177,"lon":139.50096},{"name":"あすなろ荘","province":"東京都","city":"清瀬市","address":"東京都清瀬市","lat":35.78534142,"lon":139.52677749},{"name":"救世軍自省館","province":"東京都","city":"清瀬市","address":"清瀬市竹丘1-17-60","lat":35.76948,"lon":139.50812},{"name":"清瀬市社会福祉協議会","province":"東京都","city":"清瀬市","address":"清瀬市下清戸1-212-4清瀬市コミュニティプラザ2階","lat":35.77874,"lon":139.53719},{"name":"救世軍自省館","province":"東京都","city":"清瀬市","address":"清瀬市竹丘1-17-60","lat":35.769099,"lon":139.507385},{"name":"慈生会ナザレットの家","province":"東京都","city":"清瀬市","address":"清瀬市梅園3-14-23","lat":35.770518,"lon":139.501347},{"name":"日本社会事業大学附属　子ども学園","province":"東京都","city":"清瀬市","address":"清瀬市梅園1-2-50","lat":35.773956,"lon":139.50729},{"name":"救世軍清瀬病院","province":"東京都","city":"清瀬市","address":"清瀬市竹丘1-17-9","lat":35.770235,"lon":139.507249},{"name":"清瀬リハビリテーション病院","province":"東京都","city":"清瀬市","address":"清瀬市竹丘3-3-33","lat":35.767971,"lon":139.502652},{"name":"信愛病院","province":"東京都","city":"清瀬市","address":"清瀬市梅園2-5-9","lat":35.77382,"lon":139.503152},{"name":"ベトレヘムの園病院","province":"東京都","city":"清瀬市","address":"清瀬市梅園3-14-72","lat":35.772012,"lon":139.501658},{"name":"清瀬市社会福祉協議会","province":"東京都","city":"清瀬市","address":"清瀬市下清戸1-212-4清瀬市コミュニティプラザ2階","lat":35.778162,"lon":139.538732},{"name":"慈生会ナザレットの家","province":"東京都","city":"清瀬市","address":"清瀬市梅園3-14-23","lat":35.77177,"lon":139.50096},{"name":"あすなろ荘","province":"東京都","city":"清瀬市","address":"東京都清瀬市","lat":35.78534142,"lon":139.52677749},{"name":"救世軍自省館","province":"東京都","city":"清瀬市","address":"清瀬市竹丘1-17-60","lat":35.76948,"lon":139.50812},{"name":"清瀬市社会福祉協議会","province":"東京都","city":"清瀬市","address":"清瀬市下清戸1-212-4清瀬市コミュニティプラザ2階","lat":35.77874,"lon":139.53719},{"name":"救世軍自省館","province":"東京都","city":"清瀬市","address":"清瀬市竹丘1-17-60","lat":35.769099,"lon":139.507385},{"name":"慈生会ナザレットの家","province":"東京都","city":"清瀬市","address":"清瀬市梅園3-14-23","lat":35.770518,"lon":139.501347},{"name":"日本社会事業大学附属　子ども学園","province":"東京都","city":"清瀬市","address":"清瀬市梅園1-2-50","lat":35.773956,"lon":139.50729},{"name":"救世軍清瀬病院","province":"東京都","city":"清瀬市","address":"清瀬市竹丘1-17-9","lat":35.770235,"lon":139.507249},{"name":"清瀬リハビリテーション病院","province":"東京都","city":"清瀬市","address":"清瀬市竹丘3-3-33","lat":35.767971,"lon":139.502652},{"name":"信愛病院","province":"東京都","city":"清瀬市","address":"清瀬市梅園2-5-9","lat":35.77382,"lon":139.503152},{"name":"ベトレヘムの園病院","province":"東京都","city":"清瀬市","address":"清瀬市梅園3-14-72","lat":35.772012,"lon":139.501658},{"name":"清瀬市社会福祉協議会","province":"東京都","city":"清瀬市","address":"清瀬市下清戸1-212-4清瀬市コミュニティプラザ2階","lat":35.778162,"lon":139.538732},{"name":"慈生会ナザレットの家","province":"東京都","city":"清瀬市","address":"清瀬市梅園3-14-23","lat":35.77177,"lon":139.50096},{"name":"あすなろ荘","province":"東京都","city":"清瀬市","address":"東京都清瀬市","lat":35.78534142,"lon":139.52677749},{"name":"救世軍自省館","province":"東京都","city":"清瀬市","address":"清瀬市竹丘1-17-60","lat":35.76948,"lon":139.50812},{"name":"清瀬市社会福祉協議会","province":"東京都","city":"清瀬市","address":"清瀬市下清戸1-212-4清瀬市コミュニティプラザ2階","lat":35.77874,"lon":139.53719},{"name":"救世軍自省館","province":"東京都","city":"清瀬市","address":"清瀬市竹丘1-17-60","lat":35.769099,"lon":139.507385},{"name":"慈生会ナザレットの家","province":"東京都","city":"清瀬市","address":"清瀬市梅園3-14-23","lat":35.770518,"lon":139.501347},{"name":"日本社会事業大学附属　子ども学園","province":"東京都","city":"清瀬市","address":"清瀬市梅園1-2-50","lat":35.773956,"lon":139.50729},{"name":"救世軍清瀬病院","province":"東京都","city":"清瀬市","address":"清瀬市竹丘1-17-9","lat":35.770235,"lon":139.507249},{"name":"清瀬リハビリテーション病院","province":"東京都","city":"清瀬市","address":"清瀬市竹丘3-3-33","lat":35.767971,"lon":139.502652},{"name":"信愛病院","province":"東京都","city":"清瀬市","address":"清瀬市梅園2-5-9","lat":35.77382,"lon":139.503152},{"name":"ベトレヘムの園病院","province":"東京都","city":"清瀬市","address":"清瀬市梅園3-14-72","lat":35.772012,"lon":139.501658},{"name":"清瀬市社会福祉協議会","province":"東京都","city":"清瀬市","address":"清瀬市下清戸1-212-4清瀬市コミュニティプラザ2階","lat":35.778162,"lon":139.538732},{"name":"慈生会ナザレットの家","province":"東京都","city":"清瀬市","address":"清瀬市梅園3-14-23","lat":35.77177,"lon":139.50096},{"name":"あすなろ荘","province":"東京都","city":"清瀬市","address":"東京都清瀬市","lat":35.78534142,"lon":139.52677749},{"name":"救世軍自省館","province":"東京都","city":"清瀬市","address":"清瀬市竹丘1-17-60","lat":35.76948,"lon":139.50812},{"name":"清瀬市社会福祉協議会","province":"東京都","city":"清瀬市","address":"清瀬市下清戸1-212-4清瀬市コミュニティプラザ2階","lat":35.77874,"lon":139.53719},{"name":"救世軍自省館","province":"東京都","city":"清瀬市","address":"清瀬市竹丘1-17-60","lat":35.769099,"lon":139.507385},{"name":"慈生会ナザレットの家","province":"東京都","city":"清瀬市","address":"清瀬市梅園3-14-23","lat":35.770518,"lon":139.501347},{"name":"日本社会事業大学附属　子ども学園","province":"東京都","city":"清瀬市","address":"清瀬市梅園1-2-50","lat":35.773956,"lon":139.50729},{"name":"救世軍清瀬病院","province":"東京都","city":"清瀬市","address":"清瀬市竹丘1-17-9","lat":35.770235,"lon":139.507249},{"name":"清瀬リハビリテーション病院","province":"東京都","city":"清瀬市","address":"清瀬市竹丘3-3-33","lat":35.767971,"lon":139.502652},{"name":"信愛病院","province":"東京都","city":"清瀬市","address":"清瀬市梅園2-5-9","lat":35.77382,"lon":139.503152},{"name":"ベトレヘムの園病院","province":"東京都","city":"清瀬市","address":"清瀬市梅園3-14-72","lat":35.772012,"lon":139.501658},{"name":"清瀬市社会福祉協議会","province":"東京都","city":"清瀬市","address":"清瀬市下清戸1-212-4清瀬市コミュニティプラザ2階","lat":35.778162,"lon":139.538732},{"name":"慈生会ナザレットの家","province":"東京都","city":"清瀬市","address":"清瀬市梅園3-14-23","lat":35.77177,"lon":139.50096},{"name":"あすなろ荘","province":"東京都","city":"清瀬市","address":"東京都清瀬市","lat":35.78534142,"lon":139.52677749},{"name":"救世軍自省館","province":"東京都","city":"清瀬市","address":"清瀬市竹丘1-17-60","lat":35.76948,"lon":139.50812},{"name":"清瀬市社会福祉協議会","province":"東京都","city":"清瀬市","address":"清瀬市下清戸1-212-4清瀬市コミュニティプラザ2階","lat":35.77874,"lon":139.53719},{"name":"救世軍自省館","province":"東京都","city":"清瀬市","address":"清瀬市竹丘1-17-60","lat":35.769099,"lon":139.507385},{"name":"慈生会ナザレットの家","province":"東京都","city":"清瀬市","address":"清瀬市梅園3-14-23","lat":35.770518,"lon":139.501347},{"name":"日本社会事業大学附属　子ども学園","province":"東京都","city":"清瀬市","address":"清瀬市梅園1-2-50","lat":35.773956,"lon":139.50729},{"name":"救世軍清瀬病院","province":"東京都","city":"清瀬市","address":"清瀬市竹丘1-17-9","lat":35.770235,"lon":139.507249},{"name":"清瀬リハビリテーション病院","province":"東京都","city":"清瀬市","address":"清瀬市竹丘3-3-33","lat":35.767971,"lon":139.502652},{"name":"信愛病院","province":"東京都","city":"清瀬市","address":"清瀬市梅園2-5-9","lat":35.77382,"lon":139.503152},{"name":"ベトレヘムの園病院","province":"東京都","city":"清瀬市","address":"清瀬市梅園3-14-72","lat":35.772012,"lon":139.501658},{"name":"清瀬市社会福祉協議会","province":"東京都","city":"清瀬市","address":"清瀬市下清戸1-212-4清瀬市コミュニティプラザ2階","lat":35.778162,"lon":139.538732},{"name":"慈生会ナザレットの家","province":"東京都","city":"清瀬市","address":"清瀬市梅園3-14-23","lat":35.77177,"lon":139.50096},{"name":"あすなろ荘","province":"東京都","city":"清瀬市","address":"東京都清瀬市","lat":35.78534142,"lon":139.52677749},{"name":"救世軍自省館","province":"東京都","city":"清瀬市","address":"清瀬市竹丘1-17-60","lat":35.76948,"lon":139.50812},{"name":"清瀬市社会福祉協議会","province":"東京都","city":"清瀬市","address":"清瀬市下清戸1-212-4清瀬市コミュニティプラザ2階","lat":35.77874,"lon":139.53719},{"name":"救世軍自省館","province":"東京都","city":"清瀬市","address":"清瀬市竹丘1-17-60","lat":35.769099,"lon":139.507385},{"name":"慈生会ナザレットの家","province":"東京都","city":"清瀬市","address":"清瀬市梅園3-14-23","lat":35.770518,"lon":139.501347},{"name":"日本社会事業大学附属　子ども学園","province":"東京都","city":"清瀬市","address":"清瀬市梅園1-2-50","lat":35.773956,"lon":139.50729},{"name":"救世軍清瀬病院","province":"東京都","city":"清瀬市","address":"清瀬市竹丘1-17-9","lat":35.770235,"lon":139.507249},{"name":"清瀬リハビリテーション病院","province":"東京都","city":"清瀬市","address":"清瀬市竹丘3-3-33","lat":35.767971,"lon":139.502652},{"name":"信愛病院","province":"東京都","city":"清瀬市","address":"清瀬市梅園2-5-9","lat":35.77382,"lon":139.503152},{"name":"ベトレヘムの園病院","province":"東京都","city":"清瀬市","address":"清瀬市梅園3-14-72","lat":35.772012,"lon":139.501658},{"name":"清瀬市社会福祉協議会","province":"東京都","city":"清瀬市","address":"清瀬市下清戸1-212-4清瀬市コミュニティプラザ2階","lat":35.778162,"lon":139.538732},{"name":"慈生会ナザレットの家","province":"東京都","city":"清瀬市","address":"清瀬市梅園3-14-23","lat":35.77177,"lon":139.50096},{"name":"あすなろ荘","province":"東京都","city":"清瀬市","address":"東京都清瀬市","lat":35.78534142,"lon":139.52677749},{"name":"救世軍自省館","province":"東京都","city":"清瀬市","address":"清瀬市竹丘1-17-60","lat":35.76948,"lon":139.50812},{"name":"清瀬市社会福祉協議会","province":"東京都","city":"清瀬市","address":"清瀬市下清戸1-212-4清瀬市コミュニティプラザ2階","lat":35.77874,"lon":139.53719},{"name":"救世軍自省館","province":"東京都","city":"清瀬市","address":"清瀬市竹丘1-17-60","lat":35.769099,"lon":139.507385},{"name":"慈生会ナザレットの家","province":"東京都","city":"清瀬市","address":"清瀬市梅園3-14-23","lat":35.770518,"lon":139.501347},{"name":"日本社会事業大学附属　子ども学園","province":"東京都","city":"清瀬市","address":"清瀬市梅園1-2-50","lat":35.773956,"lon":139.50729},{"name":"救世軍清瀬病院","province":"東京都","city":"清瀬市","address":"清瀬市竹丘1-17-9","lat":35.770235,"lon":139.507249},{"name":"清瀬リハビリテーション病院","province":"東京都","city":"清瀬市","address":"清瀬市竹丘3-3-33","lat":35.767971,"lon":139.502652},{"name":"信愛病院","province":"東京都","city":"清瀬市","address":"清瀬市梅園2-5-9","lat":35.77382,"lon":139.503152},{"name":"ベトレヘムの園病院","province":"東京都","city":"清瀬市","address":"清瀬市梅園3-14-72","lat":35.772012,"lon":139.501658},{"name":"清瀬市社会福祉協議会","province":"東京都","city":"清瀬市","address":"清瀬市下清戸1-212-4清瀬市コミュニティプラザ2階","lat":35.778162,"lon":139.538732},{"name":"慈生会ナザレットの家","province":"東京都","city":"清瀬市","address":"清瀬市梅園3-14-23","lat":35.77177,"lon":139.50096},{"name":"あすなろ荘","province":"東京都","city":"清瀬市","address":"東京都清瀬市","lat":35.78534142,"lon":139.52677749},{"name":"救世軍自省館","province":"東京都","city":"清瀬市","address":"清瀬市竹丘1-17-60","lat":35.76948,"lon":139.50812},{"name":"清瀬市社会福祉協議会","province":"東京都","city":"清瀬市","address":"清瀬市下清戸1-212-4清瀬市コミュニティプラザ2階","lat":35.77874,"lon":139.53719},{"name":"救世軍自省館","province":"東京都","city":"清瀬市","address":"清瀬市竹丘1-17-60","lat":35.769099,"lon":139.507385},{"name":"慈生会ナザレットの家","province":"東京都","city":"清瀬市","address":"清瀬市梅園3-14-23","lat":35.770518,"lon":139.501347}]}