{"keyword":"戸数","data":[{"name":"清瀬市社会福祉協議会","province":"東京都","city":"清瀬市","address":"清瀬市下清戸1-212-4清瀬市コミュニティプラザ2階","lat":35.778162,"lon":139.538732},{"name":"清瀬市","province":"東京都","city":"清瀬市","address":"清瀬市中里5-842","lat":35.7860525,"lon":139.5263525},{"name":"照屋興業有限会社","province":"東京都","city":"清瀬市","address":"東京都清瀬市松山3丁目18-3","lat":35.76794612,"lon":139.51600089},{"name":"有限会社荒田葬儀社","province":"東京都","city":"清瀬市","address":"東京都清瀬市野塩4丁目79","lat":35.77432287,"lon":139.5053351},{"name":"株式会社AZUMA　東葬祭","province":"東京都","city":"清瀬市","address":"東京都清瀬市松山2丁目14-10","lat":35.77252049,"lon":139.51297887},{"name":"有限会社セレモサービス","province":"東京都","city":"清瀬市","address":"東京都清瀬市下清戸2丁目559-8","lat":35.78764126,"lon":139.53340464},{"name":"株式会社三愛メモリアル東京店","province":"東京都","city":"清瀬市","address":"東京都清瀬市元町1丁目7-5","lat":35.77446205,"lon":139.51841445},{"name":"株式会社彩花","province":"東京都","city":"清瀬市","address":"東京都清瀬市松山2丁目6-45","lat":35.77259557,"lon":139.51690627},{"name":"清瀬市社会福祉協議会","province":"東京都","city":"清瀬市","address":"清瀬市下清戸1-212-4清瀬市コミュニティプラザ2階","lat":35.77874,"lon":139.53719},{"name":"清瀬市地域包括支援センター","province":"東京都","city":"清瀬市","address":"清瀬市中里5-842清瀬市健康センター内","lat":35.785568,"lon":139.52655},{"name":"きよせ社協地域包括支援センター","province":"東京都","city":"清瀬市","address":"清瀬市下清戸1-212-4清瀬市コミュニティプラザ゙ひまわり内","lat":35.778744,"lon":139.537186},{"name":"きよせ信愛地域包括支援センター","province":"東京都","city":"清瀬市","address":"清瀬市梅園2-3-15特別養護老人ホーム信愛の園内","lat":35.77282,"lon":139.504395},{"name":"きよせ清雅地域包括支援センター","province":"東京都","city":"清瀬市","address":"清瀬市中里5-91-2特別養護老人ホーム清雅苑内","lat":35.789284,"lon":139.532608},{"name":"清瀬市役所","province":"東京都","city":"清瀬市","address":"清瀬市中里5-842","lat":35.785568,"lon":139.52655},{"name":"消費生活センター","province":"東京都","city":"清瀬市","address":"清瀬市元町1-4-17","lat":35.774456,"lon":139.520538},{"name":"国立病院機構東京病院","province":"東京都","city":"清瀬市","address":"東京都清瀬市竹丘3丁目1-1","lat":35.76696263,"lon":139.5045714},{"name":"東京都共済組合清瀬運動場","province":"東京都","city":"清瀬市","address":"東京都清瀬市竹丘3丁目10-5","lat":35.76460172,"lon":139.5013023},{"name":"清瀬市選挙管理委員会","province":"東京都","city":"清瀬市","address":"清瀬市中里5-842","lat":35.786055,"lon":139.526067},{"name":"清瀬高等学校","province":"東京都","city":"清瀬市","address":"東京都清瀬市松山3丁目1-56","lat":35.76969866,"lon":139.51487318},{"name":"（株）千代田","province":"東京都","city":"清瀬市","address":"清瀬市松山2-13-10","lat":35.77322,"lon":139.5138},{"name":"清瀬市社会福祉協議会","province":"東京都","city":"清瀬市","address":"清瀬市下清戸1-212-4清瀬市コミュニティプラザ2階","lat":35.778162,"lon":139.538732},{"name":"清瀬市社会福祉協議会","province":"東京都","city":"清瀬市","address":"清瀬市下清戸1-212-4清瀬市コミュニティプラザ2階","lat":35.77874,"lon":139.53719},{"name":"清瀬市地域包括支援センター","province":"東京都","city":"清瀬市","address":"清瀬市中里5-842清瀬市健康センター内","lat":35.785568,"lon":139.52655},{"name":"きよせ社協地域包括支援センター","province":"東京都","city":"清瀬市","address":"清瀬市下清戸1-212-4清瀬市コミュニティプラザ゙ひまわり内","lat":35.778744,"lon":139.537186},{"name":"きよせ信愛地域包括支援センター","province":"東京都","city":"清瀬市","address":"清瀬市梅園2-3-15特別養護老人ホーム信愛の園内","lat":35.77282,"lon":139.504395},{"name":"きよせ清雅地域包括支援センター","province":"東京都","city":"清瀬市","address":"清瀬市中里5-91-2特別養護老人ホーム清雅苑内","lat":35.789284,"lon":139.532608},{"name":"清瀬市役所","province":"東京都","city":"清瀬市","address":"清瀬市中里5-842","lat":35.785568,"lon":139.52655},{"name":"消費生活センター","province":"東京都","city":"清瀬市","address":"清瀬市元町1-4-17","lat":35.774456,"lon":139.520538},{"name":"国立病院機構東京病院","province":"東京都","city":"清瀬市","address":"東京都清瀬市竹丘3丁目1-1","lat":35.76696263,"lon":139.5045714},{"name":"東京都共済組合清瀬運動場","province":"東京都","city":"清瀬市","address":"東京都清瀬市竹丘3丁目10-5","lat":35.76460172,"lon":139.5013023},{"name":"清瀬高等学校","province":"東京都","city":"清瀬市","address":"東京都清瀬市松山3丁目1-56","lat":35.76969866,"lon":139.51487318},{"name":"（株）千代田","province":"東京都","city":"清瀬市","address":"清瀬市松山2-13-10","lat":35.77322,"lon":139.5138},{"name":"清瀬市地域包括支援センター","province":"東京都","city":"清瀬市","address":"清瀬市中里5-842清瀬市健康センター内","lat":35.785568,"lon":139.52655},{"name":"きよせ社協地域包括支援センター","province":"東京都","city":"清瀬市","address":"清瀬市下清戸1-212-4清瀬市コミュニティプラザ゙ひまわり内","lat":35.778744,"lon":139.537186},{"name":"きよせ信愛地域包括支援センター","province":"東京都","city":"清瀬市","address":"清瀬市梅園2-3-15特別養護老人ホーム信愛の園内","lat":35.77282,"lon":139.504395},{"name":"きよせ清雅地域包括支援センター","province":"東京都","city":"清瀬市","address":"清瀬市中里5-91-2特別養護老人ホーム清雅苑内","lat":35.789284,"lon":139.532608},{"name":"清瀬市役所","province":"東京都","city":"清瀬市","address":"清瀬市中里5-842","lat":35.785568,"lon":139.52655},{"name":"消費生活センター","province":"東京都","city":"清瀬市","address":"清瀬市元町1-4-17","lat":35.774456,"lon":139.520538},{"name":"国立病院機構東京病院","province":"東京都","city":"清瀬市","address":"東京都清瀬市竹丘3丁目1-1","lat":35.76696263,"lon":139.5045714},{"name":"清瀬高等学校","province":"東京都","city":"清瀬市","address":"東京都清瀬市松山3丁目1-56","lat":35.76969866,"lon":139.51487318},{"name":"清瀬市地域包括支援センター","province":"東京都","city":"清瀬市","address":"清瀬市中里5-842清瀬市健康センター内","lat":35.785568,"lon":139.52655},{"name":"きよせ社協地域包括支援センター","province":"東京都","city":"清瀬市","address":"清瀬市下清戸1-212-4清瀬市コミュニティプラザ゙ひまわり内","lat":35.778744,"lon":139.537186},{"name":"きよせ信愛地域包括支援センター","province":"東京都","city":"清瀬市","address":"清瀬市梅園2-3-15特別養護老人ホーム信愛の園内","lat":35.77282,"lon":139.504395},{"name":"きよせ清雅地域包括支援センター","province":"東京都","city":"清瀬市","address":"清瀬市中里5-91-2特別養護老人ホーム清雅苑内","lat":35.789284,"lon":139.532608},{"name":"清瀬市役所","province":"東京都","city":"清瀬市","address":"清瀬市中里5-842","lat":35.785568,"lon":139.52655},{"name":"消費生活センター","province":"東京都","city":"清瀬市","address":"清瀬市元町1-4-17","lat":35.774456,"lon":139.520538},{"name":"国立病院機構東京病院","province":"東京都","city":"清瀬市","address":"東京都清瀬市竹丘3丁目1-1","lat":35.76696263,"lon":139.5045714},{"name":"清瀬高等学校","province":"東京都","city":"清瀬市","address":"東京都清瀬市松山3丁目1-56","lat":35.76969866,"lon":139.51487318},{"name":"清瀬市地域包括支援センター","province":"東京都","city":"清瀬市","address":"清瀬市中里5-842清瀬市健康センター内","lat":35.785568,"lon":139.52655},{"name":"きよせ社協地域包括支援センター","province":"東京都","city":"清瀬市","address":"清瀬市下清戸1-212-4清瀬市コミュニティプラザ゙ひまわり内","lat":35.778744,"lon":139.537186},{"name":"きよせ信愛地域包括支援センター","province":"東京都","city":"清瀬市","address":"清瀬市梅園2-3-15特別養護老人ホーム信愛の園内","lat":35.77282,"lon":139.504395},{"name":"きよせ清雅地域包括支援センター","province":"東京都","city":"清瀬市","address":"清瀬市中里5-91-2特別養護老人ホーム清雅苑内","lat":35.789284,"lon":139.532608},{"name":"清瀬市役所","province":"東京都","city":"清瀬市","address":"清瀬市中里5-842","lat":35.785568,"lon":139.52655},{"name":"消費生活センター","province":"東京都","city":"清瀬市","address":"清瀬市元町1-4-17","lat":35.774456,"lon":139.520538},{"name":"清瀬市地域包括支援センター","province":"東京都","city":"清瀬市","address":"清瀬市中里5-842清瀬市健康センター内","lat":35.785568,"lon":139.52655},{"name":"きよせ社協地域包括支援センター","province":"東京都","city":"清瀬市","address":"清瀬市下清戸1-212-4清瀬市コミュニティプラザ゙ひまわり内","lat":35.778744,"lon":139.537186},{"name":"きよせ信愛地域包括支援センター","province":"東京都","city":"清瀬市","address":"清瀬市梅園2-3-15特別養護老人ホーム信愛の園内","lat":35.77282,"lon":139.504395},{"name":"きよせ清雅地域包括支援センター","province":"東京都","city":"清瀬市","address":"清瀬市中里5-91-2特別養護老人ホーム清雅苑内","lat":35.789284,"lon":139.532608},{"name":"清瀬市役所","province":"東京都","city":"清瀬市","address":"清瀬市中里5-842","lat":35.785568,"lon":139.52655},{"name":"消費生活センター","province":"東京都","city":"清瀬市","address":"清瀬市元町1-4-17","lat":35.774456,"lon":139.520538},{"name":"清瀬市地域包括支援センター","province":"東京都","city":"清瀬市","address":"清瀬市中里5-842清瀬市健康センター内","lat":35.785568,"lon":139.52655},{"name":"きよせ社協地域包括支援センター","province":"東京都","city":"清瀬市","address":"清瀬市下清戸1-212-4清瀬市コミュニティプラザ゙ひまわり内","lat":35.778744,"lon":139.537186},{"name":"きよせ信愛地域包括支援センター","province":"東京都","city":"清瀬市","address":"清瀬市梅園2-3-15特別養護老人ホーム信愛の園内","lat":35.77282,"lon":139.504395},{"name":"きよせ清雅地域包括支援センター","province":"東京都","city":"清瀬市","address":"清瀬市中里5-91-2特別養護老人ホーム清雅苑内","lat":35.789284,"lon":139.532608},{"name":"清瀬市役所","province":"東京都","city":"清瀬市","address":"清瀬市中里5-842","lat":35.785568,"lon":139.52655},{"name":"消費生活センター","province":"東京都","city":"清瀬市","address":"清瀬市元町1-4-17","lat":35.774456,"lon":139.520538},{"name":"清瀬市地域包括支援センター","province":"東京都","city":"清瀬市","address":"清瀬市中里5-842清瀬市健康センター内","lat":35.785568,"lon":139.52655},{"name":"きよせ社協地域包括支援センター","province":"東京都","city":"清瀬市","address":"清瀬市下清戸1-212-4清瀬市コミュニティプラザ゙ひまわり内","lat":35.778744,"lon":139.537186},{"name":"きよせ信愛地域包括支援センター","province":"東京都","city":"清瀬市","address":"清瀬市梅園2-3-15特別養護老人ホーム信愛の園内","lat":35.77282,"lon":139.504395},{"name":"きよせ清雅地域包括支援センター","province":"東京都","city":"清瀬市","address":"清瀬市中里5-91-2特別養護老人ホーム清雅苑内","lat":35.789284,"lon":139.532608},{"name":"清瀬市役所","province":"東京都","city":"清瀬市","address":"清瀬市中里5-842","lat":35.785568,"lon":139.52655},{"name":"消費生活センター","province":"東京都","city":"清瀬市","address":"清瀬市元町1-4-17","lat":35.774456,"lon":139.520538},{"name":"清瀬市地域包括支援センター","province":"東京都","city":"清瀬市","address":"清瀬市中里5-842清瀬市健康センター内","lat":35.785568,"lon":139.52655},{"name":"きよせ社協地域包括支援センター","province":"東京都","city":"清瀬市","address":"清瀬市下清戸1-212-4清瀬市コミュニティプラザ゙ひまわり内","lat":35.778744,"lon":139.537186},{"name":"きよせ信愛地域包括支援センター","province":"東京都","city":"清瀬市","address":"清瀬市梅園2-3-15特別養護老人ホーム信愛の園内","lat":35.77282,"lon":139.504395},{"name":"きよせ清雅地域包括支援センター","province":"東京都","city":"清瀬市","address":"清瀬市中里5-91-2特別養護老人ホーム清雅苑内","lat":35.789284,"lon":139.532608},{"name":"清瀬市役所","province":"東京都","city":"清瀬市","address":"清瀬市中里5-842","lat":35.785568,"lon":139.52655},{"name":"消費生活センター","province":"東京都","city":"清瀬市","address":"清瀬市元町1-4-17","lat":35.774456,"lon":139.520538},{"name":"清瀬市地域包括支援センター","province":"東京都","city":"清瀬市","address":"清瀬市中里5-842清瀬市健康センター内","lat":35.785568,"lon":139.52655},{"name":"きよせ社協地域包括支援センター","province":"東京都","city":"清瀬市","address":"清瀬市下清戸1-212-4清瀬市コミュニティプラザ゙ひまわり内","lat":35.778744,"lon":139.537186},{"name":"きよせ信愛地域包括支援センター","province":"東京都","city":"清瀬市","address":"清瀬市梅園2-3-15特別養護老人ホーム信愛の園内","lat":35.77282,"lon":139.504395},{"name":"きよせ清雅地域包括支援センター","province":"東京都","city":"清瀬市","address":"清瀬市中里5-91-2特別養護老人ホーム清雅苑内","lat":35.789284,"lon":139.532608},{"name":"清瀬市役所","province":"東京都","city":"清瀬市","address":"清瀬市中里5-842","lat":35.785568,"lon":139.52655},{"name":"消費生活センター","province":"東京都","city":"清瀬市","address":"清瀬市元町1-4-17","lat":35.774456,"lon":139.520538},{"name":"清瀬市地域包括支援センター","province":"東京都","city":"清瀬市","address":"清瀬市中里5-842清瀬市健康センター内","lat":35.785568,"lon":139.52655},{"name":"きよせ社協地域包括支援センター","province":"東京都","city":"清瀬市","address":"清瀬市下清戸1-212-4清瀬市コミュニティプラザ゙ひまわり内","lat":35.778744,"lon":139.537186},{"name":"きよせ信愛地域包括支援センター","province":"東京都","city":"清瀬市","address":"清瀬市梅園2-3-15特別養護老人ホーム信愛の園内","lat":35.77282,"lon":139.504395},{"name":"きよせ清雅地域包括支援センター","province":"東京都","city":"清瀬市","address":"清瀬市中里5-91-2特別養護老人ホーム清雅苑内","lat":35.789284,"lon":139.532608},{"name":"清瀬市役所","province":"東京都","city":"清瀬市","address":"清瀬市中里5-842","lat":35.785568,"lon":139.52655},{"name":"消費生活センター","province":"東京都","city":"清瀬市","address":"清瀬市元町1-4-17","lat":35.774456,"lon":139.520538},{"name":"清瀬市地域包括支援センター","province":"東京都","city":"清瀬市","address":"清瀬市中里5-842清瀬市健康センター内","lat":35.785568,"lon":139.52655},{"name":"きよせ社協地域包括支援センター","province":"東京都","city":"清瀬市","address":"清瀬市下清戸1-212-4清瀬市コミュニティプラザ゙ひまわり内","lat":35.778744,"lon":139.537186},{"name":"きよせ信愛地域包括支援センター","province":"東京都","city":"清瀬市","address":"清瀬市梅園2-3-15特別養護老人ホーム信愛の園内","lat":35.77282,"lon":139.504395},{"name":"きよせ清雅地域包括支援センター","province":"東京都","city":"清瀬市","address":"清瀬市中里5-91-2特別養護老人ホーム清雅苑内","lat":35.789284,"lon":139.532608},{"name":"清瀬市役所","province":"東京都","city":"清瀬市","address":"清瀬市中里5-842","lat":35.785568,"lon":139.52655},{"name":"消費生活センター","province":"東京都","city":"清瀬市","address":"清瀬市元町1-4-17","lat":35.774456,"lon":139.520538},{"name":"清瀬市地域包括支援センター","province":"東京都","city":"清瀬市","address":"清瀬市中里5-842清瀬市健康センター内","lat":35.785568,"lon":139.52655},{"name":"きよせ社協地域包括支援センター","province":"東京都","city":"清瀬市","address":"清瀬市下清戸1-212-4清瀬市コミュニティプラザ゙ひまわり内","lat":35.778744,"lon":139.537186},{"name":"きよせ信愛地域包括支援センター","province":"東京都","city":"清瀬市","address":"清瀬市梅園2-3-15特別養護老人ホーム信愛の園内","lat":35.77282,"lon":139.504395},{"name":"きよせ清雅地域包括支援センター","province":"東京都","city":"清瀬市","address":"清瀬市中里5-91-2特別養護老人ホーム清雅苑内","lat":35.789284,"lon":139.532608},{"name":"清瀬市役所","province":"東京都","city":"清瀬市","address":"清瀬市中里5-842","lat":35.785568,"lon":139.52655},{"name":"消費生活センター","province":"東京都","city":"清瀬市","address":"清瀬市元町1-4-17","lat":35.774456,"lon":139.520538},{"name":"清瀬市地域包括支援センター","province":"東京都","city":"清瀬市","address":"清瀬市中里5-842清瀬市健康センター内","lat":35.785568,"lon":139.52655},{"name":"きよせ社協地域包括支援センター","province":"東京都","city":"清瀬市","address":"清瀬市下清戸1-212-4清瀬市コミュニティプラザ゙ひまわり内","lat":35.778744,"lon":139.537186},{"name":"きよせ信愛地域包括支援センター","province":"東京都","city":"清瀬市","address":"清瀬市梅園2-3-15特別養護老人ホーム信愛の園内","lat":35.77282,"lon":139.504395},{"name":"きよせ清雅地域包括支援センター","province":"東京都","city":"清瀬市","address":"清瀬市中里5-91-2特別養護老人ホーム清雅苑内","lat":35.789284,"lon":139.532608},{"name":"清瀬市役所","province":"東京都","city":"清瀬市","address":"清瀬市中里5-842","lat":35.785568,"lon":139.52655},{"name":"消費生活センター","province":"東京都","city":"清瀬市","address":"清瀬市元町1-4-17","lat":35.774456,"lon":139.520538},{"name":"清瀬市地域包括支援センター","province":"東京都","city":"清瀬市","address":"清瀬市中里5-842清瀬市健康センター内","lat":35.785568,"lon":139.52655},{"name":"きよせ社協地域包括支援センター","province":"東京都","city":"清瀬市","address":"清瀬市下清戸1-212-4清瀬市コミュニティプラザ゙ひまわり内","lat":35.778744,"lon":139.537186},{"name":"きよせ信愛地域包括支援センター","province":"東京都","city":"清瀬市","address":"清瀬市梅園2-3-15特別養護老人ホーム信愛の園内","lat":35.77282,"lon":139.504395},{"name":"きよせ清雅地域包括支援センター","province":"東京都","city":"清瀬市","address":"清瀬市中里5-91-2特別養護老人ホーム清雅苑内","lat":35.789284,"lon":139.532608},{"name":"清瀬市役所","province":"東京都","city":"清瀬市","address":"清瀬市中里5-842","lat":35.785568,"lon":139.52655},{"name":"消費生活センター","province":"東京都","city":"清瀬市","address":"清瀬市元町1-4-17","lat":35.774456,"lon":139.520538},{"name":"清瀬市地域包括支援センター","province":"東京都","city":"清瀬市","address":"清瀬市中里5-842清瀬市健康センター内","lat":35.785568,"lon":139.52655},{"name":"きよせ社協地域包括支援センター","province":"東京都","city":"清瀬市","address":"清瀬市下清戸1-212-4清瀬市コミュニティプラザ゙ひまわり内","lat":35.778744,"lon":139.537186},{"name":"きよせ信愛地域包括支援センター","province":"東京都","city":"清瀬市","address":"清瀬市梅園2-3-15特別養護老人ホーム信愛の園内","lat":35.77282,"lon":139.504395},{"name":"きよせ清雅地域包括支援センター","province":"東京都","city":"清瀬市","address":"清瀬市中里5-91-2特別養護老人ホーム清雅苑内","lat":35.789284,"lon":139.532608},{"name":"清瀬市役所","province":"東京都","city":"清瀬市","address":"清瀬市中里5-842","lat":35.785568,"lon":139.52655},{"name":"消費生活センター","province":"東京都","city":"清瀬市","address":"清瀬市元町1-4-17","lat":35.774456,"lon":139.520538},{"name":"清瀬市地域包括支援センター","province":"東京都","city":"清瀬市","address":"清瀬市中里5-842清瀬市健康センター内","lat":35.785568,"lon":139.52655},{"name":"きよせ社協地域包括支援センター","province":"東京都","city":"清瀬市","address":"清瀬市下清戸1-212-4清瀬市コミュニティプラザ゙ひまわり内","lat":35.778744,"lon":139.537186},{"name":"きよせ信愛地域包括支援センター","province":"東京都","city":"清瀬市","address":"清瀬市梅園2-3-15特別養護老人ホーム信愛の園内","lat":35.77282,"lon":139.504395},{"name":"きよせ清雅地域包括支援センター","province":"東京都","city":"清瀬市","address":"清瀬市中里5-91-2特別養護老人ホーム清雅苑内","lat":35.789284,"lon":139.532608},{"name":"清瀬市役所","province":"東京都","city":"清瀬市","address":"清瀬市中里5-842","lat":35.785568,"lon":139.52655},{"name":"消費生活センター","province":"東京都","city":"清瀬市","address":"清瀬市元町1-4-17","lat":35.774456,"lon":139.520538},{"name":"清瀬市地域包括支援センター","province":"東京都","city":"清瀬市","address":"清瀬市中里5-842清瀬市健康センター内","lat":35.785568,"lon":139.52655},{"name":"きよせ社協地域包括支援センター","province":"東京都","city":"清瀬市","address":"清瀬市下清戸1-212-4清瀬市コミュニティプラザ゙ひまわり内","lat":35.778744,"lon":139.537186},{"name":"きよせ信愛地域包括支援センター","province":"東京都","city":"清瀬市","address":"清瀬市梅園2-3-15特別養護老人ホーム信愛の園内","lat":35.77282,"lon":139.504395},{"name":"きよせ清雅地域包括支援センター","province":"東京都","city":"清瀬市","address":"清瀬市中里5-91-2特別養護老人ホーム清雅苑内","lat":35.789284,"lon":139.532608},{"name":"清瀬市役所","province":"東京都","city":"清瀬市","address":"清瀬市中里5-842","lat":35.785568,"lon":139.52655},{"name":"消費生活センター","province":"東京都","city":"清瀬市","address":"清瀬市元町1-4-17","lat":35.774456,"lon":139.520538},{"name":"清瀬市地域包括支援センター","province":"東京都","city":"清瀬市","address":"清瀬市中里5-842清瀬市健康センター内","lat":35.785568,"lon":139.52655},{"name":"きよせ社協地域包括支援センター","province":"東京都","city":"清瀬市","address":"清瀬市下清戸1-212-4清瀬市コミュニティプラザ゙ひまわり内","lat":35.778744,"lon":139.537186},{"name":"きよせ信愛地域包括支援センター","province":"東京都","city":"清瀬市","address":"清瀬市梅園2-3-15特別養護老人ホーム信愛の園内","lat":35.77282,"lon":139.504395},{"name":"きよせ清雅地域包括支援センター","province":"東京都","city":"清瀬市","address":"清瀬市中里5-91-2特別養護老人ホーム清雅苑内","lat":35.789284,"lon":139.532608},{"name":"清瀬市役所","province":"東京都","city":"清瀬市","address":"清瀬市中里5-842","lat":35.785568,"lon":139.52655},{"name":"消費生活センター","province":"東京都","city":"清瀬市","address":"清瀬市元町1-4-17","lat":35.774456,"lon":139.520538},{"name":"清瀬市地域包括支援センター","province":"東京都","city":"清瀬市","address":"清瀬市中里5-842清瀬市健康センター内","lat":35.785568,"lon":139.52655},{"name":"きよせ社協地域包括支援センター","province":"東京都","city":"清瀬市","address":"清瀬市下清戸1-212-4清瀬市コミュニティプラザ゙ひまわり内","lat":35.778744,"lon":139.537186},{"name":"きよせ信愛地域包括支援センター","province":"東京都","city":"清瀬市","address":"清瀬市梅園2-3-15特別養護老人ホーム信愛の園内","lat":35.77282,"lon":139.504395},{"name":"きよせ清雅地域包括支援センター","province":"東京都","city":"清瀬市","address":"清瀬市中里5-91-2特別養護老人ホーム清雅苑内","lat":35.789284,"lon":139.532608},{"name":"清瀬市役所","province":"東京都","city":"清瀬市","address":"清瀬市中里5-842","lat":35.785568,"lon":139.52655},{"name":"消費生活センター","province":"東京都","city":"清瀬市","address":"清瀬市元町1-4-17","lat":35.774456,"lon":139.520538},{"name":"清瀬市地域包括支援センター","province":"東京都","city":"清瀬市","address":"清瀬市中里5-842清瀬市健康センター内","lat":35.785568,"lon":139.52655},{"name":"きよせ社協地域包括支援センター","province":"東京都","city":"清瀬市","address":"清瀬市下清戸1-212-4清瀬市コミュニティプラザ゙ひまわり内","lat":35.778744,"lon":139.537186},{"name":"きよせ信愛地域包括支援センター","province":"東京都","city":"清瀬市","address":"清瀬市梅園2-3-15特別養護老人ホーム信愛の園内","lat":35.77282,"lon":139.504395},{"name":"きよせ清雅地域包括支援センター","province":"東京都","city":"清瀬市","address":"清瀬市中里5-91-2特別養護老人ホーム清雅苑内","lat":35.789284,"lon":139.532608},{"name":"清瀬市役所","province":"東京都","city":"清瀬市","address":"清瀬市中里5-842","lat":35.785568,"lon":139.52655},{"name":"消費生活センター","province":"東京都","city":"清瀬市","address":"清瀬市元町1-4-17","lat":35.774456,"lon":139.520538}]}