{"keyword":"支払","data":[{"name":"東京都職員共済組合清瀬運動場","province":"東京都","city":"清瀬市","address":"東京都清瀬市竹丘3丁目10-5","lat":35.763239,"lon":139.501765},{"name":"清瀬消防署","province":"東京都","city":"清瀬市","address":"東京都清瀬市中清戸2丁目850-1","lat":35.784199,"lon":139.527612},{"name":"清瀬市男女共同参画センター","province":"東京都","city":"清瀬市","address":"東京都清瀬市元町1丁目2-11","lat":35.772081,"lon":139.521166},{"name":"清瀬市立野塩地域市民センター","province":"東京都","city":"清瀬市","address":"東京都清瀬市野塩1丁目322-2","lat":35.779154,"lon":139.499453},{"name":"清瀬市消費生活センター","province":"東京都","city":"清瀬市","address":"東京都清瀬市元町1丁目4-17","lat":35.774432,"lon":139.520631},{"name":"清瀬市立松山地域市民センター","province":"東京都","city":"清瀬市","address":"東京都清瀬市松山2丁目6-25","lat":35.771015,"lon":139.514769},{"name":"清瀬市立中央図書館","province":"東京都","city":"清瀬市","address":"東京都清瀬市梅園1丁目1-21","lat":35.773061,"lon":139.511158},{"name":"清瀬市児童センター","province":"東京都","city":"清瀬市","address":"東京都清瀬市中清戸3丁目235-5","lat":35.776369,"lon":139.530591},{"name":"清瀬市しあわせ未来センター","province":"東京都","city":"清瀬市","address":"東京都清瀬市中里5丁目842","lat":35.786013,"lon":139.526003},{"name":"きよせボランティア・市民活動センター","province":"東京都","city":"清瀬市","address":"東京都清瀬市上清戸2丁目6-10","lat":35.779244,"lon":139.520989},{"name":"清瀬市役所本庁舎","province":"東京都","city":"清瀬市","address":"東京都清瀬市中里5丁目842","lat":35.7855,"lon":139.526736},{"name":"清瀬市生涯学習センター","province":"東京都","city":"清瀬市","address":"東京都清瀬市元町1丁目2-11","lat":35.772116,"lon":139.521038},{"name":"下清戸集会所","province":"東京都","city":"清瀬市","address":"東京都清瀬市下清戸5丁目","lat":35.786967,"lon":139.540721},{"name":"下清戸集会所","province":"東京都","city":"清瀬市","address":"東京都清瀬市下清戸5丁目855-3","lat":35.786898,"lon":139.540697},{"name":"清瀬市コミュニティプラザ","province":"東京都","city":"清瀬市","address":"東京都清瀬市下清戸1丁目212-4","lat":35.77785,"lon":139.539004},{"name":"清瀬市下宿地域市民センター","province":"東京都","city":"清瀬市","address":"東京都清瀬市下宿2丁目524-1","lat":35.797345,"lon":139.533076},{"name":"清瀬市立竹丘地域市民センター","province":"東京都","city":"清瀬市","address":"東京都清瀬市竹丘1丁目11","lat":35.765832,"lon":139.51142},{"name":"清瀬市立中清戸地域市民センター","province":"東京都","city":"清瀬市","address":"東京都清瀬市中清戸4丁目847","lat":35.785085,"lon":139.528109},{"name":"清瀬市立中里地域市民センター","province":"東京都","city":"清瀬市","address":"東京都清瀬市中里4丁目1301","lat":35.78659,"lon":139.514052},{"name":"清瀬市郷土博物館","province":"東京都","city":"清瀬市","address":"東京都清瀬市上清戸2丁目6-41","lat":35.779715,"lon":139.520962},{"name":"清瀬けやきホール","province":"東京都","city":"清瀬市","address":"東京都清瀬市元町1丁目6-6","lat":35.774541,"lon":139.519545},{"name":"清瀬けやきホール","province":"東京都","city":"清瀬市","address":"東京都清瀬市元町1丁目6-6","lat":35.774615,"lon":139.519615},{"name":"清瀬けやきホール","province":"東京都","city":"清瀬市","address":"東京都清瀬市元町1丁目6-6","lat":35.774663,"lon":139.519519},{"name":"清瀬中央公園","province":"東京都","city":"清瀬市","address":"東京都清瀬市梅園1丁目2","lat":35.773901,"lon":139.511016},{"name":"神山公園","province":"東京都","city":"清瀬市","address":"東京都清瀬市中清戸3丁目","lat":35.775562,"lon":139.531032},{"name":"金山緑地公園","province":"東京都","city":"清瀬市","address":"東京都清瀬市中里4丁目","lat":35.78918,"lon":139.522429},{"name":"竹丘緑地公園","province":"東京都","city":"清瀬市","address":"東京都清瀬市竹丘2丁目7","lat":35.765144,"lon":139.509776},{"name":"竹丘なかよし公園","province":"東京都","city":"清瀬市","address":"東京都清瀬市竹丘1丁目14","lat":35.767155,"lon":139.511048},{"name":"せせらぎ公園","province":"東京都","city":"清瀬市","address":"東京都清瀬市中里2丁目","lat":35.783195,"lon":139.510571},{"name":"中里柳瀬公園","province":"東京都","city":"清瀬市","address":"東京都清瀬市中里4丁目","lat":35.786545,"lon":139.514427},{"name":"中清戸けやき公園","province":"東京都","city":"清瀬市","address":"東京都清瀬市中清戸4丁目","lat":35.786343,"lon":139.529185},{"name":"清瀬駅南口公衆トイレ","province":"東京都","city":"清瀬市","address":"東京都清瀬市松山1丁目2","lat":35.771818,"lon":139.520245},{"name":"清瀬市障害者福祉センター","province":"東京都","city":"清瀬市","address":"東京都清瀬市上清戸1丁目16-62","lat":35.77336,"lon":139.527637},{"name":"清瀬市障害者福祉センター","province":"東京都","city":"清瀬市","address":"東京都清瀬市上清戸1丁目16-62","lat":35.77339,"lon":139.527597},{"name":"清瀬市子どもの発達支援・交流センターとことこ","province":"東京都","city":"清瀬市","address":"東京都清瀬市竹丘1丁目15-8","lat":35.768114,"lon":139.51107},{"name":"野塩多世代交流施設 えーるプラザ野塩","province":"東京都","city":"清瀬市","address":"東京都清瀬市野塩2丁目","lat":35.782297,"lon":139.502462},{"name":"照屋興業有限会社","province":"東京都","city":"清瀬市","address":"東京都清瀬市松山3丁目18-3","lat":35.76794612,"lon":139.51600089},{"name":"有限会社荒田葬儀社","province":"東京都","city":"清瀬市","address":"東京都清瀬市野塩4丁目79","lat":35.77432287,"lon":139.5053351},{"name":"株式会社AZUMA　東葬祭","province":"東京都","city":"清瀬市","address":"東京都清瀬市松山2丁目14-10","lat":35.77252049,"lon":139.51297887},{"name":"有限会社セレモサービス","province":"東京都","city":"清瀬市","address":"東京都清瀬市下清戸2丁目559-8","lat":35.78764126,"lon":139.53340464},{"name":"株式会社三愛メモリアル東京店","province":"東京都","city":"清瀬市","address":"東京都清瀬市元町1丁目7-5","lat":35.77446205,"lon":139.51841445},{"name":"株式会社彩花","province":"東京都","city":"清瀬市","address":"東京都清瀬市松山2丁目6-45","lat":35.77259557,"lon":139.51690627},{"name":"東京都職員共済組合清瀬運動場","province":"東京都","city":"清瀬市","address":"東京都清瀬市竹丘3丁目10-5","lat":35.763239,"lon":139.501765},{"name":"清瀬消防署","province":"東京都","city":"清瀬市","address":"東京都清瀬市中清戸2丁目850-1","lat":35.784199,"lon":139.527612},{"name":"清瀬市男女共同参画センター","province":"東京都","city":"清瀬市","address":"東京都清瀬市元町1丁目2-11","lat":35.772081,"lon":139.521166},{"name":"清瀬市立野塩地域市民センター","province":"東京都","city":"清瀬市","address":"東京都清瀬市野塩1丁目322-2","lat":35.779154,"lon":139.499453},{"name":"清瀬市消費生活センター","province":"東京都","city":"清瀬市","address":"東京都清瀬市元町1丁目4-17","lat":35.774432,"lon":139.520631},{"name":"清瀬市立松山地域市民センター","province":"東京都","city":"清瀬市","address":"東京都清瀬市松山2丁目6-25","lat":35.771015,"lon":139.514769},{"name":"清瀬市立中央図書館","province":"東京都","city":"清瀬市","address":"東京都清瀬市梅園1丁目1-21","lat":35.773061,"lon":139.511158},{"name":"清瀬市児童センター","province":"東京都","city":"清瀬市","address":"東京都清瀬市中清戸3丁目235-5","lat":35.776369,"lon":139.530591},{"name":"清瀬市しあわせ未来センター","province":"東京都","city":"清瀬市","address":"東京都清瀬市中里5丁目842","lat":35.786013,"lon":139.526003},{"name":"きよせボランティア・市民活動センター","province":"東京都","city":"清瀬市","address":"東京都清瀬市上清戸2丁目6-10","lat":35.779244,"lon":139.520989},{"name":"清瀬市役所本庁舎","province":"東京都","city":"清瀬市","address":"東京都清瀬市中里5丁目842","lat":35.7855,"lon":139.526736},{"name":"清瀬市生涯学習センター","province":"東京都","city":"清瀬市","address":"東京都清瀬市元町1丁目2-11","lat":35.772116,"lon":139.521038},{"name":"下清戸集会所","province":"東京都","city":"清瀬市","address":"東京都清瀬市下清戸5丁目","lat":35.786967,"lon":139.540721},{"name":"下清戸集会所","province":"東京都","city":"清瀬市","address":"東京都清瀬市下清戸5丁目855-3","lat":35.786898,"lon":139.540697},{"name":"清瀬市コミュニティプラザ","province":"東京都","city":"清瀬市","address":"東京都清瀬市下清戸1丁目212-4","lat":35.77785,"lon":139.539004},{"name":"清瀬市下宿地域市民センター","province":"東京都","city":"清瀬市","address":"東京都清瀬市下宿2丁目524-1","lat":35.797345,"lon":139.533076},{"name":"清瀬市立竹丘地域市民センター","province":"東京都","city":"清瀬市","address":"東京都清瀬市竹丘1丁目11","lat":35.765832,"lon":139.51142},{"name":"清瀬市立中清戸地域市民センター","province":"東京都","city":"清瀬市","address":"東京都清瀬市中清戸4丁目847","lat":35.785085,"lon":139.528109},{"name":"清瀬市立中里地域市民センター","province":"東京都","city":"清瀬市","address":"東京都清瀬市中里4丁目1301","lat":35.78659,"lon":139.514052},{"name":"清瀬市郷土博物館","province":"東京都","city":"清瀬市","address":"東京都清瀬市上清戸2丁目6-41","lat":35.779715,"lon":139.520962},{"name":"清瀬けやきホール","province":"東京都","city":"清瀬市","address":"東京都清瀬市元町1丁目6-6","lat":35.774541,"lon":139.519545},{"name":"清瀬けやきホール","province":"東京都","city":"清瀬市","address":"東京都清瀬市元町1丁目6-6","lat":35.774615,"lon":139.519615},{"name":"清瀬けやきホール","province":"東京都","city":"清瀬市","address":"東京都清瀬市元町1丁目6-6","lat":35.774663,"lon":139.519519},{"name":"清瀬中央公園","province":"東京都","city":"清瀬市","address":"東京都清瀬市梅園1丁目2","lat":35.773901,"lon":139.511016},{"name":"神山公園","province":"東京都","city":"清瀬市","address":"東京都清瀬市中清戸3丁目","lat":35.775562,"lon":139.531032},{"name":"金山緑地公園","province":"東京都","city":"清瀬市","address":"東京都清瀬市中里4丁目","lat":35.78918,"lon":139.522429},{"name":"竹丘緑地公園","province":"東京都","city":"清瀬市","address":"東京都清瀬市竹丘2丁目7","lat":35.765144,"lon":139.509776},{"name":"竹丘なかよし公園","province":"東京都","city":"清瀬市","address":"東京都清瀬市竹丘1丁目14","lat":35.767155,"lon":139.511048},{"name":"せせらぎ公園","province":"東京都","city":"清瀬市","address":"東京都清瀬市中里2丁目","lat":35.783195,"lon":139.510571},{"name":"中里柳瀬公園","province":"東京都","city":"清瀬市","address":"東京都清瀬市中里4丁目","lat":35.786545,"lon":139.514427},{"name":"中清戸けやき公園","province":"東京都","city":"清瀬市","address":"東京都清瀬市中清戸4丁目","lat":35.786343,"lon":139.529185},{"name":"清瀬駅南口公衆トイレ","province":"東京都","city":"清瀬市","address":"東京都清瀬市松山1丁目2","lat":35.771818,"lon":139.520245},{"name":"清瀬市障害者福祉センター","province":"東京都","city":"清瀬市","address":"東京都清瀬市上清戸1丁目16-62","lat":35.77336,"lon":139.527637},{"name":"清瀬市障害者福祉センター","province":"東京都","city":"清瀬市","address":"東京都清瀬市上清戸1丁目16-62","lat":35.77339,"lon":139.527597},{"name":"清瀬市子どもの発達支援・交流センターとことこ","province":"東京都","city":"清瀬市","address":"東京都清瀬市竹丘1丁目15-8","lat":35.768114,"lon":139.51107},{"name":"野塩多世代交流施設 えーるプラザ野塩","province":"東京都","city":"清瀬市","address":"東京都清瀬市野塩2丁目","lat":35.782297,"lon":139.502462},{"name":"東京都職員共済組合清瀬運動場","province":"東京都","city":"清瀬市","address":"東京都清瀬市竹丘3丁目10-5","lat":35.763239,"lon":139.501765},{"name":"清瀬消防署","province":"東京都","city":"清瀬市","address":"東京都清瀬市中清戸2丁目850-1","lat":35.784199,"lon":139.527612},{"name":"清瀬市男女共同参画センター","province":"東京都","city":"清瀬市","address":"東京都清瀬市元町1丁目2-11","lat":35.772081,"lon":139.521166},{"name":"清瀬市立野塩地域市民センター","province":"東京都","city":"清瀬市","address":"東京都清瀬市野塩1丁目322-2","lat":35.779154,"lon":139.499453},{"name":"清瀬市消費生活センター","province":"東京都","city":"清瀬市","address":"東京都清瀬市元町1丁目4-17","lat":35.774432,"lon":139.520631},{"name":"清瀬市立松山地域市民センター","province":"東京都","city":"清瀬市","address":"東京都清瀬市松山2丁目6-25","lat":35.771015,"lon":139.514769},{"name":"清瀬市立中央図書館","province":"東京都","city":"清瀬市","address":"東京都清瀬市梅園1丁目1-21","lat":35.773061,"lon":139.511158},{"name":"清瀬市児童センター","province":"東京都","city":"清瀬市","address":"東京都清瀬市中清戸3丁目235-5","lat":35.776369,"lon":139.530591},{"name":"清瀬市しあわせ未来センター","province":"東京都","city":"清瀬市","address":"東京都清瀬市中里5丁目842","lat":35.786013,"lon":139.526003},{"name":"きよせボランティア・市民活動センター","province":"東京都","city":"清瀬市","address":"東京都清瀬市上清戸2丁目6-10","lat":35.779244,"lon":139.520989},{"name":"清瀬市役所本庁舎","province":"東京都","city":"清瀬市","address":"東京都清瀬市中里5丁目842","lat":35.7855,"lon":139.526736},{"name":"清瀬市生涯学習センター","province":"東京都","city":"清瀬市","address":"東京都清瀬市元町1丁目2-11","lat":35.772116,"lon":139.521038},{"name":"下清戸集会所","province":"東京都","city":"清瀬市","address":"東京都清瀬市下清戸5丁目","lat":35.786967,"lon":139.540721},{"name":"下清戸集会所","province":"東京都","city":"清瀬市","address":"東京都清瀬市下清戸5丁目855-3","lat":35.786898,"lon":139.540697},{"name":"清瀬市コミュニティプラザ","province":"東京都","city":"清瀬市","address":"東京都清瀬市下清戸1丁目212-4","lat":35.77785,"lon":139.539004},{"name":"清瀬市下宿地域市民センター","province":"東京都","city":"清瀬市","address":"東京都清瀬市下宿2丁目524-1","lat":35.797345,"lon":139.533076},{"name":"清瀬市立竹丘地域市民センター","province":"東京都","city":"清瀬市","address":"東京都清瀬市竹丘1丁目11","lat":35.765832,"lon":139.51142},{"name":"清瀬市立中清戸地域市民センター","province":"東京都","city":"清瀬市","address":"東京都清瀬市中清戸4丁目847","lat":35.785085,"lon":139.528109},{"name":"清瀬市立中里地域市民センター","province":"東京都","city":"清瀬市","address":"東京都清瀬市中里4丁目1301","lat":35.78659,"lon":139.514052},{"name":"清瀬市郷土博物館","province":"東京都","city":"清瀬市","address":"東京都清瀬市上清戸2丁目6-41","lat":35.779715,"lon":139.520962},{"name":"清瀬けやきホール","province":"東京都","city":"清瀬市","address":"東京都清瀬市元町1丁目6-6","lat":35.774541,"lon":139.519545},{"name":"清瀬けやきホール","province":"東京都","city":"清瀬市","address":"東京都清瀬市元町1丁目6-6","lat":35.774615,"lon":139.519615},{"name":"清瀬けやきホール","province":"東京都","city":"清瀬市","address":"東京都清瀬市元町1丁目6-6","lat":35.774663,"lon":139.519519},{"name":"清瀬中央公園","province":"東京都","city":"清瀬市","address":"東京都清瀬市梅園1丁目2","lat":35.773901,"lon":139.511016},{"name":"神山公園","province":"東京都","city":"清瀬市","address":"東京都清瀬市中清戸3丁目","lat":35.775562,"lon":139.531032},{"name":"金山緑地公園","province":"東京都","city":"清瀬市","address":"東京都清瀬市中里4丁目","lat":35.78918,"lon":139.522429},{"name":"竹丘緑地公園","province":"東京都","city":"清瀬市","address":"東京都清瀬市竹丘2丁目7","lat":35.765144,"lon":139.509776},{"name":"竹丘なかよし公園","province":"東京都","city":"清瀬市","address":"東京都清瀬市竹丘1丁目14","lat":35.767155,"lon":139.511048},{"name":"せせらぎ公園","province":"東京都","city":"清瀬市","address":"東京都清瀬市中里2丁目","lat":35.783195,"lon":139.510571},{"name":"中里柳瀬公園","province":"東京都","city":"清瀬市","address":"東京都清瀬市中里4丁目","lat":35.786545,"lon":139.514427},{"name":"中清戸けやき公園","province":"東京都","city":"清瀬市","address":"東京都清瀬市中清戸4丁目","lat":35.786343,"lon":139.529185},{"name":"清瀬駅南口公衆トイレ","province":"東京都","city":"清瀬市","address":"東京都清瀬市松山1丁目2","lat":35.771818,"lon":139.520245},{"name":"清瀬市障害者福祉センター","province":"東京都","city":"清瀬市","address":"東京都清瀬市上清戸1丁目16-62","lat":35.77336,"lon":139.527637},{"name":"清瀬市障害者福祉センター","province":"東京都","city":"清瀬市","address":"東京都清瀬市上清戸1丁目16-62","lat":35.77339,"lon":139.527597},{"name":"清瀬市子どもの発達支援・交流センターとことこ","province":"東京都","city":"清瀬市","address":"東京都清瀬市竹丘1丁目15-8","lat":35.768114,"lon":139.51107},{"name":"野塩多世代交流施設 えーるプラザ野塩","province":"東京都","city":"清瀬市","address":"東京都清瀬市野塩2丁目","lat":35.782297,"lon":139.502462}]}