{"keyword":"放課後","data":[{"name":"きずな","province":"東京都","city":"清瀬市","address":"清瀬市下清戸2丁目518番2","lat":35.784972,"lon":139.536413},{"name":"障害者福祉センター　学童クラブのびのび","province":"東京都","city":"清瀬市","address":"清瀬市上清戸1-16-62","lat":35.773265,"lon":139.527664},{"name":"放課後等デイサービスＡＡＯ！","province":"東京都","city":"清瀬市","address":"清瀬市上清戸2-3-41-B","lat":35.777334,"lon":139.521422},{"name":"マイスペ児童デイサービス清瀬","province":"東京都","city":"清瀬市","address":"清瀬市元町一丁目13番20号ブリックヒル1階","lat":35.774854,"lon":139.518223},{"name":"たまみずき清瀬","province":"東京都","city":"清瀬市","address":"清瀬市松山2-2-15清瀬シティハイム2階","lat":35.769838,"lon":139.516287},{"name":"わかば　第１学童クラブ","province":"東京都","city":"清瀬市","address":"清瀬市竹丘1-11-1-101","lat":35.765877,"lon":139.511649},{"name":"放課後等デイサービス　ラビットハウス","province":"東京都","city":"清瀬市","address":"清瀬市竹丘2-16-9","lat":35.762758,"lon":139.507691},{"name":"ビーキッズきよせ","province":"東京都","city":"清瀬市","address":"清瀬市梅園3-4-251階","lat":35.771068,"lon":139.499949},{"name":"アプリ児童デイサービス清瀬","province":"東京都","city":"清瀬市","address":"清瀬市梅園3-2-21","lat":35.768885,"lon":139.501919}]}