{"keyword":"文化","data":[{"name":"不動明王立像","province":"東京都","city":"清瀬市","address":"東京都清瀬市中清戸2-616","lat":35.780059,"lon":139.526253},{"name":"三猿の石灯篭","province":"東京都","city":"清瀬市","address":"東京都清瀬市中清戸2-616","lat":35.780059,"lon":139.526253},{"name":"薬師如来立像","province":"東京都","city":"清瀬市","address":"東京都清瀬市下清戸2-470","lat":35.783767,"lon":139.535091},{"name":"観世音菩薩立像(本尊）","province":"東京都","city":"清瀬市","address":"東京都清瀬市下宿2-521","lat":35.797568,"lon":139.534432},{"name":"観世音菩薩立像（前立）","province":"東京都","city":"清瀬市","address":"東京都清瀬市下宿2-521","lat":35.797568,"lon":139.534432},{"name":"薬師如来坐像","province":"東京都","city":"清瀬市","address":"東京都清瀬市野塩3-51","lat":35.777509,"lon":139.506768},{"name":"日光菩薩立像","province":"東京都","city":"清瀬市","address":"東京都清瀬市野塩3-51","lat":35.777509,"lon":139.506768},{"name":"月光菩薩立像","province":"東京都","city":"清瀬市","address":"東京都清瀬市野塩3-51","lat":35.777509,"lon":139.506768},{"name":"十二神将","province":"東京都","city":"清瀬市","address":"東京都清瀬市野塩3-51","lat":35.777509,"lon":139.506768},{"name":"日枝神社本殿","province":"東京都","city":"清瀬市","address":"東京都清瀬市中清戸2-616","lat":35.780059,"lon":139.526253},{"name":"円通寺長屋門","province":"東京都","city":"清瀬市","address":"東京都清瀬市下宿2-521","lat":35.797568,"lon":139.534432},{"name":"旧森田家主屋","province":"東京都","city":"清瀬市","address":"東京都清瀬市2-524-1","lat":35.79759,"lon":139.533366},{"name":"外気舎記念館","province":"東京都","city":"清瀬市","address":"東京都清瀬市竹丘3-1-1","lat":35.76696,"lon":139.504597},{"name":"清戸獅子","province":"東京都","city":"清瀬市","address":"東京都清瀬市中清戸2-616","lat":35.780059,"lon":139.526253},{"name":"下宿囃子","province":"東京都","city":"清瀬市","address":"東京都清瀬市下宿2-515","lat":35.798551,"lon":139.534935},{"name":"スギ","province":"東京都","city":"清瀬市","address":"東京都清瀬市中清戸2-616","lat":35.780059,"lon":139.526253},{"name":"ケヤキ","province":"東京都","city":"清瀬市","address":"東京都清瀬市下宿2-515","lat":35.798551,"lon":139.534935},{"name":"清瀬病院跡地","province":"東京都","city":"清瀬市","address":"東京都清瀬市竹丘3-1-1","lat":35.76696,"lon":139.504597},{"name":"中里の富士塚","province":"東京都","city":"清瀬市","address":"東京都清瀬市中里3-991-1","lat":35.783811,"lon":139.518492},{"name":"中里の火の花祭","province":"東京都","city":"清瀬市","address":"東京都清瀬市中里3-991-1","lat":35.783811,"lon":139.518492},{"name":"下宿のふせぎ行事","province":"東京都","city":"清瀬市","address":"東京都清瀬市下宿2-519","lat":35.796863,"lon":139.534321},{"name":"清瀬のうちおり","province":"東京都","city":"清瀬市","address":"東京都清瀬市上清戸2-6-41","lat":35.779545,"lon":139.521398},{"name":"文明十年月待板碑","province":"東京都","city":"清瀬市","address":"東京都清瀬市上清戸2-6-41","lat":35.779545,"lon":139.521398},{"name":"清瀬市下宿の「ふせぎ」行事","province":"東京都","city":"清瀬市","address":"東京都清瀬市下宿地区","lat":35.799679,"lon":139.537485}]}