{"keyword":"月間","data":[{"name":"清瀬小学校","province":"東京都","city":"清瀬市","address":"東京都清瀬市中里5丁目741","lat":35.78521086,"lon":139.52560538},{"name":"芝山小学校","province":"東京都","city":"清瀬市","address":"東京都清瀬市元町2丁目16-8","lat":35.77535899,"lon":139.511204},{"name":"第三小学校","province":"東京都","city":"清瀬市","address":"東京都清瀬市竹丘1丁目15-4","lat":35.76856813,"lon":139.50992645},{"name":"第四小学校","province":"東京都","city":"清瀬市","address":"東京都清瀬市中里2丁目1471","lat":35.78323576,"lon":139.51043456},{"name":"清明小学校","province":"東京都","city":"清瀬市","address":"東京都清瀬市旭が丘2丁目8-1","lat":35.79688461,"lon":139.539993},{"name":"第六小学校","province":"東京都","city":"清瀬市","address":"東京都清瀬市梅園2丁目9-45","lat":35.77171482,"lon":139.50441299},{"name":"第七小学校","province":"東京都","city":"清瀬市","address":"東京都清瀬市松山3丁目1-92","lat":35.7680377,"lon":139.51264842},{"name":"第八小学校","province":"東京都","city":"清瀬市","address":"東京都清瀬市中清戸4丁目1070","lat":35.78730514,"lon":139.53083267},{"name":"第十小学校","province":"東京都","city":"清瀬市","address":"東京都清瀬市中清戸1丁目454-14","lat":35.77514829,"lon":139.52753573},{"name":"清瀬中学校","province":"東京都","city":"清瀬市","address":"東京都清瀬市中里5丁目624","lat":35.78481922,"lon":139.52486379},{"name":"第二中学校","province":"東京都","city":"清瀬市","address":"東京都清瀬市梅園2丁目9-15","lat":35.7733202,"lon":139.50502681},{"name":"第三中学校","province":"東京都","city":"清瀬市","address":"東京都清瀬市旭が丘1丁目262","lat":35.79147967,"lon":139.53471843},{"name":"第四中学校","province":"東京都","city":"清瀬市","address":"東京都清瀬市野塩3丁目2-3","lat":35.77872237,"lon":139.50745708},{"name":"第五中学校","province":"東京都","city":"清瀬市","address":"東京都清瀬市中清戸3丁目258-1","lat":35.77498457,"lon":139.53371287},{"name":"東京都立清瀬高等学校グラウンド","province":"東京都","city":"清瀬市","address":"東京都清瀬市松山3丁目1-56","lat":35.76969866,"lon":139.51487318},{"name":"都職員共済組合清瀬グランド","province":"東京都","city":"清瀬市","address":"東京都清瀬市竹丘3丁目10-5","lat":35.76460172,"lon":139.5013023},{"name":"東星学園体育館前校庭・幼稚園園庭","province":"東京都","city":"清瀬市","address":"東京都清瀬市梅園3丁目14-47","lat":35.77403671,"lon":139.50180485},{"name":"日本社会事業大学駐車場","province":"東京都","city":"清瀬市","address":"東京都清瀬市竹丘3丁目1-30","lat":35.76642387,"lon":139.50676289},{"name":"明治薬科大学清瀬キャンパス正門アクセスモール","province":"東京都","city":"清瀬市","address":"東京都清瀬市野塩2丁目522-1","lat":35.78130535,"lon":139.50652658},{"name":"国立看護大学校内グラウンド","province":"東京都","city":"清瀬市","address":"東京都清瀬市梅園1丁目2-1","lat":35.77402019,"lon":139.50818485},{"name":"(工事期間中受け入れ不可）都立清瀬特別支援学校","province":"東京都","city":"清瀬市","address":"東京都清瀬市松山3丁目1-97","lat":35.76895978,"lon":139.51152906},{"name":"きずな","province":"東京都","city":"清瀬市","address":"清瀬市下清戸2丁目518番2","lat":35.784972,"lon":139.536413},{"name":"障害者福祉センター　学童クラブのびのび","province":"東京都","city":"清瀬市","address":"清瀬市上清戸1-16-62","lat":35.773265,"lon":139.527664},{"name":"放課後等デイサービスＡＡＯ！","province":"東京都","city":"清瀬市","address":"清瀬市上清戸2-3-41-B","lat":35.777334,"lon":139.521422},{"name":"マイスペ児童デイサービス清瀬","province":"東京都","city":"清瀬市","address":"清瀬市元町一丁目13番20号ブリックヒル1階","lat":35.774854,"lon":139.518223},{"name":"たまみずき清瀬","province":"東京都","city":"清瀬市","address":"清瀬市松山2-2-15清瀬シティハイム2階","lat":35.769838,"lon":139.516287},{"name":"わかば　第１学童クラブ","province":"東京都","city":"清瀬市","address":"清瀬市竹丘1-11-1-101","lat":35.765877,"lon":139.511649},{"name":"放課後等デイサービス　ラビットハウス","province":"東京都","city":"清瀬市","address":"清瀬市竹丘2-16-9","lat":35.762758,"lon":139.507691},{"name":"ビーキッズきよせ","province":"東京都","city":"清瀬市","address":"清瀬市梅園3-4-251階","lat":35.771068,"lon":139.499949},{"name":"アプリ児童デイサービス清瀬","province":"東京都","city":"清瀬市","address":"清瀬市梅園3-2-21","lat":35.768885,"lon":139.501919},{"name":"清瀬市子ども家庭支援センター","province":"東京都","city":"清瀬市","address":"清瀬市中清戸3-235-5清瀬市児童センター内","lat":35.776412,"lon":139.530649},{"name":"清瀬市子ども家庭支援センター","province":"東京都","city":"清瀬市","address":"清瀬市中里5-842清瀬市役所北隣しあわせ未来センター内","lat":35.78591,"lon":139.52619},{"name":"清瀬市子ども家庭支援センター","province":"東京都","city":"清瀬市","address":"清瀬市中清戸3-235-5児童センターころぽっくる内","lat":35.77712,"lon":139.53165},{"name":"清瀬市子ども家庭支援センター","province":"東京都","city":"清瀬市","address":"清瀬市中清戸3-235-5清瀬市児童センター内","lat":35.77867,"lon":139.53389},{"name":"清瀬市役所入口","province":"東京都","city":"清瀬市","address":"東京都清瀬市中清戸3丁目205","lat":35.78096152,"lon":139.53019096},{"name":"清瀬水天宮前","province":"東京都","city":"清瀬市","address":"東京都清瀬市中清戸2丁目616","lat":35.78005876,"lon":139.52625248},{"name":"台田団地入口","province":"東京都","city":"清瀬市","address":"東京都清瀬市中里5丁目636-22","lat":35.78700223,"lon":139.52292789},{"name":"国立東京病院前","province":"東京都","city":"清瀬市","address":"東京都清瀬市竹丘1丁目17","lat":35.76976789,"lon":139.50637674},{"name":"中清戸駐在所前","province":"東京都","city":"清瀬市","address":"東京都清瀬市上清戸2丁目1","lat":35.77943659,"lon":139.52496373},{"name":"中清戸団地入口","province":"東京都","city":"清瀬市","address":"東京都清瀬市中清戸4丁目1096","lat":35.78254192,"lon":139.53263518},{"name":"長命寺前","province":"東京都","city":"清瀬市","address":"東京都清瀬市下清戸2丁目470","lat":35.7837668,"lon":139.53509054},{"name":"けやき通り元町一丁目","province":"東京都","city":"清瀬市","address":"東京都清瀬市元町1丁目4-17","lat":35.7745482,"lon":139.520617},{"name":"中清戸五丁目東","province":"東京都","city":"清瀬市","address":"東京都清瀬市中清戸5丁目47-4","lat":35.78114768,"lon":139.53326563},{"name":"日本社会事業大学入口","province":"東京都","city":"清瀬市","address":"東京都清瀬市竹丘1丁目16","lat":35.76764323,"lon":139.50961816},{"name":"国立病院機構東京病院","province":"東京都","city":"清瀬市","address":"東京都清瀬市竹丘3丁目1-1","lat":35.76696263,"lon":139.5045714},{"name":"都立清瀬小児病院","province":"東京都","city":"清瀬市","address":"東京都清瀬市梅園1丁目3-1","lat":35.77061503,"lon":139.50738775},{"name":"東京都共済組合清瀬運動場","province":"東京都","city":"清瀬市","address":"東京都清瀬市竹丘3丁目10-5","lat":35.76460172,"lon":139.5013023},{"name":"＊?清瀬市男女共同参画センター（アイレック）","province":"東京都","city":"清瀬市","address":"清瀬市元町1-2-11アミュー4階","lat":35.772206,"lon":139.521171},{"name":"清瀬市健康センター","province":"東京都","city":"清瀬市","address":"東京都清瀬市中里5丁目842","lat":35.78608019,"lon":139.52608035},{"name":"清瀬高等学校","province":"東京都","city":"清瀬市","address":"東京都清瀬市松山3丁目1-56","lat":35.76969866,"lon":139.51487318},{"name":"清瀬市本庁舎","province":"東京都","city":"清瀬市","address":"東京都清瀬市中里5丁目842","lat":35.78608019,"lon":139.52608035},{"name":"清瀬市本庁舎","province":"東京都","city":"清瀬市","address":"清瀬市中里5-842","lat":35.786053,"lon":139.526353},{"name":"清瀬消防署","province":"東京都","city":"清瀬市","address":"清瀬市中清戸2-850-1","lat":35.78419,"lon":139.5276},{"name":"（株）千代田","province":"東京都","city":"清瀬市","address":"清瀬市松山2-13-10","lat":35.77322,"lon":139.5138},{"name":"東京都共済組合清瀬運動場","province":"東京都","city":"清瀬市","address":"清瀬市竹丘3-10-5","lat":35.7646,"lon":139.5013},{"name":"※清瀬市本庁舎","province":"東京都","city":"清瀬市","address":"東京都清瀬市中里5丁目842","lat":35.78608019,"lon":139.52608035},{"name":"清瀬小学校","province":"東京都","city":"清瀬市","address":"東京都清瀬市中里5丁目741","lat":35.78521086,"lon":139.52560538},{"name":"芝山小学校","province":"東京都","city":"清瀬市","address":"東京都清瀬市元町2丁目16-8","lat":35.77535899,"lon":139.511204},{"name":"第三小学校","province":"東京都","city":"清瀬市","address":"東京都清瀬市竹丘1丁目15-4","lat":35.76856813,"lon":139.50992645},{"name":"第四小学校","province":"東京都","city":"清瀬市","address":"東京都清瀬市中里2丁目1471","lat":35.78323576,"lon":139.51043456},{"name":"清明小学校","province":"東京都","city":"清瀬市","address":"東京都清瀬市旭が丘2丁目8-1","lat":35.79688461,"lon":139.539993},{"name":"第六小学校","province":"東京都","city":"清瀬市","address":"東京都清瀬市梅園2丁目9-45","lat":35.77171482,"lon":139.50441299},{"name":"第七小学校","province":"東京都","city":"清瀬市","address":"東京都清瀬市松山3丁目1-92","lat":35.7680377,"lon":139.51264842},{"name":"第八小学校","province":"東京都","city":"清瀬市","address":"東京都清瀬市中清戸4丁目1070","lat":35.78730514,"lon":139.53083267},{"name":"第十小学校","province":"東京都","city":"清瀬市","address":"東京都清瀬市中清戸1丁目454-14","lat":35.77514829,"lon":139.52753573},{"name":"清瀬中学校","province":"東京都","city":"清瀬市","address":"東京都清瀬市中里5丁目624","lat":35.78481922,"lon":139.52486379},{"name":"第二中学校","province":"東京都","city":"清瀬市","address":"東京都清瀬市梅園2丁目9-15","lat":35.7733202,"lon":139.50502681},{"name":"第三中学校","province":"東京都","city":"清瀬市","address":"東京都清瀬市旭が丘1丁目262","lat":35.79147967,"lon":139.53471843},{"name":"第四中学校","province":"東京都","city":"清瀬市","address":"東京都清瀬市野塩3丁目2-3","lat":35.77872237,"lon":139.50745708},{"name":"第五中学校","province":"東京都","city":"清瀬市","address":"東京都清瀬市中清戸3丁目258-1","lat":35.77498457,"lon":139.53371287},{"name":"東京都立清瀬高等学校グラウンド","province":"東京都","city":"清瀬市","address":"東京都清瀬市松山3丁目1-56","lat":35.76969866,"lon":139.51487318},{"name":"都職員共済組合清瀬グランド","province":"東京都","city":"清瀬市","address":"東京都清瀬市竹丘3丁目10-5","lat":35.76460172,"lon":139.5013023},{"name":"東星学園体育館前校庭・幼稚園園庭","province":"東京都","city":"清瀬市","address":"東京都清瀬市梅園3丁目14-47","lat":35.77403671,"lon":139.50180485},{"name":"日本社会事業大学駐車場","province":"東京都","city":"清瀬市","address":"東京都清瀬市竹丘3丁目1-30","lat":35.76642387,"lon":139.50676289},{"name":"明治薬科大学清瀬キャンパス正門アクセスモール","province":"東京都","city":"清瀬市","address":"東京都清瀬市野塩2丁目522-1","lat":35.78130535,"lon":139.50652658},{"name":"国立看護大学校内グラウンド","province":"東京都","city":"清瀬市","address":"東京都清瀬市梅園1丁目2-1","lat":35.77402019,"lon":139.50818485},{"name":"(工事期間中受け入れ不可）都立清瀬特別支援学校","province":"東京都","city":"清瀬市","address":"東京都清瀬市松山3丁目1-97","lat":35.76895978,"lon":139.51152906},{"name":"きずな","province":"東京都","city":"清瀬市","address":"清瀬市下清戸2丁目518番2","lat":35.784972,"lon":139.536413},{"name":"障害者福祉センター　学童クラブのびのび","province":"東京都","city":"清瀬市","address":"清瀬市上清戸1-16-62","lat":35.773265,"lon":139.527664},{"name":"放課後等デイサービスＡＡＯ！","province":"東京都","city":"清瀬市","address":"清瀬市上清戸2-3-41-B","lat":35.777334,"lon":139.521422},{"name":"マイスペ児童デイサービス清瀬","province":"東京都","city":"清瀬市","address":"清瀬市元町一丁目13番20号ブリックヒル1階","lat":35.774854,"lon":139.518223},{"name":"たまみずき清瀬","province":"東京都","city":"清瀬市","address":"清瀬市松山2-2-15清瀬シティハイム2階","lat":35.769838,"lon":139.516287},{"name":"わかば　第１学童クラブ","province":"東京都","city":"清瀬市","address":"清瀬市竹丘1-11-1-101","lat":35.765877,"lon":139.511649},{"name":"放課後等デイサービス　ラビットハウス","province":"東京都","city":"清瀬市","address":"清瀬市竹丘2-16-9","lat":35.762758,"lon":139.507691},{"name":"ビーキッズきよせ","province":"東京都","city":"清瀬市","address":"清瀬市梅園3-4-251階","lat":35.771068,"lon":139.499949},{"name":"アプリ児童デイサービス清瀬","province":"東京都","city":"清瀬市","address":"清瀬市梅園3-2-21","lat":35.768885,"lon":139.501919},{"name":"清瀬市子ども家庭支援センター","province":"東京都","city":"清瀬市","address":"清瀬市中清戸3-235-5清瀬市児童センター内","lat":35.776412,"lon":139.530649},{"name":"清瀬市子ども家庭支援センター","province":"東京都","city":"清瀬市","address":"清瀬市中里5-842清瀬市役所北隣しあわせ未来センター内","lat":35.78591,"lon":139.52619},{"name":"清瀬市子ども家庭支援センター","province":"東京都","city":"清瀬市","address":"清瀬市中清戸3-235-5児童センターころぽっくる内","lat":35.77712,"lon":139.53165},{"name":"清瀬市子ども家庭支援センター","province":"東京都","city":"清瀬市","address":"清瀬市中清戸3-235-5清瀬市児童センター内","lat":35.77867,"lon":139.53389},{"name":"清瀬市役所入口","province":"東京都","city":"清瀬市","address":"東京都清瀬市中清戸3丁目205","lat":35.78096152,"lon":139.53019096},{"name":"清瀬水天宮前","province":"東京都","city":"清瀬市","address":"東京都清瀬市中清戸2丁目616","lat":35.78005876,"lon":139.52625248},{"name":"台田団地入口","province":"東京都","city":"清瀬市","address":"東京都清瀬市中里5丁目636-22","lat":35.78700223,"lon":139.52292789},{"name":"国立東京病院前","province":"東京都","city":"清瀬市","address":"東京都清瀬市竹丘1丁目17","lat":35.76976789,"lon":139.50637674},{"name":"中清戸駐在所前","province":"東京都","city":"清瀬市","address":"東京都清瀬市上清戸2丁目1","lat":35.77943659,"lon":139.52496373},{"name":"中清戸団地入口","province":"東京都","city":"清瀬市","address":"東京都清瀬市中清戸4丁目1096","lat":35.78254192,"lon":139.53263518},{"name":"長命寺前","province":"東京都","city":"清瀬市","address":"東京都清瀬市下清戸2丁目470","lat":35.7837668,"lon":139.53509054},{"name":"けやき通り元町一丁目","province":"東京都","city":"清瀬市","address":"東京都清瀬市元町1丁目4-17","lat":35.7745482,"lon":139.520617},{"name":"中清戸五丁目東","province":"東京都","city":"清瀬市","address":"東京都清瀬市中清戸5丁目47-4","lat":35.78114768,"lon":139.53326563},{"name":"日本社会事業大学入口","province":"東京都","city":"清瀬市","address":"東京都清瀬市竹丘1丁目16","lat":35.76764323,"lon":139.50961816},{"name":"国立病院機構東京病院","province":"東京都","city":"清瀬市","address":"東京都清瀬市竹丘3丁目1-1","lat":35.76696263,"lon":139.5045714},{"name":"都立清瀬小児病院","province":"東京都","city":"清瀬市","address":"東京都清瀬市梅園1丁目3-1","lat":35.77061503,"lon":139.50738775},{"name":"東京都共済組合清瀬運動場","province":"東京都","city":"清瀬市","address":"東京都清瀬市竹丘3丁目10-5","lat":35.76460172,"lon":139.5013023},{"name":"＊?清瀬市男女共同参画センター（アイレック）","province":"東京都","city":"清瀬市","address":"清瀬市元町1-2-11アミュー4階","lat":35.772206,"lon":139.521171},{"name":"清瀬高等学校","province":"東京都","city":"清瀬市","address":"東京都清瀬市松山3丁目1-56","lat":35.76969866,"lon":139.51487318},{"name":"清瀬小学校","province":"東京都","city":"清瀬市","address":"東京都清瀬市中里5丁目741","lat":35.78521086,"lon":139.52560538},{"name":"芝山小学校","province":"東京都","city":"清瀬市","address":"東京都清瀬市元町2丁目16-8","lat":35.77535899,"lon":139.511204},{"name":"第三小学校","province":"東京都","city":"清瀬市","address":"東京都清瀬市竹丘1丁目15-4","lat":35.76856813,"lon":139.50992645},{"name":"第四小学校","province":"東京都","city":"清瀬市","address":"東京都清瀬市中里2丁目1471","lat":35.78323576,"lon":139.51043456},{"name":"清明小学校","province":"東京都","city":"清瀬市","address":"東京都清瀬市旭が丘2丁目8-1","lat":35.79688461,"lon":139.539993},{"name":"第六小学校","province":"東京都","city":"清瀬市","address":"東京都清瀬市梅園2丁目9-45","lat":35.77171482,"lon":139.50441299},{"name":"第七小学校","province":"東京都","city":"清瀬市","address":"東京都清瀬市松山3丁目1-92","lat":35.7680377,"lon":139.51264842},{"name":"第八小学校","province":"東京都","city":"清瀬市","address":"東京都清瀬市中清戸4丁目1070","lat":35.78730514,"lon":139.53083267},{"name":"第十小学校","province":"東京都","city":"清瀬市","address":"東京都清瀬市中清戸1丁目454-14","lat":35.77514829,"lon":139.52753573},{"name":"清瀬中学校","province":"東京都","city":"清瀬市","address":"東京都清瀬市中里5丁目624","lat":35.78481922,"lon":139.52486379},{"name":"第二中学校","province":"東京都","city":"清瀬市","address":"東京都清瀬市梅園2丁目9-15","lat":35.7733202,"lon":139.50502681},{"name":"第三中学校","province":"東京都","city":"清瀬市","address":"東京都清瀬市旭が丘1丁目262","lat":35.79147967,"lon":139.53471843},{"name":"第四中学校","province":"東京都","city":"清瀬市","address":"東京都清瀬市野塩3丁目2-3","lat":35.77872237,"lon":139.50745708},{"name":"第五中学校","province":"東京都","city":"清瀬市","address":"東京都清瀬市中清戸3丁目258-1","lat":35.77498457,"lon":139.53371287},{"name":"東京都立清瀬高等学校グラウンド","province":"東京都","city":"清瀬市","address":"東京都清瀬市松山3丁目1-56","lat":35.76969866,"lon":139.51487318},{"name":"都職員共済組合清瀬グランド","province":"東京都","city":"清瀬市","address":"東京都清瀬市竹丘3丁目10-5","lat":35.76460172,"lon":139.5013023},{"name":"東星学園体育館前校庭・幼稚園園庭","province":"東京都","city":"清瀬市","address":"東京都清瀬市梅園3丁目14-47","lat":35.77403671,"lon":139.50180485},{"name":"日本社会事業大学駐車場","province":"東京都","city":"清瀬市","address":"東京都清瀬市竹丘3丁目1-30","lat":35.76642387,"lon":139.50676289},{"name":"明治薬科大学清瀬キャンパス正門アクセスモール","province":"東京都","city":"清瀬市","address":"東京都清瀬市野塩2丁目522-1","lat":35.78130535,"lon":139.50652658},{"name":"国立看護大学校内グラウンド","province":"東京都","city":"清瀬市","address":"東京都清瀬市梅園1丁目2-1","lat":35.77402019,"lon":139.50818485},{"name":"(工事期間中受け入れ不可）都立清瀬特別支援学校","province":"東京都","city":"清瀬市","address":"東京都清瀬市松山3丁目1-97","lat":35.76895978,"lon":139.51152906},{"name":"きずな","province":"東京都","city":"清瀬市","address":"清瀬市下清戸2丁目518番2","lat":35.784972,"lon":139.536413},{"name":"障害者福祉センター　学童クラブのびのび","province":"東京都","city":"清瀬市","address":"清瀬市上清戸1-16-62","lat":35.773265,"lon":139.527664},{"name":"放課後等デイサービスＡＡＯ！","province":"東京都","city":"清瀬市","address":"清瀬市上清戸2-3-41-B","lat":35.777334,"lon":139.521422},{"name":"マイスペ児童デイサービス清瀬","province":"東京都","city":"清瀬市","address":"清瀬市元町一丁目13番20号ブリックヒル1階","lat":35.774854,"lon":139.518223},{"name":"たまみずき清瀬","province":"東京都","city":"清瀬市","address":"清瀬市松山2-2-15清瀬シティハイム2階","lat":35.769838,"lon":139.516287},{"name":"わかば　第１学童クラブ","province":"東京都","city":"清瀬市","address":"清瀬市竹丘1-11-1-101","lat":35.765877,"lon":139.511649},{"name":"放課後等デイサービス　ラビットハウス","province":"東京都","city":"清瀬市","address":"清瀬市竹丘2-16-9","lat":35.762758,"lon":139.507691},{"name":"ビーキッズきよせ","province":"東京都","city":"清瀬市","address":"清瀬市梅園3-4-251階","lat":35.771068,"lon":139.499949},{"name":"アプリ児童デイサービス清瀬","province":"東京都","city":"清瀬市","address":"清瀬市梅園3-2-21","lat":35.768885,"lon":139.501919},{"name":"清瀬市子ども家庭支援センター","province":"東京都","city":"清瀬市","address":"清瀬市中清戸3-235-5清瀬市児童センター内","lat":35.776412,"lon":139.530649},{"name":"清瀬市子ども家庭支援センター","province":"東京都","city":"清瀬市","address":"清瀬市中里5-842清瀬市役所北隣しあわせ未来センター内","lat":35.78591,"lon":139.52619},{"name":"清瀬市子ども家庭支援センター","province":"東京都","city":"清瀬市","address":"清瀬市中清戸3-235-5児童センターころぽっくる内","lat":35.77712,"lon":139.53165},{"name":"清瀬市子ども家庭支援センター","province":"東京都","city":"清瀬市","address":"清瀬市中清戸3-235-5清瀬市児童センター内","lat":35.77867,"lon":139.53389},{"name":"清瀬市役所入口","province":"東京都","city":"清瀬市","address":"東京都清瀬市中清戸3丁目205","lat":35.78096152,"lon":139.53019096},{"name":"清瀬水天宮前","province":"東京都","city":"清瀬市","address":"東京都清瀬市中清戸2丁目616","lat":35.78005876,"lon":139.52625248},{"name":"台田団地入口","province":"東京都","city":"清瀬市","address":"東京都清瀬市中里5丁目636-22","lat":35.78700223,"lon":139.52292789},{"name":"国立東京病院前","province":"東京都","city":"清瀬市","address":"東京都清瀬市竹丘1丁目17","lat":35.76976789,"lon":139.50637674},{"name":"中清戸駐在所前","province":"東京都","city":"清瀬市","address":"東京都清瀬市上清戸2丁目1","lat":35.77943659,"lon":139.52496373},{"name":"中清戸団地入口","province":"東京都","city":"清瀬市","address":"東京都清瀬市中清戸4丁目1096","lat":35.78254192,"lon":139.53263518},{"name":"長命寺前","province":"東京都","city":"清瀬市","address":"東京都清瀬市下清戸2丁目470","lat":35.7837668,"lon":139.53509054},{"name":"けやき通り元町一丁目","province":"東京都","city":"清瀬市","address":"東京都清瀬市元町1丁目4-17","lat":35.7745482,"lon":139.520617},{"name":"中清戸五丁目東","province":"東京都","city":"清瀬市","address":"東京都清瀬市中清戸5丁目47-4","lat":35.78114768,"lon":139.53326563},{"name":"日本社会事業大学入口","province":"東京都","city":"清瀬市","address":"東京都清瀬市竹丘1丁目16","lat":35.76764323,"lon":139.50961816},{"name":"国立病院機構東京病院","province":"東京都","city":"清瀬市","address":"東京都清瀬市竹丘3丁目1-1","lat":35.76696263,"lon":139.5045714},{"name":"都立清瀬小児病院","province":"東京都","city":"清瀬市","address":"東京都清瀬市梅園1丁目3-1","lat":35.77061503,"lon":139.50738775},{"name":"東京都共済組合清瀬運動場","province":"東京都","city":"清瀬市","address":"東京都清瀬市竹丘3丁目10-5","lat":35.76460172,"lon":139.5013023},{"name":"＊?清瀬市男女共同参画センター（アイレック）","province":"東京都","city":"清瀬市","address":"清瀬市元町1-2-11アミュー4階","lat":35.772206,"lon":139.521171},{"name":"清瀬高等学校","province":"東京都","city":"清瀬市","address":"東京都清瀬市松山3丁目1-56","lat":35.76969866,"lon":139.51487318},{"name":"きずな","province":"東京都","city":"清瀬市","address":"清瀬市下清戸2丁目518番2","lat":35.784972,"lon":139.536413},{"name":"障害者福祉センター　学童クラブのびのび","province":"東京都","city":"清瀬市","address":"清瀬市上清戸1-16-62","lat":35.773265,"lon":139.527664},{"name":"放課後等デイサービスＡＡＯ！","province":"東京都","city":"清瀬市","address":"清瀬市上清戸2-3-41-B","lat":35.777334,"lon":139.521422},{"name":"マイスペ児童デイサービス清瀬","province":"東京都","city":"清瀬市","address":"清瀬市元町一丁目13番20号ブリックヒル1階","lat":35.774854,"lon":139.518223},{"name":"たまみずき清瀬","province":"東京都","city":"清瀬市","address":"清瀬市松山2-2-15清瀬シティハイム2階","lat":35.769838,"lon":139.516287},{"name":"わかば　第１学童クラブ","province":"東京都","city":"清瀬市","address":"清瀬市竹丘1-11-1-101","lat":35.765877,"lon":139.511649},{"name":"放課後等デイサービス　ラビットハウス","province":"東京都","city":"清瀬市","address":"清瀬市竹丘2-16-9","lat":35.762758,"lon":139.507691},{"name":"ビーキッズきよせ","province":"東京都","city":"清瀬市","address":"清瀬市梅園3-4-251階","lat":35.771068,"lon":139.499949},{"name":"アプリ児童デイサービス清瀬","province":"東京都","city":"清瀬市","address":"清瀬市梅園3-2-21","lat":35.768885,"lon":139.501919},{"name":"清瀬市子ども家庭支援センター","province":"東京都","city":"清瀬市","address":"清瀬市中清戸3-235-5清瀬市児童センター内","lat":35.776412,"lon":139.530649},{"name":"清瀬市子ども家庭支援センター","province":"東京都","city":"清瀬市","address":"清瀬市中里5-842清瀬市役所北隣しあわせ未来センター内","lat":35.78591,"lon":139.52619},{"name":"清瀬市子ども家庭支援センター","province":"東京都","city":"清瀬市","address":"清瀬市中清戸3-235-5児童センターころぽっくる内","lat":35.77712,"lon":139.53165},{"name":"清瀬市子ども家庭支援センター","province":"東京都","city":"清瀬市","address":"清瀬市中清戸3-235-5清瀬市児童センター内","lat":35.77867,"lon":139.53389},{"name":"東京都共済組合清瀬運動場","province":"東京都","city":"清瀬市","address":"東京都清瀬市竹丘3丁目10-5","lat":35.76460172,"lon":139.5013023},{"name":"＊?清瀬市男女共同参画センター（アイレック）","province":"東京都","city":"清瀬市","address":"清瀬市元町1-2-11アミュー4階","lat":35.772206,"lon":139.521171},{"name":"清瀬高等学校","province":"東京都","city":"清瀬市","address":"東京都清瀬市松山3丁目1-56","lat":35.76969866,"lon":139.51487318},{"name":"きずな","province":"東京都","city":"清瀬市","address":"清瀬市下清戸2丁目518番2","lat":35.784972,"lon":139.536413},{"name":"障害者福祉センター　学童クラブのびのび","province":"東京都","city":"清瀬市","address":"清瀬市上清戸1-16-62","lat":35.773265,"lon":139.527664},{"name":"放課後等デイサービスＡＡＯ！","province":"東京都","city":"清瀬市","address":"清瀬市上清戸2-3-41-B","lat":35.777334,"lon":139.521422},{"name":"マイスペ児童デイサービス清瀬","province":"東京都","city":"清瀬市","address":"清瀬市元町一丁目13番20号ブリックヒル1階","lat":35.774854,"lon":139.518223},{"name":"たまみずき清瀬","province":"東京都","city":"清瀬市","address":"清瀬市松山2-2-15清瀬シティハイム2階","lat":35.769838,"lon":139.516287},{"name":"わかば　第１学童クラブ","province":"東京都","city":"清瀬市","address":"清瀬市竹丘1-11-1-101","lat":35.765877,"lon":139.511649},{"name":"放課後等デイサービス　ラビットハウス","province":"東京都","city":"清瀬市","address":"清瀬市竹丘2-16-9","lat":35.762758,"lon":139.507691},{"name":"ビーキッズきよせ","province":"東京都","city":"清瀬市","address":"清瀬市梅園3-4-251階","lat":35.771068,"lon":139.499949},{"name":"アプリ児童デイサービス清瀬","province":"東京都","city":"清瀬市","address":"清瀬市梅園3-2-21","lat":35.768885,"lon":139.501919},{"name":"清瀬市子ども家庭支援センター","province":"東京都","city":"清瀬市","address":"清瀬市中清戸3-235-5清瀬市児童センター内","lat":35.776412,"lon":139.530649},{"name":"清瀬市子ども家庭支援センター","province":"東京都","city":"清瀬市","address":"清瀬市中里5-842清瀬市役所北隣しあわせ未来センター内","lat":35.78591,"lon":139.52619},{"name":"清瀬市子ども家庭支援センター","province":"東京都","city":"清瀬市","address":"清瀬市中清戸3-235-5児童センターころぽっくる内","lat":35.77712,"lon":139.53165},{"name":"清瀬市子ども家庭支援センター","province":"東京都","city":"清瀬市","address":"清瀬市中清戸3-235-5清瀬市児童センター内","lat":35.77867,"lon":139.53389},{"name":"＊?清瀬市男女共同参画センター（アイレック）","province":"東京都","city":"清瀬市","address":"清瀬市元町1-2-11アミュー4階","lat":35.772206,"lon":139.521171},{"name":"清瀬高等学校","province":"東京都","city":"清瀬市","address":"東京都清瀬市松山3丁目1-56","lat":35.76969866,"lon":139.51487318},{"name":"きずな","province":"東京都","city":"清瀬市","address":"清瀬市下清戸2丁目518番2","lat":35.784972,"lon":139.536413},{"name":"障害者福祉センター　学童クラブのびのび","province":"東京都","city":"清瀬市","address":"清瀬市上清戸1-16-62","lat":35.773265,"lon":139.527664},{"name":"放課後等デイサービスＡＡＯ！","province":"東京都","city":"清瀬市","address":"清瀬市上清戸2-3-41-B","lat":35.777334,"lon":139.521422},{"name":"マイスペ児童デイサービス清瀬","province":"東京都","city":"清瀬市","address":"清瀬市元町一丁目13番20号ブリックヒル1階","lat":35.774854,"lon":139.518223},{"name":"たまみずき清瀬","province":"東京都","city":"清瀬市","address":"清瀬市松山2-2-15清瀬シティハイム2階","lat":35.769838,"lon":139.516287},{"name":"わかば　第１学童クラブ","province":"東京都","city":"清瀬市","address":"清瀬市竹丘1-11-1-101","lat":35.765877,"lon":139.511649},{"name":"放課後等デイサービス　ラビットハウス","province":"東京都","city":"清瀬市","address":"清瀬市竹丘2-16-9","lat":35.762758,"lon":139.507691},{"name":"ビーキッズきよせ","province":"東京都","city":"清瀬市","address":"清瀬市梅園3-4-251階","lat":35.771068,"lon":139.499949},{"name":"アプリ児童デイサービス清瀬","province":"東京都","city":"清瀬市","address":"清瀬市梅園3-2-21","lat":35.768885,"lon":139.501919},{"name":"清瀬市子ども家庭支援センター","province":"東京都","city":"清瀬市","address":"清瀬市中清戸3-235-5清瀬市児童センター内","lat":35.776412,"lon":139.530649},{"name":"清瀬市子ども家庭支援センター","province":"東京都","city":"清瀬市","address":"清瀬市中里5-842清瀬市役所北隣しあわせ未来センター内","lat":35.78591,"lon":139.52619},{"name":"清瀬市子ども家庭支援センター","province":"東京都","city":"清瀬市","address":"清瀬市中清戸3-235-5児童センターころぽっくる内","lat":35.77712,"lon":139.53165},{"name":"清瀬市子ども家庭支援センター","province":"東京都","city":"清瀬市","address":"清瀬市中清戸3-235-5清瀬市児童センター内","lat":35.77867,"lon":139.53389},{"name":"＊?清瀬市男女共同参画センター（アイレック）","province":"東京都","city":"清瀬市","address":"清瀬市元町1-2-11アミュー4階","lat":35.772206,"lon":139.521171},{"name":"清瀬高等学校","province":"東京都","city":"清瀬市","address":"東京都清瀬市松山3丁目1-56","lat":35.76969866,"lon":139.51487318},{"name":"きずな","province":"東京都","city":"清瀬市","address":"清瀬市下清戸2丁目518番2","lat":35.784972,"lon":139.536413},{"name":"障害者福祉センター　学童クラブのびのび","province":"東京都","city":"清瀬市","address":"清瀬市上清戸1-16-62","lat":35.773265,"lon":139.527664},{"name":"放課後等デイサービスＡＡＯ！","province":"東京都","city":"清瀬市","address":"清瀬市上清戸2-3-41-B","lat":35.777334,"lon":139.521422},{"name":"マイスペ児童デイサービス清瀬","province":"東京都","city":"清瀬市","address":"清瀬市元町一丁目13番20号ブリックヒル1階","lat":35.774854,"lon":139.518223},{"name":"たまみずき清瀬","province":"東京都","city":"清瀬市","address":"清瀬市松山2-2-15清瀬シティハイム2階","lat":35.769838,"lon":139.516287},{"name":"わかば　第１学童クラブ","province":"東京都","city":"清瀬市","address":"清瀬市竹丘1-11-1-101","lat":35.765877,"lon":139.511649},{"name":"放課後等デイサービス　ラビットハウス","province":"東京都","city":"清瀬市","address":"清瀬市竹丘2-16-9","lat":35.762758,"lon":139.507691},{"name":"ビーキッズきよせ","province":"東京都","city":"清瀬市","address":"清瀬市梅園3-4-251階","lat":35.771068,"lon":139.499949},{"name":"アプリ児童デイサービス清瀬","province":"東京都","city":"清瀬市","address":"清瀬市梅園3-2-21","lat":35.768885,"lon":139.501919},{"name":"清瀬市子ども家庭支援センター","province":"東京都","city":"清瀬市","address":"清瀬市中清戸3-235-5清瀬市児童センター内","lat":35.776412,"lon":139.530649},{"name":"清瀬市子ども家庭支援センター","province":"東京都","city":"清瀬市","address":"清瀬市中里5-842清瀬市役所北隣しあわせ未来センター内","lat":35.78591,"lon":139.52619},{"name":"清瀬市子ども家庭支援センター","province":"東京都","city":"清瀬市","address":"清瀬市中清戸3-235-5児童センターころぽっくる内","lat":35.77712,"lon":139.53165},{"name":"清瀬市子ども家庭支援センター","province":"東京都","city":"清瀬市","address":"清瀬市中清戸3-235-5清瀬市児童センター内","lat":35.77867,"lon":139.53389},{"name":"＊?清瀬市男女共同参画センター（アイレック）","province":"東京都","city":"清瀬市","address":"清瀬市元町1-2-11アミュー4階","lat":35.772206,"lon":139.521171},{"name":"清瀬高等学校","province":"東京都","city":"清瀬市","address":"東京都清瀬市松山3丁目1-56","lat":35.76969866,"lon":139.51487318},{"name":"きずな","province":"東京都","city":"清瀬市","address":"清瀬市下清戸2丁目518番2","lat":35.784972,"lon":139.536413},{"name":"障害者福祉センター　学童クラブのびのび","province":"東京都","city":"清瀬市","address":"清瀬市上清戸1-16-62","lat":35.773265,"lon":139.527664},{"name":"放課後等デイサービスＡＡＯ！","province":"東京都","city":"清瀬市","address":"清瀬市上清戸2-3-41-B","lat":35.777334,"lon":139.521422},{"name":"マイスペ児童デイサービス清瀬","province":"東京都","city":"清瀬市","address":"清瀬市元町一丁目13番20号ブリックヒル1階","lat":35.774854,"lon":139.518223},{"name":"たまみずき清瀬","province":"東京都","city":"清瀬市","address":"清瀬市松山2-2-15清瀬シティハイム2階","lat":35.769838,"lon":139.516287},{"name":"わかば　第１学童クラブ","province":"東京都","city":"清瀬市","address":"清瀬市竹丘1-11-1-101","lat":35.765877,"lon":139.511649},{"name":"放課後等デイサービス　ラビットハウス","province":"東京都","city":"清瀬市","address":"清瀬市竹丘2-16-9","lat":35.762758,"lon":139.507691},{"name":"ビーキッズきよせ","province":"東京都","city":"清瀬市","address":"清瀬市梅園3-4-251階","lat":35.771068,"lon":139.499949},{"name":"アプリ児童デイサービス清瀬","province":"東京都","city":"清瀬市","address":"清瀬市梅園3-2-21","lat":35.768885,"lon":139.501919},{"name":"清瀬市子ども家庭支援センター","province":"東京都","city":"清瀬市","address":"清瀬市中清戸3-235-5清瀬市児童センター内","lat":35.776412,"lon":139.530649},{"name":"清瀬市子ども家庭支援センター","province":"東京都","city":"清瀬市","address":"清瀬市中里5-842清瀬市役所北隣しあわせ未来センター内","lat":35.78591,"lon":139.52619},{"name":"清瀬市子ども家庭支援センター","province":"東京都","city":"清瀬市","address":"清瀬市中清戸3-235-5児童センターころぽっくる内","lat":35.77712,"lon":139.53165},{"name":"清瀬市子ども家庭支援センター","province":"東京都","city":"清瀬市","address":"清瀬市中清戸3-235-5清瀬市児童センター内","lat":35.77867,"lon":139.53389},{"name":"＊?清瀬市男女共同参画センター（アイレック）","province":"東京都","city":"清瀬市","address":"清瀬市元町1-2-11アミュー4階","lat":35.772206,"lon":139.521171},{"name":"清瀬高等学校","province":"東京都","city":"清瀬市","address":"東京都清瀬市松山3丁目1-56","lat":35.76969866,"lon":139.51487318},{"name":"きずな","province":"東京都","city":"清瀬市","address":"清瀬市下清戸2丁目518番2","lat":35.784972,"lon":139.536413},{"name":"障害者福祉センター　学童クラブのびのび","province":"東京都","city":"清瀬市","address":"清瀬市上清戸1-16-62","lat":35.773265,"lon":139.527664},{"name":"放課後等デイサービスＡＡＯ！","province":"東京都","city":"清瀬市","address":"清瀬市上清戸2-3-41-B","lat":35.777334,"lon":139.521422},{"name":"マイスペ児童デイサービス清瀬","province":"東京都","city":"清瀬市","address":"清瀬市元町一丁目13番20号ブリックヒル1階","lat":35.774854,"lon":139.518223},{"name":"たまみずき清瀬","province":"東京都","city":"清瀬市","address":"清瀬市松山2-2-15清瀬シティハイム2階","lat":35.769838,"lon":139.516287},{"name":"わかば　第１学童クラブ","province":"東京都","city":"清瀬市","address":"清瀬市竹丘1-11-1-101","lat":35.765877,"lon":139.511649},{"name":"放課後等デイサービス　ラビットハウス","province":"東京都","city":"清瀬市","address":"清瀬市竹丘2-16-9","lat":35.762758,"lon":139.507691},{"name":"ビーキッズきよせ","province":"東京都","city":"清瀬市","address":"清瀬市梅園3-4-251階","lat":35.771068,"lon":139.499949},{"name":"アプリ児童デイサービス清瀬","province":"東京都","city":"清瀬市","address":"清瀬市梅園3-2-21","lat":35.768885,"lon":139.501919},{"name":"清瀬市子ども家庭支援センター","province":"東京都","city":"清瀬市","address":"清瀬市中清戸3-235-5清瀬市児童センター内","lat":35.776412,"lon":139.530649},{"name":"清瀬市子ども家庭支援センター","province":"東京都","city":"清瀬市","address":"清瀬市中里5-842清瀬市役所北隣しあわせ未来センター内","lat":35.78591,"lon":139.52619},{"name":"清瀬市子ども家庭支援センター","province":"東京都","city":"清瀬市","address":"清瀬市中清戸3-235-5児童センターころぽっくる内","lat":35.77712,"lon":139.53165},{"name":"清瀬市子ども家庭支援センター","province":"東京都","city":"清瀬市","address":"清瀬市中清戸3-235-5清瀬市児童センター内","lat":35.77867,"lon":139.53389},{"name":"＊?清瀬市男女共同参画センター（アイレック）","province":"東京都","city":"清瀬市","address":"清瀬市元町1-2-11アミュー4階","lat":35.772206,"lon":139.521171},{"name":"清瀬高等学校","province":"東京都","city":"清瀬市","address":"東京都清瀬市松山3丁目1-56","lat":35.76969866,"lon":139.51487318},{"name":"きずな","province":"東京都","city":"清瀬市","address":"清瀬市下清戸2丁目518番2","lat":35.784972,"lon":139.536413},{"name":"障害者福祉センター　学童クラブのびのび","province":"東京都","city":"清瀬市","address":"清瀬市上清戸1-16-62","lat":35.773265,"lon":139.527664},{"name":"放課後等デイサービスＡＡＯ！","province":"東京都","city":"清瀬市","address":"清瀬市上清戸2-3-41-B","lat":35.777334,"lon":139.521422},{"name":"マイスペ児童デイサービス清瀬","province":"東京都","city":"清瀬市","address":"清瀬市元町一丁目13番20号ブリックヒル1階","lat":35.774854,"lon":139.518223},{"name":"たまみずき清瀬","province":"東京都","city":"清瀬市","address":"清瀬市松山2-2-15清瀬シティハイム2階","lat":35.769838,"lon":139.516287},{"name":"わかば　第１学童クラブ","province":"東京都","city":"清瀬市","address":"清瀬市竹丘1-11-1-101","lat":35.765877,"lon":139.511649},{"name":"放課後等デイサービス　ラビットハウス","province":"東京都","city":"清瀬市","address":"清瀬市竹丘2-16-9","lat":35.762758,"lon":139.507691},{"name":"ビーキッズきよせ","province":"東京都","city":"清瀬市","address":"清瀬市梅園3-4-251階","lat":35.771068,"lon":139.499949},{"name":"アプリ児童デイサービス清瀬","province":"東京都","city":"清瀬市","address":"清瀬市梅園3-2-21","lat":35.768885,"lon":139.501919},{"name":"清瀬市子ども家庭支援センター","province":"東京都","city":"清瀬市","address":"清瀬市中清戸3-235-5清瀬市児童センター内","lat":35.776412,"lon":139.530649},{"name":"清瀬市子ども家庭支援センター","province":"東京都","city":"清瀬市","address":"清瀬市中里5-842清瀬市役所北隣しあわせ未来センター内","lat":35.78591,"lon":139.52619},{"name":"清瀬市子ども家庭支援センター","province":"東京都","city":"清瀬市","address":"清瀬市中清戸3-235-5児童センターころぽっくる内","lat":35.77712,"lon":139.53165},{"name":"清瀬市子ども家庭支援センター","province":"東京都","city":"清瀬市","address":"清瀬市中清戸3-235-5清瀬市児童センター内","lat":35.77867,"lon":139.53389},{"name":"＊?清瀬市男女共同参画センター（アイレック）","province":"東京都","city":"清瀬市","address":"清瀬市元町1-2-11アミュー4階","lat":35.772206,"lon":139.521171},{"name":"清瀬高等学校","province":"東京都","city":"清瀬市","address":"東京都清瀬市松山3丁目1-56","lat":35.76969866,"lon":139.51487318},{"name":"きずな","province":"東京都","city":"清瀬市","address":"清瀬市下清戸2丁目518番2","lat":35.784972,"lon":139.536413},{"name":"障害者福祉センター　学童クラブのびのび","province":"東京都","city":"清瀬市","address":"清瀬市上清戸1-16-62","lat":35.773265,"lon":139.527664},{"name":"放課後等デイサービスＡＡＯ！","province":"東京都","city":"清瀬市","address":"清瀬市上清戸2-3-41-B","lat":35.777334,"lon":139.521422},{"name":"マイスペ児童デイサービス清瀬","province":"東京都","city":"清瀬市","address":"清瀬市元町一丁目13番20号ブリックヒル1階","lat":35.774854,"lon":139.518223},{"name":"たまみずき清瀬","province":"東京都","city":"清瀬市","address":"清瀬市松山2-2-15清瀬シティハイム2階","lat":35.769838,"lon":139.516287},{"name":"わかば　第１学童クラブ","province":"東京都","city":"清瀬市","address":"清瀬市竹丘1-11-1-101","lat":35.765877,"lon":139.511649},{"name":"放課後等デイサービス　ラビットハウス","province":"東京都","city":"清瀬市","address":"清瀬市竹丘2-16-9","lat":35.762758,"lon":139.507691},{"name":"ビーキッズきよせ","province":"東京都","city":"清瀬市","address":"清瀬市梅園3-4-251階","lat":35.771068,"lon":139.499949},{"name":"アプリ児童デイサービス清瀬","province":"東京都","city":"清瀬市","address":"清瀬市梅園3-2-21","lat":35.768885,"lon":139.501919},{"name":"清瀬市子ども家庭支援センター","province":"東京都","city":"清瀬市","address":"清瀬市中清戸3-235-5清瀬市児童センター内","lat":35.776412,"lon":139.530649},{"name":"清瀬市子ども家庭支援センター","province":"東京都","city":"清瀬市","address":"清瀬市中里5-842清瀬市役所北隣しあわせ未来センター内","lat":35.78591,"lon":139.52619},{"name":"清瀬市子ども家庭支援センター","province":"東京都","city":"清瀬市","address":"清瀬市中清戸3-235-5児童センターころぽっくる内","lat":35.77712,"lon":139.53165},{"name":"清瀬市子ども家庭支援センター","province":"東京都","city":"清瀬市","address":"清瀬市中清戸3-235-5清瀬市児童センター内","lat":35.77867,"lon":139.53389},{"name":"＊?清瀬市男女共同参画センター（アイレック）","province":"東京都","city":"清瀬市","address":"清瀬市元町1-2-11アミュー4階","lat":35.772206,"lon":139.521171},{"name":"清瀬高等学校","province":"東京都","city":"清瀬市","address":"東京都清瀬市松山3丁目1-56","lat":35.76969866,"lon":139.51487318},{"name":"きずな","province":"東京都","city":"清瀬市","address":"清瀬市下清戸2丁目518番2","lat":35.784972,"lon":139.536413},{"name":"障害者福祉センター　学童クラブのびのび","province":"東京都","city":"清瀬市","address":"清瀬市上清戸1-16-62","lat":35.773265,"lon":139.527664},{"name":"放課後等デイサービスＡＡＯ！","province":"東京都","city":"清瀬市","address":"清瀬市上清戸2-3-41-B","lat":35.777334,"lon":139.521422},{"name":"マイスペ児童デイサービス清瀬","province":"東京都","city":"清瀬市","address":"清瀬市元町一丁目13番20号ブリックヒル1階","lat":35.774854,"lon":139.518223},{"name":"たまみずき清瀬","province":"東京都","city":"清瀬市","address":"清瀬市松山2-2-15清瀬シティハイム2階","lat":35.769838,"lon":139.516287},{"name":"わかば　第１学童クラブ","province":"東京都","city":"清瀬市","address":"清瀬市竹丘1-11-1-101","lat":35.765877,"lon":139.511649},{"name":"放課後等デイサービス　ラビットハウス","province":"東京都","city":"清瀬市","address":"清瀬市竹丘2-16-9","lat":35.762758,"lon":139.507691},{"name":"ビーキッズきよせ","province":"東京都","city":"清瀬市","address":"清瀬市梅園3-4-251階","lat":35.771068,"lon":139.499949},{"name":"アプリ児童デイサービス清瀬","province":"東京都","city":"清瀬市","address":"清瀬市梅園3-2-21","lat":35.768885,"lon":139.501919},{"name":"清瀬市子ども家庭支援センター","province":"東京都","city":"清瀬市","address":"清瀬市中清戸3-235-5清瀬市児童センター内","lat":35.776412,"lon":139.530649},{"name":"清瀬市子ども家庭支援センター","province":"東京都","city":"清瀬市","address":"清瀬市中里5-842清瀬市役所北隣しあわせ未来センター内","lat":35.78591,"lon":139.52619},{"name":"清瀬市子ども家庭支援センター","province":"東京都","city":"清瀬市","address":"清瀬市中清戸3-235-5児童センターころぽっくる内","lat":35.77712,"lon":139.53165},{"name":"清瀬市子ども家庭支援センター","province":"東京都","city":"清瀬市","address":"清瀬市中清戸3-235-5清瀬市児童センター内","lat":35.77867,"lon":139.53389},{"name":"＊?清瀬市男女共同参画センター（アイレック）","province":"東京都","city":"清瀬市","address":"清瀬市元町1-2-11アミュー4階","lat":35.772206,"lon":139.521171},{"name":"清瀬高等学校","province":"東京都","city":"清瀬市","address":"東京都清瀬市松山3丁目1-56","lat":35.76969866,"lon":139.51487318},{"name":"きずな","province":"東京都","city":"清瀬市","address":"清瀬市下清戸2丁目518番2","lat":35.784972,"lon":139.536413},{"name":"障害者福祉センター　学童クラブのびのび","province":"東京都","city":"清瀬市","address":"清瀬市上清戸1-16-62","lat":35.773265,"lon":139.527664},{"name":"放課後等デイサービスＡＡＯ！","province":"東京都","city":"清瀬市","address":"清瀬市上清戸2-3-41-B","lat":35.777334,"lon":139.521422},{"name":"マイスペ児童デイサービス清瀬","province":"東京都","city":"清瀬市","address":"清瀬市元町一丁目13番20号ブリックヒル1階","lat":35.774854,"lon":139.518223},{"name":"たまみずき清瀬","province":"東京都","city":"清瀬市","address":"清瀬市松山2-2-15清瀬シティハイム2階","lat":35.769838,"lon":139.516287},{"name":"わかば　第１学童クラブ","province":"東京都","city":"清瀬市","address":"清瀬市竹丘1-11-1-101","lat":35.765877,"lon":139.511649},{"name":"放課後等デイサービス　ラビットハウス","province":"東京都","city":"清瀬市","address":"清瀬市竹丘2-16-9","lat":35.762758,"lon":139.507691},{"name":"ビーキッズきよせ","province":"東京都","city":"清瀬市","address":"清瀬市梅園3-4-251階","lat":35.771068,"lon":139.499949},{"name":"アプリ児童デイサービス清瀬","province":"東京都","city":"清瀬市","address":"清瀬市梅園3-2-21","lat":35.768885,"lon":139.501919},{"name":"清瀬市子ども家庭支援センター","province":"東京都","city":"清瀬市","address":"清瀬市中清戸3-235-5清瀬市児童センター内","lat":35.776412,"lon":139.530649},{"name":"清瀬市子ども家庭支援センター","province":"東京都","city":"清瀬市","address":"清瀬市中里5-842清瀬市役所北隣しあわせ未来センター内","lat":35.78591,"lon":139.52619},{"name":"清瀬市子ども家庭支援センター","province":"東京都","city":"清瀬市","address":"清瀬市中清戸3-235-5児童センターころぽっくる内","lat":35.77712,"lon":139.53165},{"name":"清瀬市子ども家庭支援センター","province":"東京都","city":"清瀬市","address":"清瀬市中清戸3-235-5清瀬市児童センター内","lat":35.77867,"lon":139.53389},{"name":"＊?清瀬市男女共同参画センター（アイレック）","province":"東京都","city":"清瀬市","address":"清瀬市元町1-2-11アミュー4階","lat":35.772206,"lon":139.521171},{"name":"清瀬高等学校","province":"東京都","city":"清瀬市","address":"東京都清瀬市松山3丁目1-56","lat":35.76969866,"lon":139.51487318},{"name":"きずな","province":"東京都","city":"清瀬市","address":"清瀬市下清戸2丁目518番2","lat":35.784972,"lon":139.536413},{"name":"障害者福祉センター　学童クラブのびのび","province":"東京都","city":"清瀬市","address":"清瀬市上清戸1-16-62","lat":35.773265,"lon":139.527664},{"name":"放課後等デイサービスＡＡＯ！","province":"東京都","city":"清瀬市","address":"清瀬市上清戸2-3-41-B","lat":35.777334,"lon":139.521422},{"name":"マイスペ児童デイサービス清瀬","province":"東京都","city":"清瀬市","address":"清瀬市元町一丁目13番20号ブリックヒル1階","lat":35.774854,"lon":139.518223},{"name":"たまみずき清瀬","province":"東京都","city":"清瀬市","address":"清瀬市松山2-2-15清瀬シティハイム2階","lat":35.769838,"lon":139.516287},{"name":"わかば　第１学童クラブ","province":"東京都","city":"清瀬市","address":"清瀬市竹丘1-11-1-101","lat":35.765877,"lon":139.511649},{"name":"放課後等デイサービス　ラビットハウス","province":"東京都","city":"清瀬市","address":"清瀬市竹丘2-16-9","lat":35.762758,"lon":139.507691},{"name":"ビーキッズきよせ","province":"東京都","city":"清瀬市","address":"清瀬市梅園3-4-251階","lat":35.771068,"lon":139.499949},{"name":"アプリ児童デイサービス清瀬","province":"東京都","city":"清瀬市","address":"清瀬市梅園3-2-21","lat":35.768885,"lon":139.501919},{"name":"清瀬市子ども家庭支援センター","province":"東京都","city":"清瀬市","address":"清瀬市中清戸3-235-5清瀬市児童センター内","lat":35.776412,"lon":139.530649},{"name":"清瀬市子ども家庭支援センター","province":"東京都","city":"清瀬市","address":"清瀬市中里5-842清瀬市役所北隣しあわせ未来センター内","lat":35.78591,"lon":139.52619},{"name":"清瀬市子ども家庭支援センター","province":"東京都","city":"清瀬市","address":"清瀬市中清戸3-235-5児童センターころぽっくる内","lat":35.77712,"lon":139.53165},{"name":"清瀬市子ども家庭支援センター","province":"東京都","city":"清瀬市","address":"清瀬市中清戸3-235-5清瀬市児童センター内","lat":35.77867,"lon":139.53389},{"name":"＊?清瀬市男女共同参画センター（アイレック）","province":"東京都","city":"清瀬市","address":"清瀬市元町1-2-11アミュー4階","lat":35.772206,"lon":139.521171},{"name":"清瀬高等学校","province":"東京都","city":"清瀬市","address":"東京都清瀬市松山3丁目1-56","lat":35.76969866,"lon":139.51487318},{"name":"きずな","province":"東京都","city":"清瀬市","address":"清瀬市下清戸2丁目518番2","lat":35.784972,"lon":139.536413},{"name":"障害者福祉センター　学童クラブのびのび","province":"東京都","city":"清瀬市","address":"清瀬市上清戸1-16-62","lat":35.773265,"lon":139.527664},{"name":"放課後等デイサービスＡＡＯ！","province":"東京都","city":"清瀬市","address":"清瀬市上清戸2-3-41-B","lat":35.777334,"lon":139.521422},{"name":"マイスペ児童デイサービス清瀬","province":"東京都","city":"清瀬市","address":"清瀬市元町一丁目13番20号ブリックヒル1階","lat":35.774854,"lon":139.518223},{"name":"たまみずき清瀬","province":"東京都","city":"清瀬市","address":"清瀬市松山2-2-15清瀬シティハイム2階","lat":35.769838,"lon":139.516287},{"name":"わかば　第１学童クラブ","province":"東京都","city":"清瀬市","address":"清瀬市竹丘1-11-1-101","lat":35.765877,"lon":139.511649},{"name":"放課後等デイサービス　ラビットハウス","province":"東京都","city":"清瀬市","address":"清瀬市竹丘2-16-9","lat":35.762758,"lon":139.507691},{"name":"ビーキッズきよせ","province":"東京都","city":"清瀬市","address":"清瀬市梅園3-4-251階","lat":35.771068,"lon":139.499949},{"name":"アプリ児童デイサービス清瀬","province":"東京都","city":"清瀬市","address":"清瀬市梅園3-2-21","lat":35.768885,"lon":139.501919},{"name":"清瀬市子ども家庭支援センター","province":"東京都","city":"清瀬市","address":"清瀬市中清戸3-235-5清瀬市児童センター内","lat":35.776412,"lon":139.530649},{"name":"清瀬市子ども家庭支援センター","province":"東京都","city":"清瀬市","address":"清瀬市中里5-842清瀬市役所北隣しあわせ未来センター内","lat":35.78591,"lon":139.52619},{"name":"清瀬市子ども家庭支援センター","province":"東京都","city":"清瀬市","address":"清瀬市中清戸3-235-5児童センターころぽっくる内","lat":35.77712,"lon":139.53165},{"name":"清瀬市子ども家庭支援センター","province":"東京都","city":"清瀬市","address":"清瀬市中清戸3-235-5清瀬市児童センター内","lat":35.77867,"lon":139.53389},{"name":"＊?清瀬市男女共同参画センター（アイレック）","province":"東京都","city":"清瀬市","address":"清瀬市元町1-2-11アミュー4階","lat":35.772206,"lon":139.521171},{"name":"清瀬高等学校","province":"東京都","city":"清瀬市","address":"東京都清瀬市松山3丁目1-56","lat":35.76969866,"lon":139.51487318},{"name":"きずな","province":"東京都","city":"清瀬市","address":"清瀬市下清戸2丁目518番2","lat":35.784972,"lon":139.536413},{"name":"障害者福祉センター　学童クラブのびのび","province":"東京都","city":"清瀬市","address":"清瀬市上清戸1-16-62","lat":35.773265,"lon":139.527664},{"name":"放課後等デイサービスＡＡＯ！","province":"東京都","city":"清瀬市","address":"清瀬市上清戸2-3-41-B","lat":35.777334,"lon":139.521422},{"name":"マイスペ児童デイサービス清瀬","province":"東京都","city":"清瀬市","address":"清瀬市元町一丁目13番20号ブリックヒル1階","lat":35.774854,"lon":139.518223},{"name":"たまみずき清瀬","province":"東京都","city":"清瀬市","address":"清瀬市松山2-2-15清瀬シティハイム2階","lat":35.769838,"lon":139.516287},{"name":"わかば　第１学童クラブ","province":"東京都","city":"清瀬市","address":"清瀬市竹丘1-11-1-101","lat":35.765877,"lon":139.511649},{"name":"放課後等デイサービス　ラビットハウス","province":"東京都","city":"清瀬市","address":"清瀬市竹丘2-16-9","lat":35.762758,"lon":139.507691},{"name":"ビーキッズきよせ","province":"東京都","city":"清瀬市","address":"清瀬市梅園3-4-251階","lat":35.771068,"lon":139.499949},{"name":"アプリ児童デイサービス清瀬","province":"東京都","city":"清瀬市","address":"清瀬市梅園3-2-21","lat":35.768885,"lon":139.501919},{"name":"清瀬市子ども家庭支援センター","province":"東京都","city":"清瀬市","address":"清瀬市中清戸3-235-5清瀬市児童センター内","lat":35.776412,"lon":139.530649},{"name":"清瀬市子ども家庭支援センター","province":"東京都","city":"清瀬市","address":"清瀬市中里5-842清瀬市役所北隣しあわせ未来センター内","lat":35.78591,"lon":139.52619},{"name":"清瀬市子ども家庭支援センター","province":"東京都","city":"清瀬市","address":"清瀬市中清戸3-235-5児童センターころぽっくる内","lat":35.77712,"lon":139.53165},{"name":"清瀬市子ども家庭支援センター","province":"東京都","city":"清瀬市","address":"清瀬市中清戸3-235-5清瀬市児童センター内","lat":35.77867,"lon":139.53389},{"name":"＊?清瀬市男女共同参画センター（アイレック）","province":"東京都","city":"清瀬市","address":"清瀬市元町1-2-11アミュー4階","lat":35.772206,"lon":139.521171},{"name":"清瀬高等学校","province":"東京都","city":"清瀬市","address":"東京都清瀬市松山3丁目1-56","lat":35.76969866,"lon":139.51487318},{"name":"きずな","province":"東京都","city":"清瀬市","address":"清瀬市下清戸2丁目518番2","lat":35.784972,"lon":139.536413},{"name":"障害者福祉センター　学童クラブのびのび","province":"東京都","city":"清瀬市","address":"清瀬市上清戸1-16-62","lat":35.773265,"lon":139.527664},{"name":"放課後等デイサービスＡＡＯ！","province":"東京都","city":"清瀬市","address":"清瀬市上清戸2-3-41-B","lat":35.777334,"lon":139.521422},{"name":"マイスペ児童デイサービス清瀬","province":"東京都","city":"清瀬市","address":"清瀬市元町一丁目13番20号ブリックヒル1階","lat":35.774854,"lon":139.518223},{"name":"たまみずき清瀬","province":"東京都","city":"清瀬市","address":"清瀬市松山2-2-15清瀬シティハイム2階","lat":35.769838,"lon":139.516287},{"name":"わかば　第１学童クラブ","province":"東京都","city":"清瀬市","address":"清瀬市竹丘1-11-1-101","lat":35.765877,"lon":139.511649},{"name":"放課後等デイサービス　ラビットハウス","province":"東京都","city":"清瀬市","address":"清瀬市竹丘2-16-9","lat":35.762758,"lon":139.507691},{"name":"ビーキッズきよせ","province":"東京都","city":"清瀬市","address":"清瀬市梅園3-4-251階","lat":35.771068,"lon":139.499949},{"name":"アプリ児童デイサービス清瀬","province":"東京都","city":"清瀬市","address":"清瀬市梅園3-2-21","lat":35.768885,"lon":139.501919},{"name":"清瀬市子ども家庭支援センター","province":"東京都","city":"清瀬市","address":"清瀬市中清戸3-235-5清瀬市児童センター内","lat":35.776412,"lon":139.530649},{"name":"清瀬市子ども家庭支援センター","province":"東京都","city":"清瀬市","address":"清瀬市中里5-842清瀬市役所北隣しあわせ未来センター内","lat":35.78591,"lon":139.52619},{"name":"清瀬市子ども家庭支援センター","province":"東京都","city":"清瀬市","address":"清瀬市中清戸3-235-5児童センターころぽっくる内","lat":35.77712,"lon":139.53165},{"name":"清瀬市子ども家庭支援センター","province":"東京都","city":"清瀬市","address":"清瀬市中清戸3-235-5清瀬市児童センター内","lat":35.77867,"lon":139.53389},{"name":"＊?清瀬市男女共同参画センター（アイレック）","province":"東京都","city":"清瀬市","address":"清瀬市元町1-2-11アミュー4階","lat":35.772206,"lon":139.521171},{"name":"清瀬高等学校","province":"東京都","city":"清瀬市","address":"東京都清瀬市松山3丁目1-56","lat":35.76969866,"lon":139.51487318},{"name":"きずな","province":"東京都","city":"清瀬市","address":"清瀬市下清戸2丁目518番2","lat":35.784972,"lon":139.536413},{"name":"障害者福祉センター　学童クラブのびのび","province":"東京都","city":"清瀬市","address":"清瀬市上清戸1-16-62","lat":35.773265,"lon":139.527664},{"name":"放課後等デイサービスＡＡＯ！","province":"東京都","city":"清瀬市","address":"清瀬市上清戸2-3-41-B","lat":35.777334,"lon":139.521422},{"name":"マイスペ児童デイサービス清瀬","province":"東京都","city":"清瀬市","address":"清瀬市元町一丁目13番20号ブリックヒル1階","lat":35.774854,"lon":139.518223},{"name":"たまみずき清瀬","province":"東京都","city":"清瀬市","address":"清瀬市松山2-2-15清瀬シティハイム2階","lat":35.769838,"lon":139.516287},{"name":"わかば　第１学童クラブ","province":"東京都","city":"清瀬市","address":"清瀬市竹丘1-11-1-101","lat":35.765877,"lon":139.511649},{"name":"放課後等デイサービス　ラビットハウス","province":"東京都","city":"清瀬市","address":"清瀬市竹丘2-16-9","lat":35.762758,"lon":139.507691},{"name":"ビーキッズきよせ","province":"東京都","city":"清瀬市","address":"清瀬市梅園3-4-251階","lat":35.771068,"lon":139.499949},{"name":"アプリ児童デイサービス清瀬","province":"東京都","city":"清瀬市","address":"清瀬市梅園3-2-21","lat":35.768885,"lon":139.501919},{"name":"清瀬市子ども家庭支援センター","province":"東京都","city":"清瀬市","address":"清瀬市中清戸3-235-5清瀬市児童センター内","lat":35.776412,"lon":139.530649},{"name":"清瀬市子ども家庭支援センター","province":"東京都","city":"清瀬市","address":"清瀬市中里5-842清瀬市役所北隣しあわせ未来センター内","lat":35.78591,"lon":139.52619},{"name":"清瀬市子ども家庭支援センター","province":"東京都","city":"清瀬市","address":"清瀬市中清戸3-235-5児童センターころぽっくる内","lat":35.77712,"lon":139.53165},{"name":"清瀬市子ども家庭支援センター","province":"東京都","city":"清瀬市","address":"清瀬市中清戸3-235-5清瀬市児童センター内","lat":35.77867,"lon":139.53389},{"name":"＊?清瀬市男女共同参画センター（アイレック）","province":"東京都","city":"清瀬市","address":"清瀬市元町1-2-11アミュー4階","lat":35.772206,"lon":139.521171},{"name":"清瀬高等学校","province":"東京都","city":"清瀬市","address":"東京都清瀬市松山3丁目1-56","lat":35.76969866,"lon":139.51487318},{"name":"きずな","province":"東京都","city":"清瀬市","address":"清瀬市下清戸2丁目518番2","lat":35.784972,"lon":139.536413},{"name":"障害者福祉センター　学童クラブのびのび","province":"東京都","city":"清瀬市","address":"清瀬市上清戸1-16-62","lat":35.773265,"lon":139.527664},{"name":"放課後等デイサービスＡＡＯ！","province":"東京都","city":"清瀬市","address":"清瀬市上清戸2-3-41-B","lat":35.777334,"lon":139.521422},{"name":"マイスペ児童デイサービス清瀬","province":"東京都","city":"清瀬市","address":"清瀬市元町一丁目13番20号ブリックヒル1階","lat":35.774854,"lon":139.518223},{"name":"たまみずき清瀬","province":"東京都","city":"清瀬市","address":"清瀬市松山2-2-15清瀬シティハイム2階","lat":35.769838,"lon":139.516287},{"name":"わかば　第１学童クラブ","province":"東京都","city":"清瀬市","address":"清瀬市竹丘1-11-1-101","lat":35.765877,"lon":139.511649},{"name":"放課後等デイサービス　ラビットハウス","province":"東京都","city":"清瀬市","address":"清瀬市竹丘2-16-9","lat":35.762758,"lon":139.507691},{"name":"ビーキッズきよせ","province":"東京都","city":"清瀬市","address":"清瀬市梅園3-4-251階","lat":35.771068,"lon":139.499949},{"name":"アプリ児童デイサービス清瀬","province":"東京都","city":"清瀬市","address":"清瀬市梅園3-2-21","lat":35.768885,"lon":139.501919},{"name":"清瀬市子ども家庭支援センター","province":"東京都","city":"清瀬市","address":"清瀬市中清戸3-235-5清瀬市児童センター内","lat":35.776412,"lon":139.530649},{"name":"清瀬市子ども家庭支援センター","province":"東京都","city":"清瀬市","address":"清瀬市中里5-842清瀬市役所北隣しあわせ未来センター内","lat":35.78591,"lon":139.52619},{"name":"清瀬市子ども家庭支援センター","province":"東京都","city":"清瀬市","address":"清瀬市中清戸3-235-5児童センターころぽっくる内","lat":35.77712,"lon":139.53165},{"name":"清瀬市子ども家庭支援センター","province":"東京都","city":"清瀬市","address":"清瀬市中清戸3-235-5清瀬市児童センター内","lat":35.77867,"lon":139.53389},{"name":"＊?清瀬市男女共同参画センター（アイレック）","province":"東京都","city":"清瀬市","address":"清瀬市元町1-2-11アミュー4階","lat":35.772206,"lon":139.521171},{"name":"きずな","province":"東京都","city":"清瀬市","address":"清瀬市下清戸2丁目518番2","lat":35.784972,"lon":139.536413},{"name":"障害者福祉センター　学童クラブのびのび","province":"東京都","city":"清瀬市","address":"清瀬市上清戸1-16-62","lat":35.773265,"lon":139.527664},{"name":"放課後等デイサービスＡＡＯ！","province":"東京都","city":"清瀬市","address":"清瀬市上清戸2-3-41-B","lat":35.777334,"lon":139.521422},{"name":"マイスペ児童デイサービス清瀬","province":"東京都","city":"清瀬市","address":"清瀬市元町一丁目13番20号ブリックヒル1階","lat":35.774854,"lon":139.518223},{"name":"たまみずき清瀬","province":"東京都","city":"清瀬市","address":"清瀬市松山2-2-15清瀬シティハイム2階","lat":35.769838,"lon":139.516287},{"name":"わかば　第１学童クラブ","province":"東京都","city":"清瀬市","address":"清瀬市竹丘1-11-1-101","lat":35.765877,"lon":139.511649},{"name":"放課後等デイサービス　ラビットハウス","province":"東京都","city":"清瀬市","address":"清瀬市竹丘2-16-9","lat":35.762758,"lon":139.507691},{"name":"ビーキッズきよせ","province":"東京都","city":"清瀬市","address":"清瀬市梅園3-4-251階","lat":35.771068,"lon":139.499949},{"name":"アプリ児童デイサービス清瀬","province":"東京都","city":"清瀬市","address":"清瀬市梅園3-2-21","lat":35.768885,"lon":139.501919},{"name":"清瀬市子ども家庭支援センター","province":"東京都","city":"清瀬市","address":"清瀬市中清戸3-235-5清瀬市児童センター内","lat":35.776412,"lon":139.530649},{"name":"清瀬市子ども家庭支援センター","province":"東京都","city":"清瀬市","address":"清瀬市中里5-842清瀬市役所北隣しあわせ未来センター内","lat":35.78591,"lon":139.52619},{"name":"清瀬市子ども家庭支援センター","province":"東京都","city":"清瀬市","address":"清瀬市中清戸3-235-5児童センターころぽっくる内","lat":35.77712,"lon":139.53165},{"name":"清瀬市子ども家庭支援センター","province":"東京都","city":"清瀬市","address":"清瀬市中清戸3-235-5清瀬市児童センター内","lat":35.77867,"lon":139.53389},{"name":"＊?清瀬市男女共同参画センター（アイレック）","province":"東京都","city":"清瀬市","address":"清瀬市元町1-2-11アミュー4階","lat":35.772206,"lon":139.521171},{"name":"きずな","province":"東京都","city":"清瀬市","address":"清瀬市下清戸2丁目518番2","lat":35.784972,"lon":139.536413},{"name":"障害者福祉センター　学童クラブのびのび","province":"東京都","city":"清瀬市","address":"清瀬市上清戸1-16-62","lat":35.773265,"lon":139.527664},{"name":"放課後等デイサービスＡＡＯ！","province":"東京都","city":"清瀬市","address":"清瀬市上清戸2-3-41-B","lat":35.777334,"lon":139.521422},{"name":"マイスペ児童デイサービス清瀬","province":"東京都","city":"清瀬市","address":"清瀬市元町一丁目13番20号ブリックヒル1階","lat":35.774854,"lon":139.518223},{"name":"たまみずき清瀬","province":"東京都","city":"清瀬市","address":"清瀬市松山2-2-15清瀬シティハイム2階","lat":35.769838,"lon":139.516287},{"name":"わかば　第１学童クラブ","province":"東京都","city":"清瀬市","address":"清瀬市竹丘1-11-1-101","lat":35.765877,"lon":139.511649},{"name":"放課後等デイサービス　ラビットハウス","province":"東京都","city":"清瀬市","address":"清瀬市竹丘2-16-9","lat":35.762758,"lon":139.507691},{"name":"ビーキッズきよせ","province":"東京都","city":"清瀬市","address":"清瀬市梅園3-4-251階","lat":35.771068,"lon":139.499949},{"name":"アプリ児童デイサービス清瀬","province":"東京都","city":"清瀬市","address":"清瀬市梅園3-2-21","lat":35.768885,"lon":139.501919},{"name":"清瀬市子ども家庭支援センター","province":"東京都","city":"清瀬市","address":"清瀬市中清戸3-235-5清瀬市児童センター内","lat":35.776412,"lon":139.530649},{"name":"清瀬市子ども家庭支援センター","province":"東京都","city":"清瀬市","address":"清瀬市中里5-842清瀬市役所北隣しあわせ未来センター内","lat":35.78591,"lon":139.52619},{"name":"清瀬市子ども家庭支援センター","province":"東京都","city":"清瀬市","address":"清瀬市中清戸3-235-5児童センターころぽっくる内","lat":35.77712,"lon":139.53165},{"name":"清瀬市子ども家庭支援センター","province":"東京都","city":"清瀬市","address":"清瀬市中清戸3-235-5清瀬市児童センター内","lat":35.77867,"lon":139.53389},{"name":"＊?清瀬市男女共同参画センター（アイレック）","province":"東京都","city":"清瀬市","address":"清瀬市元町1-2-11アミュー4階","lat":35.772206,"lon":139.521171},{"name":"きずな","province":"東京都","city":"清瀬市","address":"清瀬市下清戸2丁目518番2","lat":35.784972,"lon":139.536413},{"name":"障害者福祉センター　学童クラブのびのび","province":"東京都","city":"清瀬市","address":"清瀬市上清戸1-16-62","lat":35.773265,"lon":139.527664},{"name":"放課後等デイサービスＡＡＯ！","province":"東京都","city":"清瀬市","address":"清瀬市上清戸2-3-41-B","lat":35.777334,"lon":139.521422},{"name":"マイスペ児童デイサービス清瀬","province":"東京都","city":"清瀬市","address":"清瀬市元町一丁目13番20号ブリックヒル1階","lat":35.774854,"lon":139.518223},{"name":"たまみずき清瀬","province":"東京都","city":"清瀬市","address":"清瀬市松山2-2-15清瀬シティハイム2階","lat":35.769838,"lon":139.516287},{"name":"わかば　第１学童クラブ","province":"東京都","city":"清瀬市","address":"清瀬市竹丘1-11-1-101","lat":35.765877,"lon":139.511649},{"name":"放課後等デイサービス　ラビットハウス","province":"東京都","city":"清瀬市","address":"清瀬市竹丘2-16-9","lat":35.762758,"lon":139.507691},{"name":"ビーキッズきよせ","province":"東京都","city":"清瀬市","address":"清瀬市梅園3-4-251階","lat":35.771068,"lon":139.499949},{"name":"アプリ児童デイサービス清瀬","province":"東京都","city":"清瀬市","address":"清瀬市梅園3-2-21","lat":35.768885,"lon":139.501919},{"name":"清瀬市子ども家庭支援センター","province":"東京都","city":"清瀬市","address":"清瀬市中清戸3-235-5清瀬市児童センター内","lat":35.776412,"lon":139.530649},{"name":"清瀬市子ども家庭支援センター","province":"東京都","city":"清瀬市","address":"清瀬市中里5-842清瀬市役所北隣しあわせ未来センター内","lat":35.78591,"lon":139.52619},{"name":"清瀬市子ども家庭支援センター","province":"東京都","city":"清瀬市","address":"清瀬市中清戸3-235-5児童センターころぽっくる内","lat":35.77712,"lon":139.53165},{"name":"清瀬市子ども家庭支援センター","province":"東京都","city":"清瀬市","address":"清瀬市中清戸3-235-5清瀬市児童センター内","lat":35.77867,"lon":139.53389},{"name":"＊?清瀬市男女共同参画センター（アイレック）","province":"東京都","city":"清瀬市","address":"清瀬市元町1-2-11アミュー4階","lat":35.772206,"lon":139.521171},{"name":"きずな","province":"東京都","city":"清瀬市","address":"清瀬市下清戸2丁目518番2","lat":35.784972,"lon":139.536413},{"name":"障害者福祉センター　学童クラブのびのび","province":"東京都","city":"清瀬市","address":"清瀬市上清戸1-16-62","lat":35.773265,"lon":139.527664},{"name":"放課後等デイサービスＡＡＯ！","province":"東京都","city":"清瀬市","address":"清瀬市上清戸2-3-41-B","lat":35.777334,"lon":139.521422},{"name":"マイスペ児童デイサービス清瀬","province":"東京都","city":"清瀬市","address":"清瀬市元町一丁目13番20号ブリックヒル1階","lat":35.774854,"lon":139.518223},{"name":"たまみずき清瀬","province":"東京都","city":"清瀬市","address":"清瀬市松山2-2-15清瀬シティハイム2階","lat":35.769838,"lon":139.516287},{"name":"わかば　第１学童クラブ","province":"東京都","city":"清瀬市","address":"清瀬市竹丘1-11-1-101","lat":35.765877,"lon":139.511649},{"name":"放課後等デイサービス　ラビットハウス","province":"東京都","city":"清瀬市","address":"清瀬市竹丘2-16-9","lat":35.762758,"lon":139.507691},{"name":"ビーキッズきよせ","province":"東京都","city":"清瀬市","address":"清瀬市梅園3-4-251階","lat":35.771068,"lon":139.499949},{"name":"アプリ児童デイサービス清瀬","province":"東京都","city":"清瀬市","address":"清瀬市梅園3-2-21","lat":35.768885,"lon":139.501919},{"name":"清瀬市子ども家庭支援センター","province":"東京都","city":"清瀬市","address":"清瀬市中清戸3-235-5清瀬市児童センター内","lat":35.776412,"lon":139.530649},{"name":"清瀬市子ども家庭支援センター","province":"東京都","city":"清瀬市","address":"清瀬市中里5-842清瀬市役所北隣しあわせ未来センター内","lat":35.78591,"lon":139.52619},{"name":"清瀬市子ども家庭支援センター","province":"東京都","city":"清瀬市","address":"清瀬市中清戸3-235-5児童センターころぽっくる内","lat":35.77712,"lon":139.53165},{"name":"清瀬市子ども家庭支援センター","province":"東京都","city":"清瀬市","address":"清瀬市中清戸3-235-5清瀬市児童センター内","lat":35.77867,"lon":139.53389},{"name":"＊?清瀬市男女共同参画センター（アイレック）","province":"東京都","city":"清瀬市","address":"清瀬市元町1-2-11アミュー4階","lat":35.772206,"lon":139.521171},{"name":"きずな","province":"東京都","city":"清瀬市","address":"清瀬市下清戸2丁目518番2","lat":35.784972,"lon":139.536413},{"name":"障害者福祉センター　学童クラブのびのび","province":"東京都","city":"清瀬市","address":"清瀬市上清戸1-16-62","lat":35.773265,"lon":139.527664},{"name":"放課後等デイサービスＡＡＯ！","province":"東京都","city":"清瀬市","address":"清瀬市上清戸2-3-41-B","lat":35.777334,"lon":139.521422},{"name":"マイスペ児童デイサービス清瀬","province":"東京都","city":"清瀬市","address":"清瀬市元町一丁目13番20号ブリックヒル1階","lat":35.774854,"lon":139.518223},{"name":"たまみずき清瀬","province":"東京都","city":"清瀬市","address":"清瀬市松山2-2-15清瀬シティハイム2階","lat":35.769838,"lon":139.516287},{"name":"わかば　第１学童クラブ","province":"東京都","city":"清瀬市","address":"清瀬市竹丘1-11-1-101","lat":35.765877,"lon":139.511649},{"name":"放課後等デイサービス　ラビットハウス","province":"東京都","city":"清瀬市","address":"清瀬市竹丘2-16-9","lat":35.762758,"lon":139.507691},{"name":"ビーキッズきよせ","province":"東京都","city":"清瀬市","address":"清瀬市梅園3-4-251階","lat":35.771068,"lon":139.499949},{"name":"アプリ児童デイサービス清瀬","province":"東京都","city":"清瀬市","address":"清瀬市梅園3-2-21","lat":35.768885,"lon":139.501919},{"name":"清瀬市子ども家庭支援センター","province":"東京都","city":"清瀬市","address":"清瀬市中清戸3-235-5清瀬市児童センター内","lat":35.776412,"lon":139.530649},{"name":"清瀬市子ども家庭支援センター","province":"東京都","city":"清瀬市","address":"清瀬市中里5-842清瀬市役所北隣しあわせ未来センター内","lat":35.78591,"lon":139.52619},{"name":"清瀬市子ども家庭支援センター","province":"東京都","city":"清瀬市","address":"清瀬市中清戸3-235-5児童センターころぽっくる内","lat":35.77712,"lon":139.53165},{"name":"清瀬市子ども家庭支援センター","province":"東京都","city":"清瀬市","address":"清瀬市中清戸3-235-5清瀬市児童センター内","lat":35.77867,"lon":139.53389},{"name":"＊?清瀬市男女共同参画センター（アイレック）","province":"東京都","city":"清瀬市","address":"清瀬市元町1-2-11アミュー4階","lat":35.772206,"lon":139.521171},{"name":"きずな","province":"東京都","city":"清瀬市","address":"清瀬市下清戸2丁目518番2","lat":35.784972,"lon":139.536413},{"name":"障害者福祉センター　学童クラブのびのび","province":"東京都","city":"清瀬市","address":"清瀬市上清戸1-16-62","lat":35.773265,"lon":139.527664},{"name":"放課後等デイサービスＡＡＯ！","province":"東京都","city":"清瀬市","address":"清瀬市上清戸2-3-41-B","lat":35.777334,"lon":139.521422},{"name":"マイスペ児童デイサービス清瀬","province":"東京都","city":"清瀬市","address":"清瀬市元町一丁目13番20号ブリックヒル1階","lat":35.774854,"lon":139.518223},{"name":"たまみずき清瀬","province":"東京都","city":"清瀬市","address":"清瀬市松山2-2-15清瀬シティハイム2階","lat":35.769838,"lon":139.516287},{"name":"わかば　第１学童クラブ","province":"東京都","city":"清瀬市","address":"清瀬市竹丘1-11-1-101","lat":35.765877,"lon":139.511649},{"name":"放課後等デイサービス　ラビットハウス","province":"東京都","city":"清瀬市","address":"清瀬市竹丘2-16-9","lat":35.762758,"lon":139.507691},{"name":"ビーキッズきよせ","province":"東京都","city":"清瀬市","address":"清瀬市梅園3-4-251階","lat":35.771068,"lon":139.499949},{"name":"アプリ児童デイサービス清瀬","province":"東京都","city":"清瀬市","address":"清瀬市梅園3-2-21","lat":35.768885,"lon":139.501919},{"name":"清瀬市子ども家庭支援センター","province":"東京都","city":"清瀬市","address":"清瀬市中清戸3-235-5清瀬市児童センター内","lat":35.776412,"lon":139.530649},{"name":"清瀬市子ども家庭支援センター","province":"東京都","city":"清瀬市","address":"清瀬市中里5-842清瀬市役所北隣しあわせ未来センター内","lat":35.78591,"lon":139.52619},{"name":"清瀬市子ども家庭支援センター","province":"東京都","city":"清瀬市","address":"清瀬市中清戸3-235-5児童センターころぽっくる内","lat":35.77712,"lon":139.53165},{"name":"清瀬市子ども家庭支援センター","province":"東京都","city":"清瀬市","address":"清瀬市中清戸3-235-5清瀬市児童センター内","lat":35.77867,"lon":139.53389},{"name":"＊?清瀬市男女共同参画センター（アイレック）","province":"東京都","city":"清瀬市","address":"清瀬市元町1-2-11アミュー4階","lat":35.772206,"lon":139.521171},{"name":"きずな","province":"東京都","city":"清瀬市","address":"清瀬市下清戸2丁目518番2","lat":35.784972,"lon":139.536413},{"name":"障害者福祉センター　学童クラブのびのび","province":"東京都","city":"清瀬市","address":"清瀬市上清戸1-16-62","lat":35.773265,"lon":139.527664},{"name":"放課後等デイサービスＡＡＯ！","province":"東京都","city":"清瀬市","address":"清瀬市上清戸2-3-41-B","lat":35.777334,"lon":139.521422},{"name":"マイスペ児童デイサービス清瀬","province":"東京都","city":"清瀬市","address":"清瀬市元町一丁目13番20号ブリックヒル1階","lat":35.774854,"lon":139.518223},{"name":"たまみずき清瀬","province":"東京都","city":"清瀬市","address":"清瀬市松山2-2-15清瀬シティハイム2階","lat":35.769838,"lon":139.516287},{"name":"わかば　第１学童クラブ","province":"東京都","city":"清瀬市","address":"清瀬市竹丘1-11-1-101","lat":35.765877,"lon":139.511649},{"name":"放課後等デイサービス　ラビットハウス","province":"東京都","city":"清瀬市","address":"清瀬市竹丘2-16-9","lat":35.762758,"lon":139.507691},{"name":"ビーキッズきよせ","province":"東京都","city":"清瀬市","address":"清瀬市梅園3-4-251階","lat":35.771068,"lon":139.499949},{"name":"アプリ児童デイサービス清瀬","province":"東京都","city":"清瀬市","address":"清瀬市梅園3-2-21","lat":35.768885,"lon":139.501919},{"name":"清瀬市子ども家庭支援センター","province":"東京都","city":"清瀬市","address":"清瀬市中清戸3-235-5清瀬市児童センター内","lat":35.776412,"lon":139.530649},{"name":"清瀬市子ども家庭支援センター","province":"東京都","city":"清瀬市","address":"清瀬市中里5-842清瀬市役所北隣しあわせ未来センター内","lat":35.78591,"lon":139.52619},{"name":"清瀬市子ども家庭支援センター","province":"東京都","city":"清瀬市","address":"清瀬市中清戸3-235-5児童センターころぽっくる内","lat":35.77712,"lon":139.53165},{"name":"清瀬市子ども家庭支援センター","province":"東京都","city":"清瀬市","address":"清瀬市中清戸3-235-5清瀬市児童センター内","lat":35.77867,"lon":139.53389},{"name":"＊?清瀬市男女共同参画センター（アイレック）","province":"東京都","city":"清瀬市","address":"清瀬市元町1-2-11アミュー4階","lat":35.772206,"lon":139.521171},{"name":"きずな","province":"東京都","city":"清瀬市","address":"清瀬市下清戸2丁目518番2","lat":35.784972,"lon":139.536413},{"name":"障害者福祉センター　学童クラブのびのび","province":"東京都","city":"清瀬市","address":"清瀬市上清戸1-16-62","lat":35.773265,"lon":139.527664},{"name":"放課後等デイサービスＡＡＯ！","province":"東京都","city":"清瀬市","address":"清瀬市上清戸2-3-41-B","lat":35.777334,"lon":139.521422},{"name":"マイスペ児童デイサービス清瀬","province":"東京都","city":"清瀬市","address":"清瀬市元町一丁目13番20号ブリックヒル1階","lat":35.774854,"lon":139.518223},{"name":"たまみずき清瀬","province":"東京都","city":"清瀬市","address":"清瀬市松山2-2-15清瀬シティハイム2階","lat":35.769838,"lon":139.516287},{"name":"わかば　第１学童クラブ","province":"東京都","city":"清瀬市","address":"清瀬市竹丘1-11-1-101","lat":35.765877,"lon":139.511649},{"name":"放課後等デイサービス　ラビットハウス","province":"東京都","city":"清瀬市","address":"清瀬市竹丘2-16-9","lat":35.762758,"lon":139.507691},{"name":"ビーキッズきよせ","province":"東京都","city":"清瀬市","address":"清瀬市梅園3-4-251階","lat":35.771068,"lon":139.499949},{"name":"アプリ児童デイサービス清瀬","province":"東京都","city":"清瀬市","address":"清瀬市梅園3-2-21","lat":35.768885,"lon":139.501919},{"name":"清瀬市子ども家庭支援センター","province":"東京都","city":"清瀬市","address":"清瀬市中清戸3-235-5清瀬市児童センター内","lat":35.776412,"lon":139.530649},{"name":"清瀬市子ども家庭支援センター","province":"東京都","city":"清瀬市","address":"清瀬市中里5-842清瀬市役所北隣しあわせ未来センター内","lat":35.78591,"lon":139.52619},{"name":"清瀬市子ども家庭支援センター","province":"東京都","city":"清瀬市","address":"清瀬市中清戸3-235-5児童センターころぽっくる内","lat":35.77712,"lon":139.53165},{"name":"清瀬市子ども家庭支援センター","province":"東京都","city":"清瀬市","address":"清瀬市中清戸3-235-5清瀬市児童センター内","lat":35.77867,"lon":139.53389},{"name":"＊?清瀬市男女共同参画センター（アイレック）","province":"東京都","city":"清瀬市","address":"清瀬市元町1-2-11アミュー4階","lat":35.772206,"lon":139.521171},{"name":"きずな","province":"東京都","city":"清瀬市","address":"清瀬市下清戸2丁目518番2","lat":35.784972,"lon":139.536413},{"name":"障害者福祉センター　学童クラブのびのび","province":"東京都","city":"清瀬市","address":"清瀬市上清戸1-16-62","lat":35.773265,"lon":139.527664},{"name":"放課後等デイサービスＡＡＯ！","province":"東京都","city":"清瀬市","address":"清瀬市上清戸2-3-41-B","lat":35.777334,"lon":139.521422},{"name":"マイスペ児童デイサービス清瀬","province":"東京都","city":"清瀬市","address":"清瀬市元町一丁目13番20号ブリックヒル1階","lat":35.774854,"lon":139.518223},{"name":"たまみずき清瀬","province":"東京都","city":"清瀬市","address":"清瀬市松山2-2-15清瀬シティハイム2階","lat":35.769838,"lon":139.516287},{"name":"わかば　第１学童クラブ","province":"東京都","city":"清瀬市","address":"清瀬市竹丘1-11-1-101","lat":35.765877,"lon":139.511649},{"name":"放課後等デイサービス　ラビットハウス","province":"東京都","city":"清瀬市","address":"清瀬市竹丘2-16-9","lat":35.762758,"lon":139.507691},{"name":"ビーキッズきよせ","province":"東京都","city":"清瀬市","address":"清瀬市梅園3-4-251階","lat":35.771068,"lon":139.499949},{"name":"アプリ児童デイサービス清瀬","province":"東京都","city":"清瀬市","address":"清瀬市梅園3-2-21","lat":35.768885,"lon":139.501919},{"name":"清瀬市子ども家庭支援センター","province":"東京都","city":"清瀬市","address":"清瀬市中清戸3-235-5清瀬市児童センター内","lat":35.776412,"lon":139.530649},{"name":"清瀬市子ども家庭支援センター","province":"東京都","city":"清瀬市","address":"清瀬市中里5-842清瀬市役所北隣しあわせ未来センター内","lat":35.78591,"lon":139.52619},{"name":"清瀬市子ども家庭支援センター","province":"東京都","city":"清瀬市","address":"清瀬市中清戸3-235-5児童センターころぽっくる内","lat":35.77712,"lon":139.53165},{"name":"清瀬市子ども家庭支援センター","province":"東京都","city":"清瀬市","address":"清瀬市中清戸3-235-5清瀬市児童センター内","lat":35.77867,"lon":139.53389},{"name":"＊?清瀬市男女共同参画センター（アイレック）","province":"東京都","city":"清瀬市","address":"清瀬市元町1-2-11アミュー4階","lat":35.772206,"lon":139.521171},{"name":"きずな","province":"東京都","city":"清瀬市","address":"清瀬市下清戸2丁目518番2","lat":35.784972,"lon":139.536413},{"name":"障害者福祉センター　学童クラブのびのび","province":"東京都","city":"清瀬市","address":"清瀬市上清戸1-16-62","lat":35.773265,"lon":139.527664},{"name":"放課後等デイサービスＡＡＯ！","province":"東京都","city":"清瀬市","address":"清瀬市上清戸2-3-41-B","lat":35.777334,"lon":139.521422},{"name":"マイスペ児童デイサービス清瀬","province":"東京都","city":"清瀬市","address":"清瀬市元町一丁目13番20号ブリックヒル1階","lat":35.774854,"lon":139.518223},{"name":"たまみずき清瀬","province":"東京都","city":"清瀬市","address":"清瀬市松山2-2-15清瀬シティハイム2階","lat":35.769838,"lon":139.516287},{"name":"わかば　第１学童クラブ","province":"東京都","city":"清瀬市","address":"清瀬市竹丘1-11-1-101","lat":35.765877,"lon":139.511649},{"name":"放課後等デイサービス　ラビットハウス","province":"東京都","city":"清瀬市","address":"清瀬市竹丘2-16-9","lat":35.762758,"lon":139.507691},{"name":"ビーキッズきよせ","province":"東京都","city":"清瀬市","address":"清瀬市梅園3-4-251階","lat":35.771068,"lon":139.499949},{"name":"アプリ児童デイサービス清瀬","province":"東京都","city":"清瀬市","address":"清瀬市梅園3-2-21","lat":35.768885,"lon":139.501919},{"name":"清瀬市子ども家庭支援センター","province":"東京都","city":"清瀬市","address":"清瀬市中清戸3-235-5清瀬市児童センター内","lat":35.776412,"lon":139.530649},{"name":"清瀬市子ども家庭支援センター","province":"東京都","city":"清瀬市","address":"清瀬市中里5-842清瀬市役所北隣しあわせ未来センター内","lat":35.78591,"lon":139.52619},{"name":"清瀬市子ども家庭支援センター","province":"東京都","city":"清瀬市","address":"清瀬市中清戸3-235-5児童センターころぽっくる内","lat":35.77712,"lon":139.53165},{"name":"清瀬市子ども家庭支援センター","province":"東京都","city":"清瀬市","address":"清瀬市中清戸3-235-5清瀬市児童センター内","lat":35.77867,"lon":139.53389},{"name":"＊?清瀬市男女共同参画センター（アイレック）","province":"東京都","city":"清瀬市","address":"清瀬市元町1-2-11アミュー4階","lat":35.772206,"lon":139.521171},{"name":"きずな","province":"東京都","city":"清瀬市","address":"清瀬市下清戸2丁目518番2","lat":35.784972,"lon":139.536413},{"name":"障害者福祉センター　学童クラブのびのび","province":"東京都","city":"清瀬市","address":"清瀬市上清戸1-16-62","lat":35.773265,"lon":139.527664},{"name":"放課後等デイサービスＡＡＯ！","province":"東京都","city":"清瀬市","address":"清瀬市上清戸2-3-41-B","lat":35.777334,"lon":139.521422},{"name":"マイスペ児童デイサービス清瀬","province":"東京都","city":"清瀬市","address":"清瀬市元町一丁目13番20号ブリックヒル1階","lat":35.774854,"lon":139.518223},{"name":"たまみずき清瀬","province":"東京都","city":"清瀬市","address":"清瀬市松山2-2-15清瀬シティハイム2階","lat":35.769838,"lon":139.516287},{"name":"わかば　第１学童クラブ","province":"東京都","city":"清瀬市","address":"清瀬市竹丘1-11-1-101","lat":35.765877,"lon":139.511649},{"name":"放課後等デイサービス　ラビットハウス","province":"東京都","city":"清瀬市","address":"清瀬市竹丘2-16-9","lat":35.762758,"lon":139.507691},{"name":"ビーキッズきよせ","province":"東京都","city":"清瀬市","address":"清瀬市梅園3-4-251階","lat":35.771068,"lon":139.499949},{"name":"アプリ児童デイサービス清瀬","province":"東京都","city":"清瀬市","address":"清瀬市梅園3-2-21","lat":35.768885,"lon":139.501919},{"name":"清瀬市子ども家庭支援センター","province":"東京都","city":"清瀬市","address":"清瀬市中清戸3-235-5清瀬市児童センター内","lat":35.776412,"lon":139.530649},{"name":"清瀬市子ども家庭支援センター","province":"東京都","city":"清瀬市","address":"清瀬市中里5-842清瀬市役所北隣しあわせ未来センター内","lat":35.78591,"lon":139.52619},{"name":"清瀬市子ども家庭支援センター","province":"東京都","city":"清瀬市","address":"清瀬市中清戸3-235-5児童センターころぽっくる内","lat":35.77712,"lon":139.53165},{"name":"清瀬市子ども家庭支援センター","province":"東京都","city":"清瀬市","address":"清瀬市中清戸3-235-5清瀬市児童センター内","lat":35.77867,"lon":139.53389},{"name":"＊?清瀬市男女共同参画センター（アイレック）","province":"東京都","city":"清瀬市","address":"清瀬市元町1-2-11アミュー4階","lat":35.772206,"lon":139.521171},{"name":"きずな","province":"東京都","city":"清瀬市","address":"清瀬市下清戸2丁目518番2","lat":35.784972,"lon":139.536413},{"name":"障害者福祉センター　学童クラブのびのび","province":"東京都","city":"清瀬市","address":"清瀬市上清戸1-16-62","lat":35.773265,"lon":139.527664},{"name":"放課後等デイサービスＡＡＯ！","province":"東京都","city":"清瀬市","address":"清瀬市上清戸2-3-41-B","lat":35.777334,"lon":139.521422},{"name":"マイスペ児童デイサービス清瀬","province":"東京都","city":"清瀬市","address":"清瀬市元町一丁目13番20号ブリックヒル1階","lat":35.774854,"lon":139.518223},{"name":"たまみずき清瀬","province":"東京都","city":"清瀬市","address":"清瀬市松山2-2-15清瀬シティハイム2階","lat":35.769838,"lon":139.516287},{"name":"わかば　第１学童クラブ","province":"東京都","city":"清瀬市","address":"清瀬市竹丘1-11-1-101","lat":35.765877,"lon":139.511649},{"name":"放課後等デイサービス　ラビットハウス","province":"東京都","city":"清瀬市","address":"清瀬市竹丘2-16-9","lat":35.762758,"lon":139.507691},{"name":"ビーキッズきよせ","province":"東京都","city":"清瀬市","address":"清瀬市梅園3-4-251階","lat":35.771068,"lon":139.499949},{"name":"アプリ児童デイサービス清瀬","province":"東京都","city":"清瀬市","address":"清瀬市梅園3-2-21","lat":35.768885,"lon":139.501919},{"name":"清瀬市子ども家庭支援センター","province":"東京都","city":"清瀬市","address":"清瀬市中清戸3-235-5清瀬市児童センター内","lat":35.776412,"lon":139.530649},{"name":"清瀬市子ども家庭支援センター","province":"東京都","city":"清瀬市","address":"清瀬市中里5-842清瀬市役所北隣しあわせ未来センター内","lat":35.78591,"lon":139.52619},{"name":"清瀬市子ども家庭支援センター","province":"東京都","city":"清瀬市","address":"清瀬市中清戸3-235-5児童センターころぽっくる内","lat":35.77712,"lon":139.53165},{"name":"清瀬市子ども家庭支援センター","province":"東京都","city":"清瀬市","address":"清瀬市中清戸3-235-5清瀬市児童センター内","lat":35.77867,"lon":139.53389},{"name":"＊?清瀬市男女共同参画センター（アイレック）","province":"東京都","city":"清瀬市","address":"清瀬市元町1-2-11アミュー4階","lat":35.772206,"lon":139.521171},{"name":"きずな","province":"東京都","city":"清瀬市","address":"清瀬市下清戸2丁目518番2","lat":35.784972,"lon":139.536413},{"name":"障害者福祉センター　学童クラブのびのび","province":"東京都","city":"清瀬市","address":"清瀬市上清戸1-16-62","lat":35.773265,"lon":139.527664},{"name":"放課後等デイサービスＡＡＯ！","province":"東京都","city":"清瀬市","address":"清瀬市上清戸2-3-41-B","lat":35.777334,"lon":139.521422},{"name":"マイスペ児童デイサービス清瀬","province":"東京都","city":"清瀬市","address":"清瀬市元町一丁目13番20号ブリックヒル1階","lat":35.774854,"lon":139.518223},{"name":"たまみずき清瀬","province":"東京都","city":"清瀬市","address":"清瀬市松山2-2-15清瀬シティハイム2階","lat":35.769838,"lon":139.516287},{"name":"わかば　第１学童クラブ","province":"東京都","city":"清瀬市","address":"清瀬市竹丘1-11-1-101","lat":35.765877,"lon":139.511649},{"name":"放課後等デイサービス　ラビットハウス","province":"東京都","city":"清瀬市","address":"清瀬市竹丘2-16-9","lat":35.762758,"lon":139.507691},{"name":"ビーキッズきよせ","province":"東京都","city":"清瀬市","address":"清瀬市梅園3-4-251階","lat":35.771068,"lon":139.499949},{"name":"アプリ児童デイサービス清瀬","province":"東京都","city":"清瀬市","address":"清瀬市梅園3-2-21","lat":35.768885,"lon":139.501919},{"name":"清瀬市子ども家庭支援センター","province":"東京都","city":"清瀬市","address":"清瀬市中清戸3-235-5清瀬市児童センター内","lat":35.776412,"lon":139.530649},{"name":"清瀬市子ども家庭支援センター","province":"東京都","city":"清瀬市","address":"清瀬市中里5-842清瀬市役所北隣しあわせ未来センター内","lat":35.78591,"lon":139.52619},{"name":"清瀬市子ども家庭支援センター","province":"東京都","city":"清瀬市","address":"清瀬市中清戸3-235-5児童センターころぽっくる内","lat":35.77712,"lon":139.53165},{"name":"清瀬市子ども家庭支援センター","province":"東京都","city":"清瀬市","address":"清瀬市中清戸3-235-5清瀬市児童センター内","lat":35.77867,"lon":139.53389},{"name":"＊?清瀬市男女共同参画センター（アイレック）","province":"東京都","city":"清瀬市","address":"清瀬市元町1-2-11アミュー4階","lat":35.772206,"lon":139.521171},{"name":"きずな","province":"東京都","city":"清瀬市","address":"清瀬市下清戸2丁目518番2","lat":35.784972,"lon":139.536413},{"name":"障害者福祉センター　学童クラブのびのび","province":"東京都","city":"清瀬市","address":"清瀬市上清戸1-16-62","lat":35.773265,"lon":139.527664},{"name":"放課後等デイサービスＡＡＯ！","province":"東京都","city":"清瀬市","address":"清瀬市上清戸2-3-41-B","lat":35.777334,"lon":139.521422},{"name":"マイスペ児童デイサービス清瀬","province":"東京都","city":"清瀬市","address":"清瀬市元町一丁目13番20号ブリックヒル1階","lat":35.774854,"lon":139.518223},{"name":"たまみずき清瀬","province":"東京都","city":"清瀬市","address":"清瀬市松山2-2-15清瀬シティハイム2階","lat":35.769838,"lon":139.516287},{"name":"わかば　第１学童クラブ","province":"東京都","city":"清瀬市","address":"清瀬市竹丘1-11-1-101","lat":35.765877,"lon":139.511649},{"name":"放課後等デイサービス　ラビットハウス","province":"東京都","city":"清瀬市","address":"清瀬市竹丘2-16-9","lat":35.762758,"lon":139.507691},{"name":"ビーキッズきよせ","province":"東京都","city":"清瀬市","address":"清瀬市梅園3-4-251階","lat":35.771068,"lon":139.499949},{"name":"アプリ児童デイサービス清瀬","province":"東京都","city":"清瀬市","address":"清瀬市梅園3-2-21","lat":35.768885,"lon":139.501919},{"name":"清瀬市子ども家庭支援センター","province":"東京都","city":"清瀬市","address":"清瀬市中清戸3-235-5清瀬市児童センター内","lat":35.776412,"lon":139.530649},{"name":"清瀬市子ども家庭支援センター","province":"東京都","city":"清瀬市","address":"清瀬市中里5-842清瀬市役所北隣しあわせ未来センター内","lat":35.78591,"lon":139.52619},{"name":"清瀬市子ども家庭支援センター","province":"東京都","city":"清瀬市","address":"清瀬市中清戸3-235-5児童センターころぽっくる内","lat":35.77712,"lon":139.53165},{"name":"清瀬市子ども家庭支援センター","province":"東京都","city":"清瀬市","address":"清瀬市中清戸3-235-5清瀬市児童センター内","lat":35.77867,"lon":139.53389},{"name":"＊?清瀬市男女共同参画センター（アイレック）","province":"東京都","city":"清瀬市","address":"清瀬市元町1-2-11アミュー4階","lat":35.772206,"lon":139.521171},{"name":"きずな","province":"東京都","city":"清瀬市","address":"清瀬市下清戸2丁目518番2","lat":35.784972,"lon":139.536413},{"name":"障害者福祉センター　学童クラブのびのび","province":"東京都","city":"清瀬市","address":"清瀬市上清戸1-16-62","lat":35.773265,"lon":139.527664},{"name":"放課後等デイサービスＡＡＯ！","province":"東京都","city":"清瀬市","address":"清瀬市上清戸2-3-41-B","lat":35.777334,"lon":139.521422},{"name":"マイスペ児童デイサービス清瀬","province":"東京都","city":"清瀬市","address":"清瀬市元町一丁目13番20号ブリックヒル1階","lat":35.774854,"lon":139.518223},{"name":"たまみずき清瀬","province":"東京都","city":"清瀬市","address":"清瀬市松山2-2-15清瀬シティハイム2階","lat":35.769838,"lon":139.516287},{"name":"わかば　第１学童クラブ","province":"東京都","city":"清瀬市","address":"清瀬市竹丘1-11-1-101","lat":35.765877,"lon":139.511649},{"name":"放課後等デイサービス　ラビットハウス","province":"東京都","city":"清瀬市","address":"清瀬市竹丘2-16-9","lat":35.762758,"lon":139.507691},{"name":"ビーキッズきよせ","province":"東京都","city":"清瀬市","address":"清瀬市梅園3-4-251階","lat":35.771068,"lon":139.499949},{"name":"アプリ児童デイサービス清瀬","province":"東京都","city":"清瀬市","address":"清瀬市梅園3-2-21","lat":35.768885,"lon":139.501919},{"name":"清瀬市子ども家庭支援センター","province":"東京都","city":"清瀬市","address":"清瀬市中清戸3-235-5清瀬市児童センター内","lat":35.776412,"lon":139.530649},{"name":"清瀬市子ども家庭支援センター","province":"東京都","city":"清瀬市","address":"清瀬市中里5-842清瀬市役所北隣しあわせ未来センター内","lat":35.78591,"lon":139.52619},{"name":"清瀬市子ども家庭支援センター","province":"東京都","city":"清瀬市","address":"清瀬市中清戸3-235-5児童センターころぽっくる内","lat":35.77712,"lon":139.53165},{"name":"清瀬市子ども家庭支援センター","province":"東京都","city":"清瀬市","address":"清瀬市中清戸3-235-5清瀬市児童センター内","lat":35.77867,"lon":139.53389},{"name":"＊?清瀬市男女共同参画センター（アイレック）","province":"東京都","city":"清瀬市","address":"清瀬市元町1-2-11アミュー4階","lat":35.772206,"lon":139.521171},{"name":"きずな","province":"東京都","city":"清瀬市","address":"清瀬市下清戸2丁目518番2","lat":35.784972,"lon":139.536413},{"name":"障害者福祉センター　学童クラブのびのび","province":"東京都","city":"清瀬市","address":"清瀬市上清戸1-16-62","lat":35.773265,"lon":139.527664},{"name":"放課後等デイサービスＡＡＯ！","province":"東京都","city":"清瀬市","address":"清瀬市上清戸2-3-41-B","lat":35.777334,"lon":139.521422},{"name":"マイスペ児童デイサービス清瀬","province":"東京都","city":"清瀬市","address":"清瀬市元町一丁目13番20号ブリックヒル1階","lat":35.774854,"lon":139.518223},{"name":"たまみずき清瀬","province":"東京都","city":"清瀬市","address":"清瀬市松山2-2-15清瀬シティハイム2階","lat":35.769838,"lon":139.516287},{"name":"わかば　第１学童クラブ","province":"東京都","city":"清瀬市","address":"清瀬市竹丘1-11-1-101","lat":35.765877,"lon":139.511649},{"name":"放課後等デイサービス　ラビットハウス","province":"東京都","city":"清瀬市","address":"清瀬市竹丘2-16-9","lat":35.762758,"lon":139.507691},{"name":"ビーキッズきよせ","province":"東京都","city":"清瀬市","address":"清瀬市梅園3-4-251階","lat":35.771068,"lon":139.499949},{"name":"アプリ児童デイサービス清瀬","province":"東京都","city":"清瀬市","address":"清瀬市梅園3-2-21","lat":35.768885,"lon":139.501919},{"name":"清瀬市子ども家庭支援センター","province":"東京都","city":"清瀬市","address":"清瀬市中清戸3-235-5清瀬市児童センター内","lat":35.776412,"lon":139.530649},{"name":"清瀬市子ども家庭支援センター","province":"東京都","city":"清瀬市","address":"清瀬市中里5-842清瀬市役所北隣しあわせ未来センター内","lat":35.78591,"lon":139.52619},{"name":"清瀬市子ども家庭支援センター","province":"東京都","city":"清瀬市","address":"清瀬市中清戸3-235-5児童センターころぽっくる内","lat":35.77712,"lon":139.53165},{"name":"清瀬市子ども家庭支援センター","province":"東京都","city":"清瀬市","address":"清瀬市中清戸3-235-5清瀬市児童センター内","lat":35.77867,"lon":139.53389},{"name":"＊?清瀬市男女共同参画センター（アイレック）","province":"東京都","city":"清瀬市","address":"清瀬市元町1-2-11アミュー4階","lat":35.772206,"lon":139.521171},{"name":"きずな","province":"東京都","city":"清瀬市","address":"清瀬市下清戸2丁目518番2","lat":35.784972,"lon":139.536413},{"name":"障害者福祉センター　学童クラブのびのび","province":"東京都","city":"清瀬市","address":"清瀬市上清戸1-16-62","lat":35.773265,"lon":139.527664},{"name":"放課後等デイサービスＡＡＯ！","province":"東京都","city":"清瀬市","address":"清瀬市上清戸2-3-41-B","lat":35.777334,"lon":139.521422},{"name":"マイスペ児童デイサービス清瀬","province":"東京都","city":"清瀬市","address":"清瀬市元町一丁目13番20号ブリックヒル1階","lat":35.774854,"lon":139.518223},{"name":"たまみずき清瀬","province":"東京都","city":"清瀬市","address":"清瀬市松山2-2-15清瀬シティハイム2階","lat":35.769838,"lon":139.516287},{"name":"わかば　第１学童クラブ","province":"東京都","city":"清瀬市","address":"清瀬市竹丘1-11-1-101","lat":35.765877,"lon":139.511649},{"name":"放課後等デイサービス　ラビットハウス","province":"東京都","city":"清瀬市","address":"清瀬市竹丘2-16-9","lat":35.762758,"lon":139.507691},{"name":"ビーキッズきよせ","province":"東京都","city":"清瀬市","address":"清瀬市梅園3-4-251階","lat":35.771068,"lon":139.499949},{"name":"アプリ児童デイサービス清瀬","province":"東京都","city":"清瀬市","address":"清瀬市梅園3-2-21","lat":35.768885,"lon":139.501919},{"name":"清瀬市子ども家庭支援センター","province":"東京都","city":"清瀬市","address":"清瀬市中清戸3-235-5清瀬市児童センター内","lat":35.776412,"lon":139.530649},{"name":"清瀬市子ども家庭支援センター","province":"東京都","city":"清瀬市","address":"清瀬市中里5-842清瀬市役所北隣しあわせ未来センター内","lat":35.78591,"lon":139.52619},{"name":"清瀬市子ども家庭支援センター","province":"東京都","city":"清瀬市","address":"清瀬市中清戸3-235-5児童センターころぽっくる内","lat":35.77712,"lon":139.53165},{"name":"清瀬市子ども家庭支援センター","province":"東京都","city":"清瀬市","address":"清瀬市中清戸3-235-5清瀬市児童センター内","lat":35.77867,"lon":139.53389},{"name":"＊?清瀬市男女共同参画センター（アイレック）","province":"東京都","city":"清瀬市","address":"清瀬市元町1-2-11アミュー4階","lat":35.772206,"lon":139.521171},{"name":"きずな","province":"東京都","city":"清瀬市","address":"清瀬市下清戸2丁目518番2","lat":35.784972,"lon":139.536413},{"name":"障害者福祉センター　学童クラブのびのび","province":"東京都","city":"清瀬市","address":"清瀬市上清戸1-16-62","lat":35.773265,"lon":139.527664},{"name":"放課後等デイサービスＡＡＯ！","province":"東京都","city":"清瀬市","address":"清瀬市上清戸2-3-41-B","lat":35.777334,"lon":139.521422},{"name":"マイスペ児童デイサービス清瀬","province":"東京都","city":"清瀬市","address":"清瀬市元町一丁目13番20号ブリックヒル1階","lat":35.774854,"lon":139.518223},{"name":"たまみずき清瀬","province":"東京都","city":"清瀬市","address":"清瀬市松山2-2-15清瀬シティハイム2階","lat":35.769838,"lon":139.516287},{"name":"わかば　第１学童クラブ","province":"東京都","city":"清瀬市","address":"清瀬市竹丘1-11-1-101","lat":35.765877,"lon":139.511649},{"name":"放課後等デイサービス　ラビットハウス","province":"東京都","city":"清瀬市","address":"清瀬市竹丘2-16-9","lat":35.762758,"lon":139.507691},{"name":"ビーキッズきよせ","province":"東京都","city":"清瀬市","address":"清瀬市梅園3-4-251階","lat":35.771068,"lon":139.499949},{"name":"アプリ児童デイサービス清瀬","province":"東京都","city":"清瀬市","address":"清瀬市梅園3-2-21","lat":35.768885,"lon":139.501919},{"name":"清瀬市子ども家庭支援センター","province":"東京都","city":"清瀬市","address":"清瀬市中清戸3-235-5清瀬市児童センター内","lat":35.776412,"lon":139.530649},{"name":"清瀬市子ども家庭支援センター","province":"東京都","city":"清瀬市","address":"清瀬市中里5-842清瀬市役所北隣しあわせ未来センター内","lat":35.78591,"lon":139.52619},{"name":"清瀬市子ども家庭支援センター","province":"東京都","city":"清瀬市","address":"清瀬市中清戸3-235-5児童センターころぽっくる内","lat":35.77712,"lon":139.53165},{"name":"清瀬市子ども家庭支援センター","province":"東京都","city":"清瀬市","address":"清瀬市中清戸3-235-5清瀬市児童センター内","lat":35.77867,"lon":139.53389},{"name":"＊?清瀬市男女共同参画センター（アイレック）","province":"東京都","city":"清瀬市","address":"清瀬市元町1-2-11アミュー4階","lat":35.772206,"lon":139.521171},{"name":"きずな","province":"東京都","city":"清瀬市","address":"清瀬市下清戸2丁目518番2","lat":35.784972,"lon":139.536413},{"name":"障害者福祉センター　学童クラブのびのび","province":"東京都","city":"清瀬市","address":"清瀬市上清戸1-16-62","lat":35.773265,"lon":139.527664},{"name":"放課後等デイサービスＡＡＯ！","province":"東京都","city":"清瀬市","address":"清瀬市上清戸2-3-41-B","lat":35.777334,"lon":139.521422},{"name":"マイスペ児童デイサービス清瀬","province":"東京都","city":"清瀬市","address":"清瀬市元町一丁目13番20号ブリックヒル1階","lat":35.774854,"lon":139.518223},{"name":"たまみずき清瀬","province":"東京都","city":"清瀬市","address":"清瀬市松山2-2-15清瀬シティハイム2階","lat":35.769838,"lon":139.516287},{"name":"わかば　第１学童クラブ","province":"東京都","city":"清瀬市","address":"清瀬市竹丘1-11-1-101","lat":35.765877,"lon":139.511649},{"name":"放課後等デイサービス　ラビットハウス","province":"東京都","city":"清瀬市","address":"清瀬市竹丘2-16-9","lat":35.762758,"lon":139.507691},{"name":"ビーキッズきよせ","province":"東京都","city":"清瀬市","address":"清瀬市梅園3-4-251階","lat":35.771068,"lon":139.499949},{"name":"アプリ児童デイサービス清瀬","province":"東京都","city":"清瀬市","address":"清瀬市梅園3-2-21","lat":35.768885,"lon":139.501919},{"name":"清瀬市子ども家庭支援センター","province":"東京都","city":"清瀬市","address":"清瀬市中清戸3-235-5清瀬市児童センター内","lat":35.776412,"lon":139.530649},{"name":"清瀬市子ども家庭支援センター","province":"東京都","city":"清瀬市","address":"清瀬市中里5-842清瀬市役所北隣しあわせ未来センター内","lat":35.78591,"lon":139.52619},{"name":"清瀬市子ども家庭支援センター","province":"東京都","city":"清瀬市","address":"清瀬市中清戸3-235-5児童センターころぽっくる内","lat":35.77712,"lon":139.53165},{"name":"清瀬市子ども家庭支援センター","province":"東京都","city":"清瀬市","address":"清瀬市中清戸3-235-5清瀬市児童センター内","lat":35.77867,"lon":139.53389},{"name":"＊?清瀬市男女共同参画センター（アイレック）","province":"東京都","city":"清瀬市","address":"清瀬市元町1-2-11アミュー4階","lat":35.772206,"lon":139.521171},{"name":"きずな","province":"東京都","city":"清瀬市","address":"清瀬市下清戸2丁目518番2","lat":35.784972,"lon":139.536413},{"name":"障害者福祉センター　学童クラブのびのび","province":"東京都","city":"清瀬市","address":"清瀬市上清戸1-16-62","lat":35.773265,"lon":139.527664},{"name":"放課後等デイサービスＡＡＯ！","province":"東京都","city":"清瀬市","address":"清瀬市上清戸2-3-41-B","lat":35.777334,"lon":139.521422},{"name":"マイスペ児童デイサービス清瀬","province":"東京都","city":"清瀬市","address":"清瀬市元町一丁目13番20号ブリックヒル1階","lat":35.774854,"lon":139.518223},{"name":"たまみずき清瀬","province":"東京都","city":"清瀬市","address":"清瀬市松山2-2-15清瀬シティハイム2階","lat":35.769838,"lon":139.516287},{"name":"わかば　第１学童クラブ","province":"東京都","city":"清瀬市","address":"清瀬市竹丘1-11-1-101","lat":35.765877,"lon":139.511649},{"name":"放課後等デイサービス　ラビットハウス","province":"東京都","city":"清瀬市","address":"清瀬市竹丘2-16-9","lat":35.762758,"lon":139.507691},{"name":"ビーキッズきよせ","province":"東京都","city":"清瀬市","address":"清瀬市梅園3-4-251階","lat":35.771068,"lon":139.499949},{"name":"アプリ児童デイサービス清瀬","province":"東京都","city":"清瀬市","address":"清瀬市梅園3-2-21","lat":35.768885,"lon":139.501919},{"name":"清瀬市子ども家庭支援センター","province":"東京都","city":"清瀬市","address":"清瀬市中清戸3-235-5清瀬市児童センター内","lat":35.776412,"lon":139.530649},{"name":"清瀬市子ども家庭支援センター","province":"東京都","city":"清瀬市","address":"清瀬市中里5-842清瀬市役所北隣しあわせ未来センター内","lat":35.78591,"lon":139.52619},{"name":"清瀬市子ども家庭支援センター","province":"東京都","city":"清瀬市","address":"清瀬市中清戸3-235-5児童センターころぽっくる内","lat":35.77712,"lon":139.53165},{"name":"清瀬市子ども家庭支援センター","province":"東京都","city":"清瀬市","address":"清瀬市中清戸3-235-5清瀬市児童センター内","lat":35.77867,"lon":139.53389},{"name":"＊?清瀬市男女共同参画センター（アイレック）","province":"東京都","city":"清瀬市","address":"清瀬市元町1-2-11アミュー4階","lat":35.772206,"lon":139.521171},{"name":"きずな","province":"東京都","city":"清瀬市","address":"清瀬市下清戸2丁目518番2","lat":35.784972,"lon":139.536413},{"name":"障害者福祉センター　学童クラブのびのび","province":"東京都","city":"清瀬市","address":"清瀬市上清戸1-16-62","lat":35.773265,"lon":139.527664},{"name":"放課後等デイサービスＡＡＯ！","province":"東京都","city":"清瀬市","address":"清瀬市上清戸2-3-41-B","lat":35.777334,"lon":139.521422},{"name":"マイスペ児童デイサービス清瀬","province":"東京都","city":"清瀬市","address":"清瀬市元町一丁目13番20号ブリックヒル1階","lat":35.774854,"lon":139.518223},{"name":"たまみずき清瀬","province":"東京都","city":"清瀬市","address":"清瀬市松山2-2-15清瀬シティハイム2階","lat":35.769838,"lon":139.516287},{"name":"わかば　第１学童クラブ","province":"東京都","city":"清瀬市","address":"清瀬市竹丘1-11-1-101","lat":35.765877,"lon":139.511649},{"name":"放課後等デイサービス　ラビットハウス","province":"東京都","city":"清瀬市","address":"清瀬市竹丘2-16-9","lat":35.762758,"lon":139.507691},{"name":"ビーキッズきよせ","province":"東京都","city":"清瀬市","address":"清瀬市梅園3-4-251階","lat":35.771068,"lon":139.499949},{"name":"アプリ児童デイサービス清瀬","province":"東京都","city":"清瀬市","address":"清瀬市梅園3-2-21","lat":35.768885,"lon":139.501919},{"name":"清瀬市子ども家庭支援センター","province":"東京都","city":"清瀬市","address":"清瀬市中清戸3-235-5清瀬市児童センター内","lat":35.776412,"lon":139.530649},{"name":"清瀬市子ども家庭支援センター","province":"東京都","city":"清瀬市","address":"清瀬市中里5-842清瀬市役所北隣しあわせ未来センター内","lat":35.78591,"lon":139.52619},{"name":"清瀬市子ども家庭支援センター","province":"東京都","city":"清瀬市","address":"清瀬市中清戸3-235-5児童センターころぽっくる内","lat":35.77712,"lon":139.53165},{"name":"清瀬市子ども家庭支援センター","province":"東京都","city":"清瀬市","address":"清瀬市中清戸3-235-5清瀬市児童センター内","lat":35.77867,"lon":139.53389},{"name":"＊?清瀬市男女共同参画センター（アイレック）","province":"東京都","city":"清瀬市","address":"清瀬市元町1-2-11アミュー4階","lat":35.772206,"lon":139.521171},{"name":"きずな","province":"東京都","city":"清瀬市","address":"清瀬市下清戸2丁目518番2","lat":35.784972,"lon":139.536413},{"name":"障害者福祉センター　学童クラブのびのび","province":"東京都","city":"清瀬市","address":"清瀬市上清戸1-16-62","lat":35.773265,"lon":139.527664},{"name":"放課後等デイサービスＡＡＯ！","province":"東京都","city":"清瀬市","address":"清瀬市上清戸2-3-41-B","lat":35.777334,"lon":139.521422},{"name":"マイスペ児童デイサービス清瀬","province":"東京都","city":"清瀬市","address":"清瀬市元町一丁目13番20号ブリックヒル1階","lat":35.774854,"lon":139.518223},{"name":"たまみずき清瀬","province":"東京都","city":"清瀬市","address":"清瀬市松山2-2-15清瀬シティハイム2階","lat":35.769838,"lon":139.516287},{"name":"わかば　第１学童クラブ","province":"東京都","city":"清瀬市","address":"清瀬市竹丘1-11-1-101","lat":35.765877,"lon":139.511649},{"name":"放課後等デイサービス　ラビットハウス","province":"東京都","city":"清瀬市","address":"清瀬市竹丘2-16-9","lat":35.762758,"lon":139.507691},{"name":"ビーキッズきよせ","province":"東京都","city":"清瀬市","address":"清瀬市梅園3-4-251階","lat":35.771068,"lon":139.499949},{"name":"アプリ児童デイサービス清瀬","province":"東京都","city":"清瀬市","address":"清瀬市梅園3-2-21","lat":35.768885,"lon":139.501919},{"name":"清瀬市子ども家庭支援センター","province":"東京都","city":"清瀬市","address":"清瀬市中清戸3-235-5清瀬市児童センター内","lat":35.776412,"lon":139.530649},{"name":"清瀬市子ども家庭支援センター","province":"東京都","city":"清瀬市","address":"清瀬市中里5-842清瀬市役所北隣しあわせ未来センター内","lat":35.78591,"lon":139.52619},{"name":"清瀬市子ども家庭支援センター","province":"東京都","city":"清瀬市","address":"清瀬市中清戸3-235-5児童センターころぽっくる内","lat":35.77712,"lon":139.53165},{"name":"清瀬市子ども家庭支援センター","province":"東京都","city":"清瀬市","address":"清瀬市中清戸3-235-5清瀬市児童センター内","lat":35.77867,"lon":139.53389},{"name":"＊?清瀬市男女共同参画センター（アイレック）","province":"東京都","city":"清瀬市","address":"清瀬市元町1-2-11アミュー4階","lat":35.772206,"lon":139.521171},{"name":"きずな","province":"東京都","city":"清瀬市","address":"清瀬市下清戸2丁目518番2","lat":35.784972,"lon":139.536413},{"name":"障害者福祉センター　学童クラブのびのび","province":"東京都","city":"清瀬市","address":"清瀬市上清戸1-16-62","lat":35.773265,"lon":139.527664},{"name":"放課後等デイサービスＡＡＯ！","province":"東京都","city":"清瀬市","address":"清瀬市上清戸2-3-41-B","lat":35.777334,"lon":139.521422},{"name":"マイスペ児童デイサービス清瀬","province":"東京都","city":"清瀬市","address":"清瀬市元町一丁目13番20号ブリックヒル1階","lat":35.774854,"lon":139.518223},{"name":"たまみずき清瀬","province":"東京都","city":"清瀬市","address":"清瀬市松山2-2-15清瀬シティハイム2階","lat":35.769838,"lon":139.516287},{"name":"わかば　第１学童クラブ","province":"東京都","city":"清瀬市","address":"清瀬市竹丘1-11-1-101","lat":35.765877,"lon":139.511649},{"name":"放課後等デイサービス　ラビットハウス","province":"東京都","city":"清瀬市","address":"清瀬市竹丘2-16-9","lat":35.762758,"lon":139.507691},{"name":"ビーキッズきよせ","province":"東京都","city":"清瀬市","address":"清瀬市梅園3-4-251階","lat":35.771068,"lon":139.499949},{"name":"アプリ児童デイサービス清瀬","province":"東京都","city":"清瀬市","address":"清瀬市梅園3-2-21","lat":35.768885,"lon":139.501919},{"name":"清瀬市子ども家庭支援センター","province":"東京都","city":"清瀬市","address":"清瀬市中清戸3-235-5清瀬市児童センター内","lat":35.776412,"lon":139.530649},{"name":"清瀬市子ども家庭支援センター","province":"東京都","city":"清瀬市","address":"清瀬市中里5-842清瀬市役所北隣しあわせ未来センター内","lat":35.78591,"lon":139.52619},{"name":"清瀬市子ども家庭支援センター","province":"東京都","city":"清瀬市","address":"清瀬市中清戸3-235-5児童センターころぽっくる内","lat":35.77712,"lon":139.53165},{"name":"清瀬市子ども家庭支援センター","province":"東京都","city":"清瀬市","address":"清瀬市中清戸3-235-5清瀬市児童センター内","lat":35.77867,"lon":139.53389},{"name":"＊?清瀬市男女共同参画センター（アイレック）","province":"東京都","city":"清瀬市","address":"清瀬市元町1-2-11アミュー4階","lat":35.772206,"lon":139.521171},{"name":"きずな","province":"東京都","city":"清瀬市","address":"清瀬市下清戸2丁目518番2","lat":35.784972,"lon":139.536413},{"name":"障害者福祉センター　学童クラブのびのび","province":"東京都","city":"清瀬市","address":"清瀬市上清戸1-16-62","lat":35.773265,"lon":139.527664},{"name":"放課後等デイサービスＡＡＯ！","province":"東京都","city":"清瀬市","address":"清瀬市上清戸2-3-41-B","lat":35.777334,"lon":139.521422},{"name":"マイスペ児童デイサービス清瀬","province":"東京都","city":"清瀬市","address":"清瀬市元町一丁目13番20号ブリックヒル1階","lat":35.774854,"lon":139.518223},{"name":"たまみずき清瀬","province":"東京都","city":"清瀬市","address":"清瀬市松山2-2-15清瀬シティハイム2階","lat":35.769838,"lon":139.516287},{"name":"わかば　第１学童クラブ","province":"東京都","city":"清瀬市","address":"清瀬市竹丘1-11-1-101","lat":35.765877,"lon":139.511649},{"name":"放課後等デイサービス　ラビットハウス","province":"東京都","city":"清瀬市","address":"清瀬市竹丘2-16-9","lat":35.762758,"lon":139.507691},{"name":"ビーキッズきよせ","province":"東京都","city":"清瀬市","address":"清瀬市梅園3-4-251階","lat":35.771068,"lon":139.499949},{"name":"アプリ児童デイサービス清瀬","province":"東京都","city":"清瀬市","address":"清瀬市梅園3-2-21","lat":35.768885,"lon":139.501919},{"name":"清瀬市子ども家庭支援センター","province":"東京都","city":"清瀬市","address":"清瀬市中清戸3-235-5清瀬市児童センター内","lat":35.776412,"lon":139.530649},{"name":"清瀬市子ども家庭支援センター","province":"東京都","city":"清瀬市","address":"清瀬市中里5-842清瀬市役所北隣しあわせ未来センター内","lat":35.78591,"lon":139.52619},{"name":"清瀬市子ども家庭支援センター","province":"東京都","city":"清瀬市","address":"清瀬市中清戸3-235-5児童センターころぽっくる内","lat":35.77712,"lon":139.53165},{"name":"清瀬市子ども家庭支援センター","province":"東京都","city":"清瀬市","address":"清瀬市中清戸3-235-5清瀬市児童センター内","lat":35.77867,"lon":139.53389},{"name":"＊?清瀬市男女共同参画センター（アイレック）","province":"東京都","city":"清瀬市","address":"清瀬市元町1-2-11アミュー4階","lat":35.772206,"lon":139.521171},{"name":"きずな","province":"東京都","city":"清瀬市","address":"清瀬市下清戸2丁目518番2","lat":35.784972,"lon":139.536413},{"name":"障害者福祉センター　学童クラブのびのび","province":"東京都","city":"清瀬市","address":"清瀬市上清戸1-16-62","lat":35.773265,"lon":139.527664},{"name":"放課後等デイサービスＡＡＯ！","province":"東京都","city":"清瀬市","address":"清瀬市上清戸2-3-41-B","lat":35.777334,"lon":139.521422},{"name":"マイスペ児童デイサービス清瀬","province":"東京都","city":"清瀬市","address":"清瀬市元町一丁目13番20号ブリックヒル1階","lat":35.774854,"lon":139.518223},{"name":"たまみずき清瀬","province":"東京都","city":"清瀬市","address":"清瀬市松山2-2-15清瀬シティハイム2階","lat":35.769838,"lon":139.516287},{"name":"わかば　第１学童クラブ","province":"東京都","city":"清瀬市","address":"清瀬市竹丘1-11-1-101","lat":35.765877,"lon":139.511649},{"name":"放課後等デイサービス　ラビットハウス","province":"東京都","city":"清瀬市","address":"清瀬市竹丘2-16-9","lat":35.762758,"lon":139.507691},{"name":"ビーキッズきよせ","province":"東京都","city":"清瀬市","address":"清瀬市梅園3-4-251階","lat":35.771068,"lon":139.499949},{"name":"アプリ児童デイサービス清瀬","province":"東京都","city":"清瀬市","address":"清瀬市梅園3-2-21","lat":35.768885,"lon":139.501919},{"name":"清瀬市子ども家庭支援センター","province":"東京都","city":"清瀬市","address":"清瀬市中清戸3-235-5清瀬市児童センター内","lat":35.776412,"lon":139.530649},{"name":"清瀬市子ども家庭支援センター","province":"東京都","city":"清瀬市","address":"清瀬市中里5-842清瀬市役所北隣しあわせ未来センター内","lat":35.78591,"lon":139.52619},{"name":"清瀬市子ども家庭支援センター","province":"東京都","city":"清瀬市","address":"清瀬市中清戸3-235-5児童センターころぽっくる内","lat":35.77712,"lon":139.53165},{"name":"清瀬市子ども家庭支援センター","province":"東京都","city":"清瀬市","address":"清瀬市中清戸3-235-5清瀬市児童センター内","lat":35.77867,"lon":139.53389},{"name":"＊?清瀬市男女共同参画センター（アイレック）","province":"東京都","city":"清瀬市","address":"清瀬市元町1-2-11アミュー4階","lat":35.772206,"lon":139.521171},{"name":"きずな","province":"東京都","city":"清瀬市","address":"清瀬市下清戸2丁目518番2","lat":35.784972,"lon":139.536413},{"name":"障害者福祉センター　学童クラブのびのび","province":"東京都","city":"清瀬市","address":"清瀬市上清戸1-16-62","lat":35.773265,"lon":139.527664},{"name":"放課後等デイサービスＡＡＯ！","province":"東京都","city":"清瀬市","address":"清瀬市上清戸2-3-41-B","lat":35.777334,"lon":139.521422},{"name":"マイスペ児童デイサービス清瀬","province":"東京都","city":"清瀬市","address":"清瀬市元町一丁目13番20号ブリックヒル1階","lat":35.774854,"lon":139.518223},{"name":"たまみずき清瀬","province":"東京都","city":"清瀬市","address":"清瀬市松山2-2-15清瀬シティハイム2階","lat":35.769838,"lon":139.516287},{"name":"わかば　第１学童クラブ","province":"東京都","city":"清瀬市","address":"清瀬市竹丘1-11-1-101","lat":35.765877,"lon":139.511649},{"name":"放課後等デイサービス　ラビットハウス","province":"東京都","city":"清瀬市","address":"清瀬市竹丘2-16-9","lat":35.762758,"lon":139.507691},{"name":"ビーキッズきよせ","province":"東京都","city":"清瀬市","address":"清瀬市梅園3-4-251階","lat":35.771068,"lon":139.499949},{"name":"アプリ児童デイサービス清瀬","province":"東京都","city":"清瀬市","address":"清瀬市梅園3-2-21","lat":35.768885,"lon":139.501919},{"name":"清瀬市子ども家庭支援センター","province":"東京都","city":"清瀬市","address":"清瀬市中清戸3-235-5清瀬市児童センター内","lat":35.776412,"lon":139.530649},{"name":"清瀬市子ども家庭支援センター","province":"東京都","city":"清瀬市","address":"清瀬市中里5-842清瀬市役所北隣しあわせ未来センター内","lat":35.78591,"lon":139.52619},{"name":"清瀬市子ども家庭支援センター","province":"東京都","city":"清瀬市","address":"清瀬市中清戸3-235-5児童センターころぽっくる内","lat":35.77712,"lon":139.53165},{"name":"清瀬市子ども家庭支援センター","province":"東京都","city":"清瀬市","address":"清瀬市中清戸3-235-5清瀬市児童センター内","lat":35.77867,"lon":139.53389},{"name":"＊?清瀬市男女共同参画センター（アイレック）","province":"東京都","city":"清瀬市","address":"清瀬市元町1-2-11アミュー4階","lat":35.772206,"lon":139.521171},{"name":"きずな","province":"東京都","city":"清瀬市","address":"清瀬市下清戸2丁目518番2","lat":35.784972,"lon":139.536413},{"name":"障害者福祉センター　学童クラブのびのび","province":"東京都","city":"清瀬市","address":"清瀬市上清戸1-16-62","lat":35.773265,"lon":139.527664},{"name":"放課後等デイサービスＡＡＯ！","province":"東京都","city":"清瀬市","address":"清瀬市上清戸2-3-41-B","lat":35.777334,"lon":139.521422},{"name":"マイスペ児童デイサービス清瀬","province":"東京都","city":"清瀬市","address":"清瀬市元町一丁目13番20号ブリックヒル1階","lat":35.774854,"lon":139.518223},{"name":"たまみずき清瀬","province":"東京都","city":"清瀬市","address":"清瀬市松山2-2-15清瀬シティハイム2階","lat":35.769838,"lon":139.516287},{"name":"わかば　第１学童クラブ","province":"東京都","city":"清瀬市","address":"清瀬市竹丘1-11-1-101","lat":35.765877,"lon":139.511649},{"name":"放課後等デイサービス　ラビットハウス","province":"東京都","city":"清瀬市","address":"清瀬市竹丘2-16-9","lat":35.762758,"lon":139.507691},{"name":"ビーキッズきよせ","province":"東京都","city":"清瀬市","address":"清瀬市梅園3-4-251階","lat":35.771068,"lon":139.499949},{"name":"アプリ児童デイサービス清瀬","province":"東京都","city":"清瀬市","address":"清瀬市梅園3-2-21","lat":35.768885,"lon":139.501919},{"name":"清瀬市子ども家庭支援センター","province":"東京都","city":"清瀬市","address":"清瀬市中清戸3-235-5清瀬市児童センター内","lat":35.776412,"lon":139.530649},{"name":"清瀬市子ども家庭支援センター","province":"東京都","city":"清瀬市","address":"清瀬市中里5-842清瀬市役所北隣しあわせ未来センター内","lat":35.78591,"lon":139.52619},{"name":"清瀬市子ども家庭支援センター","province":"東京都","city":"清瀬市","address":"清瀬市中清戸3-235-5児童センターころぽっくる内","lat":35.77712,"lon":139.53165},{"name":"清瀬市子ども家庭支援センター","province":"東京都","city":"清瀬市","address":"清瀬市中清戸3-235-5清瀬市児童センター内","lat":35.77867,"lon":139.53389},{"name":"＊?清瀬市男女共同参画センター（アイレック）","province":"東京都","city":"清瀬市","address":"清瀬市元町1-2-11アミュー4階","lat":35.772206,"lon":139.521171},{"name":"きずな","province":"東京都","city":"清瀬市","address":"清瀬市下清戸2丁目518番2","lat":35.784972,"lon":139.536413},{"name":"障害者福祉センター　学童クラブのびのび","province":"東京都","city":"清瀬市","address":"清瀬市上清戸1-16-62","lat":35.773265,"lon":139.527664},{"name":"放課後等デイサービスＡＡＯ！","province":"東京都","city":"清瀬市","address":"清瀬市上清戸2-3-41-B","lat":35.777334,"lon":139.521422},{"name":"マイスペ児童デイサービス清瀬","province":"東京都","city":"清瀬市","address":"清瀬市元町一丁目13番20号ブリックヒル1階","lat":35.774854,"lon":139.518223},{"name":"たまみずき清瀬","province":"東京都","city":"清瀬市","address":"清瀬市松山2-2-15清瀬シティハイム2階","lat":35.769838,"lon":139.516287},{"name":"わかば　第１学童クラブ","province":"東京都","city":"清瀬市","address":"清瀬市竹丘1-11-1-101","lat":35.765877,"lon":139.511649},{"name":"放課後等デイサービス　ラビットハウス","province":"東京都","city":"清瀬市","address":"清瀬市竹丘2-16-9","lat":35.762758,"lon":139.507691},{"name":"ビーキッズきよせ","province":"東京都","city":"清瀬市","address":"清瀬市梅園3-4-251階","lat":35.771068,"lon":139.499949},{"name":"アプリ児童デイサービス清瀬","province":"東京都","city":"清瀬市","address":"清瀬市梅園3-2-21","lat":35.768885,"lon":139.501919},{"name":"清瀬市子ども家庭支援センター","province":"東京都","city":"清瀬市","address":"清瀬市中清戸3-235-5清瀬市児童センター内","lat":35.776412,"lon":139.530649},{"name":"清瀬市子ども家庭支援センター","province":"東京都","city":"清瀬市","address":"清瀬市中里5-842清瀬市役所北隣しあわせ未来センター内","lat":35.78591,"lon":139.52619},{"name":"清瀬市子ども家庭支援センター","province":"東京都","city":"清瀬市","address":"清瀬市中清戸3-235-5児童センターころぽっくる内","lat":35.77712,"lon":139.53165},{"name":"清瀬市子ども家庭支援センター","province":"東京都","city":"清瀬市","address":"清瀬市中清戸3-235-5清瀬市児童センター内","lat":35.77867,"lon":139.53389},{"name":"＊?清瀬市男女共同参画センター（アイレック）","province":"東京都","city":"清瀬市","address":"清瀬市元町1-2-11アミュー4階","lat":35.772206,"lon":139.521171},{"name":"きずな","province":"東京都","city":"清瀬市","address":"清瀬市下清戸2丁目518番2","lat":35.784972,"lon":139.536413},{"name":"障害者福祉センター　学童クラブのびのび","province":"東京都","city":"清瀬市","address":"清瀬市上清戸1-16-62","lat":35.773265,"lon":139.527664},{"name":"放課後等デイサービスＡＡＯ！","province":"東京都","city":"清瀬市","address":"清瀬市上清戸2-3-41-B","lat":35.777334,"lon":139.521422},{"name":"マイスペ児童デイサービス清瀬","province":"東京都","city":"清瀬市","address":"清瀬市元町一丁目13番20号ブリックヒル1階","lat":35.774854,"lon":139.518223},{"name":"たまみずき清瀬","province":"東京都","city":"清瀬市","address":"清瀬市松山2-2-15清瀬シティハイム2階","lat":35.769838,"lon":139.516287},{"name":"わかば　第１学童クラブ","province":"東京都","city":"清瀬市","address":"清瀬市竹丘1-11-1-101","lat":35.765877,"lon":139.511649},{"name":"放課後等デイサービス　ラビットハウス","province":"東京都","city":"清瀬市","address":"清瀬市竹丘2-16-9","lat":35.762758,"lon":139.507691},{"name":"ビーキッズきよせ","province":"東京都","city":"清瀬市","address":"清瀬市梅園3-4-251階","lat":35.771068,"lon":139.499949},{"name":"アプリ児童デイサービス清瀬","province":"東京都","city":"清瀬市","address":"清瀬市梅園3-2-21","lat":35.768885,"lon":139.501919},{"name":"清瀬市子ども家庭支援センター","province":"東京都","city":"清瀬市","address":"清瀬市中清戸3-235-5清瀬市児童センター内","lat":35.776412,"lon":139.530649},{"name":"清瀬市子ども家庭支援センター","province":"東京都","city":"清瀬市","address":"清瀬市中里5-842清瀬市役所北隣しあわせ未来センター内","lat":35.78591,"lon":139.52619},{"name":"清瀬市子ども家庭支援センター","province":"東京都","city":"清瀬市","address":"清瀬市中清戸3-235-5児童センターころぽっくる内","lat":35.77712,"lon":139.53165},{"name":"清瀬市子ども家庭支援センター","province":"東京都","city":"清瀬市","address":"清瀬市中清戸3-235-5清瀬市児童センター内","lat":35.77867,"lon":139.53389},{"name":"＊?清瀬市男女共同参画センター（アイレック）","province":"東京都","city":"清瀬市","address":"清瀬市元町1-2-11アミュー4階","lat":35.772206,"lon":139.521171},{"name":"きずな","province":"東京都","city":"清瀬市","address":"清瀬市下清戸2丁目518番2","lat":35.784972,"lon":139.536413},{"name":"障害者福祉センター　学童クラブのびのび","province":"東京都","city":"清瀬市","address":"清瀬市上清戸1-16-62","lat":35.773265,"lon":139.527664},{"name":"放課後等デイサービスＡＡＯ！","province":"東京都","city":"清瀬市","address":"清瀬市上清戸2-3-41-B","lat":35.777334,"lon":139.521422},{"name":"マイスペ児童デイサービス清瀬","province":"東京都","city":"清瀬市","address":"清瀬市元町一丁目13番20号ブリックヒル1階","lat":35.774854,"lon":139.518223},{"name":"たまみずき清瀬","province":"東京都","city":"清瀬市","address":"清瀬市松山2-2-15清瀬シティハイム2階","lat":35.769838,"lon":139.516287},{"name":"わかば　第１学童クラブ","province":"東京都","city":"清瀬市","address":"清瀬市竹丘1-11-1-101","lat":35.765877,"lon":139.511649},{"name":"放課後等デイサービス　ラビットハウス","province":"東京都","city":"清瀬市","address":"清瀬市竹丘2-16-9","lat":35.762758,"lon":139.507691},{"name":"ビーキッズきよせ","province":"東京都","city":"清瀬市","address":"清瀬市梅園3-4-251階","lat":35.771068,"lon":139.499949},{"name":"アプリ児童デイサービス清瀬","province":"東京都","city":"清瀬市","address":"清瀬市梅園3-2-21","lat":35.768885,"lon":139.501919},{"name":"清瀬市子ども家庭支援センター","province":"東京都","city":"清瀬市","address":"清瀬市中清戸3-235-5清瀬市児童センター内","lat":35.776412,"lon":139.530649},{"name":"清瀬市子ども家庭支援センター","province":"東京都","city":"清瀬市","address":"清瀬市中里5-842清瀬市役所北隣しあわせ未来センター内","lat":35.78591,"lon":139.52619},{"name":"清瀬市子ども家庭支援センター","province":"東京都","city":"清瀬市","address":"清瀬市中清戸3-235-5児童センターころぽっくる内","lat":35.77712,"lon":139.53165},{"name":"清瀬市子ども家庭支援センター","province":"東京都","city":"清瀬市","address":"清瀬市中清戸3-235-5清瀬市児童センター内","lat":35.77867,"lon":139.53389},{"name":"＊?清瀬市男女共同参画センター（アイレック）","province":"東京都","city":"清瀬市","address":"清瀬市元町1-2-11アミュー4階","lat":35.772206,"lon":139.521171},{"name":"きずな","province":"東京都","city":"清瀬市","address":"清瀬市下清戸2丁目518番2","lat":35.784972,"lon":139.536413},{"name":"障害者福祉センター　学童クラブのびのび","province":"東京都","city":"清瀬市","address":"清瀬市上清戸1-16-62","lat":35.773265,"lon":139.527664},{"name":"放課後等デイサービスＡＡＯ！","province":"東京都","city":"清瀬市","address":"清瀬市上清戸2-3-41-B","lat":35.777334,"lon":139.521422},{"name":"マイスペ児童デイサービス清瀬","province":"東京都","city":"清瀬市","address":"清瀬市元町一丁目13番20号ブリックヒル1階","lat":35.774854,"lon":139.518223},{"name":"たまみずき清瀬","province":"東京都","city":"清瀬市","address":"清瀬市松山2-2-15清瀬シティハイム2階","lat":35.769838,"lon":139.516287},{"name":"わかば　第１学童クラブ","province":"東京都","city":"清瀬市","address":"清瀬市竹丘1-11-1-101","lat":35.765877,"lon":139.511649},{"name":"放課後等デイサービス　ラビットハウス","province":"東京都","city":"清瀬市","address":"清瀬市竹丘2-16-9","lat":35.762758,"lon":139.507691},{"name":"ビーキッズきよせ","province":"東京都","city":"清瀬市","address":"清瀬市梅園3-4-251階","lat":35.771068,"lon":139.499949},{"name":"アプリ児童デイサービス清瀬","province":"東京都","city":"清瀬市","address":"清瀬市梅園3-2-21","lat":35.768885,"lon":139.501919},{"name":"清瀬市子ども家庭支援センター","province":"東京都","city":"清瀬市","address":"清瀬市中清戸3-235-5清瀬市児童センター内","lat":35.776412,"lon":139.530649},{"name":"清瀬市子ども家庭支援センター","province":"東京都","city":"清瀬市","address":"清瀬市中里5-842清瀬市役所北隣しあわせ未来センター内","lat":35.78591,"lon":139.52619},{"name":"清瀬市子ども家庭支援センター","province":"東京都","city":"清瀬市","address":"清瀬市中清戸3-235-5児童センターころぽっくる内","lat":35.77712,"lon":139.53165},{"name":"清瀬市子ども家庭支援センター","province":"東京都","city":"清瀬市","address":"清瀬市中清戸3-235-5清瀬市児童センター内","lat":35.77867,"lon":139.53389},{"name":"＊?清瀬市男女共同参画センター（アイレック）","province":"東京都","city":"清瀬市","address":"清瀬市元町1-2-11アミュー4階","lat":35.772206,"lon":139.521171}]}