{"keyword":"運動","data":[{"name":"市民体育館","province":"東京都","city":"清瀬市","address":"東京都清瀬市下宿2-524-1","lat":35.797491,"lon":139.533321},{"name":"下宿運動公園","province":"東京都","city":"清瀬市","address":"東京都清瀬市下宿2-524-1","lat":35.797491,"lon":139.533321},{"name":"下宿第二運動公園野球場","province":"東京都","city":"清瀬市","address":"東京都清瀬市下宿2-579-4","lat":35.798779,"lon":139.53691},{"name":"清瀬内山運動公園(野球)","province":"東京都","city":"清瀬市","address":"東京都清瀬市下宿3-1375","lat":35.804607,"lon":139.542479},{"name":"清瀬内山運動公園(サッカー)","province":"東京都","city":"清瀬市","address":"東京都清瀬市下宿3-1375","lat":35.804607,"lon":139.542479},{"name":"清瀬内山運動公園(テニス)","province":"東京都","city":"清瀬市","address":"東京都清瀬市下宿3-1375","lat":35.804607,"lon":139.542479},{"name":"下宿市民プール","province":"東京都","city":"清瀬市","address":"東京都清瀬市下宿2-559-1","lat":35.799471,"lon":139.535219},{"name":"下清戸運動公園テニスコート","province":"東京都","city":"清瀬市","address":"東京都清瀬市下清戸3-68-1","lat":35.782535,"lon":139.542002},{"name":"中央公園テニスコート","province":"東京都","city":"清瀬市","address":"東京都清瀬市梅園1-2-7","lat":35.772938,"lon":139.508412},{"name":"コミュニティプラザ多目的屋内ひろば","province":"東京都","city":"清瀬市","address":"東京都清瀬市下清戸1-212-4","lat":35.777916,"lon":139.539121},{"name":"コミュニティプラザ多目的屋外ひろば","province":"東京都","city":"清瀬市","address":"東京都清瀬市下清戸1-212-4","lat":35.777916,"lon":139.539121},{"name":"コミュニティプラザテニスコート","province":"東京都","city":"清瀬市","address":"東京都清瀬市下清戸1-212-4","lat":35.777916,"lon":139.539121}]}