{"keyword":"避難","data":[{"name":"特別養護老人ホーム 救世軍恵泉ホーム","province":"東京都","city":"清瀬市","address":"東京都清瀬市竹丘1-17-61","lat":35.769635,"lon":139.508107},{"name":"特別養護老人ホーム 上宮園","province":"東京都","city":"清瀬市","address":"東京都清瀬市竹丘3-3-31","lat":35.767543,"lon":139.502455},{"name":"特別養護老人ホーム 信愛の園","province":"東京都","city":"清瀬市","address":"東京都清瀬市梅園2-3-15","lat":35.772751,"lon":139.503522},{"name":"特別養護老人ホーム 清雅苑","province":"東京都","city":"清瀬市","address":"東京都清瀬市中里5-91-2","lat":35.789366,"lon":139.531891},{"name":"特別養護老人ホーム 聖ヨゼフ老人ホーム","province":"東京都","city":"清瀬市","address":"東京都清瀬市梅園3-14-72","lat":35.772165,"lon":139.501911},{"name":"清瀬どんぐりの家","province":"東京都","city":"清瀬市","address":"東京都清瀬市野塩4-230-1","lat":35.774754,"lon":139.500036},{"name":"工房わかば","province":"東京都","city":"清瀬市","address":"東京都清瀬市野塩4-59-8","lat":35.775592,"lon":139.506768},{"name":"清瀬療護園","province":"東京都","city":"清瀬市","address":"東京都清瀬市竹丘3-1-72","lat":35.765507,"lon":139.503219},{"name":"介護老人保健施設 たけおか","province":"東京都","city":"清瀬市","address":"東京都清瀬市竹丘2-3-21","lat":35.76518,"lon":139.50899},{"name":"介護老人保健施設 ラビアンローゼ","province":"東京都","city":"清瀬市","address":"東京都清瀬市下清戸3-385","lat":35.784884,"lon":139.538971},{"name":"介護老人保健施設 きよせ認知症ケアセンター","province":"東京都","city":"清瀬市","address":"東京都清瀬市中清戸5-27","lat":35.77695,"lon":139.536959},{"name":"介護老人福祉施設 すずらん※","province":"東京都","city":"清瀬市","address":"東京都清瀬市長野県北佐久郡立科町大字芦田720-1","lat":36.27413,"lon":138.32288},{"name":"障害者福祉センター","province":"東京都","city":"清瀬市","address":"東京都清瀬市上清戸1-16-62","lat":35.773273,"lon":139.527679},{"name":"子どもの発達支援・交流センターとことこ","province":"東京都","city":"清瀬市","address":"東京都清瀬市竹丘1-15-8","lat":35.768108,"lon":139.511079},{"name":"東京都立 清瀬特別支援学校","province":"東京都","city":"清瀬市","address":"東京都清瀬市松山3-1-97","lat":35.76896,"lon":139.511529},{"name":"ヒューマンライフケア清瀬","province":"東京都","city":"清瀬市","address":"東京都清瀬市元町1-8-25","lat":35.77412,"lon":139.519828},{"name":"ツクイ秋津","province":"東京都","city":"清瀬市","address":"東京都清瀬市野塩1-303-2","lat":35.779016,"lon":139.497067},{"name":"グループホーム清瀬","province":"東京都","city":"清瀬市","address":"東京都清瀬市中清戸5-132-1","lat":35.779676,"lon":139.532555},{"name":"グループホームさくらの苑","province":"東京都","city":"清瀬市","address":"東京都清瀬市中清戸5-27-3","lat":35.779659,"lon":139.532564},{"name":"しんあい清戸の里","province":"東京都","city":"清瀬市","address":"東京都清瀬市下清戸1-305-1","lat":35.780341,"lon":139.536013},{"name":"ホームステーションらいふ清瀬","province":"東京都","city":"清瀬市","address":"東京都清瀬市松山1-4-16","lat":35.770683,"lon":139.5207},{"name":"みどりの樹清瀬","province":"東京都","city":"清瀬市","address":"東京都清瀬市下清戸4-709-17","lat":35.786527,"lon":139.539276},{"name":"清瀬小学校","province":"東京都","city":"清瀬市","address":"東京都清瀬市中里5-741","lat":35.785719,"lon":139.525573},{"name":"芝山小学校","province":"東京都","city":"清瀬市","address":"東京都清瀬市元町2-16-8","lat":35.775287,"lon":139.511307},{"name":"第三小学校","province":"東京都","city":"清瀬市","address":"東京都清瀬市竹丘1-15-4","lat":35.768423,"lon":139.510224},{"name":"第四小学校","province":"東京都","city":"清瀬市","address":"東京都清瀬市中里2-1471","lat":35.783011,"lon":139.510224},{"name":"第六小学校","province":"東京都","city":"清瀬市","address":"東京都清瀬市梅園2-9-45","lat":35.771657,"lon":139.503822},{"name":"第七小学校","province":"東京都","city":"清瀬市","address":"東京都清瀬市松山3-1-92","lat":35.767974,"lon":139.512557},{"name":"第八小学校","province":"東京都","city":"清瀬市","address":"東京都清瀬市中清戸4-1070","lat":35.781332,"lon":139.530545},{"name":"第十小学校","province":"東京都","city":"清瀬市","address":"東京都清瀬市中清戸1-454-14","lat":35.775219,"lon":139.527966},{"name":"清明小学校","province":"東京都","city":"清瀬市","address":"東京都清瀬市旭が丘2-8-1","lat":35.796663,"lon":139.539587},{"name":"清瀬中学校","province":"東京都","city":"清瀬市","address":"東京都清瀬市中里5-624","lat":35.784843,"lon":139.52496},{"name":"第二中学校","province":"東京都","city":"清瀬市","address":"東京都清瀬市梅園2-9-15","lat":35.773323,"lon":139.505105},{"name":"第三中学校","province":"東京都","city":"清瀬市","address":"東京都清瀬市旭が丘1-262","lat":35.791564,"lon":139.534861},{"name":"第四中学校","province":"東京都","city":"清瀬市","address":"東京都清瀬市野塩3-2-3","lat":35.778777,"lon":139.507985},{"name":"第五中学校","province":"東京都","city":"清瀬市","address":"東京都清瀬市中清戸3-258-1","lat":35.775094,"lon":139.534001},{"name":"清瀬けやきホール","province":"東京都","city":"清瀬市","address":"東京都清瀬市元町1-6-6","lat":35.774561,"lon":139.519556},{"name":"コミュニティプラザひまわり","province":"東京都","city":"清瀬市","address":"東京都清瀬市下清戸1-212-4","lat":35.77804,"lon":139.537766},{"name":"松山地域市民センター","province":"東京都","city":"清瀬市","address":"東京都清瀬市松山2-6-25","lat":35.770989,"lon":139.514809},{"name":"野塩地域市民センター","province":"東京都","city":"清瀬市","address":"東京都清瀬市野塩1-322-2","lat":35.779163,"lon":139.499466},{"name":"下宿地域市民センター","province":"東京都","city":"清瀬市","address":"東京都清瀬市下宿2-524-1","lat":35.797491,"lon":139.533321},{"name":"竹丘地域市民センター","province":"東京都","city":"清瀬市","address":"東京都清瀬市竹丘1-11-1","lat":35.765849,"lon":139.51142},{"name":"中清戸地域市民センター","province":"東京都","city":"清瀬市","address":"東京都清瀬市中清戸4-847-5","lat":35.784853,"lon":139.527671},{"name":"中里地域市民センター","province":"東京都","city":"清瀬市","address":"東京都清瀬市中里4-1301","lat":35.78652,"lon":139.514166},{"name":"郷土博物館","province":"東京都","city":"清瀬市","address":"東京都清瀬市上清戸2-6-41","lat":35.779741,"lon":139.521002},{"name":"児童センター","province":"東京都","city":"清瀬市","address":"東京都清瀬市中清戸3-235-5","lat":35.776371,"lon":139.530674},{"name":"きよせボランティア・市民活動センター","province":"東京都","city":"清瀬市","address":"東京都清瀬市上清戸2-6-10","lat":35.779175,"lon":139.521079},{"name":"消費生活センター","province":"東京都","city":"清瀬市","address":"東京都清瀬市元町1-4-17","lat":35.774417,"lon":139.520637},{"name":"清瀬小学校","province":"東京都","city":"清瀬市","address":"東京都清瀬市中里5丁目741","lat":35.78521086,"lon":139.52560538},{"name":"芝山小学校","province":"東京都","city":"清瀬市","address":"東京都清瀬市元町2丁目16-8","lat":35.77535899,"lon":139.511204},{"name":"第三小学校","province":"東京都","city":"清瀬市","address":"東京都清瀬市竹丘1丁目15-4","lat":35.76856813,"lon":139.50992645},{"name":"第四小学校","province":"東京都","city":"清瀬市","address":"東京都清瀬市中里2丁目1471","lat":35.78323576,"lon":139.51043456},{"name":"清明小学校","province":"東京都","city":"清瀬市","address":"東京都清瀬市旭が丘2丁目8-1","lat":35.79688461,"lon":139.539993},{"name":"第六小学校","province":"東京都","city":"清瀬市","address":"東京都清瀬市梅園2丁目9-45","lat":35.77171482,"lon":139.50441299},{"name":"第七小学校","province":"東京都","city":"清瀬市","address":"東京都清瀬市松山3丁目1-92","lat":35.7680377,"lon":139.51264842},{"name":"第八小学校","province":"東京都","city":"清瀬市","address":"東京都清瀬市中清戸4丁目1070","lat":35.78730514,"lon":139.53083267},{"name":"第十小学校","province":"東京都","city":"清瀬市","address":"東京都清瀬市中清戸1丁目454-14","lat":35.77514829,"lon":139.52753573},{"name":"清瀬中学校","province":"東京都","city":"清瀬市","address":"東京都清瀬市中里5丁目624","lat":35.78481922,"lon":139.52486379},{"name":"第二中学校","province":"東京都","city":"清瀬市","address":"東京都清瀬市梅園2丁目9-15","lat":35.7733202,"lon":139.50502681},{"name":"第三中学校","province":"東京都","city":"清瀬市","address":"東京都清瀬市旭が丘1丁目262","lat":35.79147967,"lon":139.53471843},{"name":"第四中学校","province":"東京都","city":"清瀬市","address":"東京都清瀬市野塩3丁目2-3","lat":35.77872237,"lon":139.50745708},{"name":"第五中学校","province":"東京都","city":"清瀬市","address":"東京都清瀬市中清戸3丁目258-1","lat":35.77498457,"lon":139.53371287},{"name":"東京都立清瀬高等学校グラウンド","province":"東京都","city":"清瀬市","address":"東京都清瀬市松山3丁目1-56","lat":35.76969866,"lon":139.51487318},{"name":"都職員共済組合清瀬グランド","province":"東京都","city":"清瀬市","address":"東京都清瀬市竹丘3丁目10-5","lat":35.76460172,"lon":139.5013023},{"name":"東星学園体育館前校庭・幼稚園園庭","province":"東京都","city":"清瀬市","address":"東京都清瀬市梅園3丁目14-47","lat":35.77403671,"lon":139.50180485},{"name":"日本社会事業大学駐車場","province":"東京都","city":"清瀬市","address":"東京都清瀬市竹丘3丁目1-30","lat":35.76642387,"lon":139.50676289},{"name":"明治薬科大学清瀬キャンパス正門アクセスモール","province":"東京都","city":"清瀬市","address":"東京都清瀬市野塩2丁目522-1","lat":35.78130535,"lon":139.50652658},{"name":"国立看護大学校内グラウンド","province":"東京都","city":"清瀬市","address":"東京都清瀬市梅園1丁目2-1","lat":35.77402019,"lon":139.50818485},{"name":"(工事期間中受け入れ不可）都立清瀬特別支援学校","province":"東京都","city":"清瀬市","address":"東京都清瀬市松山3丁目1-97","lat":35.76895978,"lon":139.51152906}]}