{"keyword":"音響","data":[{"name":"清瀬市役所入口","province":"東京都","city":"清瀬市","address":"東京都清瀬市中清戸3丁目205","lat":35.78096152,"lon":139.53019096},{"name":"清瀬水天宮前","province":"東京都","city":"清瀬市","address":"東京都清瀬市中清戸2丁目616","lat":35.78005876,"lon":139.52625248},{"name":"台田団地入口","province":"東京都","city":"清瀬市","address":"東京都清瀬市中里5丁目636-22","lat":35.78700223,"lon":139.52292789},{"name":"国立東京病院前","province":"東京都","city":"清瀬市","address":"東京都清瀬市竹丘1丁目17","lat":35.76976789,"lon":139.50637674},{"name":"中清戸駐在所前","province":"東京都","city":"清瀬市","address":"東京都清瀬市上清戸2丁目1","lat":35.77943659,"lon":139.52496373},{"name":"中清戸団地入口","province":"東京都","city":"清瀬市","address":"東京都清瀬市中清戸4丁目1096","lat":35.78254192,"lon":139.53263518},{"name":"長命寺前","province":"東京都","city":"清瀬市","address":"東京都清瀬市下清戸2丁目470","lat":35.7837668,"lon":139.53509054},{"name":"けやき通り元町一丁目","province":"東京都","city":"清瀬市","address":"東京都清瀬市元町1丁目4-17","lat":35.7745482,"lon":139.520617},{"name":"中清戸五丁目東","province":"東京都","city":"清瀬市","address":"東京都清瀬市中清戸5丁目47-4","lat":35.78114768,"lon":139.53326563},{"name":"日本社会事業大学入口","province":"東京都","city":"清瀬市","address":"東京都清瀬市竹丘1丁目16","lat":35.76764323,"lon":139.50961816}]}