{"keyword":"館","data":[{"name":"下宿児童館","province":"東京都","city":"清瀬市","address":"清瀬市下宿2-524-1","lat":35.79759,"lon":139.533366},{"name":"野塩児童館","province":"東京都","city":"清瀬市","address":"清瀬市野塩1-322-2","lat":35.77918,"lon":139.499424},{"name":"清瀬市中央児童館","province":"東京都","city":"清瀬市","address":"清瀬市中清戸3-235-5","lat":35.776412,"lon":139.530649},{"name":"下宿児童館","province":"東京都","city":"清瀬市","address":"清瀬市下宿2-524-1","lat":35.79878,"lon":139.53471},{"name":"野塩児童館","province":"東京都","city":"清瀬市","address":"清瀬市野塩1-322-2","lat":35.77913,"lon":139.49931},{"name":"清瀬市中央児童館","province":"東京都","city":"清瀬市","address":"清瀬市中清戸3-235-5","lat":35.77712,"lon":139.53165},{"name":"＊?清瀬市立駅前図書館","province":"東京都","city":"清瀬市","address":"清瀬市元町1-4-5クレア4階","lat":35.773277,"lon":139.520536},{"name":"＊?清瀬市立野塩図書館","province":"東京都","city":"清瀬市","address":"清瀬市野塩1-322-2野塩地域市民センター内","lat":35.779157,"lon":139.499467},{"name":"＊?清瀬市立中央図書館","province":"東京都","city":"清瀬市","address":"清瀬市梅園1-1-21","lat":35.773147,"lon":139.511149},{"name":"＊?清瀬市立竹丘図書館","province":"東京都","city":"清瀬市","address":"清瀬市竹丘1-11-1竹丘地域市民センター内","lat":35.765895,"lon":139.511508},{"name":"＊?清瀬市立下宿図書館","province":"東京都","city":"清瀬市","address":"清瀬市下宿2-524-1下宿地域市民センター内","lat":35.797546,"lon":139.533297},{"name":"＊?清瀬市立元町こども図書館","province":"東京都","city":"清瀬市","address":"清瀬市元町1-6-6清瀬けやきホール内","lat":35.774685,"lon":139.519584}]}