{"keyword":"スモッグ","data":[{"name":"稲城市役所","province":"東京都","city":"稲城市","address":"東京都稲城市東長沼2111","lat":35.637937,"lon":139.504604},{"name":"平尾出張所","province":"東京都","city":"稲城市","address":"東京都稲城市平尾3-1-1","lat":35.610175,"lon":139.488217},{"name":"iプラザ","province":"東京都","city":"稲城市","address":"東京都稲城市若葉台2-5-2","lat":35.621111,"lon":139.47219},{"name":"複合施設ふれんど平尾","province":"東京都","city":"稲城市","address":"東京都稲城市平尾1-9-1","lat":35.613705,"lon":139.49261},{"name":"中央文化センター","province":"東京都","city":"稲城市","address":"東京都稲城市東長沼2111","lat":35.63827,"lon":139.50355},{"name":"第二文化センター","province":"東京都","city":"稲城市","address":"東京都稲城市矢野口1780","lat":35.635227,"lon":139.51843},{"name":"第三文化センター","province":"東京都","city":"稲城市","address":"東京都稲城市平尾1-20-5","lat":35.613093,"lon":139.492465},{"name":"第四文化センター","province":"東京都","city":"稲城市","address":"東京都稲城市東長沼271","lat":35.64592,"lon":139.505379},{"name":"城山文化センター","province":"東京都","city":"稲城市","address":"東京都稲城市向陽台6-7","lat":35.641387,"lon":139.490825},{"name":"地域振興プラザ","province":"東京都","city":"稲城市","address":"東京都稲城市東長沼2112-1","lat":35.637854,"lon":139.505756},{"name":"稲城市保健センター","province":"東京都","city":"稲城市","address":"東京都稲城市百村112-1","lat":35.63822,"lon":139.497515},{"name":"総合体育館","province":"東京都","city":"稲城市","address":"東京都稲城市長峰1-1","lat":35.631637,"lon":139.486053},{"name":"中央図書館","province":"東京都","city":"稲城市","address":"東京都稲城市向陽台4-6-18","lat":35.645714,"lon":139.488485},{"name":"オーエンス健康プラザ","province":"東京都","city":"稲城市","address":"東京都稲城市大丸1171","lat":35.646912,"lon":139.485894},{"name":"公営　稲城・府中メモリアルパーク","province":"東京都","city":"稲城市","address":"東京都稲城市矢野口3567","lat":35.627538,"lon":139.508172},{"name":"稲城第一小学校","province":"東京都","city":"稲城市","address":"東京都稲城市東長沼956","lat":35.640727,"lon":139.511737},{"name":"稲城第二小学校","province":"東京都","city":"稲城市","address":"東京都稲城市坂浜590","lat":35.625107,"lon":139.485314},{"name":"稲城第七小学校","province":"東京都","city":"稲城市","address":"東京都稲城市矢野口1901-2","lat":35.635324,"lon":139.520299},{"name":"城山小学校","province":"東京都","city":"稲城市","address":"東京都稲城市向陽台6-17","lat":35.64274,"lon":139.493131},{"name":"長峰小学校","province":"東京都","city":"稲城市","address":"東京都稲城市長峰2-8","lat":35.629465,"lon":139.483162},{"name":"平尾小学校","province":"東京都","city":"稲城市","address":"東京都稲城市平尾3-1-3","lat":35.611219,"lon":139.488754},{"name":"稲城第一中学校","province":"東京都","city":"稲城市","address":"東京都稲城市百村23","lat":35.640369,"lon":139.499414},{"name":"稲城第二中学校","province":"東京都","city":"稲城市","address":"東京都稲城市坂浜1340","lat":35.615956,"lon":139.481192},{"name":"稲城第三中学校","province":"東京都","city":"稲城市","address":"東京都稲城市矢野口3043","lat":35.63649,"lon":139.507417},{"name":"稲城第四中学校","province":"東京都","city":"稲城市","address":"東京都稲城市押立1768","lat":35.645883,"lon":139.517915},{"name":"稲城第五中学校","province":"東京都","city":"稲城市","address":"東京都稲城市向陽台3-1-1","lat":35.638292,"lon":139.489573},{"name":"稲城第六中学校","province":"東京都","city":"稲城市","address":"東京都稲城市若葉台3-11","lat":35.624615,"lon":139.467527},{"name":"いなぎ発信基地ペアテラス","province":"東京都","city":"稲城市","address":"東京都稲城市東長沼516番地の2","lat":35.644117,"lon":139.50296},{"name":"稲城第三小学校","province":"東京都","city":"稲城市","address":"東京都稲城市大丸100","lat":35.643283,"lon":139.499623},{"name":"稲城第四小学校","province":"東京都","city":"稲城市","address":"東京都稲城市押立1250","lat":35.644699,"lon":139.516232},{"name":"稲城第六小学校","province":"東京都","city":"稲城市","address":"東京都稲城市大丸2110","lat":35.64968,"lon":139.499194},{"name":"向陽台小学校","province":"東京都","city":"稲城市","address":"東京都稲城市向陽台3-2","lat":35.63741,"lon":139.487944},{"name":"若葉台小学校","province":"東京都","city":"稲城市","address":"東京都稲城市若葉台4-5","lat":35.626592,"lon":139.468163},{"name":"南山小学校","province":"東京都","city":"稲城市","address":"東京都稲城市矢野口3635","lat":35.628995,"lon":139.508643},{"name":"矢野口コミュニティ防災センター","province":"東京都","city":"稲城市","address":"東京都稲城市矢野口2271-1","lat":35.633649,"lon":139.515901},{"name":"坂浜コミュニティ防災センター","province":"東京都","city":"稲城市","address":"東京都稲城市坂浜974","lat":35.624713,"lon":139.48595},{"name":"百村コミュニティ防災センター","province":"東京都","city":"稲城市","address":"東京都稲城市百村2017","lat":35.638468,"lon":139.497403},{"name":"長峰コミュニティ防災センター","province":"東京都","city":"稲城市","address":"東京都稲城市長峰2-31-1","lat":35.628393,"lon":139.478438},{"name":"大丸地区会館","province":"東京都","city":"稲城市","address":"東京都稲城市大丸251","lat":35.647303,"lon":139.498772},{"name":"押立ふれあい会館","province":"東京都","city":"稲城市","address":"東京都稲城市押立663","lat":35.649707,"lon":139.511077},{"name":"松葉集会所","province":"東京都","city":"稲城市","address":"東京都稲城市矢野口1892","lat":35.636456,"lon":139.520517},{"name":"市立第五保育園","province":"東京都","city":"稲城市","address":"東京都稲城市平尾4-45-2","lat":35.611844,"lon":139.486767},{"name":"稲城市役所","province":"東京都","city":"稲城市","address":"東京都稲城市東長沼2111","lat":35.637962,"lon":139.504641},{"name":"平尾出張所","province":"東京都","city":"稲城市","address":"東京都稲城市平尾3丁目1番地の1平尾住宅34棟1階","lat":35.610211,"lon":139.488218},{"name":"若葉台出張所","province":"東京都","city":"稲城市","address":"東京都稲城市若葉台2丁目5番地の2iプラザ1階","lat":35.621156,"lon":139.472373},{"name":"中央公民館","province":"東京都","city":"稲城市","address":"東京都稲城市東長沼2111中央文化センター内","lat":35.638296,"lon":139.503613},{"name":"第二公民館","province":"東京都","city":"稲城市","address":"東京都稲城市矢野口1780第二文化センター内","lat":35.635294,"lon":139.51826},{"name":"第三公民館","province":"東京都","city":"稲城市","address":"東京都稲城市平尾1-20-5第三文化センター内","lat":35.613019,"lon":139.49251},{"name":"第四公民館","province":"東京都","city":"稲城市","address":"東京都稲城市東長沼271第四文化センター内","lat":35.64594,"lon":139.505219},{"name":"城山公民館","province":"東京都","city":"稲城市","address":"東京都稲城市向陽台6-7城山文化センター内","lat":35.641376,"lon":139.490903},{"name":"中央図書館","province":"東京都","city":"稲城市","address":"東京都稲城市向陽台4-6-18城山公園内","lat":35.645427,"lon":139.488689},{"name":"第一図書館","province":"東京都","city":"稲城市","address":"東京都稲城市東長沼2111中央文化センター内","lat":35.638296,"lon":139.503613},{"name":"第二図書館","province":"東京都","city":"稲城市","address":"東京都稲城市矢野口1780第二文化センター内","lat":35.635294,"lon":139.51826},{"name":"第三図書館","province":"東京都","city":"稲城市","address":"東京都稲城市平尾1-20-5第三文化センター内","lat":35.613019,"lon":139.49251},{"name":"第四図書館","province":"東京都","city":"稲城市","address":"東京都稲城市東長沼271第四文化センター内","lat":35.64594,"lon":139.505219},{"name":"iプラザ図書館","province":"東京都","city":"稲城市","address":"東京都稲城市若葉台2-5-2iプラザ内","lat":35.621262,"lon":139.472402},{"name":"城山体験学習館","province":"東京都","city":"稲城市","address":"東京都稲城市向陽台4-6-18城山公園内","lat":35.645427,"lon":139.48808},{"name":"iプラザ","province":"東京都","city":"稲城市","address":"東京都稲城市若葉台2-5-2","lat":35.621156,"lon":139.472373},{"name":"稲城中央公園総合体育館","province":"東京都","city":"稲城市","address":"東京都稲城市長峰1-1","lat":35.631901,"lon":139.486028},{"name":"稲城中央公園総合グラウンド","province":"東京都","city":"稲城市","address":"東京都稲城市長峰1-1","lat":35.633554,"lon":139.487399},{"name":"稲城長峰ヴェルディフィールド","province":"東京都","city":"稲城市","address":"東京都稲城市長峰3-10-1","lat":35.631187,"lon":139.476583},{"name":"稲城ふれあいの森","province":"東京都","city":"稲城市","address":"東京都稲城市坂浜4-40-36","lat":35.619357,"lon":139.483208},{"name":"稲城市地域振興プラザ","province":"東京都","city":"稲城市","address":"東京都稲城市東長沼2112-1","lat":35.637928,"lon":139.505662},{"name":"生活文化施設ふれんど平尾","province":"東京都","city":"稲城市","address":"東京都稲城市平尾1-9-1","lat":35.613584,"lon":139.492818},{"name":"生活文化施設やのくち","province":"東京都","city":"稲城市","address":"東京都稲城市矢野口1780第二文化センター内","lat":35.635294,"lon":139.51826},{"name":"オーエンス健康プラザ","province":"東京都","city":"稲城市","address":"東京都稲城市大丸1171","lat":35.646999,"lon":139.485644},{"name":"いなぎ発信基地ペアテラス","province":"東京都","city":"稲城市","address":"東京都稲城市東長沼516-2","lat":35.6443,"lon":139.50293},{"name":"大丸第2公園プール","province":"東京都","city":"稲城市","address":"東京都稲城市大丸3111番地の1","lat":35.650471,"lon":139.49685},{"name":"複合施設ふれんど平尾（体育館・グラウンド）","province":"東京都","city":"稲城市","address":"東京都稲城市平尾一丁目9番地の1","lat":35.613705,"lon":139.49261},{"name":"稲城中央公園野球場","province":"東京都","city":"稲城市","address":"東京都稲城市向陽台四丁目1番地の1","lat":35.636609,"lon":139.486018},{"name":"多摩川緑地公園（野球場）","province":"東京都","city":"稲城市","address":"東京都稲城市矢野口3750番地先","lat":35.644845,"lon":139.52177},{"name":"稲城北緑地公園テニスコート","province":"東京都","city":"稲城市","address":"東京都稲城市東長沼2996番地","lat":35.649576,"lon":139.504744},{"name":"大丸公園テニスコート","province":"東京都","city":"稲城市","address":"東京都稲城市大丸1097番地","lat":35.646854,"lon":139.487675},{"name":"城山公園テニスコート","province":"東京都","city":"稲城市","address":"東京都稲城市向陽台四丁目6番地","lat":35.6417,"lon":139.489282},{"name":"若葉台公園テニスコート","province":"東京都","city":"稲城市","address":"東京都稲城市若葉台一丁目19番地の1","lat":35.624994,"lon":139.473845},{"name":"南多摩スポーツ広場（テニスコート）","province":"東京都","city":"稲城市","address":"東京都稲城市大丸1455番地の9","lat":35.650442,"lon":139.481807},{"name":"南多摩スポーツ広場（サッカー場）","province":"東京都","city":"稲城市","address":"東京都稲城市大丸1455番地の9","lat":35.650442,"lon":139.481807},{"name":"多摩川緑地公園（ゲートボール場）","province":"東京都","city":"稲城市","address":"東京都稲城市矢野口3750番地先","lat":35.644307,"lon":139.52216},{"name":"多摩川緑地公園（ソフトボール場）","province":"東京都","city":"稲城市","address":"東京都稲城市矢野口3750番地先","lat":35.643766,"lon":139.522714},{"name":"南多摩スポーツ広場（多目的広場）","province":"東京都","city":"稲城市","address":"東京都稲城市大丸1452番地の1","lat":35.650442,"lon":139.481807},{"name":"若葉台公園多目的広場","province":"東京都","city":"稲城市","address":"東京都稲城市若葉台一丁目24番地の1","lat":35.62784,"lon":139.473067},{"name":"多摩川緑地公園（多目的広場）","province":"東京都","city":"稲城市","address":"東京都稲城市矢野口3750番地","lat":35.64573,"lon":139.520981},{"name":"上谷戸緑地体験学習館","province":"東京都","city":"稲城市","address":"東京都稲城市若葉台一丁目28番地の2","lat":35.627071,"lon":139.481626},{"name":"稲城市複合施設ふれんど平尾","province":"東京都","city":"稲城市","address":"東京都稲城市平尾一丁目9番地の1","lat":35.613705,"lon":139.49261},{"name":"稲城市立稲城第一中学校","province":"東京都","city":"稲城市","address":"東京都稲城市百村23番地","lat":35.640369,"lon":139.499414},{"name":"稲城市立稲城第二中学校","province":"東京都","city":"稲城市","address":"東京都稲城市坂浜1340番地","lat":35.615956,"lon":139.481192},{"name":"稲城市立稲城第三中学校","province":"東京都","city":"稲城市","address":"東京都稲城市矢野口3043番地","lat":35.63649,"lon":139.507417},{"name":"稲城市立稲城第四中学校","province":"東京都","city":"稲城市","address":"東京都稲城市押立1768番地","lat":35.645883,"lon":139.517915},{"name":"稲城市立稲城第五中学校","province":"東京都","city":"稲城市","address":"東京都稲城市向陽台三丁目1番地の1","lat":35.638292,"lon":139.489573},{"name":"稲城市立稲城第六中学校","province":"東京都","city":"稲城市","address":"東京都稲城市若葉台三丁目11番地","lat":35.624615,"lon":139.467527},{"name":"稲城市立学校給食共同調理場第一調理場","province":"東京都","city":"稲城市","address":"東京都稲城市矢野口3648番地","lat":35.6288,"lon":139.50985},{"name":"稲城市立学校給食共同調理場第二調理場","province":"東京都","city":"稲城市","address":"東京都稲城市若葉台四丁目4番地","lat":35.626591,"lon":139.468781},{"name":"稲城市教育相談室分室","province":"東京都","city":"稲城市","address":"東京都稲城市大丸607-2","lat":35.646532,"lon":139.4938},{"name":"稲城市教育センター（ふれんど平尾教育相談室）","province":"東京都","city":"稲城市","address":"東京都稲城市平尾一丁目9番地の1ふれんど平尾内4階","lat":35.613705,"lon":139.49261},{"name":"稲城市教育センター（特別支援教育相談室）","province":"東京都","city":"稲城市","address":"東京都稲城市平尾一丁目9番地の1ふれんど平尾内4階","lat":35.613705,"lon":139.49261},{"name":"稲城市教育センター（適応指導教室梨の実ルーム）","province":"東京都","city":"稲城市","address":"東京都稲城市平尾一丁目9番地の1ふれんど平尾内3階","lat":35.613705,"lon":139.49261},{"name":"稲城市教育センター（学校経営支援室）","province":"東京都","city":"稲城市","address":"東京都稲城市平尾一丁目9番地の1ふれんど平尾内3階","lat":35.613705,"lon":139.49261},{"name":"稲城市福祉センター","province":"東京都","city":"稲城市","address":"東京都稲城市百村7番地","lat":35.639551,"lon":139.499969},{"name":"稲城市社会福祉協議会","province":"東京都","city":"稲城市","address":"東京都稲城市百村7番地福祉センター内","lat":35.639551,"lon":139.499969},{"name":"ふれあいセンター平尾","province":"東京都","city":"稲城市","address":"東京都稲城市平尾三丁目1番地の1平尾住宅35-102喫茶ポーポーの木内","lat":35.609648,"lon":139.488038},{"name":"ふれあいセンター押立","province":"東京都","city":"稲城市","address":"東京都稲城市押立410番地の3ジョイハウスたまがわ集会室","lat":35.648299,"lon":139.508335},{"name":"ふれあいセンター坂浜","province":"東京都","city":"稲城市","address":"東京都稲城市坂浜2996番地の2稲城老人会館内","lat":35.628826,"lon":139.485961},{"name":"ふれあいセンター矢野口","province":"東京都","city":"稲城市","address":"東京都稲城市矢野口1603番地矢野口自治会館内","lat":35.638374,"lon":139.515568},{"name":"ふれあいセンター百村・東長沼","province":"東京都","city":"稲城市","address":"東京都稲城市百村7番地福祉センター内","lat":35.639551,"lon":139.499969},{"name":"ふれあいセンター向陽台","province":"東京都","city":"稲城市","address":"東京都稲城市向陽台三丁目2番地向陽台小学校内","lat":35.63741,"lon":139.487944},{"name":"ふれあいセンター大丸","province":"東京都","city":"稲城市","address":"東京都稲城市大丸1171番地オーエンス健康プラザ内","lat":35.646912,"lon":139.485894},{"name":"ふれあいセンター長峰","province":"東京都","city":"稲城市","address":"東京都稲城市長峰二丁目1番地の1あすか創建株式会社敷地内長峰オアシス","lat":35.680573,"lon":139.363535},{"name":"はつらつワーク稲城","province":"東京都","city":"稲城市","address":"東京都稲城市東長沼2112番地の1地域振興プラザ内","lat":35.637854,"lon":139.505756},{"name":"稲城市シルバー人材センター","province":"東京都","city":"稲城市","address":"東京都稲城市東長沼2112番地の1地域振興プラザ内","lat":35.637854,"lon":139.505756},{"name":"稲城老人会館","province":"東京都","city":"稲城市","address":"東京都稲城市坂浜2996番地の2","lat":35.628826,"lon":139.485961},{"name":"障害者支援施設パサージュいなぎ","province":"東京都","city":"稲城市","address":"東京都稲城市若葉台四丁目32番地の3","lat":35.629844,"lon":139.470017},{"name":"稲城市障害者総合相談センターマルシェいなぎ","province":"東京都","city":"稲城市","address":"東京都稲城市東長沼2107番地の3ヒルテラス稲城103","lat":35.638606,"lon":139.505014},{"name":"稲城市発達支援センターレスポ―平尾","province":"東京都","city":"稲城市","address":"東京都稲城市平尾一丁目9番地の1ふれんど平尾4階","lat":35.613705,"lon":139.49261},{"name":"稲城消防署","province":"東京都","city":"稲城市","address":"東京都稲城市東長沼2111番地","lat":35.637912,"lon":139.505052},{"name":"上平尾消防出張所","province":"東京都","city":"稲城市","address":"東京都稲城市平尾四丁目15番地の4","lat":35.614659,"lon":139.484621},{"name":"稲城市消費生活センター","province":"東京都","city":"稲城市","address":"東京都稲城市百村2111番地パルシステム生活協同組合連合会稲城事務センター3階","lat":35.636857,"lon":139.490858},{"name":"公営 稲城・府中メモリアルパーク","province":"東京都","city":"稲城市","address":"東京都稲城市矢野口3567番地","lat":35.627022,"lon":139.50875},{"name":"クリーンセンター多摩川","province":"東京都","city":"稲城市","address":"東京都稲城市大丸1528番地","lat":35.648874,"lon":139.475418},{"name":"子ども家庭支援センター","province":"東京都","city":"稲城市","address":"東京都稲城市東長沼2115番地の23階","lat":35.637874,"lon":139.50124},{"name":"あそびの広場向陽台","province":"東京都","city":"稲城市","address":"東京都稲城市向陽台三丁目2番地向陽台小学校敷地内","lat":35.63682,"lon":139.487343},{"name":"稲城市おやこ包括支援センター","province":"東京都","city":"稲城市","address":"東京都稲城市百村112-1保健センター2階","lat":35.638296,"lon":139.497548},{"name":"稲城市発達支援センターレスポ―いなぎ大丸","province":"東京都","city":"稲城市","address":"東京都稲城市大丸607番地の2都営稲城アパート17号棟1階","lat":35.646521,"lon":139.493891},{"name":"稲城市重症心身障害児（者）等通所施設　＋laughイナギ","province":"東京都","city":"稲城市","address":"東京都稲城市大丸607番地の2都営稲城アパート17号棟1階","lat":35.646521,"lon":139.493891},{"name":"稲城北緑地公園多摩梨パーク","province":"東京都","city":"稲城市","address":"東京都稲城市東長沼2996番地","lat":35.64976,"lon":139.505886},{"name":"向陽台給水所","province":"東京都","city":"稲城市","address":"東京都稲城市向陽台6丁目16","lat":35.64371302,"lon":139.49304963},{"name":"稲城市立中央公園総合グラウンド","province":"東京都","city":"稲城市","address":"東京都稲城市長峰1丁目1","lat":35.63011248,"lon":139.48798717},{"name":"稲城市立南山グラウンド","province":"東京都","city":"稲城市","address":"東京都稲城市東長沼2406-1","lat":35.63525992,"lon":139.50477484},{"name":"(株)エコ･ファクトリー  リサイクルセンター","province":"東京都","city":"稲城市","address":"稲城市大丸1434-3","lat":35.644585,"lon":139.477737},{"name":"(株)エコ･ファクトリー  リサイクルセンター","province":"東京都","city":"稲城市","address":"稲城市大丸1434-3","lat":35.644585,"lon":139.477737},{"name":"(株)エコ･ファクトリー  リサイクルセンター","province":"東京都","city":"稲城市","address":"稲城市大丸1434-3","lat":35.644585,"lon":139.477737},{"name":"(株)エコ･ファクトリー  リサイクルセンター","province":"東京都","city":"稲城市","address":"稲城市大丸1434-3","lat":35.644585,"lon":139.477737},{"name":"(株)エコ･ファクトリー  リサイクルセンター","province":"東京都","city":"稲城市","address":"稲城市大丸1434-3","lat":35.644585,"lon":139.477737},{"name":"(株)エコ･ファクトリー  リサイクルセンター","province":"東京都","city":"稲城市","address":"稲城市大丸1434-3","lat":35.644585,"lon":139.477737},{"name":"(株)エコ･ファクトリー  リサイクルセンター","province":"東京都","city":"稲城市","address":"稲城市大丸1434-3","lat":35.644585,"lon":139.477737},{"name":"(株)エコ･ファクトリー  リサイクルセンター","province":"東京都","city":"稲城市","address":"稲城市大丸1434-3","lat":35.644585,"lon":139.477737},{"name":"(株)エコ･ファクトリー  リサイクルセンター","province":"東京都","city":"稲城市","address":"稲城市大丸1434-3","lat":35.644585,"lon":139.477737},{"name":"(株)エコ･ファクトリー  リサイクルセンター","province":"東京都","city":"稲城市","address":"稲城市大丸1434-3","lat":35.644585,"lon":139.477737},{"name":"(株)エコ･ファクトリー  リサイクルセンター","province":"東京都","city":"稲城市","address":"稲城市大丸1434-3","lat":35.644585,"lon":139.477737},{"name":"(株)エコ･ファクトリー  リサイクルセンター","province":"東京都","city":"稲城市","address":"稲城市大丸1434-3","lat":35.644585,"lon":139.477737},{"name":"(株)エコ･ファクトリー  リサイクルセンター","province":"東京都","city":"稲城市","address":"稲城市大丸1434-3","lat":35.644585,"lon":139.477737},{"name":"(株)エコ･ファクトリー  リサイクルセンター","province":"東京都","city":"稲城市","address":"稲城市大丸1434-3","lat":35.644585,"lon":139.477737},{"name":"(株)エコ･ファクトリー  リサイクルセンター","province":"東京都","city":"稲城市","address":"稲城市大丸1434-3","lat":35.644585,"lon":139.477737},{"name":"(株)エコ･ファクトリー  リサイクルセンター","province":"東京都","city":"稲城市","address":"稲城市大丸1434-3","lat":35.644585,"lon":139.477737},{"name":"(株)エコ･ファクトリー  リサイクルセンター","province":"東京都","city":"稲城市","address":"稲城市大丸1434-3","lat":35.644585,"lon":139.477737},{"name":"(株)エコ･ファクトリー  リサイクルセンター","province":"東京都","city":"稲城市","address":"稲城市大丸1434-3","lat":35.644585,"lon":139.477737},{"name":"(株)エコ･ファクトリー  リサイクルセンター","province":"東京都","city":"稲城市","address":"稲城市大丸1434-3","lat":35.644585,"lon":139.477737},{"name":"(株)エコ･ファクトリー  リサイクルセンター","province":"東京都","city":"稲城市","address":"稲城市大丸1434-3","lat":35.644585,"lon":139.477737},{"name":"(株)エコ･ファクトリー  リサイクルセンター","province":"東京都","city":"稲城市","address":"稲城市大丸1434-3","lat":35.644585,"lon":139.477737},{"name":"(株)エコ･ファクトリー  リサイクルセンター","province":"東京都","city":"稲城市","address":"稲城市大丸1434-3","lat":35.644585,"lon":139.477737},{"name":"(株)エコ･ファクトリー  リサイクルセンター","province":"東京都","city":"稲城市","address":"稲城市大丸1434-3","lat":35.644585,"lon":139.477737},{"name":"(株)エコ･ファクトリー  リサイクルセンター","province":"東京都","city":"稲城市","address":"稲城市大丸1434-3","lat":35.644585,"lon":139.477737},{"name":"(株)エコ･ファクトリー  リサイクルセンター","province":"東京都","city":"稲城市","address":"稲城市大丸1434-3","lat":35.644585,"lon":139.477737},{"name":"(株)エコ･ファクトリー  リサイクルセンター","province":"東京都","city":"稲城市","address":"稲城市大丸1434-3","lat":35.644585,"lon":139.477737},{"name":"(株)エコ･ファクトリー  リサイクルセンター","province":"東京都","city":"稲城市","address":"稲城市大丸1434-3","lat":35.644585,"lon":139.477737},{"name":"(株)エコ･ファクトリー  リサイクルセンター","province":"東京都","city":"稲城市","address":"稲城市大丸1434-3","lat":35.644585,"lon":139.477737},{"name":"(株)エコ･ファクトリー  リサイクルセンター","province":"東京都","city":"稲城市","address":"稲城市大丸1434-3","lat":35.644585,"lon":139.477737},{"name":"(株)エコ･ファクトリー  リサイクルセンター","province":"東京都","city":"稲城市","address":"稲城市大丸1434-3","lat":35.644585,"lon":139.477737},{"name":"(株)エコ･ファクトリー  リサイクルセンター","province":"東京都","city":"稲城市","address":"稲城市大丸1434-3","lat":35.644585,"lon":139.477737},{"name":"(株)エコ･ファクトリー  リサイクルセンター","province":"東京都","city":"稲城市","address":"稲城市大丸1434-3","lat":35.644585,"lon":139.477737},{"name":"(株)エコ･ファクトリー  リサイクルセンター","province":"東京都","city":"稲城市","address":"稲城市大丸1434-3","lat":35.644585,"lon":139.477737},{"name":"(株)エコ･ファクトリー  リサイクルセンター","province":"東京都","city":"稲城市","address":"稲城市大丸1434-3","lat":35.644585,"lon":139.477737},{"name":"(株)エコ･ファクトリー  リサイクルセンター","province":"東京都","city":"稲城市","address":"稲城市大丸1434-3","lat":35.644585,"lon":139.477737},{"name":"(株)エコ･ファクトリー  リサイクルセンター","province":"東京都","city":"稲城市","address":"稲城市大丸1434-3","lat":35.644585,"lon":139.477737},{"name":"(株)エコ･ファクトリー  リサイクルセンター","province":"東京都","city":"稲城市","address":"稲城市大丸1434-3","lat":35.644585,"lon":139.477737},{"name":"(株)エコ･ファクトリー  リサイクルセンター","province":"東京都","city":"稲城市","address":"稲城市大丸1434-3","lat":35.644585,"lon":139.477737},{"name":"(株)エコ･ファクトリー  リサイクルセンター","province":"東京都","city":"稲城市","address":"稲城市大丸1434-3","lat":35.644585,"lon":139.477737},{"name":"(株)エコ･ファクトリー  リサイクルセンター","province":"東京都","city":"稲城市","address":"稲城市大丸1434-3","lat":35.644585,"lon":139.477737},{"name":"(株)エコ･ファクトリー  リサイクルセンター","province":"東京都","city":"稲城市","address":"稲城市大丸1434-3","lat":35.644585,"lon":139.477737},{"name":"(株)エコ･ファクトリー  リサイクルセンター","province":"東京都","city":"稲城市","address":"稲城市大丸1434-3","lat":35.644585,"lon":139.477737},{"name":"(株)エコ･ファクトリー  リサイクルセンター","province":"東京都","city":"稲城市","address":"稲城市大丸1434-3","lat":35.644585,"lon":139.477737},{"name":"(株)エコ･ファクトリー  リサイクルセンター","province":"東京都","city":"稲城市","address":"稲城市大丸1434-3","lat":35.644585,"lon":139.477737},{"name":"(株)エコ･ファクトリー  リサイクルセンター","province":"東京都","city":"稲城市","address":"稲城市大丸1434-3","lat":35.644585,"lon":139.477737},{"name":"(株)エコ･ファクトリー  リサイクルセンター","province":"東京都","city":"稲城市","address":"稲城市大丸1434-3","lat":35.644585,"lon":139.477737}]}