{"keyword":"保健","data":[{"name":"木造聖観音立像","province":"東京都","city":"稲城市","address":"東京都稲城市矢野口4015-1","lat":35.624,"lon":139.518},{"name":"瓦谷戸窯跡","province":"東京都","city":"稲城市","address":"東京都稲城市大丸15","lat":35.647,"lon":139.473},{"name":"孝子長五郎の墓","province":"東京都","city":"稲城市","address":"東京都稲城市押立637","lat":35.65,"lon":139.513},{"name":"高勝寺のカヤ","province":"東京都","city":"稲城市","address":"東京都稲城市坂浜551","lat":35.6257,"lon":139.489},{"name":"木造観世音菩薩立像","province":"東京都","city":"稲城市","address":"東京都稲城市坂浜551","lat":35.6257,"lon":139.489},{"name":"木造阿弥陀如来及び両脇侍像","province":"東京都","city":"稲城市","address":"東京都稲城市東長沼2117-2","lat":35.6374,"lon":139.502},{"name":"木造閻魔王坐像","province":"東京都","city":"稲城市","address":"東京都稲城市東長沼2117-2","lat":35.6374,"lon":139.502},{"name":"妙見尊の蛇より行事","province":"東京都","city":"稲城市","address":"東京都稲城市百村1588","lat":35.63380421,"lon":139.49841972},{"name":"瓦谷戸窯跡群出土遺物","province":"東京都","city":"稲城市","address":"東京都稲城市平尾1-9-1","lat":35.614,"lon":139.493},{"name":"多摩川中流域の船大工用具","province":"東京都","city":"稲城市","address":"東京都稲城市矢野口3750","lat":35.642,"lon":139.542},{"name":"地蔵菩薩塔","province":"東京都","city":"稲城市","address":"東京都稲城市東長沼2117-2","lat":35.6374,"lon":139.502},{"name":"葎草橋碑","province":"東京都","city":"稲城市","address":"東京都稲城市東長沼656","lat":35.6452,"lon":139.508},{"name":"庚申塔","province":"東京都","city":"稲城市","address":"東京都稲城市矢野口2411","lat":35.6311,"lon":139.516},{"name":"馬頭観世音塔","province":"東京都","city":"稲城市","address":"東京都稲城市矢野口401","lat":35.6408,"lon":139.524},{"name":"平尾原経塚出土品及び供養塔","province":"東京都","city":"稲城市","address":"東京都稲城市平尾1-49-7","lat":35.6412,"lon":139.494},{"name":"板碑","province":"東京都","city":"稲城市","address":"東京都稲城市矢野口2454","lat":35.633,"lon":139.514},{"name":"玉川焼","province":"東京都","city":"稲城市","address":"東京都稲城市坂浜","lat":35.61736469,"lon":139.48442727},{"name":"筆塚","province":"東京都","city":"稲城市","address":"東京都稲城市百村1588","lat":35.634,"lon":139.499},{"name":"筆塚","province":"東京都","city":"稲城市","address":"東京都稲城市矢野口3292","lat":35.633,"lon":139.522},{"name":"青渭神社獅子舞","province":"東京都","city":"稲城市","address":"東京都稲城市東長沼1053","lat":35.64272489,"lon":139.50116042},{"name":"穴澤天神社獅子舞","province":"東京都","city":"稲城市","address":"東京都稲城市矢野口3292","lat":35.63277255,"lon":139.52244086},{"name":"芦川家文書","province":"東京都","city":"稲城市","address":"東京都稲城市大丸","lat":35.65015104,"lon":139.49500745},{"name":"市村家文書","province":"東京都","city":"稲城市","address":"東京都稲城市坂浜","lat":35.61736469,"lon":139.48442727},{"name":"馬場家文書","province":"東京都","city":"稲城市","address":"東京都稲城市平尾","lat":35.61225701,"lon":139.48126665},{"name":"筆塚","province":"東京都","city":"稲城市","address":"東京都稲城市矢野口2454","lat":35.633,"lon":139.514},{"name":"榎本家文書","province":"東京都","city":"稲城市","address":"東京都稲城市平尾1-9-1","lat":35.614,"lon":139.493},{"name":"高橋家文書","province":"東京都","city":"稲城市","address":"東京都稲城市坂浜","lat":35.61736469,"lon":139.48442727},{"name":"旧報恩寺の文化財","province":"東京都","city":"稲城市","address":"東京都稲城市矢野口3750","lat":35.642,"lon":139.542},{"name":"平尾台原遺跡出土品","province":"東京都","city":"稲城市","address":"東京都稲城市平尾1-9-1","lat":35.614,"lon":139.493},{"name":"駒沢学園校地内遺跡出土品","province":"東京都","city":"稲城市","address":"東京都稲城市平尾1-9-1","lat":35.614,"lon":139.493},{"name":"稲城市竪台遺跡出土品","province":"東京都","city":"稲城市","address":"東京都稲城市平尾1-9-1","lat":35.614,"lon":139.493},{"name":"平尾入定塚出土品　附　発掘調査資料","province":"東京都","city":"稲城市","address":"東京都稲城市平尾1-9-1","lat":35.614,"lon":139.493},{"name":"窪家奚疑塾関係資料","province":"東京都","city":"稲城市","address":"東京都稲城市平尾1-9-1","lat":35.614,"lon":139.493},{"name":"清水家奚疑塾関係資料","province":"東京都","city":"稲城市","address":"東京都稲城市平尾1-9-1","lat":35.614,"lon":139.493},{"name":"鈴木家文書","province":"東京都","city":"稲城市","address":"東京都稲城市平尾1-9-1","lat":35.614,"lon":139.493},{"name":"山本家文書","province":"東京都","city":"稲城市","address":"東京都稲城市矢野口","lat":35.63441331,"lon":139.51171905},{"name":"近代行政資料","province":"東京都","city":"稲城市","address":"東京都稲城市平尾1-9-1","lat":35.614,"lon":139.493},{"name":"穴澤天神社本殿","province":"東京都","city":"稲城市","address":"東京都稲城市矢野口3292","lat":35.633,"lon":139.522},{"name":"青渭神社本殿","province":"東京都","city":"稲城市","address":"東京都稲城市東長沼1054","lat":35.643,"lon":139.502},{"name":"杉山神社本殿","province":"東京都","city":"稲城市","address":"東京都稲城市平尾4-45-6","lat":35.612,"lon":139.487},{"name":"妙見宮宮殿","province":"東京都","city":"稲城市","address":"東京都稲城市百村1588","lat":35.634,"lon":139.499},{"name":"常楽寺の飛天図及び龍図","province":"東京都","city":"稲城市","address":"東京都稲城市東長沼2117-2","lat":35.6374,"lon":139.502},{"name":"富士講関係資料","province":"東京都","city":"稲城市","address":"東京都稲城市矢野口3750","lat":35.642,"lon":139.542},{"name":"円照寺の木造十一面観音坐像","province":"東京都","city":"稲城市","address":"東京都稲城市大丸851番地","lat":35.6466,"lon":139.491},{"name":"旧宝泉寺の木造阿弥陀如来坐像","province":"東京都","city":"稲城市","address":"東京都稲城市平尾4-45-6","lat":35.6118,"lon":139.485},{"name":"稲城市立第四保育園","province":"東京都","city":"稲城市","address":"稲城市大丸607-2","lat":35.646515,"lon":139.49383},{"name":"稲城市立第六保育園","province":"東京都","city":"稲城市","address":"稲城市大丸82-4","lat":35.645288,"lon":139.499535},{"name":"本郷ゆうし保育園","province":"東京都","city":"稲城市","address":"稲城市東長沼2115-2","lat":35.637781,"lon":139.501344},{"name":"向陽台保育園","province":"東京都","city":"稲城市","address":"稲城市向陽台5-8","lat":35.638075,"lon":139.485975},{"name":"城山保育園","province":"東京都","city":"稲城市","address":"稲城市向陽台6-4","lat":35.641674,"lon":139.492689},{"name":"城山保育園南山","province":"東京都","city":"稲城市","address":"稲城市百村1461-1","lat":35.63211,"lon":139.503409},{"name":"メリーポピンズ稲城ルーム","province":"東京都","city":"稲城市","address":"稲城市百村1607番3稲城駅前KMビル2階","lat":35.635588,"lon":139.501478},{"name":"中島ゆうし保育園","province":"東京都","city":"稲城市","address":"稲城市矢野口256","lat":35.642751,"lon":139.519176},{"name":"松葉保育園","province":"東京都","city":"稲城市","address":"稲城市矢野口2065","lat":35.634419,"lon":139.520641},{"name":"もみの木保育園長峰","province":"東京都","city":"稲城市","address":"稲城市長峰2-10","lat":35.630412,"lon":139.482276},{"name":"稲城市立第三保育園","province":"東京都","city":"稲城市","address":"稲城市坂浜1012-2","lat":35.622461,"lon":139.485163},{"name":"稲城市立第五保育園","province":"東京都","city":"稲城市","address":"稲城市平尾1187-3","lat":35.611833,"lon":139.486772},{"name":"ひらお保育園","province":"東京都","city":"稲城市","address":"稲城市平尾3-1-23","lat":35.610358,"lon":139.487294},{"name":"若葉台バオバブ保育園","province":"東京都","city":"稲城市","address":"稲城市若葉台4-17","lat":35.627662,"lon":139.468494},{"name":"もみの木保育園若葉台","province":"東京都","city":"稲城市","address":"稲城市若葉台1-54","lat":35.624385,"lon":139.475483},{"name":"パサージュいなぎ","province":"東京都","city":"稲城市","address":"稲城市坂浜1951番地の5","lat":35.629845,"lon":139.470016},{"name":"稲城市生活支援ハウスどんぐり","province":"東京都","city":"稲城市","address":"稲城市平尾2-49-20","lat":35.608309,"lon":139.493503},{"name":"稲城市保健センター","province":"東京都","city":"稲城市","address":"稲城市百村112-1","lat":35.638231,"lon":139.4975},{"name":"稲城市役所","province":"東京都","city":"稲城市","address":"東京都稲城市東長沼2111","lat":35.63806,"lon":139.50442},{"name":"稲城市役所","province":"東京都","city":"稲城市","address":"東京都稲城市東長沼2111","lat":35.63797,"lon":139.504819},{"name":"上平尾消防出張所","province":"東京都","city":"稲城市","address":"東京都稲城市平尾4丁目15-4","lat":35.61463,"lon":139.484434},{"name":"中央文化センター","province":"東京都","city":"稲城市","address":"東京都稲城市東長沼2111","lat":35.63802,"lon":139.503787},{"name":"第二文化センター","province":"東京都","city":"稲城市","address":"東京都稲城市矢野口1780","lat":35.6353,"lon":139.518365},{"name":"第三文化センター","province":"東京都","city":"稲城市","address":"東京都稲城市平尾1丁目20-5","lat":35.61316,"lon":139.492466},{"name":"第三文化センター","province":"東京都","city":"稲城市","address":"東京都稲城市平尾1丁目20-5","lat":35.61311,"lon":139.492516},{"name":"第四文化センター","province":"東京都","city":"稲城市","address":"東京都稲城市東長沼271","lat":35.64591,"lon":139.505343},{"name":"城山文化センター","province":"東京都","city":"稲城市","address":"東京都稲城市向陽台6丁目7-6","lat":35.64134,"lon":139.490795},{"name":"稲城市立病院","province":"東京都","city":"稲城市","address":"東京都稲城市大丸1171","lat":35.64675,"lon":139.48517},{"name":"稲城市立病院","province":"東京都","city":"稲城市","address":"東京都稲城市大丸1171","lat":35.64666,"lon":139.484968},{"name":"稲城市立病院","province":"東京都","city":"稲城市","address":"東京都稲城市大丸1171","lat":35.64676,"lon":139.485157},{"name":"稲城市立病院　健診・外来棟","province":"東京都","city":"稲城市","address":"東京都稲城市大丸1171","lat":35.64687,"lon":139.486158},{"name":"稲城市立病院　健診・外来棟","province":"東京都","city":"稲城市","address":"東京都稲城市大丸","lat":35.64695,"lon":139.485759},{"name":"稲城市立病院　健診・外来棟","province":"東京都","city":"稲城市","address":"東京都稲城市大丸1171","lat":35.646804,"lon":139.485173},{"name":"稲城市保健センター","province":"東京都","city":"稲城市","address":"東京都稲城市百村112-1","lat":35.63829,"lon":139.497485},{"name":"オーエンス健康プラザ","province":"東京都","city":"稲城市","address":"東京都稲城市大丸1171","lat":35.646825,"lon":139.486115},{"name":"オーエンス健康プラザ","province":"東京都","city":"稲城市","address":"東京都稲城市大丸1171","lat":35.64699,"lon":139.486108},{"name":"オーエンス健康プラザ","province":"東京都","city":"稲城市","address":"東京都稲城市大丸1171","lat":35.646915,"lon":139.486198},{"name":"稲城市立中央図書館","province":"東京都","city":"稲城市","address":"東京都稲城市向陽台4丁目6","lat":35.64535,"lon":139.48851},{"name":"城山体験学習館","province":"東京都","city":"稲城市","address":"東京都稲城市向陽台4丁目6-18","lat":35.64574,"lon":139.48792},{"name":"地域振興プラザ","province":"東京都","city":"稲城市","address":"東京都稲城市東長沼2112-1","lat":35.63784,"lon":139.505896},{"name":"稲城市立iプラザ","province":"東京都","city":"稲城市","address":"東京都稲城市若葉台2丁目5-2","lat":35.62125,"lon":139.47211},{"name":"稲城市立iプラザ","province":"東京都","city":"稲城市","address":"東京都稲城市若葉台2丁目5-2","lat":35.62099,"lon":139.472202},{"name":"稲城市立iプラザ","province":"東京都","city":"稲城市","address":"東京都稲城市若葉台2丁目5-2","lat":35.62102,"lon":139.472343},{"name":"稲城市立iプラザ","province":"東京都","city":"稲城市","address":"東京都稲城市若葉台2丁目5-2","lat":35.621,"lon":139.472085},{"name":"押立ふれあい会館","province":"東京都","city":"稲城市","address":"東京都稲城市押立663","lat":35.64969,"lon":139.511159},{"name":"中央公民館ホール","province":"東京都","city":"稲城市","address":"東京都稲城市東長沼2111","lat":35.63835,"lon":139.503772},{"name":"三沢川親水公園","province":"東京都","city":"稲城市","address":"東京都稲城市矢野口","lat":35.63634,"lon":139.516182},{"name":"稲城北緑地公園","province":"東京都","city":"稲城市","address":"東京都稲城市東長沼","lat":35.64971,"lon":139.504257},{"name":"亀山下公園","province":"東京都","city":"稲城市","address":"東京都稲城市東長沼","lat":35.63803,"lon":139.500671},{"name":"大丸公園","province":"東京都","city":"稲城市","address":"東京都稲城市大丸","lat":35.64745,"lon":139.487278},{"name":"大丸第二公園（プール管理棟内）","province":"東京都","city":"稲城市","address":"東京都稲城市大丸3111-1","lat":35.65039,"lon":139.49687},{"name":"大丸河原方児童公園","province":"東京都","city":"稲城市","address":"東京都稲城市大丸","lat":35.65049,"lon":139.493639},{"name":"山崎公園","province":"東京都","city":"稲城市","address":"東京都稲城市大丸","lat":35.64415,"lon":139.497443},{"name":"東方公園","province":"東京都","city":"稲城市","address":"東京都稲城市大丸","lat":35.64209,"lon":139.499325},{"name":"平尾近隣公園","province":"東京都","city":"稲城市","address":"東京都稲城市平尾3丁目7","lat":35.60977,"lon":139.489686},{"name":"稲城中央公園","province":"東京都","city":"稲城市","address":"東京都稲城市長峰1丁目1","lat":35.63372,"lon":139.4853},{"name":"稲城中央公園","province":"東京都","city":"稲城市","address":"東京都稲城市長峰1丁目1","lat":35.63368,"lon":139.488331},{"name":"稲城中央公園","province":"東京都","city":"稲城市","address":"東京都稲城市向陽台4丁目1","lat":35.63667,"lon":139.485936},{"name":"稲城中央公園","province":"東京都","city":"稲城市","address":"東京都稲城市長峰1丁目1","lat":35.63202,"lon":139.48602},{"name":"稲城中央公園","province":"東京都","city":"稲城市","address":"東京都稲城市長峰1丁目1","lat":35.63365,"lon":139.48732},{"name":"稲城中央公園","province":"東京都","city":"稲城市","address":"東京都稲城市長峰1丁目1-1","lat":35.63149,"lon":139.486232},{"name":"城山公園","province":"東京都","city":"稲城市","address":"東京都稲城市向陽台4丁目6","lat":35.64137,"lon":139.489154},{"name":"ひつじさん公園","province":"東京都","city":"稲城市","address":"東京都稲城市向陽台6丁目14","lat":35.64348,"lon":139.492425},{"name":"もぐらさん公園","province":"東京都","city":"稲城市","address":"東京都稲城市向陽台2丁目4","lat":35.63951,"lon":139.492594},{"name":"若葉台公園","province":"東京都","city":"稲城市","address":"東京都稲城市若葉台1丁目24","lat":35.62744,"lon":139.472131},{"name":"若葉台公園","province":"東京都","city":"稲城市","address":"東京都稲城市若葉台1丁目19","lat":35.62503,"lon":139.473738},{"name":"上谷戸親水公園","province":"東京都","city":"稲城市","address":"東京都稲城市若葉台1丁目28","lat":35.6271,"lon":139.481463},{"name":"若葉台駅駅前広場トイレ","province":"東京都","city":"稲城市","address":"東京都稲城市若葉台2丁目101","lat":35.62051,"lon":139.472503},{"name":"多摩川堤防公衆トイレ","province":"東京都","city":"稲城市","address":"東京都稲城市矢野口","lat":35.64394,"lon":139.521681},{"name":"複合施設ふれんど平尾","province":"東京都","city":"稲城市","address":"東京都稲城市平尾1丁目9","lat":35.61371,"lon":139.492911},{"name":"複合施設ふれんど平尾","province":"東京都","city":"稲城市","address":"東京都稲城市平尾1丁目9","lat":35.6137,"lon":139.49293},{"name":"稲城長峰ヴェルディフィールド","province":"東京都","city":"稲城市","address":"東京都稲城市長峰3丁目10-1","lat":35.63158,"lon":139.477589},{"name":"稲城長峰ヴェルディフィールド","province":"東京都","city":"稲城市","address":"東京都稲城市長峰3丁目11","lat":35.6294,"lon":139.476541},{"name":"南多摩スポーツ広場","province":"東京都","city":"稲城市","address":"東京都稲城市大丸","lat":35.64876,"lon":139.480318},{"name":"稲城市福祉センター","province":"東京都","city":"稲城市","address":"東京都稲城市百村7","lat":35.639577,"lon":139.499948},{"name":"稲城市保健センター","province":"東京都","city":"稲城市","address":"東京都稲城市百村112-1","lat":35.63823105,"lon":139.4974999},{"name":"いなぎのぞみ保育園","province":"東京都","city":"稲城市","address":"稲城市大丸593-14","lat":35.64458,"lon":139.47774},{"name":"大丸ゆうし保育園","province":"東京都","city":"稲城市","address":"稲城市大丸82-4","lat":35.64479,"lon":139.49928},{"name":"本郷ゆうし保育園","province":"東京都","city":"稲城市","address":"稲城市東長沼2115-2","lat":35.63477,"lon":139.50426},{"name":"向陽台保育園","province":"東京都","city":"稲城市","address":"稲城市向陽台5-8","lat":35.63799,"lon":139.48604},{"name":"城山保育園","province":"東京都","city":"稲城市","address":"稲城市向陽台6-4","lat":35.64174,"lon":139.49284},{"name":"城山保育園南山","province":"東京都","city":"稲城市","address":"稲城市百村1461-1","lat":35.63356,"lon":139.49852},{"name":"メリーポピンズ稲城ルーム","province":"東京都","city":"稲城市","address":"稲城市百村1607番3稲城駅前KMビル2階","lat":35.63675,"lon":139.49867},{"name":"稲城矢野口雲母保育園","province":"東京都","city":"稲城市","address":"稲城市矢野口1075番地の1","lat":35.64077,"lon":139.51335},{"name":"松葉保育園","province":"東京都","city":"稲城市","address":"稲城市矢野口2065","lat":35.63502,"lon":139.52025},{"name":"中島ゆうし保育園","province":"東京都","city":"稲城市","address":"稲城市矢野口256","lat":35.64306,"lon":139.51859},{"name":"にじいろ保育園矢野口","province":"東京都","city":"稲城市","address":"稲城市矢野口3030-1","lat":35.63386,"lon":139.51416},{"name":"京王キッズプラッツよみうりランド","province":"東京都","city":"稲城市","address":"稲城市矢野口4015番地の1","lat":35.63091,"lon":139.51773},{"name":"もみの木保育園長峰","province":"東京都","city":"稲城市","address":"稲城市長峰2-10","lat":35.63031,"lon":139.48218},{"name":"しおどめ保育園稲城","province":"東京都","city":"稲城市","address":"稲城市坂浜3-33-1","lat":35.6244,"lon":139.48799},{"name":"ひらお保育園","province":"東京都","city":"稲城市","address":"稲城市平尾3-1-23","lat":35.61034,"lon":139.48247},{"name":"稲城市立第五保育園","province":"東京都","city":"稲城市","address":"稲城市平尾4-45-2","lat":35.61374,"lon":139.48317},{"name":"もみの木保育園若葉台","province":"東京都","city":"稲城市","address":"稲城市若葉台1-54","lat":35.62461,"lon":139.47548},{"name":"若葉台バオバブ保育園","province":"東京都","city":"稲城市","address":"稲城市若葉台4-17","lat":35.62765,"lon":139.4689},{"name":"稲城市保健センター","province":"東京都","city":"稲城市","address":"稲城市百村112-1","lat":35.63797,"lon":139.49731},{"name":"どんぐり","province":"東京都","city":"稲城市","address":"稲城市平尾2-49-20","lat":35.60828,"lon":139.49362},{"name":"稲城市社会福祉協議会稲城市障害者地域活動支援センター","province":"東京都","city":"稲城市","address":"東京都稲城市百村7","lat":35.63960873,"lon":139.49986077},{"name":"稲城市社会福祉協議会エイトピア工房","province":"東京都","city":"稲城市","address":"東京都稲城市平尾1丁目9-1","lat":35.61385223,"lon":139.4923884},{"name":"わくわく","province":"東京都","city":"稲城市","address":"東京都稲城市大丸60-11","lat":35.64175835,"lon":139.50028834},{"name":"稲城柔道接骨師会デイサービス株式会社","province":"東京都","city":"稲城市","address":"東京都稲城市東長沼1174-7","lat":35.64255842,"lon":139.50369087},{"name":"稲城市立第六保育園","province":"東京都","city":"稲城市","address":"稲城市大丸82-4","lat":35.64479,"lon":139.49928},{"name":"いなぎのぞみ保育園","province":"東京都","city":"稲城市","address":"稲城市大丸593-14","lat":35.64568,"lon":139.495502},{"name":"にじいろ保育園矢野口","province":"東京都","city":"稲城市","address":"稲城市矢野口3030-1","lat":35.635925,"lon":139.508416},{"name":"稲城市立第三保育園","province":"東京都","city":"稲城市","address":"稲城市坂浜1012-2","lat":35.62013,"lon":139.48767},{"name":"稲城市立第五保育園","province":"東京都","city":"稲城市","address":"稲城市平尾4-45-2","lat":35.61173,"lon":139.48526},{"name":"どんぐり","province":"東京都","city":"稲城市","address":"稲城市平尾2-49-20","lat":35.608309,"lon":139.493503},{"name":"いなぎのぞみ保育園","province":"東京都","city":"稲城市","address":"稲城市大丸593-14","lat":35.64459,"lon":139.47774},{"name":"しおどめ保育園稲城","province":"東京都","city":"稲城市","address":"稲城市坂浜943","lat":35.62441,"lon":139.48799},{"name":"いなぎのぞみ保育園","province":"東京都","city":"稲城市","address":"稲城市大丸593-14","lat":35.64153,"lon":139.49802},{"name":"本郷ゆうし保育園","province":"東京都","city":"稲城市","address":"稲城市東長沼2115-2","lat":35.6487,"lon":139.50085},{"name":"にじいろ保育園矢野口","province":"東京都","city":"稲城市","address":"稲城市矢野口3030-1","lat":35.64457,"lon":139.51242},{"name":"稲城市立第五保育園","province":"東京都","city":"稲城市","address":"稲城市平尾4-45-2","lat":35.60762,"lon":139.49544},{"name":"稲城市立病院","province":"東京都","city":"稲城市","address":"東京都稲城市大丸1171","lat":35.64687587,"lon":139.48586645},{"name":"向陽台給水所","province":"東京都","city":"稲城市","address":"東京都稲城市向陽台6丁目16","lat":35.64371302,"lon":139.49304963},{"name":"稲城市立中央公園総合グラウンド","province":"東京都","city":"稲城市","address":"東京都稲城市長峰1丁目1","lat":35.63011248,"lon":139.48798717},{"name":"稲城市立南山グラウンド","province":"東京都","city":"稲城市","address":"東京都稲城市東長沼2406-1","lat":35.63525992,"lon":139.50477484},{"name":"稲城市選挙管理委員会","province":"東京都","city":"稲城市","address":"稲城市東長沼2111","lat":35.638082,"lon":139.503756},{"name":"若葉総合高等学校","province":"東京都","city":"稲城市","address":"東京都稲城市坂浜1434-3","lat":35.61828624,"lon":139.47916351},{"name":"稲城市役所西側車庫棟","province":"東京都","city":"稲城市","address":"東京都稲城市東長沼2111","lat":35.63795935,"lon":139.50426905},{"name":"稲城市本庁舎","province":"東京都","city":"稲城市","address":"稲城市東長沼2111","lat":35.63796,"lon":139.50427},{"name":"木造聖観音立像","province":"東京都","city":"稲城市","address":"東京都稲城市矢野口4015-1","lat":35.624,"lon":139.518},{"name":"瓦谷戸窯跡","province":"東京都","city":"稲城市","address":"東京都稲城市大丸15","lat":35.647,"lon":139.473},{"name":"孝子長五郎の墓","province":"東京都","city":"稲城市","address":"東京都稲城市押立637","lat":35.65,"lon":139.513},{"name":"高勝寺のカヤ","province":"東京都","city":"稲城市","address":"東京都稲城市坂浜551","lat":35.6257,"lon":139.489},{"name":"木造観世音菩薩立像","province":"東京都","city":"稲城市","address":"東京都稲城市坂浜551","lat":35.6257,"lon":139.489},{"name":"木造阿弥陀如来及び両脇侍像","province":"東京都","city":"稲城市","address":"東京都稲城市東長沼2117-2","lat":35.6374,"lon":139.502},{"name":"木造閻魔王坐像","province":"東京都","city":"稲城市","address":"東京都稲城市東長沼2117-2","lat":35.6374,"lon":139.502},{"name":"妙見尊の蛇より行事","province":"東京都","city":"稲城市","address":"東京都稲城市百村1588","lat":35.63380421,"lon":139.49841972},{"name":"瓦谷戸窯跡群出土遺物","province":"東京都","city":"稲城市","address":"東京都稲城市平尾1-9-1","lat":35.614,"lon":139.493},{"name":"多摩川中流域の船大工用具","province":"東京都","city":"稲城市","address":"東京都稲城市矢野口3750","lat":35.642,"lon":139.542},{"name":"地蔵菩薩塔","province":"東京都","city":"稲城市","address":"東京都稲城市東長沼2117-2","lat":35.6374,"lon":139.502},{"name":"葎草橋碑","province":"東京都","city":"稲城市","address":"東京都稲城市東長沼656","lat":35.6452,"lon":139.508},{"name":"庚申塔","province":"東京都","city":"稲城市","address":"東京都稲城市矢野口2411","lat":35.6311,"lon":139.516},{"name":"馬頭観世音塔","province":"東京都","city":"稲城市","address":"東京都稲城市矢野口401","lat":35.6408,"lon":139.524},{"name":"平尾原経塚出土品及び供養塔","province":"東京都","city":"稲城市","address":"東京都稲城市平尾1-49-7","lat":35.6412,"lon":139.494},{"name":"板碑","province":"東京都","city":"稲城市","address":"東京都稲城市矢野口2454","lat":35.633,"lon":139.514},{"name":"玉川焼","province":"東京都","city":"稲城市","address":"東京都稲城市坂浜","lat":35.61736469,"lon":139.48442727},{"name":"筆塚","province":"東京都","city":"稲城市","address":"東京都稲城市百村1588","lat":35.634,"lon":139.499},{"name":"筆塚","province":"東京都","city":"稲城市","address":"東京都稲城市矢野口3292","lat":35.633,"lon":139.522},{"name":"青渭神社獅子舞","province":"東京都","city":"稲城市","address":"東京都稲城市東長沼1053","lat":35.64272489,"lon":139.50116042},{"name":"穴澤天神社獅子舞","province":"東京都","city":"稲城市","address":"東京都稲城市矢野口3292","lat":35.63277255,"lon":139.52244086},{"name":"芦川家文書","province":"東京都","city":"稲城市","address":"東京都稲城市大丸","lat":35.65015104,"lon":139.49500745},{"name":"市村家文書","province":"東京都","city":"稲城市","address":"東京都稲城市坂浜","lat":35.61736469,"lon":139.48442727},{"name":"馬場家文書","province":"東京都","city":"稲城市","address":"東京都稲城市平尾","lat":35.61225701,"lon":139.48126665},{"name":"筆塚","province":"東京都","city":"稲城市","address":"東京都稲城市矢野口2454","lat":35.633,"lon":139.514},{"name":"榎本家文書","province":"東京都","city":"稲城市","address":"東京都稲城市平尾1-9-1","lat":35.614,"lon":139.493},{"name":"高橋家文書","province":"東京都","city":"稲城市","address":"東京都稲城市坂浜","lat":35.61736469,"lon":139.48442727},{"name":"旧報恩寺の文化財","province":"東京都","city":"稲城市","address":"東京都稲城市矢野口3750","lat":35.642,"lon":139.542},{"name":"平尾台原遺跡出土品","province":"東京都","city":"稲城市","address":"東京都稲城市平尾1-9-1","lat":35.614,"lon":139.493},{"name":"駒沢学園校地内遺跡出土品","province":"東京都","city":"稲城市","address":"東京都稲城市平尾1-9-1","lat":35.614,"lon":139.493},{"name":"稲城市竪台遺跡出土品","province":"東京都","city":"稲城市","address":"東京都稲城市平尾1-9-1","lat":35.614,"lon":139.493},{"name":"平尾入定塚出土品　附　発掘調査資料","province":"東京都","city":"稲城市","address":"東京都稲城市平尾1-9-1","lat":35.614,"lon":139.493},{"name":"窪家奚疑塾関係資料","province":"東京都","city":"稲城市","address":"東京都稲城市平尾1-9-1","lat":35.614,"lon":139.493},{"name":"清水家奚疑塾関係資料","province":"東京都","city":"稲城市","address":"東京都稲城市平尾1-9-1","lat":35.614,"lon":139.493},{"name":"鈴木家文書","province":"東京都","city":"稲城市","address":"東京都稲城市平尾1-9-1","lat":35.614,"lon":139.493},{"name":"山本家文書","province":"東京都","city":"稲城市","address":"東京都稲城市矢野口","lat":35.63441331,"lon":139.51171905},{"name":"近代行政資料","province":"東京都","city":"稲城市","address":"東京都稲城市平尾1-9-1","lat":35.614,"lon":139.493},{"name":"穴澤天神社本殿","province":"東京都","city":"稲城市","address":"東京都稲城市矢野口3292","lat":35.633,"lon":139.522},{"name":"青渭神社本殿","province":"東京都","city":"稲城市","address":"東京都稲城市東長沼1054","lat":35.643,"lon":139.502},{"name":"杉山神社本殿","province":"東京都","city":"稲城市","address":"東京都稲城市平尾4-45-6","lat":35.612,"lon":139.487},{"name":"妙見宮宮殿","province":"東京都","city":"稲城市","address":"東京都稲城市百村1588","lat":35.634,"lon":139.499},{"name":"常楽寺の飛天図及び龍図","province":"東京都","city":"稲城市","address":"東京都稲城市東長沼2117-2","lat":35.6374,"lon":139.502},{"name":"富士講関係資料","province":"東京都","city":"稲城市","address":"東京都稲城市矢野口3750","lat":35.642,"lon":139.542},{"name":"円照寺の木造十一面観音坐像","province":"東京都","city":"稲城市","address":"東京都稲城市大丸851番地","lat":35.6466,"lon":139.491},{"name":"旧宝泉寺の木造阿弥陀如来坐像","province":"東京都","city":"稲城市","address":"東京都稲城市平尾4-45-6","lat":35.6118,"lon":139.485},{"name":"稲城市立第四保育園","province":"東京都","city":"稲城市","address":"稲城市大丸607-2","lat":35.646515,"lon":139.49383},{"name":"稲城市立第六保育園","province":"東京都","city":"稲城市","address":"稲城市大丸82-4","lat":35.645288,"lon":139.499535},{"name":"本郷ゆうし保育園","province":"東京都","city":"稲城市","address":"稲城市東長沼2115-2","lat":35.637781,"lon":139.501344},{"name":"向陽台保育園","province":"東京都","city":"稲城市","address":"稲城市向陽台5-8","lat":35.638075,"lon":139.485975},{"name":"城山保育園","province":"東京都","city":"稲城市","address":"稲城市向陽台6-4","lat":35.641674,"lon":139.492689},{"name":"城山保育園南山","province":"東京都","city":"稲城市","address":"稲城市百村1461-1","lat":35.63211,"lon":139.503409},{"name":"メリーポピンズ稲城ルーム","province":"東京都","city":"稲城市","address":"稲城市百村1607番3稲城駅前KMビル2階","lat":35.635588,"lon":139.501478},{"name":"中島ゆうし保育園","province":"東京都","city":"稲城市","address":"稲城市矢野口256","lat":35.642751,"lon":139.519176},{"name":"松葉保育園","province":"東京都","city":"稲城市","address":"稲城市矢野口2065","lat":35.634419,"lon":139.520641},{"name":"もみの木保育園長峰","province":"東京都","city":"稲城市","address":"稲城市長峰2-10","lat":35.630412,"lon":139.482276},{"name":"稲城市立第三保育園","province":"東京都","city":"稲城市","address":"稲城市坂浜1012-2","lat":35.622461,"lon":139.485163},{"name":"稲城市立第五保育園","province":"東京都","city":"稲城市","address":"稲城市平尾1187-3","lat":35.611833,"lon":139.486772},{"name":"ひらお保育園","province":"東京都","city":"稲城市","address":"稲城市平尾3-1-23","lat":35.610358,"lon":139.487294},{"name":"若葉台バオバブ保育園","province":"東京都","city":"稲城市","address":"稲城市若葉台4-17","lat":35.627662,"lon":139.468494},{"name":"もみの木保育園若葉台","province":"東京都","city":"稲城市","address":"稲城市若葉台1-54","lat":35.624385,"lon":139.475483},{"name":"いなぎのぞみ保育園","province":"東京都","city":"稲城市","address":"稲城市大丸593-14","lat":35.64458,"lon":139.47774},{"name":"大丸ゆうし保育園","province":"東京都","city":"稲城市","address":"稲城市大丸82-4","lat":35.64479,"lon":139.49928},{"name":"本郷ゆうし保育園","province":"東京都","city":"稲城市","address":"稲城市東長沼2115-2","lat":35.63477,"lon":139.50426},{"name":"向陽台保育園","province":"東京都","city":"稲城市","address":"稲城市向陽台5-8","lat":35.63799,"lon":139.48604},{"name":"城山保育園","province":"東京都","city":"稲城市","address":"稲城市向陽台6-4","lat":35.64174,"lon":139.49284},{"name":"城山保育園南山","province":"東京都","city":"稲城市","address":"稲城市百村1461-1","lat":35.63356,"lon":139.49852},{"name":"メリーポピンズ稲城ルーム","province":"東京都","city":"稲城市","address":"稲城市百村1607番3稲城駅前KMビル2階","lat":35.63675,"lon":139.49867},{"name":"稲城矢野口雲母保育園","province":"東京都","city":"稲城市","address":"稲城市矢野口1075番地の1","lat":35.64077,"lon":139.51335},{"name":"松葉保育園","province":"東京都","city":"稲城市","address":"稲城市矢野口2065","lat":35.63502,"lon":139.52025},{"name":"中島ゆうし保育園","province":"東京都","city":"稲城市","address":"稲城市矢野口256","lat":35.64306,"lon":139.51859},{"name":"にじいろ保育園矢野口","province":"東京都","city":"稲城市","address":"稲城市矢野口3030-1","lat":35.63386,"lon":139.51416},{"name":"京王キッズプラッツよみうりランド","province":"東京都","city":"稲城市","address":"稲城市矢野口4015番地の1","lat":35.63091,"lon":139.51773},{"name":"もみの木保育園長峰","province":"東京都","city":"稲城市","address":"稲城市長峰2-10","lat":35.63031,"lon":139.48218},{"name":"しおどめ保育園稲城","province":"東京都","city":"稲城市","address":"稲城市坂浜3-33-1","lat":35.6244,"lon":139.48799},{"name":"ひらお保育園","province":"東京都","city":"稲城市","address":"稲城市平尾3-1-23","lat":35.61034,"lon":139.48247},{"name":"稲城市立第五保育園","province":"東京都","city":"稲城市","address":"稲城市平尾4-45-2","lat":35.61374,"lon":139.48317},{"name":"もみの木保育園若葉台","province":"東京都","city":"稲城市","address":"稲城市若葉台1-54","lat":35.62461,"lon":139.47548},{"name":"若葉台バオバブ保育園","province":"東京都","city":"稲城市","address":"稲城市若葉台4-17","lat":35.62765,"lon":139.4689},{"name":"稲城市社会福祉協議会稲城市障害者地域活動支援センター","province":"東京都","city":"稲城市","address":"東京都稲城市百村7","lat":35.63960873,"lon":139.49986077},{"name":"稲城市社会福祉協議会エイトピア工房","province":"東京都","city":"稲城市","address":"東京都稲城市平尾1丁目9-1","lat":35.61385223,"lon":139.4923884},{"name":"わくわく","province":"東京都","city":"稲城市","address":"東京都稲城市大丸60-11","lat":35.64175835,"lon":139.50028834},{"name":"稲城柔道接骨師会デイサービス株式会社","province":"東京都","city":"稲城市","address":"東京都稲城市東長沼1174-7","lat":35.64255842,"lon":139.50369087},{"name":"稲城市立第六保育園","province":"東京都","city":"稲城市","address":"稲城市大丸82-4","lat":35.64479,"lon":139.49928},{"name":"いなぎのぞみ保育園","province":"東京都","city":"稲城市","address":"稲城市大丸593-14","lat":35.64568,"lon":139.495502},{"name":"にじいろ保育園矢野口","province":"東京都","city":"稲城市","address":"稲城市矢野口3030-1","lat":35.635925,"lon":139.508416},{"name":"稲城市立第三保育園","province":"東京都","city":"稲城市","address":"稲城市坂浜1012-2","lat":35.62013,"lon":139.48767},{"name":"稲城市立第五保育園","province":"東京都","city":"稲城市","address":"稲城市平尾4-45-2","lat":35.61173,"lon":139.48526},{"name":"いなぎのぞみ保育園","province":"東京都","city":"稲城市","address":"稲城市大丸593-14","lat":35.64459,"lon":139.47774},{"name":"しおどめ保育園稲城","province":"東京都","city":"稲城市","address":"稲城市坂浜943","lat":35.62441,"lon":139.48799},{"name":"いなぎのぞみ保育園","province":"東京都","city":"稲城市","address":"稲城市大丸593-14","lat":35.64153,"lon":139.49802},{"name":"本郷ゆうし保育園","province":"東京都","city":"稲城市","address":"稲城市東長沼2115-2","lat":35.6487,"lon":139.50085},{"name":"にじいろ保育園矢野口","province":"東京都","city":"稲城市","address":"稲城市矢野口3030-1","lat":35.64457,"lon":139.51242},{"name":"稲城市立第五保育園","province":"東京都","city":"稲城市","address":"稲城市平尾4-45-2","lat":35.60762,"lon":139.49544},{"name":"向陽台給水所","province":"東京都","city":"稲城市","address":"東京都稲城市向陽台6丁目16","lat":35.64371302,"lon":139.49304963},{"name":"稲城市立中央公園総合グラウンド","province":"東京都","city":"稲城市","address":"東京都稲城市長峰1丁目1","lat":35.63011248,"lon":139.48798717},{"name":"稲城市立南山グラウンド","province":"東京都","city":"稲城市","address":"東京都稲城市東長沼2406-1","lat":35.63525992,"lon":139.50477484},{"name":"稲城市選挙管理委員会","province":"東京都","city":"稲城市","address":"稲城市東長沼2111","lat":35.638082,"lon":139.503756},{"name":"若葉総合高等学校","province":"東京都","city":"稲城市","address":"東京都稲城市坂浜1434-3","lat":35.61828624,"lon":139.47916351},{"name":"稲城市役所西側車庫棟","province":"東京都","city":"稲城市","address":"東京都稲城市東長沼2111","lat":35.63795935,"lon":139.50426905},{"name":"稲城市本庁舎","province":"東京都","city":"稲城市","address":"稲城市東長沼2111","lat":35.63796,"lon":139.50427},{"name":"稲城市立第四保育園","province":"東京都","city":"稲城市","address":"稲城市大丸607-2","lat":35.646515,"lon":139.49383},{"name":"稲城市立第六保育園","province":"東京都","city":"稲城市","address":"稲城市大丸82-4","lat":35.645288,"lon":139.499535},{"name":"本郷ゆうし保育園","province":"東京都","city":"稲城市","address":"稲城市東長沼2115-2","lat":35.637781,"lon":139.501344},{"name":"向陽台保育園","province":"東京都","city":"稲城市","address":"稲城市向陽台5-8","lat":35.638075,"lon":139.485975},{"name":"城山保育園","province":"東京都","city":"稲城市","address":"稲城市向陽台6-4","lat":35.641674,"lon":139.492689},{"name":"城山保育園南山","province":"東京都","city":"稲城市","address":"稲城市百村1461-1","lat":35.63211,"lon":139.503409},{"name":"メリーポピンズ稲城ルーム","province":"東京都","city":"稲城市","address":"稲城市百村1607番3稲城駅前KMビル2階","lat":35.635588,"lon":139.501478},{"name":"中島ゆうし保育園","province":"東京都","city":"稲城市","address":"稲城市矢野口256","lat":35.642751,"lon":139.519176},{"name":"松葉保育園","province":"東京都","city":"稲城市","address":"稲城市矢野口2065","lat":35.634419,"lon":139.520641},{"name":"もみの木保育園長峰","province":"東京都","city":"稲城市","address":"稲城市長峰2-10","lat":35.630412,"lon":139.482276},{"name":"稲城市立第三保育園","province":"東京都","city":"稲城市","address":"稲城市坂浜1012-2","lat":35.622461,"lon":139.485163},{"name":"稲城市立第五保育園","province":"東京都","city":"稲城市","address":"稲城市平尾1187-3","lat":35.611833,"lon":139.486772},{"name":"ひらお保育園","province":"東京都","city":"稲城市","address":"稲城市平尾3-1-23","lat":35.610358,"lon":139.487294},{"name":"若葉台バオバブ保育園","province":"東京都","city":"稲城市","address":"稲城市若葉台4-17","lat":35.627662,"lon":139.468494},{"name":"もみの木保育園若葉台","province":"東京都","city":"稲城市","address":"稲城市若葉台1-54","lat":35.624385,"lon":139.475483},{"name":"いなぎのぞみ保育園","province":"東京都","city":"稲城市","address":"稲城市大丸593-14","lat":35.64458,"lon":139.47774},{"name":"大丸ゆうし保育園","province":"東京都","city":"稲城市","address":"稲城市大丸82-4","lat":35.64479,"lon":139.49928},{"name":"本郷ゆうし保育園","province":"東京都","city":"稲城市","address":"稲城市東長沼2115-2","lat":35.63477,"lon":139.50426},{"name":"向陽台保育園","province":"東京都","city":"稲城市","address":"稲城市向陽台5-8","lat":35.63799,"lon":139.48604},{"name":"城山保育園","province":"東京都","city":"稲城市","address":"稲城市向陽台6-4","lat":35.64174,"lon":139.49284},{"name":"城山保育園南山","province":"東京都","city":"稲城市","address":"稲城市百村1461-1","lat":35.63356,"lon":139.49852},{"name":"メリーポピンズ稲城ルーム","province":"東京都","city":"稲城市","address":"稲城市百村1607番3稲城駅前KMビル2階","lat":35.63675,"lon":139.49867},{"name":"稲城矢野口雲母保育園","province":"東京都","city":"稲城市","address":"稲城市矢野口1075番地の1","lat":35.64077,"lon":139.51335},{"name":"松葉保育園","province":"東京都","city":"稲城市","address":"稲城市矢野口2065","lat":35.63502,"lon":139.52025},{"name":"中島ゆうし保育園","province":"東京都","city":"稲城市","address":"稲城市矢野口256","lat":35.64306,"lon":139.51859},{"name":"にじいろ保育園矢野口","province":"東京都","city":"稲城市","address":"稲城市矢野口3030-1","lat":35.63386,"lon":139.51416},{"name":"京王キッズプラッツよみうりランド","province":"東京都","city":"稲城市","address":"稲城市矢野口4015番地の1","lat":35.63091,"lon":139.51773},{"name":"もみの木保育園長峰","province":"東京都","city":"稲城市","address":"稲城市長峰2-10","lat":35.63031,"lon":139.48218},{"name":"しおどめ保育園稲城","province":"東京都","city":"稲城市","address":"稲城市坂浜3-33-1","lat":35.6244,"lon":139.48799},{"name":"ひらお保育園","province":"東京都","city":"稲城市","address":"稲城市平尾3-1-23","lat":35.61034,"lon":139.48247},{"name":"稲城市立第五保育園","province":"東京都","city":"稲城市","address":"稲城市平尾4-45-2","lat":35.61374,"lon":139.48317},{"name":"もみの木保育園若葉台","province":"東京都","city":"稲城市","address":"稲城市若葉台1-54","lat":35.62461,"lon":139.47548},{"name":"若葉台バオバブ保育園","province":"東京都","city":"稲城市","address":"稲城市若葉台4-17","lat":35.62765,"lon":139.4689},{"name":"稲城市社会福祉協議会稲城市障害者地域活動支援センター","province":"東京都","city":"稲城市","address":"東京都稲城市百村7","lat":35.63960873,"lon":139.49986077},{"name":"稲城市社会福祉協議会エイトピア工房","province":"東京都","city":"稲城市","address":"東京都稲城市平尾1丁目9-1","lat":35.61385223,"lon":139.4923884},{"name":"わくわく","province":"東京都","city":"稲城市","address":"東京都稲城市大丸60-11","lat":35.64175835,"lon":139.50028834},{"name":"稲城柔道接骨師会デイサービス株式会社","province":"東京都","city":"稲城市","address":"東京都稲城市東長沼1174-7","lat":35.64255842,"lon":139.50369087},{"name":"稲城市立第六保育園","province":"東京都","city":"稲城市","address":"稲城市大丸82-4","lat":35.64479,"lon":139.49928},{"name":"いなぎのぞみ保育園","province":"東京都","city":"稲城市","address":"稲城市大丸593-14","lat":35.64568,"lon":139.495502},{"name":"にじいろ保育園矢野口","province":"東京都","city":"稲城市","address":"稲城市矢野口3030-1","lat":35.635925,"lon":139.508416},{"name":"稲城市立第三保育園","province":"東京都","city":"稲城市","address":"稲城市坂浜1012-2","lat":35.62013,"lon":139.48767},{"name":"稲城市立第五保育園","province":"東京都","city":"稲城市","address":"稲城市平尾4-45-2","lat":35.61173,"lon":139.48526},{"name":"いなぎのぞみ保育園","province":"東京都","city":"稲城市","address":"稲城市大丸593-14","lat":35.64459,"lon":139.47774},{"name":"しおどめ保育園稲城","province":"東京都","city":"稲城市","address":"稲城市坂浜943","lat":35.62441,"lon":139.48799},{"name":"いなぎのぞみ保育園","province":"東京都","city":"稲城市","address":"稲城市大丸593-14","lat":35.64153,"lon":139.49802},{"name":"本郷ゆうし保育園","province":"東京都","city":"稲城市","address":"稲城市東長沼2115-2","lat":35.6487,"lon":139.50085},{"name":"にじいろ保育園矢野口","province":"東京都","city":"稲城市","address":"稲城市矢野口3030-1","lat":35.64457,"lon":139.51242},{"name":"稲城市立第五保育園","province":"東京都","city":"稲城市","address":"稲城市平尾4-45-2","lat":35.60762,"lon":139.49544},{"name":"稲城市役所西側車庫棟","province":"東京都","city":"稲城市","address":"東京都稲城市東長沼2111","lat":35.63795935,"lon":139.50426905},{"name":"稲城市本庁舎","province":"東京都","city":"稲城市","address":"稲城市東長沼2111","lat":35.63796,"lon":139.50427},{"name":"稲城市立第四保育園","province":"東京都","city":"稲城市","address":"稲城市大丸607-2","lat":35.646515,"lon":139.49383},{"name":"稲城市立第六保育園","province":"東京都","city":"稲城市","address":"稲城市大丸82-4","lat":35.645288,"lon":139.499535},{"name":"本郷ゆうし保育園","province":"東京都","city":"稲城市","address":"稲城市東長沼2115-2","lat":35.637781,"lon":139.501344},{"name":"向陽台保育園","province":"東京都","city":"稲城市","address":"稲城市向陽台5-8","lat":35.638075,"lon":139.485975},{"name":"城山保育園","province":"東京都","city":"稲城市","address":"稲城市向陽台6-4","lat":35.641674,"lon":139.492689},{"name":"城山保育園南山","province":"東京都","city":"稲城市","address":"稲城市百村1461-1","lat":35.63211,"lon":139.503409},{"name":"メリーポピンズ稲城ルーム","province":"東京都","city":"稲城市","address":"稲城市百村1607番3稲城駅前KMビル2階","lat":35.635588,"lon":139.501478},{"name":"中島ゆうし保育園","province":"東京都","city":"稲城市","address":"稲城市矢野口256","lat":35.642751,"lon":139.519176},{"name":"松葉保育園","province":"東京都","city":"稲城市","address":"稲城市矢野口2065","lat":35.634419,"lon":139.520641},{"name":"もみの木保育園長峰","province":"東京都","city":"稲城市","address":"稲城市長峰2-10","lat":35.630412,"lon":139.482276},{"name":"稲城市立第三保育園","province":"東京都","city":"稲城市","address":"稲城市坂浜1012-2","lat":35.622461,"lon":139.485163},{"name":"稲城市立第五保育園","province":"東京都","city":"稲城市","address":"稲城市平尾1187-3","lat":35.611833,"lon":139.486772},{"name":"ひらお保育園","province":"東京都","city":"稲城市","address":"稲城市平尾3-1-23","lat":35.610358,"lon":139.487294},{"name":"若葉台バオバブ保育園","province":"東京都","city":"稲城市","address":"稲城市若葉台4-17","lat":35.627662,"lon":139.468494},{"name":"もみの木保育園若葉台","province":"東京都","city":"稲城市","address":"稲城市若葉台1-54","lat":35.624385,"lon":139.475483},{"name":"いなぎのぞみ保育園","province":"東京都","city":"稲城市","address":"稲城市大丸593-14","lat":35.64458,"lon":139.47774},{"name":"大丸ゆうし保育園","province":"東京都","city":"稲城市","address":"稲城市大丸82-4","lat":35.64479,"lon":139.49928},{"name":"本郷ゆうし保育園","province":"東京都","city":"稲城市","address":"稲城市東長沼2115-2","lat":35.63477,"lon":139.50426},{"name":"向陽台保育園","province":"東京都","city":"稲城市","address":"稲城市向陽台5-8","lat":35.63799,"lon":139.48604},{"name":"城山保育園","province":"東京都","city":"稲城市","address":"稲城市向陽台6-4","lat":35.64174,"lon":139.49284},{"name":"城山保育園南山","province":"東京都","city":"稲城市","address":"稲城市百村1461-1","lat":35.63356,"lon":139.49852},{"name":"メリーポピンズ稲城ルーム","province":"東京都","city":"稲城市","address":"稲城市百村1607番3稲城駅前KMビル2階","lat":35.63675,"lon":139.49867},{"name":"稲城矢野口雲母保育園","province":"東京都","city":"稲城市","address":"稲城市矢野口1075番地の1","lat":35.64077,"lon":139.51335},{"name":"松葉保育園","province":"東京都","city":"稲城市","address":"稲城市矢野口2065","lat":35.63502,"lon":139.52025},{"name":"中島ゆうし保育園","province":"東京都","city":"稲城市","address":"稲城市矢野口256","lat":35.64306,"lon":139.51859},{"name":"にじいろ保育園矢野口","province":"東京都","city":"稲城市","address":"稲城市矢野口3030-1","lat":35.63386,"lon":139.51416},{"name":"京王キッズプラッツよみうりランド","province":"東京都","city":"稲城市","address":"稲城市矢野口4015番地の1","lat":35.63091,"lon":139.51773},{"name":"もみの木保育園長峰","province":"東京都","city":"稲城市","address":"稲城市長峰2-10","lat":35.63031,"lon":139.48218},{"name":"しおどめ保育園稲城","province":"東京都","city":"稲城市","address":"稲城市坂浜3-33-1","lat":35.6244,"lon":139.48799},{"name":"ひらお保育園","province":"東京都","city":"稲城市","address":"稲城市平尾3-1-23","lat":35.61034,"lon":139.48247},{"name":"稲城市立第五保育園","province":"東京都","city":"稲城市","address":"稲城市平尾4-45-2","lat":35.61374,"lon":139.48317},{"name":"もみの木保育園若葉台","province":"東京都","city":"稲城市","address":"稲城市若葉台1-54","lat":35.62461,"lon":139.47548},{"name":"若葉台バオバブ保育園","province":"東京都","city":"稲城市","address":"稲城市若葉台4-17","lat":35.62765,"lon":139.4689},{"name":"稲城市社会福祉協議会稲城市障害者地域活動支援センター","province":"東京都","city":"稲城市","address":"東京都稲城市百村7","lat":35.63960873,"lon":139.49986077},{"name":"稲城市社会福祉協議会エイトピア工房","province":"東京都","city":"稲城市","address":"東京都稲城市平尾1丁目9-1","lat":35.61385223,"lon":139.4923884},{"name":"わくわく","province":"東京都","city":"稲城市","address":"東京都稲城市大丸60-11","lat":35.64175835,"lon":139.50028834},{"name":"稲城柔道接骨師会デイサービス株式会社","province":"東京都","city":"稲城市","address":"東京都稲城市東長沼1174-7","lat":35.64255842,"lon":139.50369087},{"name":"稲城市立第六保育園","province":"東京都","city":"稲城市","address":"稲城市大丸82-4","lat":35.64479,"lon":139.49928},{"name":"いなぎのぞみ保育園","province":"東京都","city":"稲城市","address":"稲城市大丸593-14","lat":35.64568,"lon":139.495502},{"name":"にじいろ保育園矢野口","province":"東京都","city":"稲城市","address":"稲城市矢野口3030-1","lat":35.635925,"lon":139.508416},{"name":"稲城市立第三保育園","province":"東京都","city":"稲城市","address":"稲城市坂浜1012-2","lat":35.62013,"lon":139.48767},{"name":"稲城市立第五保育園","province":"東京都","city":"稲城市","address":"稲城市平尾4-45-2","lat":35.61173,"lon":139.48526},{"name":"いなぎのぞみ保育園","province":"東京都","city":"稲城市","address":"稲城市大丸593-14","lat":35.64459,"lon":139.47774},{"name":"しおどめ保育園稲城","province":"東京都","city":"稲城市","address":"稲城市坂浜943","lat":35.62441,"lon":139.48799},{"name":"いなぎのぞみ保育園","province":"東京都","city":"稲城市","address":"稲城市大丸593-14","lat":35.64153,"lon":139.49802},{"name":"本郷ゆうし保育園","province":"東京都","city":"稲城市","address":"稲城市東長沼2115-2","lat":35.6487,"lon":139.50085},{"name":"にじいろ保育園矢野口","province":"東京都","city":"稲城市","address":"稲城市矢野口3030-1","lat":35.64457,"lon":139.51242},{"name":"稲城市立第五保育園","province":"東京都","city":"稲城市","address":"稲城市平尾4-45-2","lat":35.60762,"lon":139.49544},{"name":"稲城市役所西側車庫棟","province":"東京都","city":"稲城市","address":"東京都稲城市東長沼2111","lat":35.63795935,"lon":139.50426905},{"name":"稲城市立第四保育園","province":"東京都","city":"稲城市","address":"稲城市大丸607-2","lat":35.646515,"lon":139.49383},{"name":"稲城市立第六保育園","province":"東京都","city":"稲城市","address":"稲城市大丸82-4","lat":35.645288,"lon":139.499535},{"name":"本郷ゆうし保育園","province":"東京都","city":"稲城市","address":"稲城市東長沼2115-2","lat":35.637781,"lon":139.501344},{"name":"向陽台保育園","province":"東京都","city":"稲城市","address":"稲城市向陽台5-8","lat":35.638075,"lon":139.485975},{"name":"城山保育園","province":"東京都","city":"稲城市","address":"稲城市向陽台6-4","lat":35.641674,"lon":139.492689},{"name":"城山保育園南山","province":"東京都","city":"稲城市","address":"稲城市百村1461-1","lat":35.63211,"lon":139.503409},{"name":"メリーポピンズ稲城ルーム","province":"東京都","city":"稲城市","address":"稲城市百村1607番3稲城駅前KMビル2階","lat":35.635588,"lon":139.501478},{"name":"中島ゆうし保育園","province":"東京都","city":"稲城市","address":"稲城市矢野口256","lat":35.642751,"lon":139.519176},{"name":"松葉保育園","province":"東京都","city":"稲城市","address":"稲城市矢野口2065","lat":35.634419,"lon":139.520641},{"name":"もみの木保育園長峰","province":"東京都","city":"稲城市","address":"稲城市長峰2-10","lat":35.630412,"lon":139.482276},{"name":"稲城市立第三保育園","province":"東京都","city":"稲城市","address":"稲城市坂浜1012-2","lat":35.622461,"lon":139.485163},{"name":"稲城市立第五保育園","province":"東京都","city":"稲城市","address":"稲城市平尾1187-3","lat":35.611833,"lon":139.486772},{"name":"ひらお保育園","province":"東京都","city":"稲城市","address":"稲城市平尾3-1-23","lat":35.610358,"lon":139.487294},{"name":"若葉台バオバブ保育園","province":"東京都","city":"稲城市","address":"稲城市若葉台4-17","lat":35.627662,"lon":139.468494},{"name":"もみの木保育園若葉台","province":"東京都","city":"稲城市","address":"稲城市若葉台1-54","lat":35.624385,"lon":139.475483},{"name":"いなぎのぞみ保育園","province":"東京都","city":"稲城市","address":"稲城市大丸593-14","lat":35.64458,"lon":139.47774},{"name":"大丸ゆうし保育園","province":"東京都","city":"稲城市","address":"稲城市大丸82-4","lat":35.64479,"lon":139.49928},{"name":"本郷ゆうし保育園","province":"東京都","city":"稲城市","address":"稲城市東長沼2115-2","lat":35.63477,"lon":139.50426},{"name":"向陽台保育園","province":"東京都","city":"稲城市","address":"稲城市向陽台5-8","lat":35.63799,"lon":139.48604},{"name":"城山保育園","province":"東京都","city":"稲城市","address":"稲城市向陽台6-4","lat":35.64174,"lon":139.49284},{"name":"城山保育園南山","province":"東京都","city":"稲城市","address":"稲城市百村1461-1","lat":35.63356,"lon":139.49852},{"name":"メリーポピンズ稲城ルーム","province":"東京都","city":"稲城市","address":"稲城市百村1607番3稲城駅前KMビル2階","lat":35.63675,"lon":139.49867},{"name":"稲城矢野口雲母保育園","province":"東京都","city":"稲城市","address":"稲城市矢野口1075番地の1","lat":35.64077,"lon":139.51335},{"name":"松葉保育園","province":"東京都","city":"稲城市","address":"稲城市矢野口2065","lat":35.63502,"lon":139.52025},{"name":"中島ゆうし保育園","province":"東京都","city":"稲城市","address":"稲城市矢野口256","lat":35.64306,"lon":139.51859},{"name":"にじいろ保育園矢野口","province":"東京都","city":"稲城市","address":"稲城市矢野口3030-1","lat":35.63386,"lon":139.51416},{"name":"京王キッズプラッツよみうりランド","province":"東京都","city":"稲城市","address":"稲城市矢野口4015番地の1","lat":35.63091,"lon":139.51773},{"name":"もみの木保育園長峰","province":"東京都","city":"稲城市","address":"稲城市長峰2-10","lat":35.63031,"lon":139.48218},{"name":"しおどめ保育園稲城","province":"東京都","city":"稲城市","address":"稲城市坂浜3-33-1","lat":35.6244,"lon":139.48799},{"name":"ひらお保育園","province":"東京都","city":"稲城市","address":"稲城市平尾3-1-23","lat":35.61034,"lon":139.48247},{"name":"稲城市立第五保育園","province":"東京都","city":"稲城市","address":"稲城市平尾4-45-2","lat":35.61374,"lon":139.48317},{"name":"もみの木保育園若葉台","province":"東京都","city":"稲城市","address":"稲城市若葉台1-54","lat":35.62461,"lon":139.47548},{"name":"若葉台バオバブ保育園","province":"東京都","city":"稲城市","address":"稲城市若葉台4-17","lat":35.62765,"lon":139.4689},{"name":"稲城市社会福祉協議会稲城市障害者地域活動支援センター","province":"東京都","city":"稲城市","address":"東京都稲城市百村7","lat":35.63960873,"lon":139.49986077},{"name":"稲城市社会福祉協議会エイトピア工房","province":"東京都","city":"稲城市","address":"東京都稲城市平尾1丁目9-1","lat":35.61385223,"lon":139.4923884},{"name":"わくわく","province":"東京都","city":"稲城市","address":"東京都稲城市大丸60-11","lat":35.64175835,"lon":139.50028834},{"name":"稲城柔道接骨師会デイサービス株式会社","province":"東京都","city":"稲城市","address":"東京都稲城市東長沼1174-7","lat":35.64255842,"lon":139.50369087},{"name":"稲城市立第六保育園","province":"東京都","city":"稲城市","address":"稲城市大丸82-4","lat":35.64479,"lon":139.49928},{"name":"いなぎのぞみ保育園","province":"東京都","city":"稲城市","address":"稲城市大丸593-14","lat":35.64568,"lon":139.495502},{"name":"にじいろ保育園矢野口","province":"東京都","city":"稲城市","address":"稲城市矢野口3030-1","lat":35.635925,"lon":139.508416},{"name":"稲城市立第三保育園","province":"東京都","city":"稲城市","address":"稲城市坂浜1012-2","lat":35.62013,"lon":139.48767},{"name":"稲城市立第五保育園","province":"東京都","city":"稲城市","address":"稲城市平尾4-45-2","lat":35.61173,"lon":139.48526},{"name":"いなぎのぞみ保育園","province":"東京都","city":"稲城市","address":"稲城市大丸593-14","lat":35.64459,"lon":139.47774},{"name":"しおどめ保育園稲城","province":"東京都","city":"稲城市","address":"稲城市坂浜943","lat":35.62441,"lon":139.48799},{"name":"いなぎのぞみ保育園","province":"東京都","city":"稲城市","address":"稲城市大丸593-14","lat":35.64153,"lon":139.49802},{"name":"本郷ゆうし保育園","province":"東京都","city":"稲城市","address":"稲城市東長沼2115-2","lat":35.6487,"lon":139.50085},{"name":"にじいろ保育園矢野口","province":"東京都","city":"稲城市","address":"稲城市矢野口3030-1","lat":35.64457,"lon":139.51242},{"name":"稲城市立第五保育園","province":"東京都","city":"稲城市","address":"稲城市平尾4-45-2","lat":35.60762,"lon":139.49544},{"name":"稲城市役所西側車庫棟","province":"東京都","city":"稲城市","address":"東京都稲城市東長沼2111","lat":35.63795935,"lon":139.50426905},{"name":"稲城市立第四保育園","province":"東京都","city":"稲城市","address":"稲城市大丸607-2","lat":35.646515,"lon":139.49383},{"name":"稲城市立第六保育園","province":"東京都","city":"稲城市","address":"稲城市大丸82-4","lat":35.645288,"lon":139.499535},{"name":"本郷ゆうし保育園","province":"東京都","city":"稲城市","address":"稲城市東長沼2115-2","lat":35.637781,"lon":139.501344},{"name":"向陽台保育園","province":"東京都","city":"稲城市","address":"稲城市向陽台5-8","lat":35.638075,"lon":139.485975},{"name":"城山保育園","province":"東京都","city":"稲城市","address":"稲城市向陽台6-4","lat":35.641674,"lon":139.492689},{"name":"城山保育園南山","province":"東京都","city":"稲城市","address":"稲城市百村1461-1","lat":35.63211,"lon":139.503409},{"name":"メリーポピンズ稲城ルーム","province":"東京都","city":"稲城市","address":"稲城市百村1607番3稲城駅前KMビル2階","lat":35.635588,"lon":139.501478},{"name":"中島ゆうし保育園","province":"東京都","city":"稲城市","address":"稲城市矢野口256","lat":35.642751,"lon":139.519176},{"name":"松葉保育園","province":"東京都","city":"稲城市","address":"稲城市矢野口2065","lat":35.634419,"lon":139.520641},{"name":"もみの木保育園長峰","province":"東京都","city":"稲城市","address":"稲城市長峰2-10","lat":35.630412,"lon":139.482276},{"name":"稲城市立第三保育園","province":"東京都","city":"稲城市","address":"稲城市坂浜1012-2","lat":35.622461,"lon":139.485163},{"name":"稲城市立第五保育園","province":"東京都","city":"稲城市","address":"稲城市平尾1187-3","lat":35.611833,"lon":139.486772},{"name":"ひらお保育園","province":"東京都","city":"稲城市","address":"稲城市平尾3-1-23","lat":35.610358,"lon":139.487294},{"name":"若葉台バオバブ保育園","province":"東京都","city":"稲城市","address":"稲城市若葉台4-17","lat":35.627662,"lon":139.468494},{"name":"もみの木保育園若葉台","province":"東京都","city":"稲城市","address":"稲城市若葉台1-54","lat":35.624385,"lon":139.475483},{"name":"いなぎのぞみ保育園","province":"東京都","city":"稲城市","address":"稲城市大丸593-14","lat":35.64458,"lon":139.47774},{"name":"大丸ゆうし保育園","province":"東京都","city":"稲城市","address":"稲城市大丸82-4","lat":35.64479,"lon":139.49928},{"name":"本郷ゆうし保育園","province":"東京都","city":"稲城市","address":"稲城市東長沼2115-2","lat":35.63477,"lon":139.50426},{"name":"向陽台保育園","province":"東京都","city":"稲城市","address":"稲城市向陽台5-8","lat":35.63799,"lon":139.48604},{"name":"城山保育園","province":"東京都","city":"稲城市","address":"稲城市向陽台6-4","lat":35.64174,"lon":139.49284},{"name":"城山保育園南山","province":"東京都","city":"稲城市","address":"稲城市百村1461-1","lat":35.63356,"lon":139.49852},{"name":"メリーポピンズ稲城ルーム","province":"東京都","city":"稲城市","address":"稲城市百村1607番3稲城駅前KMビル2階","lat":35.63675,"lon":139.49867},{"name":"稲城矢野口雲母保育園","province":"東京都","city":"稲城市","address":"稲城市矢野口1075番地の1","lat":35.64077,"lon":139.51335},{"name":"松葉保育園","province":"東京都","city":"稲城市","address":"稲城市矢野口2065","lat":35.63502,"lon":139.52025},{"name":"中島ゆうし保育園","province":"東京都","city":"稲城市","address":"稲城市矢野口256","lat":35.64306,"lon":139.51859},{"name":"にじいろ保育園矢野口","province":"東京都","city":"稲城市","address":"稲城市矢野口3030-1","lat":35.63386,"lon":139.51416},{"name":"京王キッズプラッツよみうりランド","province":"東京都","city":"稲城市","address":"稲城市矢野口4015番地の1","lat":35.63091,"lon":139.51773},{"name":"もみの木保育園長峰","province":"東京都","city":"稲城市","address":"稲城市長峰2-10","lat":35.63031,"lon":139.48218},{"name":"しおどめ保育園稲城","province":"東京都","city":"稲城市","address":"稲城市坂浜3-33-1","lat":35.6244,"lon":139.48799},{"name":"ひらお保育園","province":"東京都","city":"稲城市","address":"稲城市平尾3-1-23","lat":35.61034,"lon":139.48247},{"name":"稲城市立第五保育園","province":"東京都","city":"稲城市","address":"稲城市平尾4-45-2","lat":35.61374,"lon":139.48317},{"name":"もみの木保育園若葉台","province":"東京都","city":"稲城市","address":"稲城市若葉台1-54","lat":35.62461,"lon":139.47548},{"name":"若葉台バオバブ保育園","province":"東京都","city":"稲城市","address":"稲城市若葉台4-17","lat":35.62765,"lon":139.4689},{"name":"稲城市社会福祉協議会稲城市障害者地域活動支援センター","province":"東京都","city":"稲城市","address":"東京都稲城市百村7","lat":35.63960873,"lon":139.49986077},{"name":"稲城市社会福祉協議会エイトピア工房","province":"東京都","city":"稲城市","address":"東京都稲城市平尾1丁目9-1","lat":35.61385223,"lon":139.4923884},{"name":"わくわく","province":"東京都","city":"稲城市","address":"東京都稲城市大丸60-11","lat":35.64175835,"lon":139.50028834},{"name":"稲城柔道接骨師会デイサービス株式会社","province":"東京都","city":"稲城市","address":"東京都稲城市東長沼1174-7","lat":35.64255842,"lon":139.50369087},{"name":"稲城市立第六保育園","province":"東京都","city":"稲城市","address":"稲城市大丸82-4","lat":35.64479,"lon":139.49928},{"name":"いなぎのぞみ保育園","province":"東京都","city":"稲城市","address":"稲城市大丸593-14","lat":35.64568,"lon":139.495502},{"name":"にじいろ保育園矢野口","province":"東京都","city":"稲城市","address":"稲城市矢野口3030-1","lat":35.635925,"lon":139.508416},{"name":"稲城市立第三保育園","province":"東京都","city":"稲城市","address":"稲城市坂浜1012-2","lat":35.62013,"lon":139.48767},{"name":"稲城市立第五保育園","province":"東京都","city":"稲城市","address":"稲城市平尾4-45-2","lat":35.61173,"lon":139.48526},{"name":"いなぎのぞみ保育園","province":"東京都","city":"稲城市","address":"稲城市大丸593-14","lat":35.64459,"lon":139.47774},{"name":"しおどめ保育園稲城","province":"東京都","city":"稲城市","address":"稲城市坂浜943","lat":35.62441,"lon":139.48799},{"name":"いなぎのぞみ保育園","province":"東京都","city":"稲城市","address":"稲城市大丸593-14","lat":35.64153,"lon":139.49802},{"name":"本郷ゆうし保育園","province":"東京都","city":"稲城市","address":"稲城市東長沼2115-2","lat":35.6487,"lon":139.50085},{"name":"にじいろ保育園矢野口","province":"東京都","city":"稲城市","address":"稲城市矢野口3030-1","lat":35.64457,"lon":139.51242},{"name":"稲城市立第五保育園","province":"東京都","city":"稲城市","address":"稲城市平尾4-45-2","lat":35.60762,"lon":139.49544},{"name":"稲城市立第四保育園","province":"東京都","city":"稲城市","address":"稲城市大丸607-2","lat":35.646515,"lon":139.49383},{"name":"稲城市立第六保育園","province":"東京都","city":"稲城市","address":"稲城市大丸82-4","lat":35.645288,"lon":139.499535},{"name":"本郷ゆうし保育園","province":"東京都","city":"稲城市","address":"稲城市東長沼2115-2","lat":35.637781,"lon":139.501344},{"name":"向陽台保育園","province":"東京都","city":"稲城市","address":"稲城市向陽台5-8","lat":35.638075,"lon":139.485975},{"name":"城山保育園","province":"東京都","city":"稲城市","address":"稲城市向陽台6-4","lat":35.641674,"lon":139.492689},{"name":"城山保育園南山","province":"東京都","city":"稲城市","address":"稲城市百村1461-1","lat":35.63211,"lon":139.503409},{"name":"メリーポピンズ稲城ルーム","province":"東京都","city":"稲城市","address":"稲城市百村1607番3稲城駅前KMビル2階","lat":35.635588,"lon":139.501478},{"name":"中島ゆうし保育園","province":"東京都","city":"稲城市","address":"稲城市矢野口256","lat":35.642751,"lon":139.519176},{"name":"松葉保育園","province":"東京都","city":"稲城市","address":"稲城市矢野口2065","lat":35.634419,"lon":139.520641},{"name":"もみの木保育園長峰","province":"東京都","city":"稲城市","address":"稲城市長峰2-10","lat":35.630412,"lon":139.482276},{"name":"稲城市立第三保育園","province":"東京都","city":"稲城市","address":"稲城市坂浜1012-2","lat":35.622461,"lon":139.485163},{"name":"稲城市立第五保育園","province":"東京都","city":"稲城市","address":"稲城市平尾1187-3","lat":35.611833,"lon":139.486772},{"name":"ひらお保育園","province":"東京都","city":"稲城市","address":"稲城市平尾3-1-23","lat":35.610358,"lon":139.487294},{"name":"若葉台バオバブ保育園","province":"東京都","city":"稲城市","address":"稲城市若葉台4-17","lat":35.627662,"lon":139.468494},{"name":"もみの木保育園若葉台","province":"東京都","city":"稲城市","address":"稲城市若葉台1-54","lat":35.624385,"lon":139.475483},{"name":"いなぎのぞみ保育園","province":"東京都","city":"稲城市","address":"稲城市大丸593-14","lat":35.64458,"lon":139.47774},{"name":"大丸ゆうし保育園","province":"東京都","city":"稲城市","address":"稲城市大丸82-4","lat":35.64479,"lon":139.49928},{"name":"本郷ゆうし保育園","province":"東京都","city":"稲城市","address":"稲城市東長沼2115-2","lat":35.63477,"lon":139.50426},{"name":"向陽台保育園","province":"東京都","city":"稲城市","address":"稲城市向陽台5-8","lat":35.63799,"lon":139.48604},{"name":"城山保育園","province":"東京都","city":"稲城市","address":"稲城市向陽台6-4","lat":35.64174,"lon":139.49284},{"name":"城山保育園南山","province":"東京都","city":"稲城市","address":"稲城市百村1461-1","lat":35.63356,"lon":139.49852},{"name":"メリーポピンズ稲城ルーム","province":"東京都","city":"稲城市","address":"稲城市百村1607番3稲城駅前KMビル2階","lat":35.63675,"lon":139.49867},{"name":"稲城矢野口雲母保育園","province":"東京都","city":"稲城市","address":"稲城市矢野口1075番地の1","lat":35.64077,"lon":139.51335},{"name":"松葉保育園","province":"東京都","city":"稲城市","address":"稲城市矢野口2065","lat":35.63502,"lon":139.52025},{"name":"中島ゆうし保育園","province":"東京都","city":"稲城市","address":"稲城市矢野口256","lat":35.64306,"lon":139.51859},{"name":"にじいろ保育園矢野口","province":"東京都","city":"稲城市","address":"稲城市矢野口3030-1","lat":35.63386,"lon":139.51416},{"name":"京王キッズプラッツよみうりランド","province":"東京都","city":"稲城市","address":"稲城市矢野口4015番地の1","lat":35.63091,"lon":139.51773},{"name":"もみの木保育園長峰","province":"東京都","city":"稲城市","address":"稲城市長峰2-10","lat":35.63031,"lon":139.48218},{"name":"しおどめ保育園稲城","province":"東京都","city":"稲城市","address":"稲城市坂浜3-33-1","lat":35.6244,"lon":139.48799},{"name":"ひらお保育園","province":"東京都","city":"稲城市","address":"稲城市平尾3-1-23","lat":35.61034,"lon":139.48247},{"name":"稲城市立第五保育園","province":"東京都","city":"稲城市","address":"稲城市平尾4-45-2","lat":35.61374,"lon":139.48317},{"name":"もみの木保育園若葉台","province":"東京都","city":"稲城市","address":"稲城市若葉台1-54","lat":35.62461,"lon":139.47548},{"name":"若葉台バオバブ保育園","province":"東京都","city":"稲城市","address":"稲城市若葉台4-17","lat":35.62765,"lon":139.4689},{"name":"稲城市社会福祉協議会稲城市障害者地域活動支援センター","province":"東京都","city":"稲城市","address":"東京都稲城市百村7","lat":35.63960873,"lon":139.49986077},{"name":"稲城市社会福祉協議会エイトピア工房","province":"東京都","city":"稲城市","address":"東京都稲城市平尾1丁目9-1","lat":35.61385223,"lon":139.4923884},{"name":"わくわく","province":"東京都","city":"稲城市","address":"東京都稲城市大丸60-11","lat":35.64175835,"lon":139.50028834},{"name":"稲城柔道接骨師会デイサービス株式会社","province":"東京都","city":"稲城市","address":"東京都稲城市東長沼1174-7","lat":35.64255842,"lon":139.50369087},{"name":"稲城市立第六保育園","province":"東京都","city":"稲城市","address":"稲城市大丸82-4","lat":35.64479,"lon":139.49928},{"name":"いなぎのぞみ保育園","province":"東京都","city":"稲城市","address":"稲城市大丸593-14","lat":35.64568,"lon":139.495502},{"name":"にじいろ保育園矢野口","province":"東京都","city":"稲城市","address":"稲城市矢野口3030-1","lat":35.635925,"lon":139.508416},{"name":"稲城市立第三保育園","province":"東京都","city":"稲城市","address":"稲城市坂浜1012-2","lat":35.62013,"lon":139.48767},{"name":"稲城市立第五保育園","province":"東京都","city":"稲城市","address":"稲城市平尾4-45-2","lat":35.61173,"lon":139.48526},{"name":"いなぎのぞみ保育園","province":"東京都","city":"稲城市","address":"稲城市大丸593-14","lat":35.64459,"lon":139.47774},{"name":"しおどめ保育園稲城","province":"東京都","city":"稲城市","address":"稲城市坂浜943","lat":35.62441,"lon":139.48799},{"name":"いなぎのぞみ保育園","province":"東京都","city":"稲城市","address":"稲城市大丸593-14","lat":35.64153,"lon":139.49802},{"name":"本郷ゆうし保育園","province":"東京都","city":"稲城市","address":"稲城市東長沼2115-2","lat":35.6487,"lon":139.50085},{"name":"にじいろ保育園矢野口","province":"東京都","city":"稲城市","address":"稲城市矢野口3030-1","lat":35.64457,"lon":139.51242},{"name":"稲城市立第五保育園","province":"東京都","city":"稲城市","address":"稲城市平尾4-45-2","lat":35.60762,"lon":139.49544},{"name":"稲城市立第四保育園","province":"東京都","city":"稲城市","address":"稲城市大丸607-2","lat":35.646515,"lon":139.49383},{"name":"稲城市立第六保育園","province":"東京都","city":"稲城市","address":"稲城市大丸82-4","lat":35.645288,"lon":139.499535},{"name":"本郷ゆうし保育園","province":"東京都","city":"稲城市","address":"稲城市東長沼2115-2","lat":35.637781,"lon":139.501344},{"name":"向陽台保育園","province":"東京都","city":"稲城市","address":"稲城市向陽台5-8","lat":35.638075,"lon":139.485975},{"name":"城山保育園","province":"東京都","city":"稲城市","address":"稲城市向陽台6-4","lat":35.641674,"lon":139.492689},{"name":"城山保育園南山","province":"東京都","city":"稲城市","address":"稲城市百村1461-1","lat":35.63211,"lon":139.503409},{"name":"メリーポピンズ稲城ルーム","province":"東京都","city":"稲城市","address":"稲城市百村1607番3稲城駅前KMビル2階","lat":35.635588,"lon":139.501478},{"name":"中島ゆうし保育園","province":"東京都","city":"稲城市","address":"稲城市矢野口256","lat":35.642751,"lon":139.519176},{"name":"松葉保育園","province":"東京都","city":"稲城市","address":"稲城市矢野口2065","lat":35.634419,"lon":139.520641},{"name":"もみの木保育園長峰","province":"東京都","city":"稲城市","address":"稲城市長峰2-10","lat":35.630412,"lon":139.482276},{"name":"稲城市立第三保育園","province":"東京都","city":"稲城市","address":"稲城市坂浜1012-2","lat":35.622461,"lon":139.485163},{"name":"稲城市立第五保育園","province":"東京都","city":"稲城市","address":"稲城市平尾1187-3","lat":35.611833,"lon":139.486772},{"name":"ひらお保育園","province":"東京都","city":"稲城市","address":"稲城市平尾3-1-23","lat":35.610358,"lon":139.487294},{"name":"若葉台バオバブ保育園","province":"東京都","city":"稲城市","address":"稲城市若葉台4-17","lat":35.627662,"lon":139.468494},{"name":"もみの木保育園若葉台","province":"東京都","city":"稲城市","address":"稲城市若葉台1-54","lat":35.624385,"lon":139.475483},{"name":"稲城市社会福祉協議会稲城市障害者地域活動支援センター","province":"東京都","city":"稲城市","address":"東京都稲城市百村7","lat":35.63960873,"lon":139.49986077},{"name":"稲城市社会福祉協議会エイトピア工房","province":"東京都","city":"稲城市","address":"東京都稲城市平尾1丁目9-1","lat":35.61385223,"lon":139.4923884},{"name":"わくわく","province":"東京都","city":"稲城市","address":"東京都稲城市大丸60-11","lat":35.64175835,"lon":139.50028834},{"name":"稲城柔道接骨師会デイサービス株式会社","province":"東京都","city":"稲城市","address":"東京都稲城市東長沼1174-7","lat":35.64255842,"lon":139.50369087},{"name":"稲城市立第四保育園","province":"東京都","city":"稲城市","address":"稲城市大丸607-2","lat":35.646515,"lon":139.49383},{"name":"稲城市立第六保育園","province":"東京都","city":"稲城市","address":"稲城市大丸82-4","lat":35.645288,"lon":139.499535},{"name":"本郷ゆうし保育園","province":"東京都","city":"稲城市","address":"稲城市東長沼2115-2","lat":35.637781,"lon":139.501344},{"name":"向陽台保育園","province":"東京都","city":"稲城市","address":"稲城市向陽台5-8","lat":35.638075,"lon":139.485975},{"name":"城山保育園","province":"東京都","city":"稲城市","address":"稲城市向陽台6-4","lat":35.641674,"lon":139.492689},{"name":"城山保育園南山","province":"東京都","city":"稲城市","address":"稲城市百村1461-1","lat":35.63211,"lon":139.503409},{"name":"メリーポピンズ稲城ルーム","province":"東京都","city":"稲城市","address":"稲城市百村1607番3稲城駅前KMビル2階","lat":35.635588,"lon":139.501478},{"name":"中島ゆうし保育園","province":"東京都","city":"稲城市","address":"稲城市矢野口256","lat":35.642751,"lon":139.519176},{"name":"松葉保育園","province":"東京都","city":"稲城市","address":"稲城市矢野口2065","lat":35.634419,"lon":139.520641},{"name":"もみの木保育園長峰","province":"東京都","city":"稲城市","address":"稲城市長峰2-10","lat":35.630412,"lon":139.482276},{"name":"稲城市立第三保育園","province":"東京都","city":"稲城市","address":"稲城市坂浜1012-2","lat":35.622461,"lon":139.485163},{"name":"稲城市立第五保育園","province":"東京都","city":"稲城市","address":"稲城市平尾1187-3","lat":35.611833,"lon":139.486772},{"name":"ひらお保育園","province":"東京都","city":"稲城市","address":"稲城市平尾3-1-23","lat":35.610358,"lon":139.487294},{"name":"若葉台バオバブ保育園","province":"東京都","city":"稲城市","address":"稲城市若葉台4-17","lat":35.627662,"lon":139.468494},{"name":"もみの木保育園若葉台","province":"東京都","city":"稲城市","address":"稲城市若葉台1-54","lat":35.624385,"lon":139.475483},{"name":"稲城市立第四保育園","province":"東京都","city":"稲城市","address":"稲城市大丸607-2","lat":35.646515,"lon":139.49383},{"name":"稲城市立第六保育園","province":"東京都","city":"稲城市","address":"稲城市大丸82-4","lat":35.645288,"lon":139.499535},{"name":"本郷ゆうし保育園","province":"東京都","city":"稲城市","address":"稲城市東長沼2115-2","lat":35.637781,"lon":139.501344},{"name":"向陽台保育園","province":"東京都","city":"稲城市","address":"稲城市向陽台5-8","lat":35.638075,"lon":139.485975},{"name":"城山保育園","province":"東京都","city":"稲城市","address":"稲城市向陽台6-4","lat":35.641674,"lon":139.492689},{"name":"城山保育園南山","province":"東京都","city":"稲城市","address":"稲城市百村1461-1","lat":35.63211,"lon":139.503409},{"name":"メリーポピンズ稲城ルーム","province":"東京都","city":"稲城市","address":"稲城市百村1607番3稲城駅前KMビル2階","lat":35.635588,"lon":139.501478},{"name":"中島ゆうし保育園","province":"東京都","city":"稲城市","address":"稲城市矢野口256","lat":35.642751,"lon":139.519176},{"name":"松葉保育園","province":"東京都","city":"稲城市","address":"稲城市矢野口2065","lat":35.634419,"lon":139.520641},{"name":"もみの木保育園長峰","province":"東京都","city":"稲城市","address":"稲城市長峰2-10","lat":35.630412,"lon":139.482276},{"name":"稲城市立第三保育園","province":"東京都","city":"稲城市","address":"稲城市坂浜1012-2","lat":35.622461,"lon":139.485163},{"name":"稲城市立第五保育園","province":"東京都","city":"稲城市","address":"稲城市平尾1187-3","lat":35.611833,"lon":139.486772},{"name":"ひらお保育園","province":"東京都","city":"稲城市","address":"稲城市平尾3-1-23","lat":35.610358,"lon":139.487294},{"name":"若葉台バオバブ保育園","province":"東京都","city":"稲城市","address":"稲城市若葉台4-17","lat":35.627662,"lon":139.468494},{"name":"もみの木保育園若葉台","province":"東京都","city":"稲城市","address":"稲城市若葉台1-54","lat":35.624385,"lon":139.475483},{"name":"稲城市立第四保育園","province":"東京都","city":"稲城市","address":"稲城市大丸607-2","lat":35.646515,"lon":139.49383},{"name":"稲城市立第六保育園","province":"東京都","city":"稲城市","address":"稲城市大丸82-4","lat":35.645288,"lon":139.499535},{"name":"本郷ゆうし保育園","province":"東京都","city":"稲城市","address":"稲城市東長沼2115-2","lat":35.637781,"lon":139.501344},{"name":"向陽台保育園","province":"東京都","city":"稲城市","address":"稲城市向陽台5-8","lat":35.638075,"lon":139.485975},{"name":"城山保育園","province":"東京都","city":"稲城市","address":"稲城市向陽台6-4","lat":35.641674,"lon":139.492689},{"name":"城山保育園南山","province":"東京都","city":"稲城市","address":"稲城市百村1461-1","lat":35.63211,"lon":139.503409},{"name":"メリーポピンズ稲城ルーム","province":"東京都","city":"稲城市","address":"稲城市百村1607番3稲城駅前KMビル2階","lat":35.635588,"lon":139.501478},{"name":"中島ゆうし保育園","province":"東京都","city":"稲城市","address":"稲城市矢野口256","lat":35.642751,"lon":139.519176},{"name":"松葉保育園","province":"東京都","city":"稲城市","address":"稲城市矢野口2065","lat":35.634419,"lon":139.520641},{"name":"もみの木保育園長峰","province":"東京都","city":"稲城市","address":"稲城市長峰2-10","lat":35.630412,"lon":139.482276},{"name":"稲城市立第三保育園","province":"東京都","city":"稲城市","address":"稲城市坂浜1012-2","lat":35.622461,"lon":139.485163},{"name":"稲城市立第五保育園","province":"東京都","city":"稲城市","address":"稲城市平尾1187-3","lat":35.611833,"lon":139.486772},{"name":"ひらお保育園","province":"東京都","city":"稲城市","address":"稲城市平尾3-1-23","lat":35.610358,"lon":139.487294},{"name":"若葉台バオバブ保育園","province":"東京都","city":"稲城市","address":"稲城市若葉台4-17","lat":35.627662,"lon":139.468494},{"name":"もみの木保育園若葉台","province":"東京都","city":"稲城市","address":"稲城市若葉台1-54","lat":35.624385,"lon":139.475483},{"name":"稲城市立第四保育園","province":"東京都","city":"稲城市","address":"稲城市大丸607-2","lat":35.646515,"lon":139.49383},{"name":"稲城市立第六保育園","province":"東京都","city":"稲城市","address":"稲城市大丸82-4","lat":35.645288,"lon":139.499535},{"name":"本郷ゆうし保育園","province":"東京都","city":"稲城市","address":"稲城市東長沼2115-2","lat":35.637781,"lon":139.501344},{"name":"向陽台保育園","province":"東京都","city":"稲城市","address":"稲城市向陽台5-8","lat":35.638075,"lon":139.485975},{"name":"城山保育園","province":"東京都","city":"稲城市","address":"稲城市向陽台6-4","lat":35.641674,"lon":139.492689},{"name":"城山保育園南山","province":"東京都","city":"稲城市","address":"稲城市百村1461-1","lat":35.63211,"lon":139.503409},{"name":"メリーポピンズ稲城ルーム","province":"東京都","city":"稲城市","address":"稲城市百村1607番3稲城駅前KMビル2階","lat":35.635588,"lon":139.501478},{"name":"中島ゆうし保育園","province":"東京都","city":"稲城市","address":"稲城市矢野口256","lat":35.642751,"lon":139.519176},{"name":"松葉保育園","province":"東京都","city":"稲城市","address":"稲城市矢野口2065","lat":35.634419,"lon":139.520641},{"name":"もみの木保育園長峰","province":"東京都","city":"稲城市","address":"稲城市長峰2-10","lat":35.630412,"lon":139.482276},{"name":"稲城市立第三保育園","province":"東京都","city":"稲城市","address":"稲城市坂浜1012-2","lat":35.622461,"lon":139.485163},{"name":"稲城市立第五保育園","province":"東京都","city":"稲城市","address":"稲城市平尾1187-3","lat":35.611833,"lon":139.486772},{"name":"ひらお保育園","province":"東京都","city":"稲城市","address":"稲城市平尾3-1-23","lat":35.610358,"lon":139.487294},{"name":"若葉台バオバブ保育園","province":"東京都","city":"稲城市","address":"稲城市若葉台4-17","lat":35.627662,"lon":139.468494},{"name":"もみの木保育園若葉台","province":"東京都","city":"稲城市","address":"稲城市若葉台1-54","lat":35.624385,"lon":139.475483},{"name":"稲城市立第四保育園","province":"東京都","city":"稲城市","address":"稲城市大丸607-2","lat":35.646515,"lon":139.49383},{"name":"稲城市立第六保育園","province":"東京都","city":"稲城市","address":"稲城市大丸82-4","lat":35.645288,"lon":139.499535},{"name":"本郷ゆうし保育園","province":"東京都","city":"稲城市","address":"稲城市東長沼2115-2","lat":35.637781,"lon":139.501344},{"name":"向陽台保育園","province":"東京都","city":"稲城市","address":"稲城市向陽台5-8","lat":35.638075,"lon":139.485975},{"name":"城山保育園","province":"東京都","city":"稲城市","address":"稲城市向陽台6-4","lat":35.641674,"lon":139.492689},{"name":"城山保育園南山","province":"東京都","city":"稲城市","address":"稲城市百村1461-1","lat":35.63211,"lon":139.503409},{"name":"メリーポピンズ稲城ルーム","province":"東京都","city":"稲城市","address":"稲城市百村1607番3稲城駅前KMビル2階","lat":35.635588,"lon":139.501478},{"name":"中島ゆうし保育園","province":"東京都","city":"稲城市","address":"稲城市矢野口256","lat":35.642751,"lon":139.519176},{"name":"松葉保育園","province":"東京都","city":"稲城市","address":"稲城市矢野口2065","lat":35.634419,"lon":139.520641},{"name":"もみの木保育園長峰","province":"東京都","city":"稲城市","address":"稲城市長峰2-10","lat":35.630412,"lon":139.482276},{"name":"稲城市立第三保育園","province":"東京都","city":"稲城市","address":"稲城市坂浜1012-2","lat":35.622461,"lon":139.485163},{"name":"稲城市立第五保育園","province":"東京都","city":"稲城市","address":"稲城市平尾1187-3","lat":35.611833,"lon":139.486772},{"name":"ひらお保育園","province":"東京都","city":"稲城市","address":"稲城市平尾3-1-23","lat":35.610358,"lon":139.487294},{"name":"若葉台バオバブ保育園","province":"東京都","city":"稲城市","address":"稲城市若葉台4-17","lat":35.627662,"lon":139.468494},{"name":"もみの木保育園若葉台","province":"東京都","city":"稲城市","address":"稲城市若葉台1-54","lat":35.624385,"lon":139.475483},{"name":"稲城市立第四保育園","province":"東京都","city":"稲城市","address":"稲城市大丸607-2","lat":35.646515,"lon":139.49383},{"name":"稲城市立第六保育園","province":"東京都","city":"稲城市","address":"稲城市大丸82-4","lat":35.645288,"lon":139.499535},{"name":"本郷ゆうし保育園","province":"東京都","city":"稲城市","address":"稲城市東長沼2115-2","lat":35.637781,"lon":139.501344},{"name":"向陽台保育園","province":"東京都","city":"稲城市","address":"稲城市向陽台5-8","lat":35.638075,"lon":139.485975},{"name":"城山保育園","province":"東京都","city":"稲城市","address":"稲城市向陽台6-4","lat":35.641674,"lon":139.492689},{"name":"城山保育園南山","province":"東京都","city":"稲城市","address":"稲城市百村1461-1","lat":35.63211,"lon":139.503409},{"name":"メリーポピンズ稲城ルーム","province":"東京都","city":"稲城市","address":"稲城市百村1607番3稲城駅前KMビル2階","lat":35.635588,"lon":139.501478},{"name":"中島ゆうし保育園","province":"東京都","city":"稲城市","address":"稲城市矢野口256","lat":35.642751,"lon":139.519176},{"name":"松葉保育園","province":"東京都","city":"稲城市","address":"稲城市矢野口2065","lat":35.634419,"lon":139.520641},{"name":"もみの木保育園長峰","province":"東京都","city":"稲城市","address":"稲城市長峰2-10","lat":35.630412,"lon":139.482276},{"name":"稲城市立第三保育園","province":"東京都","city":"稲城市","address":"稲城市坂浜1012-2","lat":35.622461,"lon":139.485163},{"name":"稲城市立第五保育園","province":"東京都","city":"稲城市","address":"稲城市平尾1187-3","lat":35.611833,"lon":139.486772},{"name":"ひらお保育園","province":"東京都","city":"稲城市","address":"稲城市平尾3-1-23","lat":35.610358,"lon":139.487294},{"name":"若葉台バオバブ保育園","province":"東京都","city":"稲城市","address":"稲城市若葉台4-17","lat":35.627662,"lon":139.468494},{"name":"もみの木保育園若葉台","province":"東京都","city":"稲城市","address":"稲城市若葉台1-54","lat":35.624385,"lon":139.475483},{"name":"稲城市立第四保育園","province":"東京都","city":"稲城市","address":"稲城市大丸607-2","lat":35.646515,"lon":139.49383},{"name":"稲城市立第六保育園","province":"東京都","city":"稲城市","address":"稲城市大丸82-4","lat":35.645288,"lon":139.499535},{"name":"本郷ゆうし保育園","province":"東京都","city":"稲城市","address":"稲城市東長沼2115-2","lat":35.637781,"lon":139.501344},{"name":"向陽台保育園","province":"東京都","city":"稲城市","address":"稲城市向陽台5-8","lat":35.638075,"lon":139.485975},{"name":"城山保育園","province":"東京都","city":"稲城市","address":"稲城市向陽台6-4","lat":35.641674,"lon":139.492689},{"name":"城山保育園南山","province":"東京都","city":"稲城市","address":"稲城市百村1461-1","lat":35.63211,"lon":139.503409},{"name":"メリーポピンズ稲城ルーム","province":"東京都","city":"稲城市","address":"稲城市百村1607番3稲城駅前KMビル2階","lat":35.635588,"lon":139.501478},{"name":"中島ゆうし保育園","province":"東京都","city":"稲城市","address":"稲城市矢野口256","lat":35.642751,"lon":139.519176},{"name":"松葉保育園","province":"東京都","city":"稲城市","address":"稲城市矢野口2065","lat":35.634419,"lon":139.520641},{"name":"もみの木保育園長峰","province":"東京都","city":"稲城市","address":"稲城市長峰2-10","lat":35.630412,"lon":139.482276},{"name":"稲城市立第三保育園","province":"東京都","city":"稲城市","address":"稲城市坂浜1012-2","lat":35.622461,"lon":139.485163},{"name":"稲城市立第五保育園","province":"東京都","city":"稲城市","address":"稲城市平尾1187-3","lat":35.611833,"lon":139.486772},{"name":"ひらお保育園","province":"東京都","city":"稲城市","address":"稲城市平尾3-1-23","lat":35.610358,"lon":139.487294},{"name":"若葉台バオバブ保育園","province":"東京都","city":"稲城市","address":"稲城市若葉台4-17","lat":35.627662,"lon":139.468494},{"name":"もみの木保育園若葉台","province":"東京都","city":"稲城市","address":"稲城市若葉台1-54","lat":35.624385,"lon":139.475483},{"name":"稲城市立第四保育園","province":"東京都","city":"稲城市","address":"稲城市大丸607-2","lat":35.646515,"lon":139.49383},{"name":"稲城市立第六保育園","province":"東京都","city":"稲城市","address":"稲城市大丸82-4","lat":35.645288,"lon":139.499535},{"name":"本郷ゆうし保育園","province":"東京都","city":"稲城市","address":"稲城市東長沼2115-2","lat":35.637781,"lon":139.501344},{"name":"向陽台保育園","province":"東京都","city":"稲城市","address":"稲城市向陽台5-8","lat":35.638075,"lon":139.485975},{"name":"城山保育園","province":"東京都","city":"稲城市","address":"稲城市向陽台6-4","lat":35.641674,"lon":139.492689},{"name":"城山保育園南山","province":"東京都","city":"稲城市","address":"稲城市百村1461-1","lat":35.63211,"lon":139.503409},{"name":"メリーポピンズ稲城ルーム","province":"東京都","city":"稲城市","address":"稲城市百村1607番3稲城駅前KMビル2階","lat":35.635588,"lon":139.501478},{"name":"中島ゆうし保育園","province":"東京都","city":"稲城市","address":"稲城市矢野口256","lat":35.642751,"lon":139.519176},{"name":"松葉保育園","province":"東京都","city":"稲城市","address":"稲城市矢野口2065","lat":35.634419,"lon":139.520641},{"name":"もみの木保育園長峰","province":"東京都","city":"稲城市","address":"稲城市長峰2-10","lat":35.630412,"lon":139.482276},{"name":"稲城市立第三保育園","province":"東京都","city":"稲城市","address":"稲城市坂浜1012-2","lat":35.622461,"lon":139.485163},{"name":"稲城市立第五保育園","province":"東京都","city":"稲城市","address":"稲城市平尾1187-3","lat":35.611833,"lon":139.486772},{"name":"ひらお保育園","province":"東京都","city":"稲城市","address":"稲城市平尾3-1-23","lat":35.610358,"lon":139.487294},{"name":"若葉台バオバブ保育園","province":"東京都","city":"稲城市","address":"稲城市若葉台4-17","lat":35.627662,"lon":139.468494},{"name":"もみの木保育園若葉台","province":"東京都","city":"稲城市","address":"稲城市若葉台1-54","lat":35.624385,"lon":139.475483},{"name":"稲城市立第四保育園","province":"東京都","city":"稲城市","address":"稲城市大丸607-2","lat":35.646515,"lon":139.49383},{"name":"稲城市立第六保育園","province":"東京都","city":"稲城市","address":"稲城市大丸82-4","lat":35.645288,"lon":139.499535},{"name":"本郷ゆうし保育園","province":"東京都","city":"稲城市","address":"稲城市東長沼2115-2","lat":35.637781,"lon":139.501344},{"name":"向陽台保育園","province":"東京都","city":"稲城市","address":"稲城市向陽台5-8","lat":35.638075,"lon":139.485975},{"name":"城山保育園","province":"東京都","city":"稲城市","address":"稲城市向陽台6-4","lat":35.641674,"lon":139.492689},{"name":"城山保育園南山","province":"東京都","city":"稲城市","address":"稲城市百村1461-1","lat":35.63211,"lon":139.503409},{"name":"メリーポピンズ稲城ルーム","province":"東京都","city":"稲城市","address":"稲城市百村1607番3稲城駅前KMビル2階","lat":35.635588,"lon":139.501478},{"name":"中島ゆうし保育園","province":"東京都","city":"稲城市","address":"稲城市矢野口256","lat":35.642751,"lon":139.519176},{"name":"松葉保育園","province":"東京都","city":"稲城市","address":"稲城市矢野口2065","lat":35.634419,"lon":139.520641},{"name":"もみの木保育園長峰","province":"東京都","city":"稲城市","address":"稲城市長峰2-10","lat":35.630412,"lon":139.482276},{"name":"稲城市立第三保育園","province":"東京都","city":"稲城市","address":"稲城市坂浜1012-2","lat":35.622461,"lon":139.485163},{"name":"稲城市立第五保育園","province":"東京都","city":"稲城市","address":"稲城市平尾1187-3","lat":35.611833,"lon":139.486772},{"name":"ひらお保育園","province":"東京都","city":"稲城市","address":"稲城市平尾3-1-23","lat":35.610358,"lon":139.487294},{"name":"若葉台バオバブ保育園","province":"東京都","city":"稲城市","address":"稲城市若葉台4-17","lat":35.627662,"lon":139.468494},{"name":"もみの木保育園若葉台","province":"東京都","city":"稲城市","address":"稲城市若葉台1-54","lat":35.624385,"lon":139.475483},{"name":"稲城市立第四保育園","province":"東京都","city":"稲城市","address":"稲城市大丸607-2","lat":35.646515,"lon":139.49383},{"name":"稲城市立第六保育園","province":"東京都","city":"稲城市","address":"稲城市大丸82-4","lat":35.645288,"lon":139.499535},{"name":"本郷ゆうし保育園","province":"東京都","city":"稲城市","address":"稲城市東長沼2115-2","lat":35.637781,"lon":139.501344},{"name":"向陽台保育園","province":"東京都","city":"稲城市","address":"稲城市向陽台5-8","lat":35.638075,"lon":139.485975},{"name":"城山保育園","province":"東京都","city":"稲城市","address":"稲城市向陽台6-4","lat":35.641674,"lon":139.492689},{"name":"城山保育園南山","province":"東京都","city":"稲城市","address":"稲城市百村1461-1","lat":35.63211,"lon":139.503409},{"name":"メリーポピンズ稲城ルーム","province":"東京都","city":"稲城市","address":"稲城市百村1607番3稲城駅前KMビル2階","lat":35.635588,"lon":139.501478},{"name":"中島ゆうし保育園","province":"東京都","city":"稲城市","address":"稲城市矢野口256","lat":35.642751,"lon":139.519176},{"name":"松葉保育園","province":"東京都","city":"稲城市","address":"稲城市矢野口2065","lat":35.634419,"lon":139.520641},{"name":"もみの木保育園長峰","province":"東京都","city":"稲城市","address":"稲城市長峰2-10","lat":35.630412,"lon":139.482276},{"name":"稲城市立第三保育園","province":"東京都","city":"稲城市","address":"稲城市坂浜1012-2","lat":35.622461,"lon":139.485163},{"name":"稲城市立第五保育園","province":"東京都","city":"稲城市","address":"稲城市平尾1187-3","lat":35.611833,"lon":139.486772},{"name":"ひらお保育園","province":"東京都","city":"稲城市","address":"稲城市平尾3-1-23","lat":35.610358,"lon":139.487294},{"name":"若葉台バオバブ保育園","province":"東京都","city":"稲城市","address":"稲城市若葉台4-17","lat":35.627662,"lon":139.468494},{"name":"もみの木保育園若葉台","province":"東京都","city":"稲城市","address":"稲城市若葉台1-54","lat":35.624385,"lon":139.475483},{"name":"稲城市立第四保育園","province":"東京都","city":"稲城市","address":"稲城市大丸607-2","lat":35.646515,"lon":139.49383},{"name":"稲城市立第六保育園","province":"東京都","city":"稲城市","address":"稲城市大丸82-4","lat":35.645288,"lon":139.499535},{"name":"本郷ゆうし保育園","province":"東京都","city":"稲城市","address":"稲城市東長沼2115-2","lat":35.637781,"lon":139.501344},{"name":"向陽台保育園","province":"東京都","city":"稲城市","address":"稲城市向陽台5-8","lat":35.638075,"lon":139.485975},{"name":"城山保育園","province":"東京都","city":"稲城市","address":"稲城市向陽台6-4","lat":35.641674,"lon":139.492689},{"name":"城山保育園南山","province":"東京都","city":"稲城市","address":"稲城市百村1461-1","lat":35.63211,"lon":139.503409},{"name":"メリーポピンズ稲城ルーム","province":"東京都","city":"稲城市","address":"稲城市百村1607番3稲城駅前KMビル2階","lat":35.635588,"lon":139.501478},{"name":"中島ゆうし保育園","province":"東京都","city":"稲城市","address":"稲城市矢野口256","lat":35.642751,"lon":139.519176},{"name":"松葉保育園","province":"東京都","city":"稲城市","address":"稲城市矢野口2065","lat":35.634419,"lon":139.520641},{"name":"もみの木保育園長峰","province":"東京都","city":"稲城市","address":"稲城市長峰2-10","lat":35.630412,"lon":139.482276},{"name":"稲城市立第三保育園","province":"東京都","city":"稲城市","address":"稲城市坂浜1012-2","lat":35.622461,"lon":139.485163},{"name":"稲城市立第五保育園","province":"東京都","city":"稲城市","address":"稲城市平尾1187-3","lat":35.611833,"lon":139.486772},{"name":"ひらお保育園","province":"東京都","city":"稲城市","address":"稲城市平尾3-1-23","lat":35.610358,"lon":139.487294},{"name":"若葉台バオバブ保育園","province":"東京都","city":"稲城市","address":"稲城市若葉台4-17","lat":35.627662,"lon":139.468494},{"name":"もみの木保育園若葉台","province":"東京都","city":"稲城市","address":"稲城市若葉台1-54","lat":35.624385,"lon":139.475483},{"name":"稲城市立第四保育園","province":"東京都","city":"稲城市","address":"稲城市大丸607-2","lat":35.646515,"lon":139.49383},{"name":"稲城市立第六保育園","province":"東京都","city":"稲城市","address":"稲城市大丸82-4","lat":35.645288,"lon":139.499535},{"name":"本郷ゆうし保育園","province":"東京都","city":"稲城市","address":"稲城市東長沼2115-2","lat":35.637781,"lon":139.501344},{"name":"向陽台保育園","province":"東京都","city":"稲城市","address":"稲城市向陽台5-8","lat":35.638075,"lon":139.485975},{"name":"城山保育園","province":"東京都","city":"稲城市","address":"稲城市向陽台6-4","lat":35.641674,"lon":139.492689},{"name":"城山保育園南山","province":"東京都","city":"稲城市","address":"稲城市百村1461-1","lat":35.63211,"lon":139.503409},{"name":"メリーポピンズ稲城ルーム","province":"東京都","city":"稲城市","address":"稲城市百村1607番3稲城駅前KMビル2階","lat":35.635588,"lon":139.501478},{"name":"中島ゆうし保育園","province":"東京都","city":"稲城市","address":"稲城市矢野口256","lat":35.642751,"lon":139.519176},{"name":"松葉保育園","province":"東京都","city":"稲城市","address":"稲城市矢野口2065","lat":35.634419,"lon":139.520641},{"name":"もみの木保育園長峰","province":"東京都","city":"稲城市","address":"稲城市長峰2-10","lat":35.630412,"lon":139.482276},{"name":"稲城市立第三保育園","province":"東京都","city":"稲城市","address":"稲城市坂浜1012-2","lat":35.622461,"lon":139.485163},{"name":"稲城市立第五保育園","province":"東京都","city":"稲城市","address":"稲城市平尾1187-3","lat":35.611833,"lon":139.486772},{"name":"ひらお保育園","province":"東京都","city":"稲城市","address":"稲城市平尾3-1-23","lat":35.610358,"lon":139.487294},{"name":"若葉台バオバブ保育園","province":"東京都","city":"稲城市","address":"稲城市若葉台4-17","lat":35.627662,"lon":139.468494},{"name":"もみの木保育園若葉台","province":"東京都","city":"稲城市","address":"稲城市若葉台1-54","lat":35.624385,"lon":139.475483},{"name":"稲城市立第四保育園","province":"東京都","city":"稲城市","address":"稲城市大丸607-2","lat":35.646515,"lon":139.49383},{"name":"稲城市立第六保育園","province":"東京都","city":"稲城市","address":"稲城市大丸82-4","lat":35.645288,"lon":139.499535},{"name":"本郷ゆうし保育園","province":"東京都","city":"稲城市","address":"稲城市東長沼2115-2","lat":35.637781,"lon":139.501344},{"name":"向陽台保育園","province":"東京都","city":"稲城市","address":"稲城市向陽台5-8","lat":35.638075,"lon":139.485975},{"name":"城山保育園","province":"東京都","city":"稲城市","address":"稲城市向陽台6-4","lat":35.641674,"lon":139.492689},{"name":"城山保育園南山","province":"東京都","city":"稲城市","address":"稲城市百村1461-1","lat":35.63211,"lon":139.503409},{"name":"メリーポピンズ稲城ルーム","province":"東京都","city":"稲城市","address":"稲城市百村1607番3稲城駅前KMビル2階","lat":35.635588,"lon":139.501478},{"name":"中島ゆうし保育園","province":"東京都","city":"稲城市","address":"稲城市矢野口256","lat":35.642751,"lon":139.519176},{"name":"松葉保育園","province":"東京都","city":"稲城市","address":"稲城市矢野口2065","lat":35.634419,"lon":139.520641},{"name":"もみの木保育園長峰","province":"東京都","city":"稲城市","address":"稲城市長峰2-10","lat":35.630412,"lon":139.482276},{"name":"稲城市立第三保育園","province":"東京都","city":"稲城市","address":"稲城市坂浜1012-2","lat":35.622461,"lon":139.485163},{"name":"稲城市立第五保育園","province":"東京都","city":"稲城市","address":"稲城市平尾1187-3","lat":35.611833,"lon":139.486772},{"name":"ひらお保育園","province":"東京都","city":"稲城市","address":"稲城市平尾3-1-23","lat":35.610358,"lon":139.487294},{"name":"若葉台バオバブ保育園","province":"東京都","city":"稲城市","address":"稲城市若葉台4-17","lat":35.627662,"lon":139.468494},{"name":"もみの木保育園若葉台","province":"東京都","city":"稲城市","address":"稲城市若葉台1-54","lat":35.624385,"lon":139.475483},{"name":"稲城市立第四保育園","province":"東京都","city":"稲城市","address":"稲城市大丸607-2","lat":35.646515,"lon":139.49383},{"name":"稲城市立第六保育園","province":"東京都","city":"稲城市","address":"稲城市大丸82-4","lat":35.645288,"lon":139.499535},{"name":"本郷ゆうし保育園","province":"東京都","city":"稲城市","address":"稲城市東長沼2115-2","lat":35.637781,"lon":139.501344},{"name":"向陽台保育園","province":"東京都","city":"稲城市","address":"稲城市向陽台5-8","lat":35.638075,"lon":139.485975},{"name":"城山保育園","province":"東京都","city":"稲城市","address":"稲城市向陽台6-4","lat":35.641674,"lon":139.492689},{"name":"城山保育園南山","province":"東京都","city":"稲城市","address":"稲城市百村1461-1","lat":35.63211,"lon":139.503409},{"name":"メリーポピンズ稲城ルーム","province":"東京都","city":"稲城市","address":"稲城市百村1607番3稲城駅前KMビル2階","lat":35.635588,"lon":139.501478},{"name":"中島ゆうし保育園","province":"東京都","city":"稲城市","address":"稲城市矢野口256","lat":35.642751,"lon":139.519176},{"name":"松葉保育園","province":"東京都","city":"稲城市","address":"稲城市矢野口2065","lat":35.634419,"lon":139.520641},{"name":"もみの木保育園長峰","province":"東京都","city":"稲城市","address":"稲城市長峰2-10","lat":35.630412,"lon":139.482276},{"name":"稲城市立第三保育園","province":"東京都","city":"稲城市","address":"稲城市坂浜1012-2","lat":35.622461,"lon":139.485163},{"name":"稲城市立第五保育園","province":"東京都","city":"稲城市","address":"稲城市平尾1187-3","lat":35.611833,"lon":139.486772},{"name":"ひらお保育園","province":"東京都","city":"稲城市","address":"稲城市平尾3-1-23","lat":35.610358,"lon":139.487294},{"name":"若葉台バオバブ保育園","province":"東京都","city":"稲城市","address":"稲城市若葉台4-17","lat":35.627662,"lon":139.468494},{"name":"もみの木保育園若葉台","province":"東京都","city":"稲城市","address":"稲城市若葉台1-54","lat":35.624385,"lon":139.475483},{"name":"稲城市立第四保育園","province":"東京都","city":"稲城市","address":"稲城市大丸607-2","lat":35.646515,"lon":139.49383},{"name":"稲城市立第六保育園","province":"東京都","city":"稲城市","address":"稲城市大丸82-4","lat":35.645288,"lon":139.499535},{"name":"本郷ゆうし保育園","province":"東京都","city":"稲城市","address":"稲城市東長沼2115-2","lat":35.637781,"lon":139.501344},{"name":"向陽台保育園","province":"東京都","city":"稲城市","address":"稲城市向陽台5-8","lat":35.638075,"lon":139.485975},{"name":"城山保育園","province":"東京都","city":"稲城市","address":"稲城市向陽台6-4","lat":35.641674,"lon":139.492689},{"name":"城山保育園南山","province":"東京都","city":"稲城市","address":"稲城市百村1461-1","lat":35.63211,"lon":139.503409},{"name":"メリーポピンズ稲城ルーム","province":"東京都","city":"稲城市","address":"稲城市百村1607番3稲城駅前KMビル2階","lat":35.635588,"lon":139.501478},{"name":"中島ゆうし保育園","province":"東京都","city":"稲城市","address":"稲城市矢野口256","lat":35.642751,"lon":139.519176},{"name":"松葉保育園","province":"東京都","city":"稲城市","address":"稲城市矢野口2065","lat":35.634419,"lon":139.520641},{"name":"もみの木保育園長峰","province":"東京都","city":"稲城市","address":"稲城市長峰2-10","lat":35.630412,"lon":139.482276},{"name":"稲城市立第三保育園","province":"東京都","city":"稲城市","address":"稲城市坂浜1012-2","lat":35.622461,"lon":139.485163},{"name":"稲城市立第五保育園","province":"東京都","city":"稲城市","address":"稲城市平尾1187-3","lat":35.611833,"lon":139.486772},{"name":"ひらお保育園","province":"東京都","city":"稲城市","address":"稲城市平尾3-1-23","lat":35.610358,"lon":139.487294},{"name":"若葉台バオバブ保育園","province":"東京都","city":"稲城市","address":"稲城市若葉台4-17","lat":35.627662,"lon":139.468494},{"name":"もみの木保育園若葉台","province":"東京都","city":"稲城市","address":"稲城市若葉台1-54","lat":35.624385,"lon":139.475483},{"name":"稲城市立第四保育園","province":"東京都","city":"稲城市","address":"稲城市大丸607-2","lat":35.646515,"lon":139.49383},{"name":"稲城市立第六保育園","province":"東京都","city":"稲城市","address":"稲城市大丸82-4","lat":35.645288,"lon":139.499535},{"name":"本郷ゆうし保育園","province":"東京都","city":"稲城市","address":"稲城市東長沼2115-2","lat":35.637781,"lon":139.501344},{"name":"向陽台保育園","province":"東京都","city":"稲城市","address":"稲城市向陽台5-8","lat":35.638075,"lon":139.485975},{"name":"城山保育園","province":"東京都","city":"稲城市","address":"稲城市向陽台6-4","lat":35.641674,"lon":139.492689},{"name":"城山保育園南山","province":"東京都","city":"稲城市","address":"稲城市百村1461-1","lat":35.63211,"lon":139.503409},{"name":"メリーポピンズ稲城ルーム","province":"東京都","city":"稲城市","address":"稲城市百村1607番3稲城駅前KMビル2階","lat":35.635588,"lon":139.501478},{"name":"中島ゆうし保育園","province":"東京都","city":"稲城市","address":"稲城市矢野口256","lat":35.642751,"lon":139.519176},{"name":"松葉保育園","province":"東京都","city":"稲城市","address":"稲城市矢野口2065","lat":35.634419,"lon":139.520641},{"name":"もみの木保育園長峰","province":"東京都","city":"稲城市","address":"稲城市長峰2-10","lat":35.630412,"lon":139.482276},{"name":"稲城市立第三保育園","province":"東京都","city":"稲城市","address":"稲城市坂浜1012-2","lat":35.622461,"lon":139.485163},{"name":"稲城市立第五保育園","province":"東京都","city":"稲城市","address":"稲城市平尾1187-3","lat":35.611833,"lon":139.486772},{"name":"ひらお保育園","province":"東京都","city":"稲城市","address":"稲城市平尾3-1-23","lat":35.610358,"lon":139.487294},{"name":"若葉台バオバブ保育園","province":"東京都","city":"稲城市","address":"稲城市若葉台4-17","lat":35.627662,"lon":139.468494},{"name":"もみの木保育園若葉台","province":"東京都","city":"稲城市","address":"稲城市若葉台1-54","lat":35.624385,"lon":139.475483},{"name":"稲城市立第四保育園","province":"東京都","city":"稲城市","address":"稲城市大丸607-2","lat":35.646515,"lon":139.49383},{"name":"稲城市立第六保育園","province":"東京都","city":"稲城市","address":"稲城市大丸82-4","lat":35.645288,"lon":139.499535},{"name":"本郷ゆうし保育園","province":"東京都","city":"稲城市","address":"稲城市東長沼2115-2","lat":35.637781,"lon":139.501344},{"name":"向陽台保育園","province":"東京都","city":"稲城市","address":"稲城市向陽台5-8","lat":35.638075,"lon":139.485975},{"name":"城山保育園","province":"東京都","city":"稲城市","address":"稲城市向陽台6-4","lat":35.641674,"lon":139.492689},{"name":"城山保育園南山","province":"東京都","city":"稲城市","address":"稲城市百村1461-1","lat":35.63211,"lon":139.503409},{"name":"メリーポピンズ稲城ルーム","province":"東京都","city":"稲城市","address":"稲城市百村1607番3稲城駅前KMビル2階","lat":35.635588,"lon":139.501478},{"name":"中島ゆうし保育園","province":"東京都","city":"稲城市","address":"稲城市矢野口256","lat":35.642751,"lon":139.519176},{"name":"松葉保育園","province":"東京都","city":"稲城市","address":"稲城市矢野口2065","lat":35.634419,"lon":139.520641},{"name":"もみの木保育園長峰","province":"東京都","city":"稲城市","address":"稲城市長峰2-10","lat":35.630412,"lon":139.482276},{"name":"稲城市立第三保育園","province":"東京都","city":"稲城市","address":"稲城市坂浜1012-2","lat":35.622461,"lon":139.485163},{"name":"稲城市立第五保育園","province":"東京都","city":"稲城市","address":"稲城市平尾1187-3","lat":35.611833,"lon":139.486772},{"name":"ひらお保育園","province":"東京都","city":"稲城市","address":"稲城市平尾3-1-23","lat":35.610358,"lon":139.487294},{"name":"若葉台バオバブ保育園","province":"東京都","city":"稲城市","address":"稲城市若葉台4-17","lat":35.627662,"lon":139.468494},{"name":"もみの木保育園若葉台","province":"東京都","city":"稲城市","address":"稲城市若葉台1-54","lat":35.624385,"lon":139.475483},{"name":"稲城市立第四保育園","province":"東京都","city":"稲城市","address":"稲城市大丸607-2","lat":35.646515,"lon":139.49383},{"name":"稲城市立第六保育園","province":"東京都","city":"稲城市","address":"稲城市大丸82-4","lat":35.645288,"lon":139.499535},{"name":"本郷ゆうし保育園","province":"東京都","city":"稲城市","address":"稲城市東長沼2115-2","lat":35.637781,"lon":139.501344},{"name":"向陽台保育園","province":"東京都","city":"稲城市","address":"稲城市向陽台5-8","lat":35.638075,"lon":139.485975},{"name":"城山保育園","province":"東京都","city":"稲城市","address":"稲城市向陽台6-4","lat":35.641674,"lon":139.492689},{"name":"城山保育園南山","province":"東京都","city":"稲城市","address":"稲城市百村1461-1","lat":35.63211,"lon":139.503409},{"name":"メリーポピンズ稲城ルーム","province":"東京都","city":"稲城市","address":"稲城市百村1607番3稲城駅前KMビル2階","lat":35.635588,"lon":139.501478},{"name":"中島ゆうし保育園","province":"東京都","city":"稲城市","address":"稲城市矢野口256","lat":35.642751,"lon":139.519176},{"name":"松葉保育園","province":"東京都","city":"稲城市","address":"稲城市矢野口2065","lat":35.634419,"lon":139.520641},{"name":"もみの木保育園長峰","province":"東京都","city":"稲城市","address":"稲城市長峰2-10","lat":35.630412,"lon":139.482276},{"name":"稲城市立第三保育園","province":"東京都","city":"稲城市","address":"稲城市坂浜1012-2","lat":35.622461,"lon":139.485163},{"name":"稲城市立第五保育園","province":"東京都","city":"稲城市","address":"稲城市平尾1187-3","lat":35.611833,"lon":139.486772},{"name":"ひらお保育園","province":"東京都","city":"稲城市","address":"稲城市平尾3-1-23","lat":35.610358,"lon":139.487294},{"name":"若葉台バオバブ保育園","province":"東京都","city":"稲城市","address":"稲城市若葉台4-17","lat":35.627662,"lon":139.468494},{"name":"もみの木保育園若葉台","province":"東京都","city":"稲城市","address":"稲城市若葉台1-54","lat":35.624385,"lon":139.475483},{"name":"稲城市立第四保育園","province":"東京都","city":"稲城市","address":"稲城市大丸607-2","lat":35.646515,"lon":139.49383},{"name":"稲城市立第六保育園","province":"東京都","city":"稲城市","address":"稲城市大丸82-4","lat":35.645288,"lon":139.499535},{"name":"本郷ゆうし保育園","province":"東京都","city":"稲城市","address":"稲城市東長沼2115-2","lat":35.637781,"lon":139.501344},{"name":"向陽台保育園","province":"東京都","city":"稲城市","address":"稲城市向陽台5-8","lat":35.638075,"lon":139.485975},{"name":"城山保育園","province":"東京都","city":"稲城市","address":"稲城市向陽台6-4","lat":35.641674,"lon":139.492689},{"name":"城山保育園南山","province":"東京都","city":"稲城市","address":"稲城市百村1461-1","lat":35.63211,"lon":139.503409},{"name":"メリーポピンズ稲城ルーム","province":"東京都","city":"稲城市","address":"稲城市百村1607番3稲城駅前KMビル2階","lat":35.635588,"lon":139.501478},{"name":"中島ゆうし保育園","province":"東京都","city":"稲城市","address":"稲城市矢野口256","lat":35.642751,"lon":139.519176},{"name":"松葉保育園","province":"東京都","city":"稲城市","address":"稲城市矢野口2065","lat":35.634419,"lon":139.520641},{"name":"もみの木保育園長峰","province":"東京都","city":"稲城市","address":"稲城市長峰2-10","lat":35.630412,"lon":139.482276},{"name":"稲城市立第三保育園","province":"東京都","city":"稲城市","address":"稲城市坂浜1012-2","lat":35.622461,"lon":139.485163},{"name":"稲城市立第五保育園","province":"東京都","city":"稲城市","address":"稲城市平尾1187-3","lat":35.611833,"lon":139.486772},{"name":"ひらお保育園","province":"東京都","city":"稲城市","address":"稲城市平尾3-1-23","lat":35.610358,"lon":139.487294},{"name":"若葉台バオバブ保育園","province":"東京都","city":"稲城市","address":"稲城市若葉台4-17","lat":35.627662,"lon":139.468494},{"name":"もみの木保育園若葉台","province":"東京都","city":"稲城市","address":"稲城市若葉台1-54","lat":35.624385,"lon":139.475483},{"name":"稲城市立第四保育園","province":"東京都","city":"稲城市","address":"稲城市大丸607-2","lat":35.646515,"lon":139.49383},{"name":"稲城市立第六保育園","province":"東京都","city":"稲城市","address":"稲城市大丸82-4","lat":35.645288,"lon":139.499535},{"name":"本郷ゆうし保育園","province":"東京都","city":"稲城市","address":"稲城市東長沼2115-2","lat":35.637781,"lon":139.501344},{"name":"向陽台保育園","province":"東京都","city":"稲城市","address":"稲城市向陽台5-8","lat":35.638075,"lon":139.485975},{"name":"城山保育園","province":"東京都","city":"稲城市","address":"稲城市向陽台6-4","lat":35.641674,"lon":139.492689},{"name":"城山保育園南山","province":"東京都","city":"稲城市","address":"稲城市百村1461-1","lat":35.63211,"lon":139.503409},{"name":"メリーポピンズ稲城ルーム","province":"東京都","city":"稲城市","address":"稲城市百村1607番3稲城駅前KMビル2階","lat":35.635588,"lon":139.501478},{"name":"中島ゆうし保育園","province":"東京都","city":"稲城市","address":"稲城市矢野口256","lat":35.642751,"lon":139.519176},{"name":"松葉保育園","province":"東京都","city":"稲城市","address":"稲城市矢野口2065","lat":35.634419,"lon":139.520641},{"name":"もみの木保育園長峰","province":"東京都","city":"稲城市","address":"稲城市長峰2-10","lat":35.630412,"lon":139.482276},{"name":"稲城市立第三保育園","province":"東京都","city":"稲城市","address":"稲城市坂浜1012-2","lat":35.622461,"lon":139.485163},{"name":"稲城市立第五保育園","province":"東京都","city":"稲城市","address":"稲城市平尾1187-3","lat":35.611833,"lon":139.486772},{"name":"ひらお保育園","province":"東京都","city":"稲城市","address":"稲城市平尾3-1-23","lat":35.610358,"lon":139.487294},{"name":"若葉台バオバブ保育園","province":"東京都","city":"稲城市","address":"稲城市若葉台4-17","lat":35.627662,"lon":139.468494},{"name":"もみの木保育園若葉台","province":"東京都","city":"稲城市","address":"稲城市若葉台1-54","lat":35.624385,"lon":139.475483},{"name":"稲城市立第四保育園","province":"東京都","city":"稲城市","address":"稲城市大丸607-2","lat":35.646515,"lon":139.49383},{"name":"稲城市立第六保育園","province":"東京都","city":"稲城市","address":"稲城市大丸82-4","lat":35.645288,"lon":139.499535},{"name":"本郷ゆうし保育園","province":"東京都","city":"稲城市","address":"稲城市東長沼2115-2","lat":35.637781,"lon":139.501344},{"name":"向陽台保育園","province":"東京都","city":"稲城市","address":"稲城市向陽台5-8","lat":35.638075,"lon":139.485975},{"name":"城山保育園","province":"東京都","city":"稲城市","address":"稲城市向陽台6-4","lat":35.641674,"lon":139.492689},{"name":"城山保育園南山","province":"東京都","city":"稲城市","address":"稲城市百村1461-1","lat":35.63211,"lon":139.503409},{"name":"メリーポピンズ稲城ルーム","province":"東京都","city":"稲城市","address":"稲城市百村1607番3稲城駅前KMビル2階","lat":35.635588,"lon":139.501478},{"name":"中島ゆうし保育園","province":"東京都","city":"稲城市","address":"稲城市矢野口256","lat":35.642751,"lon":139.519176},{"name":"松葉保育園","province":"東京都","city":"稲城市","address":"稲城市矢野口2065","lat":35.634419,"lon":139.520641},{"name":"もみの木保育園長峰","province":"東京都","city":"稲城市","address":"稲城市長峰2-10","lat":35.630412,"lon":139.482276},{"name":"稲城市立第三保育園","province":"東京都","city":"稲城市","address":"稲城市坂浜1012-2","lat":35.622461,"lon":139.485163},{"name":"稲城市立第五保育園","province":"東京都","city":"稲城市","address":"稲城市平尾1187-3","lat":35.611833,"lon":139.486772},{"name":"ひらお保育園","province":"東京都","city":"稲城市","address":"稲城市平尾3-1-23","lat":35.610358,"lon":139.487294},{"name":"若葉台バオバブ保育園","province":"東京都","city":"稲城市","address":"稲城市若葉台4-17","lat":35.627662,"lon":139.468494},{"name":"もみの木保育園若葉台","province":"東京都","city":"稲城市","address":"稲城市若葉台1-54","lat":35.624385,"lon":139.475483},{"name":"稲城市立第四保育園","province":"東京都","city":"稲城市","address":"稲城市大丸607-2","lat":35.646515,"lon":139.49383},{"name":"稲城市立第六保育園","province":"東京都","city":"稲城市","address":"稲城市大丸82-4","lat":35.645288,"lon":139.499535},{"name":"本郷ゆうし保育園","province":"東京都","city":"稲城市","address":"稲城市東長沼2115-2","lat":35.637781,"lon":139.501344},{"name":"向陽台保育園","province":"東京都","city":"稲城市","address":"稲城市向陽台5-8","lat":35.638075,"lon":139.485975},{"name":"城山保育園","province":"東京都","city":"稲城市","address":"稲城市向陽台6-4","lat":35.641674,"lon":139.492689},{"name":"城山保育園南山","province":"東京都","city":"稲城市","address":"稲城市百村1461-1","lat":35.63211,"lon":139.503409},{"name":"メリーポピンズ稲城ルーム","province":"東京都","city":"稲城市","address":"稲城市百村1607番3稲城駅前KMビル2階","lat":35.635588,"lon":139.501478},{"name":"中島ゆうし保育園","province":"東京都","city":"稲城市","address":"稲城市矢野口256","lat":35.642751,"lon":139.519176},{"name":"松葉保育園","province":"東京都","city":"稲城市","address":"稲城市矢野口2065","lat":35.634419,"lon":139.520641},{"name":"もみの木保育園長峰","province":"東京都","city":"稲城市","address":"稲城市長峰2-10","lat":35.630412,"lon":139.482276},{"name":"稲城市立第三保育園","province":"東京都","city":"稲城市","address":"稲城市坂浜1012-2","lat":35.622461,"lon":139.485163},{"name":"稲城市立第五保育園","province":"東京都","city":"稲城市","address":"稲城市平尾1187-3","lat":35.611833,"lon":139.486772},{"name":"ひらお保育園","province":"東京都","city":"稲城市","address":"稲城市平尾3-1-23","lat":35.610358,"lon":139.487294},{"name":"若葉台バオバブ保育園","province":"東京都","city":"稲城市","address":"稲城市若葉台4-17","lat":35.627662,"lon":139.468494},{"name":"もみの木保育園若葉台","province":"東京都","city":"稲城市","address":"稲城市若葉台1-54","lat":35.624385,"lon":139.475483},{"name":"稲城市立第四保育園","province":"東京都","city":"稲城市","address":"稲城市大丸607-2","lat":35.646515,"lon":139.49383},{"name":"稲城市立第六保育園","province":"東京都","city":"稲城市","address":"稲城市大丸82-4","lat":35.645288,"lon":139.499535},{"name":"本郷ゆうし保育園","province":"東京都","city":"稲城市","address":"稲城市東長沼2115-2","lat":35.637781,"lon":139.501344},{"name":"向陽台保育園","province":"東京都","city":"稲城市","address":"稲城市向陽台5-8","lat":35.638075,"lon":139.485975},{"name":"城山保育園","province":"東京都","city":"稲城市","address":"稲城市向陽台6-4","lat":35.641674,"lon":139.492689},{"name":"城山保育園南山","province":"東京都","city":"稲城市","address":"稲城市百村1461-1","lat":35.63211,"lon":139.503409},{"name":"メリーポピンズ稲城ルーム","province":"東京都","city":"稲城市","address":"稲城市百村1607番3稲城駅前KMビル2階","lat":35.635588,"lon":139.501478},{"name":"中島ゆうし保育園","province":"東京都","city":"稲城市","address":"稲城市矢野口256","lat":35.642751,"lon":139.519176},{"name":"松葉保育園","province":"東京都","city":"稲城市","address":"稲城市矢野口2065","lat":35.634419,"lon":139.520641},{"name":"もみの木保育園長峰","province":"東京都","city":"稲城市","address":"稲城市長峰2-10","lat":35.630412,"lon":139.482276},{"name":"稲城市立第三保育園","province":"東京都","city":"稲城市","address":"稲城市坂浜1012-2","lat":35.622461,"lon":139.485163},{"name":"稲城市立第五保育園","province":"東京都","city":"稲城市","address":"稲城市平尾1187-3","lat":35.611833,"lon":139.486772},{"name":"ひらお保育園","province":"東京都","city":"稲城市","address":"稲城市平尾3-1-23","lat":35.610358,"lon":139.487294},{"name":"若葉台バオバブ保育園","province":"東京都","city":"稲城市","address":"稲城市若葉台4-17","lat":35.627662,"lon":139.468494},{"name":"もみの木保育園若葉台","province":"東京都","city":"稲城市","address":"稲城市若葉台1-54","lat":35.624385,"lon":139.475483},{"name":"稲城市立第四保育園","province":"東京都","city":"稲城市","address":"稲城市大丸607-2","lat":35.646515,"lon":139.49383},{"name":"稲城市立第六保育園","province":"東京都","city":"稲城市","address":"稲城市大丸82-4","lat":35.645288,"lon":139.499535},{"name":"本郷ゆうし保育園","province":"東京都","city":"稲城市","address":"稲城市東長沼2115-2","lat":35.637781,"lon":139.501344},{"name":"向陽台保育園","province":"東京都","city":"稲城市","address":"稲城市向陽台5-8","lat":35.638075,"lon":139.485975},{"name":"城山保育園","province":"東京都","city":"稲城市","address":"稲城市向陽台6-4","lat":35.641674,"lon":139.492689},{"name":"城山保育園南山","province":"東京都","city":"稲城市","address":"稲城市百村1461-1","lat":35.63211,"lon":139.503409},{"name":"メリーポピンズ稲城ルーム","province":"東京都","city":"稲城市","address":"稲城市百村1607番3稲城駅前KMビル2階","lat":35.635588,"lon":139.501478},{"name":"中島ゆうし保育園","province":"東京都","city":"稲城市","address":"稲城市矢野口256","lat":35.642751,"lon":139.519176},{"name":"松葉保育園","province":"東京都","city":"稲城市","address":"稲城市矢野口2065","lat":35.634419,"lon":139.520641},{"name":"もみの木保育園長峰","province":"東京都","city":"稲城市","address":"稲城市長峰2-10","lat":35.630412,"lon":139.482276},{"name":"稲城市立第三保育園","province":"東京都","city":"稲城市","address":"稲城市坂浜1012-2","lat":35.622461,"lon":139.485163},{"name":"稲城市立第五保育園","province":"東京都","city":"稲城市","address":"稲城市平尾1187-3","lat":35.611833,"lon":139.486772},{"name":"ひらお保育園","province":"東京都","city":"稲城市","address":"稲城市平尾3-1-23","lat":35.610358,"lon":139.487294},{"name":"若葉台バオバブ保育園","province":"東京都","city":"稲城市","address":"稲城市若葉台4-17","lat":35.627662,"lon":139.468494},{"name":"もみの木保育園若葉台","province":"東京都","city":"稲城市","address":"稲城市若葉台1-54","lat":35.624385,"lon":139.475483},{"name":"稲城市立第四保育園","province":"東京都","city":"稲城市","address":"稲城市大丸607-2","lat":35.646515,"lon":139.49383},{"name":"稲城市立第六保育園","province":"東京都","city":"稲城市","address":"稲城市大丸82-4","lat":35.645288,"lon":139.499535},{"name":"本郷ゆうし保育園","province":"東京都","city":"稲城市","address":"稲城市東長沼2115-2","lat":35.637781,"lon":139.501344},{"name":"向陽台保育園","province":"東京都","city":"稲城市","address":"稲城市向陽台5-8","lat":35.638075,"lon":139.485975},{"name":"城山保育園","province":"東京都","city":"稲城市","address":"稲城市向陽台6-4","lat":35.641674,"lon":139.492689},{"name":"城山保育園南山","province":"東京都","city":"稲城市","address":"稲城市百村1461-1","lat":35.63211,"lon":139.503409},{"name":"メリーポピンズ稲城ルーム","province":"東京都","city":"稲城市","address":"稲城市百村1607番3稲城駅前KMビル2階","lat":35.635588,"lon":139.501478},{"name":"中島ゆうし保育園","province":"東京都","city":"稲城市","address":"稲城市矢野口256","lat":35.642751,"lon":139.519176},{"name":"松葉保育園","province":"東京都","city":"稲城市","address":"稲城市矢野口2065","lat":35.634419,"lon":139.520641},{"name":"もみの木保育園長峰","province":"東京都","city":"稲城市","address":"稲城市長峰2-10","lat":35.630412,"lon":139.482276},{"name":"稲城市立第三保育園","province":"東京都","city":"稲城市","address":"稲城市坂浜1012-2","lat":35.622461,"lon":139.485163},{"name":"稲城市立第五保育園","province":"東京都","city":"稲城市","address":"稲城市平尾1187-3","lat":35.611833,"lon":139.486772},{"name":"ひらお保育園","province":"東京都","city":"稲城市","address":"稲城市平尾3-1-23","lat":35.610358,"lon":139.487294},{"name":"若葉台バオバブ保育園","province":"東京都","city":"稲城市","address":"稲城市若葉台4-17","lat":35.627662,"lon":139.468494},{"name":"もみの木保育園若葉台","province":"東京都","city":"稲城市","address":"稲城市若葉台1-54","lat":35.624385,"lon":139.475483},{"name":"稲城市立第四保育園","province":"東京都","city":"稲城市","address":"稲城市大丸607-2","lat":35.646515,"lon":139.49383},{"name":"稲城市立第六保育園","province":"東京都","city":"稲城市","address":"稲城市大丸82-4","lat":35.645288,"lon":139.499535},{"name":"本郷ゆうし保育園","province":"東京都","city":"稲城市","address":"稲城市東長沼2115-2","lat":35.637781,"lon":139.501344},{"name":"向陽台保育園","province":"東京都","city":"稲城市","address":"稲城市向陽台5-8","lat":35.638075,"lon":139.485975},{"name":"城山保育園","province":"東京都","city":"稲城市","address":"稲城市向陽台6-4","lat":35.641674,"lon":139.492689},{"name":"城山保育園南山","province":"東京都","city":"稲城市","address":"稲城市百村1461-1","lat":35.63211,"lon":139.503409},{"name":"メリーポピンズ稲城ルーム","province":"東京都","city":"稲城市","address":"稲城市百村1607番3稲城駅前KMビル2階","lat":35.635588,"lon":139.501478},{"name":"中島ゆうし保育園","province":"東京都","city":"稲城市","address":"稲城市矢野口256","lat":35.642751,"lon":139.519176},{"name":"松葉保育園","province":"東京都","city":"稲城市","address":"稲城市矢野口2065","lat":35.634419,"lon":139.520641},{"name":"もみの木保育園長峰","province":"東京都","city":"稲城市","address":"稲城市長峰2-10","lat":35.630412,"lon":139.482276},{"name":"稲城市立第三保育園","province":"東京都","city":"稲城市","address":"稲城市坂浜1012-2","lat":35.622461,"lon":139.485163},{"name":"稲城市立第五保育園","province":"東京都","city":"稲城市","address":"稲城市平尾1187-3","lat":35.611833,"lon":139.486772},{"name":"ひらお保育園","province":"東京都","city":"稲城市","address":"稲城市平尾3-1-23","lat":35.610358,"lon":139.487294},{"name":"若葉台バオバブ保育園","province":"東京都","city":"稲城市","address":"稲城市若葉台4-17","lat":35.627662,"lon":139.468494},{"name":"もみの木保育園若葉台","province":"東京都","city":"稲城市","address":"稲城市若葉台1-54","lat":35.624385,"lon":139.475483},{"name":"稲城市立第四保育園","province":"東京都","city":"稲城市","address":"稲城市大丸607-2","lat":35.646515,"lon":139.49383},{"name":"稲城市立第六保育園","province":"東京都","city":"稲城市","address":"稲城市大丸82-4","lat":35.645288,"lon":139.499535},{"name":"本郷ゆうし保育園","province":"東京都","city":"稲城市","address":"稲城市東長沼2115-2","lat":35.637781,"lon":139.501344},{"name":"向陽台保育園","province":"東京都","city":"稲城市","address":"稲城市向陽台5-8","lat":35.638075,"lon":139.485975},{"name":"城山保育園","province":"東京都","city":"稲城市","address":"稲城市向陽台6-4","lat":35.641674,"lon":139.492689},{"name":"城山保育園南山","province":"東京都","city":"稲城市","address":"稲城市百村1461-1","lat":35.63211,"lon":139.503409},{"name":"メリーポピンズ稲城ルーム","province":"東京都","city":"稲城市","address":"稲城市百村1607番3稲城駅前KMビル2階","lat":35.635588,"lon":139.501478},{"name":"中島ゆうし保育園","province":"東京都","city":"稲城市","address":"稲城市矢野口256","lat":35.642751,"lon":139.519176},{"name":"松葉保育園","province":"東京都","city":"稲城市","address":"稲城市矢野口2065","lat":35.634419,"lon":139.520641},{"name":"もみの木保育園長峰","province":"東京都","city":"稲城市","address":"稲城市長峰2-10","lat":35.630412,"lon":139.482276},{"name":"稲城市立第三保育園","province":"東京都","city":"稲城市","address":"稲城市坂浜1012-2","lat":35.622461,"lon":139.485163},{"name":"稲城市立第五保育園","province":"東京都","city":"稲城市","address":"稲城市平尾1187-3","lat":35.611833,"lon":139.486772},{"name":"ひらお保育園","province":"東京都","city":"稲城市","address":"稲城市平尾3-1-23","lat":35.610358,"lon":139.487294},{"name":"若葉台バオバブ保育園","province":"東京都","city":"稲城市","address":"稲城市若葉台4-17","lat":35.627662,"lon":139.468494},{"name":"もみの木保育園若葉台","province":"東京都","city":"稲城市","address":"稲城市若葉台1-54","lat":35.624385,"lon":139.475483},{"name":"稲城市立第四保育園","province":"東京都","city":"稲城市","address":"稲城市大丸607-2","lat":35.646515,"lon":139.49383},{"name":"稲城市立第六保育園","province":"東京都","city":"稲城市","address":"稲城市大丸82-4","lat":35.645288,"lon":139.499535},{"name":"本郷ゆうし保育園","province":"東京都","city":"稲城市","address":"稲城市東長沼2115-2","lat":35.637781,"lon":139.501344},{"name":"向陽台保育園","province":"東京都","city":"稲城市","address":"稲城市向陽台5-8","lat":35.638075,"lon":139.485975},{"name":"城山保育園","province":"東京都","city":"稲城市","address":"稲城市向陽台6-4","lat":35.641674,"lon":139.492689},{"name":"城山保育園南山","province":"東京都","city":"稲城市","address":"稲城市百村1461-1","lat":35.63211,"lon":139.503409},{"name":"メリーポピンズ稲城ルーム","province":"東京都","city":"稲城市","address":"稲城市百村1607番3稲城駅前KMビル2階","lat":35.635588,"lon":139.501478},{"name":"中島ゆうし保育園","province":"東京都","city":"稲城市","address":"稲城市矢野口256","lat":35.642751,"lon":139.519176},{"name":"松葉保育園","province":"東京都","city":"稲城市","address":"稲城市矢野口2065","lat":35.634419,"lon":139.520641},{"name":"もみの木保育園長峰","province":"東京都","city":"稲城市","address":"稲城市長峰2-10","lat":35.630412,"lon":139.482276},{"name":"稲城市立第三保育園","province":"東京都","city":"稲城市","address":"稲城市坂浜1012-2","lat":35.622461,"lon":139.485163},{"name":"稲城市立第五保育園","province":"東京都","city":"稲城市","address":"稲城市平尾1187-3","lat":35.611833,"lon":139.486772},{"name":"ひらお保育園","province":"東京都","city":"稲城市","address":"稲城市平尾3-1-23","lat":35.610358,"lon":139.487294},{"name":"若葉台バオバブ保育園","province":"東京都","city":"稲城市","address":"稲城市若葉台4-17","lat":35.627662,"lon":139.468494},{"name":"もみの木保育園若葉台","province":"東京都","city":"稲城市","address":"稲城市若葉台1-54","lat":35.624385,"lon":139.475483},{"name":"稲城市立第四保育園","province":"東京都","city":"稲城市","address":"稲城市大丸607-2","lat":35.646515,"lon":139.49383},{"name":"稲城市立第六保育園","province":"東京都","city":"稲城市","address":"稲城市大丸82-4","lat":35.645288,"lon":139.499535},{"name":"本郷ゆうし保育園","province":"東京都","city":"稲城市","address":"稲城市東長沼2115-2","lat":35.637781,"lon":139.501344},{"name":"向陽台保育園","province":"東京都","city":"稲城市","address":"稲城市向陽台5-8","lat":35.638075,"lon":139.485975},{"name":"城山保育園","province":"東京都","city":"稲城市","address":"稲城市向陽台6-4","lat":35.641674,"lon":139.492689},{"name":"城山保育園南山","province":"東京都","city":"稲城市","address":"稲城市百村1461-1","lat":35.63211,"lon":139.503409},{"name":"メリーポピンズ稲城ルーム","province":"東京都","city":"稲城市","address":"稲城市百村1607番3稲城駅前KMビル2階","lat":35.635588,"lon":139.501478},{"name":"中島ゆうし保育園","province":"東京都","city":"稲城市","address":"稲城市矢野口256","lat":35.642751,"lon":139.519176},{"name":"松葉保育園","province":"東京都","city":"稲城市","address":"稲城市矢野口2065","lat":35.634419,"lon":139.520641},{"name":"もみの木保育園長峰","province":"東京都","city":"稲城市","address":"稲城市長峰2-10","lat":35.630412,"lon":139.482276},{"name":"稲城市立第三保育園","province":"東京都","city":"稲城市","address":"稲城市坂浜1012-2","lat":35.622461,"lon":139.485163},{"name":"稲城市立第五保育園","province":"東京都","city":"稲城市","address":"稲城市平尾1187-3","lat":35.611833,"lon":139.486772},{"name":"ひらお保育園","province":"東京都","city":"稲城市","address":"稲城市平尾3-1-23","lat":35.610358,"lon":139.487294},{"name":"若葉台バオバブ保育園","province":"東京都","city":"稲城市","address":"稲城市若葉台4-17","lat":35.627662,"lon":139.468494},{"name":"もみの木保育園若葉台","province":"東京都","city":"稲城市","address":"稲城市若葉台1-54","lat":35.624385,"lon":139.475483},{"name":"稲城市立第四保育園","province":"東京都","city":"稲城市","address":"稲城市大丸607-2","lat":35.646515,"lon":139.49383},{"name":"稲城市立第六保育園","province":"東京都","city":"稲城市","address":"稲城市大丸82-4","lat":35.645288,"lon":139.499535},{"name":"本郷ゆうし保育園","province":"東京都","city":"稲城市","address":"稲城市東長沼2115-2","lat":35.637781,"lon":139.501344},{"name":"向陽台保育園","province":"東京都","city":"稲城市","address":"稲城市向陽台5-8","lat":35.638075,"lon":139.485975},{"name":"城山保育園","province":"東京都","city":"稲城市","address":"稲城市向陽台6-4","lat":35.641674,"lon":139.492689},{"name":"城山保育園南山","province":"東京都","city":"稲城市","address":"稲城市百村1461-1","lat":35.63211,"lon":139.503409},{"name":"メリーポピンズ稲城ルーム","province":"東京都","city":"稲城市","address":"稲城市百村1607番3稲城駅前KMビル2階","lat":35.635588,"lon":139.501478},{"name":"中島ゆうし保育園","province":"東京都","city":"稲城市","address":"稲城市矢野口256","lat":35.642751,"lon":139.519176},{"name":"松葉保育園","province":"東京都","city":"稲城市","address":"稲城市矢野口2065","lat":35.634419,"lon":139.520641},{"name":"もみの木保育園長峰","province":"東京都","city":"稲城市","address":"稲城市長峰2-10","lat":35.630412,"lon":139.482276},{"name":"稲城市立第三保育園","province":"東京都","city":"稲城市","address":"稲城市坂浜1012-2","lat":35.622461,"lon":139.485163},{"name":"稲城市立第五保育園","province":"東京都","city":"稲城市","address":"稲城市平尾1187-3","lat":35.611833,"lon":139.486772},{"name":"ひらお保育園","province":"東京都","city":"稲城市","address":"稲城市平尾3-1-23","lat":35.610358,"lon":139.487294},{"name":"若葉台バオバブ保育園","province":"東京都","city":"稲城市","address":"稲城市若葉台4-17","lat":35.627662,"lon":139.468494},{"name":"もみの木保育園若葉台","province":"東京都","city":"稲城市","address":"稲城市若葉台1-54","lat":35.624385,"lon":139.475483},{"name":"稲城市立第四保育園","province":"東京都","city":"稲城市","address":"稲城市大丸607-2","lat":35.646515,"lon":139.49383},{"name":"稲城市立第六保育園","province":"東京都","city":"稲城市","address":"稲城市大丸82-4","lat":35.645288,"lon":139.499535},{"name":"本郷ゆうし保育園","province":"東京都","city":"稲城市","address":"稲城市東長沼2115-2","lat":35.637781,"lon":139.501344},{"name":"向陽台保育園","province":"東京都","city":"稲城市","address":"稲城市向陽台5-8","lat":35.638075,"lon":139.485975},{"name":"城山保育園","province":"東京都","city":"稲城市","address":"稲城市向陽台6-4","lat":35.641674,"lon":139.492689},{"name":"城山保育園南山","province":"東京都","city":"稲城市","address":"稲城市百村1461-1","lat":35.63211,"lon":139.503409},{"name":"メリーポピンズ稲城ルーム","province":"東京都","city":"稲城市","address":"稲城市百村1607番3稲城駅前KMビル2階","lat":35.635588,"lon":139.501478},{"name":"中島ゆうし保育園","province":"東京都","city":"稲城市","address":"稲城市矢野口256","lat":35.642751,"lon":139.519176},{"name":"松葉保育園","province":"東京都","city":"稲城市","address":"稲城市矢野口2065","lat":35.634419,"lon":139.520641},{"name":"もみの木保育園長峰","province":"東京都","city":"稲城市","address":"稲城市長峰2-10","lat":35.630412,"lon":139.482276},{"name":"稲城市立第三保育園","province":"東京都","city":"稲城市","address":"稲城市坂浜1012-2","lat":35.622461,"lon":139.485163},{"name":"稲城市立第五保育園","province":"東京都","city":"稲城市","address":"稲城市平尾1187-3","lat":35.611833,"lon":139.486772},{"name":"ひらお保育園","province":"東京都","city":"稲城市","address":"稲城市平尾3-1-23","lat":35.610358,"lon":139.487294},{"name":"若葉台バオバブ保育園","province":"東京都","city":"稲城市","address":"稲城市若葉台4-17","lat":35.627662,"lon":139.468494},{"name":"もみの木保育園若葉台","province":"東京都","city":"稲城市","address":"稲城市若葉台1-54","lat":35.624385,"lon":139.475483},{"name":"稲城市立第四保育園","province":"東京都","city":"稲城市","address":"稲城市大丸607-2","lat":35.646515,"lon":139.49383},{"name":"稲城市立第六保育園","province":"東京都","city":"稲城市","address":"稲城市大丸82-4","lat":35.645288,"lon":139.499535},{"name":"本郷ゆうし保育園","province":"東京都","city":"稲城市","address":"稲城市東長沼2115-2","lat":35.637781,"lon":139.501344},{"name":"向陽台保育園","province":"東京都","city":"稲城市","address":"稲城市向陽台5-8","lat":35.638075,"lon":139.485975},{"name":"城山保育園","province":"東京都","city":"稲城市","address":"稲城市向陽台6-4","lat":35.641674,"lon":139.492689},{"name":"城山保育園南山","province":"東京都","city":"稲城市","address":"稲城市百村1461-1","lat":35.63211,"lon":139.503409},{"name":"メリーポピンズ稲城ルーム","province":"東京都","city":"稲城市","address":"稲城市百村1607番3稲城駅前KMビル2階","lat":35.635588,"lon":139.501478},{"name":"中島ゆうし保育園","province":"東京都","city":"稲城市","address":"稲城市矢野口256","lat":35.642751,"lon":139.519176},{"name":"松葉保育園","province":"東京都","city":"稲城市","address":"稲城市矢野口2065","lat":35.634419,"lon":139.520641},{"name":"もみの木保育園長峰","province":"東京都","city":"稲城市","address":"稲城市長峰2-10","lat":35.630412,"lon":139.482276},{"name":"稲城市立第三保育園","province":"東京都","city":"稲城市","address":"稲城市坂浜1012-2","lat":35.622461,"lon":139.485163},{"name":"稲城市立第五保育園","province":"東京都","city":"稲城市","address":"稲城市平尾1187-3","lat":35.611833,"lon":139.486772},{"name":"ひらお保育園","province":"東京都","city":"稲城市","address":"稲城市平尾3-1-23","lat":35.610358,"lon":139.487294},{"name":"若葉台バオバブ保育園","province":"東京都","city":"稲城市","address":"稲城市若葉台4-17","lat":35.627662,"lon":139.468494},{"name":"もみの木保育園若葉台","province":"東京都","city":"稲城市","address":"稲城市若葉台1-54","lat":35.624385,"lon":139.475483},{"name":"稲城市立第四保育園","province":"東京都","city":"稲城市","address":"稲城市大丸607-2","lat":35.646515,"lon":139.49383},{"name":"稲城市立第六保育園","province":"東京都","city":"稲城市","address":"稲城市大丸82-4","lat":35.645288,"lon":139.499535},{"name":"本郷ゆうし保育園","province":"東京都","city":"稲城市","address":"稲城市東長沼2115-2","lat":35.637781,"lon":139.501344},{"name":"向陽台保育園","province":"東京都","city":"稲城市","address":"稲城市向陽台5-8","lat":35.638075,"lon":139.485975},{"name":"城山保育園","province":"東京都","city":"稲城市","address":"稲城市向陽台6-4","lat":35.641674,"lon":139.492689},{"name":"城山保育園南山","province":"東京都","city":"稲城市","address":"稲城市百村1461-1","lat":35.63211,"lon":139.503409},{"name":"メリーポピンズ稲城ルーム","province":"東京都","city":"稲城市","address":"稲城市百村1607番3稲城駅前KMビル2階","lat":35.635588,"lon":139.501478},{"name":"中島ゆうし保育園","province":"東京都","city":"稲城市","address":"稲城市矢野口256","lat":35.642751,"lon":139.519176},{"name":"松葉保育園","province":"東京都","city":"稲城市","address":"稲城市矢野口2065","lat":35.634419,"lon":139.520641},{"name":"もみの木保育園長峰","province":"東京都","city":"稲城市","address":"稲城市長峰2-10","lat":35.630412,"lon":139.482276},{"name":"稲城市立第三保育園","province":"東京都","city":"稲城市","address":"稲城市坂浜1012-2","lat":35.622461,"lon":139.485163},{"name":"稲城市立第五保育園","province":"東京都","city":"稲城市","address":"稲城市平尾1187-3","lat":35.611833,"lon":139.486772},{"name":"ひらお保育園","province":"東京都","city":"稲城市","address":"稲城市平尾3-1-23","lat":35.610358,"lon":139.487294},{"name":"若葉台バオバブ保育園","province":"東京都","city":"稲城市","address":"稲城市若葉台4-17","lat":35.627662,"lon":139.468494},{"name":"もみの木保育園若葉台","province":"東京都","city":"稲城市","address":"稲城市若葉台1-54","lat":35.624385,"lon":139.475483},{"name":"稲城市立第四保育園","province":"東京都","city":"稲城市","address":"稲城市大丸607-2","lat":35.646515,"lon":139.49383},{"name":"稲城市立第六保育園","province":"東京都","city":"稲城市","address":"稲城市大丸82-4","lat":35.645288,"lon":139.499535},{"name":"本郷ゆうし保育園","province":"東京都","city":"稲城市","address":"稲城市東長沼2115-2","lat":35.637781,"lon":139.501344},{"name":"向陽台保育園","province":"東京都","city":"稲城市","address":"稲城市向陽台5-8","lat":35.638075,"lon":139.485975},{"name":"城山保育園","province":"東京都","city":"稲城市","address":"稲城市向陽台6-4","lat":35.641674,"lon":139.492689},{"name":"城山保育園南山","province":"東京都","city":"稲城市","address":"稲城市百村1461-1","lat":35.63211,"lon":139.503409},{"name":"メリーポピンズ稲城ルーム","province":"東京都","city":"稲城市","address":"稲城市百村1607番3稲城駅前KMビル2階","lat":35.635588,"lon":139.501478},{"name":"中島ゆうし保育園","province":"東京都","city":"稲城市","address":"稲城市矢野口256","lat":35.642751,"lon":139.519176},{"name":"松葉保育園","province":"東京都","city":"稲城市","address":"稲城市矢野口2065","lat":35.634419,"lon":139.520641},{"name":"もみの木保育園長峰","province":"東京都","city":"稲城市","address":"稲城市長峰2-10","lat":35.630412,"lon":139.482276},{"name":"稲城市立第三保育園","province":"東京都","city":"稲城市","address":"稲城市坂浜1012-2","lat":35.622461,"lon":139.485163},{"name":"稲城市立第五保育園","province":"東京都","city":"稲城市","address":"稲城市平尾1187-3","lat":35.611833,"lon":139.486772},{"name":"ひらお保育園","province":"東京都","city":"稲城市","address":"稲城市平尾3-1-23","lat":35.610358,"lon":139.487294},{"name":"若葉台バオバブ保育園","province":"東京都","city":"稲城市","address":"稲城市若葉台4-17","lat":35.627662,"lon":139.468494},{"name":"もみの木保育園若葉台","province":"東京都","city":"稲城市","address":"稲城市若葉台1-54","lat":35.624385,"lon":139.475483},{"name":"稲城市立第四保育園","province":"東京都","city":"稲城市","address":"稲城市大丸607-2","lat":35.646515,"lon":139.49383},{"name":"稲城市立第六保育園","province":"東京都","city":"稲城市","address":"稲城市大丸82-4","lat":35.645288,"lon":139.499535},{"name":"本郷ゆうし保育園","province":"東京都","city":"稲城市","address":"稲城市東長沼2115-2","lat":35.637781,"lon":139.501344},{"name":"向陽台保育園","province":"東京都","city":"稲城市","address":"稲城市向陽台5-8","lat":35.638075,"lon":139.485975},{"name":"城山保育園","province":"東京都","city":"稲城市","address":"稲城市向陽台6-4","lat":35.641674,"lon":139.492689},{"name":"城山保育園南山","province":"東京都","city":"稲城市","address":"稲城市百村1461-1","lat":35.63211,"lon":139.503409},{"name":"メリーポピンズ稲城ルーム","province":"東京都","city":"稲城市","address":"稲城市百村1607番3稲城駅前KMビル2階","lat":35.635588,"lon":139.501478},{"name":"中島ゆうし保育園","province":"東京都","city":"稲城市","address":"稲城市矢野口256","lat":35.642751,"lon":139.519176},{"name":"松葉保育園","province":"東京都","city":"稲城市","address":"稲城市矢野口2065","lat":35.634419,"lon":139.520641},{"name":"もみの木保育園長峰","province":"東京都","city":"稲城市","address":"稲城市長峰2-10","lat":35.630412,"lon":139.482276},{"name":"稲城市立第三保育園","province":"東京都","city":"稲城市","address":"稲城市坂浜1012-2","lat":35.622461,"lon":139.485163},{"name":"稲城市立第五保育園","province":"東京都","city":"稲城市","address":"稲城市平尾1187-3","lat":35.611833,"lon":139.486772},{"name":"ひらお保育園","province":"東京都","city":"稲城市","address":"稲城市平尾3-1-23","lat":35.610358,"lon":139.487294},{"name":"若葉台バオバブ保育園","province":"東京都","city":"稲城市","address":"稲城市若葉台4-17","lat":35.627662,"lon":139.468494},{"name":"もみの木保育園若葉台","province":"東京都","city":"稲城市","address":"稲城市若葉台1-54","lat":35.624385,"lon":139.475483},{"name":"稲城市立第四保育園","province":"東京都","city":"稲城市","address":"稲城市大丸607-2","lat":35.646515,"lon":139.49383},{"name":"稲城市立第六保育園","province":"東京都","city":"稲城市","address":"稲城市大丸82-4","lat":35.645288,"lon":139.499535},{"name":"本郷ゆうし保育園","province":"東京都","city":"稲城市","address":"稲城市東長沼2115-2","lat":35.637781,"lon":139.501344},{"name":"向陽台保育園","province":"東京都","city":"稲城市","address":"稲城市向陽台5-8","lat":35.638075,"lon":139.485975},{"name":"城山保育園","province":"東京都","city":"稲城市","address":"稲城市向陽台6-4","lat":35.641674,"lon":139.492689},{"name":"城山保育園南山","province":"東京都","city":"稲城市","address":"稲城市百村1461-1","lat":35.63211,"lon":139.503409},{"name":"メリーポピンズ稲城ルーム","province":"東京都","city":"稲城市","address":"稲城市百村1607番3稲城駅前KMビル2階","lat":35.635588,"lon":139.501478},{"name":"中島ゆうし保育園","province":"東京都","city":"稲城市","address":"稲城市矢野口256","lat":35.642751,"lon":139.519176},{"name":"松葉保育園","province":"東京都","city":"稲城市","address":"稲城市矢野口2065","lat":35.634419,"lon":139.520641},{"name":"もみの木保育園長峰","province":"東京都","city":"稲城市","address":"稲城市長峰2-10","lat":35.630412,"lon":139.482276},{"name":"稲城市立第三保育園","province":"東京都","city":"稲城市","address":"稲城市坂浜1012-2","lat":35.622461,"lon":139.485163},{"name":"稲城市立第五保育園","province":"東京都","city":"稲城市","address":"稲城市平尾1187-3","lat":35.611833,"lon":139.486772},{"name":"ひらお保育園","province":"東京都","city":"稲城市","address":"稲城市平尾3-1-23","lat":35.610358,"lon":139.487294},{"name":"若葉台バオバブ保育園","province":"東京都","city":"稲城市","address":"稲城市若葉台4-17","lat":35.627662,"lon":139.468494},{"name":"もみの木保育園若葉台","province":"東京都","city":"稲城市","address":"稲城市若葉台1-54","lat":35.624385,"lon":139.475483},{"name":"稲城市立第四保育園","province":"東京都","city":"稲城市","address":"稲城市大丸607-2","lat":35.646515,"lon":139.49383},{"name":"稲城市立第六保育園","province":"東京都","city":"稲城市","address":"稲城市大丸82-4","lat":35.645288,"lon":139.499535},{"name":"本郷ゆうし保育園","province":"東京都","city":"稲城市","address":"稲城市東長沼2115-2","lat":35.637781,"lon":139.501344},{"name":"向陽台保育園","province":"東京都","city":"稲城市","address":"稲城市向陽台5-8","lat":35.638075,"lon":139.485975},{"name":"城山保育園","province":"東京都","city":"稲城市","address":"稲城市向陽台6-4","lat":35.641674,"lon":139.492689},{"name":"城山保育園南山","province":"東京都","city":"稲城市","address":"稲城市百村1461-1","lat":35.63211,"lon":139.503409},{"name":"メリーポピンズ稲城ルーム","province":"東京都","city":"稲城市","address":"稲城市百村1607番3稲城駅前KMビル2階","lat":35.635588,"lon":139.501478},{"name":"中島ゆうし保育園","province":"東京都","city":"稲城市","address":"稲城市矢野口256","lat":35.642751,"lon":139.519176},{"name":"松葉保育園","province":"東京都","city":"稲城市","address":"稲城市矢野口2065","lat":35.634419,"lon":139.520641},{"name":"もみの木保育園長峰","province":"東京都","city":"稲城市","address":"稲城市長峰2-10","lat":35.630412,"lon":139.482276},{"name":"稲城市立第三保育園","province":"東京都","city":"稲城市","address":"稲城市坂浜1012-2","lat":35.622461,"lon":139.485163},{"name":"稲城市立第五保育園","province":"東京都","city":"稲城市","address":"稲城市平尾1187-3","lat":35.611833,"lon":139.486772},{"name":"ひらお保育園","province":"東京都","city":"稲城市","address":"稲城市平尾3-1-23","lat":35.610358,"lon":139.487294},{"name":"若葉台バオバブ保育園","province":"東京都","city":"稲城市","address":"稲城市若葉台4-17","lat":35.627662,"lon":139.468494},{"name":"もみの木保育園若葉台","province":"東京都","city":"稲城市","address":"稲城市若葉台1-54","lat":35.624385,"lon":139.475483},{"name":"稲城市立第四保育園","province":"東京都","city":"稲城市","address":"稲城市大丸607-2","lat":35.646515,"lon":139.49383},{"name":"稲城市立第六保育園","province":"東京都","city":"稲城市","address":"稲城市大丸82-4","lat":35.645288,"lon":139.499535},{"name":"本郷ゆうし保育園","province":"東京都","city":"稲城市","address":"稲城市東長沼2115-2","lat":35.637781,"lon":139.501344},{"name":"向陽台保育園","province":"東京都","city":"稲城市","address":"稲城市向陽台5-8","lat":35.638075,"lon":139.485975},{"name":"城山保育園","province":"東京都","city":"稲城市","address":"稲城市向陽台6-4","lat":35.641674,"lon":139.492689},{"name":"城山保育園南山","province":"東京都","city":"稲城市","address":"稲城市百村1461-1","lat":35.63211,"lon":139.503409},{"name":"メリーポピンズ稲城ルーム","province":"東京都","city":"稲城市","address":"稲城市百村1607番3稲城駅前KMビル2階","lat":35.635588,"lon":139.501478},{"name":"中島ゆうし保育園","province":"東京都","city":"稲城市","address":"稲城市矢野口256","lat":35.642751,"lon":139.519176},{"name":"松葉保育園","province":"東京都","city":"稲城市","address":"稲城市矢野口2065","lat":35.634419,"lon":139.520641},{"name":"もみの木保育園長峰","province":"東京都","city":"稲城市","address":"稲城市長峰2-10","lat":35.630412,"lon":139.482276},{"name":"稲城市立第三保育園","province":"東京都","city":"稲城市","address":"稲城市坂浜1012-2","lat":35.622461,"lon":139.485163},{"name":"稲城市立第五保育園","province":"東京都","city":"稲城市","address":"稲城市平尾1187-3","lat":35.611833,"lon":139.486772},{"name":"ひらお保育園","province":"東京都","city":"稲城市","address":"稲城市平尾3-1-23","lat":35.610358,"lon":139.487294},{"name":"若葉台バオバブ保育園","province":"東京都","city":"稲城市","address":"稲城市若葉台4-17","lat":35.627662,"lon":139.468494},{"name":"もみの木保育園若葉台","province":"東京都","city":"稲城市","address":"稲城市若葉台1-54","lat":35.624385,"lon":139.475483},{"name":"稲城市立第四保育園","province":"東京都","city":"稲城市","address":"稲城市大丸607-2","lat":35.646515,"lon":139.49383},{"name":"稲城市立第六保育園","province":"東京都","city":"稲城市","address":"稲城市大丸82-4","lat":35.645288,"lon":139.499535},{"name":"本郷ゆうし保育園","province":"東京都","city":"稲城市","address":"稲城市東長沼2115-2","lat":35.637781,"lon":139.501344},{"name":"向陽台保育園","province":"東京都","city":"稲城市","address":"稲城市向陽台5-8","lat":35.638075,"lon":139.485975},{"name":"城山保育園","province":"東京都","city":"稲城市","address":"稲城市向陽台6-4","lat":35.641674,"lon":139.492689},{"name":"城山保育園南山","province":"東京都","city":"稲城市","address":"稲城市百村1461-1","lat":35.63211,"lon":139.503409},{"name":"メリーポピンズ稲城ルーム","province":"東京都","city":"稲城市","address":"稲城市百村1607番3稲城駅前KMビル2階","lat":35.635588,"lon":139.501478},{"name":"中島ゆうし保育園","province":"東京都","city":"稲城市","address":"稲城市矢野口256","lat":35.642751,"lon":139.519176},{"name":"松葉保育園","province":"東京都","city":"稲城市","address":"稲城市矢野口2065","lat":35.634419,"lon":139.520641},{"name":"もみの木保育園長峰","province":"東京都","city":"稲城市","address":"稲城市長峰2-10","lat":35.630412,"lon":139.482276},{"name":"稲城市立第三保育園","province":"東京都","city":"稲城市","address":"稲城市坂浜1012-2","lat":35.622461,"lon":139.485163},{"name":"稲城市立第五保育園","province":"東京都","city":"稲城市","address":"稲城市平尾1187-3","lat":35.611833,"lon":139.486772},{"name":"ひらお保育園","province":"東京都","city":"稲城市","address":"稲城市平尾3-1-23","lat":35.610358,"lon":139.487294},{"name":"若葉台バオバブ保育園","province":"東京都","city":"稲城市","address":"稲城市若葉台4-17","lat":35.627662,"lon":139.468494},{"name":"もみの木保育園若葉台","province":"東京都","city":"稲城市","address":"稲城市若葉台1-54","lat":35.624385,"lon":139.475483},{"name":"稲城市立第四保育園","province":"東京都","city":"稲城市","address":"稲城市大丸607-2","lat":35.646515,"lon":139.49383},{"name":"稲城市立第六保育園","province":"東京都","city":"稲城市","address":"稲城市大丸82-4","lat":35.645288,"lon":139.499535},{"name":"本郷ゆうし保育園","province":"東京都","city":"稲城市","address":"稲城市東長沼2115-2","lat":35.637781,"lon":139.501344},{"name":"向陽台保育園","province":"東京都","city":"稲城市","address":"稲城市向陽台5-8","lat":35.638075,"lon":139.485975},{"name":"城山保育園","province":"東京都","city":"稲城市","address":"稲城市向陽台6-4","lat":35.641674,"lon":139.492689},{"name":"城山保育園南山","province":"東京都","city":"稲城市","address":"稲城市百村1461-1","lat":35.63211,"lon":139.503409},{"name":"メリーポピンズ稲城ルーム","province":"東京都","city":"稲城市","address":"稲城市百村1607番3稲城駅前KMビル2階","lat":35.635588,"lon":139.501478},{"name":"中島ゆうし保育園","province":"東京都","city":"稲城市","address":"稲城市矢野口256","lat":35.642751,"lon":139.519176},{"name":"松葉保育園","province":"東京都","city":"稲城市","address":"稲城市矢野口2065","lat":35.634419,"lon":139.520641},{"name":"もみの木保育園長峰","province":"東京都","city":"稲城市","address":"稲城市長峰2-10","lat":35.630412,"lon":139.482276},{"name":"稲城市立第三保育園","province":"東京都","city":"稲城市","address":"稲城市坂浜1012-2","lat":35.622461,"lon":139.485163},{"name":"稲城市立第五保育園","province":"東京都","city":"稲城市","address":"稲城市平尾1187-3","lat":35.611833,"lon":139.486772},{"name":"ひらお保育園","province":"東京都","city":"稲城市","address":"稲城市平尾3-1-23","lat":35.610358,"lon":139.487294},{"name":"若葉台バオバブ保育園","province":"東京都","city":"稲城市","address":"稲城市若葉台4-17","lat":35.627662,"lon":139.468494},{"name":"もみの木保育園若葉台","province":"東京都","city":"稲城市","address":"稲城市若葉台1-54","lat":35.624385,"lon":139.475483},{"name":"稲城市立第四保育園","province":"東京都","city":"稲城市","address":"稲城市大丸607-2","lat":35.646515,"lon":139.49383},{"name":"稲城市立第六保育園","province":"東京都","city":"稲城市","address":"稲城市大丸82-4","lat":35.645288,"lon":139.499535},{"name":"本郷ゆうし保育園","province":"東京都","city":"稲城市","address":"稲城市東長沼2115-2","lat":35.637781,"lon":139.501344},{"name":"向陽台保育園","province":"東京都","city":"稲城市","address":"稲城市向陽台5-8","lat":35.638075,"lon":139.485975},{"name":"城山保育園","province":"東京都","city":"稲城市","address":"稲城市向陽台6-4","lat":35.641674,"lon":139.492689},{"name":"城山保育園南山","province":"東京都","city":"稲城市","address":"稲城市百村1461-1","lat":35.63211,"lon":139.503409},{"name":"メリーポピンズ稲城ルーム","province":"東京都","city":"稲城市","address":"稲城市百村1607番3稲城駅前KMビル2階","lat":35.635588,"lon":139.501478},{"name":"中島ゆうし保育園","province":"東京都","city":"稲城市","address":"稲城市矢野口256","lat":35.642751,"lon":139.519176},{"name":"松葉保育園","province":"東京都","city":"稲城市","address":"稲城市矢野口2065","lat":35.634419,"lon":139.520641},{"name":"もみの木保育園長峰","province":"東京都","city":"稲城市","address":"稲城市長峰2-10","lat":35.630412,"lon":139.482276},{"name":"稲城市立第三保育園","province":"東京都","city":"稲城市","address":"稲城市坂浜1012-2","lat":35.622461,"lon":139.485163},{"name":"稲城市立第五保育園","province":"東京都","city":"稲城市","address":"稲城市平尾1187-3","lat":35.611833,"lon":139.486772},{"name":"ひらお保育園","province":"東京都","city":"稲城市","address":"稲城市平尾3-1-23","lat":35.610358,"lon":139.487294},{"name":"若葉台バオバブ保育園","province":"東京都","city":"稲城市","address":"稲城市若葉台4-17","lat":35.627662,"lon":139.468494},{"name":"もみの木保育園若葉台","province":"東京都","city":"稲城市","address":"稲城市若葉台1-54","lat":35.624385,"lon":139.475483},{"name":"稲城市立第四保育園","province":"東京都","city":"稲城市","address":"稲城市大丸607-2","lat":35.646515,"lon":139.49383},{"name":"稲城市立第六保育園","province":"東京都","city":"稲城市","address":"稲城市大丸82-4","lat":35.645288,"lon":139.499535},{"name":"本郷ゆうし保育園","province":"東京都","city":"稲城市","address":"稲城市東長沼2115-2","lat":35.637781,"lon":139.501344},{"name":"向陽台保育園","province":"東京都","city":"稲城市","address":"稲城市向陽台5-8","lat":35.638075,"lon":139.485975},{"name":"城山保育園","province":"東京都","city":"稲城市","address":"稲城市向陽台6-4","lat":35.641674,"lon":139.492689},{"name":"城山保育園南山","province":"東京都","city":"稲城市","address":"稲城市百村1461-1","lat":35.63211,"lon":139.503409},{"name":"メリーポピンズ稲城ルーム","province":"東京都","city":"稲城市","address":"稲城市百村1607番3稲城駅前KMビル2階","lat":35.635588,"lon":139.501478},{"name":"中島ゆうし保育園","province":"東京都","city":"稲城市","address":"稲城市矢野口256","lat":35.642751,"lon":139.519176},{"name":"松葉保育園","province":"東京都","city":"稲城市","address":"稲城市矢野口2065","lat":35.634419,"lon":139.520641},{"name":"もみの木保育園長峰","province":"東京都","city":"稲城市","address":"稲城市長峰2-10","lat":35.630412,"lon":139.482276},{"name":"稲城市立第三保育園","province":"東京都","city":"稲城市","address":"稲城市坂浜1012-2","lat":35.622461,"lon":139.485163},{"name":"稲城市立第五保育園","province":"東京都","city":"稲城市","address":"稲城市平尾1187-3","lat":35.611833,"lon":139.486772},{"name":"ひらお保育園","province":"東京都","city":"稲城市","address":"稲城市平尾3-1-23","lat":35.610358,"lon":139.487294},{"name":"若葉台バオバブ保育園","province":"東京都","city":"稲城市","address":"稲城市若葉台4-17","lat":35.627662,"lon":139.468494},{"name":"もみの木保育園若葉台","province":"東京都","city":"稲城市","address":"稲城市若葉台1-54","lat":35.624385,"lon":139.475483},{"name":"稲城市立第四保育園","province":"東京都","city":"稲城市","address":"稲城市大丸607-2","lat":35.646515,"lon":139.49383},{"name":"稲城市立第六保育園","province":"東京都","city":"稲城市","address":"稲城市大丸82-4","lat":35.645288,"lon":139.499535},{"name":"本郷ゆうし保育園","province":"東京都","city":"稲城市","address":"稲城市東長沼2115-2","lat":35.637781,"lon":139.501344},{"name":"向陽台保育園","province":"東京都","city":"稲城市","address":"稲城市向陽台5-8","lat":35.638075,"lon":139.485975},{"name":"城山保育園","province":"東京都","city":"稲城市","address":"稲城市向陽台6-4","lat":35.641674,"lon":139.492689},{"name":"城山保育園南山","province":"東京都","city":"稲城市","address":"稲城市百村1461-1","lat":35.63211,"lon":139.503409},{"name":"メリーポピンズ稲城ルーム","province":"東京都","city":"稲城市","address":"稲城市百村1607番3稲城駅前KMビル2階","lat":35.635588,"lon":139.501478},{"name":"中島ゆうし保育園","province":"東京都","city":"稲城市","address":"稲城市矢野口256","lat":35.642751,"lon":139.519176},{"name":"松葉保育園","province":"東京都","city":"稲城市","address":"稲城市矢野口2065","lat":35.634419,"lon":139.520641},{"name":"もみの木保育園長峰","province":"東京都","city":"稲城市","address":"稲城市長峰2-10","lat":35.630412,"lon":139.482276},{"name":"稲城市立第三保育園","province":"東京都","city":"稲城市","address":"稲城市坂浜1012-2","lat":35.622461,"lon":139.485163},{"name":"稲城市立第五保育園","province":"東京都","city":"稲城市","address":"稲城市平尾1187-3","lat":35.611833,"lon":139.486772},{"name":"ひらお保育園","province":"東京都","city":"稲城市","address":"稲城市平尾3-1-23","lat":35.610358,"lon":139.487294},{"name":"若葉台バオバブ保育園","province":"東京都","city":"稲城市","address":"稲城市若葉台4-17","lat":35.627662,"lon":139.468494},{"name":"もみの木保育園若葉台","province":"東京都","city":"稲城市","address":"稲城市若葉台1-54","lat":35.624385,"lon":139.475483},{"name":"稲城市立第四保育園","province":"東京都","city":"稲城市","address":"稲城市大丸607-2","lat":35.646515,"lon":139.49383},{"name":"稲城市立第六保育園","province":"東京都","city":"稲城市","address":"稲城市大丸82-4","lat":35.645288,"lon":139.499535},{"name":"本郷ゆうし保育園","province":"東京都","city":"稲城市","address":"稲城市東長沼2115-2","lat":35.637781,"lon":139.501344},{"name":"向陽台保育園","province":"東京都","city":"稲城市","address":"稲城市向陽台5-8","lat":35.638075,"lon":139.485975},{"name":"城山保育園","province":"東京都","city":"稲城市","address":"稲城市向陽台6-4","lat":35.641674,"lon":139.492689},{"name":"城山保育園南山","province":"東京都","city":"稲城市","address":"稲城市百村1461-1","lat":35.63211,"lon":139.503409},{"name":"メリーポピンズ稲城ルーム","province":"東京都","city":"稲城市","address":"稲城市百村1607番3稲城駅前KMビル2階","lat":35.635588,"lon":139.501478},{"name":"中島ゆうし保育園","province":"東京都","city":"稲城市","address":"稲城市矢野口256","lat":35.642751,"lon":139.519176},{"name":"松葉保育園","province":"東京都","city":"稲城市","address":"稲城市矢野口2065","lat":35.634419,"lon":139.520641},{"name":"もみの木保育園長峰","province":"東京都","city":"稲城市","address":"稲城市長峰2-10","lat":35.630412,"lon":139.482276},{"name":"稲城市立第三保育園","province":"東京都","city":"稲城市","address":"稲城市坂浜1012-2","lat":35.622461,"lon":139.485163},{"name":"稲城市立第五保育園","province":"東京都","city":"稲城市","address":"稲城市平尾1187-3","lat":35.611833,"lon":139.486772},{"name":"ひらお保育園","province":"東京都","city":"稲城市","address":"稲城市平尾3-1-23","lat":35.610358,"lon":139.487294},{"name":"若葉台バオバブ保育園","province":"東京都","city":"稲城市","address":"稲城市若葉台4-17","lat":35.627662,"lon":139.468494},{"name":"もみの木保育園若葉台","province":"東京都","city":"稲城市","address":"稲城市若葉台1-54","lat":35.624385,"lon":139.475483},{"name":"稲城市立第四保育園","province":"東京都","city":"稲城市","address":"稲城市大丸607-2","lat":35.646515,"lon":139.49383},{"name":"稲城市立第六保育園","province":"東京都","city":"稲城市","address":"稲城市大丸82-4","lat":35.645288,"lon":139.499535},{"name":"本郷ゆうし保育園","province":"東京都","city":"稲城市","address":"稲城市東長沼2115-2","lat":35.637781,"lon":139.501344},{"name":"向陽台保育園","province":"東京都","city":"稲城市","address":"稲城市向陽台5-8","lat":35.638075,"lon":139.485975},{"name":"城山保育園","province":"東京都","city":"稲城市","address":"稲城市向陽台6-4","lat":35.641674,"lon":139.492689},{"name":"城山保育園南山","province":"東京都","city":"稲城市","address":"稲城市百村1461-1","lat":35.63211,"lon":139.503409},{"name":"メリーポピンズ稲城ルーム","province":"東京都","city":"稲城市","address":"稲城市百村1607番3稲城駅前KMビル2階","lat":35.635588,"lon":139.501478},{"name":"中島ゆうし保育園","province":"東京都","city":"稲城市","address":"稲城市矢野口256","lat":35.642751,"lon":139.519176},{"name":"松葉保育園","province":"東京都","city":"稲城市","address":"稲城市矢野口2065","lat":35.634419,"lon":139.520641},{"name":"もみの木保育園長峰","province":"東京都","city":"稲城市","address":"稲城市長峰2-10","lat":35.630412,"lon":139.482276},{"name":"稲城市立第三保育園","province":"東京都","city":"稲城市","address":"稲城市坂浜1012-2","lat":35.622461,"lon":139.485163},{"name":"稲城市立第五保育園","province":"東京都","city":"稲城市","address":"稲城市平尾1187-3","lat":35.611833,"lon":139.486772},{"name":"ひらお保育園","province":"東京都","city":"稲城市","address":"稲城市平尾3-1-23","lat":35.610358,"lon":139.487294},{"name":"若葉台バオバブ保育園","province":"東京都","city":"稲城市","address":"稲城市若葉台4-17","lat":35.627662,"lon":139.468494},{"name":"もみの木保育園若葉台","province":"東京都","city":"稲城市","address":"稲城市若葉台1-54","lat":35.624385,"lon":139.475483},{"name":"稲城市立第四保育園","province":"東京都","city":"稲城市","address":"稲城市大丸607-2","lat":35.646515,"lon":139.49383},{"name":"稲城市立第六保育園","province":"東京都","city":"稲城市","address":"稲城市大丸82-4","lat":35.645288,"lon":139.499535},{"name":"本郷ゆうし保育園","province":"東京都","city":"稲城市","address":"稲城市東長沼2115-2","lat":35.637781,"lon":139.501344},{"name":"向陽台保育園","province":"東京都","city":"稲城市","address":"稲城市向陽台5-8","lat":35.638075,"lon":139.485975},{"name":"城山保育園","province":"東京都","city":"稲城市","address":"稲城市向陽台6-4","lat":35.641674,"lon":139.492689},{"name":"城山保育園南山","province":"東京都","city":"稲城市","address":"稲城市百村1461-1","lat":35.63211,"lon":139.503409},{"name":"メリーポピンズ稲城ルーム","province":"東京都","city":"稲城市","address":"稲城市百村1607番3稲城駅前KMビル2階","lat":35.635588,"lon":139.501478},{"name":"中島ゆうし保育園","province":"東京都","city":"稲城市","address":"稲城市矢野口256","lat":35.642751,"lon":139.519176},{"name":"松葉保育園","province":"東京都","city":"稲城市","address":"稲城市矢野口2065","lat":35.634419,"lon":139.520641},{"name":"もみの木保育園長峰","province":"東京都","city":"稲城市","address":"稲城市長峰2-10","lat":35.630412,"lon":139.482276},{"name":"稲城市立第三保育園","province":"東京都","city":"稲城市","address":"稲城市坂浜1012-2","lat":35.622461,"lon":139.485163},{"name":"稲城市立第五保育園","province":"東京都","city":"稲城市","address":"稲城市平尾1187-3","lat":35.611833,"lon":139.486772},{"name":"ひらお保育園","province":"東京都","city":"稲城市","address":"稲城市平尾3-1-23","lat":35.610358,"lon":139.487294},{"name":"若葉台バオバブ保育園","province":"東京都","city":"稲城市","address":"稲城市若葉台4-17","lat":35.627662,"lon":139.468494},{"name":"もみの木保育園若葉台","province":"東京都","city":"稲城市","address":"稲城市若葉台1-54","lat":35.624385,"lon":139.475483},{"name":"稲城市立第四保育園","province":"東京都","city":"稲城市","address":"稲城市大丸607-2","lat":35.646515,"lon":139.49383},{"name":"稲城市立第六保育園","province":"東京都","city":"稲城市","address":"稲城市大丸82-4","lat":35.645288,"lon":139.499535},{"name":"本郷ゆうし保育園","province":"東京都","city":"稲城市","address":"稲城市東長沼2115-2","lat":35.637781,"lon":139.501344},{"name":"向陽台保育園","province":"東京都","city":"稲城市","address":"稲城市向陽台5-8","lat":35.638075,"lon":139.485975},{"name":"城山保育園","province":"東京都","city":"稲城市","address":"稲城市向陽台6-4","lat":35.641674,"lon":139.492689},{"name":"城山保育園南山","province":"東京都","city":"稲城市","address":"稲城市百村1461-1","lat":35.63211,"lon":139.503409},{"name":"メリーポピンズ稲城ルーム","province":"東京都","city":"稲城市","address":"稲城市百村1607番3稲城駅前KMビル2階","lat":35.635588,"lon":139.501478},{"name":"中島ゆうし保育園","province":"東京都","city":"稲城市","address":"稲城市矢野口256","lat":35.642751,"lon":139.519176},{"name":"松葉保育園","province":"東京都","city":"稲城市","address":"稲城市矢野口2065","lat":35.634419,"lon":139.520641},{"name":"もみの木保育園長峰","province":"東京都","city":"稲城市","address":"稲城市長峰2-10","lat":35.630412,"lon":139.482276},{"name":"稲城市立第三保育園","province":"東京都","city":"稲城市","address":"稲城市坂浜1012-2","lat":35.622461,"lon":139.485163},{"name":"稲城市立第五保育園","province":"東京都","city":"稲城市","address":"稲城市平尾1187-3","lat":35.611833,"lon":139.486772},{"name":"ひらお保育園","province":"東京都","city":"稲城市","address":"稲城市平尾3-1-23","lat":35.610358,"lon":139.487294},{"name":"若葉台バオバブ保育園","province":"東京都","city":"稲城市","address":"稲城市若葉台4-17","lat":35.627662,"lon":139.468494},{"name":"もみの木保育園若葉台","province":"東京都","city":"稲城市","address":"稲城市若葉台1-54","lat":35.624385,"lon":139.475483},{"name":"稲城市立第四保育園","province":"東京都","city":"稲城市","address":"稲城市大丸607-2","lat":35.646515,"lon":139.49383},{"name":"稲城市立第六保育園","province":"東京都","city":"稲城市","address":"稲城市大丸82-4","lat":35.645288,"lon":139.499535},{"name":"本郷ゆうし保育園","province":"東京都","city":"稲城市","address":"稲城市東長沼2115-2","lat":35.637781,"lon":139.501344},{"name":"向陽台保育園","province":"東京都","city":"稲城市","address":"稲城市向陽台5-8","lat":35.638075,"lon":139.485975},{"name":"城山保育園","province":"東京都","city":"稲城市","address":"稲城市向陽台6-4","lat":35.641674,"lon":139.492689},{"name":"城山保育園南山","province":"東京都","city":"稲城市","address":"稲城市百村1461-1","lat":35.63211,"lon":139.503409},{"name":"メリーポピンズ稲城ルーム","province":"東京都","city":"稲城市","address":"稲城市百村1607番3稲城駅前KMビル2階","lat":35.635588,"lon":139.501478},{"name":"中島ゆうし保育園","province":"東京都","city":"稲城市","address":"稲城市矢野口256","lat":35.642751,"lon":139.519176},{"name":"松葉保育園","province":"東京都","city":"稲城市","address":"稲城市矢野口2065","lat":35.634419,"lon":139.520641},{"name":"もみの木保育園長峰","province":"東京都","city":"稲城市","address":"稲城市長峰2-10","lat":35.630412,"lon":139.482276},{"name":"稲城市立第三保育園","province":"東京都","city":"稲城市","address":"稲城市坂浜1012-2","lat":35.622461,"lon":139.485163},{"name":"稲城市立第五保育園","province":"東京都","city":"稲城市","address":"稲城市平尾1187-3","lat":35.611833,"lon":139.486772},{"name":"ひらお保育園","province":"東京都","city":"稲城市","address":"稲城市平尾3-1-23","lat":35.610358,"lon":139.487294},{"name":"若葉台バオバブ保育園","province":"東京都","city":"稲城市","address":"稲城市若葉台4-17","lat":35.627662,"lon":139.468494},{"name":"もみの木保育園若葉台","province":"東京都","city":"稲城市","address":"稲城市若葉台1-54","lat":35.624385,"lon":139.475483}]}