{"keyword":"保育","data":[{"name":"稲城市立第四保育園","province":"東京都","city":"稲城市","address":"稲城市大丸607-2","lat":35.646515,"lon":139.49383},{"name":"稲城市立第六保育園","province":"東京都","city":"稲城市","address":"稲城市大丸82-4","lat":35.645288,"lon":139.499535},{"name":"本郷ゆうし保育園","province":"東京都","city":"稲城市","address":"稲城市東長沼2115-2","lat":35.637781,"lon":139.501344},{"name":"向陽台保育園","province":"東京都","city":"稲城市","address":"稲城市向陽台5-8","lat":35.638075,"lon":139.485975},{"name":"城山保育園","province":"東京都","city":"稲城市","address":"稲城市向陽台6-4","lat":35.641674,"lon":139.492689},{"name":"城山保育園南山","province":"東京都","city":"稲城市","address":"稲城市百村1461-1","lat":35.63211,"lon":139.503409},{"name":"メリーポピンズ稲城ルーム","province":"東京都","city":"稲城市","address":"稲城市百村1607番3稲城駅前KMビル2階","lat":35.635588,"lon":139.501478},{"name":"中島ゆうし保育園","province":"東京都","city":"稲城市","address":"稲城市矢野口256","lat":35.642751,"lon":139.519176},{"name":"松葉保育園","province":"東京都","city":"稲城市","address":"稲城市矢野口2065","lat":35.634419,"lon":139.520641},{"name":"もみの木保育園長峰","province":"東京都","city":"稲城市","address":"稲城市長峰2-10","lat":35.630412,"lon":139.482276},{"name":"稲城市立第三保育園","province":"東京都","city":"稲城市","address":"稲城市坂浜1012-2","lat":35.622461,"lon":139.485163},{"name":"稲城市立第五保育園","province":"東京都","city":"稲城市","address":"稲城市平尾1187-3","lat":35.611833,"lon":139.486772},{"name":"ひらお保育園","province":"東京都","city":"稲城市","address":"稲城市平尾3-1-23","lat":35.610358,"lon":139.487294},{"name":"若葉台バオバブ保育園","province":"東京都","city":"稲城市","address":"稲城市若葉台4-17","lat":35.627662,"lon":139.468494},{"name":"もみの木保育園若葉台","province":"東京都","city":"稲城市","address":"稲城市若葉台1-54","lat":35.624385,"lon":139.475483}]}