{"keyword":"公民","data":[{"name":"＊?稲城市立中央公民館","province":"東京都","city":"稲城市","address":"稲城市東長沼2111","lat":35.638078,"lon":139.503749},{"name":"＊?稲城市立第二公民館","province":"東京都","city":"稲城市","address":"稲城市矢野口1780","lat":35.634853,"lon":139.518966},{"name":"＊?稲城市立第三公民館","province":"東京都","city":"稲城市","address":"稲城市平尾1-20-5","lat":35.613117,"lon":139.492461},{"name":"＊?稲城市立第四公民館","province":"東京都","city":"稲城市","address":"稲城市東長沼271","lat":35.645914,"lon":139.505366},{"name":"＊?稲城市立城山公民館","province":"東京都","city":"稲城市","address":"稲城市向陽台6-7","lat":35.641555,"lon":139.493851}]}