{"keyword":"医薬","data":[{"name":"稲城第七小学校","province":"東京都","city":"稲城市","address":"東京都稲城市矢野口1901-2","lat":35.635347,"lon":139.520294},{"name":"第二文化センター","province":"東京都","city":"稲城市","address":"東京都稲城市矢野口1780","lat":35.635294,"lon":139.518437},{"name":"よみうりゴルフ倶楽部","province":"東京都","city":"稲城市","address":"東京都稲城市矢野口3376-1","lat":35.624094,"lon":139.510637},{"name":"ハーモニー松葉","province":"東京都","city":"稲城市","address":"東京都稲城市矢野口1806","lat":35.636842,"lon":139.51889},{"name":"京王よみうりランド駅","province":"東京都","city":"稲城市","address":"東京都稲城市矢野口2200-1","lat":35.63299,"lon":139.51739},{"name":"青葉幼稚園","province":"東京都","city":"稲城市","address":"東京都稲城市矢野口645","lat":35.639599,"lon":139.519621},{"name":"よみうりランド慶友病院","province":"東京都","city":"稲城市","address":"東京都稲城市矢野口3294","lat":35.627052,"lon":139.516561},{"name":"矢の口幼稚園","province":"東京都","city":"稲城市","address":"東京都稲城市矢野口1753","lat":35.63606,"lon":139.518237},{"name":"かじわら内科泌尿科クリニック","province":"東京都","city":"稲城市","address":"東京都稲城市矢野口1541アーバンシャトル1階","lat":35.637321,"lon":139.514102},{"name":"よみうりランド丘の湯","province":"東京都","city":"稲城市","address":"東京都稲城市矢野口3302-8","lat":35.625902,"lon":139.51502},{"name":"地域振興プラザ","province":"東京都","city":"稲城市","address":"東京都稲城市東長沼2112-1","lat":35.637893,"lon":139.505696},{"name":"稲城第一小学校","province":"東京都","city":"稲城市","address":"東京都稲城市東長沼956","lat":35.640733,"lon":139.511849},{"name":"稲城第三中学校","province":"東京都","city":"稲城市","address":"東京都稲城市矢野口3043","lat":35.636577,"lon":139.507492},{"name":"中央文化センター","province":"東京都","city":"稲城市","address":"東京都稲城市東長沼2111","lat":35.638279,"lon":139.503634},{"name":"第四文化センター","province":"東京都","city":"稲城市","address":"東京都稲城市東長沼271","lat":35.645949,"lon":139.505221},{"name":"稲城市役所","province":"東京都","city":"稲城市","address":"東京都稲城市東長沼2111","lat":35.637932,"lon":139.504647},{"name":"稲城消防署","province":"東京都","city":"稲城市","address":"東京都稲城市東長沼2111","lat":35.637918,"lon":139.505022},{"name":"稲城駅","province":"東京都","city":"稲城市","address":"東京都稲城市東長沼3108","lat":35.636223,"lon":139.500264},{"name":"コナミスポーツクラブ稲城","province":"東京都","city":"稲城市","address":"東京都稲城市東長沼3107-4京王リトナード稲城5階","lat":35.636685,"lon":139.500275},{"name":"稲城市柔道接骨師会","province":"東京都","city":"稲城市","address":"東京都稲城市東長沼1174-1リベラルハイツ1階","lat":35.642612,"lon":139.503691},{"name":"稲城第四小学校","province":"東京都","city":"稲城市","address":"東京都稲城市押立1250","lat":35.644729,"lon":139.516301},{"name":"稲城第四中学校","province":"東京都","city":"稲城市","address":"東京都稲城市押立1768","lat":35.645923,"lon":139.517889},{"name":"富士通フロンテック株式会社","province":"東京都","city":"稲城市","address":"東京都稲城市矢野口1776","lat":35.634796,"lon":139.518279},{"name":"DUO稲城","province":"東京都","city":"稲城市","address":"東京都稲城市東長沼1709-4","lat":35.638283,"lon":139.505886},{"name":"梨花幼稚園","province":"東京都","city":"稲城市","address":"東京都稲城市押立392","lat":35.649985,"lon":139.508982},{"name":"ペアウェル矢野口","province":"東京都","city":"稲城市","address":"東京都稲城市矢野口944","lat":35.64305,"lon":139.512179},{"name":"矢野口駅","province":"東京都","city":"稲城市","address":"東京都稲城市矢野口300","lat":35.641707,"lon":139.520456},{"name":"ペアウェル多摩川","province":"東京都","city":"稲城市","address":"東京都稲城市東長沼665","lat":35.64525,"lon":139.509013},{"name":"稲城長沼駅","province":"東京都","city":"稲城市","address":"東京都稲城市東長沼556","lat":35.644456,"lon":139.502083},{"name":"東長沼自治会館","province":"東京都","city":"稲城市","address":"東京都稲城市東長沼1055-1","lat":35.642728,"lon":139.500972},{"name":"渡辺歯科（ガーデンピア樹光1階）","province":"東京都","city":"稲城市","address":"東京都稲城市東長沼3109","lat":35.635964,"lon":139.501679},{"name":"常楽寺","province":"東京都","city":"稲城市","address":"東京都稲城市東長沼2117-2","lat":35.63711,"lon":139.501288},{"name":"矢野口交番","province":"東京都","city":"稲城市","address":"東京都稲城市矢野口432-1","lat":35.640311,"lon":139.520757},{"name":"東長沼駐在所","province":"東京都","city":"稲城市","address":"東京都稲城市東長沼602-2","lat":35.645184,"lon":139.506544},{"name":"南山小学校","province":"東京都","city":"稲城市","address":"東京都稲城市矢野口3635","lat":35.628888,"lon":139.508307},{"name":"いなぎ発信基地ペアテラス","province":"東京都","city":"稲城市","address":"東京都稲城市東長沼516-2","lat":35.6442,"lon":139.502896},{"name":"松葉保育園","province":"東京都","city":"稲城市","address":"東京都稲城市矢野口2065","lat":35.634445,"lon":139.520832},{"name":"中島ゆうし保育園","province":"東京都","city":"稲城市","address":"東京都稲城市矢野口256","lat":35.642811,"lon":139.519143},{"name":"本郷ゆうし保育園","province":"東京都","city":"稲城市","address":"東京都稲城市東長沼2115-2","lat":35.637889,"lon":139.501244},{"name":"アスクやのくち保育園","province":"東京都","city":"稲城市","address":"東京都稲城市矢野口387-1","lat":35.64134,"lon":139.522088},{"name":"長峰小学校","province":"東京都","city":"稲城市","address":"東京都稲城市長峰2-8","lat":35.630031,"lon":139.48311},{"name":"総合グラウンド","province":"東京都","city":"稲城市","address":"東京都稲城市長峰1-1","lat":35.633564,"lon":139.487369},{"name":"長峰コミュニティ防災センター","province":"東京都","city":"稲城市","address":"東京都稲城市長峰2-31-1","lat":35.628411,"lon":139.47844},{"name":"総合体育館","province":"東京都","city":"稲城市","address":"東京都稲城市長峰1-1","lat":35.631701,"lon":139.485861},{"name":"私立もみの木保育園","province":"東京都","city":"稲城市","address":"東京都稲城市長峰2-10","lat":35.630331,"lon":139.482084},{"name":"杜の三番街自治会","province":"東京都","city":"稲城市","address":"東京都稲城市長峰3-5杜の三番街4棟1階","lat":35.630707,"lon":139.481008},{"name":"若葉台小学校","province":"東京都","city":"稲城市","address":"東京都稲城市若葉台4-5","lat":35.626887,"lon":139.468174},{"name":"若葉台出張所","province":"東京都","city":"稲城市","address":"東京都稲城市若葉台2-5-2iプラザ内","lat":35.621133,"lon":139.472396},{"name":"若葉台公園管理棟","province":"東京都","city":"稲城市","address":"東京都稲城市若葉台1-19-1","lat":35.62503,"lon":139.473798},{"name":"稲城第六中学校","province":"東京都","city":"稲城市","address":"東京都稲城市若葉台3-11","lat":35.624724,"lon":139.467576},{"name":"ワルツの杜自治会","province":"東京都","city":"稲城市","address":"東京都稲城市若葉台3-1-1","lat":35.623212,"lon":139.470025},{"name":"ケーズ電気","province":"東京都","city":"稲城市","address":"東京都稲城市若葉台2-10-2","lat":35.621084,"lon":139.473372},{"name":"フレスポ若葉台","province":"東京都","city":"稲城市","address":"東京都稲城市若葉台2-4-2","lat":35.620328,"lon":139.473136},{"name":"若葉台クリニック","province":"東京都","city":"稲城市","address":"東京都稲城市若葉台2-4-4若葉台駅前KMビル2階","lat":35.62018,"lon":139.471613},{"name":"ユニディ若葉台店","province":"東京都","city":"稲城市","address":"東京都稲城市若葉台2-6","lat":35.621873,"lon":139.471704},{"name":"iプラザ","province":"東京都","city":"稲城市","address":"東京都稲城市若葉台2-5-2","lat":35.621228,"lon":139.472038},{"name":"若葉台ワーズワースの丘自治会","province":"東京都","city":"稲城市","address":"東京都稲城市若葉台1-21","lat":35.625445,"lon":139.470513},{"name":"ロイヤルパークス若葉台","province":"東京都","city":"稲城市","address":"東京都稲城市若葉台2-1-1","lat":35.620027,"lon":139.473888},{"name":"若葉台もみの木保育園","province":"東京都","city":"稲城市","address":"東京都稲城市若葉台1-54","lat":35.624681,"lon":139.475451},{"name":"PCDEPOTスマートライフ稲城若葉台店","province":"東京都","city":"稲城市","address":"東京都稲城市若葉台2-15","lat":35.622505,"lon":139.477693},{"name":"長峰駐在所","province":"東京都","city":"稲城市","address":"東京都稲城市長峰2-2-1","lat":35.631154,"lon":139.48504},{"name":"アクロスプラザイースト","province":"東京都","city":"稲城市","address":"東京都稲城市若葉台1-55","lat":35.623883,"lon":139.475124},{"name":"JSSスイミングスクール","province":"東京都","city":"稲城市","address":"東京都稲城市若葉台1-55アクロスプラザイースト内1階","lat":35.623385,"lon":139.474952},{"name":"稲城長峰スポーツ広場","province":"東京都","city":"稲城市","address":"東京都稲城市長峰3-10-1","lat":35.631172,"lon":139.476582},{"name":"若葉台センター商業ビル","province":"東京都","city":"稲城市","address":"東京都稲城市若葉台2-6","lat":35.621743,"lon":139.471182},{"name":"若葉台バオバブ保育園","province":"東京都","city":"稲城市","address":"東京都稲城市若葉台4-17","lat":35.627724,"lon":139.468796},{"name":"アルソック稲城ビル","province":"東京都","city":"稲城市","address":"東京都稲城市若葉台1-20","lat":35.62499,"lon":139.47188},{"name":"稲城第三小学校","province":"東京都","city":"稲城市","address":"東京都稲城市大丸100","lat":35.643299,"lon":139.49963},{"name":"稲城第六小学校","province":"東京都","city":"稲城市","address":"東京都稲城市大丸2110","lat":35.649764,"lon":139.499421},{"name":"市民プール","province":"東京都","city":"稲城市","address":"東京都稲城市大丸3111-1","lat":35.650508,"lon":139.496855},{"name":"稲城市福祉センター","province":"東京都","city":"稲城市","address":"東京都稲城市百村7","lat":35.639575,"lon":139.499977},{"name":"稲城第一中学校","province":"東京都","city":"稲城市","address":"東京都稲城市百村23","lat":35.640379,"lon":139.499475},{"name":"稲城市保健センター","province":"東京都","city":"稲城市","address":"東京都稲城市百村112-1","lat":35.638296,"lon":139.497548},{"name":"アクラブ稲城","province":"東京都","city":"稲城市","address":"東京都稲城市百村1624-3","lat":35.634924,"lon":139.501429},{"name":"特別養護老人ホームいなぎ苑","province":"東京都","city":"稲城市","address":"東京都稲城市百村255","lat":35.635385,"lon":139.49202},{"name":"稲城雲母保育園","province":"東京都","city":"稲城市","address":"東京都稲城市大丸1025-3","lat":35.648955,"lon":139.489633},{"name":"サントリー食品工業株式会社 南多摩工場","province":"東京都","city":"稲城市","address":"東京都稲城市大丸2271","lat":35.650924,"lon":139.485589},{"name":"日本フィルコン株式会社 東京事務所","province":"東京都","city":"稲城市","address":"東京都稲城市大丸2220","lat":35.650531,"lon":139.48966},{"name":"パルシステム生活協同組合 稲城事務センター","province":"東京都","city":"稲城市","address":"東京都稲城市百村2111","lat":35.636835,"lon":139.490959},{"name":"南多摩駅","province":"東京都","city":"稲城市","address":"東京都稲城市大丸1043","lat":35.64926,"lon":139.489468},{"name":"向陽台小学校","province":"東京都","city":"稲城市","address":"東京都稲城市向陽台3-2","lat":35.637573,"lon":139.488387},{"name":"城山小学校","province":"東京都","city":"稲城市","address":"東京都稲城市向陽台6-17","lat":35.642709,"lon":139.493188},{"name":"稲城第五中学校","province":"東京都","city":"稲城市","address":"東京都稲城市向陽台3-1-1","lat":35.638301,"lon":139.489669},{"name":"城山文化センター","province":"東京都","city":"稲城市","address":"東京都稲城市向陽台6-7","lat":35.641283,"lon":139.490863},{"name":"私立駒沢女子短期大学付属こまざわ幼稚園","province":"東京都","city":"稲城市","address":"東京都稲城市向陽台3-3","lat":35.637492,"lon":139.486692},{"name":"私立城山保育園","province":"東京都","city":"稲城市","address":"東京都稲城市向陽台6-4","lat":35.64188,"lon":139.492812},{"name":"稲城天然温泉 季乃彩","province":"東京都","city":"稲城市","address":"東京都稲城市向陽台6-13","lat":35.645781,"lon":139.489601},{"name":"みはらしの家","province":"東京都","city":"稲城市","address":"東京都稲城市向陽台4-2","lat":35.637126,"lon":139.485011},{"name":"向陽台駐在所","province":"東京都","city":"稲城市","address":"東京都稲城市向陽台3-7-4","lat":35.639798,"lon":139.487363},{"name":"城山体験学習館","province":"東京都","city":"稲城市","address":"東京都稲城市向陽台4-6-18","lat":35.64565,"lon":139.487945},{"name":"大丸交番","province":"東京都","city":"稲城市","address":"東京都稲城市大丸522-7","lat":35.647905,"lon":139.492953},{"name":"百村駐在所","province":"東京都","city":"稲城市","address":"東京都稲城市百村66-1","lat":35.638806,"lon":139.498286},{"name":"向陽台保育園","province":"東京都","city":"稲城市","address":"東京都稲城市向陽台5-8","lat":35.638213,"lon":139.486084},{"name":"ビューパレー向陽台管理組合","province":"東京都","city":"稲城市","address":"東京都稲城市向陽台2-11","lat":35.640823,"lon":139.491556},{"name":"ビスタセーレ向陽台管理組合","province":"東京都","city":"稲城市","address":"東京都稲城市向陽台6-19","lat":35.642198,"lon":139.494526},{"name":"稲城市立病院","province":"東京都","city":"稲城市","address":"東京都稲城市大丸1171","lat":35.646902,"lon":139.48569},{"name":"市立大丸ゆうし保育園","province":"東京都","city":"稲城市","address":"東京都稲城市大丸82-4","lat":35.645309,"lon":139.499528},{"name":"城山保育園南山","province":"東京都","city":"稲城市","address":"東京都稲城市百村1461-1","lat":35.632126,"lon":139.503389},{"name":"サザンヒルズこども園","province":"東京都","city":"稲城市","address":"東京都稲城市百村1461","lat":35.632256,"lon":139.503346},{"name":"平尾小学校","province":"東京都","city":"稲城市","address":"東京都稲城市平尾3-1-3","lat":35.611264,"lon":139.488559},{"name":"第三文化センター","province":"東京都","city":"稲城市","address":"東京都稲城市平尾1-20-5","lat":35.613115,"lon":139.492583},{"name":"ふれんど平尾","province":"東京都","city":"稲城市","address":"東京都稲城市平尾1-9-1","lat":35.613808,"lon":139.492427},{"name":"平尾出張所","province":"東京都","city":"稲城市","address":"東京都稲城市平尾3-1-1平尾住宅34棟内","lat":35.610184,"lon":139.488227},{"name":"特別養護老人ホームいなぎ正吉苑","province":"東京都","city":"稲城市","address":"東京都稲城市平尾1127-1","lat":35.615424,"lon":139.483981},{"name":"特別養護老人ホームひらお苑","province":"東京都","city":"稲城市","address":"東京都稲城市平尾2-49-20","lat":35.608542,"lon":139.49369},{"name":"平尾内科クリニック","province":"東京都","city":"稲城市","address":"東京都稲城市平尾3-7-26","lat":35.609249,"lon":139.488989},{"name":"稲城第二小学校","province":"東京都","city":"稲城市","address":"東京都稲城市坂浜590","lat":35.625118,"lon":139.485318},{"name":"稲城第二中学校","province":"東京都","city":"稲城市","address":"東京都稲城市坂浜1340","lat":35.615978,"lon":139.481193},{"name":"東京よみうりカントリークラブ","province":"東京都","city":"稲城市","address":"東京都稲城市坂浜685","lat":35.621048,"lon":139.49127},{"name":"私立駒澤学園","province":"東京都","city":"稲城市","address":"東京都稲城市坂浜238","lat":35.627667,"lon":139.49348},{"name":"多摩カントリークラブ","province":"東京都","city":"稲城市","address":"東京都稲城市坂浜3360","lat":35.633284,"lon":139.480237},{"name":"都立若葉総合高校","province":"東京都","city":"稲城市","address":"東京都稲城市坂浜1434-3","lat":35.618312,"lon":139.478959},{"name":"パサージュいなぎ","province":"東京都","city":"稲城市","address":"東京都稲城市坂浜1951-5","lat":35.629884,"lon":139.469978},{"name":"ファミリーマート稲城平尾店","province":"東京都","city":"稲城市","address":"東京都稲城市平尾1-34-9","lat":35.611843,"lon":139.489849},{"name":"平尾交番","province":"東京都","city":"稲城市","address":"東京都稲城市平尾3-7-27","lat":35.609117,"lon":139.488654},{"name":"坂浜駐在所","province":"東京都","city":"稲城市","address":"東京都稲城市坂浜2934-1","lat":35.627153,"lon":139.485257},{"name":"稲城ふれあいの森","province":"東京都","city":"稲城市","address":"東京都稲城市坂浜4-40-36","lat":35.619284,"lon":139.483114},{"name":"しぐた歯科","province":"東京都","city":"稲城市","address":"東京都稲城市平尾1-35-17","lat":35.611874,"lon":139.490505},{"name":"はなぶさ幼稚園","province":"東京都","city":"稲城市","address":"東京都稲城市平尾2-9-11","lat":35.609309,"lon":139.496366},{"name":"コーシャハイム平尾","province":"東京都","city":"稲城市","address":"東京都稲城市平尾3-7-4","lat":35.610849,"lon":139.492509},{"name":"日本大学アスレチックビレッジⅡ","province":"東京都","city":"稲城市","address":"東京都稲城市坂浜1382","lat":35.616051,"lon":139.479557},{"name":"ひなた自治会集会所","province":"東京都","city":"稲城市","address":"東京都稲城市平尾4-68-16","lat":35.610296,"lon":139.483189},{"name":"平尾わかば幼稚園","province":"東京都","city":"稲城市","address":"東京都稲城市平尾3-7-5","lat":35.6088,"lon":139.489519},{"name":"上平尾消防出張所","province":"東京都","city":"稲城市","address":"東京都稲城市平尾4-15-4","lat":35.614655,"lon":139.484431},{"name":"高勝寺","province":"東京都","city":"稲城市","address":"東京都稲城市坂浜551","lat":35.62607,"lon":139.4881},{"name":"坂浜サッカークラブグラウンド","province":"東京都","city":"稲城市","address":"東京都稲城市坂浜545-8","lat":35.62462,"lon":139.48852},{"name":"稲城台病院","province":"東京都","city":"稲城市","address":"東京都稲城市若葉台3-7-1","lat":35.62476,"lon":139.46453},{"name":"日本綜合産業㈱稲城営業所","province":"東京都","city":"稲城市","address":"東京都稲城市東長沼878-1","lat":35.64268,"lon":139.51},{"name":"デイ・ホームたんぽぽ","province":"東京都","city":"稲城市","address":"東京都稲城市大丸85-10トレゾール1F","lat":35.64438,"lon":139.50032},{"name":"ファースト歯科矢野口駅前クリニック","province":"東京都","city":"稲城市","address":"東京都稲城市矢野口3750-19アートフル矢野口駅前ビル1階・診療室","lat":35.64292,"lon":139.52134},{"name":"しいのみ保育園","province":"東京都","city":"稲城市","address":"東京都稲城市矢野口305","lat":35.64147,"lon":139.51976},{"name":"グループホームたんぽぽの郷","province":"東京都","city":"稲城市","address":"東京都稲城市若葉台1-13-5","lat":35.62525,"lon":139.47891},{"name":"スーパーレジン工業坂浜本社","province":"東京都","city":"稲城市","address":"東京都稲城市坂浜2283","lat":35.6225,"lon":139.47942},{"name":"日本住宅株式会社 西東京支店","province":"東京都","city":"稲城市","address":"東京都稲城市東長沼2000","lat":35.64136,"lon":139.50462},{"name":"クレヴィア若葉台パークナード","province":"東京都","city":"稲城市","address":"東京都稲城市若葉台1-33-2","lat":35.62368,"lon":139.47862},{"name":"稲城・府中メモリアルパーク","province":"東京都","city":"稲城市","address":"東京都稲城市矢野口3567","lat":35.62707,"lon":139.50875},{"name":"公益社団法人 九段","province":"東京都","city":"稲城市","address":"東京都稲城市矢野口3750-1","lat":35.64415,"lon":139.52119},{"name":"稲城歯科","province":"東京都","city":"稲城市","address":"東京都稲城市東長沼3107-1PIATOWN21-2階","lat":35.63714,"lon":139.50067},{"name":"矢野口こどもクラブ","province":"東京都","city":"稲城市","address":"東京都稲城市矢野口865ハイブリッジ101","lat":35.64214,"lon":139.51471},{"name":"株式会社 ＫＳＫ","province":"東京都","city":"稲城市","address":"東京都稲城市百村1625-2","lat":35.63443,"lon":139.50198},{"name":"稲城ハイライズ","province":"東京都","city":"稲城市","address":"東京都稲城市百村1627-1","lat":35.63429,"lon":139.50321},{"name":"キューソーティス株式会社","province":"東京都","city":"稲城市","address":"東京都稲城市東長沼1709-4","lat":35.64,"lon":139.50398},{"name":"佐川急便㈱稲城営業所","province":"東京都","city":"稲城市","address":"東京都稲城市百村2130-1","lat":35.63801,"lon":139.49252},{"name":"矢野口さちこ歯科医院","province":"東京都","city":"稲城市","address":"東京都稲城市矢野口313ハイムト矢野口2階","lat":35.64184,"lon":139.51985},{"name":"CURVESアメリア稲城（２階）","province":"東京都","city":"稲城市","address":"東京都稲城市矢野口2284-1","lat":35.636034,"lon":139.515488},{"name":"グローブスクエア","province":"東京都","city":"稲城市","address":"東京都稲城市矢野口2284-11","lat":35.635751,"lon":139.514185},{"name":"東京南看護専門学校","province":"東京都","city":"稲城市","address":"東京都稲城市若葉台3-8-2","lat":35.624706,"lon":139.464274},{"name":"東京南農業協同組合稲城支店","province":"東京都","city":"稲城市","address":"東京都稲城市東長沼2110-1","lat":35.638624,"lon":139.502158},{"name":"三井ホーム㈱東京事務所センター","province":"東京都","city":"稲城市","address":"東京都稲城市東長沼1625-1","lat":35.634681,"lon":139.501874},{"name":"スポーツクラブNAS若葉台","province":"東京都","city":"稲城市","address":"東京都稲城市若葉台2-1-1","lat":35.621196,"lon":139.473206},{"name":"やのくち正吉苑","province":"東京都","city":"稲城市","address":"東京都稲城市矢野口1804-3","lat":35.636618,"lon":139.51919},{"name":"同和発條㈱","province":"東京都","city":"稲城市","address":"東京都稲城市矢野口635-1","lat":35.639439,"lon":139.519866},{"name":"城南信用金庫","province":"東京都","city":"稲城市","address":"東京都稲城市矢野口589","lat":35.639478,"lon":139.520225},{"name":"シーアイマンション京王よみうりランド","province":"東京都","city":"稲城市","address":"東京都稲城市東長沼3105-1","lat":35.638449,"lon":139.517666},{"name":"わかばだいデンタルクリニック","province":"東京都","city":"稲城市","address":"東京都稲城市若葉台3-12-1","lat":35.625243,"lon":139.468179},{"name":"さやま歯科クリニック","province":"東京都","city":"稲城市","address":"東京都稲城市矢野口2284-1","lat":35.636034,"lon":139.515488},{"name":"トヨタ西東京カローラ㈱稲城店","province":"東京都","city":"稲城市","address":"東京都稲城市東長沼1735-1","lat":35.63746,"lon":139.508767},{"name":"ドーミー京王よみうりランド","province":"東京都","city":"稲城市","address":"東京都稲城市矢野口4017-3","lat":35.632075,"lon":139.516577},{"name":"まつもと歯科クリニック","province":"東京都","city":"稲城市","address":"東京都稲城市矢野口691-7","lat":35.640886,"lon":139.519125},{"name":"若葉台駅前交番","province":"東京都","city":"稲城市","address":"東京都稲城市若葉台2-101","lat":35.620542,"lon":139.472213},{"name":"ヒルトップロマン","province":"東京都","city":"稲城市","address":"東京都稲城市若葉台3-7-1","lat":35.624318,"lon":139.464805},{"name":"保育ルームフェリーチェ稲城長沼園","province":"東京都","city":"稲城市","address":"東京都稲城市東長沼566-1","lat":35.644662,"lon":139.50388},{"name":"にじいろ保育園矢野口","province":"東京都","city":"稲城市","address":"東京都稲城市矢野口3030-1","lat":35.63586,"lon":139.508691},{"name":"京王キッズプラッツよみうりランド","province":"東京都","city":"稲城市","address":"東京都稲城市矢野口4015-1","lat":35.631992,"lon":139.51714},{"name":"稲城矢野口雲母保育園","province":"東京都","city":"稲城市","address":"東京都稲城市矢野口1075-1","lat":35.640891,"lon":139.513997},{"name":"いなぎのぞみ保育園","province":"東京都","city":"稲城市","address":"東京都稲城市大丸593-14","lat":35.645664,"lon":139.495506},{"name":"ひらお保育園","province":"東京都","city":"稲城市","address":"東京都稲城市平尾3-1-23","lat":35.610411,"lon":139.487582},{"name":"しおどめ保育園","province":"東京都","city":"稲城市","address":"東京都稲城市坂浜3-33-1","lat":35.620847,"lon":139.486343},{"name":"上谷戸緑地体験学習館","province":"東京都","city":"稲城市","address":"東京都稲城市若葉台1-28-2","lat":35.6271,"lon":139.481534},{"name":"松葉集会場","province":"東京都","city":"稲城市","address":"東京都稲城市矢野口1892","lat":35.636418,"lon":139.520507},{"name":"押立ふれあい会館","province":"東京都","city":"稲城市","address":"東京都稲城市押立663","lat":35.649688,"lon":139.511119},{"name":"大丸地区会館","province":"東京都","city":"稲城市","address":"東京都稲城市大丸251","lat":35.647316,"lon":139.49877},{"name":"いなぎ発信基地ペアテラス","province":"東京都","city":"稲城市","address":"東京都稲城市東長沼516-2","lat":35.644056,"lon":139.502901},{"name":"ZEBRA Coffee & Croissant 稲城中央公園店","province":"東京都","city":"稲城市","address":"東京都稲城市長峰1-1-1","lat":35.63383,"lon":139.48589},{"name":"稲城第七小学校","province":"東京都","city":"稲城市","address":"東京都稲城市矢野口1901-2","lat":35.635444,"lon":139.520444},{"name":"稲城第三中学校","province":"東京都","city":"稲城市","address":"東京都稲城市矢野口3043","lat":35.636472,"lon":139.507447},{"name":"公益社団法人九段盡性園","province":"東京都","city":"稲城市","address":"東京都稲城市矢野口3750-11","lat":35.643931,"lon":139.520878},{"name":"南山小学校","province":"東京都","city":"稲城市","address":"東京都稲城市矢野口3635","lat":35.629003,"lon":139.508708},{"name":"稲城第一小学校","province":"東京都","city":"稲城市","address":"東京都稲城市東長沼956","lat":35.640722,"lon":139.511836},{"name":"吉方公園","province":"東京都","city":"稲城市","address":"東京都稲城市東長沼1728","lat":35.640722,"lon":139.511836},{"name":"北緑地公園","province":"東京都","city":"稲城市","address":"東京都稲城市東長沼2996","lat":35.649699,"lon":139.502367},{"name":"稲城第三小学校","province":"東京都","city":"稲城市","address":"東京都稲城市大丸100","lat":35.64325,"lon":139.499753},{"name":"大丸公園","province":"東京都","city":"稲城市","address":"東京都稲城市大丸1097","lat":35.646508,"lon":139.48268},{"name":"稲城第六小学校","province":"東京都","city":"稲城市","address":"東京都稲城市大丸2110","lat":35.64969,"lon":139.499281},{"name":"大丸第二公園","province":"東京都","city":"稲城市","address":"東京都稲城市大丸3111-1","lat":35.650637,"lon":139.497136},{"name":"稲城第一中学校","province":"東京都","city":"稲城市","address":"東京都稲城市百村23","lat":35.64038,"lon":139.499463},{"name":"稲城第二小学校","province":"東京都","city":"稲城市","address":"東京都稲城市坂浜590","lat":35.625041,"lon":139.485403},{"name":"稲城第二中学校","province":"東京都","city":"稲城市","address":"東京都稲城市坂浜1340","lat":35.616,"lon":139.481114},{"name":"都立若葉総合高校グラウンド","province":"東京都","city":"稲城市","address":"東京都稲城市坂浜1434-3","lat":35.618045,"lon":139.477933},{"name":"複合施設ふれんど平尾","province":"東京都","city":"稲城市","address":"東京都稲城市平尾1-9-1","lat":35.613726,"lon":139.492582},{"name":"平尾小学校","province":"東京都","city":"稲城市","address":"東京都稲城市平尾3-1-3","lat":35.61121,"lon":139.488684},{"name":"平尾近隣公園","province":"東京都","city":"稲城市","address":"東京都稲城市平尾3-7-20","lat":35.609812,"lon":139.490554},{"name":"稲城第四小学校","province":"東京都","city":"稲城市","address":"東京都稲城市押立1250","lat":35.644604,"lon":139.516468},{"name":"稲城第四中学校","province":"東京都","city":"稲城市","address":"東京都稲城市押立1768","lat":35.645806,"lon":139.518059},{"name":"稲城第五中学校","province":"東京都","city":"稲城市","address":"東京都稲城市向陽台3-1-1","lat":35.638305,"lon":139.489628},{"name":"向陽台小学校","province":"東京都","city":"稲城市","address":"東京都稲城市向陽台3-2","lat":35.637419,"lon":139.48814},{"name":"稲城中央公園野球場","province":"東京都","city":"稲城市","address":"東京都稲城市向陽台4-1-1","lat":35.635986,"lon":139.486008},{"name":"城山公園","province":"東京都","city":"稲城市","address":"東京都稲城市向陽台4-6","lat":35.645573,"lon":139.488434},{"name":"城山小学校","province":"東京都","city":"稲城市","address":"東京都稲城市向陽台6-17","lat":35.642639,"lon":139.493308},{"name":"稲城中央公園総合グラウンド","province":"東京都","city":"稲城市","address":"東京都稲城市長峰1-1","lat":35.631828,"lon":139.486252},{"name":"長峰小学校","province":"東京都","city":"稲城市","address":"東京都稲城市長峰2-8","lat":35.629757,"lon":139.483308},{"name":"若葉台公園","province":"東京都","city":"稲城市","address":"東京都稲城市若葉台1-19-1","lat":35.626075,"lon":139.472741},{"name":"稲城第六中学校","province":"東京都","city":"稲城市","address":"東京都稲城市若葉台3-11","lat":35.624835,"lon":139.467015},{"name":"若葉台小学校","province":"東京都","city":"稲城市","address":"東京都稲城市若葉台4-5","lat":35.626899,"lon":139.468146},{"name":"稲城市","province":"東京都","city":"稲城市","address":"稲城市東長沼2111","lat":35.63796,"lon":139.5042697},{"name":"稲城市役所","province":"東京都","city":"稲城市","address":"東京都稲城市東長沼2111","lat":35.63806,"lon":139.50442},{"name":"稲城市役所","province":"東京都","city":"稲城市","address":"東京都稲城市東長沼2111","lat":35.63797,"lon":139.504819},{"name":"上平尾消防出張所","province":"東京都","city":"稲城市","address":"東京都稲城市平尾4丁目15-4","lat":35.61463,"lon":139.484434},{"name":"中央文化センター","province":"東京都","city":"稲城市","address":"東京都稲城市東長沼2111","lat":35.63802,"lon":139.503787},{"name":"第二文化センター","province":"東京都","city":"稲城市","address":"東京都稲城市矢野口1780","lat":35.6353,"lon":139.518365},{"name":"第三文化センター","province":"東京都","city":"稲城市","address":"東京都稲城市平尾1丁目20-5","lat":35.61316,"lon":139.492466},{"name":"第三文化センター","province":"東京都","city":"稲城市","address":"東京都稲城市平尾1丁目20-5","lat":35.61311,"lon":139.492516},{"name":"第四文化センター","province":"東京都","city":"稲城市","address":"東京都稲城市東長沼271","lat":35.64591,"lon":139.505343},{"name":"城山文化センター","province":"東京都","city":"稲城市","address":"東京都稲城市向陽台6丁目7-6","lat":35.64134,"lon":139.490795},{"name":"稲城市立病院","province":"東京都","city":"稲城市","address":"東京都稲城市大丸1171","lat":35.64675,"lon":139.48517},{"name":"稲城市立病院","province":"東京都","city":"稲城市","address":"東京都稲城市大丸1171","lat":35.64666,"lon":139.484968},{"name":"稲城市立病院","province":"東京都","city":"稲城市","address":"東京都稲城市大丸1171","lat":35.64676,"lon":139.485157},{"name":"稲城市立病院　健診・外来棟","province":"東京都","city":"稲城市","address":"東京都稲城市大丸1171","lat":35.64687,"lon":139.486158},{"name":"稲城市立病院　健診・外来棟","province":"東京都","city":"稲城市","address":"東京都稲城市大丸","lat":35.64695,"lon":139.485759},{"name":"稲城市立病院　健診・外来棟","province":"東京都","city":"稲城市","address":"東京都稲城市大丸1171","lat":35.646804,"lon":139.485173},{"name":"稲城市保健センター","province":"東京都","city":"稲城市","address":"東京都稲城市百村112-1","lat":35.63829,"lon":139.497485},{"name":"オーエンス健康プラザ","province":"東京都","city":"稲城市","address":"東京都稲城市大丸1171","lat":35.646825,"lon":139.486115},{"name":"オーエンス健康プラザ","province":"東京都","city":"稲城市","address":"東京都稲城市大丸1171","lat":35.64699,"lon":139.486108},{"name":"オーエンス健康プラザ","province":"東京都","city":"稲城市","address":"東京都稲城市大丸1171","lat":35.646915,"lon":139.486198},{"name":"稲城市立中央図書館","province":"東京都","city":"稲城市","address":"東京都稲城市向陽台4丁目6","lat":35.64535,"lon":139.48851},{"name":"城山体験学習館","province":"東京都","city":"稲城市","address":"東京都稲城市向陽台4丁目6-18","lat":35.64574,"lon":139.48792},{"name":"地域振興プラザ","province":"東京都","city":"稲城市","address":"東京都稲城市東長沼2112-1","lat":35.63784,"lon":139.505896},{"name":"稲城市立iプラザ","province":"東京都","city":"稲城市","address":"東京都稲城市若葉台2丁目5-2","lat":35.62125,"lon":139.47211},{"name":"稲城市立iプラザ","province":"東京都","city":"稲城市","address":"東京都稲城市若葉台2丁目5-2","lat":35.62099,"lon":139.472202},{"name":"稲城市立iプラザ","province":"東京都","city":"稲城市","address":"東京都稲城市若葉台2丁目5-2","lat":35.62102,"lon":139.472343},{"name":"稲城市立iプラザ","province":"東京都","city":"稲城市","address":"東京都稲城市若葉台2丁目5-2","lat":35.621,"lon":139.472085},{"name":"押立ふれあい会館","province":"東京都","city":"稲城市","address":"東京都稲城市押立663","lat":35.64969,"lon":139.511159},{"name":"中央公民館ホール","province":"東京都","city":"稲城市","address":"東京都稲城市東長沼2111","lat":35.63835,"lon":139.503772},{"name":"三沢川親水公園","province":"東京都","city":"稲城市","address":"東京都稲城市矢野口","lat":35.63634,"lon":139.516182},{"name":"稲城北緑地公園","province":"東京都","city":"稲城市","address":"東京都稲城市東長沼","lat":35.64971,"lon":139.504257},{"name":"亀山下公園","province":"東京都","city":"稲城市","address":"東京都稲城市東長沼","lat":35.63803,"lon":139.500671},{"name":"大丸公園","province":"東京都","city":"稲城市","address":"東京都稲城市大丸","lat":35.64745,"lon":139.487278},{"name":"大丸第二公園（プール管理棟内）","province":"東京都","city":"稲城市","address":"東京都稲城市大丸3111-1","lat":35.65039,"lon":139.49687},{"name":"大丸河原方児童公園","province":"東京都","city":"稲城市","address":"東京都稲城市大丸","lat":35.65049,"lon":139.493639},{"name":"山崎公園","province":"東京都","city":"稲城市","address":"東京都稲城市大丸","lat":35.64415,"lon":139.497443},{"name":"東方公園","province":"東京都","city":"稲城市","address":"東京都稲城市大丸","lat":35.64209,"lon":139.499325},{"name":"平尾近隣公園","province":"東京都","city":"稲城市","address":"東京都稲城市平尾3丁目7","lat":35.60977,"lon":139.489686},{"name":"稲城中央公園","province":"東京都","city":"稲城市","address":"東京都稲城市長峰1丁目1","lat":35.63372,"lon":139.4853},{"name":"稲城中央公園","province":"東京都","city":"稲城市","address":"東京都稲城市長峰1丁目1","lat":35.63368,"lon":139.488331},{"name":"稲城中央公園","province":"東京都","city":"稲城市","address":"東京都稲城市向陽台4丁目1","lat":35.63667,"lon":139.485936},{"name":"稲城中央公園","province":"東京都","city":"稲城市","address":"東京都稲城市長峰1丁目1","lat":35.63202,"lon":139.48602},{"name":"稲城中央公園","province":"東京都","city":"稲城市","address":"東京都稲城市長峰1丁目1","lat":35.63365,"lon":139.48732},{"name":"稲城中央公園","province":"東京都","city":"稲城市","address":"東京都稲城市長峰1丁目1-1","lat":35.63149,"lon":139.486232},{"name":"城山公園","province":"東京都","city":"稲城市","address":"東京都稲城市向陽台4丁目6","lat":35.64137,"lon":139.489154},{"name":"ひつじさん公園","province":"東京都","city":"稲城市","address":"東京都稲城市向陽台6丁目14","lat":35.64348,"lon":139.492425},{"name":"もぐらさん公園","province":"東京都","city":"稲城市","address":"東京都稲城市向陽台2丁目4","lat":35.63951,"lon":139.492594},{"name":"若葉台公園","province":"東京都","city":"稲城市","address":"東京都稲城市若葉台1丁目24","lat":35.62744,"lon":139.472131},{"name":"若葉台公園","province":"東京都","city":"稲城市","address":"東京都稲城市若葉台1丁目19","lat":35.62503,"lon":139.473738},{"name":"上谷戸親水公園","province":"東京都","city":"稲城市","address":"東京都稲城市若葉台1丁目28","lat":35.6271,"lon":139.481463},{"name":"若葉台駅駅前広場トイレ","province":"東京都","city":"稲城市","address":"東京都稲城市若葉台2丁目101","lat":35.62051,"lon":139.472503},{"name":"多摩川堤防公衆トイレ","province":"東京都","city":"稲城市","address":"東京都稲城市矢野口","lat":35.64394,"lon":139.521681},{"name":"複合施設ふれんど平尾","province":"東京都","city":"稲城市","address":"東京都稲城市平尾1丁目9","lat":35.61371,"lon":139.492911},{"name":"複合施設ふれんど平尾","province":"東京都","city":"稲城市","address":"東京都稲城市平尾1丁目9","lat":35.6137,"lon":139.49293},{"name":"稲城長峰ヴェルディフィールド","province":"東京都","city":"稲城市","address":"東京都稲城市長峰3丁目10-1","lat":35.63158,"lon":139.477589},{"name":"稲城長峰ヴェルディフィールド","province":"東京都","city":"稲城市","address":"東京都稲城市長峰3丁目11","lat":35.6294,"lon":139.476541},{"name":"南多摩スポーツ広場","province":"東京都","city":"稲城市","address":"東京都稲城市大丸","lat":35.64876,"lon":139.480318},{"name":"稲城市福祉センター","province":"東京都","city":"稲城市","address":"東京都稲城市百村7","lat":35.639577,"lon":139.499948},{"name":"坂浜配水所","province":"東京都","city":"稲城市","address":"東京都稲城市坂浜816","lat":35.615837,"lon":139.487899},{"name":"向陽台給水所","province":"東京都","city":"稲城市","address":"東京都稲城市向陽台6-16","lat":35.6437222,"lon":139.493028},{"name":"若葉台給水所","province":"東京都","city":"稲城市","address":"東京都稲城市若葉台1-19","lat":35.623984,"lon":139.473903},{"name":"ウエルシア稲城若葉台アクロスプラザ店","province":"東京都","city":"稲城市","address":"東京都稲城市若葉台1丁目55","lat":35.6243214,"lon":139.4746777},{"name":"ヤオコー　フレスポ若葉台店","province":"東京都","city":"稲城市","address":"東京都稲城市若葉台2丁目4-2","lat":35.6203384,"lon":139.4708975},{"name":"三和　若葉台店","province":"東京都","city":"稲城市","address":"東京都稲城市若葉台2丁目6","lat":35.6218715,"lon":139.4713308},{"name":"ユニディ若葉台店","province":"東京都","city":"稲城市","address":"東京都稲城市若葉台2丁目6","lat":35.6218715,"lon":139.4713308},{"name":"サンドラッグ稲城若葉台店","province":"東京都","city":"稲城市","address":"東京都稲城市若葉台3丁目10","lat":35.6255733,"lon":139.4660475},{"name":"コープみらい　若葉台店","province":"東京都","city":"稲城市","address":"東京都稲城市若葉台3丁目10","lat":35.6255733,"lon":139.4660475},{"name":"矢野口","province":"東京都","city":"稲城市","address":"東京都稲城市矢野口619-14","lat":35.64052914,"lon":139.51973182},{"name":"稲城長沼駅入口","province":"東京都","city":"稲城市","address":"東京都稲城市東長沼1040","lat":35.643933,"lon":139.50127698},{"name":"稲城大丸","province":"東京都","city":"稲城市","address":"東京都稲城市大丸928","lat":35.64816504,"lon":139.49215773},{"name":"稲城市福祉センター入口","province":"東京都","city":"稲城市","address":"東京都稲城市百村1601-2","lat":35.63885051,"lon":139.49928032},{"name":"稲城中央橋","province":"東京都","city":"稲城市","address":"東京都稲城市百村1605","lat":35.63702576,"lon":139.49798609},{"name":"稲城向陽台中央","province":"東京都","city":"稲城市","address":"東京都稲城市向陽台6丁目8-1","lat":35.64144378,"lon":139.49028885},{"name":"稲城市役所前","province":"東京都","city":"稲城市","address":"東京都稲城市東長沼2107-1","lat":35.63863147,"lon":139.50471896},{"name":"稲城市立病院","province":"東京都","city":"稲城市","address":"東京都稲城市大丸1171","lat":35.64687587,"lon":139.48586645},{"name":"向陽台給水所","province":"東京都","city":"稲城市","address":"東京都稲城市向陽台6丁目16","lat":35.64371302,"lon":139.49304963},{"name":"稲城市役所西側車庫棟","province":"東京都","city":"稲城市","address":"東京都稲城市東長沼2111","lat":35.63795935,"lon":139.50426905},{"name":"稲城市本庁舎","province":"東京都","city":"稲城市","address":"稲城市東長沼2111","lat":35.63796,"lon":139.50427},{"name":"稲城消防署","province":"東京都","city":"稲城市","address":"稲城市東長沼2111","lat":35.63793,"lon":139.505064},{"name":"稲城市立中央公園総合グラウンド","province":"東京都","city":"稲城市","address":"稲城市長峰1-1","lat":35.63077,"lon":139.4861},{"name":"稲城第七小学校","province":"東京都","city":"稲城市","address":"東京都稲城市矢野口1901-2","lat":35.635347,"lon":139.520294},{"name":"第二文化センター","province":"東京都","city":"稲城市","address":"東京都稲城市矢野口1780","lat":35.635294,"lon":139.518437},{"name":"よみうりゴルフ倶楽部","province":"東京都","city":"稲城市","address":"東京都稲城市矢野口3376-1","lat":35.624094,"lon":139.510637},{"name":"ハーモニー松葉","province":"東京都","city":"稲城市","address":"東京都稲城市矢野口1806","lat":35.636842,"lon":139.51889},{"name":"京王よみうりランド駅","province":"東京都","city":"稲城市","address":"東京都稲城市矢野口2200-1","lat":35.63299,"lon":139.51739},{"name":"青葉幼稚園","province":"東京都","city":"稲城市","address":"東京都稲城市矢野口645","lat":35.639599,"lon":139.519621},{"name":"よみうりランド慶友病院","province":"東京都","city":"稲城市","address":"東京都稲城市矢野口3294","lat":35.627052,"lon":139.516561},{"name":"矢の口幼稚園","province":"東京都","city":"稲城市","address":"東京都稲城市矢野口1753","lat":35.63606,"lon":139.518237},{"name":"かじわら内科泌尿科クリニック","province":"東京都","city":"稲城市","address":"東京都稲城市矢野口1541アーバンシャトル1階","lat":35.637321,"lon":139.514102},{"name":"よみうりランド丘の湯","province":"東京都","city":"稲城市","address":"東京都稲城市矢野口3302-8","lat":35.625902,"lon":139.51502},{"name":"地域振興プラザ","province":"東京都","city":"稲城市","address":"東京都稲城市東長沼2112-1","lat":35.637893,"lon":139.505696},{"name":"稲城第一小学校","province":"東京都","city":"稲城市","address":"東京都稲城市東長沼956","lat":35.640733,"lon":139.511849},{"name":"稲城第三中学校","province":"東京都","city":"稲城市","address":"東京都稲城市矢野口3043","lat":35.636577,"lon":139.507492},{"name":"中央文化センター","province":"東京都","city":"稲城市","address":"東京都稲城市東長沼2111","lat":35.638279,"lon":139.503634},{"name":"第四文化センター","province":"東京都","city":"稲城市","address":"東京都稲城市東長沼271","lat":35.645949,"lon":139.505221},{"name":"稲城市役所","province":"東京都","city":"稲城市","address":"東京都稲城市東長沼2111","lat":35.637932,"lon":139.504647},{"name":"稲城消防署","province":"東京都","city":"稲城市","address":"東京都稲城市東長沼2111","lat":35.637918,"lon":139.505022},{"name":"稲城駅","province":"東京都","city":"稲城市","address":"東京都稲城市東長沼3108","lat":35.636223,"lon":139.500264},{"name":"コナミスポーツクラブ稲城","province":"東京都","city":"稲城市","address":"東京都稲城市東長沼3107-4京王リトナード稲城5階","lat":35.636685,"lon":139.500275},{"name":"稲城市柔道接骨師会","province":"東京都","city":"稲城市","address":"東京都稲城市東長沼1174-1リベラルハイツ1階","lat":35.642612,"lon":139.503691},{"name":"稲城第四小学校","province":"東京都","city":"稲城市","address":"東京都稲城市押立1250","lat":35.644729,"lon":139.516301},{"name":"稲城第四中学校","province":"東京都","city":"稲城市","address":"東京都稲城市押立1768","lat":35.645923,"lon":139.517889},{"name":"富士通フロンテック株式会社","province":"東京都","city":"稲城市","address":"東京都稲城市矢野口1776","lat":35.634796,"lon":139.518279},{"name":"DUO稲城","province":"東京都","city":"稲城市","address":"東京都稲城市東長沼1709-4","lat":35.638283,"lon":139.505886},{"name":"梨花幼稚園","province":"東京都","city":"稲城市","address":"東京都稲城市押立392","lat":35.649985,"lon":139.508982},{"name":"ペアウェル矢野口","province":"東京都","city":"稲城市","address":"東京都稲城市矢野口944","lat":35.64305,"lon":139.512179},{"name":"矢野口駅","province":"東京都","city":"稲城市","address":"東京都稲城市矢野口300","lat":35.641707,"lon":139.520456},{"name":"ペアウェル多摩川","province":"東京都","city":"稲城市","address":"東京都稲城市東長沼665","lat":35.64525,"lon":139.509013},{"name":"稲城長沼駅","province":"東京都","city":"稲城市","address":"東京都稲城市東長沼556","lat":35.644456,"lon":139.502083},{"name":"東長沼自治会館","province":"東京都","city":"稲城市","address":"東京都稲城市東長沼1055-1","lat":35.642728,"lon":139.500972},{"name":"渡辺歯科（ガーデンピア樹光1階）","province":"東京都","city":"稲城市","address":"東京都稲城市東長沼3109","lat":35.635964,"lon":139.501679},{"name":"常楽寺","province":"東京都","city":"稲城市","address":"東京都稲城市東長沼2117-2","lat":35.63711,"lon":139.501288},{"name":"矢野口交番","province":"東京都","city":"稲城市","address":"東京都稲城市矢野口432-1","lat":35.640311,"lon":139.520757},{"name":"東長沼駐在所","province":"東京都","city":"稲城市","address":"東京都稲城市東長沼602-2","lat":35.645184,"lon":139.506544},{"name":"南山小学校","province":"東京都","city":"稲城市","address":"東京都稲城市矢野口3635","lat":35.628888,"lon":139.508307},{"name":"いなぎ発信基地ペアテラス","province":"東京都","city":"稲城市","address":"東京都稲城市東長沼516-2","lat":35.6442,"lon":139.502896},{"name":"松葉保育園","province":"東京都","city":"稲城市","address":"東京都稲城市矢野口2065","lat":35.634445,"lon":139.520832},{"name":"中島ゆうし保育園","province":"東京都","city":"稲城市","address":"東京都稲城市矢野口256","lat":35.642811,"lon":139.519143},{"name":"本郷ゆうし保育園","province":"東京都","city":"稲城市","address":"東京都稲城市東長沼2115-2","lat":35.637889,"lon":139.501244},{"name":"アスクやのくち保育園","province":"東京都","city":"稲城市","address":"東京都稲城市矢野口387-1","lat":35.64134,"lon":139.522088},{"name":"長峰小学校","province":"東京都","city":"稲城市","address":"東京都稲城市長峰2-8","lat":35.630031,"lon":139.48311},{"name":"総合グラウンド","province":"東京都","city":"稲城市","address":"東京都稲城市長峰1-1","lat":35.633564,"lon":139.487369},{"name":"長峰コミュニティ防災センター","province":"東京都","city":"稲城市","address":"東京都稲城市長峰2-31-1","lat":35.628411,"lon":139.47844},{"name":"総合体育館","province":"東京都","city":"稲城市","address":"東京都稲城市長峰1-1","lat":35.631701,"lon":139.485861},{"name":"私立もみの木保育園","province":"東京都","city":"稲城市","address":"東京都稲城市長峰2-10","lat":35.630331,"lon":139.482084},{"name":"杜の三番街自治会","province":"東京都","city":"稲城市","address":"東京都稲城市長峰3-5杜の三番街4棟1階","lat":35.630707,"lon":139.481008},{"name":"若葉台小学校","province":"東京都","city":"稲城市","address":"東京都稲城市若葉台4-5","lat":35.626887,"lon":139.468174},{"name":"若葉台出張所","province":"東京都","city":"稲城市","address":"東京都稲城市若葉台2-5-2iプラザ内","lat":35.621133,"lon":139.472396},{"name":"若葉台公園管理棟","province":"東京都","city":"稲城市","address":"東京都稲城市若葉台1-19-1","lat":35.62503,"lon":139.473798},{"name":"稲城第六中学校","province":"東京都","city":"稲城市","address":"東京都稲城市若葉台3-11","lat":35.624724,"lon":139.467576},{"name":"ワルツの杜自治会","province":"東京都","city":"稲城市","address":"東京都稲城市若葉台3-1-1","lat":35.623212,"lon":139.470025},{"name":"ケーズ電気","province":"東京都","city":"稲城市","address":"東京都稲城市若葉台2-10-2","lat":35.621084,"lon":139.473372},{"name":"フレスポ若葉台","province":"東京都","city":"稲城市","address":"東京都稲城市若葉台2-4-2","lat":35.620328,"lon":139.473136},{"name":"若葉台クリニック","province":"東京都","city":"稲城市","address":"東京都稲城市若葉台2-4-4若葉台駅前KMビル2階","lat":35.62018,"lon":139.471613},{"name":"ユニディ若葉台店","province":"東京都","city":"稲城市","address":"東京都稲城市若葉台2-6","lat":35.621873,"lon":139.471704},{"name":"iプラザ","province":"東京都","city":"稲城市","address":"東京都稲城市若葉台2-5-2","lat":35.621228,"lon":139.472038},{"name":"若葉台ワーズワースの丘自治会","province":"東京都","city":"稲城市","address":"東京都稲城市若葉台1-21","lat":35.625445,"lon":139.470513},{"name":"ロイヤルパークス若葉台","province":"東京都","city":"稲城市","address":"東京都稲城市若葉台2-1-1","lat":35.620027,"lon":139.473888},{"name":"若葉台もみの木保育園","province":"東京都","city":"稲城市","address":"東京都稲城市若葉台1-54","lat":35.624681,"lon":139.475451},{"name":"PCDEPOTスマートライフ稲城若葉台店","province":"東京都","city":"稲城市","address":"東京都稲城市若葉台2-15","lat":35.622505,"lon":139.477693},{"name":"長峰駐在所","province":"東京都","city":"稲城市","address":"東京都稲城市長峰2-2-1","lat":35.631154,"lon":139.48504},{"name":"アクロスプラザイースト","province":"東京都","city":"稲城市","address":"東京都稲城市若葉台1-55","lat":35.623883,"lon":139.475124},{"name":"JSSスイミングスクール","province":"東京都","city":"稲城市","address":"東京都稲城市若葉台1-55アクロスプラザイースト内1階","lat":35.623385,"lon":139.474952},{"name":"稲城長峰スポーツ広場","province":"東京都","city":"稲城市","address":"東京都稲城市長峰3-10-1","lat":35.631172,"lon":139.476582},{"name":"若葉台センター商業ビル","province":"東京都","city":"稲城市","address":"東京都稲城市若葉台2-6","lat":35.621743,"lon":139.471182},{"name":"若葉台バオバブ保育園","province":"東京都","city":"稲城市","address":"東京都稲城市若葉台4-17","lat":35.627724,"lon":139.468796},{"name":"アルソック稲城ビル","province":"東京都","city":"稲城市","address":"東京都稲城市若葉台1-20","lat":35.62499,"lon":139.47188},{"name":"稲城第三小学校","province":"東京都","city":"稲城市","address":"東京都稲城市大丸100","lat":35.643299,"lon":139.49963},{"name":"稲城第六小学校","province":"東京都","city":"稲城市","address":"東京都稲城市大丸2110","lat":35.649764,"lon":139.499421},{"name":"市民プール","province":"東京都","city":"稲城市","address":"東京都稲城市大丸3111-1","lat":35.650508,"lon":139.496855},{"name":"稲城市福祉センター","province":"東京都","city":"稲城市","address":"東京都稲城市百村7","lat":35.639575,"lon":139.499977},{"name":"稲城第一中学校","province":"東京都","city":"稲城市","address":"東京都稲城市百村23","lat":35.640379,"lon":139.499475},{"name":"稲城市保健センター","province":"東京都","city":"稲城市","address":"東京都稲城市百村112-1","lat":35.638296,"lon":139.497548},{"name":"アクラブ稲城","province":"東京都","city":"稲城市","address":"東京都稲城市百村1624-3","lat":35.634924,"lon":139.501429},{"name":"特別養護老人ホームいなぎ苑","province":"東京都","city":"稲城市","address":"東京都稲城市百村255","lat":35.635385,"lon":139.49202},{"name":"稲城雲母保育園","province":"東京都","city":"稲城市","address":"東京都稲城市大丸1025-3","lat":35.648955,"lon":139.489633},{"name":"サントリー食品工業株式会社 南多摩工場","province":"東京都","city":"稲城市","address":"東京都稲城市大丸2271","lat":35.650924,"lon":139.485589},{"name":"日本フィルコン株式会社 東京事務所","province":"東京都","city":"稲城市","address":"東京都稲城市大丸2220","lat":35.650531,"lon":139.48966},{"name":"パルシステム生活協同組合 稲城事務センター","province":"東京都","city":"稲城市","address":"東京都稲城市百村2111","lat":35.636835,"lon":139.490959},{"name":"南多摩駅","province":"東京都","city":"稲城市","address":"東京都稲城市大丸1043","lat":35.64926,"lon":139.489468},{"name":"向陽台小学校","province":"東京都","city":"稲城市","address":"東京都稲城市向陽台3-2","lat":35.637573,"lon":139.488387},{"name":"城山小学校","province":"東京都","city":"稲城市","address":"東京都稲城市向陽台6-17","lat":35.642709,"lon":139.493188},{"name":"稲城第五中学校","province":"東京都","city":"稲城市","address":"東京都稲城市向陽台3-1-1","lat":35.638301,"lon":139.489669},{"name":"城山文化センター","province":"東京都","city":"稲城市","address":"東京都稲城市向陽台6-7","lat":35.641283,"lon":139.490863},{"name":"私立駒沢女子短期大学付属こまざわ幼稚園","province":"東京都","city":"稲城市","address":"東京都稲城市向陽台3-3","lat":35.637492,"lon":139.486692},{"name":"私立城山保育園","province":"東京都","city":"稲城市","address":"東京都稲城市向陽台6-4","lat":35.64188,"lon":139.492812},{"name":"稲城天然温泉 季乃彩","province":"東京都","city":"稲城市","address":"東京都稲城市向陽台6-13","lat":35.645781,"lon":139.489601},{"name":"みはらしの家","province":"東京都","city":"稲城市","address":"東京都稲城市向陽台4-2","lat":35.637126,"lon":139.485011},{"name":"向陽台駐在所","province":"東京都","city":"稲城市","address":"東京都稲城市向陽台3-7-4","lat":35.639798,"lon":139.487363},{"name":"城山体験学習館","province":"東京都","city":"稲城市","address":"東京都稲城市向陽台4-6-18","lat":35.64565,"lon":139.487945},{"name":"大丸交番","province":"東京都","city":"稲城市","address":"東京都稲城市大丸522-7","lat":35.647905,"lon":139.492953},{"name":"百村駐在所","province":"東京都","city":"稲城市","address":"東京都稲城市百村66-1","lat":35.638806,"lon":139.498286},{"name":"向陽台保育園","province":"東京都","city":"稲城市","address":"東京都稲城市向陽台5-8","lat":35.638213,"lon":139.486084},{"name":"ビューパレー向陽台管理組合","province":"東京都","city":"稲城市","address":"東京都稲城市向陽台2-11","lat":35.640823,"lon":139.491556},{"name":"ビスタセーレ向陽台管理組合","province":"東京都","city":"稲城市","address":"東京都稲城市向陽台6-19","lat":35.642198,"lon":139.494526},{"name":"稲城市立病院","province":"東京都","city":"稲城市","address":"東京都稲城市大丸1171","lat":35.646902,"lon":139.48569},{"name":"市立大丸ゆうし保育園","province":"東京都","city":"稲城市","address":"東京都稲城市大丸82-4","lat":35.645309,"lon":139.499528},{"name":"城山保育園南山","province":"東京都","city":"稲城市","address":"東京都稲城市百村1461-1","lat":35.632126,"lon":139.503389},{"name":"サザンヒルズこども園","province":"東京都","city":"稲城市","address":"東京都稲城市百村1461","lat":35.632256,"lon":139.503346},{"name":"平尾小学校","province":"東京都","city":"稲城市","address":"東京都稲城市平尾3-1-3","lat":35.611264,"lon":139.488559},{"name":"第三文化センター","province":"東京都","city":"稲城市","address":"東京都稲城市平尾1-20-5","lat":35.613115,"lon":139.492583},{"name":"ふれんど平尾","province":"東京都","city":"稲城市","address":"東京都稲城市平尾1-9-1","lat":35.613808,"lon":139.492427},{"name":"平尾出張所","province":"東京都","city":"稲城市","address":"東京都稲城市平尾3-1-1平尾住宅34棟内","lat":35.610184,"lon":139.488227},{"name":"特別養護老人ホームいなぎ正吉苑","province":"東京都","city":"稲城市","address":"東京都稲城市平尾1127-1","lat":35.615424,"lon":139.483981},{"name":"特別養護老人ホームひらお苑","province":"東京都","city":"稲城市","address":"東京都稲城市平尾2-49-20","lat":35.608542,"lon":139.49369},{"name":"平尾内科クリニック","province":"東京都","city":"稲城市","address":"東京都稲城市平尾3-7-26","lat":35.609249,"lon":139.488989},{"name":"稲城第二小学校","province":"東京都","city":"稲城市","address":"東京都稲城市坂浜590","lat":35.625118,"lon":139.485318},{"name":"稲城第二中学校","province":"東京都","city":"稲城市","address":"東京都稲城市坂浜1340","lat":35.615978,"lon":139.481193},{"name":"東京よみうりカントリークラブ","province":"東京都","city":"稲城市","address":"東京都稲城市坂浜685","lat":35.621048,"lon":139.49127},{"name":"私立駒澤学園","province":"東京都","city":"稲城市","address":"東京都稲城市坂浜238","lat":35.627667,"lon":139.49348},{"name":"多摩カントリークラブ","province":"東京都","city":"稲城市","address":"東京都稲城市坂浜3360","lat":35.633284,"lon":139.480237},{"name":"都立若葉総合高校","province":"東京都","city":"稲城市","address":"東京都稲城市坂浜1434-3","lat":35.618312,"lon":139.478959},{"name":"パサージュいなぎ","province":"東京都","city":"稲城市","address":"東京都稲城市坂浜1951-5","lat":35.629884,"lon":139.469978},{"name":"ファミリーマート稲城平尾店","province":"東京都","city":"稲城市","address":"東京都稲城市平尾1-34-9","lat":35.611843,"lon":139.489849},{"name":"平尾交番","province":"東京都","city":"稲城市","address":"東京都稲城市平尾3-7-27","lat":35.609117,"lon":139.488654},{"name":"坂浜駐在所","province":"東京都","city":"稲城市","address":"東京都稲城市坂浜2934-1","lat":35.627153,"lon":139.485257},{"name":"稲城ふれあいの森","province":"東京都","city":"稲城市","address":"東京都稲城市坂浜4-40-36","lat":35.619284,"lon":139.483114},{"name":"しぐた歯科","province":"東京都","city":"稲城市","address":"東京都稲城市平尾1-35-17","lat":35.611874,"lon":139.490505},{"name":"はなぶさ幼稚園","province":"東京都","city":"稲城市","address":"東京都稲城市平尾2-9-11","lat":35.609309,"lon":139.496366},{"name":"コーシャハイム平尾","province":"東京都","city":"稲城市","address":"東京都稲城市平尾3-7-4","lat":35.610849,"lon":139.492509},{"name":"日本大学アスレチックビレッジⅡ","province":"東京都","city":"稲城市","address":"東京都稲城市坂浜1382","lat":35.616051,"lon":139.479557},{"name":"ひなた自治会集会所","province":"東京都","city":"稲城市","address":"東京都稲城市平尾4-68-16","lat":35.610296,"lon":139.483189},{"name":"平尾わかば幼稚園","province":"東京都","city":"稲城市","address":"東京都稲城市平尾3-7-5","lat":35.6088,"lon":139.489519},{"name":"上平尾消防出張所","province":"東京都","city":"稲城市","address":"東京都稲城市平尾4-15-4","lat":35.614655,"lon":139.484431},{"name":"高勝寺","province":"東京都","city":"稲城市","address":"東京都稲城市坂浜551","lat":35.62607,"lon":139.4881},{"name":"坂浜サッカークラブグラウンド","province":"東京都","city":"稲城市","address":"東京都稲城市坂浜545-8","lat":35.62462,"lon":139.48852},{"name":"稲城台病院","province":"東京都","city":"稲城市","address":"東京都稲城市若葉台3-7-1","lat":35.62476,"lon":139.46453},{"name":"日本綜合産業㈱稲城営業所","province":"東京都","city":"稲城市","address":"東京都稲城市東長沼878-1","lat":35.64268,"lon":139.51},{"name":"デイ・ホームたんぽぽ","province":"東京都","city":"稲城市","address":"東京都稲城市大丸85-10トレゾール1F","lat":35.64438,"lon":139.50032},{"name":"ファースト歯科矢野口駅前クリニック","province":"東京都","city":"稲城市","address":"東京都稲城市矢野口3750-19アートフル矢野口駅前ビル1階・診療室","lat":35.64292,"lon":139.52134},{"name":"しいのみ保育園","province":"東京都","city":"稲城市","address":"東京都稲城市矢野口305","lat":35.64147,"lon":139.51976},{"name":"グループホームたんぽぽの郷","province":"東京都","city":"稲城市","address":"東京都稲城市若葉台1-13-5","lat":35.62525,"lon":139.47891},{"name":"スーパーレジン工業坂浜本社","province":"東京都","city":"稲城市","address":"東京都稲城市坂浜2283","lat":35.6225,"lon":139.47942},{"name":"日本住宅株式会社 西東京支店","province":"東京都","city":"稲城市","address":"東京都稲城市東長沼2000","lat":35.64136,"lon":139.50462},{"name":"クレヴィア若葉台パークナード","province":"東京都","city":"稲城市","address":"東京都稲城市若葉台1-33-2","lat":35.62368,"lon":139.47862},{"name":"稲城・府中メモリアルパーク","province":"東京都","city":"稲城市","address":"東京都稲城市矢野口3567","lat":35.62707,"lon":139.50875},{"name":"公益社団法人 九段","province":"東京都","city":"稲城市","address":"東京都稲城市矢野口3750-1","lat":35.64415,"lon":139.52119},{"name":"稲城歯科","province":"東京都","city":"稲城市","address":"東京都稲城市東長沼3107-1PIATOWN21-2階","lat":35.63714,"lon":139.50067},{"name":"矢野口こどもクラブ","province":"東京都","city":"稲城市","address":"東京都稲城市矢野口865ハイブリッジ101","lat":35.64214,"lon":139.51471},{"name":"株式会社 ＫＳＫ","province":"東京都","city":"稲城市","address":"東京都稲城市百村1625-2","lat":35.63443,"lon":139.50198},{"name":"稲城ハイライズ","province":"東京都","city":"稲城市","address":"東京都稲城市百村1627-1","lat":35.63429,"lon":139.50321},{"name":"キューソーティス株式会社","province":"東京都","city":"稲城市","address":"東京都稲城市東長沼1709-4","lat":35.64,"lon":139.50398},{"name":"佐川急便㈱稲城営業所","province":"東京都","city":"稲城市","address":"東京都稲城市百村2130-1","lat":35.63801,"lon":139.49252},{"name":"矢野口さちこ歯科医院","province":"東京都","city":"稲城市","address":"東京都稲城市矢野口313ハイムト矢野口2階","lat":35.64184,"lon":139.51985},{"name":"CURVESアメリア稲城（２階）","province":"東京都","city":"稲城市","address":"東京都稲城市矢野口2284-1","lat":35.636034,"lon":139.515488},{"name":"グローブスクエア","province":"東京都","city":"稲城市","address":"東京都稲城市矢野口2284-11","lat":35.635751,"lon":139.514185},{"name":"東京南看護専門学校","province":"東京都","city":"稲城市","address":"東京都稲城市若葉台3-8-2","lat":35.624706,"lon":139.464274},{"name":"東京南農業協同組合稲城支店","province":"東京都","city":"稲城市","address":"東京都稲城市東長沼2110-1","lat":35.638624,"lon":139.502158},{"name":"三井ホーム㈱東京事務所センター","province":"東京都","city":"稲城市","address":"東京都稲城市東長沼1625-1","lat":35.634681,"lon":139.501874},{"name":"スポーツクラブNAS若葉台","province":"東京都","city":"稲城市","address":"東京都稲城市若葉台2-1-1","lat":35.621196,"lon":139.473206},{"name":"やのくち正吉苑","province":"東京都","city":"稲城市","address":"東京都稲城市矢野口1804-3","lat":35.636618,"lon":139.51919},{"name":"同和発條㈱","province":"東京都","city":"稲城市","address":"東京都稲城市矢野口635-1","lat":35.639439,"lon":139.519866},{"name":"城南信用金庫","province":"東京都","city":"稲城市","address":"東京都稲城市矢野口589","lat":35.639478,"lon":139.520225},{"name":"シーアイマンション京王よみうりランド","province":"東京都","city":"稲城市","address":"東京都稲城市東長沼3105-1","lat":35.638449,"lon":139.517666},{"name":"わかばだいデンタルクリニック","province":"東京都","city":"稲城市","address":"東京都稲城市若葉台3-12-1","lat":35.625243,"lon":139.468179},{"name":"さやま歯科クリニック","province":"東京都","city":"稲城市","address":"東京都稲城市矢野口2284-1","lat":35.636034,"lon":139.515488},{"name":"トヨタ西東京カローラ㈱稲城店","province":"東京都","city":"稲城市","address":"東京都稲城市東長沼1735-1","lat":35.63746,"lon":139.508767},{"name":"ドーミー京王よみうりランド","province":"東京都","city":"稲城市","address":"東京都稲城市矢野口4017-3","lat":35.632075,"lon":139.516577},{"name":"まつもと歯科クリニック","province":"東京都","city":"稲城市","address":"東京都稲城市矢野口691-7","lat":35.640886,"lon":139.519125},{"name":"若葉台駅前交番","province":"東京都","city":"稲城市","address":"東京都稲城市若葉台2-101","lat":35.620542,"lon":139.472213},{"name":"ヒルトップロマン","province":"東京都","city":"稲城市","address":"東京都稲城市若葉台3-7-1","lat":35.624318,"lon":139.464805},{"name":"保育ルームフェリーチェ稲城長沼園","province":"東京都","city":"稲城市","address":"東京都稲城市東長沼566-1","lat":35.644662,"lon":139.50388},{"name":"にじいろ保育園矢野口","province":"東京都","city":"稲城市","address":"東京都稲城市矢野口3030-1","lat":35.63586,"lon":139.508691},{"name":"京王キッズプラッツよみうりランド","province":"東京都","city":"稲城市","address":"東京都稲城市矢野口4015-1","lat":35.631992,"lon":139.51714},{"name":"稲城矢野口雲母保育園","province":"東京都","city":"稲城市","address":"東京都稲城市矢野口1075-1","lat":35.640891,"lon":139.513997},{"name":"いなぎのぞみ保育園","province":"東京都","city":"稲城市","address":"東京都稲城市大丸593-14","lat":35.645664,"lon":139.495506},{"name":"ひらお保育園","province":"東京都","city":"稲城市","address":"東京都稲城市平尾3-1-23","lat":35.610411,"lon":139.487582},{"name":"しおどめ保育園","province":"東京都","city":"稲城市","address":"東京都稲城市坂浜3-33-1","lat":35.620847,"lon":139.486343},{"name":"上谷戸緑地体験学習館","province":"東京都","city":"稲城市","address":"東京都稲城市若葉台1-28-2","lat":35.6271,"lon":139.481534},{"name":"松葉集会場","province":"東京都","city":"稲城市","address":"東京都稲城市矢野口1892","lat":35.636418,"lon":139.520507},{"name":"押立ふれあい会館","province":"東京都","city":"稲城市","address":"東京都稲城市押立663","lat":35.649688,"lon":139.511119},{"name":"大丸地区会館","province":"東京都","city":"稲城市","address":"東京都稲城市大丸251","lat":35.647316,"lon":139.49877},{"name":"いなぎ発信基地ペアテラス","province":"東京都","city":"稲城市","address":"東京都稲城市東長沼516-2","lat":35.644056,"lon":139.502901},{"name":"ZEBRA Coffee & Croissant 稲城中央公園店","province":"東京都","city":"稲城市","address":"東京都稲城市長峰1-1-1","lat":35.63383,"lon":139.48589},{"name":"稲城第七小学校","province":"東京都","city":"稲城市","address":"東京都稲城市矢野口1901-2","lat":35.635444,"lon":139.520444},{"name":"稲城第三中学校","province":"東京都","city":"稲城市","address":"東京都稲城市矢野口3043","lat":35.636472,"lon":139.507447},{"name":"公益社団法人九段盡性園","province":"東京都","city":"稲城市","address":"東京都稲城市矢野口3750-11","lat":35.643931,"lon":139.520878},{"name":"南山小学校","province":"東京都","city":"稲城市","address":"東京都稲城市矢野口3635","lat":35.629003,"lon":139.508708},{"name":"稲城第一小学校","province":"東京都","city":"稲城市","address":"東京都稲城市東長沼956","lat":35.640722,"lon":139.511836},{"name":"吉方公園","province":"東京都","city":"稲城市","address":"東京都稲城市東長沼1728","lat":35.640722,"lon":139.511836},{"name":"北緑地公園","province":"東京都","city":"稲城市","address":"東京都稲城市東長沼2996","lat":35.649699,"lon":139.502367},{"name":"稲城第三小学校","province":"東京都","city":"稲城市","address":"東京都稲城市大丸100","lat":35.64325,"lon":139.499753},{"name":"大丸公園","province":"東京都","city":"稲城市","address":"東京都稲城市大丸1097","lat":35.646508,"lon":139.48268},{"name":"稲城第六小学校","province":"東京都","city":"稲城市","address":"東京都稲城市大丸2110","lat":35.64969,"lon":139.499281},{"name":"大丸第二公園","province":"東京都","city":"稲城市","address":"東京都稲城市大丸3111-1","lat":35.650637,"lon":139.497136},{"name":"稲城第一中学校","province":"東京都","city":"稲城市","address":"東京都稲城市百村23","lat":35.64038,"lon":139.499463},{"name":"稲城第二小学校","province":"東京都","city":"稲城市","address":"東京都稲城市坂浜590","lat":35.625041,"lon":139.485403},{"name":"稲城第二中学校","province":"東京都","city":"稲城市","address":"東京都稲城市坂浜1340","lat":35.616,"lon":139.481114},{"name":"都立若葉総合高校グラウンド","province":"東京都","city":"稲城市","address":"東京都稲城市坂浜1434-3","lat":35.618045,"lon":139.477933},{"name":"複合施設ふれんど平尾","province":"東京都","city":"稲城市","address":"東京都稲城市平尾1-9-1","lat":35.613726,"lon":139.492582},{"name":"平尾小学校","province":"東京都","city":"稲城市","address":"東京都稲城市平尾3-1-3","lat":35.61121,"lon":139.488684},{"name":"平尾近隣公園","province":"東京都","city":"稲城市","address":"東京都稲城市平尾3-7-20","lat":35.609812,"lon":139.490554},{"name":"稲城第四小学校","province":"東京都","city":"稲城市","address":"東京都稲城市押立1250","lat":35.644604,"lon":139.516468},{"name":"稲城第四中学校","province":"東京都","city":"稲城市","address":"東京都稲城市押立1768","lat":35.645806,"lon":139.518059},{"name":"稲城第五中学校","province":"東京都","city":"稲城市","address":"東京都稲城市向陽台3-1-1","lat":35.638305,"lon":139.489628},{"name":"向陽台小学校","province":"東京都","city":"稲城市","address":"東京都稲城市向陽台3-2","lat":35.637419,"lon":139.48814},{"name":"稲城中央公園野球場","province":"東京都","city":"稲城市","address":"東京都稲城市向陽台4-1-1","lat":35.635986,"lon":139.486008},{"name":"城山公園","province":"東京都","city":"稲城市","address":"東京都稲城市向陽台4-6","lat":35.645573,"lon":139.488434},{"name":"城山小学校","province":"東京都","city":"稲城市","address":"東京都稲城市向陽台6-17","lat":35.642639,"lon":139.493308},{"name":"稲城中央公園総合グラウンド","province":"東京都","city":"稲城市","address":"東京都稲城市長峰1-1","lat":35.631828,"lon":139.486252},{"name":"長峰小学校","province":"東京都","city":"稲城市","address":"東京都稲城市長峰2-8","lat":35.629757,"lon":139.483308},{"name":"若葉台公園","province":"東京都","city":"稲城市","address":"東京都稲城市若葉台1-19-1","lat":35.626075,"lon":139.472741},{"name":"稲城第六中学校","province":"東京都","city":"稲城市","address":"東京都稲城市若葉台3-11","lat":35.624835,"lon":139.467015},{"name":"若葉台小学校","province":"東京都","city":"稲城市","address":"東京都稲城市若葉台4-5","lat":35.626899,"lon":139.468146},{"name":"稲城市","province":"東京都","city":"稲城市","address":"稲城市東長沼2111","lat":35.63796,"lon":139.5042697},{"name":"稲城市役所","province":"東京都","city":"稲城市","address":"東京都稲城市東長沼2111","lat":35.63806,"lon":139.50442},{"name":"稲城市役所","province":"東京都","city":"稲城市","address":"東京都稲城市東長沼2111","lat":35.63797,"lon":139.504819},{"name":"上平尾消防出張所","province":"東京都","city":"稲城市","address":"東京都稲城市平尾4丁目15-4","lat":35.61463,"lon":139.484434},{"name":"中央文化センター","province":"東京都","city":"稲城市","address":"東京都稲城市東長沼2111","lat":35.63802,"lon":139.503787},{"name":"第二文化センター","province":"東京都","city":"稲城市","address":"東京都稲城市矢野口1780","lat":35.6353,"lon":139.518365},{"name":"第三文化センター","province":"東京都","city":"稲城市","address":"東京都稲城市平尾1丁目20-5","lat":35.61316,"lon":139.492466},{"name":"第三文化センター","province":"東京都","city":"稲城市","address":"東京都稲城市平尾1丁目20-5","lat":35.61311,"lon":139.492516},{"name":"第四文化センター","province":"東京都","city":"稲城市","address":"東京都稲城市東長沼271","lat":35.64591,"lon":139.505343},{"name":"城山文化センター","province":"東京都","city":"稲城市","address":"東京都稲城市向陽台6丁目7-6","lat":35.64134,"lon":139.490795},{"name":"稲城市立病院","province":"東京都","city":"稲城市","address":"東京都稲城市大丸1171","lat":35.64675,"lon":139.48517},{"name":"稲城市立病院","province":"東京都","city":"稲城市","address":"東京都稲城市大丸1171","lat":35.64666,"lon":139.484968},{"name":"稲城市立病院","province":"東京都","city":"稲城市","address":"東京都稲城市大丸1171","lat":35.64676,"lon":139.485157},{"name":"稲城市立病院　健診・外来棟","province":"東京都","city":"稲城市","address":"東京都稲城市大丸1171","lat":35.64687,"lon":139.486158},{"name":"稲城市立病院　健診・外来棟","province":"東京都","city":"稲城市","address":"東京都稲城市大丸","lat":35.64695,"lon":139.485759},{"name":"稲城市立病院　健診・外来棟","province":"東京都","city":"稲城市","address":"東京都稲城市大丸1171","lat":35.646804,"lon":139.485173},{"name":"稲城市保健センター","province":"東京都","city":"稲城市","address":"東京都稲城市百村112-1","lat":35.63829,"lon":139.497485},{"name":"オーエンス健康プラザ","province":"東京都","city":"稲城市","address":"東京都稲城市大丸1171","lat":35.646825,"lon":139.486115},{"name":"オーエンス健康プラザ","province":"東京都","city":"稲城市","address":"東京都稲城市大丸1171","lat":35.64699,"lon":139.486108},{"name":"オーエンス健康プラザ","province":"東京都","city":"稲城市","address":"東京都稲城市大丸1171","lat":35.646915,"lon":139.486198},{"name":"稲城市立中央図書館","province":"東京都","city":"稲城市","address":"東京都稲城市向陽台4丁目6","lat":35.64535,"lon":139.48851},{"name":"城山体験学習館","province":"東京都","city":"稲城市","address":"東京都稲城市向陽台4丁目6-18","lat":35.64574,"lon":139.48792},{"name":"地域振興プラザ","province":"東京都","city":"稲城市","address":"東京都稲城市東長沼2112-1","lat":35.63784,"lon":139.505896},{"name":"稲城市立iプラザ","province":"東京都","city":"稲城市","address":"東京都稲城市若葉台2丁目5-2","lat":35.62125,"lon":139.47211},{"name":"稲城市立iプラザ","province":"東京都","city":"稲城市","address":"東京都稲城市若葉台2丁目5-2","lat":35.62099,"lon":139.472202},{"name":"稲城市立iプラザ","province":"東京都","city":"稲城市","address":"東京都稲城市若葉台2丁目5-2","lat":35.62102,"lon":139.472343},{"name":"稲城市立iプラザ","province":"東京都","city":"稲城市","address":"東京都稲城市若葉台2丁目5-2","lat":35.621,"lon":139.472085},{"name":"押立ふれあい会館","province":"東京都","city":"稲城市","address":"東京都稲城市押立663","lat":35.64969,"lon":139.511159},{"name":"中央公民館ホール","province":"東京都","city":"稲城市","address":"東京都稲城市東長沼2111","lat":35.63835,"lon":139.503772},{"name":"三沢川親水公園","province":"東京都","city":"稲城市","address":"東京都稲城市矢野口","lat":35.63634,"lon":139.516182},{"name":"稲城北緑地公園","province":"東京都","city":"稲城市","address":"東京都稲城市東長沼","lat":35.64971,"lon":139.504257},{"name":"亀山下公園","province":"東京都","city":"稲城市","address":"東京都稲城市東長沼","lat":35.63803,"lon":139.500671},{"name":"大丸公園","province":"東京都","city":"稲城市","address":"東京都稲城市大丸","lat":35.64745,"lon":139.487278},{"name":"大丸第二公園（プール管理棟内）","province":"東京都","city":"稲城市","address":"東京都稲城市大丸3111-1","lat":35.65039,"lon":139.49687},{"name":"大丸河原方児童公園","province":"東京都","city":"稲城市","address":"東京都稲城市大丸","lat":35.65049,"lon":139.493639},{"name":"山崎公園","province":"東京都","city":"稲城市","address":"東京都稲城市大丸","lat":35.64415,"lon":139.497443},{"name":"東方公園","province":"東京都","city":"稲城市","address":"東京都稲城市大丸","lat":35.64209,"lon":139.499325},{"name":"平尾近隣公園","province":"東京都","city":"稲城市","address":"東京都稲城市平尾3丁目7","lat":35.60977,"lon":139.489686},{"name":"稲城中央公園","province":"東京都","city":"稲城市","address":"東京都稲城市長峰1丁目1","lat":35.63372,"lon":139.4853},{"name":"稲城中央公園","province":"東京都","city":"稲城市","address":"東京都稲城市長峰1丁目1","lat":35.63368,"lon":139.488331},{"name":"稲城中央公園","province":"東京都","city":"稲城市","address":"東京都稲城市向陽台4丁目1","lat":35.63667,"lon":139.485936},{"name":"稲城中央公園","province":"東京都","city":"稲城市","address":"東京都稲城市長峰1丁目1","lat":35.63202,"lon":139.48602},{"name":"稲城中央公園","province":"東京都","city":"稲城市","address":"東京都稲城市長峰1丁目1","lat":35.63365,"lon":139.48732},{"name":"稲城中央公園","province":"東京都","city":"稲城市","address":"東京都稲城市長峰1丁目1-1","lat":35.63149,"lon":139.486232},{"name":"城山公園","province":"東京都","city":"稲城市","address":"東京都稲城市向陽台4丁目6","lat":35.64137,"lon":139.489154},{"name":"ひつじさん公園","province":"東京都","city":"稲城市","address":"東京都稲城市向陽台6丁目14","lat":35.64348,"lon":139.492425},{"name":"もぐらさん公園","province":"東京都","city":"稲城市","address":"東京都稲城市向陽台2丁目4","lat":35.63951,"lon":139.492594},{"name":"若葉台公園","province":"東京都","city":"稲城市","address":"東京都稲城市若葉台1丁目24","lat":35.62744,"lon":139.472131},{"name":"若葉台公園","province":"東京都","city":"稲城市","address":"東京都稲城市若葉台1丁目19","lat":35.62503,"lon":139.473738},{"name":"上谷戸親水公園","province":"東京都","city":"稲城市","address":"東京都稲城市若葉台1丁目28","lat":35.6271,"lon":139.481463},{"name":"若葉台駅駅前広場トイレ","province":"東京都","city":"稲城市","address":"東京都稲城市若葉台2丁目101","lat":35.62051,"lon":139.472503},{"name":"多摩川堤防公衆トイレ","province":"東京都","city":"稲城市","address":"東京都稲城市矢野口","lat":35.64394,"lon":139.521681},{"name":"複合施設ふれんど平尾","province":"東京都","city":"稲城市","address":"東京都稲城市平尾1丁目9","lat":35.61371,"lon":139.492911},{"name":"複合施設ふれんど平尾","province":"東京都","city":"稲城市","address":"東京都稲城市平尾1丁目9","lat":35.6137,"lon":139.49293},{"name":"稲城長峰ヴェルディフィールド","province":"東京都","city":"稲城市","address":"東京都稲城市長峰3丁目10-1","lat":35.63158,"lon":139.477589},{"name":"稲城長峰ヴェルディフィールド","province":"東京都","city":"稲城市","address":"東京都稲城市長峰3丁目11","lat":35.6294,"lon":139.476541},{"name":"南多摩スポーツ広場","province":"東京都","city":"稲城市","address":"東京都稲城市大丸","lat":35.64876,"lon":139.480318},{"name":"稲城市福祉センター","province":"東京都","city":"稲城市","address":"東京都稲城市百村7","lat":35.639577,"lon":139.499948},{"name":"坂浜配水所","province":"東京都","city":"稲城市","address":"東京都稲城市坂浜816","lat":35.615837,"lon":139.487899},{"name":"向陽台給水所","province":"東京都","city":"稲城市","address":"東京都稲城市向陽台6-16","lat":35.6437222,"lon":139.493028},{"name":"若葉台給水所","province":"東京都","city":"稲城市","address":"東京都稲城市若葉台1-19","lat":35.623984,"lon":139.473903},{"name":"ウエルシア稲城若葉台アクロスプラザ店","province":"東京都","city":"稲城市","address":"東京都稲城市若葉台1丁目55","lat":35.6243214,"lon":139.4746777},{"name":"ヤオコー　フレスポ若葉台店","province":"東京都","city":"稲城市","address":"東京都稲城市若葉台2丁目4-2","lat":35.6203384,"lon":139.4708975},{"name":"三和　若葉台店","province":"東京都","city":"稲城市","address":"東京都稲城市若葉台2丁目6","lat":35.6218715,"lon":139.4713308},{"name":"ユニディ若葉台店","province":"東京都","city":"稲城市","address":"東京都稲城市若葉台2丁目6","lat":35.6218715,"lon":139.4713308},{"name":"サンドラッグ稲城若葉台店","province":"東京都","city":"稲城市","address":"東京都稲城市若葉台3丁目10","lat":35.6255733,"lon":139.4660475},{"name":"コープみらい　若葉台店","province":"東京都","city":"稲城市","address":"東京都稲城市若葉台3丁目10","lat":35.6255733,"lon":139.4660475},{"name":"矢野口","province":"東京都","city":"稲城市","address":"東京都稲城市矢野口619-14","lat":35.64052914,"lon":139.51973182},{"name":"稲城長沼駅入口","province":"東京都","city":"稲城市","address":"東京都稲城市東長沼1040","lat":35.643933,"lon":139.50127698},{"name":"稲城大丸","province":"東京都","city":"稲城市","address":"東京都稲城市大丸928","lat":35.64816504,"lon":139.49215773},{"name":"稲城市福祉センター入口","province":"東京都","city":"稲城市","address":"東京都稲城市百村1601-2","lat":35.63885051,"lon":139.49928032},{"name":"稲城中央橋","province":"東京都","city":"稲城市","address":"東京都稲城市百村1605","lat":35.63702576,"lon":139.49798609},{"name":"稲城向陽台中央","province":"東京都","city":"稲城市","address":"東京都稲城市向陽台6丁目8-1","lat":35.64144378,"lon":139.49028885},{"name":"稲城市役所前","province":"東京都","city":"稲城市","address":"東京都稲城市東長沼2107-1","lat":35.63863147,"lon":139.50471896},{"name":"稲城市立病院","province":"東京都","city":"稲城市","address":"東京都稲城市大丸1171","lat":35.64687587,"lon":139.48586645},{"name":"稲城市役所西側車庫棟","province":"東京都","city":"稲城市","address":"東京都稲城市東長沼2111","lat":35.63795935,"lon":139.50426905},{"name":"稲城市本庁舎","province":"東京都","city":"稲城市","address":"稲城市東長沼2111","lat":35.63796,"lon":139.50427},{"name":"稲城消防署","province":"東京都","city":"稲城市","address":"稲城市東長沼2111","lat":35.63793,"lon":139.505064},{"name":"稲城市立中央公園総合グラウンド","province":"東京都","city":"稲城市","address":"稲城市長峰1-1","lat":35.63077,"lon":139.4861},{"name":"稲城市","province":"東京都","city":"稲城市","address":"稲城市東長沼2111","lat":35.63796,"lon":139.5042697},{"name":"稲城市役所","province":"東京都","city":"稲城市","address":"東京都稲城市東長沼2111","lat":35.63806,"lon":139.50442},{"name":"稲城市役所","province":"東京都","city":"稲城市","address":"東京都稲城市東長沼2111","lat":35.63797,"lon":139.504819},{"name":"上平尾消防出張所","province":"東京都","city":"稲城市","address":"東京都稲城市平尾4丁目15-4","lat":35.61463,"lon":139.484434},{"name":"中央文化センター","province":"東京都","city":"稲城市","address":"東京都稲城市東長沼2111","lat":35.63802,"lon":139.503787},{"name":"第二文化センター","province":"東京都","city":"稲城市","address":"東京都稲城市矢野口1780","lat":35.6353,"lon":139.518365},{"name":"第三文化センター","province":"東京都","city":"稲城市","address":"東京都稲城市平尾1丁目20-5","lat":35.61316,"lon":139.492466},{"name":"第三文化センター","province":"東京都","city":"稲城市","address":"東京都稲城市平尾1丁目20-5","lat":35.61311,"lon":139.492516},{"name":"第四文化センター","province":"東京都","city":"稲城市","address":"東京都稲城市東長沼271","lat":35.64591,"lon":139.505343},{"name":"城山文化センター","province":"東京都","city":"稲城市","address":"東京都稲城市向陽台6丁目7-6","lat":35.64134,"lon":139.490795},{"name":"稲城市立病院","province":"東京都","city":"稲城市","address":"東京都稲城市大丸1171","lat":35.64675,"lon":139.48517},{"name":"稲城市立病院","province":"東京都","city":"稲城市","address":"東京都稲城市大丸1171","lat":35.64666,"lon":139.484968},{"name":"稲城市立病院","province":"東京都","city":"稲城市","address":"東京都稲城市大丸1171","lat":35.64676,"lon":139.485157},{"name":"稲城市立病院　健診・外来棟","province":"東京都","city":"稲城市","address":"東京都稲城市大丸1171","lat":35.64687,"lon":139.486158},{"name":"稲城市立病院　健診・外来棟","province":"東京都","city":"稲城市","address":"東京都稲城市大丸","lat":35.64695,"lon":139.485759},{"name":"稲城市立病院　健診・外来棟","province":"東京都","city":"稲城市","address":"東京都稲城市大丸1171","lat":35.646804,"lon":139.485173},{"name":"稲城市保健センター","province":"東京都","city":"稲城市","address":"東京都稲城市百村112-1","lat":35.63829,"lon":139.497485},{"name":"オーエンス健康プラザ","province":"東京都","city":"稲城市","address":"東京都稲城市大丸1171","lat":35.646825,"lon":139.486115},{"name":"オーエンス健康プラザ","province":"東京都","city":"稲城市","address":"東京都稲城市大丸1171","lat":35.64699,"lon":139.486108},{"name":"オーエンス健康プラザ","province":"東京都","city":"稲城市","address":"東京都稲城市大丸1171","lat":35.646915,"lon":139.486198},{"name":"稲城市立中央図書館","province":"東京都","city":"稲城市","address":"東京都稲城市向陽台4丁目6","lat":35.64535,"lon":139.48851},{"name":"城山体験学習館","province":"東京都","city":"稲城市","address":"東京都稲城市向陽台4丁目6-18","lat":35.64574,"lon":139.48792},{"name":"地域振興プラザ","province":"東京都","city":"稲城市","address":"東京都稲城市東長沼2112-1","lat":35.63784,"lon":139.505896},{"name":"稲城市立iプラザ","province":"東京都","city":"稲城市","address":"東京都稲城市若葉台2丁目5-2","lat":35.62125,"lon":139.47211},{"name":"稲城市立iプラザ","province":"東京都","city":"稲城市","address":"東京都稲城市若葉台2丁目5-2","lat":35.62099,"lon":139.472202},{"name":"稲城市立iプラザ","province":"東京都","city":"稲城市","address":"東京都稲城市若葉台2丁目5-2","lat":35.62102,"lon":139.472343},{"name":"稲城市立iプラザ","province":"東京都","city":"稲城市","address":"東京都稲城市若葉台2丁目5-2","lat":35.621,"lon":139.472085},{"name":"押立ふれあい会館","province":"東京都","city":"稲城市","address":"東京都稲城市押立663","lat":35.64969,"lon":139.511159},{"name":"中央公民館ホール","province":"東京都","city":"稲城市","address":"東京都稲城市東長沼2111","lat":35.63835,"lon":139.503772},{"name":"三沢川親水公園","province":"東京都","city":"稲城市","address":"東京都稲城市矢野口","lat":35.63634,"lon":139.516182},{"name":"稲城北緑地公園","province":"東京都","city":"稲城市","address":"東京都稲城市東長沼","lat":35.64971,"lon":139.504257},{"name":"亀山下公園","province":"東京都","city":"稲城市","address":"東京都稲城市東長沼","lat":35.63803,"lon":139.500671},{"name":"大丸公園","province":"東京都","city":"稲城市","address":"東京都稲城市大丸","lat":35.64745,"lon":139.487278},{"name":"大丸第二公園（プール管理棟内）","province":"東京都","city":"稲城市","address":"東京都稲城市大丸3111-1","lat":35.65039,"lon":139.49687},{"name":"大丸河原方児童公園","province":"東京都","city":"稲城市","address":"東京都稲城市大丸","lat":35.65049,"lon":139.493639},{"name":"山崎公園","province":"東京都","city":"稲城市","address":"東京都稲城市大丸","lat":35.64415,"lon":139.497443},{"name":"東方公園","province":"東京都","city":"稲城市","address":"東京都稲城市大丸","lat":35.64209,"lon":139.499325},{"name":"平尾近隣公園","province":"東京都","city":"稲城市","address":"東京都稲城市平尾3丁目7","lat":35.60977,"lon":139.489686},{"name":"稲城中央公園","province":"東京都","city":"稲城市","address":"東京都稲城市長峰1丁目1","lat":35.63372,"lon":139.4853},{"name":"稲城中央公園","province":"東京都","city":"稲城市","address":"東京都稲城市長峰1丁目1","lat":35.63368,"lon":139.488331},{"name":"稲城中央公園","province":"東京都","city":"稲城市","address":"東京都稲城市向陽台4丁目1","lat":35.63667,"lon":139.485936},{"name":"稲城中央公園","province":"東京都","city":"稲城市","address":"東京都稲城市長峰1丁目1","lat":35.63202,"lon":139.48602},{"name":"稲城中央公園","province":"東京都","city":"稲城市","address":"東京都稲城市長峰1丁目1","lat":35.63365,"lon":139.48732},{"name":"稲城中央公園","province":"東京都","city":"稲城市","address":"東京都稲城市長峰1丁目1-1","lat":35.63149,"lon":139.486232},{"name":"城山公園","province":"東京都","city":"稲城市","address":"東京都稲城市向陽台4丁目6","lat":35.64137,"lon":139.489154},{"name":"ひつじさん公園","province":"東京都","city":"稲城市","address":"東京都稲城市向陽台6丁目14","lat":35.64348,"lon":139.492425},{"name":"もぐらさん公園","province":"東京都","city":"稲城市","address":"東京都稲城市向陽台2丁目4","lat":35.63951,"lon":139.492594},{"name":"若葉台公園","province":"東京都","city":"稲城市","address":"東京都稲城市若葉台1丁目24","lat":35.62744,"lon":139.472131},{"name":"若葉台公園","province":"東京都","city":"稲城市","address":"東京都稲城市若葉台1丁目19","lat":35.62503,"lon":139.473738},{"name":"上谷戸親水公園","province":"東京都","city":"稲城市","address":"東京都稲城市若葉台1丁目28","lat":35.6271,"lon":139.481463},{"name":"若葉台駅駅前広場トイレ","province":"東京都","city":"稲城市","address":"東京都稲城市若葉台2丁目101","lat":35.62051,"lon":139.472503},{"name":"多摩川堤防公衆トイレ","province":"東京都","city":"稲城市","address":"東京都稲城市矢野口","lat":35.64394,"lon":139.521681},{"name":"複合施設ふれんど平尾","province":"東京都","city":"稲城市","address":"東京都稲城市平尾1丁目9","lat":35.61371,"lon":139.492911},{"name":"複合施設ふれんど平尾","province":"東京都","city":"稲城市","address":"東京都稲城市平尾1丁目9","lat":35.6137,"lon":139.49293},{"name":"稲城長峰ヴェルディフィールド","province":"東京都","city":"稲城市","address":"東京都稲城市長峰3丁目10-1","lat":35.63158,"lon":139.477589},{"name":"稲城長峰ヴェルディフィールド","province":"東京都","city":"稲城市","address":"東京都稲城市長峰3丁目11","lat":35.6294,"lon":139.476541},{"name":"南多摩スポーツ広場","province":"東京都","city":"稲城市","address":"東京都稲城市大丸","lat":35.64876,"lon":139.480318},{"name":"稲城市福祉センター","province":"東京都","city":"稲城市","address":"東京都稲城市百村7","lat":35.639577,"lon":139.499948},{"name":"ウエルシア稲城若葉台アクロスプラザ店","province":"東京都","city":"稲城市","address":"東京都稲城市若葉台1丁目55","lat":35.6243214,"lon":139.4746777},{"name":"ヤオコー　フレスポ若葉台店","province":"東京都","city":"稲城市","address":"東京都稲城市若葉台2丁目4-2","lat":35.6203384,"lon":139.4708975},{"name":"三和　若葉台店","province":"東京都","city":"稲城市","address":"東京都稲城市若葉台2丁目6","lat":35.6218715,"lon":139.4713308},{"name":"ユニディ若葉台店","province":"東京都","city":"稲城市","address":"東京都稲城市若葉台2丁目6","lat":35.6218715,"lon":139.4713308},{"name":"サンドラッグ稲城若葉台店","province":"東京都","city":"稲城市","address":"東京都稲城市若葉台3丁目10","lat":35.6255733,"lon":139.4660475},{"name":"コープみらい　若葉台店","province":"東京都","city":"稲城市","address":"東京都稲城市若葉台3丁目10","lat":35.6255733,"lon":139.4660475},{"name":"矢野口","province":"東京都","city":"稲城市","address":"東京都稲城市矢野口619-14","lat":35.64052914,"lon":139.51973182},{"name":"稲城長沼駅入口","province":"東京都","city":"稲城市","address":"東京都稲城市東長沼1040","lat":35.643933,"lon":139.50127698},{"name":"稲城大丸","province":"東京都","city":"稲城市","address":"東京都稲城市大丸928","lat":35.64816504,"lon":139.49215773},{"name":"稲城市福祉センター入口","province":"東京都","city":"稲城市","address":"東京都稲城市百村1601-2","lat":35.63885051,"lon":139.49928032},{"name":"稲城中央橋","province":"東京都","city":"稲城市","address":"東京都稲城市百村1605","lat":35.63702576,"lon":139.49798609},{"name":"稲城向陽台中央","province":"東京都","city":"稲城市","address":"東京都稲城市向陽台6丁目8-1","lat":35.64144378,"lon":139.49028885},{"name":"稲城市役所前","province":"東京都","city":"稲城市","address":"東京都稲城市東長沼2107-1","lat":35.63863147,"lon":139.50471896},{"name":"稲城市役所西側車庫棟","province":"東京都","city":"稲城市","address":"東京都稲城市東長沼2111","lat":35.63795935,"lon":139.50426905},{"name":"稲城市本庁舎","province":"東京都","city":"稲城市","address":"稲城市東長沼2111","lat":35.63796,"lon":139.50427},{"name":"稲城消防署","province":"東京都","city":"稲城市","address":"稲城市東長沼2111","lat":35.63793,"lon":139.505064},{"name":"稲城市立中央公園総合グラウンド","province":"東京都","city":"稲城市","address":"稲城市長峰1-1","lat":35.63077,"lon":139.4861},{"name":"稲城市","province":"東京都","city":"稲城市","address":"稲城市東長沼2111","lat":35.63796,"lon":139.5042697},{"name":"稲城市役所","province":"東京都","city":"稲城市","address":"東京都稲城市東長沼2111","lat":35.63806,"lon":139.50442},{"name":"稲城市役所","province":"東京都","city":"稲城市","address":"東京都稲城市東長沼2111","lat":35.63797,"lon":139.504819},{"name":"上平尾消防出張所","province":"東京都","city":"稲城市","address":"東京都稲城市平尾4丁目15-4","lat":35.61463,"lon":139.484434},{"name":"中央文化センター","province":"東京都","city":"稲城市","address":"東京都稲城市東長沼2111","lat":35.63802,"lon":139.503787},{"name":"第二文化センター","province":"東京都","city":"稲城市","address":"東京都稲城市矢野口1780","lat":35.6353,"lon":139.518365},{"name":"第三文化センター","province":"東京都","city":"稲城市","address":"東京都稲城市平尾1丁目20-5","lat":35.61316,"lon":139.492466},{"name":"第三文化センター","province":"東京都","city":"稲城市","address":"東京都稲城市平尾1丁目20-5","lat":35.61311,"lon":139.492516},{"name":"第四文化センター","province":"東京都","city":"稲城市","address":"東京都稲城市東長沼271","lat":35.64591,"lon":139.505343},{"name":"城山文化センター","province":"東京都","city":"稲城市","address":"東京都稲城市向陽台6丁目7-6","lat":35.64134,"lon":139.490795},{"name":"稲城市立病院","province":"東京都","city":"稲城市","address":"東京都稲城市大丸1171","lat":35.64675,"lon":139.48517},{"name":"稲城市立病院","province":"東京都","city":"稲城市","address":"東京都稲城市大丸1171","lat":35.64666,"lon":139.484968},{"name":"稲城市立病院","province":"東京都","city":"稲城市","address":"東京都稲城市大丸1171","lat":35.64676,"lon":139.485157},{"name":"稲城市立病院　健診・外来棟","province":"東京都","city":"稲城市","address":"東京都稲城市大丸1171","lat":35.64687,"lon":139.486158},{"name":"稲城市立病院　健診・外来棟","province":"東京都","city":"稲城市","address":"東京都稲城市大丸","lat":35.64695,"lon":139.485759},{"name":"稲城市立病院　健診・外来棟","province":"東京都","city":"稲城市","address":"東京都稲城市大丸1171","lat":35.646804,"lon":139.485173},{"name":"稲城市保健センター","province":"東京都","city":"稲城市","address":"東京都稲城市百村112-1","lat":35.63829,"lon":139.497485},{"name":"オーエンス健康プラザ","province":"東京都","city":"稲城市","address":"東京都稲城市大丸1171","lat":35.646825,"lon":139.486115},{"name":"オーエンス健康プラザ","province":"東京都","city":"稲城市","address":"東京都稲城市大丸1171","lat":35.64699,"lon":139.486108},{"name":"オーエンス健康プラザ","province":"東京都","city":"稲城市","address":"東京都稲城市大丸1171","lat":35.646915,"lon":139.486198},{"name":"稲城市立中央図書館","province":"東京都","city":"稲城市","address":"東京都稲城市向陽台4丁目6","lat":35.64535,"lon":139.48851},{"name":"城山体験学習館","province":"東京都","city":"稲城市","address":"東京都稲城市向陽台4丁目6-18","lat":35.64574,"lon":139.48792},{"name":"地域振興プラザ","province":"東京都","city":"稲城市","address":"東京都稲城市東長沼2112-1","lat":35.63784,"lon":139.505896},{"name":"稲城市立iプラザ","province":"東京都","city":"稲城市","address":"東京都稲城市若葉台2丁目5-2","lat":35.62125,"lon":139.47211},{"name":"稲城市立iプラザ","province":"東京都","city":"稲城市","address":"東京都稲城市若葉台2丁目5-2","lat":35.62099,"lon":139.472202},{"name":"稲城市立iプラザ","province":"東京都","city":"稲城市","address":"東京都稲城市若葉台2丁目5-2","lat":35.62102,"lon":139.472343},{"name":"稲城市立iプラザ","province":"東京都","city":"稲城市","address":"東京都稲城市若葉台2丁目5-2","lat":35.621,"lon":139.472085},{"name":"押立ふれあい会館","province":"東京都","city":"稲城市","address":"東京都稲城市押立663","lat":35.64969,"lon":139.511159},{"name":"中央公民館ホール","province":"東京都","city":"稲城市","address":"東京都稲城市東長沼2111","lat":35.63835,"lon":139.503772},{"name":"三沢川親水公園","province":"東京都","city":"稲城市","address":"東京都稲城市矢野口","lat":35.63634,"lon":139.516182},{"name":"稲城北緑地公園","province":"東京都","city":"稲城市","address":"東京都稲城市東長沼","lat":35.64971,"lon":139.504257},{"name":"亀山下公園","province":"東京都","city":"稲城市","address":"東京都稲城市東長沼","lat":35.63803,"lon":139.500671},{"name":"大丸公園","province":"東京都","city":"稲城市","address":"東京都稲城市大丸","lat":35.64745,"lon":139.487278},{"name":"大丸第二公園（プール管理棟内）","province":"東京都","city":"稲城市","address":"東京都稲城市大丸3111-1","lat":35.65039,"lon":139.49687},{"name":"大丸河原方児童公園","province":"東京都","city":"稲城市","address":"東京都稲城市大丸","lat":35.65049,"lon":139.493639},{"name":"山崎公園","province":"東京都","city":"稲城市","address":"東京都稲城市大丸","lat":35.64415,"lon":139.497443},{"name":"東方公園","province":"東京都","city":"稲城市","address":"東京都稲城市大丸","lat":35.64209,"lon":139.499325},{"name":"平尾近隣公園","province":"東京都","city":"稲城市","address":"東京都稲城市平尾3丁目7","lat":35.60977,"lon":139.489686},{"name":"稲城中央公園","province":"東京都","city":"稲城市","address":"東京都稲城市長峰1丁目1","lat":35.63372,"lon":139.4853},{"name":"稲城中央公園","province":"東京都","city":"稲城市","address":"東京都稲城市長峰1丁目1","lat":35.63368,"lon":139.488331},{"name":"稲城中央公園","province":"東京都","city":"稲城市","address":"東京都稲城市向陽台4丁目1","lat":35.63667,"lon":139.485936},{"name":"稲城中央公園","province":"東京都","city":"稲城市","address":"東京都稲城市長峰1丁目1","lat":35.63202,"lon":139.48602},{"name":"稲城中央公園","province":"東京都","city":"稲城市","address":"東京都稲城市長峰1丁目1","lat":35.63365,"lon":139.48732},{"name":"稲城中央公園","province":"東京都","city":"稲城市","address":"東京都稲城市長峰1丁目1-1","lat":35.63149,"lon":139.486232},{"name":"城山公園","province":"東京都","city":"稲城市","address":"東京都稲城市向陽台4丁目6","lat":35.64137,"lon":139.489154},{"name":"ひつじさん公園","province":"東京都","city":"稲城市","address":"東京都稲城市向陽台6丁目14","lat":35.64348,"lon":139.492425},{"name":"もぐらさん公園","province":"東京都","city":"稲城市","address":"東京都稲城市向陽台2丁目4","lat":35.63951,"lon":139.492594},{"name":"若葉台公園","province":"東京都","city":"稲城市","address":"東京都稲城市若葉台1丁目24","lat":35.62744,"lon":139.472131},{"name":"若葉台公園","province":"東京都","city":"稲城市","address":"東京都稲城市若葉台1丁目19","lat":35.62503,"lon":139.473738},{"name":"上谷戸親水公園","province":"東京都","city":"稲城市","address":"東京都稲城市若葉台1丁目28","lat":35.6271,"lon":139.481463},{"name":"若葉台駅駅前広場トイレ","province":"東京都","city":"稲城市","address":"東京都稲城市若葉台2丁目101","lat":35.62051,"lon":139.472503},{"name":"多摩川堤防公衆トイレ","province":"東京都","city":"稲城市","address":"東京都稲城市矢野口","lat":35.64394,"lon":139.521681},{"name":"複合施設ふれんど平尾","province":"東京都","city":"稲城市","address":"東京都稲城市平尾1丁目9","lat":35.61371,"lon":139.492911},{"name":"複合施設ふれんど平尾","province":"東京都","city":"稲城市","address":"東京都稲城市平尾1丁目9","lat":35.6137,"lon":139.49293},{"name":"稲城長峰ヴェルディフィールド","province":"東京都","city":"稲城市","address":"東京都稲城市長峰3丁目10-1","lat":35.63158,"lon":139.477589},{"name":"稲城長峰ヴェルディフィールド","province":"東京都","city":"稲城市","address":"東京都稲城市長峰3丁目11","lat":35.6294,"lon":139.476541},{"name":"南多摩スポーツ広場","province":"東京都","city":"稲城市","address":"東京都稲城市大丸","lat":35.64876,"lon":139.480318},{"name":"稲城市福祉センター","province":"東京都","city":"稲城市","address":"東京都稲城市百村7","lat":35.639577,"lon":139.499948},{"name":"ウエルシア稲城若葉台アクロスプラザ店","province":"東京都","city":"稲城市","address":"東京都稲城市若葉台1丁目55","lat":35.6243214,"lon":139.4746777},{"name":"ヤオコー　フレスポ若葉台店","province":"東京都","city":"稲城市","address":"東京都稲城市若葉台2丁目4-2","lat":35.6203384,"lon":139.4708975},{"name":"三和　若葉台店","province":"東京都","city":"稲城市","address":"東京都稲城市若葉台2丁目6","lat":35.6218715,"lon":139.4713308},{"name":"ユニディ若葉台店","province":"東京都","city":"稲城市","address":"東京都稲城市若葉台2丁目6","lat":35.6218715,"lon":139.4713308},{"name":"サンドラッグ稲城若葉台店","province":"東京都","city":"稲城市","address":"東京都稲城市若葉台3丁目10","lat":35.6255733,"lon":139.4660475},{"name":"コープみらい　若葉台店","province":"東京都","city":"稲城市","address":"東京都稲城市若葉台3丁目10","lat":35.6255733,"lon":139.4660475},{"name":"矢野口","province":"東京都","city":"稲城市","address":"東京都稲城市矢野口619-14","lat":35.64052914,"lon":139.51973182},{"name":"稲城長沼駅入口","province":"東京都","city":"稲城市","address":"東京都稲城市東長沼1040","lat":35.643933,"lon":139.50127698},{"name":"稲城大丸","province":"東京都","city":"稲城市","address":"東京都稲城市大丸928","lat":35.64816504,"lon":139.49215773},{"name":"稲城市福祉センター入口","province":"東京都","city":"稲城市","address":"東京都稲城市百村1601-2","lat":35.63885051,"lon":139.49928032},{"name":"稲城中央橋","province":"東京都","city":"稲城市","address":"東京都稲城市百村1605","lat":35.63702576,"lon":139.49798609},{"name":"稲城向陽台中央","province":"東京都","city":"稲城市","address":"東京都稲城市向陽台6丁目8-1","lat":35.64144378,"lon":139.49028885},{"name":"稲城市役所前","province":"東京都","city":"稲城市","address":"東京都稲城市東長沼2107-1","lat":35.63863147,"lon":139.50471896},{"name":"稲城市役所西側車庫棟","province":"東京都","city":"稲城市","address":"東京都稲城市東長沼2111","lat":35.63795935,"lon":139.50426905},{"name":"稲城消防署","province":"東京都","city":"稲城市","address":"稲城市東長沼2111","lat":35.63793,"lon":139.505064},{"name":"稲城市立中央公園総合グラウンド","province":"東京都","city":"稲城市","address":"稲城市長峰1-1","lat":35.63077,"lon":139.4861},{"name":"稲城市","province":"東京都","city":"稲城市","address":"稲城市東長沼2111","lat":35.63796,"lon":139.5042697},{"name":"ウエルシア稲城若葉台アクロスプラザ店","province":"東京都","city":"稲城市","address":"東京都稲城市若葉台1丁目55","lat":35.6243214,"lon":139.4746777},{"name":"ヤオコー　フレスポ若葉台店","province":"東京都","city":"稲城市","address":"東京都稲城市若葉台2丁目4-2","lat":35.6203384,"lon":139.4708975},{"name":"三和　若葉台店","province":"東京都","city":"稲城市","address":"東京都稲城市若葉台2丁目6","lat":35.6218715,"lon":139.4713308},{"name":"ユニディ若葉台店","province":"東京都","city":"稲城市","address":"東京都稲城市若葉台2丁目6","lat":35.6218715,"lon":139.4713308},{"name":"サンドラッグ稲城若葉台店","province":"東京都","city":"稲城市","address":"東京都稲城市若葉台3丁目10","lat":35.6255733,"lon":139.4660475},{"name":"コープみらい　若葉台店","province":"東京都","city":"稲城市","address":"東京都稲城市若葉台3丁目10","lat":35.6255733,"lon":139.4660475},{"name":"矢野口","province":"東京都","city":"稲城市","address":"東京都稲城市矢野口619-14","lat":35.64052914,"lon":139.51973182},{"name":"稲城長沼駅入口","province":"東京都","city":"稲城市","address":"東京都稲城市東長沼1040","lat":35.643933,"lon":139.50127698},{"name":"稲城大丸","province":"東京都","city":"稲城市","address":"東京都稲城市大丸928","lat":35.64816504,"lon":139.49215773},{"name":"稲城市福祉センター入口","province":"東京都","city":"稲城市","address":"東京都稲城市百村1601-2","lat":35.63885051,"lon":139.49928032},{"name":"稲城中央橋","province":"東京都","city":"稲城市","address":"東京都稲城市百村1605","lat":35.63702576,"lon":139.49798609},{"name":"稲城向陽台中央","province":"東京都","city":"稲城市","address":"東京都稲城市向陽台6丁目8-1","lat":35.64144378,"lon":139.49028885},{"name":"稲城市役所前","province":"東京都","city":"稲城市","address":"東京都稲城市東長沼2107-1","lat":35.63863147,"lon":139.50471896},{"name":"稲城市役所西側車庫棟","province":"東京都","city":"稲城市","address":"東京都稲城市東長沼2111","lat":35.63795935,"lon":139.50426905},{"name":"稲城消防署","province":"東京都","city":"稲城市","address":"稲城市東長沼2111","lat":35.63793,"lon":139.505064},{"name":"稲城市立中央公園総合グラウンド","province":"東京都","city":"稲城市","address":"稲城市長峰1-1","lat":35.63077,"lon":139.4861},{"name":"稲城市","province":"東京都","city":"稲城市","address":"稲城市東長沼2111","lat":35.63796,"lon":139.5042697},{"name":"ウエルシア稲城若葉台アクロスプラザ店","province":"東京都","city":"稲城市","address":"東京都稲城市若葉台1丁目55","lat":35.6243214,"lon":139.4746777},{"name":"ヤオコー　フレスポ若葉台店","province":"東京都","city":"稲城市","address":"東京都稲城市若葉台2丁目4-2","lat":35.6203384,"lon":139.4708975},{"name":"三和　若葉台店","province":"東京都","city":"稲城市","address":"東京都稲城市若葉台2丁目6","lat":35.6218715,"lon":139.4713308},{"name":"ユニディ若葉台店","province":"東京都","city":"稲城市","address":"東京都稲城市若葉台2丁目6","lat":35.6218715,"lon":139.4713308},{"name":"サンドラッグ稲城若葉台店","province":"東京都","city":"稲城市","address":"東京都稲城市若葉台3丁目10","lat":35.6255733,"lon":139.4660475},{"name":"コープみらい　若葉台店","province":"東京都","city":"稲城市","address":"東京都稲城市若葉台3丁目10","lat":35.6255733,"lon":139.4660475},{"name":"稲城市役所西側車庫棟","province":"東京都","city":"稲城市","address":"東京都稲城市東長沼2111","lat":35.63795935,"lon":139.50426905},{"name":"稲城消防署","province":"東京都","city":"稲城市","address":"稲城市東長沼2111","lat":35.63793,"lon":139.505064},{"name":"稲城市立中央公園総合グラウンド","province":"東京都","city":"稲城市","address":"稲城市長峰1-1","lat":35.63077,"lon":139.4861},{"name":"ウエルシア稲城若葉台アクロスプラザ店","province":"東京都","city":"稲城市","address":"東京都稲城市若葉台1丁目55","lat":35.6243214,"lon":139.4746777},{"name":"ヤオコー　フレスポ若葉台店","province":"東京都","city":"稲城市","address":"東京都稲城市若葉台2丁目4-2","lat":35.6203384,"lon":139.4708975},{"name":"三和　若葉台店","province":"東京都","city":"稲城市","address":"東京都稲城市若葉台2丁目6","lat":35.6218715,"lon":139.4713308},{"name":"ユニディ若葉台店","province":"東京都","city":"稲城市","address":"東京都稲城市若葉台2丁目6","lat":35.6218715,"lon":139.4713308},{"name":"サンドラッグ稲城若葉台店","province":"東京都","city":"稲城市","address":"東京都稲城市若葉台3丁目10","lat":35.6255733,"lon":139.4660475},{"name":"コープみらい　若葉台店","province":"東京都","city":"稲城市","address":"東京都稲城市若葉台3丁目10","lat":35.6255733,"lon":139.4660475},{"name":"稲城市役所西側車庫棟","province":"東京都","city":"稲城市","address":"東京都稲城市東長沼2111","lat":35.63795935,"lon":139.50426905},{"name":"稲城消防署","province":"東京都","city":"稲城市","address":"稲城市東長沼2111","lat":35.63793,"lon":139.505064},{"name":"稲城市立中央公園総合グラウンド","province":"東京都","city":"稲城市","address":"稲城市長峰1-1","lat":35.63077,"lon":139.4861},{"name":"ウエルシア稲城若葉台アクロスプラザ店","province":"東京都","city":"稲城市","address":"東京都稲城市若葉台1丁目55","lat":35.6243214,"lon":139.4746777},{"name":"ヤオコー　フレスポ若葉台店","province":"東京都","city":"稲城市","address":"東京都稲城市若葉台2丁目4-2","lat":35.6203384,"lon":139.4708975},{"name":"三和　若葉台店","province":"東京都","city":"稲城市","address":"東京都稲城市若葉台2丁目6","lat":35.6218715,"lon":139.4713308},{"name":"ユニディ若葉台店","province":"東京都","city":"稲城市","address":"東京都稲城市若葉台2丁目6","lat":35.6218715,"lon":139.4713308},{"name":"サンドラッグ稲城若葉台店","province":"東京都","city":"稲城市","address":"東京都稲城市若葉台3丁目10","lat":35.6255733,"lon":139.4660475},{"name":"コープみらい　若葉台店","province":"東京都","city":"稲城市","address":"東京都稲城市若葉台3丁目10","lat":35.6255733,"lon":139.4660475},{"name":"稲城市役所西側車庫棟","province":"東京都","city":"稲城市","address":"東京都稲城市東長沼2111","lat":35.63795935,"lon":139.50426905},{"name":"稲城消防署","province":"東京都","city":"稲城市","address":"稲城市東長沼2111","lat":35.63793,"lon":139.505064},{"name":"稲城市立中央公園総合グラウンド","province":"東京都","city":"稲城市","address":"稲城市長峰1-1","lat":35.63077,"lon":139.4861},{"name":"ウエルシア稲城若葉台アクロスプラザ店","province":"東京都","city":"稲城市","address":"東京都稲城市若葉台1丁目55","lat":35.6243214,"lon":139.4746777},{"name":"ヤオコー　フレスポ若葉台店","province":"東京都","city":"稲城市","address":"東京都稲城市若葉台2丁目4-2","lat":35.6203384,"lon":139.4708975},{"name":"三和　若葉台店","province":"東京都","city":"稲城市","address":"東京都稲城市若葉台2丁目6","lat":35.6218715,"lon":139.4713308},{"name":"ユニディ若葉台店","province":"東京都","city":"稲城市","address":"東京都稲城市若葉台2丁目6","lat":35.6218715,"lon":139.4713308},{"name":"サンドラッグ稲城若葉台店","province":"東京都","city":"稲城市","address":"東京都稲城市若葉台3丁目10","lat":35.6255733,"lon":139.4660475},{"name":"コープみらい　若葉台店","province":"東京都","city":"稲城市","address":"東京都稲城市若葉台3丁目10","lat":35.6255733,"lon":139.4660475},{"name":"稲城市役所西側車庫棟","province":"東京都","city":"稲城市","address":"東京都稲城市東長沼2111","lat":35.63795935,"lon":139.50426905},{"name":"稲城消防署","province":"東京都","city":"稲城市","address":"稲城市東長沼2111","lat":35.63793,"lon":139.505064},{"name":"稲城市立中央公園総合グラウンド","province":"東京都","city":"稲城市","address":"稲城市長峰1-1","lat":35.63077,"lon":139.4861},{"name":"ウエルシア稲城若葉台アクロスプラザ店","province":"東京都","city":"稲城市","address":"東京都稲城市若葉台1丁目55","lat":35.6243214,"lon":139.4746777},{"name":"ヤオコー　フレスポ若葉台店","province":"東京都","city":"稲城市","address":"東京都稲城市若葉台2丁目4-2","lat":35.6203384,"lon":139.4708975},{"name":"三和　若葉台店","province":"東京都","city":"稲城市","address":"東京都稲城市若葉台2丁目6","lat":35.6218715,"lon":139.4713308},{"name":"ユニディ若葉台店","province":"東京都","city":"稲城市","address":"東京都稲城市若葉台2丁目6","lat":35.6218715,"lon":139.4713308},{"name":"サンドラッグ稲城若葉台店","province":"東京都","city":"稲城市","address":"東京都稲城市若葉台3丁目10","lat":35.6255733,"lon":139.4660475},{"name":"コープみらい　若葉台店","province":"東京都","city":"稲城市","address":"東京都稲城市若葉台3丁目10","lat":35.6255733,"lon":139.4660475},{"name":"稲城市役所西側車庫棟","province":"東京都","city":"稲城市","address":"東京都稲城市東長沼2111","lat":35.63795935,"lon":139.50426905},{"name":"稲城消防署","province":"東京都","city":"稲城市","address":"稲城市東長沼2111","lat":35.63793,"lon":139.505064},{"name":"稲城市立中央公園総合グラウンド","province":"東京都","city":"稲城市","address":"稲城市長峰1-1","lat":35.63077,"lon":139.4861},{"name":"ウエルシア稲城若葉台アクロスプラザ店","province":"東京都","city":"稲城市","address":"東京都稲城市若葉台1丁目55","lat":35.6243214,"lon":139.4746777},{"name":"ヤオコー　フレスポ若葉台店","province":"東京都","city":"稲城市","address":"東京都稲城市若葉台2丁目4-2","lat":35.6203384,"lon":139.4708975},{"name":"三和　若葉台店","province":"東京都","city":"稲城市","address":"東京都稲城市若葉台2丁目6","lat":35.6218715,"lon":139.4713308},{"name":"ユニディ若葉台店","province":"東京都","city":"稲城市","address":"東京都稲城市若葉台2丁目6","lat":35.6218715,"lon":139.4713308},{"name":"サンドラッグ稲城若葉台店","province":"東京都","city":"稲城市","address":"東京都稲城市若葉台3丁目10","lat":35.6255733,"lon":139.4660475},{"name":"コープみらい　若葉台店","province":"東京都","city":"稲城市","address":"東京都稲城市若葉台3丁目10","lat":35.6255733,"lon":139.4660475},{"name":"稲城市役所西側車庫棟","province":"東京都","city":"稲城市","address":"東京都稲城市東長沼2111","lat":35.63795935,"lon":139.50426905},{"name":"稲城消防署","province":"東京都","city":"稲城市","address":"稲城市東長沼2111","lat":35.63793,"lon":139.505064},{"name":"稲城市立中央公園総合グラウンド","province":"東京都","city":"稲城市","address":"稲城市長峰1-1","lat":35.63077,"lon":139.4861},{"name":"ウエルシア稲城若葉台アクロスプラザ店","province":"東京都","city":"稲城市","address":"東京都稲城市若葉台1丁目55","lat":35.6243214,"lon":139.4746777},{"name":"ヤオコー　フレスポ若葉台店","province":"東京都","city":"稲城市","address":"東京都稲城市若葉台2丁目4-2","lat":35.6203384,"lon":139.4708975},{"name":"三和　若葉台店","province":"東京都","city":"稲城市","address":"東京都稲城市若葉台2丁目6","lat":35.6218715,"lon":139.4713308},{"name":"ユニディ若葉台店","province":"東京都","city":"稲城市","address":"東京都稲城市若葉台2丁目6","lat":35.6218715,"lon":139.4713308},{"name":"サンドラッグ稲城若葉台店","province":"東京都","city":"稲城市","address":"東京都稲城市若葉台3丁目10","lat":35.6255733,"lon":139.4660475},{"name":"コープみらい　若葉台店","province":"東京都","city":"稲城市","address":"東京都稲城市若葉台3丁目10","lat":35.6255733,"lon":139.4660475},{"name":"稲城市役所西側車庫棟","province":"東京都","city":"稲城市","address":"東京都稲城市東長沼2111","lat":35.63795935,"lon":139.50426905},{"name":"稲城消防署","province":"東京都","city":"稲城市","address":"稲城市東長沼2111","lat":35.63793,"lon":139.505064},{"name":"稲城市立中央公園総合グラウンド","province":"東京都","city":"稲城市","address":"稲城市長峰1-1","lat":35.63077,"lon":139.4861},{"name":"ウエルシア稲城若葉台アクロスプラザ店","province":"東京都","city":"稲城市","address":"東京都稲城市若葉台1丁目55","lat":35.6243214,"lon":139.4746777},{"name":"ヤオコー　フレスポ若葉台店","province":"東京都","city":"稲城市","address":"東京都稲城市若葉台2丁目4-2","lat":35.6203384,"lon":139.4708975},{"name":"三和　若葉台店","province":"東京都","city":"稲城市","address":"東京都稲城市若葉台2丁目6","lat":35.6218715,"lon":139.4713308},{"name":"ユニディ若葉台店","province":"東京都","city":"稲城市","address":"東京都稲城市若葉台2丁目6","lat":35.6218715,"lon":139.4713308},{"name":"サンドラッグ稲城若葉台店","province":"東京都","city":"稲城市","address":"東京都稲城市若葉台3丁目10","lat":35.6255733,"lon":139.4660475},{"name":"コープみらい　若葉台店","province":"東京都","city":"稲城市","address":"東京都稲城市若葉台3丁目10","lat":35.6255733,"lon":139.4660475},{"name":"稲城市役所西側車庫棟","province":"東京都","city":"稲城市","address":"東京都稲城市東長沼2111","lat":35.63795935,"lon":139.50426905},{"name":"稲城消防署","province":"東京都","city":"稲城市","address":"稲城市東長沼2111","lat":35.63793,"lon":139.505064},{"name":"稲城市立中央公園総合グラウンド","province":"東京都","city":"稲城市","address":"稲城市長峰1-1","lat":35.63077,"lon":139.4861},{"name":"ウエルシア稲城若葉台アクロスプラザ店","province":"東京都","city":"稲城市","address":"東京都稲城市若葉台1丁目55","lat":35.6243214,"lon":139.4746777},{"name":"ヤオコー　フレスポ若葉台店","province":"東京都","city":"稲城市","address":"東京都稲城市若葉台2丁目4-2","lat":35.6203384,"lon":139.4708975},{"name":"三和　若葉台店","province":"東京都","city":"稲城市","address":"東京都稲城市若葉台2丁目6","lat":35.6218715,"lon":139.4713308},{"name":"ユニディ若葉台店","province":"東京都","city":"稲城市","address":"東京都稲城市若葉台2丁目6","lat":35.6218715,"lon":139.4713308},{"name":"サンドラッグ稲城若葉台店","province":"東京都","city":"稲城市","address":"東京都稲城市若葉台3丁目10","lat":35.6255733,"lon":139.4660475},{"name":"コープみらい　若葉台店","province":"東京都","city":"稲城市","address":"東京都稲城市若葉台3丁目10","lat":35.6255733,"lon":139.4660475},{"name":"稲城市役所西側車庫棟","province":"東京都","city":"稲城市","address":"東京都稲城市東長沼2111","lat":35.63795935,"lon":139.50426905},{"name":"稲城市立中央公園総合グラウンド","province":"東京都","city":"稲城市","address":"稲城市長峰1-1","lat":35.63077,"lon":139.4861},{"name":"ウエルシア稲城若葉台アクロスプラザ店","province":"東京都","city":"稲城市","address":"東京都稲城市若葉台1丁目55","lat":35.6243214,"lon":139.4746777},{"name":"ヤオコー　フレスポ若葉台店","province":"東京都","city":"稲城市","address":"東京都稲城市若葉台2丁目4-2","lat":35.6203384,"lon":139.4708975},{"name":"三和　若葉台店","province":"東京都","city":"稲城市","address":"東京都稲城市若葉台2丁目6","lat":35.6218715,"lon":139.4713308},{"name":"ユニディ若葉台店","province":"東京都","city":"稲城市","address":"東京都稲城市若葉台2丁目6","lat":35.6218715,"lon":139.4713308},{"name":"サンドラッグ稲城若葉台店","province":"東京都","city":"稲城市","address":"東京都稲城市若葉台3丁目10","lat":35.6255733,"lon":139.4660475},{"name":"コープみらい　若葉台店","province":"東京都","city":"稲城市","address":"東京都稲城市若葉台3丁目10","lat":35.6255733,"lon":139.4660475},{"name":"稲城市役所西側車庫棟","province":"東京都","city":"稲城市","address":"東京都稲城市東長沼2111","lat":35.63795935,"lon":139.50426905},{"name":"稲城市立中央公園総合グラウンド","province":"東京都","city":"稲城市","address":"稲城市長峰1-1","lat":35.63077,"lon":139.4861},{"name":"ウエルシア稲城若葉台アクロスプラザ店","province":"東京都","city":"稲城市","address":"東京都稲城市若葉台1丁目55","lat":35.6243214,"lon":139.4746777},{"name":"ヤオコー　フレスポ若葉台店","province":"東京都","city":"稲城市","address":"東京都稲城市若葉台2丁目4-2","lat":35.6203384,"lon":139.4708975},{"name":"三和　若葉台店","province":"東京都","city":"稲城市","address":"東京都稲城市若葉台2丁目6","lat":35.6218715,"lon":139.4713308},{"name":"ユニディ若葉台店","province":"東京都","city":"稲城市","address":"東京都稲城市若葉台2丁目6","lat":35.6218715,"lon":139.4713308},{"name":"サンドラッグ稲城若葉台店","province":"東京都","city":"稲城市","address":"東京都稲城市若葉台3丁目10","lat":35.6255733,"lon":139.4660475},{"name":"コープみらい　若葉台店","province":"東京都","city":"稲城市","address":"東京都稲城市若葉台3丁目10","lat":35.6255733,"lon":139.4660475},{"name":"稲城市役所西側車庫棟","province":"東京都","city":"稲城市","address":"東京都稲城市東長沼2111","lat":35.63795935,"lon":139.50426905},{"name":"稲城市立中央公園総合グラウンド","province":"東京都","city":"稲城市","address":"稲城市長峰1-1","lat":35.63077,"lon":139.4861},{"name":"ウエルシア稲城若葉台アクロスプラザ店","province":"東京都","city":"稲城市","address":"東京都稲城市若葉台1丁目55","lat":35.6243214,"lon":139.4746777},{"name":"ヤオコー　フレスポ若葉台店","province":"東京都","city":"稲城市","address":"東京都稲城市若葉台2丁目4-2","lat":35.6203384,"lon":139.4708975},{"name":"三和　若葉台店","province":"東京都","city":"稲城市","address":"東京都稲城市若葉台2丁目6","lat":35.6218715,"lon":139.4713308},{"name":"ユニディ若葉台店","province":"東京都","city":"稲城市","address":"東京都稲城市若葉台2丁目6","lat":35.6218715,"lon":139.4713308},{"name":"サンドラッグ稲城若葉台店","province":"東京都","city":"稲城市","address":"東京都稲城市若葉台3丁目10","lat":35.6255733,"lon":139.4660475},{"name":"コープみらい　若葉台店","province":"東京都","city":"稲城市","address":"東京都稲城市若葉台3丁目10","lat":35.6255733,"lon":139.4660475},{"name":"稲城市役所西側車庫棟","province":"東京都","city":"稲城市","address":"東京都稲城市東長沼2111","lat":35.63795935,"lon":139.50426905},{"name":"稲城市立中央公園総合グラウンド","province":"東京都","city":"稲城市","address":"稲城市長峰1-1","lat":35.63077,"lon":139.4861},{"name":"稲城市役所西側車庫棟","province":"東京都","city":"稲城市","address":"東京都稲城市東長沼2111","lat":35.63795935,"lon":139.50426905},{"name":"稲城市立中央公園総合グラウンド","province":"東京都","city":"稲城市","address":"稲城市長峰1-1","lat":35.63077,"lon":139.4861},{"name":"稲城市役所西側車庫棟","province":"東京都","city":"稲城市","address":"東京都稲城市東長沼2111","lat":35.63795935,"lon":139.50426905},{"name":"稲城市立中央公園総合グラウンド","province":"東京都","city":"稲城市","address":"稲城市長峰1-1","lat":35.63077,"lon":139.4861},{"name":"稲城市役所西側車庫棟","province":"東京都","city":"稲城市","address":"東京都稲城市東長沼2111","lat":35.63795935,"lon":139.50426905},{"name":"稲城市立中央公園総合グラウンド","province":"東京都","city":"稲城市","address":"稲城市長峰1-1","lat":35.63077,"lon":139.4861},{"name":"稲城市役所西側車庫棟","province":"東京都","city":"稲城市","address":"東京都稲城市東長沼2111","lat":35.63795935,"lon":139.50426905},{"name":"稲城市立中央公園総合グラウンド","province":"東京都","city":"稲城市","address":"稲城市長峰1-1","lat":35.63077,"lon":139.4861},{"name":"稲城市役所西側車庫棟","province":"東京都","city":"稲城市","address":"東京都稲城市東長沼2111","lat":35.63795935,"lon":139.50426905},{"name":"稲城市立中央公園総合グラウンド","province":"東京都","city":"稲城市","address":"稲城市長峰1-1","lat":35.63077,"lon":139.4861},{"name":"稲城市役所西側車庫棟","province":"東京都","city":"稲城市","address":"東京都稲城市東長沼2111","lat":35.63795935,"lon":139.50426905},{"name":"稲城市立中央公園総合グラウンド","province":"東京都","city":"稲城市","address":"稲城市長峰1-1","lat":35.63077,"lon":139.4861},{"name":"稲城市役所西側車庫棟","province":"東京都","city":"稲城市","address":"東京都稲城市東長沼2111","lat":35.63795935,"lon":139.50426905},{"name":"稲城市立中央公園総合グラウンド","province":"東京都","city":"稲城市","address":"稲城市長峰1-1","lat":35.63077,"lon":139.4861},{"name":"稲城市役所西側車庫棟","province":"東京都","city":"稲城市","address":"東京都稲城市東長沼2111","lat":35.63795935,"lon":139.50426905},{"name":"稲城市立中央公園総合グラウンド","province":"東京都","city":"稲城市","address":"稲城市長峰1-1","lat":35.63077,"lon":139.4861},{"name":"稲城市役所西側車庫棟","province":"東京都","city":"稲城市","address":"東京都稲城市東長沼2111","lat":35.63795935,"lon":139.50426905},{"name":"稲城市立中央公園総合グラウンド","province":"東京都","city":"稲城市","address":"稲城市長峰1-1","lat":35.63077,"lon":139.4861},{"name":"稲城市役所西側車庫棟","province":"東京都","city":"稲城市","address":"東京都稲城市東長沼2111","lat":35.63795935,"lon":139.50426905},{"name":"稲城市立中央公園総合グラウンド","province":"東京都","city":"稲城市","address":"稲城市長峰1-1","lat":35.63077,"lon":139.4861},{"name":"稲城市役所西側車庫棟","province":"東京都","city":"稲城市","address":"東京都稲城市東長沼2111","lat":35.63795935,"lon":139.50426905},{"name":"稲城市立中央公園総合グラウンド","province":"東京都","city":"稲城市","address":"稲城市長峰1-1","lat":35.63077,"lon":139.4861},{"name":"稲城市役所西側車庫棟","province":"東京都","city":"稲城市","address":"東京都稲城市東長沼2111","lat":35.63795935,"lon":139.50426905},{"name":"稲城市立中央公園総合グラウンド","province":"東京都","city":"稲城市","address":"稲城市長峰1-1","lat":35.63077,"lon":139.4861},{"name":"稲城市役所西側車庫棟","province":"東京都","city":"稲城市","address":"東京都稲城市東長沼2111","lat":35.63795935,"lon":139.50426905},{"name":"稲城市立中央公園総合グラウンド","province":"東京都","city":"稲城市","address":"稲城市長峰1-1","lat":35.63077,"lon":139.4861},{"name":"稲城市役所西側車庫棟","province":"東京都","city":"稲城市","address":"東京都稲城市東長沼2111","lat":35.63795935,"lon":139.50426905},{"name":"稲城市立中央公園総合グラウンド","province":"東京都","city":"稲城市","address":"稲城市長峰1-1","lat":35.63077,"lon":139.4861},{"name":"稲城市役所西側車庫棟","province":"東京都","city":"稲城市","address":"東京都稲城市東長沼2111","lat":35.63795935,"lon":139.50426905},{"name":"稲城市立中央公園総合グラウンド","province":"東京都","city":"稲城市","address":"稲城市長峰1-1","lat":35.63077,"lon":139.4861},{"name":"稲城市役所西側車庫棟","province":"東京都","city":"稲城市","address":"東京都稲城市東長沼2111","lat":35.63795935,"lon":139.50426905},{"name":"稲城市立中央公園総合グラウンド","province":"東京都","city":"稲城市","address":"稲城市長峰1-1","lat":35.63077,"lon":139.4861},{"name":"稲城市役所西側車庫棟","province":"東京都","city":"稲城市","address":"東京都稲城市東長沼2111","lat":35.63795935,"lon":139.50426905},{"name":"稲城市立中央公園総合グラウンド","province":"東京都","city":"稲城市","address":"稲城市長峰1-1","lat":35.63077,"lon":139.4861},{"name":"稲城市役所西側車庫棟","province":"東京都","city":"稲城市","address":"東京都稲城市東長沼2111","lat":35.63795935,"lon":139.50426905},{"name":"稲城市役所西側車庫棟","province":"東京都","city":"稲城市","address":"東京都稲城市東長沼2111","lat":35.63795935,"lon":139.50426905},{"name":"稲城市役所西側車庫棟","province":"東京都","city":"稲城市","address":"東京都稲城市東長沼2111","lat":35.63795935,"lon":139.50426905},{"name":"稲城市役所西側車庫棟","province":"東京都","city":"稲城市","address":"東京都稲城市東長沼2111","lat":35.63795935,"lon":139.50426905},{"name":"稲城市役所西側車庫棟","province":"東京都","city":"稲城市","address":"東京都稲城市東長沼2111","lat":35.63795935,"lon":139.50426905},{"name":"稲城市役所西側車庫棟","province":"東京都","city":"稲城市","address":"東京都稲城市東長沼2111","lat":35.63795935,"lon":139.50426905},{"name":"稲城市役所西側車庫棟","province":"東京都","city":"稲城市","address":"東京都稲城市東長沼2111","lat":35.63795935,"lon":139.50426905},{"name":"稲城市役所西側車庫棟","province":"東京都","city":"稲城市","address":"東京都稲城市東長沼2111","lat":35.63795935,"lon":139.50426905},{"name":"稲城市役所西側車庫棟","province":"東京都","city":"稲城市","address":"東京都稲城市東長沼2111","lat":35.63795935,"lon":139.50426905},{"name":"稲城市役所西側車庫棟","province":"東京都","city":"稲城市","address":"東京都稲城市東長沼2111","lat":35.63795935,"lon":139.50426905},{"name":"稲城市役所西側車庫棟","province":"東京都","city":"稲城市","address":"東京都稲城市東長沼2111","lat":35.63795935,"lon":139.50426905},{"name":"稲城市役所西側車庫棟","province":"東京都","city":"稲城市","address":"東京都稲城市東長沼2111","lat":35.63795935,"lon":139.50426905},{"name":"稲城市役所西側車庫棟","province":"東京都","city":"稲城市","address":"東京都稲城市東長沼2111","lat":35.63795935,"lon":139.50426905}]}