{"keyword":"支払","data":[{"name":"三沢川親水公園","province":"東京都","city":"稲城市","address":"東京都稲城市矢野口1653-4","lat":35.636349,"lon":139.516229,"males_count":2,"females_count":1,"multipurposes_count":1},{"name":"稲城北緑地公園","province":"東京都","city":"稲城市","address":"東京都稲城市東長沼2996","lat":35.649741,"lon":139.504279,"males_count":3,"females_count":2,"multipurposes_count":1},{"name":"稲城北緑地公園","province":"東京都","city":"稲城市","address":"東京都稲城市東長沼2996","lat":35.649984,"lon":139.501026,"males_count":3,"females_count":2,"multipurposes_count":0},{"name":"東長沼七曲見晴児童公園","province":"東京都","city":"稲城市","address":"東京都稲城市東長沼3116","lat":35.635973,"lon":139.502664,"males_count":2,"females_count":1,"multipurposes_count":0},{"name":"亀山下公園","province":"東京都","city":"稲城市","address":"東京都稲城市東長沼2115-1","lat":35.638013,"lon":139.500703,"males_count":2,"females_count":2,"multipurposes_count":1},{"name":"本郷公園","province":"東京都","city":"稲城市","address":"東京都稲城市東長沼2129","lat":35.637231,"lon":139.505786,"males_count":3,"females_count":2,"multipurposes_count":0},{"name":"淡雪公園","province":"東京都","city":"稲城市","address":"東京都稲城市東長沼1705","lat":35.638339,"lon":139.507633,"males_count":3,"females_count":2,"multipurposes_count":0},{"name":"吉方公園","province":"東京都","city":"稲城市","address":"東京都稲城市東長沼1728","lat":35.639188,"lon":139.510873,"males_count":3,"females_count":2,"multipurposes_count":0},{"name":"大丸公園","province":"東京都","city":"稲城市","address":"東京都稲城市大丸1097","lat":35.647494,"lon":139.487273,"males_count":2,"females_count":2,"multipurposes_count":1},{"name":"大丸第二公園","province":"東京都","city":"稲城市","address":"東京都稲城市大丸3111-1","lat":35.650721,"lon":139.496801,"males_count":3,"females_count":2,"multipurposes_count":0},{"name":"大丸河原方児童公園","province":"東京都","city":"稲城市","address":"東京都稲城市大丸3119-1","lat":35.65052,"lon":139.493647,"males_count":3,"females_count":2,"multipurposes_count":1},{"name":"山崎公園","province":"東京都","city":"稲城市","address":"東京都稲城市大丸694-1","lat":35.644086,"lon":139.497371,"males_count":0,"females_count":0,"multipurposes_count":1},{"name":"東方公園","province":"東京都","city":"稲城市","address":"東京都稲城市大丸66-6","lat":35.64215,"lon":139.499336,"males_count":0,"females_count":0,"multipurposes_count":1},{"name":"百村神化児童公園","province":"東京都","city":"稲城市","address":"東京都稲城市百村1609-1","lat":35.636171,"lon":139.49776,"males_count":2,"females_count":1,"multipurposes_count":0},{"name":"竪神社公園","province":"東京都","city":"稲城市","address":"東京都稲城市百村2129-31","lat":35.635064,"lon":139.488,"males_count":1,"females_count":1,"multipurposes_count":0},{"name":"稲城中央公園","province":"東京都","city":"稲城市","address":"東京都稲城市向陽台4-1-1","lat":35.636707,"lon":139.485818,"males_count":4,"females_count":2,"multipurposes_count":1},{"name":"稲城中央公園","province":"東京都","city":"稲城市","address":"東京都稲城市向陽台4-1-1","lat":35.636596,"lon":139.486394,"males_count":0,"females_count":0,"multipurposes_count":0},{"name":"城山公園","province":"東京都","city":"稲城市","address":"東京都稲城市向陽台4-6","lat":35.641385,"lon":139.489068,"males_count":6,"females_count":4,"multipurposes_count":1},{"name":"うさぎさん公園","province":"東京都","city":"稲城市","address":"東京都稲城市向陽台6-6","lat":35.641089,"lon":139.491319,"males_count":0,"females_count":0,"multipurposes_count":0},{"name":"ひつじさん公園","province":"東京都","city":"稲城市","address":"東京都稲城市向陽台6-14","lat":35.643491,"lon":139.492421,"males_count":0,"females_count":0,"multipurposes_count":1},{"name":"もぐらさん公園","province":"東京都","city":"稲城市","address":"東京都稲城市向陽台2-4-73","lat":35.639626,"lon":139.492539,"males_count":1,"females_count":0,"multipurposes_count":1},{"name":"稲城中央公園","province":"東京都","city":"稲城市","address":"東京都稲城市長峰1-1","lat":35.63374,"lon":139.488245,"males_count":6,"females_count":4,"multipurposes_count":1},{"name":"稲城中央公園","province":"東京都","city":"稲城市","address":"東京都稲城市長峰1-1","lat":35.633795,"lon":139.485285,"males_count":2,"females_count":1,"multipurposes_count":1},{"name":"若葉台公園","province":"東京都","city":"稲城市","address":"東京都稲城市若葉台1-24-1","lat":35.62746,"lon":139.472141,"males_count":4,"females_count":2,"multipurposes_count":1},{"name":"若葉台公園","province":"東京都","city":"稲城市","address":"東京都稲城市若葉台1-19-1","lat":35.625016,"lon":139.473837,"males_count":3,"females_count":2,"multipurposes_count":0},{"name":"けやき公園","province":"東京都","city":"稲城市","address":"東京都稲城市若葉台3-2","lat":35.62416,"lon":139.468977,"males_count":1,"females_count":0,"multipurposes_count":0},{"name":"上谷戸親水公園","province":"東京都","city":"稲城市","address":"東京都稲城市若葉台1-28-2","lat":35.627062,"lon":139.481592,"males_count":3,"females_count":2,"multipurposes_count":1},{"name":"平尾近隣公園","province":"東京都","city":"稲城市","address":"東京都稲城市平尾3-7-20","lat":35.60977,"lon":139.48966,"males_count":3,"females_count":2,"multipurposes_count":1},{"name":"若葉台駅前トイレ","province":"東京都","city":"稲城市","address":"東京都稲城市東若葉台2-101","lat":35.620553,"lon":139.472583,"males_count":4,"females_count":3,"multipurposes_count":1},{"name":"多摩川緑地公園前公衆トイレ","province":"東京都","city":"稲城市","address":"東京都稲城市矢野口3750","lat":35.64375,"lon":139.521972,"males_count":3,"females_count":2,"multipurposes_count":1},{"name":"大丸げんき公園","province":"東京都","city":"稲城市","address":"東京都稲城市大丸593-13","lat":35.64595,"lon":139.49543,"males_count":2,"females_count":1,"multipurposes_count":1},{"name":"稲城市役所","province":"東京都","city":"稲城市","address":"東京都稲城市東長沼2111","lat":35.63806,"lon":139.50442},{"name":"稲城市役所","province":"東京都","city":"稲城市","address":"東京都稲城市東長沼2111","lat":35.63797,"lon":139.504819},{"name":"上平尾消防出張所","province":"東京都","city":"稲城市","address":"東京都稲城市平尾4丁目15-4","lat":35.61463,"lon":139.484434},{"name":"中央文化センター","province":"東京都","city":"稲城市","address":"東京都稲城市東長沼2111","lat":35.63802,"lon":139.503787},{"name":"第二文化センター","province":"東京都","city":"稲城市","address":"東京都稲城市矢野口1780","lat":35.6353,"lon":139.518365},{"name":"第三文化センター","province":"東京都","city":"稲城市","address":"東京都稲城市平尾1丁目20-5","lat":35.61316,"lon":139.492466},{"name":"第三文化センター","province":"東京都","city":"稲城市","address":"東京都稲城市平尾1丁目20-5","lat":35.61311,"lon":139.492516},{"name":"第四文化センター","province":"東京都","city":"稲城市","address":"東京都稲城市東長沼271","lat":35.64591,"lon":139.505343},{"name":"城山文化センター","province":"東京都","city":"稲城市","address":"東京都稲城市向陽台6丁目7-6","lat":35.64134,"lon":139.490795},{"name":"稲城市立病院","province":"東京都","city":"稲城市","address":"東京都稲城市大丸1171","lat":35.64675,"lon":139.48517},{"name":"稲城市立病院","province":"東京都","city":"稲城市","address":"東京都稲城市大丸1171","lat":35.64666,"lon":139.484968},{"name":"稲城市立病院","province":"東京都","city":"稲城市","address":"東京都稲城市大丸1171","lat":35.64676,"lon":139.485157},{"name":"稲城市立病院　健診・外来棟","province":"東京都","city":"稲城市","address":"東京都稲城市大丸1171","lat":35.64687,"lon":139.486158},{"name":"稲城市立病院　健診・外来棟","province":"東京都","city":"稲城市","address":"東京都稲城市大丸","lat":35.64695,"lon":139.485759},{"name":"稲城市立病院　健診・外来棟","province":"東京都","city":"稲城市","address":"東京都稲城市大丸1171","lat":35.646804,"lon":139.485173},{"name":"稲城市保健センター","province":"東京都","city":"稲城市","address":"東京都稲城市百村112-1","lat":35.63829,"lon":139.497485},{"name":"オーエンス健康プラザ","province":"東京都","city":"稲城市","address":"東京都稲城市大丸1171","lat":35.646825,"lon":139.486115},{"name":"オーエンス健康プラザ","province":"東京都","city":"稲城市","address":"東京都稲城市大丸1171","lat":35.64699,"lon":139.486108},{"name":"オーエンス健康プラザ","province":"東京都","city":"稲城市","address":"東京都稲城市大丸1171","lat":35.646915,"lon":139.486198},{"name":"稲城市立中央図書館","province":"東京都","city":"稲城市","address":"東京都稲城市向陽台4丁目6","lat":35.64535,"lon":139.48851},{"name":"城山体験学習館","province":"東京都","city":"稲城市","address":"東京都稲城市向陽台4丁目6-18","lat":35.64574,"lon":139.48792},{"name":"地域振興プラザ","province":"東京都","city":"稲城市","address":"東京都稲城市東長沼2112-1","lat":35.63784,"lon":139.505896},{"name":"稲城市立iプラザ","province":"東京都","city":"稲城市","address":"東京都稲城市若葉台2丁目5-2","lat":35.62125,"lon":139.47211},{"name":"稲城市立iプラザ","province":"東京都","city":"稲城市","address":"東京都稲城市若葉台2丁目5-2","lat":35.62099,"lon":139.472202},{"name":"稲城市立iプラザ","province":"東京都","city":"稲城市","address":"東京都稲城市若葉台2丁目5-2","lat":35.62102,"lon":139.472343},{"name":"稲城市立iプラザ","province":"東京都","city":"稲城市","address":"東京都稲城市若葉台2丁目5-2","lat":35.621,"lon":139.472085},{"name":"押立ふれあい会館","province":"東京都","city":"稲城市","address":"東京都稲城市押立663","lat":35.64969,"lon":139.511159},{"name":"中央公民館ホール","province":"東京都","city":"稲城市","address":"東京都稲城市東長沼2111","lat":35.63835,"lon":139.503772},{"name":"三沢川親水公園","province":"東京都","city":"稲城市","address":"東京都稲城市矢野口","lat":35.63634,"lon":139.516182},{"name":"稲城北緑地公園","province":"東京都","city":"稲城市","address":"東京都稲城市東長沼","lat":35.64971,"lon":139.504257},{"name":"亀山下公園","province":"東京都","city":"稲城市","address":"東京都稲城市東長沼","lat":35.63803,"lon":139.500671},{"name":"大丸公園","province":"東京都","city":"稲城市","address":"東京都稲城市大丸","lat":35.64745,"lon":139.487278},{"name":"大丸第二公園（プール管理棟内）","province":"東京都","city":"稲城市","address":"東京都稲城市大丸3111-1","lat":35.65039,"lon":139.49687},{"name":"大丸河原方児童公園","province":"東京都","city":"稲城市","address":"東京都稲城市大丸","lat":35.65049,"lon":139.493639},{"name":"山崎公園","province":"東京都","city":"稲城市","address":"東京都稲城市大丸","lat":35.64415,"lon":139.497443},{"name":"東方公園","province":"東京都","city":"稲城市","address":"東京都稲城市大丸","lat":35.64209,"lon":139.499325},{"name":"平尾近隣公園","province":"東京都","city":"稲城市","address":"東京都稲城市平尾3丁目7","lat":35.60977,"lon":139.489686},{"name":"稲城中央公園","province":"東京都","city":"稲城市","address":"東京都稲城市長峰1丁目1","lat":35.63372,"lon":139.4853},{"name":"稲城中央公園","province":"東京都","city":"稲城市","address":"東京都稲城市長峰1丁目1","lat":35.63368,"lon":139.488331},{"name":"稲城中央公園","province":"東京都","city":"稲城市","address":"東京都稲城市向陽台4丁目1","lat":35.63667,"lon":139.485936},{"name":"稲城中央公園","province":"東京都","city":"稲城市","address":"東京都稲城市長峰1丁目1","lat":35.63202,"lon":139.48602},{"name":"稲城中央公園","province":"東京都","city":"稲城市","address":"東京都稲城市長峰1丁目1","lat":35.63365,"lon":139.48732},{"name":"稲城中央公園","province":"東京都","city":"稲城市","address":"東京都稲城市長峰1丁目1-1","lat":35.63149,"lon":139.486232},{"name":"城山公園","province":"東京都","city":"稲城市","address":"東京都稲城市向陽台4丁目6","lat":35.64137,"lon":139.489154},{"name":"ひつじさん公園","province":"東京都","city":"稲城市","address":"東京都稲城市向陽台6丁目14","lat":35.64348,"lon":139.492425},{"name":"もぐらさん公園","province":"東京都","city":"稲城市","address":"東京都稲城市向陽台2丁目4","lat":35.63951,"lon":139.492594},{"name":"若葉台公園","province":"東京都","city":"稲城市","address":"東京都稲城市若葉台1丁目24","lat":35.62744,"lon":139.472131},{"name":"若葉台公園","province":"東京都","city":"稲城市","address":"東京都稲城市若葉台1丁目19","lat":35.62503,"lon":139.473738},{"name":"上谷戸親水公園","province":"東京都","city":"稲城市","address":"東京都稲城市若葉台1丁目28","lat":35.6271,"lon":139.481463},{"name":"若葉台駅駅前広場トイレ","province":"東京都","city":"稲城市","address":"東京都稲城市若葉台2丁目101","lat":35.62051,"lon":139.472503},{"name":"多摩川堤防公衆トイレ","province":"東京都","city":"稲城市","address":"東京都稲城市矢野口","lat":35.64394,"lon":139.521681},{"name":"複合施設ふれんど平尾","province":"東京都","city":"稲城市","address":"東京都稲城市平尾1丁目9","lat":35.61371,"lon":139.492911},{"name":"複合施設ふれんど平尾","province":"東京都","city":"稲城市","address":"東京都稲城市平尾1丁目9","lat":35.6137,"lon":139.49293},{"name":"稲城長峰ヴェルディフィールド","province":"東京都","city":"稲城市","address":"東京都稲城市長峰3丁目10-1","lat":35.63158,"lon":139.477589},{"name":"稲城長峰ヴェルディフィールド","province":"東京都","city":"稲城市","address":"東京都稲城市長峰3丁目11","lat":35.6294,"lon":139.476541},{"name":"南多摩スポーツ広場","province":"東京都","city":"稲城市","address":"東京都稲城市大丸","lat":35.64876,"lon":139.480318},{"name":"稲城市福祉センター","province":"東京都","city":"稲城市","address":"東京都稲城市百村7","lat":35.639577,"lon":139.499948},{"name":"JA東京みなみ（セレモニーセンター）","province":"東京都","city":"稲城市","address":"東京都稲城市東長沼1915-2","lat":35.63968377,"lon":139.5006635},{"name":"（有）光陽祭典","province":"東京都","city":"稲城市","address":"東京都稲城市平尾2丁目2-5","lat":35.61070026,"lon":139.49406639},{"name":"（株）三和式典","province":"東京都","city":"稲城市","address":"東京都稲城市大丸1420-1","lat":35.64798692,"lon":139.48684136},{"name":"SOGIサポートセンター","province":"東京都","city":"稲城市","address":"東京都稲城市矢野口929-3","lat":35.64316161,"lon":139.51303195},{"name":"JA東京みなみセレモニーセンター","province":"東京都","city":"稲城市","address":"東京都稲城市東長沼1915-2","lat":35.63968377,"lon":139.5006635},{"name":"（株）稲城葬儀社","province":"東京都","city":"稲城市","address":"東京都稲城市大丸1032","lat":35.64830094,"lon":139.48937731},{"name":"聖和葬儀社","province":"東京都","city":"稲城市","address":"東京都稲城市若葉台4丁目19-11","lat":35.6259922,"lon":139.4665247},{"name":"（株）花セレモ","province":"東京都","city":"稲城市","address":"東京都稲城市押立1744-80","lat":35.6467334,"lon":139.51878123},{"name":"稲城福祉葬祭","province":"東京都","city":"稲城市","address":"東京都稲城市百村2120-25","lat":35.63542821,"lon":139.48951163},{"name":"おくりびとのお葬式","province":"東京都","city":"稲城市","address":"東京都稲城市百村1613-4","lat":35.63548735,"lon":139.50044446},{"name":"マイセレモニー（株）","province":"東京都","city":"稲城市","address":"東京都稲城市大丸1041-10","lat":35.64910364,"lon":139.48993835},{"name":"（株）セロニアス","province":"東京都","city":"稲城市","address":"東京都稲城市平尾1丁目56","lat":35.60980909,"lon":139.49729692},{"name":"（株）ゆいまーる","province":"東京都","city":"稲城市","address":"東京都稲城市大丸354-1","lat":35.64978721,"lon":139.49508802},{"name":"三沢川親水公園","province":"東京都","city":"稲城市","address":"東京都稲城市矢野口1653-4","lat":35.636349,"lon":139.516229,"males_count":2,"females_count":1,"multipurposes_count":1},{"name":"稲城北緑地公園","province":"東京都","city":"稲城市","address":"東京都稲城市東長沼2996","lat":35.649741,"lon":139.504279,"males_count":3,"females_count":2,"multipurposes_count":1},{"name":"稲城北緑地公園","province":"東京都","city":"稲城市","address":"東京都稲城市東長沼2996","lat":35.649984,"lon":139.501026,"males_count":3,"females_count":2,"multipurposes_count":0},{"name":"東長沼七曲見晴児童公園","province":"東京都","city":"稲城市","address":"東京都稲城市東長沼3116","lat":35.635973,"lon":139.502664,"males_count":2,"females_count":1,"multipurposes_count":0},{"name":"亀山下公園","province":"東京都","city":"稲城市","address":"東京都稲城市東長沼2115-1","lat":35.638013,"lon":139.500703,"males_count":2,"females_count":2,"multipurposes_count":1},{"name":"本郷公園","province":"東京都","city":"稲城市","address":"東京都稲城市東長沼2129","lat":35.637231,"lon":139.505786,"males_count":3,"females_count":2,"multipurposes_count":0},{"name":"淡雪公園","province":"東京都","city":"稲城市","address":"東京都稲城市東長沼1705","lat":35.638339,"lon":139.507633,"males_count":3,"females_count":2,"multipurposes_count":0},{"name":"吉方公園","province":"東京都","city":"稲城市","address":"東京都稲城市東長沼1728","lat":35.639188,"lon":139.510873,"males_count":3,"females_count":2,"multipurposes_count":0},{"name":"大丸公園","province":"東京都","city":"稲城市","address":"東京都稲城市大丸1097","lat":35.647494,"lon":139.487273,"males_count":2,"females_count":2,"multipurposes_count":1},{"name":"大丸第二公園","province":"東京都","city":"稲城市","address":"東京都稲城市大丸3111-1","lat":35.650721,"lon":139.496801,"males_count":3,"females_count":2,"multipurposes_count":0},{"name":"大丸河原方児童公園","province":"東京都","city":"稲城市","address":"東京都稲城市大丸3119-1","lat":35.65052,"lon":139.493647,"males_count":3,"females_count":2,"multipurposes_count":1},{"name":"山崎公園","province":"東京都","city":"稲城市","address":"東京都稲城市大丸694-1","lat":35.644086,"lon":139.497371,"males_count":0,"females_count":0,"multipurposes_count":1},{"name":"東方公園","province":"東京都","city":"稲城市","address":"東京都稲城市大丸66-6","lat":35.64215,"lon":139.499336,"males_count":0,"females_count":0,"multipurposes_count":1},{"name":"百村神化児童公園","province":"東京都","city":"稲城市","address":"東京都稲城市百村1609-1","lat":35.636171,"lon":139.49776,"males_count":2,"females_count":1,"multipurposes_count":0},{"name":"竪神社公園","province":"東京都","city":"稲城市","address":"東京都稲城市百村2129-31","lat":35.635064,"lon":139.488,"males_count":1,"females_count":1,"multipurposes_count":0},{"name":"稲城中央公園","province":"東京都","city":"稲城市","address":"東京都稲城市向陽台4-1-1","lat":35.636707,"lon":139.485818,"males_count":4,"females_count":2,"multipurposes_count":1},{"name":"稲城中央公園","province":"東京都","city":"稲城市","address":"東京都稲城市向陽台4-1-1","lat":35.636596,"lon":139.486394,"males_count":0,"females_count":0,"multipurposes_count":0},{"name":"城山公園","province":"東京都","city":"稲城市","address":"東京都稲城市向陽台4-6","lat":35.641385,"lon":139.489068,"males_count":6,"females_count":4,"multipurposes_count":1},{"name":"うさぎさん公園","province":"東京都","city":"稲城市","address":"東京都稲城市向陽台6-6","lat":35.641089,"lon":139.491319,"males_count":0,"females_count":0,"multipurposes_count":0},{"name":"ひつじさん公園","province":"東京都","city":"稲城市","address":"東京都稲城市向陽台6-14","lat":35.643491,"lon":139.492421,"males_count":0,"females_count":0,"multipurposes_count":1},{"name":"もぐらさん公園","province":"東京都","city":"稲城市","address":"東京都稲城市向陽台2-4-73","lat":35.639626,"lon":139.492539,"males_count":1,"females_count":0,"multipurposes_count":1},{"name":"稲城中央公園","province":"東京都","city":"稲城市","address":"東京都稲城市長峰1-1","lat":35.63374,"lon":139.488245,"males_count":6,"females_count":4,"multipurposes_count":1},{"name":"稲城中央公園","province":"東京都","city":"稲城市","address":"東京都稲城市長峰1-1","lat":35.633795,"lon":139.485285,"males_count":2,"females_count":1,"multipurposes_count":1},{"name":"若葉台公園","province":"東京都","city":"稲城市","address":"東京都稲城市若葉台1-24-1","lat":35.62746,"lon":139.472141,"males_count":4,"females_count":2,"multipurposes_count":1},{"name":"若葉台公園","province":"東京都","city":"稲城市","address":"東京都稲城市若葉台1-19-1","lat":35.625016,"lon":139.473837,"males_count":3,"females_count":2,"multipurposes_count":0},{"name":"けやき公園","province":"東京都","city":"稲城市","address":"東京都稲城市若葉台3-2","lat":35.62416,"lon":139.468977,"males_count":1,"females_count":0,"multipurposes_count":0},{"name":"上谷戸親水公園","province":"東京都","city":"稲城市","address":"東京都稲城市若葉台1-28-2","lat":35.627062,"lon":139.481592,"males_count":3,"females_count":2,"multipurposes_count":1},{"name":"平尾近隣公園","province":"東京都","city":"稲城市","address":"東京都稲城市平尾3-7-20","lat":35.60977,"lon":139.48966,"males_count":3,"females_count":2,"multipurposes_count":1},{"name":"若葉台駅前トイレ","province":"東京都","city":"稲城市","address":"東京都稲城市東若葉台2-101","lat":35.620553,"lon":139.472583,"males_count":4,"females_count":3,"multipurposes_count":1},{"name":"多摩川緑地公園前公衆トイレ","province":"東京都","city":"稲城市","address":"東京都稲城市矢野口3750","lat":35.64375,"lon":139.521972,"males_count":3,"females_count":2,"multipurposes_count":1},{"name":"大丸げんき公園","province":"東京都","city":"稲城市","address":"東京都稲城市大丸593-13","lat":35.64595,"lon":139.49543,"males_count":2,"females_count":1,"multipurposes_count":1},{"name":"稲城市役所","province":"東京都","city":"稲城市","address":"東京都稲城市東長沼2111","lat":35.63806,"lon":139.50442},{"name":"稲城市役所","province":"東京都","city":"稲城市","address":"東京都稲城市東長沼2111","lat":35.63797,"lon":139.504819},{"name":"上平尾消防出張所","province":"東京都","city":"稲城市","address":"東京都稲城市平尾4丁目15-4","lat":35.61463,"lon":139.484434},{"name":"中央文化センター","province":"東京都","city":"稲城市","address":"東京都稲城市東長沼2111","lat":35.63802,"lon":139.503787},{"name":"第二文化センター","province":"東京都","city":"稲城市","address":"東京都稲城市矢野口1780","lat":35.6353,"lon":139.518365},{"name":"第三文化センター","province":"東京都","city":"稲城市","address":"東京都稲城市平尾1丁目20-5","lat":35.61316,"lon":139.492466},{"name":"第三文化センター","province":"東京都","city":"稲城市","address":"東京都稲城市平尾1丁目20-5","lat":35.61311,"lon":139.492516},{"name":"第四文化センター","province":"東京都","city":"稲城市","address":"東京都稲城市東長沼271","lat":35.64591,"lon":139.505343},{"name":"城山文化センター","province":"東京都","city":"稲城市","address":"東京都稲城市向陽台6丁目7-6","lat":35.64134,"lon":139.490795},{"name":"稲城市立病院","province":"東京都","city":"稲城市","address":"東京都稲城市大丸1171","lat":35.64675,"lon":139.48517},{"name":"稲城市立病院","province":"東京都","city":"稲城市","address":"東京都稲城市大丸1171","lat":35.64666,"lon":139.484968},{"name":"稲城市立病院","province":"東京都","city":"稲城市","address":"東京都稲城市大丸1171","lat":35.64676,"lon":139.485157},{"name":"稲城市立病院　健診・外来棟","province":"東京都","city":"稲城市","address":"東京都稲城市大丸1171","lat":35.64687,"lon":139.486158},{"name":"稲城市立病院　健診・外来棟","province":"東京都","city":"稲城市","address":"東京都稲城市大丸","lat":35.64695,"lon":139.485759},{"name":"稲城市立病院　健診・外来棟","province":"東京都","city":"稲城市","address":"東京都稲城市大丸1171","lat":35.646804,"lon":139.485173},{"name":"稲城市保健センター","province":"東京都","city":"稲城市","address":"東京都稲城市百村112-1","lat":35.63829,"lon":139.497485},{"name":"オーエンス健康プラザ","province":"東京都","city":"稲城市","address":"東京都稲城市大丸1171","lat":35.646825,"lon":139.486115},{"name":"オーエンス健康プラザ","province":"東京都","city":"稲城市","address":"東京都稲城市大丸1171","lat":35.64699,"lon":139.486108},{"name":"オーエンス健康プラザ","province":"東京都","city":"稲城市","address":"東京都稲城市大丸1171","lat":35.646915,"lon":139.486198},{"name":"稲城市立中央図書館","province":"東京都","city":"稲城市","address":"東京都稲城市向陽台4丁目6","lat":35.64535,"lon":139.48851},{"name":"城山体験学習館","province":"東京都","city":"稲城市","address":"東京都稲城市向陽台4丁目6-18","lat":35.64574,"lon":139.48792},{"name":"地域振興プラザ","province":"東京都","city":"稲城市","address":"東京都稲城市東長沼2112-1","lat":35.63784,"lon":139.505896},{"name":"稲城市立iプラザ","province":"東京都","city":"稲城市","address":"東京都稲城市若葉台2丁目5-2","lat":35.62125,"lon":139.47211},{"name":"稲城市立iプラザ","province":"東京都","city":"稲城市","address":"東京都稲城市若葉台2丁目5-2","lat":35.62099,"lon":139.472202},{"name":"稲城市立iプラザ","province":"東京都","city":"稲城市","address":"東京都稲城市若葉台2丁目5-2","lat":35.62102,"lon":139.472343},{"name":"稲城市立iプラザ","province":"東京都","city":"稲城市","address":"東京都稲城市若葉台2丁目5-2","lat":35.621,"lon":139.472085},{"name":"押立ふれあい会館","province":"東京都","city":"稲城市","address":"東京都稲城市押立663","lat":35.64969,"lon":139.511159},{"name":"中央公民館ホール","province":"東京都","city":"稲城市","address":"東京都稲城市東長沼2111","lat":35.63835,"lon":139.503772},{"name":"三沢川親水公園","province":"東京都","city":"稲城市","address":"東京都稲城市矢野口","lat":35.63634,"lon":139.516182},{"name":"稲城北緑地公園","province":"東京都","city":"稲城市","address":"東京都稲城市東長沼","lat":35.64971,"lon":139.504257},{"name":"亀山下公園","province":"東京都","city":"稲城市","address":"東京都稲城市東長沼","lat":35.63803,"lon":139.500671},{"name":"大丸公園","province":"東京都","city":"稲城市","address":"東京都稲城市大丸","lat":35.64745,"lon":139.487278},{"name":"大丸第二公園（プール管理棟内）","province":"東京都","city":"稲城市","address":"東京都稲城市大丸3111-1","lat":35.65039,"lon":139.49687},{"name":"大丸河原方児童公園","province":"東京都","city":"稲城市","address":"東京都稲城市大丸","lat":35.65049,"lon":139.493639},{"name":"山崎公園","province":"東京都","city":"稲城市","address":"東京都稲城市大丸","lat":35.64415,"lon":139.497443},{"name":"東方公園","province":"東京都","city":"稲城市","address":"東京都稲城市大丸","lat":35.64209,"lon":139.499325},{"name":"平尾近隣公園","province":"東京都","city":"稲城市","address":"東京都稲城市平尾3丁目7","lat":35.60977,"lon":139.489686},{"name":"稲城中央公園","province":"東京都","city":"稲城市","address":"東京都稲城市長峰1丁目1","lat":35.63372,"lon":139.4853},{"name":"稲城中央公園","province":"東京都","city":"稲城市","address":"東京都稲城市長峰1丁目1","lat":35.63368,"lon":139.488331},{"name":"稲城中央公園","province":"東京都","city":"稲城市","address":"東京都稲城市向陽台4丁目1","lat":35.63667,"lon":139.485936},{"name":"稲城中央公園","province":"東京都","city":"稲城市","address":"東京都稲城市長峰1丁目1","lat":35.63202,"lon":139.48602},{"name":"稲城中央公園","province":"東京都","city":"稲城市","address":"東京都稲城市長峰1丁目1","lat":35.63365,"lon":139.48732},{"name":"稲城中央公園","province":"東京都","city":"稲城市","address":"東京都稲城市長峰1丁目1-1","lat":35.63149,"lon":139.486232},{"name":"城山公園","province":"東京都","city":"稲城市","address":"東京都稲城市向陽台4丁目6","lat":35.64137,"lon":139.489154},{"name":"ひつじさん公園","province":"東京都","city":"稲城市","address":"東京都稲城市向陽台6丁目14","lat":35.64348,"lon":139.492425},{"name":"もぐらさん公園","province":"東京都","city":"稲城市","address":"東京都稲城市向陽台2丁目4","lat":35.63951,"lon":139.492594},{"name":"若葉台公園","province":"東京都","city":"稲城市","address":"東京都稲城市若葉台1丁目24","lat":35.62744,"lon":139.472131},{"name":"若葉台公園","province":"東京都","city":"稲城市","address":"東京都稲城市若葉台1丁目19","lat":35.62503,"lon":139.473738},{"name":"上谷戸親水公園","province":"東京都","city":"稲城市","address":"東京都稲城市若葉台1丁目28","lat":35.6271,"lon":139.481463},{"name":"若葉台駅駅前広場トイレ","province":"東京都","city":"稲城市","address":"東京都稲城市若葉台2丁目101","lat":35.62051,"lon":139.472503},{"name":"多摩川堤防公衆トイレ","province":"東京都","city":"稲城市","address":"東京都稲城市矢野口","lat":35.64394,"lon":139.521681},{"name":"複合施設ふれんど平尾","province":"東京都","city":"稲城市","address":"東京都稲城市平尾1丁目9","lat":35.61371,"lon":139.492911},{"name":"複合施設ふれんど平尾","province":"東京都","city":"稲城市","address":"東京都稲城市平尾1丁目9","lat":35.6137,"lon":139.49293},{"name":"稲城長峰ヴェルディフィールド","province":"東京都","city":"稲城市","address":"東京都稲城市長峰3丁目10-1","lat":35.63158,"lon":139.477589},{"name":"稲城長峰ヴェルディフィールド","province":"東京都","city":"稲城市","address":"東京都稲城市長峰3丁目11","lat":35.6294,"lon":139.476541},{"name":"南多摩スポーツ広場","province":"東京都","city":"稲城市","address":"東京都稲城市大丸","lat":35.64876,"lon":139.480318},{"name":"稲城市福祉センター","province":"東京都","city":"稲城市","address":"東京都稲城市百村7","lat":35.639577,"lon":139.499948},{"name":"三沢川親水公園","province":"東京都","city":"稲城市","address":"東京都稲城市矢野口1653-4","lat":35.636349,"lon":139.516229,"males_count":2,"females_count":1,"multipurposes_count":1},{"name":"稲城北緑地公園","province":"東京都","city":"稲城市","address":"東京都稲城市東長沼2996","lat":35.649741,"lon":139.504279,"males_count":3,"females_count":2,"multipurposes_count":1},{"name":"稲城北緑地公園","province":"東京都","city":"稲城市","address":"東京都稲城市東長沼2996","lat":35.649984,"lon":139.501026,"males_count":3,"females_count":2,"multipurposes_count":0},{"name":"東長沼七曲見晴児童公園","province":"東京都","city":"稲城市","address":"東京都稲城市東長沼3116","lat":35.635973,"lon":139.502664,"males_count":2,"females_count":1,"multipurposes_count":0},{"name":"亀山下公園","province":"東京都","city":"稲城市","address":"東京都稲城市東長沼2115-1","lat":35.638013,"lon":139.500703,"males_count":2,"females_count":2,"multipurposes_count":1},{"name":"本郷公園","province":"東京都","city":"稲城市","address":"東京都稲城市東長沼2129","lat":35.637231,"lon":139.505786,"males_count":3,"females_count":2,"multipurposes_count":0},{"name":"淡雪公園","province":"東京都","city":"稲城市","address":"東京都稲城市東長沼1705","lat":35.638339,"lon":139.507633,"males_count":3,"females_count":2,"multipurposes_count":0},{"name":"吉方公園","province":"東京都","city":"稲城市","address":"東京都稲城市東長沼1728","lat":35.639188,"lon":139.510873,"males_count":3,"females_count":2,"multipurposes_count":0},{"name":"大丸公園","province":"東京都","city":"稲城市","address":"東京都稲城市大丸1097","lat":35.647494,"lon":139.487273,"males_count":2,"females_count":2,"multipurposes_count":1},{"name":"大丸第二公園","province":"東京都","city":"稲城市","address":"東京都稲城市大丸3111-1","lat":35.650721,"lon":139.496801,"males_count":3,"females_count":2,"multipurposes_count":0},{"name":"大丸河原方児童公園","province":"東京都","city":"稲城市","address":"東京都稲城市大丸3119-1","lat":35.65052,"lon":139.493647,"males_count":3,"females_count":2,"multipurposes_count":1},{"name":"山崎公園","province":"東京都","city":"稲城市","address":"東京都稲城市大丸694-1","lat":35.644086,"lon":139.497371,"males_count":0,"females_count":0,"multipurposes_count":1},{"name":"東方公園","province":"東京都","city":"稲城市","address":"東京都稲城市大丸66-6","lat":35.64215,"lon":139.499336,"males_count":0,"females_count":0,"multipurposes_count":1},{"name":"百村神化児童公園","province":"東京都","city":"稲城市","address":"東京都稲城市百村1609-1","lat":35.636171,"lon":139.49776,"males_count":2,"females_count":1,"multipurposes_count":0},{"name":"竪神社公園","province":"東京都","city":"稲城市","address":"東京都稲城市百村2129-31","lat":35.635064,"lon":139.488,"males_count":1,"females_count":1,"multipurposes_count":0},{"name":"稲城中央公園","province":"東京都","city":"稲城市","address":"東京都稲城市向陽台4-1-1","lat":35.636707,"lon":139.485818,"males_count":4,"females_count":2,"multipurposes_count":1},{"name":"稲城中央公園","province":"東京都","city":"稲城市","address":"東京都稲城市向陽台4-1-1","lat":35.636596,"lon":139.486394,"males_count":0,"females_count":0,"multipurposes_count":0},{"name":"城山公園","province":"東京都","city":"稲城市","address":"東京都稲城市向陽台4-6","lat":35.641385,"lon":139.489068,"males_count":6,"females_count":4,"multipurposes_count":1},{"name":"うさぎさん公園","province":"東京都","city":"稲城市","address":"東京都稲城市向陽台6-6","lat":35.641089,"lon":139.491319,"males_count":0,"females_count":0,"multipurposes_count":0},{"name":"ひつじさん公園","province":"東京都","city":"稲城市","address":"東京都稲城市向陽台6-14","lat":35.643491,"lon":139.492421,"males_count":0,"females_count":0,"multipurposes_count":1},{"name":"もぐらさん公園","province":"東京都","city":"稲城市","address":"東京都稲城市向陽台2-4-73","lat":35.639626,"lon":139.492539,"males_count":1,"females_count":0,"multipurposes_count":1},{"name":"稲城中央公園","province":"東京都","city":"稲城市","address":"東京都稲城市長峰1-1","lat":35.63374,"lon":139.488245,"males_count":6,"females_count":4,"multipurposes_count":1},{"name":"稲城中央公園","province":"東京都","city":"稲城市","address":"東京都稲城市長峰1-1","lat":35.633795,"lon":139.485285,"males_count":2,"females_count":1,"multipurposes_count":1},{"name":"若葉台公園","province":"東京都","city":"稲城市","address":"東京都稲城市若葉台1-24-1","lat":35.62746,"lon":139.472141,"males_count":4,"females_count":2,"multipurposes_count":1},{"name":"若葉台公園","province":"東京都","city":"稲城市","address":"東京都稲城市若葉台1-19-1","lat":35.625016,"lon":139.473837,"males_count":3,"females_count":2,"multipurposes_count":0},{"name":"けやき公園","province":"東京都","city":"稲城市","address":"東京都稲城市若葉台3-2","lat":35.62416,"lon":139.468977,"males_count":1,"females_count":0,"multipurposes_count":0},{"name":"上谷戸親水公園","province":"東京都","city":"稲城市","address":"東京都稲城市若葉台1-28-2","lat":35.627062,"lon":139.481592,"males_count":3,"females_count":2,"multipurposes_count":1},{"name":"平尾近隣公園","province":"東京都","city":"稲城市","address":"東京都稲城市平尾3-7-20","lat":35.60977,"lon":139.48966,"males_count":3,"females_count":2,"multipurposes_count":1},{"name":"若葉台駅前トイレ","province":"東京都","city":"稲城市","address":"東京都稲城市東若葉台2-101","lat":35.620553,"lon":139.472583,"males_count":4,"females_count":3,"multipurposes_count":1},{"name":"多摩川緑地公園前公衆トイレ","province":"東京都","city":"稲城市","address":"東京都稲城市矢野口3750","lat":35.64375,"lon":139.521972,"males_count":3,"females_count":2,"multipurposes_count":1},{"name":"大丸げんき公園","province":"東京都","city":"稲城市","address":"東京都稲城市大丸593-13","lat":35.64595,"lon":139.49543,"males_count":2,"females_count":1,"multipurposes_count":1},{"name":"稲城市役所","province":"東京都","city":"稲城市","address":"東京都稲城市東長沼2111","lat":35.63806,"lon":139.50442},{"name":"稲城市役所","province":"東京都","city":"稲城市","address":"東京都稲城市東長沼2111","lat":35.63797,"lon":139.504819},{"name":"上平尾消防出張所","province":"東京都","city":"稲城市","address":"東京都稲城市平尾4丁目15-4","lat":35.61463,"lon":139.484434},{"name":"中央文化センター","province":"東京都","city":"稲城市","address":"東京都稲城市東長沼2111","lat":35.63802,"lon":139.503787},{"name":"第二文化センター","province":"東京都","city":"稲城市","address":"東京都稲城市矢野口1780","lat":35.6353,"lon":139.518365},{"name":"第三文化センター","province":"東京都","city":"稲城市","address":"東京都稲城市平尾1丁目20-5","lat":35.61316,"lon":139.492466},{"name":"第三文化センター","province":"東京都","city":"稲城市","address":"東京都稲城市平尾1丁目20-5","lat":35.61311,"lon":139.492516},{"name":"第四文化センター","province":"東京都","city":"稲城市","address":"東京都稲城市東長沼271","lat":35.64591,"lon":139.505343},{"name":"城山文化センター","province":"東京都","city":"稲城市","address":"東京都稲城市向陽台6丁目7-6","lat":35.64134,"lon":139.490795},{"name":"稲城市立病院","province":"東京都","city":"稲城市","address":"東京都稲城市大丸1171","lat":35.64675,"lon":139.48517},{"name":"稲城市立病院","province":"東京都","city":"稲城市","address":"東京都稲城市大丸1171","lat":35.64666,"lon":139.484968},{"name":"稲城市立病院","province":"東京都","city":"稲城市","address":"東京都稲城市大丸1171","lat":35.64676,"lon":139.485157},{"name":"稲城市立病院　健診・外来棟","province":"東京都","city":"稲城市","address":"東京都稲城市大丸1171","lat":35.64687,"lon":139.486158},{"name":"稲城市立病院　健診・外来棟","province":"東京都","city":"稲城市","address":"東京都稲城市大丸","lat":35.64695,"lon":139.485759},{"name":"稲城市立病院　健診・外来棟","province":"東京都","city":"稲城市","address":"東京都稲城市大丸1171","lat":35.646804,"lon":139.485173},{"name":"稲城市保健センター","province":"東京都","city":"稲城市","address":"東京都稲城市百村112-1","lat":35.63829,"lon":139.497485},{"name":"オーエンス健康プラザ","province":"東京都","city":"稲城市","address":"東京都稲城市大丸1171","lat":35.646825,"lon":139.486115},{"name":"オーエンス健康プラザ","province":"東京都","city":"稲城市","address":"東京都稲城市大丸1171","lat":35.64699,"lon":139.486108},{"name":"オーエンス健康プラザ","province":"東京都","city":"稲城市","address":"東京都稲城市大丸1171","lat":35.646915,"lon":139.486198},{"name":"稲城市立中央図書館","province":"東京都","city":"稲城市","address":"東京都稲城市向陽台4丁目6","lat":35.64535,"lon":139.48851},{"name":"城山体験学習館","province":"東京都","city":"稲城市","address":"東京都稲城市向陽台4丁目6-18","lat":35.64574,"lon":139.48792},{"name":"地域振興プラザ","province":"東京都","city":"稲城市","address":"東京都稲城市東長沼2112-1","lat":35.63784,"lon":139.505896},{"name":"稲城市立iプラザ","province":"東京都","city":"稲城市","address":"東京都稲城市若葉台2丁目5-2","lat":35.62125,"lon":139.47211},{"name":"稲城市立iプラザ","province":"東京都","city":"稲城市","address":"東京都稲城市若葉台2丁目5-2","lat":35.62099,"lon":139.472202},{"name":"稲城市立iプラザ","province":"東京都","city":"稲城市","address":"東京都稲城市若葉台2丁目5-2","lat":35.62102,"lon":139.472343},{"name":"稲城市立iプラザ","province":"東京都","city":"稲城市","address":"東京都稲城市若葉台2丁目5-2","lat":35.621,"lon":139.472085},{"name":"押立ふれあい会館","province":"東京都","city":"稲城市","address":"東京都稲城市押立663","lat":35.64969,"lon":139.511159},{"name":"中央公民館ホール","province":"東京都","city":"稲城市","address":"東京都稲城市東長沼2111","lat":35.63835,"lon":139.503772},{"name":"三沢川親水公園","province":"東京都","city":"稲城市","address":"東京都稲城市矢野口","lat":35.63634,"lon":139.516182},{"name":"稲城北緑地公園","province":"東京都","city":"稲城市","address":"東京都稲城市東長沼","lat":35.64971,"lon":139.504257},{"name":"亀山下公園","province":"東京都","city":"稲城市","address":"東京都稲城市東長沼","lat":35.63803,"lon":139.500671},{"name":"大丸公園","province":"東京都","city":"稲城市","address":"東京都稲城市大丸","lat":35.64745,"lon":139.487278},{"name":"大丸第二公園（プール管理棟内）","province":"東京都","city":"稲城市","address":"東京都稲城市大丸3111-1","lat":35.65039,"lon":139.49687},{"name":"大丸河原方児童公園","province":"東京都","city":"稲城市","address":"東京都稲城市大丸","lat":35.65049,"lon":139.493639},{"name":"山崎公園","province":"東京都","city":"稲城市","address":"東京都稲城市大丸","lat":35.64415,"lon":139.497443},{"name":"東方公園","province":"東京都","city":"稲城市","address":"東京都稲城市大丸","lat":35.64209,"lon":139.499325},{"name":"平尾近隣公園","province":"東京都","city":"稲城市","address":"東京都稲城市平尾3丁目7","lat":35.60977,"lon":139.489686},{"name":"稲城中央公園","province":"東京都","city":"稲城市","address":"東京都稲城市長峰1丁目1","lat":35.63372,"lon":139.4853},{"name":"稲城中央公園","province":"東京都","city":"稲城市","address":"東京都稲城市長峰1丁目1","lat":35.63368,"lon":139.488331},{"name":"稲城中央公園","province":"東京都","city":"稲城市","address":"東京都稲城市向陽台4丁目1","lat":35.63667,"lon":139.485936},{"name":"稲城中央公園","province":"東京都","city":"稲城市","address":"東京都稲城市長峰1丁目1","lat":35.63202,"lon":139.48602},{"name":"稲城中央公園","province":"東京都","city":"稲城市","address":"東京都稲城市長峰1丁目1","lat":35.63365,"lon":139.48732},{"name":"稲城中央公園","province":"東京都","city":"稲城市","address":"東京都稲城市長峰1丁目1-1","lat":35.63149,"lon":139.486232},{"name":"城山公園","province":"東京都","city":"稲城市","address":"東京都稲城市向陽台4丁目6","lat":35.64137,"lon":139.489154},{"name":"ひつじさん公園","province":"東京都","city":"稲城市","address":"東京都稲城市向陽台6丁目14","lat":35.64348,"lon":139.492425},{"name":"もぐらさん公園","province":"東京都","city":"稲城市","address":"東京都稲城市向陽台2丁目4","lat":35.63951,"lon":139.492594},{"name":"若葉台公園","province":"東京都","city":"稲城市","address":"東京都稲城市若葉台1丁目24","lat":35.62744,"lon":139.472131},{"name":"若葉台公園","province":"東京都","city":"稲城市","address":"東京都稲城市若葉台1丁目19","lat":35.62503,"lon":139.473738},{"name":"上谷戸親水公園","province":"東京都","city":"稲城市","address":"東京都稲城市若葉台1丁目28","lat":35.6271,"lon":139.481463},{"name":"若葉台駅駅前広場トイレ","province":"東京都","city":"稲城市","address":"東京都稲城市若葉台2丁目101","lat":35.62051,"lon":139.472503},{"name":"多摩川堤防公衆トイレ","province":"東京都","city":"稲城市","address":"東京都稲城市矢野口","lat":35.64394,"lon":139.521681},{"name":"複合施設ふれんど平尾","province":"東京都","city":"稲城市","address":"東京都稲城市平尾1丁目9","lat":35.61371,"lon":139.492911},{"name":"複合施設ふれんど平尾","province":"東京都","city":"稲城市","address":"東京都稲城市平尾1丁目9","lat":35.6137,"lon":139.49293},{"name":"稲城長峰ヴェルディフィールド","province":"東京都","city":"稲城市","address":"東京都稲城市長峰3丁目10-1","lat":35.63158,"lon":139.477589},{"name":"稲城長峰ヴェルディフィールド","province":"東京都","city":"稲城市","address":"東京都稲城市長峰3丁目11","lat":35.6294,"lon":139.476541},{"name":"南多摩スポーツ広場","province":"東京都","city":"稲城市","address":"東京都稲城市大丸","lat":35.64876,"lon":139.480318},{"name":"稲城市福祉センター","province":"東京都","city":"稲城市","address":"東京都稲城市百村7","lat":35.639577,"lon":139.499948},{"name":"三沢川親水公園","province":"東京都","city":"稲城市","address":"東京都稲城市矢野口1653-4","lat":35.636349,"lon":139.516229,"males_count":2,"females_count":1,"multipurposes_count":1},{"name":"稲城北緑地公園","province":"東京都","city":"稲城市","address":"東京都稲城市東長沼2996","lat":35.649741,"lon":139.504279,"males_count":3,"females_count":2,"multipurposes_count":1},{"name":"稲城北緑地公園","province":"東京都","city":"稲城市","address":"東京都稲城市東長沼2996","lat":35.649984,"lon":139.501026,"males_count":3,"females_count":2,"multipurposes_count":0},{"name":"東長沼七曲見晴児童公園","province":"東京都","city":"稲城市","address":"東京都稲城市東長沼3116","lat":35.635973,"lon":139.502664,"males_count":2,"females_count":1,"multipurposes_count":0},{"name":"亀山下公園","province":"東京都","city":"稲城市","address":"東京都稲城市東長沼2115-1","lat":35.638013,"lon":139.500703,"males_count":2,"females_count":2,"multipurposes_count":1},{"name":"本郷公園","province":"東京都","city":"稲城市","address":"東京都稲城市東長沼2129","lat":35.637231,"lon":139.505786,"males_count":3,"females_count":2,"multipurposes_count":0},{"name":"淡雪公園","province":"東京都","city":"稲城市","address":"東京都稲城市東長沼1705","lat":35.638339,"lon":139.507633,"males_count":3,"females_count":2,"multipurposes_count":0},{"name":"吉方公園","province":"東京都","city":"稲城市","address":"東京都稲城市東長沼1728","lat":35.639188,"lon":139.510873,"males_count":3,"females_count":2,"multipurposes_count":0},{"name":"大丸公園","province":"東京都","city":"稲城市","address":"東京都稲城市大丸1097","lat":35.647494,"lon":139.487273,"males_count":2,"females_count":2,"multipurposes_count":1},{"name":"大丸第二公園","province":"東京都","city":"稲城市","address":"東京都稲城市大丸3111-1","lat":35.650721,"lon":139.496801,"males_count":3,"females_count":2,"multipurposes_count":0},{"name":"大丸河原方児童公園","province":"東京都","city":"稲城市","address":"東京都稲城市大丸3119-1","lat":35.65052,"lon":139.493647,"males_count":3,"females_count":2,"multipurposes_count":1},{"name":"山崎公園","province":"東京都","city":"稲城市","address":"東京都稲城市大丸694-1","lat":35.644086,"lon":139.497371,"males_count":0,"females_count":0,"multipurposes_count":1},{"name":"東方公園","province":"東京都","city":"稲城市","address":"東京都稲城市大丸66-6","lat":35.64215,"lon":139.499336,"males_count":0,"females_count":0,"multipurposes_count":1},{"name":"百村神化児童公園","province":"東京都","city":"稲城市","address":"東京都稲城市百村1609-1","lat":35.636171,"lon":139.49776,"males_count":2,"females_count":1,"multipurposes_count":0},{"name":"竪神社公園","province":"東京都","city":"稲城市","address":"東京都稲城市百村2129-31","lat":35.635064,"lon":139.488,"males_count":1,"females_count":1,"multipurposes_count":0},{"name":"稲城中央公園","province":"東京都","city":"稲城市","address":"東京都稲城市向陽台4-1-1","lat":35.636707,"lon":139.485818,"males_count":4,"females_count":2,"multipurposes_count":1},{"name":"稲城中央公園","province":"東京都","city":"稲城市","address":"東京都稲城市向陽台4-1-1","lat":35.636596,"lon":139.486394,"males_count":0,"females_count":0,"multipurposes_count":0},{"name":"城山公園","province":"東京都","city":"稲城市","address":"東京都稲城市向陽台4-6","lat":35.641385,"lon":139.489068,"males_count":6,"females_count":4,"multipurposes_count":1},{"name":"うさぎさん公園","province":"東京都","city":"稲城市","address":"東京都稲城市向陽台6-6","lat":35.641089,"lon":139.491319,"males_count":0,"females_count":0,"multipurposes_count":0},{"name":"ひつじさん公園","province":"東京都","city":"稲城市","address":"東京都稲城市向陽台6-14","lat":35.643491,"lon":139.492421,"males_count":0,"females_count":0,"multipurposes_count":1},{"name":"もぐらさん公園","province":"東京都","city":"稲城市","address":"東京都稲城市向陽台2-4-73","lat":35.639626,"lon":139.492539,"males_count":1,"females_count":0,"multipurposes_count":1},{"name":"稲城中央公園","province":"東京都","city":"稲城市","address":"東京都稲城市長峰1-1","lat":35.63374,"lon":139.488245,"males_count":6,"females_count":4,"multipurposes_count":1},{"name":"稲城中央公園","province":"東京都","city":"稲城市","address":"東京都稲城市長峰1-1","lat":35.633795,"lon":139.485285,"males_count":2,"females_count":1,"multipurposes_count":1},{"name":"若葉台公園","province":"東京都","city":"稲城市","address":"東京都稲城市若葉台1-24-1","lat":35.62746,"lon":139.472141,"males_count":4,"females_count":2,"multipurposes_count":1},{"name":"若葉台公園","province":"東京都","city":"稲城市","address":"東京都稲城市若葉台1-19-1","lat":35.625016,"lon":139.473837,"males_count":3,"females_count":2,"multipurposes_count":0},{"name":"けやき公園","province":"東京都","city":"稲城市","address":"東京都稲城市若葉台3-2","lat":35.62416,"lon":139.468977,"males_count":1,"females_count":0,"multipurposes_count":0},{"name":"上谷戸親水公園","province":"東京都","city":"稲城市","address":"東京都稲城市若葉台1-28-2","lat":35.627062,"lon":139.481592,"males_count":3,"females_count":2,"multipurposes_count":1},{"name":"平尾近隣公園","province":"東京都","city":"稲城市","address":"東京都稲城市平尾3-7-20","lat":35.60977,"lon":139.48966,"males_count":3,"females_count":2,"multipurposes_count":1},{"name":"若葉台駅前トイレ","province":"東京都","city":"稲城市","address":"東京都稲城市東若葉台2-101","lat":35.620553,"lon":139.472583,"males_count":4,"females_count":3,"multipurposes_count":1},{"name":"多摩川緑地公園前公衆トイレ","province":"東京都","city":"稲城市","address":"東京都稲城市矢野口3750","lat":35.64375,"lon":139.521972,"males_count":3,"females_count":2,"multipurposes_count":1},{"name":"大丸げんき公園","province":"東京都","city":"稲城市","address":"東京都稲城市大丸593-13","lat":35.64595,"lon":139.49543,"males_count":2,"females_count":1,"multipurposes_count":1},{"name":"三沢川親水公園","province":"東京都","city":"稲城市","address":"東京都稲城市矢野口1653-4","lat":35.636349,"lon":139.516229,"males_count":2,"females_count":1,"multipurposes_count":1},{"name":"稲城北緑地公園","province":"東京都","city":"稲城市","address":"東京都稲城市東長沼2996","lat":35.649741,"lon":139.504279,"males_count":3,"females_count":2,"multipurposes_count":1},{"name":"稲城北緑地公園","province":"東京都","city":"稲城市","address":"東京都稲城市東長沼2996","lat":35.649984,"lon":139.501026,"males_count":3,"females_count":2,"multipurposes_count":0},{"name":"東長沼七曲見晴児童公園","province":"東京都","city":"稲城市","address":"東京都稲城市東長沼3116","lat":35.635973,"lon":139.502664,"males_count":2,"females_count":1,"multipurposes_count":0},{"name":"亀山下公園","province":"東京都","city":"稲城市","address":"東京都稲城市東長沼2115-1","lat":35.638013,"lon":139.500703,"males_count":2,"females_count":2,"multipurposes_count":1},{"name":"本郷公園","province":"東京都","city":"稲城市","address":"東京都稲城市東長沼2129","lat":35.637231,"lon":139.505786,"males_count":3,"females_count":2,"multipurposes_count":0},{"name":"淡雪公園","province":"東京都","city":"稲城市","address":"東京都稲城市東長沼1705","lat":35.638339,"lon":139.507633,"males_count":3,"females_count":2,"multipurposes_count":0},{"name":"吉方公園","province":"東京都","city":"稲城市","address":"東京都稲城市東長沼1728","lat":35.639188,"lon":139.510873,"males_count":3,"females_count":2,"multipurposes_count":0},{"name":"大丸公園","province":"東京都","city":"稲城市","address":"東京都稲城市大丸1097","lat":35.647494,"lon":139.487273,"males_count":2,"females_count":2,"multipurposes_count":1},{"name":"大丸第二公園","province":"東京都","city":"稲城市","address":"東京都稲城市大丸3111-1","lat":35.650721,"lon":139.496801,"males_count":3,"females_count":2,"multipurposes_count":0},{"name":"大丸河原方児童公園","province":"東京都","city":"稲城市","address":"東京都稲城市大丸3119-1","lat":35.65052,"lon":139.493647,"males_count":3,"females_count":2,"multipurposes_count":1},{"name":"山崎公園","province":"東京都","city":"稲城市","address":"東京都稲城市大丸694-1","lat":35.644086,"lon":139.497371,"males_count":0,"females_count":0,"multipurposes_count":1},{"name":"東方公園","province":"東京都","city":"稲城市","address":"東京都稲城市大丸66-6","lat":35.64215,"lon":139.499336,"males_count":0,"females_count":0,"multipurposes_count":1},{"name":"百村神化児童公園","province":"東京都","city":"稲城市","address":"東京都稲城市百村1609-1","lat":35.636171,"lon":139.49776,"males_count":2,"females_count":1,"multipurposes_count":0},{"name":"竪神社公園","province":"東京都","city":"稲城市","address":"東京都稲城市百村2129-31","lat":35.635064,"lon":139.488,"males_count":1,"females_count":1,"multipurposes_count":0},{"name":"稲城中央公園","province":"東京都","city":"稲城市","address":"東京都稲城市向陽台4-1-1","lat":35.636707,"lon":139.485818,"males_count":4,"females_count":2,"multipurposes_count":1},{"name":"稲城中央公園","province":"東京都","city":"稲城市","address":"東京都稲城市向陽台4-1-1","lat":35.636596,"lon":139.486394,"males_count":0,"females_count":0,"multipurposes_count":0},{"name":"城山公園","province":"東京都","city":"稲城市","address":"東京都稲城市向陽台4-6","lat":35.641385,"lon":139.489068,"males_count":6,"females_count":4,"multipurposes_count":1},{"name":"うさぎさん公園","province":"東京都","city":"稲城市","address":"東京都稲城市向陽台6-6","lat":35.641089,"lon":139.491319,"males_count":0,"females_count":0,"multipurposes_count":0},{"name":"ひつじさん公園","province":"東京都","city":"稲城市","address":"東京都稲城市向陽台6-14","lat":35.643491,"lon":139.492421,"males_count":0,"females_count":0,"multipurposes_count":1},{"name":"もぐらさん公園","province":"東京都","city":"稲城市","address":"東京都稲城市向陽台2-4-73","lat":35.639626,"lon":139.492539,"males_count":1,"females_count":0,"multipurposes_count":1},{"name":"稲城中央公園","province":"東京都","city":"稲城市","address":"東京都稲城市長峰1-1","lat":35.63374,"lon":139.488245,"males_count":6,"females_count":4,"multipurposes_count":1},{"name":"稲城中央公園","province":"東京都","city":"稲城市","address":"東京都稲城市長峰1-1","lat":35.633795,"lon":139.485285,"males_count":2,"females_count":1,"multipurposes_count":1},{"name":"若葉台公園","province":"東京都","city":"稲城市","address":"東京都稲城市若葉台1-24-1","lat":35.62746,"lon":139.472141,"males_count":4,"females_count":2,"multipurposes_count":1},{"name":"若葉台公園","province":"東京都","city":"稲城市","address":"東京都稲城市若葉台1-19-1","lat":35.625016,"lon":139.473837,"males_count":3,"females_count":2,"multipurposes_count":0},{"name":"けやき公園","province":"東京都","city":"稲城市","address":"東京都稲城市若葉台3-2","lat":35.62416,"lon":139.468977,"males_count":1,"females_count":0,"multipurposes_count":0},{"name":"上谷戸親水公園","province":"東京都","city":"稲城市","address":"東京都稲城市若葉台1-28-2","lat":35.627062,"lon":139.481592,"males_count":3,"females_count":2,"multipurposes_count":1},{"name":"平尾近隣公園","province":"東京都","city":"稲城市","address":"東京都稲城市平尾3-7-20","lat":35.60977,"lon":139.48966,"males_count":3,"females_count":2,"multipurposes_count":1},{"name":"若葉台駅前トイレ","province":"東京都","city":"稲城市","address":"東京都稲城市東若葉台2-101","lat":35.620553,"lon":139.472583,"males_count":4,"females_count":3,"multipurposes_count":1},{"name":"多摩川緑地公園前公衆トイレ","province":"東京都","city":"稲城市","address":"東京都稲城市矢野口3750","lat":35.64375,"lon":139.521972,"males_count":3,"females_count":2,"multipurposes_count":1},{"name":"大丸げんき公園","province":"東京都","city":"稲城市","address":"東京都稲城市大丸593-13","lat":35.64595,"lon":139.49543,"males_count":2,"females_count":1,"multipurposes_count":1},{"name":"三沢川親水公園","province":"東京都","city":"稲城市","address":"東京都稲城市矢野口1653-4","lat":35.636349,"lon":139.516229,"males_count":2,"females_count":1,"multipurposes_count":1},{"name":"稲城北緑地公園","province":"東京都","city":"稲城市","address":"東京都稲城市東長沼2996","lat":35.649741,"lon":139.504279,"males_count":3,"females_count":2,"multipurposes_count":1},{"name":"稲城北緑地公園","province":"東京都","city":"稲城市","address":"東京都稲城市東長沼2996","lat":35.649984,"lon":139.501026,"males_count":3,"females_count":2,"multipurposes_count":0},{"name":"東長沼七曲見晴児童公園","province":"東京都","city":"稲城市","address":"東京都稲城市東長沼3116","lat":35.635973,"lon":139.502664,"males_count":2,"females_count":1,"multipurposes_count":0},{"name":"亀山下公園","province":"東京都","city":"稲城市","address":"東京都稲城市東長沼2115-1","lat":35.638013,"lon":139.500703,"males_count":2,"females_count":2,"multipurposes_count":1},{"name":"本郷公園","province":"東京都","city":"稲城市","address":"東京都稲城市東長沼2129","lat":35.637231,"lon":139.505786,"males_count":3,"females_count":2,"multipurposes_count":0},{"name":"淡雪公園","province":"東京都","city":"稲城市","address":"東京都稲城市東長沼1705","lat":35.638339,"lon":139.507633,"males_count":3,"females_count":2,"multipurposes_count":0},{"name":"吉方公園","province":"東京都","city":"稲城市","address":"東京都稲城市東長沼1728","lat":35.639188,"lon":139.510873,"males_count":3,"females_count":2,"multipurposes_count":0},{"name":"大丸公園","province":"東京都","city":"稲城市","address":"東京都稲城市大丸1097","lat":35.647494,"lon":139.487273,"males_count":2,"females_count":2,"multipurposes_count":1},{"name":"大丸第二公園","province":"東京都","city":"稲城市","address":"東京都稲城市大丸3111-1","lat":35.650721,"lon":139.496801,"males_count":3,"females_count":2,"multipurposes_count":0},{"name":"大丸河原方児童公園","province":"東京都","city":"稲城市","address":"東京都稲城市大丸3119-1","lat":35.65052,"lon":139.493647,"males_count":3,"females_count":2,"multipurposes_count":1},{"name":"山崎公園","province":"東京都","city":"稲城市","address":"東京都稲城市大丸694-1","lat":35.644086,"lon":139.497371,"males_count":0,"females_count":0,"multipurposes_count":1},{"name":"東方公園","province":"東京都","city":"稲城市","address":"東京都稲城市大丸66-6","lat":35.64215,"lon":139.499336,"males_count":0,"females_count":0,"multipurposes_count":1},{"name":"百村神化児童公園","province":"東京都","city":"稲城市","address":"東京都稲城市百村1609-1","lat":35.636171,"lon":139.49776,"males_count":2,"females_count":1,"multipurposes_count":0},{"name":"竪神社公園","province":"東京都","city":"稲城市","address":"東京都稲城市百村2129-31","lat":35.635064,"lon":139.488,"males_count":1,"females_count":1,"multipurposes_count":0},{"name":"稲城中央公園","province":"東京都","city":"稲城市","address":"東京都稲城市向陽台4-1-1","lat":35.636707,"lon":139.485818,"males_count":4,"females_count":2,"multipurposes_count":1},{"name":"稲城中央公園","province":"東京都","city":"稲城市","address":"東京都稲城市向陽台4-1-1","lat":35.636596,"lon":139.486394,"males_count":0,"females_count":0,"multipurposes_count":0},{"name":"城山公園","province":"東京都","city":"稲城市","address":"東京都稲城市向陽台4-6","lat":35.641385,"lon":139.489068,"males_count":6,"females_count":4,"multipurposes_count":1},{"name":"うさぎさん公園","province":"東京都","city":"稲城市","address":"東京都稲城市向陽台6-6","lat":35.641089,"lon":139.491319,"males_count":0,"females_count":0,"multipurposes_count":0},{"name":"ひつじさん公園","province":"東京都","city":"稲城市","address":"東京都稲城市向陽台6-14","lat":35.643491,"lon":139.492421,"males_count":0,"females_count":0,"multipurposes_count":1},{"name":"もぐらさん公園","province":"東京都","city":"稲城市","address":"東京都稲城市向陽台2-4-73","lat":35.639626,"lon":139.492539,"males_count":1,"females_count":0,"multipurposes_count":1},{"name":"稲城中央公園","province":"東京都","city":"稲城市","address":"東京都稲城市長峰1-1","lat":35.63374,"lon":139.488245,"males_count":6,"females_count":4,"multipurposes_count":1},{"name":"稲城中央公園","province":"東京都","city":"稲城市","address":"東京都稲城市長峰1-1","lat":35.633795,"lon":139.485285,"males_count":2,"females_count":1,"multipurposes_count":1},{"name":"若葉台公園","province":"東京都","city":"稲城市","address":"東京都稲城市若葉台1-24-1","lat":35.62746,"lon":139.472141,"males_count":4,"females_count":2,"multipurposes_count":1},{"name":"若葉台公園","province":"東京都","city":"稲城市","address":"東京都稲城市若葉台1-19-1","lat":35.625016,"lon":139.473837,"males_count":3,"females_count":2,"multipurposes_count":0},{"name":"けやき公園","province":"東京都","city":"稲城市","address":"東京都稲城市若葉台3-2","lat":35.62416,"lon":139.468977,"males_count":1,"females_count":0,"multipurposes_count":0},{"name":"上谷戸親水公園","province":"東京都","city":"稲城市","address":"東京都稲城市若葉台1-28-2","lat":35.627062,"lon":139.481592,"males_count":3,"females_count":2,"multipurposes_count":1},{"name":"平尾近隣公園","province":"東京都","city":"稲城市","address":"東京都稲城市平尾3-7-20","lat":35.60977,"lon":139.48966,"males_count":3,"females_count":2,"multipurposes_count":1},{"name":"若葉台駅前トイレ","province":"東京都","city":"稲城市","address":"東京都稲城市東若葉台2-101","lat":35.620553,"lon":139.472583,"males_count":4,"females_count":3,"multipurposes_count":1},{"name":"多摩川緑地公園前公衆トイレ","province":"東京都","city":"稲城市","address":"東京都稲城市矢野口3750","lat":35.64375,"lon":139.521972,"males_count":3,"females_count":2,"multipurposes_count":1},{"name":"大丸げんき公園","province":"東京都","city":"稲城市","address":"東京都稲城市大丸593-13","lat":35.64595,"lon":139.49543,"males_count":2,"females_count":1,"multipurposes_count":1},{"name":"三沢川親水公園","province":"東京都","city":"稲城市","address":"東京都稲城市矢野口1653-4","lat":35.636349,"lon":139.516229,"males_count":2,"females_count":1,"multipurposes_count":1},{"name":"稲城北緑地公園","province":"東京都","city":"稲城市","address":"東京都稲城市東長沼2996","lat":35.649741,"lon":139.504279,"males_count":3,"females_count":2,"multipurposes_count":1},{"name":"稲城北緑地公園","province":"東京都","city":"稲城市","address":"東京都稲城市東長沼2996","lat":35.649984,"lon":139.501026,"males_count":3,"females_count":2,"multipurposes_count":0},{"name":"東長沼七曲見晴児童公園","province":"東京都","city":"稲城市","address":"東京都稲城市東長沼3116","lat":35.635973,"lon":139.502664,"males_count":2,"females_count":1,"multipurposes_count":0},{"name":"亀山下公園","province":"東京都","city":"稲城市","address":"東京都稲城市東長沼2115-1","lat":35.638013,"lon":139.500703,"males_count":2,"females_count":2,"multipurposes_count":1},{"name":"本郷公園","province":"東京都","city":"稲城市","address":"東京都稲城市東長沼2129","lat":35.637231,"lon":139.505786,"males_count":3,"females_count":2,"multipurposes_count":0},{"name":"淡雪公園","province":"東京都","city":"稲城市","address":"東京都稲城市東長沼1705","lat":35.638339,"lon":139.507633,"males_count":3,"females_count":2,"multipurposes_count":0},{"name":"吉方公園","province":"東京都","city":"稲城市","address":"東京都稲城市東長沼1728","lat":35.639188,"lon":139.510873,"males_count":3,"females_count":2,"multipurposes_count":0},{"name":"大丸公園","province":"東京都","city":"稲城市","address":"東京都稲城市大丸1097","lat":35.647494,"lon":139.487273,"males_count":2,"females_count":2,"multipurposes_count":1},{"name":"大丸第二公園","province":"東京都","city":"稲城市","address":"東京都稲城市大丸3111-1","lat":35.650721,"lon":139.496801,"males_count":3,"females_count":2,"multipurposes_count":0},{"name":"大丸河原方児童公園","province":"東京都","city":"稲城市","address":"東京都稲城市大丸3119-1","lat":35.65052,"lon":139.493647,"males_count":3,"females_count":2,"multipurposes_count":1},{"name":"山崎公園","province":"東京都","city":"稲城市","address":"東京都稲城市大丸694-1","lat":35.644086,"lon":139.497371,"males_count":0,"females_count":0,"multipurposes_count":1},{"name":"東方公園","province":"東京都","city":"稲城市","address":"東京都稲城市大丸66-6","lat":35.64215,"lon":139.499336,"males_count":0,"females_count":0,"multipurposes_count":1},{"name":"百村神化児童公園","province":"東京都","city":"稲城市","address":"東京都稲城市百村1609-1","lat":35.636171,"lon":139.49776,"males_count":2,"females_count":1,"multipurposes_count":0},{"name":"竪神社公園","province":"東京都","city":"稲城市","address":"東京都稲城市百村2129-31","lat":35.635064,"lon":139.488,"males_count":1,"females_count":1,"multipurposes_count":0},{"name":"稲城中央公園","province":"東京都","city":"稲城市","address":"東京都稲城市向陽台4-1-1","lat":35.636707,"lon":139.485818,"males_count":4,"females_count":2,"multipurposes_count":1},{"name":"稲城中央公園","province":"東京都","city":"稲城市","address":"東京都稲城市向陽台4-1-1","lat":35.636596,"lon":139.486394,"males_count":0,"females_count":0,"multipurposes_count":0},{"name":"城山公園","province":"東京都","city":"稲城市","address":"東京都稲城市向陽台4-6","lat":35.641385,"lon":139.489068,"males_count":6,"females_count":4,"multipurposes_count":1},{"name":"うさぎさん公園","province":"東京都","city":"稲城市","address":"東京都稲城市向陽台6-6","lat":35.641089,"lon":139.491319,"males_count":0,"females_count":0,"multipurposes_count":0},{"name":"ひつじさん公園","province":"東京都","city":"稲城市","address":"東京都稲城市向陽台6-14","lat":35.643491,"lon":139.492421,"males_count":0,"females_count":0,"multipurposes_count":1},{"name":"もぐらさん公園","province":"東京都","city":"稲城市","address":"東京都稲城市向陽台2-4-73","lat":35.639626,"lon":139.492539,"males_count":1,"females_count":0,"multipurposes_count":1},{"name":"稲城中央公園","province":"東京都","city":"稲城市","address":"東京都稲城市長峰1-1","lat":35.63374,"lon":139.488245,"males_count":6,"females_count":4,"multipurposes_count":1},{"name":"稲城中央公園","province":"東京都","city":"稲城市","address":"東京都稲城市長峰1-1","lat":35.633795,"lon":139.485285,"males_count":2,"females_count":1,"multipurposes_count":1},{"name":"若葉台公園","province":"東京都","city":"稲城市","address":"東京都稲城市若葉台1-24-1","lat":35.62746,"lon":139.472141,"males_count":4,"females_count":2,"multipurposes_count":1},{"name":"若葉台公園","province":"東京都","city":"稲城市","address":"東京都稲城市若葉台1-19-1","lat":35.625016,"lon":139.473837,"males_count":3,"females_count":2,"multipurposes_count":0},{"name":"けやき公園","province":"東京都","city":"稲城市","address":"東京都稲城市若葉台3-2","lat":35.62416,"lon":139.468977,"males_count":1,"females_count":0,"multipurposes_count":0},{"name":"上谷戸親水公園","province":"東京都","city":"稲城市","address":"東京都稲城市若葉台1-28-2","lat":35.627062,"lon":139.481592,"males_count":3,"females_count":2,"multipurposes_count":1},{"name":"平尾近隣公園","province":"東京都","city":"稲城市","address":"東京都稲城市平尾3-7-20","lat":35.60977,"lon":139.48966,"males_count":3,"females_count":2,"multipurposes_count":1},{"name":"若葉台駅前トイレ","province":"東京都","city":"稲城市","address":"東京都稲城市東若葉台2-101","lat":35.620553,"lon":139.472583,"males_count":4,"females_count":3,"multipurposes_count":1},{"name":"多摩川緑地公園前公衆トイレ","province":"東京都","city":"稲城市","address":"東京都稲城市矢野口3750","lat":35.64375,"lon":139.521972,"males_count":3,"females_count":2,"multipurposes_count":1},{"name":"大丸げんき公園","province":"東京都","city":"稲城市","address":"東京都稲城市大丸593-13","lat":35.64595,"lon":139.49543,"males_count":2,"females_count":1,"multipurposes_count":1},{"name":"三沢川親水公園","province":"東京都","city":"稲城市","address":"東京都稲城市矢野口1653-4","lat":35.636349,"lon":139.516229,"males_count":2,"females_count":1,"multipurposes_count":1},{"name":"稲城北緑地公園","province":"東京都","city":"稲城市","address":"東京都稲城市東長沼2996","lat":35.649741,"lon":139.504279,"males_count":3,"females_count":2,"multipurposes_count":1},{"name":"稲城北緑地公園","province":"東京都","city":"稲城市","address":"東京都稲城市東長沼2996","lat":35.649984,"lon":139.501026,"males_count":3,"females_count":2,"multipurposes_count":0},{"name":"東長沼七曲見晴児童公園","province":"東京都","city":"稲城市","address":"東京都稲城市東長沼3116","lat":35.635973,"lon":139.502664,"males_count":2,"females_count":1,"multipurposes_count":0},{"name":"亀山下公園","province":"東京都","city":"稲城市","address":"東京都稲城市東長沼2115-1","lat":35.638013,"lon":139.500703,"males_count":2,"females_count":2,"multipurposes_count":1},{"name":"本郷公園","province":"東京都","city":"稲城市","address":"東京都稲城市東長沼2129","lat":35.637231,"lon":139.505786,"males_count":3,"females_count":2,"multipurposes_count":0},{"name":"淡雪公園","province":"東京都","city":"稲城市","address":"東京都稲城市東長沼1705","lat":35.638339,"lon":139.507633,"males_count":3,"females_count":2,"multipurposes_count":0},{"name":"吉方公園","province":"東京都","city":"稲城市","address":"東京都稲城市東長沼1728","lat":35.639188,"lon":139.510873,"males_count":3,"females_count":2,"multipurposes_count":0},{"name":"大丸公園","province":"東京都","city":"稲城市","address":"東京都稲城市大丸1097","lat":35.647494,"lon":139.487273,"males_count":2,"females_count":2,"multipurposes_count":1},{"name":"大丸第二公園","province":"東京都","city":"稲城市","address":"東京都稲城市大丸3111-1","lat":35.650721,"lon":139.496801,"males_count":3,"females_count":2,"multipurposes_count":0},{"name":"大丸河原方児童公園","province":"東京都","city":"稲城市","address":"東京都稲城市大丸3119-1","lat":35.65052,"lon":139.493647,"males_count":3,"females_count":2,"multipurposes_count":1},{"name":"山崎公園","province":"東京都","city":"稲城市","address":"東京都稲城市大丸694-1","lat":35.644086,"lon":139.497371,"males_count":0,"females_count":0,"multipurposes_count":1},{"name":"東方公園","province":"東京都","city":"稲城市","address":"東京都稲城市大丸66-6","lat":35.64215,"lon":139.499336,"males_count":0,"females_count":0,"multipurposes_count":1},{"name":"百村神化児童公園","province":"東京都","city":"稲城市","address":"東京都稲城市百村1609-1","lat":35.636171,"lon":139.49776,"males_count":2,"females_count":1,"multipurposes_count":0},{"name":"竪神社公園","province":"東京都","city":"稲城市","address":"東京都稲城市百村2129-31","lat":35.635064,"lon":139.488,"males_count":1,"females_count":1,"multipurposes_count":0},{"name":"稲城中央公園","province":"東京都","city":"稲城市","address":"東京都稲城市向陽台4-1-1","lat":35.636707,"lon":139.485818,"males_count":4,"females_count":2,"multipurposes_count":1},{"name":"稲城中央公園","province":"東京都","city":"稲城市","address":"東京都稲城市向陽台4-1-1","lat":35.636596,"lon":139.486394,"males_count":0,"females_count":0,"multipurposes_count":0},{"name":"城山公園","province":"東京都","city":"稲城市","address":"東京都稲城市向陽台4-6","lat":35.641385,"lon":139.489068,"males_count":6,"females_count":4,"multipurposes_count":1},{"name":"うさぎさん公園","province":"東京都","city":"稲城市","address":"東京都稲城市向陽台6-6","lat":35.641089,"lon":139.491319,"males_count":0,"females_count":0,"multipurposes_count":0},{"name":"ひつじさん公園","province":"東京都","city":"稲城市","address":"東京都稲城市向陽台6-14","lat":35.643491,"lon":139.492421,"males_count":0,"females_count":0,"multipurposes_count":1},{"name":"もぐらさん公園","province":"東京都","city":"稲城市","address":"東京都稲城市向陽台2-4-73","lat":35.639626,"lon":139.492539,"males_count":1,"females_count":0,"multipurposes_count":1},{"name":"稲城中央公園","province":"東京都","city":"稲城市","address":"東京都稲城市長峰1-1","lat":35.63374,"lon":139.488245,"males_count":6,"females_count":4,"multipurposes_count":1},{"name":"稲城中央公園","province":"東京都","city":"稲城市","address":"東京都稲城市長峰1-1","lat":35.633795,"lon":139.485285,"males_count":2,"females_count":1,"multipurposes_count":1},{"name":"若葉台公園","province":"東京都","city":"稲城市","address":"東京都稲城市若葉台1-24-1","lat":35.62746,"lon":139.472141,"males_count":4,"females_count":2,"multipurposes_count":1},{"name":"若葉台公園","province":"東京都","city":"稲城市","address":"東京都稲城市若葉台1-19-1","lat":35.625016,"lon":139.473837,"males_count":3,"females_count":2,"multipurposes_count":0},{"name":"けやき公園","province":"東京都","city":"稲城市","address":"東京都稲城市若葉台3-2","lat":35.62416,"lon":139.468977,"males_count":1,"females_count":0,"multipurposes_count":0},{"name":"上谷戸親水公園","province":"東京都","city":"稲城市","address":"東京都稲城市若葉台1-28-2","lat":35.627062,"lon":139.481592,"males_count":3,"females_count":2,"multipurposes_count":1},{"name":"平尾近隣公園","province":"東京都","city":"稲城市","address":"東京都稲城市平尾3-7-20","lat":35.60977,"lon":139.48966,"males_count":3,"females_count":2,"multipurposes_count":1},{"name":"若葉台駅前トイレ","province":"東京都","city":"稲城市","address":"東京都稲城市東若葉台2-101","lat":35.620553,"lon":139.472583,"males_count":4,"females_count":3,"multipurposes_count":1},{"name":"多摩川緑地公園前公衆トイレ","province":"東京都","city":"稲城市","address":"東京都稲城市矢野口3750","lat":35.64375,"lon":139.521972,"males_count":3,"females_count":2,"multipurposes_count":1},{"name":"大丸げんき公園","province":"東京都","city":"稲城市","address":"東京都稲城市大丸593-13","lat":35.64595,"lon":139.49543,"males_count":2,"females_count":1,"multipurposes_count":1},{"name":"三沢川親水公園","province":"東京都","city":"稲城市","address":"東京都稲城市矢野口1653-4","lat":35.636349,"lon":139.516229,"males_count":2,"females_count":1,"multipurposes_count":1},{"name":"稲城北緑地公園","province":"東京都","city":"稲城市","address":"東京都稲城市東長沼2996","lat":35.649741,"lon":139.504279,"males_count":3,"females_count":2,"multipurposes_count":1},{"name":"稲城北緑地公園","province":"東京都","city":"稲城市","address":"東京都稲城市東長沼2996","lat":35.649984,"lon":139.501026,"males_count":3,"females_count":2,"multipurposes_count":0},{"name":"東長沼七曲見晴児童公園","province":"東京都","city":"稲城市","address":"東京都稲城市東長沼3116","lat":35.635973,"lon":139.502664,"males_count":2,"females_count":1,"multipurposes_count":0},{"name":"亀山下公園","province":"東京都","city":"稲城市","address":"東京都稲城市東長沼2115-1","lat":35.638013,"lon":139.500703,"males_count":2,"females_count":2,"multipurposes_count":1},{"name":"本郷公園","province":"東京都","city":"稲城市","address":"東京都稲城市東長沼2129","lat":35.637231,"lon":139.505786,"males_count":3,"females_count":2,"multipurposes_count":0},{"name":"淡雪公園","province":"東京都","city":"稲城市","address":"東京都稲城市東長沼1705","lat":35.638339,"lon":139.507633,"males_count":3,"females_count":2,"multipurposes_count":0},{"name":"吉方公園","province":"東京都","city":"稲城市","address":"東京都稲城市東長沼1728","lat":35.639188,"lon":139.510873,"males_count":3,"females_count":2,"multipurposes_count":0},{"name":"大丸公園","province":"東京都","city":"稲城市","address":"東京都稲城市大丸1097","lat":35.647494,"lon":139.487273,"males_count":2,"females_count":2,"multipurposes_count":1},{"name":"大丸第二公園","province":"東京都","city":"稲城市","address":"東京都稲城市大丸3111-1","lat":35.650721,"lon":139.496801,"males_count":3,"females_count":2,"multipurposes_count":0},{"name":"大丸河原方児童公園","province":"東京都","city":"稲城市","address":"東京都稲城市大丸3119-1","lat":35.65052,"lon":139.493647,"males_count":3,"females_count":2,"multipurposes_count":1},{"name":"山崎公園","province":"東京都","city":"稲城市","address":"東京都稲城市大丸694-1","lat":35.644086,"lon":139.497371,"males_count":0,"females_count":0,"multipurposes_count":1},{"name":"東方公園","province":"東京都","city":"稲城市","address":"東京都稲城市大丸66-6","lat":35.64215,"lon":139.499336,"males_count":0,"females_count":0,"multipurposes_count":1},{"name":"百村神化児童公園","province":"東京都","city":"稲城市","address":"東京都稲城市百村1609-1","lat":35.636171,"lon":139.49776,"males_count":2,"females_count":1,"multipurposes_count":0},{"name":"竪神社公園","province":"東京都","city":"稲城市","address":"東京都稲城市百村2129-31","lat":35.635064,"lon":139.488,"males_count":1,"females_count":1,"multipurposes_count":0},{"name":"稲城中央公園","province":"東京都","city":"稲城市","address":"東京都稲城市向陽台4-1-1","lat":35.636707,"lon":139.485818,"males_count":4,"females_count":2,"multipurposes_count":1},{"name":"稲城中央公園","province":"東京都","city":"稲城市","address":"東京都稲城市向陽台4-1-1","lat":35.636596,"lon":139.486394,"males_count":0,"females_count":0,"multipurposes_count":0},{"name":"城山公園","province":"東京都","city":"稲城市","address":"東京都稲城市向陽台4-6","lat":35.641385,"lon":139.489068,"males_count":6,"females_count":4,"multipurposes_count":1},{"name":"うさぎさん公園","province":"東京都","city":"稲城市","address":"東京都稲城市向陽台6-6","lat":35.641089,"lon":139.491319,"males_count":0,"females_count":0,"multipurposes_count":0},{"name":"ひつじさん公園","province":"東京都","city":"稲城市","address":"東京都稲城市向陽台6-14","lat":35.643491,"lon":139.492421,"males_count":0,"females_count":0,"multipurposes_count":1},{"name":"もぐらさん公園","province":"東京都","city":"稲城市","address":"東京都稲城市向陽台2-4-73","lat":35.639626,"lon":139.492539,"males_count":1,"females_count":0,"multipurposes_count":1},{"name":"稲城中央公園","province":"東京都","city":"稲城市","address":"東京都稲城市長峰1-1","lat":35.63374,"lon":139.488245,"males_count":6,"females_count":4,"multipurposes_count":1},{"name":"稲城中央公園","province":"東京都","city":"稲城市","address":"東京都稲城市長峰1-1","lat":35.633795,"lon":139.485285,"males_count":2,"females_count":1,"multipurposes_count":1},{"name":"若葉台公園","province":"東京都","city":"稲城市","address":"東京都稲城市若葉台1-24-1","lat":35.62746,"lon":139.472141,"males_count":4,"females_count":2,"multipurposes_count":1},{"name":"若葉台公園","province":"東京都","city":"稲城市","address":"東京都稲城市若葉台1-19-1","lat":35.625016,"lon":139.473837,"males_count":3,"females_count":2,"multipurposes_count":0},{"name":"けやき公園","province":"東京都","city":"稲城市","address":"東京都稲城市若葉台3-2","lat":35.62416,"lon":139.468977,"males_count":1,"females_count":0,"multipurposes_count":0},{"name":"上谷戸親水公園","province":"東京都","city":"稲城市","address":"東京都稲城市若葉台1-28-2","lat":35.627062,"lon":139.481592,"males_count":3,"females_count":2,"multipurposes_count":1},{"name":"平尾近隣公園","province":"東京都","city":"稲城市","address":"東京都稲城市平尾3-7-20","lat":35.60977,"lon":139.48966,"males_count":3,"females_count":2,"multipurposes_count":1},{"name":"若葉台駅前トイレ","province":"東京都","city":"稲城市","address":"東京都稲城市東若葉台2-101","lat":35.620553,"lon":139.472583,"males_count":4,"females_count":3,"multipurposes_count":1},{"name":"多摩川緑地公園前公衆トイレ","province":"東京都","city":"稲城市","address":"東京都稲城市矢野口3750","lat":35.64375,"lon":139.521972,"males_count":3,"females_count":2,"multipurposes_count":1},{"name":"大丸げんき公園","province":"東京都","city":"稲城市","address":"東京都稲城市大丸593-13","lat":35.64595,"lon":139.49543,"males_count":2,"females_count":1,"multipurposes_count":1},{"name":"三沢川親水公園","province":"東京都","city":"稲城市","address":"東京都稲城市矢野口1653-4","lat":35.636349,"lon":139.516229,"males_count":2,"females_count":1,"multipurposes_count":1},{"name":"稲城北緑地公園","province":"東京都","city":"稲城市","address":"東京都稲城市東長沼2996","lat":35.649741,"lon":139.504279,"males_count":3,"females_count":2,"multipurposes_count":1},{"name":"稲城北緑地公園","province":"東京都","city":"稲城市","address":"東京都稲城市東長沼2996","lat":35.649984,"lon":139.501026,"males_count":3,"females_count":2,"multipurposes_count":0},{"name":"東長沼七曲見晴児童公園","province":"東京都","city":"稲城市","address":"東京都稲城市東長沼3116","lat":35.635973,"lon":139.502664,"males_count":2,"females_count":1,"multipurposes_count":0},{"name":"亀山下公園","province":"東京都","city":"稲城市","address":"東京都稲城市東長沼2115-1","lat":35.638013,"lon":139.500703,"males_count":2,"females_count":2,"multipurposes_count":1},{"name":"本郷公園","province":"東京都","city":"稲城市","address":"東京都稲城市東長沼2129","lat":35.637231,"lon":139.505786,"males_count":3,"females_count":2,"multipurposes_count":0},{"name":"淡雪公園","province":"東京都","city":"稲城市","address":"東京都稲城市東長沼1705","lat":35.638339,"lon":139.507633,"males_count":3,"females_count":2,"multipurposes_count":0},{"name":"吉方公園","province":"東京都","city":"稲城市","address":"東京都稲城市東長沼1728","lat":35.639188,"lon":139.510873,"males_count":3,"females_count":2,"multipurposes_count":0},{"name":"大丸公園","province":"東京都","city":"稲城市","address":"東京都稲城市大丸1097","lat":35.647494,"lon":139.487273,"males_count":2,"females_count":2,"multipurposes_count":1},{"name":"大丸第二公園","province":"東京都","city":"稲城市","address":"東京都稲城市大丸3111-1","lat":35.650721,"lon":139.496801,"males_count":3,"females_count":2,"multipurposes_count":0},{"name":"大丸河原方児童公園","province":"東京都","city":"稲城市","address":"東京都稲城市大丸3119-1","lat":35.65052,"lon":139.493647,"males_count":3,"females_count":2,"multipurposes_count":1},{"name":"山崎公園","province":"東京都","city":"稲城市","address":"東京都稲城市大丸694-1","lat":35.644086,"lon":139.497371,"males_count":0,"females_count":0,"multipurposes_count":1},{"name":"東方公園","province":"東京都","city":"稲城市","address":"東京都稲城市大丸66-6","lat":35.64215,"lon":139.499336,"males_count":0,"females_count":0,"multipurposes_count":1},{"name":"百村神化児童公園","province":"東京都","city":"稲城市","address":"東京都稲城市百村1609-1","lat":35.636171,"lon":139.49776,"males_count":2,"females_count":1,"multipurposes_count":0},{"name":"竪神社公園","province":"東京都","city":"稲城市","address":"東京都稲城市百村2129-31","lat":35.635064,"lon":139.488,"males_count":1,"females_count":1,"multipurposes_count":0},{"name":"稲城中央公園","province":"東京都","city":"稲城市","address":"東京都稲城市向陽台4-1-1","lat":35.636707,"lon":139.485818,"males_count":4,"females_count":2,"multipurposes_count":1},{"name":"稲城中央公園","province":"東京都","city":"稲城市","address":"東京都稲城市向陽台4-1-1","lat":35.636596,"lon":139.486394,"males_count":0,"females_count":0,"multipurposes_count":0},{"name":"城山公園","province":"東京都","city":"稲城市","address":"東京都稲城市向陽台4-6","lat":35.641385,"lon":139.489068,"males_count":6,"females_count":4,"multipurposes_count":1},{"name":"うさぎさん公園","province":"東京都","city":"稲城市","address":"東京都稲城市向陽台6-6","lat":35.641089,"lon":139.491319,"males_count":0,"females_count":0,"multipurposes_count":0},{"name":"ひつじさん公園","province":"東京都","city":"稲城市","address":"東京都稲城市向陽台6-14","lat":35.643491,"lon":139.492421,"males_count":0,"females_count":0,"multipurposes_count":1},{"name":"もぐらさん公園","province":"東京都","city":"稲城市","address":"東京都稲城市向陽台2-4-73","lat":35.639626,"lon":139.492539,"males_count":1,"females_count":0,"multipurposes_count":1},{"name":"稲城中央公園","province":"東京都","city":"稲城市","address":"東京都稲城市長峰1-1","lat":35.63374,"lon":139.488245,"males_count":6,"females_count":4,"multipurposes_count":1},{"name":"稲城中央公園","province":"東京都","city":"稲城市","address":"東京都稲城市長峰1-1","lat":35.633795,"lon":139.485285,"males_count":2,"females_count":1,"multipurposes_count":1},{"name":"若葉台公園","province":"東京都","city":"稲城市","address":"東京都稲城市若葉台1-24-1","lat":35.62746,"lon":139.472141,"males_count":4,"females_count":2,"multipurposes_count":1},{"name":"若葉台公園","province":"東京都","city":"稲城市","address":"東京都稲城市若葉台1-19-1","lat":35.625016,"lon":139.473837,"males_count":3,"females_count":2,"multipurposes_count":0},{"name":"けやき公園","province":"東京都","city":"稲城市","address":"東京都稲城市若葉台3-2","lat":35.62416,"lon":139.468977,"males_count":1,"females_count":0,"multipurposes_count":0},{"name":"上谷戸親水公園","province":"東京都","city":"稲城市","address":"東京都稲城市若葉台1-28-2","lat":35.627062,"lon":139.481592,"males_count":3,"females_count":2,"multipurposes_count":1},{"name":"平尾近隣公園","province":"東京都","city":"稲城市","address":"東京都稲城市平尾3-7-20","lat":35.60977,"lon":139.48966,"males_count":3,"females_count":2,"multipurposes_count":1},{"name":"若葉台駅前トイレ","province":"東京都","city":"稲城市","address":"東京都稲城市東若葉台2-101","lat":35.620553,"lon":139.472583,"males_count":4,"females_count":3,"multipurposes_count":1},{"name":"多摩川緑地公園前公衆トイレ","province":"東京都","city":"稲城市","address":"東京都稲城市矢野口3750","lat":35.64375,"lon":139.521972,"males_count":3,"females_count":2,"multipurposes_count":1},{"name":"大丸げんき公園","province":"東京都","city":"稲城市","address":"東京都稲城市大丸593-13","lat":35.64595,"lon":139.49543,"males_count":2,"females_count":1,"multipurposes_count":1},{"name":"三沢川親水公園","province":"東京都","city":"稲城市","address":"東京都稲城市矢野口1653-4","lat":35.636349,"lon":139.516229,"males_count":2,"females_count":1,"multipurposes_count":1},{"name":"稲城北緑地公園","province":"東京都","city":"稲城市","address":"東京都稲城市東長沼2996","lat":35.649741,"lon":139.504279,"males_count":3,"females_count":2,"multipurposes_count":1},{"name":"稲城北緑地公園","province":"東京都","city":"稲城市","address":"東京都稲城市東長沼2996","lat":35.649984,"lon":139.501026,"males_count":3,"females_count":2,"multipurposes_count":0},{"name":"東長沼七曲見晴児童公園","province":"東京都","city":"稲城市","address":"東京都稲城市東長沼3116","lat":35.635973,"lon":139.502664,"males_count":2,"females_count":1,"multipurposes_count":0},{"name":"亀山下公園","province":"東京都","city":"稲城市","address":"東京都稲城市東長沼2115-1","lat":35.638013,"lon":139.500703,"males_count":2,"females_count":2,"multipurposes_count":1},{"name":"本郷公園","province":"東京都","city":"稲城市","address":"東京都稲城市東長沼2129","lat":35.637231,"lon":139.505786,"males_count":3,"females_count":2,"multipurposes_count":0},{"name":"淡雪公園","province":"東京都","city":"稲城市","address":"東京都稲城市東長沼1705","lat":35.638339,"lon":139.507633,"males_count":3,"females_count":2,"multipurposes_count":0},{"name":"吉方公園","province":"東京都","city":"稲城市","address":"東京都稲城市東長沼1728","lat":35.639188,"lon":139.510873,"males_count":3,"females_count":2,"multipurposes_count":0},{"name":"大丸公園","province":"東京都","city":"稲城市","address":"東京都稲城市大丸1097","lat":35.647494,"lon":139.487273,"males_count":2,"females_count":2,"multipurposes_count":1},{"name":"大丸第二公園","province":"東京都","city":"稲城市","address":"東京都稲城市大丸3111-1","lat":35.650721,"lon":139.496801,"males_count":3,"females_count":2,"multipurposes_count":0},{"name":"大丸河原方児童公園","province":"東京都","city":"稲城市","address":"東京都稲城市大丸3119-1","lat":35.65052,"lon":139.493647,"males_count":3,"females_count":2,"multipurposes_count":1},{"name":"山崎公園","province":"東京都","city":"稲城市","address":"東京都稲城市大丸694-1","lat":35.644086,"lon":139.497371,"males_count":0,"females_count":0,"multipurposes_count":1},{"name":"東方公園","province":"東京都","city":"稲城市","address":"東京都稲城市大丸66-6","lat":35.64215,"lon":139.499336,"males_count":0,"females_count":0,"multipurposes_count":1},{"name":"百村神化児童公園","province":"東京都","city":"稲城市","address":"東京都稲城市百村1609-1","lat":35.636171,"lon":139.49776,"males_count":2,"females_count":1,"multipurposes_count":0},{"name":"竪神社公園","province":"東京都","city":"稲城市","address":"東京都稲城市百村2129-31","lat":35.635064,"lon":139.488,"males_count":1,"females_count":1,"multipurposes_count":0},{"name":"稲城中央公園","province":"東京都","city":"稲城市","address":"東京都稲城市向陽台4-1-1","lat":35.636707,"lon":139.485818,"males_count":4,"females_count":2,"multipurposes_count":1},{"name":"稲城中央公園","province":"東京都","city":"稲城市","address":"東京都稲城市向陽台4-1-1","lat":35.636596,"lon":139.486394,"males_count":0,"females_count":0,"multipurposes_count":0},{"name":"城山公園","province":"東京都","city":"稲城市","address":"東京都稲城市向陽台4-6","lat":35.641385,"lon":139.489068,"males_count":6,"females_count":4,"multipurposes_count":1},{"name":"うさぎさん公園","province":"東京都","city":"稲城市","address":"東京都稲城市向陽台6-6","lat":35.641089,"lon":139.491319,"males_count":0,"females_count":0,"multipurposes_count":0},{"name":"ひつじさん公園","province":"東京都","city":"稲城市","address":"東京都稲城市向陽台6-14","lat":35.643491,"lon":139.492421,"males_count":0,"females_count":0,"multipurposes_count":1},{"name":"もぐらさん公園","province":"東京都","city":"稲城市","address":"東京都稲城市向陽台2-4-73","lat":35.639626,"lon":139.492539,"males_count":1,"females_count":0,"multipurposes_count":1},{"name":"稲城中央公園","province":"東京都","city":"稲城市","address":"東京都稲城市長峰1-1","lat":35.63374,"lon":139.488245,"males_count":6,"females_count":4,"multipurposes_count":1},{"name":"稲城中央公園","province":"東京都","city":"稲城市","address":"東京都稲城市長峰1-1","lat":35.633795,"lon":139.485285,"males_count":2,"females_count":1,"multipurposes_count":1},{"name":"若葉台公園","province":"東京都","city":"稲城市","address":"東京都稲城市若葉台1-24-1","lat":35.62746,"lon":139.472141,"males_count":4,"females_count":2,"multipurposes_count":1},{"name":"若葉台公園","province":"東京都","city":"稲城市","address":"東京都稲城市若葉台1-19-1","lat":35.625016,"lon":139.473837,"males_count":3,"females_count":2,"multipurposes_count":0},{"name":"けやき公園","province":"東京都","city":"稲城市","address":"東京都稲城市若葉台3-2","lat":35.62416,"lon":139.468977,"males_count":1,"females_count":0,"multipurposes_count":0},{"name":"上谷戸親水公園","province":"東京都","city":"稲城市","address":"東京都稲城市若葉台1-28-2","lat":35.627062,"lon":139.481592,"males_count":3,"females_count":2,"multipurposes_count":1},{"name":"平尾近隣公園","province":"東京都","city":"稲城市","address":"東京都稲城市平尾3-7-20","lat":35.60977,"lon":139.48966,"males_count":3,"females_count":2,"multipurposes_count":1},{"name":"若葉台駅前トイレ","province":"東京都","city":"稲城市","address":"東京都稲城市東若葉台2-101","lat":35.620553,"lon":139.472583,"males_count":4,"females_count":3,"multipurposes_count":1},{"name":"多摩川緑地公園前公衆トイレ","province":"東京都","city":"稲城市","address":"東京都稲城市矢野口3750","lat":35.64375,"lon":139.521972,"males_count":3,"females_count":2,"multipurposes_count":1},{"name":"大丸げんき公園","province":"東京都","city":"稲城市","address":"東京都稲城市大丸593-13","lat":35.64595,"lon":139.49543,"males_count":2,"females_count":1,"multipurposes_count":1},{"name":"三沢川親水公園","province":"東京都","city":"稲城市","address":"東京都稲城市矢野口1653-4","lat":35.636349,"lon":139.516229,"males_count":2,"females_count":1,"multipurposes_count":1},{"name":"稲城北緑地公園","province":"東京都","city":"稲城市","address":"東京都稲城市東長沼2996","lat":35.649741,"lon":139.504279,"males_count":3,"females_count":2,"multipurposes_count":1},{"name":"稲城北緑地公園","province":"東京都","city":"稲城市","address":"東京都稲城市東長沼2996","lat":35.649984,"lon":139.501026,"males_count":3,"females_count":2,"multipurposes_count":0},{"name":"東長沼七曲見晴児童公園","province":"東京都","city":"稲城市","address":"東京都稲城市東長沼3116","lat":35.635973,"lon":139.502664,"males_count":2,"females_count":1,"multipurposes_count":0},{"name":"亀山下公園","province":"東京都","city":"稲城市","address":"東京都稲城市東長沼2115-1","lat":35.638013,"lon":139.500703,"males_count":2,"females_count":2,"multipurposes_count":1},{"name":"本郷公園","province":"東京都","city":"稲城市","address":"東京都稲城市東長沼2129","lat":35.637231,"lon":139.505786,"males_count":3,"females_count":2,"multipurposes_count":0},{"name":"淡雪公園","province":"東京都","city":"稲城市","address":"東京都稲城市東長沼1705","lat":35.638339,"lon":139.507633,"males_count":3,"females_count":2,"multipurposes_count":0},{"name":"吉方公園","province":"東京都","city":"稲城市","address":"東京都稲城市東長沼1728","lat":35.639188,"lon":139.510873,"males_count":3,"females_count":2,"multipurposes_count":0},{"name":"大丸公園","province":"東京都","city":"稲城市","address":"東京都稲城市大丸1097","lat":35.647494,"lon":139.487273,"males_count":2,"females_count":2,"multipurposes_count":1},{"name":"大丸第二公園","province":"東京都","city":"稲城市","address":"東京都稲城市大丸3111-1","lat":35.650721,"lon":139.496801,"males_count":3,"females_count":2,"multipurposes_count":0},{"name":"大丸河原方児童公園","province":"東京都","city":"稲城市","address":"東京都稲城市大丸3119-1","lat":35.65052,"lon":139.493647,"males_count":3,"females_count":2,"multipurposes_count":1},{"name":"山崎公園","province":"東京都","city":"稲城市","address":"東京都稲城市大丸694-1","lat":35.644086,"lon":139.497371,"males_count":0,"females_count":0,"multipurposes_count":1},{"name":"東方公園","province":"東京都","city":"稲城市","address":"東京都稲城市大丸66-6","lat":35.64215,"lon":139.499336,"males_count":0,"females_count":0,"multipurposes_count":1},{"name":"百村神化児童公園","province":"東京都","city":"稲城市","address":"東京都稲城市百村1609-1","lat":35.636171,"lon":139.49776,"males_count":2,"females_count":1,"multipurposes_count":0},{"name":"竪神社公園","province":"東京都","city":"稲城市","address":"東京都稲城市百村2129-31","lat":35.635064,"lon":139.488,"males_count":1,"females_count":1,"multipurposes_count":0},{"name":"稲城中央公園","province":"東京都","city":"稲城市","address":"東京都稲城市向陽台4-1-1","lat":35.636707,"lon":139.485818,"males_count":4,"females_count":2,"multipurposes_count":1},{"name":"稲城中央公園","province":"東京都","city":"稲城市","address":"東京都稲城市向陽台4-1-1","lat":35.636596,"lon":139.486394,"males_count":0,"females_count":0,"multipurposes_count":0},{"name":"城山公園","province":"東京都","city":"稲城市","address":"東京都稲城市向陽台4-6","lat":35.641385,"lon":139.489068,"males_count":6,"females_count":4,"multipurposes_count":1},{"name":"うさぎさん公園","province":"東京都","city":"稲城市","address":"東京都稲城市向陽台6-6","lat":35.641089,"lon":139.491319,"males_count":0,"females_count":0,"multipurposes_count":0},{"name":"ひつじさん公園","province":"東京都","city":"稲城市","address":"東京都稲城市向陽台6-14","lat":35.643491,"lon":139.492421,"males_count":0,"females_count":0,"multipurposes_count":1},{"name":"もぐらさん公園","province":"東京都","city":"稲城市","address":"東京都稲城市向陽台2-4-73","lat":35.639626,"lon":139.492539,"males_count":1,"females_count":0,"multipurposes_count":1},{"name":"稲城中央公園","province":"東京都","city":"稲城市","address":"東京都稲城市長峰1-1","lat":35.63374,"lon":139.488245,"males_count":6,"females_count":4,"multipurposes_count":1},{"name":"稲城中央公園","province":"東京都","city":"稲城市","address":"東京都稲城市長峰1-1","lat":35.633795,"lon":139.485285,"males_count":2,"females_count":1,"multipurposes_count":1},{"name":"若葉台公園","province":"東京都","city":"稲城市","address":"東京都稲城市若葉台1-24-1","lat":35.62746,"lon":139.472141,"males_count":4,"females_count":2,"multipurposes_count":1},{"name":"若葉台公園","province":"東京都","city":"稲城市","address":"東京都稲城市若葉台1-19-1","lat":35.625016,"lon":139.473837,"males_count":3,"females_count":2,"multipurposes_count":0},{"name":"けやき公園","province":"東京都","city":"稲城市","address":"東京都稲城市若葉台3-2","lat":35.62416,"lon":139.468977,"males_count":1,"females_count":0,"multipurposes_count":0},{"name":"上谷戸親水公園","province":"東京都","city":"稲城市","address":"東京都稲城市若葉台1-28-2","lat":35.627062,"lon":139.481592,"males_count":3,"females_count":2,"multipurposes_count":1},{"name":"平尾近隣公園","province":"東京都","city":"稲城市","address":"東京都稲城市平尾3-7-20","lat":35.60977,"lon":139.48966,"males_count":3,"females_count":2,"multipurposes_count":1},{"name":"若葉台駅前トイレ","province":"東京都","city":"稲城市","address":"東京都稲城市東若葉台2-101","lat":35.620553,"lon":139.472583,"males_count":4,"females_count":3,"multipurposes_count":1},{"name":"多摩川緑地公園前公衆トイレ","province":"東京都","city":"稲城市","address":"東京都稲城市矢野口3750","lat":35.64375,"lon":139.521972,"males_count":3,"females_count":2,"multipurposes_count":1},{"name":"大丸げんき公園","province":"東京都","city":"稲城市","address":"東京都稲城市大丸593-13","lat":35.64595,"lon":139.49543,"males_count":2,"females_count":1,"multipurposes_count":1}]}