{"keyword":"月間","data":[{"name":"稲城第七小学校","province":"東京都","city":"稲城市","address":"東京都稲城市矢野口1901-2","lat":35.635444,"lon":139.520444},{"name":"稲城第三中学校","province":"東京都","city":"稲城市","address":"東京都稲城市矢野口3043","lat":35.636472,"lon":139.507447},{"name":"公益社団法人九段盡性園","province":"東京都","city":"稲城市","address":"東京都稲城市矢野口3750-11","lat":35.643931,"lon":139.520878},{"name":"南山小学校","province":"東京都","city":"稲城市","address":"東京都稲城市矢野口3635","lat":35.629003,"lon":139.508708},{"name":"稲城第一小学校","province":"東京都","city":"稲城市","address":"東京都稲城市東長沼956","lat":35.640722,"lon":139.511836},{"name":"吉方公園","province":"東京都","city":"稲城市","address":"東京都稲城市東長沼1728","lat":35.640722,"lon":139.511836},{"name":"北緑地公園","province":"東京都","city":"稲城市","address":"東京都稲城市東長沼2996","lat":35.649699,"lon":139.502367},{"name":"稲城第三小学校","province":"東京都","city":"稲城市","address":"東京都稲城市大丸100","lat":35.64325,"lon":139.499753},{"name":"大丸公園","province":"東京都","city":"稲城市","address":"東京都稲城市大丸1097","lat":35.646508,"lon":139.48268},{"name":"稲城第六小学校","province":"東京都","city":"稲城市","address":"東京都稲城市大丸2110","lat":35.64969,"lon":139.499281},{"name":"大丸第二公園","province":"東京都","city":"稲城市","address":"東京都稲城市大丸3111-1","lat":35.650637,"lon":139.497136},{"name":"稲城第一中学校","province":"東京都","city":"稲城市","address":"東京都稲城市百村23","lat":35.64038,"lon":139.499463},{"name":"稲城第二小学校","province":"東京都","city":"稲城市","address":"東京都稲城市坂浜590","lat":35.625041,"lon":139.485403},{"name":"稲城第二中学校","province":"東京都","city":"稲城市","address":"東京都稲城市坂浜1340","lat":35.616,"lon":139.481114},{"name":"都立若葉総合高校グラウンド","province":"東京都","city":"稲城市","address":"東京都稲城市坂浜1434-3","lat":35.618045,"lon":139.477933},{"name":"複合施設ふれんど平尾","province":"東京都","city":"稲城市","address":"東京都稲城市平尾1-9-1","lat":35.613726,"lon":139.492582},{"name":"平尾小学校","province":"東京都","city":"稲城市","address":"東京都稲城市平尾3-1-3","lat":35.61121,"lon":139.488684},{"name":"平尾近隣公園","province":"東京都","city":"稲城市","address":"東京都稲城市平尾3-7-20","lat":35.609812,"lon":139.490554},{"name":"稲城第四小学校","province":"東京都","city":"稲城市","address":"東京都稲城市押立1250","lat":35.644604,"lon":139.516468},{"name":"稲城第四中学校","province":"東京都","city":"稲城市","address":"東京都稲城市押立1768","lat":35.645806,"lon":139.518059},{"name":"稲城第五中学校","province":"東京都","city":"稲城市","address":"東京都稲城市向陽台3-1-1","lat":35.638305,"lon":139.489628},{"name":"向陽台小学校","province":"東京都","city":"稲城市","address":"東京都稲城市向陽台3-2","lat":35.637419,"lon":139.48814},{"name":"稲城中央公園野球場","province":"東京都","city":"稲城市","address":"東京都稲城市向陽台4-1-1","lat":35.635986,"lon":139.486008},{"name":"城山公園","province":"東京都","city":"稲城市","address":"東京都稲城市向陽台4-6","lat":35.645573,"lon":139.488434},{"name":"城山小学校","province":"東京都","city":"稲城市","address":"東京都稲城市向陽台6-17","lat":35.642639,"lon":139.493308},{"name":"稲城中央公園総合グラウンド","province":"東京都","city":"稲城市","address":"東京都稲城市長峰1-1","lat":35.631828,"lon":139.486252},{"name":"長峰小学校","province":"東京都","city":"稲城市","address":"東京都稲城市長峰2-8","lat":35.629757,"lon":139.483308},{"name":"若葉台公園","province":"東京都","city":"稲城市","address":"東京都稲城市若葉台1-19-1","lat":35.626075,"lon":139.472741},{"name":"稲城第六中学校","province":"東京都","city":"稲城市","address":"東京都稲城市若葉台3-11","lat":35.624835,"lon":139.467015},{"name":"若葉台小学校","province":"東京都","city":"稲城市","address":"東京都稲城市若葉台4-5","lat":35.626899,"lon":139.468146},{"name":"友遊クラブＩ合","province":"東京都","city":"稲城市","address":"稲城市大丸951-14","lat":35.64924,"lon":139.493088},{"name":"地域生活支援センター「える」","province":"東京都","city":"稲城市","address":"稲城市東長沼1559番地","lat":35.640934,"lon":139.507338},{"name":"ウイング稲城","province":"東京都","city":"稲城市","address":"稲城市百村1623-1パストラルハイム稲城E-2","lat":35.635585,"lon":139.501475},{"name":"友遊クラブⅡ合","province":"東京都","city":"稲城市","address":"稲城市矢野口310-12階","lat":35.641523,"lon":139.521396},{"name":"稲城市子ども家庭支援センター","province":"東京都","city":"稲城市","address":"稲城市東長沼2115-23階","lat":35.637781,"lon":139.501344},{"name":"稲城市子ども家庭支援センター","province":"東京都","city":"稲城市","address":"稲城市東長沼2115-23階","lat":35.63477,"lon":139.50426},{"name":"稲城市子ども家庭支援センター","province":"東京都","city":"稲城市","address":"稲城市東長沼2115-23階(本郷分室)","lat":35.6487,"lon":139.50085},{"name":"矢野口","province":"東京都","city":"稲城市","address":"東京都稲城市矢野口619-14","lat":35.64052914,"lon":139.51973182},{"name":"稲城長沼駅入口","province":"東京都","city":"稲城市","address":"東京都稲城市東長沼1040","lat":35.643933,"lon":139.50127698},{"name":"稲城大丸","province":"東京都","city":"稲城市","address":"東京都稲城市大丸928","lat":35.64816504,"lon":139.49215773},{"name":"稲城市福祉センター入口","province":"東京都","city":"稲城市","address":"東京都稲城市百村1601-2","lat":35.63885051,"lon":139.49928032},{"name":"稲城中央橋","province":"東京都","city":"稲城市","address":"東京都稲城市百村1605","lat":35.63702576,"lon":139.49798609},{"name":"稲城向陽台中央","province":"東京都","city":"稲城市","address":"東京都稲城市向陽台6丁目8-1","lat":35.64144378,"lon":139.49028885},{"name":"稲城市役所前","province":"東京都","city":"稲城市","address":"東京都稲城市東長沼2107-1","lat":35.63863147,"lon":139.50471896},{"name":"稲城市立病院","province":"東京都","city":"稲城市","address":"東京都稲城市大丸1171","lat":35.64687587,"lon":139.48586645},{"name":"向陽台給水所","province":"東京都","city":"稲城市","address":"東京都稲城市向陽台6丁目16","lat":35.64371302,"lon":139.49304963},{"name":"稲城市立中央公園総合グラウンド","province":"東京都","city":"稲城市","address":"東京都稲城市長峰1丁目1","lat":35.63011248,"lon":139.48798717},{"name":"稲城市立南山グラウンド","province":"東京都","city":"稲城市","address":"東京都稲城市東長沼2406-1","lat":35.63525992,"lon":139.50477484},{"name":"若葉総合高等学校","province":"東京都","city":"稲城市","address":"東京都稲城市坂浜1434-3","lat":35.61828624,"lon":139.47916351},{"name":"稲城市役所西側車庫棟","province":"東京都","city":"稲城市","address":"東京都稲城市東長沼2111","lat":35.63795935,"lon":139.50426905},{"name":"稲城市本庁舎","province":"東京都","city":"稲城市","address":"稲城市東長沼2111","lat":35.63796,"lon":139.50427},{"name":"稲城消防署","province":"東京都","city":"稲城市","address":"稲城市東長沼2111","lat":35.63793,"lon":139.505064},{"name":"稲城市立中央公園総合グラウンド","province":"東京都","city":"稲城市","address":"稲城市長峰1-1","lat":35.63077,"lon":139.4861},{"name":"友遊クラブＩ合","province":"東京都","city":"稲城市","address":"稲城市大丸951-14","lat":35.64924,"lon":139.493088},{"name":"地域生活支援センター「える」","province":"東京都","city":"稲城市","address":"稲城市東長沼1559番地","lat":35.640934,"lon":139.507338},{"name":"ウイング稲城","province":"東京都","city":"稲城市","address":"稲城市百村1623-1パストラルハイム稲城E-2","lat":35.635585,"lon":139.501475},{"name":"友遊クラブⅡ合","province":"東京都","city":"稲城市","address":"稲城市矢野口310-12階","lat":35.641523,"lon":139.521396},{"name":"稲城市子ども家庭支援センター","province":"東京都","city":"稲城市","address":"稲城市東長沼2115-23階","lat":35.637781,"lon":139.501344},{"name":"稲城市子ども家庭支援センター","province":"東京都","city":"稲城市","address":"稲城市東長沼2115-23階","lat":35.63477,"lon":139.50426},{"name":"稲城市子ども家庭支援センター","province":"東京都","city":"稲城市","address":"稲城市東長沼2115-23階(本郷分室)","lat":35.6487,"lon":139.50085},{"name":"矢野口","province":"東京都","city":"稲城市","address":"東京都稲城市矢野口619-14","lat":35.64052914,"lon":139.51973182},{"name":"稲城長沼駅入口","province":"東京都","city":"稲城市","address":"東京都稲城市東長沼1040","lat":35.643933,"lon":139.50127698},{"name":"稲城大丸","province":"東京都","city":"稲城市","address":"東京都稲城市大丸928","lat":35.64816504,"lon":139.49215773},{"name":"稲城市福祉センター入口","province":"東京都","city":"稲城市","address":"東京都稲城市百村1601-2","lat":35.63885051,"lon":139.49928032},{"name":"稲城中央橋","province":"東京都","city":"稲城市","address":"東京都稲城市百村1605","lat":35.63702576,"lon":139.49798609},{"name":"稲城向陽台中央","province":"東京都","city":"稲城市","address":"東京都稲城市向陽台6丁目8-1","lat":35.64144378,"lon":139.49028885},{"name":"稲城市役所前","province":"東京都","city":"稲城市","address":"東京都稲城市東長沼2107-1","lat":35.63863147,"lon":139.50471896},{"name":"稲城市立病院","province":"東京都","city":"稲城市","address":"東京都稲城市大丸1171","lat":35.64687587,"lon":139.48586645},{"name":"向陽台給水所","province":"東京都","city":"稲城市","address":"東京都稲城市向陽台6丁目16","lat":35.64371302,"lon":139.49304963},{"name":"稲城市立中央公園総合グラウンド","province":"東京都","city":"稲城市","address":"東京都稲城市長峰1丁目1","lat":35.63011248,"lon":139.48798717},{"name":"稲城市立南山グラウンド","province":"東京都","city":"稲城市","address":"東京都稲城市東長沼2406-1","lat":35.63525992,"lon":139.50477484},{"name":"若葉総合高等学校","province":"東京都","city":"稲城市","address":"東京都稲城市坂浜1434-3","lat":35.61828624,"lon":139.47916351},{"name":"友遊クラブＩ合","province":"東京都","city":"稲城市","address":"稲城市大丸951-14","lat":35.64924,"lon":139.493088},{"name":"地域生活支援センター「える」","province":"東京都","city":"稲城市","address":"稲城市東長沼1559番地","lat":35.640934,"lon":139.507338},{"name":"ウイング稲城","province":"東京都","city":"稲城市","address":"稲城市百村1623-1パストラルハイム稲城E-2","lat":35.635585,"lon":139.501475},{"name":"友遊クラブⅡ合","province":"東京都","city":"稲城市","address":"稲城市矢野口310-12階","lat":35.641523,"lon":139.521396},{"name":"稲城市子ども家庭支援センター","province":"東京都","city":"稲城市","address":"稲城市東長沼2115-23階","lat":35.637781,"lon":139.501344},{"name":"稲城市子ども家庭支援センター","province":"東京都","city":"稲城市","address":"稲城市東長沼2115-23階","lat":35.63477,"lon":139.50426},{"name":"稲城市子ども家庭支援センター","province":"東京都","city":"稲城市","address":"稲城市東長沼2115-23階(本郷分室)","lat":35.6487,"lon":139.50085},{"name":"矢野口","province":"東京都","city":"稲城市","address":"東京都稲城市矢野口619-14","lat":35.64052914,"lon":139.51973182},{"name":"稲城長沼駅入口","province":"東京都","city":"稲城市","address":"東京都稲城市東長沼1040","lat":35.643933,"lon":139.50127698},{"name":"稲城大丸","province":"東京都","city":"稲城市","address":"東京都稲城市大丸928","lat":35.64816504,"lon":139.49215773},{"name":"稲城市福祉センター入口","province":"東京都","city":"稲城市","address":"東京都稲城市百村1601-2","lat":35.63885051,"lon":139.49928032},{"name":"稲城中央橋","province":"東京都","city":"稲城市","address":"東京都稲城市百村1605","lat":35.63702576,"lon":139.49798609},{"name":"稲城向陽台中央","province":"東京都","city":"稲城市","address":"東京都稲城市向陽台6丁目8-1","lat":35.64144378,"lon":139.49028885},{"name":"稲城市役所前","province":"東京都","city":"稲城市","address":"東京都稲城市東長沼2107-1","lat":35.63863147,"lon":139.50471896},{"name":"稲城市立病院","province":"東京都","city":"稲城市","address":"東京都稲城市大丸1171","lat":35.64687587,"lon":139.48586645},{"name":"向陽台給水所","province":"東京都","city":"稲城市","address":"東京都稲城市向陽台6丁目16","lat":35.64371302,"lon":139.49304963},{"name":"稲城市立中央公園総合グラウンド","province":"東京都","city":"稲城市","address":"東京都稲城市長峰1丁目1","lat":35.63011248,"lon":139.48798717},{"name":"稲城市立南山グラウンド","province":"東京都","city":"稲城市","address":"東京都稲城市東長沼2406-1","lat":35.63525992,"lon":139.50477484},{"name":"若葉総合高等学校","province":"東京都","city":"稲城市","address":"東京都稲城市坂浜1434-3","lat":35.61828624,"lon":139.47916351},{"name":"友遊クラブＩ合","province":"東京都","city":"稲城市","address":"稲城市大丸951-14","lat":35.64924,"lon":139.493088},{"name":"地域生活支援センター「える」","province":"東京都","city":"稲城市","address":"稲城市東長沼1559番地","lat":35.640934,"lon":139.507338},{"name":"ウイング稲城","province":"東京都","city":"稲城市","address":"稲城市百村1623-1パストラルハイム稲城E-2","lat":35.635585,"lon":139.501475},{"name":"友遊クラブⅡ合","province":"東京都","city":"稲城市","address":"稲城市矢野口310-12階","lat":35.641523,"lon":139.521396},{"name":"稲城市子ども家庭支援センター","province":"東京都","city":"稲城市","address":"稲城市東長沼2115-23階","lat":35.637781,"lon":139.501344},{"name":"稲城市子ども家庭支援センター","province":"東京都","city":"稲城市","address":"稲城市東長沼2115-23階","lat":35.63477,"lon":139.50426},{"name":"稲城市子ども家庭支援センター","province":"東京都","city":"稲城市","address":"稲城市東長沼2115-23階(本郷分室)","lat":35.6487,"lon":139.50085},{"name":"稲城市立中央公園総合グラウンド","province":"東京都","city":"稲城市","address":"東京都稲城市長峰1丁目1","lat":35.63011248,"lon":139.48798717},{"name":"稲城市立南山グラウンド","province":"東京都","city":"稲城市","address":"東京都稲城市東長沼2406-1","lat":35.63525992,"lon":139.50477484},{"name":"若葉総合高等学校","province":"東京都","city":"稲城市","address":"東京都稲城市坂浜1434-3","lat":35.61828624,"lon":139.47916351},{"name":"友遊クラブＩ合","province":"東京都","city":"稲城市","address":"稲城市大丸951-14","lat":35.64924,"lon":139.493088},{"name":"地域生活支援センター「える」","province":"東京都","city":"稲城市","address":"稲城市東長沼1559番地","lat":35.640934,"lon":139.507338},{"name":"ウイング稲城","province":"東京都","city":"稲城市","address":"稲城市百村1623-1パストラルハイム稲城E-2","lat":35.635585,"lon":139.501475},{"name":"友遊クラブⅡ合","province":"東京都","city":"稲城市","address":"稲城市矢野口310-12階","lat":35.641523,"lon":139.521396},{"name":"稲城市子ども家庭支援センター","province":"東京都","city":"稲城市","address":"稲城市東長沼2115-23階","lat":35.637781,"lon":139.501344},{"name":"稲城市子ども家庭支援センター","province":"東京都","city":"稲城市","address":"稲城市東長沼2115-23階","lat":35.63477,"lon":139.50426},{"name":"稲城市子ども家庭支援センター","province":"東京都","city":"稲城市","address":"稲城市東長沼2115-23階(本郷分室)","lat":35.6487,"lon":139.50085},{"name":"若葉総合高等学校","province":"東京都","city":"稲城市","address":"東京都稲城市坂浜1434-3","lat":35.61828624,"lon":139.47916351},{"name":"友遊クラブＩ合","province":"東京都","city":"稲城市","address":"稲城市大丸951-14","lat":35.64924,"lon":139.493088},{"name":"地域生活支援センター「える」","province":"東京都","city":"稲城市","address":"稲城市東長沼1559番地","lat":35.640934,"lon":139.507338},{"name":"ウイング稲城","province":"東京都","city":"稲城市","address":"稲城市百村1623-1パストラルハイム稲城E-2","lat":35.635585,"lon":139.501475},{"name":"友遊クラブⅡ合","province":"東京都","city":"稲城市","address":"稲城市矢野口310-12階","lat":35.641523,"lon":139.521396},{"name":"稲城市子ども家庭支援センター","province":"東京都","city":"稲城市","address":"稲城市東長沼2115-23階","lat":35.637781,"lon":139.501344},{"name":"稲城市子ども家庭支援センター","province":"東京都","city":"稲城市","address":"稲城市東長沼2115-23階","lat":35.63477,"lon":139.50426},{"name":"稲城市子ども家庭支援センター","province":"東京都","city":"稲城市","address":"稲城市東長沼2115-23階(本郷分室)","lat":35.6487,"lon":139.50085},{"name":"若葉総合高等学校","province":"東京都","city":"稲城市","address":"東京都稲城市坂浜1434-3","lat":35.61828624,"lon":139.47916351},{"name":"友遊クラブＩ合","province":"東京都","city":"稲城市","address":"稲城市大丸951-14","lat":35.64924,"lon":139.493088},{"name":"地域生活支援センター「える」","province":"東京都","city":"稲城市","address":"稲城市東長沼1559番地","lat":35.640934,"lon":139.507338},{"name":"ウイング稲城","province":"東京都","city":"稲城市","address":"稲城市百村1623-1パストラルハイム稲城E-2","lat":35.635585,"lon":139.501475},{"name":"友遊クラブⅡ合","province":"東京都","city":"稲城市","address":"稲城市矢野口310-12階","lat":35.641523,"lon":139.521396},{"name":"稲城市子ども家庭支援センター","province":"東京都","city":"稲城市","address":"稲城市東長沼2115-23階","lat":35.637781,"lon":139.501344},{"name":"稲城市子ども家庭支援センター","province":"東京都","city":"稲城市","address":"稲城市東長沼2115-23階","lat":35.63477,"lon":139.50426},{"name":"稲城市子ども家庭支援センター","province":"東京都","city":"稲城市","address":"稲城市東長沼2115-23階(本郷分室)","lat":35.6487,"lon":139.50085},{"name":"若葉総合高等学校","province":"東京都","city":"稲城市","address":"東京都稲城市坂浜1434-3","lat":35.61828624,"lon":139.47916351},{"name":"友遊クラブＩ合","province":"東京都","city":"稲城市","address":"稲城市大丸951-14","lat":35.64924,"lon":139.493088},{"name":"地域生活支援センター「える」","province":"東京都","city":"稲城市","address":"稲城市東長沼1559番地","lat":35.640934,"lon":139.507338},{"name":"ウイング稲城","province":"東京都","city":"稲城市","address":"稲城市百村1623-1パストラルハイム稲城E-2","lat":35.635585,"lon":139.501475},{"name":"友遊クラブⅡ合","province":"東京都","city":"稲城市","address":"稲城市矢野口310-12階","lat":35.641523,"lon":139.521396},{"name":"稲城市子ども家庭支援センター","province":"東京都","city":"稲城市","address":"稲城市東長沼2115-23階","lat":35.637781,"lon":139.501344},{"name":"稲城市子ども家庭支援センター","province":"東京都","city":"稲城市","address":"稲城市東長沼2115-23階","lat":35.63477,"lon":139.50426},{"name":"稲城市子ども家庭支援センター","province":"東京都","city":"稲城市","address":"稲城市東長沼2115-23階(本郷分室)","lat":35.6487,"lon":139.50085},{"name":"若葉総合高等学校","province":"東京都","city":"稲城市","address":"東京都稲城市坂浜1434-3","lat":35.61828624,"lon":139.47916351},{"name":"友遊クラブＩ合","province":"東京都","city":"稲城市","address":"稲城市大丸951-14","lat":35.64924,"lon":139.493088},{"name":"地域生活支援センター「える」","province":"東京都","city":"稲城市","address":"稲城市東長沼1559番地","lat":35.640934,"lon":139.507338},{"name":"ウイング稲城","province":"東京都","city":"稲城市","address":"稲城市百村1623-1パストラルハイム稲城E-2","lat":35.635585,"lon":139.501475},{"name":"友遊クラブⅡ合","province":"東京都","city":"稲城市","address":"稲城市矢野口310-12階","lat":35.641523,"lon":139.521396},{"name":"稲城市子ども家庭支援センター","province":"東京都","city":"稲城市","address":"稲城市東長沼2115-23階","lat":35.637781,"lon":139.501344},{"name":"稲城市子ども家庭支援センター","province":"東京都","city":"稲城市","address":"稲城市東長沼2115-23階","lat":35.63477,"lon":139.50426},{"name":"稲城市子ども家庭支援センター","province":"東京都","city":"稲城市","address":"稲城市東長沼2115-23階(本郷分室)","lat":35.6487,"lon":139.50085},{"name":"若葉総合高等学校","province":"東京都","city":"稲城市","address":"東京都稲城市坂浜1434-3","lat":35.61828624,"lon":139.47916351},{"name":"友遊クラブＩ合","province":"東京都","city":"稲城市","address":"稲城市大丸951-14","lat":35.64924,"lon":139.493088},{"name":"地域生活支援センター「える」","province":"東京都","city":"稲城市","address":"稲城市東長沼1559番地","lat":35.640934,"lon":139.507338},{"name":"ウイング稲城","province":"東京都","city":"稲城市","address":"稲城市百村1623-1パストラルハイム稲城E-2","lat":35.635585,"lon":139.501475},{"name":"友遊クラブⅡ合","province":"東京都","city":"稲城市","address":"稲城市矢野口310-12階","lat":35.641523,"lon":139.521396},{"name":"稲城市子ども家庭支援センター","province":"東京都","city":"稲城市","address":"稲城市東長沼2115-23階","lat":35.637781,"lon":139.501344},{"name":"稲城市子ども家庭支援センター","province":"東京都","city":"稲城市","address":"稲城市東長沼2115-23階","lat":35.63477,"lon":139.50426},{"name":"稲城市子ども家庭支援センター","province":"東京都","city":"稲城市","address":"稲城市東長沼2115-23階(本郷分室)","lat":35.6487,"lon":139.50085},{"name":"若葉総合高等学校","province":"東京都","city":"稲城市","address":"東京都稲城市坂浜1434-3","lat":35.61828624,"lon":139.47916351},{"name":"友遊クラブＩ合","province":"東京都","city":"稲城市","address":"稲城市大丸951-14","lat":35.64924,"lon":139.493088},{"name":"地域生活支援センター「える」","province":"東京都","city":"稲城市","address":"稲城市東長沼1559番地","lat":35.640934,"lon":139.507338},{"name":"ウイング稲城","province":"東京都","city":"稲城市","address":"稲城市百村1623-1パストラルハイム稲城E-2","lat":35.635585,"lon":139.501475},{"name":"友遊クラブⅡ合","province":"東京都","city":"稲城市","address":"稲城市矢野口310-12階","lat":35.641523,"lon":139.521396},{"name":"稲城市子ども家庭支援センター","province":"東京都","city":"稲城市","address":"稲城市東長沼2115-23階","lat":35.637781,"lon":139.501344},{"name":"稲城市子ども家庭支援センター","province":"東京都","city":"稲城市","address":"稲城市東長沼2115-23階","lat":35.63477,"lon":139.50426},{"name":"稲城市子ども家庭支援センター","province":"東京都","city":"稲城市","address":"稲城市東長沼2115-23階(本郷分室)","lat":35.6487,"lon":139.50085},{"name":"若葉総合高等学校","province":"東京都","city":"稲城市","address":"東京都稲城市坂浜1434-3","lat":35.61828624,"lon":139.47916351},{"name":"友遊クラブＩ合","province":"東京都","city":"稲城市","address":"稲城市大丸951-14","lat":35.64924,"lon":139.493088},{"name":"地域生活支援センター「える」","province":"東京都","city":"稲城市","address":"稲城市東長沼1559番地","lat":35.640934,"lon":139.507338},{"name":"ウイング稲城","province":"東京都","city":"稲城市","address":"稲城市百村1623-1パストラルハイム稲城E-2","lat":35.635585,"lon":139.501475},{"name":"友遊クラブⅡ合","province":"東京都","city":"稲城市","address":"稲城市矢野口310-12階","lat":35.641523,"lon":139.521396},{"name":"稲城市子ども家庭支援センター","province":"東京都","city":"稲城市","address":"稲城市東長沼2115-23階","lat":35.637781,"lon":139.501344},{"name":"稲城市子ども家庭支援センター","province":"東京都","city":"稲城市","address":"稲城市東長沼2115-23階","lat":35.63477,"lon":139.50426},{"name":"稲城市子ども家庭支援センター","province":"東京都","city":"稲城市","address":"稲城市東長沼2115-23階(本郷分室)","lat":35.6487,"lon":139.50085},{"name":"若葉総合高等学校","province":"東京都","city":"稲城市","address":"東京都稲城市坂浜1434-3","lat":35.61828624,"lon":139.47916351},{"name":"友遊クラブＩ合","province":"東京都","city":"稲城市","address":"稲城市大丸951-14","lat":35.64924,"lon":139.493088},{"name":"地域生活支援センター「える」","province":"東京都","city":"稲城市","address":"稲城市東長沼1559番地","lat":35.640934,"lon":139.507338},{"name":"ウイング稲城","province":"東京都","city":"稲城市","address":"稲城市百村1623-1パストラルハイム稲城E-2","lat":35.635585,"lon":139.501475},{"name":"友遊クラブⅡ合","province":"東京都","city":"稲城市","address":"稲城市矢野口310-12階","lat":35.641523,"lon":139.521396},{"name":"稲城市子ども家庭支援センター","province":"東京都","city":"稲城市","address":"稲城市東長沼2115-23階","lat":35.637781,"lon":139.501344},{"name":"稲城市子ども家庭支援センター","province":"東京都","city":"稲城市","address":"稲城市東長沼2115-23階","lat":35.63477,"lon":139.50426},{"name":"稲城市子ども家庭支援センター","province":"東京都","city":"稲城市","address":"稲城市東長沼2115-23階(本郷分室)","lat":35.6487,"lon":139.50085},{"name":"若葉総合高等学校","province":"東京都","city":"稲城市","address":"東京都稲城市坂浜1434-3","lat":35.61828624,"lon":139.47916351},{"name":"友遊クラブＩ合","province":"東京都","city":"稲城市","address":"稲城市大丸951-14","lat":35.64924,"lon":139.493088},{"name":"地域生活支援センター「える」","province":"東京都","city":"稲城市","address":"稲城市東長沼1559番地","lat":35.640934,"lon":139.507338},{"name":"ウイング稲城","province":"東京都","city":"稲城市","address":"稲城市百村1623-1パストラルハイム稲城E-2","lat":35.635585,"lon":139.501475},{"name":"友遊クラブⅡ合","province":"東京都","city":"稲城市","address":"稲城市矢野口310-12階","lat":35.641523,"lon":139.521396},{"name":"稲城市子ども家庭支援センター","province":"東京都","city":"稲城市","address":"稲城市東長沼2115-23階","lat":35.637781,"lon":139.501344},{"name":"稲城市子ども家庭支援センター","province":"東京都","city":"稲城市","address":"稲城市東長沼2115-23階","lat":35.63477,"lon":139.50426},{"name":"稲城市子ども家庭支援センター","province":"東京都","city":"稲城市","address":"稲城市東長沼2115-23階(本郷分室)","lat":35.6487,"lon":139.50085},{"name":"若葉総合高等学校","province":"東京都","city":"稲城市","address":"東京都稲城市坂浜1434-3","lat":35.61828624,"lon":139.47916351},{"name":"友遊クラブＩ合","province":"東京都","city":"稲城市","address":"稲城市大丸951-14","lat":35.64924,"lon":139.493088},{"name":"地域生活支援センター「える」","province":"東京都","city":"稲城市","address":"稲城市東長沼1559番地","lat":35.640934,"lon":139.507338},{"name":"ウイング稲城","province":"東京都","city":"稲城市","address":"稲城市百村1623-1パストラルハイム稲城E-2","lat":35.635585,"lon":139.501475},{"name":"友遊クラブⅡ合","province":"東京都","city":"稲城市","address":"稲城市矢野口310-12階","lat":35.641523,"lon":139.521396},{"name":"稲城市子ども家庭支援センター","province":"東京都","city":"稲城市","address":"稲城市東長沼2115-23階","lat":35.637781,"lon":139.501344},{"name":"稲城市子ども家庭支援センター","province":"東京都","city":"稲城市","address":"稲城市東長沼2115-23階","lat":35.63477,"lon":139.50426},{"name":"稲城市子ども家庭支援センター","province":"東京都","city":"稲城市","address":"稲城市東長沼2115-23階(本郷分室)","lat":35.6487,"lon":139.50085},{"name":"若葉総合高等学校","province":"東京都","city":"稲城市","address":"東京都稲城市坂浜1434-3","lat":35.61828624,"lon":139.47916351},{"name":"友遊クラブＩ合","province":"東京都","city":"稲城市","address":"稲城市大丸951-14","lat":35.64924,"lon":139.493088},{"name":"地域生活支援センター「える」","province":"東京都","city":"稲城市","address":"稲城市東長沼1559番地","lat":35.640934,"lon":139.507338},{"name":"ウイング稲城","province":"東京都","city":"稲城市","address":"稲城市百村1623-1パストラルハイム稲城E-2","lat":35.635585,"lon":139.501475},{"name":"友遊クラブⅡ合","province":"東京都","city":"稲城市","address":"稲城市矢野口310-12階","lat":35.641523,"lon":139.521396},{"name":"稲城市子ども家庭支援センター","province":"東京都","city":"稲城市","address":"稲城市東長沼2115-23階","lat":35.637781,"lon":139.501344},{"name":"稲城市子ども家庭支援センター","province":"東京都","city":"稲城市","address":"稲城市東長沼2115-23階","lat":35.63477,"lon":139.50426},{"name":"稲城市子ども家庭支援センター","province":"東京都","city":"稲城市","address":"稲城市東長沼2115-23階(本郷分室)","lat":35.6487,"lon":139.50085},{"name":"若葉総合高等学校","province":"東京都","city":"稲城市","address":"東京都稲城市坂浜1434-3","lat":35.61828624,"lon":139.47916351},{"name":"友遊クラブＩ合","province":"東京都","city":"稲城市","address":"稲城市大丸951-14","lat":35.64924,"lon":139.493088},{"name":"地域生活支援センター「える」","province":"東京都","city":"稲城市","address":"稲城市東長沼1559番地","lat":35.640934,"lon":139.507338},{"name":"ウイング稲城","province":"東京都","city":"稲城市","address":"稲城市百村1623-1パストラルハイム稲城E-2","lat":35.635585,"lon":139.501475},{"name":"友遊クラブⅡ合","province":"東京都","city":"稲城市","address":"稲城市矢野口310-12階","lat":35.641523,"lon":139.521396},{"name":"稲城市子ども家庭支援センター","province":"東京都","city":"稲城市","address":"稲城市東長沼2115-23階","lat":35.637781,"lon":139.501344},{"name":"稲城市子ども家庭支援センター","province":"東京都","city":"稲城市","address":"稲城市東長沼2115-23階","lat":35.63477,"lon":139.50426},{"name":"稲城市子ども家庭支援センター","province":"東京都","city":"稲城市","address":"稲城市東長沼2115-23階(本郷分室)","lat":35.6487,"lon":139.50085},{"name":"若葉総合高等学校","province":"東京都","city":"稲城市","address":"東京都稲城市坂浜1434-3","lat":35.61828624,"lon":139.47916351},{"name":"友遊クラブＩ合","province":"東京都","city":"稲城市","address":"稲城市大丸951-14","lat":35.64924,"lon":139.493088},{"name":"地域生活支援センター「える」","province":"東京都","city":"稲城市","address":"稲城市東長沼1559番地","lat":35.640934,"lon":139.507338},{"name":"ウイング稲城","province":"東京都","city":"稲城市","address":"稲城市百村1623-1パストラルハイム稲城E-2","lat":35.635585,"lon":139.501475},{"name":"友遊クラブⅡ合","province":"東京都","city":"稲城市","address":"稲城市矢野口310-12階","lat":35.641523,"lon":139.521396},{"name":"稲城市子ども家庭支援センター","province":"東京都","city":"稲城市","address":"稲城市東長沼2115-23階","lat":35.637781,"lon":139.501344},{"name":"稲城市子ども家庭支援センター","province":"東京都","city":"稲城市","address":"稲城市東長沼2115-23階","lat":35.63477,"lon":139.50426},{"name":"稲城市子ども家庭支援センター","province":"東京都","city":"稲城市","address":"稲城市東長沼2115-23階(本郷分室)","lat":35.6487,"lon":139.50085},{"name":"若葉総合高等学校","province":"東京都","city":"稲城市","address":"東京都稲城市坂浜1434-3","lat":35.61828624,"lon":139.47916351},{"name":"友遊クラブＩ合","province":"東京都","city":"稲城市","address":"稲城市大丸951-14","lat":35.64924,"lon":139.493088},{"name":"地域生活支援センター「える」","province":"東京都","city":"稲城市","address":"稲城市東長沼1559番地","lat":35.640934,"lon":139.507338},{"name":"ウイング稲城","province":"東京都","city":"稲城市","address":"稲城市百村1623-1パストラルハイム稲城E-2","lat":35.635585,"lon":139.501475},{"name":"友遊クラブⅡ合","province":"東京都","city":"稲城市","address":"稲城市矢野口310-12階","lat":35.641523,"lon":139.521396},{"name":"稲城市子ども家庭支援センター","province":"東京都","city":"稲城市","address":"稲城市東長沼2115-23階","lat":35.637781,"lon":139.501344},{"name":"稲城市子ども家庭支援センター","province":"東京都","city":"稲城市","address":"稲城市東長沼2115-23階","lat":35.63477,"lon":139.50426},{"name":"稲城市子ども家庭支援センター","province":"東京都","city":"稲城市","address":"稲城市東長沼2115-23階(本郷分室)","lat":35.6487,"lon":139.50085},{"name":"友遊クラブＩ合","province":"東京都","city":"稲城市","address":"稲城市大丸951-14","lat":35.64924,"lon":139.493088},{"name":"地域生活支援センター「える」","province":"東京都","city":"稲城市","address":"稲城市東長沼1559番地","lat":35.640934,"lon":139.507338},{"name":"ウイング稲城","province":"東京都","city":"稲城市","address":"稲城市百村1623-1パストラルハイム稲城E-2","lat":35.635585,"lon":139.501475},{"name":"友遊クラブⅡ合","province":"東京都","city":"稲城市","address":"稲城市矢野口310-12階","lat":35.641523,"lon":139.521396},{"name":"稲城市子ども家庭支援センター","province":"東京都","city":"稲城市","address":"稲城市東長沼2115-23階","lat":35.637781,"lon":139.501344},{"name":"稲城市子ども家庭支援センター","province":"東京都","city":"稲城市","address":"稲城市東長沼2115-23階","lat":35.63477,"lon":139.50426},{"name":"稲城市子ども家庭支援センター","province":"東京都","city":"稲城市","address":"稲城市東長沼2115-23階(本郷分室)","lat":35.6487,"lon":139.50085},{"name":"友遊クラブＩ合","province":"東京都","city":"稲城市","address":"稲城市大丸951-14","lat":35.64924,"lon":139.493088},{"name":"地域生活支援センター「える」","province":"東京都","city":"稲城市","address":"稲城市東長沼1559番地","lat":35.640934,"lon":139.507338},{"name":"ウイング稲城","province":"東京都","city":"稲城市","address":"稲城市百村1623-1パストラルハイム稲城E-2","lat":35.635585,"lon":139.501475},{"name":"友遊クラブⅡ合","province":"東京都","city":"稲城市","address":"稲城市矢野口310-12階","lat":35.641523,"lon":139.521396},{"name":"稲城市子ども家庭支援センター","province":"東京都","city":"稲城市","address":"稲城市東長沼2115-23階","lat":35.637781,"lon":139.501344},{"name":"稲城市子ども家庭支援センター","province":"東京都","city":"稲城市","address":"稲城市東長沼2115-23階","lat":35.63477,"lon":139.50426},{"name":"稲城市子ども家庭支援センター","province":"東京都","city":"稲城市","address":"稲城市東長沼2115-23階(本郷分室)","lat":35.6487,"lon":139.50085},{"name":"友遊クラブＩ合","province":"東京都","city":"稲城市","address":"稲城市大丸951-14","lat":35.64924,"lon":139.493088},{"name":"地域生活支援センター「える」","province":"東京都","city":"稲城市","address":"稲城市東長沼1559番地","lat":35.640934,"lon":139.507338},{"name":"ウイング稲城","province":"東京都","city":"稲城市","address":"稲城市百村1623-1パストラルハイム稲城E-2","lat":35.635585,"lon":139.501475},{"name":"友遊クラブⅡ合","province":"東京都","city":"稲城市","address":"稲城市矢野口310-12階","lat":35.641523,"lon":139.521396},{"name":"稲城市子ども家庭支援センター","province":"東京都","city":"稲城市","address":"稲城市東長沼2115-23階","lat":35.637781,"lon":139.501344},{"name":"稲城市子ども家庭支援センター","province":"東京都","city":"稲城市","address":"稲城市東長沼2115-23階","lat":35.63477,"lon":139.50426},{"name":"稲城市子ども家庭支援センター","province":"東京都","city":"稲城市","address":"稲城市東長沼2115-23階(本郷分室)","lat":35.6487,"lon":139.50085},{"name":"友遊クラブＩ合","province":"東京都","city":"稲城市","address":"稲城市大丸951-14","lat":35.64924,"lon":139.493088},{"name":"地域生活支援センター「える」","province":"東京都","city":"稲城市","address":"稲城市東長沼1559番地","lat":35.640934,"lon":139.507338},{"name":"ウイング稲城","province":"東京都","city":"稲城市","address":"稲城市百村1623-1パストラルハイム稲城E-2","lat":35.635585,"lon":139.501475},{"name":"友遊クラブⅡ合","province":"東京都","city":"稲城市","address":"稲城市矢野口310-12階","lat":35.641523,"lon":139.521396},{"name":"稲城市子ども家庭支援センター","province":"東京都","city":"稲城市","address":"稲城市東長沼2115-23階","lat":35.637781,"lon":139.501344},{"name":"稲城市子ども家庭支援センター","province":"東京都","city":"稲城市","address":"稲城市東長沼2115-23階","lat":35.63477,"lon":139.50426},{"name":"稲城市子ども家庭支援センター","province":"東京都","city":"稲城市","address":"稲城市東長沼2115-23階(本郷分室)","lat":35.6487,"lon":139.50085},{"name":"友遊クラブＩ合","province":"東京都","city":"稲城市","address":"稲城市大丸951-14","lat":35.64924,"lon":139.493088},{"name":"地域生活支援センター「える」","province":"東京都","city":"稲城市","address":"稲城市東長沼1559番地","lat":35.640934,"lon":139.507338},{"name":"ウイング稲城","province":"東京都","city":"稲城市","address":"稲城市百村1623-1パストラルハイム稲城E-2","lat":35.635585,"lon":139.501475},{"name":"友遊クラブⅡ合","province":"東京都","city":"稲城市","address":"稲城市矢野口310-12階","lat":35.641523,"lon":139.521396},{"name":"稲城市子ども家庭支援センター","province":"東京都","city":"稲城市","address":"稲城市東長沼2115-23階","lat":35.637781,"lon":139.501344},{"name":"稲城市子ども家庭支援センター","province":"東京都","city":"稲城市","address":"稲城市東長沼2115-23階","lat":35.63477,"lon":139.50426},{"name":"稲城市子ども家庭支援センター","province":"東京都","city":"稲城市","address":"稲城市東長沼2115-23階(本郷分室)","lat":35.6487,"lon":139.50085},{"name":"友遊クラブＩ合","province":"東京都","city":"稲城市","address":"稲城市大丸951-14","lat":35.64924,"lon":139.493088},{"name":"地域生活支援センター「える」","province":"東京都","city":"稲城市","address":"稲城市東長沼1559番地","lat":35.640934,"lon":139.507338},{"name":"ウイング稲城","province":"東京都","city":"稲城市","address":"稲城市百村1623-1パストラルハイム稲城E-2","lat":35.635585,"lon":139.501475},{"name":"友遊クラブⅡ合","province":"東京都","city":"稲城市","address":"稲城市矢野口310-12階","lat":35.641523,"lon":139.521396},{"name":"稲城市子ども家庭支援センター","province":"東京都","city":"稲城市","address":"稲城市東長沼2115-23階","lat":35.637781,"lon":139.501344},{"name":"稲城市子ども家庭支援センター","province":"東京都","city":"稲城市","address":"稲城市東長沼2115-23階","lat":35.63477,"lon":139.50426},{"name":"稲城市子ども家庭支援センター","province":"東京都","city":"稲城市","address":"稲城市東長沼2115-23階(本郷分室)","lat":35.6487,"lon":139.50085},{"name":"友遊クラブＩ合","province":"東京都","city":"稲城市","address":"稲城市大丸951-14","lat":35.64924,"lon":139.493088},{"name":"地域生活支援センター「える」","province":"東京都","city":"稲城市","address":"稲城市東長沼1559番地","lat":35.640934,"lon":139.507338},{"name":"ウイング稲城","province":"東京都","city":"稲城市","address":"稲城市百村1623-1パストラルハイム稲城E-2","lat":35.635585,"lon":139.501475},{"name":"友遊クラブⅡ合","province":"東京都","city":"稲城市","address":"稲城市矢野口310-12階","lat":35.641523,"lon":139.521396},{"name":"稲城市子ども家庭支援センター","province":"東京都","city":"稲城市","address":"稲城市東長沼2115-23階","lat":35.637781,"lon":139.501344},{"name":"稲城市子ども家庭支援センター","province":"東京都","city":"稲城市","address":"稲城市東長沼2115-23階","lat":35.63477,"lon":139.50426},{"name":"稲城市子ども家庭支援センター","province":"東京都","city":"稲城市","address":"稲城市東長沼2115-23階(本郷分室)","lat":35.6487,"lon":139.50085},{"name":"友遊クラブＩ合","province":"東京都","city":"稲城市","address":"稲城市大丸951-14","lat":35.64924,"lon":139.493088},{"name":"地域生活支援センター「える」","province":"東京都","city":"稲城市","address":"稲城市東長沼1559番地","lat":35.640934,"lon":139.507338},{"name":"ウイング稲城","province":"東京都","city":"稲城市","address":"稲城市百村1623-1パストラルハイム稲城E-2","lat":35.635585,"lon":139.501475},{"name":"友遊クラブⅡ合","province":"東京都","city":"稲城市","address":"稲城市矢野口310-12階","lat":35.641523,"lon":139.521396},{"name":"稲城市子ども家庭支援センター","province":"東京都","city":"稲城市","address":"稲城市東長沼2115-23階","lat":35.637781,"lon":139.501344},{"name":"稲城市子ども家庭支援センター","province":"東京都","city":"稲城市","address":"稲城市東長沼2115-23階","lat":35.63477,"lon":139.50426},{"name":"稲城市子ども家庭支援センター","province":"東京都","city":"稲城市","address":"稲城市東長沼2115-23階(本郷分室)","lat":35.6487,"lon":139.50085},{"name":"友遊クラブＩ合","province":"東京都","city":"稲城市","address":"稲城市大丸951-14","lat":35.64924,"lon":139.493088},{"name":"地域生活支援センター「える」","province":"東京都","city":"稲城市","address":"稲城市東長沼1559番地","lat":35.640934,"lon":139.507338},{"name":"ウイング稲城","province":"東京都","city":"稲城市","address":"稲城市百村1623-1パストラルハイム稲城E-2","lat":35.635585,"lon":139.501475},{"name":"友遊クラブⅡ合","province":"東京都","city":"稲城市","address":"稲城市矢野口310-12階","lat":35.641523,"lon":139.521396},{"name":"稲城市子ども家庭支援センター","province":"東京都","city":"稲城市","address":"稲城市東長沼2115-23階","lat":35.637781,"lon":139.501344},{"name":"稲城市子ども家庭支援センター","province":"東京都","city":"稲城市","address":"稲城市東長沼2115-23階","lat":35.63477,"lon":139.50426},{"name":"稲城市子ども家庭支援センター","province":"東京都","city":"稲城市","address":"稲城市東長沼2115-23階(本郷分室)","lat":35.6487,"lon":139.50085},{"name":"友遊クラブＩ合","province":"東京都","city":"稲城市","address":"稲城市大丸951-14","lat":35.64924,"lon":139.493088},{"name":"地域生活支援センター「える」","province":"東京都","city":"稲城市","address":"稲城市東長沼1559番地","lat":35.640934,"lon":139.507338},{"name":"ウイング稲城","province":"東京都","city":"稲城市","address":"稲城市百村1623-1パストラルハイム稲城E-2","lat":35.635585,"lon":139.501475},{"name":"友遊クラブⅡ合","province":"東京都","city":"稲城市","address":"稲城市矢野口310-12階","lat":35.641523,"lon":139.521396},{"name":"稲城市子ども家庭支援センター","province":"東京都","city":"稲城市","address":"稲城市東長沼2115-23階","lat":35.637781,"lon":139.501344},{"name":"稲城市子ども家庭支援センター","province":"東京都","city":"稲城市","address":"稲城市東長沼2115-23階","lat":35.63477,"lon":139.50426},{"name":"稲城市子ども家庭支援センター","province":"東京都","city":"稲城市","address":"稲城市東長沼2115-23階(本郷分室)","lat":35.6487,"lon":139.50085},{"name":"友遊クラブＩ合","province":"東京都","city":"稲城市","address":"稲城市大丸951-14","lat":35.64924,"lon":139.493088},{"name":"地域生活支援センター「える」","province":"東京都","city":"稲城市","address":"稲城市東長沼1559番地","lat":35.640934,"lon":139.507338},{"name":"ウイング稲城","province":"東京都","city":"稲城市","address":"稲城市百村1623-1パストラルハイム稲城E-2","lat":35.635585,"lon":139.501475},{"name":"友遊クラブⅡ合","province":"東京都","city":"稲城市","address":"稲城市矢野口310-12階","lat":35.641523,"lon":139.521396},{"name":"稲城市子ども家庭支援センター","province":"東京都","city":"稲城市","address":"稲城市東長沼2115-23階","lat":35.637781,"lon":139.501344},{"name":"稲城市子ども家庭支援センター","province":"東京都","city":"稲城市","address":"稲城市東長沼2115-23階","lat":35.63477,"lon":139.50426},{"name":"稲城市子ども家庭支援センター","province":"東京都","city":"稲城市","address":"稲城市東長沼2115-23階(本郷分室)","lat":35.6487,"lon":139.50085},{"name":"友遊クラブＩ合","province":"東京都","city":"稲城市","address":"稲城市大丸951-14","lat":35.64924,"lon":139.493088},{"name":"地域生活支援センター「える」","province":"東京都","city":"稲城市","address":"稲城市東長沼1559番地","lat":35.640934,"lon":139.507338},{"name":"ウイング稲城","province":"東京都","city":"稲城市","address":"稲城市百村1623-1パストラルハイム稲城E-2","lat":35.635585,"lon":139.501475},{"name":"友遊クラブⅡ合","province":"東京都","city":"稲城市","address":"稲城市矢野口310-12階","lat":35.641523,"lon":139.521396},{"name":"稲城市子ども家庭支援センター","province":"東京都","city":"稲城市","address":"稲城市東長沼2115-23階","lat":35.637781,"lon":139.501344},{"name":"稲城市子ども家庭支援センター","province":"東京都","city":"稲城市","address":"稲城市東長沼2115-23階","lat":35.63477,"lon":139.50426},{"name":"稲城市子ども家庭支援センター","province":"東京都","city":"稲城市","address":"稲城市東長沼2115-23階(本郷分室)","lat":35.6487,"lon":139.50085},{"name":"友遊クラブＩ合","province":"東京都","city":"稲城市","address":"稲城市大丸951-14","lat":35.64924,"lon":139.493088},{"name":"地域生活支援センター「える」","province":"東京都","city":"稲城市","address":"稲城市東長沼1559番地","lat":35.640934,"lon":139.507338},{"name":"ウイング稲城","province":"東京都","city":"稲城市","address":"稲城市百村1623-1パストラルハイム稲城E-2","lat":35.635585,"lon":139.501475},{"name":"友遊クラブⅡ合","province":"東京都","city":"稲城市","address":"稲城市矢野口310-12階","lat":35.641523,"lon":139.521396},{"name":"稲城市子ども家庭支援センター","province":"東京都","city":"稲城市","address":"稲城市東長沼2115-23階","lat":35.637781,"lon":139.501344},{"name":"稲城市子ども家庭支援センター","province":"東京都","city":"稲城市","address":"稲城市東長沼2115-23階","lat":35.63477,"lon":139.50426},{"name":"稲城市子ども家庭支援センター","province":"東京都","city":"稲城市","address":"稲城市東長沼2115-23階(本郷分室)","lat":35.6487,"lon":139.50085},{"name":"友遊クラブＩ合","province":"東京都","city":"稲城市","address":"稲城市大丸951-14","lat":35.64924,"lon":139.493088},{"name":"地域生活支援センター「える」","province":"東京都","city":"稲城市","address":"稲城市東長沼1559番地","lat":35.640934,"lon":139.507338},{"name":"ウイング稲城","province":"東京都","city":"稲城市","address":"稲城市百村1623-1パストラルハイム稲城E-2","lat":35.635585,"lon":139.501475},{"name":"友遊クラブⅡ合","province":"東京都","city":"稲城市","address":"稲城市矢野口310-12階","lat":35.641523,"lon":139.521396},{"name":"稲城市子ども家庭支援センター","province":"東京都","city":"稲城市","address":"稲城市東長沼2115-23階","lat":35.637781,"lon":139.501344},{"name":"稲城市子ども家庭支援センター","province":"東京都","city":"稲城市","address":"稲城市東長沼2115-23階","lat":35.63477,"lon":139.50426},{"name":"稲城市子ども家庭支援センター","province":"東京都","city":"稲城市","address":"稲城市東長沼2115-23階(本郷分室)","lat":35.6487,"lon":139.50085},{"name":"友遊クラブＩ合","province":"東京都","city":"稲城市","address":"稲城市大丸951-14","lat":35.64924,"lon":139.493088},{"name":"地域生活支援センター「える」","province":"東京都","city":"稲城市","address":"稲城市東長沼1559番地","lat":35.640934,"lon":139.507338},{"name":"ウイング稲城","province":"東京都","city":"稲城市","address":"稲城市百村1623-1パストラルハイム稲城E-2","lat":35.635585,"lon":139.501475},{"name":"友遊クラブⅡ合","province":"東京都","city":"稲城市","address":"稲城市矢野口310-12階","lat":35.641523,"lon":139.521396},{"name":"稲城市子ども家庭支援センター","province":"東京都","city":"稲城市","address":"稲城市東長沼2115-23階","lat":35.637781,"lon":139.501344},{"name":"稲城市子ども家庭支援センター","province":"東京都","city":"稲城市","address":"稲城市東長沼2115-23階","lat":35.63477,"lon":139.50426},{"name":"稲城市子ども家庭支援センター","province":"東京都","city":"稲城市","address":"稲城市東長沼2115-23階(本郷分室)","lat":35.6487,"lon":139.50085},{"name":"友遊クラブＩ合","province":"東京都","city":"稲城市","address":"稲城市大丸951-14","lat":35.64924,"lon":139.493088},{"name":"地域生活支援センター「える」","province":"東京都","city":"稲城市","address":"稲城市東長沼1559番地","lat":35.640934,"lon":139.507338},{"name":"ウイング稲城","province":"東京都","city":"稲城市","address":"稲城市百村1623-1パストラルハイム稲城E-2","lat":35.635585,"lon":139.501475},{"name":"友遊クラブⅡ合","province":"東京都","city":"稲城市","address":"稲城市矢野口310-12階","lat":35.641523,"lon":139.521396},{"name":"稲城市子ども家庭支援センター","province":"東京都","city":"稲城市","address":"稲城市東長沼2115-23階","lat":35.637781,"lon":139.501344},{"name":"稲城市子ども家庭支援センター","province":"東京都","city":"稲城市","address":"稲城市東長沼2115-23階","lat":35.63477,"lon":139.50426},{"name":"稲城市子ども家庭支援センター","province":"東京都","city":"稲城市","address":"稲城市東長沼2115-23階(本郷分室)","lat":35.6487,"lon":139.50085},{"name":"友遊クラブＩ合","province":"東京都","city":"稲城市","address":"稲城市大丸951-14","lat":35.64924,"lon":139.493088},{"name":"地域生活支援センター「える」","province":"東京都","city":"稲城市","address":"稲城市東長沼1559番地","lat":35.640934,"lon":139.507338},{"name":"ウイング稲城","province":"東京都","city":"稲城市","address":"稲城市百村1623-1パストラルハイム稲城E-2","lat":35.635585,"lon":139.501475},{"name":"友遊クラブⅡ合","province":"東京都","city":"稲城市","address":"稲城市矢野口310-12階","lat":35.641523,"lon":139.521396},{"name":"稲城市子ども家庭支援センター","province":"東京都","city":"稲城市","address":"稲城市東長沼2115-23階","lat":35.637781,"lon":139.501344},{"name":"稲城市子ども家庭支援センター","province":"東京都","city":"稲城市","address":"稲城市東長沼2115-23階","lat":35.63477,"lon":139.50426},{"name":"稲城市子ども家庭支援センター","province":"東京都","city":"稲城市","address":"稲城市東長沼2115-23階(本郷分室)","lat":35.6487,"lon":139.50085},{"name":"友遊クラブＩ合","province":"東京都","city":"稲城市","address":"稲城市大丸951-14","lat":35.64924,"lon":139.493088},{"name":"地域生活支援センター「える」","province":"東京都","city":"稲城市","address":"稲城市東長沼1559番地","lat":35.640934,"lon":139.507338},{"name":"ウイング稲城","province":"東京都","city":"稲城市","address":"稲城市百村1623-1パストラルハイム稲城E-2","lat":35.635585,"lon":139.501475},{"name":"友遊クラブⅡ合","province":"東京都","city":"稲城市","address":"稲城市矢野口310-12階","lat":35.641523,"lon":139.521396},{"name":"稲城市子ども家庭支援センター","province":"東京都","city":"稲城市","address":"稲城市東長沼2115-23階","lat":35.637781,"lon":139.501344},{"name":"稲城市子ども家庭支援センター","province":"東京都","city":"稲城市","address":"稲城市東長沼2115-23階","lat":35.63477,"lon":139.50426},{"name":"稲城市子ども家庭支援センター","province":"東京都","city":"稲城市","address":"稲城市東長沼2115-23階(本郷分室)","lat":35.6487,"lon":139.50085},{"name":"友遊クラブＩ合","province":"東京都","city":"稲城市","address":"稲城市大丸951-14","lat":35.64924,"lon":139.493088},{"name":"地域生活支援センター「える」","province":"東京都","city":"稲城市","address":"稲城市東長沼1559番地","lat":35.640934,"lon":139.507338},{"name":"ウイング稲城","province":"東京都","city":"稲城市","address":"稲城市百村1623-1パストラルハイム稲城E-2","lat":35.635585,"lon":139.501475},{"name":"友遊クラブⅡ合","province":"東京都","city":"稲城市","address":"稲城市矢野口310-12階","lat":35.641523,"lon":139.521396},{"name":"稲城市子ども家庭支援センター","province":"東京都","city":"稲城市","address":"稲城市東長沼2115-23階","lat":35.637781,"lon":139.501344},{"name":"稲城市子ども家庭支援センター","province":"東京都","city":"稲城市","address":"稲城市東長沼2115-23階","lat":35.63477,"lon":139.50426},{"name":"稲城市子ども家庭支援センター","province":"東京都","city":"稲城市","address":"稲城市東長沼2115-23階(本郷分室)","lat":35.6487,"lon":139.50085},{"name":"友遊クラブＩ合","province":"東京都","city":"稲城市","address":"稲城市大丸951-14","lat":35.64924,"lon":139.493088},{"name":"地域生活支援センター「える」","province":"東京都","city":"稲城市","address":"稲城市東長沼1559番地","lat":35.640934,"lon":139.507338},{"name":"ウイング稲城","province":"東京都","city":"稲城市","address":"稲城市百村1623-1パストラルハイム稲城E-2","lat":35.635585,"lon":139.501475},{"name":"友遊クラブⅡ合","province":"東京都","city":"稲城市","address":"稲城市矢野口310-12階","lat":35.641523,"lon":139.521396},{"name":"稲城市子ども家庭支援センター","province":"東京都","city":"稲城市","address":"稲城市東長沼2115-23階","lat":35.637781,"lon":139.501344},{"name":"稲城市子ども家庭支援センター","province":"東京都","city":"稲城市","address":"稲城市東長沼2115-23階","lat":35.63477,"lon":139.50426},{"name":"稲城市子ども家庭支援センター","province":"東京都","city":"稲城市","address":"稲城市東長沼2115-23階(本郷分室)","lat":35.6487,"lon":139.50085},{"name":"友遊クラブＩ合","province":"東京都","city":"稲城市","address":"稲城市大丸951-14","lat":35.64924,"lon":139.493088},{"name":"地域生活支援センター「える」","province":"東京都","city":"稲城市","address":"稲城市東長沼1559番地","lat":35.640934,"lon":139.507338},{"name":"ウイング稲城","province":"東京都","city":"稲城市","address":"稲城市百村1623-1パストラルハイム稲城E-2","lat":35.635585,"lon":139.501475},{"name":"友遊クラブⅡ合","province":"東京都","city":"稲城市","address":"稲城市矢野口310-12階","lat":35.641523,"lon":139.521396},{"name":"稲城市子ども家庭支援センター","province":"東京都","city":"稲城市","address":"稲城市東長沼2115-23階","lat":35.637781,"lon":139.501344},{"name":"稲城市子ども家庭支援センター","province":"東京都","city":"稲城市","address":"稲城市東長沼2115-23階","lat":35.63477,"lon":139.50426},{"name":"稲城市子ども家庭支援センター","province":"東京都","city":"稲城市","address":"稲城市東長沼2115-23階(本郷分室)","lat":35.6487,"lon":139.50085},{"name":"友遊クラブＩ合","province":"東京都","city":"稲城市","address":"稲城市大丸951-14","lat":35.64924,"lon":139.493088},{"name":"地域生活支援センター「える」","province":"東京都","city":"稲城市","address":"稲城市東長沼1559番地","lat":35.640934,"lon":139.507338},{"name":"ウイング稲城","province":"東京都","city":"稲城市","address":"稲城市百村1623-1パストラルハイム稲城E-2","lat":35.635585,"lon":139.501475},{"name":"友遊クラブⅡ合","province":"東京都","city":"稲城市","address":"稲城市矢野口310-12階","lat":35.641523,"lon":139.521396},{"name":"稲城市子ども家庭支援センター","province":"東京都","city":"稲城市","address":"稲城市東長沼2115-23階","lat":35.637781,"lon":139.501344},{"name":"稲城市子ども家庭支援センター","province":"東京都","city":"稲城市","address":"稲城市東長沼2115-23階","lat":35.63477,"lon":139.50426},{"name":"稲城市子ども家庭支援センター","province":"東京都","city":"稲城市","address":"稲城市東長沼2115-23階(本郷分室)","lat":35.6487,"lon":139.50085},{"name":"友遊クラブＩ合","province":"東京都","city":"稲城市","address":"稲城市大丸951-14","lat":35.64924,"lon":139.493088},{"name":"地域生活支援センター「える」","province":"東京都","city":"稲城市","address":"稲城市東長沼1559番地","lat":35.640934,"lon":139.507338},{"name":"ウイング稲城","province":"東京都","city":"稲城市","address":"稲城市百村1623-1パストラルハイム稲城E-2","lat":35.635585,"lon":139.501475},{"name":"友遊クラブⅡ合","province":"東京都","city":"稲城市","address":"稲城市矢野口310-12階","lat":35.641523,"lon":139.521396},{"name":"稲城市子ども家庭支援センター","province":"東京都","city":"稲城市","address":"稲城市東長沼2115-23階","lat":35.637781,"lon":139.501344},{"name":"稲城市子ども家庭支援センター","province":"東京都","city":"稲城市","address":"稲城市東長沼2115-23階","lat":35.63477,"lon":139.50426},{"name":"稲城市子ども家庭支援センター","province":"東京都","city":"稲城市","address":"稲城市東長沼2115-23階(本郷分室)","lat":35.6487,"lon":139.50085},{"name":"友遊クラブＩ合","province":"東京都","city":"稲城市","address":"稲城市大丸951-14","lat":35.64924,"lon":139.493088},{"name":"地域生活支援センター「える」","province":"東京都","city":"稲城市","address":"稲城市東長沼1559番地","lat":35.640934,"lon":139.507338},{"name":"ウイング稲城","province":"東京都","city":"稲城市","address":"稲城市百村1623-1パストラルハイム稲城E-2","lat":35.635585,"lon":139.501475},{"name":"友遊クラブⅡ合","province":"東京都","city":"稲城市","address":"稲城市矢野口310-12階","lat":35.641523,"lon":139.521396},{"name":"稲城市子ども家庭支援センター","province":"東京都","city":"稲城市","address":"稲城市東長沼2115-23階","lat":35.637781,"lon":139.501344},{"name":"稲城市子ども家庭支援センター","province":"東京都","city":"稲城市","address":"稲城市東長沼2115-23階","lat":35.63477,"lon":139.50426},{"name":"稲城市子ども家庭支援センター","province":"東京都","city":"稲城市","address":"稲城市東長沼2115-23階(本郷分室)","lat":35.6487,"lon":139.50085},{"name":"友遊クラブＩ合","province":"東京都","city":"稲城市","address":"稲城市大丸951-14","lat":35.64924,"lon":139.493088},{"name":"地域生活支援センター「える」","province":"東京都","city":"稲城市","address":"稲城市東長沼1559番地","lat":35.640934,"lon":139.507338},{"name":"ウイング稲城","province":"東京都","city":"稲城市","address":"稲城市百村1623-1パストラルハイム稲城E-2","lat":35.635585,"lon":139.501475},{"name":"友遊クラブⅡ合","province":"東京都","city":"稲城市","address":"稲城市矢野口310-12階","lat":35.641523,"lon":139.521396},{"name":"稲城市子ども家庭支援センター","province":"東京都","city":"稲城市","address":"稲城市東長沼2115-23階","lat":35.637781,"lon":139.501344},{"name":"稲城市子ども家庭支援センター","province":"東京都","city":"稲城市","address":"稲城市東長沼2115-23階","lat":35.63477,"lon":139.50426},{"name":"稲城市子ども家庭支援センター","province":"東京都","city":"稲城市","address":"稲城市東長沼2115-23階(本郷分室)","lat":35.6487,"lon":139.50085},{"name":"友遊クラブＩ合","province":"東京都","city":"稲城市","address":"稲城市大丸951-14","lat":35.64924,"lon":139.493088},{"name":"地域生活支援センター「える」","province":"東京都","city":"稲城市","address":"稲城市東長沼1559番地","lat":35.640934,"lon":139.507338},{"name":"ウイング稲城","province":"東京都","city":"稲城市","address":"稲城市百村1623-1パストラルハイム稲城E-2","lat":35.635585,"lon":139.501475},{"name":"友遊クラブⅡ合","province":"東京都","city":"稲城市","address":"稲城市矢野口310-12階","lat":35.641523,"lon":139.521396},{"name":"稲城市子ども家庭支援センター","province":"東京都","city":"稲城市","address":"稲城市東長沼2115-23階","lat":35.637781,"lon":139.501344},{"name":"稲城市子ども家庭支援センター","province":"東京都","city":"稲城市","address":"稲城市東長沼2115-23階","lat":35.63477,"lon":139.50426},{"name":"稲城市子ども家庭支援センター","province":"東京都","city":"稲城市","address":"稲城市東長沼2115-23階(本郷分室)","lat":35.6487,"lon":139.50085},{"name":"友遊クラブＩ合","province":"東京都","city":"稲城市","address":"稲城市大丸951-14","lat":35.64924,"lon":139.493088},{"name":"地域生活支援センター「える」","province":"東京都","city":"稲城市","address":"稲城市東長沼1559番地","lat":35.640934,"lon":139.507338},{"name":"ウイング稲城","province":"東京都","city":"稲城市","address":"稲城市百村1623-1パストラルハイム稲城E-2","lat":35.635585,"lon":139.501475},{"name":"友遊クラブⅡ合","province":"東京都","city":"稲城市","address":"稲城市矢野口310-12階","lat":35.641523,"lon":139.521396},{"name":"稲城市子ども家庭支援センター","province":"東京都","city":"稲城市","address":"稲城市東長沼2115-23階","lat":35.637781,"lon":139.501344},{"name":"稲城市子ども家庭支援センター","province":"東京都","city":"稲城市","address":"稲城市東長沼2115-23階","lat":35.63477,"lon":139.50426},{"name":"稲城市子ども家庭支援センター","province":"東京都","city":"稲城市","address":"稲城市東長沼2115-23階(本郷分室)","lat":35.6487,"lon":139.50085},{"name":"友遊クラブＩ合","province":"東京都","city":"稲城市","address":"稲城市大丸951-14","lat":35.64924,"lon":139.493088},{"name":"地域生活支援センター「える」","province":"東京都","city":"稲城市","address":"稲城市東長沼1559番地","lat":35.640934,"lon":139.507338},{"name":"ウイング稲城","province":"東京都","city":"稲城市","address":"稲城市百村1623-1パストラルハイム稲城E-2","lat":35.635585,"lon":139.501475},{"name":"友遊クラブⅡ合","province":"東京都","city":"稲城市","address":"稲城市矢野口310-12階","lat":35.641523,"lon":139.521396},{"name":"稲城市子ども家庭支援センター","province":"東京都","city":"稲城市","address":"稲城市東長沼2115-23階","lat":35.637781,"lon":139.501344},{"name":"稲城市子ども家庭支援センター","province":"東京都","city":"稲城市","address":"稲城市東長沼2115-23階","lat":35.63477,"lon":139.50426},{"name":"稲城市子ども家庭支援センター","province":"東京都","city":"稲城市","address":"稲城市東長沼2115-23階(本郷分室)","lat":35.6487,"lon":139.50085},{"name":"友遊クラブＩ合","province":"東京都","city":"稲城市","address":"稲城市大丸951-14","lat":35.64924,"lon":139.493088},{"name":"地域生活支援センター「える」","province":"東京都","city":"稲城市","address":"稲城市東長沼1559番地","lat":35.640934,"lon":139.507338},{"name":"ウイング稲城","province":"東京都","city":"稲城市","address":"稲城市百村1623-1パストラルハイム稲城E-2","lat":35.635585,"lon":139.501475},{"name":"友遊クラブⅡ合","province":"東京都","city":"稲城市","address":"稲城市矢野口310-12階","lat":35.641523,"lon":139.521396},{"name":"稲城市子ども家庭支援センター","province":"東京都","city":"稲城市","address":"稲城市東長沼2115-23階","lat":35.637781,"lon":139.501344},{"name":"稲城市子ども家庭支援センター","province":"東京都","city":"稲城市","address":"稲城市東長沼2115-23階","lat":35.63477,"lon":139.50426},{"name":"稲城市子ども家庭支援センター","province":"東京都","city":"稲城市","address":"稲城市東長沼2115-23階(本郷分室)","lat":35.6487,"lon":139.50085},{"name":"友遊クラブＩ合","province":"東京都","city":"稲城市","address":"稲城市大丸951-14","lat":35.64924,"lon":139.493088},{"name":"地域生活支援センター「える」","province":"東京都","city":"稲城市","address":"稲城市東長沼1559番地","lat":35.640934,"lon":139.507338},{"name":"ウイング稲城","province":"東京都","city":"稲城市","address":"稲城市百村1623-1パストラルハイム稲城E-2","lat":35.635585,"lon":139.501475},{"name":"友遊クラブⅡ合","province":"東京都","city":"稲城市","address":"稲城市矢野口310-12階","lat":35.641523,"lon":139.521396},{"name":"稲城市子ども家庭支援センター","province":"東京都","city":"稲城市","address":"稲城市東長沼2115-23階","lat":35.637781,"lon":139.501344},{"name":"稲城市子ども家庭支援センター","province":"東京都","city":"稲城市","address":"稲城市東長沼2115-23階","lat":35.63477,"lon":139.50426},{"name":"稲城市子ども家庭支援センター","province":"東京都","city":"稲城市","address":"稲城市東長沼2115-23階(本郷分室)","lat":35.6487,"lon":139.50085},{"name":"友遊クラブＩ合","province":"東京都","city":"稲城市","address":"稲城市大丸951-14","lat":35.64924,"lon":139.493088},{"name":"地域生活支援センター「える」","province":"東京都","city":"稲城市","address":"稲城市東長沼1559番地","lat":35.640934,"lon":139.507338},{"name":"ウイング稲城","province":"東京都","city":"稲城市","address":"稲城市百村1623-1パストラルハイム稲城E-2","lat":35.635585,"lon":139.501475},{"name":"友遊クラブⅡ合","province":"東京都","city":"稲城市","address":"稲城市矢野口310-12階","lat":35.641523,"lon":139.521396},{"name":"稲城市子ども家庭支援センター","province":"東京都","city":"稲城市","address":"稲城市東長沼2115-23階","lat":35.637781,"lon":139.501344},{"name":"稲城市子ども家庭支援センター","province":"東京都","city":"稲城市","address":"稲城市東長沼2115-23階","lat":35.63477,"lon":139.50426},{"name":"稲城市子ども家庭支援センター","province":"東京都","city":"稲城市","address":"稲城市東長沼2115-23階(本郷分室)","lat":35.6487,"lon":139.50085}]}