{"keyword":"椅子","data":[{"name":"稲城市役所","province":"東京都","city":"稲城市","address":"東京都稲城市東長沼2111","lat":35.63806,"lon":139.50442},{"name":"稲城市役所","province":"東京都","city":"稲城市","address":"東京都稲城市東長沼2111","lat":35.63797,"lon":139.504819},{"name":"上平尾消防出張所","province":"東京都","city":"稲城市","address":"東京都稲城市平尾4丁目15-4","lat":35.61463,"lon":139.484434},{"name":"中央文化センター","province":"東京都","city":"稲城市","address":"東京都稲城市東長沼2111","lat":35.63802,"lon":139.503787},{"name":"第二文化センター","province":"東京都","city":"稲城市","address":"東京都稲城市矢野口1780","lat":35.6353,"lon":139.518365},{"name":"第三文化センター","province":"東京都","city":"稲城市","address":"東京都稲城市平尾1丁目20-5","lat":35.61316,"lon":139.492466},{"name":"第三文化センター","province":"東京都","city":"稲城市","address":"東京都稲城市平尾1丁目20-5","lat":35.61311,"lon":139.492516},{"name":"第四文化センター","province":"東京都","city":"稲城市","address":"東京都稲城市東長沼271","lat":35.64591,"lon":139.505343},{"name":"城山文化センター","province":"東京都","city":"稲城市","address":"東京都稲城市向陽台6丁目7-6","lat":35.64134,"lon":139.490795},{"name":"稲城市立病院","province":"東京都","city":"稲城市","address":"東京都稲城市大丸1171","lat":35.64675,"lon":139.48517},{"name":"稲城市立病院","province":"東京都","city":"稲城市","address":"東京都稲城市大丸1171","lat":35.64666,"lon":139.484968},{"name":"稲城市立病院","province":"東京都","city":"稲城市","address":"東京都稲城市大丸1171","lat":35.64676,"lon":139.485157},{"name":"稲城市立病院　健診・外来棟","province":"東京都","city":"稲城市","address":"東京都稲城市大丸1171","lat":35.64687,"lon":139.486158},{"name":"稲城市立病院　健診・外来棟","province":"東京都","city":"稲城市","address":"東京都稲城市大丸","lat":35.64695,"lon":139.485759},{"name":"稲城市立病院　健診・外来棟","province":"東京都","city":"稲城市","address":"東京都稲城市大丸1171","lat":35.646804,"lon":139.485173},{"name":"稲城市保健センター","province":"東京都","city":"稲城市","address":"東京都稲城市百村112-1","lat":35.63829,"lon":139.497485},{"name":"オーエンス健康プラザ","province":"東京都","city":"稲城市","address":"東京都稲城市大丸1171","lat":35.646825,"lon":139.486115},{"name":"オーエンス健康プラザ","province":"東京都","city":"稲城市","address":"東京都稲城市大丸1171","lat":35.64699,"lon":139.486108},{"name":"オーエンス健康プラザ","province":"東京都","city":"稲城市","address":"東京都稲城市大丸1171","lat":35.646915,"lon":139.486198},{"name":"稲城市立中央図書館","province":"東京都","city":"稲城市","address":"東京都稲城市向陽台4丁目6","lat":35.64535,"lon":139.48851},{"name":"城山体験学習館","province":"東京都","city":"稲城市","address":"東京都稲城市向陽台4丁目6-18","lat":35.64574,"lon":139.48792},{"name":"地域振興プラザ","province":"東京都","city":"稲城市","address":"東京都稲城市東長沼2112-1","lat":35.63784,"lon":139.505896},{"name":"稲城市立iプラザ","province":"東京都","city":"稲城市","address":"東京都稲城市若葉台2丁目5-2","lat":35.62125,"lon":139.47211},{"name":"稲城市立iプラザ","province":"東京都","city":"稲城市","address":"東京都稲城市若葉台2丁目5-2","lat":35.62099,"lon":139.472202},{"name":"稲城市立iプラザ","province":"東京都","city":"稲城市","address":"東京都稲城市若葉台2丁目5-2","lat":35.62102,"lon":139.472343},{"name":"稲城市立iプラザ","province":"東京都","city":"稲城市","address":"東京都稲城市若葉台2丁目5-2","lat":35.621,"lon":139.472085},{"name":"押立ふれあい会館","province":"東京都","city":"稲城市","address":"東京都稲城市押立663","lat":35.64969,"lon":139.511159},{"name":"中央公民館ホール","province":"東京都","city":"稲城市","address":"東京都稲城市東長沼2111","lat":35.63835,"lon":139.503772},{"name":"三沢川親水公園","province":"東京都","city":"稲城市","address":"東京都稲城市矢野口","lat":35.63634,"lon":139.516182},{"name":"稲城北緑地公園","province":"東京都","city":"稲城市","address":"東京都稲城市東長沼","lat":35.64971,"lon":139.504257},{"name":"亀山下公園","province":"東京都","city":"稲城市","address":"東京都稲城市東長沼","lat":35.63803,"lon":139.500671},{"name":"大丸公園","province":"東京都","city":"稲城市","address":"東京都稲城市大丸","lat":35.64745,"lon":139.487278},{"name":"大丸第二公園（プール管理棟内）","province":"東京都","city":"稲城市","address":"東京都稲城市大丸3111-1","lat":35.65039,"lon":139.49687},{"name":"大丸河原方児童公園","province":"東京都","city":"稲城市","address":"東京都稲城市大丸","lat":35.65049,"lon":139.493639},{"name":"山崎公園","province":"東京都","city":"稲城市","address":"東京都稲城市大丸","lat":35.64415,"lon":139.497443},{"name":"東方公園","province":"東京都","city":"稲城市","address":"東京都稲城市大丸","lat":35.64209,"lon":139.499325},{"name":"平尾近隣公園","province":"東京都","city":"稲城市","address":"東京都稲城市平尾3丁目7","lat":35.60977,"lon":139.489686},{"name":"稲城中央公園","province":"東京都","city":"稲城市","address":"東京都稲城市長峰1丁目1","lat":35.63372,"lon":139.4853},{"name":"稲城中央公園","province":"東京都","city":"稲城市","address":"東京都稲城市長峰1丁目1","lat":35.63368,"lon":139.488331},{"name":"稲城中央公園","province":"東京都","city":"稲城市","address":"東京都稲城市向陽台4丁目1","lat":35.63667,"lon":139.485936},{"name":"稲城中央公園","province":"東京都","city":"稲城市","address":"東京都稲城市長峰1丁目1","lat":35.63202,"lon":139.48602},{"name":"稲城中央公園","province":"東京都","city":"稲城市","address":"東京都稲城市長峰1丁目1","lat":35.63365,"lon":139.48732},{"name":"稲城中央公園","province":"東京都","city":"稲城市","address":"東京都稲城市長峰1丁目1-1","lat":35.63149,"lon":139.486232},{"name":"城山公園","province":"東京都","city":"稲城市","address":"東京都稲城市向陽台4丁目6","lat":35.64137,"lon":139.489154},{"name":"ひつじさん公園","province":"東京都","city":"稲城市","address":"東京都稲城市向陽台6丁目14","lat":35.64348,"lon":139.492425},{"name":"もぐらさん公園","province":"東京都","city":"稲城市","address":"東京都稲城市向陽台2丁目4","lat":35.63951,"lon":139.492594},{"name":"若葉台公園","province":"東京都","city":"稲城市","address":"東京都稲城市若葉台1丁目24","lat":35.62744,"lon":139.472131},{"name":"若葉台公園","province":"東京都","city":"稲城市","address":"東京都稲城市若葉台1丁目19","lat":35.62503,"lon":139.473738},{"name":"上谷戸親水公園","province":"東京都","city":"稲城市","address":"東京都稲城市若葉台1丁目28","lat":35.6271,"lon":139.481463},{"name":"若葉台駅駅前広場トイレ","province":"東京都","city":"稲城市","address":"東京都稲城市若葉台2丁目101","lat":35.62051,"lon":139.472503},{"name":"多摩川堤防公衆トイレ","province":"東京都","city":"稲城市","address":"東京都稲城市矢野口","lat":35.64394,"lon":139.521681},{"name":"複合施設ふれんど平尾","province":"東京都","city":"稲城市","address":"東京都稲城市平尾1丁目9","lat":35.61371,"lon":139.492911},{"name":"複合施設ふれんど平尾","province":"東京都","city":"稲城市","address":"東京都稲城市平尾1丁目9","lat":35.6137,"lon":139.49293},{"name":"稲城長峰ヴェルディフィールド","province":"東京都","city":"稲城市","address":"東京都稲城市長峰3丁目10-1","lat":35.63158,"lon":139.477589},{"name":"稲城長峰ヴェルディフィールド","province":"東京都","city":"稲城市","address":"東京都稲城市長峰3丁目11","lat":35.6294,"lon":139.476541},{"name":"南多摩スポーツ広場","province":"東京都","city":"稲城市","address":"東京都稲城市大丸","lat":35.64876,"lon":139.480318},{"name":"稲城市福祉センター","province":"東京都","city":"稲城市","address":"東京都稲城市百村7","lat":35.639577,"lon":139.499948}]}