{"keyword":"構築","data":[{"name":"矢野口","province":"東京都","city":"稲城市","address":"東京都稲城市矢野口619-14","lat":35.64052914,"lon":139.51973182},{"name":"稲城長沼駅入口","province":"東京都","city":"稲城市","address":"東京都稲城市東長沼1040","lat":35.643933,"lon":139.50127698},{"name":"稲城大丸","province":"東京都","city":"稲城市","address":"東京都稲城市大丸928","lat":35.64816504,"lon":139.49215773},{"name":"稲城市福祉センター入口","province":"東京都","city":"稲城市","address":"東京都稲城市百村1601-2","lat":35.63885051,"lon":139.49928032},{"name":"稲城中央橋","province":"東京都","city":"稲城市","address":"東京都稲城市百村1605","lat":35.63702576,"lon":139.49798609},{"name":"稲城向陽台中央","province":"東京都","city":"稲城市","address":"東京都稲城市向陽台6丁目8-1","lat":35.64144378,"lon":139.49028885},{"name":"稲城市役所前","province":"東京都","city":"稲城市","address":"東京都稲城市東長沼2107-1","lat":35.63863147,"lon":139.50471896},{"name":"向陽台給水所","province":"東京都","city":"稲城市","address":"東京都稲城市向陽台6丁目16","lat":35.64371302,"lon":139.49304963},{"name":"稲城消防署","province":"東京都","city":"稲城市","address":"稲城市東長沼2111","lat":35.63793,"lon":139.505064},{"name":"稲城市立中央公園総合グラウンド","province":"東京都","city":"稲城市","address":"稲城市長峰1-1","lat":35.63077,"lon":139.4861},{"name":"矢野口","province":"東京都","city":"稲城市","address":"東京都稲城市矢野口619-14","lat":35.64052914,"lon":139.51973182},{"name":"稲城長沼駅入口","province":"東京都","city":"稲城市","address":"東京都稲城市東長沼1040","lat":35.643933,"lon":139.50127698},{"name":"稲城大丸","province":"東京都","city":"稲城市","address":"東京都稲城市大丸928","lat":35.64816504,"lon":139.49215773},{"name":"稲城市福祉センター入口","province":"東京都","city":"稲城市","address":"東京都稲城市百村1601-2","lat":35.63885051,"lon":139.49928032},{"name":"稲城中央橋","province":"東京都","city":"稲城市","address":"東京都稲城市百村1605","lat":35.63702576,"lon":139.49798609},{"name":"稲城向陽台中央","province":"東京都","city":"稲城市","address":"東京都稲城市向陽台6丁目8-1","lat":35.64144378,"lon":139.49028885},{"name":"稲城市役所前","province":"東京都","city":"稲城市","address":"東京都稲城市東長沼2107-1","lat":35.63863147,"lon":139.50471896},{"name":"向陽台給水所","province":"東京都","city":"稲城市","address":"東京都稲城市向陽台6丁目16","lat":35.64371302,"lon":139.49304963},{"name":"稲城消防署","province":"東京都","city":"稲城市","address":"稲城市東長沼2111","lat":35.63793,"lon":139.505064},{"name":"矢野口","province":"東京都","city":"稲城市","address":"東京都稲城市矢野口619-14","lat":35.64052914,"lon":139.51973182},{"name":"稲城長沼駅入口","province":"東京都","city":"稲城市","address":"東京都稲城市東長沼1040","lat":35.643933,"lon":139.50127698},{"name":"稲城大丸","province":"東京都","city":"稲城市","address":"東京都稲城市大丸928","lat":35.64816504,"lon":139.49215773},{"name":"稲城市福祉センター入口","province":"東京都","city":"稲城市","address":"東京都稲城市百村1601-2","lat":35.63885051,"lon":139.49928032},{"name":"稲城中央橋","province":"東京都","city":"稲城市","address":"東京都稲城市百村1605","lat":35.63702576,"lon":139.49798609},{"name":"稲城向陽台中央","province":"東京都","city":"稲城市","address":"東京都稲城市向陽台6丁目8-1","lat":35.64144378,"lon":139.49028885},{"name":"稲城市役所前","province":"東京都","city":"稲城市","address":"東京都稲城市東長沼2107-1","lat":35.63863147,"lon":139.50471896},{"name":"向陽台給水所","province":"東京都","city":"稲城市","address":"東京都稲城市向陽台6丁目16","lat":35.64371302,"lon":139.49304963},{"name":"稲城消防署","province":"東京都","city":"稲城市","address":"稲城市東長沼2111","lat":35.63793,"lon":139.505064},{"name":"矢野口","province":"東京都","city":"稲城市","address":"東京都稲城市矢野口619-14","lat":35.64052914,"lon":139.51973182},{"name":"稲城長沼駅入口","province":"東京都","city":"稲城市","address":"東京都稲城市東長沼1040","lat":35.643933,"lon":139.50127698},{"name":"稲城大丸","province":"東京都","city":"稲城市","address":"東京都稲城市大丸928","lat":35.64816504,"lon":139.49215773},{"name":"稲城市福祉センター入口","province":"東京都","city":"稲城市","address":"東京都稲城市百村1601-2","lat":35.63885051,"lon":139.49928032},{"name":"稲城中央橋","province":"東京都","city":"稲城市","address":"東京都稲城市百村1605","lat":35.63702576,"lon":139.49798609},{"name":"稲城向陽台中央","province":"東京都","city":"稲城市","address":"東京都稲城市向陽台6丁目8-1","lat":35.64144378,"lon":139.49028885},{"name":"稲城市役所前","province":"東京都","city":"稲城市","address":"東京都稲城市東長沼2107-1","lat":35.63863147,"lon":139.50471896},{"name":"向陽台給水所","province":"東京都","city":"稲城市","address":"東京都稲城市向陽台6丁目16","lat":35.64371302,"lon":139.49304963},{"name":"稲城消防署","province":"東京都","city":"稲城市","address":"稲城市東長沼2111","lat":35.63793,"lon":139.505064},{"name":"矢野口","province":"東京都","city":"稲城市","address":"東京都稲城市矢野口619-14","lat":35.64052914,"lon":139.51973182},{"name":"稲城長沼駅入口","province":"東京都","city":"稲城市","address":"東京都稲城市東長沼1040","lat":35.643933,"lon":139.50127698},{"name":"稲城大丸","province":"東京都","city":"稲城市","address":"東京都稲城市大丸928","lat":35.64816504,"lon":139.49215773},{"name":"稲城市福祉センター入口","province":"東京都","city":"稲城市","address":"東京都稲城市百村1601-2","lat":35.63885051,"lon":139.49928032},{"name":"稲城中央橋","province":"東京都","city":"稲城市","address":"東京都稲城市百村1605","lat":35.63702576,"lon":139.49798609},{"name":"稲城向陽台中央","province":"東京都","city":"稲城市","address":"東京都稲城市向陽台6丁目8-1","lat":35.64144378,"lon":139.49028885},{"name":"稲城市役所前","province":"東京都","city":"稲城市","address":"東京都稲城市東長沼2107-1","lat":35.63863147,"lon":139.50471896},{"name":"向陽台給水所","province":"東京都","city":"稲城市","address":"東京都稲城市向陽台6丁目16","lat":35.64371302,"lon":139.49304963},{"name":"稲城消防署","province":"東京都","city":"稲城市","address":"稲城市東長沼2111","lat":35.63793,"lon":139.505064},{"name":"矢野口","province":"東京都","city":"稲城市","address":"東京都稲城市矢野口619-14","lat":35.64052914,"lon":139.51973182},{"name":"稲城長沼駅入口","province":"東京都","city":"稲城市","address":"東京都稲城市東長沼1040","lat":35.643933,"lon":139.50127698},{"name":"稲城大丸","province":"東京都","city":"稲城市","address":"東京都稲城市大丸928","lat":35.64816504,"lon":139.49215773},{"name":"稲城市福祉センター入口","province":"東京都","city":"稲城市","address":"東京都稲城市百村1601-2","lat":35.63885051,"lon":139.49928032},{"name":"稲城中央橋","province":"東京都","city":"稲城市","address":"東京都稲城市百村1605","lat":35.63702576,"lon":139.49798609},{"name":"稲城向陽台中央","province":"東京都","city":"稲城市","address":"東京都稲城市向陽台6丁目8-1","lat":35.64144378,"lon":139.49028885},{"name":"稲城市役所前","province":"東京都","city":"稲城市","address":"東京都稲城市東長沼2107-1","lat":35.63863147,"lon":139.50471896},{"name":"向陽台給水所","province":"東京都","city":"稲城市","address":"東京都稲城市向陽台6丁目16","lat":35.64371302,"lon":139.49304963},{"name":"稲城消防署","province":"東京都","city":"稲城市","address":"稲城市東長沼2111","lat":35.63793,"lon":139.505064},{"name":"矢野口","province":"東京都","city":"稲城市","address":"東京都稲城市矢野口619-14","lat":35.64052914,"lon":139.51973182},{"name":"稲城長沼駅入口","province":"東京都","city":"稲城市","address":"東京都稲城市東長沼1040","lat":35.643933,"lon":139.50127698},{"name":"稲城大丸","province":"東京都","city":"稲城市","address":"東京都稲城市大丸928","lat":35.64816504,"lon":139.49215773},{"name":"稲城市福祉センター入口","province":"東京都","city":"稲城市","address":"東京都稲城市百村1601-2","lat":35.63885051,"lon":139.49928032},{"name":"稲城中央橋","province":"東京都","city":"稲城市","address":"東京都稲城市百村1605","lat":35.63702576,"lon":139.49798609},{"name":"稲城向陽台中央","province":"東京都","city":"稲城市","address":"東京都稲城市向陽台6丁目8-1","lat":35.64144378,"lon":139.49028885},{"name":"稲城市役所前","province":"東京都","city":"稲城市","address":"東京都稲城市東長沼2107-1","lat":35.63863147,"lon":139.50471896},{"name":"向陽台給水所","province":"東京都","city":"稲城市","address":"東京都稲城市向陽台6丁目16","lat":35.64371302,"lon":139.49304963},{"name":"稲城消防署","province":"東京都","city":"稲城市","address":"稲城市東長沼2111","lat":35.63793,"lon":139.505064},{"name":"矢野口","province":"東京都","city":"稲城市","address":"東京都稲城市矢野口619-14","lat":35.64052914,"lon":139.51973182},{"name":"稲城長沼駅入口","province":"東京都","city":"稲城市","address":"東京都稲城市東長沼1040","lat":35.643933,"lon":139.50127698},{"name":"稲城大丸","province":"東京都","city":"稲城市","address":"東京都稲城市大丸928","lat":35.64816504,"lon":139.49215773},{"name":"稲城市福祉センター入口","province":"東京都","city":"稲城市","address":"東京都稲城市百村1601-2","lat":35.63885051,"lon":139.49928032},{"name":"稲城中央橋","province":"東京都","city":"稲城市","address":"東京都稲城市百村1605","lat":35.63702576,"lon":139.49798609},{"name":"稲城向陽台中央","province":"東京都","city":"稲城市","address":"東京都稲城市向陽台6丁目8-1","lat":35.64144378,"lon":139.49028885},{"name":"稲城市役所前","province":"東京都","city":"稲城市","address":"東京都稲城市東長沼2107-1","lat":35.63863147,"lon":139.50471896},{"name":"向陽台給水所","province":"東京都","city":"稲城市","address":"東京都稲城市向陽台6丁目16","lat":35.64371302,"lon":139.49304963},{"name":"稲城消防署","province":"東京都","city":"稲城市","address":"稲城市東長沼2111","lat":35.63793,"lon":139.505064},{"name":"矢野口","province":"東京都","city":"稲城市","address":"東京都稲城市矢野口619-14","lat":35.64052914,"lon":139.51973182},{"name":"稲城長沼駅入口","province":"東京都","city":"稲城市","address":"東京都稲城市東長沼1040","lat":35.643933,"lon":139.50127698},{"name":"稲城大丸","province":"東京都","city":"稲城市","address":"東京都稲城市大丸928","lat":35.64816504,"lon":139.49215773},{"name":"稲城市福祉センター入口","province":"東京都","city":"稲城市","address":"東京都稲城市百村1601-2","lat":35.63885051,"lon":139.49928032},{"name":"稲城中央橋","province":"東京都","city":"稲城市","address":"東京都稲城市百村1605","lat":35.63702576,"lon":139.49798609},{"name":"稲城向陽台中央","province":"東京都","city":"稲城市","address":"東京都稲城市向陽台6丁目8-1","lat":35.64144378,"lon":139.49028885},{"name":"稲城市役所前","province":"東京都","city":"稲城市","address":"東京都稲城市東長沼2107-1","lat":35.63863147,"lon":139.50471896},{"name":"向陽台給水所","province":"東京都","city":"稲城市","address":"東京都稲城市向陽台6丁目16","lat":35.64371302,"lon":139.49304963},{"name":"稲城消防署","province":"東京都","city":"稲城市","address":"稲城市東長沼2111","lat":35.63793,"lon":139.505064},{"name":"矢野口","province":"東京都","city":"稲城市","address":"東京都稲城市矢野口619-14","lat":35.64052914,"lon":139.51973182},{"name":"稲城長沼駅入口","province":"東京都","city":"稲城市","address":"東京都稲城市東長沼1040","lat":35.643933,"lon":139.50127698},{"name":"稲城大丸","province":"東京都","city":"稲城市","address":"東京都稲城市大丸928","lat":35.64816504,"lon":139.49215773},{"name":"稲城市福祉センター入口","province":"東京都","city":"稲城市","address":"東京都稲城市百村1601-2","lat":35.63885051,"lon":139.49928032},{"name":"稲城中央橋","province":"東京都","city":"稲城市","address":"東京都稲城市百村1605","lat":35.63702576,"lon":139.49798609},{"name":"稲城向陽台中央","province":"東京都","city":"稲城市","address":"東京都稲城市向陽台6丁目8-1","lat":35.64144378,"lon":139.49028885},{"name":"稲城市役所前","province":"東京都","city":"稲城市","address":"東京都稲城市東長沼2107-1","lat":35.63863147,"lon":139.50471896},{"name":"向陽台給水所","province":"東京都","city":"稲城市","address":"東京都稲城市向陽台6丁目16","lat":35.64371302,"lon":139.49304963},{"name":"稲城消防署","province":"東京都","city":"稲城市","address":"稲城市東長沼2111","lat":35.63793,"lon":139.505064},{"name":"矢野口","province":"東京都","city":"稲城市","address":"東京都稲城市矢野口619-14","lat":35.64052914,"lon":139.51973182},{"name":"稲城長沼駅入口","province":"東京都","city":"稲城市","address":"東京都稲城市東長沼1040","lat":35.643933,"lon":139.50127698},{"name":"稲城大丸","province":"東京都","city":"稲城市","address":"東京都稲城市大丸928","lat":35.64816504,"lon":139.49215773},{"name":"稲城市福祉センター入口","province":"東京都","city":"稲城市","address":"東京都稲城市百村1601-2","lat":35.63885051,"lon":139.49928032},{"name":"稲城中央橋","province":"東京都","city":"稲城市","address":"東京都稲城市百村1605","lat":35.63702576,"lon":139.49798609},{"name":"稲城向陽台中央","province":"東京都","city":"稲城市","address":"東京都稲城市向陽台6丁目8-1","lat":35.64144378,"lon":139.49028885},{"name":"稲城市役所前","province":"東京都","city":"稲城市","address":"東京都稲城市東長沼2107-1","lat":35.63863147,"lon":139.50471896},{"name":"向陽台給水所","province":"東京都","city":"稲城市","address":"東京都稲城市向陽台6丁目16","lat":35.64371302,"lon":139.49304963},{"name":"稲城消防署","province":"東京都","city":"稲城市","address":"稲城市東長沼2111","lat":35.63793,"lon":139.505064},{"name":"矢野口","province":"東京都","city":"稲城市","address":"東京都稲城市矢野口619-14","lat":35.64052914,"lon":139.51973182},{"name":"稲城長沼駅入口","province":"東京都","city":"稲城市","address":"東京都稲城市東長沼1040","lat":35.643933,"lon":139.50127698},{"name":"稲城大丸","province":"東京都","city":"稲城市","address":"東京都稲城市大丸928","lat":35.64816504,"lon":139.49215773},{"name":"稲城市福祉センター入口","province":"東京都","city":"稲城市","address":"東京都稲城市百村1601-2","lat":35.63885051,"lon":139.49928032},{"name":"稲城中央橋","province":"東京都","city":"稲城市","address":"東京都稲城市百村1605","lat":35.63702576,"lon":139.49798609},{"name":"稲城向陽台中央","province":"東京都","city":"稲城市","address":"東京都稲城市向陽台6丁目8-1","lat":35.64144378,"lon":139.49028885},{"name":"稲城市役所前","province":"東京都","city":"稲城市","address":"東京都稲城市東長沼2107-1","lat":35.63863147,"lon":139.50471896},{"name":"向陽台給水所","province":"東京都","city":"稲城市","address":"東京都稲城市向陽台6丁目16","lat":35.64371302,"lon":139.49304963},{"name":"稲城消防署","province":"東京都","city":"稲城市","address":"稲城市東長沼2111","lat":35.63793,"lon":139.505064},{"name":"矢野口","province":"東京都","city":"稲城市","address":"東京都稲城市矢野口619-14","lat":35.64052914,"lon":139.51973182},{"name":"稲城長沼駅入口","province":"東京都","city":"稲城市","address":"東京都稲城市東長沼1040","lat":35.643933,"lon":139.50127698},{"name":"稲城大丸","province":"東京都","city":"稲城市","address":"東京都稲城市大丸928","lat":35.64816504,"lon":139.49215773},{"name":"稲城市福祉センター入口","province":"東京都","city":"稲城市","address":"東京都稲城市百村1601-2","lat":35.63885051,"lon":139.49928032},{"name":"稲城中央橋","province":"東京都","city":"稲城市","address":"東京都稲城市百村1605","lat":35.63702576,"lon":139.49798609},{"name":"稲城向陽台中央","province":"東京都","city":"稲城市","address":"東京都稲城市向陽台6丁目8-1","lat":35.64144378,"lon":139.49028885},{"name":"稲城市役所前","province":"東京都","city":"稲城市","address":"東京都稲城市東長沼2107-1","lat":35.63863147,"lon":139.50471896},{"name":"向陽台給水所","province":"東京都","city":"稲城市","address":"東京都稲城市向陽台6丁目16","lat":35.64371302,"lon":139.49304963},{"name":"稲城消防署","province":"東京都","city":"稲城市","address":"稲城市東長沼2111","lat":35.63793,"lon":139.505064}]}