{"keyword":"標準","data":[{"name":"私立駒沢学園女子中学校","province":"東京都","city":"稲城市","address":"東京都稲城市坂浜238","lat":35.62772728,"lon":139.49342328},{"name":"都立若葉総合高等学校","province":"東京都","city":"稲城市","address":"東京都稲城市坂浜1434-3","lat":35.61828624,"lon":139.47916351},{"name":"私立駒沢学園女子高等学校","province":"東京都","city":"稲城市","address":"東京都稲城市坂浜238","lat":35.62772728,"lon":139.49342328},{"name":"私立駒沢女子短期大学","province":"東京都","city":"稲城市","address":"東京都稲城市坂浜238","lat":35.62772728,"lon":139.49342328},{"name":"私立駒沢女子大学","province":"東京都","city":"稲城市","address":"東京都稲城市坂浜238","lat":35.62772728,"lon":139.49342328},{"name":"東京南看護専門学校","province":"東京都","city":"稲城市","address":"東京都稲城市若葉台3丁目8-2","lat":35.62472836,"lon":139.46421102},{"name":"東長沼自治会館","province":"東京都","city":"稲城市","address":"東京都稲城市東長沼1055","lat":35.64270267,"lon":139.50097156},{"name":"百村自治会館","province":"東京都","city":"稲城市","address":"東京都稲城市百村1606-12","lat":35.63667024,"lon":139.49758892},{"name":"平尾自治会館","province":"東京都","city":"稲城市","address":"東京都稲城市平尾3丁目7-1","lat":35.61098056,"lon":139.49202198},{"name":"平尾宅地分譲自治会館","province":"東京都","city":"稲城市","address":"東京都稲城市平尾2丁目77-7","lat":35.60560658,"lon":139.49148351},{"name":"平尾住宅自治会事務所","province":"東京都","city":"稲城市","address":"東京都稲城市平尾3丁目1-1","lat":35.61050507,"lon":139.4861694},{"name":"平尾分譲住宅自治会事務所","province":"東京都","city":"稲城市","address":"東京都稲城市平尾3丁目7-5","lat":35.60873352,"lon":139.489475},{"name":"平尾住宅管理事務所","province":"東京都","city":"稲城市","address":"東京都稲城市平尾3丁目1-1","lat":35.61050507,"lon":139.4861694},{"name":"ゆうとあい平尾管理組合","province":"東京都","city":"稲城市","address":"東京都稲城市平尾3丁目7-5","lat":35.60873352,"lon":139.489475},{"name":"上平尾ひなた自治会クラブハウスひなたコテージ","province":"東京都","city":"稲城市","address":"東京都稲城市平尾4丁目68-16","lat":35.6123821,"lon":139.48236383},{"name":"押立自治会館","province":"東京都","city":"稲城市","address":"東京都稲城市押立692-3","lat":35.64945767,"lon":139.51382019},{"name":"ファインヒル向陽台自治会館","province":"東京都","city":"稲城市","address":"東京都稲城市向陽台3丁目12-3","lat":35.64016618,"lon":139.48943345},{"name":"長峰西地区自治会館","province":"東京都","city":"稲城市","address":"東京都稲城市長峰2丁目11-1","lat":35.62829571,"lon":139.48199593},{"name":"長峰東部合同自治会館","province":"東京都","city":"稲城市","address":"東京都稲城市長峰1丁目2-111","lat":35.63014281,"lon":139.48513173},{"name":"若葉台自治会集会所","province":"東京都","city":"稲城市","address":"東京都稲城市若葉台4丁目11-5","lat":35.62896125,"lon":139.46776332},{"name":"稲城市松葉集会所","province":"東京都","city":"稲城市","address":"東京都稲城市矢野口1892","lat":35.63645779,"lon":139.52051555},{"name":"稲城市大丸地区会館","province":"東京都","city":"稲城市","address":"東京都稲城市大丸251","lat":35.64733504,"lon":139.49877685},{"name":"稲城市押立ふれあい会館","province":"東京都","city":"稲城市","address":"東京都稲城市押立663","lat":35.64970195,"lon":139.51108701},{"name":"矢野口コミュニティ防災センター","province":"東京都","city":"稲城市","address":"東京都稲城市矢野口2271-1","lat":35.63361091,"lon":139.51571892},{"name":"百村コミュニティ防災センター","province":"東京都","city":"稲城市","address":"東京都稲城市百村2017","lat":35.63848934,"lon":139.49741099},{"name":"坂浜コミュニティ防災センター","province":"東京都","city":"稲城市","address":"東京都稲城市坂浜974","lat":35.6247106,"lon":139.48589606},{"name":"長峰コミュニティ防災センター","province":"東京都","city":"稲城市","address":"東京都稲城市長峰2丁目31-1","lat":35.62843431,"lon":139.47843777},{"name":"長峰ふれあい会館（長峰オアシス）","province":"東京都","city":"稲城市","address":"東京都稲城市長峰2丁目1-1","lat":35.63196463,"lon":139.48466493},{"name":"稲城市商工会","province":"東京都","city":"稲城市","address":"東京都稲城市東長沼2112-1","lat":35.63785392,"lon":139.5057551},{"name":"稲城市中小企業勤労者福祉サービスセンター（ICS）","province":"東京都","city":"稲城市","address":"東京都稲城市東長沼2112-1","lat":35.63785392,"lon":139.5057551},{"name":"東京南農業協同組合稲城支店","province":"東京都","city":"稲城市","address":"東京都稲城市東長沼2110-1","lat":35.63857854,"lon":139.50219131},{"name":"東京南農業協同組合　平尾農産物直売所　ハーベスト","province":"東京都","city":"稲城市","address":"東京都稲城市平尾1丁目49-5","lat":35.61100576,"lon":139.49401636}]}