{"keyword":"熱源","data":[{"name":"ウエルシア稲城若葉台アクロスプラザ店","province":"東京都","city":"稲城市","address":"東京都稲城市若葉台1丁目55","lat":35.6243214,"lon":139.4746777},{"name":"ヤオコー　フレスポ若葉台店","province":"東京都","city":"稲城市","address":"東京都稲城市若葉台2丁目4-2","lat":35.6203384,"lon":139.4708975},{"name":"三和　若葉台店","province":"東京都","city":"稲城市","address":"東京都稲城市若葉台2丁目6","lat":35.6218715,"lon":139.4713308},{"name":"ユニディ若葉台店","province":"東京都","city":"稲城市","address":"東京都稲城市若葉台2丁目6","lat":35.6218715,"lon":139.4713308},{"name":"サンドラッグ稲城若葉台店","province":"東京都","city":"稲城市","address":"東京都稲城市若葉台3丁目10","lat":35.6255733,"lon":139.4660475},{"name":"コープみらい　若葉台店","province":"東京都","city":"稲城市","address":"東京都稲城市若葉台3丁目10","lat":35.6255733,"lon":139.4660475},{"name":"稲城市立中央公園総合グラウンド","province":"東京都","city":"稲城市","address":"東京都稲城市長峰1丁目1","lat":35.63011248,"lon":139.48798717},{"name":"稲城市立南山グラウンド","province":"東京都","city":"稲城市","address":"東京都稲城市東長沼2406-1","lat":35.63525992,"lon":139.50477484},{"name":"若葉総合高等学校","province":"東京都","city":"稲城市","address":"東京都稲城市坂浜1434-3","lat":35.61828624,"lon":139.47916351},{"name":"ウエルシア稲城若葉台アクロスプラザ店","province":"東京都","city":"稲城市","address":"東京都稲城市若葉台1丁目55","lat":35.6243214,"lon":139.4746777},{"name":"ヤオコー　フレスポ若葉台店","province":"東京都","city":"稲城市","address":"東京都稲城市若葉台2丁目4-2","lat":35.6203384,"lon":139.4708975},{"name":"三和　若葉台店","province":"東京都","city":"稲城市","address":"東京都稲城市若葉台2丁目6","lat":35.6218715,"lon":139.4713308},{"name":"ユニディ若葉台店","province":"東京都","city":"稲城市","address":"東京都稲城市若葉台2丁目6","lat":35.6218715,"lon":139.4713308},{"name":"サンドラッグ稲城若葉台店","province":"東京都","city":"稲城市","address":"東京都稲城市若葉台3丁目10","lat":35.6255733,"lon":139.4660475},{"name":"コープみらい　若葉台店","province":"東京都","city":"稲城市","address":"東京都稲城市若葉台3丁目10","lat":35.6255733,"lon":139.4660475},{"name":"稲城市立中央公園総合グラウンド","province":"東京都","city":"稲城市","address":"東京都稲城市長峰1丁目1","lat":35.63011248,"lon":139.48798717},{"name":"稲城市立南山グラウンド","province":"東京都","city":"稲城市","address":"東京都稲城市東長沼2406-1","lat":35.63525992,"lon":139.50477484},{"name":"若葉総合高等学校","province":"東京都","city":"稲城市","address":"東京都稲城市坂浜1434-3","lat":35.61828624,"lon":139.47916351},{"name":"ウエルシア稲城若葉台アクロスプラザ店","province":"東京都","city":"稲城市","address":"東京都稲城市若葉台1丁目55","lat":35.6243214,"lon":139.4746777},{"name":"ヤオコー　フレスポ若葉台店","province":"東京都","city":"稲城市","address":"東京都稲城市若葉台2丁目4-2","lat":35.6203384,"lon":139.4708975},{"name":"三和　若葉台店","province":"東京都","city":"稲城市","address":"東京都稲城市若葉台2丁目6","lat":35.6218715,"lon":139.4713308},{"name":"ユニディ若葉台店","province":"東京都","city":"稲城市","address":"東京都稲城市若葉台2丁目6","lat":35.6218715,"lon":139.4713308},{"name":"サンドラッグ稲城若葉台店","province":"東京都","city":"稲城市","address":"東京都稲城市若葉台3丁目10","lat":35.6255733,"lon":139.4660475},{"name":"コープみらい　若葉台店","province":"東京都","city":"稲城市","address":"東京都稲城市若葉台3丁目10","lat":35.6255733,"lon":139.4660475},{"name":"稲城市立中央公園総合グラウンド","province":"東京都","city":"稲城市","address":"東京都稲城市長峰1丁目1","lat":35.63011248,"lon":139.48798717},{"name":"稲城市立南山グラウンド","province":"東京都","city":"稲城市","address":"東京都稲城市東長沼2406-1","lat":35.63525992,"lon":139.50477484},{"name":"若葉総合高等学校","province":"東京都","city":"稲城市","address":"東京都稲城市坂浜1434-3","lat":35.61828624,"lon":139.47916351},{"name":"ウエルシア稲城若葉台アクロスプラザ店","province":"東京都","city":"稲城市","address":"東京都稲城市若葉台1丁目55","lat":35.6243214,"lon":139.4746777},{"name":"ヤオコー　フレスポ若葉台店","province":"東京都","city":"稲城市","address":"東京都稲城市若葉台2丁目4-2","lat":35.6203384,"lon":139.4708975},{"name":"三和　若葉台店","province":"東京都","city":"稲城市","address":"東京都稲城市若葉台2丁目6","lat":35.6218715,"lon":139.4713308},{"name":"ユニディ若葉台店","province":"東京都","city":"稲城市","address":"東京都稲城市若葉台2丁目6","lat":35.6218715,"lon":139.4713308},{"name":"サンドラッグ稲城若葉台店","province":"東京都","city":"稲城市","address":"東京都稲城市若葉台3丁目10","lat":35.6255733,"lon":139.4660475},{"name":"コープみらい　若葉台店","province":"東京都","city":"稲城市","address":"東京都稲城市若葉台3丁目10","lat":35.6255733,"lon":139.4660475},{"name":"稲城市立中央公園総合グラウンド","province":"東京都","city":"稲城市","address":"東京都稲城市長峰1丁目1","lat":35.63011248,"lon":139.48798717},{"name":"稲城市立南山グラウンド","province":"東京都","city":"稲城市","address":"東京都稲城市東長沼2406-1","lat":35.63525992,"lon":139.50477484},{"name":"若葉総合高等学校","province":"東京都","city":"稲城市","address":"東京都稲城市坂浜1434-3","lat":35.61828624,"lon":139.47916351},{"name":"ウエルシア稲城若葉台アクロスプラザ店","province":"東京都","city":"稲城市","address":"東京都稲城市若葉台1丁目55","lat":35.6243214,"lon":139.4746777},{"name":"ヤオコー　フレスポ若葉台店","province":"東京都","city":"稲城市","address":"東京都稲城市若葉台2丁目4-2","lat":35.6203384,"lon":139.4708975},{"name":"三和　若葉台店","province":"東京都","city":"稲城市","address":"東京都稲城市若葉台2丁目6","lat":35.6218715,"lon":139.4713308},{"name":"ユニディ若葉台店","province":"東京都","city":"稲城市","address":"東京都稲城市若葉台2丁目6","lat":35.6218715,"lon":139.4713308},{"name":"サンドラッグ稲城若葉台店","province":"東京都","city":"稲城市","address":"東京都稲城市若葉台3丁目10","lat":35.6255733,"lon":139.4660475},{"name":"コープみらい　若葉台店","province":"東京都","city":"稲城市","address":"東京都稲城市若葉台3丁目10","lat":35.6255733,"lon":139.4660475},{"name":"稲城市立中央公園総合グラウンド","province":"東京都","city":"稲城市","address":"東京都稲城市長峰1丁目1","lat":35.63011248,"lon":139.48798717},{"name":"稲城市立南山グラウンド","province":"東京都","city":"稲城市","address":"東京都稲城市東長沼2406-1","lat":35.63525992,"lon":139.50477484},{"name":"若葉総合高等学校","province":"東京都","city":"稲城市","address":"東京都稲城市坂浜1434-3","lat":35.61828624,"lon":139.47916351},{"name":"ウエルシア稲城若葉台アクロスプラザ店","province":"東京都","city":"稲城市","address":"東京都稲城市若葉台1丁目55","lat":35.6243214,"lon":139.4746777},{"name":"ヤオコー　フレスポ若葉台店","province":"東京都","city":"稲城市","address":"東京都稲城市若葉台2丁目4-2","lat":35.6203384,"lon":139.4708975},{"name":"三和　若葉台店","province":"東京都","city":"稲城市","address":"東京都稲城市若葉台2丁目6","lat":35.6218715,"lon":139.4713308},{"name":"ユニディ若葉台店","province":"東京都","city":"稲城市","address":"東京都稲城市若葉台2丁目6","lat":35.6218715,"lon":139.4713308},{"name":"サンドラッグ稲城若葉台店","province":"東京都","city":"稲城市","address":"東京都稲城市若葉台3丁目10","lat":35.6255733,"lon":139.4660475},{"name":"コープみらい　若葉台店","province":"東京都","city":"稲城市","address":"東京都稲城市若葉台3丁目10","lat":35.6255733,"lon":139.4660475},{"name":"稲城市立中央公園総合グラウンド","province":"東京都","city":"稲城市","address":"東京都稲城市長峰1丁目1","lat":35.63011248,"lon":139.48798717},{"name":"稲城市立南山グラウンド","province":"東京都","city":"稲城市","address":"東京都稲城市東長沼2406-1","lat":35.63525992,"lon":139.50477484},{"name":"若葉総合高等学校","province":"東京都","city":"稲城市","address":"東京都稲城市坂浜1434-3","lat":35.61828624,"lon":139.47916351},{"name":"ウエルシア稲城若葉台アクロスプラザ店","province":"東京都","city":"稲城市","address":"東京都稲城市若葉台1丁目55","lat":35.6243214,"lon":139.4746777},{"name":"ヤオコー　フレスポ若葉台店","province":"東京都","city":"稲城市","address":"東京都稲城市若葉台2丁目4-2","lat":35.6203384,"lon":139.4708975},{"name":"三和　若葉台店","province":"東京都","city":"稲城市","address":"東京都稲城市若葉台2丁目6","lat":35.6218715,"lon":139.4713308},{"name":"ユニディ若葉台店","province":"東京都","city":"稲城市","address":"東京都稲城市若葉台2丁目6","lat":35.6218715,"lon":139.4713308},{"name":"サンドラッグ稲城若葉台店","province":"東京都","city":"稲城市","address":"東京都稲城市若葉台3丁目10","lat":35.6255733,"lon":139.4660475},{"name":"コープみらい　若葉台店","province":"東京都","city":"稲城市","address":"東京都稲城市若葉台3丁目10","lat":35.6255733,"lon":139.4660475},{"name":"稲城市立中央公園総合グラウンド","province":"東京都","city":"稲城市","address":"東京都稲城市長峰1丁目1","lat":35.63011248,"lon":139.48798717},{"name":"稲城市立南山グラウンド","province":"東京都","city":"稲城市","address":"東京都稲城市東長沼2406-1","lat":35.63525992,"lon":139.50477484},{"name":"若葉総合高等学校","province":"東京都","city":"稲城市","address":"東京都稲城市坂浜1434-3","lat":35.61828624,"lon":139.47916351},{"name":"ウエルシア稲城若葉台アクロスプラザ店","province":"東京都","city":"稲城市","address":"東京都稲城市若葉台1丁目55","lat":35.6243214,"lon":139.4746777},{"name":"ヤオコー　フレスポ若葉台店","province":"東京都","city":"稲城市","address":"東京都稲城市若葉台2丁目4-2","lat":35.6203384,"lon":139.4708975},{"name":"三和　若葉台店","province":"東京都","city":"稲城市","address":"東京都稲城市若葉台2丁目6","lat":35.6218715,"lon":139.4713308},{"name":"ユニディ若葉台店","province":"東京都","city":"稲城市","address":"東京都稲城市若葉台2丁目6","lat":35.6218715,"lon":139.4713308},{"name":"サンドラッグ稲城若葉台店","province":"東京都","city":"稲城市","address":"東京都稲城市若葉台3丁目10","lat":35.6255733,"lon":139.4660475},{"name":"コープみらい　若葉台店","province":"東京都","city":"稲城市","address":"東京都稲城市若葉台3丁目10","lat":35.6255733,"lon":139.4660475},{"name":"稲城市立中央公園総合グラウンド","province":"東京都","city":"稲城市","address":"東京都稲城市長峰1丁目1","lat":35.63011248,"lon":139.48798717},{"name":"稲城市立南山グラウンド","province":"東京都","city":"稲城市","address":"東京都稲城市東長沼2406-1","lat":35.63525992,"lon":139.50477484},{"name":"若葉総合高等学校","province":"東京都","city":"稲城市","address":"東京都稲城市坂浜1434-3","lat":35.61828624,"lon":139.47916351},{"name":"ウエルシア稲城若葉台アクロスプラザ店","province":"東京都","city":"稲城市","address":"東京都稲城市若葉台1丁目55","lat":35.6243214,"lon":139.4746777},{"name":"ヤオコー　フレスポ若葉台店","province":"東京都","city":"稲城市","address":"東京都稲城市若葉台2丁目4-2","lat":35.6203384,"lon":139.4708975},{"name":"三和　若葉台店","province":"東京都","city":"稲城市","address":"東京都稲城市若葉台2丁目6","lat":35.6218715,"lon":139.4713308},{"name":"ユニディ若葉台店","province":"東京都","city":"稲城市","address":"東京都稲城市若葉台2丁目6","lat":35.6218715,"lon":139.4713308},{"name":"サンドラッグ稲城若葉台店","province":"東京都","city":"稲城市","address":"東京都稲城市若葉台3丁目10","lat":35.6255733,"lon":139.4660475},{"name":"コープみらい　若葉台店","province":"東京都","city":"稲城市","address":"東京都稲城市若葉台3丁目10","lat":35.6255733,"lon":139.4660475},{"name":"稲城市立中央公園総合グラウンド","province":"東京都","city":"稲城市","address":"東京都稲城市長峰1丁目1","lat":35.63011248,"lon":139.48798717},{"name":"稲城市立南山グラウンド","province":"東京都","city":"稲城市","address":"東京都稲城市東長沼2406-1","lat":35.63525992,"lon":139.50477484},{"name":"若葉総合高等学校","province":"東京都","city":"稲城市","address":"東京都稲城市坂浜1434-3","lat":35.61828624,"lon":139.47916351},{"name":"ウエルシア稲城若葉台アクロスプラザ店","province":"東京都","city":"稲城市","address":"東京都稲城市若葉台1丁目55","lat":35.6243214,"lon":139.4746777},{"name":"ヤオコー　フレスポ若葉台店","province":"東京都","city":"稲城市","address":"東京都稲城市若葉台2丁目4-2","lat":35.6203384,"lon":139.4708975},{"name":"三和　若葉台店","province":"東京都","city":"稲城市","address":"東京都稲城市若葉台2丁目6","lat":35.6218715,"lon":139.4713308},{"name":"ユニディ若葉台店","province":"東京都","city":"稲城市","address":"東京都稲城市若葉台2丁目6","lat":35.6218715,"lon":139.4713308},{"name":"サンドラッグ稲城若葉台店","province":"東京都","city":"稲城市","address":"東京都稲城市若葉台3丁目10","lat":35.6255733,"lon":139.4660475},{"name":"コープみらい　若葉台店","province":"東京都","city":"稲城市","address":"東京都稲城市若葉台3丁目10","lat":35.6255733,"lon":139.4660475},{"name":"稲城市立中央公園総合グラウンド","province":"東京都","city":"稲城市","address":"東京都稲城市長峰1丁目1","lat":35.63011248,"lon":139.48798717},{"name":"稲城市立南山グラウンド","province":"東京都","city":"稲城市","address":"東京都稲城市東長沼2406-1","lat":35.63525992,"lon":139.50477484},{"name":"若葉総合高等学校","province":"東京都","city":"稲城市","address":"東京都稲城市坂浜1434-3","lat":35.61828624,"lon":139.47916351},{"name":"ウエルシア稲城若葉台アクロスプラザ店","province":"東京都","city":"稲城市","address":"東京都稲城市若葉台1丁目55","lat":35.6243214,"lon":139.4746777},{"name":"ヤオコー　フレスポ若葉台店","province":"東京都","city":"稲城市","address":"東京都稲城市若葉台2丁目4-2","lat":35.6203384,"lon":139.4708975},{"name":"三和　若葉台店","province":"東京都","city":"稲城市","address":"東京都稲城市若葉台2丁目6","lat":35.6218715,"lon":139.4713308},{"name":"ユニディ若葉台店","province":"東京都","city":"稲城市","address":"東京都稲城市若葉台2丁目6","lat":35.6218715,"lon":139.4713308},{"name":"サンドラッグ稲城若葉台店","province":"東京都","city":"稲城市","address":"東京都稲城市若葉台3丁目10","lat":35.6255733,"lon":139.4660475},{"name":"コープみらい　若葉台店","province":"東京都","city":"稲城市","address":"東京都稲城市若葉台3丁目10","lat":35.6255733,"lon":139.4660475},{"name":"稲城市立中央公園総合グラウンド","province":"東京都","city":"稲城市","address":"東京都稲城市長峰1丁目1","lat":35.63011248,"lon":139.48798717},{"name":"稲城市立南山グラウンド","province":"東京都","city":"稲城市","address":"東京都稲城市東長沼2406-1","lat":35.63525992,"lon":139.50477484},{"name":"若葉総合高等学校","province":"東京都","city":"稲城市","address":"東京都稲城市坂浜1434-3","lat":35.61828624,"lon":139.47916351},{"name":"ウエルシア稲城若葉台アクロスプラザ店","province":"東京都","city":"稲城市","address":"東京都稲城市若葉台1丁目55","lat":35.6243214,"lon":139.4746777},{"name":"ヤオコー　フレスポ若葉台店","province":"東京都","city":"稲城市","address":"東京都稲城市若葉台2丁目4-2","lat":35.6203384,"lon":139.4708975},{"name":"三和　若葉台店","province":"東京都","city":"稲城市","address":"東京都稲城市若葉台2丁目6","lat":35.6218715,"lon":139.4713308},{"name":"ユニディ若葉台店","province":"東京都","city":"稲城市","address":"東京都稲城市若葉台2丁目6","lat":35.6218715,"lon":139.4713308},{"name":"サンドラッグ稲城若葉台店","province":"東京都","city":"稲城市","address":"東京都稲城市若葉台3丁目10","lat":35.6255733,"lon":139.4660475},{"name":"コープみらい　若葉台店","province":"東京都","city":"稲城市","address":"東京都稲城市若葉台3丁目10","lat":35.6255733,"lon":139.4660475},{"name":"稲城市立中央公園総合グラウンド","province":"東京都","city":"稲城市","address":"東京都稲城市長峰1丁目1","lat":35.63011248,"lon":139.48798717},{"name":"稲城市立南山グラウンド","province":"東京都","city":"稲城市","address":"東京都稲城市東長沼2406-1","lat":35.63525992,"lon":139.50477484},{"name":"若葉総合高等学校","province":"東京都","city":"稲城市","address":"東京都稲城市坂浜1434-3","lat":35.61828624,"lon":139.47916351},{"name":"ウエルシア稲城若葉台アクロスプラザ店","province":"東京都","city":"稲城市","address":"東京都稲城市若葉台1丁目55","lat":35.6243214,"lon":139.4746777},{"name":"ヤオコー　フレスポ若葉台店","province":"東京都","city":"稲城市","address":"東京都稲城市若葉台2丁目4-2","lat":35.6203384,"lon":139.4708975},{"name":"三和　若葉台店","province":"東京都","city":"稲城市","address":"東京都稲城市若葉台2丁目6","lat":35.6218715,"lon":139.4713308},{"name":"ユニディ若葉台店","province":"東京都","city":"稲城市","address":"東京都稲城市若葉台2丁目6","lat":35.6218715,"lon":139.4713308},{"name":"サンドラッグ稲城若葉台店","province":"東京都","city":"稲城市","address":"東京都稲城市若葉台3丁目10","lat":35.6255733,"lon":139.4660475},{"name":"コープみらい　若葉台店","province":"東京都","city":"稲城市","address":"東京都稲城市若葉台3丁目10","lat":35.6255733,"lon":139.4660475},{"name":"稲城市立中央公園総合グラウンド","province":"東京都","city":"稲城市","address":"東京都稲城市長峰1丁目1","lat":35.63011248,"lon":139.48798717},{"name":"稲城市立南山グラウンド","province":"東京都","city":"稲城市","address":"東京都稲城市東長沼2406-1","lat":35.63525992,"lon":139.50477484},{"name":"若葉総合高等学校","province":"東京都","city":"稲城市","address":"東京都稲城市坂浜1434-3","lat":35.61828624,"lon":139.47916351},{"name":"ウエルシア稲城若葉台アクロスプラザ店","province":"東京都","city":"稲城市","address":"東京都稲城市若葉台1丁目55","lat":35.6243214,"lon":139.4746777},{"name":"ヤオコー　フレスポ若葉台店","province":"東京都","city":"稲城市","address":"東京都稲城市若葉台2丁目4-2","lat":35.6203384,"lon":139.4708975},{"name":"三和　若葉台店","province":"東京都","city":"稲城市","address":"東京都稲城市若葉台2丁目6","lat":35.6218715,"lon":139.4713308},{"name":"ユニディ若葉台店","province":"東京都","city":"稲城市","address":"東京都稲城市若葉台2丁目6","lat":35.6218715,"lon":139.4713308},{"name":"サンドラッグ稲城若葉台店","province":"東京都","city":"稲城市","address":"東京都稲城市若葉台3丁目10","lat":35.6255733,"lon":139.4660475},{"name":"コープみらい　若葉台店","province":"東京都","city":"稲城市","address":"東京都稲城市若葉台3丁目10","lat":35.6255733,"lon":139.4660475},{"name":"稲城市立中央公園総合グラウンド","province":"東京都","city":"稲城市","address":"東京都稲城市長峰1丁目1","lat":35.63011248,"lon":139.48798717},{"name":"稲城市立南山グラウンド","province":"東京都","city":"稲城市","address":"東京都稲城市東長沼2406-1","lat":35.63525992,"lon":139.50477484},{"name":"若葉総合高等学校","province":"東京都","city":"稲城市","address":"東京都稲城市坂浜1434-3","lat":35.61828624,"lon":139.47916351},{"name":"ウエルシア稲城若葉台アクロスプラザ店","province":"東京都","city":"稲城市","address":"東京都稲城市若葉台1丁目55","lat":35.6243214,"lon":139.4746777},{"name":"ヤオコー　フレスポ若葉台店","province":"東京都","city":"稲城市","address":"東京都稲城市若葉台2丁目4-2","lat":35.6203384,"lon":139.4708975},{"name":"三和　若葉台店","province":"東京都","city":"稲城市","address":"東京都稲城市若葉台2丁目6","lat":35.6218715,"lon":139.4713308},{"name":"ユニディ若葉台店","province":"東京都","city":"稲城市","address":"東京都稲城市若葉台2丁目6","lat":35.6218715,"lon":139.4713308},{"name":"サンドラッグ稲城若葉台店","province":"東京都","city":"稲城市","address":"東京都稲城市若葉台3丁目10","lat":35.6255733,"lon":139.4660475},{"name":"コープみらい　若葉台店","province":"東京都","city":"稲城市","address":"東京都稲城市若葉台3丁目10","lat":35.6255733,"lon":139.4660475},{"name":"稲城市立中央公園総合グラウンド","province":"東京都","city":"稲城市","address":"東京都稲城市長峰1丁目1","lat":35.63011248,"lon":139.48798717},{"name":"稲城市立南山グラウンド","province":"東京都","city":"稲城市","address":"東京都稲城市東長沼2406-1","lat":35.63525992,"lon":139.50477484},{"name":"若葉総合高等学校","province":"東京都","city":"稲城市","address":"東京都稲城市坂浜1434-3","lat":35.61828624,"lon":139.47916351},{"name":"ウエルシア稲城若葉台アクロスプラザ店","province":"東京都","city":"稲城市","address":"東京都稲城市若葉台1丁目55","lat":35.6243214,"lon":139.4746777},{"name":"ヤオコー　フレスポ若葉台店","province":"東京都","city":"稲城市","address":"東京都稲城市若葉台2丁目4-2","lat":35.6203384,"lon":139.4708975},{"name":"三和　若葉台店","province":"東京都","city":"稲城市","address":"東京都稲城市若葉台2丁目6","lat":35.6218715,"lon":139.4713308},{"name":"ユニディ若葉台店","province":"東京都","city":"稲城市","address":"東京都稲城市若葉台2丁目6","lat":35.6218715,"lon":139.4713308},{"name":"サンドラッグ稲城若葉台店","province":"東京都","city":"稲城市","address":"東京都稲城市若葉台3丁目10","lat":35.6255733,"lon":139.4660475},{"name":"コープみらい　若葉台店","province":"東京都","city":"稲城市","address":"東京都稲城市若葉台3丁目10","lat":35.6255733,"lon":139.4660475},{"name":"稲城市立中央公園総合グラウンド","province":"東京都","city":"稲城市","address":"東京都稲城市長峰1丁目1","lat":35.63011248,"lon":139.48798717},{"name":"稲城市立南山グラウンド","province":"東京都","city":"稲城市","address":"東京都稲城市東長沼2406-1","lat":35.63525992,"lon":139.50477484},{"name":"若葉総合高等学校","province":"東京都","city":"稲城市","address":"東京都稲城市坂浜1434-3","lat":35.61828624,"lon":139.47916351},{"name":"ウエルシア稲城若葉台アクロスプラザ店","province":"東京都","city":"稲城市","address":"東京都稲城市若葉台1丁目55","lat":35.6243214,"lon":139.4746777},{"name":"ヤオコー　フレスポ若葉台店","province":"東京都","city":"稲城市","address":"東京都稲城市若葉台2丁目4-2","lat":35.6203384,"lon":139.4708975},{"name":"三和　若葉台店","province":"東京都","city":"稲城市","address":"東京都稲城市若葉台2丁目6","lat":35.6218715,"lon":139.4713308},{"name":"ユニディ若葉台店","province":"東京都","city":"稲城市","address":"東京都稲城市若葉台2丁目6","lat":35.6218715,"lon":139.4713308},{"name":"サンドラッグ稲城若葉台店","province":"東京都","city":"稲城市","address":"東京都稲城市若葉台3丁目10","lat":35.6255733,"lon":139.4660475},{"name":"コープみらい　若葉台店","province":"東京都","city":"稲城市","address":"東京都稲城市若葉台3丁目10","lat":35.6255733,"lon":139.4660475},{"name":"稲城市立中央公園総合グラウンド","province":"東京都","city":"稲城市","address":"東京都稲城市長峰1丁目1","lat":35.63011248,"lon":139.48798717},{"name":"稲城市立南山グラウンド","province":"東京都","city":"稲城市","address":"東京都稲城市東長沼2406-1","lat":35.63525992,"lon":139.50477484},{"name":"若葉総合高等学校","province":"東京都","city":"稲城市","address":"東京都稲城市坂浜1434-3","lat":35.61828624,"lon":139.47916351},{"name":"ウエルシア稲城若葉台アクロスプラザ店","province":"東京都","city":"稲城市","address":"東京都稲城市若葉台1丁目55","lat":35.6243214,"lon":139.4746777},{"name":"ヤオコー　フレスポ若葉台店","province":"東京都","city":"稲城市","address":"東京都稲城市若葉台2丁目4-2","lat":35.6203384,"lon":139.4708975},{"name":"三和　若葉台店","province":"東京都","city":"稲城市","address":"東京都稲城市若葉台2丁目6","lat":35.6218715,"lon":139.4713308},{"name":"ユニディ若葉台店","province":"東京都","city":"稲城市","address":"東京都稲城市若葉台2丁目6","lat":35.6218715,"lon":139.4713308},{"name":"サンドラッグ稲城若葉台店","province":"東京都","city":"稲城市","address":"東京都稲城市若葉台3丁目10","lat":35.6255733,"lon":139.4660475},{"name":"コープみらい　若葉台店","province":"東京都","city":"稲城市","address":"東京都稲城市若葉台3丁目10","lat":35.6255733,"lon":139.4660475},{"name":"稲城市立中央公園総合グラウンド","province":"東京都","city":"稲城市","address":"東京都稲城市長峰1丁目1","lat":35.63011248,"lon":139.48798717},{"name":"稲城市立南山グラウンド","province":"東京都","city":"稲城市","address":"東京都稲城市東長沼2406-1","lat":35.63525992,"lon":139.50477484},{"name":"若葉総合高等学校","province":"東京都","city":"稲城市","address":"東京都稲城市坂浜1434-3","lat":35.61828624,"lon":139.47916351},{"name":"ウエルシア稲城若葉台アクロスプラザ店","province":"東京都","city":"稲城市","address":"東京都稲城市若葉台1丁目55","lat":35.6243214,"lon":139.4746777},{"name":"ヤオコー　フレスポ若葉台店","province":"東京都","city":"稲城市","address":"東京都稲城市若葉台2丁目4-2","lat":35.6203384,"lon":139.4708975},{"name":"三和　若葉台店","province":"東京都","city":"稲城市","address":"東京都稲城市若葉台2丁目6","lat":35.6218715,"lon":139.4713308},{"name":"ユニディ若葉台店","province":"東京都","city":"稲城市","address":"東京都稲城市若葉台2丁目6","lat":35.6218715,"lon":139.4713308},{"name":"サンドラッグ稲城若葉台店","province":"東京都","city":"稲城市","address":"東京都稲城市若葉台3丁目10","lat":35.6255733,"lon":139.4660475},{"name":"コープみらい　若葉台店","province":"東京都","city":"稲城市","address":"東京都稲城市若葉台3丁目10","lat":35.6255733,"lon":139.4660475},{"name":"稲城市立中央公園総合グラウンド","province":"東京都","city":"稲城市","address":"東京都稲城市長峰1丁目1","lat":35.63011248,"lon":139.48798717},{"name":"稲城市立南山グラウンド","province":"東京都","city":"稲城市","address":"東京都稲城市東長沼2406-1","lat":35.63525992,"lon":139.50477484},{"name":"若葉総合高等学校","province":"東京都","city":"稲城市","address":"東京都稲城市坂浜1434-3","lat":35.61828624,"lon":139.47916351}]}