{"keyword":"葬儀","data":[{"name":"JA東京みなみ（セレモニーセンター）","province":"東京都","city":"稲城市","address":"東京都稲城市東長沼1915-2","lat":35.63968377,"lon":139.5006635},{"name":"（有）光陽祭典","province":"東京都","city":"稲城市","address":"東京都稲城市平尾2丁目2-5","lat":35.61070026,"lon":139.49406639},{"name":"（株）三和式典","province":"東京都","city":"稲城市","address":"東京都稲城市大丸1420-1","lat":35.64798692,"lon":139.48684136},{"name":"SOGIサポートセンター","province":"東京都","city":"稲城市","address":"東京都稲城市矢野口929-3","lat":35.64316161,"lon":139.51303195},{"name":"JA東京みなみセレモニーセンター","province":"東京都","city":"稲城市","address":"東京都稲城市東長沼1915-2","lat":35.63968377,"lon":139.5006635},{"name":"（株）稲城葬儀社","province":"東京都","city":"稲城市","address":"東京都稲城市大丸1032","lat":35.64830094,"lon":139.48937731},{"name":"聖和葬儀社","province":"東京都","city":"稲城市","address":"東京都稲城市若葉台4丁目19-11","lat":35.6259922,"lon":139.4665247},{"name":"（株）花セレモ","province":"東京都","city":"稲城市","address":"東京都稲城市押立1744-80","lat":35.6467334,"lon":139.51878123},{"name":"稲城福祉葬祭","province":"東京都","city":"稲城市","address":"東京都稲城市百村2120-25","lat":35.63542821,"lon":139.48951163},{"name":"おくりびとのお葬式","province":"東京都","city":"稲城市","address":"東京都稲城市百村1613-4","lat":35.63548735,"lon":139.50044446},{"name":"マイセレモニー（株）","province":"東京都","city":"稲城市","address":"東京都稲城市大丸1041-10","lat":35.64910364,"lon":139.48993835},{"name":"（株）セロニアス","province":"東京都","city":"稲城市","address":"東京都稲城市平尾1丁目56","lat":35.60980909,"lon":139.49729692},{"name":"（株）ゆいまーる","province":"東京都","city":"稲城市","address":"東京都稲城市大丸354-1","lat":35.64978721,"lon":139.49508802}]}