{"keyword":"認可","data":[{"name":"稲城市立第六保育園","province":"東京都","city":"稲城市","address":"稲城市大丸82-4","lat":35.64479,"lon":139.49928},{"name":"いなぎのぞみ保育園","province":"東京都","city":"稲城市","address":"稲城市大丸593-14","lat":35.64568,"lon":139.495502},{"name":"にじいろ保育園矢野口","province":"東京都","city":"稲城市","address":"稲城市矢野口3030-1","lat":35.635925,"lon":139.508416},{"name":"稲城市立第三保育園","province":"東京都","city":"稲城市","address":"稲城市坂浜1012-2","lat":35.62013,"lon":139.48767},{"name":"稲城市立第五保育園","province":"東京都","city":"稲城市","address":"稲城市平尾4-45-2","lat":35.61173,"lon":139.48526},{"name":"いなぎのぞみ保育園","province":"東京都","city":"稲城市","address":"稲城市大丸593-14","lat":35.64459,"lon":139.47774},{"name":"しおどめ保育園稲城","province":"東京都","city":"稲城市","address":"稲城市坂浜943","lat":35.62441,"lon":139.48799},{"name":"いなぎのぞみ保育園","province":"東京都","city":"稲城市","address":"稲城市大丸593-14","lat":35.64153,"lon":139.49802},{"name":"本郷ゆうし保育園","province":"東京都","city":"稲城市","address":"稲城市東長沼2115-2","lat":35.6487,"lon":139.50085},{"name":"にじいろ保育園矢野口","province":"東京都","city":"稲城市","address":"稲城市矢野口3030-1","lat":35.64457,"lon":139.51242},{"name":"稲城市立第五保育園","province":"東京都","city":"稲城市","address":"稲城市平尾4-45-2","lat":35.60762,"lon":139.49544}]}