{"keyword":"週","data":[{"name":"木造聖観音立像","province":"東京都","city":"稲城市","address":"東京都稲城市矢野口4015-1","lat":35.624,"lon":139.518},{"name":"瓦谷戸窯跡","province":"東京都","city":"稲城市","address":"東京都稲城市大丸15","lat":35.647,"lon":139.473},{"name":"孝子長五郎の墓","province":"東京都","city":"稲城市","address":"東京都稲城市押立637","lat":35.65,"lon":139.513},{"name":"高勝寺のカヤ","province":"東京都","city":"稲城市","address":"東京都稲城市坂浜551","lat":35.6257,"lon":139.489},{"name":"木造観世音菩薩立像","province":"東京都","city":"稲城市","address":"東京都稲城市坂浜551","lat":35.6257,"lon":139.489},{"name":"木造阿弥陀如来及び両脇侍像","province":"東京都","city":"稲城市","address":"東京都稲城市東長沼2117-2","lat":35.6374,"lon":139.502},{"name":"木造閻魔王坐像","province":"東京都","city":"稲城市","address":"東京都稲城市東長沼2117-2","lat":35.6374,"lon":139.502},{"name":"妙見尊の蛇より行事","province":"東京都","city":"稲城市","address":"東京都稲城市百村1588","lat":35.63380421,"lon":139.49841972},{"name":"瓦谷戸窯跡群出土遺物","province":"東京都","city":"稲城市","address":"東京都稲城市平尾1-9-1","lat":35.614,"lon":139.493},{"name":"多摩川中流域の船大工用具","province":"東京都","city":"稲城市","address":"東京都稲城市矢野口3750","lat":35.642,"lon":139.542},{"name":"地蔵菩薩塔","province":"東京都","city":"稲城市","address":"東京都稲城市東長沼2117-2","lat":35.6374,"lon":139.502},{"name":"葎草橋碑","province":"東京都","city":"稲城市","address":"東京都稲城市東長沼656","lat":35.6452,"lon":139.508},{"name":"庚申塔","province":"東京都","city":"稲城市","address":"東京都稲城市矢野口2411","lat":35.6311,"lon":139.516},{"name":"馬頭観世音塔","province":"東京都","city":"稲城市","address":"東京都稲城市矢野口401","lat":35.6408,"lon":139.524},{"name":"平尾原経塚出土品及び供養塔","province":"東京都","city":"稲城市","address":"東京都稲城市平尾1-49-7","lat":35.6412,"lon":139.494},{"name":"板碑","province":"東京都","city":"稲城市","address":"東京都稲城市矢野口2454","lat":35.633,"lon":139.514},{"name":"玉川焼","province":"東京都","city":"稲城市","address":"東京都稲城市坂浜","lat":35.61736469,"lon":139.48442727},{"name":"筆塚","province":"東京都","city":"稲城市","address":"東京都稲城市百村1588","lat":35.634,"lon":139.499},{"name":"筆塚","province":"東京都","city":"稲城市","address":"東京都稲城市矢野口3292","lat":35.633,"lon":139.522},{"name":"青渭神社獅子舞","province":"東京都","city":"稲城市","address":"東京都稲城市東長沼1053","lat":35.64272489,"lon":139.50116042},{"name":"穴澤天神社獅子舞","province":"東京都","city":"稲城市","address":"東京都稲城市矢野口3292","lat":35.63277255,"lon":139.52244086},{"name":"芦川家文書","province":"東京都","city":"稲城市","address":"東京都稲城市大丸","lat":35.65015104,"lon":139.49500745},{"name":"市村家文書","province":"東京都","city":"稲城市","address":"東京都稲城市坂浜","lat":35.61736469,"lon":139.48442727},{"name":"馬場家文書","province":"東京都","city":"稲城市","address":"東京都稲城市平尾","lat":35.61225701,"lon":139.48126665},{"name":"筆塚","province":"東京都","city":"稲城市","address":"東京都稲城市矢野口2454","lat":35.633,"lon":139.514},{"name":"榎本家文書","province":"東京都","city":"稲城市","address":"東京都稲城市平尾1-9-1","lat":35.614,"lon":139.493},{"name":"高橋家文書","province":"東京都","city":"稲城市","address":"東京都稲城市坂浜","lat":35.61736469,"lon":139.48442727},{"name":"旧報恩寺の文化財","province":"東京都","city":"稲城市","address":"東京都稲城市矢野口3750","lat":35.642,"lon":139.542},{"name":"平尾台原遺跡出土品","province":"東京都","city":"稲城市","address":"東京都稲城市平尾1-9-1","lat":35.614,"lon":139.493},{"name":"駒沢学園校地内遺跡出土品","province":"東京都","city":"稲城市","address":"東京都稲城市平尾1-9-1","lat":35.614,"lon":139.493},{"name":"稲城市竪台遺跡出土品","province":"東京都","city":"稲城市","address":"東京都稲城市平尾1-9-1","lat":35.614,"lon":139.493},{"name":"平尾入定塚出土品　附　発掘調査資料","province":"東京都","city":"稲城市","address":"東京都稲城市平尾1-9-1","lat":35.614,"lon":139.493},{"name":"窪家奚疑塾関係資料","province":"東京都","city":"稲城市","address":"東京都稲城市平尾1-9-1","lat":35.614,"lon":139.493},{"name":"清水家奚疑塾関係資料","province":"東京都","city":"稲城市","address":"東京都稲城市平尾1-9-1","lat":35.614,"lon":139.493},{"name":"鈴木家文書","province":"東京都","city":"稲城市","address":"東京都稲城市平尾1-9-1","lat":35.614,"lon":139.493},{"name":"山本家文書","province":"東京都","city":"稲城市","address":"東京都稲城市矢野口","lat":35.63441331,"lon":139.51171905},{"name":"近代行政資料","province":"東京都","city":"稲城市","address":"東京都稲城市平尾1-9-1","lat":35.614,"lon":139.493},{"name":"穴澤天神社本殿","province":"東京都","city":"稲城市","address":"東京都稲城市矢野口3292","lat":35.633,"lon":139.522},{"name":"青渭神社本殿","province":"東京都","city":"稲城市","address":"東京都稲城市東長沼1054","lat":35.643,"lon":139.502},{"name":"杉山神社本殿","province":"東京都","city":"稲城市","address":"東京都稲城市平尾4-45-6","lat":35.612,"lon":139.487},{"name":"妙見宮宮殿","province":"東京都","city":"稲城市","address":"東京都稲城市百村1588","lat":35.634,"lon":139.499},{"name":"常楽寺の飛天図及び龍図","province":"東京都","city":"稲城市","address":"東京都稲城市東長沼2117-2","lat":35.6374,"lon":139.502},{"name":"富士講関係資料","province":"東京都","city":"稲城市","address":"東京都稲城市矢野口3750","lat":35.642,"lon":139.542},{"name":"円照寺の木造十一面観音坐像","province":"東京都","city":"稲城市","address":"東京都稲城市大丸851番地","lat":35.6466,"lon":139.491},{"name":"旧宝泉寺の木造阿弥陀如来坐像","province":"東京都","city":"稲城市","address":"東京都稲城市平尾4-45-6","lat":35.6118,"lon":139.485},{"name":"本郷児童館","province":"東京都","city":"稲城市","address":"稲城市東長沼2115-2","lat":35.637781,"lon":139.501344},{"name":"第四児童館","province":"東京都","city":"稲城市","address":"稲城市東長沼271","lat":35.645938,"lon":139.505229},{"name":"城山児童館","province":"東京都","city":"稲城市","address":"稲城市向陽台6-7","lat":35.641669,"lon":139.490661},{"name":"稲城市立第二児童館","province":"東京都","city":"稲城市","address":"稲城市矢野口1780","lat":35.635108,"lon":139.518921},{"name":"第三児童館","province":"東京都","city":"稲城市","address":"稲城市平尾1-20-5","lat":35.613122,"lon":139.492558},{"name":"稲城市社会福祉協議会","province":"東京都","city":"稲城市","address":"稲城市百村7稲城市福祉センター内","lat":35.639609,"lon":139.499861},{"name":"本郷児童館","province":"東京都","city":"稲城市","address":"稲城市東長沼2115-2","lat":35.63477,"lon":139.50426},{"name":"稲城市第四文化センター児童館","province":"東京都","city":"稲城市","address":"稲城市東長沼271","lat":35.64565,"lon":139.50616},{"name":"稲城市城山文化センター児童館","province":"東京都","city":"稲城市","address":"稲城市向陽台6-7","lat":35.64127,"lon":139.49081},{"name":"稲城市第二文化センター児童館","province":"東京都","city":"稲城市","address":"稲城市矢野口1780","lat":35.63509,"lon":139.51866},{"name":"稲城市第三文化センター児童館","province":"東京都","city":"稲城市","address":"稲城市平尾1-20-5","lat":35.61317,"lon":139.4921},{"name":"稲城市社会福祉協議会","province":"東京都","city":"稲城市","address":"稲城市百村7番地稲城市福祉センター内","lat":35.63996,"lon":139.49953},{"name":"第四児童館","province":"東京都","city":"稲城市","address":"稲城市東長沼271","lat":35.64565,"lon":139.50616},{"name":"城山児童館","province":"東京都","city":"稲城市","address":"稲城市向陽台6-7","lat":35.64127,"lon":139.49081},{"name":"第二児童館","province":"東京都","city":"稲城市","address":"稲城市矢野口1780","lat":35.63509,"lon":139.51866},{"name":"第三児童館","province":"東京都","city":"稲城市","address":"稲城市平尾1-20-5","lat":35.61317,"lon":139.4921},{"name":"第二児童館","province":"東京都","city":"稲城市","address":"稲城市矢野口1780","lat":35.635108,"lon":139.518921},{"name":"第四児童館","province":"東京都","city":"稲城市","address":"稲城市東長沼271","lat":35.64565,"lon":139.50617},{"name":"本郷児童館","province":"東京都","city":"稲城市","address":"稲城市東長沼2115-2","lat":35.6487,"lon":139.50085},{"name":"向陽台給水所","province":"東京都","city":"稲城市","address":"東京都稲城市向陽台6丁目16","lat":35.64371302,"lon":139.49304963},{"name":"稲城市立中央公園総合グラウンド","province":"東京都","city":"稲城市","address":"東京都稲城市長峰1丁目1","lat":35.63011248,"lon":139.48798717},{"name":"稲城市立南山グラウンド","province":"東京都","city":"稲城市","address":"東京都稲城市東長沼2406-1","lat":35.63525992,"lon":139.50477484},{"name":"＊?稲城市立中央公民館","province":"東京都","city":"稲城市","address":"稲城市東長沼2111","lat":35.638078,"lon":139.503749},{"name":"＊?稲城市立第二公民館","province":"東京都","city":"稲城市","address":"稲城市矢野口1780","lat":35.634853,"lon":139.518966},{"name":"＊?稲城市立第三公民館","province":"東京都","city":"稲城市","address":"稲城市平尾1-20-5","lat":35.613117,"lon":139.492461},{"name":"＊?稲城市立第四公民館","province":"東京都","city":"稲城市","address":"稲城市東長沼271","lat":35.645914,"lon":139.505366},{"name":"＊?稲城市立城山公民館","province":"東京都","city":"稲城市","address":"稲城市向陽台6-7","lat":35.641555,"lon":139.493851},{"name":"＊?稲城市立中央図書館","province":"東京都","city":"稲城市","address":"稲城市向陽台4-6-18","lat":35.645642,"lon":139.488417},{"name":"＊?稲城市立第一図書館","province":"東京都","city":"稲城市","address":"稲城市東長沼2111","lat":35.638078,"lon":139.503749},{"name":"＊?稲城市立第二図書館","province":"東京都","city":"稲城市","address":"稲城市矢野口1780","lat":35.634849,"lon":139.518967},{"name":"＊?稲城市立第三図書館","province":"東京都","city":"稲城市","address":"稲城市平尾1-20-5","lat":35.613117,"lon":139.492461},{"name":"＊?稲城市立第四図書館","province":"東京都","city":"稲城市","address":"稲城市東長沼271","lat":35.645914,"lon":139.505366},{"name":"＊?稲城市立iプラザ図書館","province":"東京都","city":"稲城市","address":"稲城市若葉台2-5-2","lat":35.621149,"lon":139.472184},{"name":"稲城市本庁舎","province":"東京都","city":"稲城市","address":"稲城市東長沼2111","lat":35.63796,"lon":139.50427},{"name":"稲城消防署","province":"東京都","city":"稲城市","address":"稲城市東長沼2111","lat":35.63793,"lon":139.505064},{"name":"稲城市立中央公園総合グラウンド","province":"東京都","city":"稲城市","address":"稲城市長峰1-1","lat":35.63077,"lon":139.4861},{"name":"木造聖観音立像","province":"東京都","city":"稲城市","address":"東京都稲城市矢野口4015-1","lat":35.624,"lon":139.518},{"name":"瓦谷戸窯跡","province":"東京都","city":"稲城市","address":"東京都稲城市大丸15","lat":35.647,"lon":139.473},{"name":"孝子長五郎の墓","province":"東京都","city":"稲城市","address":"東京都稲城市押立637","lat":35.65,"lon":139.513},{"name":"高勝寺のカヤ","province":"東京都","city":"稲城市","address":"東京都稲城市坂浜551","lat":35.6257,"lon":139.489},{"name":"木造観世音菩薩立像","province":"東京都","city":"稲城市","address":"東京都稲城市坂浜551","lat":35.6257,"lon":139.489},{"name":"木造阿弥陀如来及び両脇侍像","province":"東京都","city":"稲城市","address":"東京都稲城市東長沼2117-2","lat":35.6374,"lon":139.502},{"name":"木造閻魔王坐像","province":"東京都","city":"稲城市","address":"東京都稲城市東長沼2117-2","lat":35.6374,"lon":139.502},{"name":"妙見尊の蛇より行事","province":"東京都","city":"稲城市","address":"東京都稲城市百村1588","lat":35.63380421,"lon":139.49841972},{"name":"瓦谷戸窯跡群出土遺物","province":"東京都","city":"稲城市","address":"東京都稲城市平尾1-9-1","lat":35.614,"lon":139.493},{"name":"多摩川中流域の船大工用具","province":"東京都","city":"稲城市","address":"東京都稲城市矢野口3750","lat":35.642,"lon":139.542},{"name":"地蔵菩薩塔","province":"東京都","city":"稲城市","address":"東京都稲城市東長沼2117-2","lat":35.6374,"lon":139.502},{"name":"葎草橋碑","province":"東京都","city":"稲城市","address":"東京都稲城市東長沼656","lat":35.6452,"lon":139.508},{"name":"庚申塔","province":"東京都","city":"稲城市","address":"東京都稲城市矢野口2411","lat":35.6311,"lon":139.516},{"name":"馬頭観世音塔","province":"東京都","city":"稲城市","address":"東京都稲城市矢野口401","lat":35.6408,"lon":139.524},{"name":"平尾原経塚出土品及び供養塔","province":"東京都","city":"稲城市","address":"東京都稲城市平尾1-49-7","lat":35.6412,"lon":139.494},{"name":"板碑","province":"東京都","city":"稲城市","address":"東京都稲城市矢野口2454","lat":35.633,"lon":139.514},{"name":"玉川焼","province":"東京都","city":"稲城市","address":"東京都稲城市坂浜","lat":35.61736469,"lon":139.48442727},{"name":"筆塚","province":"東京都","city":"稲城市","address":"東京都稲城市百村1588","lat":35.634,"lon":139.499},{"name":"筆塚","province":"東京都","city":"稲城市","address":"東京都稲城市矢野口3292","lat":35.633,"lon":139.522},{"name":"青渭神社獅子舞","province":"東京都","city":"稲城市","address":"東京都稲城市東長沼1053","lat":35.64272489,"lon":139.50116042},{"name":"穴澤天神社獅子舞","province":"東京都","city":"稲城市","address":"東京都稲城市矢野口3292","lat":35.63277255,"lon":139.52244086},{"name":"芦川家文書","province":"東京都","city":"稲城市","address":"東京都稲城市大丸","lat":35.65015104,"lon":139.49500745},{"name":"市村家文書","province":"東京都","city":"稲城市","address":"東京都稲城市坂浜","lat":35.61736469,"lon":139.48442727},{"name":"馬場家文書","province":"東京都","city":"稲城市","address":"東京都稲城市平尾","lat":35.61225701,"lon":139.48126665},{"name":"筆塚","province":"東京都","city":"稲城市","address":"東京都稲城市矢野口2454","lat":35.633,"lon":139.514},{"name":"榎本家文書","province":"東京都","city":"稲城市","address":"東京都稲城市平尾1-9-1","lat":35.614,"lon":139.493},{"name":"高橋家文書","province":"東京都","city":"稲城市","address":"東京都稲城市坂浜","lat":35.61736469,"lon":139.48442727},{"name":"旧報恩寺の文化財","province":"東京都","city":"稲城市","address":"東京都稲城市矢野口3750","lat":35.642,"lon":139.542},{"name":"平尾台原遺跡出土品","province":"東京都","city":"稲城市","address":"東京都稲城市平尾1-9-1","lat":35.614,"lon":139.493},{"name":"駒沢学園校地内遺跡出土品","province":"東京都","city":"稲城市","address":"東京都稲城市平尾1-9-1","lat":35.614,"lon":139.493},{"name":"稲城市竪台遺跡出土品","province":"東京都","city":"稲城市","address":"東京都稲城市平尾1-9-1","lat":35.614,"lon":139.493},{"name":"平尾入定塚出土品　附　発掘調査資料","province":"東京都","city":"稲城市","address":"東京都稲城市平尾1-9-1","lat":35.614,"lon":139.493},{"name":"窪家奚疑塾関係資料","province":"東京都","city":"稲城市","address":"東京都稲城市平尾1-9-1","lat":35.614,"lon":139.493},{"name":"清水家奚疑塾関係資料","province":"東京都","city":"稲城市","address":"東京都稲城市平尾1-9-1","lat":35.614,"lon":139.493},{"name":"鈴木家文書","province":"東京都","city":"稲城市","address":"東京都稲城市平尾1-9-1","lat":35.614,"lon":139.493},{"name":"山本家文書","province":"東京都","city":"稲城市","address":"東京都稲城市矢野口","lat":35.63441331,"lon":139.51171905},{"name":"近代行政資料","province":"東京都","city":"稲城市","address":"東京都稲城市平尾1-9-1","lat":35.614,"lon":139.493},{"name":"穴澤天神社本殿","province":"東京都","city":"稲城市","address":"東京都稲城市矢野口3292","lat":35.633,"lon":139.522},{"name":"青渭神社本殿","province":"東京都","city":"稲城市","address":"東京都稲城市東長沼1054","lat":35.643,"lon":139.502},{"name":"杉山神社本殿","province":"東京都","city":"稲城市","address":"東京都稲城市平尾4-45-6","lat":35.612,"lon":139.487},{"name":"妙見宮宮殿","province":"東京都","city":"稲城市","address":"東京都稲城市百村1588","lat":35.634,"lon":139.499},{"name":"常楽寺の飛天図及び龍図","province":"東京都","city":"稲城市","address":"東京都稲城市東長沼2117-2","lat":35.6374,"lon":139.502},{"name":"富士講関係資料","province":"東京都","city":"稲城市","address":"東京都稲城市矢野口3750","lat":35.642,"lon":139.542},{"name":"円照寺の木造十一面観音坐像","province":"東京都","city":"稲城市","address":"東京都稲城市大丸851番地","lat":35.6466,"lon":139.491},{"name":"旧宝泉寺の木造阿弥陀如来坐像","province":"東京都","city":"稲城市","address":"東京都稲城市平尾4-45-6","lat":35.6118,"lon":139.485},{"name":"本郷児童館","province":"東京都","city":"稲城市","address":"稲城市東長沼2115-2","lat":35.637781,"lon":139.501344},{"name":"第四児童館","province":"東京都","city":"稲城市","address":"稲城市東長沼271","lat":35.645938,"lon":139.505229},{"name":"城山児童館","province":"東京都","city":"稲城市","address":"稲城市向陽台6-7","lat":35.641669,"lon":139.490661},{"name":"稲城市立第二児童館","province":"東京都","city":"稲城市","address":"稲城市矢野口1780","lat":35.635108,"lon":139.518921},{"name":"第三児童館","province":"東京都","city":"稲城市","address":"稲城市平尾1-20-5","lat":35.613122,"lon":139.492558},{"name":"稲城市社会福祉協議会","province":"東京都","city":"稲城市","address":"稲城市百村7稲城市福祉センター内","lat":35.639609,"lon":139.499861},{"name":"本郷児童館","province":"東京都","city":"稲城市","address":"稲城市東長沼2115-2","lat":35.63477,"lon":139.50426},{"name":"稲城市第四文化センター児童館","province":"東京都","city":"稲城市","address":"稲城市東長沼271","lat":35.64565,"lon":139.50616},{"name":"稲城市城山文化センター児童館","province":"東京都","city":"稲城市","address":"稲城市向陽台6-7","lat":35.64127,"lon":139.49081},{"name":"稲城市第二文化センター児童館","province":"東京都","city":"稲城市","address":"稲城市矢野口1780","lat":35.63509,"lon":139.51866},{"name":"稲城市第三文化センター児童館","province":"東京都","city":"稲城市","address":"稲城市平尾1-20-5","lat":35.61317,"lon":139.4921},{"name":"稲城市社会福祉協議会","province":"東京都","city":"稲城市","address":"稲城市百村7番地稲城市福祉センター内","lat":35.63996,"lon":139.49953},{"name":"第四児童館","province":"東京都","city":"稲城市","address":"稲城市東長沼271","lat":35.64565,"lon":139.50616},{"name":"城山児童館","province":"東京都","city":"稲城市","address":"稲城市向陽台6-7","lat":35.64127,"lon":139.49081},{"name":"第二児童館","province":"東京都","city":"稲城市","address":"稲城市矢野口1780","lat":35.63509,"lon":139.51866},{"name":"第三児童館","province":"東京都","city":"稲城市","address":"稲城市平尾1-20-5","lat":35.61317,"lon":139.4921},{"name":"第二児童館","province":"東京都","city":"稲城市","address":"稲城市矢野口1780","lat":35.635108,"lon":139.518921},{"name":"第四児童館","province":"東京都","city":"稲城市","address":"稲城市東長沼271","lat":35.64565,"lon":139.50617},{"name":"本郷児童館","province":"東京都","city":"稲城市","address":"稲城市東長沼2115-2","lat":35.6487,"lon":139.50085},{"name":"向陽台給水所","province":"東京都","city":"稲城市","address":"東京都稲城市向陽台6丁目16","lat":35.64371302,"lon":139.49304963},{"name":"＊?稲城市立中央公民館","province":"東京都","city":"稲城市","address":"稲城市東長沼2111","lat":35.638078,"lon":139.503749},{"name":"＊?稲城市立第二公民館","province":"東京都","city":"稲城市","address":"稲城市矢野口1780","lat":35.634853,"lon":139.518966},{"name":"＊?稲城市立第三公民館","province":"東京都","city":"稲城市","address":"稲城市平尾1-20-5","lat":35.613117,"lon":139.492461},{"name":"＊?稲城市立第四公民館","province":"東京都","city":"稲城市","address":"稲城市東長沼271","lat":35.645914,"lon":139.505366},{"name":"＊?稲城市立城山公民館","province":"東京都","city":"稲城市","address":"稲城市向陽台6-7","lat":35.641555,"lon":139.493851},{"name":"＊?稲城市立中央図書館","province":"東京都","city":"稲城市","address":"稲城市向陽台4-6-18","lat":35.645642,"lon":139.488417},{"name":"＊?稲城市立第一図書館","province":"東京都","city":"稲城市","address":"稲城市東長沼2111","lat":35.638078,"lon":139.503749},{"name":"＊?稲城市立第二図書館","province":"東京都","city":"稲城市","address":"稲城市矢野口1780","lat":35.634849,"lon":139.518967},{"name":"＊?稲城市立第三図書館","province":"東京都","city":"稲城市","address":"稲城市平尾1-20-5","lat":35.613117,"lon":139.492461},{"name":"＊?稲城市立第四図書館","province":"東京都","city":"稲城市","address":"稲城市東長沼271","lat":35.645914,"lon":139.505366},{"name":"＊?稲城市立iプラザ図書館","province":"東京都","city":"稲城市","address":"稲城市若葉台2-5-2","lat":35.621149,"lon":139.472184},{"name":"稲城市本庁舎","province":"東京都","city":"稲城市","address":"稲城市東長沼2111","lat":35.63796,"lon":139.50427},{"name":"稲城消防署","province":"東京都","city":"稲城市","address":"稲城市東長沼2111","lat":35.63793,"lon":139.505064},{"name":"稲城市立中央公園総合グラウンド","province":"東京都","city":"稲城市","address":"稲城市長峰1-1","lat":35.63077,"lon":139.4861},{"name":"木造聖観音立像","province":"東京都","city":"稲城市","address":"東京都稲城市矢野口4015-1","lat":35.624,"lon":139.518},{"name":"瓦谷戸窯跡","province":"東京都","city":"稲城市","address":"東京都稲城市大丸15","lat":35.647,"lon":139.473},{"name":"孝子長五郎の墓","province":"東京都","city":"稲城市","address":"東京都稲城市押立637","lat":35.65,"lon":139.513},{"name":"高勝寺のカヤ","province":"東京都","city":"稲城市","address":"東京都稲城市坂浜551","lat":35.6257,"lon":139.489},{"name":"木造観世音菩薩立像","province":"東京都","city":"稲城市","address":"東京都稲城市坂浜551","lat":35.6257,"lon":139.489},{"name":"木造阿弥陀如来及び両脇侍像","province":"東京都","city":"稲城市","address":"東京都稲城市東長沼2117-2","lat":35.6374,"lon":139.502},{"name":"木造閻魔王坐像","province":"東京都","city":"稲城市","address":"東京都稲城市東長沼2117-2","lat":35.6374,"lon":139.502},{"name":"妙見尊の蛇より行事","province":"東京都","city":"稲城市","address":"東京都稲城市百村1588","lat":35.63380421,"lon":139.49841972},{"name":"瓦谷戸窯跡群出土遺物","province":"東京都","city":"稲城市","address":"東京都稲城市平尾1-9-1","lat":35.614,"lon":139.493},{"name":"多摩川中流域の船大工用具","province":"東京都","city":"稲城市","address":"東京都稲城市矢野口3750","lat":35.642,"lon":139.542},{"name":"地蔵菩薩塔","province":"東京都","city":"稲城市","address":"東京都稲城市東長沼2117-2","lat":35.6374,"lon":139.502},{"name":"葎草橋碑","province":"東京都","city":"稲城市","address":"東京都稲城市東長沼656","lat":35.6452,"lon":139.508},{"name":"庚申塔","province":"東京都","city":"稲城市","address":"東京都稲城市矢野口2411","lat":35.6311,"lon":139.516},{"name":"馬頭観世音塔","province":"東京都","city":"稲城市","address":"東京都稲城市矢野口401","lat":35.6408,"lon":139.524},{"name":"平尾原経塚出土品及び供養塔","province":"東京都","city":"稲城市","address":"東京都稲城市平尾1-49-7","lat":35.6412,"lon":139.494},{"name":"板碑","province":"東京都","city":"稲城市","address":"東京都稲城市矢野口2454","lat":35.633,"lon":139.514},{"name":"玉川焼","province":"東京都","city":"稲城市","address":"東京都稲城市坂浜","lat":35.61736469,"lon":139.48442727},{"name":"筆塚","province":"東京都","city":"稲城市","address":"東京都稲城市百村1588","lat":35.634,"lon":139.499},{"name":"筆塚","province":"東京都","city":"稲城市","address":"東京都稲城市矢野口3292","lat":35.633,"lon":139.522},{"name":"青渭神社獅子舞","province":"東京都","city":"稲城市","address":"東京都稲城市東長沼1053","lat":35.64272489,"lon":139.50116042},{"name":"穴澤天神社獅子舞","province":"東京都","city":"稲城市","address":"東京都稲城市矢野口3292","lat":35.63277255,"lon":139.52244086},{"name":"芦川家文書","province":"東京都","city":"稲城市","address":"東京都稲城市大丸","lat":35.65015104,"lon":139.49500745},{"name":"市村家文書","province":"東京都","city":"稲城市","address":"東京都稲城市坂浜","lat":35.61736469,"lon":139.48442727},{"name":"馬場家文書","province":"東京都","city":"稲城市","address":"東京都稲城市平尾","lat":35.61225701,"lon":139.48126665},{"name":"筆塚","province":"東京都","city":"稲城市","address":"東京都稲城市矢野口2454","lat":35.633,"lon":139.514},{"name":"榎本家文書","province":"東京都","city":"稲城市","address":"東京都稲城市平尾1-9-1","lat":35.614,"lon":139.493},{"name":"高橋家文書","province":"東京都","city":"稲城市","address":"東京都稲城市坂浜","lat":35.61736469,"lon":139.48442727},{"name":"旧報恩寺の文化財","province":"東京都","city":"稲城市","address":"東京都稲城市矢野口3750","lat":35.642,"lon":139.542},{"name":"平尾台原遺跡出土品","province":"東京都","city":"稲城市","address":"東京都稲城市平尾1-9-1","lat":35.614,"lon":139.493},{"name":"駒沢学園校地内遺跡出土品","province":"東京都","city":"稲城市","address":"東京都稲城市平尾1-9-1","lat":35.614,"lon":139.493},{"name":"稲城市竪台遺跡出土品","province":"東京都","city":"稲城市","address":"東京都稲城市平尾1-9-1","lat":35.614,"lon":139.493},{"name":"平尾入定塚出土品　附　発掘調査資料","province":"東京都","city":"稲城市","address":"東京都稲城市平尾1-9-1","lat":35.614,"lon":139.493},{"name":"窪家奚疑塾関係資料","province":"東京都","city":"稲城市","address":"東京都稲城市平尾1-9-1","lat":35.614,"lon":139.493},{"name":"清水家奚疑塾関係資料","province":"東京都","city":"稲城市","address":"東京都稲城市平尾1-9-1","lat":35.614,"lon":139.493},{"name":"鈴木家文書","province":"東京都","city":"稲城市","address":"東京都稲城市平尾1-9-1","lat":35.614,"lon":139.493},{"name":"山本家文書","province":"東京都","city":"稲城市","address":"東京都稲城市矢野口","lat":35.63441331,"lon":139.51171905},{"name":"近代行政資料","province":"東京都","city":"稲城市","address":"東京都稲城市平尾1-9-1","lat":35.614,"lon":139.493},{"name":"穴澤天神社本殿","province":"東京都","city":"稲城市","address":"東京都稲城市矢野口3292","lat":35.633,"lon":139.522},{"name":"青渭神社本殿","province":"東京都","city":"稲城市","address":"東京都稲城市東長沼1054","lat":35.643,"lon":139.502},{"name":"杉山神社本殿","province":"東京都","city":"稲城市","address":"東京都稲城市平尾4-45-6","lat":35.612,"lon":139.487},{"name":"妙見宮宮殿","province":"東京都","city":"稲城市","address":"東京都稲城市百村1588","lat":35.634,"lon":139.499},{"name":"常楽寺の飛天図及び龍図","province":"東京都","city":"稲城市","address":"東京都稲城市東長沼2117-2","lat":35.6374,"lon":139.502},{"name":"富士講関係資料","province":"東京都","city":"稲城市","address":"東京都稲城市矢野口3750","lat":35.642,"lon":139.542},{"name":"円照寺の木造十一面観音坐像","province":"東京都","city":"稲城市","address":"東京都稲城市大丸851番地","lat":35.6466,"lon":139.491},{"name":"旧宝泉寺の木造阿弥陀如来坐像","province":"東京都","city":"稲城市","address":"東京都稲城市平尾4-45-6","lat":35.6118,"lon":139.485},{"name":"本郷児童館","province":"東京都","city":"稲城市","address":"稲城市東長沼2115-2","lat":35.637781,"lon":139.501344},{"name":"第四児童館","province":"東京都","city":"稲城市","address":"稲城市東長沼271","lat":35.645938,"lon":139.505229},{"name":"城山児童館","province":"東京都","city":"稲城市","address":"稲城市向陽台6-7","lat":35.641669,"lon":139.490661},{"name":"稲城市立第二児童館","province":"東京都","city":"稲城市","address":"稲城市矢野口1780","lat":35.635108,"lon":139.518921},{"name":"第三児童館","province":"東京都","city":"稲城市","address":"稲城市平尾1-20-5","lat":35.613122,"lon":139.492558},{"name":"稲城市社会福祉協議会","province":"東京都","city":"稲城市","address":"稲城市百村7稲城市福祉センター内","lat":35.639609,"lon":139.499861},{"name":"本郷児童館","province":"東京都","city":"稲城市","address":"稲城市東長沼2115-2","lat":35.63477,"lon":139.50426},{"name":"稲城市第四文化センター児童館","province":"東京都","city":"稲城市","address":"稲城市東長沼271","lat":35.64565,"lon":139.50616},{"name":"稲城市城山文化センター児童館","province":"東京都","city":"稲城市","address":"稲城市向陽台6-7","lat":35.64127,"lon":139.49081},{"name":"稲城市第二文化センター児童館","province":"東京都","city":"稲城市","address":"稲城市矢野口1780","lat":35.63509,"lon":139.51866},{"name":"稲城市第三文化センター児童館","province":"東京都","city":"稲城市","address":"稲城市平尾1-20-5","lat":35.61317,"lon":139.4921},{"name":"稲城市社会福祉協議会","province":"東京都","city":"稲城市","address":"稲城市百村7番地稲城市福祉センター内","lat":35.63996,"lon":139.49953},{"name":"第四児童館","province":"東京都","city":"稲城市","address":"稲城市東長沼271","lat":35.64565,"lon":139.50616},{"name":"城山児童館","province":"東京都","city":"稲城市","address":"稲城市向陽台6-7","lat":35.64127,"lon":139.49081},{"name":"第二児童館","province":"東京都","city":"稲城市","address":"稲城市矢野口1780","lat":35.63509,"lon":139.51866},{"name":"第三児童館","province":"東京都","city":"稲城市","address":"稲城市平尾1-20-5","lat":35.61317,"lon":139.4921},{"name":"第二児童館","province":"東京都","city":"稲城市","address":"稲城市矢野口1780","lat":35.635108,"lon":139.518921},{"name":"第四児童館","province":"東京都","city":"稲城市","address":"稲城市東長沼271","lat":35.64565,"lon":139.50617},{"name":"本郷児童館","province":"東京都","city":"稲城市","address":"稲城市東長沼2115-2","lat":35.6487,"lon":139.50085},{"name":"＊?稲城市立中央公民館","province":"東京都","city":"稲城市","address":"稲城市東長沼2111","lat":35.638078,"lon":139.503749},{"name":"＊?稲城市立第二公民館","province":"東京都","city":"稲城市","address":"稲城市矢野口1780","lat":35.634853,"lon":139.518966},{"name":"＊?稲城市立第三公民館","province":"東京都","city":"稲城市","address":"稲城市平尾1-20-5","lat":35.613117,"lon":139.492461},{"name":"＊?稲城市立第四公民館","province":"東京都","city":"稲城市","address":"稲城市東長沼271","lat":35.645914,"lon":139.505366},{"name":"＊?稲城市立城山公民館","province":"東京都","city":"稲城市","address":"稲城市向陽台6-7","lat":35.641555,"lon":139.493851},{"name":"＊?稲城市立中央図書館","province":"東京都","city":"稲城市","address":"稲城市向陽台4-6-18","lat":35.645642,"lon":139.488417},{"name":"＊?稲城市立第一図書館","province":"東京都","city":"稲城市","address":"稲城市東長沼2111","lat":35.638078,"lon":139.503749},{"name":"＊?稲城市立第二図書館","province":"東京都","city":"稲城市","address":"稲城市矢野口1780","lat":35.634849,"lon":139.518967},{"name":"＊?稲城市立第三図書館","province":"東京都","city":"稲城市","address":"稲城市平尾1-20-5","lat":35.613117,"lon":139.492461},{"name":"＊?稲城市立第四図書館","province":"東京都","city":"稲城市","address":"稲城市東長沼271","lat":35.645914,"lon":139.505366},{"name":"＊?稲城市立iプラザ図書館","province":"東京都","city":"稲城市","address":"稲城市若葉台2-5-2","lat":35.621149,"lon":139.472184},{"name":"本郷児童館","province":"東京都","city":"稲城市","address":"稲城市東長沼2115-2","lat":35.637781,"lon":139.501344},{"name":"第四児童館","province":"東京都","city":"稲城市","address":"稲城市東長沼271","lat":35.645938,"lon":139.505229},{"name":"城山児童館","province":"東京都","city":"稲城市","address":"稲城市向陽台6-7","lat":35.641669,"lon":139.490661},{"name":"稲城市立第二児童館","province":"東京都","city":"稲城市","address":"稲城市矢野口1780","lat":35.635108,"lon":139.518921},{"name":"第三児童館","province":"東京都","city":"稲城市","address":"稲城市平尾1-20-5","lat":35.613122,"lon":139.492558},{"name":"稲城市社会福祉協議会","province":"東京都","city":"稲城市","address":"稲城市百村7稲城市福祉センター内","lat":35.639609,"lon":139.499861},{"name":"本郷児童館","province":"東京都","city":"稲城市","address":"稲城市東長沼2115-2","lat":35.63477,"lon":139.50426},{"name":"稲城市第四文化センター児童館","province":"東京都","city":"稲城市","address":"稲城市東長沼271","lat":35.64565,"lon":139.50616},{"name":"稲城市城山文化センター児童館","province":"東京都","city":"稲城市","address":"稲城市向陽台6-7","lat":35.64127,"lon":139.49081},{"name":"稲城市第二文化センター児童館","province":"東京都","city":"稲城市","address":"稲城市矢野口1780","lat":35.63509,"lon":139.51866},{"name":"稲城市第三文化センター児童館","province":"東京都","city":"稲城市","address":"稲城市平尾1-20-5","lat":35.61317,"lon":139.4921},{"name":"稲城市社会福祉協議会","province":"東京都","city":"稲城市","address":"稲城市百村7番地稲城市福祉センター内","lat":35.63996,"lon":139.49953},{"name":"第四児童館","province":"東京都","city":"稲城市","address":"稲城市東長沼271","lat":35.64565,"lon":139.50616},{"name":"城山児童館","province":"東京都","city":"稲城市","address":"稲城市向陽台6-7","lat":35.64127,"lon":139.49081},{"name":"第二児童館","province":"東京都","city":"稲城市","address":"稲城市矢野口1780","lat":35.63509,"lon":139.51866},{"name":"第三児童館","province":"東京都","city":"稲城市","address":"稲城市平尾1-20-5","lat":35.61317,"lon":139.4921},{"name":"第二児童館","province":"東京都","city":"稲城市","address":"稲城市矢野口1780","lat":35.635108,"lon":139.518921},{"name":"第四児童館","province":"東京都","city":"稲城市","address":"稲城市東長沼271","lat":35.64565,"lon":139.50617},{"name":"本郷児童館","province":"東京都","city":"稲城市","address":"稲城市東長沼2115-2","lat":35.6487,"lon":139.50085},{"name":"＊?稲城市立中央公民館","province":"東京都","city":"稲城市","address":"稲城市東長沼2111","lat":35.638078,"lon":139.503749},{"name":"＊?稲城市立第二公民館","province":"東京都","city":"稲城市","address":"稲城市矢野口1780","lat":35.634853,"lon":139.518966},{"name":"＊?稲城市立第三公民館","province":"東京都","city":"稲城市","address":"稲城市平尾1-20-5","lat":35.613117,"lon":139.492461},{"name":"＊?稲城市立第四公民館","province":"東京都","city":"稲城市","address":"稲城市東長沼271","lat":35.645914,"lon":139.505366},{"name":"＊?稲城市立城山公民館","province":"東京都","city":"稲城市","address":"稲城市向陽台6-7","lat":35.641555,"lon":139.493851},{"name":"＊?稲城市立中央図書館","province":"東京都","city":"稲城市","address":"稲城市向陽台4-6-18","lat":35.645642,"lon":139.488417},{"name":"＊?稲城市立第一図書館","province":"東京都","city":"稲城市","address":"稲城市東長沼2111","lat":35.638078,"lon":139.503749},{"name":"＊?稲城市立第二図書館","province":"東京都","city":"稲城市","address":"稲城市矢野口1780","lat":35.634849,"lon":139.518967},{"name":"＊?稲城市立第三図書館","province":"東京都","city":"稲城市","address":"稲城市平尾1-20-5","lat":35.613117,"lon":139.492461},{"name":"＊?稲城市立第四図書館","province":"東京都","city":"稲城市","address":"稲城市東長沼271","lat":35.645914,"lon":139.505366},{"name":"＊?稲城市立iプラザ図書館","province":"東京都","city":"稲城市","address":"稲城市若葉台2-5-2","lat":35.621149,"lon":139.472184},{"name":"本郷児童館","province":"東京都","city":"稲城市","address":"稲城市東長沼2115-2","lat":35.637781,"lon":139.501344},{"name":"第四児童館","province":"東京都","city":"稲城市","address":"稲城市東長沼271","lat":35.645938,"lon":139.505229},{"name":"城山児童館","province":"東京都","city":"稲城市","address":"稲城市向陽台6-7","lat":35.641669,"lon":139.490661},{"name":"稲城市立第二児童館","province":"東京都","city":"稲城市","address":"稲城市矢野口1780","lat":35.635108,"lon":139.518921},{"name":"第三児童館","province":"東京都","city":"稲城市","address":"稲城市平尾1-20-5","lat":35.613122,"lon":139.492558},{"name":"本郷児童館","province":"東京都","city":"稲城市","address":"稲城市東長沼2115-2","lat":35.63477,"lon":139.50426},{"name":"稲城市第四文化センター児童館","province":"東京都","city":"稲城市","address":"稲城市東長沼271","lat":35.64565,"lon":139.50616},{"name":"稲城市城山文化センター児童館","province":"東京都","city":"稲城市","address":"稲城市向陽台6-7","lat":35.64127,"lon":139.49081},{"name":"稲城市第二文化センター児童館","province":"東京都","city":"稲城市","address":"稲城市矢野口1780","lat":35.63509,"lon":139.51866},{"name":"稲城市第三文化センター児童館","province":"東京都","city":"稲城市","address":"稲城市平尾1-20-5","lat":35.61317,"lon":139.4921},{"name":"第四児童館","province":"東京都","city":"稲城市","address":"稲城市東長沼271","lat":35.64565,"lon":139.50616},{"name":"城山児童館","province":"東京都","city":"稲城市","address":"稲城市向陽台6-7","lat":35.64127,"lon":139.49081},{"name":"第二児童館","province":"東京都","city":"稲城市","address":"稲城市矢野口1780","lat":35.63509,"lon":139.51866},{"name":"第三児童館","province":"東京都","city":"稲城市","address":"稲城市平尾1-20-5","lat":35.61317,"lon":139.4921},{"name":"第二児童館","province":"東京都","city":"稲城市","address":"稲城市矢野口1780","lat":35.635108,"lon":139.518921},{"name":"第四児童館","province":"東京都","city":"稲城市","address":"稲城市東長沼271","lat":35.64565,"lon":139.50617},{"name":"本郷児童館","province":"東京都","city":"稲城市","address":"稲城市東長沼2115-2","lat":35.6487,"lon":139.50085},{"name":"＊?稲城市立中央公民館","province":"東京都","city":"稲城市","address":"稲城市東長沼2111","lat":35.638078,"lon":139.503749},{"name":"＊?稲城市立第二公民館","province":"東京都","city":"稲城市","address":"稲城市矢野口1780","lat":35.634853,"lon":139.518966},{"name":"＊?稲城市立第三公民館","province":"東京都","city":"稲城市","address":"稲城市平尾1-20-5","lat":35.613117,"lon":139.492461},{"name":"＊?稲城市立第四公民館","province":"東京都","city":"稲城市","address":"稲城市東長沼271","lat":35.645914,"lon":139.505366},{"name":"＊?稲城市立城山公民館","province":"東京都","city":"稲城市","address":"稲城市向陽台6-7","lat":35.641555,"lon":139.493851},{"name":"＊?稲城市立中央図書館","province":"東京都","city":"稲城市","address":"稲城市向陽台4-6-18","lat":35.645642,"lon":139.488417},{"name":"＊?稲城市立第一図書館","province":"東京都","city":"稲城市","address":"稲城市東長沼2111","lat":35.638078,"lon":139.503749},{"name":"＊?稲城市立第二図書館","province":"東京都","city":"稲城市","address":"稲城市矢野口1780","lat":35.634849,"lon":139.518967},{"name":"＊?稲城市立第三図書館","province":"東京都","city":"稲城市","address":"稲城市平尾1-20-5","lat":35.613117,"lon":139.492461},{"name":"＊?稲城市立第四図書館","province":"東京都","city":"稲城市","address":"稲城市東長沼271","lat":35.645914,"lon":139.505366},{"name":"＊?稲城市立iプラザ図書館","province":"東京都","city":"稲城市","address":"稲城市若葉台2-5-2","lat":35.621149,"lon":139.472184},{"name":"本郷児童館","province":"東京都","city":"稲城市","address":"稲城市東長沼2115-2","lat":35.637781,"lon":139.501344},{"name":"第四児童館","province":"東京都","city":"稲城市","address":"稲城市東長沼271","lat":35.645938,"lon":139.505229},{"name":"城山児童館","province":"東京都","city":"稲城市","address":"稲城市向陽台6-7","lat":35.641669,"lon":139.490661},{"name":"稲城市立第二児童館","province":"東京都","city":"稲城市","address":"稲城市矢野口1780","lat":35.635108,"lon":139.518921},{"name":"第三児童館","province":"東京都","city":"稲城市","address":"稲城市平尾1-20-5","lat":35.613122,"lon":139.492558},{"name":"本郷児童館","province":"東京都","city":"稲城市","address":"稲城市東長沼2115-2","lat":35.63477,"lon":139.50426},{"name":"稲城市第四文化センター児童館","province":"東京都","city":"稲城市","address":"稲城市東長沼271","lat":35.64565,"lon":139.50616},{"name":"稲城市城山文化センター児童館","province":"東京都","city":"稲城市","address":"稲城市向陽台6-7","lat":35.64127,"lon":139.49081},{"name":"稲城市第二文化センター児童館","province":"東京都","city":"稲城市","address":"稲城市矢野口1780","lat":35.63509,"lon":139.51866},{"name":"稲城市第三文化センター児童館","province":"東京都","city":"稲城市","address":"稲城市平尾1-20-5","lat":35.61317,"lon":139.4921},{"name":"第四児童館","province":"東京都","city":"稲城市","address":"稲城市東長沼271","lat":35.64565,"lon":139.50616},{"name":"城山児童館","province":"東京都","city":"稲城市","address":"稲城市向陽台6-7","lat":35.64127,"lon":139.49081},{"name":"第二児童館","province":"東京都","city":"稲城市","address":"稲城市矢野口1780","lat":35.63509,"lon":139.51866},{"name":"第三児童館","province":"東京都","city":"稲城市","address":"稲城市平尾1-20-5","lat":35.61317,"lon":139.4921},{"name":"第二児童館","province":"東京都","city":"稲城市","address":"稲城市矢野口1780","lat":35.635108,"lon":139.518921},{"name":"第四児童館","province":"東京都","city":"稲城市","address":"稲城市東長沼271","lat":35.64565,"lon":139.50617},{"name":"本郷児童館","province":"東京都","city":"稲城市","address":"稲城市東長沼2115-2","lat":35.6487,"lon":139.50085},{"name":"＊?稲城市立中央公民館","province":"東京都","city":"稲城市","address":"稲城市東長沼2111","lat":35.638078,"lon":139.503749},{"name":"＊?稲城市立第二公民館","province":"東京都","city":"稲城市","address":"稲城市矢野口1780","lat":35.634853,"lon":139.518966},{"name":"＊?稲城市立第三公民館","province":"東京都","city":"稲城市","address":"稲城市平尾1-20-5","lat":35.613117,"lon":139.492461},{"name":"＊?稲城市立第四公民館","province":"東京都","city":"稲城市","address":"稲城市東長沼271","lat":35.645914,"lon":139.505366},{"name":"＊?稲城市立城山公民館","province":"東京都","city":"稲城市","address":"稲城市向陽台6-7","lat":35.641555,"lon":139.493851},{"name":"＊?稲城市立中央図書館","province":"東京都","city":"稲城市","address":"稲城市向陽台4-6-18","lat":35.645642,"lon":139.488417},{"name":"＊?稲城市立第一図書館","province":"東京都","city":"稲城市","address":"稲城市東長沼2111","lat":35.638078,"lon":139.503749},{"name":"＊?稲城市立第二図書館","province":"東京都","city":"稲城市","address":"稲城市矢野口1780","lat":35.634849,"lon":139.518967},{"name":"＊?稲城市立第三図書館","province":"東京都","city":"稲城市","address":"稲城市平尾1-20-5","lat":35.613117,"lon":139.492461},{"name":"＊?稲城市立第四図書館","province":"東京都","city":"稲城市","address":"稲城市東長沼271","lat":35.645914,"lon":139.505366},{"name":"＊?稲城市立iプラザ図書館","province":"東京都","city":"稲城市","address":"稲城市若葉台2-5-2","lat":35.621149,"lon":139.472184},{"name":"本郷児童館","province":"東京都","city":"稲城市","address":"稲城市東長沼2115-2","lat":35.637781,"lon":139.501344},{"name":"第四児童館","province":"東京都","city":"稲城市","address":"稲城市東長沼271","lat":35.645938,"lon":139.505229},{"name":"城山児童館","province":"東京都","city":"稲城市","address":"稲城市向陽台6-7","lat":35.641669,"lon":139.490661},{"name":"稲城市立第二児童館","province":"東京都","city":"稲城市","address":"稲城市矢野口1780","lat":35.635108,"lon":139.518921},{"name":"第三児童館","province":"東京都","city":"稲城市","address":"稲城市平尾1-20-5","lat":35.613122,"lon":139.492558},{"name":"本郷児童館","province":"東京都","city":"稲城市","address":"稲城市東長沼2115-2","lat":35.63477,"lon":139.50426},{"name":"稲城市第四文化センター児童館","province":"東京都","city":"稲城市","address":"稲城市東長沼271","lat":35.64565,"lon":139.50616},{"name":"稲城市城山文化センター児童館","province":"東京都","city":"稲城市","address":"稲城市向陽台6-7","lat":35.64127,"lon":139.49081},{"name":"稲城市第二文化センター児童館","province":"東京都","city":"稲城市","address":"稲城市矢野口1780","lat":35.63509,"lon":139.51866},{"name":"稲城市第三文化センター児童館","province":"東京都","city":"稲城市","address":"稲城市平尾1-20-5","lat":35.61317,"lon":139.4921},{"name":"第四児童館","province":"東京都","city":"稲城市","address":"稲城市東長沼271","lat":35.64565,"lon":139.50616},{"name":"城山児童館","province":"東京都","city":"稲城市","address":"稲城市向陽台6-7","lat":35.64127,"lon":139.49081},{"name":"第二児童館","province":"東京都","city":"稲城市","address":"稲城市矢野口1780","lat":35.63509,"lon":139.51866},{"name":"第三児童館","province":"東京都","city":"稲城市","address":"稲城市平尾1-20-5","lat":35.61317,"lon":139.4921},{"name":"第二児童館","province":"東京都","city":"稲城市","address":"稲城市矢野口1780","lat":35.635108,"lon":139.518921},{"name":"第四児童館","province":"東京都","city":"稲城市","address":"稲城市東長沼271","lat":35.64565,"lon":139.50617},{"name":"本郷児童館","province":"東京都","city":"稲城市","address":"稲城市東長沼2115-2","lat":35.6487,"lon":139.50085},{"name":"＊?稲城市立中央公民館","province":"東京都","city":"稲城市","address":"稲城市東長沼2111","lat":35.638078,"lon":139.503749},{"name":"＊?稲城市立第二公民館","province":"東京都","city":"稲城市","address":"稲城市矢野口1780","lat":35.634853,"lon":139.518966},{"name":"＊?稲城市立第三公民館","province":"東京都","city":"稲城市","address":"稲城市平尾1-20-5","lat":35.613117,"lon":139.492461},{"name":"＊?稲城市立第四公民館","province":"東京都","city":"稲城市","address":"稲城市東長沼271","lat":35.645914,"lon":139.505366},{"name":"＊?稲城市立城山公民館","province":"東京都","city":"稲城市","address":"稲城市向陽台6-7","lat":35.641555,"lon":139.493851},{"name":"＊?稲城市立中央図書館","province":"東京都","city":"稲城市","address":"稲城市向陽台4-6-18","lat":35.645642,"lon":139.488417},{"name":"＊?稲城市立第一図書館","province":"東京都","city":"稲城市","address":"稲城市東長沼2111","lat":35.638078,"lon":139.503749},{"name":"＊?稲城市立第二図書館","province":"東京都","city":"稲城市","address":"稲城市矢野口1780","lat":35.634849,"lon":139.518967},{"name":"＊?稲城市立第三図書館","province":"東京都","city":"稲城市","address":"稲城市平尾1-20-5","lat":35.613117,"lon":139.492461},{"name":"＊?稲城市立第四図書館","province":"東京都","city":"稲城市","address":"稲城市東長沼271","lat":35.645914,"lon":139.505366},{"name":"＊?稲城市立iプラザ図書館","province":"東京都","city":"稲城市","address":"稲城市若葉台2-5-2","lat":35.621149,"lon":139.472184},{"name":"本郷児童館","province":"東京都","city":"稲城市","address":"稲城市東長沼2115-2","lat":35.637781,"lon":139.501344},{"name":"第四児童館","province":"東京都","city":"稲城市","address":"稲城市東長沼271","lat":35.645938,"lon":139.505229},{"name":"城山児童館","province":"東京都","city":"稲城市","address":"稲城市向陽台6-7","lat":35.641669,"lon":139.490661},{"name":"稲城市立第二児童館","province":"東京都","city":"稲城市","address":"稲城市矢野口1780","lat":35.635108,"lon":139.518921},{"name":"第三児童館","province":"東京都","city":"稲城市","address":"稲城市平尾1-20-5","lat":35.613122,"lon":139.492558},{"name":"本郷児童館","province":"東京都","city":"稲城市","address":"稲城市東長沼2115-2","lat":35.63477,"lon":139.50426},{"name":"稲城市第四文化センター児童館","province":"東京都","city":"稲城市","address":"稲城市東長沼271","lat":35.64565,"lon":139.50616},{"name":"稲城市城山文化センター児童館","province":"東京都","city":"稲城市","address":"稲城市向陽台6-7","lat":35.64127,"lon":139.49081},{"name":"稲城市第二文化センター児童館","province":"東京都","city":"稲城市","address":"稲城市矢野口1780","lat":35.63509,"lon":139.51866},{"name":"稲城市第三文化センター児童館","province":"東京都","city":"稲城市","address":"稲城市平尾1-20-5","lat":35.61317,"lon":139.4921},{"name":"第四児童館","province":"東京都","city":"稲城市","address":"稲城市東長沼271","lat":35.64565,"lon":139.50616},{"name":"城山児童館","province":"東京都","city":"稲城市","address":"稲城市向陽台6-7","lat":35.64127,"lon":139.49081},{"name":"第二児童館","province":"東京都","city":"稲城市","address":"稲城市矢野口1780","lat":35.63509,"lon":139.51866},{"name":"第三児童館","province":"東京都","city":"稲城市","address":"稲城市平尾1-20-5","lat":35.61317,"lon":139.4921},{"name":"第二児童館","province":"東京都","city":"稲城市","address":"稲城市矢野口1780","lat":35.635108,"lon":139.518921},{"name":"第四児童館","province":"東京都","city":"稲城市","address":"稲城市東長沼271","lat":35.64565,"lon":139.50617},{"name":"本郷児童館","province":"東京都","city":"稲城市","address":"稲城市東長沼2115-2","lat":35.6487,"lon":139.50085},{"name":"＊?稲城市立中央図書館","province":"東京都","city":"稲城市","address":"稲城市向陽台4-6-18","lat":35.645642,"lon":139.488417},{"name":"＊?稲城市立第一図書館","province":"東京都","city":"稲城市","address":"稲城市東長沼2111","lat":35.638078,"lon":139.503749},{"name":"＊?稲城市立第二図書館","province":"東京都","city":"稲城市","address":"稲城市矢野口1780","lat":35.634849,"lon":139.518967},{"name":"＊?稲城市立第三図書館","province":"東京都","city":"稲城市","address":"稲城市平尾1-20-5","lat":35.613117,"lon":139.492461},{"name":"＊?稲城市立第四図書館","province":"東京都","city":"稲城市","address":"稲城市東長沼271","lat":35.645914,"lon":139.505366},{"name":"＊?稲城市立iプラザ図書館","province":"東京都","city":"稲城市","address":"稲城市若葉台2-5-2","lat":35.621149,"lon":139.472184},{"name":"本郷児童館","province":"東京都","city":"稲城市","address":"稲城市東長沼2115-2","lat":35.637781,"lon":139.501344},{"name":"第四児童館","province":"東京都","city":"稲城市","address":"稲城市東長沼271","lat":35.645938,"lon":139.505229},{"name":"城山児童館","province":"東京都","city":"稲城市","address":"稲城市向陽台6-7","lat":35.641669,"lon":139.490661},{"name":"稲城市立第二児童館","province":"東京都","city":"稲城市","address":"稲城市矢野口1780","lat":35.635108,"lon":139.518921},{"name":"第三児童館","province":"東京都","city":"稲城市","address":"稲城市平尾1-20-5","lat":35.613122,"lon":139.492558},{"name":"本郷児童館","province":"東京都","city":"稲城市","address":"稲城市東長沼2115-2","lat":35.63477,"lon":139.50426},{"name":"稲城市第四文化センター児童館","province":"東京都","city":"稲城市","address":"稲城市東長沼271","lat":35.64565,"lon":139.50616},{"name":"稲城市城山文化センター児童館","province":"東京都","city":"稲城市","address":"稲城市向陽台6-7","lat":35.64127,"lon":139.49081},{"name":"稲城市第二文化センター児童館","province":"東京都","city":"稲城市","address":"稲城市矢野口1780","lat":35.63509,"lon":139.51866},{"name":"稲城市第三文化センター児童館","province":"東京都","city":"稲城市","address":"稲城市平尾1-20-5","lat":35.61317,"lon":139.4921},{"name":"第四児童館","province":"東京都","city":"稲城市","address":"稲城市東長沼271","lat":35.64565,"lon":139.50616},{"name":"城山児童館","province":"東京都","city":"稲城市","address":"稲城市向陽台6-7","lat":35.64127,"lon":139.49081},{"name":"第二児童館","province":"東京都","city":"稲城市","address":"稲城市矢野口1780","lat":35.63509,"lon":139.51866},{"name":"第三児童館","province":"東京都","city":"稲城市","address":"稲城市平尾1-20-5","lat":35.61317,"lon":139.4921},{"name":"第二児童館","province":"東京都","city":"稲城市","address":"稲城市矢野口1780","lat":35.635108,"lon":139.518921},{"name":"第四児童館","province":"東京都","city":"稲城市","address":"稲城市東長沼271","lat":35.64565,"lon":139.50617},{"name":"本郷児童館","province":"東京都","city":"稲城市","address":"稲城市東長沼2115-2","lat":35.6487,"lon":139.50085},{"name":"＊?稲城市立中央図書館","province":"東京都","city":"稲城市","address":"稲城市向陽台4-6-18","lat":35.645642,"lon":139.488417},{"name":"＊?稲城市立第一図書館","province":"東京都","city":"稲城市","address":"稲城市東長沼2111","lat":35.638078,"lon":139.503749},{"name":"＊?稲城市立第二図書館","province":"東京都","city":"稲城市","address":"稲城市矢野口1780","lat":35.634849,"lon":139.518967},{"name":"＊?稲城市立第三図書館","province":"東京都","city":"稲城市","address":"稲城市平尾1-20-5","lat":35.613117,"lon":139.492461},{"name":"＊?稲城市立第四図書館","province":"東京都","city":"稲城市","address":"稲城市東長沼271","lat":35.645914,"lon":139.505366},{"name":"＊?稲城市立iプラザ図書館","province":"東京都","city":"稲城市","address":"稲城市若葉台2-5-2","lat":35.621149,"lon":139.472184},{"name":"本郷児童館","province":"東京都","city":"稲城市","address":"稲城市東長沼2115-2","lat":35.637781,"lon":139.501344},{"name":"第四児童館","province":"東京都","city":"稲城市","address":"稲城市東長沼271","lat":35.645938,"lon":139.505229},{"name":"城山児童館","province":"東京都","city":"稲城市","address":"稲城市向陽台6-7","lat":35.641669,"lon":139.490661},{"name":"稲城市立第二児童館","province":"東京都","city":"稲城市","address":"稲城市矢野口1780","lat":35.635108,"lon":139.518921},{"name":"第三児童館","province":"東京都","city":"稲城市","address":"稲城市平尾1-20-5","lat":35.613122,"lon":139.492558},{"name":"本郷児童館","province":"東京都","city":"稲城市","address":"稲城市東長沼2115-2","lat":35.63477,"lon":139.50426},{"name":"稲城市第四文化センター児童館","province":"東京都","city":"稲城市","address":"稲城市東長沼271","lat":35.64565,"lon":139.50616},{"name":"稲城市城山文化センター児童館","province":"東京都","city":"稲城市","address":"稲城市向陽台6-7","lat":35.64127,"lon":139.49081},{"name":"稲城市第二文化センター児童館","province":"東京都","city":"稲城市","address":"稲城市矢野口1780","lat":35.63509,"lon":139.51866},{"name":"稲城市第三文化センター児童館","province":"東京都","city":"稲城市","address":"稲城市平尾1-20-5","lat":35.61317,"lon":139.4921},{"name":"第四児童館","province":"東京都","city":"稲城市","address":"稲城市東長沼271","lat":35.64565,"lon":139.50616},{"name":"城山児童館","province":"東京都","city":"稲城市","address":"稲城市向陽台6-7","lat":35.64127,"lon":139.49081},{"name":"第二児童館","province":"東京都","city":"稲城市","address":"稲城市矢野口1780","lat":35.63509,"lon":139.51866},{"name":"第三児童館","province":"東京都","city":"稲城市","address":"稲城市平尾1-20-5","lat":35.61317,"lon":139.4921},{"name":"第二児童館","province":"東京都","city":"稲城市","address":"稲城市矢野口1780","lat":35.635108,"lon":139.518921},{"name":"第四児童館","province":"東京都","city":"稲城市","address":"稲城市東長沼271","lat":35.64565,"lon":139.50617},{"name":"本郷児童館","province":"東京都","city":"稲城市","address":"稲城市東長沼2115-2","lat":35.6487,"lon":139.50085},{"name":"＊?稲城市立中央図書館","province":"東京都","city":"稲城市","address":"稲城市向陽台4-6-18","lat":35.645642,"lon":139.488417},{"name":"＊?稲城市立第一図書館","province":"東京都","city":"稲城市","address":"稲城市東長沼2111","lat":35.638078,"lon":139.503749},{"name":"＊?稲城市立第二図書館","province":"東京都","city":"稲城市","address":"稲城市矢野口1780","lat":35.634849,"lon":139.518967},{"name":"＊?稲城市立第三図書館","province":"東京都","city":"稲城市","address":"稲城市平尾1-20-5","lat":35.613117,"lon":139.492461},{"name":"＊?稲城市立第四図書館","province":"東京都","city":"稲城市","address":"稲城市東長沼271","lat":35.645914,"lon":139.505366},{"name":"＊?稲城市立iプラザ図書館","province":"東京都","city":"稲城市","address":"稲城市若葉台2-5-2","lat":35.621149,"lon":139.472184},{"name":"本郷児童館","province":"東京都","city":"稲城市","address":"稲城市東長沼2115-2","lat":35.637781,"lon":139.501344},{"name":"第四児童館","province":"東京都","city":"稲城市","address":"稲城市東長沼271","lat":35.645938,"lon":139.505229},{"name":"城山児童館","province":"東京都","city":"稲城市","address":"稲城市向陽台6-7","lat":35.641669,"lon":139.490661},{"name":"稲城市立第二児童館","province":"東京都","city":"稲城市","address":"稲城市矢野口1780","lat":35.635108,"lon":139.518921},{"name":"第三児童館","province":"東京都","city":"稲城市","address":"稲城市平尾1-20-5","lat":35.613122,"lon":139.492558},{"name":"本郷児童館","province":"東京都","city":"稲城市","address":"稲城市東長沼2115-2","lat":35.63477,"lon":139.50426},{"name":"稲城市第四文化センター児童館","province":"東京都","city":"稲城市","address":"稲城市東長沼271","lat":35.64565,"lon":139.50616},{"name":"稲城市城山文化センター児童館","province":"東京都","city":"稲城市","address":"稲城市向陽台6-7","lat":35.64127,"lon":139.49081},{"name":"稲城市第二文化センター児童館","province":"東京都","city":"稲城市","address":"稲城市矢野口1780","lat":35.63509,"lon":139.51866},{"name":"稲城市第三文化センター児童館","province":"東京都","city":"稲城市","address":"稲城市平尾1-20-5","lat":35.61317,"lon":139.4921},{"name":"第四児童館","province":"東京都","city":"稲城市","address":"稲城市東長沼271","lat":35.64565,"lon":139.50616},{"name":"城山児童館","province":"東京都","city":"稲城市","address":"稲城市向陽台6-7","lat":35.64127,"lon":139.49081},{"name":"第二児童館","province":"東京都","city":"稲城市","address":"稲城市矢野口1780","lat":35.63509,"lon":139.51866},{"name":"第三児童館","province":"東京都","city":"稲城市","address":"稲城市平尾1-20-5","lat":35.61317,"lon":139.4921},{"name":"第二児童館","province":"東京都","city":"稲城市","address":"稲城市矢野口1780","lat":35.635108,"lon":139.518921},{"name":"第四児童館","province":"東京都","city":"稲城市","address":"稲城市東長沼271","lat":35.64565,"lon":139.50617},{"name":"本郷児童館","province":"東京都","city":"稲城市","address":"稲城市東長沼2115-2","lat":35.6487,"lon":139.50085},{"name":"＊?稲城市立中央図書館","province":"東京都","city":"稲城市","address":"稲城市向陽台4-6-18","lat":35.645642,"lon":139.488417},{"name":"＊?稲城市立第一図書館","province":"東京都","city":"稲城市","address":"稲城市東長沼2111","lat":35.638078,"lon":139.503749},{"name":"＊?稲城市立第二図書館","province":"東京都","city":"稲城市","address":"稲城市矢野口1780","lat":35.634849,"lon":139.518967},{"name":"＊?稲城市立第三図書館","province":"東京都","city":"稲城市","address":"稲城市平尾1-20-5","lat":35.613117,"lon":139.492461},{"name":"＊?稲城市立第四図書館","province":"東京都","city":"稲城市","address":"稲城市東長沼271","lat":35.645914,"lon":139.505366},{"name":"＊?稲城市立iプラザ図書館","province":"東京都","city":"稲城市","address":"稲城市若葉台2-5-2","lat":35.621149,"lon":139.472184},{"name":"本郷児童館","province":"東京都","city":"稲城市","address":"稲城市東長沼2115-2","lat":35.637781,"lon":139.501344},{"name":"第四児童館","province":"東京都","city":"稲城市","address":"稲城市東長沼271","lat":35.645938,"lon":139.505229},{"name":"城山児童館","province":"東京都","city":"稲城市","address":"稲城市向陽台6-7","lat":35.641669,"lon":139.490661},{"name":"稲城市立第二児童館","province":"東京都","city":"稲城市","address":"稲城市矢野口1780","lat":35.635108,"lon":139.518921},{"name":"第三児童館","province":"東京都","city":"稲城市","address":"稲城市平尾1-20-5","lat":35.613122,"lon":139.492558},{"name":"本郷児童館","province":"東京都","city":"稲城市","address":"稲城市東長沼2115-2","lat":35.63477,"lon":139.50426},{"name":"稲城市第四文化センター児童館","province":"東京都","city":"稲城市","address":"稲城市東長沼271","lat":35.64565,"lon":139.50616},{"name":"稲城市城山文化センター児童館","province":"東京都","city":"稲城市","address":"稲城市向陽台6-7","lat":35.64127,"lon":139.49081},{"name":"稲城市第二文化センター児童館","province":"東京都","city":"稲城市","address":"稲城市矢野口1780","lat":35.63509,"lon":139.51866},{"name":"稲城市第三文化センター児童館","province":"東京都","city":"稲城市","address":"稲城市平尾1-20-5","lat":35.61317,"lon":139.4921},{"name":"第四児童館","province":"東京都","city":"稲城市","address":"稲城市東長沼271","lat":35.64565,"lon":139.50616},{"name":"城山児童館","province":"東京都","city":"稲城市","address":"稲城市向陽台6-7","lat":35.64127,"lon":139.49081},{"name":"第二児童館","province":"東京都","city":"稲城市","address":"稲城市矢野口1780","lat":35.63509,"lon":139.51866},{"name":"第三児童館","province":"東京都","city":"稲城市","address":"稲城市平尾1-20-5","lat":35.61317,"lon":139.4921},{"name":"第二児童館","province":"東京都","city":"稲城市","address":"稲城市矢野口1780","lat":35.635108,"lon":139.518921},{"name":"第四児童館","province":"東京都","city":"稲城市","address":"稲城市東長沼271","lat":35.64565,"lon":139.50617},{"name":"本郷児童館","province":"東京都","city":"稲城市","address":"稲城市東長沼2115-2","lat":35.6487,"lon":139.50085},{"name":"＊?稲城市立中央図書館","province":"東京都","city":"稲城市","address":"稲城市向陽台4-6-18","lat":35.645642,"lon":139.488417},{"name":"＊?稲城市立第一図書館","province":"東京都","city":"稲城市","address":"稲城市東長沼2111","lat":35.638078,"lon":139.503749},{"name":"＊?稲城市立第二図書館","province":"東京都","city":"稲城市","address":"稲城市矢野口1780","lat":35.634849,"lon":139.518967},{"name":"＊?稲城市立第三図書館","province":"東京都","city":"稲城市","address":"稲城市平尾1-20-5","lat":35.613117,"lon":139.492461},{"name":"＊?稲城市立第四図書館","province":"東京都","city":"稲城市","address":"稲城市東長沼271","lat":35.645914,"lon":139.505366},{"name":"＊?稲城市立iプラザ図書館","province":"東京都","city":"稲城市","address":"稲城市若葉台2-5-2","lat":35.621149,"lon":139.472184},{"name":"本郷児童館","province":"東京都","city":"稲城市","address":"稲城市東長沼2115-2","lat":35.637781,"lon":139.501344},{"name":"第四児童館","province":"東京都","city":"稲城市","address":"稲城市東長沼271","lat":35.645938,"lon":139.505229},{"name":"城山児童館","province":"東京都","city":"稲城市","address":"稲城市向陽台6-7","lat":35.641669,"lon":139.490661},{"name":"稲城市立第二児童館","province":"東京都","city":"稲城市","address":"稲城市矢野口1780","lat":35.635108,"lon":139.518921},{"name":"第三児童館","province":"東京都","city":"稲城市","address":"稲城市平尾1-20-5","lat":35.613122,"lon":139.492558},{"name":"本郷児童館","province":"東京都","city":"稲城市","address":"稲城市東長沼2115-2","lat":35.63477,"lon":139.50426},{"name":"稲城市第四文化センター児童館","province":"東京都","city":"稲城市","address":"稲城市東長沼271","lat":35.64565,"lon":139.50616},{"name":"稲城市城山文化センター児童館","province":"東京都","city":"稲城市","address":"稲城市向陽台6-7","lat":35.64127,"lon":139.49081},{"name":"稲城市第二文化センター児童館","province":"東京都","city":"稲城市","address":"稲城市矢野口1780","lat":35.63509,"lon":139.51866},{"name":"稲城市第三文化センター児童館","province":"東京都","city":"稲城市","address":"稲城市平尾1-20-5","lat":35.61317,"lon":139.4921},{"name":"第四児童館","province":"東京都","city":"稲城市","address":"稲城市東長沼271","lat":35.64565,"lon":139.50616},{"name":"城山児童館","province":"東京都","city":"稲城市","address":"稲城市向陽台6-7","lat":35.64127,"lon":139.49081},{"name":"第二児童館","province":"東京都","city":"稲城市","address":"稲城市矢野口1780","lat":35.63509,"lon":139.51866},{"name":"第三児童館","province":"東京都","city":"稲城市","address":"稲城市平尾1-20-5","lat":35.61317,"lon":139.4921},{"name":"第二児童館","province":"東京都","city":"稲城市","address":"稲城市矢野口1780","lat":35.635108,"lon":139.518921},{"name":"第四児童館","province":"東京都","city":"稲城市","address":"稲城市東長沼271","lat":35.64565,"lon":139.50617},{"name":"本郷児童館","province":"東京都","city":"稲城市","address":"稲城市東長沼2115-2","lat":35.6487,"lon":139.50085},{"name":"＊?稲城市立中央図書館","province":"東京都","city":"稲城市","address":"稲城市向陽台4-6-18","lat":35.645642,"lon":139.488417},{"name":"＊?稲城市立第一図書館","province":"東京都","city":"稲城市","address":"稲城市東長沼2111","lat":35.638078,"lon":139.503749},{"name":"＊?稲城市立第二図書館","province":"東京都","city":"稲城市","address":"稲城市矢野口1780","lat":35.634849,"lon":139.518967},{"name":"＊?稲城市立第三図書館","province":"東京都","city":"稲城市","address":"稲城市平尾1-20-5","lat":35.613117,"lon":139.492461},{"name":"＊?稲城市立第四図書館","province":"東京都","city":"稲城市","address":"稲城市東長沼271","lat":35.645914,"lon":139.505366},{"name":"＊?稲城市立iプラザ図書館","province":"東京都","city":"稲城市","address":"稲城市若葉台2-5-2","lat":35.621149,"lon":139.472184},{"name":"本郷児童館","province":"東京都","city":"稲城市","address":"稲城市東長沼2115-2","lat":35.637781,"lon":139.501344},{"name":"第四児童館","province":"東京都","city":"稲城市","address":"稲城市東長沼271","lat":35.645938,"lon":139.505229},{"name":"城山児童館","province":"東京都","city":"稲城市","address":"稲城市向陽台6-7","lat":35.641669,"lon":139.490661},{"name":"稲城市立第二児童館","province":"東京都","city":"稲城市","address":"稲城市矢野口1780","lat":35.635108,"lon":139.518921},{"name":"第三児童館","province":"東京都","city":"稲城市","address":"稲城市平尾1-20-5","lat":35.613122,"lon":139.492558},{"name":"本郷児童館","province":"東京都","city":"稲城市","address":"稲城市東長沼2115-2","lat":35.63477,"lon":139.50426},{"name":"稲城市第四文化センター児童館","province":"東京都","city":"稲城市","address":"稲城市東長沼271","lat":35.64565,"lon":139.50616},{"name":"稲城市城山文化センター児童館","province":"東京都","city":"稲城市","address":"稲城市向陽台6-7","lat":35.64127,"lon":139.49081},{"name":"稲城市第二文化センター児童館","province":"東京都","city":"稲城市","address":"稲城市矢野口1780","lat":35.63509,"lon":139.51866},{"name":"稲城市第三文化センター児童館","province":"東京都","city":"稲城市","address":"稲城市平尾1-20-5","lat":35.61317,"lon":139.4921},{"name":"第四児童館","province":"東京都","city":"稲城市","address":"稲城市東長沼271","lat":35.64565,"lon":139.50616},{"name":"城山児童館","province":"東京都","city":"稲城市","address":"稲城市向陽台6-7","lat":35.64127,"lon":139.49081},{"name":"第二児童館","province":"東京都","city":"稲城市","address":"稲城市矢野口1780","lat":35.63509,"lon":139.51866},{"name":"第三児童館","province":"東京都","city":"稲城市","address":"稲城市平尾1-20-5","lat":35.61317,"lon":139.4921},{"name":"第二児童館","province":"東京都","city":"稲城市","address":"稲城市矢野口1780","lat":35.635108,"lon":139.518921},{"name":"第四児童館","province":"東京都","city":"稲城市","address":"稲城市東長沼271","lat":35.64565,"lon":139.50617},{"name":"本郷児童館","province":"東京都","city":"稲城市","address":"稲城市東長沼2115-2","lat":35.6487,"lon":139.50085},{"name":"＊?稲城市立中央図書館","province":"東京都","city":"稲城市","address":"稲城市向陽台4-6-18","lat":35.645642,"lon":139.488417},{"name":"＊?稲城市立第一図書館","province":"東京都","city":"稲城市","address":"稲城市東長沼2111","lat":35.638078,"lon":139.503749},{"name":"＊?稲城市立第二図書館","province":"東京都","city":"稲城市","address":"稲城市矢野口1780","lat":35.634849,"lon":139.518967},{"name":"＊?稲城市立第三図書館","province":"東京都","city":"稲城市","address":"稲城市平尾1-20-5","lat":35.613117,"lon":139.492461},{"name":"＊?稲城市立第四図書館","province":"東京都","city":"稲城市","address":"稲城市東長沼271","lat":35.645914,"lon":139.505366},{"name":"＊?稲城市立iプラザ図書館","province":"東京都","city":"稲城市","address":"稲城市若葉台2-5-2","lat":35.621149,"lon":139.472184},{"name":"本郷児童館","province":"東京都","city":"稲城市","address":"稲城市東長沼2115-2","lat":35.637781,"lon":139.501344},{"name":"第四児童館","province":"東京都","city":"稲城市","address":"稲城市東長沼271","lat":35.645938,"lon":139.505229},{"name":"城山児童館","province":"東京都","city":"稲城市","address":"稲城市向陽台6-7","lat":35.641669,"lon":139.490661},{"name":"稲城市立第二児童館","province":"東京都","city":"稲城市","address":"稲城市矢野口1780","lat":35.635108,"lon":139.518921},{"name":"第三児童館","province":"東京都","city":"稲城市","address":"稲城市平尾1-20-5","lat":35.613122,"lon":139.492558},{"name":"本郷児童館","province":"東京都","city":"稲城市","address":"稲城市東長沼2115-2","lat":35.63477,"lon":139.50426},{"name":"稲城市第四文化センター児童館","province":"東京都","city":"稲城市","address":"稲城市東長沼271","lat":35.64565,"lon":139.50616},{"name":"稲城市城山文化センター児童館","province":"東京都","city":"稲城市","address":"稲城市向陽台6-7","lat":35.64127,"lon":139.49081},{"name":"稲城市第二文化センター児童館","province":"東京都","city":"稲城市","address":"稲城市矢野口1780","lat":35.63509,"lon":139.51866},{"name":"稲城市第三文化センター児童館","province":"東京都","city":"稲城市","address":"稲城市平尾1-20-5","lat":35.61317,"lon":139.4921},{"name":"第四児童館","province":"東京都","city":"稲城市","address":"稲城市東長沼271","lat":35.64565,"lon":139.50616},{"name":"城山児童館","province":"東京都","city":"稲城市","address":"稲城市向陽台6-7","lat":35.64127,"lon":139.49081},{"name":"第二児童館","province":"東京都","city":"稲城市","address":"稲城市矢野口1780","lat":35.63509,"lon":139.51866},{"name":"第三児童館","province":"東京都","city":"稲城市","address":"稲城市平尾1-20-5","lat":35.61317,"lon":139.4921},{"name":"第二児童館","province":"東京都","city":"稲城市","address":"稲城市矢野口1780","lat":35.635108,"lon":139.518921},{"name":"第四児童館","province":"東京都","city":"稲城市","address":"稲城市東長沼271","lat":35.64565,"lon":139.50617},{"name":"本郷児童館","province":"東京都","city":"稲城市","address":"稲城市東長沼2115-2","lat":35.6487,"lon":139.50085},{"name":"＊?稲城市立中央図書館","province":"東京都","city":"稲城市","address":"稲城市向陽台4-6-18","lat":35.645642,"lon":139.488417},{"name":"＊?稲城市立第一図書館","province":"東京都","city":"稲城市","address":"稲城市東長沼2111","lat":35.638078,"lon":139.503749},{"name":"＊?稲城市立第二図書館","province":"東京都","city":"稲城市","address":"稲城市矢野口1780","lat":35.634849,"lon":139.518967},{"name":"＊?稲城市立第三図書館","province":"東京都","city":"稲城市","address":"稲城市平尾1-20-5","lat":35.613117,"lon":139.492461},{"name":"＊?稲城市立第四図書館","province":"東京都","city":"稲城市","address":"稲城市東長沼271","lat":35.645914,"lon":139.505366},{"name":"＊?稲城市立iプラザ図書館","province":"東京都","city":"稲城市","address":"稲城市若葉台2-5-2","lat":35.621149,"lon":139.472184},{"name":"本郷児童館","province":"東京都","city":"稲城市","address":"稲城市東長沼2115-2","lat":35.637781,"lon":139.501344},{"name":"第四児童館","province":"東京都","city":"稲城市","address":"稲城市東長沼271","lat":35.645938,"lon":139.505229},{"name":"城山児童館","province":"東京都","city":"稲城市","address":"稲城市向陽台6-7","lat":35.641669,"lon":139.490661},{"name":"稲城市立第二児童館","province":"東京都","city":"稲城市","address":"稲城市矢野口1780","lat":35.635108,"lon":139.518921},{"name":"第三児童館","province":"東京都","city":"稲城市","address":"稲城市平尾1-20-5","lat":35.613122,"lon":139.492558},{"name":"本郷児童館","province":"東京都","city":"稲城市","address":"稲城市東長沼2115-2","lat":35.63477,"lon":139.50426},{"name":"稲城市第四文化センター児童館","province":"東京都","city":"稲城市","address":"稲城市東長沼271","lat":35.64565,"lon":139.50616},{"name":"稲城市城山文化センター児童館","province":"東京都","city":"稲城市","address":"稲城市向陽台6-7","lat":35.64127,"lon":139.49081},{"name":"稲城市第二文化センター児童館","province":"東京都","city":"稲城市","address":"稲城市矢野口1780","lat":35.63509,"lon":139.51866},{"name":"稲城市第三文化センター児童館","province":"東京都","city":"稲城市","address":"稲城市平尾1-20-5","lat":35.61317,"lon":139.4921},{"name":"第四児童館","province":"東京都","city":"稲城市","address":"稲城市東長沼271","lat":35.64565,"lon":139.50616},{"name":"城山児童館","province":"東京都","city":"稲城市","address":"稲城市向陽台6-7","lat":35.64127,"lon":139.49081},{"name":"第二児童館","province":"東京都","city":"稲城市","address":"稲城市矢野口1780","lat":35.63509,"lon":139.51866},{"name":"第三児童館","province":"東京都","city":"稲城市","address":"稲城市平尾1-20-5","lat":35.61317,"lon":139.4921},{"name":"第二児童館","province":"東京都","city":"稲城市","address":"稲城市矢野口1780","lat":35.635108,"lon":139.518921},{"name":"第四児童館","province":"東京都","city":"稲城市","address":"稲城市東長沼271","lat":35.64565,"lon":139.50617},{"name":"本郷児童館","province":"東京都","city":"稲城市","address":"稲城市東長沼2115-2","lat":35.6487,"lon":139.50085},{"name":"＊?稲城市立中央図書館","province":"東京都","city":"稲城市","address":"稲城市向陽台4-6-18","lat":35.645642,"lon":139.488417},{"name":"＊?稲城市立第一図書館","province":"東京都","city":"稲城市","address":"稲城市東長沼2111","lat":35.638078,"lon":139.503749},{"name":"＊?稲城市立第二図書館","province":"東京都","city":"稲城市","address":"稲城市矢野口1780","lat":35.634849,"lon":139.518967},{"name":"＊?稲城市立第三図書館","province":"東京都","city":"稲城市","address":"稲城市平尾1-20-5","lat":35.613117,"lon":139.492461},{"name":"＊?稲城市立第四図書館","province":"東京都","city":"稲城市","address":"稲城市東長沼271","lat":35.645914,"lon":139.505366},{"name":"＊?稲城市立iプラザ図書館","province":"東京都","city":"稲城市","address":"稲城市若葉台2-5-2","lat":35.621149,"lon":139.472184},{"name":"本郷児童館","province":"東京都","city":"稲城市","address":"稲城市東長沼2115-2","lat":35.637781,"lon":139.501344},{"name":"第四児童館","province":"東京都","city":"稲城市","address":"稲城市東長沼271","lat":35.645938,"lon":139.505229},{"name":"城山児童館","province":"東京都","city":"稲城市","address":"稲城市向陽台6-7","lat":35.641669,"lon":139.490661},{"name":"稲城市立第二児童館","province":"東京都","city":"稲城市","address":"稲城市矢野口1780","lat":35.635108,"lon":139.518921},{"name":"第三児童館","province":"東京都","city":"稲城市","address":"稲城市平尾1-20-5","lat":35.613122,"lon":139.492558},{"name":"本郷児童館","province":"東京都","city":"稲城市","address":"稲城市東長沼2115-2","lat":35.63477,"lon":139.50426},{"name":"稲城市第四文化センター児童館","province":"東京都","city":"稲城市","address":"稲城市東長沼271","lat":35.64565,"lon":139.50616},{"name":"稲城市城山文化センター児童館","province":"東京都","city":"稲城市","address":"稲城市向陽台6-7","lat":35.64127,"lon":139.49081},{"name":"稲城市第二文化センター児童館","province":"東京都","city":"稲城市","address":"稲城市矢野口1780","lat":35.63509,"lon":139.51866},{"name":"稲城市第三文化センター児童館","province":"東京都","city":"稲城市","address":"稲城市平尾1-20-5","lat":35.61317,"lon":139.4921},{"name":"第四児童館","province":"東京都","city":"稲城市","address":"稲城市東長沼271","lat":35.64565,"lon":139.50616},{"name":"城山児童館","province":"東京都","city":"稲城市","address":"稲城市向陽台6-7","lat":35.64127,"lon":139.49081},{"name":"第二児童館","province":"東京都","city":"稲城市","address":"稲城市矢野口1780","lat":35.63509,"lon":139.51866},{"name":"第三児童館","province":"東京都","city":"稲城市","address":"稲城市平尾1-20-5","lat":35.61317,"lon":139.4921},{"name":"第二児童館","province":"東京都","city":"稲城市","address":"稲城市矢野口1780","lat":35.635108,"lon":139.518921},{"name":"第四児童館","province":"東京都","city":"稲城市","address":"稲城市東長沼271","lat":35.64565,"lon":139.50617},{"name":"本郷児童館","province":"東京都","city":"稲城市","address":"稲城市東長沼2115-2","lat":35.6487,"lon":139.50085},{"name":"＊?稲城市立中央図書館","province":"東京都","city":"稲城市","address":"稲城市向陽台4-6-18","lat":35.645642,"lon":139.488417},{"name":"＊?稲城市立第一図書館","province":"東京都","city":"稲城市","address":"稲城市東長沼2111","lat":35.638078,"lon":139.503749},{"name":"＊?稲城市立第二図書館","province":"東京都","city":"稲城市","address":"稲城市矢野口1780","lat":35.634849,"lon":139.518967},{"name":"＊?稲城市立第三図書館","province":"東京都","city":"稲城市","address":"稲城市平尾1-20-5","lat":35.613117,"lon":139.492461},{"name":"＊?稲城市立第四図書館","province":"東京都","city":"稲城市","address":"稲城市東長沼271","lat":35.645914,"lon":139.505366},{"name":"＊?稲城市立iプラザ図書館","province":"東京都","city":"稲城市","address":"稲城市若葉台2-5-2","lat":35.621149,"lon":139.472184},{"name":"本郷児童館","province":"東京都","city":"稲城市","address":"稲城市東長沼2115-2","lat":35.637781,"lon":139.501344},{"name":"第四児童館","province":"東京都","city":"稲城市","address":"稲城市東長沼271","lat":35.645938,"lon":139.505229},{"name":"城山児童館","province":"東京都","city":"稲城市","address":"稲城市向陽台6-7","lat":35.641669,"lon":139.490661},{"name":"稲城市立第二児童館","province":"東京都","city":"稲城市","address":"稲城市矢野口1780","lat":35.635108,"lon":139.518921},{"name":"第三児童館","province":"東京都","city":"稲城市","address":"稲城市平尾1-20-5","lat":35.613122,"lon":139.492558},{"name":"本郷児童館","province":"東京都","city":"稲城市","address":"稲城市東長沼2115-2","lat":35.63477,"lon":139.50426},{"name":"稲城市第四文化センター児童館","province":"東京都","city":"稲城市","address":"稲城市東長沼271","lat":35.64565,"lon":139.50616},{"name":"稲城市城山文化センター児童館","province":"東京都","city":"稲城市","address":"稲城市向陽台6-7","lat":35.64127,"lon":139.49081},{"name":"稲城市第二文化センター児童館","province":"東京都","city":"稲城市","address":"稲城市矢野口1780","lat":35.63509,"lon":139.51866},{"name":"稲城市第三文化センター児童館","province":"東京都","city":"稲城市","address":"稲城市平尾1-20-5","lat":35.61317,"lon":139.4921},{"name":"第四児童館","province":"東京都","city":"稲城市","address":"稲城市東長沼271","lat":35.64565,"lon":139.50616},{"name":"城山児童館","province":"東京都","city":"稲城市","address":"稲城市向陽台6-7","lat":35.64127,"lon":139.49081},{"name":"第二児童館","province":"東京都","city":"稲城市","address":"稲城市矢野口1780","lat":35.63509,"lon":139.51866},{"name":"第三児童館","province":"東京都","city":"稲城市","address":"稲城市平尾1-20-5","lat":35.61317,"lon":139.4921},{"name":"第二児童館","province":"東京都","city":"稲城市","address":"稲城市矢野口1780","lat":35.635108,"lon":139.518921},{"name":"第四児童館","province":"東京都","city":"稲城市","address":"稲城市東長沼271","lat":35.64565,"lon":139.50617},{"name":"本郷児童館","province":"東京都","city":"稲城市","address":"稲城市東長沼2115-2","lat":35.6487,"lon":139.50085},{"name":"＊?稲城市立中央図書館","province":"東京都","city":"稲城市","address":"稲城市向陽台4-6-18","lat":35.645642,"lon":139.488417},{"name":"＊?稲城市立第一図書館","province":"東京都","city":"稲城市","address":"稲城市東長沼2111","lat":35.638078,"lon":139.503749},{"name":"＊?稲城市立第二図書館","province":"東京都","city":"稲城市","address":"稲城市矢野口1780","lat":35.634849,"lon":139.518967},{"name":"＊?稲城市立第三図書館","province":"東京都","city":"稲城市","address":"稲城市平尾1-20-5","lat":35.613117,"lon":139.492461},{"name":"＊?稲城市立第四図書館","province":"東京都","city":"稲城市","address":"稲城市東長沼271","lat":35.645914,"lon":139.505366},{"name":"＊?稲城市立iプラザ図書館","province":"東京都","city":"稲城市","address":"稲城市若葉台2-5-2","lat":35.621149,"lon":139.472184},{"name":"本郷児童館","province":"東京都","city":"稲城市","address":"稲城市東長沼2115-2","lat":35.637781,"lon":139.501344},{"name":"第四児童館","province":"東京都","city":"稲城市","address":"稲城市東長沼271","lat":35.645938,"lon":139.505229},{"name":"城山児童館","province":"東京都","city":"稲城市","address":"稲城市向陽台6-7","lat":35.641669,"lon":139.490661},{"name":"稲城市立第二児童館","province":"東京都","city":"稲城市","address":"稲城市矢野口1780","lat":35.635108,"lon":139.518921},{"name":"第三児童館","province":"東京都","city":"稲城市","address":"稲城市平尾1-20-5","lat":35.613122,"lon":139.492558},{"name":"本郷児童館","province":"東京都","city":"稲城市","address":"稲城市東長沼2115-2","lat":35.63477,"lon":139.50426},{"name":"稲城市第四文化センター児童館","province":"東京都","city":"稲城市","address":"稲城市東長沼271","lat":35.64565,"lon":139.50616},{"name":"稲城市城山文化センター児童館","province":"東京都","city":"稲城市","address":"稲城市向陽台6-7","lat":35.64127,"lon":139.49081},{"name":"稲城市第二文化センター児童館","province":"東京都","city":"稲城市","address":"稲城市矢野口1780","lat":35.63509,"lon":139.51866},{"name":"稲城市第三文化センター児童館","province":"東京都","city":"稲城市","address":"稲城市平尾1-20-5","lat":35.61317,"lon":139.4921},{"name":"第四児童館","province":"東京都","city":"稲城市","address":"稲城市東長沼271","lat":35.64565,"lon":139.50616},{"name":"城山児童館","province":"東京都","city":"稲城市","address":"稲城市向陽台6-7","lat":35.64127,"lon":139.49081},{"name":"第二児童館","province":"東京都","city":"稲城市","address":"稲城市矢野口1780","lat":35.63509,"lon":139.51866},{"name":"第三児童館","province":"東京都","city":"稲城市","address":"稲城市平尾1-20-5","lat":35.61317,"lon":139.4921},{"name":"第二児童館","province":"東京都","city":"稲城市","address":"稲城市矢野口1780","lat":35.635108,"lon":139.518921},{"name":"第四児童館","province":"東京都","city":"稲城市","address":"稲城市東長沼271","lat":35.64565,"lon":139.50617},{"name":"本郷児童館","province":"東京都","city":"稲城市","address":"稲城市東長沼2115-2","lat":35.6487,"lon":139.50085},{"name":"＊?稲城市立中央図書館","province":"東京都","city":"稲城市","address":"稲城市向陽台4-6-18","lat":35.645642,"lon":139.488417},{"name":"＊?稲城市立第一図書館","province":"東京都","city":"稲城市","address":"稲城市東長沼2111","lat":35.638078,"lon":139.503749},{"name":"＊?稲城市立第二図書館","province":"東京都","city":"稲城市","address":"稲城市矢野口1780","lat":35.634849,"lon":139.518967},{"name":"＊?稲城市立第三図書館","province":"東京都","city":"稲城市","address":"稲城市平尾1-20-5","lat":35.613117,"lon":139.492461},{"name":"＊?稲城市立第四図書館","province":"東京都","city":"稲城市","address":"稲城市東長沼271","lat":35.645914,"lon":139.505366},{"name":"＊?稲城市立iプラザ図書館","province":"東京都","city":"稲城市","address":"稲城市若葉台2-5-2","lat":35.621149,"lon":139.472184},{"name":"本郷児童館","province":"東京都","city":"稲城市","address":"稲城市東長沼2115-2","lat":35.637781,"lon":139.501344},{"name":"第四児童館","province":"東京都","city":"稲城市","address":"稲城市東長沼271","lat":35.645938,"lon":139.505229},{"name":"城山児童館","province":"東京都","city":"稲城市","address":"稲城市向陽台6-7","lat":35.641669,"lon":139.490661},{"name":"稲城市立第二児童館","province":"東京都","city":"稲城市","address":"稲城市矢野口1780","lat":35.635108,"lon":139.518921},{"name":"第三児童館","province":"東京都","city":"稲城市","address":"稲城市平尾1-20-5","lat":35.613122,"lon":139.492558},{"name":"本郷児童館","province":"東京都","city":"稲城市","address":"稲城市東長沼2115-2","lat":35.63477,"lon":139.50426},{"name":"稲城市第四文化センター児童館","province":"東京都","city":"稲城市","address":"稲城市東長沼271","lat":35.64565,"lon":139.50616},{"name":"稲城市城山文化センター児童館","province":"東京都","city":"稲城市","address":"稲城市向陽台6-7","lat":35.64127,"lon":139.49081},{"name":"稲城市第二文化センター児童館","province":"東京都","city":"稲城市","address":"稲城市矢野口1780","lat":35.63509,"lon":139.51866},{"name":"稲城市第三文化センター児童館","province":"東京都","city":"稲城市","address":"稲城市平尾1-20-5","lat":35.61317,"lon":139.4921},{"name":"第四児童館","province":"東京都","city":"稲城市","address":"稲城市東長沼271","lat":35.64565,"lon":139.50616},{"name":"城山児童館","province":"東京都","city":"稲城市","address":"稲城市向陽台6-7","lat":35.64127,"lon":139.49081},{"name":"第二児童館","province":"東京都","city":"稲城市","address":"稲城市矢野口1780","lat":35.63509,"lon":139.51866},{"name":"第三児童館","province":"東京都","city":"稲城市","address":"稲城市平尾1-20-5","lat":35.61317,"lon":139.4921},{"name":"第二児童館","province":"東京都","city":"稲城市","address":"稲城市矢野口1780","lat":35.635108,"lon":139.518921},{"name":"第四児童館","province":"東京都","city":"稲城市","address":"稲城市東長沼271","lat":35.64565,"lon":139.50617},{"name":"本郷児童館","province":"東京都","city":"稲城市","address":"稲城市東長沼2115-2","lat":35.6487,"lon":139.50085},{"name":"＊?稲城市立中央図書館","province":"東京都","city":"稲城市","address":"稲城市向陽台4-6-18","lat":35.645642,"lon":139.488417},{"name":"＊?稲城市立第一図書館","province":"東京都","city":"稲城市","address":"稲城市東長沼2111","lat":35.638078,"lon":139.503749},{"name":"＊?稲城市立第二図書館","province":"東京都","city":"稲城市","address":"稲城市矢野口1780","lat":35.634849,"lon":139.518967},{"name":"＊?稲城市立第三図書館","province":"東京都","city":"稲城市","address":"稲城市平尾1-20-5","lat":35.613117,"lon":139.492461},{"name":"＊?稲城市立第四図書館","province":"東京都","city":"稲城市","address":"稲城市東長沼271","lat":35.645914,"lon":139.505366},{"name":"＊?稲城市立iプラザ図書館","province":"東京都","city":"稲城市","address":"稲城市若葉台2-5-2","lat":35.621149,"lon":139.472184},{"name":"本郷児童館","province":"東京都","city":"稲城市","address":"稲城市東長沼2115-2","lat":35.637781,"lon":139.501344},{"name":"第四児童館","province":"東京都","city":"稲城市","address":"稲城市東長沼271","lat":35.645938,"lon":139.505229},{"name":"城山児童館","province":"東京都","city":"稲城市","address":"稲城市向陽台6-7","lat":35.641669,"lon":139.490661},{"name":"稲城市立第二児童館","province":"東京都","city":"稲城市","address":"稲城市矢野口1780","lat":35.635108,"lon":139.518921},{"name":"第三児童館","province":"東京都","city":"稲城市","address":"稲城市平尾1-20-5","lat":35.613122,"lon":139.492558},{"name":"本郷児童館","province":"東京都","city":"稲城市","address":"稲城市東長沼2115-2","lat":35.63477,"lon":139.50426},{"name":"稲城市第四文化センター児童館","province":"東京都","city":"稲城市","address":"稲城市東長沼271","lat":35.64565,"lon":139.50616},{"name":"稲城市城山文化センター児童館","province":"東京都","city":"稲城市","address":"稲城市向陽台6-7","lat":35.64127,"lon":139.49081},{"name":"稲城市第二文化センター児童館","province":"東京都","city":"稲城市","address":"稲城市矢野口1780","lat":35.63509,"lon":139.51866},{"name":"稲城市第三文化センター児童館","province":"東京都","city":"稲城市","address":"稲城市平尾1-20-5","lat":35.61317,"lon":139.4921},{"name":"第四児童館","province":"東京都","city":"稲城市","address":"稲城市東長沼271","lat":35.64565,"lon":139.50616},{"name":"城山児童館","province":"東京都","city":"稲城市","address":"稲城市向陽台6-7","lat":35.64127,"lon":139.49081},{"name":"第二児童館","province":"東京都","city":"稲城市","address":"稲城市矢野口1780","lat":35.63509,"lon":139.51866},{"name":"第三児童館","province":"東京都","city":"稲城市","address":"稲城市平尾1-20-5","lat":35.61317,"lon":139.4921},{"name":"第二児童館","province":"東京都","city":"稲城市","address":"稲城市矢野口1780","lat":35.635108,"lon":139.518921},{"name":"第四児童館","province":"東京都","city":"稲城市","address":"稲城市東長沼271","lat":35.64565,"lon":139.50617},{"name":"本郷児童館","province":"東京都","city":"稲城市","address":"稲城市東長沼2115-2","lat":35.6487,"lon":139.50085},{"name":"＊?稲城市立中央図書館","province":"東京都","city":"稲城市","address":"稲城市向陽台4-6-18","lat":35.645642,"lon":139.488417},{"name":"＊?稲城市立第一図書館","province":"東京都","city":"稲城市","address":"稲城市東長沼2111","lat":35.638078,"lon":139.503749},{"name":"＊?稲城市立第二図書館","province":"東京都","city":"稲城市","address":"稲城市矢野口1780","lat":35.634849,"lon":139.518967},{"name":"＊?稲城市立第三図書館","province":"東京都","city":"稲城市","address":"稲城市平尾1-20-5","lat":35.613117,"lon":139.492461},{"name":"＊?稲城市立第四図書館","province":"東京都","city":"稲城市","address":"稲城市東長沼271","lat":35.645914,"lon":139.505366},{"name":"＊?稲城市立iプラザ図書館","province":"東京都","city":"稲城市","address":"稲城市若葉台2-5-2","lat":35.621149,"lon":139.472184},{"name":"本郷児童館","province":"東京都","city":"稲城市","address":"稲城市東長沼2115-2","lat":35.637781,"lon":139.501344},{"name":"第四児童館","province":"東京都","city":"稲城市","address":"稲城市東長沼271","lat":35.645938,"lon":139.505229},{"name":"城山児童館","province":"東京都","city":"稲城市","address":"稲城市向陽台6-7","lat":35.641669,"lon":139.490661},{"name":"稲城市立第二児童館","province":"東京都","city":"稲城市","address":"稲城市矢野口1780","lat":35.635108,"lon":139.518921},{"name":"第三児童館","province":"東京都","city":"稲城市","address":"稲城市平尾1-20-5","lat":35.613122,"lon":139.492558},{"name":"本郷児童館","province":"東京都","city":"稲城市","address":"稲城市東長沼2115-2","lat":35.63477,"lon":139.50426},{"name":"稲城市第四文化センター児童館","province":"東京都","city":"稲城市","address":"稲城市東長沼271","lat":35.64565,"lon":139.50616},{"name":"稲城市城山文化センター児童館","province":"東京都","city":"稲城市","address":"稲城市向陽台6-7","lat":35.64127,"lon":139.49081},{"name":"稲城市第二文化センター児童館","province":"東京都","city":"稲城市","address":"稲城市矢野口1780","lat":35.63509,"lon":139.51866},{"name":"稲城市第三文化センター児童館","province":"東京都","city":"稲城市","address":"稲城市平尾1-20-5","lat":35.61317,"lon":139.4921},{"name":"第四児童館","province":"東京都","city":"稲城市","address":"稲城市東長沼271","lat":35.64565,"lon":139.50616},{"name":"城山児童館","province":"東京都","city":"稲城市","address":"稲城市向陽台6-7","lat":35.64127,"lon":139.49081},{"name":"第二児童館","province":"東京都","city":"稲城市","address":"稲城市矢野口1780","lat":35.63509,"lon":139.51866},{"name":"第三児童館","province":"東京都","city":"稲城市","address":"稲城市平尾1-20-5","lat":35.61317,"lon":139.4921},{"name":"第二児童館","province":"東京都","city":"稲城市","address":"稲城市矢野口1780","lat":35.635108,"lon":139.518921},{"name":"第四児童館","province":"東京都","city":"稲城市","address":"稲城市東長沼271","lat":35.64565,"lon":139.50617},{"name":"本郷児童館","province":"東京都","city":"稲城市","address":"稲城市東長沼2115-2","lat":35.6487,"lon":139.50085},{"name":"＊?稲城市立中央図書館","province":"東京都","city":"稲城市","address":"稲城市向陽台4-6-18","lat":35.645642,"lon":139.488417},{"name":"＊?稲城市立第一図書館","province":"東京都","city":"稲城市","address":"稲城市東長沼2111","lat":35.638078,"lon":139.503749},{"name":"＊?稲城市立第二図書館","province":"東京都","city":"稲城市","address":"稲城市矢野口1780","lat":35.634849,"lon":139.518967},{"name":"＊?稲城市立第三図書館","province":"東京都","city":"稲城市","address":"稲城市平尾1-20-5","lat":35.613117,"lon":139.492461},{"name":"＊?稲城市立第四図書館","province":"東京都","city":"稲城市","address":"稲城市東長沼271","lat":35.645914,"lon":139.505366},{"name":"＊?稲城市立iプラザ図書館","province":"東京都","city":"稲城市","address":"稲城市若葉台2-5-2","lat":35.621149,"lon":139.472184},{"name":"本郷児童館","province":"東京都","city":"稲城市","address":"稲城市東長沼2115-2","lat":35.637781,"lon":139.501344},{"name":"第四児童館","province":"東京都","city":"稲城市","address":"稲城市東長沼271","lat":35.645938,"lon":139.505229},{"name":"城山児童館","province":"東京都","city":"稲城市","address":"稲城市向陽台6-7","lat":35.641669,"lon":139.490661},{"name":"稲城市立第二児童館","province":"東京都","city":"稲城市","address":"稲城市矢野口1780","lat":35.635108,"lon":139.518921},{"name":"第三児童館","province":"東京都","city":"稲城市","address":"稲城市平尾1-20-5","lat":35.613122,"lon":139.492558},{"name":"本郷児童館","province":"東京都","city":"稲城市","address":"稲城市東長沼2115-2","lat":35.63477,"lon":139.50426},{"name":"稲城市第四文化センター児童館","province":"東京都","city":"稲城市","address":"稲城市東長沼271","lat":35.64565,"lon":139.50616},{"name":"稲城市城山文化センター児童館","province":"東京都","city":"稲城市","address":"稲城市向陽台6-7","lat":35.64127,"lon":139.49081},{"name":"稲城市第二文化センター児童館","province":"東京都","city":"稲城市","address":"稲城市矢野口1780","lat":35.63509,"lon":139.51866},{"name":"稲城市第三文化センター児童館","province":"東京都","city":"稲城市","address":"稲城市平尾1-20-5","lat":35.61317,"lon":139.4921},{"name":"第四児童館","province":"東京都","city":"稲城市","address":"稲城市東長沼271","lat":35.64565,"lon":139.50616},{"name":"城山児童館","province":"東京都","city":"稲城市","address":"稲城市向陽台6-7","lat":35.64127,"lon":139.49081},{"name":"第二児童館","province":"東京都","city":"稲城市","address":"稲城市矢野口1780","lat":35.63509,"lon":139.51866},{"name":"第三児童館","province":"東京都","city":"稲城市","address":"稲城市平尾1-20-5","lat":35.61317,"lon":139.4921},{"name":"第二児童館","province":"東京都","city":"稲城市","address":"稲城市矢野口1780","lat":35.635108,"lon":139.518921},{"name":"第四児童館","province":"東京都","city":"稲城市","address":"稲城市東長沼271","lat":35.64565,"lon":139.50617},{"name":"本郷児童館","province":"東京都","city":"稲城市","address":"稲城市東長沼2115-2","lat":35.6487,"lon":139.50085},{"name":"＊?稲城市立中央図書館","province":"東京都","city":"稲城市","address":"稲城市向陽台4-6-18","lat":35.645642,"lon":139.488417},{"name":"＊?稲城市立第一図書館","province":"東京都","city":"稲城市","address":"稲城市東長沼2111","lat":35.638078,"lon":139.503749},{"name":"＊?稲城市立第二図書館","province":"東京都","city":"稲城市","address":"稲城市矢野口1780","lat":35.634849,"lon":139.518967},{"name":"＊?稲城市立第三図書館","province":"東京都","city":"稲城市","address":"稲城市平尾1-20-5","lat":35.613117,"lon":139.492461},{"name":"＊?稲城市立第四図書館","province":"東京都","city":"稲城市","address":"稲城市東長沼271","lat":35.645914,"lon":139.505366},{"name":"＊?稲城市立iプラザ図書館","province":"東京都","city":"稲城市","address":"稲城市若葉台2-5-2","lat":35.621149,"lon":139.472184},{"name":"本郷児童館","province":"東京都","city":"稲城市","address":"稲城市東長沼2115-2","lat":35.637781,"lon":139.501344},{"name":"第四児童館","province":"東京都","city":"稲城市","address":"稲城市東長沼271","lat":35.645938,"lon":139.505229},{"name":"城山児童館","province":"東京都","city":"稲城市","address":"稲城市向陽台6-7","lat":35.641669,"lon":139.490661},{"name":"稲城市立第二児童館","province":"東京都","city":"稲城市","address":"稲城市矢野口1780","lat":35.635108,"lon":139.518921},{"name":"第三児童館","province":"東京都","city":"稲城市","address":"稲城市平尾1-20-5","lat":35.613122,"lon":139.492558},{"name":"本郷児童館","province":"東京都","city":"稲城市","address":"稲城市東長沼2115-2","lat":35.63477,"lon":139.50426},{"name":"稲城市第四文化センター児童館","province":"東京都","city":"稲城市","address":"稲城市東長沼271","lat":35.64565,"lon":139.50616},{"name":"稲城市城山文化センター児童館","province":"東京都","city":"稲城市","address":"稲城市向陽台6-7","lat":35.64127,"lon":139.49081},{"name":"稲城市第二文化センター児童館","province":"東京都","city":"稲城市","address":"稲城市矢野口1780","lat":35.63509,"lon":139.51866},{"name":"稲城市第三文化センター児童館","province":"東京都","city":"稲城市","address":"稲城市平尾1-20-5","lat":35.61317,"lon":139.4921},{"name":"第四児童館","province":"東京都","city":"稲城市","address":"稲城市東長沼271","lat":35.64565,"lon":139.50616},{"name":"城山児童館","province":"東京都","city":"稲城市","address":"稲城市向陽台6-7","lat":35.64127,"lon":139.49081},{"name":"第二児童館","province":"東京都","city":"稲城市","address":"稲城市矢野口1780","lat":35.63509,"lon":139.51866},{"name":"第三児童館","province":"東京都","city":"稲城市","address":"稲城市平尾1-20-5","lat":35.61317,"lon":139.4921},{"name":"第二児童館","province":"東京都","city":"稲城市","address":"稲城市矢野口1780","lat":35.635108,"lon":139.518921},{"name":"第四児童館","province":"東京都","city":"稲城市","address":"稲城市東長沼271","lat":35.64565,"lon":139.50617},{"name":"本郷児童館","province":"東京都","city":"稲城市","address":"稲城市東長沼2115-2","lat":35.6487,"lon":139.50085},{"name":"＊?稲城市立中央図書館","province":"東京都","city":"稲城市","address":"稲城市向陽台4-6-18","lat":35.645642,"lon":139.488417},{"name":"＊?稲城市立第一図書館","province":"東京都","city":"稲城市","address":"稲城市東長沼2111","lat":35.638078,"lon":139.503749},{"name":"＊?稲城市立第二図書館","province":"東京都","city":"稲城市","address":"稲城市矢野口1780","lat":35.634849,"lon":139.518967},{"name":"＊?稲城市立第三図書館","province":"東京都","city":"稲城市","address":"稲城市平尾1-20-5","lat":35.613117,"lon":139.492461},{"name":"＊?稲城市立第四図書館","province":"東京都","city":"稲城市","address":"稲城市東長沼271","lat":35.645914,"lon":139.505366},{"name":"＊?稲城市立iプラザ図書館","province":"東京都","city":"稲城市","address":"稲城市若葉台2-5-2","lat":35.621149,"lon":139.472184},{"name":"本郷児童館","province":"東京都","city":"稲城市","address":"稲城市東長沼2115-2","lat":35.637781,"lon":139.501344},{"name":"第四児童館","province":"東京都","city":"稲城市","address":"稲城市東長沼271","lat":35.645938,"lon":139.505229},{"name":"城山児童館","province":"東京都","city":"稲城市","address":"稲城市向陽台6-7","lat":35.641669,"lon":139.490661},{"name":"稲城市立第二児童館","province":"東京都","city":"稲城市","address":"稲城市矢野口1780","lat":35.635108,"lon":139.518921},{"name":"第三児童館","province":"東京都","city":"稲城市","address":"稲城市平尾1-20-5","lat":35.613122,"lon":139.492558},{"name":"本郷児童館","province":"東京都","city":"稲城市","address":"稲城市東長沼2115-2","lat":35.63477,"lon":139.50426},{"name":"稲城市第四文化センター児童館","province":"東京都","city":"稲城市","address":"稲城市東長沼271","lat":35.64565,"lon":139.50616},{"name":"稲城市城山文化センター児童館","province":"東京都","city":"稲城市","address":"稲城市向陽台6-7","lat":35.64127,"lon":139.49081},{"name":"稲城市第二文化センター児童館","province":"東京都","city":"稲城市","address":"稲城市矢野口1780","lat":35.63509,"lon":139.51866},{"name":"稲城市第三文化センター児童館","province":"東京都","city":"稲城市","address":"稲城市平尾1-20-5","lat":35.61317,"lon":139.4921},{"name":"第四児童館","province":"東京都","city":"稲城市","address":"稲城市東長沼271","lat":35.64565,"lon":139.50616},{"name":"城山児童館","province":"東京都","city":"稲城市","address":"稲城市向陽台6-7","lat":35.64127,"lon":139.49081},{"name":"第二児童館","province":"東京都","city":"稲城市","address":"稲城市矢野口1780","lat":35.63509,"lon":139.51866},{"name":"第三児童館","province":"東京都","city":"稲城市","address":"稲城市平尾1-20-5","lat":35.61317,"lon":139.4921},{"name":"第二児童館","province":"東京都","city":"稲城市","address":"稲城市矢野口1780","lat":35.635108,"lon":139.518921},{"name":"第四児童館","province":"東京都","city":"稲城市","address":"稲城市東長沼271","lat":35.64565,"lon":139.50617},{"name":"本郷児童館","province":"東京都","city":"稲城市","address":"稲城市東長沼2115-2","lat":35.6487,"lon":139.50085},{"name":"＊?稲城市立中央図書館","province":"東京都","city":"稲城市","address":"稲城市向陽台4-6-18","lat":35.645642,"lon":139.488417},{"name":"＊?稲城市立第一図書館","province":"東京都","city":"稲城市","address":"稲城市東長沼2111","lat":35.638078,"lon":139.503749},{"name":"＊?稲城市立第二図書館","province":"東京都","city":"稲城市","address":"稲城市矢野口1780","lat":35.634849,"lon":139.518967},{"name":"＊?稲城市立第三図書館","province":"東京都","city":"稲城市","address":"稲城市平尾1-20-5","lat":35.613117,"lon":139.492461},{"name":"＊?稲城市立第四図書館","province":"東京都","city":"稲城市","address":"稲城市東長沼271","lat":35.645914,"lon":139.505366},{"name":"＊?稲城市立iプラザ図書館","province":"東京都","city":"稲城市","address":"稲城市若葉台2-5-2","lat":35.621149,"lon":139.472184},{"name":"本郷児童館","province":"東京都","city":"稲城市","address":"稲城市東長沼2115-2","lat":35.637781,"lon":139.501344},{"name":"第四児童館","province":"東京都","city":"稲城市","address":"稲城市東長沼271","lat":35.645938,"lon":139.505229},{"name":"城山児童館","province":"東京都","city":"稲城市","address":"稲城市向陽台6-7","lat":35.641669,"lon":139.490661},{"name":"稲城市立第二児童館","province":"東京都","city":"稲城市","address":"稲城市矢野口1780","lat":35.635108,"lon":139.518921},{"name":"第三児童館","province":"東京都","city":"稲城市","address":"稲城市平尾1-20-5","lat":35.613122,"lon":139.492558},{"name":"本郷児童館","province":"東京都","city":"稲城市","address":"稲城市東長沼2115-2","lat":35.63477,"lon":139.50426},{"name":"稲城市第四文化センター児童館","province":"東京都","city":"稲城市","address":"稲城市東長沼271","lat":35.64565,"lon":139.50616},{"name":"稲城市城山文化センター児童館","province":"東京都","city":"稲城市","address":"稲城市向陽台6-7","lat":35.64127,"lon":139.49081},{"name":"稲城市第二文化センター児童館","province":"東京都","city":"稲城市","address":"稲城市矢野口1780","lat":35.63509,"lon":139.51866},{"name":"稲城市第三文化センター児童館","province":"東京都","city":"稲城市","address":"稲城市平尾1-20-5","lat":35.61317,"lon":139.4921},{"name":"第四児童館","province":"東京都","city":"稲城市","address":"稲城市東長沼271","lat":35.64565,"lon":139.50616},{"name":"城山児童館","province":"東京都","city":"稲城市","address":"稲城市向陽台6-7","lat":35.64127,"lon":139.49081},{"name":"第二児童館","province":"東京都","city":"稲城市","address":"稲城市矢野口1780","lat":35.63509,"lon":139.51866},{"name":"第三児童館","province":"東京都","city":"稲城市","address":"稲城市平尾1-20-5","lat":35.61317,"lon":139.4921},{"name":"第二児童館","province":"東京都","city":"稲城市","address":"稲城市矢野口1780","lat":35.635108,"lon":139.518921},{"name":"第四児童館","province":"東京都","city":"稲城市","address":"稲城市東長沼271","lat":35.64565,"lon":139.50617},{"name":"本郷児童館","province":"東京都","city":"稲城市","address":"稲城市東長沼2115-2","lat":35.6487,"lon":139.50085},{"name":"＊?稲城市立中央図書館","province":"東京都","city":"稲城市","address":"稲城市向陽台4-6-18","lat":35.645642,"lon":139.488417},{"name":"＊?稲城市立第一図書館","province":"東京都","city":"稲城市","address":"稲城市東長沼2111","lat":35.638078,"lon":139.503749},{"name":"＊?稲城市立第二図書館","province":"東京都","city":"稲城市","address":"稲城市矢野口1780","lat":35.634849,"lon":139.518967},{"name":"＊?稲城市立第三図書館","province":"東京都","city":"稲城市","address":"稲城市平尾1-20-5","lat":35.613117,"lon":139.492461},{"name":"＊?稲城市立第四図書館","province":"東京都","city":"稲城市","address":"稲城市東長沼271","lat":35.645914,"lon":139.505366},{"name":"＊?稲城市立iプラザ図書館","province":"東京都","city":"稲城市","address":"稲城市若葉台2-5-2","lat":35.621149,"lon":139.472184},{"name":"本郷児童館","province":"東京都","city":"稲城市","address":"稲城市東長沼2115-2","lat":35.637781,"lon":139.501344},{"name":"第四児童館","province":"東京都","city":"稲城市","address":"稲城市東長沼271","lat":35.645938,"lon":139.505229},{"name":"城山児童館","province":"東京都","city":"稲城市","address":"稲城市向陽台6-7","lat":35.641669,"lon":139.490661},{"name":"稲城市立第二児童館","province":"東京都","city":"稲城市","address":"稲城市矢野口1780","lat":35.635108,"lon":139.518921},{"name":"第三児童館","province":"東京都","city":"稲城市","address":"稲城市平尾1-20-5","lat":35.613122,"lon":139.492558},{"name":"本郷児童館","province":"東京都","city":"稲城市","address":"稲城市東長沼2115-2","lat":35.63477,"lon":139.50426},{"name":"稲城市第四文化センター児童館","province":"東京都","city":"稲城市","address":"稲城市東長沼271","lat":35.64565,"lon":139.50616},{"name":"稲城市城山文化センター児童館","province":"東京都","city":"稲城市","address":"稲城市向陽台6-7","lat":35.64127,"lon":139.49081},{"name":"稲城市第二文化センター児童館","province":"東京都","city":"稲城市","address":"稲城市矢野口1780","lat":35.63509,"lon":139.51866},{"name":"稲城市第三文化センター児童館","province":"東京都","city":"稲城市","address":"稲城市平尾1-20-5","lat":35.61317,"lon":139.4921},{"name":"第四児童館","province":"東京都","city":"稲城市","address":"稲城市東長沼271","lat":35.64565,"lon":139.50616},{"name":"城山児童館","province":"東京都","city":"稲城市","address":"稲城市向陽台6-7","lat":35.64127,"lon":139.49081},{"name":"第二児童館","province":"東京都","city":"稲城市","address":"稲城市矢野口1780","lat":35.63509,"lon":139.51866},{"name":"第三児童館","province":"東京都","city":"稲城市","address":"稲城市平尾1-20-5","lat":35.61317,"lon":139.4921},{"name":"第二児童館","province":"東京都","city":"稲城市","address":"稲城市矢野口1780","lat":35.635108,"lon":139.518921},{"name":"第四児童館","province":"東京都","city":"稲城市","address":"稲城市東長沼271","lat":35.64565,"lon":139.50617},{"name":"本郷児童館","province":"東京都","city":"稲城市","address":"稲城市東長沼2115-2","lat":35.6487,"lon":139.50085},{"name":"＊?稲城市立中央図書館","province":"東京都","city":"稲城市","address":"稲城市向陽台4-6-18","lat":35.645642,"lon":139.488417},{"name":"＊?稲城市立第一図書館","province":"東京都","city":"稲城市","address":"稲城市東長沼2111","lat":35.638078,"lon":139.503749},{"name":"＊?稲城市立第二図書館","province":"東京都","city":"稲城市","address":"稲城市矢野口1780","lat":35.634849,"lon":139.518967},{"name":"＊?稲城市立第三図書館","province":"東京都","city":"稲城市","address":"稲城市平尾1-20-5","lat":35.613117,"lon":139.492461},{"name":"＊?稲城市立第四図書館","province":"東京都","city":"稲城市","address":"稲城市東長沼271","lat":35.645914,"lon":139.505366},{"name":"＊?稲城市立iプラザ図書館","province":"東京都","city":"稲城市","address":"稲城市若葉台2-5-2","lat":35.621149,"lon":139.472184},{"name":"本郷児童館","province":"東京都","city":"稲城市","address":"稲城市東長沼2115-2","lat":35.637781,"lon":139.501344},{"name":"第四児童館","province":"東京都","city":"稲城市","address":"稲城市東長沼271","lat":35.645938,"lon":139.505229},{"name":"城山児童館","province":"東京都","city":"稲城市","address":"稲城市向陽台6-7","lat":35.641669,"lon":139.490661},{"name":"稲城市立第二児童館","province":"東京都","city":"稲城市","address":"稲城市矢野口1780","lat":35.635108,"lon":139.518921},{"name":"第三児童館","province":"東京都","city":"稲城市","address":"稲城市平尾1-20-5","lat":35.613122,"lon":139.492558},{"name":"本郷児童館","province":"東京都","city":"稲城市","address":"稲城市東長沼2115-2","lat":35.63477,"lon":139.50426},{"name":"稲城市第四文化センター児童館","province":"東京都","city":"稲城市","address":"稲城市東長沼271","lat":35.64565,"lon":139.50616},{"name":"稲城市城山文化センター児童館","province":"東京都","city":"稲城市","address":"稲城市向陽台6-7","lat":35.64127,"lon":139.49081},{"name":"稲城市第二文化センター児童館","province":"東京都","city":"稲城市","address":"稲城市矢野口1780","lat":35.63509,"lon":139.51866},{"name":"稲城市第三文化センター児童館","province":"東京都","city":"稲城市","address":"稲城市平尾1-20-5","lat":35.61317,"lon":139.4921},{"name":"第四児童館","province":"東京都","city":"稲城市","address":"稲城市東長沼271","lat":35.64565,"lon":139.50616},{"name":"城山児童館","province":"東京都","city":"稲城市","address":"稲城市向陽台6-7","lat":35.64127,"lon":139.49081},{"name":"第二児童館","province":"東京都","city":"稲城市","address":"稲城市矢野口1780","lat":35.63509,"lon":139.51866},{"name":"第三児童館","province":"東京都","city":"稲城市","address":"稲城市平尾1-20-5","lat":35.61317,"lon":139.4921},{"name":"第二児童館","province":"東京都","city":"稲城市","address":"稲城市矢野口1780","lat":35.635108,"lon":139.518921},{"name":"第四児童館","province":"東京都","city":"稲城市","address":"稲城市東長沼271","lat":35.64565,"lon":139.50617},{"name":"本郷児童館","province":"東京都","city":"稲城市","address":"稲城市東長沼2115-2","lat":35.6487,"lon":139.50085},{"name":"＊?稲城市立中央図書館","province":"東京都","city":"稲城市","address":"稲城市向陽台4-6-18","lat":35.645642,"lon":139.488417},{"name":"＊?稲城市立第一図書館","province":"東京都","city":"稲城市","address":"稲城市東長沼2111","lat":35.638078,"lon":139.503749},{"name":"＊?稲城市立第二図書館","province":"東京都","city":"稲城市","address":"稲城市矢野口1780","lat":35.634849,"lon":139.518967},{"name":"＊?稲城市立第三図書館","province":"東京都","city":"稲城市","address":"稲城市平尾1-20-5","lat":35.613117,"lon":139.492461},{"name":"＊?稲城市立第四図書館","province":"東京都","city":"稲城市","address":"稲城市東長沼271","lat":35.645914,"lon":139.505366},{"name":"＊?稲城市立iプラザ図書館","province":"東京都","city":"稲城市","address":"稲城市若葉台2-5-2","lat":35.621149,"lon":139.472184},{"name":"本郷児童館","province":"東京都","city":"稲城市","address":"稲城市東長沼2115-2","lat":35.637781,"lon":139.501344},{"name":"第四児童館","province":"東京都","city":"稲城市","address":"稲城市東長沼271","lat":35.645938,"lon":139.505229},{"name":"城山児童館","province":"東京都","city":"稲城市","address":"稲城市向陽台6-7","lat":35.641669,"lon":139.490661},{"name":"稲城市立第二児童館","province":"東京都","city":"稲城市","address":"稲城市矢野口1780","lat":35.635108,"lon":139.518921},{"name":"第三児童館","province":"東京都","city":"稲城市","address":"稲城市平尾1-20-5","lat":35.613122,"lon":139.492558},{"name":"本郷児童館","province":"東京都","city":"稲城市","address":"稲城市東長沼2115-2","lat":35.63477,"lon":139.50426},{"name":"稲城市第四文化センター児童館","province":"東京都","city":"稲城市","address":"稲城市東長沼271","lat":35.64565,"lon":139.50616},{"name":"稲城市城山文化センター児童館","province":"東京都","city":"稲城市","address":"稲城市向陽台6-7","lat":35.64127,"lon":139.49081},{"name":"稲城市第二文化センター児童館","province":"東京都","city":"稲城市","address":"稲城市矢野口1780","lat":35.63509,"lon":139.51866},{"name":"稲城市第三文化センター児童館","province":"東京都","city":"稲城市","address":"稲城市平尾1-20-5","lat":35.61317,"lon":139.4921},{"name":"第四児童館","province":"東京都","city":"稲城市","address":"稲城市東長沼271","lat":35.64565,"lon":139.50616},{"name":"城山児童館","province":"東京都","city":"稲城市","address":"稲城市向陽台6-7","lat":35.64127,"lon":139.49081},{"name":"第二児童館","province":"東京都","city":"稲城市","address":"稲城市矢野口1780","lat":35.63509,"lon":139.51866},{"name":"第三児童館","province":"東京都","city":"稲城市","address":"稲城市平尾1-20-5","lat":35.61317,"lon":139.4921},{"name":"第二児童館","province":"東京都","city":"稲城市","address":"稲城市矢野口1780","lat":35.635108,"lon":139.518921},{"name":"第四児童館","province":"東京都","city":"稲城市","address":"稲城市東長沼271","lat":35.64565,"lon":139.50617},{"name":"本郷児童館","province":"東京都","city":"稲城市","address":"稲城市東長沼2115-2","lat":35.6487,"lon":139.50085},{"name":"＊?稲城市立中央図書館","province":"東京都","city":"稲城市","address":"稲城市向陽台4-6-18","lat":35.645642,"lon":139.488417},{"name":"＊?稲城市立第一図書館","province":"東京都","city":"稲城市","address":"稲城市東長沼2111","lat":35.638078,"lon":139.503749},{"name":"＊?稲城市立第二図書館","province":"東京都","city":"稲城市","address":"稲城市矢野口1780","lat":35.634849,"lon":139.518967},{"name":"＊?稲城市立第三図書館","province":"東京都","city":"稲城市","address":"稲城市平尾1-20-5","lat":35.613117,"lon":139.492461},{"name":"＊?稲城市立第四図書館","province":"東京都","city":"稲城市","address":"稲城市東長沼271","lat":35.645914,"lon":139.505366},{"name":"＊?稲城市立iプラザ図書館","province":"東京都","city":"稲城市","address":"稲城市若葉台2-5-2","lat":35.621149,"lon":139.472184},{"name":"本郷児童館","province":"東京都","city":"稲城市","address":"稲城市東長沼2115-2","lat":35.637781,"lon":139.501344},{"name":"第四児童館","province":"東京都","city":"稲城市","address":"稲城市東長沼271","lat":35.645938,"lon":139.505229},{"name":"城山児童館","province":"東京都","city":"稲城市","address":"稲城市向陽台6-7","lat":35.641669,"lon":139.490661},{"name":"稲城市立第二児童館","province":"東京都","city":"稲城市","address":"稲城市矢野口1780","lat":35.635108,"lon":139.518921},{"name":"第三児童館","province":"東京都","city":"稲城市","address":"稲城市平尾1-20-5","lat":35.613122,"lon":139.492558},{"name":"本郷児童館","province":"東京都","city":"稲城市","address":"稲城市東長沼2115-2","lat":35.63477,"lon":139.50426},{"name":"稲城市第四文化センター児童館","province":"東京都","city":"稲城市","address":"稲城市東長沼271","lat":35.64565,"lon":139.50616},{"name":"稲城市城山文化センター児童館","province":"東京都","city":"稲城市","address":"稲城市向陽台6-7","lat":35.64127,"lon":139.49081},{"name":"稲城市第二文化センター児童館","province":"東京都","city":"稲城市","address":"稲城市矢野口1780","lat":35.63509,"lon":139.51866},{"name":"稲城市第三文化センター児童館","province":"東京都","city":"稲城市","address":"稲城市平尾1-20-5","lat":35.61317,"lon":139.4921},{"name":"第四児童館","province":"東京都","city":"稲城市","address":"稲城市東長沼271","lat":35.64565,"lon":139.50616},{"name":"城山児童館","province":"東京都","city":"稲城市","address":"稲城市向陽台6-7","lat":35.64127,"lon":139.49081},{"name":"第二児童館","province":"東京都","city":"稲城市","address":"稲城市矢野口1780","lat":35.63509,"lon":139.51866},{"name":"第三児童館","province":"東京都","city":"稲城市","address":"稲城市平尾1-20-5","lat":35.61317,"lon":139.4921},{"name":"第二児童館","province":"東京都","city":"稲城市","address":"稲城市矢野口1780","lat":35.635108,"lon":139.518921},{"name":"第四児童館","province":"東京都","city":"稲城市","address":"稲城市東長沼271","lat":35.64565,"lon":139.50617},{"name":"本郷児童館","province":"東京都","city":"稲城市","address":"稲城市東長沼2115-2","lat":35.6487,"lon":139.50085},{"name":"＊?稲城市立中央図書館","province":"東京都","city":"稲城市","address":"稲城市向陽台4-6-18","lat":35.645642,"lon":139.488417},{"name":"＊?稲城市立第一図書館","province":"東京都","city":"稲城市","address":"稲城市東長沼2111","lat":35.638078,"lon":139.503749},{"name":"＊?稲城市立第二図書館","province":"東京都","city":"稲城市","address":"稲城市矢野口1780","lat":35.634849,"lon":139.518967},{"name":"＊?稲城市立第三図書館","province":"東京都","city":"稲城市","address":"稲城市平尾1-20-5","lat":35.613117,"lon":139.492461},{"name":"＊?稲城市立第四図書館","province":"東京都","city":"稲城市","address":"稲城市東長沼271","lat":35.645914,"lon":139.505366},{"name":"＊?稲城市立iプラザ図書館","province":"東京都","city":"稲城市","address":"稲城市若葉台2-5-2","lat":35.621149,"lon":139.472184},{"name":"本郷児童館","province":"東京都","city":"稲城市","address":"稲城市東長沼2115-2","lat":35.637781,"lon":139.501344},{"name":"第四児童館","province":"東京都","city":"稲城市","address":"稲城市東長沼271","lat":35.645938,"lon":139.505229},{"name":"城山児童館","province":"東京都","city":"稲城市","address":"稲城市向陽台6-7","lat":35.641669,"lon":139.490661},{"name":"稲城市立第二児童館","province":"東京都","city":"稲城市","address":"稲城市矢野口1780","lat":35.635108,"lon":139.518921},{"name":"第三児童館","province":"東京都","city":"稲城市","address":"稲城市平尾1-20-5","lat":35.613122,"lon":139.492558},{"name":"本郷児童館","province":"東京都","city":"稲城市","address":"稲城市東長沼2115-2","lat":35.63477,"lon":139.50426},{"name":"稲城市第四文化センター児童館","province":"東京都","city":"稲城市","address":"稲城市東長沼271","lat":35.64565,"lon":139.50616},{"name":"稲城市城山文化センター児童館","province":"東京都","city":"稲城市","address":"稲城市向陽台6-7","lat":35.64127,"lon":139.49081},{"name":"稲城市第二文化センター児童館","province":"東京都","city":"稲城市","address":"稲城市矢野口1780","lat":35.63509,"lon":139.51866},{"name":"稲城市第三文化センター児童館","province":"東京都","city":"稲城市","address":"稲城市平尾1-20-5","lat":35.61317,"lon":139.4921},{"name":"第四児童館","province":"東京都","city":"稲城市","address":"稲城市東長沼271","lat":35.64565,"lon":139.50616},{"name":"城山児童館","province":"東京都","city":"稲城市","address":"稲城市向陽台6-7","lat":35.64127,"lon":139.49081},{"name":"第二児童館","province":"東京都","city":"稲城市","address":"稲城市矢野口1780","lat":35.63509,"lon":139.51866},{"name":"第三児童館","province":"東京都","city":"稲城市","address":"稲城市平尾1-20-5","lat":35.61317,"lon":139.4921},{"name":"第二児童館","province":"東京都","city":"稲城市","address":"稲城市矢野口1780","lat":35.635108,"lon":139.518921},{"name":"第四児童館","province":"東京都","city":"稲城市","address":"稲城市東長沼271","lat":35.64565,"lon":139.50617},{"name":"本郷児童館","province":"東京都","city":"稲城市","address":"稲城市東長沼2115-2","lat":35.6487,"lon":139.50085},{"name":"＊?稲城市立中央図書館","province":"東京都","city":"稲城市","address":"稲城市向陽台4-6-18","lat":35.645642,"lon":139.488417},{"name":"＊?稲城市立第一図書館","province":"東京都","city":"稲城市","address":"稲城市東長沼2111","lat":35.638078,"lon":139.503749},{"name":"＊?稲城市立第二図書館","province":"東京都","city":"稲城市","address":"稲城市矢野口1780","lat":35.634849,"lon":139.518967},{"name":"＊?稲城市立第三図書館","province":"東京都","city":"稲城市","address":"稲城市平尾1-20-5","lat":35.613117,"lon":139.492461},{"name":"＊?稲城市立第四図書館","province":"東京都","city":"稲城市","address":"稲城市東長沼271","lat":35.645914,"lon":139.505366},{"name":"＊?稲城市立iプラザ図書館","province":"東京都","city":"稲城市","address":"稲城市若葉台2-5-2","lat":35.621149,"lon":139.472184},{"name":"本郷児童館","province":"東京都","city":"稲城市","address":"稲城市東長沼2115-2","lat":35.637781,"lon":139.501344},{"name":"第四児童館","province":"東京都","city":"稲城市","address":"稲城市東長沼271","lat":35.645938,"lon":139.505229},{"name":"城山児童館","province":"東京都","city":"稲城市","address":"稲城市向陽台6-7","lat":35.641669,"lon":139.490661},{"name":"稲城市立第二児童館","province":"東京都","city":"稲城市","address":"稲城市矢野口1780","lat":35.635108,"lon":139.518921},{"name":"第三児童館","province":"東京都","city":"稲城市","address":"稲城市平尾1-20-5","lat":35.613122,"lon":139.492558},{"name":"本郷児童館","province":"東京都","city":"稲城市","address":"稲城市東長沼2115-2","lat":35.63477,"lon":139.50426},{"name":"稲城市第四文化センター児童館","province":"東京都","city":"稲城市","address":"稲城市東長沼271","lat":35.64565,"lon":139.50616},{"name":"稲城市城山文化センター児童館","province":"東京都","city":"稲城市","address":"稲城市向陽台6-7","lat":35.64127,"lon":139.49081},{"name":"稲城市第二文化センター児童館","province":"東京都","city":"稲城市","address":"稲城市矢野口1780","lat":35.63509,"lon":139.51866},{"name":"稲城市第三文化センター児童館","province":"東京都","city":"稲城市","address":"稲城市平尾1-20-5","lat":35.61317,"lon":139.4921},{"name":"第四児童館","province":"東京都","city":"稲城市","address":"稲城市東長沼271","lat":35.64565,"lon":139.50616},{"name":"城山児童館","province":"東京都","city":"稲城市","address":"稲城市向陽台6-7","lat":35.64127,"lon":139.49081},{"name":"第二児童館","province":"東京都","city":"稲城市","address":"稲城市矢野口1780","lat":35.63509,"lon":139.51866},{"name":"第三児童館","province":"東京都","city":"稲城市","address":"稲城市平尾1-20-5","lat":35.61317,"lon":139.4921},{"name":"第二児童館","province":"東京都","city":"稲城市","address":"稲城市矢野口1780","lat":35.635108,"lon":139.518921},{"name":"第四児童館","province":"東京都","city":"稲城市","address":"稲城市東長沼271","lat":35.64565,"lon":139.50617},{"name":"本郷児童館","province":"東京都","city":"稲城市","address":"稲城市東長沼2115-2","lat":35.6487,"lon":139.50085},{"name":"＊?稲城市立中央図書館","province":"東京都","city":"稲城市","address":"稲城市向陽台4-6-18","lat":35.645642,"lon":139.488417},{"name":"＊?稲城市立第一図書館","province":"東京都","city":"稲城市","address":"稲城市東長沼2111","lat":35.638078,"lon":139.503749},{"name":"＊?稲城市立第二図書館","province":"東京都","city":"稲城市","address":"稲城市矢野口1780","lat":35.634849,"lon":139.518967},{"name":"＊?稲城市立第三図書館","province":"東京都","city":"稲城市","address":"稲城市平尾1-20-5","lat":35.613117,"lon":139.492461},{"name":"＊?稲城市立第四図書館","province":"東京都","city":"稲城市","address":"稲城市東長沼271","lat":35.645914,"lon":139.505366},{"name":"＊?稲城市立iプラザ図書館","province":"東京都","city":"稲城市","address":"稲城市若葉台2-5-2","lat":35.621149,"lon":139.472184},{"name":"本郷児童館","province":"東京都","city":"稲城市","address":"稲城市東長沼2115-2","lat":35.637781,"lon":139.501344},{"name":"第四児童館","province":"東京都","city":"稲城市","address":"稲城市東長沼271","lat":35.645938,"lon":139.505229},{"name":"城山児童館","province":"東京都","city":"稲城市","address":"稲城市向陽台6-7","lat":35.641669,"lon":139.490661},{"name":"稲城市立第二児童館","province":"東京都","city":"稲城市","address":"稲城市矢野口1780","lat":35.635108,"lon":139.518921},{"name":"第三児童館","province":"東京都","city":"稲城市","address":"稲城市平尾1-20-5","lat":35.613122,"lon":139.492558},{"name":"本郷児童館","province":"東京都","city":"稲城市","address":"稲城市東長沼2115-2","lat":35.63477,"lon":139.50426},{"name":"稲城市第四文化センター児童館","province":"東京都","city":"稲城市","address":"稲城市東長沼271","lat":35.64565,"lon":139.50616},{"name":"稲城市城山文化センター児童館","province":"東京都","city":"稲城市","address":"稲城市向陽台6-7","lat":35.64127,"lon":139.49081},{"name":"稲城市第二文化センター児童館","province":"東京都","city":"稲城市","address":"稲城市矢野口1780","lat":35.63509,"lon":139.51866},{"name":"稲城市第三文化センター児童館","province":"東京都","city":"稲城市","address":"稲城市平尾1-20-5","lat":35.61317,"lon":139.4921},{"name":"第四児童館","province":"東京都","city":"稲城市","address":"稲城市東長沼271","lat":35.64565,"lon":139.50616},{"name":"城山児童館","province":"東京都","city":"稲城市","address":"稲城市向陽台6-7","lat":35.64127,"lon":139.49081},{"name":"第二児童館","province":"東京都","city":"稲城市","address":"稲城市矢野口1780","lat":35.63509,"lon":139.51866},{"name":"第三児童館","province":"東京都","city":"稲城市","address":"稲城市平尾1-20-5","lat":35.61317,"lon":139.4921},{"name":"第二児童館","province":"東京都","city":"稲城市","address":"稲城市矢野口1780","lat":35.635108,"lon":139.518921},{"name":"第四児童館","province":"東京都","city":"稲城市","address":"稲城市東長沼271","lat":35.64565,"lon":139.50617},{"name":"本郷児童館","province":"東京都","city":"稲城市","address":"稲城市東長沼2115-2","lat":35.6487,"lon":139.50085},{"name":"＊?稲城市立中央図書館","province":"東京都","city":"稲城市","address":"稲城市向陽台4-6-18","lat":35.645642,"lon":139.488417},{"name":"＊?稲城市立第一図書館","province":"東京都","city":"稲城市","address":"稲城市東長沼2111","lat":35.638078,"lon":139.503749},{"name":"＊?稲城市立第二図書館","province":"東京都","city":"稲城市","address":"稲城市矢野口1780","lat":35.634849,"lon":139.518967},{"name":"＊?稲城市立第三図書館","province":"東京都","city":"稲城市","address":"稲城市平尾1-20-5","lat":35.613117,"lon":139.492461},{"name":"＊?稲城市立第四図書館","province":"東京都","city":"稲城市","address":"稲城市東長沼271","lat":35.645914,"lon":139.505366},{"name":"＊?稲城市立iプラザ図書館","province":"東京都","city":"稲城市","address":"稲城市若葉台2-5-2","lat":35.621149,"lon":139.472184},{"name":"本郷児童館","province":"東京都","city":"稲城市","address":"稲城市東長沼2115-2","lat":35.637781,"lon":139.501344},{"name":"第四児童館","province":"東京都","city":"稲城市","address":"稲城市東長沼271","lat":35.645938,"lon":139.505229},{"name":"城山児童館","province":"東京都","city":"稲城市","address":"稲城市向陽台6-7","lat":35.641669,"lon":139.490661},{"name":"稲城市立第二児童館","province":"東京都","city":"稲城市","address":"稲城市矢野口1780","lat":35.635108,"lon":139.518921},{"name":"第三児童館","province":"東京都","city":"稲城市","address":"稲城市平尾1-20-5","lat":35.613122,"lon":139.492558},{"name":"本郷児童館","province":"東京都","city":"稲城市","address":"稲城市東長沼2115-2","lat":35.63477,"lon":139.50426},{"name":"稲城市第四文化センター児童館","province":"東京都","city":"稲城市","address":"稲城市東長沼271","lat":35.64565,"lon":139.50616},{"name":"稲城市城山文化センター児童館","province":"東京都","city":"稲城市","address":"稲城市向陽台6-7","lat":35.64127,"lon":139.49081},{"name":"稲城市第二文化センター児童館","province":"東京都","city":"稲城市","address":"稲城市矢野口1780","lat":35.63509,"lon":139.51866},{"name":"稲城市第三文化センター児童館","province":"東京都","city":"稲城市","address":"稲城市平尾1-20-5","lat":35.61317,"lon":139.4921},{"name":"第四児童館","province":"東京都","city":"稲城市","address":"稲城市東長沼271","lat":35.64565,"lon":139.50616},{"name":"城山児童館","province":"東京都","city":"稲城市","address":"稲城市向陽台6-7","lat":35.64127,"lon":139.49081},{"name":"第二児童館","province":"東京都","city":"稲城市","address":"稲城市矢野口1780","lat":35.63509,"lon":139.51866},{"name":"第三児童館","province":"東京都","city":"稲城市","address":"稲城市平尾1-20-5","lat":35.61317,"lon":139.4921},{"name":"第二児童館","province":"東京都","city":"稲城市","address":"稲城市矢野口1780","lat":35.635108,"lon":139.518921},{"name":"第四児童館","province":"東京都","city":"稲城市","address":"稲城市東長沼271","lat":35.64565,"lon":139.50617},{"name":"本郷児童館","province":"東京都","city":"稲城市","address":"稲城市東長沼2115-2","lat":35.6487,"lon":139.50085},{"name":"＊?稲城市立中央図書館","province":"東京都","city":"稲城市","address":"稲城市向陽台4-6-18","lat":35.645642,"lon":139.488417},{"name":"＊?稲城市立第一図書館","province":"東京都","city":"稲城市","address":"稲城市東長沼2111","lat":35.638078,"lon":139.503749},{"name":"＊?稲城市立第二図書館","province":"東京都","city":"稲城市","address":"稲城市矢野口1780","lat":35.634849,"lon":139.518967},{"name":"＊?稲城市立第三図書館","province":"東京都","city":"稲城市","address":"稲城市平尾1-20-5","lat":35.613117,"lon":139.492461},{"name":"＊?稲城市立第四図書館","province":"東京都","city":"稲城市","address":"稲城市東長沼271","lat":35.645914,"lon":139.505366},{"name":"＊?稲城市立iプラザ図書館","province":"東京都","city":"稲城市","address":"稲城市若葉台2-5-2","lat":35.621149,"lon":139.472184},{"name":"本郷児童館","province":"東京都","city":"稲城市","address":"稲城市東長沼2115-2","lat":35.637781,"lon":139.501344},{"name":"第四児童館","province":"東京都","city":"稲城市","address":"稲城市東長沼271","lat":35.645938,"lon":139.505229},{"name":"城山児童館","province":"東京都","city":"稲城市","address":"稲城市向陽台6-7","lat":35.641669,"lon":139.490661},{"name":"稲城市立第二児童館","province":"東京都","city":"稲城市","address":"稲城市矢野口1780","lat":35.635108,"lon":139.518921},{"name":"第三児童館","province":"東京都","city":"稲城市","address":"稲城市平尾1-20-5","lat":35.613122,"lon":139.492558},{"name":"本郷児童館","province":"東京都","city":"稲城市","address":"稲城市東長沼2115-2","lat":35.63477,"lon":139.50426},{"name":"稲城市第四文化センター児童館","province":"東京都","city":"稲城市","address":"稲城市東長沼271","lat":35.64565,"lon":139.50616},{"name":"稲城市城山文化センター児童館","province":"東京都","city":"稲城市","address":"稲城市向陽台6-7","lat":35.64127,"lon":139.49081},{"name":"稲城市第二文化センター児童館","province":"東京都","city":"稲城市","address":"稲城市矢野口1780","lat":35.63509,"lon":139.51866},{"name":"稲城市第三文化センター児童館","province":"東京都","city":"稲城市","address":"稲城市平尾1-20-5","lat":35.61317,"lon":139.4921},{"name":"第四児童館","province":"東京都","city":"稲城市","address":"稲城市東長沼271","lat":35.64565,"lon":139.50616},{"name":"城山児童館","province":"東京都","city":"稲城市","address":"稲城市向陽台6-7","lat":35.64127,"lon":139.49081},{"name":"第二児童館","province":"東京都","city":"稲城市","address":"稲城市矢野口1780","lat":35.63509,"lon":139.51866},{"name":"第三児童館","province":"東京都","city":"稲城市","address":"稲城市平尾1-20-5","lat":35.61317,"lon":139.4921},{"name":"第二児童館","province":"東京都","city":"稲城市","address":"稲城市矢野口1780","lat":35.635108,"lon":139.518921},{"name":"第四児童館","province":"東京都","city":"稲城市","address":"稲城市東長沼271","lat":35.64565,"lon":139.50617},{"name":"本郷児童館","province":"東京都","city":"稲城市","address":"稲城市東長沼2115-2","lat":35.6487,"lon":139.50085},{"name":"＊?稲城市立中央図書館","province":"東京都","city":"稲城市","address":"稲城市向陽台4-6-18","lat":35.645642,"lon":139.488417},{"name":"＊?稲城市立第一図書館","province":"東京都","city":"稲城市","address":"稲城市東長沼2111","lat":35.638078,"lon":139.503749},{"name":"＊?稲城市立第二図書館","province":"東京都","city":"稲城市","address":"稲城市矢野口1780","lat":35.634849,"lon":139.518967},{"name":"＊?稲城市立第三図書館","province":"東京都","city":"稲城市","address":"稲城市平尾1-20-5","lat":35.613117,"lon":139.492461},{"name":"＊?稲城市立第四図書館","province":"東京都","city":"稲城市","address":"稲城市東長沼271","lat":35.645914,"lon":139.505366},{"name":"＊?稲城市立iプラザ図書館","province":"東京都","city":"稲城市","address":"稲城市若葉台2-5-2","lat":35.621149,"lon":139.472184},{"name":"本郷児童館","province":"東京都","city":"稲城市","address":"稲城市東長沼2115-2","lat":35.637781,"lon":139.501344},{"name":"第四児童館","province":"東京都","city":"稲城市","address":"稲城市東長沼271","lat":35.645938,"lon":139.505229},{"name":"城山児童館","province":"東京都","city":"稲城市","address":"稲城市向陽台6-7","lat":35.641669,"lon":139.490661},{"name":"稲城市立第二児童館","province":"東京都","city":"稲城市","address":"稲城市矢野口1780","lat":35.635108,"lon":139.518921},{"name":"第三児童館","province":"東京都","city":"稲城市","address":"稲城市平尾1-20-5","lat":35.613122,"lon":139.492558},{"name":"本郷児童館","province":"東京都","city":"稲城市","address":"稲城市東長沼2115-2","lat":35.63477,"lon":139.50426},{"name":"稲城市第四文化センター児童館","province":"東京都","city":"稲城市","address":"稲城市東長沼271","lat":35.64565,"lon":139.50616},{"name":"稲城市城山文化センター児童館","province":"東京都","city":"稲城市","address":"稲城市向陽台6-7","lat":35.64127,"lon":139.49081},{"name":"稲城市第二文化センター児童館","province":"東京都","city":"稲城市","address":"稲城市矢野口1780","lat":35.63509,"lon":139.51866},{"name":"稲城市第三文化センター児童館","province":"東京都","city":"稲城市","address":"稲城市平尾1-20-5","lat":35.61317,"lon":139.4921},{"name":"第四児童館","province":"東京都","city":"稲城市","address":"稲城市東長沼271","lat":35.64565,"lon":139.50616},{"name":"城山児童館","province":"東京都","city":"稲城市","address":"稲城市向陽台6-7","lat":35.64127,"lon":139.49081},{"name":"第二児童館","province":"東京都","city":"稲城市","address":"稲城市矢野口1780","lat":35.63509,"lon":139.51866},{"name":"第三児童館","province":"東京都","city":"稲城市","address":"稲城市平尾1-20-5","lat":35.61317,"lon":139.4921},{"name":"第二児童館","province":"東京都","city":"稲城市","address":"稲城市矢野口1780","lat":35.635108,"lon":139.518921},{"name":"第四児童館","province":"東京都","city":"稲城市","address":"稲城市東長沼271","lat":35.64565,"lon":139.50617},{"name":"本郷児童館","province":"東京都","city":"稲城市","address":"稲城市東長沼2115-2","lat":35.6487,"lon":139.50085},{"name":"＊?稲城市立中央図書館","province":"東京都","city":"稲城市","address":"稲城市向陽台4-6-18","lat":35.645642,"lon":139.488417},{"name":"＊?稲城市立第一図書館","province":"東京都","city":"稲城市","address":"稲城市東長沼2111","lat":35.638078,"lon":139.503749},{"name":"＊?稲城市立第二図書館","province":"東京都","city":"稲城市","address":"稲城市矢野口1780","lat":35.634849,"lon":139.518967},{"name":"＊?稲城市立第三図書館","province":"東京都","city":"稲城市","address":"稲城市平尾1-20-5","lat":35.613117,"lon":139.492461},{"name":"＊?稲城市立第四図書館","province":"東京都","city":"稲城市","address":"稲城市東長沼271","lat":35.645914,"lon":139.505366},{"name":"＊?稲城市立iプラザ図書館","province":"東京都","city":"稲城市","address":"稲城市若葉台2-5-2","lat":35.621149,"lon":139.472184},{"name":"本郷児童館","province":"東京都","city":"稲城市","address":"稲城市東長沼2115-2","lat":35.637781,"lon":139.501344},{"name":"第四児童館","province":"東京都","city":"稲城市","address":"稲城市東長沼271","lat":35.645938,"lon":139.505229},{"name":"城山児童館","province":"東京都","city":"稲城市","address":"稲城市向陽台6-7","lat":35.641669,"lon":139.490661},{"name":"稲城市立第二児童館","province":"東京都","city":"稲城市","address":"稲城市矢野口1780","lat":35.635108,"lon":139.518921},{"name":"第三児童館","province":"東京都","city":"稲城市","address":"稲城市平尾1-20-5","lat":35.613122,"lon":139.492558},{"name":"本郷児童館","province":"東京都","city":"稲城市","address":"稲城市東長沼2115-2","lat":35.63477,"lon":139.50426},{"name":"稲城市第四文化センター児童館","province":"東京都","city":"稲城市","address":"稲城市東長沼271","lat":35.64565,"lon":139.50616},{"name":"稲城市城山文化センター児童館","province":"東京都","city":"稲城市","address":"稲城市向陽台6-7","lat":35.64127,"lon":139.49081},{"name":"稲城市第二文化センター児童館","province":"東京都","city":"稲城市","address":"稲城市矢野口1780","lat":35.63509,"lon":139.51866},{"name":"稲城市第三文化センター児童館","province":"東京都","city":"稲城市","address":"稲城市平尾1-20-5","lat":35.61317,"lon":139.4921},{"name":"第四児童館","province":"東京都","city":"稲城市","address":"稲城市東長沼271","lat":35.64565,"lon":139.50616},{"name":"城山児童館","province":"東京都","city":"稲城市","address":"稲城市向陽台6-7","lat":35.64127,"lon":139.49081},{"name":"第二児童館","province":"東京都","city":"稲城市","address":"稲城市矢野口1780","lat":35.63509,"lon":139.51866},{"name":"第三児童館","province":"東京都","city":"稲城市","address":"稲城市平尾1-20-5","lat":35.61317,"lon":139.4921},{"name":"第二児童館","province":"東京都","city":"稲城市","address":"稲城市矢野口1780","lat":35.635108,"lon":139.518921},{"name":"第四児童館","province":"東京都","city":"稲城市","address":"稲城市東長沼271","lat":35.64565,"lon":139.50617},{"name":"本郷児童館","province":"東京都","city":"稲城市","address":"稲城市東長沼2115-2","lat":35.6487,"lon":139.50085},{"name":"＊?稲城市立中央図書館","province":"東京都","city":"稲城市","address":"稲城市向陽台4-6-18","lat":35.645642,"lon":139.488417},{"name":"＊?稲城市立第一図書館","province":"東京都","city":"稲城市","address":"稲城市東長沼2111","lat":35.638078,"lon":139.503749},{"name":"＊?稲城市立第二図書館","province":"東京都","city":"稲城市","address":"稲城市矢野口1780","lat":35.634849,"lon":139.518967},{"name":"＊?稲城市立第三図書館","province":"東京都","city":"稲城市","address":"稲城市平尾1-20-5","lat":35.613117,"lon":139.492461},{"name":"＊?稲城市立第四図書館","province":"東京都","city":"稲城市","address":"稲城市東長沼271","lat":35.645914,"lon":139.505366},{"name":"＊?稲城市立iプラザ図書館","province":"東京都","city":"稲城市","address":"稲城市若葉台2-5-2","lat":35.621149,"lon":139.472184},{"name":"本郷児童館","province":"東京都","city":"稲城市","address":"稲城市東長沼2115-2","lat":35.637781,"lon":139.501344},{"name":"第四児童館","province":"東京都","city":"稲城市","address":"稲城市東長沼271","lat":35.645938,"lon":139.505229},{"name":"城山児童館","province":"東京都","city":"稲城市","address":"稲城市向陽台6-7","lat":35.641669,"lon":139.490661},{"name":"稲城市立第二児童館","province":"東京都","city":"稲城市","address":"稲城市矢野口1780","lat":35.635108,"lon":139.518921},{"name":"第三児童館","province":"東京都","city":"稲城市","address":"稲城市平尾1-20-5","lat":35.613122,"lon":139.492558},{"name":"本郷児童館","province":"東京都","city":"稲城市","address":"稲城市東長沼2115-2","lat":35.63477,"lon":139.50426},{"name":"稲城市第四文化センター児童館","province":"東京都","city":"稲城市","address":"稲城市東長沼271","lat":35.64565,"lon":139.50616},{"name":"稲城市城山文化センター児童館","province":"東京都","city":"稲城市","address":"稲城市向陽台6-7","lat":35.64127,"lon":139.49081},{"name":"稲城市第二文化センター児童館","province":"東京都","city":"稲城市","address":"稲城市矢野口1780","lat":35.63509,"lon":139.51866},{"name":"稲城市第三文化センター児童館","province":"東京都","city":"稲城市","address":"稲城市平尾1-20-5","lat":35.61317,"lon":139.4921},{"name":"第四児童館","province":"東京都","city":"稲城市","address":"稲城市東長沼271","lat":35.64565,"lon":139.50616},{"name":"城山児童館","province":"東京都","city":"稲城市","address":"稲城市向陽台6-7","lat":35.64127,"lon":139.49081},{"name":"第二児童館","province":"東京都","city":"稲城市","address":"稲城市矢野口1780","lat":35.63509,"lon":139.51866},{"name":"第三児童館","province":"東京都","city":"稲城市","address":"稲城市平尾1-20-5","lat":35.61317,"lon":139.4921},{"name":"第二児童館","province":"東京都","city":"稲城市","address":"稲城市矢野口1780","lat":35.635108,"lon":139.518921},{"name":"第四児童館","province":"東京都","city":"稲城市","address":"稲城市東長沼271","lat":35.64565,"lon":139.50617},{"name":"本郷児童館","province":"東京都","city":"稲城市","address":"稲城市東長沼2115-2","lat":35.6487,"lon":139.50085},{"name":"＊?稲城市立中央図書館","province":"東京都","city":"稲城市","address":"稲城市向陽台4-6-18","lat":35.645642,"lon":139.488417},{"name":"＊?稲城市立第一図書館","province":"東京都","city":"稲城市","address":"稲城市東長沼2111","lat":35.638078,"lon":139.503749},{"name":"＊?稲城市立第二図書館","province":"東京都","city":"稲城市","address":"稲城市矢野口1780","lat":35.634849,"lon":139.518967},{"name":"＊?稲城市立第三図書館","province":"東京都","city":"稲城市","address":"稲城市平尾1-20-5","lat":35.613117,"lon":139.492461},{"name":"＊?稲城市立第四図書館","province":"東京都","city":"稲城市","address":"稲城市東長沼271","lat":35.645914,"lon":139.505366},{"name":"＊?稲城市立iプラザ図書館","province":"東京都","city":"稲城市","address":"稲城市若葉台2-5-2","lat":35.621149,"lon":139.472184},{"name":"本郷児童館","province":"東京都","city":"稲城市","address":"稲城市東長沼2115-2","lat":35.637781,"lon":139.501344},{"name":"第四児童館","province":"東京都","city":"稲城市","address":"稲城市東長沼271","lat":35.645938,"lon":139.505229},{"name":"城山児童館","province":"東京都","city":"稲城市","address":"稲城市向陽台6-7","lat":35.641669,"lon":139.490661},{"name":"稲城市立第二児童館","province":"東京都","city":"稲城市","address":"稲城市矢野口1780","lat":35.635108,"lon":139.518921},{"name":"第三児童館","province":"東京都","city":"稲城市","address":"稲城市平尾1-20-5","lat":35.613122,"lon":139.492558},{"name":"本郷児童館","province":"東京都","city":"稲城市","address":"稲城市東長沼2115-2","lat":35.63477,"lon":139.50426},{"name":"稲城市第四文化センター児童館","province":"東京都","city":"稲城市","address":"稲城市東長沼271","lat":35.64565,"lon":139.50616},{"name":"稲城市城山文化センター児童館","province":"東京都","city":"稲城市","address":"稲城市向陽台6-7","lat":35.64127,"lon":139.49081},{"name":"稲城市第二文化センター児童館","province":"東京都","city":"稲城市","address":"稲城市矢野口1780","lat":35.63509,"lon":139.51866},{"name":"稲城市第三文化センター児童館","province":"東京都","city":"稲城市","address":"稲城市平尾1-20-5","lat":35.61317,"lon":139.4921},{"name":"第四児童館","province":"東京都","city":"稲城市","address":"稲城市東長沼271","lat":35.64565,"lon":139.50616},{"name":"城山児童館","province":"東京都","city":"稲城市","address":"稲城市向陽台6-7","lat":35.64127,"lon":139.49081},{"name":"第二児童館","province":"東京都","city":"稲城市","address":"稲城市矢野口1780","lat":35.63509,"lon":139.51866},{"name":"第三児童館","province":"東京都","city":"稲城市","address":"稲城市平尾1-20-5","lat":35.61317,"lon":139.4921},{"name":"第二児童館","province":"東京都","city":"稲城市","address":"稲城市矢野口1780","lat":35.635108,"lon":139.518921},{"name":"第四児童館","province":"東京都","city":"稲城市","address":"稲城市東長沼271","lat":35.64565,"lon":139.50617},{"name":"本郷児童館","province":"東京都","city":"稲城市","address":"稲城市東長沼2115-2","lat":35.6487,"lon":139.50085},{"name":"＊?稲城市立中央図書館","province":"東京都","city":"稲城市","address":"稲城市向陽台4-6-18","lat":35.645642,"lon":139.488417},{"name":"＊?稲城市立第一図書館","province":"東京都","city":"稲城市","address":"稲城市東長沼2111","lat":35.638078,"lon":139.503749},{"name":"＊?稲城市立第二図書館","province":"東京都","city":"稲城市","address":"稲城市矢野口1780","lat":35.634849,"lon":139.518967},{"name":"＊?稲城市立第三図書館","province":"東京都","city":"稲城市","address":"稲城市平尾1-20-5","lat":35.613117,"lon":139.492461},{"name":"＊?稲城市立第四図書館","province":"東京都","city":"稲城市","address":"稲城市東長沼271","lat":35.645914,"lon":139.505366},{"name":"＊?稲城市立iプラザ図書館","province":"東京都","city":"稲城市","address":"稲城市若葉台2-5-2","lat":35.621149,"lon":139.472184},{"name":"本郷児童館","province":"東京都","city":"稲城市","address":"稲城市東長沼2115-2","lat":35.637781,"lon":139.501344},{"name":"第四児童館","province":"東京都","city":"稲城市","address":"稲城市東長沼271","lat":35.645938,"lon":139.505229},{"name":"城山児童館","province":"東京都","city":"稲城市","address":"稲城市向陽台6-7","lat":35.641669,"lon":139.490661},{"name":"稲城市立第二児童館","province":"東京都","city":"稲城市","address":"稲城市矢野口1780","lat":35.635108,"lon":139.518921},{"name":"第三児童館","province":"東京都","city":"稲城市","address":"稲城市平尾1-20-5","lat":35.613122,"lon":139.492558},{"name":"本郷児童館","province":"東京都","city":"稲城市","address":"稲城市東長沼2115-2","lat":35.63477,"lon":139.50426},{"name":"稲城市第四文化センター児童館","province":"東京都","city":"稲城市","address":"稲城市東長沼271","lat":35.64565,"lon":139.50616},{"name":"稲城市城山文化センター児童館","province":"東京都","city":"稲城市","address":"稲城市向陽台6-7","lat":35.64127,"lon":139.49081},{"name":"稲城市第二文化センター児童館","province":"東京都","city":"稲城市","address":"稲城市矢野口1780","lat":35.63509,"lon":139.51866},{"name":"稲城市第三文化センター児童館","province":"東京都","city":"稲城市","address":"稲城市平尾1-20-5","lat":35.61317,"lon":139.4921},{"name":"第四児童館","province":"東京都","city":"稲城市","address":"稲城市東長沼271","lat":35.64565,"lon":139.50616},{"name":"城山児童館","province":"東京都","city":"稲城市","address":"稲城市向陽台6-7","lat":35.64127,"lon":139.49081},{"name":"第二児童館","province":"東京都","city":"稲城市","address":"稲城市矢野口1780","lat":35.63509,"lon":139.51866},{"name":"第三児童館","province":"東京都","city":"稲城市","address":"稲城市平尾1-20-5","lat":35.61317,"lon":139.4921},{"name":"第二児童館","province":"東京都","city":"稲城市","address":"稲城市矢野口1780","lat":35.635108,"lon":139.518921},{"name":"第四児童館","province":"東京都","city":"稲城市","address":"稲城市東長沼271","lat":35.64565,"lon":139.50617},{"name":"本郷児童館","province":"東京都","city":"稲城市","address":"稲城市東長沼2115-2","lat":35.6487,"lon":139.50085},{"name":"＊?稲城市立中央図書館","province":"東京都","city":"稲城市","address":"稲城市向陽台4-6-18","lat":35.645642,"lon":139.488417},{"name":"＊?稲城市立第一図書館","province":"東京都","city":"稲城市","address":"稲城市東長沼2111","lat":35.638078,"lon":139.503749},{"name":"＊?稲城市立第二図書館","province":"東京都","city":"稲城市","address":"稲城市矢野口1780","lat":35.634849,"lon":139.518967},{"name":"＊?稲城市立第三図書館","province":"東京都","city":"稲城市","address":"稲城市平尾1-20-5","lat":35.613117,"lon":139.492461},{"name":"＊?稲城市立第四図書館","province":"東京都","city":"稲城市","address":"稲城市東長沼271","lat":35.645914,"lon":139.505366},{"name":"＊?稲城市立iプラザ図書館","province":"東京都","city":"稲城市","address":"稲城市若葉台2-5-2","lat":35.621149,"lon":139.472184},{"name":"本郷児童館","province":"東京都","city":"稲城市","address":"稲城市東長沼2115-2","lat":35.637781,"lon":139.501344},{"name":"第四児童館","province":"東京都","city":"稲城市","address":"稲城市東長沼271","lat":35.645938,"lon":139.505229},{"name":"城山児童館","province":"東京都","city":"稲城市","address":"稲城市向陽台6-7","lat":35.641669,"lon":139.490661},{"name":"稲城市立第二児童館","province":"東京都","city":"稲城市","address":"稲城市矢野口1780","lat":35.635108,"lon":139.518921},{"name":"第三児童館","province":"東京都","city":"稲城市","address":"稲城市平尾1-20-5","lat":35.613122,"lon":139.492558},{"name":"本郷児童館","province":"東京都","city":"稲城市","address":"稲城市東長沼2115-2","lat":35.63477,"lon":139.50426},{"name":"稲城市第四文化センター児童館","province":"東京都","city":"稲城市","address":"稲城市東長沼271","lat":35.64565,"lon":139.50616},{"name":"稲城市城山文化センター児童館","province":"東京都","city":"稲城市","address":"稲城市向陽台6-7","lat":35.64127,"lon":139.49081},{"name":"稲城市第二文化センター児童館","province":"東京都","city":"稲城市","address":"稲城市矢野口1780","lat":35.63509,"lon":139.51866},{"name":"稲城市第三文化センター児童館","province":"東京都","city":"稲城市","address":"稲城市平尾1-20-5","lat":35.61317,"lon":139.4921},{"name":"第四児童館","province":"東京都","city":"稲城市","address":"稲城市東長沼271","lat":35.64565,"lon":139.50616},{"name":"城山児童館","province":"東京都","city":"稲城市","address":"稲城市向陽台6-7","lat":35.64127,"lon":139.49081},{"name":"第二児童館","province":"東京都","city":"稲城市","address":"稲城市矢野口1780","lat":35.63509,"lon":139.51866},{"name":"第三児童館","province":"東京都","city":"稲城市","address":"稲城市平尾1-20-5","lat":35.61317,"lon":139.4921},{"name":"第二児童館","province":"東京都","city":"稲城市","address":"稲城市矢野口1780","lat":35.635108,"lon":139.518921},{"name":"第四児童館","province":"東京都","city":"稲城市","address":"稲城市東長沼271","lat":35.64565,"lon":139.50617},{"name":"本郷児童館","province":"東京都","city":"稲城市","address":"稲城市東長沼2115-2","lat":35.6487,"lon":139.50085},{"name":"＊?稲城市立中央図書館","province":"東京都","city":"稲城市","address":"稲城市向陽台4-6-18","lat":35.645642,"lon":139.488417},{"name":"＊?稲城市立第一図書館","province":"東京都","city":"稲城市","address":"稲城市東長沼2111","lat":35.638078,"lon":139.503749},{"name":"＊?稲城市立第二図書館","province":"東京都","city":"稲城市","address":"稲城市矢野口1780","lat":35.634849,"lon":139.518967},{"name":"＊?稲城市立第三図書館","province":"東京都","city":"稲城市","address":"稲城市平尾1-20-5","lat":35.613117,"lon":139.492461},{"name":"＊?稲城市立第四図書館","province":"東京都","city":"稲城市","address":"稲城市東長沼271","lat":35.645914,"lon":139.505366},{"name":"＊?稲城市立iプラザ図書館","province":"東京都","city":"稲城市","address":"稲城市若葉台2-5-2","lat":35.621149,"lon":139.472184},{"name":"本郷児童館","province":"東京都","city":"稲城市","address":"稲城市東長沼2115-2","lat":35.637781,"lon":139.501344},{"name":"第四児童館","province":"東京都","city":"稲城市","address":"稲城市東長沼271","lat":35.645938,"lon":139.505229},{"name":"城山児童館","province":"東京都","city":"稲城市","address":"稲城市向陽台6-7","lat":35.641669,"lon":139.490661},{"name":"稲城市立第二児童館","province":"東京都","city":"稲城市","address":"稲城市矢野口1780","lat":35.635108,"lon":139.518921},{"name":"第三児童館","province":"東京都","city":"稲城市","address":"稲城市平尾1-20-5","lat":35.613122,"lon":139.492558},{"name":"本郷児童館","province":"東京都","city":"稲城市","address":"稲城市東長沼2115-2","lat":35.63477,"lon":139.50426},{"name":"稲城市第四文化センター児童館","province":"東京都","city":"稲城市","address":"稲城市東長沼271","lat":35.64565,"lon":139.50616},{"name":"稲城市城山文化センター児童館","province":"東京都","city":"稲城市","address":"稲城市向陽台6-7","lat":35.64127,"lon":139.49081},{"name":"稲城市第二文化センター児童館","province":"東京都","city":"稲城市","address":"稲城市矢野口1780","lat":35.63509,"lon":139.51866},{"name":"稲城市第三文化センター児童館","province":"東京都","city":"稲城市","address":"稲城市平尾1-20-5","lat":35.61317,"lon":139.4921},{"name":"第四児童館","province":"東京都","city":"稲城市","address":"稲城市東長沼271","lat":35.64565,"lon":139.50616},{"name":"城山児童館","province":"東京都","city":"稲城市","address":"稲城市向陽台6-7","lat":35.64127,"lon":139.49081},{"name":"第二児童館","province":"東京都","city":"稲城市","address":"稲城市矢野口1780","lat":35.63509,"lon":139.51866},{"name":"第三児童館","province":"東京都","city":"稲城市","address":"稲城市平尾1-20-5","lat":35.61317,"lon":139.4921},{"name":"第二児童館","province":"東京都","city":"稲城市","address":"稲城市矢野口1780","lat":35.635108,"lon":139.518921},{"name":"第四児童館","province":"東京都","city":"稲城市","address":"稲城市東長沼271","lat":35.64565,"lon":139.50617},{"name":"本郷児童館","province":"東京都","city":"稲城市","address":"稲城市東長沼2115-2","lat":35.6487,"lon":139.50085},{"name":"＊?稲城市立中央図書館","province":"東京都","city":"稲城市","address":"稲城市向陽台4-6-18","lat":35.645642,"lon":139.488417},{"name":"＊?稲城市立第一図書館","province":"東京都","city":"稲城市","address":"稲城市東長沼2111","lat":35.638078,"lon":139.503749},{"name":"＊?稲城市立第二図書館","province":"東京都","city":"稲城市","address":"稲城市矢野口1780","lat":35.634849,"lon":139.518967},{"name":"＊?稲城市立第三図書館","province":"東京都","city":"稲城市","address":"稲城市平尾1-20-5","lat":35.613117,"lon":139.492461},{"name":"＊?稲城市立第四図書館","province":"東京都","city":"稲城市","address":"稲城市東長沼271","lat":35.645914,"lon":139.505366},{"name":"＊?稲城市立iプラザ図書館","province":"東京都","city":"稲城市","address":"稲城市若葉台2-5-2","lat":35.621149,"lon":139.472184},{"name":"本郷児童館","province":"東京都","city":"稲城市","address":"稲城市東長沼2115-2","lat":35.637781,"lon":139.501344},{"name":"第四児童館","province":"東京都","city":"稲城市","address":"稲城市東長沼271","lat":35.645938,"lon":139.505229},{"name":"城山児童館","province":"東京都","city":"稲城市","address":"稲城市向陽台6-7","lat":35.641669,"lon":139.490661},{"name":"稲城市立第二児童館","province":"東京都","city":"稲城市","address":"稲城市矢野口1780","lat":35.635108,"lon":139.518921},{"name":"第三児童館","province":"東京都","city":"稲城市","address":"稲城市平尾1-20-5","lat":35.613122,"lon":139.492558},{"name":"本郷児童館","province":"東京都","city":"稲城市","address":"稲城市東長沼2115-2","lat":35.63477,"lon":139.50426},{"name":"稲城市第四文化センター児童館","province":"東京都","city":"稲城市","address":"稲城市東長沼271","lat":35.64565,"lon":139.50616},{"name":"稲城市城山文化センター児童館","province":"東京都","city":"稲城市","address":"稲城市向陽台6-7","lat":35.64127,"lon":139.49081},{"name":"稲城市第二文化センター児童館","province":"東京都","city":"稲城市","address":"稲城市矢野口1780","lat":35.63509,"lon":139.51866},{"name":"稲城市第三文化センター児童館","province":"東京都","city":"稲城市","address":"稲城市平尾1-20-5","lat":35.61317,"lon":139.4921},{"name":"第四児童館","province":"東京都","city":"稲城市","address":"稲城市東長沼271","lat":35.64565,"lon":139.50616},{"name":"城山児童館","province":"東京都","city":"稲城市","address":"稲城市向陽台6-7","lat":35.64127,"lon":139.49081},{"name":"第二児童館","province":"東京都","city":"稲城市","address":"稲城市矢野口1780","lat":35.63509,"lon":139.51866},{"name":"第三児童館","province":"東京都","city":"稲城市","address":"稲城市平尾1-20-5","lat":35.61317,"lon":139.4921},{"name":"第二児童館","province":"東京都","city":"稲城市","address":"稲城市矢野口1780","lat":35.635108,"lon":139.518921},{"name":"第四児童館","province":"東京都","city":"稲城市","address":"稲城市東長沼271","lat":35.64565,"lon":139.50617},{"name":"本郷児童館","province":"東京都","city":"稲城市","address":"稲城市東長沼2115-2","lat":35.6487,"lon":139.50085},{"name":"＊?稲城市立中央図書館","province":"東京都","city":"稲城市","address":"稲城市向陽台4-6-18","lat":35.645642,"lon":139.488417},{"name":"＊?稲城市立第一図書館","province":"東京都","city":"稲城市","address":"稲城市東長沼2111","lat":35.638078,"lon":139.503749},{"name":"＊?稲城市立第二図書館","province":"東京都","city":"稲城市","address":"稲城市矢野口1780","lat":35.634849,"lon":139.518967},{"name":"＊?稲城市立第三図書館","province":"東京都","city":"稲城市","address":"稲城市平尾1-20-5","lat":35.613117,"lon":139.492461},{"name":"＊?稲城市立第四図書館","province":"東京都","city":"稲城市","address":"稲城市東長沼271","lat":35.645914,"lon":139.505366},{"name":"＊?稲城市立iプラザ図書館","province":"東京都","city":"稲城市","address":"稲城市若葉台2-5-2","lat":35.621149,"lon":139.472184},{"name":"本郷児童館","province":"東京都","city":"稲城市","address":"稲城市東長沼2115-2","lat":35.637781,"lon":139.501344},{"name":"第四児童館","province":"東京都","city":"稲城市","address":"稲城市東長沼271","lat":35.645938,"lon":139.505229},{"name":"城山児童館","province":"東京都","city":"稲城市","address":"稲城市向陽台6-7","lat":35.641669,"lon":139.490661},{"name":"稲城市立第二児童館","province":"東京都","city":"稲城市","address":"稲城市矢野口1780","lat":35.635108,"lon":139.518921},{"name":"第三児童館","province":"東京都","city":"稲城市","address":"稲城市平尾1-20-5","lat":35.613122,"lon":139.492558},{"name":"本郷児童館","province":"東京都","city":"稲城市","address":"稲城市東長沼2115-2","lat":35.63477,"lon":139.50426},{"name":"稲城市第四文化センター児童館","province":"東京都","city":"稲城市","address":"稲城市東長沼271","lat":35.64565,"lon":139.50616},{"name":"稲城市城山文化センター児童館","province":"東京都","city":"稲城市","address":"稲城市向陽台6-7","lat":35.64127,"lon":139.49081},{"name":"稲城市第二文化センター児童館","province":"東京都","city":"稲城市","address":"稲城市矢野口1780","lat":35.63509,"lon":139.51866},{"name":"稲城市第三文化センター児童館","province":"東京都","city":"稲城市","address":"稲城市平尾1-20-5","lat":35.61317,"lon":139.4921},{"name":"第四児童館","province":"東京都","city":"稲城市","address":"稲城市東長沼271","lat":35.64565,"lon":139.50616},{"name":"城山児童館","province":"東京都","city":"稲城市","address":"稲城市向陽台6-7","lat":35.64127,"lon":139.49081},{"name":"第二児童館","province":"東京都","city":"稲城市","address":"稲城市矢野口1780","lat":35.63509,"lon":139.51866},{"name":"第三児童館","province":"東京都","city":"稲城市","address":"稲城市平尾1-20-5","lat":35.61317,"lon":139.4921},{"name":"第二児童館","province":"東京都","city":"稲城市","address":"稲城市矢野口1780","lat":35.635108,"lon":139.518921},{"name":"第四児童館","province":"東京都","city":"稲城市","address":"稲城市東長沼271","lat":35.64565,"lon":139.50617},{"name":"本郷児童館","province":"東京都","city":"稲城市","address":"稲城市東長沼2115-2","lat":35.6487,"lon":139.50085},{"name":"＊?稲城市立中央図書館","province":"東京都","city":"稲城市","address":"稲城市向陽台4-6-18","lat":35.645642,"lon":139.488417},{"name":"＊?稲城市立第一図書館","province":"東京都","city":"稲城市","address":"稲城市東長沼2111","lat":35.638078,"lon":139.503749},{"name":"＊?稲城市立第二図書館","province":"東京都","city":"稲城市","address":"稲城市矢野口1780","lat":35.634849,"lon":139.518967},{"name":"＊?稲城市立第三図書館","province":"東京都","city":"稲城市","address":"稲城市平尾1-20-5","lat":35.613117,"lon":139.492461},{"name":"＊?稲城市立第四図書館","province":"東京都","city":"稲城市","address":"稲城市東長沼271","lat":35.645914,"lon":139.505366},{"name":"＊?稲城市立iプラザ図書館","province":"東京都","city":"稲城市","address":"稲城市若葉台2-5-2","lat":35.621149,"lon":139.472184},{"name":"本郷児童館","province":"東京都","city":"稲城市","address":"稲城市東長沼2115-2","lat":35.637781,"lon":139.501344},{"name":"第四児童館","province":"東京都","city":"稲城市","address":"稲城市東長沼271","lat":35.645938,"lon":139.505229},{"name":"城山児童館","province":"東京都","city":"稲城市","address":"稲城市向陽台6-7","lat":35.641669,"lon":139.490661},{"name":"稲城市立第二児童館","province":"東京都","city":"稲城市","address":"稲城市矢野口1780","lat":35.635108,"lon":139.518921},{"name":"第三児童館","province":"東京都","city":"稲城市","address":"稲城市平尾1-20-5","lat":35.613122,"lon":139.492558},{"name":"本郷児童館","province":"東京都","city":"稲城市","address":"稲城市東長沼2115-2","lat":35.63477,"lon":139.50426},{"name":"稲城市第四文化センター児童館","province":"東京都","city":"稲城市","address":"稲城市東長沼271","lat":35.64565,"lon":139.50616},{"name":"稲城市城山文化センター児童館","province":"東京都","city":"稲城市","address":"稲城市向陽台6-7","lat":35.64127,"lon":139.49081},{"name":"稲城市第二文化センター児童館","province":"東京都","city":"稲城市","address":"稲城市矢野口1780","lat":35.63509,"lon":139.51866},{"name":"稲城市第三文化センター児童館","province":"東京都","city":"稲城市","address":"稲城市平尾1-20-5","lat":35.61317,"lon":139.4921},{"name":"第四児童館","province":"東京都","city":"稲城市","address":"稲城市東長沼271","lat":35.64565,"lon":139.50616},{"name":"城山児童館","province":"東京都","city":"稲城市","address":"稲城市向陽台6-7","lat":35.64127,"lon":139.49081},{"name":"第二児童館","province":"東京都","city":"稲城市","address":"稲城市矢野口1780","lat":35.63509,"lon":139.51866},{"name":"第三児童館","province":"東京都","city":"稲城市","address":"稲城市平尾1-20-5","lat":35.61317,"lon":139.4921},{"name":"第二児童館","province":"東京都","city":"稲城市","address":"稲城市矢野口1780","lat":35.635108,"lon":139.518921},{"name":"第四児童館","province":"東京都","city":"稲城市","address":"稲城市東長沼271","lat":35.64565,"lon":139.50617},{"name":"本郷児童館","province":"東京都","city":"稲城市","address":"稲城市東長沼2115-2","lat":35.6487,"lon":139.50085},{"name":"＊?稲城市立中央図書館","province":"東京都","city":"稲城市","address":"稲城市向陽台4-6-18","lat":35.645642,"lon":139.488417},{"name":"＊?稲城市立第一図書館","province":"東京都","city":"稲城市","address":"稲城市東長沼2111","lat":35.638078,"lon":139.503749},{"name":"＊?稲城市立第二図書館","province":"東京都","city":"稲城市","address":"稲城市矢野口1780","lat":35.634849,"lon":139.518967},{"name":"＊?稲城市立第三図書館","province":"東京都","city":"稲城市","address":"稲城市平尾1-20-5","lat":35.613117,"lon":139.492461},{"name":"＊?稲城市立第四図書館","province":"東京都","city":"稲城市","address":"稲城市東長沼271","lat":35.645914,"lon":139.505366},{"name":"＊?稲城市立iプラザ図書館","province":"東京都","city":"稲城市","address":"稲城市若葉台2-5-2","lat":35.621149,"lon":139.472184},{"name":"本郷児童館","province":"東京都","city":"稲城市","address":"稲城市東長沼2115-2","lat":35.637781,"lon":139.501344},{"name":"第四児童館","province":"東京都","city":"稲城市","address":"稲城市東長沼271","lat":35.645938,"lon":139.505229},{"name":"城山児童館","province":"東京都","city":"稲城市","address":"稲城市向陽台6-7","lat":35.641669,"lon":139.490661},{"name":"稲城市立第二児童館","province":"東京都","city":"稲城市","address":"稲城市矢野口1780","lat":35.635108,"lon":139.518921},{"name":"第三児童館","province":"東京都","city":"稲城市","address":"稲城市平尾1-20-5","lat":35.613122,"lon":139.492558},{"name":"本郷児童館","province":"東京都","city":"稲城市","address":"稲城市東長沼2115-2","lat":35.63477,"lon":139.50426},{"name":"稲城市第四文化センター児童館","province":"東京都","city":"稲城市","address":"稲城市東長沼271","lat":35.64565,"lon":139.50616},{"name":"稲城市城山文化センター児童館","province":"東京都","city":"稲城市","address":"稲城市向陽台6-7","lat":35.64127,"lon":139.49081},{"name":"稲城市第二文化センター児童館","province":"東京都","city":"稲城市","address":"稲城市矢野口1780","lat":35.63509,"lon":139.51866},{"name":"稲城市第三文化センター児童館","province":"東京都","city":"稲城市","address":"稲城市平尾1-20-5","lat":35.61317,"lon":139.4921},{"name":"第四児童館","province":"東京都","city":"稲城市","address":"稲城市東長沼271","lat":35.64565,"lon":139.50616},{"name":"城山児童館","province":"東京都","city":"稲城市","address":"稲城市向陽台6-7","lat":35.64127,"lon":139.49081},{"name":"第二児童館","province":"東京都","city":"稲城市","address":"稲城市矢野口1780","lat":35.63509,"lon":139.51866},{"name":"第三児童館","province":"東京都","city":"稲城市","address":"稲城市平尾1-20-5","lat":35.61317,"lon":139.4921},{"name":"第二児童館","province":"東京都","city":"稲城市","address":"稲城市矢野口1780","lat":35.635108,"lon":139.518921},{"name":"第四児童館","province":"東京都","city":"稲城市","address":"稲城市東長沼271","lat":35.64565,"lon":139.50617},{"name":"本郷児童館","province":"東京都","city":"稲城市","address":"稲城市東長沼2115-2","lat":35.6487,"lon":139.50085},{"name":"＊?稲城市立中央図書館","province":"東京都","city":"稲城市","address":"稲城市向陽台4-6-18","lat":35.645642,"lon":139.488417},{"name":"＊?稲城市立第一図書館","province":"東京都","city":"稲城市","address":"稲城市東長沼2111","lat":35.638078,"lon":139.503749},{"name":"＊?稲城市立第二図書館","province":"東京都","city":"稲城市","address":"稲城市矢野口1780","lat":35.634849,"lon":139.518967},{"name":"＊?稲城市立第三図書館","province":"東京都","city":"稲城市","address":"稲城市平尾1-20-5","lat":35.613117,"lon":139.492461},{"name":"＊?稲城市立第四図書館","province":"東京都","city":"稲城市","address":"稲城市東長沼271","lat":35.645914,"lon":139.505366},{"name":"＊?稲城市立iプラザ図書館","province":"東京都","city":"稲城市","address":"稲城市若葉台2-5-2","lat":35.621149,"lon":139.472184},{"name":"本郷児童館","province":"東京都","city":"稲城市","address":"稲城市東長沼2115-2","lat":35.637781,"lon":139.501344},{"name":"第四児童館","province":"東京都","city":"稲城市","address":"稲城市東長沼271","lat":35.645938,"lon":139.505229},{"name":"城山児童館","province":"東京都","city":"稲城市","address":"稲城市向陽台6-7","lat":35.641669,"lon":139.490661},{"name":"稲城市立第二児童館","province":"東京都","city":"稲城市","address":"稲城市矢野口1780","lat":35.635108,"lon":139.518921},{"name":"第三児童館","province":"東京都","city":"稲城市","address":"稲城市平尾1-20-5","lat":35.613122,"lon":139.492558},{"name":"本郷児童館","province":"東京都","city":"稲城市","address":"稲城市東長沼2115-2","lat":35.63477,"lon":139.50426},{"name":"稲城市第四文化センター児童館","province":"東京都","city":"稲城市","address":"稲城市東長沼271","lat":35.64565,"lon":139.50616},{"name":"稲城市城山文化センター児童館","province":"東京都","city":"稲城市","address":"稲城市向陽台6-7","lat":35.64127,"lon":139.49081},{"name":"稲城市第二文化センター児童館","province":"東京都","city":"稲城市","address":"稲城市矢野口1780","lat":35.63509,"lon":139.51866},{"name":"稲城市第三文化センター児童館","province":"東京都","city":"稲城市","address":"稲城市平尾1-20-5","lat":35.61317,"lon":139.4921},{"name":"第四児童館","province":"東京都","city":"稲城市","address":"稲城市東長沼271","lat":35.64565,"lon":139.50616},{"name":"城山児童館","province":"東京都","city":"稲城市","address":"稲城市向陽台6-7","lat":35.64127,"lon":139.49081},{"name":"第二児童館","province":"東京都","city":"稲城市","address":"稲城市矢野口1780","lat":35.63509,"lon":139.51866},{"name":"第三児童館","province":"東京都","city":"稲城市","address":"稲城市平尾1-20-5","lat":35.61317,"lon":139.4921},{"name":"第二児童館","province":"東京都","city":"稲城市","address":"稲城市矢野口1780","lat":35.635108,"lon":139.518921},{"name":"第四児童館","province":"東京都","city":"稲城市","address":"稲城市東長沼271","lat":35.64565,"lon":139.50617},{"name":"本郷児童館","province":"東京都","city":"稲城市","address":"稲城市東長沼2115-2","lat":35.6487,"lon":139.50085},{"name":"＊?稲城市立中央図書館","province":"東京都","city":"稲城市","address":"稲城市向陽台4-6-18","lat":35.645642,"lon":139.488417},{"name":"＊?稲城市立第一図書館","province":"東京都","city":"稲城市","address":"稲城市東長沼2111","lat":35.638078,"lon":139.503749},{"name":"＊?稲城市立第二図書館","province":"東京都","city":"稲城市","address":"稲城市矢野口1780","lat":35.634849,"lon":139.518967},{"name":"＊?稲城市立第三図書館","province":"東京都","city":"稲城市","address":"稲城市平尾1-20-5","lat":35.613117,"lon":139.492461},{"name":"＊?稲城市立第四図書館","province":"東京都","city":"稲城市","address":"稲城市東長沼271","lat":35.645914,"lon":139.505366},{"name":"＊?稲城市立iプラザ図書館","province":"東京都","city":"稲城市","address":"稲城市若葉台2-5-2","lat":35.621149,"lon":139.472184},{"name":"本郷児童館","province":"東京都","city":"稲城市","address":"稲城市東長沼2115-2","lat":35.637781,"lon":139.501344},{"name":"第四児童館","province":"東京都","city":"稲城市","address":"稲城市東長沼271","lat":35.645938,"lon":139.505229},{"name":"城山児童館","province":"東京都","city":"稲城市","address":"稲城市向陽台6-7","lat":35.641669,"lon":139.490661},{"name":"稲城市立第二児童館","province":"東京都","city":"稲城市","address":"稲城市矢野口1780","lat":35.635108,"lon":139.518921},{"name":"第三児童館","province":"東京都","city":"稲城市","address":"稲城市平尾1-20-5","lat":35.613122,"lon":139.492558},{"name":"本郷児童館","province":"東京都","city":"稲城市","address":"稲城市東長沼2115-2","lat":35.63477,"lon":139.50426},{"name":"稲城市第四文化センター児童館","province":"東京都","city":"稲城市","address":"稲城市東長沼271","lat":35.64565,"lon":139.50616},{"name":"稲城市城山文化センター児童館","province":"東京都","city":"稲城市","address":"稲城市向陽台6-7","lat":35.64127,"lon":139.49081},{"name":"稲城市第二文化センター児童館","province":"東京都","city":"稲城市","address":"稲城市矢野口1780","lat":35.63509,"lon":139.51866},{"name":"稲城市第三文化センター児童館","province":"東京都","city":"稲城市","address":"稲城市平尾1-20-5","lat":35.61317,"lon":139.4921},{"name":"第四児童館","province":"東京都","city":"稲城市","address":"稲城市東長沼271","lat":35.64565,"lon":139.50616},{"name":"城山児童館","province":"東京都","city":"稲城市","address":"稲城市向陽台6-7","lat":35.64127,"lon":139.49081},{"name":"第二児童館","province":"東京都","city":"稲城市","address":"稲城市矢野口1780","lat":35.63509,"lon":139.51866},{"name":"第三児童館","province":"東京都","city":"稲城市","address":"稲城市平尾1-20-5","lat":35.61317,"lon":139.4921},{"name":"第二児童館","province":"東京都","city":"稲城市","address":"稲城市矢野口1780","lat":35.635108,"lon":139.518921},{"name":"第四児童館","province":"東京都","city":"稲城市","address":"稲城市東長沼271","lat":35.64565,"lon":139.50617},{"name":"本郷児童館","province":"東京都","city":"稲城市","address":"稲城市東長沼2115-2","lat":35.6487,"lon":139.50085},{"name":"＊?稲城市立中央図書館","province":"東京都","city":"稲城市","address":"稲城市向陽台4-6-18","lat":35.645642,"lon":139.488417},{"name":"＊?稲城市立第一図書館","province":"東京都","city":"稲城市","address":"稲城市東長沼2111","lat":35.638078,"lon":139.503749},{"name":"＊?稲城市立第二図書館","province":"東京都","city":"稲城市","address":"稲城市矢野口1780","lat":35.634849,"lon":139.518967},{"name":"＊?稲城市立第三図書館","province":"東京都","city":"稲城市","address":"稲城市平尾1-20-5","lat":35.613117,"lon":139.492461},{"name":"＊?稲城市立第四図書館","province":"東京都","city":"稲城市","address":"稲城市東長沼271","lat":35.645914,"lon":139.505366},{"name":"＊?稲城市立iプラザ図書館","province":"東京都","city":"稲城市","address":"稲城市若葉台2-5-2","lat":35.621149,"lon":139.472184},{"name":"本郷児童館","province":"東京都","city":"稲城市","address":"稲城市東長沼2115-2","lat":35.637781,"lon":139.501344},{"name":"第四児童館","province":"東京都","city":"稲城市","address":"稲城市東長沼271","lat":35.645938,"lon":139.505229},{"name":"城山児童館","province":"東京都","city":"稲城市","address":"稲城市向陽台6-7","lat":35.641669,"lon":139.490661},{"name":"稲城市立第二児童館","province":"東京都","city":"稲城市","address":"稲城市矢野口1780","lat":35.635108,"lon":139.518921},{"name":"第三児童館","province":"東京都","city":"稲城市","address":"稲城市平尾1-20-5","lat":35.613122,"lon":139.492558},{"name":"本郷児童館","province":"東京都","city":"稲城市","address":"稲城市東長沼2115-2","lat":35.63477,"lon":139.50426},{"name":"稲城市第四文化センター児童館","province":"東京都","city":"稲城市","address":"稲城市東長沼271","lat":35.64565,"lon":139.50616},{"name":"稲城市城山文化センター児童館","province":"東京都","city":"稲城市","address":"稲城市向陽台6-7","lat":35.64127,"lon":139.49081},{"name":"稲城市第二文化センター児童館","province":"東京都","city":"稲城市","address":"稲城市矢野口1780","lat":35.63509,"lon":139.51866},{"name":"稲城市第三文化センター児童館","province":"東京都","city":"稲城市","address":"稲城市平尾1-20-5","lat":35.61317,"lon":139.4921},{"name":"第四児童館","province":"東京都","city":"稲城市","address":"稲城市東長沼271","lat":35.64565,"lon":139.50616},{"name":"城山児童館","province":"東京都","city":"稲城市","address":"稲城市向陽台6-7","lat":35.64127,"lon":139.49081},{"name":"第二児童館","province":"東京都","city":"稲城市","address":"稲城市矢野口1780","lat":35.63509,"lon":139.51866},{"name":"第三児童館","province":"東京都","city":"稲城市","address":"稲城市平尾1-20-5","lat":35.61317,"lon":139.4921},{"name":"第二児童館","province":"東京都","city":"稲城市","address":"稲城市矢野口1780","lat":35.635108,"lon":139.518921},{"name":"第四児童館","province":"東京都","city":"稲城市","address":"稲城市東長沼271","lat":35.64565,"lon":139.50617},{"name":"本郷児童館","province":"東京都","city":"稲城市","address":"稲城市東長沼2115-2","lat":35.6487,"lon":139.50085},{"name":"＊?稲城市立中央図書館","province":"東京都","city":"稲城市","address":"稲城市向陽台4-6-18","lat":35.645642,"lon":139.488417},{"name":"＊?稲城市立第一図書館","province":"東京都","city":"稲城市","address":"稲城市東長沼2111","lat":35.638078,"lon":139.503749},{"name":"＊?稲城市立第二図書館","province":"東京都","city":"稲城市","address":"稲城市矢野口1780","lat":35.634849,"lon":139.518967},{"name":"＊?稲城市立第三図書館","province":"東京都","city":"稲城市","address":"稲城市平尾1-20-5","lat":35.613117,"lon":139.492461},{"name":"＊?稲城市立第四図書館","province":"東京都","city":"稲城市","address":"稲城市東長沼271","lat":35.645914,"lon":139.505366},{"name":"＊?稲城市立iプラザ図書館","province":"東京都","city":"稲城市","address":"稲城市若葉台2-5-2","lat":35.621149,"lon":139.472184},{"name":"本郷児童館","province":"東京都","city":"稲城市","address":"稲城市東長沼2115-2","lat":35.637781,"lon":139.501344},{"name":"第四児童館","province":"東京都","city":"稲城市","address":"稲城市東長沼271","lat":35.645938,"lon":139.505229},{"name":"城山児童館","province":"東京都","city":"稲城市","address":"稲城市向陽台6-7","lat":35.641669,"lon":139.490661},{"name":"稲城市立第二児童館","province":"東京都","city":"稲城市","address":"稲城市矢野口1780","lat":35.635108,"lon":139.518921},{"name":"第三児童館","province":"東京都","city":"稲城市","address":"稲城市平尾1-20-5","lat":35.613122,"lon":139.492558},{"name":"本郷児童館","province":"東京都","city":"稲城市","address":"稲城市東長沼2115-2","lat":35.63477,"lon":139.50426},{"name":"稲城市第四文化センター児童館","province":"東京都","city":"稲城市","address":"稲城市東長沼271","lat":35.64565,"lon":139.50616},{"name":"稲城市城山文化センター児童館","province":"東京都","city":"稲城市","address":"稲城市向陽台6-7","lat":35.64127,"lon":139.49081},{"name":"稲城市第二文化センター児童館","province":"東京都","city":"稲城市","address":"稲城市矢野口1780","lat":35.63509,"lon":139.51866},{"name":"稲城市第三文化センター児童館","province":"東京都","city":"稲城市","address":"稲城市平尾1-20-5","lat":35.61317,"lon":139.4921},{"name":"第四児童館","province":"東京都","city":"稲城市","address":"稲城市東長沼271","lat":35.64565,"lon":139.50616},{"name":"城山児童館","province":"東京都","city":"稲城市","address":"稲城市向陽台6-7","lat":35.64127,"lon":139.49081},{"name":"第二児童館","province":"東京都","city":"稲城市","address":"稲城市矢野口1780","lat":35.63509,"lon":139.51866},{"name":"第三児童館","province":"東京都","city":"稲城市","address":"稲城市平尾1-20-5","lat":35.61317,"lon":139.4921},{"name":"第二児童館","province":"東京都","city":"稲城市","address":"稲城市矢野口1780","lat":35.635108,"lon":139.518921},{"name":"第四児童館","province":"東京都","city":"稲城市","address":"稲城市東長沼271","lat":35.64565,"lon":139.50617},{"name":"本郷児童館","province":"東京都","city":"稲城市","address":"稲城市東長沼2115-2","lat":35.6487,"lon":139.50085},{"name":"＊?稲城市立中央図書館","province":"東京都","city":"稲城市","address":"稲城市向陽台4-6-18","lat":35.645642,"lon":139.488417},{"name":"＊?稲城市立第一図書館","province":"東京都","city":"稲城市","address":"稲城市東長沼2111","lat":35.638078,"lon":139.503749},{"name":"＊?稲城市立第二図書館","province":"東京都","city":"稲城市","address":"稲城市矢野口1780","lat":35.634849,"lon":139.518967},{"name":"＊?稲城市立第三図書館","province":"東京都","city":"稲城市","address":"稲城市平尾1-20-5","lat":35.613117,"lon":139.492461},{"name":"＊?稲城市立第四図書館","province":"東京都","city":"稲城市","address":"稲城市東長沼271","lat":35.645914,"lon":139.505366},{"name":"＊?稲城市立iプラザ図書館","province":"東京都","city":"稲城市","address":"稲城市若葉台2-5-2","lat":35.621149,"lon":139.472184},{"name":"本郷児童館","province":"東京都","city":"稲城市","address":"稲城市東長沼2115-2","lat":35.637781,"lon":139.501344},{"name":"第四児童館","province":"東京都","city":"稲城市","address":"稲城市東長沼271","lat":35.645938,"lon":139.505229},{"name":"城山児童館","province":"東京都","city":"稲城市","address":"稲城市向陽台6-7","lat":35.641669,"lon":139.490661},{"name":"稲城市立第二児童館","province":"東京都","city":"稲城市","address":"稲城市矢野口1780","lat":35.635108,"lon":139.518921},{"name":"第三児童館","province":"東京都","city":"稲城市","address":"稲城市平尾1-20-5","lat":35.613122,"lon":139.492558},{"name":"本郷児童館","province":"東京都","city":"稲城市","address":"稲城市東長沼2115-2","lat":35.63477,"lon":139.50426},{"name":"稲城市第四文化センター児童館","province":"東京都","city":"稲城市","address":"稲城市東長沼271","lat":35.64565,"lon":139.50616},{"name":"稲城市城山文化センター児童館","province":"東京都","city":"稲城市","address":"稲城市向陽台6-7","lat":35.64127,"lon":139.49081},{"name":"稲城市第二文化センター児童館","province":"東京都","city":"稲城市","address":"稲城市矢野口1780","lat":35.63509,"lon":139.51866},{"name":"稲城市第三文化センター児童館","province":"東京都","city":"稲城市","address":"稲城市平尾1-20-5","lat":35.61317,"lon":139.4921},{"name":"第四児童館","province":"東京都","city":"稲城市","address":"稲城市東長沼271","lat":35.64565,"lon":139.50616},{"name":"城山児童館","province":"東京都","city":"稲城市","address":"稲城市向陽台6-7","lat":35.64127,"lon":139.49081},{"name":"第二児童館","province":"東京都","city":"稲城市","address":"稲城市矢野口1780","lat":35.63509,"lon":139.51866},{"name":"第三児童館","province":"東京都","city":"稲城市","address":"稲城市平尾1-20-5","lat":35.61317,"lon":139.4921},{"name":"第二児童館","province":"東京都","city":"稲城市","address":"稲城市矢野口1780","lat":35.635108,"lon":139.518921},{"name":"第四児童館","province":"東京都","city":"稲城市","address":"稲城市東長沼271","lat":35.64565,"lon":139.50617},{"name":"本郷児童館","province":"東京都","city":"稲城市","address":"稲城市東長沼2115-2","lat":35.6487,"lon":139.50085},{"name":"＊?稲城市立中央図書館","province":"東京都","city":"稲城市","address":"稲城市向陽台4-6-18","lat":35.645642,"lon":139.488417},{"name":"＊?稲城市立第一図書館","province":"東京都","city":"稲城市","address":"稲城市東長沼2111","lat":35.638078,"lon":139.503749},{"name":"＊?稲城市立第二図書館","province":"東京都","city":"稲城市","address":"稲城市矢野口1780","lat":35.634849,"lon":139.518967},{"name":"＊?稲城市立第三図書館","province":"東京都","city":"稲城市","address":"稲城市平尾1-20-5","lat":35.613117,"lon":139.492461},{"name":"＊?稲城市立第四図書館","province":"東京都","city":"稲城市","address":"稲城市東長沼271","lat":35.645914,"lon":139.505366},{"name":"＊?稲城市立iプラザ図書館","province":"東京都","city":"稲城市","address":"稲城市若葉台2-5-2","lat":35.621149,"lon":139.472184},{"name":"本郷児童館","province":"東京都","city":"稲城市","address":"稲城市東長沼2115-2","lat":35.637781,"lon":139.501344},{"name":"第四児童館","province":"東京都","city":"稲城市","address":"稲城市東長沼271","lat":35.645938,"lon":139.505229},{"name":"城山児童館","province":"東京都","city":"稲城市","address":"稲城市向陽台6-7","lat":35.641669,"lon":139.490661},{"name":"稲城市立第二児童館","province":"東京都","city":"稲城市","address":"稲城市矢野口1780","lat":35.635108,"lon":139.518921},{"name":"第三児童館","province":"東京都","city":"稲城市","address":"稲城市平尾1-20-5","lat":35.613122,"lon":139.492558},{"name":"本郷児童館","province":"東京都","city":"稲城市","address":"稲城市東長沼2115-2","lat":35.63477,"lon":139.50426},{"name":"稲城市第四文化センター児童館","province":"東京都","city":"稲城市","address":"稲城市東長沼271","lat":35.64565,"lon":139.50616},{"name":"稲城市城山文化センター児童館","province":"東京都","city":"稲城市","address":"稲城市向陽台6-7","lat":35.64127,"lon":139.49081},{"name":"稲城市第二文化センター児童館","province":"東京都","city":"稲城市","address":"稲城市矢野口1780","lat":35.63509,"lon":139.51866},{"name":"稲城市第三文化センター児童館","province":"東京都","city":"稲城市","address":"稲城市平尾1-20-5","lat":35.61317,"lon":139.4921},{"name":"第四児童館","province":"東京都","city":"稲城市","address":"稲城市東長沼271","lat":35.64565,"lon":139.50616},{"name":"城山児童館","province":"東京都","city":"稲城市","address":"稲城市向陽台6-7","lat":35.64127,"lon":139.49081},{"name":"第二児童館","province":"東京都","city":"稲城市","address":"稲城市矢野口1780","lat":35.63509,"lon":139.51866},{"name":"第三児童館","province":"東京都","city":"稲城市","address":"稲城市平尾1-20-5","lat":35.61317,"lon":139.4921},{"name":"第二児童館","province":"東京都","city":"稲城市","address":"稲城市矢野口1780","lat":35.635108,"lon":139.518921},{"name":"第四児童館","province":"東京都","city":"稲城市","address":"稲城市東長沼271","lat":35.64565,"lon":139.50617},{"name":"本郷児童館","province":"東京都","city":"稲城市","address":"稲城市東長沼2115-2","lat":35.6487,"lon":139.50085},{"name":"＊?稲城市立中央図書館","province":"東京都","city":"稲城市","address":"稲城市向陽台4-6-18","lat":35.645642,"lon":139.488417},{"name":"＊?稲城市立第一図書館","province":"東京都","city":"稲城市","address":"稲城市東長沼2111","lat":35.638078,"lon":139.503749},{"name":"＊?稲城市立第二図書館","province":"東京都","city":"稲城市","address":"稲城市矢野口1780","lat":35.634849,"lon":139.518967},{"name":"＊?稲城市立第三図書館","province":"東京都","city":"稲城市","address":"稲城市平尾1-20-5","lat":35.613117,"lon":139.492461},{"name":"＊?稲城市立第四図書館","province":"東京都","city":"稲城市","address":"稲城市東長沼271","lat":35.645914,"lon":139.505366},{"name":"＊?稲城市立iプラザ図書館","province":"東京都","city":"稲城市","address":"稲城市若葉台2-5-2","lat":35.621149,"lon":139.472184}]}