{"keyword":"館","data":[{"name":"本郷児童館","province":"東京都","city":"稲城市","address":"稲城市東長沼2115-2","lat":35.637781,"lon":139.501344},{"name":"第四児童館","province":"東京都","city":"稲城市","address":"稲城市東長沼271","lat":35.645938,"lon":139.505229},{"name":"城山児童館","province":"東京都","city":"稲城市","address":"稲城市向陽台6-7","lat":35.641669,"lon":139.490661},{"name":"稲城市立第二児童館","province":"東京都","city":"稲城市","address":"稲城市矢野口1780","lat":35.635108,"lon":139.518921},{"name":"第三児童館","province":"東京都","city":"稲城市","address":"稲城市平尾1-20-5","lat":35.613122,"lon":139.492558},{"name":"本郷児童館","province":"東京都","city":"稲城市","address":"稲城市東長沼2115-2","lat":35.63477,"lon":139.50426},{"name":"稲城市第四文化センター児童館","province":"東京都","city":"稲城市","address":"稲城市東長沼271","lat":35.64565,"lon":139.50616},{"name":"稲城市城山文化センター児童館","province":"東京都","city":"稲城市","address":"稲城市向陽台6-7","lat":35.64127,"lon":139.49081},{"name":"稲城市第二文化センター児童館","province":"東京都","city":"稲城市","address":"稲城市矢野口1780","lat":35.63509,"lon":139.51866},{"name":"稲城市第三文化センター児童館","province":"東京都","city":"稲城市","address":"稲城市平尾1-20-5","lat":35.61317,"lon":139.4921},{"name":"第四児童館","province":"東京都","city":"稲城市","address":"稲城市東長沼271","lat":35.64565,"lon":139.50616},{"name":"城山児童館","province":"東京都","city":"稲城市","address":"稲城市向陽台6-7","lat":35.64127,"lon":139.49081},{"name":"第二児童館","province":"東京都","city":"稲城市","address":"稲城市矢野口1780","lat":35.63509,"lon":139.51866},{"name":"第三児童館","province":"東京都","city":"稲城市","address":"稲城市平尾1-20-5","lat":35.61317,"lon":139.4921},{"name":"第二児童館","province":"東京都","city":"稲城市","address":"稲城市矢野口1780","lat":35.635108,"lon":139.518921},{"name":"第四児童館","province":"東京都","city":"稲城市","address":"稲城市東長沼271","lat":35.64565,"lon":139.50617},{"name":"本郷児童館","province":"東京都","city":"稲城市","address":"稲城市東長沼2115-2","lat":35.6487,"lon":139.50085},{"name":"＊?稲城市立中央図書館","province":"東京都","city":"稲城市","address":"稲城市向陽台4-6-18","lat":35.645642,"lon":139.488417},{"name":"＊?稲城市立第一図書館","province":"東京都","city":"稲城市","address":"稲城市東長沼2111","lat":35.638078,"lon":139.503749},{"name":"＊?稲城市立第二図書館","province":"東京都","city":"稲城市","address":"稲城市矢野口1780","lat":35.634849,"lon":139.518967},{"name":"＊?稲城市立第三図書館","province":"東京都","city":"稲城市","address":"稲城市平尾1-20-5","lat":35.613117,"lon":139.492461},{"name":"＊?稲城市立第四図書館","province":"東京都","city":"稲城市","address":"稲城市東長沼271","lat":35.645914,"lon":139.505366},{"name":"＊?稲城市立iプラザ図書館","province":"東京都","city":"稲城市","address":"稲城市若葉台2-5-2","lat":35.621149,"lon":139.472184}]}