{"category":"toilet","data":[{"name":"中野駅北口公衆便所","province":"東京都","city":"中野区","address":"東京都中野区中野5-31-30","lat":35.7061038717728,"lon":139.666010426343},{"name":"東中野駅東口公衆便所","province":"東京都","city":"中野区","address":"東京都中野区東中野1-50-71","lat":35.7061487121405,"lon":139.686585041004},{"name":"丸山公園","province":"東京都","city":"中野区","address":"東京都中野区丸山2-23","lat":35.7242839647692,"lon":139.650319518124},{"name":"江原公園","province":"東京都","city":"中野区","address":"東京都中野区江原町1-15","lat":35.7293598794837,"lon":139.674731260756},{"name":"みずのとう公園","province":"東京都","city":"中野区","address":"東京都中野区江古田1-3","lat":35.7247755573202,"lon":139.674803531199},{"name":"江古田の森公園（学習棟）","province":"東京都","city":"中野区","address":"東京都中野区江古田3-14","lat":35.7292952537246,"lon":139.664777713474},{"name":"江古田の森公園（調節池北側）","province":"東京都","city":"中野区","address":"東京都中野区江古田3-14","lat":35.7295081201874,"lon":139.667962413344},{"name":"江古田の森公園（調節池北側）","province":"東京都","city":"中野区","address":"東京都中野区江古田3-14","lat":35.7311511793641,"lon":139.666563239159},{"name":"江古田の森公園（学習棟）","province":"東京都","city":"中野区","address":"東京都中野区江古田3-14","lat":35.7296301741741,"lon":139.666594087493},{"name":"鷺六公園","province":"東京都","city":"中野区","address":"東京都中野区鷺宮6-24","lat":35.7255097268578,"lon":139.629662097111},{"name":"かしの木公園","province":"東京都","city":"中野区","address":"東京都中野区若宮3-52","lat":35.7200551078948,"lon":139.641941538461},{"name":"江古田公園","province":"東京都","city":"中野区","address":"東京都中野区松が丘2-35-2-29","lat":35.7238636876717,"lon":139.670775231028},{"name":"沼袋公園","province":"東京都","city":"中野区","address":"東京都中野区沼袋1-19","lat":35.7201418665069,"lon":139.668872223443},{"name":"丸山塚公園","province":"東京都","city":"中野区","address":"東京都中野区沼袋2-40","lat":35.723417508698,"lon":139.662945837641},{"name":"沼袋西公園","province":"東京都","city":"中野区","address":"東京都中野区沼袋3-14","lat":35.7166233401047,"lon":139.659354812304},{"name":"上高田二丁目公園","province":"東京都","city":"中野区","address":"東京都中野区上高田2-8","lat":35.7106884262269,"lon":139.673216456415},{"name":"上鷺東公園","province":"東京都","city":"中野区","address":"東京都中野区上鷺宮2-18","lat":35.7297772430973,"lon":139.634817602529},{"name":"風の子ひろば","province":"東京都","city":"中野区","address":"東京都中野区上鷺宮4-13-14","lat":35.734243780357,"lon":139.629090085851},{"name":"上鷺公園","province":"東京都","city":"中野区","address":"東京都中野区上鷺宮4-8","lat":35.7320832734896,"lon":139.628362327205},{"name":"上鷺西公園","province":"東京都","city":"中野区","address":"東京都中野区上鷺宮5-17","lat":35.7313687970195,"lon":139.625205676176},{"name":"八成公園","province":"東京都","city":"中野区","address":"東京都中野区上鷺宮5-19","lat":35.7317479379188,"lon":139.626515113461},{"name":"北中野公園","province":"東京都","city":"中野区","address":"東京都中野区上鷺宮5-8","lat":35.7287241794009,"lon":139.627345134844},{"name":"新井薬師公園（寺側）","province":"東京都","city":"中野区","address":"東京都中野区新井5-4","lat":35.7145731508894,"lon":139.667383674503},{"name":"新井薬師公園（池側）","province":"東京都","city":"中野区","address":"東京都中野区新井5-4","lat":35.7152927360636,"lon":139.667092280613},{"name":"啓明公園","province":"東京都","city":"中野区","address":"東京都中野区大和町1-21","lat":35.7115790926121,"lon":139.653012669431},{"name":"大和北公園","province":"東京都","city":"中野区","address":"東京都中野区大和町2-45","lat":35.7143922913567,"lon":139.649045721175},{"name":"大和公園","province":"東京都","city":"中野区","address":"東京都中野区大和町2-8","lat":35.7156744378095,"lon":139.651672363241},{"name":"西大和公園","province":"東京都","city":"中野区","address":"東京都中野区大和町4-50","lat":35.7148917870785,"lon":139.64369685173},{"name":"みはと公園","province":"東京都","city":"中野区","address":"東京都中野区大和町4-51","lat":35.7161731784529,"lon":139.642089625545},{"name":"宮前公園","province":"東京都","city":"中野区","address":"東京都中野区中央2-39","lat":35.7009583228137,"lon":139.678453740389},{"name":"塔の山公園","province":"東京都","city":"中野区","address":"東京都中野区中央2-7","lat":35.6988436837658,"lon":139.681765686375},{"name":"中央西公園","province":"東京都","city":"中野区","address":"東京都中野区中央5-27","lat":35.6991350340383,"lon":139.663366665533},{"name":"谷戸運動公園","province":"東京都","city":"中野区","address":"東京都中野区中野1-31","lat":35.702503654653,"lon":139.67495596659},{"name":"城山公園","province":"東京都","city":"中野区","address":"東京都中野区中野1-44","lat":35.7042805749216,"lon":139.673983455785},{"name":"紅葉山公園","province":"東京都","city":"中野区","address":"東京都中野区中野2-5","lat":35.7040048471798,"lon":139.671344027899},{"name":"囲桃園公園","province":"東京都","city":"中野区","address":"東京都中野区中野3-20-21","lat":35.7034113851405,"lon":139.662442414041},{"name":"上の原公園","province":"東京都","city":"中野区","address":"東京都中野区東中野2-6","lat":35.7025461373362,"lon":139.680997601986},{"name":"桜山公園","province":"東京都","city":"中野区","address":"東京都中野区東中野3-22","lat":35.7071588432862,"lon":139.679992565608},{"name":"すみよし公園","province":"東京都","city":"中野区","address":"東京都中野区東中野4-25","lat":35.710018794174,"lon":139.687438483098},{"name":"南台公園","province":"東京都","city":"中野区","address":"東京都中野区南台5-7","lat":35.6811825439445,"lon":139.663578979463},{"name":"早稲田通り公園","province":"東京都","city":"中野区","address":"東京都中野区野方1-35","lat":35.7096525625923,"lon":139.656147391675},{"name":"東山公園","province":"東京都","city":"中野区","address":"東京都中野区野方4-41","lat":35.722305635132,"lon":139.657266715813},{"name":"栄町公園","province":"東京都","city":"中野区","address":"東京都中野区弥生町4-20","lat":35.6864959084208,"lon":139.671450007522},{"name":"弥生公園","province":"東京都","city":"中野区","address":"東京都中野区弥生町5-4","lat":35.6861538147143,"lon":139.666859756961},{"name":"丸太公園","province":"東京都","city":"中野区","address":"東京都中野区弥生町6-2","lat":35.6869178912518,"lon":139.662472274252},{"name":"哲学堂公園（児童遊園）","province":"東京都","city":"中野区","address":"東京都中野区松が丘1-34","lat":35.7221667428125,"lon":139.674631336072},{"name":"哲学堂公園（桜広場）","province":"東京都","city":"中野区","address":"東京都中野区松が丘1-34","lat":35.7218379061478,"lon":139.673056904227},{"name":"哲学堂公園（桜広場）","province":"東京都","city":"中野区","address":"東京都中野区松が丘1-34","lat":35.721525547256,"lon":139.675420227041},{"name":"中野四季の森公園（芝生エリア）","province":"東京都","city":"中野区","address":"東京都中野区中野4-12-13","lat":35.7080633975564,"lon":139.66128904499},{"name":"中野四季の森公園（イベントエリア）","province":"東京都","city":"中野区","address":"東京都中野区中野4-12-13","lat":35.7085202328174,"lon":139.661647094537},{"name":"杉山公園","province":"東京都","city":"中野区","address":"東京都中野区本町6-15","lat":35.6970215132793,"lon":139.667184388726},{"name":"若宮公園","province":"東京都","city":"中野区","address":"東京都中野区若宮3-21","lat":35.7217665318406,"lon":139.643358462125},{"name":"川添公園","province":"東京都","city":"中野区","address":"東京都中野区東中野1-22","lat":35.7036181214731,"lon":139.686273398706},{"name":"かせい公園","province":"東京都","city":"中野区","address":"東京都中野区若宮3-5","lat":35.7207561982194,"lon":139.646130402043},{"name":"本一公園","province":"東京都","city":"中野区","address":"東京都中野区本町1-23","lat":35.6942083945866,"lon":139.682629054893},{"name":"中央公園","province":"東京都","city":"中野区","address":"東京都中野区中央5-42","lat":35.7006611064281,"lon":139.66656380571},{"name":"氷川公園","province":"東京都","city":"中野区","address":"東京都中野区東中野1-11","lat":35.7030766981442,"lon":139.68320647481},{"name":"本町通り公園","province":"東京都","city":"中野区","address":"東京都中野区中央2-46","lat":35.6990358704951,"lon":139.677187374688},{"name":"天神公園","province":"東京都","city":"中野区","address":"東京都中野区中野5-8","lat":35.7073944973073,"lon":139.67194566085},{"name":"大和花公園","province":"東京都","city":"中野区","address":"東京都中野区大和町1-54","lat":35.7116789776704,"lon":139.649867963257},{"name":"花見公園","province":"東京都","city":"中野区","address":"東京都中野区弥生町2-7","lat":35.692322154718,"lon":139.676388823834},{"name":"西鷺公園","province":"東京都","city":"中野区","address":"東京都中野区鷺宮6-31","lat":35.7266662558677,"lon":139.626305710153},{"name":"若葉公園","province":"東京都","city":"中野区","address":"東京都中野区鷺宮5-11","lat":35.7251945605238,"lon":139.631579315435},{"name":"ささの葉公園","province":"東京都","city":"中野区","address":"東京都中野区南台4-14","lat":35.6830109445243,"lon":139.666657560746},{"name":"わかたけ公園","province":"東京都","city":"中野区","address":"東京都中野区鷺宮1-5","lat":35.7221518436965,"lon":139.647872881982},{"name":"こぐま公園","province":"東京都","city":"中野区","address":"東京都中野区江原町3-17","lat":35.7317806640607,"lon":139.673370966108},{"name":"みたけ公園","province":"東京都","city":"中野区","address":"東京都中野区鷺宮3-31","lat":35.7239042286481,"lon":139.639072076172},{"name":"そろの木公園","province":"東京都","city":"中野区","address":"東京都中野区白鷺2-38","lat":35.7207790764288,"lon":139.635394893562},{"name":"あじさい公園","province":"東京都","city":"中野区","address":"東京都中野区中野5-34","lat":35.7072457949975,"lon":139.667772351112},{"name":"たんぽぽ公園","province":"東京都","city":"中野区","address":"東京都中野区野方2-61","lat":35.714593716122,"lon":139.654775133367},{"name":"すみれ公園","province":"東京都","city":"中野区","address":"東京都中野区中野5-5","lat":35.7090723642241,"lon":139.671660514477},{"name":"くるみ公園","province":"東京都","city":"中野区","address":"東京都中野区野方5-28","lat":35.7195389808738,"lon":139.653287042201},{"name":"れんげ公園","province":"東京都","city":"中野区","address":"東京都中野区弥生町5-8","lat":35.6887833185381,"lon":139.665071967683},{"name":"若の芽公園","province":"東京都","city":"中野区","address":"東京都中野区本町1-5","lat":35.6928453365486,"lon":139.683304340984},{"name":"みどり公園","province":"東京都","city":"中野区","address":"東京都中野区東中野3-11","lat":35.7085587403648,"lon":139.682687816861},{"name":"いちょう公園","province":"東京都","city":"中野区","address":"東京都中野区中央4-50","lat":35.7022714773871,"lon":139.669385720611},{"name":"ゆりの木公園","province":"東京都","city":"中野区","address":"東京都中野区中央1-20","lat":35.698809664729,"lon":139.686649272971},{"name":"ぱんだ公園","province":"東京都","city":"中野区","address":"東京都中野区弥生町3-34","lat":35.6892047823036,"lon":139.674560524816},{"name":"おたき公園","province":"東京都","city":"中野区","address":"東京都中野区東中野5-23","lat":35.7101139802985,"lon":139.69208053385},{"name":"昭三公園","province":"東京都","city":"中野区","address":"東京都中野区中野5-41","lat":35.7096261641216,"lon":139.668129549618},{"name":"みつわ公園","province":"東京都","city":"中野区","address":"東京都中野区若宮1-42","lat":35.7188033876195,"lon":139.647449023666},{"name":"文園西公園","province":"東京都","city":"中野区","address":"東京都中野区中野6-23","lat":35.7065822494582,"lon":139.674526209953},{"name":"松が丘公園","province":"東京都","city":"中野区","address":"東京都中野区松が丘1-2","lat":35.7172760545576,"lon":139.671228626868},{"name":"みずき公園","province":"東京都","city":"中野区","address":"東京都中野区中央2-54","lat":35.7006987896395,"lon":139.6758151451},{"name":"弥生二丁目公園","province":"東京都","city":"中野区","address":"東京都中野区弥生町2-19","lat":35.6909015365455,"lon":139.674694121641},{"name":"新井東公園","province":"東京都","city":"中野区","address":"東京都中野区新井1-19","lat":35.7117574489742,"lon":139.668301751069},{"name":"上町公園","province":"東京都","city":"中野区","address":"東京都中野区中央4-36","lat":35.701163003395,"lon":139.67026072592},{"name":"南台三丁目公園","province":"東京都","city":"中野区","address":"東京都中野区南台3-41","lat":35.6824706030013,"lon":139.663625080882},{"name":"上高田三丁目公園","province":"東京都","city":"中野区","address":"東京都中野区上高田3-10","lat":35.7135091884978,"lon":139.675528916707},{"name":"鷺南公園","province":"東京都","city":"中野区","address":"東京都中野区若宮2-48","lat":35.7183705754822,"lon":139.642823770556},{"name":"本二東郷やすらぎ公園（北側）","province":"東京都","city":"中野区","address":"東京都中野区本町2-14","lat":35.6941183015078,"lon":139.677721857752},{"name":"本二東郷やすらぎ公園（北側）","province":"東京都","city":"中野区","address":"東京都中野区本町2-14","lat":35.694448025779,"lon":139.678284629964},{"name":"小淀公園","province":"東京都","city":"中野区","address":"東京都中野区中央1-24","lat":35.7008514475903,"lon":139.686417033983},{"name":"仲町公園","province":"東京都","city":"中野区","address":"東京都中野区中央3-17","lat":35.7008065645425,"lon":139.674007653589},{"name":"大和鹿鳴公園","province":"東京都","city":"中野区","address":"東京都中野区大和町3-27","lat":35.7128393386944,"lon":139.646308524576},{"name":"弥生こぶし公園","province":"東京都","city":"中野区","address":"東京都中野区弥生町1-40","lat":35.6879533383165,"lon":139.676269137391},{"name":"ひまわり公園","province":"東京都","city":"中野区","address":"東京都中野区中央2-52","lat":35.699630980574,"lon":139.675630710969},{"name":"白鷺ネムノキ公園","province":"東京都","city":"中野区","address":"東京都中野区白鷺1-7","lat":35.7174652613121,"lon":139.637786578436},{"name":"わかさぎ公園","province":"東京都","city":"中野区","address":"東京都中野区若宮2-56","lat":35.7174220976181,"lon":139.640591566203},{"name":"若宮オリーブ公園","province":"東京都","city":"中野区","address":"東京都中野区若宮3-57","lat":35.7200454116048,"lon":139.640309601643},{"name":"囲町ひろば","province":"東京都","city":"中野区","address":"東京都中野区中野4-21","lat":35.7063369806861,"lon":139.660182124721},{"name":"白鷺せせらぎ公園（北側）","province":"東京都","city":"中野区","address":"東京都中野区白鷺1-4","lat":35.7176402633595,"lon":139.639104348886},{"name":"白鷺せせらぎ公園（南側）","province":"東京都","city":"中野区","address":"東京都中野区白鷺1-4","lat":35.7169041503262,"lon":139.639582686039},{"name":"南台いちょう公園","province":"東京都","city":"中野区","address":"東京都中野区南台1-15","lat":35.6846250180609,"lon":139.672958625554},{"name":"本五ふれあい公園（中野通り側）","province":"東京都","city":"中野区","address":"東京都中野区本町5-28","lat":35.6917168064586,"lon":139.669174422319},{"name":"本五ふれあい公園（中学校側）","province":"東京都","city":"中野区","address":"東京都中野区本町5-28","lat":35.6921040044992,"lon":139.670543856233},{"name":"マロニエひろば","province":"東京都","city":"中野区","address":"東京都中野区南台3-26","lat":35.6854532541751,"lon":139.665416159155},{"name":"なかしん広場","province":"東京都","city":"中野区","address":"東京都中野区本町3-2","lat":35.6932022371149,"lon":139.67453688134},{"name":"追分公園","province":"東京都","city":"中野区","address":"東京都中野区中央4-7","lat":35.6982101587785,"lon":139.668896869687},{"name":"鷺宮運動広場","province":"東京都","city":"中野区","address":"東京都中野区白鷺3-1","lat":35.7219869694579,"lon":139.635704882865},{"name":"妙正寺川公園","province":"東京都","city":"中野区","address":"東京都中野区松が丘1-33","lat":35.7206754021441,"lon":139.673009693847},{"name":"千代田公園","province":"東京都","city":"中野区","address":"東京都中野区本町5-31","lat":35.6928683660382,"lon":139.669494688791},{"name":"平和の森公園（南側）","province":"東京都","city":"中野区","address":"東京都中野区新井3-37","lat":35.7150289477404,"lon":139.66073426336},{"name":"平和の森公園（北側）","province":"東京都","city":"中野区","address":"東京都中野区新井3-37","lat":35.7175675710429,"lon":139.663201726109},{"name":"新井南公園","province":"東京都","city":"中野区","address":"東京都中野区新井2-31","lat":35.710881019487,"lon":139.662414013646},{"name":"朝日が丘児童館","province":"東京都","city":"中野区","address":"東京都中野区本町2-32","lat":35.6949996639588,"lon":139.681091666446},{"name":"南部高齢者会館","province":"東京都","city":"中野区","address":"東京都中野区南台5-24","lat":35.6832811882955,"lon":139.660793698193},{"name":"上高田東高齢者会館","province":"東京都","city":"中野区","address":"東京都中野区上高田4-17","lat":35.7129715052834,"lon":139.67793795124},{"name":"上高田児童館","province":"東京都","city":"中野区","address":"東京都中野区上高田5-29","lat":35.7185149534604,"lon":139.675094594397},{"name":"清掃事務所南中野事業所","province":"東京都","city":"中野区","address":"東京都中野区弥生町6-1","lat":35.6851284202428,"lon":139.662163500275},{"name":"野方ふれあい広場","province":"東京都","city":"中野区","address":"東京都中野区野方5-19","lat":35.7188768211095,"lon":139.652017457343},{"name":"川島ふれあい広場（コスモくん広場）","province":"東京都","city":"中野区","address":"東京都中野区弥生町3-24","lat":35.6877263532296,"lon":139.673315468827},{"name":"武蔵台公園","province":"東京都","city":"中野区","address":"東京都中野区上鷺宮5-26","lat":35.7304809231083,"lon":139.630252619218}]}