{"keyword":"スモッグ","data":[{"name":"東京大学教育学部附属中等教育学校校庭","province":"東京都","city":"中野区","address":"東京都中野区南台1丁目15","lat":35.68530682,"lon":139.67376032},{"name":"都立武蔵丘高等学校校庭","province":"東京都","city":"中野区","address":"東京都中野区上鷺宮2丁目14-1","lat":35.72899512,"lon":139.63095098},{"name":"東京警察病院ヘリポート","province":"東京都","city":"中野区","address":"東京都中野区中野4丁目22-1","lat":35.70920915,"lon":139.65931337},{"name":"(株)武蔵野","province":"東京都","city":"中野区","address":"中野区弥生町2-50-8","lat":35.690514,"lon":139.67038},{"name":"栗原紙材(株)  中野事業所","province":"東京都","city":"中野区","address":"中野区丸山2-5-9","lat":35.724636,"lon":139.65358},{"name":"協和硝子(株)","province":"東京都","city":"中野区","address":"中野区本町3-1-4","lat":35.693279,"lon":139.67746},{"name":"(株)加藤商店","province":"東京都","city":"中野区","address":"中野区江古田4-29-15","lat":35.724987,"lon":139.661896},{"name":"(株)恩田","province":"東京都","city":"中野区","address":"中野区江古田4-31-4","lat":35.724346,"lon":139.661591},{"name":"(株)武蔵野","province":"東京都","city":"中野区","address":"中野区弥生町2-50-8","lat":35.690514,"lon":139.67038},{"name":"栗原紙材(株)  中野事業所","province":"東京都","city":"中野区","address":"中野区丸山2-5-9","lat":35.724636,"lon":139.65358},{"name":"協和硝子(株)","province":"東京都","city":"中野区","address":"中野区本町3-1-4","lat":35.693279,"lon":139.67746},{"name":"(株)加藤商店","province":"東京都","city":"中野区","address":"中野区江古田4-29-15","lat":35.724987,"lon":139.661896},{"name":"(株)恩田","province":"東京都","city":"中野区","address":"中野区江古田4-31-4","lat":35.724346,"lon":139.661591},{"name":"(株)武蔵野","province":"東京都","city":"中野区","address":"中野区弥生町2-50-8","lat":35.690514,"lon":139.67038},{"name":"栗原紙材(株)  中野事業所","province":"東京都","city":"中野区","address":"中野区丸山2-5-9","lat":35.724636,"lon":139.65358},{"name":"協和硝子(株)","province":"東京都","city":"中野区","address":"中野区本町3-1-4","lat":35.693279,"lon":139.67746},{"name":"(株)加藤商店","province":"東京都","city":"中野区","address":"中野区江古田4-29-15","lat":35.724987,"lon":139.661896},{"name":"(株)恩田","province":"東京都","city":"中野区","address":"中野区江古田4-31-4","lat":35.724346,"lon":139.661591},{"name":"(株)武蔵野","province":"東京都","city":"中野区","address":"中野区弥生町2-50-8","lat":35.690514,"lon":139.67038},{"name":"栗原紙材(株)  中野事業所","province":"東京都","city":"中野区","address":"中野区丸山2-5-9","lat":35.724636,"lon":139.65358},{"name":"協和硝子(株)","province":"東京都","city":"中野区","address":"中野区本町3-1-4","lat":35.693279,"lon":139.67746},{"name":"(株)加藤商店","province":"東京都","city":"中野区","address":"中野区江古田4-29-15","lat":35.724987,"lon":139.661896},{"name":"(株)恩田","province":"東京都","city":"中野区","address":"中野区江古田4-31-4","lat":35.724346,"lon":139.661591},{"name":"(株)武蔵野","province":"東京都","city":"中野区","address":"中野区弥生町2-50-8","lat":35.690514,"lon":139.67038},{"name":"栗原紙材(株)  中野事業所","province":"東京都","city":"中野区","address":"中野区丸山2-5-9","lat":35.724636,"lon":139.65358},{"name":"協和硝子(株)","province":"東京都","city":"中野区","address":"中野区本町3-1-4","lat":35.693279,"lon":139.67746},{"name":"(株)加藤商店","province":"東京都","city":"中野区","address":"中野区江古田4-29-15","lat":35.724987,"lon":139.661896},{"name":"(株)恩田","province":"東京都","city":"中野区","address":"中野区江古田4-31-4","lat":35.724346,"lon":139.661591},{"name":"(株)武蔵野","province":"東京都","city":"中野区","address":"中野区弥生町2-50-8","lat":35.690514,"lon":139.67038},{"name":"栗原紙材(株)  中野事業所","province":"東京都","city":"中野区","address":"中野区丸山2-5-9","lat":35.724636,"lon":139.65358},{"name":"協和硝子(株)","province":"東京都","city":"中野区","address":"中野区本町3-1-4","lat":35.693279,"lon":139.67746},{"name":"(株)加藤商店","province":"東京都","city":"中野区","address":"中野区江古田4-29-15","lat":35.724987,"lon":139.661896},{"name":"(株)恩田","province":"東京都","city":"中野区","address":"中野区江古田4-31-4","lat":35.724346,"lon":139.661591},{"name":"(株)武蔵野","province":"東京都","city":"中野区","address":"中野区弥生町2-50-8","lat":35.690514,"lon":139.67038},{"name":"栗原紙材(株)  中野事業所","province":"東京都","city":"中野区","address":"中野区丸山2-5-9","lat":35.724636,"lon":139.65358},{"name":"協和硝子(株)","province":"東京都","city":"中野区","address":"中野区本町3-1-4","lat":35.693279,"lon":139.67746},{"name":"(株)加藤商店","province":"東京都","city":"中野区","address":"中野区江古田4-29-15","lat":35.724987,"lon":139.661896},{"name":"(株)恩田","province":"東京都","city":"中野区","address":"中野区江古田4-31-4","lat":35.724346,"lon":139.661591},{"name":"(株)武蔵野","province":"東京都","city":"中野区","address":"中野区弥生町2-50-8","lat":35.690514,"lon":139.67038},{"name":"栗原紙材(株)  中野事業所","province":"東京都","city":"中野区","address":"中野区丸山2-5-9","lat":35.724636,"lon":139.65358},{"name":"協和硝子(株)","province":"東京都","city":"中野区","address":"中野区本町3-1-4","lat":35.693279,"lon":139.67746},{"name":"(株)加藤商店","province":"東京都","city":"中野区","address":"中野区江古田4-29-15","lat":35.724987,"lon":139.661896},{"name":"(株)恩田","province":"東京都","city":"中野区","address":"中野区江古田4-31-4","lat":35.724346,"lon":139.661591},{"name":"(株)武蔵野","province":"東京都","city":"中野区","address":"中野区弥生町2-50-8","lat":35.690514,"lon":139.67038},{"name":"栗原紙材(株)  中野事業所","province":"東京都","city":"中野区","address":"中野区丸山2-5-9","lat":35.724636,"lon":139.65358},{"name":"協和硝子(株)","province":"東京都","city":"中野区","address":"中野区本町3-1-4","lat":35.693279,"lon":139.67746},{"name":"(株)加藤商店","province":"東京都","city":"中野区","address":"中野区江古田4-29-15","lat":35.724987,"lon":139.661896},{"name":"(株)恩田","province":"東京都","city":"中野区","address":"中野区江古田4-31-4","lat":35.724346,"lon":139.661591},{"name":"(株)武蔵野","province":"東京都","city":"中野区","address":"中野区弥生町2-50-8","lat":35.690514,"lon":139.67038},{"name":"栗原紙材(株)  中野事業所","province":"東京都","city":"中野区","address":"中野区丸山2-5-9","lat":35.724636,"lon":139.65358},{"name":"協和硝子(株)","province":"東京都","city":"中野区","address":"中野区本町3-1-4","lat":35.693279,"lon":139.67746},{"name":"(株)加藤商店","province":"東京都","city":"中野区","address":"中野区江古田4-29-15","lat":35.724987,"lon":139.661896},{"name":"(株)恩田","province":"東京都","city":"中野区","address":"中野区江古田4-31-4","lat":35.724346,"lon":139.661591},{"name":"(株)武蔵野","province":"東京都","city":"中野区","address":"中野区弥生町2-50-8","lat":35.690514,"lon":139.67038},{"name":"栗原紙材(株)  中野事業所","province":"東京都","city":"中野区","address":"中野区丸山2-5-9","lat":35.724636,"lon":139.65358},{"name":"協和硝子(株)","province":"東京都","city":"中野区","address":"中野区本町3-1-4","lat":35.693279,"lon":139.67746},{"name":"(株)加藤商店","province":"東京都","city":"中野区","address":"中野区江古田4-29-15","lat":35.724987,"lon":139.661896},{"name":"(株)恩田","province":"東京都","city":"中野区","address":"中野区江古田4-31-4","lat":35.724346,"lon":139.661591},{"name":"(株)武蔵野","province":"東京都","city":"中野区","address":"中野区弥生町2-50-8","lat":35.690514,"lon":139.67038},{"name":"栗原紙材(株)  中野事業所","province":"東京都","city":"中野区","address":"中野区丸山2-5-9","lat":35.724636,"lon":139.65358},{"name":"協和硝子(株)","province":"東京都","city":"中野区","address":"中野区本町3-1-4","lat":35.693279,"lon":139.67746},{"name":"(株)加藤商店","province":"東京都","city":"中野区","address":"中野区江古田4-29-15","lat":35.724987,"lon":139.661896},{"name":"(株)恩田","province":"東京都","city":"中野区","address":"中野区江古田4-31-4","lat":35.724346,"lon":139.661591},{"name":"(株)武蔵野","province":"東京都","city":"中野区","address":"中野区弥生町2-50-8","lat":35.690514,"lon":139.67038},{"name":"栗原紙材(株)  中野事業所","province":"東京都","city":"中野区","address":"中野区丸山2-5-9","lat":35.724636,"lon":139.65358},{"name":"協和硝子(株)","province":"東京都","city":"中野区","address":"中野区本町3-1-4","lat":35.693279,"lon":139.67746},{"name":"(株)加藤商店","province":"東京都","city":"中野区","address":"中野区江古田4-29-15","lat":35.724987,"lon":139.661896},{"name":"(株)恩田","province":"東京都","city":"中野区","address":"中野区江古田4-31-4","lat":35.724346,"lon":139.661591},{"name":"(株)武蔵野","province":"東京都","city":"中野区","address":"中野区弥生町2-50-8","lat":35.690514,"lon":139.67038},{"name":"栗原紙材(株)  中野事業所","province":"東京都","city":"中野区","address":"中野区丸山2-5-9","lat":35.724636,"lon":139.65358},{"name":"協和硝子(株)","province":"東京都","city":"中野区","address":"中野区本町3-1-4","lat":35.693279,"lon":139.67746},{"name":"(株)加藤商店","province":"東京都","city":"中野区","address":"中野区江古田4-29-15","lat":35.724987,"lon":139.661896},{"name":"(株)恩田","province":"東京都","city":"中野区","address":"中野区江古田4-31-4","lat":35.724346,"lon":139.661591},{"name":"(株)武蔵野","province":"東京都","city":"中野区","address":"中野区弥生町2-50-8","lat":35.690514,"lon":139.67038},{"name":"栗原紙材(株)  中野事業所","province":"東京都","city":"中野区","address":"中野区丸山2-5-9","lat":35.724636,"lon":139.65358},{"name":"協和硝子(株)","province":"東京都","city":"中野区","address":"中野区本町3-1-4","lat":35.693279,"lon":139.67746},{"name":"(株)加藤商店","province":"東京都","city":"中野区","address":"中野区江古田4-29-15","lat":35.724987,"lon":139.661896},{"name":"(株)恩田","province":"東京都","city":"中野区","address":"中野区江古田4-31-4","lat":35.724346,"lon":139.661591},{"name":"(株)武蔵野","province":"東京都","city":"中野区","address":"中野区弥生町2-50-8","lat":35.690514,"lon":139.67038},{"name":"栗原紙材(株)  中野事業所","province":"東京都","city":"中野区","address":"中野区丸山2-5-9","lat":35.724636,"lon":139.65358},{"name":"協和硝子(株)","province":"東京都","city":"中野区","address":"中野区本町3-1-4","lat":35.693279,"lon":139.67746},{"name":"(株)加藤商店","province":"東京都","city":"中野区","address":"中野区江古田4-29-15","lat":35.724987,"lon":139.661896},{"name":"(株)恩田","province":"東京都","city":"中野区","address":"中野区江古田4-31-4","lat":35.724346,"lon":139.661591},{"name":"(株)武蔵野","province":"東京都","city":"中野区","address":"中野区弥生町2-50-8","lat":35.690514,"lon":139.67038},{"name":"栗原紙材(株)  中野事業所","province":"東京都","city":"中野区","address":"中野区丸山2-5-9","lat":35.724636,"lon":139.65358},{"name":"協和硝子(株)","province":"東京都","city":"中野区","address":"中野区本町3-1-4","lat":35.693279,"lon":139.67746},{"name":"(株)加藤商店","province":"東京都","city":"中野区","address":"中野区江古田4-29-15","lat":35.724987,"lon":139.661896},{"name":"(株)恩田","province":"東京都","city":"中野区","address":"中野区江古田4-31-4","lat":35.724346,"lon":139.661591},{"name":"(株)武蔵野","province":"東京都","city":"中野区","address":"中野区弥生町2-50-8","lat":35.690514,"lon":139.67038},{"name":"栗原紙材(株)  中野事業所","province":"東京都","city":"中野区","address":"中野区丸山2-5-9","lat":35.724636,"lon":139.65358},{"name":"協和硝子(株)","province":"東京都","city":"中野区","address":"中野区本町3-1-4","lat":35.693279,"lon":139.67746},{"name":"(株)加藤商店","province":"東京都","city":"中野区","address":"中野区江古田4-29-15","lat":35.724987,"lon":139.661896},{"name":"(株)恩田","province":"東京都","city":"中野区","address":"中野区江古田4-31-4","lat":35.724346,"lon":139.661591},{"name":"(株)武蔵野","province":"東京都","city":"中野区","address":"中野区弥生町2-50-8","lat":35.690514,"lon":139.67038},{"name":"栗原紙材(株)  中野事業所","province":"東京都","city":"中野区","address":"中野区丸山2-5-9","lat":35.724636,"lon":139.65358},{"name":"協和硝子(株)","province":"東京都","city":"中野区","address":"中野区本町3-1-4","lat":35.693279,"lon":139.67746},{"name":"(株)加藤商店","province":"東京都","city":"中野区","address":"中野区江古田4-29-15","lat":35.724987,"lon":139.661896},{"name":"(株)恩田","province":"東京都","city":"中野区","address":"中野区江古田4-31-4","lat":35.724346,"lon":139.661591},{"name":"(株)武蔵野","province":"東京都","city":"中野区","address":"中野区弥生町2-50-8","lat":35.690514,"lon":139.67038},{"name":"栗原紙材(株)  中野事業所","province":"東京都","city":"中野区","address":"中野区丸山2-5-9","lat":35.724636,"lon":139.65358},{"name":"協和硝子(株)","province":"東京都","city":"中野区","address":"中野区本町3-1-4","lat":35.693279,"lon":139.67746},{"name":"(株)加藤商店","province":"東京都","city":"中野区","address":"中野区江古田4-29-15","lat":35.724987,"lon":139.661896},{"name":"(株)恩田","province":"東京都","city":"中野区","address":"中野区江古田4-31-4","lat":35.724346,"lon":139.661591},{"name":"(株)武蔵野","province":"東京都","city":"中野区","address":"中野区弥生町2-50-8","lat":35.690514,"lon":139.67038},{"name":"栗原紙材(株)  中野事業所","province":"東京都","city":"中野区","address":"中野区丸山2-5-9","lat":35.724636,"lon":139.65358},{"name":"協和硝子(株)","province":"東京都","city":"中野区","address":"中野区本町3-1-4","lat":35.693279,"lon":139.67746},{"name":"(株)加藤商店","province":"東京都","city":"中野区","address":"中野区江古田4-29-15","lat":35.724987,"lon":139.661896},{"name":"(株)恩田","province":"東京都","city":"中野区","address":"中野区江古田4-31-4","lat":35.724346,"lon":139.661591},{"name":"(株)武蔵野","province":"東京都","city":"中野区","address":"中野区弥生町2-50-8","lat":35.690514,"lon":139.67038},{"name":"栗原紙材(株)  中野事業所","province":"東京都","city":"中野区","address":"中野区丸山2-5-9","lat":35.724636,"lon":139.65358},{"name":"協和硝子(株)","province":"東京都","city":"中野区","address":"中野区本町3-1-4","lat":35.693279,"lon":139.67746},{"name":"(株)加藤商店","province":"東京都","city":"中野区","address":"中野区江古田4-29-15","lat":35.724987,"lon":139.661896},{"name":"(株)恩田","province":"東京都","city":"中野区","address":"中野区江古田4-31-4","lat":35.724346,"lon":139.661591},{"name":"(株)武蔵野","province":"東京都","city":"中野区","address":"中野区弥生町2-50-8","lat":35.690514,"lon":139.67038},{"name":"栗原紙材(株)  中野事業所","province":"東京都","city":"中野区","address":"中野区丸山2-5-9","lat":35.724636,"lon":139.65358},{"name":"協和硝子(株)","province":"東京都","city":"中野区","address":"中野区本町3-1-4","lat":35.693279,"lon":139.67746},{"name":"(株)加藤商店","province":"東京都","city":"中野区","address":"中野区江古田4-29-15","lat":35.724987,"lon":139.661896},{"name":"(株)恩田","province":"東京都","city":"中野区","address":"中野区江古田4-31-4","lat":35.724346,"lon":139.661591},{"name":"(株)武蔵野","province":"東京都","city":"中野区","address":"中野区弥生町2-50-8","lat":35.690514,"lon":139.67038},{"name":"栗原紙材(株)  中野事業所","province":"東京都","city":"中野区","address":"中野区丸山2-5-9","lat":35.724636,"lon":139.65358},{"name":"協和硝子(株)","province":"東京都","city":"中野区","address":"中野区本町3-1-4","lat":35.693279,"lon":139.67746},{"name":"(株)加藤商店","province":"東京都","city":"中野区","address":"中野区江古田4-29-15","lat":35.724987,"lon":139.661896},{"name":"(株)恩田","province":"東京都","city":"中野区","address":"中野区江古田4-31-4","lat":35.724346,"lon":139.661591},{"name":"(株)武蔵野","province":"東京都","city":"中野区","address":"中野区弥生町2-50-8","lat":35.690514,"lon":139.67038},{"name":"栗原紙材(株)  中野事業所","province":"東京都","city":"中野区","address":"中野区丸山2-5-9","lat":35.724636,"lon":139.65358},{"name":"協和硝子(株)","province":"東京都","city":"中野区","address":"中野区本町3-1-4","lat":35.693279,"lon":139.67746},{"name":"(株)加藤商店","province":"東京都","city":"中野区","address":"中野区江古田4-29-15","lat":35.724987,"lon":139.661896},{"name":"(株)恩田","province":"東京都","city":"中野区","address":"中野区江古田4-31-4","lat":35.724346,"lon":139.661591},{"name":"(株)武蔵野","province":"東京都","city":"中野区","address":"中野区弥生町2-50-8","lat":35.690514,"lon":139.67038},{"name":"栗原紙材(株)  中野事業所","province":"東京都","city":"中野区","address":"中野区丸山2-5-9","lat":35.724636,"lon":139.65358},{"name":"協和硝子(株)","province":"東京都","city":"中野区","address":"中野区本町3-1-4","lat":35.693279,"lon":139.67746},{"name":"(株)加藤商店","province":"東京都","city":"中野区","address":"中野区江古田4-29-15","lat":35.724987,"lon":139.661896},{"name":"(株)恩田","province":"東京都","city":"中野区","address":"中野区江古田4-31-4","lat":35.724346,"lon":139.661591},{"name":"(株)武蔵野","province":"東京都","city":"中野区","address":"中野区弥生町2-50-8","lat":35.690514,"lon":139.67038},{"name":"栗原紙材(株)  中野事業所","province":"東京都","city":"中野区","address":"中野区丸山2-5-9","lat":35.724636,"lon":139.65358},{"name":"協和硝子(株)","province":"東京都","city":"中野区","address":"中野区本町3-1-4","lat":35.693279,"lon":139.67746},{"name":"(株)加藤商店","province":"東京都","city":"中野区","address":"中野区江古田4-29-15","lat":35.724987,"lon":139.661896},{"name":"(株)恩田","province":"東京都","city":"中野区","address":"中野区江古田4-31-4","lat":35.724346,"lon":139.661591},{"name":"(株)武蔵野","province":"東京都","city":"中野区","address":"中野区弥生町2-50-8","lat":35.690514,"lon":139.67038},{"name":"栗原紙材(株)  中野事業所","province":"東京都","city":"中野区","address":"中野区丸山2-5-9","lat":35.724636,"lon":139.65358},{"name":"協和硝子(株)","province":"東京都","city":"中野区","address":"中野区本町3-1-4","lat":35.693279,"lon":139.67746},{"name":"(株)加藤商店","province":"東京都","city":"中野区","address":"中野区江古田4-29-15","lat":35.724987,"lon":139.661896},{"name":"(株)恩田","province":"東京都","city":"中野区","address":"中野区江古田4-31-4","lat":35.724346,"lon":139.661591},{"name":"(株)武蔵野","province":"東京都","city":"中野区","address":"中野区弥生町2-50-8","lat":35.690514,"lon":139.67038},{"name":"栗原紙材(株)  中野事業所","province":"東京都","city":"中野区","address":"中野区丸山2-5-9","lat":35.724636,"lon":139.65358},{"name":"協和硝子(株)","province":"東京都","city":"中野区","address":"中野区本町3-1-4","lat":35.693279,"lon":139.67746},{"name":"(株)加藤商店","province":"東京都","city":"中野区","address":"中野区江古田4-29-15","lat":35.724987,"lon":139.661896},{"name":"(株)恩田","province":"東京都","city":"中野区","address":"中野区江古田4-31-4","lat":35.724346,"lon":139.661591},{"name":"(株)武蔵野","province":"東京都","city":"中野区","address":"中野区弥生町2-50-8","lat":35.690514,"lon":139.67038},{"name":"栗原紙材(株)  中野事業所","province":"東京都","city":"中野区","address":"中野区丸山2-5-9","lat":35.724636,"lon":139.65358},{"name":"協和硝子(株)","province":"東京都","city":"中野区","address":"中野区本町3-1-4","lat":35.693279,"lon":139.67746},{"name":"(株)加藤商店","province":"東京都","city":"中野区","address":"中野区江古田4-29-15","lat":35.724987,"lon":139.661896},{"name":"(株)恩田","province":"東京都","city":"中野区","address":"中野区江古田4-31-4","lat":35.724346,"lon":139.661591},{"name":"(株)武蔵野","province":"東京都","city":"中野区","address":"中野区弥生町2-50-8","lat":35.690514,"lon":139.67038},{"name":"栗原紙材(株)  中野事業所","province":"東京都","city":"中野区","address":"中野区丸山2-5-9","lat":35.724636,"lon":139.65358},{"name":"協和硝子(株)","province":"東京都","city":"中野区","address":"中野区本町3-1-4","lat":35.693279,"lon":139.67746},{"name":"(株)加藤商店","province":"東京都","city":"中野区","address":"中野区江古田4-29-15","lat":35.724987,"lon":139.661896},{"name":"(株)恩田","province":"東京都","city":"中野区","address":"中野区江古田4-31-4","lat":35.724346,"lon":139.661591},{"name":"(株)武蔵野","province":"東京都","city":"中野区","address":"中野区弥生町2-50-8","lat":35.690514,"lon":139.67038},{"name":"栗原紙材(株)  中野事業所","province":"東京都","city":"中野区","address":"中野区丸山2-5-9","lat":35.724636,"lon":139.65358},{"name":"協和硝子(株)","province":"東京都","city":"中野区","address":"中野区本町3-1-4","lat":35.693279,"lon":139.67746},{"name":"(株)加藤商店","province":"東京都","city":"中野区","address":"中野区江古田4-29-15","lat":35.724987,"lon":139.661896},{"name":"(株)恩田","province":"東京都","city":"中野区","address":"中野区江古田4-31-4","lat":35.724346,"lon":139.661591},{"name":"(株)武蔵野","province":"東京都","city":"中野区","address":"中野区弥生町2-50-8","lat":35.690514,"lon":139.67038},{"name":"栗原紙材(株)  中野事業所","province":"東京都","city":"中野区","address":"中野区丸山2-5-9","lat":35.724636,"lon":139.65358},{"name":"協和硝子(株)","province":"東京都","city":"中野区","address":"中野区本町3-1-4","lat":35.693279,"lon":139.67746},{"name":"(株)加藤商店","province":"東京都","city":"中野区","address":"中野区江古田4-29-15","lat":35.724987,"lon":139.661896},{"name":"(株)恩田","province":"東京都","city":"中野区","address":"中野区江古田4-31-4","lat":35.724346,"lon":139.661591},{"name":"(株)武蔵野","province":"東京都","city":"中野区","address":"中野区弥生町2-50-8","lat":35.690514,"lon":139.67038},{"name":"栗原紙材(株)  中野事業所","province":"東京都","city":"中野区","address":"中野区丸山2-5-9","lat":35.724636,"lon":139.65358},{"name":"協和硝子(株)","province":"東京都","city":"中野区","address":"中野区本町3-1-4","lat":35.693279,"lon":139.67746},{"name":"(株)加藤商店","province":"東京都","city":"中野区","address":"中野区江古田4-29-15","lat":35.724987,"lon":139.661896},{"name":"(株)恩田","province":"東京都","city":"中野区","address":"中野区江古田4-31-4","lat":35.724346,"lon":139.661591},{"name":"(株)武蔵野","province":"東京都","city":"中野区","address":"中野区弥生町2-50-8","lat":35.690514,"lon":139.67038},{"name":"栗原紙材(株)  中野事業所","province":"東京都","city":"中野区","address":"中野区丸山2-5-9","lat":35.724636,"lon":139.65358},{"name":"協和硝子(株)","province":"東京都","city":"中野区","address":"中野区本町3-1-4","lat":35.693279,"lon":139.67746},{"name":"(株)加藤商店","province":"東京都","city":"中野区","address":"中野区江古田4-29-15","lat":35.724987,"lon":139.661896},{"name":"(株)恩田","province":"東京都","city":"中野区","address":"中野区江古田4-31-4","lat":35.724346,"lon":139.661591},{"name":"(株)武蔵野","province":"東京都","city":"中野区","address":"中野区弥生町2-50-8","lat":35.690514,"lon":139.67038},{"name":"栗原紙材(株)  中野事業所","province":"東京都","city":"中野区","address":"中野区丸山2-5-9","lat":35.724636,"lon":139.65358},{"name":"協和硝子(株)","province":"東京都","city":"中野区","address":"中野区本町3-1-4","lat":35.693279,"lon":139.67746},{"name":"(株)加藤商店","province":"東京都","city":"中野区","address":"中野区江古田4-29-15","lat":35.724987,"lon":139.661896},{"name":"(株)恩田","province":"東京都","city":"中野区","address":"中野区江古田4-31-4","lat":35.724346,"lon":139.661591},{"name":"(株)武蔵野","province":"東京都","city":"中野区","address":"中野区弥生町2-50-8","lat":35.690514,"lon":139.67038},{"name":"栗原紙材(株)  中野事業所","province":"東京都","city":"中野区","address":"中野区丸山2-5-9","lat":35.724636,"lon":139.65358},{"name":"協和硝子(株)","province":"東京都","city":"中野区","address":"中野区本町3-1-4","lat":35.693279,"lon":139.67746},{"name":"(株)加藤商店","province":"東京都","city":"中野区","address":"中野区江古田4-29-15","lat":35.724987,"lon":139.661896},{"name":"(株)恩田","province":"東京都","city":"中野区","address":"中野区江古田4-31-4","lat":35.724346,"lon":139.661591},{"name":"(株)武蔵野","province":"東京都","city":"中野区","address":"中野区弥生町2-50-8","lat":35.690514,"lon":139.67038},{"name":"栗原紙材(株)  中野事業所","province":"東京都","city":"中野区","address":"中野区丸山2-5-9","lat":35.724636,"lon":139.65358},{"name":"協和硝子(株)","province":"東京都","city":"中野区","address":"中野区本町3-1-4","lat":35.693279,"lon":139.67746},{"name":"(株)加藤商店","province":"東京都","city":"中野区","address":"中野区江古田4-29-15","lat":35.724987,"lon":139.661896},{"name":"(株)恩田","province":"東京都","city":"中野区","address":"中野区江古田4-31-4","lat":35.724346,"lon":139.661591},{"name":"(株)武蔵野","province":"東京都","city":"中野区","address":"中野区弥生町2-50-8","lat":35.690514,"lon":139.67038},{"name":"栗原紙材(株)  中野事業所","province":"東京都","city":"中野区","address":"中野区丸山2-5-9","lat":35.724636,"lon":139.65358},{"name":"協和硝子(株)","province":"東京都","city":"中野区","address":"中野区本町3-1-4","lat":35.693279,"lon":139.67746},{"name":"(株)加藤商店","province":"東京都","city":"中野区","address":"中野区江古田4-29-15","lat":35.724987,"lon":139.661896},{"name":"(株)恩田","province":"東京都","city":"中野区","address":"中野区江古田4-31-4","lat":35.724346,"lon":139.661591},{"name":"(株)武蔵野","province":"東京都","city":"中野区","address":"中野区弥生町2-50-8","lat":35.690514,"lon":139.67038},{"name":"栗原紙材(株)  中野事業所","province":"東京都","city":"中野区","address":"中野区丸山2-5-9","lat":35.724636,"lon":139.65358},{"name":"協和硝子(株)","province":"東京都","city":"中野区","address":"中野区本町3-1-4","lat":35.693279,"lon":139.67746},{"name":"(株)加藤商店","province":"東京都","city":"中野区","address":"中野区江古田4-29-15","lat":35.724987,"lon":139.661896},{"name":"(株)恩田","province":"東京都","city":"中野区","address":"中野区江古田4-31-4","lat":35.724346,"lon":139.661591},{"name":"(株)武蔵野","province":"東京都","city":"中野区","address":"中野区弥生町2-50-8","lat":35.690514,"lon":139.67038},{"name":"栗原紙材(株)  中野事業所","province":"東京都","city":"中野区","address":"中野区丸山2-5-9","lat":35.724636,"lon":139.65358},{"name":"協和硝子(株)","province":"東京都","city":"中野区","address":"中野区本町3-1-4","lat":35.693279,"lon":139.67746},{"name":"(株)加藤商店","province":"東京都","city":"中野区","address":"中野区江古田4-29-15","lat":35.724987,"lon":139.661896},{"name":"(株)恩田","province":"東京都","city":"中野区","address":"中野区江古田4-31-4","lat":35.724346,"lon":139.661591},{"name":"(株)武蔵野","province":"東京都","city":"中野区","address":"中野区弥生町2-50-8","lat":35.690514,"lon":139.67038},{"name":"栗原紙材(株)  中野事業所","province":"東京都","city":"中野区","address":"中野区丸山2-5-9","lat":35.724636,"lon":139.65358},{"name":"協和硝子(株)","province":"東京都","city":"中野区","address":"中野区本町3-1-4","lat":35.693279,"lon":139.67746},{"name":"(株)加藤商店","province":"東京都","city":"中野区","address":"中野区江古田4-29-15","lat":35.724987,"lon":139.661896},{"name":"(株)恩田","province":"東京都","city":"中野区","address":"中野区江古田4-31-4","lat":35.724346,"lon":139.661591},{"name":"(株)武蔵野","province":"東京都","city":"中野区","address":"中野区弥生町2-50-8","lat":35.690514,"lon":139.67038},{"name":"栗原紙材(株)  中野事業所","province":"東京都","city":"中野区","address":"中野区丸山2-5-9","lat":35.724636,"lon":139.65358},{"name":"協和硝子(株)","province":"東京都","city":"中野区","address":"中野区本町3-1-4","lat":35.693279,"lon":139.67746},{"name":"(株)加藤商店","province":"東京都","city":"中野区","address":"中野区江古田4-29-15","lat":35.724987,"lon":139.661896},{"name":"(株)恩田","province":"東京都","city":"中野区","address":"中野区江古田4-31-4","lat":35.724346,"lon":139.661591},{"name":"(株)武蔵野","province":"東京都","city":"中野区","address":"中野区弥生町2-50-8","lat":35.690514,"lon":139.67038},{"name":"栗原紙材(株)  中野事業所","province":"東京都","city":"中野区","address":"中野区丸山2-5-9","lat":35.724636,"lon":139.65358},{"name":"協和硝子(株)","province":"東京都","city":"中野区","address":"中野区本町3-1-4","lat":35.693279,"lon":139.67746},{"name":"(株)加藤商店","province":"東京都","city":"中野区","address":"中野区江古田4-29-15","lat":35.724987,"lon":139.661896},{"name":"(株)恩田","province":"東京都","city":"中野区","address":"中野区江古田4-31-4","lat":35.724346,"lon":139.661591},{"name":"(株)武蔵野","province":"東京都","city":"中野区","address":"中野区弥生町2-50-8","lat":35.690514,"lon":139.67038},{"name":"栗原紙材(株)  中野事業所","province":"東京都","city":"中野区","address":"中野区丸山2-5-9","lat":35.724636,"lon":139.65358},{"name":"協和硝子(株)","province":"東京都","city":"中野区","address":"中野区本町3-1-4","lat":35.693279,"lon":139.67746},{"name":"(株)加藤商店","province":"東京都","city":"中野区","address":"中野区江古田4-29-15","lat":35.724987,"lon":139.661896},{"name":"(株)恩田","province":"東京都","city":"中野区","address":"中野区江古田4-31-4","lat":35.724346,"lon":139.661591},{"name":"(株)武蔵野","province":"東京都","city":"中野区","address":"中野区弥生町2-50-8","lat":35.690514,"lon":139.67038},{"name":"栗原紙材(株)  中野事業所","province":"東京都","city":"中野区","address":"中野区丸山2-5-9","lat":35.724636,"lon":139.65358},{"name":"協和硝子(株)","province":"東京都","city":"中野区","address":"中野区本町3-1-4","lat":35.693279,"lon":139.67746},{"name":"(株)加藤商店","province":"東京都","city":"中野区","address":"中野区江古田4-29-15","lat":35.724987,"lon":139.661896},{"name":"(株)恩田","province":"東京都","city":"中野区","address":"中野区江古田4-31-4","lat":35.724346,"lon":139.661591}]}