{"keyword":"センター","data":[{"name":"上高田高齢者会館","province":"東京都","city":"中野区","address":"中野区上高田2-8-11","lat":35.710751,"lon":139.672451},{"name":"上高田東高齢者会館","province":"東京都","city":"中野区","address":"中野区上高田4-17-3","lat":35.712895,"lon":139.677856},{"name":"昭和高齢者会館","province":"東京都","city":"中野区","address":"中野区東中野3-19-18","lat":35.70834,"lon":139.680762},{"name":"東中野いこいの家","province":"東京都","city":"中野区","address":"中野区東中野4-9-22-201","lat":35.707471,"lon":139.685783},{"name":"宮園高齢者会館","province":"東京都","city":"中野区","address":"中野区中央2-18-21","lat":35.700364,"lon":139.682456},{"name":"本一高齢者会館","province":"東京都","city":"中野区","address":"中野区本町1-7-6","lat":35.693773,"lon":139.682676},{"name":"南部高齢者会館","province":"東京都","city":"中野区","address":"中野区南台5-27-24","lat":35.683293,"lon":139.660895},{"name":"しんやまの家","province":"東京都","city":"中野区","address":"中野区南台4-25-1","lat":35.680813,"lon":139.667472},{"name":"沼袋高齢者会館","province":"東京都","city":"中野区","address":"中野区沼袋1-34-14","lat":35.719708,"lon":139.665199},{"name":"野方高齢者会館","province":"東京都","city":"中野区","address":"中野区野方2-29-12","lat":35.71455,"lon":139.656569},{"name":"東山高齢者会館","province":"東京都","city":"中野区","address":"中野区野方4-41-7","lat":35.721905,"lon":139.656955},{"name":"鷺六高齢者会館","province":"東京都","city":"中野区","address":"中野区鷺宮6-25-8","lat":35.725645,"lon":139.630096},{"name":"若宮いこいの家","province":"東京都","city":"中野区","address":"中野区若宮1-49-1","lat":35.720122,"lon":139.648108},{"name":"鷺宮高齢者会館","province":"東京都","city":"中野区","address":"中野区若宮3-58-10","lat":35.722082,"lon":139.640337},{"name":"若宮高齢者会館","province":"東京都","city":"中野区","address":"中野区大和町4-51-11","lat":35.715464,"lon":139.642967},{"name":"白鷺高齢者会館","province":"東京都","city":"中野区","address":"中野区白鷲2-8-5","lat":35.718639,"lon":139.635862},{"name":"昭和高齢者会館","province":"東京都","city":"中野区","address":"中野区東中野3-19-18","lat":35.70847,"lon":139.68041},{"name":"宮園高齢者会館","province":"東京都","city":"中野区","address":"中野区中央2-18-21","lat":35.70025,"lon":139.68262},{"name":"東山高齢者会館","province":"東京都","city":"中野区","address":"中野区野方4-41-7","lat":35.72207,"lon":139.65683},{"name":"若宮いこいの家","province":"東京都","city":"中野区","address":"中野区若宮1-49-1","lat":35.72014,"lon":139.64806},{"name":"白鷺高齢者会館","province":"東京都","city":"中野区","address":"中野区白鷲2-8-5","lat":39.69055,"lon":141.16905}]}