{"keyword":"一覧","data":[{"name":"みずの塔ふれあいの家","province":"東京都","city":"中野区","address":"東京都中野区江古田1丁目9-24","lat":35.72549107,"lon":139.67353923},{"name":"新江古田駅（都営大江戸線）","province":"東京都","city":"中野区","address":"東京都中野区江原町2丁目29-13","lat":35.73223468,"lon":139.67090305},{"name":"鷺宮スポーツ・コミュニティプラザ","province":"東京都","city":"中野区","address":"東京都中野区白鷺3丁目1-13","lat":35.72245986,"lon":139.63643139},{"name":"中野坂上駅（都営大江戸線）","province":"東京都","city":"中野区","address":"東京都中野区中央2丁目2-28","lat":35.69789448,"lon":139.68269791},{"name":"水道局中野営業所","province":"東京都","city":"中野区","address":"東京都中野区中野1丁目5-7","lat":35.70178555,"lon":139.67754543},{"name":"城山ふれあいの家","province":"東京都","city":"中野区","address":"東京都中野区中野1丁目20-4","lat":35.70402138,"lon":139.6769065},{"name":"中野区役所","province":"東京都","city":"中野区","address":"東京都中野区中野4丁目8-1","lat":35.70733449,"lon":139.6637464},{"name":"中野区社会福祉会館","province":"東京都","city":"中野区","address":"東京都中野区中野5丁目68-7","lat":35.7092621,"lon":139.66519619},{"name":"東中野駅（都営大江戸線）","province":"東京都","city":"中野区","address":"東京都中野区東中野3丁目8-16","lat":35.70706288,"lon":139.68277253},{"name":"南部スポーツ・コミュニティプラザ","province":"東京都","city":"中野区","address":"東京都中野区弥生町5丁目11-26","lat":35.68814802,"lon":139.66844124},{"name":"中野区立総合体育館","province":"東京都","city":"中野区","address":"東京都中野区新井3丁目37-78","lat":35.71578907,"lon":139.66305166},{"name":"東部区民活動センター","province":"東京都","city":"中野区","address":"東京都中野区中央2丁目18-21","lat":35.70036364,"lon":139.68245616},{"name":"桃園区民活動センター","province":"東京都","city":"中野区","address":"東京都中野区中央4丁目57-1","lat":35.70228518,"lon":139.66731575},{"name":"上高田区民活動センター","province":"東京都","city":"中野区","address":"東京都中野区上高田2丁目11-1","lat":35.7115565,"lon":139.67252324},{"name":"新井区民活動センター","province":"東京都","city":"中野区","address":"東京都中野区新井3丁目11-4","lat":35.71425593,"lon":139.66355168},{"name":"江古田区民活動センター","province":"東京都","city":"中野区","address":"東京都中野区江原町2丁目3-15","lat":35.72881004,"lon":139.66969774},{"name":"野方区民活動センター","province":"東京都","city":"中野区","address":"東京都中野区野方5丁目3-1","lat":35.71834687,"lon":139.65344403},{"name":"鍋横区民活動センター","province":"東京都","city":"中野区","address":"東京都中野区本町5丁目47-13","lat":35.69361679,"lon":139.66800771},{"name":"鷺宮区民活動センター","province":"東京都","city":"中野区","address":"東京都中野区鷺宮3丁目22-5","lat":35.72344039,"lon":139.63977273},{"name":"上鷺宮区民活動センター","province":"東京都","city":"中野区","address":"東京都中野区上鷺宮3丁目7-6","lat":35.73188371,"lon":139.63213966},{"name":"中野区産業振興センター","province":"東京都","city":"中野区","address":"東京都中野区中野2丁目13-14","lat":35.70430441,"lon":139.66810726}]}