{"keyword":"伐採","data":[{"name":"立正佼成会附属佼成病院","province":"東京都","city":"中野区","address":"東京都中野区弥生町5丁目25-15","lat":35.69047273,"lon":139.66806618},{"name":"東京医療生活協同組合中野総合病院","province":"東京都","city":"中野区","address":"東京都中野区中央4丁目59-16","lat":35.70255736,"lon":139.66706576},{"name":"東京警察病院","province":"東京都","city":"中野区","address":"東京都中野区中野4丁目22-1","lat":35.70920915,"lon":139.65931337},{"name":"立正佼成会付属佼成病院","province":"東京都","city":"中野区","address":"東京都中野区弥生町5丁目25-15","lat":35.69047273,"lon":139.66806618},{"name":"東京大学教育学部附属中等教育学校校庭","province":"東京都","city":"中野区","address":"東京都中野区南台1丁目15","lat":35.68530682,"lon":139.67376032},{"name":"都立武蔵丘高等学校校庭","province":"東京都","city":"中野区","address":"東京都中野区上鷺宮2丁目14-1","lat":35.72899512,"lon":139.63095098},{"name":"東京警察病院ヘリポート","province":"東京都","city":"中野区","address":"東京都中野区中野4丁目22-1","lat":35.70920915,"lon":139.65931337},{"name":"立正佼成会附属佼成病院","province":"東京都","city":"中野区","address":"東京都中野区弥生町5丁目25-15","lat":35.69047273,"lon":139.66806618},{"name":"東京医療生活協同組合中野総合病院","province":"東京都","city":"中野区","address":"東京都中野区中央4丁目59-16","lat":35.70255736,"lon":139.66706576},{"name":"東京警察病院","province":"東京都","city":"中野区","address":"東京都中野区中野4丁目22-1","lat":35.70920915,"lon":139.65931337},{"name":"立正佼成会付属佼成病院","province":"東京都","city":"中野区","address":"東京都中野区弥生町5丁目25-15","lat":35.69047273,"lon":139.66806618},{"name":"東京大学教育学部附属中等教育学校校庭","province":"東京都","city":"中野区","address":"東京都中野区南台1丁目15","lat":35.68530682,"lon":139.67376032},{"name":"都立武蔵丘高等学校校庭","province":"東京都","city":"中野区","address":"東京都中野区上鷺宮2丁目14-1","lat":35.72899512,"lon":139.63095098},{"name":"東京警察病院ヘリポート","province":"東京都","city":"中野区","address":"東京都中野区中野4丁目22-1","lat":35.70920915,"lon":139.65931337},{"name":"立正佼成会附属佼成病院","province":"東京都","city":"中野区","address":"東京都中野区弥生町5丁目25-15","lat":35.69047273,"lon":139.66806618},{"name":"東京医療生活協同組合中野総合病院","province":"東京都","city":"中野区","address":"東京都中野区中央4丁目59-16","lat":35.70255736,"lon":139.66706576},{"name":"東京警察病院","province":"東京都","city":"中野区","address":"東京都中野区中野4丁目22-1","lat":35.70920915,"lon":139.65931337},{"name":"立正佼成会付属佼成病院","province":"東京都","city":"中野区","address":"東京都中野区弥生町5丁目25-15","lat":35.69047273,"lon":139.66806618},{"name":"東京大学教育学部附属中等教育学校校庭","province":"東京都","city":"中野区","address":"東京都中野区南台1丁目15","lat":35.68530682,"lon":139.67376032},{"name":"都立武蔵丘高等学校校庭","province":"東京都","city":"中野区","address":"東京都中野区上鷺宮2丁目14-1","lat":35.72899512,"lon":139.63095098},{"name":"東京警察病院ヘリポート","province":"東京都","city":"中野区","address":"東京都中野区中野4丁目22-1","lat":35.70920915,"lon":139.65931337},{"name":"立正佼成会附属佼成病院","province":"東京都","city":"中野区","address":"東京都中野区弥生町5丁目25-15","lat":35.69047273,"lon":139.66806618},{"name":"東京医療生活協同組合中野総合病院","province":"東京都","city":"中野区","address":"東京都中野区中央4丁目59-16","lat":35.70255736,"lon":139.66706576},{"name":"東京警察病院","province":"東京都","city":"中野区","address":"東京都中野区中野4丁目22-1","lat":35.70920915,"lon":139.65931337},{"name":"立正佼成会付属佼成病院","province":"東京都","city":"中野区","address":"東京都中野区弥生町5丁目25-15","lat":35.69047273,"lon":139.66806618},{"name":"立正佼成会附属佼成病院","province":"東京都","city":"中野区","address":"東京都中野区弥生町5丁目25-15","lat":35.69047273,"lon":139.66806618},{"name":"東京医療生活協同組合中野総合病院","province":"東京都","city":"中野区","address":"東京都中野区中央4丁目59-16","lat":35.70255736,"lon":139.66706576},{"name":"東京警察病院","province":"東京都","city":"中野区","address":"東京都中野区中野4丁目22-1","lat":35.70920915,"lon":139.65931337},{"name":"立正佼成会付属佼成病院","province":"東京都","city":"中野区","address":"東京都中野区弥生町5丁目25-15","lat":35.69047273,"lon":139.66806618},{"name":"立正佼成会附属佼成病院","province":"東京都","city":"中野区","address":"東京都中野区弥生町5丁目25-15","lat":35.69047273,"lon":139.66806618},{"name":"東京医療生活協同組合中野総合病院","province":"東京都","city":"中野区","address":"東京都中野区中央4丁目59-16","lat":35.70255736,"lon":139.66706576},{"name":"東京警察病院","province":"東京都","city":"中野区","address":"東京都中野区中野4丁目22-1","lat":35.70920915,"lon":139.65931337},{"name":"立正佼成会付属佼成病院","province":"東京都","city":"中野区","address":"東京都中野区弥生町5丁目25-15","lat":35.69047273,"lon":139.66806618},{"name":"立正佼成会附属佼成病院","province":"東京都","city":"中野区","address":"東京都中野区弥生町5丁目25-15","lat":35.69047273,"lon":139.66806618},{"name":"東京医療生活協同組合中野総合病院","province":"東京都","city":"中野区","address":"東京都中野区中央4丁目59-16","lat":35.70255736,"lon":139.66706576},{"name":"東京警察病院","province":"東京都","city":"中野区","address":"東京都中野区中野4丁目22-1","lat":35.70920915,"lon":139.65931337},{"name":"立正佼成会付属佼成病院","province":"東京都","city":"中野区","address":"東京都中野区弥生町5丁目25-15","lat":35.69047273,"lon":139.66806618},{"name":"立正佼成会附属佼成病院","province":"東京都","city":"中野区","address":"東京都中野区弥生町5丁目25-15","lat":35.69047273,"lon":139.66806618},{"name":"東京医療生活協同組合中野総合病院","province":"東京都","city":"中野区","address":"東京都中野区中央4丁目59-16","lat":35.70255736,"lon":139.66706576},{"name":"東京警察病院","province":"東京都","city":"中野区","address":"東京都中野区中野4丁目22-1","lat":35.70920915,"lon":139.65931337},{"name":"立正佼成会付属佼成病院","province":"東京都","city":"中野区","address":"東京都中野区弥生町5丁目25-15","lat":35.69047273,"lon":139.66806618},{"name":"立正佼成会附属佼成病院","province":"東京都","city":"中野区","address":"東京都中野区弥生町5丁目25-15","lat":35.69047273,"lon":139.66806618},{"name":"東京医療生活協同組合中野総合病院","province":"東京都","city":"中野区","address":"東京都中野区中央4丁目59-16","lat":35.70255736,"lon":139.66706576},{"name":"東京警察病院","province":"東京都","city":"中野区","address":"東京都中野区中野4丁目22-1","lat":35.70920915,"lon":139.65931337},{"name":"立正佼成会付属佼成病院","province":"東京都","city":"中野区","address":"東京都中野区弥生町5丁目25-15","lat":35.69047273,"lon":139.66806618},{"name":"立正佼成会附属佼成病院","province":"東京都","city":"中野区","address":"東京都中野区弥生町5丁目25-15","lat":35.69047273,"lon":139.66806618},{"name":"東京医療生活協同組合中野総合病院","province":"東京都","city":"中野区","address":"東京都中野区中央4丁目59-16","lat":35.70255736,"lon":139.66706576},{"name":"東京警察病院","province":"東京都","city":"中野区","address":"東京都中野区中野4丁目22-1","lat":35.70920915,"lon":139.65931337},{"name":"立正佼成会付属佼成病院","province":"東京都","city":"中野区","address":"東京都中野区弥生町5丁目25-15","lat":35.69047273,"lon":139.66806618},{"name":"立正佼成会附属佼成病院","province":"東京都","city":"中野区","address":"東京都中野区弥生町5丁目25-15","lat":35.69047273,"lon":139.66806618},{"name":"東京医療生活協同組合中野総合病院","province":"東京都","city":"中野区","address":"東京都中野区中央4丁目59-16","lat":35.70255736,"lon":139.66706576},{"name":"東京警察病院","province":"東京都","city":"中野区","address":"東京都中野区中野4丁目22-1","lat":35.70920915,"lon":139.65931337},{"name":"立正佼成会付属佼成病院","province":"東京都","city":"中野区","address":"東京都中野区弥生町5丁目25-15","lat":35.69047273,"lon":139.66806618},{"name":"立正佼成会附属佼成病院","province":"東京都","city":"中野区","address":"東京都中野区弥生町5丁目25-15","lat":35.69047273,"lon":139.66806618},{"name":"東京医療生活協同組合中野総合病院","province":"東京都","city":"中野区","address":"東京都中野区中央4丁目59-16","lat":35.70255736,"lon":139.66706576},{"name":"東京警察病院","province":"東京都","city":"中野区","address":"東京都中野区中野4丁目22-1","lat":35.70920915,"lon":139.65931337},{"name":"立正佼成会付属佼成病院","province":"東京都","city":"中野区","address":"東京都中野区弥生町5丁目25-15","lat":35.69047273,"lon":139.66806618},{"name":"立正佼成会附属佼成病院","province":"東京都","city":"中野区","address":"東京都中野区弥生町5丁目25-15","lat":35.69047273,"lon":139.66806618},{"name":"東京医療生活協同組合中野総合病院","province":"東京都","city":"中野区","address":"東京都中野区中央4丁目59-16","lat":35.70255736,"lon":139.66706576},{"name":"東京警察病院","province":"東京都","city":"中野区","address":"東京都中野区中野4丁目22-1","lat":35.70920915,"lon":139.65931337},{"name":"立正佼成会付属佼成病院","province":"東京都","city":"中野区","address":"東京都中野区弥生町5丁目25-15","lat":35.69047273,"lon":139.66806618},{"name":"立正佼成会附属佼成病院","province":"東京都","city":"中野区","address":"東京都中野区弥生町5丁目25-15","lat":35.69047273,"lon":139.66806618},{"name":"東京医療生活協同組合中野総合病院","province":"東京都","city":"中野区","address":"東京都中野区中央4丁目59-16","lat":35.70255736,"lon":139.66706576},{"name":"東京警察病院","province":"東京都","city":"中野区","address":"東京都中野区中野4丁目22-1","lat":35.70920915,"lon":139.65931337},{"name":"立正佼成会付属佼成病院","province":"東京都","city":"中野区","address":"東京都中野区弥生町5丁目25-15","lat":35.69047273,"lon":139.66806618},{"name":"立正佼成会附属佼成病院","province":"東京都","city":"中野区","address":"東京都中野区弥生町5丁目25-15","lat":35.69047273,"lon":139.66806618},{"name":"東京医療生活協同組合中野総合病院","province":"東京都","city":"中野区","address":"東京都中野区中央4丁目59-16","lat":35.70255736,"lon":139.66706576},{"name":"東京警察病院","province":"東京都","city":"中野区","address":"東京都中野区中野4丁目22-1","lat":35.70920915,"lon":139.65931337},{"name":"立正佼成会付属佼成病院","province":"東京都","city":"中野区","address":"東京都中野区弥生町5丁目25-15","lat":35.69047273,"lon":139.66806618},{"name":"立正佼成会附属佼成病院","province":"東京都","city":"中野区","address":"東京都中野区弥生町5丁目25-15","lat":35.69047273,"lon":139.66806618},{"name":"東京医療生活協同組合中野総合病院","province":"東京都","city":"中野区","address":"東京都中野区中央4丁目59-16","lat":35.70255736,"lon":139.66706576},{"name":"東京警察病院","province":"東京都","city":"中野区","address":"東京都中野区中野4丁目22-1","lat":35.70920915,"lon":139.65931337},{"name":"立正佼成会付属佼成病院","province":"東京都","city":"中野区","address":"東京都中野区弥生町5丁目25-15","lat":35.69047273,"lon":139.66806618},{"name":"立正佼成会附属佼成病院","province":"東京都","city":"中野区","address":"東京都中野区弥生町5丁目25-15","lat":35.69047273,"lon":139.66806618},{"name":"東京医療生活協同組合中野総合病院","province":"東京都","city":"中野区","address":"東京都中野区中央4丁目59-16","lat":35.70255736,"lon":139.66706576},{"name":"東京警察病院","province":"東京都","city":"中野区","address":"東京都中野区中野4丁目22-1","lat":35.70920915,"lon":139.65931337},{"name":"立正佼成会付属佼成病院","province":"東京都","city":"中野区","address":"東京都中野区弥生町5丁目25-15","lat":35.69047273,"lon":139.66806618},{"name":"立正佼成会附属佼成病院","province":"東京都","city":"中野区","address":"東京都中野区弥生町5丁目25-15","lat":35.69047273,"lon":139.66806618},{"name":"東京医療生活協同組合中野総合病院","province":"東京都","city":"中野区","address":"東京都中野区中央4丁目59-16","lat":35.70255736,"lon":139.66706576},{"name":"東京警察病院","province":"東京都","city":"中野区","address":"東京都中野区中野4丁目22-1","lat":35.70920915,"lon":139.65931337},{"name":"立正佼成会付属佼成病院","province":"東京都","city":"中野区","address":"東京都中野区弥生町5丁目25-15","lat":35.69047273,"lon":139.66806618},{"name":"立正佼成会附属佼成病院","province":"東京都","city":"中野区","address":"東京都中野区弥生町5丁目25-15","lat":35.69047273,"lon":139.66806618},{"name":"東京医療生活協同組合中野総合病院","province":"東京都","city":"中野区","address":"東京都中野区中央4丁目59-16","lat":35.70255736,"lon":139.66706576},{"name":"東京警察病院","province":"東京都","city":"中野区","address":"東京都中野区中野4丁目22-1","lat":35.70920915,"lon":139.65931337},{"name":"立正佼成会付属佼成病院","province":"東京都","city":"中野区","address":"東京都中野区弥生町5丁目25-15","lat":35.69047273,"lon":139.66806618},{"name":"立正佼成会附属佼成病院","province":"東京都","city":"中野区","address":"東京都中野区弥生町5丁目25-15","lat":35.69047273,"lon":139.66806618},{"name":"東京医療生活協同組合中野総合病院","province":"東京都","city":"中野区","address":"東京都中野区中央4丁目59-16","lat":35.70255736,"lon":139.66706576},{"name":"東京警察病院","province":"東京都","city":"中野区","address":"東京都中野区中野4丁目22-1","lat":35.70920915,"lon":139.65931337},{"name":"立正佼成会付属佼成病院","province":"東京都","city":"中野区","address":"東京都中野区弥生町5丁目25-15","lat":35.69047273,"lon":139.66806618},{"name":"立正佼成会附属佼成病院","province":"東京都","city":"中野区","address":"東京都中野区弥生町5丁目25-15","lat":35.69047273,"lon":139.66806618},{"name":"東京医療生活協同組合中野総合病院","province":"東京都","city":"中野区","address":"東京都中野区中央4丁目59-16","lat":35.70255736,"lon":139.66706576},{"name":"東京警察病院","province":"東京都","city":"中野区","address":"東京都中野区中野4丁目22-1","lat":35.70920915,"lon":139.65931337},{"name":"立正佼成会付属佼成病院","province":"東京都","city":"中野区","address":"東京都中野区弥生町5丁目25-15","lat":35.69047273,"lon":139.66806618},{"name":"立正佼成会附属佼成病院","province":"東京都","city":"中野区","address":"東京都中野区弥生町5丁目25-15","lat":35.69047273,"lon":139.66806618},{"name":"東京医療生活協同組合中野総合病院","province":"東京都","city":"中野区","address":"東京都中野区中央4丁目59-16","lat":35.70255736,"lon":139.66706576},{"name":"東京警察病院","province":"東京都","city":"中野区","address":"東京都中野区中野4丁目22-1","lat":35.70920915,"lon":139.65931337},{"name":"立正佼成会付属佼成病院","province":"東京都","city":"中野区","address":"東京都中野区弥生町5丁目25-15","lat":35.69047273,"lon":139.66806618},{"name":"立正佼成会附属佼成病院","province":"東京都","city":"中野区","address":"東京都中野区弥生町5丁目25-15","lat":35.69047273,"lon":139.66806618},{"name":"東京医療生活協同組合中野総合病院","province":"東京都","city":"中野区","address":"東京都中野区中央4丁目59-16","lat":35.70255736,"lon":139.66706576},{"name":"東京警察病院","province":"東京都","city":"中野区","address":"東京都中野区中野4丁目22-1","lat":35.70920915,"lon":139.65931337},{"name":"立正佼成会付属佼成病院","province":"東京都","city":"中野区","address":"東京都中野区弥生町5丁目25-15","lat":35.69047273,"lon":139.66806618},{"name":"立正佼成会附属佼成病院","province":"東京都","city":"中野区","address":"東京都中野区弥生町5丁目25-15","lat":35.69047273,"lon":139.66806618},{"name":"東京医療生活協同組合中野総合病院","province":"東京都","city":"中野区","address":"東京都中野区中央4丁目59-16","lat":35.70255736,"lon":139.66706576},{"name":"東京警察病院","province":"東京都","city":"中野区","address":"東京都中野区中野4丁目22-1","lat":35.70920915,"lon":139.65931337},{"name":"立正佼成会付属佼成病院","province":"東京都","city":"中野区","address":"東京都中野区弥生町5丁目25-15","lat":35.69047273,"lon":139.66806618},{"name":"立正佼成会附属佼成病院","province":"東京都","city":"中野区","address":"東京都中野区弥生町5丁目25-15","lat":35.69047273,"lon":139.66806618},{"name":"東京医療生活協同組合中野総合病院","province":"東京都","city":"中野区","address":"東京都中野区中央4丁目59-16","lat":35.70255736,"lon":139.66706576},{"name":"東京警察病院","province":"東京都","city":"中野区","address":"東京都中野区中野4丁目22-1","lat":35.70920915,"lon":139.65931337},{"name":"立正佼成会付属佼成病院","province":"東京都","city":"中野区","address":"東京都中野区弥生町5丁目25-15","lat":35.69047273,"lon":139.66806618},{"name":"立正佼成会附属佼成病院","province":"東京都","city":"中野区","address":"東京都中野区弥生町5丁目25-15","lat":35.69047273,"lon":139.66806618},{"name":"東京医療生活協同組合中野総合病院","province":"東京都","city":"中野区","address":"東京都中野区中央4丁目59-16","lat":35.70255736,"lon":139.66706576},{"name":"東京警察病院","province":"東京都","city":"中野区","address":"東京都中野区中野4丁目22-1","lat":35.70920915,"lon":139.65931337},{"name":"立正佼成会付属佼成病院","province":"東京都","city":"中野区","address":"東京都中野区弥生町5丁目25-15","lat":35.69047273,"lon":139.66806618},{"name":"立正佼成会附属佼成病院","province":"東京都","city":"中野区","address":"東京都中野区弥生町5丁目25-15","lat":35.69047273,"lon":139.66806618},{"name":"東京医療生活協同組合中野総合病院","province":"東京都","city":"中野区","address":"東京都中野区中央4丁目59-16","lat":35.70255736,"lon":139.66706576},{"name":"東京警察病院","province":"東京都","city":"中野区","address":"東京都中野区中野4丁目22-1","lat":35.70920915,"lon":139.65931337},{"name":"立正佼成会付属佼成病院","province":"東京都","city":"中野区","address":"東京都中野区弥生町5丁目25-15","lat":35.69047273,"lon":139.66806618},{"name":"立正佼成会附属佼成病院","province":"東京都","city":"中野区","address":"東京都中野区弥生町5丁目25-15","lat":35.69047273,"lon":139.66806618},{"name":"東京医療生活協同組合中野総合病院","province":"東京都","city":"中野区","address":"東京都中野区中央4丁目59-16","lat":35.70255736,"lon":139.66706576},{"name":"東京警察病院","province":"東京都","city":"中野区","address":"東京都中野区中野4丁目22-1","lat":35.70920915,"lon":139.65931337},{"name":"立正佼成会付属佼成病院","province":"東京都","city":"中野区","address":"東京都中野区弥生町5丁目25-15","lat":35.69047273,"lon":139.66806618},{"name":"立正佼成会附属佼成病院","province":"東京都","city":"中野区","address":"東京都中野区弥生町5丁目25-15","lat":35.69047273,"lon":139.66806618},{"name":"東京医療生活協同組合中野総合病院","province":"東京都","city":"中野区","address":"東京都中野区中央4丁目59-16","lat":35.70255736,"lon":139.66706576},{"name":"東京警察病院","province":"東京都","city":"中野区","address":"東京都中野区中野4丁目22-1","lat":35.70920915,"lon":139.65931337},{"name":"立正佼成会付属佼成病院","province":"東京都","city":"中野区","address":"東京都中野区弥生町5丁目25-15","lat":35.69047273,"lon":139.66806618},{"name":"立正佼成会附属佼成病院","province":"東京都","city":"中野区","address":"東京都中野区弥生町5丁目25-15","lat":35.69047273,"lon":139.66806618},{"name":"東京医療生活協同組合中野総合病院","province":"東京都","city":"中野区","address":"東京都中野区中央4丁目59-16","lat":35.70255736,"lon":139.66706576},{"name":"東京警察病院","province":"東京都","city":"中野区","address":"東京都中野区中野4丁目22-1","lat":35.70920915,"lon":139.65931337},{"name":"立正佼成会付属佼成病院","province":"東京都","city":"中野区","address":"東京都中野区弥生町5丁目25-15","lat":35.69047273,"lon":139.66806618},{"name":"立正佼成会附属佼成病院","province":"東京都","city":"中野区","address":"東京都中野区弥生町5丁目25-15","lat":35.69047273,"lon":139.66806618},{"name":"東京医療生活協同組合中野総合病院","province":"東京都","city":"中野区","address":"東京都中野区中央4丁目59-16","lat":35.70255736,"lon":139.66706576},{"name":"東京警察病院","province":"東京都","city":"中野区","address":"東京都中野区中野4丁目22-1","lat":35.70920915,"lon":139.65931337},{"name":"立正佼成会付属佼成病院","province":"東京都","city":"中野区","address":"東京都中野区弥生町5丁目25-15","lat":35.69047273,"lon":139.66806618},{"name":"立正佼成会附属佼成病院","province":"東京都","city":"中野区","address":"東京都中野区弥生町5丁目25-15","lat":35.69047273,"lon":139.66806618},{"name":"東京医療生活協同組合中野総合病院","province":"東京都","city":"中野区","address":"東京都中野区中央4丁目59-16","lat":35.70255736,"lon":139.66706576},{"name":"東京警察病院","province":"東京都","city":"中野区","address":"東京都中野区中野4丁目22-1","lat":35.70920915,"lon":139.65931337},{"name":"立正佼成会付属佼成病院","province":"東京都","city":"中野区","address":"東京都中野区弥生町5丁目25-15","lat":35.69047273,"lon":139.66806618},{"name":"立正佼成会附属佼成病院","province":"東京都","city":"中野区","address":"東京都中野区弥生町5丁目25-15","lat":35.69047273,"lon":139.66806618},{"name":"東京医療生活協同組合中野総合病院","province":"東京都","city":"中野区","address":"東京都中野区中央4丁目59-16","lat":35.70255736,"lon":139.66706576},{"name":"東京警察病院","province":"東京都","city":"中野区","address":"東京都中野区中野4丁目22-1","lat":35.70920915,"lon":139.65931337},{"name":"立正佼成会付属佼成病院","province":"東京都","city":"中野区","address":"東京都中野区弥生町5丁目25-15","lat":35.69047273,"lon":139.66806618},{"name":"立正佼成会附属佼成病院","province":"東京都","city":"中野区","address":"東京都中野区弥生町5丁目25-15","lat":35.69047273,"lon":139.66806618},{"name":"東京医療生活協同組合中野総合病院","province":"東京都","city":"中野区","address":"東京都中野区中央4丁目59-16","lat":35.70255736,"lon":139.66706576},{"name":"東京警察病院","province":"東京都","city":"中野区","address":"東京都中野区中野4丁目22-1","lat":35.70920915,"lon":139.65931337},{"name":"立正佼成会付属佼成病院","province":"東京都","city":"中野区","address":"東京都中野区弥生町5丁目25-15","lat":35.69047273,"lon":139.66806618},{"name":"立正佼成会附属佼成病院","province":"東京都","city":"中野区","address":"東京都中野区弥生町5丁目25-15","lat":35.69047273,"lon":139.66806618},{"name":"東京医療生活協同組合中野総合病院","province":"東京都","city":"中野区","address":"東京都中野区中央4丁目59-16","lat":35.70255736,"lon":139.66706576},{"name":"東京警察病院","province":"東京都","city":"中野区","address":"東京都中野区中野4丁目22-1","lat":35.70920915,"lon":139.65931337},{"name":"立正佼成会付属佼成病院","province":"東京都","city":"中野区","address":"東京都中野区弥生町5丁目25-15","lat":35.69047273,"lon":139.66806618}]}