{"keyword":"保健","data":[{"name":"桃が丘さゆり保育園","province":"東京都","city":"中野区","address":"中野区中野3-19-13","lat":35.703368,"lon":139.661475},{"name":"宮園保育園","province":"東京都","city":"中野区","address":"中野区中野1-58-9","lat":35.692559,"lon":139.67796},{"name":"打越保育園","province":"東京都","city":"中野区","address":"中野区中野5-26-12","lat":35.708151,"lon":139.668929},{"name":"昭和保育園","province":"東京都","city":"中野区","address":"中野区中野6丁目2番11号","lat":35.707788,"lon":139.678337},{"name":"もみじやま保育園","province":"東京都","city":"中野区","address":"中野区中野1丁目59番5号","lat":35.704582,"lon":139.673135},{"name":"なかのまるのなか保育園大きなおうち","province":"東京都","city":"中野区","address":"中野区中野2-18-4","lat":35.703088,"lon":139.668407},{"name":"コンビプラザ中野保育園","province":"東京都","city":"中野区","address":"中野区中野4-6-20","lat":35.709543,"lon":139.663949},{"name":"あけぼの保育園","province":"東京都","city":"中野区","address":"中野区上高田2-58-21","lat":35.714176,"lon":139.670415},{"name":"あさひ保育園","province":"東京都","city":"中野区","address":"中野区上高田1丁目45番8号","lat":35.711809,"lon":139.675065},{"name":"なかのさくらさくほいくえん","province":"東京都","city":"中野区","address":"中野区上高田2-41-6","lat":35.711359,"lon":139.669623},{"name":"ナーサリールーム　ベリーベアー中野","province":"東京都","city":"中野区","address":"中野区上高田1-39-14","lat":35.71049,"lon":139.674709},{"name":"なかみなみコスモ保育園","province":"東京都","city":"中野区","address":"中野区南台3丁目6番17号","lat":35.685751,"lon":139.668225},{"name":"キッズガーデン中野上高田","province":"東京都","city":"中野区","address":"中野区上高田2丁目36番2号","lat":35.711794,"lon":139.671531},{"name":"陽だまりの丘保育園","province":"東京都","city":"中野区","address":"中野区東中野5-17-3","lat":35.709296,"lon":139.688364},{"name":"東中野プチ・クレイシュ","province":"東京都","city":"中野区","address":"中野区東中野5-1-1","lat":35.706655,"lon":139.687136},{"name":"仲町保育園","province":"東京都","city":"中野区","address":"中野区中央2丁目52番15号","lat":35.699583,"lon":139.67586},{"name":"太陽の子　中野中央保育園","province":"東京都","city":"中野区","address":"中野区中央1-13-8大橋セントラルビル2階","lat":35.701461,"lon":139.686822},{"name":"橋場そらとみどりの保育園大きなおうち","province":"東京都","city":"中野区","address":"中野区中央4-18-19","lat":35.699761,"lon":139.668535},{"name":"ひまわり保育園","province":"東京都","city":"中野区","address":"中野区中央4-61-4","lat":35.702802,"lon":139.666035},{"name":"マミーズエンジェル新中野保育園","province":"東京都","city":"中野区","address":"中野区本町4-30-12","lat":35.69618,"lon":139.670085},{"name":"宮の台保育園","province":"東京都","city":"中野区","address":"中野区本町4-14-13","lat":35.694558,"lon":139.672866},{"name":"本町保育園","province":"東京都","city":"中野区","address":"中野区本町3丁目29番17号","lat":35.697075,"lon":139.677512},{"name":"鍋横保育園","province":"東京都","city":"中野区","address":"中野区本町5丁目47番13号","lat":35.693597,"lon":139.66803},{"name":"中野保育園","province":"東京都","city":"中野区","address":"中野区弥生町2丁目6番3号","lat":35.692151,"lon":139.676532},{"name":"南台保育園","province":"東京都","city":"中野区","address":"中野区弥生町6丁目2番17号","lat":35.686318,"lon":139.662387},{"name":"弥生保育園","province":"東京都","city":"中野区","address":"中野区弥生町5丁目4番8号","lat":35.686626,"lon":139.666941},{"name":"中野みなみ保育園","province":"東京都","city":"中野区","address":"中野区南台5-29-9","lat":35.681385,"lon":139.660487},{"name":"アートチャイルドケア中野南台森の保育園","province":"東京都","city":"中野区","address":"中野区南台5-15-5","lat":35.680374,"lon":139.662423},{"name":"中野南台ちとせ保育園","province":"東京都","city":"中野区","address":"中野区南台2-1-5","lat":35.683079,"lon":139.673024},{"name":"丸山保育園","province":"東京都","city":"中野区","address":"中野区丸山2丁目27番16号","lat":35.72584,"lon":139.650188},{"name":"ピノキオ幼児舎野方保育園","province":"東京都","city":"中野区","address":"中野区丸山1-6-3","lat":35.723052,"lon":139.655252},{"name":"徳田保育園","province":"東京都","city":"中野区","address":"中野区江古田3-15-2","lat":35.72874,"lon":139.663929},{"name":"なかよしの森保育園","province":"東京都","city":"中野区","address":"中野区江古田4-16-13","lat":35.725832,"lon":139.663223},{"name":"江古田ここわ保育園","province":"東京都","city":"中野区","address":"中野区江古田1丁目11番6号","lat":35.725336,"lon":139.67392},{"name":"江原保育園","province":"東京都","city":"中野区","address":"中野区江原町1丁目10番16号","lat":35.729132,"lon":139.675367},{"name":"にじいろ保育園松が丘","province":"東京都","city":"中野区","address":"中野区松が丘2-32ー3","lat":35.72293,"lon":139.672542},{"name":"沼袋西保育園","province":"東京都","city":"中野区","address":"中野区沼袋3-14-11","lat":35.717019,"lon":139.658794},{"name":"沼袋保育園","province":"東京都","city":"中野区","address":"中野区沼袋1丁目34番14号","lat":35.719708,"lon":139.665199},{"name":"松が丘保育園","province":"東京都","city":"中野区","address":"中野区沼袋2-17-5","lat":35.723038,"lon":139.667365},{"name":"ピオニイ保育園","province":"東京都","city":"中野区","address":"中野区新井2-40-3","lat":35.712853,"lon":139.662913},{"name":"中野りとるぱんぷきんず","province":"東京都","city":"中野区","address":"中野区新井4-10-10","lat":35.716356,"lon":139.66699},{"name":"野方さくら保育園","province":"東京都","city":"中野区","address":"中野区野方4-41-7","lat":35.721905,"lon":139.656955},{"name":"野方保育園","province":"東京都","city":"中野区","address":"中野区野方1丁目35番8号","lat":35.709509,"lon":139.656664},{"name":"にじいろ保育園中野野方","province":"東京都","city":"中野区","address":"中野区野方1-41-9","lat":35.710476,"lon":139.655114},{"name":"オンビーノスクエア野方","province":"東京都","city":"中野区","address":"中野区野方5-10-13","lat":35.717064,"lon":139.650922},{"name":"とちの木保育園","province":"東京都","city":"中野区","address":"中野区上鷺宮3-8-8","lat":35.732561,"lon":139.632059},{"name":"中野ひかり保育園","province":"東京都","city":"中野区","address":"中野区上鷺宮4-18-8","lat":35.735008,"lon":139.628429},{"name":"グローバルキッズ鷺ノ宮園","province":"東京都","city":"中野区","address":"中野区上鷺宮2-10-21","lat":35.727929,"lon":139.633351},{"name":"西鷺宮保育園","province":"東京都","city":"中野区","address":"中野区鷺宮5-22-14","lat":35.72657,"lon":139.632673},{"name":"鷺宮クローバー保育園","province":"東京都","city":"中野区","address":"中野区鷺宮2丁目4番3号","lat":35.724532,"lon":139.646508},{"name":"田中ナースリー若宮保育園","province":"東京都","city":"中野区","address":"中野区若宮3-6-9","lat":35.720296,"lon":139.645395},{"name":"大和保育園","province":"東京都","city":"中野区","address":"中野区若宮1丁目1番2号","lat":35.7161,"lon":139.649181},{"name":"まなびの森保育園鷺ノ宮","province":"東京都","city":"中野区","address":"中野区若宮3-23-3","lat":35.722196,"lon":139.642281},{"name":"七海保育園","province":"東京都","city":"中野区","address":"中野区大和町4-12-10","lat":35.715275,"lon":139.647039},{"name":"大和東保育園","province":"東京都","city":"中野区","address":"中野区大和町1丁目37番4号","lat":35.711992,"lon":139.65107},{"name":"聖ピオ保育園","province":"東京都","city":"中野区","address":"中野区白鷺1-15-5","lat":35.71981,"lon":139.638409},{"name":"白鷺保育園","province":"東京都","city":"中野区","address":"中野区白鷺3丁目3番24号","lat":35.721315,"lon":139.633154},{"name":"メイプルガーデン","province":"東京都","city":"中野区","address":"中野区中野5-26-18","lat":35.708729,"lon":139.668879},{"name":"障害者支援施設　江古田の森","province":"東京都","city":"中野区","address":"中野区江古田3-14-19","lat":35.729629,"lon":139.665368},{"name":"中野区保健所","province":"東京都","city":"中野区","address":"中野区中野2-17-4","lat":35.702824,"lon":139.669335},{"name":"中部すこやか福祉センター","province":"東京都","city":"中野区","address":"中野区中央3-19-1","lat":35.7004,"lon":139.674176},{"name":"北部すこやか福祉センター","province":"東京都","city":"中野区","address":"中野区江古田4-31-10","lat":35.724616,"lon":139.661418},{"name":"南部すこやか福祉センター","province":"東京都","city":"中野区","address":"中野区弥生町5-11-26","lat":35.688192,"lon":139.668377},{"name":"鷺宮すこやか福祉センター","province":"東京都","city":"中野区","address":"中野区鷺宮3-58-10","lat":35.723543,"lon":139.639201},{"name":"中野都税事務所","province":"東京都","city":"中野区","address":"東京都中野区中野4丁目6-15","lat":35.709745,"lon":139.663678},{"name":"都営大江戸線中野坂上駅","province":"東京都","city":"中野区","address":"東京都中野区中央2丁目2","lat":35.697565,"lon":139.682984},{"name":"都営大江戸線東中野駅","province":"東京都","city":"中野区","address":"東京都中野区東中野3丁目8","lat":35.707044,"lon":139.683044},{"name":"都営大江戸線新江古田駅","province":"東京都","city":"中野区","address":"東京都中野区江原町2丁目29","lat":35.732557,"lon":139.670436},{"name":"東京都水道局中野営業所","province":"東京都","city":"中野区","address":"東京都中野区中野1丁目5-7","lat":35.701797,"lon":139.677606},{"name":"中野消防署東中野出張所","province":"東京都","city":"中野区","address":"東京都中野区上高田1丁目1-7","lat":35.709844,"lon":139.681671},{"name":"子ども・若者支援センター等複合施設","province":"東京都","city":"中野区","address":"東京都中野区中央1丁目41-2","lat":35.698187,"lon":139.683342},{"name":"中野区役所本庁舎（東京都第三建設事務所合同庁舎）","province":"東京都","city":"中野区","address":"東京都中野区中野4丁目8-1","lat":35.707346,"lon":139.663985},{"name":"中野区役所本庁舎（東京都第三建設事務所合同庁舎）","province":"東京都","city":"中野区","address":"東京都中野区中野4丁目8-1","lat":35.70697,"lon":139.663804},{"name":"中野区役所本庁舎（東京都第三建設事務所合同庁舎）","province":"東京都","city":"中野区","address":"東京都中野区中野4丁目8-1","lat":35.707406,"lon":139.663865},{"name":"中部すこやか福祉センター","province":"東京都","city":"中野区","address":"東京都中野区中央3丁目19-1","lat":35.700363,"lon":139.674159},{"name":"南部すこやか福祉センター等複合施設","province":"東京都","city":"中野区","address":"東京都中野区弥生町5丁目11-26","lat":35.688141,"lon":139.668569},{"name":"南部すこやか福祉センター等複合施設","province":"東京都","city":"中野区","address":"東京都中野区弥生町5丁目11-26","lat":35.688225,"lon":139.668537},{"name":"南部すこやか福祉センター等複合施設","province":"東京都","city":"中野区","address":"東京都中野区弥生町5丁目11","lat":35.688023,"lon":139.668557},{"name":"北部すこやか福祉センター","province":"東京都","city":"中野区","address":"東京都中野区江古田4丁目31-10","lat":35.724712,"lon":139.661622},{"name":"鷺宮すこやか福祉センター","province":"東京都","city":"中野区","address":"東京都中野区若宮3丁目58-10","lat":35.722053,"lon":139.640064},{"name":"南中野区民活動センター","province":"東京都","city":"中野区","address":"東京都中野区弥生町5丁目5-2","lat":35.686081,"lon":139.666327},{"name":"南中野区民活動センター","province":"東京都","city":"中野区","address":"東京都中野区弥生町5丁目5-2","lat":35.68624,"lon":139.66631},{"name":"弥生区民活動センター","province":"東京都","city":"中野区","address":"東京都中野区弥生町1丁目58-14","lat":35.692379,"lon":139.678461},{"name":"東部区民活動センター","province":"東京都","city":"中野区","address":"東京都中野区中央2丁目18-21","lat":35.700451,"lon":139.682563},{"name":"鍋横区民活動センター","province":"東京都","city":"中野区","address":"東京都中野区本町5丁目47-13","lat":35.693668,"lon":139.66791},{"name":"桃園区民活動センター","province":"東京都","city":"中野区","address":"東京都中野区中央4丁目57-1","lat":35.702356,"lon":139.667224},{"name":"東中野区民活動センター","province":"東京都","city":"中野区","address":"東京都中野区東中野5丁目27-5","lat":35.710148,"lon":139.690289},{"name":"東中野区民活動センター","province":"東京都","city":"中野区","address":"東京都中野区東中野5丁目27-5","lat":35.71017,"lon":139.690268},{"name":"新井区民活動センター","province":"東京都","city":"中野区","address":"東京都中野区新井3丁目11-4","lat":35.714307,"lon":139.663509},{"name":"野方区民活動センター","province":"東京都","city":"中野区","address":"東京都中野区野方5丁目3-1","lat":35.718334,"lon":139.653259},{"name":"野方区民活動センター","province":"東京都","city":"中野区","address":"東京都中野区野方5丁目3-1","lat":35.71817,"lon":139.653408},{"name":"野方区民活動センター","province":"東京都","city":"中野区","address":"東京都中野区野方5丁目3-1","lat":35.71823,"lon":139.653403},{"name":"大和区民活動センター","province":"東京都","city":"中野区","address":"東京都中野区大和町2丁目44-6","lat":35.713556,"lon":139.648929},{"name":"鷺宮区民活動センター","province":"東京都","city":"中野区","address":"東京都中野区鷺宮3丁目22-5","lat":35.723497,"lon":139.639853},{"name":"上鷺宮区民活動センター","province":"東京都","city":"中野区","address":"東京都中野区上鷺宮3丁目7-6","lat":35.731901,"lon":139.632066},{"name":"江古田区民活動センター","province":"東京都","city":"中野区","address":"東京都中野区江原町2丁目3-15","lat":35.728779,"lon":139.669687},{"name":"鷺宮区民活動センター分室","province":"東京都","city":"中野区","address":"東京都中野区白鷺1丁目4-27","lat":35.717544,"lon":139.638352},{"name":"上鷺宮区民活動センター分室","province":"東京都","city":"中野区","address":"東京都中野区上鷺宮2丁目4","lat":35.727333,"lon":139.634743},{"name":"松が丘シニアプラザ","province":"東京都","city":"中野区","address":"東京都中野区松が丘1丁目32-10","lat":35.721238,"lon":139.671953},{"name":"上高田区民活動センター","province":"東京都","city":"中野区","address":"東京都中野区上高田2丁目11-1","lat":35.711556,"lon":139.672584},{"name":"教育センター分室","province":"東京都","city":"中野区","address":"東京都中野区野方1丁目35-3","lat":35.709556,"lon":139.656523},{"name":"中野東図書館","province":"東京都","city":"中野区","address":"東京都中野区中央1丁目41-2","lat":35.698271,"lon":139.683513},{"name":"しんやまの家","province":"東京都","city":"中野区","address":"東京都中野区南台4丁目25-1","lat":35.68082,"lon":139.667486},{"name":"本一高齢者会館","province":"東京都","city":"中野区","address":"東京都中野区本町1丁目7-6","lat":35.693805,"lon":139.682714},{"name":"昭和高齢者会館","province":"東京都","city":"中野区","address":"東京都中野区東中野3丁目19-18","lat":35.708418,"lon":139.680634},{"name":"宮園高齢者会館","province":"東京都","city":"中野区","address":"東京都中野区中央2丁目18-21","lat":35.700445,"lon":139.682565},{"name":"上高田高齢者会館","province":"東京都","city":"中野区","address":"東京都中野区上高田2丁目8-11","lat":35.710776,"lon":139.672427},{"name":"上高田東高齢者会館","province":"東京都","city":"中野区","address":"東京都中野区上高田4丁目17-3","lat":35.712925,"lon":139.677926},{"name":"沼袋高齢者会館","province":"東京都","city":"中野区","address":"東京都中野区上鷺宮2丁目4-6","lat":35.727066,"lon":139.634969},{"name":"野方高齢者会館","province":"東京都","city":"中野区","address":"東京都中野区野方2丁目29-13","lat":35.714493,"lon":139.656443},{"name":"東山高齢者会館","province":"東京都","city":"中野区","address":"東京都中野区野方4丁目41-7","lat":35.721891,"lon":139.657262},{"name":"若宮高齢者会館","province":"東京都","city":"中野区","address":"東京都中野区大和町4丁目51-11","lat":35.715468,"lon":139.642993},{"name":"白鷺高齢者会館","province":"東京都","city":"中野区","address":"東京都中野区白鷺2丁目8-5","lat":35.71866,"lon":139.635816},{"name":"鷺六高齢者会館","province":"東京都","city":"中野区","address":"東京都中野区鷺宮6丁目25-8","lat":35.725655,"lon":139.630198},{"name":"南部高齢者会館","province":"東京都","city":"中野区","address":"東京都中野区南台5丁目27","lat":35.683338,"lon":139.660887},{"name":"中野区保健所","province":"東京都","city":"中野区","address":"東京都中野区中野2丁目17-4","lat":35.702903,"lon":139.669232},{"name":"野方図書館","province":"東京都","city":"中野区","address":"東京都中野区野方3丁目19","lat":35.717474,"lon":139.654403},{"name":"江古田図書館","province":"東京都","city":"中野区","address":"東京都中野区江古田2丁目1-11","lat":35.724897,"lon":139.668998},{"name":"上高田図書館","province":"東京都","city":"中野区","address":"東京都中野区上高田5丁目30-15","lat":35.718937,"lon":139.675148},{"name":"南台図書館","province":"東京都","city":"中野区","address":"東京都中野区南台3丁目26","lat":35.68538,"lon":139.665629},{"name":"中央図書館みなみの小学校分室","province":"東京都","city":"中野区","address":"東京都中野区弥生町4丁目27-11","lat":35.687112,"lon":139.669454},{"name":"中央図書館美鳩小学校分室","province":"東京都","city":"中野区","address":"東京都中野区大和町4丁目26-5","lat":35.714417,"lon":139.644845},{"name":"中央図書館中野第一小学校分室","province":"東京都","city":"中野区","address":"東京都中野区本町3丁目16-1","lat":35.695868,"lon":139.676948},{"name":"産業振興センター","province":"東京都","city":"中野区","address":"東京都中野区中野2丁目13-14","lat":35.704384,"lon":139.668083},{"name":"産業振興センター","province":"東京都","city":"中野区","address":"東京都中野区中野2丁目13-14","lat":35.704361,"lon":139.66801},{"name":"歴史民俗資料館","province":"東京都","city":"中野区","address":"東京都中野区江古田4丁目3-4","lat":35.724309,"lon":139.664957},{"name":"鷺宮スポーツ・コミュニティプラザ","province":"東京都","city":"中野区","address":"東京都中野区白鷺3丁目1-13","lat":35.722551,"lon":139.636294},{"name":"鷺宮スポーツ・コミュニティプラザ","province":"東京都","city":"中野区","address":"東京都中野区白鷺3丁目1-13","lat":35.722517,"lon":139.636297},{"name":"鷺宮スポーツ・コミュニティプラザ","province":"東京都","city":"中野区","address":"東京都中野区白鷺3丁目1-13","lat":35.722453,"lon":139.63626},{"name":"鷺宮スポーツ・コミュニティプラザ","province":"東京都","city":"中野区","address":"東京都中野区白鷺3丁目1-13","lat":35.722538,"lon":139.636299},{"name":"鷺宮スポーツ・コミュニティプラザ","province":"東京都","city":"中野区","address":"東京都中野区白鷺3丁目1-13","lat":35.722442,"lon":139.636296},{"name":"哲学堂弓道場","province":"東京都","city":"中野区","address":"東京都中野区松が丘1丁目34","lat":35.723383,"lon":139.673919},{"name":"南部スポーツ・コミュニティプラザ","province":"東京都","city":"中野区","address":"東京都中野区弥生町5丁目11-26","lat":35.688198,"lon":139.6683},{"name":"南部スポーツ・コミュニティプラザ","province":"東京都","city":"中野区","address":"東京都中野区弥生町5丁目11-26","lat":35.68833,"lon":139.668393},{"name":"南部スポーツ・コミュニティプラザ","province":"東京都","city":"中野区","address":"東京都中野区弥生町5丁目11-26","lat":35.688167,"lon":139.668478},{"name":"もみじやま文化センター本館","province":"東京都","city":"中野区","address":"東京都中野区中野2丁目9-7","lat":35.704186,"lon":139.671831},{"name":"もみじやま文化センター本館","province":"東京都","city":"中野区","address":"東京都中野区中野2丁目9-7","lat":35.704494,"lon":139.671869},{"name":"もみじやま文化センター本館","province":"東京都","city":"中野区","address":"東京都中野区中野2丁目9-7","lat":35.704562,"lon":139.671661},{"name":"もみじやま文化センター本館","province":"東京都","city":"中野区","address":"東京都中野区中野2丁目9-7","lat":35.704462,"lon":139.671578},{"name":"もみじやま文化センター西館","province":"東京都","city":"中野区","address":"東京都中野区中野2丁目9-7","lat":35.7044,"lon":139.671755},{"name":"野方区民ホール","province":"東京都","city":"中野区","address":"東京都中野区野方5丁目3-1","lat":35.718417,"lon":139.653268},{"name":"なかの芸能小劇場","province":"東京都","city":"中野区","address":"東京都中野区中野5丁目68-7","lat":35.709067,"lon":139.665347},{"name":"野方児童館","province":"東京都","city":"中野区","address":"東京都中野区新井2丁目48-10","lat":35.710881,"lon":139.660392},{"name":"宮の台児童館","province":"東京都","city":"中野区","address":"東京都中野区本町4丁目8-16","lat":35.695704,"lon":139.673329},{"name":"中野区社会福祉会館","province":"東京都","city":"中野区","address":"東京都中野区中野5丁目68-7","lat":35.709243,"lon":139.665344},{"name":"中野区社会福祉会館","province":"東京都","city":"中野区","address":"東京都中野区中野5丁目68-7","lat":35.709208,"lon":139.665345},{"name":"中野区社会福祉会館","province":"東京都","city":"中野区","address":"東京都中野区中野5丁目68-7","lat":35.70919,"lon":139.665328},{"name":"中野区社会福祉会館","province":"東京都","city":"中野区","address":"東京都中野区中野5丁目68-7","lat":35.709175,"lon":139.665347},{"name":"中野区障害者福祉会館","province":"東京都","city":"中野区","address":"東京都中野区沼袋2丁目40-18","lat":35.723651,"lon":139.663138},{"name":"中野区障害者福祉会館","province":"東京都","city":"中野区","address":"東京都中野区沼袋2丁目40-18","lat":35.723653,"lon":139.663067},{"name":"やよいの園","province":"東京都","city":"中野区","address":"東京都中野区弥生町3丁目33-8","lat":35.688856,"lon":139.674346},{"name":"やよいの園","province":"東京都","city":"中野区","address":"東京都中野区弥生町3丁目33-8","lat":35.688792,"lon":139.674326},{"name":"新井薬師児童館","province":"東京都","city":"中野区","address":"東京都中野区新井5丁目4","lat":35.715211,"lon":139.667762},{"name":"城山ふれあいの家","province":"東京都","city":"中野区","address":"東京都中野区中野1丁目20-4","lat":35.703995,"lon":139.676854},{"name":"みずの塔ふれあいの家","province":"東京都","city":"中野区","address":"東京都中野区江古田1丁目9-24","lat":35.725449,"lon":139.673425},{"name":"中野区立総合体育館","province":"東京都","city":"中野区","address":"東京都中野区新井3丁目37-78","lat":35.715749,"lon":139.662982},{"name":"中野三丁目敬老館","province":"東京都","city":"中野区","address":"東京都中野区中野3丁目23-47","lat":35.701614,"lon":139.664116},{"name":"中野区保健所","province":"東京都","city":"中野区","address":"東京都中野区中野2丁目17-4","lat":35.70282407,"lon":139.66933499},{"name":"中部すこやか福祉センター","province":"東京都","city":"中野区","address":"東京都中野区中央3丁目19-1","lat":35.70028006,"lon":139.67381249},{"name":"北部すこやか福祉センター","province":"東京都","city":"中野区","address":"東京都中野区江古田4丁目31-10","lat":35.72461583,"lon":139.66141808},{"name":"南部すこやか福祉センター","province":"東京都","city":"中野区","address":"東京都中野区弥生町5丁目11-26","lat":35.68814802,"lon":139.66844124},{"name":"鷺宮すこやか福祉センター","province":"東京都","city":"中野区","address":"東京都中野区若宮3丁目58-10","lat":35.72208222,"lon":139.64033664},{"name":"宮園保育園","province":"東京都","city":"中野区","address":"中野区中野1-21ー6","lat":35.70316,"lon":139.6767},{"name":"アルテ子どもと木幼保園","province":"東京都","city":"中野区","address":"中野区中野1-59-5","lat":35.70449,"lon":139.67328},{"name":"太陽の子　中野桜花保育園","province":"東京都","city":"中野区","address":"中野区中野2-14-11","lat":35.70488,"lon":139.67004},{"name":"なかのまるのなか保育園大きなおうち","province":"東京都","city":"中野区","address":"中野区中野2-18-4","lat":35.70297,"lon":139.66859},{"name":"にじいろ保育園中野駅南口","province":"東京都","city":"中野区","address":"中野区中野2-26-1","lat":35.70425,"lon":139.66631},{"name":"桃が丘さゆり保育園","province":"東京都","city":"中野区","address":"中野区中野3-19-13","lat":35.70285,"lon":139.66139},{"name":"きゃんばす中野保育園","province":"東京都","city":"中野区","address":"中野区中野3-48-8","lat":35.70511,"lon":139.66017},{"name":"コンビプラザ中野保育園","province":"東京都","city":"中野区","address":"中野区中野4-6-20","lat":35.70914,"lon":139.66389},{"name":"中野打越保育園","province":"東京都","city":"中野区","address":"中野区中野5-26ー11","lat":35.70816,"lon":139.66916},{"name":"中野ここわ保育園","province":"東京都","city":"中野区","address":"中野区中野5-4ー7","lat":35.70906,"lon":139.67216},{"name":"ピノキオ幼児舎中野","province":"東京都","city":"中野区","address":"中野区中野5丁目24番21号","lat":35.70934,"lon":139.66879},{"name":"昭和保育園","province":"東京都","city":"中野区","address":"中野区中野6ー2ー11","lat":35.70767,"lon":139.67848},{"name":"にじいろ保育園上高田","province":"東京都","city":"中野区","address":"中野区上高田1ー17ー5","lat":35.71043,"lon":139.67798},{"name":"ナーサリールーム　ベリーベアー中野","province":"東京都","city":"中野区","address":"中野区上高田1-39-14","lat":35.71053,"lon":139.67456},{"name":"キッズガーデン中野上高田","province":"東京都","city":"中野区","address":"中野区上高田2ー36ー2","lat":35.71177,"lon":139.67165},{"name":"さくらさくみらい　中野","province":"東京都","city":"中野区","address":"中野区上高田2-41-6","lat":35.71144,"lon":139.66975},{"name":"あけぼの保育園","province":"東京都","city":"中野区","address":"中野区上高田2-58-21","lat":35.71421,"lon":139.67018},{"name":"ちゃいれっく上高田保育園","province":"東京都","city":"中野区","address":"中野区上高田2-9-2","lat":35.71109,"lon":139.67293},{"name":"スターチャイルド≪東中野ナーサリー≫","province":"東京都","city":"中野区","address":"中野区東中野1-38-5","lat":35.70407,"lon":139.6866},{"name":"めばえの森保育園","province":"東京都","city":"中野区","address":"中野区東中野2丁目6番14号","lat":35.70194,"lon":139.68169},{"name":"幼保園シャローム東中野","province":"東京都","city":"中野区","address":"中野区東中野2丁目22番26号","lat":35.7046,"lon":139.68193},{"name":"東中野しらゆり保育園","province":"東京都","city":"中野区","address":"中野区東中野3-12-2","lat":35.70871,"lon":139.68237},{"name":"クオリスキッズ東中野保育園","province":"東京都","city":"中野区","address":"中野区東中野3丁目19番17号","lat":35.70847,"lon":139.6804},{"name":"シエル保育園・東中野","province":"東京都","city":"中野区","address":"中野区東中野4-11-12","lat":35.7083,"lon":139.68538},{"name":"キッズハーモニー・ひがしなかの","province":"東京都","city":"中野区","address":"中野区東中野4-4-26アトレヴィ東中野4階、5階","lat":35.70631,"lon":139.68443},{"name":"東中野プチ・クレイシュ","province":"東京都","city":"中野区","address":"中野区東中野5-1-1","lat":35.70659,"lon":139.68742},{"name":"陽だまりの丘保育園","province":"東京都","city":"中野区","address":"中野区東中野5-17-3","lat":35.70971,"lon":139.68872},{"name":"おはよう保育園東中野","province":"東京都","city":"中野区","address":"中野区東中野5-27-10ブリリア東中野パークサイドヒルズ","lat":35.70991,"lon":139.68829},{"name":"太陽の子　中野中央保育園","province":"東京都","city":"中野区","address":"中野区中央1-13-8大橋セントラルビル2階","lat":35.70142,"lon":139.68655},{"name":"ＡＩＡＩ　ＮＵＲＳＥＲＹ　中野坂上","province":"東京都","city":"中野区","address":"中野区中央2-2-3","lat":35.69766,"lon":139.68187},{"name":"こころなかのさかうえ保育園","province":"東京都","city":"中野区","address":"中野区中央2-43-12","lat":35.70037,"lon":139.67719},{"name":"ナーサリー中野の森","province":"東京都","city":"中野区","address":"中野区中央2丁目52番15号","lat":35.6994,"lon":139.67627},{"name":"仲町保育園","province":"東京都","city":"中野区","address":"中野区中央3-41-12","lat":35.69986,"lon":139.6714},{"name":"橋場そらとみどりの保育園大きなおうち","province":"東京都","city":"中野区","address":"中野区中央4-18-19","lat":35.69967,"lon":139.66858},{"name":"ひまわり保育園","province":"東京都","city":"中野区","address":"中野区中央4-61-4","lat":35.70277,"lon":139.66591},{"name":"モニカ新中野園","province":"東京都","city":"中野区","address":"中野区中央4-7-14","lat":35.69806,"lon":139.66873},{"name":"にじいろ保育園中野","province":"東京都","city":"中野区","address":"中野区中央5-48-2","lat":35.70158,"lon":139.66534},{"name":"本町保育園","province":"東京都","city":"中野区","address":"中野区本町3ー29ー17","lat":35.69714,"lon":139.67755},{"name":"マミーズエンジェル新中野保育園","province":"東京都","city":"中野区","address":"中野区本町4-30-122階","lat":35.69647,"lon":139.67053},{"name":"キッズガーデン新中野駅前","province":"東京都","city":"中野区","address":"中野区本町4-30-124階","lat":35.69647,"lon":139.67053},{"name":"コンビプラザ宮の台保育園","province":"東京都","city":"中野区","address":"中野区本町4丁目14番12号","lat":35.69454,"lon":139.67267},{"name":"鍋横保育園","province":"東京都","city":"中野区","address":"中野区本町5ー47ー13","lat":35.69341,"lon":139.66783},{"name":"さくらさくみらい　弥生町","province":"東京都","city":"中野区","address":"中野区弥生町1-43-12","lat":35.68882,"lon":139.67735},{"name":"みらいえ保育園中野富士見町","province":"東京都","city":"中野区","address":"中野区弥生町2ー48ー3","lat":35.69014,"lon":139.66954},{"name":"中野保育園","province":"東京都","city":"中野区","address":"中野区弥生町2ー6ー3","lat":35.69211,"lon":139.67648},{"name":"コンビプラザ弥生町保育園","province":"東京都","city":"中野区","address":"中野区弥生町2-41-2","lat":35.6915,"lon":139.6728},{"name":"弥生保育園","province":"東京都","city":"中野区","address":"中野区弥生町5ー4ー8","lat":35.68651,"lon":139.66707},{"name":"中野みなみ保育園","province":"東京都","city":"中野区","address":"中野区弥生町6-2-17","lat":35.68636,"lon":139.66237},{"name":"中野南台ちとせ保育園","province":"東京都","city":"中野区","address":"中野区南台2-1-5","lat":35.68312,"lon":139.67303},{"name":"南台保育園","province":"東京都","city":"中野区","address":"中野区南台3-35ー3","lat":35.68436,"lon":139.6653},{"name":"なかみなみコスモ保育園","province":"東京都","city":"中野区","address":"中野区南台3ー6ー17","lat":35.68553,"lon":139.66808},{"name":"キッズガーデン中野南台","province":"東京都","city":"中野区","address":"中野区南台4ー19ー11","lat":35.68111,"lon":139.66597},{"name":"アートチャイルドケア中野南台森の保育園","province":"東京都","city":"中野区","address":"中野区南台5-15-5","lat":35.68022,"lon":139.66254},{"name":"ピノキオ幼児舎野方保育園","province":"東京都","city":"中野区","address":"中野区丸山1-6-3","lat":35.723,"lon":139.65549},{"name":"丸山保育園","province":"東京都","city":"中野区","address":"中野区丸山2ー27ー16","lat":35.7257,"lon":139.64987},{"name":"江古田ここわ保育園","province":"東京都","city":"中野区","address":"中野区江古田1ー11ー5","lat":35.7254,"lon":139.67416},{"name":"テンダーラビング保育園　江古田","province":"東京都","city":"中野区","address":"中野区江古田1-43-5","lat":35.72638,"lon":139.67027},{"name":"徳田保育園","province":"東京都","city":"中野区","address":"中野区江古田3-15-2","lat":35.72824,"lon":139.66408},{"name":"にじいろ保育園江古田の杜","province":"東京都","city":"中野区","address":"中野区江古田3ー14ー1","lat":35.72741,"lon":139.6655},{"name":"なかよしの森保育園","province":"東京都","city":"中野区","address":"中野区江古田4-16-13","lat":35.72579,"lon":139.66319},{"name":"江原保育園","province":"東京都","city":"中野区","address":"中野区江原町1ー10ー16","lat":35.72935,"lon":139.67522},{"name":"さくらさくみらい　江原町","province":"東京都","city":"中野区","address":"中野区江原町1ー46ー1","lat":35.73092,"lon":139.67346},{"name":"中野松が丘すきっぷ保育園","province":"東京都","city":"中野区","address":"中野区松が丘1ー26ー2","lat":35.71957,"lon":139.67067},{"name":"にじいろ保育園松が丘","province":"東京都","city":"中野区","address":"中野区松が丘2-32ー3","lat":35.72327,"lon":139.67276},{"name":"沼袋保育園","province":"東京都","city":"中野区","address":"中野区沼袋1ー34ー14","lat":35.71964,"lon":139.66472},{"name":"松が丘保育園","province":"東京都","city":"中野区","address":"中野区沼袋2-17-5","lat":35.72297,"lon":139.66745},{"name":"グローバルキッズ沼袋園","province":"東京都","city":"中野区","address":"中野区沼袋2ー28ー32","lat":35.7216,"lon":139.66489},{"name":"沼袋西保育園","province":"東京都","city":"中野区","address":"中野区沼袋3-14-11","lat":35.71716,"lon":139.65924},{"name":"ピオニイ保育園","province":"東京都","city":"中野区","address":"中野区新井2-40-3","lat":35.71284,"lon":139.66301},{"name":"キッズフォレ平和の森","province":"東京都","city":"中野区","address":"中野区新井3-35-20","lat":35.71584,"lon":139.66035},{"name":"中野りとるぱんぷきんず","province":"東京都","city":"中野区","address":"中野区新井4-10-10","lat":35.71628,"lon":139.66687},{"name":"小学館アカデミーあらいやくし保育園","province":"東京都","city":"中野区","address":"中野区新井5-17-2","lat":35.71534,"lon":139.67021},{"name":"野方保育園","province":"東京都","city":"中野区","address":"中野区野方1ー35ー8","lat":35.70954,"lon":139.65637},{"name":"にじいろ保育園中野野方","province":"東京都","city":"中野区","address":"中野区野方1-41-9","lat":35.71041,"lon":139.65509},{"name":"野方さくら保育園","province":"東京都","city":"中野区","address":"中野区野方4-41-7","lat":35.72206,"lon":139.65683},{"name":"オンビーノスクエア野方","province":"東京都","city":"中野区","address":"中野区野方5-10-13","lat":35.71704,"lon":139.65086},{"name":"こどもヶ丘保育園野方園","province":"東京都","city":"中野区","address":"中野区野方6-38ー2","lat":35.72157,"lon":139.64915},{"name":"グローバルキッズ鷺ノ宮園","province":"東京都","city":"中野区","address":"中野区上鷺宮2-10-21","lat":35.72761,"lon":139.63345},{"name":"とちの木保育園","province":"東京都","city":"中野区","address":"中野区上鷺宮3-8-8","lat":35.73318,"lon":139.63185},{"name":"中野ひかり保育園","province":"東京都","city":"中野区","address":"中野区上鷺宮4-18-8","lat":35.7348,"lon":139.6288},{"name":"こどもヶ丘保育園上鷺宮園","province":"東京都","city":"中野区","address":"中野区上鷺宮5-5-6","lat":35.72881,"lon":139.62866},{"name":"鷺宮クローバー保育園","province":"東京都","city":"中野区","address":"中野区鷺宮2ー4ー3","lat":35.72467,"lon":139.64667},{"name":"にじいろ保育園鷺ノ宮","province":"東京都","city":"中野区","address":"中野区鷺宮3-44-7","lat":35.72554,"lon":139.64136},{"name":"ぽけっとランドさぎのみや保育園","province":"東京都","city":"中野区","address":"中野区鷺宮4-33-1","lat":35.72425,"lon":139.6375},{"name":"わらべ西鷺宮保育園","province":"東京都","city":"中野区","address":"中野区鷺宮5-22-14","lat":35.72654,"lon":139.63258},{"name":"七海保育園","province":"東京都","city":"中野区","address":"中野区若宮1-1-2","lat":35.71608,"lon":139.64978},{"name":"まなびの森保育園鷺ノ宮","province":"東京都","city":"中野区","address":"中野区若宮3-23-3","lat":35.72227,"lon":139.64227},{"name":"田中ナースリー若宮保育園","province":"東京都","city":"中野区","address":"中野区若宮3-6-9","lat":35.72057,"lon":139.64558},{"name":"大和東もみじの森保育園","province":"東京都","city":"中野区","address":"中野区大和町1丁目37番4号","lat":35.71192,"lon":139.65106},{"name":"田中ナースリー大和保育園","province":"東京都","city":"中野区","address":"中野区大和町4-42ー4","lat":35.7149,"lon":139.64217},{"name":"中野鷺ノ宮雲母保育園","province":"東京都","city":"中野区","address":"中野区白鷺1ー1ー4","lat":35.71589,"lon":139.63971},{"name":"聖ピオ保育園","province":"東京都","city":"中野区","address":"中野区白鷺1-15-5","lat":35.7202,"lon":139.6389},{"name":"キッズガーデン中野白鷺","province":"東京都","city":"中野区","address":"中野区白鷺1-6-10","lat":35.71609,"lon":139.63832},{"name":"白鷺保育園","province":"東京都","city":"中野区","address":"中野区白鷺3ー3ー24","lat":35.72163,"lon":139.63354},{"name":"中野江古田病院","province":"東京都","city":"中野区","address":"中野区江古田4-19-9","lat":35.72716,"lon":139.66299},{"name":"中野区保健所","province":"東京都","city":"中野区","address":"中野区中野2-17-4","lat":35.70287,"lon":139.66949},{"name":"中部すこやか福祉センター","province":"東京都","city":"中野区","address":"中野区中央3-19-1","lat":35.70008,"lon":139.67422},{"name":"北部すこやか福祉センター","province":"東京都","city":"中野区","address":"中野区江古田4-31-10","lat":35.72435,"lon":139.66159},{"name":"南部すこやか福祉センター","province":"東京都","city":"中野区","address":"中野区弥生町5-11-26","lat":35.68792,"lon":139.66827},{"name":"鷺宮すこやか福祉センター","province":"東京都","city":"中野区","address":"中野区若宮3-58-10","lat":35.7222,"lon":139.63969},{"name":"おはよう保育園東中野","province":"東京都","city":"中野区","address":"中野区東中野5-27-10ブリリア東中野パークサイドヒルズ","lat":35.71015,"lon":139.69066},{"name":"にじいろ保育園中野野方","province":"東京都","city":"中野区","address":"中野区野方1-41-9","lat":35.71015,"lon":139.65509},{"name":"中野区障害者福祉会館","province":"東京都","city":"中野区","address":"東京都中野区沼袋2丁目40-18","lat":35.72359654,"lon":139.66304021},{"name":"ＮＰＯ法人ハッピースマイル中野区東部福祉作業センター","province":"東京都","city":"中野区","address":"東京都中野区中央2丁目22-10","lat":35.70079132,"lon":139.68091739},{"name":"一般社団法人明生会事業所ワクわーく","province":"東京都","city":"中野区","address":"東京都中野区白鷺1丁目30-6","lat":35.7214961,"lon":139.63737024},{"name":"一般財団法人中野区障害者福祉事業団ここね","province":"東京都","city":"中野区","address":"東京都中野区新井2丁目8-13","lat":35.71221175,"lon":139.66480444},{"name":"一般財団法人中野区障害者福祉事業団ワ―カライズニコ","province":"東京都","city":"中野区","address":"東京都中野区新井2丁目8-13","lat":35.71221175,"lon":139.66480444},{"name":"社会福祉法人東京コロニーコロニー中野","province":"東京都","city":"中野区","address":"東京都中野区江原町2丁目6-7","lat":35.72915718,"lon":139.66831452},{"name":"社会福祉法人東京コロニー中野区仲町就労支援事業所","province":"東京都","city":"中野区","address":"東京都中野区中央3丁目19-1","lat":35.70028006,"lon":139.67381249},{"name":"AIAI NURSERY 中野坂上","province":"東京都","city":"中野区","address":"中野区中央2-2-3","lat":35.69766,"lon":139.68187},{"name":"コンビプラザ弥生町保育園","province":"東京都","city":"中野区","address":"中野区弥生町2-41-2","lat":35.69180505,"lon":139.6727677},{"name":"中野みなみ保育園","province":"東京都","city":"中野区","address":"中野区南台5-29-9","lat":35.68157,"lon":139.66032},{"name":"七海保育園","province":"東京都","city":"中野区","address":"中野区大和町4-12-10","lat":35.71541,"lon":139.64725},{"name":"AIAI NURSERY中野坂上","province":"東京都","city":"中野区","address":"中野区中央2-2-3","lat":35.69766,"lon":139.68187},{"name":"コンビプラザ弥生町保育園","province":"東京都","city":"中野区","address":"中野区弥生町2-41-2","lat":35.69136,"lon":139.67195},{"name":"中野松が丘すきっぷ保育園３１","province":"東京都","city":"中野区","address":"中野区松が丘1-26-2","lat":35.71957,"lon":139.67067},{"name":"もみじやま保育園","province":"東京都","city":"中野区","address":"中野区中野1-58-9","lat":35.70449,"lon":139.67328},{"name":"あさひ保育園","province":"東京都","city":"中野区","address":"中野区上高田1-45-8","lat":35.7117,"lon":139.67497},{"name":"仲町保育園","province":"東京都","city":"中野区","address":"中野区中央2-52-15","lat":35.6994,"lon":139.67627},{"name":"あい・あい保育園　中野坂上園","province":"東京都","city":"中野区","address":"中野区中央2-2-3","lat":35.69766,"lon":139.68187},{"name":"宮の台保育園","province":"東京都","city":"中野区","address":"中野区本町4-14-13","lat":35.69454,"lon":139.67267},{"name":"大和東保育園","province":"東京都","city":"中野区","address":"中野区大和町1-37-4","lat":35.71192,"lon":139.65106},{"name":"南部すこやか福祉センター","province":"東京都","city":"中野区","address":"中野区弥生町5-11-26","lat":35.68808,"lon":139.668823},{"name":"大和東保育園","province":"東京都","city":"中野区","address":"中野区若宮1-1-2(仮設)","lat":35.71608,"lon":139.64978},{"name":"コンビプラザ中野保育園","province":"東京都","city":"中野区","address":"中野区中野4-6-20","lat":35.70915,"lon":139.6639},{"name":"中野ここわ保育園","province":"東京都","city":"中野区","address":"中野区中野5-4-7","lat":35.70906,"lon":139.67217},{"name":"中野南台ちとせ保育園","province":"東京都","city":"中野区","address":"中野区南台2-1-5","lat":35.68312,"lon":139.67304},{"name":"ピオニイ保育園","province":"東京都","city":"中野区","address":"中野区新井2-40-3","lat":35.71285,"lon":139.66301},{"name":"キッズフォレ平和の森","province":"東京都","city":"中野区","address":"中野区新井3-35-20","lat":35.71584,"lon":139.66036},{"name":"野方さくら保育園","province":"東京都","city":"中野区","address":"中野区野方4-41-7","lat":35.72207,"lon":139.65683},{"name":"こどもヶ丘保育園野方園","province":"東京都","city":"中野区","address":"中野区野方6-38-2","lat":35.72157,"lon":139.64916},{"name":"ぽけっとランドさぎのみや保育園","province":"東京都","city":"中野区","address":"中野区鷺宮4-33-1","lat":35.72426,"lon":139.6375},{"name":"田中ナースリー大和保育園","province":"東京都","city":"中野区","address":"中野区大和町4-42-4","lat":35.71491,"lon":139.64217},{"name":"白鷺保育園","province":"東京都","city":"中野区","address":"中野区白鷺3-3-24","lat":35.72163,"lon":139.63355},{"name":"中野区保健所","province":"東京都","city":"中野区","address":"中野区中野2-17-4","lat":35.70287,"lon":139.6695},{"name":"中部すこやか福祉センター","province":"東京都","city":"中野区","address":"中野区中央3-19-1","lat":35.70009,"lon":139.67423},{"name":"鷺宮すこやか福祉センター","province":"東京都","city":"中野区","address":"中野区鷺宮3-58-10","lat":35.72442,"lon":139.64104},{"name":"もみじやま保育園","province":"東京都","city":"中野区","address":"中野区中野1-58-9","lat":35.70391,"lon":139.67265},{"name":"鷺宮すこやか福祉センター","province":"東京都","city":"中野区","address":"中野区鷺宮3-58-10","lat":35.72433,"lon":139.64253},{"name":"立正佼成会附属佼成病院","province":"東京都","city":"中野区","address":"東京都中野区弥生町5丁目25-15","lat":35.69047273,"lon":139.66806618},{"name":"東京医療生活協同組合中野総合病院","province":"東京都","city":"中野区","address":"東京都中野区中央4丁目59-16","lat":35.70255736,"lon":139.66706576},{"name":"東京警察病院","province":"東京都","city":"中野区","address":"東京都中野区中野4丁目22-1","lat":35.70920915,"lon":139.65931337},{"name":"区立弥生公園","province":"東京都","city":"中野区","address":"東京都中野区弥生町5丁目4","lat":35.68651484,"lon":139.66689699},{"name":"区立江古田の森公園","province":"東京都","city":"中野区","address":"東京都中野区江古田3丁目14","lat":35.73006534,"lon":139.6657647},{"name":"区立みずのとう公園","province":"東京都","city":"中野区","address":"東京都中野区江古田1丁目3","lat":35.72432456,"lon":139.67461418},{"name":"東京大学教育学部附属中等教育学校校庭","province":"東京都","city":"中野区","address":"東京都中野区南台1丁目15","lat":35.68530682,"lon":139.67376032},{"name":"都立武蔵丘高等学校校庭","province":"東京都","city":"中野区","address":"東京都中野区上鷺宮2丁目14-1","lat":35.72899512,"lon":139.63095098},{"name":"東京警察病院ヘリポート","province":"東京都","city":"中野区","address":"東京都中野区中野4丁目22-1","lat":35.70920915,"lon":139.65931337},{"name":"中野区選挙管理委員会","province":"東京都","city":"中野区","address":"中野区中野4-8-1","lat":35.707369,"lon":139.663762},{"name":"中野都税事務所","province":"東京都","city":"中野区","address":"東京都中野区中野4丁目6-15","lat":35.70966201,"lon":139.66378797},{"name":"武蔵丘高等学校","province":"東京都","city":"中野区","address":"東京都中野区上鷺宮2丁目14-1","lat":35.72899512,"lon":139.63095098},{"name":"稔ヶ丘高等学校","province":"東京都","city":"中野区","address":"東京都中野区上鷺宮5丁目11-1","lat":35.72800066,"lon":139.62576254},{"name":"富士高等学校","province":"東京都","city":"中野区","address":"東京都中野区弥生町5丁目21-1","lat":35.68959503,"lon":139.66701353},{"name":"中野工業高等学校","province":"東京都","city":"中野区","address":"東京都中野区野方3丁目5-5","lat":35.71668603,"lon":139.65667161},{"name":"鷺宮高等学校","province":"東京都","city":"中野区","address":"東京都中野区若宮3丁目46-8","lat":35.72042972,"lon":139.64432249},{"name":"中野区本庁舎","province":"東京都","city":"中野区","address":"東京都中野区中野4丁目8-1","lat":35.70733449,"lon":139.6637464},{"name":"都立稔ヶ丘高等学校","province":"東京都","city":"中野区","address":"東京都中野区上鷺宮5丁目11-1","lat":35.72800066,"lon":139.62576254},{"name":"都立富士高等学校","province":"東京都","city":"中野区","address":"東京都中野区弥生町5丁目21-1","lat":35.68959503,"lon":139.66701353},{"name":"中野区本庁舎","province":"東京都","city":"中野区","address":"中野区中野4-8-1","lat":35.707288,"lon":139.66381},{"name":"西部第一下水道事務所","province":"東京都","city":"中野区","address":"東京都中野区新井3丁目37-4","lat":35.71529745,"lon":139.6622323},{"name":"※中野区本庁舎","province":"東京都","city":"中野区","address":"東京都中野区中野4丁目8-1","lat":35.70733449,"lon":139.6637464},{"name":"桃が丘さゆり保育園","province":"東京都","city":"中野区","address":"中野区中野3-19-13","lat":35.703368,"lon":139.661475},{"name":"宮園保育園","province":"東京都","city":"中野区","address":"中野区中野1-58-9","lat":35.692559,"lon":139.67796},{"name":"打越保育園","province":"東京都","city":"中野区","address":"中野区中野5-26-12","lat":35.708151,"lon":139.668929},{"name":"昭和保育園","province":"東京都","city":"中野区","address":"中野区中野6丁目2番11号","lat":35.707788,"lon":139.678337},{"name":"もみじやま保育園","province":"東京都","city":"中野区","address":"中野区中野1丁目59番5号","lat":35.704582,"lon":139.673135},{"name":"なかのまるのなか保育園大きなおうち","province":"東京都","city":"中野区","address":"中野区中野2-18-4","lat":35.703088,"lon":139.668407},{"name":"コンビプラザ中野保育園","province":"東京都","city":"中野区","address":"中野区中野4-6-20","lat":35.709543,"lon":139.663949},{"name":"あけぼの保育園","province":"東京都","city":"中野区","address":"中野区上高田2-58-21","lat":35.714176,"lon":139.670415},{"name":"あさひ保育園","province":"東京都","city":"中野区","address":"中野区上高田1丁目45番8号","lat":35.711809,"lon":139.675065},{"name":"なかのさくらさくほいくえん","province":"東京都","city":"中野区","address":"中野区上高田2-41-6","lat":35.711359,"lon":139.669623},{"name":"ナーサリールーム　ベリーベアー中野","province":"東京都","city":"中野区","address":"中野区上高田1-39-14","lat":35.71049,"lon":139.674709},{"name":"なかみなみコスモ保育園","province":"東京都","city":"中野区","address":"中野区南台3丁目6番17号","lat":35.685751,"lon":139.668225},{"name":"キッズガーデン中野上高田","province":"東京都","city":"中野区","address":"中野区上高田2丁目36番2号","lat":35.711794,"lon":139.671531},{"name":"陽だまりの丘保育園","province":"東京都","city":"中野区","address":"中野区東中野5-17-3","lat":35.709296,"lon":139.688364},{"name":"東中野プチ・クレイシュ","province":"東京都","city":"中野区","address":"中野区東中野5-1-1","lat":35.706655,"lon":139.687136},{"name":"仲町保育園","province":"東京都","city":"中野区","address":"中野区中央2丁目52番15号","lat":35.699583,"lon":139.67586},{"name":"太陽の子　中野中央保育園","province":"東京都","city":"中野区","address":"中野区中央1-13-8大橋セントラルビル2階","lat":35.701461,"lon":139.686822},{"name":"橋場そらとみどりの保育園大きなおうち","province":"東京都","city":"中野区","address":"中野区中央4-18-19","lat":35.699761,"lon":139.668535},{"name":"ひまわり保育園","province":"東京都","city":"中野区","address":"中野区中央4-61-4","lat":35.702802,"lon":139.666035},{"name":"マミーズエンジェル新中野保育園","province":"東京都","city":"中野区","address":"中野区本町4-30-12","lat":35.69618,"lon":139.670085},{"name":"宮の台保育園","province":"東京都","city":"中野区","address":"中野区本町4-14-13","lat":35.694558,"lon":139.672866},{"name":"本町保育園","province":"東京都","city":"中野区","address":"中野区本町3丁目29番17号","lat":35.697075,"lon":139.677512},{"name":"鍋横保育園","province":"東京都","city":"中野区","address":"中野区本町5丁目47番13号","lat":35.693597,"lon":139.66803},{"name":"中野保育園","province":"東京都","city":"中野区","address":"中野区弥生町2丁目6番3号","lat":35.692151,"lon":139.676532},{"name":"南台保育園","province":"東京都","city":"中野区","address":"中野区弥生町6丁目2番17号","lat":35.686318,"lon":139.662387},{"name":"弥生保育園","province":"東京都","city":"中野区","address":"中野区弥生町5丁目4番8号","lat":35.686626,"lon":139.666941},{"name":"中野みなみ保育園","province":"東京都","city":"中野区","address":"中野区南台5-29-9","lat":35.681385,"lon":139.660487},{"name":"アートチャイルドケア中野南台森の保育園","province":"東京都","city":"中野区","address":"中野区南台5-15-5","lat":35.680374,"lon":139.662423},{"name":"中野南台ちとせ保育園","province":"東京都","city":"中野区","address":"中野区南台2-1-5","lat":35.683079,"lon":139.673024},{"name":"丸山保育園","province":"東京都","city":"中野区","address":"中野区丸山2丁目27番16号","lat":35.72584,"lon":139.650188},{"name":"ピノキオ幼児舎野方保育園","province":"東京都","city":"中野区","address":"中野区丸山1-6-3","lat":35.723052,"lon":139.655252},{"name":"徳田保育園","province":"東京都","city":"中野区","address":"中野区江古田3-15-2","lat":35.72874,"lon":139.663929},{"name":"なかよしの森保育園","province":"東京都","city":"中野区","address":"中野区江古田4-16-13","lat":35.725832,"lon":139.663223},{"name":"江古田ここわ保育園","province":"東京都","city":"中野区","address":"中野区江古田1丁目11番6号","lat":35.725336,"lon":139.67392},{"name":"江原保育園","province":"東京都","city":"中野区","address":"中野区江原町1丁目10番16号","lat":35.729132,"lon":139.675367},{"name":"にじいろ保育園松が丘","province":"東京都","city":"中野区","address":"中野区松が丘2-32ー3","lat":35.72293,"lon":139.672542},{"name":"沼袋西保育園","province":"東京都","city":"中野区","address":"中野区沼袋3-14-11","lat":35.717019,"lon":139.658794},{"name":"沼袋保育園","province":"東京都","city":"中野区","address":"中野区沼袋1丁目34番14号","lat":35.719708,"lon":139.665199},{"name":"松が丘保育園","province":"東京都","city":"中野区","address":"中野区沼袋2-17-5","lat":35.723038,"lon":139.667365},{"name":"ピオニイ保育園","province":"東京都","city":"中野区","address":"中野区新井2-40-3","lat":35.712853,"lon":139.662913},{"name":"中野りとるぱんぷきんず","province":"東京都","city":"中野区","address":"中野区新井4-10-10","lat":35.716356,"lon":139.66699},{"name":"野方さくら保育園","province":"東京都","city":"中野区","address":"中野区野方4-41-7","lat":35.721905,"lon":139.656955},{"name":"野方保育園","province":"東京都","city":"中野区","address":"中野区野方1丁目35番8号","lat":35.709509,"lon":139.656664},{"name":"にじいろ保育園中野野方","province":"東京都","city":"中野区","address":"中野区野方1-41-9","lat":35.710476,"lon":139.655114},{"name":"オンビーノスクエア野方","province":"東京都","city":"中野区","address":"中野区野方5-10-13","lat":35.717064,"lon":139.650922},{"name":"とちの木保育園","province":"東京都","city":"中野区","address":"中野区上鷺宮3-8-8","lat":35.732561,"lon":139.632059},{"name":"中野ひかり保育園","province":"東京都","city":"中野区","address":"中野区上鷺宮4-18-8","lat":35.735008,"lon":139.628429},{"name":"グローバルキッズ鷺ノ宮園","province":"東京都","city":"中野区","address":"中野区上鷺宮2-10-21","lat":35.727929,"lon":139.633351},{"name":"西鷺宮保育園","province":"東京都","city":"中野区","address":"中野区鷺宮5-22-14","lat":35.72657,"lon":139.632673},{"name":"鷺宮クローバー保育園","province":"東京都","city":"中野区","address":"中野区鷺宮2丁目4番3号","lat":35.724532,"lon":139.646508},{"name":"田中ナースリー若宮保育園","province":"東京都","city":"中野区","address":"中野区若宮3-6-9","lat":35.720296,"lon":139.645395},{"name":"大和保育園","province":"東京都","city":"中野区","address":"中野区若宮1丁目1番2号","lat":35.7161,"lon":139.649181},{"name":"まなびの森保育園鷺ノ宮","province":"東京都","city":"中野区","address":"中野区若宮3-23-3","lat":35.722196,"lon":139.642281},{"name":"七海保育園","province":"東京都","city":"中野区","address":"中野区大和町4-12-10","lat":35.715275,"lon":139.647039},{"name":"大和東保育園","province":"東京都","city":"中野区","address":"中野区大和町1丁目37番4号","lat":35.711992,"lon":139.65107},{"name":"聖ピオ保育園","province":"東京都","city":"中野区","address":"中野区白鷺1-15-5","lat":35.71981,"lon":139.638409},{"name":"白鷺保育園","province":"東京都","city":"中野区","address":"中野区白鷺3丁目3番24号","lat":35.721315,"lon":139.633154},{"name":"中野区保健所","province":"東京都","city":"中野区","address":"中野区中野2-17-4","lat":35.702824,"lon":139.669335},{"name":"中部すこやか福祉センター","province":"東京都","city":"中野区","address":"中野区中央3-19-1","lat":35.7004,"lon":139.674176},{"name":"北部すこやか福祉センター","province":"東京都","city":"中野区","address":"中野区江古田4-31-10","lat":35.724616,"lon":139.661418},{"name":"南部すこやか福祉センター","province":"東京都","city":"中野区","address":"中野区弥生町5-11-26","lat":35.688192,"lon":139.668377},{"name":"鷺宮すこやか福祉センター","province":"東京都","city":"中野区","address":"中野区鷺宮3-58-10","lat":35.723543,"lon":139.639201},{"name":"宮園保育園","province":"東京都","city":"中野区","address":"中野区中野1-21ー6","lat":35.70316,"lon":139.6767},{"name":"アルテ子どもと木幼保園","province":"東京都","city":"中野区","address":"中野区中野1-59-5","lat":35.70449,"lon":139.67328},{"name":"太陽の子　中野桜花保育園","province":"東京都","city":"中野区","address":"中野区中野2-14-11","lat":35.70488,"lon":139.67004},{"name":"なかのまるのなか保育園大きなおうち","province":"東京都","city":"中野区","address":"中野区中野2-18-4","lat":35.70297,"lon":139.66859},{"name":"にじいろ保育園中野駅南口","province":"東京都","city":"中野区","address":"中野区中野2-26-1","lat":35.70425,"lon":139.66631},{"name":"桃が丘さゆり保育園","province":"東京都","city":"中野区","address":"中野区中野3-19-13","lat":35.70285,"lon":139.66139},{"name":"きゃんばす中野保育園","province":"東京都","city":"中野区","address":"中野区中野3-48-8","lat":35.70511,"lon":139.66017},{"name":"コンビプラザ中野保育園","province":"東京都","city":"中野区","address":"中野区中野4-6-20","lat":35.70914,"lon":139.66389},{"name":"中野打越保育園","province":"東京都","city":"中野区","address":"中野区中野5-26ー11","lat":35.70816,"lon":139.66916},{"name":"中野ここわ保育園","province":"東京都","city":"中野区","address":"中野区中野5-4ー7","lat":35.70906,"lon":139.67216},{"name":"ピノキオ幼児舎中野","province":"東京都","city":"中野区","address":"中野区中野5丁目24番21号","lat":35.70934,"lon":139.66879},{"name":"昭和保育園","province":"東京都","city":"中野区","address":"中野区中野6ー2ー11","lat":35.70767,"lon":139.67848},{"name":"にじいろ保育園上高田","province":"東京都","city":"中野区","address":"中野区上高田1ー17ー5","lat":35.71043,"lon":139.67798},{"name":"ナーサリールーム　ベリーベアー中野","province":"東京都","city":"中野区","address":"中野区上高田1-39-14","lat":35.71053,"lon":139.67456},{"name":"キッズガーデン中野上高田","province":"東京都","city":"中野区","address":"中野区上高田2ー36ー2","lat":35.71177,"lon":139.67165},{"name":"さくらさくみらい　中野","province":"東京都","city":"中野区","address":"中野区上高田2-41-6","lat":35.71144,"lon":139.66975},{"name":"あけぼの保育園","province":"東京都","city":"中野区","address":"中野区上高田2-58-21","lat":35.71421,"lon":139.67018},{"name":"ちゃいれっく上高田保育園","province":"東京都","city":"中野区","address":"中野区上高田2-9-2","lat":35.71109,"lon":139.67293},{"name":"スターチャイルド≪東中野ナーサリー≫","province":"東京都","city":"中野区","address":"中野区東中野1-38-5","lat":35.70407,"lon":139.6866},{"name":"めばえの森保育園","province":"東京都","city":"中野区","address":"中野区東中野2丁目6番14号","lat":35.70194,"lon":139.68169},{"name":"幼保園シャローム東中野","province":"東京都","city":"中野区","address":"中野区東中野2丁目22番26号","lat":35.7046,"lon":139.68193},{"name":"東中野しらゆり保育園","province":"東京都","city":"中野区","address":"中野区東中野3-12-2","lat":35.70871,"lon":139.68237},{"name":"クオリスキッズ東中野保育園","province":"東京都","city":"中野区","address":"中野区東中野3丁目19番17号","lat":35.70847,"lon":139.6804},{"name":"シエル保育園・東中野","province":"東京都","city":"中野区","address":"中野区東中野4-11-12","lat":35.7083,"lon":139.68538},{"name":"キッズハーモニー・ひがしなかの","province":"東京都","city":"中野区","address":"中野区東中野4-4-26アトレヴィ東中野4階、5階","lat":35.70631,"lon":139.68443},{"name":"東中野プチ・クレイシュ","province":"東京都","city":"中野区","address":"中野区東中野5-1-1","lat":35.70659,"lon":139.68742},{"name":"陽だまりの丘保育園","province":"東京都","city":"中野区","address":"中野区東中野5-17-3","lat":35.70971,"lon":139.68872},{"name":"おはよう保育園東中野","province":"東京都","city":"中野区","address":"中野区東中野5-27-10ブリリア東中野パークサイドヒルズ","lat":35.70991,"lon":139.68829},{"name":"太陽の子　中野中央保育園","province":"東京都","city":"中野区","address":"中野区中央1-13-8大橋セントラルビル2階","lat":35.70142,"lon":139.68655},{"name":"ＡＩＡＩ　ＮＵＲＳＥＲＹ　中野坂上","province":"東京都","city":"中野区","address":"中野区中央2-2-3","lat":35.69766,"lon":139.68187},{"name":"こころなかのさかうえ保育園","province":"東京都","city":"中野区","address":"中野区中央2-43-12","lat":35.70037,"lon":139.67719},{"name":"ナーサリー中野の森","province":"東京都","city":"中野区","address":"中野区中央2丁目52番15号","lat":35.6994,"lon":139.67627},{"name":"仲町保育園","province":"東京都","city":"中野区","address":"中野区中央3-41-12","lat":35.69986,"lon":139.6714},{"name":"橋場そらとみどりの保育園大きなおうち","province":"東京都","city":"中野区","address":"中野区中央4-18-19","lat":35.69967,"lon":139.66858},{"name":"ひまわり保育園","province":"東京都","city":"中野区","address":"中野区中央4-61-4","lat":35.70277,"lon":139.66591},{"name":"モニカ新中野園","province":"東京都","city":"中野区","address":"中野区中央4-7-14","lat":35.69806,"lon":139.66873},{"name":"にじいろ保育園中野","province":"東京都","city":"中野区","address":"中野区中央5-48-2","lat":35.70158,"lon":139.66534},{"name":"本町保育園","province":"東京都","city":"中野区","address":"中野区本町3ー29ー17","lat":35.69714,"lon":139.67755},{"name":"マミーズエンジェル新中野保育園","province":"東京都","city":"中野区","address":"中野区本町4-30-122階","lat":35.69647,"lon":139.67053},{"name":"キッズガーデン新中野駅前","province":"東京都","city":"中野区","address":"中野区本町4-30-124階","lat":35.69647,"lon":139.67053},{"name":"コンビプラザ宮の台保育園","province":"東京都","city":"中野区","address":"中野区本町4丁目14番12号","lat":35.69454,"lon":139.67267},{"name":"鍋横保育園","province":"東京都","city":"中野区","address":"中野区本町5ー47ー13","lat":35.69341,"lon":139.66783},{"name":"さくらさくみらい　弥生町","province":"東京都","city":"中野区","address":"中野区弥生町1-43-12","lat":35.68882,"lon":139.67735},{"name":"みらいえ保育園中野富士見町","province":"東京都","city":"中野区","address":"中野区弥生町2ー48ー3","lat":35.69014,"lon":139.66954},{"name":"中野保育園","province":"東京都","city":"中野区","address":"中野区弥生町2ー6ー3","lat":35.69211,"lon":139.67648},{"name":"コンビプラザ弥生町保育園","province":"東京都","city":"中野区","address":"中野区弥生町2-41-2","lat":35.6915,"lon":139.6728},{"name":"弥生保育園","province":"東京都","city":"中野区","address":"中野区弥生町5ー4ー8","lat":35.68651,"lon":139.66707},{"name":"中野みなみ保育園","province":"東京都","city":"中野区","address":"中野区弥生町6-2-17","lat":35.68636,"lon":139.66237},{"name":"中野南台ちとせ保育園","province":"東京都","city":"中野区","address":"中野区南台2-1-5","lat":35.68312,"lon":139.67303},{"name":"南台保育園","province":"東京都","city":"中野区","address":"中野区南台3-35ー3","lat":35.68436,"lon":139.6653},{"name":"なかみなみコスモ保育園","province":"東京都","city":"中野区","address":"中野区南台3ー6ー17","lat":35.68553,"lon":139.66808},{"name":"キッズガーデン中野南台","province":"東京都","city":"中野区","address":"中野区南台4ー19ー11","lat":35.68111,"lon":139.66597},{"name":"アートチャイルドケア中野南台森の保育園","province":"東京都","city":"中野区","address":"中野区南台5-15-5","lat":35.68022,"lon":139.66254},{"name":"ピノキオ幼児舎野方保育園","province":"東京都","city":"中野区","address":"中野区丸山1-6-3","lat":35.723,"lon":139.65549},{"name":"丸山保育園","province":"東京都","city":"中野区","address":"中野区丸山2ー27ー16","lat":35.7257,"lon":139.64987},{"name":"江古田ここわ保育園","province":"東京都","city":"中野区","address":"中野区江古田1ー11ー5","lat":35.7254,"lon":139.67416},{"name":"テンダーラビング保育園　江古田","province":"東京都","city":"中野区","address":"中野区江古田1-43-5","lat":35.72638,"lon":139.67027},{"name":"徳田保育園","province":"東京都","city":"中野区","address":"中野区江古田3-15-2","lat":35.72824,"lon":139.66408},{"name":"にじいろ保育園江古田の杜","province":"東京都","city":"中野区","address":"中野区江古田3ー14ー1","lat":35.72741,"lon":139.6655},{"name":"なかよしの森保育園","province":"東京都","city":"中野区","address":"中野区江古田4-16-13","lat":35.72579,"lon":139.66319},{"name":"江原保育園","province":"東京都","city":"中野区","address":"中野区江原町1ー10ー16","lat":35.72935,"lon":139.67522},{"name":"さくらさくみらい　江原町","province":"東京都","city":"中野区","address":"中野区江原町1ー46ー1","lat":35.73092,"lon":139.67346},{"name":"中野松が丘すきっぷ保育園","province":"東京都","city":"中野区","address":"中野区松が丘1ー26ー2","lat":35.71957,"lon":139.67067},{"name":"にじいろ保育園松が丘","province":"東京都","city":"中野区","address":"中野区松が丘2-32ー3","lat":35.72327,"lon":139.67276},{"name":"沼袋保育園","province":"東京都","city":"中野区","address":"中野区沼袋1ー34ー14","lat":35.71964,"lon":139.66472},{"name":"松が丘保育園","province":"東京都","city":"中野区","address":"中野区沼袋2-17-5","lat":35.72297,"lon":139.66745},{"name":"グローバルキッズ沼袋園","province":"東京都","city":"中野区","address":"中野区沼袋2ー28ー32","lat":35.7216,"lon":139.66489},{"name":"沼袋西保育園","province":"東京都","city":"中野区","address":"中野区沼袋3-14-11","lat":35.71716,"lon":139.65924},{"name":"ピオニイ保育園","province":"東京都","city":"中野区","address":"中野区新井2-40-3","lat":35.71284,"lon":139.66301},{"name":"キッズフォレ平和の森","province":"東京都","city":"中野区","address":"中野区新井3-35-20","lat":35.71584,"lon":139.66035},{"name":"中野りとるぱんぷきんず","province":"東京都","city":"中野区","address":"中野区新井4-10-10","lat":35.71628,"lon":139.66687},{"name":"小学館アカデミーあらいやくし保育園","province":"東京都","city":"中野区","address":"中野区新井5-17-2","lat":35.71534,"lon":139.67021},{"name":"野方保育園","province":"東京都","city":"中野区","address":"中野区野方1ー35ー8","lat":35.70954,"lon":139.65637},{"name":"にじいろ保育園中野野方","province":"東京都","city":"中野区","address":"中野区野方1-41-9","lat":35.71041,"lon":139.65509},{"name":"野方さくら保育園","province":"東京都","city":"中野区","address":"中野区野方4-41-7","lat":35.72206,"lon":139.65683},{"name":"オンビーノスクエア野方","province":"東京都","city":"中野区","address":"中野区野方5-10-13","lat":35.71704,"lon":139.65086},{"name":"こどもヶ丘保育園野方園","province":"東京都","city":"中野区","address":"中野区野方6-38ー2","lat":35.72157,"lon":139.64915},{"name":"グローバルキッズ鷺ノ宮園","province":"東京都","city":"中野区","address":"中野区上鷺宮2-10-21","lat":35.72761,"lon":139.63345},{"name":"とちの木保育園","province":"東京都","city":"中野区","address":"中野区上鷺宮3-8-8","lat":35.73318,"lon":139.63185},{"name":"中野ひかり保育園","province":"東京都","city":"中野区","address":"中野区上鷺宮4-18-8","lat":35.7348,"lon":139.6288},{"name":"こどもヶ丘保育園上鷺宮園","province":"東京都","city":"中野区","address":"中野区上鷺宮5-5-6","lat":35.72881,"lon":139.62866},{"name":"鷺宮クローバー保育園","province":"東京都","city":"中野区","address":"中野区鷺宮2ー4ー3","lat":35.72467,"lon":139.64667},{"name":"にじいろ保育園鷺ノ宮","province":"東京都","city":"中野区","address":"中野区鷺宮3-44-7","lat":35.72554,"lon":139.64136},{"name":"ぽけっとランドさぎのみや保育園","province":"東京都","city":"中野区","address":"中野区鷺宮4-33-1","lat":35.72425,"lon":139.6375},{"name":"わらべ西鷺宮保育園","province":"東京都","city":"中野区","address":"中野区鷺宮5-22-14","lat":35.72654,"lon":139.63258},{"name":"七海保育園","province":"東京都","city":"中野区","address":"中野区若宮1-1-2","lat":35.71608,"lon":139.64978},{"name":"まなびの森保育園鷺ノ宮","province":"東京都","city":"中野区","address":"中野区若宮3-23-3","lat":35.72227,"lon":139.64227},{"name":"田中ナースリー若宮保育園","province":"東京都","city":"中野区","address":"中野区若宮3-6-9","lat":35.72057,"lon":139.64558},{"name":"大和東もみじの森保育園","province":"東京都","city":"中野区","address":"中野区大和町1丁目37番4号","lat":35.71192,"lon":139.65106},{"name":"田中ナースリー大和保育園","province":"東京都","city":"中野区","address":"中野区大和町4-42ー4","lat":35.7149,"lon":139.64217},{"name":"中野鷺ノ宮雲母保育園","province":"東京都","city":"中野区","address":"中野区白鷺1ー1ー4","lat":35.71589,"lon":139.63971},{"name":"聖ピオ保育園","province":"東京都","city":"中野区","address":"中野区白鷺1-15-5","lat":35.7202,"lon":139.6389},{"name":"キッズガーデン中野白鷺","province":"東京都","city":"中野区","address":"中野区白鷺1-6-10","lat":35.71609,"lon":139.63832},{"name":"白鷺保育園","province":"東京都","city":"中野区","address":"中野区白鷺3ー3ー24","lat":35.72163,"lon":139.63354},{"name":"中野江古田病院","province":"東京都","city":"中野区","address":"中野区江古田4-19-9","lat":35.72716,"lon":139.66299},{"name":"おはよう保育園東中野","province":"東京都","city":"中野区","address":"中野区東中野5-27-10ブリリア東中野パークサイドヒルズ","lat":35.71015,"lon":139.69066},{"name":"にじいろ保育園中野野方","province":"東京都","city":"中野区","address":"中野区野方1-41-9","lat":35.71015,"lon":139.65509},{"name":"中野区障害者福祉会館","province":"東京都","city":"中野区","address":"東京都中野区沼袋2丁目40-18","lat":35.72359654,"lon":139.66304021},{"name":"ＮＰＯ法人ハッピースマイル中野区東部福祉作業センター","province":"東京都","city":"中野区","address":"東京都中野区中央2丁目22-10","lat":35.70079132,"lon":139.68091739},{"name":"一般社団法人明生会事業所ワクわーく","province":"東京都","city":"中野区","address":"東京都中野区白鷺1丁目30-6","lat":35.7214961,"lon":139.63737024},{"name":"一般財団法人中野区障害者福祉事業団ここね","province":"東京都","city":"中野区","address":"東京都中野区新井2丁目8-13","lat":35.71221175,"lon":139.66480444},{"name":"一般財団法人中野区障害者福祉事業団ワ―カライズニコ","province":"東京都","city":"中野区","address":"東京都中野区新井2丁目8-13","lat":35.71221175,"lon":139.66480444},{"name":"社会福祉法人東京コロニーコロニー中野","province":"東京都","city":"中野区","address":"東京都中野区江原町2丁目6-7","lat":35.72915718,"lon":139.66831452},{"name":"社会福祉法人東京コロニー中野区仲町就労支援事業所","province":"東京都","city":"中野区","address":"東京都中野区中央3丁目19-1","lat":35.70028006,"lon":139.67381249},{"name":"AIAI NURSERY 中野坂上","province":"東京都","city":"中野区","address":"中野区中央2-2-3","lat":35.69766,"lon":139.68187},{"name":"コンビプラザ弥生町保育園","province":"東京都","city":"中野区","address":"中野区弥生町2-41-2","lat":35.69180505,"lon":139.6727677},{"name":"中野みなみ保育園","province":"東京都","city":"中野区","address":"中野区南台5-29-9","lat":35.68157,"lon":139.66032},{"name":"七海保育園","province":"東京都","city":"中野区","address":"中野区大和町4-12-10","lat":35.71541,"lon":139.64725},{"name":"AIAI NURSERY中野坂上","province":"東京都","city":"中野区","address":"中野区中央2-2-3","lat":35.69766,"lon":139.68187},{"name":"コンビプラザ弥生町保育園","province":"東京都","city":"中野区","address":"中野区弥生町2-41-2","lat":35.69136,"lon":139.67195},{"name":"中野松が丘すきっぷ保育園３１","province":"東京都","city":"中野区","address":"中野区松が丘1-26-2","lat":35.71957,"lon":139.67067},{"name":"もみじやま保育園","province":"東京都","city":"中野区","address":"中野区中野1-58-9","lat":35.70449,"lon":139.67328},{"name":"あさひ保育園","province":"東京都","city":"中野区","address":"中野区上高田1-45-8","lat":35.7117,"lon":139.67497},{"name":"仲町保育園","province":"東京都","city":"中野区","address":"中野区中央2-52-15","lat":35.6994,"lon":139.67627},{"name":"あい・あい保育園　中野坂上園","province":"東京都","city":"中野区","address":"中野区中央2-2-3","lat":35.69766,"lon":139.68187},{"name":"宮の台保育園","province":"東京都","city":"中野区","address":"中野区本町4-14-13","lat":35.69454,"lon":139.67267},{"name":"大和東保育園","province":"東京都","city":"中野区","address":"中野区大和町1-37-4","lat":35.71192,"lon":139.65106},{"name":"大和東保育園","province":"東京都","city":"中野区","address":"中野区若宮1-1-2(仮設)","lat":35.71608,"lon":139.64978},{"name":"コンビプラザ中野保育園","province":"東京都","city":"中野区","address":"中野区中野4-6-20","lat":35.70915,"lon":139.6639},{"name":"中野ここわ保育園","province":"東京都","city":"中野区","address":"中野区中野5-4-7","lat":35.70906,"lon":139.67217},{"name":"中野南台ちとせ保育園","province":"東京都","city":"中野区","address":"中野区南台2-1-5","lat":35.68312,"lon":139.67304},{"name":"ピオニイ保育園","province":"東京都","city":"中野区","address":"中野区新井2-40-3","lat":35.71285,"lon":139.66301},{"name":"キッズフォレ平和の森","province":"東京都","city":"中野区","address":"中野区新井3-35-20","lat":35.71584,"lon":139.66036},{"name":"野方さくら保育園","province":"東京都","city":"中野区","address":"中野区野方4-41-7","lat":35.72207,"lon":139.65683},{"name":"こどもヶ丘保育園野方園","province":"東京都","city":"中野区","address":"中野区野方6-38-2","lat":35.72157,"lon":139.64916},{"name":"ぽけっとランドさぎのみや保育園","province":"東京都","city":"中野区","address":"中野区鷺宮4-33-1","lat":35.72426,"lon":139.6375},{"name":"田中ナースリー大和保育園","province":"東京都","city":"中野区","address":"中野区大和町4-42-4","lat":35.71491,"lon":139.64217},{"name":"白鷺保育園","province":"東京都","city":"中野区","address":"中野区白鷺3-3-24","lat":35.72163,"lon":139.63355},{"name":"もみじやま保育園","province":"東京都","city":"中野区","address":"中野区中野1-58-9","lat":35.70391,"lon":139.67265},{"name":"区立弥生公園","province":"東京都","city":"中野区","address":"東京都中野区弥生町5丁目4","lat":35.68651484,"lon":139.66689699},{"name":"区立江古田の森公園","province":"東京都","city":"中野区","address":"東京都中野区江古田3丁目14","lat":35.73006534,"lon":139.6657647},{"name":"区立みずのとう公園","province":"東京都","city":"中野区","address":"東京都中野区江古田1丁目3","lat":35.72432456,"lon":139.67461418},{"name":"東京大学教育学部附属中等教育学校校庭","province":"東京都","city":"中野区","address":"東京都中野区南台1丁目15","lat":35.68530682,"lon":139.67376032},{"name":"都立武蔵丘高等学校校庭","province":"東京都","city":"中野区","address":"東京都中野区上鷺宮2丁目14-1","lat":35.72899512,"lon":139.63095098},{"name":"東京警察病院ヘリポート","province":"東京都","city":"中野区","address":"東京都中野区中野4丁目22-1","lat":35.70920915,"lon":139.65931337},{"name":"中野区選挙管理委員会","province":"東京都","city":"中野区","address":"中野区中野4-8-1","lat":35.707369,"lon":139.663762},{"name":"中野都税事務所","province":"東京都","city":"中野区","address":"東京都中野区中野4丁目6-15","lat":35.70966201,"lon":139.66378797},{"name":"武蔵丘高等学校","province":"東京都","city":"中野区","address":"東京都中野区上鷺宮2丁目14-1","lat":35.72899512,"lon":139.63095098},{"name":"稔ヶ丘高等学校","province":"東京都","city":"中野区","address":"東京都中野区上鷺宮5丁目11-1","lat":35.72800066,"lon":139.62576254},{"name":"富士高等学校","province":"東京都","city":"中野区","address":"東京都中野区弥生町5丁目21-1","lat":35.68959503,"lon":139.66701353},{"name":"中野工業高等学校","province":"東京都","city":"中野区","address":"東京都中野区野方3丁目5-5","lat":35.71668603,"lon":139.65667161},{"name":"鷺宮高等学校","province":"東京都","city":"中野区","address":"東京都中野区若宮3丁目46-8","lat":35.72042972,"lon":139.64432249},{"name":"中野区本庁舎","province":"東京都","city":"中野区","address":"東京都中野区中野4丁目8-1","lat":35.70733449,"lon":139.6637464},{"name":"都立稔ヶ丘高等学校","province":"東京都","city":"中野区","address":"東京都中野区上鷺宮5丁目11-1","lat":35.72800066,"lon":139.62576254},{"name":"都立富士高等学校","province":"東京都","city":"中野区","address":"東京都中野区弥生町5丁目21-1","lat":35.68959503,"lon":139.66701353},{"name":"中野区本庁舎","province":"東京都","city":"中野区","address":"中野区中野4-8-1","lat":35.707288,"lon":139.66381},{"name":"西部第一下水道事務所","province":"東京都","city":"中野区","address":"東京都中野区新井3丁目37-4","lat":35.71529745,"lon":139.6622323},{"name":"※中野区本庁舎","province":"東京都","city":"中野区","address":"東京都中野区中野4丁目8-1","lat":35.70733449,"lon":139.6637464},{"name":"桃が丘さゆり保育園","province":"東京都","city":"中野区","address":"中野区中野3-19-13","lat":35.703368,"lon":139.661475},{"name":"宮園保育園","province":"東京都","city":"中野区","address":"中野区中野1-58-9","lat":35.692559,"lon":139.67796},{"name":"打越保育園","province":"東京都","city":"中野区","address":"中野区中野5-26-12","lat":35.708151,"lon":139.668929},{"name":"昭和保育園","province":"東京都","city":"中野区","address":"中野区中野6丁目2番11号","lat":35.707788,"lon":139.678337},{"name":"もみじやま保育園","province":"東京都","city":"中野区","address":"中野区中野1丁目59番5号","lat":35.704582,"lon":139.673135},{"name":"なかのまるのなか保育園大きなおうち","province":"東京都","city":"中野区","address":"中野区中野2-18-4","lat":35.703088,"lon":139.668407},{"name":"コンビプラザ中野保育園","province":"東京都","city":"中野区","address":"中野区中野4-6-20","lat":35.709543,"lon":139.663949},{"name":"あけぼの保育園","province":"東京都","city":"中野区","address":"中野区上高田2-58-21","lat":35.714176,"lon":139.670415},{"name":"あさひ保育園","province":"東京都","city":"中野区","address":"中野区上高田1丁目45番8号","lat":35.711809,"lon":139.675065},{"name":"なかのさくらさくほいくえん","province":"東京都","city":"中野区","address":"中野区上高田2-41-6","lat":35.711359,"lon":139.669623},{"name":"ナーサリールーム　ベリーベアー中野","province":"東京都","city":"中野区","address":"中野区上高田1-39-14","lat":35.71049,"lon":139.674709},{"name":"なかみなみコスモ保育園","province":"東京都","city":"中野区","address":"中野区南台3丁目6番17号","lat":35.685751,"lon":139.668225},{"name":"キッズガーデン中野上高田","province":"東京都","city":"中野区","address":"中野区上高田2丁目36番2号","lat":35.711794,"lon":139.671531},{"name":"陽だまりの丘保育園","province":"東京都","city":"中野区","address":"中野区東中野5-17-3","lat":35.709296,"lon":139.688364},{"name":"東中野プチ・クレイシュ","province":"東京都","city":"中野区","address":"中野区東中野5-1-1","lat":35.706655,"lon":139.687136},{"name":"仲町保育園","province":"東京都","city":"中野区","address":"中野区中央2丁目52番15号","lat":35.699583,"lon":139.67586},{"name":"太陽の子　中野中央保育園","province":"東京都","city":"中野区","address":"中野区中央1-13-8大橋セントラルビル2階","lat":35.701461,"lon":139.686822},{"name":"橋場そらとみどりの保育園大きなおうち","province":"東京都","city":"中野区","address":"中野区中央4-18-19","lat":35.699761,"lon":139.668535},{"name":"ひまわり保育園","province":"東京都","city":"中野区","address":"中野区中央4-61-4","lat":35.702802,"lon":139.666035},{"name":"マミーズエンジェル新中野保育園","province":"東京都","city":"中野区","address":"中野区本町4-30-12","lat":35.69618,"lon":139.670085},{"name":"宮の台保育園","province":"東京都","city":"中野区","address":"中野区本町4-14-13","lat":35.694558,"lon":139.672866},{"name":"本町保育園","province":"東京都","city":"中野区","address":"中野区本町3丁目29番17号","lat":35.697075,"lon":139.677512},{"name":"鍋横保育園","province":"東京都","city":"中野区","address":"中野区本町5丁目47番13号","lat":35.693597,"lon":139.66803},{"name":"中野保育園","province":"東京都","city":"中野区","address":"中野区弥生町2丁目6番3号","lat":35.692151,"lon":139.676532},{"name":"南台保育園","province":"東京都","city":"中野区","address":"中野区弥生町6丁目2番17号","lat":35.686318,"lon":139.662387},{"name":"弥生保育園","province":"東京都","city":"中野区","address":"中野区弥生町5丁目4番8号","lat":35.686626,"lon":139.666941},{"name":"中野みなみ保育園","province":"東京都","city":"中野区","address":"中野区南台5-29-9","lat":35.681385,"lon":139.660487},{"name":"アートチャイルドケア中野南台森の保育園","province":"東京都","city":"中野区","address":"中野区南台5-15-5","lat":35.680374,"lon":139.662423},{"name":"中野南台ちとせ保育園","province":"東京都","city":"中野区","address":"中野区南台2-1-5","lat":35.683079,"lon":139.673024},{"name":"丸山保育園","province":"東京都","city":"中野区","address":"中野区丸山2丁目27番16号","lat":35.72584,"lon":139.650188},{"name":"ピノキオ幼児舎野方保育園","province":"東京都","city":"中野区","address":"中野区丸山1-6-3","lat":35.723052,"lon":139.655252},{"name":"徳田保育園","province":"東京都","city":"中野区","address":"中野区江古田3-15-2","lat":35.72874,"lon":139.663929},{"name":"なかよしの森保育園","province":"東京都","city":"中野区","address":"中野区江古田4-16-13","lat":35.725832,"lon":139.663223},{"name":"江古田ここわ保育園","province":"東京都","city":"中野区","address":"中野区江古田1丁目11番6号","lat":35.725336,"lon":139.67392},{"name":"江原保育園","province":"東京都","city":"中野区","address":"中野区江原町1丁目10番16号","lat":35.729132,"lon":139.675367},{"name":"にじいろ保育園松が丘","province":"東京都","city":"中野区","address":"中野区松が丘2-32ー3","lat":35.72293,"lon":139.672542},{"name":"沼袋西保育園","province":"東京都","city":"中野区","address":"中野区沼袋3-14-11","lat":35.717019,"lon":139.658794},{"name":"沼袋保育園","province":"東京都","city":"中野区","address":"中野区沼袋1丁目34番14号","lat":35.719708,"lon":139.665199},{"name":"松が丘保育園","province":"東京都","city":"中野区","address":"中野区沼袋2-17-5","lat":35.723038,"lon":139.667365},{"name":"ピオニイ保育園","province":"東京都","city":"中野区","address":"中野区新井2-40-3","lat":35.712853,"lon":139.662913},{"name":"中野りとるぱんぷきんず","province":"東京都","city":"中野区","address":"中野区新井4-10-10","lat":35.716356,"lon":139.66699},{"name":"野方さくら保育園","province":"東京都","city":"中野区","address":"中野区野方4-41-7","lat":35.721905,"lon":139.656955},{"name":"野方保育園","province":"東京都","city":"中野区","address":"中野区野方1丁目35番8号","lat":35.709509,"lon":139.656664},{"name":"にじいろ保育園中野野方","province":"東京都","city":"中野区","address":"中野区野方1-41-9","lat":35.710476,"lon":139.655114},{"name":"オンビーノスクエア野方","province":"東京都","city":"中野区","address":"中野区野方5-10-13","lat":35.717064,"lon":139.650922},{"name":"とちの木保育園","province":"東京都","city":"中野区","address":"中野区上鷺宮3-8-8","lat":35.732561,"lon":139.632059},{"name":"中野ひかり保育園","province":"東京都","city":"中野区","address":"中野区上鷺宮4-18-8","lat":35.735008,"lon":139.628429},{"name":"グローバルキッズ鷺ノ宮園","province":"東京都","city":"中野区","address":"中野区上鷺宮2-10-21","lat":35.727929,"lon":139.633351},{"name":"西鷺宮保育園","province":"東京都","city":"中野区","address":"中野区鷺宮5-22-14","lat":35.72657,"lon":139.632673},{"name":"鷺宮クローバー保育園","province":"東京都","city":"中野区","address":"中野区鷺宮2丁目4番3号","lat":35.724532,"lon":139.646508},{"name":"田中ナースリー若宮保育園","province":"東京都","city":"中野区","address":"中野区若宮3-6-9","lat":35.720296,"lon":139.645395},{"name":"大和保育園","province":"東京都","city":"中野区","address":"中野区若宮1丁目1番2号","lat":35.7161,"lon":139.649181},{"name":"まなびの森保育園鷺ノ宮","province":"東京都","city":"中野区","address":"中野区若宮3-23-3","lat":35.722196,"lon":139.642281},{"name":"七海保育園","province":"東京都","city":"中野区","address":"中野区大和町4-12-10","lat":35.715275,"lon":139.647039},{"name":"大和東保育園","province":"東京都","city":"中野区","address":"中野区大和町1丁目37番4号","lat":35.711992,"lon":139.65107},{"name":"聖ピオ保育園","province":"東京都","city":"中野区","address":"中野区白鷺1-15-5","lat":35.71981,"lon":139.638409},{"name":"白鷺保育園","province":"東京都","city":"中野区","address":"中野区白鷺3丁目3番24号","lat":35.721315,"lon":139.633154},{"name":"中野区保健所","province":"東京都","city":"中野区","address":"中野区中野2-17-4","lat":35.702824,"lon":139.669335},{"name":"中部すこやか福祉センター","province":"東京都","city":"中野区","address":"中野区中央3-19-1","lat":35.7004,"lon":139.674176},{"name":"北部すこやか福祉センター","province":"東京都","city":"中野区","address":"中野区江古田4-31-10","lat":35.724616,"lon":139.661418},{"name":"南部すこやか福祉センター","province":"東京都","city":"中野区","address":"中野区弥生町5-11-26","lat":35.688192,"lon":139.668377},{"name":"鷺宮すこやか福祉センター","province":"東京都","city":"中野区","address":"中野区鷺宮3-58-10","lat":35.723543,"lon":139.639201},{"name":"宮園保育園","province":"東京都","city":"中野区","address":"中野区中野1-21ー6","lat":35.70316,"lon":139.6767},{"name":"アルテ子どもと木幼保園","province":"東京都","city":"中野区","address":"中野区中野1-59-5","lat":35.70449,"lon":139.67328},{"name":"太陽の子　中野桜花保育園","province":"東京都","city":"中野区","address":"中野区中野2-14-11","lat":35.70488,"lon":139.67004},{"name":"なかのまるのなか保育園大きなおうち","province":"東京都","city":"中野区","address":"中野区中野2-18-4","lat":35.70297,"lon":139.66859},{"name":"にじいろ保育園中野駅南口","province":"東京都","city":"中野区","address":"中野区中野2-26-1","lat":35.70425,"lon":139.66631},{"name":"桃が丘さゆり保育園","province":"東京都","city":"中野区","address":"中野区中野3-19-13","lat":35.70285,"lon":139.66139},{"name":"きゃんばす中野保育園","province":"東京都","city":"中野区","address":"中野区中野3-48-8","lat":35.70511,"lon":139.66017},{"name":"コンビプラザ中野保育園","province":"東京都","city":"中野区","address":"中野区中野4-6-20","lat":35.70914,"lon":139.66389},{"name":"中野打越保育園","province":"東京都","city":"中野区","address":"中野区中野5-26ー11","lat":35.70816,"lon":139.66916},{"name":"中野ここわ保育園","province":"東京都","city":"中野区","address":"中野区中野5-4ー7","lat":35.70906,"lon":139.67216},{"name":"ピノキオ幼児舎中野","province":"東京都","city":"中野区","address":"中野区中野5丁目24番21号","lat":35.70934,"lon":139.66879},{"name":"昭和保育園","province":"東京都","city":"中野区","address":"中野区中野6ー2ー11","lat":35.70767,"lon":139.67848},{"name":"にじいろ保育園上高田","province":"東京都","city":"中野区","address":"中野区上高田1ー17ー5","lat":35.71043,"lon":139.67798},{"name":"ナーサリールーム　ベリーベアー中野","province":"東京都","city":"中野区","address":"中野区上高田1-39-14","lat":35.71053,"lon":139.67456},{"name":"キッズガーデン中野上高田","province":"東京都","city":"中野区","address":"中野区上高田2ー36ー2","lat":35.71177,"lon":139.67165},{"name":"さくらさくみらい　中野","province":"東京都","city":"中野区","address":"中野区上高田2-41-6","lat":35.71144,"lon":139.66975},{"name":"あけぼの保育園","province":"東京都","city":"中野区","address":"中野区上高田2-58-21","lat":35.71421,"lon":139.67018},{"name":"ちゃいれっく上高田保育園","province":"東京都","city":"中野区","address":"中野区上高田2-9-2","lat":35.71109,"lon":139.67293},{"name":"スターチャイルド≪東中野ナーサリー≫","province":"東京都","city":"中野区","address":"中野区東中野1-38-5","lat":35.70407,"lon":139.6866},{"name":"めばえの森保育園","province":"東京都","city":"中野区","address":"中野区東中野2丁目6番14号","lat":35.70194,"lon":139.68169},{"name":"幼保園シャローム東中野","province":"東京都","city":"中野区","address":"中野区東中野2丁目22番26号","lat":35.7046,"lon":139.68193},{"name":"東中野しらゆり保育園","province":"東京都","city":"中野区","address":"中野区東中野3-12-2","lat":35.70871,"lon":139.68237},{"name":"クオリスキッズ東中野保育園","province":"東京都","city":"中野区","address":"中野区東中野3丁目19番17号","lat":35.70847,"lon":139.6804},{"name":"シエル保育園・東中野","province":"東京都","city":"中野区","address":"中野区東中野4-11-12","lat":35.7083,"lon":139.68538},{"name":"キッズハーモニー・ひがしなかの","province":"東京都","city":"中野区","address":"中野区東中野4-4-26アトレヴィ東中野4階、5階","lat":35.70631,"lon":139.68443},{"name":"東中野プチ・クレイシュ","province":"東京都","city":"中野区","address":"中野区東中野5-1-1","lat":35.70659,"lon":139.68742},{"name":"陽だまりの丘保育園","province":"東京都","city":"中野区","address":"中野区東中野5-17-3","lat":35.70971,"lon":139.68872},{"name":"おはよう保育園東中野","province":"東京都","city":"中野区","address":"中野区東中野5-27-10ブリリア東中野パークサイドヒルズ","lat":35.70991,"lon":139.68829},{"name":"太陽の子　中野中央保育園","province":"東京都","city":"中野区","address":"中野区中央1-13-8大橋セントラルビル2階","lat":35.70142,"lon":139.68655},{"name":"ＡＩＡＩ　ＮＵＲＳＥＲＹ　中野坂上","province":"東京都","city":"中野区","address":"中野区中央2-2-3","lat":35.69766,"lon":139.68187},{"name":"こころなかのさかうえ保育園","province":"東京都","city":"中野区","address":"中野区中央2-43-12","lat":35.70037,"lon":139.67719},{"name":"ナーサリー中野の森","province":"東京都","city":"中野区","address":"中野区中央2丁目52番15号","lat":35.6994,"lon":139.67627},{"name":"仲町保育園","province":"東京都","city":"中野区","address":"中野区中央3-41-12","lat":35.69986,"lon":139.6714},{"name":"橋場そらとみどりの保育園大きなおうち","province":"東京都","city":"中野区","address":"中野区中央4-18-19","lat":35.69967,"lon":139.66858},{"name":"ひまわり保育園","province":"東京都","city":"中野区","address":"中野区中央4-61-4","lat":35.70277,"lon":139.66591},{"name":"モニカ新中野園","province":"東京都","city":"中野区","address":"中野区中央4-7-14","lat":35.69806,"lon":139.66873},{"name":"にじいろ保育園中野","province":"東京都","city":"中野区","address":"中野区中央5-48-2","lat":35.70158,"lon":139.66534},{"name":"本町保育園","province":"東京都","city":"中野区","address":"中野区本町3ー29ー17","lat":35.69714,"lon":139.67755},{"name":"マミーズエンジェル新中野保育園","province":"東京都","city":"中野区","address":"中野区本町4-30-122階","lat":35.69647,"lon":139.67053},{"name":"キッズガーデン新中野駅前","province":"東京都","city":"中野区","address":"中野区本町4-30-124階","lat":35.69647,"lon":139.67053},{"name":"コンビプラザ宮の台保育園","province":"東京都","city":"中野区","address":"中野区本町4丁目14番12号","lat":35.69454,"lon":139.67267},{"name":"鍋横保育園","province":"東京都","city":"中野区","address":"中野区本町5ー47ー13","lat":35.69341,"lon":139.66783},{"name":"さくらさくみらい　弥生町","province":"東京都","city":"中野区","address":"中野区弥生町1-43-12","lat":35.68882,"lon":139.67735},{"name":"みらいえ保育園中野富士見町","province":"東京都","city":"中野区","address":"中野区弥生町2ー48ー3","lat":35.69014,"lon":139.66954},{"name":"中野保育園","province":"東京都","city":"中野区","address":"中野区弥生町2ー6ー3","lat":35.69211,"lon":139.67648},{"name":"コンビプラザ弥生町保育園","province":"東京都","city":"中野区","address":"中野区弥生町2-41-2","lat":35.6915,"lon":139.6728},{"name":"弥生保育園","province":"東京都","city":"中野区","address":"中野区弥生町5ー4ー8","lat":35.68651,"lon":139.66707},{"name":"中野みなみ保育園","province":"東京都","city":"中野区","address":"中野区弥生町6-2-17","lat":35.68636,"lon":139.66237},{"name":"中野南台ちとせ保育園","province":"東京都","city":"中野区","address":"中野区南台2-1-5","lat":35.68312,"lon":139.67303},{"name":"南台保育園","province":"東京都","city":"中野区","address":"中野区南台3-35ー3","lat":35.68436,"lon":139.6653},{"name":"なかみなみコスモ保育園","province":"東京都","city":"中野区","address":"中野区南台3ー6ー17","lat":35.68553,"lon":139.66808},{"name":"キッズガーデン中野南台","province":"東京都","city":"中野区","address":"中野区南台4ー19ー11","lat":35.68111,"lon":139.66597},{"name":"アートチャイルドケア中野南台森の保育園","province":"東京都","city":"中野区","address":"中野区南台5-15-5","lat":35.68022,"lon":139.66254},{"name":"ピノキオ幼児舎野方保育園","province":"東京都","city":"中野区","address":"中野区丸山1-6-3","lat":35.723,"lon":139.65549},{"name":"丸山保育園","province":"東京都","city":"中野区","address":"中野区丸山2ー27ー16","lat":35.7257,"lon":139.64987},{"name":"江古田ここわ保育園","province":"東京都","city":"中野区","address":"中野区江古田1ー11ー5","lat":35.7254,"lon":139.67416},{"name":"テンダーラビング保育園　江古田","province":"東京都","city":"中野区","address":"中野区江古田1-43-5","lat":35.72638,"lon":139.67027},{"name":"徳田保育園","province":"東京都","city":"中野区","address":"中野区江古田3-15-2","lat":35.72824,"lon":139.66408},{"name":"にじいろ保育園江古田の杜","province":"東京都","city":"中野区","address":"中野区江古田3ー14ー1","lat":35.72741,"lon":139.6655},{"name":"なかよしの森保育園","province":"東京都","city":"中野区","address":"中野区江古田4-16-13","lat":35.72579,"lon":139.66319},{"name":"江原保育園","province":"東京都","city":"中野区","address":"中野区江原町1ー10ー16","lat":35.72935,"lon":139.67522},{"name":"さくらさくみらい　江原町","province":"東京都","city":"中野区","address":"中野区江原町1ー46ー1","lat":35.73092,"lon":139.67346},{"name":"中野松が丘すきっぷ保育園","province":"東京都","city":"中野区","address":"中野区松が丘1ー26ー2","lat":35.71957,"lon":139.67067},{"name":"にじいろ保育園松が丘","province":"東京都","city":"中野区","address":"中野区松が丘2-32ー3","lat":35.72327,"lon":139.67276},{"name":"沼袋保育園","province":"東京都","city":"中野区","address":"中野区沼袋1ー34ー14","lat":35.71964,"lon":139.66472},{"name":"松が丘保育園","province":"東京都","city":"中野区","address":"中野区沼袋2-17-5","lat":35.72297,"lon":139.66745},{"name":"グローバルキッズ沼袋園","province":"東京都","city":"中野区","address":"中野区沼袋2ー28ー32","lat":35.7216,"lon":139.66489},{"name":"沼袋西保育園","province":"東京都","city":"中野区","address":"中野区沼袋3-14-11","lat":35.71716,"lon":139.65924},{"name":"ピオニイ保育園","province":"東京都","city":"中野区","address":"中野区新井2-40-3","lat":35.71284,"lon":139.66301},{"name":"キッズフォレ平和の森","province":"東京都","city":"中野区","address":"中野区新井3-35-20","lat":35.71584,"lon":139.66035},{"name":"中野りとるぱんぷきんず","province":"東京都","city":"中野区","address":"中野区新井4-10-10","lat":35.71628,"lon":139.66687},{"name":"小学館アカデミーあらいやくし保育園","province":"東京都","city":"中野区","address":"中野区新井5-17-2","lat":35.71534,"lon":139.67021},{"name":"野方保育園","province":"東京都","city":"中野区","address":"中野区野方1ー35ー8","lat":35.70954,"lon":139.65637},{"name":"にじいろ保育園中野野方","province":"東京都","city":"中野区","address":"中野区野方1-41-9","lat":35.71041,"lon":139.65509},{"name":"野方さくら保育園","province":"東京都","city":"中野区","address":"中野区野方4-41-7","lat":35.72206,"lon":139.65683},{"name":"オンビーノスクエア野方","province":"東京都","city":"中野区","address":"中野区野方5-10-13","lat":35.71704,"lon":139.65086},{"name":"こどもヶ丘保育園野方園","province":"東京都","city":"中野区","address":"中野区野方6-38ー2","lat":35.72157,"lon":139.64915},{"name":"グローバルキッズ鷺ノ宮園","province":"東京都","city":"中野区","address":"中野区上鷺宮2-10-21","lat":35.72761,"lon":139.63345},{"name":"とちの木保育園","province":"東京都","city":"中野区","address":"中野区上鷺宮3-8-8","lat":35.73318,"lon":139.63185},{"name":"中野ひかり保育園","province":"東京都","city":"中野区","address":"中野区上鷺宮4-18-8","lat":35.7348,"lon":139.6288},{"name":"こどもヶ丘保育園上鷺宮園","province":"東京都","city":"中野区","address":"中野区上鷺宮5-5-6","lat":35.72881,"lon":139.62866},{"name":"鷺宮クローバー保育園","province":"東京都","city":"中野区","address":"中野区鷺宮2ー4ー3","lat":35.72467,"lon":139.64667},{"name":"にじいろ保育園鷺ノ宮","province":"東京都","city":"中野区","address":"中野区鷺宮3-44-7","lat":35.72554,"lon":139.64136},{"name":"ぽけっとランドさぎのみや保育園","province":"東京都","city":"中野区","address":"中野区鷺宮4-33-1","lat":35.72425,"lon":139.6375},{"name":"わらべ西鷺宮保育園","province":"東京都","city":"中野区","address":"中野区鷺宮5-22-14","lat":35.72654,"lon":139.63258},{"name":"七海保育園","province":"東京都","city":"中野区","address":"中野区若宮1-1-2","lat":35.71608,"lon":139.64978},{"name":"まなびの森保育園鷺ノ宮","province":"東京都","city":"中野区","address":"中野区若宮3-23-3","lat":35.72227,"lon":139.64227},{"name":"田中ナースリー若宮保育園","province":"東京都","city":"中野区","address":"中野区若宮3-6-9","lat":35.72057,"lon":139.64558},{"name":"大和東もみじの森保育園","province":"東京都","city":"中野区","address":"中野区大和町1丁目37番4号","lat":35.71192,"lon":139.65106},{"name":"田中ナースリー大和保育園","province":"東京都","city":"中野区","address":"中野区大和町4-42ー4","lat":35.7149,"lon":139.64217},{"name":"中野鷺ノ宮雲母保育園","province":"東京都","city":"中野区","address":"中野区白鷺1ー1ー4","lat":35.71589,"lon":139.63971},{"name":"聖ピオ保育園","province":"東京都","city":"中野区","address":"中野区白鷺1-15-5","lat":35.7202,"lon":139.6389},{"name":"キッズガーデン中野白鷺","province":"東京都","city":"中野区","address":"中野区白鷺1-6-10","lat":35.71609,"lon":139.63832},{"name":"白鷺保育園","province":"東京都","city":"中野区","address":"中野区白鷺3ー3ー24","lat":35.72163,"lon":139.63354},{"name":"中野江古田病院","province":"東京都","city":"中野区","address":"中野区江古田4-19-9","lat":35.72716,"lon":139.66299},{"name":"おはよう保育園東中野","province":"東京都","city":"中野区","address":"中野区東中野5-27-10ブリリア東中野パークサイドヒルズ","lat":35.71015,"lon":139.69066},{"name":"にじいろ保育園中野野方","province":"東京都","city":"中野区","address":"中野区野方1-41-9","lat":35.71015,"lon":139.65509},{"name":"中野区障害者福祉会館","province":"東京都","city":"中野区","address":"東京都中野区沼袋2丁目40-18","lat":35.72359654,"lon":139.66304021},{"name":"ＮＰＯ法人ハッピースマイル中野区東部福祉作業センター","province":"東京都","city":"中野区","address":"東京都中野区中央2丁目22-10","lat":35.70079132,"lon":139.68091739},{"name":"一般社団法人明生会事業所ワクわーく","province":"東京都","city":"中野区","address":"東京都中野区白鷺1丁目30-6","lat":35.7214961,"lon":139.63737024},{"name":"一般財団法人中野区障害者福祉事業団ここね","province":"東京都","city":"中野区","address":"東京都中野区新井2丁目8-13","lat":35.71221175,"lon":139.66480444},{"name":"一般財団法人中野区障害者福祉事業団ワ―カライズニコ","province":"東京都","city":"中野区","address":"東京都中野区新井2丁目8-13","lat":35.71221175,"lon":139.66480444},{"name":"社会福祉法人東京コロニーコロニー中野","province":"東京都","city":"中野区","address":"東京都中野区江原町2丁目6-7","lat":35.72915718,"lon":139.66831452},{"name":"社会福祉法人東京コロニー中野区仲町就労支援事業所","province":"東京都","city":"中野区","address":"東京都中野区中央3丁目19-1","lat":35.70028006,"lon":139.67381249},{"name":"AIAI NURSERY 中野坂上","province":"東京都","city":"中野区","address":"中野区中央2-2-3","lat":35.69766,"lon":139.68187},{"name":"コンビプラザ弥生町保育園","province":"東京都","city":"中野区","address":"中野区弥生町2-41-2","lat":35.69180505,"lon":139.6727677},{"name":"中野みなみ保育園","province":"東京都","city":"中野区","address":"中野区南台5-29-9","lat":35.68157,"lon":139.66032},{"name":"七海保育園","province":"東京都","city":"中野区","address":"中野区大和町4-12-10","lat":35.71541,"lon":139.64725},{"name":"AIAI NURSERY中野坂上","province":"東京都","city":"中野区","address":"中野区中央2-2-3","lat":35.69766,"lon":139.68187},{"name":"コンビプラザ弥生町保育園","province":"東京都","city":"中野区","address":"中野区弥生町2-41-2","lat":35.69136,"lon":139.67195},{"name":"中野松が丘すきっぷ保育園３１","province":"東京都","city":"中野区","address":"中野区松が丘1-26-2","lat":35.71957,"lon":139.67067},{"name":"もみじやま保育園","province":"東京都","city":"中野区","address":"中野区中野1-58-9","lat":35.70449,"lon":139.67328},{"name":"あさひ保育園","province":"東京都","city":"中野区","address":"中野区上高田1-45-8","lat":35.7117,"lon":139.67497},{"name":"仲町保育園","province":"東京都","city":"中野区","address":"中野区中央2-52-15","lat":35.6994,"lon":139.67627},{"name":"あい・あい保育園　中野坂上園","province":"東京都","city":"中野区","address":"中野区中央2-2-3","lat":35.69766,"lon":139.68187},{"name":"宮の台保育園","province":"東京都","city":"中野区","address":"中野区本町4-14-13","lat":35.69454,"lon":139.67267},{"name":"大和東保育園","province":"東京都","city":"中野区","address":"中野区大和町1-37-4","lat":35.71192,"lon":139.65106},{"name":"大和東保育園","province":"東京都","city":"中野区","address":"中野区若宮1-1-2(仮設)","lat":35.71608,"lon":139.64978},{"name":"コンビプラザ中野保育園","province":"東京都","city":"中野区","address":"中野区中野4-6-20","lat":35.70915,"lon":139.6639},{"name":"中野ここわ保育園","province":"東京都","city":"中野区","address":"中野区中野5-4-7","lat":35.70906,"lon":139.67217},{"name":"中野南台ちとせ保育園","province":"東京都","city":"中野区","address":"中野区南台2-1-5","lat":35.68312,"lon":139.67304},{"name":"ピオニイ保育園","province":"東京都","city":"中野区","address":"中野区新井2-40-3","lat":35.71285,"lon":139.66301},{"name":"キッズフォレ平和の森","province":"東京都","city":"中野区","address":"中野区新井3-35-20","lat":35.71584,"lon":139.66036},{"name":"野方さくら保育園","province":"東京都","city":"中野区","address":"中野区野方4-41-7","lat":35.72207,"lon":139.65683},{"name":"こどもヶ丘保育園野方園","province":"東京都","city":"中野区","address":"中野区野方6-38-2","lat":35.72157,"lon":139.64916},{"name":"ぽけっとランドさぎのみや保育園","province":"東京都","city":"中野区","address":"中野区鷺宮4-33-1","lat":35.72426,"lon":139.6375},{"name":"田中ナースリー大和保育園","province":"東京都","city":"中野区","address":"中野区大和町4-42-4","lat":35.71491,"lon":139.64217},{"name":"白鷺保育園","province":"東京都","city":"中野区","address":"中野区白鷺3-3-24","lat":35.72163,"lon":139.63355},{"name":"もみじやま保育園","province":"東京都","city":"中野区","address":"中野区中野1-58-9","lat":35.70391,"lon":139.67265},{"name":"中野区本庁舎","province":"東京都","city":"中野区","address":"東京都中野区中野4丁目8-1","lat":35.70733449,"lon":139.6637464},{"name":"都立稔ヶ丘高等学校","province":"東京都","city":"中野区","address":"東京都中野区上鷺宮5丁目11-1","lat":35.72800066,"lon":139.62576254},{"name":"都立富士高等学校","province":"東京都","city":"中野区","address":"東京都中野区弥生町5丁目21-1","lat":35.68959503,"lon":139.66701353},{"name":"中野区本庁舎","province":"東京都","city":"中野区","address":"中野区中野4-8-1","lat":35.707288,"lon":139.66381},{"name":"西部第一下水道事務所","province":"東京都","city":"中野区","address":"東京都中野区新井3丁目37-4","lat":35.71529745,"lon":139.6622323},{"name":"※中野区本庁舎","province":"東京都","city":"中野区","address":"東京都中野区中野4丁目8-1","lat":35.70733449,"lon":139.6637464},{"name":"桃が丘さゆり保育園","province":"東京都","city":"中野区","address":"中野区中野3-19-13","lat":35.703368,"lon":139.661475},{"name":"宮園保育園","province":"東京都","city":"中野区","address":"中野区中野1-58-9","lat":35.692559,"lon":139.67796},{"name":"打越保育園","province":"東京都","city":"中野区","address":"中野区中野5-26-12","lat":35.708151,"lon":139.668929},{"name":"昭和保育園","province":"東京都","city":"中野区","address":"中野区中野6丁目2番11号","lat":35.707788,"lon":139.678337},{"name":"もみじやま保育園","province":"東京都","city":"中野区","address":"中野区中野1丁目59番5号","lat":35.704582,"lon":139.673135},{"name":"なかのまるのなか保育園大きなおうち","province":"東京都","city":"中野区","address":"中野区中野2-18-4","lat":35.703088,"lon":139.668407},{"name":"コンビプラザ中野保育園","province":"東京都","city":"中野区","address":"中野区中野4-6-20","lat":35.709543,"lon":139.663949},{"name":"あけぼの保育園","province":"東京都","city":"中野区","address":"中野区上高田2-58-21","lat":35.714176,"lon":139.670415},{"name":"あさひ保育園","province":"東京都","city":"中野区","address":"中野区上高田1丁目45番8号","lat":35.711809,"lon":139.675065},{"name":"なかのさくらさくほいくえん","province":"東京都","city":"中野区","address":"中野区上高田2-41-6","lat":35.711359,"lon":139.669623},{"name":"ナーサリールーム　ベリーベアー中野","province":"東京都","city":"中野区","address":"中野区上高田1-39-14","lat":35.71049,"lon":139.674709},{"name":"なかみなみコスモ保育園","province":"東京都","city":"中野区","address":"中野区南台3丁目6番17号","lat":35.685751,"lon":139.668225},{"name":"キッズガーデン中野上高田","province":"東京都","city":"中野区","address":"中野区上高田2丁目36番2号","lat":35.711794,"lon":139.671531},{"name":"陽だまりの丘保育園","province":"東京都","city":"中野区","address":"中野区東中野5-17-3","lat":35.709296,"lon":139.688364},{"name":"東中野プチ・クレイシュ","province":"東京都","city":"中野区","address":"中野区東中野5-1-1","lat":35.706655,"lon":139.687136},{"name":"仲町保育園","province":"東京都","city":"中野区","address":"中野区中央2丁目52番15号","lat":35.699583,"lon":139.67586},{"name":"太陽の子　中野中央保育園","province":"東京都","city":"中野区","address":"中野区中央1-13-8大橋セントラルビル2階","lat":35.701461,"lon":139.686822},{"name":"橋場そらとみどりの保育園大きなおうち","province":"東京都","city":"中野区","address":"中野区中央4-18-19","lat":35.699761,"lon":139.668535},{"name":"ひまわり保育園","province":"東京都","city":"中野区","address":"中野区中央4-61-4","lat":35.702802,"lon":139.666035},{"name":"マミーズエンジェル新中野保育園","province":"東京都","city":"中野区","address":"中野区本町4-30-12","lat":35.69618,"lon":139.670085},{"name":"宮の台保育園","province":"東京都","city":"中野区","address":"中野区本町4-14-13","lat":35.694558,"lon":139.672866},{"name":"本町保育園","province":"東京都","city":"中野区","address":"中野区本町3丁目29番17号","lat":35.697075,"lon":139.677512},{"name":"鍋横保育園","province":"東京都","city":"中野区","address":"中野区本町5丁目47番13号","lat":35.693597,"lon":139.66803},{"name":"中野保育園","province":"東京都","city":"中野区","address":"中野区弥生町2丁目6番3号","lat":35.692151,"lon":139.676532},{"name":"南台保育園","province":"東京都","city":"中野区","address":"中野区弥生町6丁目2番17号","lat":35.686318,"lon":139.662387},{"name":"弥生保育園","province":"東京都","city":"中野区","address":"中野区弥生町5丁目4番8号","lat":35.686626,"lon":139.666941},{"name":"中野みなみ保育園","province":"東京都","city":"中野区","address":"中野区南台5-29-9","lat":35.681385,"lon":139.660487},{"name":"アートチャイルドケア中野南台森の保育園","province":"東京都","city":"中野区","address":"中野区南台5-15-5","lat":35.680374,"lon":139.662423},{"name":"中野南台ちとせ保育園","province":"東京都","city":"中野区","address":"中野区南台2-1-5","lat":35.683079,"lon":139.673024},{"name":"丸山保育園","province":"東京都","city":"中野区","address":"中野区丸山2丁目27番16号","lat":35.72584,"lon":139.650188},{"name":"ピノキオ幼児舎野方保育園","province":"東京都","city":"中野区","address":"中野区丸山1-6-3","lat":35.723052,"lon":139.655252},{"name":"徳田保育園","province":"東京都","city":"中野区","address":"中野区江古田3-15-2","lat":35.72874,"lon":139.663929},{"name":"なかよしの森保育園","province":"東京都","city":"中野区","address":"中野区江古田4-16-13","lat":35.725832,"lon":139.663223},{"name":"江古田ここわ保育園","province":"東京都","city":"中野区","address":"中野区江古田1丁目11番6号","lat":35.725336,"lon":139.67392},{"name":"江原保育園","province":"東京都","city":"中野区","address":"中野区江原町1丁目10番16号","lat":35.729132,"lon":139.675367},{"name":"にじいろ保育園松が丘","province":"東京都","city":"中野区","address":"中野区松が丘2-32ー3","lat":35.72293,"lon":139.672542},{"name":"沼袋西保育園","province":"東京都","city":"中野区","address":"中野区沼袋3-14-11","lat":35.717019,"lon":139.658794},{"name":"沼袋保育園","province":"東京都","city":"中野区","address":"中野区沼袋1丁目34番14号","lat":35.719708,"lon":139.665199},{"name":"松が丘保育園","province":"東京都","city":"中野区","address":"中野区沼袋2-17-5","lat":35.723038,"lon":139.667365},{"name":"ピオニイ保育園","province":"東京都","city":"中野区","address":"中野区新井2-40-3","lat":35.712853,"lon":139.662913},{"name":"中野りとるぱんぷきんず","province":"東京都","city":"中野区","address":"中野区新井4-10-10","lat":35.716356,"lon":139.66699},{"name":"野方さくら保育園","province":"東京都","city":"中野区","address":"中野区野方4-41-7","lat":35.721905,"lon":139.656955},{"name":"野方保育園","province":"東京都","city":"中野区","address":"中野区野方1丁目35番8号","lat":35.709509,"lon":139.656664},{"name":"にじいろ保育園中野野方","province":"東京都","city":"中野区","address":"中野区野方1-41-9","lat":35.710476,"lon":139.655114},{"name":"オンビーノスクエア野方","province":"東京都","city":"中野区","address":"中野区野方5-10-13","lat":35.717064,"lon":139.650922},{"name":"とちの木保育園","province":"東京都","city":"中野区","address":"中野区上鷺宮3-8-8","lat":35.732561,"lon":139.632059},{"name":"中野ひかり保育園","province":"東京都","city":"中野区","address":"中野区上鷺宮4-18-8","lat":35.735008,"lon":139.628429},{"name":"グローバルキッズ鷺ノ宮園","province":"東京都","city":"中野区","address":"中野区上鷺宮2-10-21","lat":35.727929,"lon":139.633351},{"name":"西鷺宮保育園","province":"東京都","city":"中野区","address":"中野区鷺宮5-22-14","lat":35.72657,"lon":139.632673},{"name":"鷺宮クローバー保育園","province":"東京都","city":"中野区","address":"中野区鷺宮2丁目4番3号","lat":35.724532,"lon":139.646508},{"name":"田中ナースリー若宮保育園","province":"東京都","city":"中野区","address":"中野区若宮3-6-9","lat":35.720296,"lon":139.645395},{"name":"大和保育園","province":"東京都","city":"中野区","address":"中野区若宮1丁目1番2号","lat":35.7161,"lon":139.649181},{"name":"まなびの森保育園鷺ノ宮","province":"東京都","city":"中野区","address":"中野区若宮3-23-3","lat":35.722196,"lon":139.642281},{"name":"七海保育園","province":"東京都","city":"中野区","address":"中野区大和町4-12-10","lat":35.715275,"lon":139.647039},{"name":"大和東保育園","province":"東京都","city":"中野区","address":"中野区大和町1丁目37番4号","lat":35.711992,"lon":139.65107},{"name":"聖ピオ保育園","province":"東京都","city":"中野区","address":"中野区白鷺1-15-5","lat":35.71981,"lon":139.638409},{"name":"白鷺保育園","province":"東京都","city":"中野区","address":"中野区白鷺3丁目3番24号","lat":35.721315,"lon":139.633154},{"name":"宮園保育園","province":"東京都","city":"中野区","address":"中野区中野1-21ー6","lat":35.70316,"lon":139.6767},{"name":"アルテ子どもと木幼保園","province":"東京都","city":"中野区","address":"中野区中野1-59-5","lat":35.70449,"lon":139.67328},{"name":"太陽の子　中野桜花保育園","province":"東京都","city":"中野区","address":"中野区中野2-14-11","lat":35.70488,"lon":139.67004},{"name":"なかのまるのなか保育園大きなおうち","province":"東京都","city":"中野区","address":"中野区中野2-18-4","lat":35.70297,"lon":139.66859},{"name":"にじいろ保育園中野駅南口","province":"東京都","city":"中野区","address":"中野区中野2-26-1","lat":35.70425,"lon":139.66631},{"name":"桃が丘さゆり保育園","province":"東京都","city":"中野区","address":"中野区中野3-19-13","lat":35.70285,"lon":139.66139},{"name":"きゃんばす中野保育園","province":"東京都","city":"中野区","address":"中野区中野3-48-8","lat":35.70511,"lon":139.66017},{"name":"コンビプラザ中野保育園","province":"東京都","city":"中野区","address":"中野区中野4-6-20","lat":35.70914,"lon":139.66389},{"name":"中野打越保育園","province":"東京都","city":"中野区","address":"中野区中野5-26ー11","lat":35.70816,"lon":139.66916},{"name":"中野ここわ保育園","province":"東京都","city":"中野区","address":"中野区中野5-4ー7","lat":35.70906,"lon":139.67216},{"name":"ピノキオ幼児舎中野","province":"東京都","city":"中野区","address":"中野区中野5丁目24番21号","lat":35.70934,"lon":139.66879},{"name":"昭和保育園","province":"東京都","city":"中野区","address":"中野区中野6ー2ー11","lat":35.70767,"lon":139.67848},{"name":"にじいろ保育園上高田","province":"東京都","city":"中野区","address":"中野区上高田1ー17ー5","lat":35.71043,"lon":139.67798},{"name":"ナーサリールーム　ベリーベアー中野","province":"東京都","city":"中野区","address":"中野区上高田1-39-14","lat":35.71053,"lon":139.67456},{"name":"キッズガーデン中野上高田","province":"東京都","city":"中野区","address":"中野区上高田2ー36ー2","lat":35.71177,"lon":139.67165},{"name":"さくらさくみらい　中野","province":"東京都","city":"中野区","address":"中野区上高田2-41-6","lat":35.71144,"lon":139.66975},{"name":"あけぼの保育園","province":"東京都","city":"中野区","address":"中野区上高田2-58-21","lat":35.71421,"lon":139.67018},{"name":"ちゃいれっく上高田保育園","province":"東京都","city":"中野区","address":"中野区上高田2-9-2","lat":35.71109,"lon":139.67293},{"name":"スターチャイルド≪東中野ナーサリー≫","province":"東京都","city":"中野区","address":"中野区東中野1-38-5","lat":35.70407,"lon":139.6866},{"name":"めばえの森保育園","province":"東京都","city":"中野区","address":"中野区東中野2丁目6番14号","lat":35.70194,"lon":139.68169},{"name":"幼保園シャローム東中野","province":"東京都","city":"中野区","address":"中野区東中野2丁目22番26号","lat":35.7046,"lon":139.68193},{"name":"東中野しらゆり保育園","province":"東京都","city":"中野区","address":"中野区東中野3-12-2","lat":35.70871,"lon":139.68237},{"name":"クオリスキッズ東中野保育園","province":"東京都","city":"中野区","address":"中野区東中野3丁目19番17号","lat":35.70847,"lon":139.6804},{"name":"シエル保育園・東中野","province":"東京都","city":"中野区","address":"中野区東中野4-11-12","lat":35.7083,"lon":139.68538},{"name":"キッズハーモニー・ひがしなかの","province":"東京都","city":"中野区","address":"中野区東中野4-4-26アトレヴィ東中野4階、5階","lat":35.70631,"lon":139.68443},{"name":"東中野プチ・クレイシュ","province":"東京都","city":"中野区","address":"中野区東中野5-1-1","lat":35.70659,"lon":139.68742},{"name":"陽だまりの丘保育園","province":"東京都","city":"中野区","address":"中野区東中野5-17-3","lat":35.70971,"lon":139.68872},{"name":"おはよう保育園東中野","province":"東京都","city":"中野区","address":"中野区東中野5-27-10ブリリア東中野パークサイドヒルズ","lat":35.70991,"lon":139.68829},{"name":"太陽の子　中野中央保育園","province":"東京都","city":"中野区","address":"中野区中央1-13-8大橋セントラルビル2階","lat":35.70142,"lon":139.68655},{"name":"ＡＩＡＩ　ＮＵＲＳＥＲＹ　中野坂上","province":"東京都","city":"中野区","address":"中野区中央2-2-3","lat":35.69766,"lon":139.68187},{"name":"こころなかのさかうえ保育園","province":"東京都","city":"中野区","address":"中野区中央2-43-12","lat":35.70037,"lon":139.67719},{"name":"ナーサリー中野の森","province":"東京都","city":"中野区","address":"中野区中央2丁目52番15号","lat":35.6994,"lon":139.67627},{"name":"仲町保育園","province":"東京都","city":"中野区","address":"中野区中央3-41-12","lat":35.69986,"lon":139.6714},{"name":"橋場そらとみどりの保育園大きなおうち","province":"東京都","city":"中野区","address":"中野区中央4-18-19","lat":35.69967,"lon":139.66858},{"name":"ひまわり保育園","province":"東京都","city":"中野区","address":"中野区中央4-61-4","lat":35.70277,"lon":139.66591},{"name":"モニカ新中野園","province":"東京都","city":"中野区","address":"中野区中央4-7-14","lat":35.69806,"lon":139.66873},{"name":"にじいろ保育園中野","province":"東京都","city":"中野区","address":"中野区中央5-48-2","lat":35.70158,"lon":139.66534},{"name":"本町保育園","province":"東京都","city":"中野区","address":"中野区本町3ー29ー17","lat":35.69714,"lon":139.67755},{"name":"マミーズエンジェル新中野保育園","province":"東京都","city":"中野区","address":"中野区本町4-30-122階","lat":35.69647,"lon":139.67053},{"name":"キッズガーデン新中野駅前","province":"東京都","city":"中野区","address":"中野区本町4-30-124階","lat":35.69647,"lon":139.67053},{"name":"コンビプラザ宮の台保育園","province":"東京都","city":"中野区","address":"中野区本町4丁目14番12号","lat":35.69454,"lon":139.67267},{"name":"鍋横保育園","province":"東京都","city":"中野区","address":"中野区本町5ー47ー13","lat":35.69341,"lon":139.66783},{"name":"さくらさくみらい　弥生町","province":"東京都","city":"中野区","address":"中野区弥生町1-43-12","lat":35.68882,"lon":139.67735},{"name":"みらいえ保育園中野富士見町","province":"東京都","city":"中野区","address":"中野区弥生町2ー48ー3","lat":35.69014,"lon":139.66954},{"name":"中野保育園","province":"東京都","city":"中野区","address":"中野区弥生町2ー6ー3","lat":35.69211,"lon":139.67648},{"name":"コンビプラザ弥生町保育園","province":"東京都","city":"中野区","address":"中野区弥生町2-41-2","lat":35.6915,"lon":139.6728},{"name":"弥生保育園","province":"東京都","city":"中野区","address":"中野区弥生町5ー4ー8","lat":35.68651,"lon":139.66707},{"name":"中野みなみ保育園","province":"東京都","city":"中野区","address":"中野区弥生町6-2-17","lat":35.68636,"lon":139.66237},{"name":"中野南台ちとせ保育園","province":"東京都","city":"中野区","address":"中野区南台2-1-5","lat":35.68312,"lon":139.67303},{"name":"南台保育園","province":"東京都","city":"中野区","address":"中野区南台3-35ー3","lat":35.68436,"lon":139.6653},{"name":"なかみなみコスモ保育園","province":"東京都","city":"中野区","address":"中野区南台3ー6ー17","lat":35.68553,"lon":139.66808},{"name":"キッズガーデン中野南台","province":"東京都","city":"中野区","address":"中野区南台4ー19ー11","lat":35.68111,"lon":139.66597},{"name":"アートチャイルドケア中野南台森の保育園","province":"東京都","city":"中野区","address":"中野区南台5-15-5","lat":35.68022,"lon":139.66254},{"name":"ピノキオ幼児舎野方保育園","province":"東京都","city":"中野区","address":"中野区丸山1-6-3","lat":35.723,"lon":139.65549},{"name":"丸山保育園","province":"東京都","city":"中野区","address":"中野区丸山2ー27ー16","lat":35.7257,"lon":139.64987},{"name":"江古田ここわ保育園","province":"東京都","city":"中野区","address":"中野区江古田1ー11ー5","lat":35.7254,"lon":139.67416},{"name":"テンダーラビング保育園　江古田","province":"東京都","city":"中野区","address":"中野区江古田1-43-5","lat":35.72638,"lon":139.67027},{"name":"徳田保育園","province":"東京都","city":"中野区","address":"中野区江古田3-15-2","lat":35.72824,"lon":139.66408},{"name":"にじいろ保育園江古田の杜","province":"東京都","city":"中野区","address":"中野区江古田3ー14ー1","lat":35.72741,"lon":139.6655},{"name":"なかよしの森保育園","province":"東京都","city":"中野区","address":"中野区江古田4-16-13","lat":35.72579,"lon":139.66319},{"name":"江原保育園","province":"東京都","city":"中野区","address":"中野区江原町1ー10ー16","lat":35.72935,"lon":139.67522},{"name":"さくらさくみらい　江原町","province":"東京都","city":"中野区","address":"中野区江原町1ー46ー1","lat":35.73092,"lon":139.67346},{"name":"中野松が丘すきっぷ保育園","province":"東京都","city":"中野区","address":"中野区松が丘1ー26ー2","lat":35.71957,"lon":139.67067},{"name":"にじいろ保育園松が丘","province":"東京都","city":"中野区","address":"中野区松が丘2-32ー3","lat":35.72327,"lon":139.67276},{"name":"沼袋保育園","province":"東京都","city":"中野区","address":"中野区沼袋1ー34ー14","lat":35.71964,"lon":139.66472},{"name":"松が丘保育園","province":"東京都","city":"中野区","address":"中野区沼袋2-17-5","lat":35.72297,"lon":139.66745},{"name":"グローバルキッズ沼袋園","province":"東京都","city":"中野区","address":"中野区沼袋2ー28ー32","lat":35.7216,"lon":139.66489},{"name":"沼袋西保育園","province":"東京都","city":"中野区","address":"中野区沼袋3-14-11","lat":35.71716,"lon":139.65924},{"name":"ピオニイ保育園","province":"東京都","city":"中野区","address":"中野区新井2-40-3","lat":35.71284,"lon":139.66301},{"name":"キッズフォレ平和の森","province":"東京都","city":"中野区","address":"中野区新井3-35-20","lat":35.71584,"lon":139.66035},{"name":"中野りとるぱんぷきんず","province":"東京都","city":"中野区","address":"中野区新井4-10-10","lat":35.71628,"lon":139.66687},{"name":"小学館アカデミーあらいやくし保育園","province":"東京都","city":"中野区","address":"中野区新井5-17-2","lat":35.71534,"lon":139.67021},{"name":"野方保育園","province":"東京都","city":"中野区","address":"中野区野方1ー35ー8","lat":35.70954,"lon":139.65637},{"name":"にじいろ保育園中野野方","province":"東京都","city":"中野区","address":"中野区野方1-41-9","lat":35.71041,"lon":139.65509},{"name":"野方さくら保育園","province":"東京都","city":"中野区","address":"中野区野方4-41-7","lat":35.72206,"lon":139.65683},{"name":"オンビーノスクエア野方","province":"東京都","city":"中野区","address":"中野区野方5-10-13","lat":35.71704,"lon":139.65086},{"name":"こどもヶ丘保育園野方園","province":"東京都","city":"中野区","address":"中野区野方6-38ー2","lat":35.72157,"lon":139.64915},{"name":"グローバルキッズ鷺ノ宮園","province":"東京都","city":"中野区","address":"中野区上鷺宮2-10-21","lat":35.72761,"lon":139.63345},{"name":"とちの木保育園","province":"東京都","city":"中野区","address":"中野区上鷺宮3-8-8","lat":35.73318,"lon":139.63185},{"name":"中野ひかり保育園","province":"東京都","city":"中野区","address":"中野区上鷺宮4-18-8","lat":35.7348,"lon":139.6288},{"name":"こどもヶ丘保育園上鷺宮園","province":"東京都","city":"中野区","address":"中野区上鷺宮5-5-6","lat":35.72881,"lon":139.62866},{"name":"鷺宮クローバー保育園","province":"東京都","city":"中野区","address":"中野区鷺宮2ー4ー3","lat":35.72467,"lon":139.64667},{"name":"にじいろ保育園鷺ノ宮","province":"東京都","city":"中野区","address":"中野区鷺宮3-44-7","lat":35.72554,"lon":139.64136},{"name":"ぽけっとランドさぎのみや保育園","province":"東京都","city":"中野区","address":"中野区鷺宮4-33-1","lat":35.72425,"lon":139.6375},{"name":"わらべ西鷺宮保育園","province":"東京都","city":"中野区","address":"中野区鷺宮5-22-14","lat":35.72654,"lon":139.63258},{"name":"七海保育園","province":"東京都","city":"中野区","address":"中野区若宮1-1-2","lat":35.71608,"lon":139.64978},{"name":"まなびの森保育園鷺ノ宮","province":"東京都","city":"中野区","address":"中野区若宮3-23-3","lat":35.72227,"lon":139.64227},{"name":"田中ナースリー若宮保育園","province":"東京都","city":"中野区","address":"中野区若宮3-6-9","lat":35.72057,"lon":139.64558},{"name":"大和東もみじの森保育園","province":"東京都","city":"中野区","address":"中野区大和町1丁目37番4号","lat":35.71192,"lon":139.65106},{"name":"田中ナースリー大和保育園","province":"東京都","city":"中野区","address":"中野区大和町4-42ー4","lat":35.7149,"lon":139.64217},{"name":"中野鷺ノ宮雲母保育園","province":"東京都","city":"中野区","address":"中野区白鷺1ー1ー4","lat":35.71589,"lon":139.63971},{"name":"聖ピオ保育園","province":"東京都","city":"中野区","address":"中野区白鷺1-15-5","lat":35.7202,"lon":139.6389},{"name":"キッズガーデン中野白鷺","province":"東京都","city":"中野区","address":"中野区白鷺1-6-10","lat":35.71609,"lon":139.63832},{"name":"白鷺保育園","province":"東京都","city":"中野区","address":"中野区白鷺3ー3ー24","lat":35.72163,"lon":139.63354},{"name":"中野江古田病院","province":"東京都","city":"中野区","address":"中野区江古田4-19-9","lat":35.72716,"lon":139.66299},{"name":"おはよう保育園東中野","province":"東京都","city":"中野区","address":"中野区東中野5-27-10ブリリア東中野パークサイドヒルズ","lat":35.71015,"lon":139.69066},{"name":"にじいろ保育園中野野方","province":"東京都","city":"中野区","address":"中野区野方1-41-9","lat":35.71015,"lon":139.65509},{"name":"中野区障害者福祉会館","province":"東京都","city":"中野区","address":"東京都中野区沼袋2丁目40-18","lat":35.72359654,"lon":139.66304021},{"name":"ＮＰＯ法人ハッピースマイル中野区東部福祉作業センター","province":"東京都","city":"中野区","address":"東京都中野区中央2丁目22-10","lat":35.70079132,"lon":139.68091739},{"name":"一般社団法人明生会事業所ワクわーく","province":"東京都","city":"中野区","address":"東京都中野区白鷺1丁目30-6","lat":35.7214961,"lon":139.63737024},{"name":"一般財団法人中野区障害者福祉事業団ここね","province":"東京都","city":"中野区","address":"東京都中野区新井2丁目8-13","lat":35.71221175,"lon":139.66480444},{"name":"一般財団法人中野区障害者福祉事業団ワ―カライズニコ","province":"東京都","city":"中野区","address":"東京都中野区新井2丁目8-13","lat":35.71221175,"lon":139.66480444},{"name":"社会福祉法人東京コロニーコロニー中野","province":"東京都","city":"中野区","address":"東京都中野区江原町2丁目6-7","lat":35.72915718,"lon":139.66831452},{"name":"社会福祉法人東京コロニー中野区仲町就労支援事業所","province":"東京都","city":"中野区","address":"東京都中野区中央3丁目19-1","lat":35.70028006,"lon":139.67381249},{"name":"AIAI NURSERY 中野坂上","province":"東京都","city":"中野区","address":"中野区中央2-2-3","lat":35.69766,"lon":139.68187},{"name":"コンビプラザ弥生町保育園","province":"東京都","city":"中野区","address":"中野区弥生町2-41-2","lat":35.69180505,"lon":139.6727677},{"name":"中野みなみ保育園","province":"東京都","city":"中野区","address":"中野区南台5-29-9","lat":35.68157,"lon":139.66032},{"name":"七海保育園","province":"東京都","city":"中野区","address":"中野区大和町4-12-10","lat":35.71541,"lon":139.64725},{"name":"AIAI NURSERY中野坂上","province":"東京都","city":"中野区","address":"中野区中央2-2-3","lat":35.69766,"lon":139.68187},{"name":"コンビプラザ弥生町保育園","province":"東京都","city":"中野区","address":"中野区弥生町2-41-2","lat":35.69136,"lon":139.67195},{"name":"中野松が丘すきっぷ保育園３１","province":"東京都","city":"中野区","address":"中野区松が丘1-26-2","lat":35.71957,"lon":139.67067},{"name":"もみじやま保育園","province":"東京都","city":"中野区","address":"中野区中野1-58-9","lat":35.70449,"lon":139.67328},{"name":"あさひ保育園","province":"東京都","city":"中野区","address":"中野区上高田1-45-8","lat":35.7117,"lon":139.67497},{"name":"仲町保育園","province":"東京都","city":"中野区","address":"中野区中央2-52-15","lat":35.6994,"lon":139.67627},{"name":"あい・あい保育園　中野坂上園","province":"東京都","city":"中野区","address":"中野区中央2-2-3","lat":35.69766,"lon":139.68187},{"name":"宮の台保育園","province":"東京都","city":"中野区","address":"中野区本町4-14-13","lat":35.69454,"lon":139.67267},{"name":"大和東保育園","province":"東京都","city":"中野区","address":"中野区大和町1-37-4","lat":35.71192,"lon":139.65106},{"name":"大和東保育園","province":"東京都","city":"中野区","address":"中野区若宮1-1-2(仮設)","lat":35.71608,"lon":139.64978},{"name":"コンビプラザ中野保育園","province":"東京都","city":"中野区","address":"中野区中野4-6-20","lat":35.70915,"lon":139.6639},{"name":"中野ここわ保育園","province":"東京都","city":"中野区","address":"中野区中野5-4-7","lat":35.70906,"lon":139.67217},{"name":"中野南台ちとせ保育園","province":"東京都","city":"中野区","address":"中野区南台2-1-5","lat":35.68312,"lon":139.67304},{"name":"ピオニイ保育園","province":"東京都","city":"中野区","address":"中野区新井2-40-3","lat":35.71285,"lon":139.66301},{"name":"キッズフォレ平和の森","province":"東京都","city":"中野区","address":"中野区新井3-35-20","lat":35.71584,"lon":139.66036},