{"keyword":"保育","data":[{"name":"桃が丘さゆり保育園","province":"東京都","city":"中野区","address":"中野区中野3-19-13","lat":35.703368,"lon":139.661475},{"name":"宮園保育園","province":"東京都","city":"中野区","address":"中野区中野1-58-9","lat":35.692559,"lon":139.67796},{"name":"打越保育園","province":"東京都","city":"中野区","address":"中野区中野5-26-12","lat":35.708151,"lon":139.668929},{"name":"昭和保育園","province":"東京都","city":"中野区","address":"中野区中野6丁目2番11号","lat":35.707788,"lon":139.678337},{"name":"もみじやま保育園","province":"東京都","city":"中野区","address":"中野区中野1丁目59番5号","lat":35.704582,"lon":139.673135},{"name":"なかのまるのなか保育園大きなおうち","province":"東京都","city":"中野区","address":"中野区中野2-18-4","lat":35.703088,"lon":139.668407},{"name":"コンビプラザ中野保育園","province":"東京都","city":"中野区","address":"中野区中野4-6-20","lat":35.709543,"lon":139.663949},{"name":"あけぼの保育園","province":"東京都","city":"中野区","address":"中野区上高田2-58-21","lat":35.714176,"lon":139.670415},{"name":"あさひ保育園","province":"東京都","city":"中野区","address":"中野区上高田1丁目45番8号","lat":35.711809,"lon":139.675065},{"name":"なかのさくらさくほいくえん","province":"東京都","city":"中野区","address":"中野区上高田2-41-6","lat":35.711359,"lon":139.669623},{"name":"ナーサリールーム　ベリーベアー中野","province":"東京都","city":"中野区","address":"中野区上高田1-39-14","lat":35.71049,"lon":139.674709},{"name":"なかみなみコスモ保育園","province":"東京都","city":"中野区","address":"中野区南台3丁目6番17号","lat":35.685751,"lon":139.668225},{"name":"キッズガーデン中野上高田","province":"東京都","city":"中野区","address":"中野区上高田2丁目36番2号","lat":35.711794,"lon":139.671531},{"name":"陽だまりの丘保育園","province":"東京都","city":"中野区","address":"中野区東中野5-17-3","lat":35.709296,"lon":139.688364},{"name":"東中野プチ・クレイシュ","province":"東京都","city":"中野区","address":"中野区東中野5-1-1","lat":35.706655,"lon":139.687136},{"name":"仲町保育園","province":"東京都","city":"中野区","address":"中野区中央2丁目52番15号","lat":35.699583,"lon":139.67586},{"name":"太陽の子　中野中央保育園","province":"東京都","city":"中野区","address":"中野区中央1-13-8大橋セントラルビル2階","lat":35.701461,"lon":139.686822},{"name":"橋場そらとみどりの保育園大きなおうち","province":"東京都","city":"中野区","address":"中野区中央4-18-19","lat":35.699761,"lon":139.668535},{"name":"ひまわり保育園","province":"東京都","city":"中野区","address":"中野区中央4-61-4","lat":35.702802,"lon":139.666035},{"name":"マミーズエンジェル新中野保育園","province":"東京都","city":"中野区","address":"中野区本町4-30-12","lat":35.69618,"lon":139.670085},{"name":"宮の台保育園","province":"東京都","city":"中野区","address":"中野区本町4-14-13","lat":35.694558,"lon":139.672866},{"name":"本町保育園","province":"東京都","city":"中野区","address":"中野区本町3丁目29番17号","lat":35.697075,"lon":139.677512},{"name":"鍋横保育園","province":"東京都","city":"中野区","address":"中野区本町5丁目47番13号","lat":35.693597,"lon":139.66803},{"name":"中野保育園","province":"東京都","city":"中野区","address":"中野区弥生町2丁目6番3号","lat":35.692151,"lon":139.676532},{"name":"南台保育園","province":"東京都","city":"中野区","address":"中野区弥生町6丁目2番17号","lat":35.686318,"lon":139.662387},{"name":"弥生保育園","province":"東京都","city":"中野区","address":"中野区弥生町5丁目4番8号","lat":35.686626,"lon":139.666941},{"name":"中野みなみ保育園","province":"東京都","city":"中野区","address":"中野区南台5-29-9","lat":35.681385,"lon":139.660487},{"name":"アートチャイルドケア中野南台森の保育園","province":"東京都","city":"中野区","address":"中野区南台5-15-5","lat":35.680374,"lon":139.662423},{"name":"中野南台ちとせ保育園","province":"東京都","city":"中野区","address":"中野区南台2-1-5","lat":35.683079,"lon":139.673024},{"name":"丸山保育園","province":"東京都","city":"中野区","address":"中野区丸山2丁目27番16号","lat":35.72584,"lon":139.650188},{"name":"ピノキオ幼児舎野方保育園","province":"東京都","city":"中野区","address":"中野区丸山1-6-3","lat":35.723052,"lon":139.655252},{"name":"徳田保育園","province":"東京都","city":"中野区","address":"中野区江古田3-15-2","lat":35.72874,"lon":139.663929},{"name":"なかよしの森保育園","province":"東京都","city":"中野区","address":"中野区江古田4-16-13","lat":35.725832,"lon":139.663223},{"name":"江古田ここわ保育園","province":"東京都","city":"中野区","address":"中野区江古田1丁目11番6号","lat":35.725336,"lon":139.67392},{"name":"江原保育園","province":"東京都","city":"中野区","address":"中野区江原町1丁目10番16号","lat":35.729132,"lon":139.675367},{"name":"にじいろ保育園松が丘","province":"東京都","city":"中野区","address":"中野区松が丘2-32ー3","lat":35.72293,"lon":139.672542},{"name":"沼袋西保育園","province":"東京都","city":"中野区","address":"中野区沼袋3-14-11","lat":35.717019,"lon":139.658794},{"name":"沼袋保育園","province":"東京都","city":"中野区","address":"中野区沼袋1丁目34番14号","lat":35.719708,"lon":139.665199},{"name":"松が丘保育園","province":"東京都","city":"中野区","address":"中野区沼袋2-17-5","lat":35.723038,"lon":139.667365},{"name":"ピオニイ保育園","province":"東京都","city":"中野区","address":"中野区新井2-40-3","lat":35.712853,"lon":139.662913},{"name":"中野りとるぱんぷきんず","province":"東京都","city":"中野区","address":"中野区新井4-10-10","lat":35.716356,"lon":139.66699},{"name":"野方さくら保育園","province":"東京都","city":"中野区","address":"中野区野方4-41-7","lat":35.721905,"lon":139.656955},{"name":"野方保育園","province":"東京都","city":"中野区","address":"中野区野方1丁目35番8号","lat":35.709509,"lon":139.656664},{"name":"にじいろ保育園中野野方","province":"東京都","city":"中野区","address":"中野区野方1-41-9","lat":35.710476,"lon":139.655114},{"name":"オンビーノスクエア野方","province":"東京都","city":"中野区","address":"中野区野方5-10-13","lat":35.717064,"lon":139.650922},{"name":"とちの木保育園","province":"東京都","city":"中野区","address":"中野区上鷺宮3-8-8","lat":35.732561,"lon":139.632059},{"name":"中野ひかり保育園","province":"東京都","city":"中野区","address":"中野区上鷺宮4-18-8","lat":35.735008,"lon":139.628429},{"name":"グローバルキッズ鷺ノ宮園","province":"東京都","city":"中野区","address":"中野区上鷺宮2-10-21","lat":35.727929,"lon":139.633351},{"name":"西鷺宮保育園","province":"東京都","city":"中野区","address":"中野区鷺宮5-22-14","lat":35.72657,"lon":139.632673},{"name":"鷺宮クローバー保育園","province":"東京都","city":"中野区","address":"中野区鷺宮2丁目4番3号","lat":35.724532,"lon":139.646508},{"name":"田中ナースリー若宮保育園","province":"東京都","city":"中野区","address":"中野区若宮3-6-9","lat":35.720296,"lon":139.645395},{"name":"大和保育園","province":"東京都","city":"中野区","address":"中野区若宮1丁目1番2号","lat":35.7161,"lon":139.649181},{"name":"まなびの森保育園鷺ノ宮","province":"東京都","city":"中野区","address":"中野区若宮3-23-3","lat":35.722196,"lon":139.642281},{"name":"七海保育園","province":"東京都","city":"中野区","address":"中野区大和町4-12-10","lat":35.715275,"lon":139.647039},{"name":"大和東保育園","province":"東京都","city":"中野区","address":"中野区大和町1丁目37番4号","lat":35.711992,"lon":139.65107},{"name":"聖ピオ保育園","province":"東京都","city":"中野区","address":"中野区白鷺1-15-5","lat":35.71981,"lon":139.638409},{"name":"白鷺保育園","province":"東京都","city":"中野区","address":"中野区白鷺3丁目3番24号","lat":35.721315,"lon":139.633154}]}