{"keyword":"区","data":[{"name":"中野区保健所","province":"東京都","city":"中野区","address":"中野区中野2-17-4","lat":35.702824,"lon":139.669335},{"name":"中部すこやか福祉センター","province":"東京都","city":"中野区","address":"中野区中央3-19-1","lat":35.7004,"lon":139.674176},{"name":"北部すこやか福祉センター","province":"東京都","city":"中野区","address":"中野区江古田4-31-10","lat":35.724616,"lon":139.661418},{"name":"南部すこやか福祉センター","province":"東京都","city":"中野区","address":"中野区弥生町5-11-26","lat":35.688192,"lon":139.668377},{"name":"鷺宮すこやか福祉センター","province":"東京都","city":"中野区","address":"中野区鷺宮3-58-10","lat":35.723543,"lon":139.639201},{"name":"中野区保健所","province":"東京都","city":"中野区","address":"東京都中野区中野2丁目17-4","lat":35.70282407,"lon":139.66933499},{"name":"中部すこやか福祉センター","province":"東京都","city":"中野区","address":"東京都中野区中央3丁目19-1","lat":35.70028006,"lon":139.67381249},{"name":"北部すこやか福祉センター","province":"東京都","city":"中野区","address":"東京都中野区江古田4丁目31-10","lat":35.72461583,"lon":139.66141808},{"name":"南部すこやか福祉センター","province":"東京都","city":"中野区","address":"東京都中野区弥生町5丁目11-26","lat":35.68814802,"lon":139.66844124},{"name":"鷺宮すこやか福祉センター","province":"東京都","city":"中野区","address":"東京都中野区若宮3丁目58-10","lat":35.72208222,"lon":139.64033664},{"name":"中野区保健所","province":"東京都","city":"中野区","address":"中野区中野2-17-4","lat":35.70287,"lon":139.66949},{"name":"中部すこやか福祉センター","province":"東京都","city":"中野区","address":"中野区中央3-19-1","lat":35.70008,"lon":139.67422},{"name":"北部すこやか福祉センター","province":"東京都","city":"中野区","address":"中野区江古田4-31-10","lat":35.72435,"lon":139.66159},{"name":"南部すこやか福祉センター","province":"東京都","city":"中野区","address":"中野区弥生町5-11-26","lat":35.68792,"lon":139.66827},{"name":"鷺宮すこやか福祉センター","province":"東京都","city":"中野区","address":"中野区若宮3-58-10","lat":35.7222,"lon":139.63969},{"name":"南部すこやか福祉センター","province":"東京都","city":"中野区","address":"中野区弥生町5-11-26","lat":35.68808,"lon":139.668823},{"name":"中野区保健所","province":"東京都","city":"中野区","address":"中野区中野2-17-4","lat":35.70287,"lon":139.6695},{"name":"中部すこやか福祉センター","province":"東京都","city":"中野区","address":"中野区中央3-19-1","lat":35.70009,"lon":139.67423},{"name":"鷺宮すこやか福祉センター","province":"東京都","city":"中野区","address":"中野区鷺宮3-58-10","lat":35.72442,"lon":139.64104},{"name":"鷺宮すこやか福祉センター","province":"東京都","city":"中野区","address":"中野区鷺宮3-58-10","lat":35.72433,"lon":139.64253}]}