{"keyword":"収蔵","data":[{"name":"区立弥生公園","province":"東京都","city":"中野区","address":"東京都中野区弥生町5-4","lat":35.6863389,"lon":139.6669699},{"name":"区立江古田の森公園","province":"東京都","city":"中野区","address":"東京都中野区江古田3-14","lat":35.73,"lon":139.66623},{"name":"区立みずのとう公園","province":"東京都","city":"中野区","address":"東京都中野区江古田1-3","lat":35.724759,"lon":139.674948},{"name":"立正佼成会附属佼成病院","province":"東京都","city":"中野区","address":"東京都中野区弥生町5丁目25-15","lat":35.69047273,"lon":139.66806618},{"name":"東京医療生活協同組合中野総合病院","province":"東京都","city":"中野区","address":"東京都中野区中央4丁目59-16","lat":35.70255736,"lon":139.66706576},{"name":"東京警察病院","province":"東京都","city":"中野区","address":"東京都中野区中野4丁目22-1","lat":35.70920915,"lon":139.65931337},{"name":"区立弥生公園","province":"東京都","city":"中野区","address":"東京都中野区弥生町5丁目4","lat":35.68651484,"lon":139.66689699},{"name":"区立江古田の森公園","province":"東京都","city":"中野区","address":"東京都中野区江古田3丁目14","lat":35.73006534,"lon":139.6657647},{"name":"区立みずのとう公園","province":"東京都","city":"中野区","address":"東京都中野区江古田1丁目3","lat":35.72432456,"lon":139.67461418},{"name":"立正佼成会付属佼成病院","province":"東京都","city":"中野区","address":"東京都中野区弥生町5丁目25-15","lat":35.69047273,"lon":139.66806618},{"name":"東京大学教育学部附属中等教育学校校庭","province":"東京都","city":"中野区","address":"東京都中野区南台1丁目15","lat":35.68530682,"lon":139.67376032},{"name":"都立武蔵丘高等学校校庭","province":"東京都","city":"中野区","address":"東京都中野区上鷺宮2丁目14-1","lat":35.72899512,"lon":139.63095098},{"name":"東京警察病院ヘリポート","province":"東京都","city":"中野区","address":"東京都中野区中野4丁目22-1","lat":35.70920915,"lon":139.65931337},{"name":"中野区","province":"東京都","city":"中野区","address":"中野区中野1-15-7","lat":35.70576,"lon":139.6757},{"name":"区立弥生公園","province":"東京都","city":"中野区","address":"東京都中野区弥生町5-4","lat":35.6863389,"lon":139.6669699},{"name":"区立江古田の森公園","province":"東京都","city":"中野区","address":"東京都中野区江古田3-14","lat":35.73,"lon":139.66623},{"name":"区立みずのとう公園","province":"東京都","city":"中野区","address":"東京都中野区江古田1-3","lat":35.724759,"lon":139.674948},{"name":"立正佼成会附属佼成病院","province":"東京都","city":"中野区","address":"東京都中野区弥生町5丁目25-15","lat":35.69047273,"lon":139.66806618},{"name":"東京医療生活協同組合中野総合病院","province":"東京都","city":"中野区","address":"東京都中野区中央4丁目59-16","lat":35.70255736,"lon":139.66706576},{"name":"東京警察病院","province":"東京都","city":"中野区","address":"東京都中野区中野4丁目22-1","lat":35.70920915,"lon":139.65931337},{"name":"区立弥生公園","province":"東京都","city":"中野区","address":"東京都中野区弥生町5丁目4","lat":35.68651484,"lon":139.66689699},{"name":"区立江古田の森公園","province":"東京都","city":"中野区","address":"東京都中野区江古田3丁目14","lat":35.73006534,"lon":139.6657647},{"name":"区立みずのとう公園","province":"東京都","city":"中野区","address":"東京都中野区江古田1丁目3","lat":35.72432456,"lon":139.67461418},{"name":"立正佼成会付属佼成病院","province":"東京都","city":"中野区","address":"東京都中野区弥生町5丁目25-15","lat":35.69047273,"lon":139.66806618},{"name":"東京大学教育学部附属中等教育学校校庭","province":"東京都","city":"中野区","address":"東京都中野区南台1丁目15","lat":35.68530682,"lon":139.67376032},{"name":"都立武蔵丘高等学校校庭","province":"東京都","city":"中野区","address":"東京都中野区上鷺宮2丁目14-1","lat":35.72899512,"lon":139.63095098},{"name":"東京警察病院ヘリポート","province":"東京都","city":"中野区","address":"東京都中野区中野4丁目22-1","lat":35.70920915,"lon":139.65931337},{"name":"中野区","province":"東京都","city":"中野区","address":"中野区中野1-15-7","lat":35.70576,"lon":139.6757},{"name":"区立弥生公園","province":"東京都","city":"中野区","address":"東京都中野区弥生町5-4","lat":35.6863389,"lon":139.6669699},{"name":"区立江古田の森公園","province":"東京都","city":"中野区","address":"東京都中野区江古田3-14","lat":35.73,"lon":139.66623},{"name":"区立みずのとう公園","province":"東京都","city":"中野区","address":"東京都中野区江古田1-3","lat":35.724759,"lon":139.674948},{"name":"立正佼成会附属佼成病院","province":"東京都","city":"中野区","address":"東京都中野区弥生町5丁目25-15","lat":35.69047273,"lon":139.66806618},{"name":"東京医療生活協同組合中野総合病院","province":"東京都","city":"中野区","address":"東京都中野区中央4丁目59-16","lat":35.70255736,"lon":139.66706576},{"name":"東京警察病院","province":"東京都","city":"中野区","address":"東京都中野区中野4丁目22-1","lat":35.70920915,"lon":139.65931337},{"name":"区立弥生公園","province":"東京都","city":"中野区","address":"東京都中野区弥生町5丁目4","lat":35.68651484,"lon":139.66689699},{"name":"区立江古田の森公園","province":"東京都","city":"中野区","address":"東京都中野区江古田3丁目14","lat":35.73006534,"lon":139.6657647},{"name":"区立みずのとう公園","province":"東京都","city":"中野区","address":"東京都中野区江古田1丁目3","lat":35.72432456,"lon":139.67461418},{"name":"立正佼成会付属佼成病院","province":"東京都","city":"中野区","address":"東京都中野区弥生町5丁目25-15","lat":35.69047273,"lon":139.66806618},{"name":"東京大学教育学部附属中等教育学校校庭","province":"東京都","city":"中野区","address":"東京都中野区南台1丁目15","lat":35.68530682,"lon":139.67376032},{"name":"都立武蔵丘高等学校校庭","province":"東京都","city":"中野区","address":"東京都中野区上鷺宮2丁目14-1","lat":35.72899512,"lon":139.63095098},{"name":"東京警察病院ヘリポート","province":"東京都","city":"中野区","address":"東京都中野区中野4丁目22-1","lat":35.70920915,"lon":139.65931337},{"name":"中野区","province":"東京都","city":"中野区","address":"中野区中野1-15-7","lat":35.70576,"lon":139.6757},{"name":"区立弥生公園","province":"東京都","city":"中野区","address":"東京都中野区弥生町5-4","lat":35.6863389,"lon":139.6669699},{"name":"区立江古田の森公園","province":"東京都","city":"中野区","address":"東京都中野区江古田3-14","lat":35.73,"lon":139.66623},{"name":"区立みずのとう公園","province":"東京都","city":"中野区","address":"東京都中野区江古田1-3","lat":35.724759,"lon":139.674948},{"name":"立正佼成会附属佼成病院","province":"東京都","city":"中野区","address":"東京都中野区弥生町5丁目25-15","lat":35.69047273,"lon":139.66806618},{"name":"東京医療生活協同組合中野総合病院","province":"東京都","city":"中野区","address":"東京都中野区中央4丁目59-16","lat":35.70255736,"lon":139.66706576},{"name":"東京警察病院","province":"東京都","city":"中野区","address":"東京都中野区中野4丁目22-1","lat":35.70920915,"lon":139.65931337},{"name":"立正佼成会付属佼成病院","province":"東京都","city":"中野区","address":"東京都中野区弥生町5丁目25-15","lat":35.69047273,"lon":139.66806618},{"name":"東京大学教育学部附属中等教育学校校庭","province":"東京都","city":"中野区","address":"東京都中野区南台1丁目15","lat":35.68530682,"lon":139.67376032},{"name":"都立武蔵丘高等学校校庭","province":"東京都","city":"中野区","address":"東京都中野区上鷺宮2丁目14-1","lat":35.72899512,"lon":139.63095098},{"name":"東京警察病院ヘリポート","province":"東京都","city":"中野区","address":"東京都中野区中野4丁目22-1","lat":35.70920915,"lon":139.65931337},{"name":"中野区","province":"東京都","city":"中野区","address":"中野区中野1-15-7","lat":35.70576,"lon":139.6757},{"name":"区立弥生公園","province":"東京都","city":"中野区","address":"東京都中野区弥生町5-4","lat":35.6863389,"lon":139.6669699},{"name":"区立江古田の森公園","province":"東京都","city":"中野区","address":"東京都中野区江古田3-14","lat":35.73,"lon":139.66623},{"name":"区立みずのとう公園","province":"東京都","city":"中野区","address":"東京都中野区江古田1-3","lat":35.724759,"lon":139.674948},{"name":"立正佼成会附属佼成病院","province":"東京都","city":"中野区","address":"東京都中野区弥生町5丁目25-15","lat":35.69047273,"lon":139.66806618},{"name":"東京医療生活協同組合中野総合病院","province":"東京都","city":"中野区","address":"東京都中野区中央4丁目59-16","lat":35.70255736,"lon":139.66706576},{"name":"東京警察病院","province":"東京都","city":"中野区","address":"東京都中野区中野4丁目22-1","lat":35.70920915,"lon":139.65931337},{"name":"立正佼成会付属佼成病院","province":"東京都","city":"中野区","address":"東京都中野区弥生町5丁目25-15","lat":35.69047273,"lon":139.66806618},{"name":"中野区","province":"東京都","city":"中野区","address":"中野区中野1-15-7","lat":35.70576,"lon":139.6757},{"name":"区立弥生公園","province":"東京都","city":"中野区","address":"東京都中野区弥生町5-4","lat":35.6863389,"lon":139.6669699},{"name":"区立江古田の森公園","province":"東京都","city":"中野区","address":"東京都中野区江古田3-14","lat":35.73,"lon":139.66623},{"name":"区立みずのとう公園","province":"東京都","city":"中野区","address":"東京都中野区江古田1-3","lat":35.724759,"lon":139.674948},{"name":"立正佼成会附属佼成病院","province":"東京都","city":"中野区","address":"東京都中野区弥生町5丁目25-15","lat":35.69047273,"lon":139.66806618},{"name":"東京医療生活協同組合中野総合病院","province":"東京都","city":"中野区","address":"東京都中野区中央4丁目59-16","lat":35.70255736,"lon":139.66706576},{"name":"東京警察病院","province":"東京都","city":"中野区","address":"東京都中野区中野4丁目22-1","lat":35.70920915,"lon":139.65931337},{"name":"立正佼成会付属佼成病院","province":"東京都","city":"中野区","address":"東京都中野区弥生町5丁目25-15","lat":35.69047273,"lon":139.66806618},{"name":"中野区","province":"東京都","city":"中野区","address":"中野区中野1-15-7","lat":35.70576,"lon":139.6757},{"name":"区立弥生公園","province":"東京都","city":"中野区","address":"東京都中野区弥生町5-4","lat":35.6863389,"lon":139.6669699},{"name":"区立江古田の森公園","province":"東京都","city":"中野区","address":"東京都中野区江古田3-14","lat":35.73,"lon":139.66623},{"name":"区立みずのとう公園","province":"東京都","city":"中野区","address":"東京都中野区江古田1-3","lat":35.724759,"lon":139.674948},{"name":"立正佼成会附属佼成病院","province":"東京都","city":"中野区","address":"東京都中野区弥生町5丁目25-15","lat":35.69047273,"lon":139.66806618},{"name":"東京医療生活協同組合中野総合病院","province":"東京都","city":"中野区","address":"東京都中野区中央4丁目59-16","lat":35.70255736,"lon":139.66706576},{"name":"東京警察病院","province":"東京都","city":"中野区","address":"東京都中野区中野4丁目22-1","lat":35.70920915,"lon":139.65931337},{"name":"立正佼成会付属佼成病院","province":"東京都","city":"中野区","address":"東京都中野区弥生町5丁目25-15","lat":35.69047273,"lon":139.66806618},{"name":"中野区","province":"東京都","city":"中野区","address":"中野区中野1-15-7","lat":35.70576,"lon":139.6757},{"name":"区立弥生公園","province":"東京都","city":"中野区","address":"東京都中野区弥生町5-4","lat":35.6863389,"lon":139.6669699},{"name":"区立江古田の森公園","province":"東京都","city":"中野区","address":"東京都中野区江古田3-14","lat":35.73,"lon":139.66623},{"name":"区立みずのとう公園","province":"東京都","city":"中野区","address":"東京都中野区江古田1-3","lat":35.724759,"lon":139.674948},{"name":"立正佼成会附属佼成病院","province":"東京都","city":"中野区","address":"東京都中野区弥生町5丁目25-15","lat":35.69047273,"lon":139.66806618},{"name":"東京医療生活協同組合中野総合病院","province":"東京都","city":"中野区","address":"東京都中野区中央4丁目59-16","lat":35.70255736,"lon":139.66706576},{"name":"東京警察病院","province":"東京都","city":"中野区","address":"東京都中野区中野4丁目22-1","lat":35.70920915,"lon":139.65931337},{"name":"立正佼成会付属佼成病院","province":"東京都","city":"中野区","address":"東京都中野区弥生町5丁目25-15","lat":35.69047273,"lon":139.66806618},{"name":"中野区","province":"東京都","city":"中野区","address":"中野区中野1-15-7","lat":35.70576,"lon":139.6757},{"name":"区立弥生公園","province":"東京都","city":"中野区","address":"東京都中野区弥生町5-4","lat":35.6863389,"lon":139.6669699},{"name":"区立江古田の森公園","province":"東京都","city":"中野区","address":"東京都中野区江古田3-14","lat":35.73,"lon":139.66623},{"name":"区立みずのとう公園","province":"東京都","city":"中野区","address":"東京都中野区江古田1-3","lat":35.724759,"lon":139.674948},{"name":"立正佼成会附属佼成病院","province":"東京都","city":"中野区","address":"東京都中野区弥生町5丁目25-15","lat":35.69047273,"lon":139.66806618},{"name":"東京医療生活協同組合中野総合病院","province":"東京都","city":"中野区","address":"東京都中野区中央4丁目59-16","lat":35.70255736,"lon":139.66706576},{"name":"東京警察病院","province":"東京都","city":"中野区","address":"東京都中野区中野4丁目22-1","lat":35.70920915,"lon":139.65931337},{"name":"立正佼成会付属佼成病院","province":"東京都","city":"中野区","address":"東京都中野区弥生町5丁目25-15","lat":35.69047273,"lon":139.66806618},{"name":"中野区","province":"東京都","city":"中野区","address":"中野区中野1-15-7","lat":35.70576,"lon":139.6757},{"name":"区立弥生公園","province":"東京都","city":"中野区","address":"東京都中野区弥生町5-4","lat":35.6863389,"lon":139.6669699},{"name":"区立江古田の森公園","province":"東京都","city":"中野区","address":"東京都中野区江古田3-14","lat":35.73,"lon":139.66623},{"name":"区立みずのとう公園","province":"東京都","city":"中野区","address":"東京都中野区江古田1-3","lat":35.724759,"lon":139.674948},{"name":"立正佼成会附属佼成病院","province":"東京都","city":"中野区","address":"東京都中野区弥生町5丁目25-15","lat":35.69047273,"lon":139.66806618},{"name":"東京医療生活協同組合中野総合病院","province":"東京都","city":"中野区","address":"東京都中野区中央4丁目59-16","lat":35.70255736,"lon":139.66706576},{"name":"東京警察病院","province":"東京都","city":"中野区","address":"東京都中野区中野4丁目22-1","lat":35.70920915,"lon":139.65931337},{"name":"立正佼成会付属佼成病院","province":"東京都","city":"中野区","address":"東京都中野区弥生町5丁目25-15","lat":35.69047273,"lon":139.66806618},{"name":"中野区","province":"東京都","city":"中野区","address":"中野区中野1-15-7","lat":35.70576,"lon":139.6757},{"name":"区立弥生公園","province":"東京都","city":"中野区","address":"東京都中野区弥生町5-4","lat":35.6863389,"lon":139.6669699},{"name":"区立江古田の森公園","province":"東京都","city":"中野区","address":"東京都中野区江古田3-14","lat":35.73,"lon":139.66623},{"name":"区立みずのとう公園","province":"東京都","city":"中野区","address":"東京都中野区江古田1-3","lat":35.724759,"lon":139.674948},{"name":"中野区","province":"東京都","city":"中野区","address":"中野区中野1-15-7","lat":35.70576,"lon":139.6757},{"name":"区立弥生公園","province":"東京都","city":"中野区","address":"東京都中野区弥生町5-4","lat":35.6863389,"lon":139.6669699},{"name":"区立江古田の森公園","province":"東京都","city":"中野区","address":"東京都中野区江古田3-14","lat":35.73,"lon":139.66623},{"name":"区立みずのとう公園","province":"東京都","city":"中野区","address":"東京都中野区江古田1-3","lat":35.724759,"lon":139.674948},{"name":"中野区","province":"東京都","city":"中野区","address":"中野区中野1-15-7","lat":35.70576,"lon":139.6757},{"name":"区立弥生公園","province":"東京都","city":"中野区","address":"東京都中野区弥生町5-4","lat":35.6863389,"lon":139.6669699},{"name":"区立江古田の森公園","province":"東京都","city":"中野区","address":"東京都中野区江古田3-14","lat":35.73,"lon":139.66623},{"name":"区立みずのとう公園","province":"東京都","city":"中野区","address":"東京都中野区江古田1-3","lat":35.724759,"lon":139.674948},{"name":"中野区","province":"東京都","city":"中野区","address":"中野区中野1-15-7","lat":35.70576,"lon":139.6757},{"name":"区立弥生公園","province":"東京都","city":"中野区","address":"東京都中野区弥生町5-4","lat":35.6863389,"lon":139.6669699},{"name":"区立江古田の森公園","province":"東京都","city":"中野区","address":"東京都中野区江古田3-14","lat":35.73,"lon":139.66623},{"name":"区立みずのとう公園","province":"東京都","city":"中野区","address":"東京都中野区江古田1-3","lat":35.724759,"lon":139.674948},{"name":"中野区","province":"東京都","city":"中野区","address":"中野区中野1-15-7","lat":35.70576,"lon":139.6757},{"name":"区立弥生公園","province":"東京都","city":"中野区","address":"東京都中野区弥生町5-4","lat":35.6863389,"lon":139.6669699},{"name":"区立江古田の森公園","province":"東京都","city":"中野区","address":"東京都中野区江古田3-14","lat":35.73,"lon":139.66623},{"name":"区立みずのとう公園","province":"東京都","city":"中野区","address":"東京都中野区江古田1-3","lat":35.724759,"lon":139.674948},{"name":"中野区","province":"東京都","city":"中野区","address":"中野区中野1-15-7","lat":35.70576,"lon":139.6757},{"name":"区立弥生公園","province":"東京都","city":"中野区","address":"東京都中野区弥生町5-4","lat":35.6863389,"lon":139.6669699},{"name":"区立江古田の森公園","province":"東京都","city":"中野区","address":"東京都中野区江古田3-14","lat":35.73,"lon":139.66623},{"name":"区立みずのとう公園","province":"東京都","city":"中野区","address":"東京都中野区江古田1-3","lat":35.724759,"lon":139.674948},{"name":"中野区","province":"東京都","city":"中野区","address":"中野区中野1-15-7","lat":35.70576,"lon":139.6757},{"name":"区立弥生公園","province":"東京都","city":"中野区","address":"東京都中野区弥生町5-4","lat":35.6863389,"lon":139.6669699},{"name":"区立江古田の森公園","province":"東京都","city":"中野区","address":"東京都中野区江古田3-14","lat":35.73,"lon":139.66623},{"name":"区立みずのとう公園","province":"東京都","city":"中野区","address":"東京都中野区江古田1-3","lat":35.724759,"lon":139.674948},{"name":"中野区","province":"東京都","city":"中野区","address":"中野区中野1-15-7","lat":35.70576,"lon":139.6757},{"name":"区立弥生公園","province":"東京都","city":"中野区","address":"東京都中野区弥生町5-4","lat":35.6863389,"lon":139.6669699},{"name":"区立江古田の森公園","province":"東京都","city":"中野区","address":"東京都中野区江古田3-14","lat":35.73,"lon":139.66623},{"name":"区立みずのとう公園","province":"東京都","city":"中野区","address":"東京都中野区江古田1-3","lat":35.724759,"lon":139.674948},{"name":"中野区","province":"東京都","city":"中野区","address":"中野区中野1-15-7","lat":35.70576,"lon":139.6757},{"name":"区立弥生公園","province":"東京都","city":"中野区","address":"東京都中野区弥生町5-4","lat":35.6863389,"lon":139.6669699},{"name":"区立江古田の森公園","province":"東京都","city":"中野区","address":"東京都中野区江古田3-14","lat":35.73,"lon":139.66623},{"name":"区立みずのとう公園","province":"東京都","city":"中野区","address":"東京都中野区江古田1-3","lat":35.724759,"lon":139.674948},{"name":"中野区","province":"東京都","city":"中野区","address":"中野区中野1-15-7","lat":35.70576,"lon":139.6757},{"name":"区立弥生公園","province":"東京都","city":"中野区","address":"東京都中野区弥生町5-4","lat":35.6863389,"lon":139.6669699},{"name":"区立江古田の森公園","province":"東京都","city":"中野区","address":"東京都中野区江古田3-14","lat":35.73,"lon":139.66623},{"name":"区立みずのとう公園","province":"東京都","city":"中野区","address":"東京都中野区江古田1-3","lat":35.724759,"lon":139.674948},{"name":"中野区","province":"東京都","city":"中野区","address":"中野区中野1-15-7","lat":35.70576,"lon":139.6757},{"name":"区立弥生公園","province":"東京都","city":"中野区","address":"東京都中野区弥生町5-4","lat":35.6863389,"lon":139.6669699},{"name":"区立江古田の森公園","province":"東京都","city":"中野区","address":"東京都中野区江古田3-14","lat":35.73,"lon":139.66623},{"name":"区立みずのとう公園","province":"東京都","city":"中野区","address":"東京都中野区江古田1-3","lat":35.724759,"lon":139.674948},{"name":"中野区","province":"東京都","city":"中野区","address":"中野区中野1-15-7","lat":35.70576,"lon":139.6757},{"name":"区立弥生公園","province":"東京都","city":"中野区","address":"東京都中野区弥生町5-4","lat":35.6863389,"lon":139.6669699},{"name":"区立江古田の森公園","province":"東京都","city":"中野区","address":"東京都中野区江古田3-14","lat":35.73,"lon":139.66623},{"name":"区立みずのとう公園","province":"東京都","city":"中野区","address":"東京都中野区江古田1-3","lat":35.724759,"lon":139.674948},{"name":"中野区","province":"東京都","city":"中野区","address":"中野区中野1-15-7","lat":35.70576,"lon":139.6757},{"name":"区立弥生公園","province":"東京都","city":"中野区","address":"東京都中野区弥生町5-4","lat":35.6863389,"lon":139.6669699},{"name":"区立江古田の森公園","province":"東京都","city":"中野区","address":"東京都中野区江古田3-14","lat":35.73,"lon":139.66623},{"name":"区立みずのとう公園","province":"東京都","city":"中野区","address":"東京都中野区江古田1-3","lat":35.724759,"lon":139.674948},{"name":"中野区","province":"東京都","city":"中野区","address":"中野区中野1-15-7","lat":35.70576,"lon":139.6757},{"name":"区立弥生公園","province":"東京都","city":"中野区","address":"東京都中野区弥生町5-4","lat":35.6863389,"lon":139.6669699},{"name":"区立江古田の森公園","province":"東京都","city":"中野区","address":"東京都中野区江古田3-14","lat":35.73,"lon":139.66623},{"name":"区立みずのとう公園","province":"東京都","city":"中野区","address":"東京都中野区江古田1-3","lat":35.724759,"lon":139.674948},{"name":"中野区","province":"東京都","city":"中野区","address":"中野区中野1-15-7","lat":35.70576,"lon":139.6757},{"name":"区立弥生公園","province":"東京都","city":"中野区","address":"東京都中野区弥生町5-4","lat":35.6863389,"lon":139.6669699},{"name":"区立江古田の森公園","province":"東京都","city":"中野区","address":"東京都中野区江古田3-14","lat":35.73,"lon":139.66623},{"name":"区立みずのとう公園","province":"東京都","city":"中野区","address":"東京都中野区江古田1-3","lat":35.724759,"lon":139.674948},{"name":"中野区","province":"東京都","city":"中野区","address":"中野区中野1-15-7","lat":35.70576,"lon":139.6757},{"name":"区立弥生公園","province":"東京都","city":"中野区","address":"東京都中野区弥生町5-4","lat":35.6863389,"lon":139.6669699},{"name":"区立江古田の森公園","province":"東京都","city":"中野区","address":"東京都中野区江古田3-14","lat":35.73,"lon":139.66623},{"name":"区立みずのとう公園","province":"東京都","city":"中野区","address":"東京都中野区江古田1-3","lat":35.724759,"lon":139.674948},{"name":"中野区","province":"東京都","city":"中野区","address":"中野区中野1-15-7","lat":35.70576,"lon":139.6757},{"name":"区立弥生公園","province":"東京都","city":"中野区","address":"東京都中野区弥生町5-4","lat":35.6863389,"lon":139.6669699},{"name":"区立江古田の森公園","province":"東京都","city":"中野区","address":"東京都中野区江古田3-14","lat":35.73,"lon":139.66623},{"name":"区立みずのとう公園","province":"東京都","city":"中野区","address":"東京都中野区江古田1-3","lat":35.724759,"lon":139.674948},{"name":"中野区","province":"東京都","city":"中野区","address":"中野区中野1-15-7","lat":35.70576,"lon":139.6757},{"name":"区立弥生公園","province":"東京都","city":"中野区","address":"東京都中野区弥生町5-4","lat":35.6863389,"lon":139.6669699},{"name":"区立江古田の森公園","province":"東京都","city":"中野区","address":"東京都中野区江古田3-14","lat":35.73,"lon":139.66623},{"name":"区立みずのとう公園","province":"東京都","city":"中野区","address":"東京都中野区江古田1-3","lat":35.724759,"lon":139.674948},{"name":"中野区","province":"東京都","city":"中野区","address":"中野区中野1-15-7","lat":35.70576,"lon":139.6757},{"name":"区立弥生公園","province":"東京都","city":"中野区","address":"東京都中野区弥生町5-4","lat":35.6863389,"lon":139.6669699},{"name":"区立江古田の森公園","province":"東京都","city":"中野区","address":"東京都中野区江古田3-14","lat":35.73,"lon":139.66623},{"name":"区立みずのとう公園","province":"東京都","city":"中野区","address":"東京都中野区江古田1-3","lat":35.724759,"lon":139.674948},{"name":"中野区","province":"東京都","city":"中野区","address":"中野区中野1-15-7","lat":35.70576,"lon":139.6757},{"name":"区立弥生公園","province":"東京都","city":"中野区","address":"東京都中野区弥生町5-4","lat":35.6863389,"lon":139.6669699},{"name":"区立江古田の森公園","province":"東京都","city":"中野区","address":"東京都中野区江古田3-14","lat":35.73,"lon":139.66623},{"name":"区立みずのとう公園","province":"東京都","city":"中野区","address":"東京都中野区江古田1-3","lat":35.724759,"lon":139.674948},{"name":"中野区","province":"東京都","city":"中野区","address":"中野区中野1-15-7","lat":35.70576,"lon":139.6757},{"name":"区立弥生公園","province":"東京都","city":"中野区","address":"東京都中野区弥生町5-4","lat":35.6863389,"lon":139.6669699},{"name":"区立江古田の森公園","province":"東京都","city":"中野区","address":"東京都中野区江古田3-14","lat":35.73,"lon":139.66623},{"name":"区立みずのとう公園","province":"東京都","city":"中野区","address":"東京都中野区江古田1-3","lat":35.724759,"lon":139.674948},{"name":"中野区","province":"東京都","city":"中野区","address":"中野区中野1-15-7","lat":35.70576,"lon":139.6757},{"name":"区立弥生公園","province":"東京都","city":"中野区","address":"東京都中野区弥生町5-4","lat":35.6863389,"lon":139.6669699},{"name":"区立江古田の森公園","province":"東京都","city":"中野区","address":"東京都中野区江古田3-14","lat":35.73,"lon":139.66623},{"name":"区立みずのとう公園","province":"東京都","city":"中野区","address":"東京都中野区江古田1-3","lat":35.724759,"lon":139.674948},{"name":"中野区","province":"東京都","city":"中野区","address":"中野区中野1-15-7","lat":35.70576,"lon":139.6757},{"name":"区立弥生公園","province":"東京都","city":"中野区","address":"東京都中野区弥生町5-4","lat":35.6863389,"lon":139.6669699},{"name":"区立江古田の森公園","province":"東京都","city":"中野区","address":"東京都中野区江古田3-14","lat":35.73,"lon":139.66623},{"name":"区立みずのとう公園","province":"東京都","city":"中野区","address":"東京都中野区江古田1-3","lat":35.724759,"lon":139.674948},{"name":"区立弥生公園","province":"東京都","city":"中野区","address":"東京都中野区弥生町5-4","lat":35.6863389,"lon":139.6669699},{"name":"区立江古田の森公園","province":"東京都","city":"中野区","address":"東京都中野区江古田3-14","lat":35.73,"lon":139.66623},{"name":"区立みずのとう公園","province":"東京都","city":"中野区","address":"東京都中野区江古田1-3","lat":35.724759,"lon":139.674948},{"name":"区立弥生公園","province":"東京都","city":"中野区","address":"東京都中野区弥生町5-4","lat":35.6863389,"lon":139.6669699},{"name":"区立江古田の森公園","province":"東京都","city":"中野区","address":"東京都中野区江古田3-14","lat":35.73,"lon":139.66623},{"name":"区立みずのとう公園","province":"東京都","city":"中野区","address":"東京都中野区江古田1-3","lat":35.724759,"lon":139.674948},{"name":"区立弥生公園","province":"東京都","city":"中野区","address":"東京都中野区弥生町5-4","lat":35.6863389,"lon":139.6669699},{"name":"区立江古田の森公園","province":"東京都","city":"中野区","address":"東京都中野区江古田3-14","lat":35.73,"lon":139.66623},{"name":"区立みずのとう公園","province":"東京都","city":"中野区","address":"東京都中野区江古田1-3","lat":35.724759,"lon":139.674948},{"name":"区立弥生公園","province":"東京都","city":"中野区","address":"東京都中野区弥生町5-4","lat":35.6863389,"lon":139.6669699},{"name":"区立江古田の森公園","province":"東京都","city":"中野区","address":"東京都中野区江古田3-14","lat":35.73,"lon":139.66623},{"name":"区立みずのとう公園","province":"東京都","city":"中野区","address":"東京都中野区江古田1-3","lat":35.724759,"lon":139.674948},{"name":"区立弥生公園","province":"東京都","city":"中野区","address":"東京都中野区弥生町5-4","lat":35.6863389,"lon":139.6669699},{"name":"区立江古田の森公園","province":"東京都","city":"中野区","address":"東京都中野区江古田3-14","lat":35.73,"lon":139.66623},{"name":"区立みずのとう公園","province":"東京都","city":"中野区","address":"東京都中野区江古田1-3","lat":35.724759,"lon":139.674948},{"name":"区立弥生公園","province":"東京都","city":"中野区","address":"東京都中野区弥生町5-4","lat":35.6863389,"lon":139.6669699},{"name":"区立江古田の森公園","province":"東京都","city":"中野区","address":"東京都中野区江古田3-14","lat":35.73,"lon":139.66623},{"name":"区立みずのとう公園","province":"東京都","city":"中野区","address":"東京都中野区江古田1-3","lat":35.724759,"lon":139.674948},{"name":"区立弥生公園","province":"東京都","city":"中野区","address":"東京都中野区弥生町5-4","lat":35.6863389,"lon":139.6669699},{"name":"区立江古田の森公園","province":"東京都","city":"中野区","address":"東京都中野区江古田3-14","lat":35.73,"lon":139.66623},{"name":"区立みずのとう公園","province":"東京都","city":"中野区","address":"東京都中野区江古田1-3","lat":35.724759,"lon":139.674948},{"name":"区立弥生公園","province":"東京都","city":"中野区","address":"東京都中野区弥生町5-4","lat":35.6863389,"lon":139.6669699},{"name":"区立江古田の森公園","province":"東京都","city":"中野区","address":"東京都中野区江古田3-14","lat":35.73,"lon":139.66623},{"name":"区立みずのとう公園","province":"東京都","city":"中野区","address":"東京都中野区江古田1-3","lat":35.724759,"lon":139.674948},{"name":"区立弥生公園","province":"東京都","city":"中野区","address":"東京都中野区弥生町5-4","lat":35.6863389,"lon":139.6669699},{"name":"区立江古田の森公園","province":"東京都","city":"中野区","address":"東京都中野区江古田3-14","lat":35.73,"lon":139.66623},{"name":"区立みずのとう公園","province":"東京都","city":"中野区","address":"東京都中野区江古田1-3","lat":35.724759,"lon":139.674948},{"name":"区立弥生公園","province":"東京都","city":"中野区","address":"東京都中野区弥生町5-4","lat":35.6863389,"lon":139.6669699},{"name":"区立江古田の森公園","province":"東京都","city":"中野区","address":"東京都中野区江古田3-14","lat":35.73,"lon":139.66623},{"name":"区立みずのとう公園","province":"東京都","city":"中野区","address":"東京都中野区江古田1-3","lat":35.724759,"lon":139.674948},{"name":"区立弥生公園","province":"東京都","city":"中野区","address":"東京都中野区弥生町5-4","lat":35.6863389,"lon":139.6669699},{"name":"区立江古田の森公園","province":"東京都","city":"中野区","address":"東京都中野区江古田3-14","lat":35.73,"lon":139.66623},{"name":"区立みずのとう公園","province":"東京都","city":"中野区","address":"東京都中野区江古田1-3","lat":35.724759,"lon":139.674948},{"name":"区立弥生公園","province":"東京都","city":"中野区","address":"東京都中野区弥生町5-4","lat":35.6863389,"lon":139.6669699},{"name":"区立江古田の森公園","province":"東京都","city":"中野区","address":"東京都中野区江古田3-14","lat":35.73,"lon":139.66623},{"name":"区立みずのとう公園","province":"東京都","city":"中野区","address":"東京都中野区江古田1-3","lat":35.724759,"lon":139.674948}]}