{"keyword":"命令","data":[{"name":"宮園保育園","province":"東京都","city":"中野区","address":"中野区中野1-21ー6","lat":35.70316,"lon":139.6767},{"name":"アルテ子どもと木幼保園","province":"東京都","city":"中野区","address":"中野区中野1-59-5","lat":35.70449,"lon":139.67328},{"name":"太陽の子　中野桜花保育園","province":"東京都","city":"中野区","address":"中野区中野2-14-11","lat":35.70488,"lon":139.67004},{"name":"なかのまるのなか保育園大きなおうち","province":"東京都","city":"中野区","address":"中野区中野2-18-4","lat":35.70297,"lon":139.66859},{"name":"にじいろ保育園中野駅南口","province":"東京都","city":"中野区","address":"中野区中野2-26-1","lat":35.70425,"lon":139.66631},{"name":"桃が丘さゆり保育園","province":"東京都","city":"中野区","address":"中野区中野3-19-13","lat":35.70285,"lon":139.66139},{"name":"きゃんばす中野保育園","province":"東京都","city":"中野区","address":"中野区中野3-48-8","lat":35.70511,"lon":139.66017},{"name":"コンビプラザ中野保育園","province":"東京都","city":"中野区","address":"中野区中野4-6-20","lat":35.70914,"lon":139.66389},{"name":"中野打越保育園","province":"東京都","city":"中野区","address":"中野区中野5-26ー11","lat":35.70816,"lon":139.66916},{"name":"中野ここわ保育園","province":"東京都","city":"中野区","address":"中野区中野5-4ー7","lat":35.70906,"lon":139.67216},{"name":"ピノキオ幼児舎中野","province":"東京都","city":"中野区","address":"中野区中野5丁目24番21号","lat":35.70934,"lon":139.66879},{"name":"昭和保育園","province":"東京都","city":"中野区","address":"中野区中野6ー2ー11","lat":35.70767,"lon":139.67848},{"name":"にじいろ保育園上高田","province":"東京都","city":"中野区","address":"中野区上高田1ー17ー5","lat":35.71043,"lon":139.67798},{"name":"ナーサリールーム　ベリーベアー中野","province":"東京都","city":"中野区","address":"中野区上高田1-39-14","lat":35.71053,"lon":139.67456},{"name":"キッズガーデン中野上高田","province":"東京都","city":"中野区","address":"中野区上高田2ー36ー2","lat":35.71177,"lon":139.67165},{"name":"さくらさくみらい　中野","province":"東京都","city":"中野区","address":"中野区上高田2-41-6","lat":35.71144,"lon":139.66975},{"name":"あけぼの保育園","province":"東京都","city":"中野区","address":"中野区上高田2-58-21","lat":35.71421,"lon":139.67018},{"name":"ちゃいれっく上高田保育園","province":"東京都","city":"中野区","address":"中野区上高田2-9-2","lat":35.71109,"lon":139.67293},{"name":"スターチャイルド≪東中野ナーサリー≫","province":"東京都","city":"中野区","address":"中野区東中野1-38-5","lat":35.70407,"lon":139.6866},{"name":"めばえの森保育園","province":"東京都","city":"中野区","address":"中野区東中野2丁目6番14号","lat":35.70194,"lon":139.68169},{"name":"幼保園シャローム東中野","province":"東京都","city":"中野区","address":"中野区東中野2丁目22番26号","lat":35.7046,"lon":139.68193},{"name":"東中野しらゆり保育園","province":"東京都","city":"中野区","address":"中野区東中野3-12-2","lat":35.70871,"lon":139.68237},{"name":"クオリスキッズ東中野保育園","province":"東京都","city":"中野区","address":"中野区東中野3丁目19番17号","lat":35.70847,"lon":139.6804},{"name":"シエル保育園・東中野","province":"東京都","city":"中野区","address":"中野区東中野4-11-12","lat":35.7083,"lon":139.68538},{"name":"キッズハーモニー・ひがしなかの","province":"東京都","city":"中野区","address":"中野区東中野4-4-26アトレヴィ東中野4階、5階","lat":35.70631,"lon":139.68443},{"name":"東中野プチ・クレイシュ","province":"東京都","city":"中野区","address":"中野区東中野5-1-1","lat":35.70659,"lon":139.68742},{"name":"陽だまりの丘保育園","province":"東京都","city":"中野区","address":"中野区東中野5-17-3","lat":35.70971,"lon":139.68872},{"name":"おはよう保育園東中野","province":"東京都","city":"中野区","address":"中野区東中野5-27-10ブリリア東中野パークサイドヒルズ","lat":35.70991,"lon":139.68829},{"name":"太陽の子　中野中央保育園","province":"東京都","city":"中野区","address":"中野区中央1-13-8大橋セントラルビル2階","lat":35.70142,"lon":139.68655},{"name":"ＡＩＡＩ　ＮＵＲＳＥＲＹ　中野坂上","province":"東京都","city":"中野区","address":"中野区中央2-2-3","lat":35.69766,"lon":139.68187},{"name":"こころなかのさかうえ保育園","province":"東京都","city":"中野区","address":"中野区中央2-43-12","lat":35.70037,"lon":139.67719},{"name":"ナーサリー中野の森","province":"東京都","city":"中野区","address":"中野区中央2丁目52番15号","lat":35.6994,"lon":139.67627},{"name":"仲町保育園","province":"東京都","city":"中野区","address":"中野区中央3-41-12","lat":35.69986,"lon":139.6714},{"name":"橋場そらとみどりの保育園大きなおうち","province":"東京都","city":"中野区","address":"中野区中央4-18-19","lat":35.69967,"lon":139.66858},{"name":"ひまわり保育園","province":"東京都","city":"中野区","address":"中野区中央4-61-4","lat":35.70277,"lon":139.66591},{"name":"モニカ新中野園","province":"東京都","city":"中野区","address":"中野区中央4-7-14","lat":35.69806,"lon":139.66873},{"name":"にじいろ保育園中野","province":"東京都","city":"中野区","address":"中野区中央5-48-2","lat":35.70158,"lon":139.66534},{"name":"本町保育園","province":"東京都","city":"中野区","address":"中野区本町3ー29ー17","lat":35.69714,"lon":139.67755},{"name":"マミーズエンジェル新中野保育園","province":"東京都","city":"中野区","address":"中野区本町4-30-122階","lat":35.69647,"lon":139.67053},{"name":"キッズガーデン新中野駅前","province":"東京都","city":"中野区","address":"中野区本町4-30-124階","lat":35.69647,"lon":139.67053},{"name":"コンビプラザ宮の台保育園","province":"東京都","city":"中野区","address":"中野区本町4丁目14番12号","lat":35.69454,"lon":139.67267},{"name":"鍋横保育園","province":"東京都","city":"中野区","address":"中野区本町5ー47ー13","lat":35.69341,"lon":139.66783},{"name":"さくらさくみらい　弥生町","province":"東京都","city":"中野区","address":"中野区弥生町1-43-12","lat":35.68882,"lon":139.67735},{"name":"みらいえ保育園中野富士見町","province":"東京都","city":"中野区","address":"中野区弥生町2ー48ー3","lat":35.69014,"lon":139.66954},{"name":"中野保育園","province":"東京都","city":"中野区","address":"中野区弥生町2ー6ー3","lat":35.69211,"lon":139.67648},{"name":"コンビプラザ弥生町保育園","province":"東京都","city":"中野区","address":"中野区弥生町2-41-2","lat":35.6915,"lon":139.6728},{"name":"弥生保育園","province":"東京都","city":"中野区","address":"中野区弥生町5ー4ー8","lat":35.68651,"lon":139.66707},{"name":"中野みなみ保育園","province":"東京都","city":"中野区","address":"中野区弥生町6-2-17","lat":35.68636,"lon":139.66237},{"name":"中野南台ちとせ保育園","province":"東京都","city":"中野区","address":"中野区南台2-1-5","lat":35.68312,"lon":139.67303},{"name":"南台保育園","province":"東京都","city":"中野区","address":"中野区南台3-35ー3","lat":35.68436,"lon":139.6653},{"name":"なかみなみコスモ保育園","province":"東京都","city":"中野区","address":"中野区南台3ー6ー17","lat":35.68553,"lon":139.66808},{"name":"キッズガーデン中野南台","province":"東京都","city":"中野区","address":"中野区南台4ー19ー11","lat":35.68111,"lon":139.66597},{"name":"アートチャイルドケア中野南台森の保育園","province":"東京都","city":"中野区","address":"中野区南台5-15-5","lat":35.68022,"lon":139.66254},{"name":"ピノキオ幼児舎野方保育園","province":"東京都","city":"中野区","address":"中野区丸山1-6-3","lat":35.723,"lon":139.65549},{"name":"丸山保育園","province":"東京都","city":"中野区","address":"中野区丸山2ー27ー16","lat":35.7257,"lon":139.64987},{"name":"江古田ここわ保育園","province":"東京都","city":"中野区","address":"中野区江古田1ー11ー5","lat":35.7254,"lon":139.67416},{"name":"テンダーラビング保育園　江古田","province":"東京都","city":"中野区","address":"中野区江古田1-43-5","lat":35.72638,"lon":139.67027},{"name":"徳田保育園","province":"東京都","city":"中野区","address":"中野区江古田3-15-2","lat":35.72824,"lon":139.66408},{"name":"にじいろ保育園江古田の杜","province":"東京都","city":"中野区","address":"中野区江古田3ー14ー1","lat":35.72741,"lon":139.6655},{"name":"なかよしの森保育園","province":"東京都","city":"中野区","address":"中野区江古田4-16-13","lat":35.72579,"lon":139.66319},{"name":"江原保育園","province":"東京都","city":"中野区","address":"中野区江原町1ー10ー16","lat":35.72935,"lon":139.67522},{"name":"さくらさくみらい　江原町","province":"東京都","city":"中野区","address":"中野区江原町1ー46ー1","lat":35.73092,"lon":139.67346},{"name":"中野松が丘すきっぷ保育園","province":"東京都","city":"中野区","address":"中野区松が丘1ー26ー2","lat":35.71957,"lon":139.67067},{"name":"にじいろ保育園松が丘","province":"東京都","city":"中野区","address":"中野区松が丘2-32ー3","lat":35.72327,"lon":139.67276},{"name":"沼袋保育園","province":"東京都","city":"中野区","address":"中野区沼袋1ー34ー14","lat":35.71964,"lon":139.66472},{"name":"松が丘保育園","province":"東京都","city":"中野区","address":"中野区沼袋2-17-5","lat":35.72297,"lon":139.66745},{"name":"グローバルキッズ沼袋園","province":"東京都","city":"中野区","address":"中野区沼袋2ー28ー32","lat":35.7216,"lon":139.66489},{"name":"沼袋西保育園","province":"東京都","city":"中野区","address":"中野区沼袋3-14-11","lat":35.71716,"lon":139.65924},{"name":"ピオニイ保育園","province":"東京都","city":"中野区","address":"中野区新井2-40-3","lat":35.71284,"lon":139.66301},{"name":"キッズフォレ平和の森","province":"東京都","city":"中野区","address":"中野区新井3-35-20","lat":35.71584,"lon":139.66035},{"name":"中野りとるぱんぷきんず","province":"東京都","city":"中野区","address":"中野区新井4-10-10","lat":35.71628,"lon":139.66687},{"name":"小学館アカデミーあらいやくし保育園","province":"東京都","city":"中野区","address":"中野区新井5-17-2","lat":35.71534,"lon":139.67021},{"name":"野方保育園","province":"東京都","city":"中野区","address":"中野区野方1ー35ー8","lat":35.70954,"lon":139.65637},{"name":"にじいろ保育園中野野方","province":"東京都","city":"中野区","address":"中野区野方1-41-9","lat":35.71041,"lon":139.65509},{"name":"野方さくら保育園","province":"東京都","city":"中野区","address":"中野区野方4-41-7","lat":35.72206,"lon":139.65683},{"name":"オンビーノスクエア野方","province":"東京都","city":"中野区","address":"中野区野方5-10-13","lat":35.71704,"lon":139.65086},{"name":"こどもヶ丘保育園野方園","province":"東京都","city":"中野区","address":"中野区野方6-38ー2","lat":35.72157,"lon":139.64915},{"name":"グローバルキッズ鷺ノ宮園","province":"東京都","city":"中野区","address":"中野区上鷺宮2-10-21","lat":35.72761,"lon":139.63345},{"name":"とちの木保育園","province":"東京都","city":"中野区","address":"中野区上鷺宮3-8-8","lat":35.73318,"lon":139.63185},{"name":"中野ひかり保育園","province":"東京都","city":"中野区","address":"中野区上鷺宮4-18-8","lat":35.7348,"lon":139.6288},{"name":"こどもヶ丘保育園上鷺宮園","province":"東京都","city":"中野区","address":"中野区上鷺宮5-5-6","lat":35.72881,"lon":139.62866},{"name":"鷺宮クローバー保育園","province":"東京都","city":"中野区","address":"中野区鷺宮2ー4ー3","lat":35.72467,"lon":139.64667},{"name":"にじいろ保育園鷺ノ宮","province":"東京都","city":"中野区","address":"中野区鷺宮3-44-7","lat":35.72554,"lon":139.64136},{"name":"ぽけっとランドさぎのみや保育園","province":"東京都","city":"中野区","address":"中野区鷺宮4-33-1","lat":35.72425,"lon":139.6375},{"name":"わらべ西鷺宮保育園","province":"東京都","city":"中野区","address":"中野区鷺宮5-22-14","lat":35.72654,"lon":139.63258},{"name":"七海保育園","province":"東京都","city":"中野区","address":"中野区若宮1-1-2","lat":35.71608,"lon":139.64978},{"name":"まなびの森保育園鷺ノ宮","province":"東京都","city":"中野区","address":"中野区若宮3-23-3","lat":35.72227,"lon":139.64227},{"name":"田中ナースリー若宮保育園","province":"東京都","city":"中野区","address":"中野区若宮3-6-9","lat":35.72057,"lon":139.64558},{"name":"大和東もみじの森保育園","province":"東京都","city":"中野区","address":"中野区大和町1丁目37番4号","lat":35.71192,"lon":139.65106},{"name":"田中ナースリー大和保育園","province":"東京都","city":"中野区","address":"中野区大和町4-42ー4","lat":35.7149,"lon":139.64217},{"name":"中野鷺ノ宮雲母保育園","province":"東京都","city":"中野区","address":"中野区白鷺1ー1ー4","lat":35.71589,"lon":139.63971},{"name":"聖ピオ保育園","province":"東京都","city":"中野区","address":"中野区白鷺1-15-5","lat":35.7202,"lon":139.6389},{"name":"キッズガーデン中野白鷺","province":"東京都","city":"中野区","address":"中野区白鷺1-6-10","lat":35.71609,"lon":139.63832},{"name":"白鷺保育園","province":"東京都","city":"中野区","address":"中野区白鷺3ー3ー24","lat":35.72163,"lon":139.63354},{"name":"おはよう保育園東中野","province":"東京都","city":"中野区","address":"中野区東中野5-27-10ブリリア東中野パークサイドヒルズ","lat":35.71015,"lon":139.69066},{"name":"にじいろ保育園中野野方","province":"東京都","city":"中野区","address":"中野区野方1-41-9","lat":35.71015,"lon":139.65509},{"name":"AIAI NURSERY 中野坂上","province":"東京都","city":"中野区","address":"中野区中央2-2-3","lat":35.69766,"lon":139.68187},{"name":"コンビプラザ弥生町保育園","province":"東京都","city":"中野区","address":"中野区弥生町2-41-2","lat":35.69180505,"lon":139.6727677},{"name":"中野みなみ保育園","province":"東京都","city":"中野区","address":"中野区南台5-29-9","lat":35.68157,"lon":139.66032},{"name":"七海保育園","province":"東京都","city":"中野区","address":"中野区大和町4-12-10","lat":35.71541,"lon":139.64725},{"name":"AIAI NURSERY中野坂上","province":"東京都","city":"中野区","address":"中野区中央2-2-3","lat":35.69766,"lon":139.68187},{"name":"コンビプラザ弥生町保育園","province":"東京都","city":"中野区","address":"中野区弥生町2-41-2","lat":35.69136,"lon":139.67195},{"name":"中野松が丘すきっぷ保育園３１","province":"東京都","city":"中野区","address":"中野区松が丘1-26-2","lat":35.71957,"lon":139.67067},{"name":"もみじやま保育園","province":"東京都","city":"中野区","address":"中野区中野1-58-9","lat":35.70449,"lon":139.67328},{"name":"あさひ保育園","province":"東京都","city":"中野区","address":"中野区上高田1-45-8","lat":35.7117,"lon":139.67497},{"name":"仲町保育園","province":"東京都","city":"中野区","address":"中野区中央2-52-15","lat":35.6994,"lon":139.67627},{"name":"あい・あい保育園　中野坂上園","province":"東京都","city":"中野区","address":"中野区中央2-2-3","lat":35.69766,"lon":139.68187},{"name":"宮の台保育園","province":"東京都","city":"中野区","address":"中野区本町4-14-13","lat":35.69454,"lon":139.67267},{"name":"大和東保育園","province":"東京都","city":"中野区","address":"中野区大和町1-37-4","lat":35.71192,"lon":139.65106},{"name":"大和東保育園","province":"東京都","city":"中野区","address":"中野区若宮1-1-2(仮設)","lat":35.71608,"lon":139.64978},{"name":"コンビプラザ中野保育園","province":"東京都","city":"中野区","address":"中野区中野4-6-20","lat":35.70915,"lon":139.6639},{"name":"中野ここわ保育園","province":"東京都","city":"中野区","address":"中野区中野5-4-7","lat":35.70906,"lon":139.67217},{"name":"中野南台ちとせ保育園","province":"東京都","city":"中野区","address":"中野区南台2-1-5","lat":35.68312,"lon":139.67304},{"name":"ピオニイ保育園","province":"東京都","city":"中野区","address":"中野区新井2-40-3","lat":35.71285,"lon":139.66301},{"name":"キッズフォレ平和の森","province":"東京都","city":"中野区","address":"中野区新井3-35-20","lat":35.71584,"lon":139.66036},{"name":"野方さくら保育園","province":"東京都","city":"中野区","address":"中野区野方4-41-7","lat":35.72207,"lon":139.65683},{"name":"こどもヶ丘保育園野方園","province":"東京都","city":"中野区","address":"中野区野方6-38-2","lat":35.72157,"lon":139.64916},{"name":"ぽけっとランドさぎのみや保育園","province":"東京都","city":"中野区","address":"中野区鷺宮4-33-1","lat":35.72426,"lon":139.6375},{"name":"田中ナースリー大和保育園","province":"東京都","city":"中野区","address":"中野区大和町4-42-4","lat":35.71491,"lon":139.64217},{"name":"白鷺保育園","province":"東京都","city":"中野区","address":"中野区白鷺3-3-24","lat":35.72163,"lon":139.63355},{"name":"もみじやま保育園","province":"東京都","city":"中野区","address":"中野区中野1-58-9","lat":35.70391,"lon":139.67265},{"name":"中野区本庁舎","province":"東京都","city":"中野区","address":"東京都中野区中野4丁目8-1","lat":35.70733449,"lon":139.6637464},{"name":"都立稔ヶ丘高等学校","province":"東京都","city":"中野区","address":"東京都中野区上鷺宮5丁目11-1","lat":35.72800066,"lon":139.62576254},{"name":"都立富士高等学校","province":"東京都","city":"中野区","address":"東京都中野区弥生町5丁目21-1","lat":35.68959503,"lon":139.66701353},{"name":"中野区本庁舎","province":"東京都","city":"中野区","address":"中野区中野4-8-1","lat":35.707288,"lon":139.66381},{"name":"第三建設事務所","province":"東京都","city":"中野区","address":"中野区中野4-8-1","lat":35.707288,"lon":139.66381},{"name":"第二自動車警ら隊新宿分駐所","province":"東京都","city":"中野区","address":"中野区弥生町2-4-10","lat":35.69143,"lon":139.6769},{"name":"中野警察署","province":"東京都","city":"中野区","address":"中野区中央2-47-2","lat":35.69779,"lon":139.6777},{"name":"野方警察署","province":"東京都","city":"中野区","address":"中野区中野4-12-1","lat":35.70943,"lon":139.6604},{"name":"中野消防署","province":"東京都","city":"中野区","address":"中野区中央3-25-3","lat":35.69798,"lon":139.6735},{"name":"野方消防署","province":"東京都","city":"中野区","address":"中野区丸山2-21-1","lat":35.72342,"lon":139.6521},{"name":"中野区","province":"東京都","city":"中野区","address":"中野区中野1-15-7","lat":35.70576,"lon":139.6757},{"name":"東京大学教育学部附属中等教育学校校庭","province":"東京都","city":"中野区","address":"中野区南台1-15","lat":35.68531,"lon":139.6738},{"name":"中野区立上高田野球場","province":"東京都","city":"中野区","address":"中野区上高田5-7-1","lat":35.7167,"lon":139.6784},{"name":"東京警察病院ヘリポート","province":"東京都","city":"中野区","address":"中野区中野4-22-1","lat":35.70923,"lon":139.6593},{"name":"西部第一下水道事務所","province":"東京都","city":"中野区","address":"東京都中野区新井3丁目37-4","lat":35.71529745,"lon":139.6622323},{"name":"※中野区本庁舎","province":"東京都","city":"中野区","address":"東京都中野区中野4丁目8-1","lat":35.70733449,"lon":139.6637464},{"name":"小滝橋自動車営業所","province":"東京都","city":"中野区","address":"東京都中野区東中野5丁目30-2","lat":35.71036835,"lon":139.6935159},{"name":"宮園保育園","province":"東京都","city":"中野区","address":"中野区中野1-21ー6","lat":35.70316,"lon":139.6767},{"name":"アルテ子どもと木幼保園","province":"東京都","city":"中野区","address":"中野区中野1-59-5","lat":35.70449,"lon":139.67328},{"name":"太陽の子　中野桜花保育園","province":"東京都","city":"中野区","address":"中野区中野2-14-11","lat":35.70488,"lon":139.67004},{"name":"なかのまるのなか保育園大きなおうち","province":"東京都","city":"中野区","address":"中野区中野2-18-4","lat":35.70297,"lon":139.66859},{"name":"にじいろ保育園中野駅南口","province":"東京都","city":"中野区","address":"中野区中野2-26-1","lat":35.70425,"lon":139.66631},{"name":"桃が丘さゆり保育園","province":"東京都","city":"中野区","address":"中野区中野3-19-13","lat":35.70285,"lon":139.66139},{"name":"きゃんばす中野保育園","province":"東京都","city":"中野区","address":"中野区中野3-48-8","lat":35.70511,"lon":139.66017},{"name":"コンビプラザ中野保育園","province":"東京都","city":"中野区","address":"中野区中野4-6-20","lat":35.70914,"lon":139.66389},{"name":"中野打越保育園","province":"東京都","city":"中野区","address":"中野区中野5-26ー11","lat":35.70816,"lon":139.66916},{"name":"中野ここわ保育園","province":"東京都","city":"中野区","address":"中野区中野5-4ー7","lat":35.70906,"lon":139.67216},{"name":"ピノキオ幼児舎中野","province":"東京都","city":"中野区","address":"中野区中野5丁目24番21号","lat":35.70934,"lon":139.66879},{"name":"昭和保育園","province":"東京都","city":"中野区","address":"中野区中野6ー2ー11","lat":35.70767,"lon":139.67848},{"name":"にじいろ保育園上高田","province":"東京都","city":"中野区","address":"中野区上高田1ー17ー5","lat":35.71043,"lon":139.67798},{"name":"ナーサリールーム　ベリーベアー中野","province":"東京都","city":"中野区","address":"中野区上高田1-39-14","lat":35.71053,"lon":139.67456},{"name":"キッズガーデン中野上高田","province":"東京都","city":"中野区","address":"中野区上高田2ー36ー2","lat":35.71177,"lon":139.67165},{"name":"さくらさくみらい　中野","province":"東京都","city":"中野区","address":"中野区上高田2-41-6","lat":35.71144,"lon":139.66975},{"name":"あけぼの保育園","province":"東京都","city":"中野区","address":"中野区上高田2-58-21","lat":35.71421,"lon":139.67018},{"name":"ちゃいれっく上高田保育園","province":"東京都","city":"中野区","address":"中野区上高田2-9-2","lat":35.71109,"lon":139.67293},{"name":"スターチャイルド≪東中野ナーサリー≫","province":"東京都","city":"中野区","address":"中野区東中野1-38-5","lat":35.70407,"lon":139.6866},{"name":"めばえの森保育園","province":"東京都","city":"中野区","address":"中野区東中野2丁目6番14号","lat":35.70194,"lon":139.68169},{"name":"幼保園シャローム東中野","province":"東京都","city":"中野区","address":"中野区東中野2丁目22番26号","lat":35.7046,"lon":139.68193},{"name":"東中野しらゆり保育園","province":"東京都","city":"中野区","address":"中野区東中野3-12-2","lat":35.70871,"lon":139.68237},{"name":"クオリスキッズ東中野保育園","province":"東京都","city":"中野区","address":"中野区東中野3丁目19番17号","lat":35.70847,"lon":139.6804},{"name":"シエル保育園・東中野","province":"東京都","city":"中野区","address":"中野区東中野4-11-12","lat":35.7083,"lon":139.68538},{"name":"キッズハーモニー・ひがしなかの","province":"東京都","city":"中野区","address":"中野区東中野4-4-26アトレヴィ東中野4階、5階","lat":35.70631,"lon":139.68443},{"name":"東中野プチ・クレイシュ","province":"東京都","city":"中野区","address":"中野区東中野5-1-1","lat":35.70659,"lon":139.68742},{"name":"陽だまりの丘保育園","province":"東京都","city":"中野区","address":"中野区東中野5-17-3","lat":35.70971,"lon":139.68872},{"name":"おはよう保育園東中野","province":"東京都","city":"中野区","address":"中野区東中野5-27-10ブリリア東中野パークサイドヒルズ","lat":35.70991,"lon":139.68829},{"name":"太陽の子　中野中央保育園","province":"東京都","city":"中野区","address":"中野区中央1-13-8大橋セントラルビル2階","lat":35.70142,"lon":139.68655},{"name":"ＡＩＡＩ　ＮＵＲＳＥＲＹ　中野坂上","province":"東京都","city":"中野区","address":"中野区中央2-2-3","lat":35.69766,"lon":139.68187},{"name":"こころなかのさかうえ保育園","province":"東京都","city":"中野区","address":"中野区中央2-43-12","lat":35.70037,"lon":139.67719},{"name":"ナーサリー中野の森","province":"東京都","city":"中野区","address":"中野区中央2丁目52番15号","lat":35.6994,"lon":139.67627},{"name":"仲町保育園","province":"東京都","city":"中野区","address":"中野区中央3-41-12","lat":35.69986,"lon":139.6714},{"name":"橋場そらとみどりの保育園大きなおうち","province":"東京都","city":"中野区","address":"中野区中央4-18-19","lat":35.69967,"lon":139.66858},{"name":"ひまわり保育園","province":"東京都","city":"中野区","address":"中野区中央4-61-4","lat":35.70277,"lon":139.66591},{"name":"モニカ新中野園","province":"東京都","city":"中野区","address":"中野区中央4-7-14","lat":35.69806,"lon":139.66873},{"name":"にじいろ保育園中野","province":"東京都","city":"中野区","address":"中野区中央5-48-2","lat":35.70158,"lon":139.66534},{"name":"本町保育園","province":"東京都","city":"中野区","address":"中野区本町3ー29ー17","lat":35.69714,"lon":139.67755},{"name":"マミーズエンジェル新中野保育園","province":"東京都","city":"中野区","address":"中野区本町4-30-122階","lat":35.69647,"lon":139.67053},{"name":"キッズガーデン新中野駅前","province":"東京都","city":"中野区","address":"中野区本町4-30-124階","lat":35.69647,"lon":139.67053},{"name":"コンビプラザ宮の台保育園","province":"東京都","city":"中野区","address":"中野区本町4丁目14番12号","lat":35.69454,"lon":139.67267},{"name":"鍋横保育園","province":"東京都","city":"中野区","address":"中野区本町5ー47ー13","lat":35.69341,"lon":139.66783},{"name":"さくらさくみらい　弥生町","province":"東京都","city":"中野区","address":"中野区弥生町1-43-12","lat":35.68882,"lon":139.67735},{"name":"みらいえ保育園中野富士見町","province":"東京都","city":"中野区","address":"中野区弥生町2ー48ー3","lat":35.69014,"lon":139.66954},{"name":"中野保育園","province":"東京都","city":"中野区","address":"中野区弥生町2ー6ー3","lat":35.69211,"lon":139.67648},{"name":"コンビプラザ弥生町保育園","province":"東京都","city":"中野区","address":"中野区弥生町2-41-2","lat":35.6915,"lon":139.6728},{"name":"弥生保育園","province":"東京都","city":"中野区","address":"中野区弥生町5ー4ー8","lat":35.68651,"lon":139.66707},{"name":"中野みなみ保育園","province":"東京都","city":"中野区","address":"中野区弥生町6-2-17","lat":35.68636,"lon":139.66237},{"name":"中野南台ちとせ保育園","province":"東京都","city":"中野区","address":"中野区南台2-1-5","lat":35.68312,"lon":139.67303},{"name":"南台保育園","province":"東京都","city":"中野区","address":"中野区南台3-35ー3","lat":35.68436,"lon":139.6653},{"name":"なかみなみコスモ保育園","province":"東京都","city":"中野区","address":"中野区南台3ー6ー17","lat":35.68553,"lon":139.66808},{"name":"キッズガーデン中野南台","province":"東京都","city":"中野区","address":"中野区南台4ー19ー11","lat":35.68111,"lon":139.66597},{"name":"アートチャイルドケア中野南台森の保育園","province":"東京都","city":"中野区","address":"中野区南台5-15-5","lat":35.68022,"lon":139.66254},{"name":"ピノキオ幼児舎野方保育園","province":"東京都","city":"中野区","address":"中野区丸山1-6-3","lat":35.723,"lon":139.65549},{"name":"丸山保育園","province":"東京都","city":"中野区","address":"中野区丸山2ー27ー16","lat":35.7257,"lon":139.64987},{"name":"江古田ここわ保育園","province":"東京都","city":"中野区","address":"中野区江古田1ー11ー5","lat":35.7254,"lon":139.67416},{"name":"テンダーラビング保育園　江古田","province":"東京都","city":"中野区","address":"中野区江古田1-43-5","lat":35.72638,"lon":139.67027},{"name":"徳田保育園","province":"東京都","city":"中野区","address":"中野区江古田3-15-2","lat":35.72824,"lon":139.66408},{"name":"にじいろ保育園江古田の杜","province":"東京都","city":"中野区","address":"中野区江古田3ー14ー1","lat":35.72741,"lon":139.6655},{"name":"なかよしの森保育園","province":"東京都","city":"中野区","address":"中野区江古田4-16-13","lat":35.72579,"lon":139.66319},{"name":"江原保育園","province":"東京都","city":"中野区","address":"中野区江原町1ー10ー16","lat":35.72935,"lon":139.67522},{"name":"さくらさくみらい　江原町","province":"東京都","city":"中野区","address":"中野区江原町1ー46ー1","lat":35.73092,"lon":139.67346},{"name":"中野松が丘すきっぷ保育園","province":"東京都","city":"中野区","address":"中野区松が丘1ー26ー2","lat":35.71957,"lon":139.67067},{"name":"にじいろ保育園松が丘","province":"東京都","city":"中野区","address":"中野区松が丘2-32ー3","lat":35.72327,"lon":139.67276},{"name":"沼袋保育園","province":"東京都","city":"中野区","address":"中野区沼袋1ー34ー14","lat":35.71964,"lon":139.66472},{"name":"松が丘保育園","province":"東京都","city":"中野区","address":"中野区沼袋2-17-5","lat":35.72297,"lon":139.66745},{"name":"グローバルキッズ沼袋園","province":"東京都","city":"中野区","address":"中野区沼袋2ー28ー32","lat":35.7216,"lon":139.66489},{"name":"沼袋西保育園","province":"東京都","city":"中野区","address":"中野区沼袋3-14-11","lat":35.71716,"lon":139.65924},{"name":"ピオニイ保育園","province":"東京都","city":"中野区","address":"中野区新井2-40-3","lat":35.71284,"lon":139.66301},{"name":"キッズフォレ平和の森","province":"東京都","city":"中野区","address":"中野区新井3-35-20","lat":35.71584,"lon":139.66035},{"name":"中野りとるぱんぷきんず","province":"東京都","city":"中野区","address":"中野区新井4-10-10","lat":35.71628,"lon":139.66687},{"name":"小学館アカデミーあらいやくし保育園","province":"東京都","city":"中野区","address":"中野区新井5-17-2","lat":35.71534,"lon":139.67021},{"name":"野方保育園","province":"東京都","city":"中野区","address":"中野区野方1ー35ー8","lat":35.70954,"lon":139.65637},{"name":"にじいろ保育園中野野方","province":"東京都","city":"中野区","address":"中野区野方1-41-9","lat":35.71041,"lon":139.65509},{"name":"野方さくら保育園","province":"東京都","city":"中野区","address":"中野区野方4-41-7","lat":35.72206,"lon":139.65683},{"name":"オンビーノスクエア野方","province":"東京都","city":"中野区","address":"中野区野方5-10-13","lat":35.71704,"lon":139.65086},{"name":"こどもヶ丘保育園野方園","province":"東京都","city":"中野区","address":"中野区野方6-38ー2","lat":35.72157,"lon":139.64915},{"name":"グローバルキッズ鷺ノ宮園","province":"東京都","city":"中野区","address":"中野区上鷺宮2-10-21","lat":35.72761,"lon":139.63345},{"name":"とちの木保育園","province":"東京都","city":"中野区","address":"中野区上鷺宮3-8-8","lat":35.73318,"lon":139.63185},{"name":"中野ひかり保育園","province":"東京都","city":"中野区","address":"中野区上鷺宮4-18-8","lat":35.7348,"lon":139.6288},{"name":"こどもヶ丘保育園上鷺宮園","province":"東京都","city":"中野区","address":"中野区上鷺宮5-5-6","lat":35.72881,"lon":139.62866},{"name":"鷺宮クローバー保育園","province":"東京都","city":"中野区","address":"中野区鷺宮2ー4ー3","lat":35.72467,"lon":139.64667},{"name":"にじいろ保育園鷺ノ宮","province":"東京都","city":"中野区","address":"中野区鷺宮3-44-7","lat":35.72554,"lon":139.64136},{"name":"ぽけっとランドさぎのみや保育園","province":"東京都","city":"中野区","address":"中野区鷺宮4-33-1","lat":35.72425,"lon":139.6375},{"name":"わらべ西鷺宮保育園","province":"東京都","city":"中野区","address":"中野区鷺宮5-22-14","lat":35.72654,"lon":139.63258},{"name":"七海保育園","province":"東京都","city":"中野区","address":"中野区若宮1-1-2","lat":35.71608,"lon":139.64978},{"name":"まなびの森保育園鷺ノ宮","province":"東京都","city":"中野区","address":"中野区若宮3-23-3","lat":35.72227,"lon":139.64227},{"name":"田中ナースリー若宮保育園","province":"東京都","city":"中野区","address":"中野区若宮3-6-9","lat":35.72057,"lon":139.64558},{"name":"大和東もみじの森保育園","province":"東京都","city":"中野区","address":"中野区大和町1丁目37番4号","lat":35.71192,"lon":139.65106},{"name":"田中ナースリー大和保育園","province":"東京都","city":"中野区","address":"中野区大和町4-42ー4","lat":35.7149,"lon":139.64217},{"name":"中野鷺ノ宮雲母保育園","province":"東京都","city":"中野区","address":"中野区白鷺1ー1ー4","lat":35.71589,"lon":139.63971},{"name":"聖ピオ保育園","province":"東京都","city":"中野区","address":"中野区白鷺1-15-5","lat":35.7202,"lon":139.6389},{"name":"キッズガーデン中野白鷺","province":"東京都","city":"中野区","address":"中野区白鷺1-6-10","lat":35.71609,"lon":139.63832},{"name":"白鷺保育園","province":"東京都","city":"中野区","address":"中野区白鷺3ー3ー24","lat":35.72163,"lon":139.63354},{"name":"おはよう保育園東中野","province":"東京都","city":"中野区","address":"中野区東中野5-27-10ブリリア東中野パークサイドヒルズ","lat":35.71015,"lon":139.69066},{"name":"にじいろ保育園中野野方","province":"東京都","city":"中野区","address":"中野区野方1-41-9","lat":35.71015,"lon":139.65509},{"name":"AIAI NURSERY 中野坂上","province":"東京都","city":"中野区","address":"中野区中央2-2-3","lat":35.69766,"lon":139.68187},{"name":"コンビプラザ弥生町保育園","province":"東京都","city":"中野区","address":"中野区弥生町2-41-2","lat":35.69180505,"lon":139.6727677},{"name":"中野みなみ保育園","province":"東京都","city":"中野区","address":"中野区南台5-29-9","lat":35.68157,"lon":139.66032},{"name":"七海保育園","province":"東京都","city":"中野区","address":"中野区大和町4-12-10","lat":35.71541,"lon":139.64725},{"name":"AIAI NURSERY中野坂上","province":"東京都","city":"中野区","address":"中野区中央2-2-3","lat":35.69766,"lon":139.68187},{"name":"コンビプラザ弥生町保育園","province":"東京都","city":"中野区","address":"中野区弥生町2-41-2","lat":35.69136,"lon":139.67195},{"name":"中野松が丘すきっぷ保育園３１","province":"東京都","city":"中野区","address":"中野区松が丘1-26-2","lat":35.71957,"lon":139.67067},{"name":"もみじやま保育園","province":"東京都","city":"中野区","address":"中野区中野1-58-9","lat":35.70449,"lon":139.67328},{"name":"あさひ保育園","province":"東京都","city":"中野区","address":"中野区上高田1-45-8","lat":35.7117,"lon":139.67497},{"name":"仲町保育園","province":"東京都","city":"中野区","address":"中野区中央2-52-15","lat":35.6994,"lon":139.67627},{"name":"あい・あい保育園　中野坂上園","province":"東京都","city":"中野区","address":"中野区中央2-2-3","lat":35.69766,"lon":139.68187},{"name":"宮の台保育園","province":"東京都","city":"中野区","address":"中野区本町4-14-13","lat":35.69454,"lon":139.67267},{"name":"大和東保育園","province":"東京都","city":"中野区","address":"中野区大和町1-37-4","lat":35.71192,"lon":139.65106},{"name":"大和東保育園","province":"東京都","city":"中野区","address":"中野区若宮1-1-2(仮設)","lat":35.71608,"lon":139.64978},{"name":"コンビプラザ中野保育園","province":"東京都","city":"中野区","address":"中野区中野4-6-20","lat":35.70915,"lon":139.6639},{"name":"中野ここわ保育園","province":"東京都","city":"中野区","address":"中野区中野5-4-7","lat":35.70906,"lon":139.67217},{"name":"中野南台ちとせ保育園","province":"東京都","city":"中野区","address":"中野区南台2-1-5","lat":35.68312,"lon":139.67304},{"name":"ピオニイ保育園","province":"東京都","city":"中野区","address":"中野区新井2-40-3","lat":35.71285,"lon":139.66301},{"name":"キッズフォレ平和の森","province":"東京都","city":"中野区","address":"中野区新井3-35-20","lat":35.71584,"lon":139.66036},{"name":"野方さくら保育園","province":"東京都","city":"中野区","address":"中野区野方4-41-7","lat":35.72207,"lon":139.65683},{"name":"こどもヶ丘保育園野方園","province":"東京都","city":"中野区","address":"中野区野方6-38-2","lat":35.72157,"lon":139.64916},{"name":"ぽけっとランドさぎのみや保育園","province":"東京都","city":"中野区","address":"中野区鷺宮4-33-1","lat":35.72426,"lon":139.6375},{"name":"田中ナースリー大和保育園","province":"東京都","city":"中野区","address":"中野区大和町4-42-4","lat":35.71491,"lon":139.64217},{"name":"白鷺保育園","province":"東京都","city":"中野区","address":"中野区白鷺3-3-24","lat":35.72163,"lon":139.63355},{"name":"もみじやま保育園","province":"東京都","city":"中野区","address":"中野区中野1-58-9","lat":35.70391,"lon":139.67265},{"name":"中野区本庁舎","province":"東京都","city":"中野区","address":"東京都中野区中野4丁目8-1","lat":35.70733449,"lon":139.6637464},{"name":"都立稔ヶ丘高等学校","province":"東京都","city":"中野区","address":"東京都中野区上鷺宮5丁目11-1","lat":35.72800066,"lon":139.62576254},{"name":"都立富士高等学校","province":"東京都","city":"中野区","address":"東京都中野区弥生町5丁目21-1","lat":35.68959503,"lon":139.66701353},{"name":"中野区本庁舎","province":"東京都","city":"中野区","address":"中野区中野4-8-1","lat":35.707288,"lon":139.66381},{"name":"第三建設事務所","province":"東京都","city":"中野区","address":"中野区中野4-8-1","lat":35.707288,"lon":139.66381},{"name":"第二自動車警ら隊新宿分駐所","province":"東京都","city":"中野区","address":"中野区弥生町2-4-10","lat":35.69143,"lon":139.6769},{"name":"中野警察署","province":"東京都","city":"中野区","address":"中野区中央2-47-2","lat":35.69779,"lon":139.6777},{"name":"野方警察署","province":"東京都","city":"中野区","address":"中野区中野4-12-1","lat":35.70943,"lon":139.6604},{"name":"中野消防署","province":"東京都","city":"中野区","address":"中野区中央3-25-3","lat":35.69798,"lon":139.6735},{"name":"野方消防署","province":"東京都","city":"中野区","address":"中野区丸山2-21-1","lat":35.72342,"lon":139.6521},{"name":"中野区","province":"東京都","city":"中野区","address":"中野区中野1-15-7","lat":35.70576,"lon":139.6757},{"name":"東京大学教育学部附属中等教育学校校庭","province":"東京都","city":"中野区","address":"中野区南台1-15","lat":35.68531,"lon":139.6738},{"name":"中野区立上高田野球場","province":"東京都","city":"中野区","address":"中野区上高田5-7-1","lat":35.7167,"lon":139.6784},{"name":"東京警察病院ヘリポート","province":"東京都","city":"中野区","address":"中野区中野4-22-1","lat":35.70923,"lon":139.6593},{"name":"西部第一下水道事務所","province":"東京都","city":"中野区","address":"東京都中野区新井3丁目37-4","lat":35.71529745,"lon":139.6622323},{"name":"※中野区本庁舎","province":"東京都","city":"中野区","address":"東京都中野区中野4丁目8-1","lat":35.70733449,"lon":139.6637464},{"name":"小滝橋自動車営業所","province":"東京都","city":"中野区","address":"東京都中野区東中野5丁目30-2","lat":35.71036835,"lon":139.6935159},{"name":"宮園保育園","province":"東京都","city":"中野区","address":"中野区中野1-21ー6","lat":35.70316,"lon":139.6767},{"name":"アルテ子どもと木幼保園","province":"東京都","city":"中野区","address":"中野区中野1-59-5","lat":35.70449,"lon":139.67328},{"name":"太陽の子　中野桜花保育園","province":"東京都","city":"中野区","address":"中野区中野2-14-11","lat":35.70488,"lon":139.67004},{"name":"なかのまるのなか保育園大きなおうち","province":"東京都","city":"中野区","address":"中野区中野2-18-4","lat":35.70297,"lon":139.66859},{"name":"にじいろ保育園中野駅南口","province":"東京都","city":"中野区","address":"中野区中野2-26-1","lat":35.70425,"lon":139.66631},{"name":"桃が丘さゆり保育園","province":"東京都","city":"中野区","address":"中野区中野3-19-13","lat":35.70285,"lon":139.66139},{"name":"きゃんばす中野保育園","province":"東京都","city":"中野区","address":"中野区中野3-48-8","lat":35.70511,"lon":139.66017},{"name":"コンビプラザ中野保育園","province":"東京都","city":"中野区","address":"中野区中野4-6-20","lat":35.70914,"lon":139.66389},{"name":"中野打越保育園","province":"東京都","city":"中野区","address":"中野区中野5-26ー11","lat":35.70816,"lon":139.66916},{"name":"中野ここわ保育園","province":"東京都","city":"中野区","address":"中野区中野5-4ー7","lat":35.70906,"lon":139.67216},{"name":"ピノキオ幼児舎中野","province":"東京都","city":"中野区","address":"中野区中野5丁目24番21号","lat":35.70934,"lon":139.66879},{"name":"昭和保育園","province":"東京都","city":"中野区","address":"中野区中野6ー2ー11","lat":35.70767,"lon":139.67848},{"name":"にじいろ保育園上高田","province":"東京都","city":"中野区","address":"中野区上高田1ー17ー5","lat":35.71043,"lon":139.67798},{"name":"ナーサリールーム　ベリーベアー中野","province":"東京都","city":"中野区","address":"中野区上高田1-39-14","lat":35.71053,"lon":139.67456},{"name":"キッズガーデン中野上高田","province":"東京都","city":"中野区","address":"中野区上高田2ー36ー2","lat":35.71177,"lon":139.67165},{"name":"さくらさくみらい　中野","province":"東京都","city":"中野区","address":"中野区上高田2-41-6","lat":35.71144,"lon":139.66975},{"name":"あけぼの保育園","province":"東京都","city":"中野区","address":"中野区上高田2-58-21","lat":35.71421,"lon":139.67018},{"name":"ちゃいれっく上高田保育園","province":"東京都","city":"中野区","address":"中野区上高田2-9-2","lat":35.71109,"lon":139.67293},{"name":"スターチャイルド≪東中野ナーサリー≫","province":"東京都","city":"中野区","address":"中野区東中野1-38-5","lat":35.70407,"lon":139.6866},{"name":"めばえの森保育園","province":"東京都","city":"中野区","address":"中野区東中野2丁目6番14号","lat":35.70194,"lon":139.68169},{"name":"幼保園シャローム東中野","province":"東京都","city":"中野区","address":"中野区東中野2丁目22番26号","lat":35.7046,"lon":139.68193},{"name":"東中野しらゆり保育園","province":"東京都","city":"中野区","address":"中野区東中野3-12-2","lat":35.70871,"lon":139.68237},{"name":"クオリスキッズ東中野保育園","province":"東京都","city":"中野区","address":"中野区東中野3丁目19番17号","lat":35.70847,"lon":139.6804},{"name":"シエル保育園・東中野","province":"東京都","city":"中野区","address":"中野区東中野4-11-12","lat":35.7083,"lon":139.68538},{"name":"キッズハーモニー・ひがしなかの","province":"東京都","city":"中野区","address":"中野区東中野4-4-26アトレヴィ東中野4階、5階","lat":35.70631,"lon":139.68443},{"name":"東中野プチ・クレイシュ","province":"東京都","city":"中野区","address":"中野区東中野5-1-1","lat":35.70659,"lon":139.68742},{"name":"陽だまりの丘保育園","province":"東京都","city":"中野区","address":"中野区東中野5-17-3","lat":35.70971,"lon":139.68872},{"name":"おはよう保育園東中野","province":"東京都","city":"中野区","address":"中野区東中野5-27-10ブリリア東中野パークサイドヒルズ","lat":35.70991,"lon":139.68829},{"name":"太陽の子　中野中央保育園","province":"東京都","city":"中野区","address":"中野区中央1-13-8大橋セントラルビル2階","lat":35.70142,"lon":139.68655},{"name":"ＡＩＡＩ　ＮＵＲＳＥＲＹ　中野坂上","province":"東京都","city":"中野区","address":"中野区中央2-2-3","lat":35.69766,"lon":139.68187},{"name":"こころなかのさかうえ保育園","province":"東京都","city":"中野区","address":"中野区中央2-43-12","lat":35.70037,"lon":139.67719},{"name":"ナーサリー中野の森","province":"東京都","city":"中野区","address":"中野区中央2丁目52番15号","lat":35.6994,"lon":139.67627},{"name":"仲町保育園","province":"東京都","city":"中野区","address":"中野区中央3-41-12","lat":35.69986,"lon":139.6714},{"name":"橋場そらとみどりの保育園大きなおうち","province":"東京都","city":"中野区","address":"中野区中央4-18-19","lat":35.69967,"lon":139.66858},{"name":"ひまわり保育園","province":"東京都","city":"中野区","address":"中野区中央4-61-4","lat":35.70277,"lon":139.66591},{"name":"モニカ新中野園","province":"東京都","city":"中野区","address":"中野区中央4-7-14","lat":35.69806,"lon":139.66873},{"name":"にじいろ保育園中野","province":"東京都","city":"中野区","address":"中野区中央5-48-2","lat":35.70158,"lon":139.66534},{"name":"本町保育園","province":"東京都","city":"中野区","address":"中野区本町3ー29ー17","lat":35.69714,"lon":139.67755},{"name":"マミーズエンジェル新中野保育園","province":"東京都","city":"中野区","address":"中野区本町4-30-122階","lat":35.69647,"lon":139.67053},{"name":"キッズガーデン新中野駅前","province":"東京都","city":"中野区","address":"中野区本町4-30-124階","lat":35.69647,"lon":139.67053},{"name":"コンビプラザ宮の台保育園","province":"東京都","city":"中野区","address":"中野区本町4丁目14番12号","lat":35.69454,"lon":139.67267},{"name":"鍋横保育園","province":"東京都","city":"中野区","address":"中野区本町5ー47ー13","lat":35.69341,"lon":139.66783},{"name":"さくらさくみらい　弥生町","province":"東京都","city":"中野区","address":"中野区弥生町1-43-12","lat":35.68882,"lon":139.67735},{"name":"みらいえ保育園中野富士見町","province":"東京都","city":"中野区","address":"中野区弥生町2ー48ー3","lat":35.69014,"lon":139.66954},{"name":"中野保育園","province":"東京都","city":"中野区","address":"中野区弥生町2ー6ー3","lat":35.69211,"lon":139.67648},{"name":"コンビプラザ弥生町保育園","province":"東京都","city":"中野区","address":"中野区弥生町2-41-2","lat":35.6915,"lon":139.6728},{"name":"弥生保育園","province":"東京都","city":"中野区","address":"中野区弥生町5ー4ー8","lat":35.68651,"lon":139.66707},{"name":"中野みなみ保育園","province":"東京都","city":"中野区","address":"中野区弥生町6-2-17","lat":35.68636,"lon":139.66237},{"name":"中野南台ちとせ保育園","province":"東京都","city":"中野区","address":"中野区南台2-1-5","lat":35.68312,"lon":139.67303},{"name":"南台保育園","province":"東京都","city":"中野区","address":"中野区南台3-35ー3","lat":35.68436,"lon":139.6653},{"name":"なかみなみコスモ保育園","province":"東京都","city":"中野区","address":"中野区南台3ー6ー17","lat":35.68553,"lon":139.66808},{"name":"キッズガーデン中野南台","province":"東京都","city":"中野区","address":"中野区南台4ー19ー11","lat":35.68111,"lon":139.66597},{"name":"アートチャイルドケア中野南台森の保育園","province":"東京都","city":"中野区","address":"中野区南台5-15-5","lat":35.68022,"lon":139.66254},{"name":"ピノキオ幼児舎野方保育園","province":"東京都","city":"中野区","address":"中野区丸山1-6-3","lat":35.723,"lon":139.65549},{"name":"丸山保育園","province":"東京都","city":"中野区","address":"中野区丸山2ー27ー16","lat":35.7257,"lon":139.64987},{"name":"江古田ここわ保育園","province":"東京都","city":"中野区","address":"中野区江古田1ー11ー5","lat":35.7254,"lon":139.67416},{"name":"テンダーラビング保育園　江古田","province":"東京都","city":"中野区","address":"中野区江古田1-43-5","lat":35.72638,"lon":139.67027},{"name":"徳田保育園","province":"東京都","city":"中野区","address":"中野区江古田3-15-2","lat":35.72824,"lon":139.66408},{"name":"にじいろ保育園江古田の杜","province":"東京都","city":"中野区","address":"中野区江古田3ー14ー1","lat":35.72741,"lon":139.6655},{"name":"なかよしの森保育園","province":"東京都","city":"中野区","address":"中野区江古田4-16-13","lat":35.72579,"lon":139.66319},{"name":"江原保育園","province":"東京都","city":"中野区","address":"中野区江原町1ー10ー16","lat":35.72935,"lon":139.67522},{"name":"さくらさくみらい　江原町","province":"東京都","city":"中野区","address":"中野区江原町1ー46ー1","lat":35.73092,"lon":139.67346},{"name":"中野松が丘すきっぷ保育園","province":"東京都","city":"中野区","address":"中野区松が丘1ー26ー2","lat":35.71957,"lon":139.67067},{"name":"にじいろ保育園松が丘","province":"東京都","city":"中野区","address":"中野区松が丘2-32ー3","lat":35.72327,"lon":139.67276},{"name":"沼袋保育園","province":"東京都","city":"中野区","address":"中野区沼袋1ー34ー14","lat":35.71964,"lon":139.66472},{"name":"松が丘保育園","province":"東京都","city":"中野区","address":"中野区沼袋2-17-5","lat":35.72297,"lon":139.66745},{"name":"グローバルキッズ沼袋園","province":"東京都","city":"中野区","address":"中野区沼袋2ー28ー32","lat":35.7216,"lon":139.66489},{"name":"沼袋西保育園","province":"東京都","city":"中野区","address":"中野区沼袋3-14-11","lat":35.71716,"lon":139.65924},{"name":"ピオニイ保育園","province":"東京都","city":"中野区","address":"中野区新井2-40-3","lat":35.71284,"lon":139.66301},{"name":"キッズフォレ平和の森","province":"東京都","city":"中野区","address":"中野区新井3-35-20","lat":35.71584,"lon":139.66035},{"name":"中野りとるぱんぷきんず","province":"東京都","city":"中野区","address":"中野区新井4-10-10","lat":35.71628,"lon":139.66687},{"name":"小学館アカデミーあらいやくし保育園","province":"東京都","city":"中野区","address":"中野区新井5-17-2","lat":35.71534,"lon":139.67021},{"name":"野方保育園","province":"東京都","city":"中野区","address":"中野区野方1ー35ー8","lat":35.70954,"lon":139.65637},{"name":"にじいろ保育園中野野方","province":"東京都","city":"中野区","address":"中野区野方1-41-9","lat":35.71041,"lon":139.65509},{"name":"野方さくら保育園","province":"東京都","city":"中野区","address":"中野区野方4-41-7","lat":35.72206,"lon":139.65683},{"name":"オンビーノスクエア野方","province":"東京都","city":"中野区","address":"中野区野方5-10-13","lat":35.71704,"lon":139.65086},{"name":"こどもヶ丘保育園野方園","province":"東京都","city":"中野区","address":"中野区野方6-38ー2","lat":35.72157,"lon":139.64915},{"name":"グローバルキッズ鷺ノ宮園","province":"東京都","city":"中野区","address":"中野区上鷺宮2-10-21","lat":35.72761,"lon":139.63345},{"name":"とちの木保育園","province":"東京都","city":"中野区","address":"中野区上鷺宮3-8-8","lat":35.73318,"lon":139.63185},{"name":"中野ひかり保育園","province":"東京都","city":"中野区","address":"中野区上鷺宮4-18-8","lat":35.7348,"lon":139.6288},{"name":"こどもヶ丘保育園上鷺宮園","province":"東京都","city":"中野区","address":"中野区上鷺宮5-5-6","lat":35.72881,"lon":139.62866},{"name":"鷺宮クローバー保育園","province":"東京都","city":"中野区","address":"中野区鷺宮2ー4ー3","lat":35.72467,"lon":139.64667},{"name":"にじいろ保育園鷺ノ宮","province":"東京都","city":"中野区","address":"中野区鷺宮3-44-7","lat":35.72554,"lon":139.64136},{"name":"ぽけっとランドさぎのみや保育園","province":"東京都","city":"中野区","address":"中野区鷺宮4-33-1","lat":35.72425,"lon":139.6375},{"name":"わらべ西鷺宮保育園","province":"東京都","city":"中野区","address":"中野区鷺宮5-22-14","lat":35.72654,"lon":139.63258},{"name":"七海保育園","province":"東京都","city":"中野区","address":"中野区若宮1-1-2","lat":35.71608,"lon":139.64978},{"name":"まなびの森保育園鷺ノ宮","province":"東京都","city":"中野区","address":"中野区若宮3-23-3","lat":35.72227,"lon":139.64227},{"name":"田中ナースリー若宮保育園","province":"東京都","city":"中野区","address":"中野区若宮3-6-9","lat":35.72057,"lon":139.64558},{"name":"大和東もみじの森保育園","province":"東京都","city":"中野区","address":"中野区大和町1丁目37番4号","lat":35.71192,"lon":139.65106},{"name":"田中ナースリー大和保育園","province":"東京都","city":"中野区","address":"中野区大和町4-42ー4","lat":35.7149,"lon":139.64217},{"name":"中野鷺ノ宮雲母保育園","province":"東京都","city":"中野区","address":"中野区白鷺1ー1ー4","lat":35.71589,"lon":139.63971},{"name":"聖ピオ保育園","province":"東京都","city":"中野区","address":"中野区白鷺1-15-5","lat":35.7202,"lon":139.6389},{"name":"キッズガーデン中野白鷺","province":"東京都","city":"中野区","address":"中野区白鷺1-6-10","lat":35.71609,"lon":139.63832},{"name":"白鷺保育園","province":"東京都","city":"中野区","address":"中野区白鷺3ー3ー24","lat":35.72163,"lon":139.63354},{"name":"おはよう保育園東中野","province":"東京都","city":"中野区","address":"中野区東中野5-27-10ブリリア東中野パークサイドヒルズ","lat":35.71015,"lon":139.69066},{"name":"にじいろ保育園中野野方","province":"東京都","city":"中野区","address":"中野区野方1-41-9","lat":35.71015,"lon":139.65509},{"name":"AIAI NURSERY 中野坂上","province":"東京都","city":"中野区","address":"中野区中央2-2-3","lat":35.69766,"lon":139.68187},{"name":"コンビプラザ弥生町保育園","province":"東京都","city":"中野区","address":"中野区弥生町2-41-2","lat":35.69180505,"lon":139.6727677},{"name":"中野みなみ保育園","province":"東京都","city":"中野区","address":"中野区南台5-29-9","lat":35.68157,"lon":139.66032},{"name":"七海保育園","province":"東京都","city":"中野区","address":"中野区大和町4-12-10","lat":35.71541,"lon":139.64725},{"name":"AIAI NURSERY中野坂上","province":"東京都","city":"中野区","address":"中野区中央2-2-3","lat":35.69766,"lon":139.68187},{"name":"コンビプラザ弥生町保育園","province":"東京都","city":"中野区","address":"中野区弥生町2-41-2","lat":35.69136,"lon":139.67195},{"name":"中野松が丘すきっぷ保育園３１","province":"東京都","city":"中野区","address":"中野区松が丘1-26-2","lat":35.71957,"lon":139.67067},{"name":"もみじやま保育園","province":"東京都","city":"中野区","address":"中野区中野1-58-9","lat":35.70449,"lon":139.67328},{"name":"あさひ保育園","province":"東京都","city":"中野区","address":"中野区上高田1-45-8","lat":35.7117,"lon":139.67497},{"name":"仲町保育園","province":"東京都","city":"中野区","address":"中野区中央2-52-15","lat":35.6994,"lon":139.67627},{"name":"あい・あい保育園　中野坂上園","province":"東京都","city":"中野区","address":"中野区中央2-2-3","lat":35.69766,"lon":139.68187},{"name":"宮の台保育園","province":"東京都","city":"中野区","address":"中野区本町4-14-13","lat":35.69454,"lon":139.67267},{"name":"大和東保育園","province":"東京都","city":"中野区","address":"中野区大和町1-37-4","lat":35.71192,"lon":139.65106},{"name":"大和東保育園","province":"東京都","city":"中野区","address":"中野区若宮1-1-2(仮設)","lat":35.71608,"lon":139.64978},{"name":"コンビプラザ中野保育園","province":"東京都","city":"中野区","address":"中野区中野4-6-20","lat":35.70915,"lon":139.6639},{"name":"中野ここわ保育園","province":"東京都","city":"中野区","address":"中野区中野5-4-7","lat":35.70906,"lon":139.67217},{"name":"中野南台ちとせ保育園","province":"東京都","city":"中野区","address":"中野区南台2-1-5","lat":35.68312,"lon":139.67304},{"name":"ピオニイ保育園","province":"東京都","city":"中野区","address":"中野区新井2-40-3","lat":35.71285,"lon":139.66301},{"name":"キッズフォレ平和の森","province":"東京都","city":"中野区","address":"中野区新井3-35-20","lat":35.71584,"lon":139.66036},{"name":"野方さくら保育園","province":"東京都","city":"中野区","address":"中野区野方4-41-7","lat":35.72207,"lon":139.65683},{"name":"こどもヶ丘保育園野方園","province":"東京都","city":"中野区","address":"中野区野方6-38-2","lat":35.72157,"lon":139.64916},{"name":"ぽけっとランドさぎのみや保育園","province":"東京都","city":"中野区","address":"中野区鷺宮4-33-1","lat":35.72426,"lon":139.6375},{"name":"田中ナースリー大和保育園","province":"東京都","city":"中野区","address":"中野区大和町4-42-4","lat":35.71491,"lon":139.64217},{"name":"白鷺保育園","province":"東京都","city":"中野区","address":"中野区白鷺3-3-24","lat":35.72163,"lon":139.63355},{"name":"もみじやま保育園","province":"東京都","city":"中野区","address":"中野区中野1-58-9","lat":35.70391,"lon":139.67265},{"name":"宮園保育園","province":"東京都","city":"中野区","address":"中野区中野1-21ー6","lat":35.70316,"lon":139.6767},{"name":"アルテ子どもと木幼保園","province":"東京都","city":"中野区","address":"中野区中野1-59-5","lat":35.70449,"lon":139.67328},{"name":"太陽の子　中野桜花保育園","province":"東京都","city":"中野区","address":"中野区中野2-14-11","lat":35.70488,"lon":139.67004},{"name":"なかのまるのなか保育園大きなおうち","province":"東京都","city":"中野区","address":"中野区中野2-18-4","lat":35.70297,"lon":139.66859},{"name":"にじいろ保育園中野駅南口","province":"東京都","city":"中野区","address":"中野区中野2-26-1","lat":35.70425,"lon":139.66631},{"name":"桃が丘さゆり保育園","province":"東京都","city":"中野区","address":"中野区中野3-19-13","lat":35.70285,"lon":139.66139},{"name":"きゃんばす中野保育園","province":"東京都","city":"中野区","address":"中野区中野3-48-8","lat":35.70511,"lon":139.66017},{"name":"コンビプラザ中野保育園","province":"東京都","city":"中野区","address":"中野区中野4-6-20","lat":35.70914,"lon":139.66389},{"name":"中野打越保育園","province":"東京都","city":"中野区","address":"中野区中野5-26ー11","lat":35.70816,"lon":139.66916},{"name":"中野ここわ保育園","province":"東京都","city":"中野区","address":"中野区中野5-4ー7","lat":35.70906,"lon":139.67216},{"name":"ピノキオ幼児舎中野","province":"東京都","city":"中野区","address":"中野区中野5丁目24番21号","lat":35.70934,"lon":139.66879},{"name":"昭和保育園","province":"東京都","city":"中野区","address":"中野区中野6ー2ー11","lat":35.70767,"lon":139.67848},{"name":"にじいろ保育園上高田","province":"東京都","city":"中野区","address":"中野区上高田1ー17ー5","lat":35.71043,"lon":139.67798},{"name":"ナーサリールーム　ベリーベアー中野","province":"東京都","city":"中野区","address":"中野区上高田1-39-14","lat":35.71053,"lon":139.67456},{"name":"キッズガーデン中野上高田","province":"東京都","city":"中野区","address":"中野区上高田2ー36ー2","lat":35.71177,"lon":139.67165},{"name":"さくらさくみらい　中野","province":"東京都","city":"中野区","address":"中野区上高田2-41-6","lat":35.71144,"lon":139.66975},{"name":"あけぼの保育園","province":"東京都","city":"中野区","address":"中野区上高田2-58-21","lat":35.71421,"lon":139.67018},{"name":"ちゃいれっく上高田保育園","province":"東京都","city":"中野区","address":"中野区上高田2-9-2","lat":35.71109,"lon":139.67293},{"name":"スターチャイルド≪東中野ナーサリー≫","province":"東京都","city":"中野区","address":"中野区東中野1-38-5","lat":35.70407,"lon":139.6866},{"name":"めばえの森保育園","province":"東京都","city":"中野区","address":"中野区東中野2丁目6番14号","lat":35.70194,"lon":139.68169},{"name":"幼保園シャローム東中野","province":"東京都","city":"中野区","address":"中野区東中野2丁目22番26号","lat":35.7046,"lon":139.68193},{"name":"東中野しらゆり保育園","province":"東京都","city":"中野区","address":"中野区東中野3-12-2","lat":35.70871,"lon":139.68237},{"name":"クオリスキッズ東中野保育園","province":"東京都","city":"中野区","address":"中野区東中野3丁目19番17号","lat":35.70847,"lon":139.6804},{"name":"シエル保育園・東中野","province":"東京都","city":"中野区","address":"中野区東中野4-11-12","lat":35.7083,"lon":139.68538},{"name":"キッズハーモニー・ひがしなかの","province":"東京都","city":"中野区","address":"中野区東中野4-4-26アトレヴィ東中野4階、5階","lat":35.70631,"lon":139.68443},{"name":"東中野プチ・クレイシュ","province":"東京都","city":"中野区","address":"中野区東中野5-1-1","lat":35.70659,"lon":139.68742},{"name":"陽だまりの丘保育園","province":"東京都","city":"中野区","address":"中野区東中野5-17-3","lat":35.70971,"lon":139.68872},{"name":"おはよう保育園東中野","province":"東京都","city":"中野区","address":"中野区東中野5-27-10ブリリア東中野パークサイドヒルズ","lat":35.70991,"lon":139.68829},{"name":"太陽の子　中野中央保育園","province":"東京都","city":"中野区","address":"中野区中央1-13-8大橋セントラルビル2階","lat":35.70142,"lon":139.68655},{"name":"ＡＩＡＩ　ＮＵＲＳＥＲＹ　中野坂上","province":"東京都","city":"中野区","address":"中野区中央2-2-3","lat":35.69766,"lon":139.68187},{"name":"こころなかのさかうえ保育園","province":"東京都","city":"中野区","address":"中野区中央2-43-12","lat":35.70037,"lon":139.67719},{"name":"ナーサリー中野の森","province":"東京都","city":"中野区","address":"中野区中央2丁目52番15号","lat":35.6994,"lon":139.67627},{"name":"仲町保育園","province":"東京都","city":"中野区","address":"中野区中央3-41-12","lat":35.69986,"lon":139.6714},{"name":"橋場そらとみどりの保育園大きなおうち","province":"東京都","city":"中野区","address":"中野区中央4-18-19","lat":35.69967,"lon":139.66858},{"name":"ひまわり保育園","province":"東京都","city":"中野区","address":"中野区中央4-61-4","lat":35.70277,"lon":139.66591},{"name":"モニカ新中野園","province":"東京都","city":"中野区","address":"中野区中央4-7-14","lat":35.69806,"lon":139.66873},{"name":"にじいろ保育園中野","province":"東京都","city":"中野区","address":"中野区中央5-48-2","lat":35.70158,"lon":139.66534},{"name":"本町保育園","province":"東京都","city":"中野区","address":"中野区本町3ー29ー17","lat":35.69714,"lon":139.67755},{"name":"マミーズエンジェル新中野保育園","province":"東京都","city":"中野区","address":"中野区本町4-30-122階","lat":35.69647,"lon":139.67053},{"name":"キッズガーデン新中野駅前","province":"東京都","city":"中野区","address":"中野区本町4-30-124階","lat":35.69647,"lon":139.67053},{"name":"コンビプラザ宮の台保育園","province":"東京都","city":"中野区","address":"中野区本町4丁目14番12号","lat":35.69454,"lon":139.67267},{"name":"鍋横保育園","province":"東京都","city":"中野区","address":"中野区本町5ー47ー13","lat":35.69341,"lon":139.66783},{"name":"さくらさくみらい　弥生町","province":"東京都","city":"中野区","address":"中野区弥生町1-43-12","lat":35.68882,"lon":139.67735},{"name":"みらいえ保育園中野富士見町","province":"東京都","city":"中野区","address":"中野区弥生町2ー48ー3","lat":35.69014,"lon":139.66954},{"name":"中野保育園","province":"東京都","city":"中野区","address":"中野区弥生町2ー6ー3","lat":35.69211,"lon":139.67648},{"name":"コンビプラザ弥生町保育園","province":"東京都","city":"中野区","address":"中野区弥生町2-41-2","lat":35.6915,"lon":139.6728},{"name":"弥生保育園","province":"東京都","city":"中野区","address":"中野区弥生町5ー4ー8","lat":35.68651,"lon":139.66707},{"name":"中野みなみ保育園","province":"東京都","city":"中野区","address":"中野区弥生町6-2-17","lat":35.68636,"lon":139.66237},{"name":"中野南台ちとせ保育園","province":"東京都","city":"中野区","address":"中野区南台2-1-5","lat":35.68312,"lon":139.67303},{"name":"南台保育園","province":"東京都","city":"中野区","address":"中野区南台3-35ー3","lat":35.68436,"lon":139.6653},{"name":"なかみなみコスモ保育園","province":"東京都","city":"中野区","address":"中野区南台3ー6ー17","lat":35.68553,"lon":139.66808},{"name":"キッズガーデン中野南台","province":"東京都","city":"中野区","address":"中野区南台4ー19ー11","lat":35.68111,"lon":139.66597},{"name":"アートチャイルドケア中野南台森の保育園","province":"東京都","city":"中野区","address":"中野区南台5-15-5","lat":35.68022,"lon":139.66254},{"name":"ピノキオ幼児舎野方保育園","province":"東京都","city":"中野区","address":"中野区丸山1-6-3","lat":35.723,"lon":139.65549},{"name":"丸山保育園","province":"東京都","city":"中野区","address":"中野区丸山2ー27ー16","lat":35.7257,"lon":139.64987},{"name":"江古田ここわ保育園","province":"東京都","city":"中野区","address":"中野区江古田1ー11ー5","lat":35.7254,"lon":139.67416},{"name":"テンダーラビング保育園　江古田","province":"東京都","city":"中野区","address":"中野区江古田1-43-5","lat":35.72638,"lon":139.67027},{"name":"徳田保育園","province":"東京都","city":"中野区","address":"中野区江古田3-15-2","lat":35.72824,"lon":139.66408},{"name":"にじいろ保育園江古田の杜","province":"東京都","city":"中野区","address":"中野区江古田3ー14ー1","lat":35.72741,"lon":139.6655},{"name":"なかよしの森保育園","province":"東京都","city":"中野区","address":"中野区江古田4-16-13","lat":35.72579,"lon":139.66319},{"name":"江原保育園","province":"東京都","city":"中野区","address":"中野区江原町1ー10ー16","lat":35.72935,"lon":139.67522},{"name":"さくらさくみらい　江原町","province":"東京都","city":"中野区","address":"中野区江原町1ー46ー1","lat":35.73092,"lon":139.67346},{"name":"中野松が丘すきっぷ保育園","province":"東京都","city":"中野区","address":"中野区松が丘1ー26ー2","lat":35.71957,"lon":139.67067},{"name":"にじいろ保育園松が丘","province":"東京都","city":"中野区","address":"中野区松が丘2-32ー3","lat":35.72327,"lon":139.67276},{"name":"沼袋保育園","province":"東京都","city":"中野区","address":"中野区沼袋1ー34ー14","lat":35.71964,"lon":139.66472},{"name":"松が丘保育園","province":"東京都","city":"中野区","address":"中野区沼袋2-17-5","lat":35.72297,"lon":139.66745},{"name":"グローバルキッズ沼袋園","province":"東京都","city":"中野区","address":"中野区沼袋2ー28ー32","lat":35.7216,"lon":139.66489},{"name":"沼袋西保育園","province":"東京都","city":"中野区","address":"中野区沼袋3-14-11","lat":35.71716,"lon":139.65924},{"name":"ピオニイ保育園","province":"東京都","city":"中野区","address":"中野区新井2-40-3","lat":35.71284,"lon":139.66301},{"name":"キッズフォレ平和の森","province":"東京都","city":"中野区","address":"中野区新井3-35-20","lat":35.71584,"lon":139.66035},{"name":"中野りとるぱんぷきんず","province":"東京都","city":"中野区","address":"中野区新井4-10-10","lat":35.71628,"lon":139.66687},{"name":"小学館アカデミーあらいやくし保育園","province":"東京都","city":"中野区","address":"中野区新井5-17-2","lat":35.71534,"lon":139.67021},{"name":"野方保育園","province":"東京都","city":"中野区","address":"中野区野方1ー35ー8","lat":35.70954,"lon":139.65637},{"name":"にじいろ保育園中野野方","province":"東京都","city":"中野区","address":"中野区野方1-41-9","lat":35.71041,"lon":139.65509},{"name":"野方さくら保育園","province":"東京都","city":"中野区","address":"中野区野方4-41-7","lat":35.72206,"lon":139.65683},{"name":"オンビーノスクエア野方","province":"東京都","city":"中野区","address":"中野区野方5-10-13","lat":35.71704,"lon":139.65086},{"name":"こどもヶ丘保育園野方園","province":"東京都","city":"中野区","address":"中野区野方6-38ー2","lat":35.72157,"lon":139.64915},{"name":"グローバルキッズ鷺ノ宮園","province":"東京都","city":"中野区","address":"中野区上鷺宮2-10-21","lat":35.72761,"lon":139.63345},{"name":"とちの木保育園","province":"東京都","city":"中野区","address":"中野区上鷺宮3-8-8","lat":35.73318,"lon":139.63185},{"name":"中野ひかり保育園","province":"東京都","city":"中野区","address":"中野区上鷺宮4-18-8","lat":35.7348,"lon":139.6288},{"name":"こどもヶ丘保育園上鷺宮園","province":"東京都","city":"中野区","address":"中野区上鷺宮5-5-6","lat":35.72881,"lon":139.62866},{"name":"鷺宮クローバー保育園","province":"東京都","city":"中野区","address":"中野区鷺宮2ー4ー3","lat":35.72467,"lon":139.64667},{"name":"にじいろ保育園鷺ノ宮","province":"東京都","city":"中野区","address":"中野区鷺宮3-44-7","lat":35.72554,"lon":139.64136},{"name":"ぽけっとランドさぎのみや保育園","province":"東京都","city":"中野区","address":"中野区鷺宮4-33-1","lat":35.72425,"lon":139.6375},{"name":"わらべ西鷺宮保育園","province":"東京都","city":"中野区","address":"中野区鷺宮5-22-14","lat":35.72654,"lon":139.63258},{"name":"七海保育園","province":"東京都","city":"中野区","address":"中野区若宮1-1-2","lat":35.71608,"lon":139.64978},{"name":"まなびの森保育園鷺ノ宮","province":"東京都","city":"中野区","address":"中野区若宮3-23-3","lat":35.72227,"lon":139.64227},{"name":"田中ナースリー若宮保育園","province":"東京都","city":"中野区","address":"中野区若宮3-6-9","lat":35.72057,"lon":139.64558},{"name":"大和東もみじの森保育園","province":"東京都","city":"中野区","address":"中野区大和町1丁目37番4号","lat":35.71192,"lon":139.65106},{"name":"田中ナースリー大和保育園","province":"東京都","city":"中野区","address":"中野区大和町4-42ー4","lat":35.7149,"lon":139.64217},{"name":"中野鷺ノ宮雲母保育園","province":"東京都","city":"中野区","address":"中野区白鷺1ー1ー4","lat":35.71589,"lon":139.63971},{"name":"聖ピオ保育園","province":"東京都","city":"中野区","address":"中野区白鷺1-15-5","lat":35.7202,"lon":139.6389},{"name":"キッズガーデン中野白鷺","province":"東京都","city":"中野区","address":"中野区白鷺1-6-10","lat":35.71609,"lon":139.63832},{"name":"白鷺保育園","province":"東京都","city":"中野区","address":"中野区白鷺3ー3ー24","lat":35.72163,"lon":139.63354},{"name":"おはよう保育園東中野","province":"東京都","city":"中野区","address":"中野区東中野5-27-10ブリリア東中野パークサイドヒルズ","lat":35.71015,"lon":139.69066},{"name":"にじいろ保育園中野野方","province":"東京都","city":"中野区","address":"中野区野方1-41-9","lat":35.71015,"lon":139.65509},{"name":"AIAI NURSERY 中野坂上","province":"東京都","city":"中野区","address":"中野区中央2-2-3","lat":35.69766,"lon":139.68187},{"name":"コンビプラザ弥生町保育園","province":"東京都","city":"中野区","address":"中野区弥生町2-41-2","lat":35.69180505,"lon":139.6727677},{"name":"中野みなみ保育園","province":"東京都","city":"中野区","address":"中野区南台5-29-9","lat":35.68157,"lon":139.66032},{"name":"七海保育園","province":"東京都","city":"中野区","address":"中野区大和町4-12-10","lat":35.71541,"lon":139.64725},{"name":"AIAI NURSERY中野坂上","province":"東京都","city":"中野区","address":"中野区中央2-2-3","lat":35.69766,"lon":139.68187},{"name":"コンビプラザ弥生町保育園","province":"東京都","city":"中野区","address":"中野区弥生町2-41-2","lat":35.69136,"lon":139.67195},{"name":"中野松が丘すきっぷ保育園３１","province":"東京都","city":"中野区","address":"中野区松が丘1-26-2","lat":35.71957,"lon":139.67067},{"name":"もみじやま保育園","province":"東京都","city":"中野区","address":"中野区中野1-58-9","lat":35.70449,"lon":139.67328},{"name":"あさひ保育園","province":"東京都","city":"中野区","address":"中野区上高田1-45-8","lat":35.7117,"lon":139.67497},{"name":"仲町保育園","province":"東京都","city":"中野区","address":"中野区中央2-52-15","lat":35.6994,"lon":139.67627},{"name":"あい・あい保育園　中野坂上園","province":"東京都","city":"中野区","address":"中野区中央2-2-3","lat":35.69766,"lon":139.68187},{"name":"宮の台保育園","province":"東京都","city":"中野区","address":"中野区本町4-14-13","lat":35.69454,"lon":139.67267},{"name":"大和東保育園","province":"東京都","city":"中野区","address":"中野区大和町1-37-4","lat":35.71192,"lon":139.65106},{"name":"大和東保育園","province":"東京都","city":"中野区","address":"中野区若宮1-1-2(仮設)","lat":35.71608,"lon":139.64978},{"name":"コンビプラザ中野保育園","province":"東京都","city":"中野区","address":"中野区中野4-6-20","lat":35.70915,"lon":139.6639},{"name":"中野ここわ保育園","province":"東京都","city":"中野区","address":"中野区中野5-4-7","lat":35.70906,"lon":139.67217},{"name":"中野南台ちとせ保育園","province":"東京都","city":"中野区","address":"中野区南台2-1-5","lat":35.68312,"lon":139.67304},{"name":"ピオニイ保育園","province":"東京都","city":"中野区","address":"中野区新井2-40-3","lat":35.71285,"lon":139.66301},{"name":"キッズフォレ平和の森","province":"東京都","city":"中野区","address":"中野区新井3-35-20","lat":35.71584,"lon":139.66036},{"name":"野方さくら保育園","province":"東京都","city":"中野区","address":"中野区野方4-41-7","lat":35.72207,"lon":139.65683},{"name":"こどもヶ丘保育園野方園","province":"東京都","city":"中野区","address":"中野区野方6-38-2","lat":35.72157,"lon":139.64916},{"name":"ぽけっとランドさぎのみや保育園","province":"東京都","city":"中野区","address":"中野区鷺宮4-33-1","lat":35.72426,"lon":139.6375},{"name":"田中ナースリー大和保育園","province":"東京都","city":"中野区","address":"中野区大和町4-42-4","lat":35.71491,"lon":139.64217},{"name":"白鷺保育園","province":"東京都","city":"中野区","address":"中野区白鷺3-3-24","lat":35.72163,"lon":139.63355},{"name":"もみじやま保育園","province":"東京都","city":"中野区","address":"中野区中野1-58-9","lat":35.70391,"lon":139.67265},{"name":"宮園保育園","province":"東京都","city":"中野区","address":"中野区中野1-21ー6","lat":35.70316,"lon":139.6767},{"name":"アルテ子どもと木幼保園","province":"東京都","city":"中野区","address":"中野区中野1-59-5","lat":35.70449,"lon":139.67328},{"name":"太陽の子　中野桜花保育園","province":"東京都","city":"中野区","address":"中野区中野2-14-11","lat":35.70488,"lon":139.67004},{"name":"なかのまるのなか保育園大きなおうち","province":"東京都","city":"中野区","address":"中野区中野2-18-4","lat":35.70297,"lon":139.66859},{"name":"にじいろ保育園中野駅南口","province":"東京都","city":"中野区","address":"中野区中野2-26-1","lat":35.70425,"lon":139.66631},{"name":"桃が丘さゆり保育園","province":"東京都","city":"中野区","address":"中野区中野3-19-13","lat":35.70285,"lon":139.66139},{"name":"きゃんばす中野保育園","province":"東京都","city":"中野区","address":"中野区中野3-48-8","lat":35.70511,"lon":139.66017},{"name":"コンビプラザ中野保育園","province":"東京都","city":"中野区","address":"中野区中野4-6-20","lat":35.70914,"lon":139.66389},{"name":"中野打越保育園","province":"東京都","city":"中野区","address":"中野区中野5-26ー11","lat":35.70816,"lon":139.66916},{"name":"中野ここわ保育園","province":"東京都","city":"中野区","address":"中野区中野5-4ー7","lat":35.70906,"lon":139.67216},{"name":"ピノキオ幼児舎中野","province":"東京都","city":"中野区","address":"中野区中野5丁目24番21号","lat":35.70934,"lon":139.66879},{"name":"昭和保育園","province":"東京都","city":"中野区","address":"中野区中野6ー2ー11","lat":35.70767,"lon":139.67848},{"name":"にじいろ保育園上高田","province":"東京都","city":"中野区","address":"中野区上高田1ー17ー5","lat":35.71043,"lon":139.67798},{"name":"ナーサリールーム　ベリーベアー中野","province":"東京都","city":"中野区","address":"中野区上高田1-39-14","lat":35.71053,"lon":139.67456},{"name":"キッズガーデン中野上高田","province":"東京都","city":"中野区","address":"中野区上高田2ー36ー2","lat":35.71177,"lon":139.67165},{"name":"さくらさくみらい　中野","province":"東京都","city":"中野区","address":"中野区上高田2-41-6","lat":35.71144,"lon":139.66975},{"name":"あけぼの保育園","province":"東京都","city":"中野区","address":"中野区上高田2-58-21","lat":35.71421,"lon":139.67018},{"name":"ちゃいれっく上高田保育園","province":"東京都","city":"中野区","address":"中野区上高田2-9-2","lat":35.71109,"lon":139.67293},{"name":"スターチャイルド≪東中野ナーサリー≫","province":"東京都","city":"中野区","address":"中野区東中野1-38-5","lat":35.70407,"lon":139.6866},{"name":"めばえの森保育園","province":"東京都","city":"中野区","address":"中野区東中野2丁目6番14号","lat":35.70194,"lon":139.68169},{"name":"幼保園シャローム東中野","province":"東京都","city":"中野区","address":"中野区東中野2丁目22番26号","lat":35.7046,"lon":139.68193},{"name":"東中野しらゆり保育園","province":"東京都","city":"中野区","address":"中野区東中野3-12-2","lat":35.70871,"lon":139.68237},{"name":"クオリスキッズ東中野保育園","province":"東京都","city":"中野区","address":"中野区東中野3丁目19番17号","lat":35.70847,"lon":139.6804},{"name":"シエル保育園・東中野","province":"東京都","city":"中野区","address":"中野区東中野4-11-12","lat":35.7083,"lon":139.68538},{"name":"キッズハーモニー・ひがしなかの","province":"東京都","city":"中野区","address":"中野区東中野4-4-26アトレヴィ東中野4階、5階","lat":35.70631,"lon":139.68443},{"name":"東中野プチ・クレイシュ","province":"東京都","city":"中野区","address":"中野区東中野5-1-1","lat":35.70659,"lon":139.68742},{"name":"陽だまりの丘保育園","province":"東京都","city":"中野区","address":"中野区東中野5-17-3","lat":35.70971,"lon":139.68872},{"name":"おはよう保育園東中野","province":"東京都","city":"中野区","address":"中野区東中野5-27-10ブリリア東中野パークサイドヒルズ","lat":35.70991,"lon":139.68829},{"name":"太陽の子　中野中央保育園","province":"東京都","city":"中野区","address":"中野区中央1-13-8大橋セントラルビル2階","lat":35.70142,"lon":139.68655},{"name":"ＡＩＡＩ　ＮＵＲＳＥＲＹ　中野坂上","province":"東京都","city":"中野区","address":"中野区中央2-2-3","lat":35.69766,"lon":139.68187},{"name":"こころなかのさかうえ保育園","province":"東京都","city":"中野区","address":"中野区中央2-43-12","lat":35.70037,"lon":139.67719},{"name":"ナーサリー中野の森","province":"東京都","city":"中野区","address":"中野区中央2丁目52番15号","lat":35.6994,"lon":139.67627},{"name":"仲町保育園","province":"東京都","city":"中野区","address":"中野区中央3-41-12","lat":35.69986,"lon":139.6714},{"name":"橋場そらとみどりの保育園大きなおうち","province":"東京都","city":"中野区","address":"中野区中央4-18-19","lat":35.69967,"lon":139.66858},{"name":"ひまわり保育園","province":"東京都","city":"中野区","address":"中野区中央4-61-4","lat":35.70277,"lon":139.66591},{"name":"モニカ新中野園","province":"東京都","city":"中野区","address":"中野区中央4-7-14","lat":35.69806,"lon":139.66873},{"name":"にじいろ保育園中野","province":"東京都","city":"中野区","address":"中野区中央5-48-2","lat":35.70158,"lon":139.66534},{"name":"本町保育園","province":"東京都","city":"中野区","address":"中野区本町3ー29ー17","lat":35.69714,"lon":139.67755},{"name":"マミーズエンジェル新中野保育園","province":"東京都","city":"中野区","address":"中野区本町4-30-122階","lat":35.69647,"lon":139.67053},{"name":"キッズガーデン新中野駅前","province":"東京都","city":"中野区","address":"中野区本町4-30-124階","lat":35.69647,"lon":139.67053},{"name":"コンビプラザ宮の台保育園","province":"東京都","city":"中野区","address":"中野区本町4丁目14番12号","lat":35.69454,"lon":139.67267},{"name":"鍋横保育園","province":"東京都","city":"中野区","address":"中野区本町5ー47ー13","lat":35.69341,"lon":139.66783},{"name":"さくらさくみらい　弥生町","province":"東京都","city":"中野区","address":"中野区弥生町1-43-12","lat":35.68882,"lon":139.67735},{"name":"みらいえ保育園中野富士見町","province":"東京都","city":"中野区","address":"中野区弥生町2ー48ー3","lat":35.69014,"lon":139.66954},{"name":"中野保育園","province":"東京都","city":"中野区","address":"中野区弥生町2ー6ー3","lat":35.69211,"lon":139.67648},{"name":"コンビプラザ弥生町保育園","province":"東京都","city":"中野区","address":"中野区弥生町2-41-2","lat":35.6915,"lon":139.6728},{"name":"弥生保育園","province":"東京都","city":"中野区","address":"中野区弥生町5ー4ー8","lat":35.68651,"lon":139.66707},{"name":"中野みなみ保育園","province":"東京都","city":"中野区","address":"中野区弥生町6-2-17","lat":35.68636,"lon":139.66237},{"name":"中野南台ちとせ保育園","province":"東京都","city":"中野区","address":"中野区南台2-1-5","lat":35.68312,"lon":139.67303},{"name":"南台保育園","province":"東京都","city":"中野区","address":"中野区南台3-35ー3","lat":35.68436,"lon":139.6653},{"name":"なかみなみコスモ保育園","province":"東京都","city":"中野区","address":"中野区南台3ー6ー17","lat":35.68553,"lon":139.66808},{"name":"キッズガーデン中野南台","province":"東京都","city":"中野区","address":"中野区南台4ー19ー11","lat":35.68111,"lon":139.66597},{"name":"アートチャイルドケア中野南台森の保育園","province":"東京都","city":"中野区","address":"中野区南台5-15-5","lat":35.68022,"lon":139.66254},{"name":"ピノキオ幼児舎野方保育園","province":"東京都","city":"中野区","address":"中野区丸山1-6-3","lat":35.723,"lon":139.65549},{"name":"丸山保育園","province":"東京都","city":"中野区","address":"中野区丸山2ー27ー16","lat":35.7257,"lon":139.64987},{"name":"江古田ここわ保育園","province":"東京都","city":"中野区","address":"中野区江古田1ー11ー5","lat":35.7254,"lon":139.67416},{"name":"テンダーラビング保育園　江古田","province":"東京都","city":"中野区","address":"中野区江古田1-43-5","lat":35.72638,"lon":139.67027},{"name":"徳田保育園","province":"東京都","city":"中野区","address":"中野区江古田3-15-2","lat":35.72824,"lon":139.66408},{"name":"にじいろ保育園江古田の杜","province":"東京都","city":"中野区","address":"中野区江古田3ー14ー1","lat":35.72741,"lon":139.6655},{"name":"なかよしの森保育園","province":"東京都","city":"中野区","address":"中野区江古田4-16-13","lat":35.72579,"lon":139.66319},{"name":"江原保育園","province":"東京都","city":"中野区","address":"中野区江原町1ー10ー16","lat":35.72935,"lon":139.67522},{"name":"さくらさくみらい　江原町","province":"東京都","city":"中野区","address":"中野区江原町1ー46ー1","lat":35.73092,"lon":139.67346},{"name":"中野松が丘すきっぷ保育園","province":"東京都","city":"中野区","address":"中野区松が丘1ー26ー2","lat":35.71957,"lon":139.67067},{"name":"にじいろ保育園松が丘","province":"東京都","city":"中野区","address":"中野区松が丘2-32ー3","lat":35.72327,"lon":139.67276},{"name":"沼袋保育園","province":"東京都","city":"中野区","address":"中野区沼袋1ー34ー14","lat":35.71964,"lon":139.66472},{"name":"松が丘保育園","province":"東京都","city":"中野区","address":"中野区沼袋2-17-5","lat":35.72297,"lon":139.66745},{"name":"グローバルキッズ沼袋園","province":"東京都","city":"中野区","address":"中野区沼袋2ー28ー32","lat":35.7216,"lon":139.66489},{"name":"沼袋西保育園","province":"東京都","city":"中野区","address":"中野区沼袋3-14-11","lat":35.71716,"lon":139.65924},{"name":"ピオニイ保育園","province":"東京都","city":"中野区","address":"中野区新井2-40-3","lat":35.71284,"lon":139.66301},{"name":"キッズフォレ平和の森","province":"東京都","city":"中野区","address":"中野区新井3-35-20","lat":35.71584,"lon":139.66035},{"name":"中野りとるぱんぷきんず","province":"東京都","city":"中野区","address":"中野区新井4-10-10","lat":35.71628,"lon":139.66687},{"name":"小学館アカデミーあらいやくし保育園","province":"東京都","city":"中野区","address":"中野区新井5-17-2","lat":35.71534,"lon":139.67021},{"name":"野方保育園","province":"東京都","city":"中野区","address":"中野区野方1ー35ー8","lat":35.70954,"lon":139.65637},{"name":"にじいろ保育園中野野方","province":"東京都","city":"中野区","address":"中野区野方1-41-9","lat":35.71041,"lon":139.65509},{"name":"野方さくら保育園","province":"東京都","city":"中野区","address":"中野区野方4-41-7","lat":35.72206,"lon":139.65683},{"name":"オンビーノスクエア野方","province":"東京都","city":"中野区","address":"中野区野方5-10-13","lat":35.71704,"lon":139.65086},{"name":"こどもヶ丘保育園野方園","province":"東京都","city":"中野区","address":"中野区野方6-38ー2","lat":35.72157,"lon":139.64915},{"name":"グローバルキッズ鷺ノ宮園","province":"東京都","city":"中野区","address":"中野区上鷺宮2-10-21","lat":35.72761,"lon":139.63345},{"name":"とちの木保育園","province":"東京都","city":"中野区","address":"中野区上鷺宮3-8-8","lat":35.73318,"lon":139.63185},{"name":"中野ひかり保育園","province":"東京都","city":"中野区","address":"中野区上鷺宮4-18-8","lat":35.7348,"lon":139.6288},{"name":"こどもヶ丘保育園上鷺宮園","province":"東京都","city":"中野区","address":"中野区上鷺宮5-5-6","lat":35.72881,"lon":139.62866},{"name":"鷺宮クローバー保育園","province":"東京都","city":"中野区","address":"中野区鷺宮2ー4ー3","lat":35.72467,"lon":139.64667},{"name":"にじいろ保育園鷺ノ宮","province":"東京都","city":"中野区","address":"中野区鷺宮3-44-7","lat":35.72554,"lon":139.64136},{"name":"ぽけっとランドさぎのみや保育園","province":"東京都","city":"中野区","address":"中野区鷺宮4-33-1","lat":35.72425,"lon":139.6375},{"name":"わらべ西鷺宮保育園","province":"東京都","city":"中野区","address":"中野区鷺宮5-22-14","lat":35.72654,"lon":139.63258},{"name":"七海保育園","province":"東京都","city":"中野区","address":"中野区若宮1-1-2","lat":35.71608,"lon":139.64978},{"name":"まなびの森保育園鷺ノ宮","province":"東京都","city":"中野区","address":"中野区若宮3-23-3","lat":35.72227,"lon":139.64227},{"name":"田中ナースリー若宮保育園","province":"東京都","city":"中野区","address":"中野区若宮3-6-9","lat":35.72057,"lon":139.64558},{"name":"大和東もみじの森保育園","province":"東京都","city":"中野区","address":"中野区大和町1丁目37番4号","lat":35.71192,"lon":139.65106},{"name":"田中ナースリー大和保育園","province":"東京都","city":"中野区","address":"中野区大和町4-42ー4","lat":35.7149,"lon":139.64217},{"name":"中野鷺ノ宮雲母保育園","province":"東京都","city":"中野区","address":"中野区白鷺1ー1ー4","lat":35.71589,"lon":139.63971},{"name":"聖ピオ保育園","province":"東京都","city":"中野区","address":"中野区白鷺1-15-5","lat":35.7202,"lon":139.6389},{"name":"キッズガーデン中野白鷺","province":"東京都","city":"中野区","address":"中野区白鷺1-6-10","lat":35.71609,"lon":139.63832},{"name":"白鷺保育園","province":"東京都","city":"中野区","address":"中野区白鷺3ー3ー24","lat":35.72163,"lon":139.63354},{"name":"おはよう保育園東中野","province":"東京都","city":"中野区","address":"中野区東中野5-27-10ブリリア東中野パークサイドヒルズ","lat":35.71015,"lon":139.69066},{"name":"にじいろ保育園中野野方","province":"東京都","city":"中野区","address":"中野区野方1-41-9","lat":35.71015,"lon":139.65509},{"name":"AIAI NURSERY 中野坂上","province":"東京都","city":"中野区","address":"中野区中央2-2-3","lat":35.69766,"lon":139.68187},{"name":"コンビプラザ弥生町保育園","province":"東京都","city":"中野区","address":"中野区弥生町2-41-2","lat":35.69180505,"lon":139.6727677},{"name":"中野みなみ保育園","province":"東京都","city":"中野区","address":"中野区南台5-29-9","lat":35.68157,"lon":139.66032},{"name":"七海保育園","province":"東京都","city":"中野区","address":"中野区大和町4-12-10","lat":35.71541,"lon":139.64725},{"name":"AIAI NURSERY中野坂上","province":"東京都","city":"中野区","address":"中野区中央2-2-3","lat":35.69766,"lon":139.68187},{"name":"コンビプラザ弥生町保育園","province":"東京都","city":"中野区","address":"中野区弥生町2-41-2","lat":35.69136,"lon":139.67195},{"name":"中野松が丘すきっぷ保育園３１","province":"東京都","city":"中野区","address":"中野区松が丘1-26-2","lat":35.71957,"lon":139.67067},{"name":"もみじやま保育園","province":"東京都","city":"中野区","address":"中野区中野1-58-9","lat":35.70449,"lon":139.67328},{"name":"あさひ保育園","province":"東京都","city":"中野区","address":"中野区上高田1-45-8","lat":35.7117,"lon":139.67497},{"name":"仲町保育園","province":"東京都","city":"中野区","address":"中野区中央2-52-15","lat":35.6994,"lon":139.67627},{"name":"あい・あい保育園　中野坂上園","province":"東京都","city":"中野区","address":"中野区中央2-2-3","lat":35.69766,"lon":139.68187},{"name":"宮の台保育園","province":"東京都","city":"中野区","address":"中野区本町4-14-13","lat":35.69454,"lon":139.67267},{"name":"大和東保育園","province":"東京都","city":"中野区","address":"中野区大和町1-37-4","lat":35.71192,"lon":139.65106},{"name":"大和東保育園","province":"東京都","city":"中野区","address":"中野区若宮1-1-2(仮設)","lat":35.71608,"lon":139.64978},{"name":"コンビプラザ中野保育園","province":"東京都","city":"中野区","address":"中野区中野4-6-20","lat":35.70915,"lon":139.6639},{"name":"中野ここわ保育園","province":"東京都","city":"中野区","address":"中野区中野5-4-7","lat":35.70906,"lon":139.67217},{"name":"中野南台ちとせ保育園","province":"東京都","city":"中野区","address":"中野区南台2-1-5","lat":35.68312,"lon":139.67304},{"name":"ピオニイ保育園","province":"東京都","city":"中野区","address":"中野区新井2-40-3","lat":35.71285,"lon":139.66301},{"name":"キッズフォレ平和の森","province":"東京都","city":"中野区","address":"中野区新井3-35-20","lat":35.71584,"lon":139.66036},{"name":"野方さくら保育園","province":"東京都","city":"中野区","address":"中野区野方4-41-7","lat":35.72207,"lon":139.65683},{"name":"こどもヶ丘保育園野方園","province":"東京都","city":"中野区","address":"中野区野方6-38-2","lat":35.72157,"lon":139.64916},{"name":"ぽけっとランドさぎのみや保育園","province":"東京都","city":"中野区","address":"中野区鷺宮4-33-1","lat":35.72426,"lon":139.6375},{"name":"田中ナースリー大和保育園","province":"東京都","city":"中野区","address":"中野区大和町4-42-4","lat":35.71491,"lon":139.64217},{"name":"白鷺保育園","province":"東京都","city":"中野区","address":"中野区白鷺3-3-24","lat":35.72163,"lon":139.63355},{"name":"もみじやま保育園","province":"東京都","city":"中野区","address":"中野区中野1-58-9","lat":35.70391,"lon":139.67265},{"name":"宮園保育園","province":"東京都","city":"中野区","address":"中野区中野1-21ー6","lat":35.70316,"lon":139.6767},{"name":"アルテ子どもと木幼保園","province":"東京都","city":"中野区","address":"中野区中野1-59-5","lat":35.70449,"lon":139.67328},{"name":"太陽の子　中野桜花保育園","province":"東京都","city":"中野区","address":"中野区中野2-14-11","lat":35.70488,"lon":139.67004},{"name":"なかのまるのなか保育園大きなおうち","province":"東京都","city":"中野区","address":"中野区中野2-18-4","lat":35.70297,"lon":139.66859},{"name":"にじいろ保育園中野駅南口","province":"東京都","city":"中野区","address":"中野区中野2-26-1","lat":35.70425,"lon":139.66631},{"name":"桃が丘さゆり保育園","province":"東京都","city":"中野区","address":"中野区中野3-19-13","lat":35.70285,"lon":139.66139},{"name":"きゃんばす中野保育園","province":"東京都","city":"中野区","address":"中野区中野3-48-8","lat":35.70511,"lon":139.66017},{"name":"コンビプラザ中野保育園","province":"東京都","city":"中野区","address":"中野区中野4-6-20","lat":35.70914,"lon":139.66389},{"name":"中野打越保育園","province":"東京都","city":"中野区","address":"中野区中野5-26ー11","lat":35.70816,"lon":139.66916},{"name":"中野ここわ保育園","province":"東京都","city":"中野区","address":"中野区中野5-4ー7","lat":35.70906,"lon":139.67216},{"name":"ピノキオ幼児舎中野","province":"東京都","city":"中野区","address":"中野区中野5丁目24番21号","lat":35.70934,"lon":139.66879},{"name":"昭和保育園","province":"東京都","city":"中野区","address":"中野区中野6ー2ー11","lat":35.70767,"lon":139.67848},{"name":"にじいろ保育園上高田","province":"東京都","city":"中野区","address":"中野区上高田1ー17ー5","lat":35.71043,"lon":139.67798},{"name":"ナーサリールーム　ベリーベアー中野","province":"東京都","city":"中野区","address":"中野区上高田1-39-14","lat":35.71053,"lon":139.67456},{"name":"キッズガーデン中野上高田","province":"東京都","city":"中野区","address":"中野区上高田2ー36ー2","lat":35.71177,"lon":139.67165},{"name":"さくらさくみらい　中野","province":"東京都","city":"中野区","address":"中野区上高田2-41-6","lat":35.71144,"lon":139.66975},{"name":"あけぼの保育園","province":"東京都","city":"中野区","address":"中野区上高田2-58-21","lat":35.71421,"lon":139.67018},{"name":"ちゃいれっく上高田保育園","province":"東京都","city":"中野区","address":"中野区上高田2-9-2","lat":35.71109,"lon":139.67293},{"name":"スターチャイルド≪東中野ナーサリー≫","province":"東京都","city":"中野区","address":"中野区東中野1-38-5","lat":35.70407,"lon":139.6866},{"name":"めばえの森保育園","province":"東京都","city":"中野区","address":"中野区東中野2丁目6番14号","lat":35.70194,"lon":139.68169},{"name":"幼保園シャローム東中野","province":"東京都","city":"中野区","address":"中野区東中野2丁目22番26号","lat":35.7046,"lon":139.68193},{"name":"東中野しらゆり保育園","province":"東京都","city":"中野区","address":"中野区東中野3-12-2","lat":35.70871,"lon":139.68237},{"name":"クオリスキッズ東中野保育園","province":"東京都","city":"中野区","address":"中野区東中野3丁目19番17号","lat":35.70847,"lon":139.6804},{"name":"シエル保育園・東中野","province":"東京都","city":"中野区","address":"中野区東中野4-11-12","lat":35.7083,"lon":139.68538},{"name":"キッズハーモニー・ひがしなかの","province":"東京都","city":"中野区","address":"中野区東中野4-4-26アトレヴィ東中野4階、5階","lat":35.70631,"lon":139.68443},{"name":"東中野プチ・クレイシュ","province":"東京都","city":"中野区","address":"中野区東中野5-1-1","lat":35.70659,"lon":139.68742},{"name":"陽だまりの丘保育園","province":"東京都","city":"中野区","address":"中野区東中野5-17-3","lat":35.70971,"lon":139.68872},{"name":"おはよう保育園東中野","province":"東京都","city":"中野区","address":"中野区東中野5-27-10ブリリア東中野パークサイドヒルズ","lat":35.70991,"lon":139.68829},{"name":"太陽の子　中野中央保育園","province":"東京都","city":"中野区","address":"中野区中央1-13-8大橋セントラルビル2階","lat":35.70142,"lon":139.68655},{"name":"ＡＩＡＩ　ＮＵＲＳＥＲＹ　中野坂上","province":"東京都","city":"中野区","address":"中野区中央2-2-3","lat":35.69766,"lon":139.68187},{"name":"こころなかのさかうえ保育園","province":"東京都","city":"中野区","address":"中野区中央2-43-12","lat":35.70037,"lon":139.67719},{"name":"ナーサリー中野の森","province":"東京都","city":"中野区","address":"中野区中央2丁目52番15号","lat":35.6994,"lon":139.67627},{"name":"仲町保育園","province":"東京都","city":"中野区","address":"中野区中央3-41-12","lat":35.69986,"lon":139.6714},{"name":"橋場そらとみどりの保育園大きなおうち","province":"東京都","city":"中野区","address":"中野区中央4-18-19","lat":35.69967,"lon":139.66858},{"name":"ひまわり保育園","province":"東京都","city":"中野区","address":"中野区中央4-61-4","lat":35.70277,"lon":139.66591},{"name":"モニカ新中野園","province":"東京都","city":"中野区","address":"中野区中央4-7-14","lat":35.69806,"lon":139.66873},{"name":"にじいろ保育園中野","province":"東京都","city":"中野区","address":"中野区中央5-48-2","lat":35.70158,"lon":139.66534},{"name":"本町保育園","province":"東京都","city":"中野区","address":"中野区本町3ー29ー17","lat":35.69714,"lon":139.67755},{"name":"マミーズエンジェル新中野保育園","province":"東京都","city":"中野区","address":"中野区本町4-30-122階","lat":35.69647,"lon":139.67053},{"name":"キッズガーデン新中野駅前","province":"東京都","city":"中野区","address":"中野区本町4-30-124階","lat":35.69647,"lon":139.67053},{"name":"コンビプラザ宮の台保育園","province":"東京都","city":"中野区","address":"中野区本町4丁目14番12号","lat":35.69454,"lon":139.67267},{"name":"鍋横保育園","province":"東京都","city":"中野区","address":"中野区本町5ー47ー13","lat":35.69341,"lon":139.66783},{"name":"さくらさくみらい　弥生町","province":"東京都","city":"中野区","address":"中野区弥生町1-43-12","lat":35.68882,"lon":139.67735},{"name":"みらいえ保育園中野富士見町","province":"東京都","city":"中野区","address":"中野区弥生町2ー48ー3","lat":35.69014,"lon":139.66954},{"name":"中野保育園","province":"東京都","city":"中野区","address":"中野区弥生町2ー6ー3","lat":35.69211,"lon":139.67648},{"name":"コンビプラザ弥生町保育園","province":"東京都","city":"中野区","address":"中野区弥生町2-41-2","lat":35.6915,"lon":139.6728},{"name":"弥生保育園","province":"東京都","city":"中野区","address":"中野区弥生町5ー4ー8","lat":35.68651,"lon":139.66707},{"name":"中野みなみ保育園","province":"東京都","city":"中野区","address":"中野区弥生町6-2-17","lat":35.68636,"lon":139.66237},{"name":"中野南台ちとせ保育園","province":"東京都","city":"中野区","address":"中野区南台2-1-5","lat":35.68312,"lon":139.67303},{"name":"南台保育園","province":"東京都","city":"中野区","address":"中野区南台3-35ー3","lat":35.68436,"lon":139.6653},{"name":"なかみなみコスモ保育園","province":"東京都","city":"中野区","address":"中野区南台3ー6ー17","lat":35.68553,"lon":139.66808},{"name":"キッズガーデン中野南台","province":"東京都","city":"中野区","address":"中野区南台4ー19ー11","lat":35.68111,"lon":139.66597},{"name":"アートチャイルドケア中野南台森の保育園","province":"東京都","city":"中野区","address":"中野区南台5-15-5","lat":35.68022,"lon":139.66254},{"name":"ピノキオ幼児舎野方保育園","province":"東京都","city":"中野区","address":"中野区丸山1-6-3","lat":35.723,"lon":139.65549},{"name":"丸山保育園","province":"東京都","city":"中野区","address":"中野区丸山2ー27ー16","lat":35.7257,"lon":139.64987},{"name":"江古田ここわ保育園","province":"東京都","city":"中野区","address":"中野区江古田1ー11ー5","lat":35.7254,"lon":139.67416},{"name":"テンダーラビング保育園　江古田","province":"東京都","city":"中野区","address":"中野区江古田1-43-5","lat":35.72638,"lon":139.67027},{"name":"徳田保育園","province":"東京都","city":"中野区","address":"中野区江古田3-15-2","lat":35.72824,"lon":139.66408},{"name":"にじいろ保育園江古田の杜","province":"東京都","city":"中野区","address":"中野区江古田3ー14ー1","lat":35.72741,"lon":139.6655},{"name":"なかよしの森保育園","province":"東京都","city":"中野区","address":"中野区江古田4-16-13","lat":35.72579,"lon":139.66319},{"name":"江原保育園","province":"東京都","city":"中野区","address":"中野区江原町1ー10ー16","lat":35.72935,"lon":139.67522},{"name":"さくらさくみらい　江原町","province":"東京都","city":"中野区","address":"中野区江原町1ー46ー1","lat":35.73092,"lon":139.67346},{"name":"中野松が丘すきっぷ保育園","province":"東京都","city":"中野区","address":"中野区松が丘1ー26ー2","lat":35.71957,"lon":139.67067},{"name":"にじいろ保育園松が丘","province":"東京都","city":"中野区","address":"中野区松が丘2-32ー3","lat":35.72327,"lon":139.67276},{"name":"沼袋保育園","province":"東京都","city":"中野区","address":"中野区沼袋1ー34ー14","lat":35.71964,"lon":139.66472},{"name":"松が丘保育園","province":"東京都","city":"中野区","address":"中野区沼袋2-17-5","lat":35.72297,"lon":139.66745},{"name":"グローバルキッズ沼袋園","province":"東京都","city":"中野区","address":"中野区沼袋2ー28ー32","lat":35.7216,"lon":139.66489},{"name":"沼袋西保育園","province":"東京都","city":"中野区","address":"中野区沼袋3-14-11","lat":35.71716,"lon":139.65924},{"name":"ピオニイ保育園","province":"東京都","city":"中野区","address":"中野区新井2-40-3","lat":35.71284,"lon":139.66301},{"name":"キッズフォレ平和の森","province":"東京都","city":"中野区","address":"中野区新井3-35-20","lat":35.71584,"lon":139.66035},{"name":"中野りとるぱんぷきんず","province":"東京都","city":"中野区","address":"中野区新井4-10-10","lat":35.71628,"lon":139.66687},{"name":"小学館アカデミーあらいやくし保育園","province":"東京都","city":"中野区","address":"中野区新井5-17-2","lat":35.71534,"lon":139.67021},{"name":"野方保育園","province":"東京都","city":"中野区","address":"中野区野方1ー35ー8","lat":35.70954,"lon":139.65637},{"name":"にじいろ保育園中野野方","province":"東京都","city":"中野区","address":"中野区野方1-41-9","lat":35.71041,"lon":139.65509},{"name":"野方さくら保育園","province":"東京都","city":"中野区","address":"中野区野方4-41-7","lat":35.72206,"lon":139.65683},{"name":"オンビーノスクエア野方","province":"東京都","city":"中野区","address":"中野区野方5-10-13","lat":35.71704,"lon":139.65086},{"name":"こどもヶ丘保育園野方園","province":"東京都","city":"中野区","address":"中野区野方6-38ー2","lat":35.72157,"lon":139.64915},{"name":"グローバルキッズ鷺ノ宮園","province":"東京都","city":"中野区","address":"中野区上鷺宮2-10-21","lat":35.72761,"lon":139.63345},{"name":"とちの木保育園","province":"東京都","city":"中野区","address":"中野区上鷺宮3-8-8","lat":35.73318,"lon":139.63185},{"name":"中野ひかり保育園","province":"東京都","city":"中野区","address":"中野区上鷺宮4-18-8","lat":35.7348,"lon":139.6288},{"name":"こどもヶ丘保育園上鷺宮園","province":"東京都","city":"中野区","address":"中野区上鷺宮5-5-6","lat":35.72881,"lon":139.62866},{"name":"鷺宮クローバー保育園","province":"東京都","city":"中野区","address":"中野区鷺宮2ー4ー3","lat":35.72467,"lon":139.64667},{"name":"にじいろ保育園鷺ノ宮","province":"東京都","city":"中野区","address":"中野区鷺宮3-44-7","lat":35.72554,"lon":139.64136},{"name":"ぽけっとランドさぎのみや保育園","province":"東京都","city":"中野区","address":"中野区鷺宮4-33-1","lat":35.72425,"lon":139.6375},{"name":"わらべ西鷺宮保育園","province":"東京都","city":"中野区","address":"中野区鷺宮5-22-14","lat":35.72654,"lon":139.63258},{"name":"七海保育園","province":"東京都","city":"中野区","address":"中野区若宮1-1-2","lat":35.71608,"lon":139.64978},{"name":"まなびの森保育園鷺ノ宮","province":"東京都","city":"中野区","address":"中野区若宮3-23-3","lat":35.72227,"lon":139.64227},{"name":"田中ナースリー若宮保育園","province":"東京都","city":"中野区","address":"中野区若宮3-6-9","lat":35.72057,"lon":139.64558},{"name":"大和東もみじの森保育園","province":"東京都","city":"中野区","address":"中野区大和町1丁目37番4号","lat":35.71192,"lon":139.65106},{"name":"田中ナースリー大和保育園","province":"東京都","city":"中野区","address":"中野区大和町4-42ー4","lat":35.7149,"lon":139.64217},{"name":"中野鷺ノ宮雲母保育園","province":"東京都","city":"中野区","address":"中野区白鷺1ー1ー4","lat":35.71589,"lon":139.63971},{"name":"聖ピオ保育園","province":"東京都","city":"中野区","address":"中野区白鷺1-15-5","lat":35.7202,"lon":139.6389},{"name":"キッズガーデン中野白鷺","province":"東京都","city":"中野区","address":"中野区白鷺1-6-10","lat":35.71609,"lon":139.63832},{"name":"白鷺保育園","province":"東京都","city":"中野区","address":"中野区白鷺3ー3ー24","lat":35.72163,"lon":139.63354},{"name":"おはよう保育園東中野","province":"東京都","city":"中野区","address":"中野区東中野5-27-10ブリリア東中野パークサイドヒルズ","lat":35.71015,"lon":139.69066},{"name":"にじいろ保育園中野野方","province":"東京都","city":"中野区","address":"中野区野方1-41-9","lat":35.71015,"lon":139.65509},{"name":"AIAI NURSERY 中野坂上","province":"東京都","city":"中野区","address":"中野区中央2-2-3","lat":35.69766,"lon":139.68187},{"name":"コンビプラザ弥生町保育園","province":"東京都","city":"中野区","address":"中野区弥生町2-41-2","lat":35.69180505,"lon":139.6727677},{"name":"中野みなみ保育園","province":"東京都","city":"中野区","address":"中野区南台5-29-9","lat":35.68157,"lon":139.66032},{"name":"七海保育園","province":"東京都","city":"中野区","address":"中野区大和町4-12-10","lat":35.71541,"lon":139.64725},{"name":"AIAI NURSERY中野坂上","province":"東京都","city":"中野区","address":"中野区中央2-2-3","lat":35.69766,"lon":139.68187},{"name":"コンビプラザ弥生町保育園","province":"東京都","city":"中野区","address":"中野区弥生町2-41-2","lat":35.69136,"lon":139.67195},{"name":"中野松が丘すきっぷ保育園３１","province":"東京都","city":"中野区","address":"中野区松が丘1-26-2","lat":35.71957,"lon":139.67067},{"name":"もみじやま保育園","province":"東京都","city":"中野区","address":"中野区中野1-58-9","lat":35.70449,"lon":139.67328},{"name":"あさひ保育園","province":"東京都","city":"中野区","address":"中野区上高田1-45-8","lat":35.7117,"lon":139.67497},{"name":"仲町保育園","province":"東京都","city":"中野区","address":"中野区中央2-52-15","lat":35.6994,"lon":139.67627},{"name":"あい・あい保育園　中野坂上園","province":"東京都","city":"中野区","address":"中野区中央2-2-3","lat":35.69766,"lon":139.68187},{"name":"宮の台保育園","province":"東京都","city":"中野区","address":"中野区本町4-14-13","lat":35.69454,"lon":139.67267},{"name":"大和東保育園","province":"東京都","city":"中野区","address":"中野区大和町1-37-4","lat":35.71192,"lon":139.65106},{"name":"大和東保育園","province":"東京都","city":"中野区","address":"中野区若宮1-1-2(仮設)","lat":35.71608,"lon":139.64978},{"name":"コンビプラザ中野保育園","province":"東京都","city":"中野区","address":"中野区中野4-6-20","lat":35.70915,"lon":139.6639},{"name":"中野ここわ保育園","province":"東京都","city":"中野区","address":"中野区中野5-4-7","lat":35.70906,"lon":139.67217},{"name":"中野南台ちとせ保育園","province":"東京都","city":"中野区","address":"中野区南台2-1-5","lat":35.68312,"lon":139.67304},{"name":"ピオニイ保育園","province":"東京都","city":"中野区","address":"中野区新井2-40-3","lat":35.71285,"lon":139.66301},{"name":"キッズフォレ平和の森","province":"東京都","city":"中野区","address":"中野区新井3-35-20","lat":35.71584,"lon":139.66036},{"name":"野方さくら保育園","province":"東京都","city":"中野区","address":"中野区野方4-41-7","lat":35.72207,"lon":139.65683},{"name":"こどもヶ丘保育園野方園","province":"東京都","city":"中野区","address":"中野区野方6-38-2","lat":35.72157,"lon":139.64916},{"name":"ぽけっとランドさぎのみや保育園","province":"東京都","city":"中野区","address":"中野区鷺宮4-33-1","lat":35.72426,"lon":139.6375},{"name":"田中ナースリー大和保育園","province":"東京都","city":"中野区","address":"中野区大和町4-42-4","lat":35.71491,"lon":139.64217},{"name":"白鷺保育園","province":"東京都","city":"中野区","address":"中野区白鷺3-3-24","lat":35.72163,"lon":139.63355},{"name":"もみじやま保育園","province":"東京都","city":"中野区","address":"中野区中野1-58-9","lat":35.70391,"lon":139.67265},{"name":"宮園保育園","province":"東京都","city":"中野区","address":"中野区中野1-21ー6","lat":35.70316,"lon":139.6767},{"name":"アルテ子どもと木幼保園","province":"東京都","city":"中野区","address":"中野区中野1-59-5","lat":35.70449,"lon":139.67328},{"name":"太陽の子　中野桜花保育園","province":"東京都","city":"中野区","address":"中野区中野2-14-11","lat":35.70488,"lon":139.67004},{"name":"なかのまるのなか保育園大きなおうち","province":"東京都","city":"中野区","address":"中野区中野2-18-4","lat":35.70297,"lon":139.66859},{"name":"にじいろ保育園中野駅南口","province":"東京都","city":"中野区","address":"中野区中野2-26-1","lat":35.70425,"lon":139.66631},{"name":"桃が丘さゆり保育園","province":"東京都","city":"中野区","address":"中野区中野3-19-13","lat":35.70285,"lon":139.66139},{"name":"きゃんばす中野保育園","province":"東京都","city":"中野区","address":"中野区中野3-48-8","lat":35.70511,"lon":139.66017},{"name":"コンビプラザ中野保育園","province":"東京都","city":"中野区","address":"中野区中野4-6-20","lat":35.70914,"lon":139.66389},{"name":"中野打越保育園","province":"東京都","city":"中野区","address":"中野区中野5-26ー11","lat":35.70816,"lon":139.66916},{"name":"中野ここわ保育園","province":"東京都","city":"中野区","address":"中野区中野5-4ー7","lat":35.70906,"lon":139.67216},{"name":"ピノキオ幼児舎中野","province":"東京都","city":"中野区","address":"中野区中野5丁目24番21号","lat":35.70934,"lon":139.66879},{"name":"昭和保育園","province":"東京都","city":"中野区","address":"中野区中野6ー2ー11","lat":35.70767,"lon":139.67848},{"name":"にじいろ保育園上高田","province":"東京都","city":"中野区","address":"中野区上高田1ー17ー5","lat":35.71043,"lon":139.67798},{"name":"ナーサリールーム　ベリーベアー中野","province":"東京都","city":"中野区","address":"中野区上高田1-39-14","lat":35.71053,"lon":139.67456},{"name":"キッズガーデン中野上高田","province":"東京都","city":"中野区","address":"中野区上高田2ー36ー2","lat":35.71177,"lon":139.67165},{"name":"さくらさくみらい　中野","province":"東京都","city":"中野区","address":"中野区上高田2-41-6","lat":35.71144,"lon":139.66975},{"name":"あけぼの保育園","province":"東京都","city":"中野区","address":"中野区上高田2-58-21","lat":35.71421,"lon":139.67018},{"name":"ちゃいれっく上高田保育園","province":"東京都","city":"中野区","address":"中野区上高田2-9-2","lat":35.71109,"lon":139.67293},{"name":"スターチャイルド≪東中野ナーサリー≫","province":"東京都","city":"中野区","address":"中野区東中野1-38-5","lat":35.70407,"lon":139.6866},{"name":"めばえの森保育園","province":"東京都","city":"中野区","address":"中野区東中野2丁目6番14号","lat":35.70194,"lon":139.68169},{"name":"幼保園シャローム東中野","province":"東京都","city":"中野区","address":"中野区東中野2丁目22番26号","lat":35.7046,"lon":139.68193},{"name":"東中野しらゆり保育園","province":"東京都","city":"中野区","address":"中野区東中野3-12-2","lat":35.70871,"lon":139.68237},{"name":"クオリスキッズ東中野保育園","province":"東京都","city":"中野区","address":"中野区東中野3丁目19番17号","lat":35.70847,"lon":139.6804},{"name":"シエル保育園・東中野","province":"東京都","city":"中野区","address":"中野区東中野4-11-12","lat":35.7083,"lon":139.68538},{"name":"キッズハーモニー・ひがしなかの","province":"東京都","city":"中野区","address":"中野区東中野4-4-26アトレヴィ東中野4階、5階","lat":35.70631,"lon":139.68443},{"name":"東中野プチ・クレイシュ","province":"東京都","city":"中野区","address":"中野区東中野5-1-1","lat":35.70659,"lon":139.68742},{"name":"陽だまりの丘保育園","province":"東京都","city":"中野区","address":"中野区東中野5-17-3","lat":35.70971,"lon":139.68872},{"name":"おはよう保育園東中野","province":"東京都","city":"中野区","address":"中野区東中野5-27-10ブリリア東中野パークサイドヒルズ","lat":35.70991,"lon":139.68829},{"name":"太陽の子　中野中央保育園","province":"東京都","city":"中野区","address":"中野区中央1-13-8大橋セントラルビル2階","lat":35.70142,"lon":139.68655},{"name":"ＡＩＡＩ　ＮＵＲＳＥＲＹ　中野坂上","province":"東京都","city":"中野区","address":"中野区中央2-2-3","lat":35.69766,"lon":139.68187},{"name":"こころなかのさかうえ保育園","province":"東京都","city":"中野区","address":"中野区中央2-43-12","lat":35.70037,"lon":139.67719},{"name":"ナーサリー中野の森","province":"東京都","city":"中野区","address":"中野区中央2丁目52番15号","lat":35.6994,"lon":139.67627},{"name":"仲町保育園","province":"東京都","city":"中野区","address":"中野区中央3-41-12","lat":35.69986,"lon":139.6714},{"name":"橋場そらとみどりの保育園大きなおうち","province":"東京都","city":"中野区","address":"中野区中央4-18-19","lat":35.69967,"lon":139.66858},{"name":"ひまわり保育園","province":"東京都","city":"中野区","address":"中野区中央4-61-4","lat":35.70277,"lon":139.66591},{"name":"モニカ新中野園","province":"東京都","city":"中野区","address":"中野区中央4-7-14","lat":35.69806,"lon":139.66873},{"name":"にじいろ保育園中野","province":"東京都","city":"中野区","address":"中野区中央5-48-2","lat":35.70158,"lon":139.66534},{"name":"本町保育園","province":"東京都","city":"中野区","address":"中野区本町3ー29ー17","lat":35.69714,"lon":139.67755},{"name":"マミーズエンジェル新中野保育園","province":"東京都","city":"中野区","address":"中野区本町4-30-122階","lat":35.69647,"lon":139.67053},{"name":"キッズガーデン新中野駅前","province":"東京都","city":"中野区","address":"中野区本町4-30-124階","lat":35.69647,"lon":139.67053},{"name":"コンビプラザ宮の台保育園","province":"東京都","city":"中野区","address":"中野区本町4丁目14番12号","lat":35.69454,"lon":139.67267},{"name":"鍋横保育園","province":"東京都","city":"中野区","address":"中野区本町5ー47ー13","lat":35.69341,"lon":139.66783},{"name":"さくらさくみらい　弥生町","province":"東京都","city":"中野区","address":"中野区弥生町1-43-12","lat":35.68882,"lon":139.67735},{"name":"みらいえ保育園中野富士見町","province":"東京都","city":"中野区","address":"中野区弥生町2ー48ー3","lat":35.69014,"lon":139.66954},{"name":"中野保育園","province":"東京都","city":"中野区","address":"中野区弥生町2ー6ー3","lat":35.69211,"lon":139.67648},{"name":"コンビプラザ弥生町保育園","province":"東京都","city":"中野区","address":"中野区弥生町2-41-2","lat":35.6915,"lon":139.6728},{"name":"弥生保育園","province":"東京都","city":"中野区","address":"中野区弥生町5ー4ー8","lat":35.68651,"lon":139.66707},{"name":"中野みなみ保育園","province":"東京都","city":"中野区","address":"中野区弥生町6-2-17","lat":35.68636,"lon":139.66237},{"name":"中野南台ちとせ保育園","province":"東京都","city":"中野区","address":"中野区南台2-1-5","lat":35.68312,"lon":139.67303},{"name":"南台保育園","province":"東京都","city":"中野区","address":"中野区南台3-35ー3","lat":35.68436,"lon":139.6653},{"name":"なかみなみコスモ保育園","province":"東京都","city":"中野区","address":"中野区南台3ー6ー17","lat":35.68553,"lon":139.66808},{"name":"キッズガーデン中野南台","province":"東京都","city":"中野区","address":"中野区南台4ー19ー11","lat":35.68111,"lon":139.66597},{"name":"アートチャイルドケア中野南台森の保育園","province":"東京都","city":"中野区","address":"中野区南台5-15-5","lat":35.68022,"lon":139.66254},{"name":"ピノキオ幼児舎野方保育園","province":"東京都","city":"中野区","address":"中野区丸山1-6-3","lat":35.723,"lon":139.65549},{"name":"丸山保育園","province":"東京都","city":"中野区","address":"中野区丸山2ー27ー16","lat":35.7257,"lon":139.64987},{"name":"江古田ここわ保育園","province":"東京都","city":"中野区","address":"中野区江古田1ー11ー5","lat":35.7254,"lon":139.67416},{"name":"テンダーラビング保育園　江古田","province":"東京都","city":"中野区","address":"中野区江古田1-43-5","lat":35.72638,"lon":139.67027},{"name":"徳田保育園","province":"東京都","city":"中野区","address":"中野区江古田3-15-2","lat":35.72824,"lon":139.66408},{"name":"にじいろ保育園江古田の杜","province":"東京都","city":"中野区","address":"中野区江古田3ー14ー1","lat":35.72741,"lon":139.6655},{"name":"なかよしの森保育園","province":"東京都","city":"中野区","address":"中野区江古田4-16-13","lat":35.72579,"lon":139.66319},{"name":"江原保育園","province":"東京都","city":"中野区","address":"中野区江原町1ー10ー16","lat":35.72935,"lon":139.67522},{"name":"さくらさくみらい　江原町","province":"東京都","city":"中野区","address":"中野区江原町1ー46ー1","lat":35.73092,"lon":139.67346},{"name":"中野松が丘すきっぷ保育園","province":"東京都","city":"中野区","address":"中野区松が丘1ー26ー2","lat":35.71957,"lon":139.67067},{"name":"にじいろ保育園松が丘","province":"東京都","city":"中野区","address":"中野区松が丘2-32ー3","lat":35.72327,"lon":139.67276},{"name":"沼袋保育園","province":"東京都","city":"中野区","address":"中野区沼袋1ー34ー14","lat":35.71964,"lon":139.66472},{"name":"松が丘保育園","province":"東京都","city":"中野区","address":"中野区沼袋2-17-5","lat":35.72297,"lon":139.66745},{"name":"グローバルキッズ沼袋園","province":"東京都","city":"中野区","address":"中野区沼袋2ー28ー32","lat":35.7216,"lon":139.66489},{"name":"沼袋西保育園","province":"東京都","city":"中野区","address":"中野区沼袋3-14-11","lat":35.71716,"lon":139.65924},{"name":"ピオニイ保育園","province":"東京都","city":"中野区","address":"中野区新井2-40-3","lat":35.71284,"lon":139.66301},{"name":"キッズフォレ平和の森","province":"東京都","city":"中野区","address":"中野区新井3-35-20","lat":35.71584,"lon":139.66035},{"name":"中野りとるぱんぷきんず","province":"東京都","city":"中野区","address":"中野区新井4-10-10","lat":35.71628,"lon":139.66687},{"name":"小学館アカデミーあらいやくし保育園","province":"東京都","city":"中野区","address":"中野区新井5-17-2","lat":35.71534,"lon":139.67021},{"name":"野方保育園","province":"東京都","city":"中野区","address":"中野区野方1ー35ー8","lat":35.70954,"lon":139.65637},{"name":"にじいろ保育園中野野方","province":"東京都","city":"中野区","address":"中野区野方1-41-9","lat":35.71041,"lon":139.65509},{"name":"野方さくら保育園","province":"東京都","city":"中野区","address":"中野区野方4-41-7","lat":35.72206,"lon":139.65683},{"name":"オンビーノスクエア野方","province":"東京都","city":"中野区","address":"中野区野方5-10-13","lat":35.71704,"lon":139.65086},{"name":"こどもヶ丘保育園野方園","province":"東京都","city":"中野区","address":"中野区野方6-38ー2","lat":35.72157,"lon":139.64915},{"name":"グローバルキッズ鷺ノ宮園","province":"東京都","city":"中野区","address":"中野区上鷺宮2-10-21","lat":35.72761,"lon":139.63345},{"name":"とちの木保育園","province":"東京都","city":"中野区","address":"中野区上鷺宮3-8-8","lat":35.73318,"lon":139.63185},{"name":"中野ひかり保育園","province":"東京都","city":"中野区","address":"中野区上鷺宮4-18-8","lat":35.7348,"lon":139.6288},{"name":"こどもヶ丘保育園上鷺宮園","province":"東京都","city":"中野区","address":"中野区上鷺宮5-5-6","lat":35.72881,"lon":139.62866},{"name":"鷺宮クローバー保育園","province":"東京都","city":"中野区","address":"中野区鷺宮2ー4ー3","lat":35.72467,"lon":139.64667},{"name":"にじいろ保育園鷺ノ宮","province":"東京都","city":"中野区","address":"中野区鷺宮3-44-7","lat":35.72554,"lon":139.64136},{"name":"ぽけっとランドさぎのみや保育園","province":"東京都","city":"中野区","address":"中野区鷺宮4-33-1","lat":35.72425,"lon":139.6375},{"name":"わらべ西鷺宮保育園","province":"東京都","city":"中野区","address":"中野区鷺宮5-22-14","lat":35.72654,"lon":139.63258},{"name":"七海保育園","province":"東京都","city":"中野区","address":"中野区若宮1-1-2","lat":35.71608,"lon":139.64978},{"name":"まなびの森保育園鷺ノ宮","province":"東京都","city":"中野区","address":"中野区若宮3-23-3","lat":35.72227,"lon":139.64227},{"name":"田中ナースリー若宮保育園","province":"東京都","city":"中野区","address":"中野区若宮3-6-9","lat":35.72057,"lon":139.64558},{"name":"大和東もみじの森保育園","province":"東京都","city":"中野区","address":"中野区大和町1丁目37番4号","lat":35.71192,"lon":139.65106},{"name":"田中ナースリー大和保育園","province":"東京都","city":"中野区","address":"中野区大和町4-42ー4","lat":35.7149,"lon":139.64217},{"name":"中野鷺ノ宮雲母保育園","province":"東京都","city":"中野区","address":"中野区白鷺1ー1ー4","lat":35.71589,"lon":139.63971},{"name":"聖ピオ保育園","province":"東京都","city":"中野区","address":"中野区白鷺1-15-5","lat":35.7202,"lon":139.6389},{"name":"キッズガーデン中野白鷺","province":"東京都","city":"中野区","address":"中野区白鷺1-6-10","lat":35.71609,"lon":139.63832},{"name":"白鷺保育園","province":"東京都","city":"中野区","address":"中野区白鷺3ー3ー24","lat":35.72163,"lon":139.63354},{"name":"おはよう保育園東中野","province":"東京都","city":"中野区","address":"中野区東中野5-27-10ブリリア東中野パークサイドヒルズ","lat":35.71015,"lon":139.69066},{"name":"にじいろ保育園中野野方","province":"東京都","city":"中野区","address":"中野区野方1-41-9","lat":35.71015,"lon":139.65509},{"name":"AIAI NURSERY 中野坂上","province":"東京都","city":"中野区","address":"中野区中央2-2-3","lat":35.69766,"lon":139.68187},{"name":"コンビプラザ弥生町保育園","province":"東京都","city":"中野区","address":"中野区弥生町2-41-2","lat":35.69180505,"lon":139.6727677},{"name":"中野みなみ保育園","province":"東京都","city":"中野区","address":"中野区南台5-29-9","lat":35.68157,"lon":139.66032},{"name":"七海保育園","province":"東京都","city":"中野区","address":"中野区大和町4-12-10","lat":35.71541,"lon":139.64725},{"name":"AIAI NURSERY中野坂上","province":"東京都","city":"中野区","address":"中野区中央2-2-3","lat":35.69766,"lon":139.68187},{"name":"コンビプラザ弥生町保育園","province":"東京都","city":"中野区","address":"中野区弥生町2-41-2","lat":35.69136,"lon":139.67195},{"name":"中野松が丘すきっぷ保育園３１","province":"東京都","city":"中野区","address":"中野区松が丘1-26-2","lat":35.71957,"lon":139.67067},{"name":"もみじやま保育園","province":"東京都","city":"中野区","address":"中野区中野1-58-9","lat":35.70449,"lon":139.67328},{"name":"あさひ保育園","province":"東京都","city":"中野区","address":"中野区上高田1-45-8","lat":35.7117,"lon":139.67497},{"name":"仲町保育園","province":"東京都","city":"中野区","address":"中野区中央2-52-15","lat":35.6994,"lon":139.67627},{"name":"あい・あい保育園　中野坂上園","province":"東京都","city":"中野区","address":"中野区中央2-2-3","lat":35.69766,"lon":139.68187},{"name":"宮の台保育園","province":"東京都","city":"中野区","address":"中野区本町4-14-13","lat":35.69454,"lon":139.67267},{"name":"大和東保育園","province":"東京都","city":"中野区","address":"中野区大和町1-37-4","lat":35.71192,"lon":139.65106},{"name":"大和東保育園","province":"東京都","city":"中野区","address":"中野区若宮1-1-2(仮設)","lat":35.71608,"lon":139.64978},{"name":"コンビプラザ中野保育園","province":"東京都","city":"中野区","address":"中野区中野4-6-20","lat":35.70915,"lon":139.6639},{"name":"中野ここわ保育園","province":"東京都","city":"中野区","address":"中野区中野5-4-7","lat":35.70906,"lon":139.67217},{"name":"中野南台ちとせ保育園","province":"東京都","city":"中野区","address":"中野区南台2-1-5","lat":35.68312,"lon":139.67304},{"name":"ピオニイ保育園","province":"東京都","city":"中野区","address":"中野区新井2-40-3","lat":35.71285,"lon":139.66301},{"name":"キッズフォレ平和の森","province":"東京都","city":"中野区","address":"中野区新井3-35-20","lat":35.71584,"lon":139.66036},{"name":"野方さくら保育園","province":"東京都","city":"中野区","address":"中野区野方4-41-7","lat":35.72207,"lon":139.65683},{"name":"こどもヶ丘保育園野方園","province":"東京都","city":"中野区","address":"中野区野方6-38-2","lat":35.72157,"lon":139.64916},{"name":"ぽけっとランドさぎのみや保育園","province":"東京都","city":"中野区","address":"中野区鷺宮4-33-1","lat":35.72426,"lon":139.6375},{"name":"田中ナースリー大和保育園","province":"東京都","city":"中野区","address":"中野区大和町4-42-4","lat":35.71491,"lon":139.64217},{"name":"白鷺保育園","province":"東京都","city":"中野区","address":"中野区白鷺3-3-24","lat":35.72163,"lon":139.63355},{"name":"もみじやま保育園","province":"東京都","city":"中野区","address":"中野区中野1-58-9","lat":35.70391,"lon":139.67265},{"name":"宮園保育園","province":"東京都","city":"中野区","address":"中野区中野1-21ー6","lat":35.70316,"lon":139.6767},{"name":"アルテ子どもと木幼保園","province":"東京都","city":"中野区","address":"中野区中野1-59-5","lat":35.70449,"lon":139.67328},{"name":"太陽の子　中野桜花保育園","province":"東京都","city":"中野区","address":"中野区中野2-14-11","lat":35.70488,"lon":139.67004},{"name":"なかのまるのなか保育園大きなおうち","province":"東京都","city":"中野区","address":"中野区中野2-18-4","lat":35.70297,"lon":139.66859},{"name":"にじいろ保育園中野駅南口","province":"東京都","city":"中野区","address":"中野区中野2-26-1","lat":35.70425,"lon":139.66631},{"name":"桃が丘さゆり保育園","province":"東京都","city":"中野区","address":"中野区中野3-19-13","lat":35.70285,"lon":139.66139},{"name":"きゃんばす中野保育園","province":"東京都","city":"中野区","address":"中野区中野3-48-8","lat":35.70511,"lon":139.66017},{"name":"コンビプラザ中野保育園","province":"東京都","city":"中野区","address":"中野区中野4-6-20","lat":35.70914,"lon":139.66389},{"name":"中野打越保育園","province":"東京都","city":"中野区","address":"中野区中野5-26ー11","lat":35.70816,"lon":139.66916},{"name":"中野ここわ保育園","province":"東京都","city":"中野区","address":"中野区中野5-4ー7","lat":35.70906,"lon":139.67216},{"name":"ピノキオ幼児舎中野","province":"東京都","city":"中野区","address":"中野区中野5丁目24番21号","lat":35.70934,"lon":139.66879},{"name":"昭和保育園","province":"東京都","city":"中野区","address":"中野区中野6ー2ー11","lat":35.70767,"lon":139.67848},{"name":"にじいろ保育園上高田","province":"東京都","city":"中野区","address":"中野区上高田1ー17ー5","lat":35.71043,"lon":139.67798},{"name":"ナーサリールーム　ベリーベアー中野","province":"東京都","city":"中野区","address":"中野区上高田1-39-14","lat":35.71053,"lon":139.67456},{"name":"キッズガーデン中野上高田","province":"東京都","city":"中野区","address":"中野区上高田2ー36ー2","lat":35.71177,"lon":139.67165},{"name":"さくらさくみらい　中野","province":"東京都","city":"中野区","address":"中野区上高田2-41-6","lat":35.71144,"lon":139.66975},{"name":"あけぼの保育園","province":"東京都","city":"中野区","address":"中野区上高田2-58-21","lat":35.71421,"lon":139.67018},{"name":"ちゃいれっく上高田保育園","province":"東京都","city":"中野区","address":"中野区上高田2-9-2","lat":35.71109,"lon":139.67293},{"name":"スターチャイルド≪東中野ナーサリー≫","province":"東京都","city":"中野区","address":"中野区東中野1-38-5","lat":35.70407,"lon":139.6866},{"name":"めばえの森保育園","province":"東京都","city":"中野区","address":"中野区東中野2丁目6番14号","lat":35.70194,"lon":139.68169},{"name":"幼保園シャローム東中野","province":"東京都","city":"中野区","address":"中野区東中野2丁目22番26号","lat":35.7046,"lon":139.68193},{"name":"東中野しらゆり保育園","province":"東京都","city":"中野区","address":"中野区東中野3-12-2","lat":35.70871,"lon":139.68237},{"name":"クオリスキッズ東中野保育園","province":"東京都","city":"中野区","address":"中野区東中野3丁目19番17号","lat":35.70847,"lon":139.6804},{"name":"シエル保育園・東中野","province":"東京都","city":"中野区","address":"中野区東中野4-11-12","lat":35.7083,"lon":139.68538},{"name":"キッズハーモニー・ひがしなかの","province":"東京都","city":"中野区","address":"中野区東中野4-4-26アトレヴィ東中野4階、5階","lat":35.70631,"lon":139.68443},{"name":"東中野プチ・クレイシュ","province":"東京都","city":"中野区","address":"中野区東中野5-1-1","lat":35.70659,"lon":139.68742},{"name":"陽だまりの丘保育園","province":"東京都","city":"中野区","address":"中野区東中野5-17-3","lat":35.70971,"lon":139.68872},{"name":"おはよう保育園東中野","province":"東京都","city":"中野区","address":"中野区東中野5-27-10ブリリア東中野パークサイドヒルズ","lat":35.70991,"lon":139.68829},{"name":"太陽の子　中野中央保育園","province":"東京都","city":"中野区","address":"中野区中央1-13-8大橋セントラルビル2階","lat":35.70142,"lon":139.68655},{"name":"ＡＩＡＩ　ＮＵＲＳＥＲＹ　中野坂上","province":"東京都","city":"中野区","address":"中野区中央2-2-3","lat":35.69766,"lon":139.68187},{"name":"こころなかのさかうえ保育園","province":"東京都","city":"中野区","address":"中野区中央2-43-12","lat":35.70037,"lon":139.67719},{"name":"ナーサリー中野の森","province":"東京都","city":"中野区","address":"中野区中央2丁目52番15号","lat":35.6994,"lon":139.67627},{"name":"仲町保育園","province":"東京都","city":"中野区","address":"中野区中央3-41-12","lat":35.69986,"lon":139.6714},{"name":"橋場そらとみどりの保育園大きなおうち","province":"東京都","city":"中野区","address":"中野区中央4-18-19","lat":35.69967,"lon":139.66858},{"name":"ひまわり保育園","province":"東京都","city":"中野区","address":"中野区中央4-61-4","lat":35.70277,"lon":139.66591},{"name":"モニカ新中野園","province":"東京都","city":"中野区","address":"中野区中央4-7-14","lat":35.69806,"lon":139.66873},{"name":"にじいろ保育園中野","province":"東京都","city":"中野区","address":"中野区中央5-48-2","lat":35.70158,"lon":139.66534},{"name":"本町保育園","province":"東京都","city":"中野区","address":"中野区本町3ー29ー17","lat":35.69714,"lon":139.67755},{"name":"マミーズエンジェル新中野保育園","province":"東京都","city":"中野区","address":"中野区本町4-30-122階","lat":35.69647,"lon":139.67053},{"name":"キッズガーデン新中野駅前","province":"東京都","city":"中野区","address":"中野区本町4-30-124階","lat":35.69647,"lon":139.67053},{"name":"コンビプラザ宮の台保育園","province":"東京都","city":"中野区","address":"中野区本町4丁目14番12号","lat":35.69454,"lon":139.67267},{"name":"鍋横保育園","province":"東京都","city":"中野区","address":"中野区本町5ー47ー13","lat":35.69341,"lon":139.66783},{"name":"さくらさくみらい　弥生町","province":"東京都","city":"中野区","address":"中野区弥生町1-43-12","lat":35.68882,"lon":139.67735},{"name":"みらいえ保育園中野富士見町","province":"東京都","city":"中野区","address":"中野区弥生町2ー48ー3","lat":35.69014,"lon":139.66954},