{"keyword":"戸数","data":[{"name":"中野区社会福祉協議会","province":"東京都","city":"中野区","address":"中野区中野5-68-7スマイルなかの4階","lat":35.709262,"lon":139.665196},{"name":"中野区","province":"東京都","city":"中野区","address":"中野区中野4-8-1","lat":35.7072875,"lon":139.6638103},{"name":"株式会社富士の華","province":"東京都","city":"中野区","address":"東京都中野区野方1丁目38-13","lat":35.709609,"lon":139.65527204},{"name":"中野区社会福祉協議会","province":"東京都","city":"中野区","address":"中野区中野5-68-7スマイルなかの4階","lat":35.70926,"lon":139.66521},{"name":"立正佼成会附属佼成病院","province":"東京都","city":"中野区","address":"東京都中野区弥生町5丁目25-15","lat":35.69047273,"lon":139.66806618},{"name":"東京医療生活協同組合中野総合病院","province":"東京都","city":"中野区","address":"東京都中野区中央4丁目59-16","lat":35.70255736,"lon":139.66706576},{"name":"東京警察病院","province":"東京都","city":"中野区","address":"東京都中野区中野4丁目22-1","lat":35.70920915,"lon":139.65931337},{"name":"区立弥生公園","province":"東京都","city":"中野区","address":"東京都中野区弥生町5丁目4","lat":35.68651484,"lon":139.66689699},{"name":"区立江古田の森公園","province":"東京都","city":"中野区","address":"東京都中野区江古田3丁目14","lat":35.73006534,"lon":139.6657647},{"name":"区立みずのとう公園","province":"東京都","city":"中野区","address":"東京都中野区江古田1丁目3","lat":35.72432456,"lon":139.67461418},{"name":"東京大学教育学部附属中等教育学校校庭","province":"東京都","city":"中野区","address":"東京都中野区南台1丁目15","lat":35.68530682,"lon":139.67376032},{"name":"都立武蔵丘高等学校校庭","province":"東京都","city":"中野区","address":"東京都中野区上鷺宮2丁目14-1","lat":35.72899512,"lon":139.63095098},{"name":"東京警察病院ヘリポート","province":"東京都","city":"中野区","address":"東京都中野区中野4丁目22-1","lat":35.70920915,"lon":139.65931337},{"name":"中野区選挙管理委員会","province":"東京都","city":"中野区","address":"中野区中野4-8-1","lat":35.707369,"lon":139.663762},{"name":"中野都税事務所","province":"東京都","city":"中野区","address":"東京都中野区中野4丁目6-15","lat":35.70966201,"lon":139.66378797},{"name":"武蔵丘高等学校","province":"東京都","city":"中野区","address":"東京都中野区上鷺宮2丁目14-1","lat":35.72899512,"lon":139.63095098},{"name":"稔ヶ丘高等学校","province":"東京都","city":"中野区","address":"東京都中野区上鷺宮5丁目11-1","lat":35.72800066,"lon":139.62576254},{"name":"富士高等学校","province":"東京都","city":"中野区","address":"東京都中野区弥生町5丁目21-1","lat":35.68959503,"lon":139.66701353},{"name":"中野工業高等学校","province":"東京都","city":"中野区","address":"東京都中野区野方3丁目5-5","lat":35.71668603,"lon":139.65667161},{"name":"鷺宮高等学校","province":"東京都","city":"中野区","address":"東京都中野区若宮3丁目46-8","lat":35.72042972,"lon":139.64432249},{"name":"第三建設事務所","province":"東京都","city":"中野区","address":"中野区中野4-8-1","lat":35.707288,"lon":139.66381},{"name":"中野区","province":"東京都","city":"中野区","address":"中野区中野1-15-7","lat":35.70576,"lon":139.6757},{"name":"中野区社会福祉協議会","province":"東京都","city":"中野区","address":"中野区中野5-68-7スマイルなかの4階","lat":35.709262,"lon":139.665196},{"name":"中野区社会福祉協議会","province":"東京都","city":"中野区","address":"中野区中野5-68-7スマイルなかの4階","lat":35.70926,"lon":139.66521},{"name":"立正佼成会附属佼成病院","province":"東京都","city":"中野区","address":"東京都中野区弥生町5丁目25-15","lat":35.69047273,"lon":139.66806618},{"name":"東京医療生活協同組合中野総合病院","province":"東京都","city":"中野区","address":"東京都中野区中央4丁目59-16","lat":35.70255736,"lon":139.66706576},{"name":"東京警察病院","province":"東京都","city":"中野区","address":"東京都中野区中野4丁目22-1","lat":35.70920915,"lon":139.65931337},{"name":"区立弥生公園","province":"東京都","city":"中野区","address":"東京都中野区弥生町5丁目4","lat":35.68651484,"lon":139.66689699},{"name":"区立江古田の森公園","province":"東京都","city":"中野区","address":"東京都中野区江古田3丁目14","lat":35.73006534,"lon":139.6657647},{"name":"区立みずのとう公園","province":"東京都","city":"中野区","address":"東京都中野区江古田1丁目3","lat":35.72432456,"lon":139.67461418},{"name":"東京大学教育学部附属中等教育学校校庭","province":"東京都","city":"中野区","address":"東京都中野区南台1丁目15","lat":35.68530682,"lon":139.67376032},{"name":"都立武蔵丘高等学校校庭","province":"東京都","city":"中野区","address":"東京都中野区上鷺宮2丁目14-1","lat":35.72899512,"lon":139.63095098},{"name":"東京警察病院ヘリポート","province":"東京都","city":"中野区","address":"東京都中野区中野4丁目22-1","lat":35.70920915,"lon":139.65931337},{"name":"中野都税事務所","province":"東京都","city":"中野区","address":"東京都中野区中野4丁目6-15","lat":35.70966201,"lon":139.66378797},{"name":"武蔵丘高等学校","province":"東京都","city":"中野区","address":"東京都中野区上鷺宮2丁目14-1","lat":35.72899512,"lon":139.63095098},{"name":"稔ヶ丘高等学校","province":"東京都","city":"中野区","address":"東京都中野区上鷺宮5丁目11-1","lat":35.72800066,"lon":139.62576254},{"name":"富士高等学校","province":"東京都","city":"中野区","address":"東京都中野区弥生町5丁目21-1","lat":35.68959503,"lon":139.66701353},{"name":"中野工業高等学校","province":"東京都","city":"中野区","address":"東京都中野区野方3丁目5-5","lat":35.71668603,"lon":139.65667161},{"name":"鷺宮高等学校","province":"東京都","city":"中野区","address":"東京都中野区若宮3丁目46-8","lat":35.72042972,"lon":139.64432249},{"name":"第三建設事務所","province":"東京都","city":"中野区","address":"中野区中野4-8-1","lat":35.707288,"lon":139.66381},{"name":"中野区","province":"東京都","city":"中野区","address":"中野区中野1-15-7","lat":35.70576,"lon":139.6757},{"name":"立正佼成会附属佼成病院","province":"東京都","city":"中野区","address":"東京都中野区弥生町5丁目25-15","lat":35.69047273,"lon":139.66806618},{"name":"東京医療生活協同組合中野総合病院","province":"東京都","city":"中野区","address":"東京都中野区中央4丁目59-16","lat":35.70255736,"lon":139.66706576},{"name":"東京警察病院","province":"東京都","city":"中野区","address":"東京都中野区中野4丁目22-1","lat":35.70920915,"lon":139.65931337},{"name":"中野都税事務所","province":"東京都","city":"中野区","address":"東京都中野区中野4丁目6-15","lat":35.70966201,"lon":139.66378797},{"name":"武蔵丘高等学校","province":"東京都","city":"中野区","address":"東京都中野区上鷺宮2丁目14-1","lat":35.72899512,"lon":139.63095098},{"name":"稔ヶ丘高等学校","province":"東京都","city":"中野区","address":"東京都中野区上鷺宮5丁目11-1","lat":35.72800066,"lon":139.62576254},{"name":"富士高等学校","province":"東京都","city":"中野区","address":"東京都中野区弥生町5丁目21-1","lat":35.68959503,"lon":139.66701353},{"name":"中野工業高等学校","province":"東京都","city":"中野区","address":"東京都中野区野方3丁目5-5","lat":35.71668603,"lon":139.65667161},{"name":"鷺宮高等学校","province":"東京都","city":"中野区","address":"東京都中野区若宮3丁目46-8","lat":35.72042972,"lon":139.64432249},{"name":"立正佼成会附属佼成病院","province":"東京都","city":"中野区","address":"東京都中野区弥生町5丁目25-15","lat":35.69047273,"lon":139.66806618},{"name":"東京医療生活協同組合中野総合病院","province":"東京都","city":"中野区","address":"東京都中野区中央4丁目59-16","lat":35.70255736,"lon":139.66706576},{"name":"東京警察病院","province":"東京都","city":"中野区","address":"東京都中野区中野4丁目22-1","lat":35.70920915,"lon":139.65931337},{"name":"中野都税事務所","province":"東京都","city":"中野区","address":"東京都中野区中野4丁目6-15","lat":35.70966201,"lon":139.66378797},{"name":"武蔵丘高等学校","province":"東京都","city":"中野区","address":"東京都中野区上鷺宮2丁目14-1","lat":35.72899512,"lon":139.63095098},{"name":"稔ヶ丘高等学校","province":"東京都","city":"中野区","address":"東京都中野区上鷺宮5丁目11-1","lat":35.72800066,"lon":139.62576254},{"name":"富士高等学校","province":"東京都","city":"中野区","address":"東京都中野区弥生町5丁目21-1","lat":35.68959503,"lon":139.66701353},{"name":"中野工業高等学校","province":"東京都","city":"中野区","address":"東京都中野区野方3丁目5-5","lat":35.71668603,"lon":139.65667161},{"name":"鷺宮高等学校","province":"東京都","city":"中野区","address":"東京都中野区若宮3丁目46-8","lat":35.72042972,"lon":139.64432249}]}