{"keyword":"支払","data":[{"name":"中野都税事務所","province":"東京都","city":"中野区","address":"東京都中野区中野4丁目6-15","lat":35.709745,"lon":139.663678},{"name":"都営大江戸線中野坂上駅","province":"東京都","city":"中野区","address":"東京都中野区中央2丁目2","lat":35.697565,"lon":139.682984},{"name":"都営大江戸線東中野駅","province":"東京都","city":"中野区","address":"東京都中野区東中野3丁目8","lat":35.707044,"lon":139.683044},{"name":"都営大江戸線新江古田駅","province":"東京都","city":"中野区","address":"東京都中野区江原町2丁目29","lat":35.732557,"lon":139.670436},{"name":"東京都水道局中野営業所","province":"東京都","city":"中野区","address":"東京都中野区中野1丁目5-7","lat":35.701797,"lon":139.677606},{"name":"中野消防署東中野出張所","province":"東京都","city":"中野区","address":"東京都中野区上高田1丁目1-7","lat":35.709844,"lon":139.681671},{"name":"子ども・若者支援センター等複合施設","province":"東京都","city":"中野区","address":"東京都中野区中央1丁目41-2","lat":35.698187,"lon":139.683342},{"name":"中野区役所本庁舎（東京都第三建設事務所合同庁舎）","province":"東京都","city":"中野区","address":"東京都中野区中野4丁目8-1","lat":35.707346,"lon":139.663985},{"name":"中野区役所本庁舎（東京都第三建設事務所合同庁舎）","province":"東京都","city":"中野区","address":"東京都中野区中野4丁目8-1","lat":35.70697,"lon":139.663804},{"name":"中野区役所本庁舎（東京都第三建設事務所合同庁舎）","province":"東京都","city":"中野区","address":"東京都中野区中野4丁目8-1","lat":35.707406,"lon":139.663865},{"name":"中部すこやか福祉センター","province":"東京都","city":"中野区","address":"東京都中野区中央3丁目19-1","lat":35.700363,"lon":139.674159},{"name":"南部すこやか福祉センター等複合施設","province":"東京都","city":"中野区","address":"東京都中野区弥生町5丁目11-26","lat":35.688141,"lon":139.668569},{"name":"南部すこやか福祉センター等複合施設","province":"東京都","city":"中野区","address":"東京都中野区弥生町5丁目11-26","lat":35.688225,"lon":139.668537},{"name":"南部すこやか福祉センター等複合施設","province":"東京都","city":"中野区","address":"東京都中野区弥生町5丁目11","lat":35.688023,"lon":139.668557},{"name":"北部すこやか福祉センター","province":"東京都","city":"中野区","address":"東京都中野区江古田4丁目31-10","lat":35.724712,"lon":139.661622},{"name":"鷺宮すこやか福祉センター","province":"東京都","city":"中野区","address":"東京都中野区若宮3丁目58-10","lat":35.722053,"lon":139.640064},{"name":"南中野区民活動センター","province":"東京都","city":"中野区","address":"東京都中野区弥生町5丁目5-2","lat":35.686081,"lon":139.666327},{"name":"南中野区民活動センター","province":"東京都","city":"中野区","address":"東京都中野区弥生町5丁目5-2","lat":35.68624,"lon":139.66631},{"name":"弥生区民活動センター","province":"東京都","city":"中野区","address":"東京都中野区弥生町1丁目58-14","lat":35.692379,"lon":139.678461},{"name":"東部区民活動センター","province":"東京都","city":"中野区","address":"東京都中野区中央2丁目18-21","lat":35.700451,"lon":139.682563},{"name":"鍋横区民活動センター","province":"東京都","city":"中野区","address":"東京都中野区本町5丁目47-13","lat":35.693668,"lon":139.66791},{"name":"桃園区民活動センター","province":"東京都","city":"中野区","address":"東京都中野区中央4丁目57-1","lat":35.702356,"lon":139.667224},{"name":"東中野区民活動センター","province":"東京都","city":"中野区","address":"東京都中野区東中野5丁目27-5","lat":35.710148,"lon":139.690289},{"name":"東中野区民活動センター","province":"東京都","city":"中野区","address":"東京都中野区東中野5丁目27-5","lat":35.71017,"lon":139.690268},{"name":"新井区民活動センター","province":"東京都","city":"中野区","address":"東京都中野区新井3丁目11-4","lat":35.714307,"lon":139.663509},{"name":"野方区民活動センター","province":"東京都","city":"中野区","address":"東京都中野区野方5丁目3-1","lat":35.718334,"lon":139.653259},{"name":"野方区民活動センター","province":"東京都","city":"中野区","address":"東京都中野区野方5丁目3-1","lat":35.71817,"lon":139.653408},{"name":"野方区民活動センター","province":"東京都","city":"中野区","address":"東京都中野区野方5丁目3-1","lat":35.71823,"lon":139.653403},{"name":"大和区民活動センター","province":"東京都","city":"中野区","address":"東京都中野区大和町2丁目44-6","lat":35.713556,"lon":139.648929},{"name":"鷺宮区民活動センター","province":"東京都","city":"中野区","address":"東京都中野区鷺宮3丁目22-5","lat":35.723497,"lon":139.639853},{"name":"上鷺宮区民活動センター","province":"東京都","city":"中野区","address":"東京都中野区上鷺宮3丁目7-6","lat":35.731901,"lon":139.632066},{"name":"江古田区民活動センター","province":"東京都","city":"中野区","address":"東京都中野区江原町2丁目3-15","lat":35.728779,"lon":139.669687},{"name":"鷺宮区民活動センター分室","province":"東京都","city":"中野区","address":"東京都中野区白鷺1丁目4-27","lat":35.717544,"lon":139.638352},{"name":"上鷺宮区民活動センター分室","province":"東京都","city":"中野区","address":"東京都中野区上鷺宮2丁目4","lat":35.727333,"lon":139.634743},{"name":"松が丘シニアプラザ","province":"東京都","city":"中野区","address":"東京都中野区松が丘1丁目32-10","lat":35.721238,"lon":139.671953},{"name":"上高田区民活動センター","province":"東京都","city":"中野区","address":"東京都中野区上高田2丁目11-1","lat":35.711556,"lon":139.672584},{"name":"教育センター分室","province":"東京都","city":"中野区","address":"東京都中野区野方1丁目35-3","lat":35.709556,"lon":139.656523},{"name":"中野東図書館","province":"東京都","city":"中野区","address":"東京都中野区中央1丁目41-2","lat":35.698271,"lon":139.683513},{"name":"しんやまの家","province":"東京都","city":"中野区","address":"東京都中野区南台4丁目25-1","lat":35.68082,"lon":139.667486},{"name":"本一高齢者会館","province":"東京都","city":"中野区","address":"東京都中野区本町1丁目7-6","lat":35.693805,"lon":139.682714},{"name":"昭和高齢者会館","province":"東京都","city":"中野区","address":"東京都中野区東中野3丁目19-18","lat":35.708418,"lon":139.680634},{"name":"宮園高齢者会館","province":"東京都","city":"中野区","address":"東京都中野区中央2丁目18-21","lat":35.700445,"lon":139.682565},{"name":"上高田高齢者会館","province":"東京都","city":"中野区","address":"東京都中野区上高田2丁目8-11","lat":35.710776,"lon":139.672427},{"name":"上高田東高齢者会館","province":"東京都","city":"中野区","address":"東京都中野区上高田4丁目17-3","lat":35.712925,"lon":139.677926},{"name":"沼袋高齢者会館","province":"東京都","city":"中野区","address":"東京都中野区上鷺宮2丁目4-6","lat":35.727066,"lon":139.634969},{"name":"野方高齢者会館","province":"東京都","city":"中野区","address":"東京都中野区野方2丁目29-13","lat":35.714493,"lon":139.656443},{"name":"東山高齢者会館","province":"東京都","city":"中野区","address":"東京都中野区野方4丁目41-7","lat":35.721891,"lon":139.657262},{"name":"若宮高齢者会館","province":"東京都","city":"中野区","address":"東京都中野区大和町4丁目51-11","lat":35.715468,"lon":139.642993},{"name":"白鷺高齢者会館","province":"東京都","city":"中野区","address":"東京都中野区白鷺2丁目8-5","lat":35.71866,"lon":139.635816},{"name":"鷺六高齢者会館","province":"東京都","city":"中野区","address":"東京都中野区鷺宮6丁目25-8","lat":35.725655,"lon":139.630198},{"name":"南部高齢者会館","province":"東京都","city":"中野区","address":"東京都中野区南台5丁目27","lat":35.683338,"lon":139.660887},{"name":"中野区保健所","province":"東京都","city":"中野区","address":"東京都中野区中野2丁目17-4","lat":35.702903,"lon":139.669232},{"name":"野方図書館","province":"東京都","city":"中野区","address":"東京都中野区野方3丁目19","lat":35.717474,"lon":139.654403},{"name":"江古田図書館","province":"東京都","city":"中野区","address":"東京都中野区江古田2丁目1-11","lat":35.724897,"lon":139.668998},{"name":"上高田図書館","province":"東京都","city":"中野区","address":"東京都中野区上高田5丁目30-15","lat":35.718937,"lon":139.675148},{"name":"南台図書館","province":"東京都","city":"中野区","address":"東京都中野区南台3丁目26","lat":35.68538,"lon":139.665629},{"name":"中央図書館みなみの小学校分室","province":"東京都","city":"中野区","address":"東京都中野区弥生町4丁目27-11","lat":35.687112,"lon":139.669454},{"name":"中央図書館美鳩小学校分室","province":"東京都","city":"中野区","address":"東京都中野区大和町4丁目26-5","lat":35.714417,"lon":139.644845},{"name":"中央図書館中野第一小学校分室","province":"東京都","city":"中野区","address":"東京都中野区本町3丁目16-1","lat":35.695868,"lon":139.676948},{"name":"産業振興センター","province":"東京都","city":"中野区","address":"東京都中野区中野2丁目13-14","lat":35.704384,"lon":139.668083},{"name":"産業振興センター","province":"東京都","city":"中野区","address":"東京都中野区中野2丁目13-14","lat":35.704361,"lon":139.66801},{"name":"歴史民俗資料館","province":"東京都","city":"中野区","address":"東京都中野区江古田4丁目3-4","lat":35.724309,"lon":139.664957},{"name":"鷺宮スポーツ・コミュニティプラザ","province":"東京都","city":"中野区","address":"東京都中野区白鷺3丁目1-13","lat":35.722551,"lon":139.636294},{"name":"鷺宮スポーツ・コミュニティプラザ","province":"東京都","city":"中野区","address":"東京都中野区白鷺3丁目1-13","lat":35.722517,"lon":139.636297},{"name":"鷺宮スポーツ・コミュニティプラザ","province":"東京都","city":"中野区","address":"東京都中野区白鷺3丁目1-13","lat":35.722453,"lon":139.63626},{"name":"鷺宮スポーツ・コミュニティプラザ","province":"東京都","city":"中野区","address":"東京都中野区白鷺3丁目1-13","lat":35.722538,"lon":139.636299},{"name":"鷺宮スポーツ・コミュニティプラザ","province":"東京都","city":"中野区","address":"東京都中野区白鷺3丁目1-13","lat":35.722442,"lon":139.636296},{"name":"哲学堂弓道場","province":"東京都","city":"中野区","address":"東京都中野区松が丘1丁目34","lat":35.723383,"lon":139.673919},{"name":"南部スポーツ・コミュニティプラザ","province":"東京都","city":"中野区","address":"東京都中野区弥生町5丁目11-26","lat":35.688198,"lon":139.6683},{"name":"南部スポーツ・コミュニティプラザ","province":"東京都","city":"中野区","address":"東京都中野区弥生町5丁目11-26","lat":35.68833,"lon":139.668393},{"name":"南部スポーツ・コミュニティプラザ","province":"東京都","city":"中野区","address":"東京都中野区弥生町5丁目11-26","lat":35.688167,"lon":139.668478},{"name":"もみじやま文化センター本館","province":"東京都","city":"中野区","address":"東京都中野区中野2丁目9-7","lat":35.704186,"lon":139.671831},{"name":"もみじやま文化センター本館","province":"東京都","city":"中野区","address":"東京都中野区中野2丁目9-7","lat":35.704494,"lon":139.671869},{"name":"もみじやま文化センター本館","province":"東京都","city":"中野区","address":"東京都中野区中野2丁目9-7","lat":35.704562,"lon":139.671661},{"name":"もみじやま文化センター本館","province":"東京都","city":"中野区","address":"東京都中野区中野2丁目9-7","lat":35.704462,"lon":139.671578},{"name":"もみじやま文化センター西館","province":"東京都","city":"中野区","address":"東京都中野区中野2丁目9-7","lat":35.7044,"lon":139.671755},{"name":"野方区民ホール","province":"東京都","city":"中野区","address":"東京都中野区野方5丁目3-1","lat":35.718417,"lon":139.653268},{"name":"なかの芸能小劇場","province":"東京都","city":"中野区","address":"東京都中野区中野5丁目68-7","lat":35.709067,"lon":139.665347},{"name":"野方児童館","province":"東京都","city":"中野区","address":"東京都中野区新井2丁目48-10","lat":35.710881,"lon":139.660392},{"name":"宮の台児童館","province":"東京都","city":"中野区","address":"東京都中野区本町4丁目8-16","lat":35.695704,"lon":139.673329},{"name":"中野区社会福祉会館","province":"東京都","city":"中野区","address":"東京都中野区中野5丁目68-7","lat":35.709243,"lon":139.665344},{"name":"中野区社会福祉会館","province":"東京都","city":"中野区","address":"東京都中野区中野5丁目68-7","lat":35.709208,"lon":139.665345},{"name":"中野区社会福祉会館","province":"東京都","city":"中野区","address":"東京都中野区中野5丁目68-7","lat":35.70919,"lon":139.665328},{"name":"中野区社会福祉会館","province":"東京都","city":"中野区","address":"東京都中野区中野5丁目68-7","lat":35.709175,"lon":139.665347},{"name":"中野区障害者福祉会館","province":"東京都","city":"中野区","address":"東京都中野区沼袋2丁目40-18","lat":35.723651,"lon":139.663138},{"name":"中野区障害者福祉会館","province":"東京都","city":"中野区","address":"東京都中野区沼袋2丁目40-18","lat":35.723653,"lon":139.663067},{"name":"やよいの園","province":"東京都","city":"中野区","address":"東京都中野区弥生町3丁目33-8","lat":35.688856,"lon":139.674346},{"name":"やよいの園","province":"東京都","city":"中野区","address":"東京都中野区弥生町3丁目33-8","lat":35.688792,"lon":139.674326},{"name":"新井薬師児童館","province":"東京都","city":"中野区","address":"東京都中野区新井5丁目4","lat":35.715211,"lon":139.667762},{"name":"城山ふれあいの家","province":"東京都","city":"中野区","address":"東京都中野区中野1丁目20-4","lat":35.703995,"lon":139.676854},{"name":"みずの塔ふれあいの家","province":"東京都","city":"中野区","address":"東京都中野区江古田1丁目9-24","lat":35.725449,"lon":139.673425},{"name":"中野区立総合体育館","province":"東京都","city":"中野区","address":"東京都中野区新井3丁目37-78","lat":35.715749,"lon":139.662982},{"name":"中野三丁目敬老館","province":"東京都","city":"中野区","address":"東京都中野区中野3丁目23-47","lat":35.701614,"lon":139.664116},{"name":"株式会社富士の華","province":"東京都","city":"中野区","address":"東京都中野区野方1丁目38-13","lat":35.709609,"lon":139.65527204},{"name":"＊?中野区立歴史民俗資料館","province":"東京都","city":"中野区","address":"中野区江古田4-3-4","lat":35.724336,"lon":139.665055},{"name":"西部第一下水道事務所","province":"東京都","city":"中野区","address":"東京都中野区新井3丁目37-4","lat":35.71529745,"lon":139.6622323},{"name":"中野都税事務所","province":"東京都","city":"中野区","address":"東京都中野区中野4丁目6-15","lat":35.709745,"lon":139.663678},{"name":"都営大江戸線中野坂上駅","province":"東京都","city":"中野区","address":"東京都中野区中央2丁目2","lat":35.697565,"lon":139.682984},{"name":"都営大江戸線東中野駅","province":"東京都","city":"中野区","address":"東京都中野区東中野3丁目8","lat":35.707044,"lon":139.683044},{"name":"都営大江戸線新江古田駅","province":"東京都","city":"中野区","address":"東京都中野区江原町2丁目29","lat":35.732557,"lon":139.670436},{"name":"東京都水道局中野営業所","province":"東京都","city":"中野区","address":"東京都中野区中野1丁目5-7","lat":35.701797,"lon":139.677606},{"name":"中野消防署東中野出張所","province":"東京都","city":"中野区","address":"東京都中野区上高田1丁目1-7","lat":35.709844,"lon":139.681671},{"name":"子ども・若者支援センター等複合施設","province":"東京都","city":"中野区","address":"東京都中野区中央1丁目41-2","lat":35.698187,"lon":139.683342},{"name":"中野区役所本庁舎（東京都第三建設事務所合同庁舎）","province":"東京都","city":"中野区","address":"東京都中野区中野4丁目8-1","lat":35.707346,"lon":139.663985},{"name":"中野区役所本庁舎（東京都第三建設事務所合同庁舎）","province":"東京都","city":"中野区","address":"東京都中野区中野4丁目8-1","lat":35.70697,"lon":139.663804},{"name":"中野区役所本庁舎（東京都第三建設事務所合同庁舎）","province":"東京都","city":"中野区","address":"東京都中野区中野4丁目8-1","lat":35.707406,"lon":139.663865},{"name":"中部すこやか福祉センター","province":"東京都","city":"中野区","address":"東京都中野区中央3丁目19-1","lat":35.700363,"lon":139.674159},{"name":"南部すこやか福祉センター等複合施設","province":"東京都","city":"中野区","address":"東京都中野区弥生町5丁目11-26","lat":35.688141,"lon":139.668569},{"name":"南部すこやか福祉センター等複合施設","province":"東京都","city":"中野区","address":"東京都中野区弥生町5丁目11-26","lat":35.688225,"lon":139.668537},{"name":"南部すこやか福祉センター等複合施設","province":"東京都","city":"中野区","address":"東京都中野区弥生町5丁目11","lat":35.688023,"lon":139.668557},{"name":"北部すこやか福祉センター","province":"東京都","city":"中野区","address":"東京都中野区江古田4丁目31-10","lat":35.724712,"lon":139.661622},{"name":"鷺宮すこやか福祉センター","province":"東京都","city":"中野区","address":"東京都中野区若宮3丁目58-10","lat":35.722053,"lon":139.640064},{"name":"南中野区民活動センター","province":"東京都","city":"中野区","address":"東京都中野区弥生町5丁目5-2","lat":35.686081,"lon":139.666327},{"name":"南中野区民活動センター","province":"東京都","city":"中野区","address":"東京都中野区弥生町5丁目5-2","lat":35.68624,"lon":139.66631},{"name":"弥生区民活動センター","province":"東京都","city":"中野区","address":"東京都中野区弥生町1丁目58-14","lat":35.692379,"lon":139.678461},{"name":"東部区民活動センター","province":"東京都","city":"中野区","address":"東京都中野区中央2丁目18-21","lat":35.700451,"lon":139.682563},{"name":"鍋横区民活動センター","province":"東京都","city":"中野区","address":"東京都中野区本町5丁目47-13","lat":35.693668,"lon":139.66791},{"name":"桃園区民活動センター","province":"東京都","city":"中野区","address":"東京都中野区中央4丁目57-1","lat":35.702356,"lon":139.667224},{"name":"東中野区民活動センター","province":"東京都","city":"中野区","address":"東京都中野区東中野5丁目27-5","lat":35.710148,"lon":139.690289},{"name":"東中野区民活動センター","province":"東京都","city":"中野区","address":"東京都中野区東中野5丁目27-5","lat":35.71017,"lon":139.690268},{"name":"新井区民活動センター","province":"東京都","city":"中野区","address":"東京都中野区新井3丁目11-4","lat":35.714307,"lon":139.663509},{"name":"野方区民活動センター","province":"東京都","city":"中野区","address":"東京都中野区野方5丁目3-1","lat":35.718334,"lon":139.653259},{"name":"野方区民活動センター","province":"東京都","city":"中野区","address":"東京都中野区野方5丁目3-1","lat":35.71817,"lon":139.653408},{"name":"野方区民活動センター","province":"東京都","city":"中野区","address":"東京都中野区野方5丁目3-1","lat":35.71823,"lon":139.653403},{"name":"大和区民活動センター","province":"東京都","city":"中野区","address":"東京都中野区大和町2丁目44-6","lat":35.713556,"lon":139.648929},{"name":"鷺宮区民活動センター","province":"東京都","city":"中野区","address":"東京都中野区鷺宮3丁目22-5","lat":35.723497,"lon":139.639853},{"name":"上鷺宮区民活動センター","province":"東京都","city":"中野区","address":"東京都中野区上鷺宮3丁目7-6","lat":35.731901,"lon":139.632066},{"name":"江古田区民活動センター","province":"東京都","city":"中野区","address":"東京都中野区江原町2丁目3-15","lat":35.728779,"lon":139.669687},{"name":"鷺宮区民活動センター分室","province":"東京都","city":"中野区","address":"東京都中野区白鷺1丁目4-27","lat":35.717544,"lon":139.638352},{"name":"上鷺宮区民活動センター分室","province":"東京都","city":"中野区","address":"東京都中野区上鷺宮2丁目4","lat":35.727333,"lon":139.634743},{"name":"松が丘シニアプラザ","province":"東京都","city":"中野区","address":"東京都中野区松が丘1丁目32-10","lat":35.721238,"lon":139.671953},{"name":"上高田区民活動センター","province":"東京都","city":"中野区","address":"東京都中野区上高田2丁目11-1","lat":35.711556,"lon":139.672584},{"name":"教育センター分室","province":"東京都","city":"中野区","address":"東京都中野区野方1丁目35-3","lat":35.709556,"lon":139.656523},{"name":"中野東図書館","province":"東京都","city":"中野区","address":"東京都中野区中央1丁目41-2","lat":35.698271,"lon":139.683513},{"name":"しんやまの家","province":"東京都","city":"中野区","address":"東京都中野区南台4丁目25-1","lat":35.68082,"lon":139.667486},{"name":"本一高齢者会館","province":"東京都","city":"中野区","address":"東京都中野区本町1丁目7-6","lat":35.693805,"lon":139.682714},{"name":"昭和高齢者会館","province":"東京都","city":"中野区","address":"東京都中野区東中野3丁目19-18","lat":35.708418,"lon":139.680634},{"name":"宮園高齢者会館","province":"東京都","city":"中野区","address":"東京都中野区中央2丁目18-21","lat":35.700445,"lon":139.682565},{"name":"上高田高齢者会館","province":"東京都","city":"中野区","address":"東京都中野区上高田2丁目8-11","lat":35.710776,"lon":139.672427},{"name":"上高田東高齢者会館","province":"東京都","city":"中野区","address":"東京都中野区上高田4丁目17-3","lat":35.712925,"lon":139.677926},{"name":"沼袋高齢者会館","province":"東京都","city":"中野区","address":"東京都中野区上鷺宮2丁目4-6","lat":35.727066,"lon":139.634969},{"name":"野方高齢者会館","province":"東京都","city":"中野区","address":"東京都中野区野方2丁目29-13","lat":35.714493,"lon":139.656443},{"name":"東山高齢者会館","province":"東京都","city":"中野区","address":"東京都中野区野方4丁目41-7","lat":35.721891,"lon":139.657262},{"name":"若宮高齢者会館","province":"東京都","city":"中野区","address":"東京都中野区大和町4丁目51-11","lat":35.715468,"lon":139.642993},{"name":"白鷺高齢者会館","province":"東京都","city":"中野区","address":"東京都中野区白鷺2丁目8-5","lat":35.71866,"lon":139.635816},{"name":"鷺六高齢者会館","province":"東京都","city":"中野区","address":"東京都中野区鷺宮6丁目25-8","lat":35.725655,"lon":139.630198},{"name":"南部高齢者会館","province":"東京都","city":"中野区","address":"東京都中野区南台5丁目27","lat":35.683338,"lon":139.660887},{"name":"中野区保健所","province":"東京都","city":"中野区","address":"東京都中野区中野2丁目17-4","lat":35.702903,"lon":139.669232},{"name":"野方図書館","province":"東京都","city":"中野区","address":"東京都中野区野方3丁目19","lat":35.717474,"lon":139.654403},{"name":"江古田図書館","province":"東京都","city":"中野区","address":"東京都中野区江古田2丁目1-11","lat":35.724897,"lon":139.668998},{"name":"上高田図書館","province":"東京都","city":"中野区","address":"東京都中野区上高田5丁目30-15","lat":35.718937,"lon":139.675148},{"name":"南台図書館","province":"東京都","city":"中野区","address":"東京都中野区南台3丁目26","lat":35.68538,"lon":139.665629},{"name":"中央図書館みなみの小学校分室","province":"東京都","city":"中野区","address":"東京都中野区弥生町4丁目27-11","lat":35.687112,"lon":139.669454},{"name":"中央図書館美鳩小学校分室","province":"東京都","city":"中野区","address":"東京都中野区大和町4丁目26-5","lat":35.714417,"lon":139.644845},{"name":"中央図書館中野第一小学校分室","province":"東京都","city":"中野区","address":"東京都中野区本町3丁目16-1","lat":35.695868,"lon":139.676948},{"name":"産業振興センター","province":"東京都","city":"中野区","address":"東京都中野区中野2丁目13-14","lat":35.704384,"lon":139.668083},{"name":"産業振興センター","province":"東京都","city":"中野区","address":"東京都中野区中野2丁目13-14","lat":35.704361,"lon":139.66801},{"name":"歴史民俗資料館","province":"東京都","city":"中野区","address":"東京都中野区江古田4丁目3-4","lat":35.724309,"lon":139.664957},{"name":"鷺宮スポーツ・コミュニティプラザ","province":"東京都","city":"中野区","address":"東京都中野区白鷺3丁目1-13","lat":35.722551,"lon":139.636294},{"name":"鷺宮スポーツ・コミュニティプラザ","province":"東京都","city":"中野区","address":"東京都中野区白鷺3丁目1-13","lat":35.722517,"lon":139.636297},{"name":"鷺宮スポーツ・コミュニティプラザ","province":"東京都","city":"中野区","address":"東京都中野区白鷺3丁目1-13","lat":35.722453,"lon":139.63626},{"name":"鷺宮スポーツ・コミュニティプラザ","province":"東京都","city":"中野区","address":"東京都中野区白鷺3丁目1-13","lat":35.722538,"lon":139.636299},{"name":"鷺宮スポーツ・コミュニティプラザ","province":"東京都","city":"中野区","address":"東京都中野区白鷺3丁目1-13","lat":35.722442,"lon":139.636296},{"name":"哲学堂弓道場","province":"東京都","city":"中野区","address":"東京都中野区松が丘1丁目34","lat":35.723383,"lon":139.673919},{"name":"南部スポーツ・コミュニティプラザ","province":"東京都","city":"中野区","address":"東京都中野区弥生町5丁目11-26","lat":35.688198,"lon":139.6683},{"name":"南部スポーツ・コミュニティプラザ","province":"東京都","city":"中野区","address":"東京都中野区弥生町5丁目11-26","lat":35.68833,"lon":139.668393},{"name":"南部スポーツ・コミュニティプラザ","province":"東京都","city":"中野区","address":"東京都中野区弥生町5丁目11-26","lat":35.688167,"lon":139.668478},{"name":"もみじやま文化センター本館","province":"東京都","city":"中野区","address":"東京都中野区中野2丁目9-7","lat":35.704186,"lon":139.671831},{"name":"もみじやま文化センター本館","province":"東京都","city":"中野区","address":"東京都中野区中野2丁目9-7","lat":35.704494,"lon":139.671869},{"name":"もみじやま文化センター本館","province":"東京都","city":"中野区","address":"東京都中野区中野2丁目9-7","lat":35.704562,"lon":139.671661},{"name":"もみじやま文化センター本館","province":"東京都","city":"中野区","address":"東京都中野区中野2丁目9-7","lat":35.704462,"lon":139.671578},{"name":"もみじやま文化センター西館","province":"東京都","city":"中野区","address":"東京都中野区中野2丁目9-7","lat":35.7044,"lon":139.671755},{"name":"野方区民ホール","province":"東京都","city":"中野区","address":"東京都中野区野方5丁目3-1","lat":35.718417,"lon":139.653268},{"name":"なかの芸能小劇場","province":"東京都","city":"中野区","address":"東京都中野区中野5丁目68-7","lat":35.709067,"lon":139.665347},{"name":"野方児童館","province":"東京都","city":"中野区","address":"東京都中野区新井2丁目48-10","lat":35.710881,"lon":139.660392},{"name":"宮の台児童館","province":"東京都","city":"中野区","address":"東京都中野区本町4丁目8-16","lat":35.695704,"lon":139.673329},{"name":"中野区社会福祉会館","province":"東京都","city":"中野区","address":"東京都中野区中野5丁目68-7","lat":35.709243,"lon":139.665344},{"name":"中野区社会福祉会館","province":"東京都","city":"中野区","address":"東京都中野区中野5丁目68-7","lat":35.709208,"lon":139.665345},{"name":"中野区社会福祉会館","province":"東京都","city":"中野区","address":"東京都中野区中野5丁目68-7","lat":35.70919,"lon":139.665328},{"name":"中野区社会福祉会館","province":"東京都","city":"中野区","address":"東京都中野区中野5丁目68-7","lat":35.709175,"lon":139.665347},{"name":"中野区障害者福祉会館","province":"東京都","city":"中野区","address":"東京都中野区沼袋2丁目40-18","lat":35.723651,"lon":139.663138},{"name":"中野区障害者福祉会館","province":"東京都","city":"中野区","address":"東京都中野区沼袋2丁目40-18","lat":35.723653,"lon":139.663067},{"name":"やよいの園","province":"東京都","city":"中野区","address":"東京都中野区弥生町3丁目33-8","lat":35.688856,"lon":139.674346},{"name":"やよいの園","province":"東京都","city":"中野区","address":"東京都中野区弥生町3丁目33-8","lat":35.688792,"lon":139.674326},{"name":"新井薬師児童館","province":"東京都","city":"中野区","address":"東京都中野区新井5丁目4","lat":35.715211,"lon":139.667762},{"name":"城山ふれあいの家","province":"東京都","city":"中野区","address":"東京都中野区中野1丁目20-4","lat":35.703995,"lon":139.676854},{"name":"みずの塔ふれあいの家","province":"東京都","city":"中野区","address":"東京都中野区江古田1丁目9-24","lat":35.725449,"lon":139.673425},{"name":"中野区立総合体育館","province":"東京都","city":"中野区","address":"東京都中野区新井3丁目37-78","lat":35.715749,"lon":139.662982},{"name":"中野三丁目敬老館","province":"東京都","city":"中野区","address":"東京都中野区中野3丁目23-47","lat":35.701614,"lon":139.664116},{"name":"＊?中野区立歴史民俗資料館","province":"東京都","city":"中野区","address":"中野区江古田4-3-4","lat":35.724336,"lon":139.665055},{"name":"西部第一下水道事務所","province":"東京都","city":"中野区","address":"東京都中野区新井3丁目37-4","lat":35.71529745,"lon":139.6622323},{"name":"中野都税事務所","province":"東京都","city":"中野区","address":"東京都中野区中野4丁目6-15","lat":35.709745,"lon":139.663678},{"name":"都営大江戸線中野坂上駅","province":"東京都","city":"中野区","address":"東京都中野区中央2丁目2","lat":35.697565,"lon":139.682984},{"name":"都営大江戸線東中野駅","province":"東京都","city":"中野区","address":"東京都中野区東中野3丁目8","lat":35.707044,"lon":139.683044},{"name":"都営大江戸線新江古田駅","province":"東京都","city":"中野区","address":"東京都中野区江原町2丁目29","lat":35.732557,"lon":139.670436},{"name":"東京都水道局中野営業所","province":"東京都","city":"中野区","address":"東京都中野区中野1丁目5-7","lat":35.701797,"lon":139.677606},{"name":"中野消防署東中野出張所","province":"東京都","city":"中野区","address":"東京都中野区上高田1丁目1-7","lat":35.709844,"lon":139.681671},{"name":"子ども・若者支援センター等複合施設","province":"東京都","city":"中野区","address":"東京都中野区中央1丁目41-2","lat":35.698187,"lon":139.683342},{"name":"中野区役所本庁舎（東京都第三建設事務所合同庁舎）","province":"東京都","city":"中野区","address":"東京都中野区中野4丁目8-1","lat":35.707346,"lon":139.663985},{"name":"中野区役所本庁舎（東京都第三建設事務所合同庁舎）","province":"東京都","city":"中野区","address":"東京都中野区中野4丁目8-1","lat":35.70697,"lon":139.663804},{"name":"中野区役所本庁舎（東京都第三建設事務所合同庁舎）","province":"東京都","city":"中野区","address":"東京都中野区中野4丁目8-1","lat":35.707406,"lon":139.663865},{"name":"中部すこやか福祉センター","province":"東京都","city":"中野区","address":"東京都中野区中央3丁目19-1","lat":35.700363,"lon":139.674159},{"name":"南部すこやか福祉センター等複合施設","province":"東京都","city":"中野区","address":"東京都中野区弥生町5丁目11-26","lat":35.688141,"lon":139.668569},{"name":"南部すこやか福祉センター等複合施設","province":"東京都","city":"中野区","address":"東京都中野区弥生町5丁目11-26","lat":35.688225,"lon":139.668537},{"name":"南部すこやか福祉センター等複合施設","province":"東京都","city":"中野区","address":"東京都中野区弥生町5丁目11","lat":35.688023,"lon":139.668557},{"name":"北部すこやか福祉センター","province":"東京都","city":"中野区","address":"東京都中野区江古田4丁目31-10","lat":35.724712,"lon":139.661622},{"name":"鷺宮すこやか福祉センター","province":"東京都","city":"中野区","address":"東京都中野区若宮3丁目58-10","lat":35.722053,"lon":139.640064},{"name":"南中野区民活動センター","province":"東京都","city":"中野区","address":"東京都中野区弥生町5丁目5-2","lat":35.686081,"lon":139.666327},{"name":"南中野区民活動センター","province":"東京都","city":"中野区","address":"東京都中野区弥生町5丁目5-2","lat":35.68624,"lon":139.66631},{"name":"弥生区民活動センター","province":"東京都","city":"中野区","address":"東京都中野区弥生町1丁目58-14","lat":35.692379,"lon":139.678461},{"name":"東部区民活動センター","province":"東京都","city":"中野区","address":"東京都中野区中央2丁目18-21","lat":35.700451,"lon":139.682563},{"name":"鍋横区民活動センター","province":"東京都","city":"中野区","address":"東京都中野区本町5丁目47-13","lat":35.693668,"lon":139.66791},{"name":"桃園区民活動センター","province":"東京都","city":"中野区","address":"東京都中野区中央4丁目57-1","lat":35.702356,"lon":139.667224},{"name":"東中野区民活動センター","province":"東京都","city":"中野区","address":"東京都中野区東中野5丁目27-5","lat":35.710148,"lon":139.690289},{"name":"東中野区民活動センター","province":"東京都","city":"中野区","address":"東京都中野区東中野5丁目27-5","lat":35.71017,"lon":139.690268},{"name":"新井区民活動センター","province":"東京都","city":"中野区","address":"東京都中野区新井3丁目11-4","lat":35.714307,"lon":139.663509},{"name":"野方区民活動センター","province":"東京都","city":"中野区","address":"東京都中野区野方5丁目3-1","lat":35.718334,"lon":139.653259},{"name":"野方区民活動センター","province":"東京都","city":"中野区","address":"東京都中野区野方5丁目3-1","lat":35.71817,"lon":139.653408},{"name":"野方区民活動センター","province":"東京都","city":"中野区","address":"東京都中野区野方5丁目3-1","lat":35.71823,"lon":139.653403},{"name":"大和区民活動センター","province":"東京都","city":"中野区","address":"東京都中野区大和町2丁目44-6","lat":35.713556,"lon":139.648929},{"name":"鷺宮区民活動センター","province":"東京都","city":"中野区","address":"東京都中野区鷺宮3丁目22-5","lat":35.723497,"lon":139.639853},{"name":"上鷺宮区民活動センター","province":"東京都","city":"中野区","address":"東京都中野区上鷺宮3丁目7-6","lat":35.731901,"lon":139.632066},{"name":"江古田区民活動センター","province":"東京都","city":"中野区","address":"東京都中野区江原町2丁目3-15","lat":35.728779,"lon":139.669687},{"name":"鷺宮区民活動センター分室","province":"東京都","city":"中野区","address":"東京都中野区白鷺1丁目4-27","lat":35.717544,"lon":139.638352},{"name":"上鷺宮区民活動センター分室","province":"東京都","city":"中野区","address":"東京都中野区上鷺宮2丁目4","lat":35.727333,"lon":139.634743},{"name":"松が丘シニアプラザ","province":"東京都","city":"中野区","address":"東京都中野区松が丘1丁目32-10","lat":35.721238,"lon":139.671953},{"name":"上高田区民活動センター","province":"東京都","city":"中野区","address":"東京都中野区上高田2丁目11-1","lat":35.711556,"lon":139.672584},{"name":"教育センター分室","province":"東京都","city":"中野区","address":"東京都中野区野方1丁目35-3","lat":35.709556,"lon":139.656523},{"name":"中野東図書館","province":"東京都","city":"中野区","address":"東京都中野区中央1丁目41-2","lat":35.698271,"lon":139.683513},{"name":"しんやまの家","province":"東京都","city":"中野区","address":"東京都中野区南台4丁目25-1","lat":35.68082,"lon":139.667486},{"name":"本一高齢者会館","province":"東京都","city":"中野区","address":"東京都中野区本町1丁目7-6","lat":35.693805,"lon":139.682714},{"name":"昭和高齢者会館","province":"東京都","city":"中野区","address":"東京都中野区東中野3丁目19-18","lat":35.708418,"lon":139.680634},{"name":"宮園高齢者会館","province":"東京都","city":"中野区","address":"東京都中野区中央2丁目18-21","lat":35.700445,"lon":139.682565},{"name":"上高田高齢者会館","province":"東京都","city":"中野区","address":"東京都中野区上高田2丁目8-11","lat":35.710776,"lon":139.672427},{"name":"上高田東高齢者会館","province":"東京都","city":"中野区","address":"東京都中野区上高田4丁目17-3","lat":35.712925,"lon":139.677926},{"name":"沼袋高齢者会館","province":"東京都","city":"中野区","address":"東京都中野区上鷺宮2丁目4-6","lat":35.727066,"lon":139.634969},{"name":"野方高齢者会館","province":"東京都","city":"中野区","address":"東京都中野区野方2丁目29-13","lat":35.714493,"lon":139.656443},{"name":"東山高齢者会館","province":"東京都","city":"中野区","address":"東京都中野区野方4丁目41-7","lat":35.721891,"lon":139.657262},{"name":"若宮高齢者会館","province":"東京都","city":"中野区","address":"東京都中野区大和町4丁目51-11","lat":35.715468,"lon":139.642993},{"name":"白鷺高齢者会館","province":"東京都","city":"中野区","address":"東京都中野区白鷺2丁目8-5","lat":35.71866,"lon":139.635816},{"name":"鷺六高齢者会館","province":"東京都","city":"中野区","address":"東京都中野区鷺宮6丁目25-8","lat":35.725655,"lon":139.630198},{"name":"南部高齢者会館","province":"東京都","city":"中野区","address":"東京都中野区南台5丁目27","lat":35.683338,"lon":139.660887},{"name":"中野区保健所","province":"東京都","city":"中野区","address":"東京都中野区中野2丁目17-4","lat":35.702903,"lon":139.669232},{"name":"野方図書館","province":"東京都","city":"中野区","address":"東京都中野区野方3丁目19","lat":35.717474,"lon":139.654403},{"name":"江古田図書館","province":"東京都","city":"中野区","address":"東京都中野区江古田2丁目1-11","lat":35.724897,"lon":139.668998},{"name":"上高田図書館","province":"東京都","city":"中野区","address":"東京都中野区上高田5丁目30-15","lat":35.718937,"lon":139.675148},{"name":"南台図書館","province":"東京都","city":"中野区","address":"東京都中野区南台3丁目26","lat":35.68538,"lon":139.665629},{"name":"中央図書館みなみの小学校分室","province":"東京都","city":"中野区","address":"東京都中野区弥生町4丁目27-11","lat":35.687112,"lon":139.669454},{"name":"中央図書館美鳩小学校分室","province":"東京都","city":"中野区","address":"東京都中野区大和町4丁目26-5","lat":35.714417,"lon":139.644845},{"name":"中央図書館中野第一小学校分室","province":"東京都","city":"中野区","address":"東京都中野区本町3丁目16-1","lat":35.695868,"lon":139.676948},{"name":"産業振興センター","province":"東京都","city":"中野区","address":"東京都中野区中野2丁目13-14","lat":35.704384,"lon":139.668083},{"name":"産業振興センター","province":"東京都","city":"中野区","address":"東京都中野区中野2丁目13-14","lat":35.704361,"lon":139.66801},{"name":"歴史民俗資料館","province":"東京都","city":"中野区","address":"東京都中野区江古田4丁目3-4","lat":35.724309,"lon":139.664957},{"name":"鷺宮スポーツ・コミュニティプラザ","province":"東京都","city":"中野区","address":"東京都中野区白鷺3丁目1-13","lat":35.722551,"lon":139.636294},{"name":"鷺宮スポーツ・コミュニティプラザ","province":"東京都","city":"中野区","address":"東京都中野区白鷺3丁目1-13","lat":35.722517,"lon":139.636297},{"name":"鷺宮スポーツ・コミュニティプラザ","province":"東京都","city":"中野区","address":"東京都中野区白鷺3丁目1-13","lat":35.722453,"lon":139.63626},{"name":"鷺宮スポーツ・コミュニティプラザ","province":"東京都","city":"中野区","address":"東京都中野区白鷺3丁目1-13","lat":35.722538,"lon":139.636299},{"name":"鷺宮スポーツ・コミュニティプラザ","province":"東京都","city":"中野区","address":"東京都中野区白鷺3丁目1-13","lat":35.722442,"lon":139.636296},{"name":"哲学堂弓道場","province":"東京都","city":"中野区","address":"東京都中野区松が丘1丁目34","lat":35.723383,"lon":139.673919},{"name":"南部スポーツ・コミュニティプラザ","province":"東京都","city":"中野区","address":"東京都中野区弥生町5丁目11-26","lat":35.688198,"lon":139.6683},{"name":"南部スポーツ・コミュニティプラザ","province":"東京都","city":"中野区","address":"東京都中野区弥生町5丁目11-26","lat":35.68833,"lon":139.668393},{"name":"南部スポーツ・コミュニティプラザ","province":"東京都","city":"中野区","address":"東京都中野区弥生町5丁目11-26","lat":35.688167,"lon":139.668478},{"name":"もみじやま文化センター本館","province":"東京都","city":"中野区","address":"東京都中野区中野2丁目9-7","lat":35.704186,"lon":139.671831},{"name":"もみじやま文化センター本館","province":"東京都","city":"中野区","address":"東京都中野区中野2丁目9-7","lat":35.704494,"lon":139.671869},{"name":"もみじやま文化センター本館","province":"東京都","city":"中野区","address":"東京都中野区中野2丁目9-7","lat":35.704562,"lon":139.671661},{"name":"もみじやま文化センター本館","province":"東京都","city":"中野区","address":"東京都中野区中野2丁目9-7","lat":35.704462,"lon":139.671578},{"name":"もみじやま文化センター西館","province":"東京都","city":"中野区","address":"東京都中野区中野2丁目9-7","lat":35.7044,"lon":139.671755},{"name":"野方区民ホール","province":"東京都","city":"中野区","address":"東京都中野区野方5丁目3-1","lat":35.718417,"lon":139.653268},{"name":"なかの芸能小劇場","province":"東京都","city":"中野区","address":"東京都中野区中野5丁目68-7","lat":35.709067,"lon":139.665347},{"name":"野方児童館","province":"東京都","city":"中野区","address":"東京都中野区新井2丁目48-10","lat":35.710881,"lon":139.660392},{"name":"宮の台児童館","province":"東京都","city":"中野区","address":"東京都中野区本町4丁目8-16","lat":35.695704,"lon":139.673329},{"name":"中野区社会福祉会館","province":"東京都","city":"中野区","address":"東京都中野区中野5丁目68-7","lat":35.709243,"lon":139.665344},{"name":"中野区社会福祉会館","province":"東京都","city":"中野区","address":"東京都中野区中野5丁目68-7","lat":35.709208,"lon":139.665345},{"name":"中野区社会福祉会館","province":"東京都","city":"中野区","address":"東京都中野区中野5丁目68-7","lat":35.70919,"lon":139.665328},{"name":"中野区社会福祉会館","province":"東京都","city":"中野区","address":"東京都中野区中野5丁目68-7","lat":35.709175,"lon":139.665347},{"name":"中野区障害者福祉会館","province":"東京都","city":"中野区","address":"東京都中野区沼袋2丁目40-18","lat":35.723651,"lon":139.663138},{"name":"中野区障害者福祉会館","province":"東京都","city":"中野区","address":"東京都中野区沼袋2丁目40-18","lat":35.723653,"lon":139.663067},{"name":"やよいの園","province":"東京都","city":"中野区","address":"東京都中野区弥生町3丁目33-8","lat":35.688856,"lon":139.674346},{"name":"やよいの園","province":"東京都","city":"中野区","address":"東京都中野区弥生町3丁目33-8","lat":35.688792,"lon":139.674326},{"name":"新井薬師児童館","province":"東京都","city":"中野区","address":"東京都中野区新井5丁目4","lat":35.715211,"lon":139.667762},{"name":"城山ふれあいの家","province":"東京都","city":"中野区","address":"東京都中野区中野1丁目20-4","lat":35.703995,"lon":139.676854},{"name":"みずの塔ふれあいの家","province":"東京都","city":"中野区","address":"東京都中野区江古田1丁目9-24","lat":35.725449,"lon":139.673425},{"name":"中野区立総合体育館","province":"東京都","city":"中野区","address":"東京都中野区新井3丁目37-78","lat":35.715749,"lon":139.662982},{"name":"中野三丁目敬老館","province":"東京都","city":"中野区","address":"東京都中野区中野3丁目23-47","lat":35.701614,"lon":139.664116},{"name":"＊?中野区立歴史民俗資料館","province":"東京都","city":"中野区","address":"中野区江古田4-3-4","lat":35.724336,"lon":139.665055},{"name":"西部第一下水道事務所","province":"東京都","city":"中野区","address":"東京都中野区新井3丁目37-4","lat":35.71529745,"lon":139.6622323},{"name":"＊?中野区立歴史民俗資料館","province":"東京都","city":"中野区","address":"中野区江古田4-3-4","lat":35.724336,"lon":139.665055},{"name":"西部第一下水道事務所","province":"東京都","city":"中野区","address":"東京都中野区新井3丁目37-4","lat":35.71529745,"lon":139.6622323},{"name":"＊?中野区立歴史民俗資料館","province":"東京都","city":"中野区","address":"中野区江古田4-3-4","lat":35.724336,"lon":139.665055},{"name":"西部第一下水道事務所","province":"東京都","city":"中野区","address":"東京都中野区新井3丁目37-4","lat":35.71529745,"lon":139.6622323},{"name":"＊?中野区立歴史民俗資料館","province":"東京都","city":"中野区","address":"中野区江古田4-3-4","lat":35.724336,"lon":139.665055},{"name":"西部第一下水道事務所","province":"東京都","city":"中野区","address":"東京都中野区新井3丁目37-4","lat":35.71529745,"lon":139.6622323},{"name":"＊?中野区立歴史民俗資料館","province":"東京都","city":"中野区","address":"中野区江古田4-3-4","lat":35.724336,"lon":139.665055},{"name":"西部第一下水道事務所","province":"東京都","city":"中野区","address":"東京都中野区新井3丁目37-4","lat":35.71529745,"lon":139.6622323},{"name":"＊?中野区立歴史民俗資料館","province":"東京都","city":"中野区","address":"中野区江古田4-3-4","lat":35.724336,"lon":139.665055},{"name":"西部第一下水道事務所","province":"東京都","city":"中野区","address":"東京都中野区新井3丁目37-4","lat":35.71529745,"lon":139.6622323},{"name":"＊?中野区立歴史民俗資料館","province":"東京都","city":"中野区","address":"中野区江古田4-3-4","lat":35.724336,"lon":139.665055},{"name":"西部第一下水道事務所","province":"東京都","city":"中野区","address":"東京都中野区新井3丁目37-4","lat":35.71529745,"lon":139.6622323},{"name":"＊?中野区立歴史民俗資料館","province":"東京都","city":"中野区","address":"中野区江古田4-3-4","lat":35.724336,"lon":139.665055},{"name":"西部第一下水道事務所","province":"東京都","city":"中野区","address":"東京都中野区新井3丁目37-4","lat":35.71529745,"lon":139.6622323},{"name":"＊?中野区立歴史民俗資料館","province":"東京都","city":"中野区","address":"中野区江古田4-3-4","lat":35.724336,"lon":139.665055},{"name":"西部第一下水道事務所","province":"東京都","city":"中野区","address":"東京都中野区新井3丁目37-4","lat":35.71529745,"lon":139.6622323},{"name":"＊?中野区立歴史民俗資料館","province":"東京都","city":"中野区","address":"中野区江古田4-3-4","lat":35.724336,"lon":139.665055},{"name":"西部第一下水道事務所","province":"東京都","city":"中野区","address":"東京都中野区新井3丁目37-4","lat":35.71529745,"lon":139.6622323},{"name":"＊?中野区立歴史民俗資料館","province":"東京都","city":"中野区","address":"中野区江古田4-3-4","lat":35.724336,"lon":139.665055},{"name":"西部第一下水道事務所","province":"東京都","city":"中野区","address":"東京都中野区新井3丁目37-4","lat":35.71529745,"lon":139.6622323},{"name":"＊?中野区立歴史民俗資料館","province":"東京都","city":"中野区","address":"中野区江古田4-3-4","lat":35.724336,"lon":139.665055},{"name":"西部第一下水道事務所","province":"東京都","city":"中野区","address":"東京都中野区新井3丁目37-4","lat":35.71529745,"lon":139.6622323},{"name":"＊?中野区立歴史民俗資料館","province":"東京都","city":"中野区","address":"中野区江古田4-3-4","lat":35.724336,"lon":139.665055},{"name":"西部第一下水道事務所","province":"東京都","city":"中野区","address":"東京都中野区新井3丁目37-4","lat":35.71529745,"lon":139.6622323},{"name":"＊?中野区立歴史民俗資料館","province":"東京都","city":"中野区","address":"中野区江古田4-3-4","lat":35.724336,"lon":139.665055},{"name":"西部第一下水道事務所","province":"東京都","city":"中野区","address":"東京都中野区新井3丁目37-4","lat":35.71529745,"lon":139.6622323},{"name":"＊?中野区立歴史民俗資料館","province":"東京都","city":"中野区","address":"中野区江古田4-3-4","lat":35.724336,"lon":139.665055},{"name":"西部第一下水道事務所","province":"東京都","city":"中野区","address":"東京都中野区新井3丁目37-4","lat":35.71529745,"lon":139.6622323},{"name":"＊?中野区立歴史民俗資料館","province":"東京都","city":"中野区","address":"中野区江古田4-3-4","lat":35.724336,"lon":139.665055},{"name":"西部第一下水道事務所","province":"東京都","city":"中野区","address":"東京都中野区新井3丁目37-4","lat":35.71529745,"lon":139.6622323},{"name":"＊?中野区立歴史民俗資料館","province":"東京都","city":"中野区","address":"中野区江古田4-3-4","lat":35.724336,"lon":139.665055},{"name":"西部第一下水道事務所","province":"東京都","city":"中野区","address":"東京都中野区新井3丁目37-4","lat":35.71529745,"lon":139.6622323},{"name":"＊?中野区立歴史民俗資料館","province":"東京都","city":"中野区","address":"中野区江古田4-3-4","lat":35.724336,"lon":139.665055},{"name":"西部第一下水道事務所","province":"東京都","city":"中野区","address":"東京都中野区新井3丁目37-4","lat":35.71529745,"lon":139.6622323},{"name":"＊?中野区立歴史民俗資料館","province":"東京都","city":"中野区","address":"中野区江古田4-3-4","lat":35.724336,"lon":139.665055},{"name":"西部第一下水道事務所","province":"東京都","city":"中野区","address":"東京都中野区新井3丁目37-4","lat":35.71529745,"lon":139.6622323},{"name":"＊?中野区立歴史民俗資料館","province":"東京都","city":"中野区","address":"中野区江古田4-3-4","lat":35.724336,"lon":139.665055},{"name":"西部第一下水道事務所","province":"東京都","city":"中野区","address":"東京都中野区新井3丁目37-4","lat":35.71529745,"lon":139.6622323},{"name":"＊?中野区立歴史民俗資料館","province":"東京都","city":"中野区","address":"中野区江古田4-3-4","lat":35.724336,"lon":139.665055},{"name":"西部第一下水道事務所","province":"東京都","city":"中野区","address":"東京都中野区新井3丁目37-4","lat":35.71529745,"lon":139.6622323},{"name":"＊?中野区立歴史民俗資料館","province":"東京都","city":"中野区","address":"中野区江古田4-3-4","lat":35.724336,"lon":139.665055},{"name":"西部第一下水道事務所","province":"東京都","city":"中野区","address":"東京都中野区新井3丁目37-4","lat":35.71529745,"lon":139.6622323},{"name":"＊?中野区立歴史民俗資料館","province":"東京都","city":"中野区","address":"中野区江古田4-3-4","lat":35.724336,"lon":139.665055},{"name":"西部第一下水道事務所","province":"東京都","city":"中野区","address":"東京都中野区新井3丁目37-4","lat":35.71529745,"lon":139.6622323},{"name":"＊?中野区立歴史民俗資料館","province":"東京都","city":"中野区","address":"中野区江古田4-3-4","lat":35.724336,"lon":139.665055},{"name":"西部第一下水道事務所","province":"東京都","city":"中野区","address":"東京都中野区新井3丁目37-4","lat":35.71529745,"lon":139.6622323},{"name":"＊?中野区立歴史民俗資料館","province":"東京都","city":"中野区","address":"中野区江古田4-3-4","lat":35.724336,"lon":139.665055},{"name":"西部第一下水道事務所","province":"東京都","city":"中野区","address":"東京都中野区新井3丁目37-4","lat":35.71529745,"lon":139.6622323},{"name":"＊?中野区立歴史民俗資料館","province":"東京都","city":"中野区","address":"中野区江古田4-3-4","lat":35.724336,"lon":139.665055},{"name":"西部第一下水道事務所","province":"東京都","city":"中野区","address":"東京都中野区新井3丁目37-4","lat":35.71529745,"lon":139.6622323},{"name":"＊?中野区立歴史民俗資料館","province":"東京都","city":"中野区","address":"中野区江古田4-3-4","lat":35.724336,"lon":139.665055},{"name":"西部第一下水道事務所","province":"東京都","city":"中野区","address":"東京都中野区新井3丁目37-4","lat":35.71529745,"lon":139.6622323},{"name":"＊?中野区立歴史民俗資料館","province":"東京都","city":"中野区","address":"中野区江古田4-3-4","lat":35.724336,"lon":139.665055},{"name":"西部第一下水道事務所","province":"東京都","city":"中野区","address":"東京都中野区新井3丁目37-4","lat":35.71529745,"lon":139.6622323},{"name":"＊?中野区立歴史民俗資料館","province":"東京都","city":"中野区","address":"中野区江古田4-3-4","lat":35.724336,"lon":139.665055},{"name":"西部第一下水道事務所","province":"東京都","city":"中野区","address":"東京都中野区新井3丁目37-4","lat":35.71529745,"lon":139.6622323},{"name":"＊?中野区立歴史民俗資料館","province":"東京都","city":"中野区","address":"中野区江古田4-3-4","lat":35.724336,"lon":139.665055},{"name":"西部第一下水道事務所","province":"東京都","city":"中野区","address":"東京都中野区新井3丁目37-4","lat":35.71529745,"lon":139.6622323},{"name":"＊?中野区立歴史民俗資料館","province":"東京都","city":"中野区","address":"中野区江古田4-3-4","lat":35.724336,"lon":139.665055},{"name":"西部第一下水道事務所","province":"東京都","city":"中野区","address":"東京都中野区新井3丁目37-4","lat":35.71529745,"lon":139.6622323},{"name":"＊?中野区立歴史民俗資料館","province":"東京都","city":"中野区","address":"中野区江古田4-3-4","lat":35.724336,"lon":139.665055},{"name":"西部第一下水道事務所","province":"東京都","city":"中野区","address":"東京都中野区新井3丁目37-4","lat":35.71529745,"lon":139.6622323},{"name":"＊?中野区立歴史民俗資料館","province":"東京都","city":"中野区","address":"中野区江古田4-3-4","lat":35.724336,"lon":139.665055},{"name":"西部第一下水道事務所","province":"東京都","city":"中野区","address":"東京都中野区新井3丁目37-4","lat":35.71529745,"lon":139.6622323},{"name":"＊?中野区立歴史民俗資料館","province":"東京都","city":"中野区","address":"中野区江古田4-3-4","lat":35.724336,"lon":139.665055},{"name":"西部第一下水道事務所","province":"東京都","city":"中野区","address":"東京都中野区新井3丁目37-4","lat":35.71529745,"lon":139.6622323},{"name":"＊?中野区立歴史民俗資料館","province":"東京都","city":"中野区","address":"中野区江古田4-3-4","lat":35.724336,"lon":139.665055},{"name":"西部第一下水道事務所","province":"東京都","city":"中野区","address":"東京都中野区新井3丁目37-4","lat":35.71529745,"lon":139.6622323},{"name":"＊?中野区立歴史民俗資料館","province":"東京都","city":"中野区","address":"中野区江古田4-3-4","lat":35.724336,"lon":139.665055},{"name":"西部第一下水道事務所","province":"東京都","city":"中野区","address":"東京都中野区新井3丁目37-4","lat":35.71529745,"lon":139.6622323},{"name":"＊?中野区立歴史民俗資料館","province":"東京都","city":"中野区","address":"中野区江古田4-3-4","lat":35.724336,"lon":139.665055},{"name":"西部第一下水道事務所","province":"東京都","city":"中野区","address":"東京都中野区新井3丁目37-4","lat":35.71529745,"lon":139.6622323},{"name":"＊?中野区立歴史民俗資料館","province":"東京都","city":"中野区","address":"中野区江古田4-3-4","lat":35.724336,"lon":139.665055},{"name":"西部第一下水道事務所","province":"東京都","city":"中野区","address":"東京都中野区新井3丁目37-4","lat":35.71529745,"lon":139.6622323},{"name":"＊?中野区立歴史民俗資料館","province":"東京都","city":"中野区","address":"中野区江古田4-3-4","lat":35.724336,"lon":139.665055},{"name":"西部第一下水道事務所","province":"東京都","city":"中野区","address":"東京都中野区新井3丁目37-4","lat":35.71529745,"lon":139.6622323},{"name":"＊?中野区立歴史民俗資料館","province":"東京都","city":"中野区","address":"中野区江古田4-3-4","lat":35.724336,"lon":139.665055},{"name":"西部第一下水道事務所","province":"東京都","city":"中野区","address":"東京都中野区新井3丁目37-4","lat":35.71529745,"lon":139.6622323},{"name":"＊?中野区立歴史民俗資料館","province":"東京都","city":"中野区","address":"中野区江古田4-3-4","lat":35.724336,"lon":139.665055},{"name":"西部第一下水道事務所","province":"東京都","city":"中野区","address":"東京都中野区新井3丁目37-4","lat":35.71529745,"lon":139.6622323}]}