{"keyword":"放課後","data":[{"name":"ハッピー・テラス中野","province":"東京都","city":"中野区","address":"中野区中野4-7-1野口ビル7階","lat":35.709726,"lon":139.66348},{"name":"Ｐｕｒ　ａｉｌｅ　新井薬師","province":"東京都","city":"中野区","address":"中野区上高田5-35-9-1階","lat":35.716528,"lon":139.673759},{"name":"スタジオそら東中野","province":"東京都","city":"中野区","address":"中野区東中野4-27-33エムエス東中野ビル1階","lat":35.710963,"lon":139.689136},{"name":"発達支援センタージョイナス東中野教室","province":"東京都","city":"中野区","address":"中野区東中野1-50-2オクト森ビル1階","lat":35.705694,"lon":139.686381},{"name":"フリップ","province":"東京都","city":"中野区","address":"中野区中央5-38-13エスエス10A202","lat":35.699649,"lon":139.667274},{"name":"パソコンあいだっく","province":"東京都","city":"中野区","address":"中野区本町2-45-13山手ビル7階","lat":35.695861,"lon":139.682392},{"name":"アトリエあいだっく新中野","province":"東京都","city":"中野区","address":"中野区本町6-35-14アダチビル3階","lat":35.697244,"lon":139.662461},{"name":"おでんくらぶ","province":"東京都","city":"中野区","address":"中野区本町6-36-5シーアイマンション新中野102号","lat":35.697261,"lon":139.662286},{"name":"アトリエあいだっく","province":"東京都","city":"中野区","address":"中野区弥生町2-10-1霜田ビル1階","lat":35.692992,"lon":139.675802},{"name":"中野区療育センターゆめなりあ","province":"東京都","city":"中野区","address":"中野区弥生町5-5-2","lat":35.686165,"lon":139.666333},{"name":"スパーク中野センター","province":"東京都","city":"中野区","address":"中野区弥生町4-25-1","lat":35.686345,"lon":139.669297},{"name":"中野区　放課後デイサービスセンター　みずいろ","province":"東京都","city":"中野区","address":"中野区丸山一丁目17番2号","lat":35.725683,"lon":139.657739},{"name":"中野区子ども発達センター　たんぽぽ","province":"東京都","city":"中野区","address":"中野区丸山一丁目17番2号","lat":35.725683,"lon":139.657739},{"name":"Ｃａｔｃｈ　ａｎｄ　Ｓｍｉｌｅ","province":"東京都","city":"中野区","address":"中野区江古田4-7-3金子ビル2階","lat":35.724363,"lon":139.662826},{"name":"さくらそうキッズ","province":"東京都","city":"中野区","address":"中野区沼袋一丁目2番地7号","lat":35.717864,"lon":139.666968},{"name":"アプリ児童デイサービス沼袋","province":"東京都","city":"中野区","address":"中野区沼袋2-28-34","lat":35.722075,"lon":139.665684},{"name":"space","province":"東京都","city":"中野区","address":"中野区上鷺宮4-6-20イサカビル2階","lat":35.733861,"lon":139.630162},{"name":"ｓｐａｃｅ　Ｋｉｄ’ｓ．ｃｏｎ　鷺ノ宮","province":"東京都","city":"中野区","address":"中野区上鷺宮5-8-5ベル・ヴィベール102号","lat":35.727484,"lon":139.627135}]}