{"keyword":"月間","data":[{"name":"ハッピー・テラス中野","province":"東京都","city":"中野区","address":"中野区中野4-7-1野口ビル7階","lat":35.709726,"lon":139.66348},{"name":"Ｐｕｒ　ａｉｌｅ　新井薬師","province":"東京都","city":"中野区","address":"中野区上高田5-35-9-1階","lat":35.716528,"lon":139.673759},{"name":"スタジオそら東中野","province":"東京都","city":"中野区","address":"中野区東中野4-27-33エムエス東中野ビル1階","lat":35.710963,"lon":139.689136},{"name":"発達支援センタージョイナス東中野教室","province":"東京都","city":"中野区","address":"中野区東中野1-50-2オクト森ビル1階","lat":35.705694,"lon":139.686381},{"name":"フリップ","province":"東京都","city":"中野区","address":"中野区中央5-38-13エスエス10A202","lat":35.699649,"lon":139.667274},{"name":"パソコンあいだっく","province":"東京都","city":"中野区","address":"中野区本町2-45-13山手ビル7階","lat":35.695861,"lon":139.682392},{"name":"アトリエあいだっく新中野","province":"東京都","city":"中野区","address":"中野区本町6-35-14アダチビル3階","lat":35.697244,"lon":139.662461},{"name":"おでんくらぶ","province":"東京都","city":"中野区","address":"中野区本町6-36-5シーアイマンション新中野102号","lat":35.697261,"lon":139.662286},{"name":"アトリエあいだっく","province":"東京都","city":"中野区","address":"中野区弥生町2-10-1霜田ビル1階","lat":35.692992,"lon":139.675802},{"name":"中野区療育センターゆめなりあ","province":"東京都","city":"中野区","address":"中野区弥生町5-5-2","lat":35.686165,"lon":139.666333},{"name":"スパーク中野センター","province":"東京都","city":"中野区","address":"中野区弥生町4-25-1","lat":35.686345,"lon":139.669297},{"name":"中野区　放課後デイサービスセンター　みずいろ","province":"東京都","city":"中野区","address":"中野区丸山一丁目17番2号","lat":35.725683,"lon":139.657739},{"name":"中野区子ども発達センター　たんぽぽ","province":"東京都","city":"中野区","address":"中野区丸山一丁目17番2号","lat":35.725683,"lon":139.657739},{"name":"Ｃａｔｃｈ　ａｎｄ　Ｓｍｉｌｅ","province":"東京都","city":"中野区","address":"中野区江古田4-7-3金子ビル2階","lat":35.724363,"lon":139.662826},{"name":"さくらそうキッズ","province":"東京都","city":"中野区","address":"中野区沼袋一丁目2番地7号","lat":35.717864,"lon":139.666968},{"name":"アプリ児童デイサービス沼袋","province":"東京都","city":"中野区","address":"中野区沼袋2-28-34","lat":35.722075,"lon":139.665684},{"name":"space","province":"東京都","city":"中野区","address":"中野区上鷺宮4-6-20イサカビル2階","lat":35.733861,"lon":139.630162},{"name":"ｓｐａｃｅ　Ｋｉｄ’ｓ．ｃｏｎ　鷺ノ宮","province":"東京都","city":"中野区","address":"中野区上鷺宮5-8-5ベル・ヴィベール102号","lat":35.727484,"lon":139.627135},{"name":"中野区子ども家庭支援センター","province":"東京都","city":"中野区","address":"中野区中野4-8-1中野区役所3階","lat":35.707287,"lon":139.66381},{"name":"中野区子ども・若者支援センター","province":"東京都","city":"中野区","address":"中野区中央1-41-2","lat":35.69867,"lon":139.68387},{"name":"中野区子ども家庭支援センター","province":"東京都","city":"中野区","address":"中野区新井1-9-1","lat":35.71022,"lon":139.66594},{"name":"鍋屋横丁","province":"東京都","city":"中野区","address":"東京都中野区中央3丁目34-3","lat":35.69786361,"lon":139.67113226},{"name":"杉山公園前","province":"東京都","city":"中野区","address":"東京都中野区中央4丁目5-3","lat":35.69776352,"lon":139.66773257},{"name":"中野坂上","province":"東京都","city":"中野区","address":"東京都中野区本町1丁目32-3","lat":35.69667797,"lon":139.68305626},{"name":"上落合二丁目","province":"東京都","city":"中野区","address":"東京都中野区東中野3丁目14-20","lat":35.70985425,"lon":139.68390565},{"name":"東中野駅前","province":"東京都","city":"中野区","address":"東京都中野区東中野3丁目8-2","lat":35.70681012,"lon":139.68274199},{"name":"中野五差路","province":"東京都","city":"中野区","address":"東京都中野区中野3丁目33-20","lat":35.70276561,"lon":139.66542423},{"name":"十貫坂上","province":"東京都","city":"中野区","address":"東京都中野区本町5丁目48-12","lat":35.69403898,"lon":139.66819379},{"name":"紅葉山公園下","province":"東京都","city":"中野区","address":"東京都中野区中野2丁目1-1","lat":35.70267693,"lon":139.67159591},{"name":"上高田二丁目","province":"東京都","city":"中野区","address":"東京都中野区中野5丁目3-24","lat":35.70906512,"lon":139.67273166},{"name":"弥生町二丁目","province":"東京都","city":"中野区","address":"東京都中野区弥生町2丁目29-8","lat":35.69160054,"lon":139.67422392},{"name":"中野保健所前","province":"東京都","city":"中野区","address":"東京都中野区中野2丁目17-4","lat":35.70282407,"lon":139.66933499},{"name":"中野駅南口第一","province":"東京都","city":"中野区","address":"東京都中野区中野2丁目30","lat":35.70439878,"lon":139.66577135},{"name":"東中野地域包括支援センター前","province":"東京都","city":"中野区","address":"東京都中野区東中野1丁目5-1","lat":35.70161634,"lon":139.6851781},{"name":"中野五丁目","province":"東京都","city":"中野区","address":"東京都中野区中野5丁目23-11","lat":35.70945389,"lon":139.67026519},{"name":"桃花小学校前","province":"東京都","city":"中野区","address":"東京都中野区中央5丁目39-11","lat":35.70077146,"lon":139.66692696},{"name":"中野郵便局前","province":"東京都","city":"中野区","address":"東京都中野区中野2丁目27-1","lat":35.70340446,"lon":139.66658243},{"name":"中野ゼロホール前","province":"東京都","city":"中野区","address":"東京都中野区中野2丁目10-11","lat":35.70497946,"lon":139.67215133},{"name":"中野二丁目","province":"東京都","city":"中野区","address":"東京都中野区中野2丁目30-3","lat":35.70421268,"lon":139.66566026},{"name":"東中野二丁目","province":"東京都","city":"中野区","address":"東京都中野区東中野2丁目24-1","lat":35.7051853,"lon":139.68227543},{"name":"東中野四丁目","province":"東京都","city":"中野区","address":"東京都中野区東中野4丁目9-25","lat":35.70747403,"lon":139.68600556},{"name":"東中野駅前第二","province":"東京都","city":"中野区","address":"東京都中野区東中野2丁目25-7","lat":35.7059741,"lon":139.6823865},{"name":"中野中央四丁目","province":"東京都","city":"中野区","address":"東京都中野区中央4丁目6-12","lat":35.69889393,"lon":139.66782974},{"name":"中野本町六丁目","province":"東京都","city":"中野区","address":"東京都中野区本町6丁目14-4","lat":35.69595537,"lon":139.66681883},{"name":"中野新橋駅前","province":"東京都","city":"中野区","address":"東京都中野区弥生町2丁目21-6","lat":35.69246156,"lon":139.67452941},{"name":"桃花小学校北","province":"東京都","city":"中野区","address":"東京都中野区中央4丁目27","lat":35.70162415,"lon":139.66728244},{"name":"中野駅北口","province":"東京都","city":"中野区","address":"東京都中野区中野4丁目9","lat":35.70631514,"lon":139.66312984},{"name":"中野五丁目西","province":"東京都","city":"中野区","address":"東京都中野区新井1丁目2-12","lat":35.71003988,"lon":139.66862086},{"name":"中野本町四丁目","province":"東京都","city":"中野区","address":"東京都中野区本町4丁目31-10","lat":35.69548606,"lon":139.66960195},{"name":"鍋横地域センター入口","province":"東京都","city":"中野区","address":"東京都中野区本町5丁目34-10","lat":35.69374735,"lon":139.66863543},{"name":"東中野一丁目","province":"東京都","city":"中野区","address":"東京都中野区東中野1丁目11-16","lat":35.70327442,"lon":139.68279769},{"name":"関東バス本社前","province":"東京都","city":"中野区","address":"東京都中野区東中野5丁目23-15","lat":35.7097934,"lon":139.69297986},{"name":"鍋屋横丁西","province":"東京都","city":"中野区","address":"東京都中野区中央4丁目4-1","lat":35.69766912,"lon":139.66904356},{"name":"本三郵便局前","province":"東京都","city":"中野区","address":"東京都中野区中央2丁目49","lat":35.69828592,"lon":139.67594571},{"name":"中野六丁目第二","province":"東京都","city":"中野区","address":"東京都中野区中野5丁目1-18","lat":35.7065043,"lon":139.67251512},{"name":"東中野五丁目","province":"東京都","city":"中野区","address":"東京都中野区東中野4丁目25-5","lat":35.71007377,"lon":139.68740257},{"name":"東中野駅南口第一","province":"東京都","city":"中野区","address":"東京都中野区東中野1丁目51-3","lat":35.70601031,"lon":139.68598063},{"name":"東中野三丁目","province":"東京都","city":"中野区","address":"東京都中野区東中野4丁目13-3","lat":35.70853774,"lon":139.6840668},{"name":"紅葉山公園前","province":"東京都","city":"中野区","address":"東京都中野区中野2丁目5","lat":35.70386846,"lon":139.67153754},{"name":"新井","province":"東京都","city":"中野区","address":"東京都中野区中野4丁目3-2","lat":35.70950649,"lon":139.66447124},{"name":"中野体育館北","province":"東京都","city":"中野区","address":"東京都中野区新井2丁目30-4","lat":35.71006195,"lon":139.66327966},{"name":"沼袋","province":"東京都","city":"中野区","address":"東京都中野区沼袋4丁目31-15","lat":35.72357708,"lon":139.66255969},{"name":"新井五差路","province":"東京都","city":"中野区","address":"東京都中野区新井4丁目1-2","lat":35.71453654,"lon":139.66626809},{"name":"丸山陸橋下","province":"東京都","city":"中野区","address":"東京都中野区丸山1丁目10-2","lat":35.72336022,"lon":139.65409654},{"name":"大和陸橋下","province":"東京都","city":"中野区","address":"東京都中野区野方1丁目40-5","lat":35.70996727,"lon":139.65447765},{"name":"鷺宮四丁目","province":"東京都","city":"中野区","address":"東京都中野区上鷺宮1丁目1","lat":35.72670668,"lon":139.63920319},{"name":"野方警察署前","province":"東京都","city":"中野区","address":"東京都中野区中野4丁目22-1","lat":35.70920915,"lon":139.65931337},{"name":"都立家政","province":"東京都","city":"中野区","address":"東京都中野区鷺宮3丁目9-25","lat":35.72502087,"lon":139.64370012},{"name":"鷺宮小学校入口","province":"東京都","city":"中野区","address":"東京都中野区鷺宮4丁目34-10","lat":35.72414304,"lon":139.63800896},{"name":"武蔵ヶ丘高校入口","province":"東京都","city":"中野区","address":"東京都中野区上鷺宮2丁目11-1","lat":35.7271204,"lon":139.63428413},{"name":"中野区役所前","province":"東京都","city":"中野区","address":"東京都中野区中野5丁目64-3","lat":35.70664573,"lon":139.66547684},{"name":"薬師参道入口","province":"東京都","city":"中野区","address":"東京都中野区新井1丁目8-1","lat":35.71012592,"lon":139.66652382},{"name":"中野中学校前","province":"東京都","city":"中野区","address":"東京都中野区中野4丁目12-3","lat":35.70953695,"lon":139.66122986},{"name":"中野サンプラザ前","province":"東京都","city":"中野区","address":"東京都中野区中野5丁目67-6","lat":35.70836497,"lon":139.66531011},{"name":"平和の森公園前","province":"東京都","city":"中野区","address":"東京都中野区新井4丁目26-4","lat":35.71724727,"lon":139.66364598},{"name":"丸山二丁目","province":"東京都","city":"中野区","address":"東京都中野区野方6丁目50-10","lat":35.72332402,"lon":139.6510829},{"name":"丸山地域安全センター","province":"東京都","city":"中野区","address":"東京都中野区丸山1丁目6-1","lat":35.72291308,"lon":139.65562698},{"name":"上鷺東公園入口","province":"東京都","city":"中野区","address":"東京都中野区鷺宮4丁目45-18","lat":35.7263178,"lon":139.63791721},{"name":"新井町第二","province":"東京都","city":"中野区","address":"東京都中野区新井1丁目11-9","lat":35.71090914,"lon":139.66546832},{"name":"野方警察署西","province":"東京都","city":"中野区","address":"東京都中野区野方1丁目6-2","lat":35.71007848,"lon":139.65885227},{"name":"国立中野療養所前","province":"東京都","city":"中野区","address":"東京都中野区江原町2丁目8-8","lat":35.72957105,"lon":139.66910887},{"name":"鷺宮五丁目東","province":"東京都","city":"中野区","address":"東京都中野区鷺宮4丁目46","lat":35.72648441,"lon":139.63619789},{"name":"中野ブロードウエイ前","province":"東京都","city":"中野区","address":"東京都中野区新井1丁目9-4","lat":35.71016201,"lon":139.66580721},{"name":"鷺宮駅北口","province":"東京都","city":"中野区","address":"東京都中野区白鷺2丁目48-1","lat":35.72235434,"lon":139.63779517},{"name":"中野区役所裏","province":"東京都","city":"中野区","address":"東京都中野区中野4丁目10-1","lat":35.70779831,"lon":139.663002},{"name":"丸山小学校前","province":"東京都","city":"中野区","address":"東京都中野区沼袋4丁目41","lat":35.72281039,"lon":139.65820732},{"name":"鷺宮一丁目東","province":"東京都","city":"中野区","address":"東京都中野区鷺宮2丁目1-13","lat":35.72400168,"lon":139.64927748},{"name":"新井町西","province":"東京都","city":"中野区","address":"東京都中野区新井2丁目3-2","lat":35.71027583,"lon":139.66413513},{"name":"新井薬師駅前","province":"東京都","city":"中野区","address":"東京都中野区新井5丁目26-6","lat":35.71582264,"lon":139.67097597},{"name":"中野区役所前第二","province":"東京都","city":"中野区","address":"東京都中野区中野4丁目9","lat":35.70631514,"lon":139.66312984},{"name":"中野区役所北","province":"東京都","city":"中野区","address":"東京都中野区中野4丁目3","lat":35.70912598,"lon":139.66482401},{"name":"野方警察署南","province":"東京都","city":"中野区","address":"東京都中野区中野4丁目13","lat":35.70795657,"lon":139.66129381},{"name":"立正佼成会附属佼成病院","province":"東京都","city":"中野区","address":"東京都中野区弥生町5丁目25-15","lat":35.69047273,"lon":139.66806618},{"name":"東京医療生活協同組合中野総合病院","province":"東京都","city":"中野区","address":"東京都中野区中央4丁目59-16","lat":35.70255736,"lon":139.66706576},{"name":"東京警察病院","province":"東京都","city":"中野区","address":"東京都中野区中野4丁目22-1","lat":35.70920915,"lon":139.65931337},{"name":"区立弥生公園","province":"東京都","city":"中野区","address":"東京都中野区弥生町5丁目4","lat":35.68651484,"lon":139.66689699},{"name":"区立江古田の森公園","province":"東京都","city":"中野区","address":"東京都中野区江古田3丁目14","lat":35.73006534,"lon":139.6657647},{"name":"区立みずのとう公園","province":"東京都","city":"中野区","address":"東京都中野区江古田1丁目3","lat":35.72432456,"lon":139.67461418},{"name":"立正佼成会付属佼成病院","province":"東京都","city":"中野区","address":"東京都中野区弥生町5丁目25-15","lat":35.69047273,"lon":139.66806618},{"name":"東京大学教育学部附属中等教育学校校庭","province":"東京都","city":"中野区","address":"東京都中野区南台1丁目15","lat":35.68530682,"lon":139.67376032},{"name":"都立武蔵丘高等学校校庭","province":"東京都","city":"中野区","address":"東京都中野区上鷺宮2丁目14-1","lat":35.72899512,"lon":139.63095098},{"name":"東京警察病院ヘリポート","province":"東京都","city":"中野区","address":"東京都中野区中野4丁目22-1","lat":35.70920915,"lon":139.65931337},{"name":"中野都税事務所","province":"東京都","city":"中野区","address":"東京都中野区中野4丁目6-15","lat":35.70966201,"lon":139.66378797},{"name":"武蔵丘高等学校","province":"東京都","city":"中野区","address":"東京都中野区上鷺宮2丁目14-1","lat":35.72899512,"lon":139.63095098},{"name":"稔ヶ丘高等学校","province":"東京都","city":"中野区","address":"東京都中野区上鷺宮5丁目11-1","lat":35.72800066,"lon":139.62576254},{"name":"富士高等学校","province":"東京都","city":"中野区","address":"東京都中野区弥生町5丁目21-1","lat":35.68959503,"lon":139.66701353},{"name":"中野工業高等学校","province":"東京都","city":"中野区","address":"東京都中野区野方3丁目5-5","lat":35.71668603,"lon":139.65667161},{"name":"鷺宮高等学校","province":"東京都","city":"中野区","address":"東京都中野区若宮3丁目46-8","lat":35.72042972,"lon":139.64432249},{"name":"中野区本庁舎","province":"東京都","city":"中野区","address":"東京都中野区中野4丁目8-1","lat":35.70733449,"lon":139.6637464},{"name":"都立稔ヶ丘高等学校","province":"東京都","city":"中野区","address":"東京都中野区上鷺宮5丁目11-1","lat":35.72800066,"lon":139.62576254},{"name":"都立富士高等学校","province":"東京都","city":"中野区","address":"東京都中野区弥生町5丁目21-1","lat":35.68959503,"lon":139.66701353},{"name":"中野区本庁舎","province":"東京都","city":"中野区","address":"中野区中野4-8-1","lat":35.707288,"lon":139.66381},{"name":"第三建設事務所","province":"東京都","city":"中野区","address":"中野区中野4-8-1","lat":35.707288,"lon":139.66381},{"name":"第二自動車警ら隊新宿分駐所","province":"東京都","city":"中野区","address":"中野区弥生町2-4-10","lat":35.69143,"lon":139.6769},{"name":"中野警察署","province":"東京都","city":"中野区","address":"中野区中央2-47-2","lat":35.69779,"lon":139.6777},{"name":"野方警察署","province":"東京都","city":"中野区","address":"中野区中野4-12-1","lat":35.70943,"lon":139.6604},{"name":"中野消防署","province":"東京都","city":"中野区","address":"中野区中央3-25-3","lat":35.69798,"lon":139.6735},{"name":"野方消防署","province":"東京都","city":"中野区","address":"中野区丸山2-21-1","lat":35.72342,"lon":139.6521},{"name":"中野区","province":"東京都","city":"中野区","address":"中野区中野1-15-7","lat":35.70576,"lon":139.6757},{"name":"東京大学教育学部附属中等教育学校校庭","province":"東京都","city":"中野区","address":"中野区南台1-15","lat":35.68531,"lon":139.6738},{"name":"中野区立上高田野球場","province":"東京都","city":"中野区","address":"中野区上高田5-7-1","lat":35.7167,"lon":139.6784},{"name":"東京警察病院ヘリポート","province":"東京都","city":"中野区","address":"中野区中野4-22-1","lat":35.70923,"lon":139.6593},{"name":"西部第一下水道事務所","province":"東京都","city":"中野区","address":"東京都中野区新井3丁目37-4","lat":35.71529745,"lon":139.6622323},{"name":"※中野区本庁舎","province":"東京都","city":"中野区","address":"東京都中野区中野4丁目8-1","lat":35.70733449,"lon":139.6637464},{"name":"小滝橋自動車営業所","province":"東京都","city":"中野区","address":"東京都中野区東中野5丁目30-2","lat":35.71036835,"lon":139.6935159},{"name":"ハッピー・テラス中野","province":"東京都","city":"中野区","address":"中野区中野4-7-1野口ビル7階","lat":35.709726,"lon":139.66348},{"name":"Ｐｕｒ　ａｉｌｅ　新井薬師","province":"東京都","city":"中野区","address":"中野区上高田5-35-9-1階","lat":35.716528,"lon":139.673759},{"name":"スタジオそら東中野","province":"東京都","city":"中野区","address":"中野区東中野4-27-33エムエス東中野ビル1階","lat":35.710963,"lon":139.689136},{"name":"発達支援センタージョイナス東中野教室","province":"東京都","city":"中野区","address":"中野区東中野1-50-2オクト森ビル1階","lat":35.705694,"lon":139.686381},{"name":"フリップ","province":"東京都","city":"中野区","address":"中野区中央5-38-13エスエス10A202","lat":35.699649,"lon":139.667274},{"name":"パソコンあいだっく","province":"東京都","city":"中野区","address":"中野区本町2-45-13山手ビル7階","lat":35.695861,"lon":139.682392},{"name":"アトリエあいだっく新中野","province":"東京都","city":"中野区","address":"中野区本町6-35-14アダチビル3階","lat":35.697244,"lon":139.662461},{"name":"おでんくらぶ","province":"東京都","city":"中野区","address":"中野区本町6-36-5シーアイマンション新中野102号","lat":35.697261,"lon":139.662286},{"name":"アトリエあいだっく","province":"東京都","city":"中野区","address":"中野区弥生町2-10-1霜田ビル1階","lat":35.692992,"lon":139.675802},{"name":"中野区療育センターゆめなりあ","province":"東京都","city":"中野区","address":"中野区弥生町5-5-2","lat":35.686165,"lon":139.666333},{"name":"スパーク中野センター","province":"東京都","city":"中野区","address":"中野区弥生町4-25-1","lat":35.686345,"lon":139.669297},{"name":"中野区　放課後デイサービスセンター　みずいろ","province":"東京都","city":"中野区","address":"中野区丸山一丁目17番2号","lat":35.725683,"lon":139.657739},{"name":"中野区子ども発達センター　たんぽぽ","province":"東京都","city":"中野区","address":"中野区丸山一丁目17番2号","lat":35.725683,"lon":139.657739},{"name":"Ｃａｔｃｈ　ａｎｄ　Ｓｍｉｌｅ","province":"東京都","city":"中野区","address":"中野区江古田4-7-3金子ビル2階","lat":35.724363,"lon":139.662826},{"name":"さくらそうキッズ","province":"東京都","city":"中野区","address":"中野区沼袋一丁目2番地7号","lat":35.717864,"lon":139.666968},{"name":"アプリ児童デイサービス沼袋","province":"東京都","city":"中野区","address":"中野区沼袋2-28-34","lat":35.722075,"lon":139.665684},{"name":"space","province":"東京都","city":"中野区","address":"中野区上鷺宮4-6-20イサカビル2階","lat":35.733861,"lon":139.630162},{"name":"ｓｐａｃｅ　Ｋｉｄ’ｓ．ｃｏｎ　鷺ノ宮","province":"東京都","city":"中野区","address":"中野区上鷺宮5-8-5ベル・ヴィベール102号","lat":35.727484,"lon":139.627135},{"name":"中野区子ども家庭支援センター","province":"東京都","city":"中野区","address":"中野区中野4-8-1中野区役所3階","lat":35.707287,"lon":139.66381},{"name":"中野区子ども・若者支援センター","province":"東京都","city":"中野区","address":"中野区中央1-41-2","lat":35.69867,"lon":139.68387},{"name":"中野区子ども家庭支援センター","province":"東京都","city":"中野区","address":"中野区新井1-9-1","lat":35.71022,"lon":139.66594},{"name":"鍋屋横丁","province":"東京都","city":"中野区","address":"東京都中野区中央3丁目34-3","lat":35.69786361,"lon":139.67113226},{"name":"杉山公園前","province":"東京都","city":"中野区","address":"東京都中野区中央4丁目5-3","lat":35.69776352,"lon":139.66773257},{"name":"中野坂上","province":"東京都","city":"中野区","address":"東京都中野区本町1丁目32-3","lat":35.69667797,"lon":139.68305626},{"name":"上落合二丁目","province":"東京都","city":"中野区","address":"東京都中野区東中野3丁目14-20","lat":35.70985425,"lon":139.68390565},{"name":"東中野駅前","province":"東京都","city":"中野区","address":"東京都中野区東中野3丁目8-2","lat":35.70681012,"lon":139.68274199},{"name":"中野五差路","province":"東京都","city":"中野区","address":"東京都中野区中野3丁目33-20","lat":35.70276561,"lon":139.66542423},{"name":"十貫坂上","province":"東京都","city":"中野区","address":"東京都中野区本町5丁目48-12","lat":35.69403898,"lon":139.66819379},{"name":"紅葉山公園下","province":"東京都","city":"中野区","address":"東京都中野区中野2丁目1-1","lat":35.70267693,"lon":139.67159591},{"name":"上高田二丁目","province":"東京都","city":"中野区","address":"東京都中野区中野5丁目3-24","lat":35.70906512,"lon":139.67273166},{"name":"弥生町二丁目","province":"東京都","city":"中野区","address":"東京都中野区弥生町2丁目29-8","lat":35.69160054,"lon":139.67422392},{"name":"中野保健所前","province":"東京都","city":"中野区","address":"東京都中野区中野2丁目17-4","lat":35.70282407,"lon":139.66933499},{"name":"中野駅南口第一","province":"東京都","city":"中野区","address":"東京都中野区中野2丁目30","lat":35.70439878,"lon":139.66577135},{"name":"東中野地域包括支援センター前","province":"東京都","city":"中野区","address":"東京都中野区東中野1丁目5-1","lat":35.70161634,"lon":139.6851781},{"name":"中野五丁目","province":"東京都","city":"中野区","address":"東京都中野区中野5丁目23-11","lat":35.70945389,"lon":139.67026519},{"name":"桃花小学校前","province":"東京都","city":"中野区","address":"東京都中野区中央5丁目39-11","lat":35.70077146,"lon":139.66692696},{"name":"中野郵便局前","province":"東京都","city":"中野区","address":"東京都中野区中野2丁目27-1","lat":35.70340446,"lon":139.66658243},{"name":"中野ゼロホール前","province":"東京都","city":"中野区","address":"東京都中野区中野2丁目10-11","lat":35.70497946,"lon":139.67215133},{"name":"中野二丁目","province":"東京都","city":"中野区","address":"東京都中野区中野2丁目30-3","lat":35.70421268,"lon":139.66566026},{"name":"東中野二丁目","province":"東京都","city":"中野区","address":"東京都中野区東中野2丁目24-1","lat":35.7051853,"lon":139.68227543},{"name":"東中野四丁目","province":"東京都","city":"中野区","address":"東京都中野区東中野4丁目9-25","lat":35.70747403,"lon":139.68600556},{"name":"東中野駅前第二","province":"東京都","city":"中野区","address":"東京都中野区東中野2丁目25-7","lat":35.7059741,"lon":139.6823865},{"name":"中野中央四丁目","province":"東京都","city":"中野区","address":"東京都中野区中央4丁目6-12","lat":35.69889393,"lon":139.66782974},{"name":"中野本町六丁目","province":"東京都","city":"中野区","address":"東京都中野区本町6丁目14-4","lat":35.69595537,"lon":139.66681883},{"name":"中野新橋駅前","province":"東京都","city":"中野区","address":"東京都中野区弥生町2丁目21-6","lat":35.69246156,"lon":139.67452941},{"name":"桃花小学校北","province":"東京都","city":"中野区","address":"東京都中野区中央4丁目27","lat":35.70162415,"lon":139.66728244},{"name":"中野駅北口","province":"東京都","city":"中野区","address":"東京都中野区中野4丁目9","lat":35.70631514,"lon":139.66312984},{"name":"中野五丁目西","province":"東京都","city":"中野区","address":"東京都中野区新井1丁目2-12","lat":35.71003988,"lon":139.66862086},{"name":"中野本町四丁目","province":"東京都","city":"中野区","address":"東京都中野区本町4丁目31-10","lat":35.69548606,"lon":139.66960195},{"name":"鍋横地域センター入口","province":"東京都","city":"中野区","address":"東京都中野区本町5丁目34-10","lat":35.69374735,"lon":139.66863543},{"name":"東中野一丁目","province":"東京都","city":"中野区","address":"東京都中野区東中野1丁目11-16","lat":35.70327442,"lon":139.68279769},{"name":"関東バス本社前","province":"東京都","city":"中野区","address":"東京都中野区東中野5丁目23-15","lat":35.7097934,"lon":139.69297986},{"name":"鍋屋横丁西","province":"東京都","city":"中野区","address":"東京都中野区中央4丁目4-1","lat":35.69766912,"lon":139.66904356},{"name":"本三郵便局前","province":"東京都","city":"中野区","address":"東京都中野区中央2丁目49","lat":35.69828592,"lon":139.67594571},{"name":"中野六丁目第二","province":"東京都","city":"中野区","address":"東京都中野区中野5丁目1-18","lat":35.7065043,"lon":139.67251512},{"name":"東中野五丁目","province":"東京都","city":"中野区","address":"東京都中野区東中野4丁目25-5","lat":35.71007377,"lon":139.68740257},{"name":"東中野駅南口第一","province":"東京都","city":"中野区","address":"東京都中野区東中野1丁目51-3","lat":35.70601031,"lon":139.68598063},{"name":"東中野三丁目","province":"東京都","city":"中野区","address":"東京都中野区東中野4丁目13-3","lat":35.70853774,"lon":139.6840668},{"name":"紅葉山公園前","province":"東京都","city":"中野区","address":"東京都中野区中野2丁目5","lat":35.70386846,"lon":139.67153754},{"name":"新井","province":"東京都","city":"中野区","address":"東京都中野区中野4丁目3-2","lat":35.70950649,"lon":139.66447124},{"name":"中野体育館北","province":"東京都","city":"中野区","address":"東京都中野区新井2丁目30-4","lat":35.71006195,"lon":139.66327966},{"name":"沼袋","province":"東京都","city":"中野区","address":"東京都中野区沼袋4丁目31-15","lat":35.72357708,"lon":139.66255969},{"name":"新井五差路","province":"東京都","city":"中野区","address":"東京都中野区新井4丁目1-2","lat":35.71453654,"lon":139.66626809},{"name":"丸山陸橋下","province":"東京都","city":"中野区","address":"東京都中野区丸山1丁目10-2","lat":35.72336022,"lon":139.65409654},{"name":"大和陸橋下","province":"東京都","city":"中野区","address":"東京都中野区野方1丁目40-5","lat":35.70996727,"lon":139.65447765},{"name":"鷺宮四丁目","province":"東京都","city":"中野区","address":"東京都中野区上鷺宮1丁目1","lat":35.72670668,"lon":139.63920319},{"name":"野方警察署前","province":"東京都","city":"中野区","address":"東京都中野区中野4丁目22-1","lat":35.70920915,"lon":139.65931337},{"name":"都立家政","province":"東京都","city":"中野区","address":"東京都中野区鷺宮3丁目9-25","lat":35.72502087,"lon":139.64370012},{"name":"鷺宮小学校入口","province":"東京都","city":"中野区","address":"東京都中野区鷺宮4丁目34-10","lat":35.72414304,"lon":139.63800896},{"name":"武蔵ヶ丘高校入口","province":"東京都","city":"中野区","address":"東京都中野区上鷺宮2丁目11-1","lat":35.7271204,"lon":139.63428413},{"name":"中野区役所前","province":"東京都","city":"中野区","address":"東京都中野区中野5丁目64-3","lat":35.70664573,"lon":139.66547684},{"name":"薬師参道入口","province":"東京都","city":"中野区","address":"東京都中野区新井1丁目8-1","lat":35.71012592,"lon":139.66652382},{"name":"中野中学校前","province":"東京都","city":"中野区","address":"東京都中野区中野4丁目12-3","lat":35.70953695,"lon":139.66122986},{"name":"中野サンプラザ前","province":"東京都","city":"中野区","address":"東京都中野区中野5丁目67-6","lat":35.70836497,"lon":139.66531011},{"name":"平和の森公園前","province":"東京都","city":"中野区","address":"東京都中野区新井4丁目26-4","lat":35.71724727,"lon":139.66364598},{"name":"丸山二丁目","province":"東京都","city":"中野区","address":"東京都中野区野方6丁目50-10","lat":35.72332402,"lon":139.6510829},{"name":"丸山地域安全センター","province":"東京都","city":"中野区","address":"東京都中野区丸山1丁目6-1","lat":35.72291308,"lon":139.65562698},{"name":"上鷺東公園入口","province":"東京都","city":"中野区","address":"東京都中野区鷺宮4丁目45-18","lat":35.7263178,"lon":139.63791721},{"name":"新井町第二","province":"東京都","city":"中野区","address":"東京都中野区新井1丁目11-9","lat":35.71090914,"lon":139.66546832},{"name":"野方警察署西","province":"東京都","city":"中野区","address":"東京都中野区野方1丁目6-2","lat":35.71007848,"lon":139.65885227},{"name":"国立中野療養所前","province":"東京都","city":"中野区","address":"東京都中野区江原町2丁目8-8","lat":35.72957105,"lon":139.66910887},{"name":"鷺宮五丁目東","province":"東京都","city":"中野区","address":"東京都中野区鷺宮4丁目46","lat":35.72648441,"lon":139.63619789},{"name":"中野ブロードウエイ前","province":"東京都","city":"中野区","address":"東京都中野区新井1丁目9-4","lat":35.71016201,"lon":139.66580721},{"name":"鷺宮駅北口","province":"東京都","city":"中野区","address":"東京都中野区白鷺2丁目48-1","lat":35.72235434,"lon":139.63779517},{"name":"中野区役所裏","province":"東京都","city":"中野区","address":"東京都中野区中野4丁目10-1","lat":35.70779831,"lon":139.663002},{"name":"丸山小学校前","province":"東京都","city":"中野区","address":"東京都中野区沼袋4丁目41","lat":35.72281039,"lon":139.65820732},{"name":"鷺宮一丁目東","province":"東京都","city":"中野区","address":"東京都中野区鷺宮2丁目1-13","lat":35.72400168,"lon":139.64927748},{"name":"新井町西","province":"東京都","city":"中野区","address":"東京都中野区新井2丁目3-2","lat":35.71027583,"lon":139.66413513},{"name":"新井薬師駅前","province":"東京都","city":"中野区","address":"東京都中野区新井5丁目26-6","lat":35.71582264,"lon":139.67097597},{"name":"中野区役所前第二","province":"東京都","city":"中野区","address":"東京都中野区中野4丁目9","lat":35.70631514,"lon":139.66312984},{"name":"中野区役所北","province":"東京都","city":"中野区","address":"東京都中野区中野4丁目3","lat":35.70912598,"lon":139.66482401},{"name":"野方警察署南","province":"東京都","city":"中野区","address":"東京都中野区中野4丁目13","lat":35.70795657,"lon":139.66129381},{"name":"立正佼成会附属佼成病院","province":"東京都","city":"中野区","address":"東京都中野区弥生町5丁目25-15","lat":35.69047273,"lon":139.66806618},{"name":"東京医療生活協同組合中野総合病院","province":"東京都","city":"中野区","address":"東京都中野区中央4丁目59-16","lat":35.70255736,"lon":139.66706576},{"name":"東京警察病院","province":"東京都","city":"中野区","address":"東京都中野区中野4丁目22-1","lat":35.70920915,"lon":139.65931337},{"name":"区立弥生公園","province":"東京都","city":"中野区","address":"東京都中野区弥生町5丁目4","lat":35.68651484,"lon":139.66689699},{"name":"区立江古田の森公園","province":"東京都","city":"中野区","address":"東京都中野区江古田3丁目14","lat":35.73006534,"lon":139.6657647},{"name":"区立みずのとう公園","province":"東京都","city":"中野区","address":"東京都中野区江古田1丁目3","lat":35.72432456,"lon":139.67461418},{"name":"立正佼成会付属佼成病院","province":"東京都","city":"中野区","address":"東京都中野区弥生町5丁目25-15","lat":35.69047273,"lon":139.66806618},{"name":"東京大学教育学部附属中等教育学校校庭","province":"東京都","city":"中野区","address":"東京都中野区南台1丁目15","lat":35.68530682,"lon":139.67376032},{"name":"都立武蔵丘高等学校校庭","province":"東京都","city":"中野区","address":"東京都中野区上鷺宮2丁目14-1","lat":35.72899512,"lon":139.63095098},{"name":"東京警察病院ヘリポート","province":"東京都","city":"中野区","address":"東京都中野区中野4丁目22-1","lat":35.70920915,"lon":139.65931337},{"name":"中野都税事務所","province":"東京都","city":"中野区","address":"東京都中野区中野4丁目6-15","lat":35.70966201,"lon":139.66378797},{"name":"武蔵丘高等学校","province":"東京都","city":"中野区","address":"東京都中野区上鷺宮2丁目14-1","lat":35.72899512,"lon":139.63095098},{"name":"稔ヶ丘高等学校","province":"東京都","city":"中野区","address":"東京都中野区上鷺宮5丁目11-1","lat":35.72800066,"lon":139.62576254},{"name":"富士高等学校","province":"東京都","city":"中野区","address":"東京都中野区弥生町5丁目21-1","lat":35.68959503,"lon":139.66701353},{"name":"中野工業高等学校","province":"東京都","city":"中野区","address":"東京都中野区野方3丁目5-5","lat":35.71668603,"lon":139.65667161},{"name":"鷺宮高等学校","province":"東京都","city":"中野区","address":"東京都中野区若宮3丁目46-8","lat":35.72042972,"lon":139.64432249},{"name":"ハッピー・テラス中野","province":"東京都","city":"中野区","address":"中野区中野4-7-1野口ビル7階","lat":35.709726,"lon":139.66348},{"name":"Ｐｕｒ　ａｉｌｅ　新井薬師","province":"東京都","city":"中野区","address":"中野区上高田5-35-9-1階","lat":35.716528,"lon":139.673759},{"name":"スタジオそら東中野","province":"東京都","city":"中野区","address":"中野区東中野4-27-33エムエス東中野ビル1階","lat":35.710963,"lon":139.689136},{"name":"発達支援センタージョイナス東中野教室","province":"東京都","city":"中野区","address":"中野区東中野1-50-2オクト森ビル1階","lat":35.705694,"lon":139.686381},{"name":"フリップ","province":"東京都","city":"中野区","address":"中野区中央5-38-13エスエス10A202","lat":35.699649,"lon":139.667274},{"name":"パソコンあいだっく","province":"東京都","city":"中野区","address":"中野区本町2-45-13山手ビル7階","lat":35.695861,"lon":139.682392},{"name":"アトリエあいだっく新中野","province":"東京都","city":"中野区","address":"中野区本町6-35-14アダチビル3階","lat":35.697244,"lon":139.662461},{"name":"おでんくらぶ","province":"東京都","city":"中野区","address":"中野区本町6-36-5シーアイマンション新中野102号","lat":35.697261,"lon":139.662286},{"name":"アトリエあいだっく","province":"東京都","city":"中野区","address":"中野区弥生町2-10-1霜田ビル1階","lat":35.692992,"lon":139.675802},{"name":"中野区療育センターゆめなりあ","province":"東京都","city":"中野区","address":"中野区弥生町5-5-2","lat":35.686165,"lon":139.666333},{"name":"スパーク中野センター","province":"東京都","city":"中野区","address":"中野区弥生町4-25-1","lat":35.686345,"lon":139.669297},{"name":"中野区　放課後デイサービスセンター　みずいろ","province":"東京都","city":"中野区","address":"中野区丸山一丁目17番2号","lat":35.725683,"lon":139.657739},{"name":"中野区子ども発達センター　たんぽぽ","province":"東京都","city":"中野区","address":"中野区丸山一丁目17番2号","lat":35.725683,"lon":139.657739},{"name":"Ｃａｔｃｈ　ａｎｄ　Ｓｍｉｌｅ","province":"東京都","city":"中野区","address":"中野区江古田4-7-3金子ビル2階","lat":35.724363,"lon":139.662826},{"name":"さくらそうキッズ","province":"東京都","city":"中野区","address":"中野区沼袋一丁目2番地7号","lat":35.717864,"lon":139.666968},{"name":"アプリ児童デイサービス沼袋","province":"東京都","city":"中野区","address":"中野区沼袋2-28-34","lat":35.722075,"lon":139.665684},{"name":"space","province":"東京都","city":"中野区","address":"中野区上鷺宮4-6-20イサカビル2階","lat":35.733861,"lon":139.630162},{"name":"ｓｐａｃｅ　Ｋｉｄ’ｓ．ｃｏｎ　鷺ノ宮","province":"東京都","city":"中野区","address":"中野区上鷺宮5-8-5ベル・ヴィベール102号","lat":35.727484,"lon":139.627135},{"name":"中野区子ども家庭支援センター","province":"東京都","city":"中野区","address":"中野区中野4-8-1中野区役所3階","lat":35.707287,"lon":139.66381},{"name":"中野区子ども・若者支援センター","province":"東京都","city":"中野区","address":"中野区中央1-41-2","lat":35.69867,"lon":139.68387},{"name":"中野区子ども家庭支援センター","province":"東京都","city":"中野区","address":"中野区新井1-9-1","lat":35.71022,"lon":139.66594},{"name":"鍋屋横丁","province":"東京都","city":"中野区","address":"東京都中野区中央3丁目34-3","lat":35.69786361,"lon":139.67113226},{"name":"杉山公園前","province":"東京都","city":"中野区","address":"東京都中野区中央4丁目5-3","lat":35.69776352,"lon":139.66773257},{"name":"中野坂上","province":"東京都","city":"中野区","address":"東京都中野区本町1丁目32-3","lat":35.69667797,"lon":139.68305626},{"name":"上落合二丁目","province":"東京都","city":"中野区","address":"東京都中野区東中野3丁目14-20","lat":35.70985425,"lon":139.68390565},{"name":"東中野駅前","province":"東京都","city":"中野区","address":"東京都中野区東中野3丁目8-2","lat":35.70681012,"lon":139.68274199},{"name":"中野五差路","province":"東京都","city":"中野区","address":"東京都中野区中野3丁目33-20","lat":35.70276561,"lon":139.66542423},{"name":"十貫坂上","province":"東京都","city":"中野区","address":"東京都中野区本町5丁目48-12","lat":35.69403898,"lon":139.66819379},{"name":"紅葉山公園下","province":"東京都","city":"中野区","address":"東京都中野区中野2丁目1-1","lat":35.70267693,"lon":139.67159591},{"name":"上高田二丁目","province":"東京都","city":"中野区","address":"東京都中野区中野5丁目3-24","lat":35.70906512,"lon":139.67273166},{"name":"弥生町二丁目","province":"東京都","city":"中野区","address":"東京都中野区弥生町2丁目29-8","lat":35.69160054,"lon":139.67422392},{"name":"中野保健所前","province":"東京都","city":"中野区","address":"東京都中野区中野2丁目17-4","lat":35.70282407,"lon":139.66933499},{"name":"中野駅南口第一","province":"東京都","city":"中野区","address":"東京都中野区中野2丁目30","lat":35.70439878,"lon":139.66577135},{"name":"東中野地域包括支援センター前","province":"東京都","city":"中野区","address":"東京都中野区東中野1丁目5-1","lat":35.70161634,"lon":139.6851781},{"name":"中野五丁目","province":"東京都","city":"中野区","address":"東京都中野区中野5丁目23-11","lat":35.70945389,"lon":139.67026519},{"name":"桃花小学校前","province":"東京都","city":"中野区","address":"東京都中野区中央5丁目39-11","lat":35.70077146,"lon":139.66692696},{"name":"中野郵便局前","province":"東京都","city":"中野区","address":"東京都中野区中野2丁目27-1","lat":35.70340446,"lon":139.66658243},{"name":"中野ゼロホール前","province":"東京都","city":"中野区","address":"東京都中野区中野2丁目10-11","lat":35.70497946,"lon":139.67215133},{"name":"中野二丁目","province":"東京都","city":"中野区","address":"東京都中野区中野2丁目30-3","lat":35.70421268,"lon":139.66566026},{"name":"東中野二丁目","province":"東京都","city":"中野区","address":"東京都中野区東中野2丁目24-1","lat":35.7051853,"lon":139.68227543},{"name":"東中野四丁目","province":"東京都","city":"中野区","address":"東京都中野区東中野4丁目9-25","lat":35.70747403,"lon":139.68600556},{"name":"東中野駅前第二","province":"東京都","city":"中野区","address":"東京都中野区東中野2丁目25-7","lat":35.7059741,"lon":139.6823865},{"name":"中野中央四丁目","province":"東京都","city":"中野区","address":"東京都中野区中央4丁目6-12","lat":35.69889393,"lon":139.66782974},{"name":"中野本町六丁目","province":"東京都","city":"中野区","address":"東京都中野区本町6丁目14-4","lat":35.69595537,"lon":139.66681883},{"name":"中野新橋駅前","province":"東京都","city":"中野区","address":"東京都中野区弥生町2丁目21-6","lat":35.69246156,"lon":139.67452941},{"name":"桃花小学校北","province":"東京都","city":"中野区","address":"東京都中野区中央4丁目27","lat":35.70162415,"lon":139.66728244},{"name":"中野駅北口","province":"東京都","city":"中野区","address":"東京都中野区中野4丁目9","lat":35.70631514,"lon":139.66312984},{"name":"中野五丁目西","province":"東京都","city":"中野区","address":"東京都中野区新井1丁目2-12","lat":35.71003988,"lon":139.66862086},{"name":"中野本町四丁目","province":"東京都","city":"中野区","address":"東京都中野区本町4丁目31-10","lat":35.69548606,"lon":139.66960195},{"name":"鍋横地域センター入口","province":"東京都","city":"中野区","address":"東京都中野区本町5丁目34-10","lat":35.69374735,"lon":139.66863543},{"name":"東中野一丁目","province":"東京都","city":"中野区","address":"東京都中野区東中野1丁目11-16","lat":35.70327442,"lon":139.68279769},{"name":"関東バス本社前","province":"東京都","city":"中野区","address":"東京都中野区東中野5丁目23-15","lat":35.7097934,"lon":139.69297986},{"name":"鍋屋横丁西","province":"東京都","city":"中野区","address":"東京都中野区中央4丁目4-1","lat":35.69766912,"lon":139.66904356},{"name":"本三郵便局前","province":"東京都","city":"中野区","address":"東京都中野区中央2丁目49","lat":35.69828592,"lon":139.67594571},{"name":"中野六丁目第二","province":"東京都","city":"中野区","address":"東京都中野区中野5丁目1-18","lat":35.7065043,"lon":139.67251512},{"name":"東中野五丁目","province":"東京都","city":"中野区","address":"東京都中野区東中野4丁目25-5","lat":35.71007377,"lon":139.68740257},{"name":"東中野駅南口第一","province":"東京都","city":"中野区","address":"東京都中野区東中野1丁目51-3","lat":35.70601031,"lon":139.68598063},{"name":"東中野三丁目","province":"東京都","city":"中野区","address":"東京都中野区東中野4丁目13-3","lat":35.70853774,"lon":139.6840668},{"name":"紅葉山公園前","province":"東京都","city":"中野区","address":"東京都中野区中野2丁目5","lat":35.70386846,"lon":139.67153754},{"name":"新井","province":"東京都","city":"中野区","address":"東京都中野区中野4丁目3-2","lat":35.70950649,"lon":139.66447124},{"name":"中野体育館北","province":"東京都","city":"中野区","address":"東京都中野区新井2丁目30-4","lat":35.71006195,"lon":139.66327966},{"name":"沼袋","province":"東京都","city":"中野区","address":"東京都中野区沼袋4丁目31-15","lat":35.72357708,"lon":139.66255969},{"name":"新井五差路","province":"東京都","city":"中野区","address":"東京都中野区新井4丁目1-2","lat":35.71453654,"lon":139.66626809},{"name":"丸山陸橋下","province":"東京都","city":"中野区","address":"東京都中野区丸山1丁目10-2","lat":35.72336022,"lon":139.65409654},{"name":"大和陸橋下","province":"東京都","city":"中野区","address":"東京都中野区野方1丁目40-5","lat":35.70996727,"lon":139.65447765},{"name":"鷺宮四丁目","province":"東京都","city":"中野区","address":"東京都中野区上鷺宮1丁目1","lat":35.72670668,"lon":139.63920319},{"name":"野方警察署前","province":"東京都","city":"中野区","address":"東京都中野区中野4丁目22-1","lat":35.70920915,"lon":139.65931337},{"name":"都立家政","province":"東京都","city":"中野区","address":"東京都中野区鷺宮3丁目9-25","lat":35.72502087,"lon":139.64370012},{"name":"鷺宮小学校入口","province":"東京都","city":"中野区","address":"東京都中野区鷺宮4丁目34-10","lat":35.72414304,"lon":139.63800896},{"name":"武蔵ヶ丘高校入口","province":"東京都","city":"中野区","address":"東京都中野区上鷺宮2丁目11-1","lat":35.7271204,"lon":139.63428413},{"name":"中野区役所前","province":"東京都","city":"中野区","address":"東京都中野区中野5丁目64-3","lat":35.70664573,"lon":139.66547684},{"name":"薬師参道入口","province":"東京都","city":"中野区","address":"東京都中野区新井1丁目8-1","lat":35.71012592,"lon":139.66652382},{"name":"中野中学校前","province":"東京都","city":"中野区","address":"東京都中野区中野4丁目12-3","lat":35.70953695,"lon":139.66122986},{"name":"中野サンプラザ前","province":"東京都","city":"中野区","address":"東京都中野区中野5丁目67-6","lat":35.70836497,"lon":139.66531011},{"name":"平和の森公園前","province":"東京都","city":"中野区","address":"東京都中野区新井4丁目26-4","lat":35.71724727,"lon":139.66364598},{"name":"丸山二丁目","province":"東京都","city":"中野区","address":"東京都中野区野方6丁目50-10","lat":35.72332402,"lon":139.6510829},{"name":"丸山地域安全センター","province":"東京都","city":"中野区","address":"東京都中野区丸山1丁目6-1","lat":35.72291308,"lon":139.65562698},{"name":"上鷺東公園入口","province":"東京都","city":"中野区","address":"東京都中野区鷺宮4丁目45-18","lat":35.7263178,"lon":139.63791721},{"name":"新井町第二","province":"東京都","city":"中野区","address":"東京都中野区新井1丁目11-9","lat":35.71090914,"lon":139.66546832},{"name":"野方警察署西","province":"東京都","city":"中野区","address":"東京都中野区野方1丁目6-2","lat":35.71007848,"lon":139.65885227},{"name":"国立中野療養所前","province":"東京都","city":"中野区","address":"東京都中野区江原町2丁目8-8","lat":35.72957105,"lon":139.66910887},{"name":"鷺宮五丁目東","province":"東京都","city":"中野区","address":"東京都中野区鷺宮4丁目46","lat":35.72648441,"lon":139.63619789},{"name":"中野ブロードウエイ前","province":"東京都","city":"中野区","address":"東京都中野区新井1丁目9-4","lat":35.71016201,"lon":139.66580721},{"name":"鷺宮駅北口","province":"東京都","city":"中野区","address":"東京都中野区白鷺2丁目48-1","lat":35.72235434,"lon":139.63779517},{"name":"中野区役所裏","province":"東京都","city":"中野区","address":"東京都中野区中野4丁目10-1","lat":35.70779831,"lon":139.663002},{"name":"丸山小学校前","province":"東京都","city":"中野区","address":"東京都中野区沼袋4丁目41","lat":35.72281039,"lon":139.65820732},{"name":"鷺宮一丁目東","province":"東京都","city":"中野区","address":"東京都中野区鷺宮2丁目1-13","lat":35.72400168,"lon":139.64927748},{"name":"新井町西","province":"東京都","city":"中野区","address":"東京都中野区新井2丁目3-2","lat":35.71027583,"lon":139.66413513},{"name":"新井薬師駅前","province":"東京都","city":"中野区","address":"東京都中野区新井5丁目26-6","lat":35.71582264,"lon":139.67097597},{"name":"中野区役所前第二","province":"東京都","city":"中野区","address":"東京都中野区中野4丁目9","lat":35.70631514,"lon":139.66312984},{"name":"中野区役所北","province":"東京都","city":"中野区","address":"東京都中野区中野4丁目3","lat":35.70912598,"lon":139.66482401},{"name":"野方警察署南","province":"東京都","city":"中野区","address":"東京都中野区中野4丁目13","lat":35.70795657,"lon":139.66129381},{"name":"立正佼成会附属佼成病院","province":"東京都","city":"中野区","address":"東京都中野区弥生町5丁目25-15","lat":35.69047273,"lon":139.66806618},{"name":"東京医療生活協同組合中野総合病院","province":"東京都","city":"中野区","address":"東京都中野区中央4丁目59-16","lat":35.70255736,"lon":139.66706576},{"name":"東京警察病院","province":"東京都","city":"中野区","address":"東京都中野区中野4丁目22-1","lat":35.70920915,"lon":139.65931337},{"name":"区立弥生公園","province":"東京都","city":"中野区","address":"東京都中野区弥生町5丁目4","lat":35.68651484,"lon":139.66689699},{"name":"区立江古田の森公園","province":"東京都","city":"中野区","address":"東京都中野区江古田3丁目14","lat":35.73006534,"lon":139.6657647},{"name":"区立みずのとう公園","province":"東京都","city":"中野区","address":"東京都中野区江古田1丁目3","lat":35.72432456,"lon":139.67461418},{"name":"立正佼成会付属佼成病院","province":"東京都","city":"中野区","address":"東京都中野区弥生町5丁目25-15","lat":35.69047273,"lon":139.66806618},{"name":"東京大学教育学部附属中等教育学校校庭","province":"東京都","city":"中野区","address":"東京都中野区南台1丁目15","lat":35.68530682,"lon":139.67376032},{"name":"都立武蔵丘高等学校校庭","province":"東京都","city":"中野区","address":"東京都中野区上鷺宮2丁目14-1","lat":35.72899512,"lon":139.63095098},{"name":"東京警察病院ヘリポート","province":"東京都","city":"中野区","address":"東京都中野区中野4丁目22-1","lat":35.70920915,"lon":139.65931337},{"name":"中野都税事務所","province":"東京都","city":"中野区","address":"東京都中野区中野4丁目6-15","lat":35.70966201,"lon":139.66378797},{"name":"武蔵丘高等学校","province":"東京都","city":"中野区","address":"東京都中野区上鷺宮2丁目14-1","lat":35.72899512,"lon":139.63095098},{"name":"稔ヶ丘高等学校","province":"東京都","city":"中野区","address":"東京都中野区上鷺宮5丁目11-1","lat":35.72800066,"lon":139.62576254},{"name":"富士高等学校","province":"東京都","city":"中野区","address":"東京都中野区弥生町5丁目21-1","lat":35.68959503,"lon":139.66701353},{"name":"中野工業高等学校","province":"東京都","city":"中野区","address":"東京都中野区野方3丁目5-5","lat":35.71668603,"lon":139.65667161},{"name":"鷺宮高等学校","province":"東京都","city":"中野区","address":"東京都中野区若宮3丁目46-8","lat":35.72042972,"lon":139.64432249},{"name":"ハッピー・テラス中野","province":"東京都","city":"中野区","address":"中野区中野4-7-1野口ビル7階","lat":35.709726,"lon":139.66348},{"name":"Ｐｕｒ　ａｉｌｅ　新井薬師","province":"東京都","city":"中野区","address":"中野区上高田5-35-9-1階","lat":35.716528,"lon":139.673759},{"name":"スタジオそら東中野","province":"東京都","city":"中野区","address":"中野区東中野4-27-33エムエス東中野ビル1階","lat":35.710963,"lon":139.689136},{"name":"発達支援センタージョイナス東中野教室","province":"東京都","city":"中野区","address":"中野区東中野1-50-2オクト森ビル1階","lat":35.705694,"lon":139.686381},{"name":"フリップ","province":"東京都","city":"中野区","address":"中野区中央5-38-13エスエス10A202","lat":35.699649,"lon":139.667274},{"name":"パソコンあいだっく","province":"東京都","city":"中野区","address":"中野区本町2-45-13山手ビル7階","lat":35.695861,"lon":139.682392},{"name":"アトリエあいだっく新中野","province":"東京都","city":"中野区","address":"中野区本町6-35-14アダチビル3階","lat":35.697244,"lon":139.662461},{"name":"おでんくらぶ","province":"東京都","city":"中野区","address":"中野区本町6-36-5シーアイマンション新中野102号","lat":35.697261,"lon":139.662286},{"name":"アトリエあいだっく","province":"東京都","city":"中野区","address":"中野区弥生町2-10-1霜田ビル1階","lat":35.692992,"lon":139.675802},{"name":"中野区療育センターゆめなりあ","province":"東京都","city":"中野区","address":"中野区弥生町5-5-2","lat":35.686165,"lon":139.666333},{"name":"スパーク中野センター","province":"東京都","city":"中野区","address":"中野区弥生町4-25-1","lat":35.686345,"lon":139.669297},{"name":"中野区　放課後デイサービスセンター　みずいろ","province":"東京都","city":"中野区","address":"中野区丸山一丁目17番2号","lat":35.725683,"lon":139.657739},{"name":"中野区子ども発達センター　たんぽぽ","province":"東京都","city":"中野区","address":"中野区丸山一丁目17番2号","lat":35.725683,"lon":139.657739},{"name":"Ｃａｔｃｈ　ａｎｄ　Ｓｍｉｌｅ","province":"東京都","city":"中野区","address":"中野区江古田4-7-3金子ビル2階","lat":35.724363,"lon":139.662826},{"name":"さくらそうキッズ","province":"東京都","city":"中野区","address":"中野区沼袋一丁目2番地7号","lat":35.717864,"lon":139.666968},{"name":"アプリ児童デイサービス沼袋","province":"東京都","city":"中野区","address":"中野区沼袋2-28-34","lat":35.722075,"lon":139.665684},{"name":"space","province":"東京都","city":"中野区","address":"中野区上鷺宮4-6-20イサカビル2階","lat":35.733861,"lon":139.630162},{"name":"ｓｐａｃｅ　Ｋｉｄ’ｓ．ｃｏｎ　鷺ノ宮","province":"東京都","city":"中野区","address":"中野区上鷺宮5-8-5ベル・ヴィベール102号","lat":35.727484,"lon":139.627135},{"name":"中野区子ども家庭支援センター","province":"東京都","city":"中野区","address":"中野区中野4-8-1中野区役所3階","lat":35.707287,"lon":139.66381},{"name":"中野区子ども・若者支援センター","province":"東京都","city":"中野区","address":"中野区中央1-41-2","lat":35.69867,"lon":139.68387},{"name":"中野区子ども家庭支援センター","province":"東京都","city":"中野区","address":"中野区新井1-9-1","lat":35.71022,"lon":139.66594},{"name":"東京大学教育学部附属中等教育学校校庭","province":"東京都","city":"中野区","address":"東京都中野区南台1丁目15","lat":35.68530682,"lon":139.67376032},{"name":"都立武蔵丘高等学校校庭","province":"東京都","city":"中野区","address":"東京都中野区上鷺宮2丁目14-1","lat":35.72899512,"lon":139.63095098},{"name":"東京警察病院ヘリポート","province":"東京都","city":"中野区","address":"東京都中野区中野4丁目22-1","lat":35.70920915,"lon":139.65931337},{"name":"中野都税事務所","province":"東京都","city":"中野区","address":"東京都中野区中野4丁目6-15","lat":35.70966201,"lon":139.66378797},{"name":"武蔵丘高等学校","province":"東京都","city":"中野区","address":"東京都中野区上鷺宮2丁目14-1","lat":35.72899512,"lon":139.63095098},{"name":"稔ヶ丘高等学校","province":"東京都","city":"中野区","address":"東京都中野区上鷺宮5丁目11-1","lat":35.72800066,"lon":139.62576254},{"name":"富士高等学校","province":"東京都","city":"中野区","address":"東京都中野区弥生町5丁目21-1","lat":35.68959503,"lon":139.66701353},{"name":"中野工業高等学校","province":"東京都","city":"中野区","address":"東京都中野区野方3丁目5-5","lat":35.71668603,"lon":139.65667161},{"name":"鷺宮高等学校","province":"東京都","city":"中野区","address":"東京都中野区若宮3丁目46-8","lat":35.72042972,"lon":139.64432249},{"name":"ハッピー・テラス中野","province":"東京都","city":"中野区","address":"中野区中野4-7-1野口ビル7階","lat":35.709726,"lon":139.66348},{"name":"Ｐｕｒ　ａｉｌｅ　新井薬師","province":"東京都","city":"中野区","address":"中野区上高田5-35-9-1階","lat":35.716528,"lon":139.673759},{"name":"スタジオそら東中野","province":"東京都","city":"中野区","address":"中野区東中野4-27-33エムエス東中野ビル1階","lat":35.710963,"lon":139.689136},{"name":"発達支援センタージョイナス東中野教室","province":"東京都","city":"中野区","address":"中野区東中野1-50-2オクト森ビル1階","lat":35.705694,"lon":139.686381},{"name":"フリップ","province":"東京都","city":"中野区","address":"中野区中央5-38-13エスエス10A202","lat":35.699649,"lon":139.667274},{"name":"パソコンあいだっく","province":"東京都","city":"中野区","address":"中野区本町2-45-13山手ビル7階","lat":35.695861,"lon":139.682392},{"name":"アトリエあいだっく新中野","province":"東京都","city":"中野区","address":"中野区本町6-35-14アダチビル3階","lat":35.697244,"lon":139.662461},{"name":"おでんくらぶ","province":"東京都","city":"中野区","address":"中野区本町6-36-5シーアイマンション新中野102号","lat":35.697261,"lon":139.662286},{"name":"アトリエあいだっく","province":"東京都","city":"中野区","address":"中野区弥生町2-10-1霜田ビル1階","lat":35.692992,"lon":139.675802},{"name":"中野区療育センターゆめなりあ","province":"東京都","city":"中野区","address":"中野区弥生町5-5-2","lat":35.686165,"lon":139.666333},{"name":"スパーク中野センター","province":"東京都","city":"中野区","address":"中野区弥生町4-25-1","lat":35.686345,"lon":139.669297},{"name":"中野区　放課後デイサービスセンター　みずいろ","province":"東京都","city":"中野区","address":"中野区丸山一丁目17番2号","lat":35.725683,"lon":139.657739},{"name":"中野区子ども発達センター　たんぽぽ","province":"東京都","city":"中野区","address":"中野区丸山一丁目17番2号","lat":35.725683,"lon":139.657739},{"name":"Ｃａｔｃｈ　ａｎｄ　Ｓｍｉｌｅ","province":"東京都","city":"中野区","address":"中野区江古田4-7-3金子ビル2階","lat":35.724363,"lon":139.662826},{"name":"さくらそうキッズ","province":"東京都","city":"中野区","address":"中野区沼袋一丁目2番地7号","lat":35.717864,"lon":139.666968},{"name":"アプリ児童デイサービス沼袋","province":"東京都","city":"中野区","address":"中野区沼袋2-28-34","lat":35.722075,"lon":139.665684},{"name":"space","province":"東京都","city":"中野区","address":"中野区上鷺宮4-6-20イサカビル2階","lat":35.733861,"lon":139.630162},{"name":"ｓｐａｃｅ　Ｋｉｄ’ｓ．ｃｏｎ　鷺ノ宮","province":"東京都","city":"中野区","address":"中野区上鷺宮5-8-5ベル・ヴィベール102号","lat":35.727484,"lon":139.627135},{"name":"中野区子ども家庭支援センター","province":"東京都","city":"中野区","address":"中野区中野4-8-1中野区役所3階","lat":35.707287,"lon":139.66381},{"name":"中野区子ども・若者支援センター","province":"東京都","city":"中野区","address":"中野区中央1-41-2","lat":35.69867,"lon":139.68387},{"name":"中野区子ども家庭支援センター","province":"東京都","city":"中野区","address":"中野区新井1-9-1","lat":35.71022,"lon":139.66594},{"name":"中野都税事務所","province":"東京都","city":"中野区","address":"東京都中野区中野4丁目6-15","lat":35.70966201,"lon":139.66378797},{"name":"武蔵丘高等学校","province":"東京都","city":"中野区","address":"東京都中野区上鷺宮2丁目14-1","lat":35.72899512,"lon":139.63095098},{"name":"稔ヶ丘高等学校","province":"東京都","city":"中野区","address":"東京都中野区上鷺宮5丁目11-1","lat":35.72800066,"lon":139.62576254},{"name":"富士高等学校","province":"東京都","city":"中野区","address":"東京都中野区弥生町5丁目21-1","lat":35.68959503,"lon":139.66701353},{"name":"中野工業高等学校","province":"東京都","city":"中野区","address":"東京都中野区野方3丁目5-5","lat":35.71668603,"lon":139.65667161},{"name":"鷺宮高等学校","province":"東京都","city":"中野区","address":"東京都中野区若宮3丁目46-8","lat":35.72042972,"lon":139.64432249},{"name":"ハッピー・テラス中野","province":"東京都","city":"中野区","address":"中野区中野4-7-1野口ビル7階","lat":35.709726,"lon":139.66348},{"name":"Ｐｕｒ　ａｉｌｅ　新井薬師","province":"東京都","city":"中野区","address":"中野区上高田5-35-9-1階","lat":35.716528,"lon":139.673759},{"name":"スタジオそら東中野","province":"東京都","city":"中野区","address":"中野区東中野4-27-33エムエス東中野ビル1階","lat":35.710963,"lon":139.689136},{"name":"発達支援センタージョイナス東中野教室","province":"東京都","city":"中野区","address":"中野区東中野1-50-2オクト森ビル1階","lat":35.705694,"lon":139.686381},{"name":"フリップ","province":"東京都","city":"中野区","address":"中野区中央5-38-13エスエス10A202","lat":35.699649,"lon":139.667274},{"name":"パソコンあいだっく","province":"東京都","city":"中野区","address":"中野区本町2-45-13山手ビル7階","lat":35.695861,"lon":139.682392},{"name":"アトリエあいだっく新中野","province":"東京都","city":"中野区","address":"中野区本町6-35-14アダチビル3階","lat":35.697244,"lon":139.662461},{"name":"おでんくらぶ","province":"東京都","city":"中野区","address":"中野区本町6-36-5シーアイマンション新中野102号","lat":35.697261,"lon":139.662286},{"name":"アトリエあいだっく","province":"東京都","city":"中野区","address":"中野区弥生町2-10-1霜田ビル1階","lat":35.692992,"lon":139.675802},{"name":"中野区療育センターゆめなりあ","province":"東京都","city":"中野区","address":"中野区弥生町5-5-2","lat":35.686165,"lon":139.666333},{"name":"スパーク中野センター","province":"東京都","city":"中野区","address":"中野区弥生町4-25-1","lat":35.686345,"lon":139.669297},{"name":"中野区　放課後デイサービスセンター　みずいろ","province":"東京都","city":"中野区","address":"中野区丸山一丁目17番2号","lat":35.725683,"lon":139.657739},{"name":"中野区子ども発達センター　たんぽぽ","province":"東京都","city":"中野区","address":"中野区丸山一丁目17番2号","lat":35.725683,"lon":139.657739},{"name":"Ｃａｔｃｈ　ａｎｄ　Ｓｍｉｌｅ","province":"東京都","city":"中野区","address":"中野区江古田4-7-3金子ビル2階","lat":35.724363,"lon":139.662826},{"name":"さくらそうキッズ","province":"東京都","city":"中野区","address":"中野区沼袋一丁目2番地7号","lat":35.717864,"lon":139.666968},{"name":"アプリ児童デイサービス沼袋","province":"東京都","city":"中野区","address":"中野区沼袋2-28-34","lat":35.722075,"lon":139.665684},{"name":"space","province":"東京都","city":"中野区","address":"中野区上鷺宮4-6-20イサカビル2階","lat":35.733861,"lon":139.630162},{"name":"ｓｐａｃｅ　Ｋｉｄ’ｓ．ｃｏｎ　鷺ノ宮","province":"東京都","city":"中野区","address":"中野区上鷺宮5-8-5ベル・ヴィベール102号","lat":35.727484,"lon":139.627135},{"name":"中野区子ども家庭支援センター","province":"東京都","city":"中野区","address":"中野区中野4-8-1中野区役所3階","lat":35.707287,"lon":139.66381},{"name":"中野区子ども・若者支援センター","province":"東京都","city":"中野区","address":"中野区中央1-41-2","lat":35.69867,"lon":139.68387},{"name":"中野区子ども家庭支援センター","province":"東京都","city":"中野区","address":"中野区新井1-9-1","lat":35.71022,"lon":139.66594},{"name":"中野都税事務所","province":"東京都","city":"中野区","address":"東京都中野区中野4丁目6-15","lat":35.70966201,"lon":139.66378797},{"name":"武蔵丘高等学校","province":"東京都","city":"中野区","address":"東京都中野区上鷺宮2丁目14-1","lat":35.72899512,"lon":139.63095098},{"name":"稔ヶ丘高等学校","province":"東京都","city":"中野区","address":"東京都中野区上鷺宮5丁目11-1","lat":35.72800066,"lon":139.62576254},{"name":"富士高等学校","province":"東京都","city":"中野区","address":"東京都中野区弥生町5丁目21-1","lat":35.68959503,"lon":139.66701353},{"name":"中野工業高等学校","province":"東京都","city":"中野区","address":"東京都中野区野方3丁目5-5","lat":35.71668603,"lon":139.65667161},{"name":"鷺宮高等学校","province":"東京都","city":"中野区","address":"東京都中野区若宮3丁目46-8","lat":35.72042972,"lon":139.64432249},{"name":"ハッピー・テラス中野","province":"東京都","city":"中野区","address":"中野区中野4-7-1野口ビル7階","lat":35.709726,"lon":139.66348},{"name":"Ｐｕｒ　ａｉｌｅ　新井薬師","province":"東京都","city":"中野区","address":"中野区上高田5-35-9-1階","lat":35.716528,"lon":139.673759},{"name":"スタジオそら東中野","province":"東京都","city":"中野区","address":"中野区東中野4-27-33エムエス東中野ビル1階","lat":35.710963,"lon":139.689136},{"name":"発達支援センタージョイナス東中野教室","province":"東京都","city":"中野区","address":"中野区東中野1-50-2オクト森ビル1階","lat":35.705694,"lon":139.686381},{"name":"フリップ","province":"東京都","city":"中野区","address":"中野区中央5-38-13エスエス10A202","lat":35.699649,"lon":139.667274},{"name":"パソコンあいだっく","province":"東京都","city":"中野区","address":"中野区本町2-45-13山手ビル7階","lat":35.695861,"lon":139.682392},{"name":"アトリエあいだっく新中野","province":"東京都","city":"中野区","address":"中野区本町6-35-14アダチビル3階","lat":35.697244,"lon":139.662461},{"name":"おでんくらぶ","province":"東京都","city":"中野区","address":"中野区本町6-36-5シーアイマンション新中野102号","lat":35.697261,"lon":139.662286},{"name":"アトリエあいだっく","province":"東京都","city":"中野区","address":"中野区弥生町2-10-1霜田ビル1階","lat":35.692992,"lon":139.675802},{"name":"中野区療育センターゆめなりあ","province":"東京都","city":"中野区","address":"中野区弥生町5-5-2","lat":35.686165,"lon":139.666333},{"name":"スパーク中野センター","province":"東京都","city":"中野区","address":"中野区弥生町4-25-1","lat":35.686345,"lon":139.669297},{"name":"中野区　放課後デイサービスセンター　みずいろ","province":"東京都","city":"中野区","address":"中野区丸山一丁目17番2号","lat":35.725683,"lon":139.657739},{"name":"中野区子ども発達センター　たんぽぽ","province":"東京都","city":"中野区","address":"中野区丸山一丁目17番2号","lat":35.725683,"lon":139.657739},{"name":"Ｃａｔｃｈ　ａｎｄ　Ｓｍｉｌｅ","province":"東京都","city":"中野区","address":"中野区江古田4-7-3金子ビル2階","lat":35.724363,"lon":139.662826},{"name":"さくらそうキッズ","province":"東京都","city":"中野区","address":"中野区沼袋一丁目2番地7号","lat":35.717864,"lon":139.666968},{"name":"アプリ児童デイサービス沼袋","province":"東京都","city":"中野区","address":"中野区沼袋2-28-34","lat":35.722075,"lon":139.665684},{"name":"space","province":"東京都","city":"中野区","address":"中野区上鷺宮4-6-20イサカビル2階","lat":35.733861,"lon":139.630162},{"name":"ｓｐａｃｅ　Ｋｉｄ’ｓ．ｃｏｎ　鷺ノ宮","province":"東京都","city":"中野区","address":"中野区上鷺宮5-8-5ベル・ヴィベール102号","lat":35.727484,"lon":139.627135},{"name":"中野区子ども家庭支援センター","province":"東京都","city":"中野区","address":"中野区中野4-8-1中野区役所3階","lat":35.707287,"lon":139.66381},{"name":"中野区子ども・若者支援センター","province":"東京都","city":"中野区","address":"中野区中央1-41-2","lat":35.69867,"lon":139.68387},{"name":"中野区子ども家庭支援センター","province":"東京都","city":"中野区","address":"中野区新井1-9-1","lat":35.71022,"lon":139.66594},{"name":"中野都税事務所","province":"東京都","city":"中野区","address":"東京都中野区中野4丁目6-15","lat":35.70966201,"lon":139.66378797},{"name":"武蔵丘高等学校","province":"東京都","city":"中野区","address":"東京都中野区上鷺宮2丁目14-1","lat":35.72899512,"lon":139.63095098},{"name":"稔ヶ丘高等学校","province":"東京都","city":"中野区","address":"東京都中野区上鷺宮5丁目11-1","lat":35.72800066,"lon":139.62576254},{"name":"富士高等学校","province":"東京都","city":"中野区","address":"東京都中野区弥生町5丁目21-1","lat":35.68959503,"lon":139.66701353},{"name":"中野工業高等学校","province":"東京都","city":"中野区","address":"東京都中野区野方3丁目5-5","lat":35.71668603,"lon":139.65667161},{"name":"鷺宮高等学校","province":"東京都","city":"中野区","address":"東京都中野区若宮3丁目46-8","lat":35.72042972,"lon":139.64432249},{"name":"ハッピー・テラス中野","province":"東京都","city":"中野区","address":"中野区中野4-7-1野口ビル7階","lat":35.709726,"lon":139.66348},{"name":"Ｐｕｒ　ａｉｌｅ　新井薬師","province":"東京都","city":"中野区","address":"中野区上高田5-35-9-1階","lat":35.716528,"lon":139.673759},{"name":"スタジオそら東中野","province":"東京都","city":"中野区","address":"中野区東中野4-27-33エムエス東中野ビル1階","lat":35.710963,"lon":139.689136},{"name":"発達支援センタージョイナス東中野教室","province":"東京都","city":"中野区","address":"中野区東中野1-50-2オクト森ビル1階","lat":35.705694,"lon":139.686381},{"name":"フリップ","province":"東京都","city":"中野区","address":"中野区中央5-38-13エスエス10A202","lat":35.699649,"lon":139.667274},{"name":"パソコンあいだっく","province":"東京都","city":"中野区","address":"中野区本町2-45-13山手ビル7階","lat":35.695861,"lon":139.682392},{"name":"アトリエあいだっく新中野","province":"東京都","city":"中野区","address":"中野区本町6-35-14アダチビル3階","lat":35.697244,"lon":139.662461},{"name":"おでんくらぶ","province":"東京都","city":"中野区","address":"中野区本町6-36-5シーアイマンション新中野102号","lat":35.697261,"lon":139.662286},{"name":"アトリエあいだっく","province":"東京都","city":"中野区","address":"中野区弥生町2-10-1霜田ビル1階","lat":35.692992,"lon":139.675802},{"name":"中野区療育センターゆめなりあ","province":"東京都","city":"中野区","address":"中野区弥生町5-5-2","lat":35.686165,"lon":139.666333},{"name":"スパーク中野センター","province":"東京都","city":"中野区","address":"中野区弥生町4-25-1","lat":35.686345,"lon":139.669297},{"name":"中野区　放課後デイサービスセンター　みずいろ","province":"東京都","city":"中野区","address":"中野区丸山一丁目17番2号","lat":35.725683,"lon":139.657739},{"name":"中野区子ども発達センター　たんぽぽ","province":"東京都","city":"中野区","address":"中野区丸山一丁目17番2号","lat":35.725683,"lon":139.657739},{"name":"Ｃａｔｃｈ　ａｎｄ　Ｓｍｉｌｅ","province":"東京都","city":"中野区","address":"中野区江古田4-7-3金子ビル2階","lat":35.724363,"lon":139.662826},{"name":"さくらそうキッズ","province":"東京都","city":"中野区","address":"中野区沼袋一丁目2番地7号","lat":35.717864,"lon":139.666968},{"name":"アプリ児童デイサービス沼袋","province":"東京都","city":"中野区","address":"中野区沼袋2-28-34","lat":35.722075,"lon":139.665684},{"name":"space","province":"東京都","city":"中野区","address":"中野区上鷺宮4-6-20イサカビル2階","lat":35.733861,"lon":139.630162},{"name":"ｓｐａｃｅ　Ｋｉｄ’ｓ．ｃｏｎ　鷺ノ宮","province":"東京都","city":"中野区","address":"中野区上鷺宮5-8-5ベル・ヴィベール102号","lat":35.727484,"lon":139.627135},{"name":"中野区子ども家庭支援センター","province":"東京都","city":"中野区","address":"中野区中野4-8-1中野区役所3階","lat":35.707287,"lon":139.66381},{"name":"中野区子ども・若者支援センター","province":"東京都","city":"中野区","address":"中野区中央1-41-2","lat":35.69867,"lon":139.68387},{"name":"中野区子ども家庭支援センター","province":"東京都","city":"中野区","address":"中野区新井1-9-1","lat":35.71022,"lon":139.66594},{"name":"中野都税事務所","province":"東京都","city":"中野区","address":"東京都中野区中野4丁目6-15","lat":35.70966201,"lon":139.66378797},{"name":"武蔵丘高等学校","province":"東京都","city":"中野区","address":"東京都中野区上鷺宮2丁目14-1","lat":35.72899512,"lon":139.63095098},{"name":"稔ヶ丘高等学校","province":"東京都","city":"中野区","address":"東京都中野区上鷺宮5丁目11-1","lat":35.72800066,"lon":139.62576254},{"name":"富士高等学校","province":"東京都","city":"中野区","address":"東京都中野区弥生町5丁目21-1","lat":35.68959503,"lon":139.66701353},{"name":"中野工業高等学校","province":"東京都","city":"中野区","address":"東京都中野区野方3丁目5-5","lat":35.71668603,"lon":139.65667161},{"name":"鷺宮高等学校","province":"東京都","city":"中野区","address":"東京都中野区若宮3丁目46-8","lat":35.72042972,"lon":139.64432249},{"name":"ハッピー・テラス中野","province":"東京都","city":"中野区","address":"中野区中野4-7-1野口ビル7階","lat":35.709726,"lon":139.66348},{"name":"Ｐｕｒ　ａｉｌｅ　新井薬師","province":"東京都","city":"中野区","address":"中野区上高田5-35-9-1階","lat":35.716528,"lon":139.673759},{"name":"スタジオそら東中野","province":"東京都","city":"中野区","address":"中野区東中野4-27-33エムエス東中野ビル1階","lat":35.710963,"lon":139.689136},{"name":"発達支援センタージョイナス東中野教室","province":"東京都","city":"中野区","address":"中野区東中野1-50-2オクト森ビル1階","lat":35.705694,"lon":139.686381},{"name":"フリップ","province":"東京都","city":"中野区","address":"中野区中央5-38-13エスエス10A202","lat":35.699649,"lon":139.667274},{"name":"パソコンあいだっく","province":"東京都","city":"中野区","address":"中野区本町2-45-13山手ビル7階","lat":35.695861,"lon":139.682392},{"name":"アトリエあいだっく新中野","province":"東京都","city":"中野区","address":"中野区本町6-35-14アダチビル3階","lat":35.697244,"lon":139.662461},{"name":"おでんくらぶ","province":"東京都","city":"中野区","address":"中野区本町6-36-5シーアイマンション新中野102号","lat":35.697261,"lon":139.662286},{"name":"アトリエあいだっく","province":"東京都","city":"中野区","address":"中野区弥生町2-10-1霜田ビル1階","lat":35.692992,"lon":139.675802},{"name":"中野区療育センターゆめなりあ","province":"東京都","city":"中野区","address":"中野区弥生町5-5-2","lat":35.686165,"lon":139.666333},{"name":"スパーク中野センター","province":"東京都","city":"中野区","address":"中野区弥生町4-25-1","lat":35.686345,"lon":139.669297},{"name":"中野区　放課後デイサービスセンター　みずいろ","province":"東京都","city":"中野区","address":"中野区丸山一丁目17番2号","lat":35.725683,"lon":139.657739},{"name":"中野区子ども発達センター　たんぽぽ","province":"東京都","city":"中野区","address":"中野区丸山一丁目17番2号","lat":35.725683,"lon":139.657739},{"name":"Ｃａｔｃｈ　ａｎｄ　Ｓｍｉｌｅ","province":"東京都","city":"中野区","address":"中野区江古田4-7-3金子ビル2階","lat":35.724363,"lon":139.662826},{"name":"さくらそうキッズ","province":"東京都","city":"中野区","address":"中野区沼袋一丁目2番地7号","lat":35.717864,"lon":139.666968},{"name":"アプリ児童デイサービス沼袋","province":"東京都","city":"中野区","address":"中野区沼袋2-28-34","lat":35.722075,"lon":139.665684},{"name":"space","province":"東京都","city":"中野区","address":"中野区上鷺宮4-6-20イサカビル2階","lat":35.733861,"lon":139.630162},{"name":"ｓｐａｃｅ　Ｋｉｄ’ｓ．ｃｏｎ　鷺ノ宮","province":"東京都","city":"中野区","address":"中野区上鷺宮5-8-5ベル・ヴィベール102号","lat":35.727484,"lon":139.627135},{"name":"中野区子ども家庭支援センター","province":"東京都","city":"中野区","address":"中野区中野4-8-1中野区役所3階","lat":35.707287,"lon":139.66381},{"name":"中野区子ども・若者支援センター","province":"東京都","city":"中野区","address":"中野区中央1-41-2","lat":35.69867,"lon":139.68387},{"name":"中野区子ども家庭支援センター","province":"東京都","city":"中野区","address":"中野区新井1-9-1","lat":35.71022,"lon":139.66594},{"name":"中野都税事務所","province":"東京都","city":"中野区","address":"東京都中野区中野4丁目6-15","lat":35.70966201,"lon":139.66378797},{"name":"武蔵丘高等学校","province":"東京都","city":"中野区","address":"東京都中野区上鷺宮2丁目14-1","lat":35.72899512,"lon":139.63095098},{"name":"稔ヶ丘高等学校","province":"東京都","city":"中野区","address":"東京都中野区上鷺宮5丁目11-1","lat":35.72800066,"lon":139.62576254},{"name":"富士高等学校","province":"東京都","city":"中野区","address":"東京都中野区弥生町5丁目21-1","lat":35.68959503,"lon":139.66701353},{"name":"中野工業高等学校","province":"東京都","city":"中野区","address":"東京都中野区野方3丁目5-5","lat":35.71668603,"lon":139.65667161},{"name":"鷺宮高等学校","province":"東京都","city":"中野区","address":"東京都中野区若宮3丁目46-8","lat":35.72042972,"lon":139.64432249},{"name":"ハッピー・テラス中野","province":"東京都","city":"中野区","address":"中野区中野4-7-1野口ビル7階","lat":35.709726,"lon":139.66348},{"name":"Ｐｕｒ　ａｉｌｅ　新井薬師","province":"東京都","city":"中野区","address":"中野区上高田5-35-9-1階","lat":35.716528,"lon":139.673759},{"name":"スタジオそら東中野","province":"東京都","city":"中野区","address":"中野区東中野4-27-33エムエス東中野ビル1階","lat":35.710963,"lon":139.689136},{"name":"発達支援センタージョイナス東中野教室","province":"東京都","city":"中野区","address":"中野区東中野1-50-2オクト森ビル1階","lat":35.705694,"lon":139.686381},{"name":"フリップ","province":"東京都","city":"中野区","address":"中野区中央5-38-13エスエス10A202","lat":35.699649,"lon":139.667274},{"name":"パソコンあいだっく","province":"東京都","city":"中野区","address":"中野区本町2-45-13山手ビル7階","lat":35.695861,"lon":139.682392},{"name":"アトリエあいだっく新中野","province":"東京都","city":"中野区","address":"中野区本町6-35-14アダチビル3階","lat":35.697244,"lon":139.662461},{"name":"おでんくらぶ","province":"東京都","city":"中野区","address":"中野区本町6-36-5シーアイマンション新中野102号","lat":35.697261,"lon":139.662286},{"name":"アトリエあいだっく","province":"東京都","city":"中野区","address":"中野区弥生町2-10-1霜田ビル1階","lat":35.692992,"lon":139.675802},{"name":"中野区療育センターゆめなりあ","province":"東京都","city":"中野区","address":"中野区弥生町5-5-2","lat":35.686165,"lon":139.666333},{"name":"スパーク中野センター","province":"東京都","city":"中野区","address":"中野区弥生町4-25-1","lat":35.686345,"lon":139.669297},{"name":"中野区　放課後デイサービスセンター　みずいろ","province":"東京都","city":"中野区","address":"中野区丸山一丁目17番2号","lat":35.725683,"lon":139.657739},{"name":"中野区子ども発達センター　たんぽぽ","province":"東京都","city":"中野区","address":"中野区丸山一丁目17番2号","lat":35.725683,"lon":139.657739},{"name":"Ｃａｔｃｈ　ａｎｄ　Ｓｍｉｌｅ","province":"東京都","city":"中野区","address":"中野区江古田4-7-3金子ビル2階","lat":35.724363,"lon":139.662826},{"name":"さくらそうキッズ","province":"東京都","city":"中野区","address":"中野区沼袋一丁目2番地7号","lat":35.717864,"lon":139.666968},{"name":"アプリ児童デイサービス沼袋","province":"東京都","city":"中野区","address":"中野区沼袋2-28-34","lat":35.722075,"lon":139.665684},{"name":"space","province":"東京都","city":"中野区","address":"中野区上鷺宮4-6-20イサカビル2階","lat":35.733861,"lon":139.630162},{"name":"ｓｐａｃｅ　Ｋｉｄ’ｓ．ｃｏｎ　鷺ノ宮","province":"東京都","city":"中野区","address":"中野区上鷺宮5-8-5ベル・ヴィベール102号","lat":35.727484,"lon":139.627135},{"name":"中野区子ども家庭支援センター","province":"東京都","city":"中野区","address":"中野区中野4-8-1中野区役所3階","lat":35.707287,"lon":139.66381},{"name":"中野区子ども・若者支援センター","province":"東京都","city":"中野区","address":"中野区中央1-41-2","lat":35.69867,"lon":139.68387},{"name":"中野区子ども家庭支援センター","province":"東京都","city":"中野区","address":"中野区新井1-9-1","lat":35.71022,"lon":139.66594},{"name":"中野都税事務所","province":"東京都","city":"中野区","address":"東京都中野区中野4丁目6-15","lat":35.70966201,"lon":139.66378797},{"name":"武蔵丘高等学校","province":"東京都","city":"中野区","address":"東京都中野区上鷺宮2丁目14-1","lat":35.72899512,"lon":139.63095098},{"name":"稔ヶ丘高等学校","province":"東京都","city":"中野区","address":"東京都中野区上鷺宮5丁目11-1","lat":35.72800066,"lon":139.62576254},{"name":"富士高等学校","province":"東京都","city":"中野区","address":"東京都中野区弥生町5丁目21-1","lat":35.68959503,"lon":139.66701353},{"name":"中野工業高等学校","province":"東京都","city":"中野区","address":"東京都中野区野方3丁目5-5","lat":35.71668603,"lon":139.65667161},{"name":"鷺宮高等学校","province":"東京都","city":"中野区","address":"東京都中野区若宮3丁目46-8","lat":35.72042972,"lon":139.64432249},{"name":"ハッピー・テラス中野","province":"東京都","city":"中野区","address":"中野区中野4-7-1野口ビル7階","lat":35.709726,"lon":139.66348},{"name":"Ｐｕｒ　ａｉｌｅ　新井薬師","province":"東京都","city":"中野区","address":"中野区上高田5-35-9-1階","lat":35.716528,"lon":139.673759},{"name":"スタジオそら東中野","province":"東京都","city":"中野区","address":"中野区東中野4-27-33エムエス東中野ビル1階","lat":35.710963,"lon":139.689136},{"name":"発達支援センタージョイナス東中野教室","province":"東京都","city":"中野区","address":"中野区東中野1-50-2オクト森ビル1階","lat":35.705694,"lon":139.686381},{"name":"フリップ","province":"東京都","city":"中野区","address":"中野区中央5-38-13エスエス10A202","lat":35.699649,"lon":139.667274},{"name":"パソコンあいだっく","province":"東京都","city":"中野区","address":"中野区本町2-45-13山手ビル7階","lat":35.695861,"lon":139.682392},{"name":"アトリエあいだっく新中野","province":"東京都","city":"中野区","address":"中野区本町6-35-14アダチビル3階","lat":35.697244,"lon":139.662461},{"name":"おでんくらぶ","province":"東京都","city":"中野区","address":"中野区本町6-36-5シーアイマンション新中野102号","lat":35.697261,"lon":139.662286},{"name":"アトリエあいだっく","province":"東京都","city":"中野区","address":"中野区弥生町2-10-1霜田ビル1階","lat":35.692992,"lon":139.675802},{"name":"中野区療育センターゆめなりあ","province":"東京都","city":"中野区","address":"中野区弥生町5-5-2","lat":35.686165,"lon":139.666333},{"name":"スパーク中野センター","province":"東京都","city":"中野区","address":"中野区弥生町4-25-1","lat":35.686345,"lon":139.669297},{"name":"中野区　放課後デイサービスセンター　みずいろ","province":"東京都","city":"中野区","address":"中野区丸山一丁目17番2号","lat":35.725683,"lon":139.657739},{"name":"中野区子ども発達センター　たんぽぽ","province":"東京都","city":"中野区","address":"中野区丸山一丁目17番2号","lat":35.725683,"lon":139.657739},{"name":"Ｃａｔｃｈ　ａｎｄ　Ｓｍｉｌｅ","province":"東京都","city":"中野区","address":"中野区江古田4-7-3金子ビル2階","lat":35.724363,"lon":139.662826},{"name":"さくらそうキッズ","province":"東京都","city":"中野区","address":"中野区沼袋一丁目2番地7号","lat":35.717864,"lon":139.666968},{"name":"アプリ児童デイサービス沼袋","province":"東京都","city":"中野区","address":"中野区沼袋2-28-34","lat":35.722075,"lon":139.665684},{"name":"space","province":"東京都","city":"中野区","address":"中野区上鷺宮4-6-20イサカビル2階","lat":35.733861,"lon":139.630162},{"name":"ｓｐａｃｅ　Ｋｉｄ’ｓ．ｃｏｎ　鷺ノ宮","province":"東京都","city":"中野区","address":"中野区上鷺宮5-8-5ベル・ヴィベール102号","lat":35.727484,"lon":139.627135},{"name":"中野区子ども家庭支援センター","province":"東京都","city":"中野区","address":"中野区中野4-8-1中野区役所3階","lat":35.707287,"lon":139.66381},{"name":"中野区子ども・若者支援センター","province":"東京都","city":"中野区","address":"中野区中央1-41-2","lat":35.69867,"lon":139.68387},{"name":"中野区子ども家庭支援センター","province":"東京都","city":"中野区","address":"中野区新井1-9-1","lat":35.71022,"lon":139.66594},{"name":"中野都税事務所","province":"東京都","city":"中野区","address":"東京都中野区中野4丁目6-15","lat":35.70966201,"lon":139.66378797},{"name":"武蔵丘高等学校","province":"東京都","city":"中野区","address":"東京都中野区上鷺宮2丁目14-1","lat":35.72899512,"lon":139.63095098},{"name":"稔ヶ丘高等学校","province":"東京都","city":"中野区","address":"東京都中野区上鷺宮5丁目11-1","lat":35.72800066,"lon":139.62576254},{"name":"富士高等学校","province":"東京都","city":"中野区","address":"東京都中野区弥生町5丁目21-1","lat":35.68959503,"lon":139.66701353},{"name":"中野工業高等学校","province":"東京都","city":"中野区","address":"東京都中野区野方3丁目5-5","lat":35.71668603,"lon":139.65667161},{"name":"鷺宮高等学校","province":"東京都","city":"中野区","address":"東京都中野区若宮3丁目46-8","lat":35.72042972,"lon":139.64432249},{"name":"ハッピー・テラス中野","province":"東京都","city":"中野区","address":"中野区中野4-7-1野口ビル7階","lat":35.709726,"lon":139.66348},{"name":"Ｐｕｒ　ａｉｌｅ　新井薬師","province":"東京都","city":"中野区","address":"中野区上高田5-35-9-1階","lat":35.716528,"lon":139.673759},{"name":"スタジオそら東中野","province":"東京都","city":"中野区","address":"中野区東中野4-27-33エムエス東中野ビル1階","lat":35.710963,"lon":139.689136},{"name":"発達支援センタージョイナス東中野教室","province":"東京都","city":"中野区","address":"中野区東中野1-50-2オクト森ビル1階","lat":35.705694,"lon":139.686381},{"name":"フリップ","province":"東京都","city":"中野区","address":"中野区中央5-38-13エスエス10A202","lat":35.699649,"lon":139.667274},{"name":"パソコンあいだっく","province":"東京都","city":"中野区","address":"中野区本町2-45-13山手ビル7階","lat":35.695861,"lon":139.682392},{"name":"アトリエあいだっく新中野","province":"東京都","city":"中野区","address":"中野区本町6-35-14アダチビル3階","lat":35.697244,"lon":139.662461},{"name":"おでんくらぶ","province":"東京都","city":"中野区","address":"中野区本町6-36-5シーアイマンション新中野102号","lat":35.697261,"lon":139.662286},{"name":"アトリエあいだっく","province":"東京都","city":"中野区","address":"中野区弥生町2-10-1霜田ビル1階","lat":35.692992,"lon":139.675802},{"name":"中野区療育センターゆめなりあ","province":"東京都","city":"中野区","address":"中野区弥生町5-5-2","lat":35.686165,"lon":139.666333},{"name":"スパーク中野センター","province":"東京都","city":"中野区","address":"中野区弥生町4-25-1","lat":35.686345,"lon":139.669297},{"name":"中野区　放課後デイサービスセンター　みずいろ","province":"東京都","city":"中野区","address":"中野区丸山一丁目17番2号","lat":35.725683,"lon":139.657739},{"name":"中野区子ども発達センター　たんぽぽ","province":"東京都","city":"中野区","address":"中野区丸山一丁目17番2号","lat":35.725683,"lon":139.657739},{"name":"Ｃａｔｃｈ　ａｎｄ　Ｓｍｉｌｅ","province":"東京都","city":"中野区","address":"中野区江古田4-7-3金子ビル2階","lat":35.724363,"lon":139.662826},{"name":"さくらそうキッズ","province":"東京都","city":"中野区","address":"中野区沼袋一丁目2番地7号","lat":35.717864,"lon":139.666968},{"name":"アプリ児童デイサービス沼袋","province":"東京都","city":"中野区","address":"中野区沼袋2-28-34","lat":35.722075,"lon":139.665684},{"name":"space","province":"東京都","city":"中野区","address":"中野区上鷺宮4-6-20イサカビル2階","lat":35.733861,"lon":139.630162},{"name":"ｓｐａｃｅ　Ｋｉｄ’ｓ．ｃｏｎ　鷺ノ宮","province":"東京都","city":"中野区","address":"中野区上鷺宮5-8-5ベル・ヴィベール102号","lat":35.727484,"lon":139.627135},{"name":"中野区子ども家庭支援センター","province":"東京都","city":"中野区","address":"中野区中野4-8-1中野区役所3階","lat":35.707287,"lon":139.66381},{"name":"中野区子ども・若者支援センター","province":"東京都","city":"中野区","address":"中野区中央1-41-2","lat":35.69867,"lon":139.68387},{"name":"中野区子ども家庭支援センター","province":"東京都","city":"中野区","address":"中野区新井1-9-1","lat":35.71022,"lon":139.66594},{"name":"中野都税事務所","province":"東京都","city":"中野区","address":"東京都中野区中野4丁目6-15","lat":35.70966201,"lon":139.66378797},{"name":"武蔵丘高等学校","province":"東京都","city":"中野区","address":"東京都中野区上鷺宮2丁目14-1","lat":35.72899512,"lon":139.63095098},{"name":"稔ヶ丘高等学校","province":"東京都","city":"中野区","address":"東京都中野区上鷺宮5丁目11-1","lat":35.72800066,"lon":139.62576254},{"name":"富士高等学校","province":"東京都","city":"中野区","address":"東京都中野区弥生町5丁目21-1","lat":35.68959503,"lon":139.66701353},{"name":"中野工業高等学校","province":"東京都","city":"中野区","address":"東京都中野区野方3丁目5-5","lat":35.71668603,"lon":139.65667161},{"name":"鷺宮高等学校","province":"東京都","city":"中野区","address":"東京都中野区若宮3丁目46-8","lat":35.72042972,"lon":139.64432249},{"name":"ハッピー・テラス中野","province":"東京都","city":"中野区","address":"中野区中野4-7-1野口ビル7階","lat":35.709726,"lon":139.66348},{"name":"Ｐｕｒ　ａｉｌｅ　新井薬師","province":"東京都","city":"中野区","address":"中野区上高田5-35-9-1階","lat":35.716528,"lon":139.673759},{"name":"スタジオそら東中野","province":"東京都","city":"中野区","address":"中野区東中野4-27-33エムエス東中野ビル1階","lat":35.710963,"lon":139.689136},{"name":"発達支援センタージョイナス東中野教室","province":"東京都","city":"中野区","address":"中野区東中野1-50-2オクト森ビル1階","lat":35.705694,"lon":139.686381},{"name":"フリップ","province":"東京都","city":"中野区","address":"中野区中央5-38-13エスエス10A202","lat":35.699649,"lon":139.667274},{"name":"パソコンあいだっく","province":"東京都","city":"中野区","address":"中野区本町2-45-13山手ビル7階","lat":35.695861,"lon":139.682392},{"name":"アトリエあいだっく新中野","province":"東京都","city":"中野区","address":"中野区本町6-35-14アダチビル3階","lat":35.697244,"lon":139.662461},{"name":"おでんくらぶ","province":"東京都","city":"中野区","address":"中野区本町6-36-5シーアイマンション新中野102号","lat":35.697261,"lon":139.662286},{"name":"アトリエあいだっく","province":"東京都","city":"中野区","address":"中野区弥生町2-10-1霜田ビル1階","lat":35.692992,"lon":139.675802},{"name":"中野区療育センターゆめなりあ","province":"東京都","city":"中野区","address":"中野区弥生町5-5-2","lat":35.686165,"lon":139.666333},{"name":"スパーク中野センター","province":"東京都","city":"中野区","address":"中野区弥生町4-25-1","lat":35.686345,"lon":139.669297},{"name":"中野区　放課後デイサービスセンター　みずいろ","province":"東京都","city":"中野区","address":"中野区丸山一丁目17番2号","lat":35.725683,"lon":139.657739},{"name":"中野区子ども発達センター　たんぽぽ","province":"東京都","city":"中野区","address":"中野区丸山一丁目17番2号","lat":35.725683,"lon":139.657739},{"name":"Ｃａｔｃｈ　ａｎｄ　Ｓｍｉｌｅ","province":"東京都","city":"中野区","address":"中野区江古田4-7-3金子ビル2階","lat":35.724363,"lon":139.662826},{"name":"さくらそうキッズ","province":"東京都","city":"中野区","address":"中野区沼袋一丁目2番地7号","lat":35.717864,"lon":139.666968},{"name":"アプリ児童デイサービス沼袋","province":"東京都","city":"中野区","address":"中野区沼袋2-28-34","lat":35.722075,"lon":139.665684},{"name":"space","province":"東京都","city":"中野区","address":"中野区上鷺宮4-6-20イサカビル2階","lat":35.733861,"lon":139.630162},{"name":"ｓｐａｃｅ　Ｋｉｄ’ｓ．ｃｏｎ　鷺ノ宮","province":"東京都","city":"中野区","address":"中野区上鷺宮5-8-5ベル・ヴィベール102号","lat":35.727484,"lon":139.627135},{"name":"中野区子ども家庭支援センター","province":"東京都","city":"中野区","address":"中野区中野4-8-1中野区役所3階","lat":35.707287,"lon":139.66381},{"name":"中野区子ども・若者支援センター","province":"東京都","city":"中野区","address":"中野区中央1-41-2","lat":35.69867,"lon":139.68387},{"name":"中野区子ども家庭支援センター","province":"東京都","city":"中野区","address":"中野区新井1-9-1","lat":35.71022,"lon":139.66594},{"name":"中野都税事務所","province":"東京都","city":"中野区","address":"東京都中野区中野4丁目6-15","lat":35.70966201,"lon":139.66378797},{"name":"武蔵丘高等学校","province":"東京都","city":"中野区","address":"東京都中野区上鷺宮2丁目14-1","lat":35.72899512,"lon":139.63095098},{"name":"稔ヶ丘高等学校","province":"東京都","city":"中野区","address":"東京都中野区上鷺宮5丁目11-1","lat":35.72800066,"lon":139.62576254},{"name":"富士高等学校","province":"東京都","city":"中野区","address":"東京都中野区弥生町5丁目21-1","lat":35.68959503,"lon":139.66701353},{"name":"中野工業高等学校","province":"東京都","city":"中野区","address":"東京都中野区野方3丁目5-5","lat":35.71668603,"lon":139.65667161},{"name":"鷺宮高等学校","province":"東京都","city":"中野区","address":"東京都中野区若宮3丁目46-8","lat":35.72042972,"lon":139.64432249},{"name":"ハッピー・テラス中野","province":"東京都","city":"中野区","address":"中野区中野4-7-1野口ビル7階","lat":35.709726,"lon":139.66348},{"name":"Ｐｕｒ　ａｉｌｅ　新井薬師","province":"東京都","city":"中野区","address":"中野区上高田5-35-9-1階","lat":35.716528,"lon":139.673759},{"name":"スタジオそら東中野","province":"東京都","city":"中野区","address":"中野区東中野4-27-33エムエス東中野ビル1階","lat":35.710963,"lon":139.689136},{"name":"発達支援センタージョイナス東中野教室","province":"東京都","city":"中野区","address":"中野区東中野1-50-2オクト森ビル1階","lat":35.705694,"lon":139.686381},{"name":"フリップ","province":"東京都","city":"中野区","address":"中野区中央5-38-13エスエス10A202","lat":35.699649,"lon":139.667274},{"name":"パソコンあいだっく","province":"東京都","city":"中野区","address":"中野区本町2-45-13山手ビル7階","lat":35.695861,"lon":139.682392},{"name":"アトリエあいだっく新中野","province":"東京都","city":"中野区","address":"中野区本町6-35-14アダチビル3階","lat":35.697244,"lon":139.662461},{"name":"おでんくらぶ","province":"東京都","city":"中野区","address":"中野区本町6-36-5シーアイマンション新中野102号","lat":35.697261,"lon":139.662286},{"name":"アトリエあいだっく","province":"東京都","city":"中野区","address":"中野区弥生町2-10-1霜田ビル1階","lat":35.692992,"lon":139.675802},{"name":"中野区療育センターゆめなりあ","province":"東京都","city":"中野区","address":"中野区弥生町5-5-2","lat":35.686165,"lon":139.666333},{"name":"スパーク中野センター","province":"東京都","city":"中野区","address":"中野区弥生町4-25-1","lat":35.686345,"lon":139.669297},{"name":"中野区　放課後デイサービスセンター　みずいろ","province":"東京都","city":"中野区","address":"中野区丸山一丁目17番2号","lat":35.725683,"lon":139.657739},{"name":"中野区子ども発達センター　たんぽぽ","province":"東京都","city":"中野区","address":"中野区丸山一丁目17番2号","lat":35.725683,"lon":139.657739},{"name":"Ｃａｔｃｈ　ａｎｄ　Ｓｍｉｌｅ","province":"東京都","city":"中野区","address":"中野区江古田4-7-3金子ビル2階","lat":35.724363,"lon":139.662826},{"name":"さくらそうキッズ","province":"東京都","city":"中野区","address":"中野区沼袋一丁目2番地7号","lat":35.717864,"lon":139.666968},{"name":"アプリ児童デイサービス沼袋","province":"東京都","city":"中野区","address":"中野区沼袋2-28-34","lat":35.722075,"lon":139.665684},{"name":"space","province":"東京都","city":"中野区","address":"中野区上鷺宮4-6-20イサカビル2階","lat":35.733861,"lon":139.630162},{"name":"ｓｐａｃｅ　Ｋｉｄ’ｓ．ｃｏｎ　鷺ノ宮","province":"東京都","city":"中野区","address":"中野区上鷺宮5-8-5ベル・ヴィベール102号","lat":35.727484,"lon":139.627135},{"name":"中野区子ども家庭支援センター","province":"東京都","city":"中野区","address":"中野区中野4-8-1中野区役所3階","lat":35.707287,"lon":139.66381},{"name":"中野区子ども・若者支援センター","province":"東京都","city":"中野区","address":"中野区中央1-41-2","lat":35.69867,"lon":139.68387},{"name":"中野区子ども家庭支援センター","province":"東京都","city":"中野区","address":"中野区新井1-9-1","lat":35.71022,"lon":139.66594},{"name":"中野都税事務所","province":"東京都","city":"中野区","address":"東京都中野区中野4丁目6-15","lat":35.70966201,"lon":139.66378797},{"name":"武蔵丘高等学校","province":"東京都","city":"中野区","address":"東京都中野区上鷺宮2丁目14-1","lat":35.72899512,"lon":139.63095098},{"name":"稔ヶ丘高等学校","province":"東京都","city":"中野区","address":"東京都中野区上鷺宮5丁目11-1","lat":35.72800066,"lon":139.62576254},{"name":"富士高等学校","province":"東京都","city":"中野区","address":"東京都中野区弥生町5丁目21-1","lat":35.68959503,"lon":139.66701353},{"name":"中野工業高等学校","province":"東京都","city":"中野区","address":"東京都中野区野方3丁目5-5","lat":35.71668603,"lon":139.65667161},{"name":"鷺宮高等学校","province":"東京都","city":"中野区","address":"東京都中野区若宮3丁目46-8","lat":35.72042972,"lon":139.64432249},{"name":"ハッピー・テラス中野","province":"東京都","city":"中野区","address":"中野区中野4-7-1野口ビル7階","lat":35.709726,"lon":139.66348},{"name":"Ｐｕｒ　ａｉｌｅ　新井薬師","province":"東京都","city":"中野区","address":"中野区上高田5-35-9-1階","lat":35.716528,"lon":139.673759},{"name":"スタジオそら東中野","province":"東京都","city":"中野区","address":"中野区東中野4-27-33エムエス東中野ビル1階","lat":35.710963,"lon":139.689136},{"name":"発達支援センタージョイナス東中野教室","province":"東京都","city":"中野区","address":"中野区東中野1-50-2オクト森ビル1階","lat":35.705694,"lon":139.686381},{"name":"フリップ","province":"東京都","city":"中野区","address":"中野区中央5-38-13エスエス10A202","lat":35.699649,"lon":139.667274},{"name":"パソコンあいだっく","province":"東京都","city":"中野区","address":"中野区本町2-45-13山手ビル7階","lat":35.695861,"lon":139.682392},{"name":"アトリエあいだっく新中野","province":"東京都","city":"中野区","address":"中野区本町6-35-14アダチビル3階","lat":35.697244,"lon":139.662461},{"name":"おでんくらぶ","province":"東京都","city":"中野区","address":"中野区本町6-36-5シーアイマンション新中野102号","lat":35.697261,"lon":139.662286},{"name":"アトリエあいだっく","province":"東京都","city":"中野区","address":"中野区弥生町2-10-1霜田ビル1階","lat":35.692992,"lon":139.675802},{"name":"中野区療育センターゆめなりあ","province":"東京都","city":"中野区","address":"中野区弥生町5-5-2","lat":35.686165,"lon":139.666333},{"name":"スパーク中野センター","province":"東京都","city":"中野区","address":"中野区弥生町4-25-1","lat":35.686345,"lon":139.669297},{"name":"中野区　放課後デイサービスセンター　みずいろ","province":"東京都","city":"中野区","address":"中野区丸山一丁目17番2号","lat":35.725683,"lon":139.657739},{"name":"中野区子ども発達センター　たんぽぽ","province":"東京都","city":"中野区","address":"中野区丸山一丁目17番2号","lat":35.725683,"lon":139.657739},{"name":"Ｃａｔｃｈ　ａｎｄ　Ｓｍｉｌｅ","province":"東京都","city":"中野区","address":"中野区江古田4-7-3金子ビル2階","lat":35.724363,"lon":139.662826},{"name":"さくらそうキッズ","province":"東京都","city":"中野区","address":"中野区沼袋一丁目2番地7号","lat":35.717864,"lon":139.666968},{"name":"アプリ児童デイサービス沼袋","province":"東京都","city":"中野区","address":"中野区沼袋2-28-34","lat":35.722075,"lon":139.665684},{"name":"space","province":"東京都","city":"中野区","address":"中野区上鷺宮4-6-20イサカビル2階","lat":35.733861,"lon":139.630162},{"name":"ｓｐａｃｅ　Ｋｉｄ’ｓ．ｃｏｎ　鷺ノ宮","province":"東京都","city":"中野区","address":"中野区上鷺宮5-8-5ベル・ヴィベール102号","lat":35.727484,"lon":139.627135},{"name":"中野区子ども家庭支援センター","province":"東京都","city":"中野区","address":"中野区中野4-8-1中野区役所3階","lat":35.707287,"lon":139.66381},{"name":"中野区子ども・若者支援センター","province":"東京都","city":"中野区","address":"中野区中央1-41-2","lat":35.69867,"lon":139.68387},{"name":"中野区子ども家庭支援センター","province":"東京都","city":"中野区","address":"中野区新井1-9-1","lat":35.71022,"lon":139.66594},{"name":"中野都税事務所","province":"東京都","city":"中野区","address":"東京都中野区中野4丁目6-15","lat":35.70966201,"lon":139.66378797},{"name":"武蔵丘高等学校","province":"東京都","city":"中野区","address":"東京都中野区上鷺宮2丁目14-1","lat":35.72899512,"lon":139.63095098},{"name":"稔ヶ丘高等学校","province":"東京都","city":"中野区","address":"東京都中野区上鷺宮5丁目11-1","lat":35.72800066,"lon":139.62576254},{"name":"富士高等学校","province":"東京都","city":"中野区","address":"東京都中野区弥生町5丁目21-1","lat":35.68959503,"lon":139.66701353},{"name":"中野工業高等学校","province":"東京都","city":"中野区","address":"東京都中野区野方3丁目5-5","lat":35.71668603,"lon":139.65667161},{"name":"鷺宮高等学校","province":"東京都","city":"中野区","address":"東京都中野区若宮3丁目46-8","lat":35.72042972,"lon":139.64432249},{"name":"ハッピー・テラス中野","province":"東京都","city":"中野区","address":"中野区中野4-7-1野口ビル7階","lat":35.709726,"lon":139.66348},{"name":"Ｐｕｒ　ａｉｌｅ　新井薬師","province":"東京都","city":"中野区","address":"中野区上高田5-35-9-1階","lat":35.716528,"lon":139.673759},{"name":"スタジオそら東中野","province":"東京都","city":"中野区","address":"中野区東中野4-27-33エムエス東中野ビル1階","lat":35.710963,"lon":139.689136},{"name":"発達支援センタージョイナス東中野教室","province":"東京都","city":"中野区","address":"中野区東中野1-50-2オクト森ビル1階","lat":35.705694,"lon":139.686381},{"name":"フリップ","province":"東京都","city":"中野区","address":"中野区中央5-38-13エスエス10A202","lat":35.699649,"lon":139.667274},{"name":"パソコンあいだっく","province":"東京都","city":"中野区","address":"中野区本町2-45-13山手ビル7階","lat":35.695861,"lon":139.682392},{"name":"アトリエあいだっく新中野","province":"東京都","city":"中野区","address":"中野区本町6-35-14アダチビル3階","lat":35.697244,"lon":139.662461},{"name":"おでんくらぶ","province":"東京都","city":"中野区","address":"中野区本町6-36-5シーアイマンション新中野102号","lat":35.697261,"lon":139.662286},{"name":"アトリエあいだっく","province":"東京都","city":"中野区","address":"中野区弥生町2-10-1霜田ビル1階","lat":35.692992,"lon":139.675802},{"name":"中野区療育センターゆめなりあ","province":"東京都","city":"中野区","address":"中野区弥生町5-5-2","lat":35.686165,"lon":139.666333},{"name":"スパーク中野センター","province":"東京都","city":"中野区","address":"中野区弥生町4-25-1","lat":35.686345,"lon":139.669297},{"name":"中野区　放課後デイサービスセンター　みずいろ","province":"東京都","city":"中野区","address":"中野区丸山一丁目17番2号","lat":35.725683,"lon":139.657739},{"name":"中野区子ども発達センター　たんぽぽ","province":"東京都","city":"中野区","address":"中野区丸山一丁目17番2号","lat":35.725683,"lon":139.657739},{"name":"Ｃａｔｃｈ　ａｎｄ　Ｓｍｉｌｅ","province":"東京都","city":"中野区","address":"中野区江古田4-7-3金子ビル2階","lat":35.724363,"lon":139.662826},{"name":"さくらそうキッズ","province":"東京都","city":"中野区","address":"中野区沼袋一丁目2番地7号","lat":35.717864,"lon":139.666968},{"name":"アプリ児童デイサービス沼袋","province":"東京都","city":"中野区","address":"中野区沼袋2-28-34","lat":35.722075,"lon":139.665684},{"name":"space","province":"東京都","city":"中野区","address":"中野区上鷺宮4-6-20イサカビル2階","lat":35.733861,"lon":139.630162},{"name":"ｓｐａｃｅ　Ｋｉｄ’ｓ．ｃｏｎ　鷺ノ宮","province":"東京都","city":"中野区","address":"中野区上鷺宮5-8-5ベル・ヴィベール102号","lat":35.727484,"lon":139.627135},{"name":"中野区子ども家庭支援センター","province":"東京都","city":"中野区","address":"中野区中野4-8-1中野区役所3階","lat":35.707287,"lon":139.66381},{"name":"中野区子ども・若者支援センター","province":"東京都","city":"中野区","address":"中野区中央1-41-2","lat":35.69867,"lon":139.68387},{"name":"中野区子ども家庭支援センター","province":"東京都","city":"中野区","address":"中野区新井1-9-1","lat":35.71022,"lon":139.66594},{"name":"中野都税事務所","province":"東京都","city":"中野区","address":"東京都中野区中野4丁目6-15","lat":35.70966201,"lon":139.66378797},{"name":"武蔵丘高等学校","province":"東京都","city":"中野区","address":"東京都中野区上鷺宮2丁目14-1","lat":35.72899512,"lon":139.63095098},{"name":"稔ヶ丘高等学校","province":"東京都","city":"中野区","address":"東京都中野区上鷺宮5丁目11-1","lat":35.72800066,"lon":139.62576254},{"name":"富士高等学校","province":"東京都","city":"中野区","address":"東京都中野区弥生町5丁目21-1","lat":35.68959503,"lon":139.66701353},{"name":"中野工業高等学校","province":"東京都","city":"中野区","address":"東京都中野区野方3丁目5-5","lat":35.71668603,"lon":139.65667161},{"name":"鷺宮高等学校","province":"東京都","city":"中野区","address":"東京都中野区若宮3丁目46-8","lat":35.72042972,"lon":139.64432249},{"name":"ハッピー・テラス中野","province":"東京都","city":"中野区","address":"中野区中野4-7-1野口ビル7階","lat":35.709726,"lon":139.66348},{"name":"Ｐｕｒ　ａｉｌｅ　新井薬師","province":"東京都","city":"中野区","address":"中野区上高田5-35-9-1階","lat":35.716528,"lon":139.673759},{"name":"スタジオそら東中野","province":"東京都","city":"中野区","address":"中野区東中野4-27-33エムエス東中野ビル1階","lat":35.710963,"lon":139.689136},{"name":"発達支援センタージョイナス東中野教室","province":"東京都","city":"中野区","address":"中野区東中野1-50-2オクト森ビル1階","lat":35.705694,"lon":139.686381},{"name":"フリップ","province":"東京都","city":"中野区","address":"中野区中央5-38-13エスエス10A202","lat":35.699649,"lon":139.667274},{"name":"パソコンあいだっく","province":"東京都","city":"中野区","address":"中野区本町2-45-13山手ビル7階","lat":35.695861,"lon":139.682392},{"name":"アトリエあいだっく新中野","province":"東京都","city":"中野区","address":"中野区本町6-35-14アダチビル3階","lat":35.697244,"lon":139.662461},{"name":"おでんくらぶ","province":"東京都","city":"中野区","address":"中野区本町6-36-5シーアイマンション新中野102号","lat":35.697261,"lon":139.662286},{"name":"アトリエあいだっく","province":"東京都","city":"中野区","address":"中野区弥生町2-10-1霜田ビル1階","lat":35.692992,"lon":139.675802},{"name":"中野区療育センターゆめなりあ","province":"東京都","city":"中野区","address":"中野区弥生町5-5-2","lat":35.686165,"lon":139.666333},{"name":"スパーク中野センター","province":"東京都","city":"中野区","address":"中野区弥生町4-25-1","lat":35.686345,"lon":139.669297},{"name":"中野区　放課後デイサービスセンター　みずいろ","province":"東京都","city":"中野区","address":"中野区丸山一丁目17番2号","lat":35.725683,"lon":139.657739},{"name":"中野区子ども発達センター　たんぽぽ","province":"東京都","city":"中野区","address":"中野区丸山一丁目17番2号","lat":35.725683,"lon":139.657739},{"name":"Ｃａｔｃｈ　ａｎｄ　Ｓｍｉｌｅ","province":"東京都","city":"中野区","address":"中野区江古田4-7-3金子ビル2階","lat":35.724363,"lon":139.662826},{"name":"さくらそうキッズ","province":"東京都","city":"中野区","address":"中野区沼袋一丁目2番地7号","lat":35.717864,"lon":139.666968},{"name":"アプリ児童デイサービス沼袋","province":"東京都","city":"中野区","address":"中野区沼袋2-28-34","lat":35.722075,"lon":139.665684},{"name":"space","province":"東京都","city":"中野区","address":"中野区上鷺宮4-6-20イサカビル2階","lat":35.733861,"lon":139.630162},{"name":"ｓｐａｃｅ　Ｋｉｄ’ｓ．ｃｏｎ　鷺ノ宮","province":"東京都","city":"中野区","address":"中野区上鷺宮5-8-5ベル・ヴィベール102号","lat":35.727484,"lon":139.627135},{"name":"中野区子ども家庭支援センター","province":"東京都","city":"中野区","address":"中野区中野4-8-1中野区役所3階","lat":35.707287,"lon":139.66381},{"name":"中野区子ども・若者支援センター","province":"東京都","city":"中野区","address":"中野区中央1-41-2","lat":35.69867,"lon":139.68387},{"name":"中野区子ども家庭支援センター","province":"東京都","city":"中野区","address":"中野区新井1-9-1","lat":35.71022,"lon":139.66594},{"name":"中野都税事務所","province":"東京都","city":"中野区","address":"東京都中野区中野4丁目6-15","lat":35.70966201,"lon":139.66378797},{"name":"武蔵丘高等学校","province":"東京都","city":"中野区","address":"東京都中野区上鷺宮2丁目14-1","lat":35.72899512,"lon":139.63095098},{"name":"稔ヶ丘高等学校","province":"東京都","city":"中野区","address":"東京都中野区上鷺宮5丁目11-1","lat":35.72800066,"lon":139.62576254},{"name":"富士高等学校","province":"東京都","city":"中野区","address":"東京都中野区弥生町5丁目21-1","lat":35.68959503,"lon":139.66701353},{"name":"中野工業高等学校","province":"東京都","city":"中野区","address":"東京都中野区野方3丁目5-5","lat":35.71668603,"lon":139.65667161},{"name":"鷺宮高等学校","province":"東京都","city":"中野区","address":"東京都中野区若宮3丁目46-8","lat":35.72042972,"lon":139.64432249},{"name":"ハッピー・テラス中野","province":"東京都","city":"中野区","address":"中野区中野4-7-1野口ビル7階","lat":35.709726,"lon":139.66348},{"name":"Ｐｕｒ　ａｉｌｅ　新井薬師","province":"東京都","city":"中野区","address":"中野区上高田5-35-9-1階","lat":35.716528,"lon":139.673759},{"name":"スタジオそら東中野","province":"東京都","city":"中野区","address":"中野区東中野4-27-33エムエス東中野ビル1階","lat":35.710963,"lon":139.689136},{"name":"発達支援センタージョイナス東中野教室","province":"東京都","city":"中野区","address":"中野区東中野1-50-2オクト森ビル1階","lat":35.705694,"lon":139.686381},{"name":"フリップ","province":"東京都","city":"中野区","address":"中野区中央5-38-13エスエス10A202","lat":35.699649,"lon":139.667274},{"name":"パソコンあいだっく","province":"東京都","city":"中野区","address":"中野区本町2-45-13山手ビル7階","lat":35.695861,"lon":139.682392},{"name":"アトリエあいだっく新中野","province":"東京都","city":"中野区","address":"中野区本町6-35-14アダチビル3階","lat":35.697244,"lon":139.662461},{"name":"おでんくらぶ","province":"東京都","city":"中野区","address":"中野区本町6-36-5シーアイマンション新中野102号","lat":35.697261,"lon":139.662286},{"name":"アトリエあいだっく","province":"東京都","city":"中野区","address":"中野区弥生町2-10-1霜田ビル1階","lat":35.692992,"lon":139.675802},{"name":"中野区療育センターゆめなりあ","province":"東京都","city":"中野区","address":"中野区弥生町5-5-2","lat":35.686165,"lon":139.666333},{"name":"スパーク中野センター","province":"東京都","city":"中野区","address":"中野区弥生町4-25-1","lat":35.686345,"lon":139.669297},{"name":"中野区　放課後デイサービスセンター　みずいろ","province":"東京都","city":"中野区","address":"中野区丸山一丁目17番2号","lat":35.725683,"lon":139.657739},{"name":"中野区子ども発達センター　たんぽぽ","province":"東京都","city":"中野区","address":"中野区丸山一丁目17番2号","lat":35.725683,"lon":139.657739},{"name":"Ｃａｔｃｈ　ａｎｄ　Ｓｍｉｌｅ","province":"東京都","city":"中野区","address":"中野区江古田4-7-3金子ビル2階","lat":35.724363,"lon":139.662826},{"name":"さくらそうキッズ","province":"東京都","city":"中野区","address":"中野区沼袋一丁目2番地7号","lat":35.717864,"lon":139.666968},{"name":"アプリ児童デイサービス沼袋","province":"東京都","city":"中野区","address":"中野区沼袋2-28-34","lat":35.722075,"lon":139.665684},{"name":"space","province":"東京都","city":"中野区","address":"中野区上鷺宮4-6-20イサカビル2階","lat":35.733861,"lon":139.630162},{"name":"ｓｐａｃｅ　Ｋｉｄ’ｓ．ｃｏｎ　鷺ノ宮","province":"東京都","city":"中野区","address":"中野区上鷺宮5-8-5ベル・ヴィベール102号","lat":35.727484,"lon":139.627135},{"name":"中野区子ども家庭支援センター","province":"東京都","city":"中野区","address":"中野区中野4-8-1中野区役所3階","lat":35.707287,"lon":139.66381},{"name":"中野区子ども・若者支援センター","province":"東京都","city":"中野区","address":"中野区中央1-41-2","lat":35.69867,"lon":139.68387},{"name":"中野区子ども家庭支援センター","province":"東京都","city":"中野区","address":"中野区新井1-9-1","lat":35.71022,"lon":139.66594},{"name":"中野都税事務所","province":"東京都","city":"中野区","address":"東京都中野区中野4丁目6-15","lat":35.70966201,"lon":139.66378797},{"name":"武蔵丘高等学校","province":"東京都","city":"中野区","address":"東京都中野区上鷺宮2丁目14-1","lat":35.72899512,"lon":139.63095098},{"name":"稔ヶ丘高等学校","province":"東京都","city":"中野区","address":"東京都中野区上鷺宮5丁目11-1","lat":35.72800066,"lon":139.62576254},{"name":"富士高等学校","province":"東京都","city":"中野区","address":"東京都中野区弥生町5丁目21-1","lat":35.68959503,"lon":139.66701353},{"name":"中野工業高等学校","province":"東京都","city":"中野区","address":"東京都中野区野方3丁目5-5","lat":35.71668603,"lon":139.65667161},{"name":"鷺宮高等学校","province":"東京都","city":"中野区","address":"東京都中野区若宮3丁目46-8","lat":35.72042972,"lon":139.64432249},{"name":"ハッピー・テラス中野","province":"東京都","city":"中野区","address":"中野区中野4-7-1野口ビル7階","lat":35.709726,"lon":139.66348},{"name":"Ｐｕｒ　ａｉｌｅ　新井薬師","province":"東京都","city":"中野区","address":"中野区上高田5-35-9-1階","lat":35.716528,"lon":139.673759},{"name":"スタジオそら東中野","province":"東京都","city":"中野区","address":"中野区東中野4-27-33エムエス東中野ビル1階","lat":35.710963,"lon":139.689136},{"name":"発達支援センタージョイナス東中野教室","province":"東京都","city":"中野区","address":"中野区東中野1-50-2オクト森ビル1階","lat":35.705694,"lon":139.686381},{"name":"フリップ","province":"東京都","city":"中野区","address":"中野区中央5-38-13エスエス10A202","lat":35.699649,"lon":139.667274},{"name":"パソコンあいだっく","province":"東京都","city":"中野区","address":"中野区本町2-45-13山手ビル7階","lat":35.695861,"lon":139.682392},{"name":"アトリエあいだっく新中野","province":"東京都","city":"中野区","address":"中野区本町6-35-14アダチビル3階","lat":35.697244,"lon":139.662461},{"name":"おでんくらぶ","province":"東京都","city":"中野区","address":"中野区本町6-36-5シーアイマンション新中野102号","lat":35.697261,"lon":139.662286},{"name":"アトリエあいだっく","province":"東京都","city":"中野区","address":"中野区弥生町2-10-1霜田ビル1階","lat":35.692992,"lon":139.675802},{"name":"中野区療育センターゆめなりあ","province":"東京都","city":"中野区","address":"中野区弥生町5-5-2","lat":35.686165,"lon":139.666333},{"name":"スパーク中野センター","province":"東京都","city":"中野区","address":"中野区弥生町4-25-1","lat":35.686345,"lon":139.669297},{"name":"中野区　放課後デイサービスセンター　みずいろ","province":"東京都","city":"中野区","address":"中野区丸山一丁目17番2号","lat":35.725683,"lon":139.657739},{"name":"中野区子ども発達センター　たんぽぽ","province":"東京都","city":"中野区","address":"中野区丸山一丁目17番2号","lat":35.725683,"lon":139.657739},{"name":"Ｃａｔｃｈ　ａｎｄ　Ｓｍｉｌｅ","province":"東京都","city":"中野区","address":"中野区江古田4-7-3金子ビル2階","lat":35.724363,"lon":139.662826},{"name":"さくらそうキッズ","province":"東京都","city":"中野区","address":"中野区沼袋一丁目2番地7号","lat":35.717864,"lon":139.666968},{"name":"アプリ児童デイサービス沼袋","province":"東京都","city":"中野区","address":"中野区沼袋2-28-34","lat":35.722075,"lon":139.665684},{"name":"space","province":"東京都","city":"中野区","address":"中野区上鷺宮4-6-20イサカビル2階","lat":35.733861,"lon":139.630162},{"name":"ｓｐａｃｅ　Ｋｉｄ’ｓ．ｃｏｎ　鷺ノ宮","province":"東京都","city":"中野区","address":"中野区上鷺宮5-8-5ベル・ヴィベール102号","lat":35.727484,"lon":139.627135},{"name":"中野区子ども家庭支援センター","province":"東京都","city":"中野区","address":"中野区中野4-8-1中野区役所3階","lat":35.707287,"lon":139.66381},{"name":"中野区子ども・若者支援センター","province":"東京都","city":"中野区","address":"中野区中央1-41-2","lat":35.69867,"lon":139.68387},{"name":"中野区子ども家庭支援センター","province":"東京都","city":"中野区","address":"中野区新井1-9-1","lat":35.71022,"lon":139.66594},{"name":"ハッピー・テラス中野","province":"東京都","city":"中野区","address":"中野区中野4-7-1野口ビル7階","lat":35.709726,"lon":139.66348},{"name":"Ｐｕｒ　ａｉｌｅ　新井薬師","province":"東京都","city":"中野区","address":"中野区上高田5-35-9-1階","lat":35.716528,"lon":139.673759},{"name":"スタジオそら東中野","province":"東京都","city":"中野区","address":"中野区東中野4-27-33エムエス東中野ビル1階","lat":35.710963,"lon":139.689136},{"name":"発達支援センタージョイナス東中野教室","province":"東京都","city":"中野区","address":"中野区東中野1-50-2オクト森ビル1階","lat":35.705694,"lon":139.686381},{"name":"フリップ","province":"東京都","city":"中野区","address":"中野区中央5-38-13エスエス10A202","lat":35.699649,"lon":139.667274},{"name":"パソコンあいだっく","province":"東京都","city":"中野区","address":"中野区本町2-45-13山手ビル7階","lat":35.695861,"lon":139.682392},{"name":"アトリエあいだっく新中野","province":"東京都","city":"中野区","address":"中野区本町6-35-14アダチビル3階","lat":35.697244,"lon":139.662461},{"name":"おでんくらぶ","province":"東京都","city":"中野区","address":"中野区本町6-36-5シーアイマンション新中野102号","lat":35.697261,"lon":139.662286},{"name":"アトリエあいだっく","province":"東京都","city":"中野区","address":"中野区弥生町2-10-1霜田ビル1階","lat":35.692992,"lon":139.675802},{"name":"中野区療育センターゆめなりあ","province":"東京都","city":"中野区","address":"中野区弥生町5-5-2","lat":35.686165,"lon":139.666333},{"name":"スパーク中野センター","province":"東京都","city":"中野区","address":"中野区弥生町4-25-1","lat":35.686345,"lon":139.669297},{"name":"中野区　放課後デイサービスセンター　みずいろ","province":"東京都","city":"中野区","address":"中野区丸山一丁目17番2号","lat":35.725683,"lon":139.657739},{"name":"中野区子ども発達センター　たんぽぽ","province":"東京都","city":"中野区","address":"中野区丸山一丁目17番2号","lat":35.725683,"lon":139.657739},{"name":"Ｃａｔｃｈ　ａｎｄ　Ｓｍｉｌｅ","province":"東京都","city":"中野区","address":"中野区江古田4-7-3金子ビル2階","lat":35.724363,"lon":139.662826},{"name":"さくらそうキッズ","province":"東京都","city":"中野区","address":"中野区沼袋一丁目2番地7号","lat":35.717864,"lon":139.666968},{"name":"アプリ児童デイサービス沼袋","province":"東京都","city":"中野区","address":"中野区沼袋2-28-34","lat":35.722075,"lon":139.665684},{"name":"space","province":"東京都","city":"中野区","address":"中野区上鷺宮4-6-20イサカビル2階","lat":35.733861,"lon":139.630162},{"name":"ｓｐａｃｅ　Ｋｉｄ’ｓ．ｃｏｎ　鷺ノ宮","province":"東京都","city":"中野区","address":"中野区上鷺宮5-8-5ベル・ヴィベール102号","lat":35.727484,"lon":139.627135},{"name":"中野区子ども家庭支援センター","province":"東京都","city":"中野区","address":"中野区中野4-8-1中野区役所3階","lat":35.707287,"lon":139.66381},{"name":"中野区子ども・若者支援センター","province":"東京都","city":"中野区","address":"中野区中央1-41-2","lat":35.69867,"lon":139.68387},{"name":"中野区子ども家庭支援センター","province":"東京都","city":"中野区","address":"中野区新井1-9-1","lat":35.71022,"lon":139.66594},{"name":"ハッピー・テラス中野","province":"東京都","city":"中野区","address":"中野区中野4-7-1野口ビル7階","lat":35.709726,"lon":139.66348},{"name":"Ｐｕｒ　ａｉｌｅ　新井薬師","province":"東京都","city":"中野区","address":"中野区上高田5-35-9-1階","lat":35.716528,"lon":139.673759},{"name":"スタジオそら東中野","province":"東京都","city":"中野区","address":"中野区東中野4-27-33エムエス東中野ビル1階","lat":35.710963,"lon":139.689136},{"name":"発達支援センタージョイナス東中野教室","province":"東京都","city":"中野区","address":"中野区東中野1-50-2オクト森ビル1階","lat":35.705694,"lon":139.686381},{"name":"フリップ","province":"東京都","city":"中野区","address":"中野区中央5-38-13エスエス10A202","lat":35.699649,"lon":139.667274},{"name":"パソコンあいだっく","province":"東京都","city":"中野区","address":"中野区本町2-45-13山手ビル7階","lat":35.695861,"lon":139.682392},{"name":"アトリエあいだっく新中野","province":"東京都","city":"中野区","address":"中野区本町6-35-14アダチビル3階","lat":35.697244,"lon":139.662461},{"name":"おでんくらぶ","province":"東京都","city":"中野区","address":"中野区本町6-36-5シーアイマンション新中野102号","lat":35.697261,"lon":139.662286},{"name":"アトリエあいだっく","province":"東京都","city":"中野区","address":"中野区弥生町2-10-1霜田ビル1階","lat":35.692992,"lon":139.675802},{"name":"中野区療育センターゆめなりあ","province":"東京都","city":"中野区","address":"中野区弥生町5-5-2","lat":35.686165,"lon":139.666333},{"name":"スパーク中野センター","province":"東京都","city":"中野区","address":"中野区弥生町4-25-1","lat":35.686345,"lon":139.669297},{"name":"中野区　放課後デイサービスセンター　みずいろ","province":"東京都","city":"中野区","address":"中野区丸山一丁目17番2号","lat":35.725683,"lon":139.657739},{"name":"中野区子ども発達センター　たんぽぽ","province":"東京都","city":"中野区","address":"中野区丸山一丁目17番2号","lat":35.725683,"lon":139.657739},{"name":"Ｃａｔｃｈ　ａｎｄ　Ｓｍｉｌｅ","province":"東京都","city":"中野区","address":"中野区江古田4-7-3金子ビル2階","lat":35.724363,"lon":139.662826},{"name":"さくらそうキッズ","province":"東京都","city":"中野区","address":"中野区沼袋一丁目2番地7号","lat":35.717864,"lon":139.666968},{"name":"アプリ児童デイサービス沼袋","province":"東京都","city":"中野区","address":"中野区沼袋2-28-34","lat":35.722075,"lon":139.665684},{"name":"space","province":"東京都","city":"中野区","address":"中野区上鷺宮4-6-20イサカビル2階","lat":35.733861,"lon":139.630162},{"name":"ｓｐａｃｅ　Ｋｉｄ’ｓ．ｃｏｎ　鷺ノ宮","province":"東京都","city":"中野区","address":"中野区上鷺宮5-8-5ベル・ヴィベール102号","lat":35.727484,"lon":139.627135},{"name":"中野区子ども家庭支援センター","province":"東京都","city":"中野区","address":"中野区中野4-8-1中野区役所3階","lat":35.707287,"lon":139.66381},{"name":"中野区子ども・若者支援センター","province":"東京都","city":"中野区","address":"中野区中央1-41-2","lat":35.69867,"lon":139.68387},{"name":"中野区子ども家庭支援センター","province":"東京都","city":"中野区","address":"中野区新井1-9-1","lat":35.71022,"lon":139.66594},{"name":"ハッピー・テラス中野","province":"東京都","city":"中野区","address":"中野区中野4-7-1野口ビル7階","lat":35.709726,"lon":139.66348},{"name":"Ｐｕｒ　ａｉｌｅ　新井薬師","province":"東京都","city":"中野区","address":"中野区上高田5-35-9-1階","lat":35.716528,"lon":139.673759},{"name":"スタジオそら東中野","province":"東京都","city":"中野区","address":"中野区東中野4-27-33エムエス東中野ビル1階","lat":35.710963,"lon":139.689136},{"name":"発達支援センタージョイナス東中野教室","province":"東京都","city":"中野区","address":"中野区東中野1-50-2オクト森ビル1階","lat":35.705694,"lon":139.686381},{"name":"フリップ","province":"東京都","city":"中野区","address":"中野区中央5-38-13エスエス10A202","lat":35.699649,"lon":139.667274},{"name":"パソコンあいだっく","province":"東京都","city":"中野区","address":"中野区本町2-45-13山手ビル7階","lat":35.695861,"lon":139.682392},{"name":"アトリエあいだっく新中野","province":"東京都","city":"中野区","address":"中野区本町6-35-14アダチビル3階","lat":35.697244,"lon":139.662461},{"name":"おでんくらぶ","province":"東京都","city":"中野区","address":"中野区本町6-36-5シーアイマンション新中野102号","lat":35.697261,"lon":139.662286},{"name":"アトリエあいだっく","province":"東京都","city":"中野区","address":"中野区弥生町2-10-1霜田ビル1階","lat":35.692992,"lon":139.675802},{"name":"中野区療育センターゆめなりあ","province":"東京都","city":"中野区","address":"中野区弥生町5-5-2","lat":35.686165,"lon":139.666333},{"name":"スパーク中野センター","province":"東京都","city":"中野区","address":"中野区弥生町4-25-1","lat":35.686345,"lon":139.669297},{"name":"中野区　放課後デイサービスセンター　みずいろ","province":"東京都","city":"中野区","address":"中野区丸山一丁目17番2号","lat":35.725683,"lon":139.657739},{"name":"中野区子ども発達センター　たんぽぽ","province":"東京都","city":"中野区","address":"中野区丸山一丁目17番2号","lat":35.725683,"lon":139.657739},{"name":"Ｃａｔｃｈ　ａｎｄ　Ｓｍｉｌｅ","province":"東京都","city":"中野区","address":"中野区江古田4-7-3金子ビル2階","lat":35.724363,"lon":139.662826},{"name":"さくらそうキッズ","province":"東京都","city":"中野区","address":"中野区沼袋一丁目2番地7号","lat":35.717864,"lon":139.666968},{"name":"アプリ児童デイサービス沼袋","province":"東京都","city":"中野区","address":"中野区沼袋2-28-34","lat":35.722075,"lon":139.665684},{"name":"space","province":"東京都","city":"中野区","address":"中野区上鷺宮4-6-20イサカビル2階","lat":35.733861,"lon":139.630162},{"name":"ｓｐａｃｅ　Ｋｉｄ’ｓ．ｃｏｎ　鷺ノ宮","province":"東京都","city":"中野区","address":"中野区上鷺宮5-8-5ベル・ヴィベール102号","lat":35.727484,"lon":139.627135},{"name":"中野区子ども家庭支援センター","province":"東京都","city":"中野区","address":"中野区中野4-8-1中野区役所3階","lat":35.707287,"lon":139.66381},{"name":"中野区子ども・若者支援センター","province":"東京都","city":"中野区","address":"中野区中央1-41-2","lat":35.69867,"lon":139.68387},{"name":"中野区子ども家庭支援センター","province":"東京都","city":"中野区","address":"中野区新井1-9-1","lat":35.71022,"lon":139.66594},{"name":"ハッピー・テラス中野","province":"東京都","city":"中野区","address":"中野区中野4-7-1野口ビル7階","lat":35.709726,"lon":139.66348},{"name":"Ｐｕｒ　ａｉｌｅ　新井薬師","province":"東京都","city":"中野区","address":"中野区上高田5-35-9-1階","lat":35.716528,"lon":139.673759},{"name":"スタジオそら東中野","province":"東京都","city":"中野区","address":"中野区東中野4-27-33エムエス東中野ビル1階","lat":35.710963,"lon":139.689136},{"name":"発達支援センタージョイナス東中野教室","province":"東京都","city":"中野区","address":"中野区東中野1-50-2オクト森ビル1階","lat":35.705694,"lon":139.686381},{"name":"フリップ","province":"東京都","city":"中野区","address":"中野区中央5-38-13エスエス10A202","lat":35.699649,"lon":139.667274},{"name":"パソコンあいだっく","province":"東京都","city":"中野区","address":"中野区本町2-45-13山手ビル7階","lat":35.695861,"lon":139.682392},{"name":"アトリエあいだっく新中野","province":"東京都","city":"中野区","address":"中野区本町6-35-14アダチビル3階","lat":35.697244,"lon":139.662461},{"name":"おでんくらぶ","province":"東京都","city":"中野区","address":"中野区本町6-36-5シーアイマンション新中野102号","lat":35.697261,"lon":139.662286},{"name":"アトリエあいだっく","province":"東京都","city":"中野区","address":"中野区弥生町2-10-1霜田ビル1階","lat":35.692992,"lon":139.675802},{"name":"中野区療育センターゆめなりあ","province":"東京都","city":"中野区","address":"中野区弥生町5-5-2","lat":35.686165,"lon":139.666333},{"name":"スパーク中野センター","province":"東京都","city":"中野区","address":"中野区弥生町4-25-1","lat":35.686345,"lon":139.669297},{"name":"中野区　放課後デイサービスセンター　みずいろ","province":"東京都","city":"中野区","address":"中野区丸山一丁目17番2号","lat":35.725683,"lon":139.657739},{"name":"中野区子ども発達センター　たんぽぽ","province":"東京都","city":"中野区","address":"中野区丸山一丁目17番2号","lat":35.725683,"lon":139.657739},{"name":"Ｃａｔｃｈ　ａｎｄ　Ｓｍｉｌｅ","province":"東京都","city":"中野区","address":"中野区江古田4-7-3金子ビル2階","lat":35.724363,"lon":139.662826},{"name":"さくらそうキッズ","province":"東京都","city":"中野区","address":"中野区沼袋一丁目2番地7号","lat":35.717864,"lon":139.666968},{"name":"アプリ児童デイサービス沼袋","province":"東京都","city":"中野区","address":"中野区沼袋2-28-34","lat":35.722075,"lon":139.665684},{"name":"space","province":"東京都","city":"中野区","address":"中野区上鷺宮4-6-20イサカビル2階","lat":35.733861,"lon":139.630162},{"name":"ｓｐａｃｅ　Ｋｉｄ’ｓ．ｃｏｎ　鷺ノ宮","province":"東京都","city":"中野区","address":"中野区上鷺宮5-8-5ベル・ヴィベール102号","lat":35.727484,"lon":139.627135},{"name":"中野区子ども家庭支援センター","province":"東京都","city":"中野区","address":"中野区中野4-8-1中野区役所3階","lat":35.707287,"lon":139.66381},{"name":"中野区子ども・若者支援センター","province":"東京都","city":"中野区","address":"中野区中央1-41-2","lat":35.69867,"lon":139.68387},{"name":"中野区子ども家庭支援センター","province":"東京都","city":"中野区","address":"中野区新井1-9-1","lat":35.71022,"lon":139.66594},{"name":"ハッピー・テラス中野","province":"東京都","city":"中野区","address":"中野区中野4-7-1野口ビル7階","lat":35.709726,"lon":139.66348},{"name":"Ｐｕｒ　ａｉｌｅ　新井薬師","province":"東京都","city":"中野区","address":"中野区上高田5-35-9-1階","lat":35.716528,"lon":139.673759},{"name":"スタジオそら東中野","province":"東京都","city":"中野区","address":"中野区東中野4-27-33エムエス東中野ビル1階","lat":35.710963,"lon":139.689136},{"name":"発達支援センタージョイナス東中野教室","province":"東京都","city":"中野区","address":"中野区東中野1-50-2オクト森ビル1階","lat":35.705694,"lon":139.686381},{"name":"フリップ","province":"東京都","city":"中野区","address":"中野区中央5-38-13エスエス10A202","lat":35.699649,"lon":139.667274},{"name":"パソコンあいだっく","province":"東京都","city":"中野区","address":"中野区本町2-45-13山手ビル7階","lat":35.695861,"lon":139.682392},{"name":"アトリエあいだっく新中野","province":"東京都","city":"中野区","address":"中野区本町6-35-14アダチビル3階","lat":35.697244,"lon":139.662461},{"name":"おでんくらぶ","province":"東京都","city":"中野区","address":"中野区本町6-36-5シーアイマンション新中野102号","lat":35.697261,"lon":139.662286},{"name":"アトリエあいだっく","province":"東京都","city":"中野区","address":"中野区弥生町2-10-1霜田ビル1階","lat":35.692992,"lon":139.675802},{"name":"中野区療育センターゆめなりあ","province":"東京都","city":"中野区","address":"中野区弥生町5-5-2","lat":35.686165,"lon":139.666333},{"name":"スパーク中野センター","province":"東京都","city":"中野区","address":"中野区弥生町4-25-1","lat":35.686345,"lon":139.669297},{"name":"中野区　放課後デイサービスセンター　みずいろ","province":"東京都","city":"中野区","address":"中野区丸山一丁目17番2号","lat":35.725683,"lon":139.657739},{"name":"中野区子ども発達センター　たんぽぽ","province":"東京都","city":"中野区","address":"中野区丸山一丁目17番2号","lat":35.725683,"lon":139.657739},{"name":"Ｃａｔｃｈ　ａｎｄ　Ｓｍｉｌｅ","province":"東京都","city":"中野区","address":"中野区江古田4-7-3金子ビル2階","lat":35.724363,"lon":139.662826},{"name":"さくらそうキッズ","province":"東京都","city":"中野区","address":"中野区沼袋一丁目2番地7号","lat":35.717864,"lon":139.666968},{"name":"アプリ児童デイサービス沼袋","province":"東京都","city":"中野区","address":"中野区沼袋2-28-34","lat":35.722075,"lon":139.665684},{"name":"space","province":"東京都","city":"中野区","address":"中野区上鷺宮4-6-20イサカビル2階","lat":35.733861,"lon":139.630162},{"name":"ｓｐａｃｅ　Ｋｉｄ’ｓ．ｃｏｎ　鷺ノ宮","province":"東京都","city":"中野区","address":"中野区上鷺宮5-8-5ベル・ヴィベール102号","lat":35.727484,"lon":139.627135},{"name":"中野区子ども家庭支援センター","province":"東京都","city":"中野区","address":"中野区中野4-8-1中野区役所3階","lat":35.707287,"lon":139.66381},{"name":"中野区子ども・若者支援センター","province":"東京都","city":"中野区","address":"中野区中央1-41-2","lat":35.69867,"lon":139.68387},{"name":"中野区子ども家庭支援センター","province":"東京都","city":"中野区","address":"中野区新井1-9-1","lat":35.71022,"lon":139.66594},{"name":"ハッピー・テラス中野","province":"東京都","city":"中野区","address":"中野区中野4-7-1野口ビル7階","lat":35.709726,"lon":139.66348},{"name":"Ｐｕｒ　ａｉｌｅ　新井薬師","province":"東京都","city":"中野区","address":"中野区上高田5-35-9-1階","lat":35.716528,"lon":139.673759},{"name":"スタジオそら東中野","province":"東京都","city":"中野区","address":"中野区東中野4-27-33エムエス東中野ビル1階","lat":35.710963,"lon":139.689136},{"name":"発達支援センタージョイナス東中野教室","province":"東京都","city":"中野区","address":"中野区東中野1-50-2オクト森ビル1階","lat":35.705694,"lon":139.686381},{"name":"フリップ","province":"東京都","city":"中野区","address":"中野区中央5-38-13エスエス10A202","lat":35.699649,"lon":139.667274},{"name":"パソコンあいだっく","province":"東京都","city":"中野区","address":"中野区本町2-45-13山手ビル7階","lat":35.695861,"lon":139.682392},{"name":"アトリエあいだっく新中野","province":"東京都","city":"中野区","address":"中野区本町6-35-14アダチビル3階","lat":35.697244,"lon":139.662461},{"name":"おでんくらぶ","province":"東京都","city":"中野区","address":"中野区本町6-36-5シーアイマンション新中野102号","lat":35.697261,"lon":139.662286},{"name":"アトリエあいだっく","province":"東京都","city":"中野区","address":"中野区弥生町2-10-1霜田ビル1階","lat":35.692992,"lon":139.675802},{"name":"中野区療育センターゆめなりあ","province":"東京都","city":"中野区","address":"中野区弥生町5-5-2","lat":35.686165,"lon":139.666333},{"name":"スパーク中野センター","province":"東京都","city":"中野区","address":"中野区弥生町4-25-1","lat":35.686345,"lon":139.669297},{"name":"中野区　放課後デイサービスセンター　みずいろ","province":"東京都","city":"中野区","address":"中野区丸山一丁目17番2号","lat":35.725683,"lon":139.657739},{"name":"中野区子ども発達センター　たんぽぽ","province":"東京都","city":"中野区","address":"中野区丸山一丁目17番2号","lat":35.725683,"lon":139.657739},{"name":"Ｃａｔｃｈ　ａｎｄ　Ｓｍｉｌｅ","province":"東京都","city":"中野区","address":"中野区江古田4-7-3金子ビル2階","lat":35.724363,"lon":139.662826},{"name":"さくらそうキッズ","province":"東京都","city":"中野区","address":"中野区沼袋一丁目2番地7号","lat":35.717864,"lon":139.666968},{"name":"アプリ児童デイサービス沼袋","province":"東京都","city":"中野区","address":"中野区沼袋2-28-34","lat":35.722075,"lon":139.665684},{"name":"space","province":"東京都","city":"中野区","address":"中野区上鷺宮4-6-20イサカビル2階","lat":35.733861,"lon":139.630162},{"name":"ｓｐａｃｅ　Ｋｉｄ’ｓ．ｃｏｎ　鷺ノ宮","province":"東京都","city":"中野区","address":"中野区上鷺宮5-8-5ベル・ヴィベール102号","lat":35.727484,"lon":139.627135},{"name":"中野区子ども家庭支援センター","province":"東京都","city":"中野区","address":"中野区中野4-8-1中野区役所3階","lat":35.707287,"lon":139.66381},{"name":"中野区子ども・若者支援センター","province":"東京都","city":"中野区","address":"中野区中央1-41-2","lat":35.69867,"lon":139.68387},{"name":"中野区子ども家庭支援センター","province":"東京都","city":"中野区","address":"中野区新井1-9-1","lat":35.71022,"lon":139.66594},{"name":"ハッピー・テラス中野","province":"東京都","city":"中野区","address":"中野区中野4-7-1野口ビル7階","lat":35.709726,"lon":139.66348},{"name":"Ｐｕｒ　ａｉｌｅ　新井薬師","province":"東京都","city":"中野区","address":"中野区上高田5-35-9-1階","lat":35.716528,"lon":139.673759},{"name":"スタジオそら東中野","province":"東京都","city":"中野区","address":"中野区東中野4-27-33エムエス東中野ビル1階","lat":35.710963,"lon":139.689136},{"name":"発達支援センタージョイナス東中野教室","province":"東京都","city":"中野区","address":"中野区東中野1-50-2オクト森ビル1階","lat":35.705694,"lon":139.686381},{"name":"フリップ","province":"東京都","city":"中野区","address":"中野区中央5-38-13エスエス10A202","lat":35.699649,"lon":139.667274},{"name":"パソコンあいだっく","province":"東京都","city":"中野区","address":"中野区本町2-45-13山手ビル7階","lat":35.695861,"lon":139.682392},{"name":"アトリエあいだっく新中野","province":"東京都","city":"中野区","address":"中野区本町6-35-14アダチビル3階","lat":35.697244,"lon":139.662461},{"name":"おでんくらぶ","province":"東京都","city":"中野区","address":"中野区本町6-36-5シーアイマンション新中野102号","lat":35.697261,"lon":139.662286},{"name":"アトリエあいだっく","province":"東京都","city":"中野区","address":"中野区弥生町2-10-1霜田ビル1階","lat":35.692992,"lon":139.675802},{"name":"中野区療育センターゆめなりあ","province":"東京都","city":"中野区","address":"中野区弥生町5-5-2","lat":35.686165,"lon":139.666333},{"name":"スパーク中野センター","province":"東京都","city":"中野区","address":"中野区弥生町4-25-1","lat":35.686345,"lon":139.669297},{"name":"中野区　放課後デイサービスセンター　みずいろ","province":"東京都","city":"中野区","address":"中野区丸山一丁目17番2号","lat":35.725683,"lon":139.657739},{"name":"中野区子ども発達センター　たんぽぽ","province":"東京都","city":"中野区","address":"中野区丸山一丁目17番2号","lat":35.725683,"lon":139.657739},{"name":"Ｃａｔｃｈ　ａｎｄ　Ｓｍｉｌｅ","province":"東京都","city":"中野区","address":"中野区江古田4-7-3金子ビル2階","lat":35.724363,"lon":139.662826},{"name":"さくらそうキッズ","province":"東京都","city":"中野区","address":"中野区沼袋一丁目2番地7号","lat":35.717864,"lon":139.666968},{"name":"アプリ児童デイサービス沼袋","province":"東京都","city":"中野区","address":"中野区沼袋2-28-34","lat":35.722075,"lon":139.665684},{"name":"space","province":"東京都","city":"中野区","address":"中野区上鷺宮4-6-20イサカビル2階","lat":35.733861,"lon":139.630162},{"name":"ｓｐａｃｅ　Ｋｉｄ’ｓ．ｃｏｎ　鷺ノ宮","province":"東京都","city":"中野区","address":"中野区上鷺宮5-8-5ベル・ヴィベール102号","lat":35.727484,"lon":139.627135},{"name":"中野区子ども家庭支援センター","province":"東京都","city":"中野区","address":"中野区中野4-8-1中野区役所3階","lat":35.707287,"lon":139.66381},{"name":"中野区子ども・若者支援センター","province":"東京都","city":"中野区","address":"中野区中央1-41-2","lat":35.69867,"lon":139.68387},{"name":"中野区子ども家庭支援センター","province":"東京都","city":"中野区","address":"中野区新井1-9-1","lat":35.71022,"lon":139.66594},{"name":"ハッピー・テラス中野","province":"東京都","city":"中野区","address":"中野区中野4-7-1野口ビル7階","lat":35.709726,"lon":139.66348},{"name":"Ｐｕｒ　ａｉｌｅ　新井薬師","province":"東京都","city":"中野区","address":"中野区上高田5-35-9-1階","lat":35.716528,"lon":139.673759},{"name":"スタジオそら東中野","province":"東京都","city":"中野区","address":"中野区東中野4-27-33エムエス東中野ビル1階","lat":35.710963,"lon":139.689136},{"name":"発達支援センタージョイナス東中野教室","province":"東京都","city":"中野区","address":"中野区東中野1-50-2オクト森ビル1階","lat":35.705694,"lon":139.686381},{"name":"フリップ","province":"東京都","city":"中野区","address":"中野区中央5-38-13エスエス10A202","lat":35.699649,"lon":139.667274},{"name":"パソコンあいだっく","province":"東京都","city":"中野区","address":"中野区本町2-45-13山手ビル7階","lat":35.695861,"lon":139.682392},{"name":"アトリエあいだっく新中野","province":"東京都","city":"中野区","address":"中野区本町6-35-14アダチビル3階","lat":35.697244,"lon":139.662461},{"name":"おでんくらぶ","province":"東京都","city":"中野区","address":"中野区本町6-36-5シーアイマンション新中野102号","lat":35.697261,"lon":139.662286},{"name":"アトリエあいだっく","province":"東京都","city":"中野区","address":"中野区弥生町2-10-1霜田ビル1階","lat":35.692992,"lon":139.675802},{"name":"中野区療育センターゆめなりあ","province":"東京都","city":"中野区","address":"中野区弥生町5-5-2","lat":35.686165,"lon":139.666333},{"name":"スパーク中野センター","province":"東京都","city":"中野区","address":"中野区弥生町4-25-1","lat":35.686345,"lon":139.669297},{"name":"中野区　放課後デイサービスセンター　みずいろ","province":"東京都","city":"中野区","address":"中野区丸山一丁目17番2号","lat":35.725683,"lon":139.657739},{"name":"中野区子ども発達センター　たんぽぽ","province":"東京都","city":"中野区","address":"中野区丸山一丁目17番2号","lat":35.725683,"lon":139.657739},{"name":"Ｃａｔｃｈ　ａｎｄ　Ｓｍｉｌｅ","province":"東京都","city":"中野区","address":"中野区江古田4-7-3金子ビル2階","lat":35.724363,"lon":139.662826},{"name":"さくらそうキッズ","province":"東京都","city":"中野区","address":"中野区沼袋一丁目2番地7号","lat":35.717864,"lon":139.666968},{"name":"アプリ児童デイサービス沼袋","province":"東京都","city":"中野区","address":"中野区沼袋2-28-34","lat":35.722075,"lon":139.665684},{"name":"space","province":"東京都","city":"中野区","address":"中野区上鷺宮4-6-20イサカビル2階","lat":35.733861,"lon":139.630162},{"name":"ｓｐａｃｅ　Ｋｉｄ’ｓ．ｃｏｎ　鷺ノ宮","province":"東京都","city":"中野区","address":"中野区上鷺宮5-8-5ベル・ヴィベール102号","lat":35.727484,"lon":139.627135},{"name":"中野区子ども家庭支援センター","province":"東京都","city":"中野区","address":"中野区中野4-8-1中野区役所3階","lat":35.707287,"lon":139.66381},{"name":"中野区子ども・若者支援センター","province":"東京都","city":"中野区","address":"中野区中央1-41-2","lat":35.69867,"lon":139.68387},{"name":"中野区子ども家庭支援センター","province":"東京都","city":"中野区","address":"中野区新井1-9-1","lat":35.71022,"lon":139.66594},{"name":"ハッピー・テラス中野","province":"東京都","city":"中野区","address":"中野区中野4-7-1野口ビル7階","lat":35.709726,"lon":139.66348},{"name":"Ｐｕｒ　ａｉｌｅ　新井薬師","province":"東京都","city":"中野区","address":"中野区上高田5-35-9-1階","lat":35.716528,"lon":139.673759},{"name":"スタジオそら東中野","province":"東京都","city":"中野区","address":"中野区東中野4-27-33エムエス東中野ビル1階","lat":35.710963,"lon":139.689136},{"name":"発達支援センタージョイナス東中野教室","province":"東京都","city":"中野区","address":"中野区東中野1-50-2オクト森ビル1階","lat":35.705694,"lon":139.686381},{"name":"フリップ","province":"東京都","city":"中野区","address":"中野区中央5-38-13エスエス10A202","lat":35.699649,"lon":139.667274},{"name":"パソコンあいだっく","province":"東京都","city":"中野区","address":"中野区本町2-45-13山手ビル7階","lat":35.695861,"lon":139.682392},{"name":"アトリエあいだっく新中野","province":"東京都","city":"中野区","address":"中野区本町6-35-14アダチビル3階","lat":35.697244,"lon":139.662461},{"name":"おでんくらぶ","province":"東京都","city":"中野区","address":"中野区本町6-36-5シーアイマンション新中野102号","lat":35.697261,"lon":139.662286},{"name":"アトリエあいだっく","province":"東京都","city":"中野区","address":"中野区弥生町2-10-1霜田ビル1階","lat":35.692992,"lon":139.675802},{"name":"中野区療育センターゆめなりあ","province":"東京都","city":"中野区","address":"中野区弥生町5-5-2","lat":35.686165,"lon":139.666333},{"name":"スパーク中野センター","province":"東京都","city":"中野区","address":"中野区弥生町4-25-1","lat":35.686345,"lon":139.669297},{"name":"中野区　放課後デイサービスセンター　みずいろ","province":"東京都","city":"中野区","address":"中野区丸山一丁目17番2号","lat":35.725683,"lon":139.657739},{"name":"中野区子ども発達センター　たんぽぽ","province":"東京都","city":"中野区","address":"中野区丸山一丁目17番2号","lat":35.725683,"lon":139.657739},{"name":"Ｃａｔｃｈ　ａｎｄ　Ｓｍｉｌｅ","province":"東京都","city":"中野区","address":"中野区江古田4-7-3金子ビル2階","lat":35.724363,"lon":139.662826},{"name":"さくらそうキッズ","province":"東京都","city":"中野区","address":"中野区沼袋一丁目2番地7号","lat":35.717864,"lon":139.666968},{"name":"アプリ児童デイサービス沼袋","province":"東京都","city":"中野区","address":"中野区沼袋2-28-34","lat":35.722075,"lon":139.665684},{"name":"space","province":"東京都","city":"中野区","address":"中野区上鷺宮4-6-20イサカビル2階","lat":35.733861,"lon":139.630162},{"name":"ｓｐａｃｅ　Ｋｉｄ’ｓ．ｃｏｎ　鷺ノ宮","province":"東京都","city":"中野区","address":"中野区上鷺宮5-8-5ベル・ヴィベール102号","lat":35.727484,"lon":139.627135},{"name":"中野区子ども家庭支援センター","province":"東京都","city":"中野区","address":"中野区中野4-8-1中野区役所3階","lat":35.707287,"lon":139.66381},{"name":"中野区子ども・若者支援センター","province":"東京都","city":"中野区","address":"中野区中央1-41-2","lat":35.69867,"lon":139.68387},{"name":"中野区子ども家庭支援センター","province":"東京都","city":"中野区","address":"中野区新井1-9-1","lat":35.71022,"lon":139.66594},{"name":"ハッピー・テラス中野","province":"東京都","city":"中野区","address":"中野区中野4-7-1野口ビル7階","lat":35.709726,"lon":139.66348},{"name":"Ｐｕｒ　ａｉｌｅ　新井薬師","province":"東京都","city":"中野区","address":"中野区上高田5-35-9-1階","lat":35.716528,"lon":139.673759},{"name":"スタジオそら東中野","province":"東京都","city":"中野区","address":"中野区東中野4-27-33エムエス東中野ビル1階","lat":35.710963,"lon":139.689136},{"name":"発達支援センタージョイナス東中野教室","province":"東京都","city":"中野区","address":"中野区東中野1-50-2オクト森ビル1階","lat":35.705694,"lon":139.686381},{"name":"フリップ","province":"東京都","city":"中野区","address":"中野区中央5-38-13エスエス10A202","lat":35.699649,"lon":139.667274},{"name":"パソコンあいだっく","province":"東京都","city":"中野区","address":"中野区本町2-45-13山手ビル7階","lat":35.695861,"lon":139.682392},{"name":"アトリエあいだっく新中野","province":"東京都","city":"中野区","address":"中野区本町6-35-14アダチビル3階","lat":35.697244,"lon":139.662461},{"name":"おでんくらぶ","province":"東京都","city":"中野区","address":"中野区本町6-36-5シーアイマンション新中野102号","lat":35.697261,"lon":139.662286},{"name":"アトリエあいだっく","province":"東京都","city":"中野区","address":"中野区弥生町2-10-1霜田ビル1階","lat":35.692992,"lon":139.675802},{"name":"中野区療育センターゆめなりあ","province":"東京都","city":"中野区","address":"中野区弥生町5-5-2","lat":35.686165,"lon":139.666333},{"name":"スパーク中野センター","province":"東京都","city":"中野区","address":"中野区弥生町4-25-1","lat":35.686345,"lon":139.669297},{"name":"中野区　放課後デイサービスセンター　みずいろ","province":"東京都","city":"中野区","address":"中野区丸山一丁目17番2号","lat":35.725683,"lon":139.657739},{"name":"中野区子ども発達センター　たんぽぽ","province":"東京都","city":"中野区","address":"中野区丸山一丁目17番2号","lat":35.725683,"lon":139.657739},{"name":"Ｃａｔｃｈ　ａｎｄ　Ｓｍｉｌｅ","province":"東京都","city":"中野区","address":"中野区江古田4-7-3金子ビル2階","lat":35.724363,"lon":139.662826},{"name":"さくらそうキッズ","province":"東京都","city":"中野区","address":"中野区沼袋一丁目2番地7号","lat":35.717864,"lon":139.666968},{"name":"アプリ児童デイサービス沼袋","province":"東京都","city":"中野区","address":"中野区沼袋2-28-34","lat":35.722075,"lon":139.665684},{"name":"space","province":"東京都","city":"中野区","address":"中野区上鷺宮4-6-20イサカビル2階","lat":35.733861,"lon":139.630162},{"name":"ｓｐａｃｅ　Ｋｉｄ’ｓ．ｃｏｎ　鷺ノ宮","province":"東京都","city":"中野区","address":"中野区上鷺宮5-8-5ベル・ヴィベール102号","lat":35.727484,"lon":139.627135},{"name":"中野区子ども家庭支援センター","province":"東京都","city":"中野区","address":"中野区中野4-8-1中野区役所3階","lat":35.707287,"lon":139.66381},{"name":"中野区子ども・若者支援センター","province":"東京都","city":"中野区","address":"中野区中央1-41-2","lat":35.69867,"lon":139.68387},{"name":"中野区子ども家庭支援センター","province":"東京都","city":"中野区","address":"中野区新井1-9-1","lat":35.71022,"lon":139.66594},{"name":"ハッピー・テラス中野","province":"東京都","city":"中野区","address":"中野区中野4-7-1野口ビル7階","lat":35.709726,"lon":139.66348},{"name":"Ｐｕｒ　ａｉｌｅ　新井薬師","province":"東京都","city":"中野区","address":"中野区上高田5-35-9-1階","lat":35.716528,"lon":139.673759},{"name":"スタジオそら東中野","province":"東京都","city":"中野区","address":"中野区東中野4-27-33エムエス東中野ビル1階","lat":35.710963,"lon":139.689136},{"name":"発達支援センタージョイナス東中野教室","province":"東京都","city":"中野区","address":"中野区東中野1-50-2オクト森ビル1階","lat":35.705694,"lon":139.686381},{"name":"フリップ","province":"東京都","city":"中野区","address":"中野区中央5-38-13エスエス10A202","lat":35.699649,"lon":139.667274},{"name":"パソコンあいだっく","province":"東京都","city":"中野区","address":"中野区本町2-45-13山手ビル7階","lat":35.695861,"lon":139.682392},{"name":"アトリエあいだっく新中野","province":"東京都","city":"中野区","address":"中野区本町6-35-14アダチビル3階","lat":35.697244,"lon":139.662461},{"name":"おでんくらぶ","province":"東京都","city":"中野区","address":"中野区本町6-36-5シーアイマンション新中野102号","lat":35.697261,"lon":139.662286},{"name":"アトリエあいだっく","province":"東京都","city":"中野区","address":"中野区弥生町2-10-1霜田ビル1階","lat":35.692992,"lon":139.675802},{"name":"中野区療育センターゆめなりあ","province":"東京都","city":"中野区","address":"中野区弥生町5-5-2","lat":35.686165,"lon":139.666333},{"name":"スパーク中野センター","province":"東京都","city":"中野区","address":"中野区弥生町4-25-1","lat":35.686345,"lon":139.669297},{"name":"中野区　放課後デイサービスセンター　みずいろ","province":"東京都","city":"中野区","address":"中野区丸山一丁目17番2号","lat":35.725683,"lon":139.657739},{"name":"中野区子ども発達センター　たんぽぽ","province":"東京都","city":"中野区","address":"中野区丸山一丁目17番2号","lat":35.725683,"lon":139.657739},{"name":"Ｃａｔｃｈ　ａｎｄ　Ｓｍｉｌｅ","province":"東京都","city":"中野区","address":"中野区江古田4-7-3金子ビル2階","lat":35.724363,"lon":139.662826},{"name":"さくらそうキッズ","province":"東京都","city":"中野区","address":"中野区沼袋一丁目2番地7号","lat":35.717864,"lon":139.666968},{"name":"アプリ児童デイサービス沼袋","province":"東京都","city":"中野区","address":"中野区沼袋2-28-34","lat":35.722075,"lon":139.665684},{"name":"space","province":"東京都","city":"中野区","address":"中野区上鷺宮4-6-20イサカビル2階","lat":35.733861,"lon":139.630162},{"name":"ｓｐａｃｅ　Ｋｉｄ’ｓ．ｃｏｎ　鷺ノ宮","province":"東京都","city":"中野区","address":"中野区上鷺宮5-8-5ベル・ヴィベール102号","lat":35.727484,"lon":139.627135},{"name":"中野区子ども家庭支援センター","province":"東京都","city":"中野区","address":"中野区中野4-8-1中野区役所3階","lat":35.707287,"lon":139.66381},{"name":"中野区子ども・若者支援センター","province":"東京都","city":"中野区","address":"中野区中央1-41-2","lat":35.69867,"lon":139.68387},{"name":"中野区子ども家庭支援センター","province":"東京都","city":"中野区","address":"中野区新井1-9-1","lat":35.71022,"lon":139.66594},{"name":"ハッピー・テラス中野","province":"東京都","city":"中野区","address":"中野区中野4-7-1野口ビル7階","lat":35.709726,"lon":139.66348},{"name":"Ｐｕｒ　ａｉｌｅ　新井薬師","province":"東京都","city":"中野区","address":"中野区上高田5-35-9-1階","lat":35.716528,"lon":139.673759},{"name":"スタジオそら東中野","province":"東京都","city":"中野区","address":"中野区東中野4-27-33エムエス東中野ビル1階","lat":35.710963,"lon":139.689136},{"name":"発達支援センタージョイナス東中野教室","province":"東京都","city":"中野区","address":"中野区東中野1-50-2オクト森ビル1階","lat":35.705694,"lon":139.686381},{"name":"フリップ","province":"東京都","city":"中野区","address":"中野区中央5-38-13エスエス10A202","lat":35.699649,"lon":139.667274},{"name":"パソコンあいだっく","province":"東京都","city":"中野区","address":"中野区本町2-45-13山手ビル7階","lat":35.695861,"lon":139.682392},{"name":"アトリエあいだっく新中野","province":"東京都","city":"中野区","address":"中野区本町6-35-14アダチビル3階","lat":35.697244,"lon":139.662461},{"name":"おでんくらぶ","province":"東京都","city":"中野区","address":"中野区本町6-36-5シーアイマンション新中野102号","lat":35.697261,"lon":139.662286},{"name":"アトリエあいだっく","province":"東京都","city":"中野区","address":"中野区弥生町2-10-1霜田ビル1階","lat":35.692992,"lon":139.675802},{"name":"中野区療育センターゆめなりあ","province":"東京都","city":"中野区","address":"中野区弥生町5-5-2","lat":35.686165,"lon":139.666333},{"name":"スパーク中野センター","province":"東京都","city":"中野区","address":"中野区弥生町4-25-1","lat":35.686345,"lon":139.669297},{"name":"中野区　放課後デイサービスセンター　みずいろ","province":"東京都","city":"中野区","address":"中野区丸山一丁目17番2号","lat":35.725683,"lon":139.657739},{"name":"中野区子ども発達センター　たんぽぽ","province":"東京都","city":"中野区","address":"中野区丸山一丁目17番2号","lat":35.725683,"lon":139.657739},{"name":"Ｃａｔｃｈ　ａｎｄ　Ｓｍｉｌｅ","province":"東京都","city":"中野区","address":"中野区江古田4-7-3金子ビル2階","lat":35.724363,"lon":139.662826},{"name":"さくらそうキッズ","province":"東京都","city":"中野区","address":"中野区沼袋一丁目2番地7号","lat":35.717864,"lon":139.666968},{"name":"アプリ児童デイサービス沼袋","province":"東京都","city":"中野区","address":"中野区沼袋2-28-34","lat":35.722075,"lon":139.665684},{"name":"space","province":"東京都","city":"中野区","address":"中野区上鷺宮4-6-20イサカビル2階","lat":35.733861,"lon":139.630162},{"name":"ｓｐａｃｅ　Ｋｉｄ’ｓ．ｃｏｎ　鷺ノ宮","province":"東京都","city":"中野区","address":"中野区上鷺宮5-8-5ベル・ヴィベール102号","lat":35.727484,"lon":139.627135},{"name":"中野区子ども家庭支援センター","province":"東京都","city":"中野区","address":"中野区中野4-8-1中野区役所3階","lat":35.707287,"lon":139.66381},{"name":"中野区子ども・若者支援センター","province":"東京都","city":"中野区","address":"中野区中央1-41-2","lat":35.69867,"lon":139.68387},{"name":"中野区子ども家庭支援センター","province":"東京都","city":"中野区","address":"中野区新井1-9-1","lat":35.71022,"lon":139.66594},{"name":"ハッピー・テラス中野","province":"東京都","city":"中野区","address":"中野区中野4-7-1野口ビル7階","lat":35.709726,"lon":139.66348},{"name":"Ｐｕｒ　ａｉｌｅ　新井薬師","province":"東京都","city":"中野区","address":"中野区上高田5-35-9-1階","lat":35.716528,"lon":139.673759},{"name":"スタジオそら東中野","province":"東京都","city":"中野区","address":"中野区東中野4-27-33エムエス東中野ビル1階","lat":35.710963,"lon":139.689136},{"name":"発達支援センタージョイナス東中野教室","province":"東京都","city":"中野区","address":"中野区東中野1-50-2オクト森ビル1階","lat":35.705694,"lon":139.686381},{"name":"フリップ","province":"東京都","city":"中野区","address":"中野区中央5-38-13エスエス10A202","lat":35.699649,"lon":139.667274},{"name":"パソコンあいだっく","province":"東京都","city":"中野区","address":"中野区本町2-45-13山手ビル7階","lat":35.695861,"lon":139.682392},{"name":"アトリエあいだっく新中野","province":"東京都","city":"中野区","address":"中野区本町6-35-14アダチビル3階","lat":35.697244,"lon":139.662461},{"name":"おでんくらぶ","province":"東京都","city":"中野区","address":"中野区本町6-36-5シーアイマンション新中野102号","lat":35.697261,"lon":139.662286},{"name":"アトリエあいだっく","province":"東京都","city":"中野区","address":"中野区弥生町2-10-1霜田ビル1階","lat":35.692992,"lon":139.675802},{"name":"中野区療育センターゆめなりあ","province":"東京都","city":"中野区","address":"中野区弥生町5-5-2","lat":35.686165,"lon":139.666333},{"name":"スパーク中野センター","province":"東京都","city":"中野区","address":"中野区弥生町4-25-1","lat":35.686345,"lon":139.669297},{"name":"中野区　放課後デイサービスセンター　みずいろ","province":"東京都","city":"中野区","address":"中野区丸山一丁目17番2号","lat":35.725683,"lon":139.657739},{"name":"中野区子ども発達センター　たんぽぽ","province":"東京都","city":"中野区","address":"中野区丸山一丁目17番2号","lat":35.725683,"lon":139.657739},{"name":"Ｃａｔｃｈ　ａｎｄ　Ｓｍｉｌｅ","province":"東京都","city":"中野区","address":"中野区江古田4-7-3金子ビル2階","lat":35.724363,"lon":139.662826},{"name":"さくらそうキッズ","province":"東京都","city":"中野区","address":"中野区沼袋一丁目2番地7号","lat":35.717864,"lon":139.666968},{"name":"アプリ児童デイサービス沼袋","province":"東京都","city":"中野区","address":"中野区沼袋2-28-34","lat":35.722075,"lon":139.665684},{"name":"space","province":"東京都","city":"中野区","address":"中野区上鷺宮4-6-20イサカビル2階","lat":35.733861,"lon":139.630162},{"name":"ｓｐａｃｅ　Ｋｉｄ’ｓ．ｃｏｎ　鷺ノ宮","province":"東京都","city":"中野区","address":"中野区上鷺宮5-8-5ベル・ヴィベール102号","lat":35.727484,"lon":139.627135},{"name":"中野区子ども家庭支援センター","province":"東京都","city":"中野区","address":"中野区中野4-8-1中野区役所3階","lat":35.707287,"lon":139.66381},{"name":"中野区子ども・若者支援センター","province":"東京都","city":"中野区","address":"中野区中央1-41-2","lat":35.69867,"lon":139.68387},{"name":"中野区子ども家庭支援センター","province":"東京都","city":"中野区","address":"中野区新井1-9-1","lat":35.71022,"lon":139.66594},{"name":"ハッピー・テラス中野","province":"東京都","city":"中野区","address":"中野区中野4-7-1野口ビル7階","lat":35.709726,"lon":139.66348},{"name":"Ｐｕｒ　ａｉｌｅ　新井薬師","province":"東京都","city":"中野区","address":"中野区上高田5-35-9-1階","lat":35.716528,"lon":139.673759},{"name":"スタジオそら東中野","province":"東京都","city":"中野区","address":"中野区東中野4-27-33エムエス東中野ビル1階","lat":35.710963,"lon":139.689136},{"name":"発達支援センタージョイナス東中野教室","province":"東京都","city":"中野区","address":"中野区東中野1-50-2オクト森ビル1階","lat":35.705694,"lon":139.686381},{"name":"フリップ","province":"東京都","city":"中野区","address":"中野区中央5-38-13エスエス10A202","lat":35.699649,"lon":139.667274},{"name":"パソコンあいだっく","province":"東京都","city":"中野区","address":"中野区本町2-45-13山手ビル7階","lat":35.695861,"lon":139.682392},{"name":"アトリエあいだっく新中野","province":"東京都","city":"中野区","address":"中野区本町6-35-14アダチビル3階","lat":35.697244,"lon":139.662461},{"name":"おでんくらぶ","province":"東京都","city":"中野区","address":"中野区本町6-36-5シーアイマンション新中野102号","lat":35.697261,"lon":139.662286},{"name":"アトリエあいだっく","province":"東京都","city":"中野区","address":"中野区弥生町2-10-1霜田ビル1階","lat":35.692992,"lon":139.675802},{"name":"中野区療育センターゆめなりあ","province":"東京都","city":"中野区","address":"中野区弥生町5-5-2","lat":35.686165,"lon":139.666333},{"name":"スパーク中野センター","province":"東京都","city":"中野区","address":"中野区弥生町4-25-1","lat":35.686345,"lon":139.669297},{"name":"中野区　放課後デイサービスセンター　みずいろ","province":"東京都","city":"中野区","address":"中野区丸山一丁目17番2号","lat":35.725683,"lon":139.657739},{"name":"中野区子ども発達センター　たんぽぽ","province":"東京都","city":"中野区","address":"中野区丸山一丁目17番2号","lat":35.725683,"lon":139.657739},{"name":"Ｃａｔｃｈ　ａｎｄ　Ｓｍｉｌｅ","province":"東京都","city":"中野区","address":"中野区江古田4-7-3金子ビル2階","lat":35.724363,"lon":139.662826},{"name":"さくらそうキッズ","province":"東京都","city":"中野区","address":"中野区沼袋一丁目2番地7号","lat":35.717864,"lon":139.666968},{"name":"アプリ児童デイサービス沼袋","province":"東京都","city":"中野区","address":"中野区沼袋2-28-34","lat":35.722075,"lon":139.665684},{"name":"space","province":"東京都","city":"中野区","address":"中野区上鷺宮4-6-20イサカビル2階","lat":35.733861,"lon":139.630162},{"name":"ｓｐａｃｅ　Ｋｉｄ’ｓ．ｃｏｎ　鷺ノ宮","province":"東京都","city":"中野区","address":"中野区上鷺宮5-8-5ベル・ヴィベール102号","lat":35.727484,"lon":139.627135},{"name":"中野区子ども家庭支援センター","province":"東京都","city":"中野区","address":"中野区中野4-8-1中野区役所3階","lat":35.707287,"lon":139.66381},{"name":"中野区子ども・若者支援センター","province":"東京都","city":"中野区","address":"中野区中央1-41-2","lat":35.69867,"lon":139.68387},{"name":"中野区子ども家庭支援センター","province":"東京都","city":"中野区","address":"中野区新井1-9-1","lat":35.71022,"lon":139.66594},{"name":"ハッピー・テラス中野","province":"東京都","city":"中野区","address":"中野区中野4-7-1野口ビル7階","lat":35.709726,"lon":139.66348},{"name":"Ｐｕｒ　ａｉｌｅ　新井薬師","province":"東京都","city":"中野区","address":"中野区上高田5-35-9-1階","lat":35.716528,"lon":139.673759},{"name":"スタジオそら東中野","province":"東京都","city":"中野区","address":"中野区東中野4-27-33エムエス東中野ビル1階","lat":35.710963,"lon":139.689136},{"name":"発達支援センタージョイナス東中野教室","province":"東京都","city":"中野区","address":"中野区東中野1-50-2オクト森ビル1階","lat":35.705694,"lon":139.686381},{"name":"フリップ","province":"東京都","city":"中野区","address":"中野区中央5-38-13エスエス10A202","lat":35.699649,"lon":139.667274},{"name":"パソコンあいだっく","province":"東京都","city":"中野区","address":"中野区本町2-45-13山手ビル7階","lat":35.695861,"lon":139.682392},{"name":"アトリエあいだっく新中野","province":"東京都","city":"中野区","address":"中野区本町6-35-14アダチビル3階","lat":35.697244,"lon":139.662461},{"name":"おでんくらぶ","province":"東京都","city":"中野区","address":"中野区本町6-36-5シーアイマンション新中野102号","lat":35.697261,"lon":139.662286},{"name":"アトリエあいだっく","province":"東京都","city":"中野区","address":"中野区弥生町2-10-1霜田ビル1階","lat":35.692992,"lon":139.675802},{"name":"中野区療育センターゆめなりあ","province":"東京都","city":"中野区","address":"中野区弥生町5-5-2","lat":35.686165,"lon":139.666333},{"name":"スパーク中野センター","province":"東京都","city":"中野区","address":"中野区弥生町4-25-1","lat":35.686345,"lon":139.669297},{"name":"中野区　放課後デイサービスセンター　みずいろ","province":"東京都","city":"中野区","address":"中野区丸山一丁目17番2号","lat":35.725683,"lon":139.657739},{"name":"中野区子ども発達センター　たんぽぽ","province":"東京都","city":"中野区","address":"中野区丸山一丁目17番2号","lat":35.725683,"lon":139.657739},{"name":"Ｃａｔｃｈ　ａｎｄ　Ｓｍｉｌｅ","province":"東京都","city":"中野区","address":"中野区江古田4-7-3金子ビル2階","lat":35.724363,"lon":139.662826},{"name":"さくらそうキッズ","province":"東京都","city":"中野区","address":"中野区沼袋一丁目2番地7号","lat":35.717864,"lon":139.666968},{"name":"アプリ児童デイサービス沼袋","province":"東京都","city":"中野区","address":"中野区沼袋2-28-34","lat":35.722075,"lon":139.665684},{"name":"space","province":"東京都","city":"中野区","address":"中野区上鷺宮4-6-20イサカビル2階","lat":35.733861,"lon":139.630162},{"name":"ｓｐａｃｅ　Ｋｉｄ’ｓ．ｃｏｎ　鷺ノ宮","province":"東京都","city":"中野区","address":"中野区上鷺宮5-8-5ベル・ヴィベール102号","lat":35.727484,"lon":139.627135},{"name":"中野区子ども家庭支援センター","province":"東京都","city":"中野区","address":"中野区中野4-8-1中野区役所3階","lat":35.707287,"lon":139.66381},{"name":"中野区子ども・若者支援センター","province":"東京都","city":"中野区","address":"中野区中央1-41-2","lat":35.69867,"lon":139.68387},{"name":"中野区子ども家庭支援センター","province":"東京都","city":"中野区","address":"中野区新井1-9-1","lat":35.71022,"lon":139.66594},{"name":"ハッピー・テラス中野","province":"東京都","city":"中野区","address":"中野区中野4-7-1野口ビル7階","lat":35.709726,"lon":139.66348},{"name":"Ｐｕｒ　ａｉｌｅ　新井薬師","province":"東京都","city":"中野区","address":"中野区上高田5-35-9-1階","lat":35.716528,"lon":139.673759},{"name":"スタジオそら東中野","province":"東京都","city":"中野区","address":"中野区東中野4-27-33エムエス東中野ビル1階","lat":35.710963,"lon":139.689136},{"name":"発達支援センタージョイナス東中野教室","province":"東京都","city":"中野区","address":"中野区東中野1-50-2オクト森ビル1階","lat":35.705694,"lon":139.686381},{"name":"フリップ","province":"東京都","city":"中野区","address":"中野区中央5-38-13エスエス10A202","lat":35.699649,"lon":139.667274},{"name":"パソコンあいだっく","province":"東京都","city":"中野区","address":"中野区本町2-45-13山手ビル7階","lat":35.695861,"lon":139.682392},{"name":"アトリエあいだっく新中野","province":"東京都","city":"中野区","address":"中野区本町6-35-14アダチビル3階","lat":35.697244,"lon":139.662461},{"name":"おでんくらぶ","province":"東京都","city":"中野区","address":"中野区本町6-36-5シーアイマンション新中野102号","lat":35.697261,"lon":139.662286},{"name":"アトリエあいだっく","province":"東京都","city":"中野区","address":"中野区弥生町2-10-1霜田ビル1階","lat":35.692992,"lon":139.675802},{"name":"中野区療育センターゆめなりあ","province":"東京都","city":"中野区","address":"中野区弥生町5-5-2","lat":35.686165,"lon":139.666333},{"name":"スパーク中野センター","province":"東京都","city":"中野区","address":"中野区弥生町4-25-1","lat":35.686345,"lon":139.669297},{"name":"中野区　放課後デイサービスセンター　みずいろ","province":"東京都","city":"中野区","address":"中野区丸山一丁目17番2号","lat":35.725683,"lon":139.657739},{"name":"中野区子ども発達センター　たんぽぽ","province":"東京都","city":"中野区","address":"中野区丸山一丁目17番2号","lat":35.725683,"lon":139.657739},{"name":"Ｃａｔｃｈ　ａｎｄ　Ｓｍｉｌｅ","province":"東京都","city":"中野区","address":"中野区江古田4-7-3金子ビル2階","lat":35.724363,"lon":139.662826},{"name":"さくらそうキッズ","province":"東京都","city":"中野区","address":"中野区沼袋一丁目2番地7号","lat":35.717864,"lon":139.666968},{"name":"アプリ児童デイサービス沼袋","province":"東京都","city":"中野区","address":"中野区沼袋2-28-34","lat":35.722075,"lon":139.665684},{"name":"space","province":"東京都","city":"中野区","address":"中野区上鷺宮4-6-20イサカビル2階","lat":35.733861,"lon":139.630162},{"name":"ｓｐａｃｅ　Ｋｉｄ’ｓ．ｃｏｎ　鷺ノ宮","province":"東京都","city":"中野区","address":"中野区上鷺宮5-8-5ベル・ヴィベール102号","lat":35.727484,"lon":139.627135},{"name":"中野区子ども家庭支援センター","province":"東京都","city":"中野区","address":"中野区中野4-8-1中野区役所3階","lat":35.707287,"lon":139.66381},{"name":"中野区子ども・若者支援センター","province":"東京都","city":"中野区","address":"中野区中央1-41-2","lat":35.69867,"lon":139.68387},{"name":"中野区子ども家庭支援センター","province":"東京都","city":"中野区","address":"中野区新井1-9-1","lat":35.71022,"lon":139.66594},{"name":"ハッピー・テラス中野","province":"東京都","city":"中野区","address":"中野区中野4-7-1野口ビル7階","lat":35.709726,"lon":139.66348},{"name":"Ｐｕｒ　ａｉｌｅ　新井薬師","province":"東京都","city":"中野区","address":"中野区上高田5-35-9-1階","lat":35.716528,"lon":139.673759},{"name":"スタジオそら東中野","province":"東京都","city":"中野区","address":"中野区東中野4-27-33エムエス東中野ビル1階","lat":35.710963,"lon":139.689136},{"name":"発達支援センタージョイナス東中野教室","province":"東京都","city":"中野区","address":"中野区東中野1-50-2オクト森ビル1階","lat":35.705694,"lon":139.686381},{"name":"フリップ","province":"東京都","city":"中野区","address":"中野区中央5-38-13エスエス10A202","lat":35.699649,"lon":139.667274},{"name":"パソコンあいだっく","province":"東京都","city":"中野区","address":"中野区本町2-45-13山手ビル7階","lat":35.695861,"lon":139.682392},{"name":"アトリエあいだっく新中野","province":"東京都","city":"中野区","address":"中野区本町6-35-14アダチビル3階","lat":35.697244,"lon":139.662461},{"name":"おでんくらぶ","province":"東京都","city":"中野区","address":"中野区本町6-36-5シーアイマンション新中野102号","lat":35.697261,"lon":139.662286},{"name":"アトリエあいだっく","province":"東京都","city":"中野区","address":"中野区弥生町2-10-1霜田ビル1階","lat":35.692992,"lon":139.675802},{"name":"中野区療育センターゆめなりあ","province":"東京都","city":"中野区","address":"中野区弥生町5-5-2","lat":35.686165,"lon":139.666333},{"name":"スパーク中野センター","province":"東京都","city":"中野区","address":"中野区弥生町4-25-1","lat":35.686345,"lon":139.669297},{"name":"中野区　放課後デイサービスセンター　みずいろ","province":"東京都","city":"中野区","address":"中野区丸山一丁目17番2号","lat":35.725683,"lon":139.657739},{"name":"中野区子ども発達センター　たんぽぽ","province":"東京都","city":"中野区","address":"中野区丸山一丁目17番2号","lat":35.725683,"lon":139.657739},{"name":"Ｃａｔｃｈ　ａｎｄ　Ｓｍｉｌｅ","province":"東京都","city":"中野区","address":"中野区江古田4-7-3金子ビル2階","lat":35.724363,"lon":139.662826},{"name":"さくらそうキッズ","province":"東京都","city":"中野区","address":"中野区沼袋一丁目2番地7号","lat":35.717864,"lon":139.666968},{"name":"アプリ児童デイサービス沼袋","province":"東京都","city":"中野区","address":"中野区沼袋2-28-34","lat":35.722075,"lon":139.665684},{"name":"space","province":"東京都","city":"中野区","address":"中野区上鷺宮4-6-20イサカビル2階","lat":35.733861,"lon":139.630162},{"name":"ｓｐａｃｅ　Ｋｉｄ’ｓ．ｃｏｎ　鷺ノ宮","province":"東京都","city":"中野区","address":"中野区上鷺宮5-8-5ベル・ヴィベール102号","lat":35.727484,"lon":139.627135},{"name":"中野区子ども家庭支援センター","province":"東京都","city":"中野区","address":"中野区中野4-8-1中野区役所3階","lat":35.707287,"lon":139.66381},{"name":"中野区子ども・若者支援センター","province":"東京都","city":"中野区","address":"中野区中央1-41-2","lat":35.69867,"lon":139.68387},{"name":"中野区子ども家庭支援センター","province":"東京都","city":"中野区","address":"中野区新井1-9-1","lat":35.71022,"lon":139.66594},{"name":"ハッピー・テラス中野","province":"東京都","city":"中野区","address":"中野区中野4-7-1野口ビル7階","lat":35.709726,"lon":139.66348},{"name":"Ｐｕｒ　ａｉｌｅ　新井薬師","province":"東京都","city":"中野区","address":"中野区上高田5-35-9-1階","lat":35.716528,"lon":139.673759},{"name":"スタジオそら東中野","province":"東京都","city":"中野区","address":"中野区東中野4-27-33エムエス東中野ビル1階","lat":35.710963,"lon":139.689136},{"name":"発達支援センタージョイナス東中野教室","province":"東京都","city":"中野区","address":"中野区東中野1-50-2オクト森ビル1階","lat":35.705694,"lon":139.686381},{"name":"フリップ","province":"東京都","city":"中野区","address":"中野区中央5-38-13エスエス10A202","lat":35.699649,"lon":139.667274},{"name":"パソコンあいだっく","province":"東京都","city":"中野区","address":"中野区本町2-45-13山手ビル7階","lat":35.695861,"lon":139.682392},{"name":"アトリエあいだっく新中野","province":"東京都","city":"中野区","address":"中野区本町6-35-14アダチビル3階","lat":35.697244,"lon":139.662461},{"name":"おでんくらぶ","province":"東京都","city":"中野区","address":"中野区本町6-36-5シーアイマンション新中野102号","lat":35.697261,"lon":139.662286},{"name":"アトリエあいだっく","province":"東京都","city":"中野区","address":"中野区弥生町2-10-1霜田ビル1階","lat":35.692992,"lon":139.675802},{"name":"中野区療育センターゆめなりあ","province":"東京都","city":"中野区","address":"中野区弥生町5-5-2","lat":35.686165,"lon":139.666333},{"name":"スパーク中野センター","province":"東京都","city":"中野区","address":"中野区弥生町4-25-1","lat":35.686345,"lon":139.669297},{"name":"中野区　放課後デイサービスセンター　みずいろ","province":"東京都","city":"中野区","address":"中野区丸山一丁目17番2号","lat":35.725683,"lon":139.657739},{"name":"中野区子ども発達センター　たんぽぽ","province":"東京都","city":"中野区","address":"中野区丸山一丁目17番2号","lat":35.725683,"lon":139.657739},{"name":"Ｃａｔｃｈ　ａｎｄ　Ｓｍｉｌｅ","province":"東京都","city":"中野区","address":"中野区江古田4-7-3金子ビル2階","lat":35.724363,"lon":139.662826},{"name":"さくらそうキッズ","province":"東京都","city":"中野区","address":"中野区沼袋一丁目2番地7号","lat":35.717864,"lon":139.666968},{"name":"アプリ児童デイサービス沼袋","province":"東京都","city":"中野区","address":"中野区沼袋2-28-34","lat":35.722075,"lon":139.665684},{"name":"space","province":"東京都","city":"中野区","address":"中野区上鷺宮4-6-20イサカビル2階","lat":35.733861,"lon":139.630162},{"name":"ｓｐａｃｅ　Ｋｉｄ’ｓ．ｃｏｎ　鷺ノ宮","province":"東京都","city":"中野区","address":"中野区上鷺宮5-8-5ベル・ヴィベール102号","lat":35.727484,"lon":139.627135},{"name":"中野区子ども家庭支援センター","province":"東京都","city":"中野区","address":"中野区中野4-8-1中野区役所3階","lat":35.707287,"lon":139.66381},{"name":"中野区子ども・若者支援センター","province":"東京都","city":"中野区","address":"中野区中央1-41-2","lat":35.69867,"lon":139.68387},{"name":"中野区子ども家庭支援センター","province":"東京都","city":"中野区","address":"中野区新井1-9-1","lat":35.71022,"lon":139.66594},{"name":"ハッピー・テラス中野","province":"東京都","city":"中野区","address":"中野区中野4-7-1野口ビル7階","lat":35.709726,"lon":139.66348},{"name":"Ｐｕｒ　ａｉｌｅ　新井薬師","province":"東京都","city":"中野区","address":"中野区上高田5-35-9-1階","lat":35.716528,"lon":139.673759},{"name":"スタジオそら東中野","province":"東京都","city":"中野区","address":"中野区東中野4-27-33エムエス東中野ビル1階","lat":35.710963,"lon":139.689136},{"name":"発達支援センタージョイナス東中野教室","province":"東京都","city":"中野区","address":"中野区東中野1-50-2オクト森ビル1階","lat":35.705694,"lon":139.686381},{"name":"フリップ","province":"東京都","city":"中野区","address":"中野区中央5-38-13エスエス10A202","lat":35.699649,"lon":139.667274},{"name":"パソコンあいだっく","province":"東京都","city":"中野区","address":"中野区本町2-45-13山手ビル7階","lat":35.695861,"lon":139.682392},{"name":"アトリエあいだっく新中野","province":"東京都","city":"中野区","address":"中野区本町6-35-14アダチビル3階","lat":35.697244,"lon":139.662461},{"name":"おでんくらぶ","province":"東京都","city":"中野区","address":"中野区本町6-36-5シーアイマンション新中野102号","lat":35.697261,"lon":139.662286},{"name":"アトリエあいだっく","province":"東京都","city":"中野区","address":"中野区弥生町2-10-1霜田ビル1階","lat":35.692992,"lon":139.675802},{"name":"中野区療育センターゆめなりあ","province":"東京都","city":"中野区","address":"中野区弥生町5-5-2","lat":35.686165,"lon":139.666333},{"name":"スパーク中野センター","province":"東京都","city":"中野区","address":"中野区弥生町4-25-1","lat":35.686345,"lon":139.669297},{"name":"中野区　放課後デイサービスセンター　みずいろ","province":"東京都","city":"中野区","address":"中野区丸山一丁目17番2号","lat":35.725683,"lon":139.657739},{"name":"中野区子ども発達センター　たんぽぽ","province":"東京都","city":"中野区","address":"中野区丸山一丁目17番2号","lat":35.725683,"lon":139.657739},{"name":"Ｃａｔｃｈ　ａｎｄ　Ｓｍｉｌｅ","province":"東京都","city":"中野区","address":"中野区江古田4-7-3金子ビル2階","lat":35.724363,"lon":139.662826},{"name":"さくらそうキッズ","province":"東京都","city":"中野区","address":"中野区沼袋一丁目2番地7号","lat":35.717864,"lon":139.666968},{"name":"アプリ児童デイサービス沼袋","province":"東京都","city":"中野区","address":"中野区沼袋2-28-34","lat":35.722075,"lon":139.665684},{"name":"space","province":"東京都","city":"中野区","address":"中野区上鷺宮4-6-20イサカビル2階","lat":35.733861,"lon":139.630162},{"name":"ｓｐａｃｅ　Ｋｉｄ’ｓ．ｃｏｎ　鷺ノ宮","province":"東京都","city":"中野区","address":"中野区上鷺宮5-8-5ベル・ヴィベール102号","lat":35.727484,"lon":139.627135},{"name":"中野区子ども家庭支援センター","province":"東京都","city":"中野区","address":"中野区中野4-8-1中野区役所3階","lat":35.707287,"lon":139.66381},{"name":"中野区子ども・若者支援センター","province":"東京都","city":"中野区","address":"中野区中央1-41-2","lat":35.69867,"lon":139.68387},{"name":"中野区子ども家庭支援センター","province":"東京都","city":"中野区","address":"中野区新井1-9-1","lat":35.71022,"lon":139.66594},{"name":"ハッピー・テラス中野","province":"東京都","city":"中野区","address":"中野区中野4-7-1野口ビル7階","lat":35.709726,"lon":139.66348},{"name":"Ｐｕｒ　ａｉｌｅ　新井薬師","province":"東京都","city":"中野区","address":"中野区上高田5-35-9-1階","lat":35.716528,"lon":139.673759},{"name":"スタジオそら東中野","province":"東京都","city":"中野区","address":"中野区東中野4-27-33エムエス東中野ビル1階","lat":35.710963,"lon":139.689136},{"name":"発達支援センタージョイナス東中野教室","province":"東京都","city":"中野区","address":"中野区東中野1-50-2オクト森ビル1階","lat":35.705694,"lon":139.686381},{"name":"フリップ","province":"東京都","city":"中野区","address":"中野区中央5-38-13エスエス10A202","lat":35.699649,"lon":139.667274},{"name":"パソコンあいだっく","province":"東京都","city":"中野区","address":"中野区本町2-45-13山手ビル7階","lat":35.695861,"lon":139.682392},{"name":"アトリエあいだっく新中野","province":"東京都","city":"中野区","address":"中野区本町6-35-14アダチビル3階","lat":35.697244,"lon":139.662461},{"name":"おでんくらぶ","province":"東京都","city":"中野区","address":"中野区本町6-36-5シーアイマンション新中野102号","lat":35.697261,"lon":139.662286},{"name":"アトリエあいだっく","province":"東京都","city":"中野区","address":"中野区弥生町2-10-1霜田ビル1階","lat":35.692992,"lon":139.675802},{"name":"中野区療育センターゆめなりあ","province":"東京都","city":"中野区","address":"中野区弥生町5-5-2","lat":35.686165,"lon":139.666333},{"name":"スパーク中野センター","province":"東京都","city":"中野区","address":"中野区弥生町4-25-1","lat":35.686345,"lon":139.669297},{"name":"中野区　放課後デイサービスセンター　みずいろ","province":"東京都","city":"中野区","address":"中野区丸山一丁目17番2号","lat":35.725683,"lon":139.657739},{"name":"中野区子ども発達センター　たんぽぽ","province":"東京都","city":"中野区","address":"中野区丸山一丁目17番2号","lat":35.725683,"lon":139.657739},{"name":"Ｃａｔｃｈ　ａｎｄ　Ｓｍｉｌｅ","province":"東京都","city":"中野区","address":"中野区江古田4-7-3金子ビル2階","lat":35.724363,"lon":139.662826},{"name":"さくらそうキッズ","province":"東京都","city":"中野区","address":"中野区沼袋一丁目2番地7号","lat":35.717864,"lon":139.666968},{"name":"アプリ児童デイサービス沼袋","province":"東京都","city":"中野区","address":"中野区沼袋2-28-34","lat":35.722075,"lon":139.665684},{"name":"space","province":"東京都","city":"中野区","address":"中野区上鷺宮4-6-20イサカビル2階","lat":35.733861,"lon":139.630162},{"name":"ｓｐａｃｅ　Ｋｉｄ’ｓ．ｃｏｎ　鷺ノ宮","province":"東京都","city":"中野区","address":"中野区上鷺宮5-8-5ベル・ヴィベール102号","lat":35.727484,"lon":139.627135},{"name":"中野区子ども家庭支援センター","province":"東京都","city":"中野区","address":"中野区中野4-8-1中野区役所3階","lat":35.707287,"lon":139.66381},{"name":"中野区子ども・若者支援センター","province":"東京都","city":"中野区","address":"中野区中央1-41-2","lat":35.69867,"lon":139.68387},{"name":"中野区子ども家庭支援センター","province":"東京都","city":"中野区","address":"中野区新井1-9-1","lat":35.71022,"lon":139.66594},{"name":"ハッピー・テラス中野","province":"東京都","city":"中野区","address":"中野区中野4-7-1野口ビル7階","lat":35.709726,"lon":139.66348},{"name":"Ｐｕｒ　ａｉｌｅ　新井薬師","province":"東京都","city":"中野区","address":"中野区上高田5-35-9-1階","lat":35.716528,"lon":139.673759},{"name":"スタジオそら東中野","province":"東京都","city":"中野区","address":"中野区東中野4-27-33エムエス東中野ビル1階","lat":35.710963,"lon":139.689136},{"name":"発達支援センタージョイナス東中野教室","province":"東京都","city":"中野区","address":"中野区東中野1-50-2オクト森ビル1階","lat":35.705694,"lon":139.686381},{"name":"フリップ","province":"東京都","city":"中野区","address":"中野区中央5-38-13エスエス10A202","lat":35.699649,"lon":139.667274},{"name":"パソコンあいだっく","province":"東京都","city":"中野区","address":"中野区本町2-45-13山手ビル7階","lat":35.695861,"lon":139.682392},{"name":"アトリエあいだっく新中野","province":"東京都","city":"中野区","address":"中野区本町6-35-14アダチビル3階","lat":35.697244,"lon":139.662461},{"name":"おでんくらぶ","province":"東京都","city":"中野区","address":"中野区本町6-36-5シーアイマンション新中野102号","lat":35.697261,"lon":139.662286},{"name":"アトリエあいだっく","province":"東京都","city":"中野区","address":"中野区弥生町2-10-1霜田ビル1階","lat":35.692992,"lon":139.675802},{"name":"中野区療育センターゆめなりあ","province":"東京都","city":"中野区","address":"中野区弥生町5-5-2","lat":35.686165,"lon":139.666333},{"name":"スパーク中野センター","province":"東京都","city":"中野区","address":"中野区弥生町4-25-1","lat":35.686345,"lon":139.669297},{"name":"中野区　放課後デイサービスセンター　みずいろ","province":"東京都","city":"中野区","address":"中野区丸山一丁目17番2号","lat":35.725683,"lon":139.657739},{"name":"中野区子ども発達センター　たんぽぽ","province":"東京都","city":"中野区","address":"中野区丸山一丁目17番2号","lat":35.725683,"lon":139.657739},{"name":"Ｃａｔｃｈ　ａｎｄ　Ｓｍｉｌｅ","province":"東京都","city":"中野区","address":"中野区江古田4-7-3金子ビル2階","lat":35.724363,"lon":139.662826},{"name":"さくらそうキッズ","province":"東京都","city":"中野区","address":"中野区沼袋一丁目2番地7号","lat":35.717864,"lon":139.666968},{"name":"アプリ児童デイサービス沼袋","province":"東京都","city":"中野区","address":"中野区沼袋2-28-34","lat":35.722075,"lon":139.665684},{"name":"space","province":"東京都","city":"中野区","address":"中野区上鷺宮4-6-20イサカビル2階","lat":35.733861,"lon":139.630162},{"name":"ｓｐａｃｅ　Ｋｉｄ’ｓ．ｃｏｎ　鷺ノ宮","province":"東京都","city":"中野区","address":"中野区上鷺宮5-8-5ベル・ヴィベール102号","lat":35.727484,"lon":139.627135},{"name":"中野区子ども家庭支援センター","province":"東京都","city":"中野区","address":"中野区中野4-8-1中野区役所3階","lat":35.707287,"lon":139.66381},{"name":"中野区子ども・若者支援センター","province":"東京都","city":"中野区","address":"中野区中央1-41-2","lat":35.69867,"lon":139.68387},{"name":"中野区子ども家庭支援センター","province":"東京都","city":"中野区","address":"中野区新井1-9-1","lat":35.71022,"lon":139.66594},{"name":"ハッピー・テラス中野","province":"東京都","city":"中野区","address":"中野区中野4-7-1野口ビル7階","lat":35.709726,"lon":139.66348},{"name":"Ｐｕｒ　ａｉｌｅ　新井薬師","province":"東京都","city":"中野区","address":"中野区上高田5-35-9-1階","lat":35.716528,"lon":139.673759},{"name":"スタジオそら東中野","province":"東京都","city":"中野区","address":"中野区東中野4-27-33エムエス東中野ビル1階","lat":35.710963,"lon":139.689136},{"name":"発達支援センタージョイナス東中野教室","province":"東京都","city":"中野区","address":"中野区東中野1-50-2オクト森ビル1階","lat":35.705694,"lon":139.686381},{"name":"フリップ","province":"東京都","city":"中野区","address":"中野区中央5-38-13エスエス10A202","lat":35.699649,"lon":139.667274},{"name":"パソコンあいだっく","province":"東京都","city":"中野区","address":"中野区本町2-45-13山手ビル7階","lat":35.695861,"lon":139.682392},{"name":"アトリエあいだっく新中野","province":"東京都","city":"中野区","address":"中野区本町6-35-14アダチビル3階","lat":35.697244,"lon":139.662461},{"name":"おでんくらぶ","province":"東京都","city":"中野区","address":"中野区本町6-36-5シーアイマンション新中野102号","lat":35.697261,"lon":139.662286},{"name":"アトリエあいだっく","province":"東京都","city":"中野区","address":"中野区弥生町2-10-1霜田ビル1階","lat":35.692992,"lon":139.675802},{"name":"中野区療育センターゆめなりあ","province":"東京都","city":"中野区","address":"中野区弥生町5-5-2","lat":35.686165,"lon":139.666333},{"name":"スパーク中野センター","province":"東京都","city":"中野区","address":"中野区弥生町4-25-1","lat":35.686345,"lon":139.669297},{"name":"中野区　放課後デイサービスセンター　みずいろ","province":"東京都","city":"中野区","address":"中野区丸山一丁目17番2号","lat":35.725683,"lon":139.657739},{"name":"中野区子ども発達センター　たんぽぽ","province":"東京都","city":"中野区","address":"中野区丸山一丁目17番2号","lat":35.725683,"lon":139.657739},{"name":"Ｃａｔｃｈ　ａｎｄ　Ｓｍｉｌｅ","province":"東京都","city":"中野区","address":"中野区江古田4-7-3金子ビル2階","lat":35.724363,"lon":139.662826},{"name":"さくらそうキッズ","province":"東京都","city":"中野区","address":"中野区沼袋一丁目2番地7号","lat":35.717864,"lon":139.666968},{"name":"アプリ児童デイサービス沼袋","province":"東京都","city":"中野区","address":"中野区沼袋2-28-34","lat":35.722075,"lon":139.665684},{"name":"space","province":"東京都","city":"中野区","address":"中野区上鷺宮4-6-20イサカビル2階","lat":35.733861,"lon":139.630162},{"name":"ｓｐａｃｅ　Ｋｉｄ’ｓ．ｃｏｎ　鷺ノ宮","province":"東京都","city":"中野区","address":"中野区上鷺宮5-8-5ベル・ヴィベール102号","lat":35.727484,"lon":139.627135},{"name":"中野区子ども家庭支援センター","province":"東京都","city":"中野区","address":"中野区中野4-8-1中野区役所3階","lat":35.707287,"lon":139.66381},{"name":"中野区子ども・若者支援センター","province":"東京都","city":"中野区","address":"中野区中央1-41-2","lat":35.69867,"lon":139.68387},{"name":"中野区子ども家庭支援センター","province":"東京都","city":"中野区","address":"中野区新井1-9-1","lat":35.71022,"lon":139.66594},{"name":"ハッピー・テラス中野","province":"東京都","city":"中野区","address":"中野区中野4-7-1野口ビル7階","lat":35.709726,"lon":139.66348},{"name":"Ｐｕｒ　ａｉｌｅ　新井薬師","province":"東京都","city":"中野区","address":"中野区上高田5-35-9-1階","lat":35.716528,"lon":139.673759},{"name":"スタジオそら東中野","province":"東京都","city":"中野区","address":"中野区東中野4-27-33エムエス東中野ビル1階","lat":35.710963,"lon":139.689136},{"name":"発達支援センタージョイナス東中野教室","province":"東京都","city":"中野区","address":"中野区東中野1-50-2オクト森ビル1階","lat":35.705694,"lon":139.686381},{"name":"フリップ","province":"東京都","city":"中野区","address":"中野区中央5-38-13エスエス10A202","lat":35.699649,"lon":139.667274},{"name":"パソコンあいだっく","province":"東京都","city":"中野区","address":"中野区本町2-45-13山手ビル7階","lat":35.695861,"lon":139.682392},{"name":"アトリエあいだっく新中野","province":"東京都","city":"中野区","address":"中野区本町6-35-14アダチビル3階","lat":35.697244,"lon":139.662461},{"name":"おでんくらぶ","province":"東京都","city":"中野区","address":"中野区本町6-36-5シーアイマンション新中野102号","lat":35.697261,"lon":139.662286},{"name":"アトリエあいだっく","province":"東京都","city":"中野区","address":"中野区弥生町2-10-1霜田ビル1階","lat":35.692992,"lon":139.675802},{"name":"中野区療育センターゆめなりあ","province":"東京都","city":"中野区","address":"中野区弥生町5-5-2","lat":35.686165,"lon":139.666333},{"name":"スパーク中野センター","province":"東京都","city":"中野区","address":"中野区弥生町4-25-1","lat":35.686345,"lon":139.669297},{"name":"中野区　放課後デイサービスセンター　みずいろ","province":"東京都","city":"中野区","address":"中野区丸山一丁目17番2号","lat":35.725683,"lon":139.657739},{"name":"中野区子ども発達センター　たんぽぽ","province":"東京都","city":"中野区","address":"中野区丸山一丁目17番2号","lat":35.725683,"lon":139.657739},{"name":"Ｃａｔｃｈ　ａｎｄ　Ｓｍｉｌｅ","province":"東京都","city":"中野区","address":"中野区江古田4-7-3金子ビル2階","lat":35.724363,"lon":139.662826},{"name":"さくらそうキッズ","province":"東京都","city":"中野区","address":"中野区沼袋一丁目2番地7号","lat":35.717864,"lon":139.666968},{"name":"アプリ児童デイサービス沼袋","province":"東京都","city":"中野区","address":"中野区沼袋2-28-34","lat":35.722075,"lon":139.665684},{"name":"space","province":"東京都","city":"中野区","address":"中野区上鷺宮4-6-20イサカビル2階","lat":35.733861,"lon":139.630162},{"name":"ｓｐａｃｅ　Ｋｉｄ’ｓ．ｃｏｎ　鷺ノ宮","province":"東京都","city":"中野区","address":"中野区上鷺宮5-8-5ベル・ヴィベール102号","lat":35.727484,"lon":139.627135},{"name":"中野区子ども家庭支援センター","province":"東京都","city":"中野区","address":"中野区中野4-8-1中野区役所3階","lat":35.707287,"lon":139.66381},{"name":"中野区子ども・若者支援センター","province":"東京都","city":"中野区","address":"中野区中央1-41-2","lat":35.69867,"lon":139.68387},{"name":"中野区子ども家庭支援センター","province":"東京都","city":"中野区","address":"中野区新井1-9-1","lat":35.71022,"lon":139.66594},{"name":"ハッピー・テラス中野","province":"東京都","city":"中野区","address":"中野区中野4-7-1野口ビル7階","lat":35.709726,"lon":139.66348},{"name":"Ｐｕｒ　ａｉｌｅ　新井薬師","province":"東京都","city":"中野区","address":"中野区上高田5-35-9-1階","lat":35.716528,"lon":139.673759},{"name":"スタジオそら東中野","province":"東京都","city":"中野区","address":"中野区東中野4-27-33エムエス東中野ビル1階","lat":35.710963,"lon":139.689136},{"name":"発達支援センタージョイナス東中野教室","province":"東京都","city":"中野区","address":"中野区東中野1-50-2オクト森ビル1階","lat":35.705694,"lon":139.686381},{"name":"フリップ","province":"東京都","city":"中野区","address":"中野区中央5-38-13エスエス10A202","lat":35.699649,"lon":139.667274},{"name":"パソコンあいだっく","province":"東京都","city":"中野区","address":"中野区本町2-45-13山手ビル7階","lat":35.695861,"lon":139.682392},{"name":"アトリエあいだっく新中野","province":"東京都","city":"中野区","address":"中野区本町6-35-14アダチビル3階","lat":35.697244,"lon":139.662461},{"name":"おでんくらぶ","province":"東京都","city":"中野区","address":"中野区本町6-36-5シーアイマンション新中野102号","lat":35.697261,"lon":139.662286},{"name":"アトリエあいだっく","province":"東京都","city":"中野区","address":"中野区弥生町2-10-1霜田ビル1階","lat":35.692992,"lon":139.675802},{"name":"中野区療育センターゆめなりあ","province":"東京都","city":"中野区","address":"中野区弥生町5-5-2","lat":35.686165,"lon":139.666333},{"name":"スパーク中野センター","province":"東京都","city":"中野区","address":"中野区弥生町4-25-1","lat":35.686345,"lon":139.669297},{"name":"中野区　放課後デイサービスセンター　みずいろ","province":"東京都","city":"中野区","address":"中野区丸山一丁目17番2号","lat":35.725683,"lon":139.657739},{"name":"中野区子ども発達センター　たんぽぽ","province":"東京都","city":"中野区","address":"中野区丸山一丁目17番2号","lat":35.725683,"lon":139.657739},{"name":"Ｃａｔｃｈ　ａｎｄ　Ｓｍｉｌｅ","province":"東京都","city":"中野区","address":"中野区江古田4-7-3金子ビル2階","lat":35.724363,"lon":139.662826},{"name":"さくらそうキッズ","province":"東京都","city":"中野区","address":"中野区沼袋一丁目2番地7号","lat":35.717864,"lon":139.666968},{"name":"アプリ児童デイサービス沼袋","province":"東京都","city":"中野区","address":"中野区沼袋2-28-34","lat":35.722075,"lon":139.665684},{"name":"space","province":"東京都","city":"中野区","address":"中野区上鷺宮4-6-20イサカビル2階","lat":35.733861,"lon":139.630162},{"name":"ｓｐａｃｅ　Ｋｉｄ’ｓ．ｃｏｎ　鷺ノ宮","province":"東京都","city":"中野区","address":"中野区上鷺宮5-8-5ベル・ヴィベール102号","lat":35.727484,"lon":139.627135},{"name":"中野区子ども家庭支援センター","province":"東京都","city":"中野区","address":"中野区中野4-8-1中野区役所3階","lat":35.707287,"lon":139.66381},{"name":"中野区子ども・若者支援センター","province":"東京都","city":"中野区","address":"中野区中央1-41-2","lat":35.69867,"lon":139.68387},{"name":"中野区子ども家庭支援センター","province":"東京都","city":"中野区","address":"中野区新井1-9-1","lat":35.71022,"lon":139.66594},{"name":"ハッピー・テラス中野","province":"東京都","city":"中野区","address":"中野区中野4-7-1野口ビル7階","lat":35.709726,"lon":139.66348},{"name":"Ｐｕｒ　ａｉｌｅ　新井薬師","province":"東京都","city":"中野区","address":"中野区上高田5-35-9-1階","lat":35.716528,"lon":139.673759},{"name":"スタジオそら東中野","province":"東京都","city":"中野区","address":"中野区東中野4-27-33エムエス東中野ビル1階","lat":35.710963,"lon":139.689136},{"name":"発達支援センタージョイナス東中野教室","province":"東京都","city":"中野区","address":"中野区東中野1-50-2オクト森ビル1階","lat":35.705694,"lon":139.686381},{"name":"フリップ","province":"東京都","city":"中野区","address":"中野区中央5-38-13エスエス10A202","lat":35.699649,"lon":139.667274},{"name":"パソコンあいだっく","province":"東京都","city":"中野区","address":"中野区本町2-45-13山手ビル7階","lat":35.695861,"lon":139.682392},{"name":"アトリエあいだっく新中野","province":"東京都","city":"中野区","address":"中野区本町6-35-14アダチビル3階","lat":35.697244,"lon":139.662461},{"name":"おでんくらぶ","province":"東京都","city":"中野区","address":"中野区本町6-36-5シーアイマンション新中野102号","lat":35.697261,"lon":139.662286},{"name":"アトリエあいだっく","province":"東京都","city":"中野区","address":"中野区弥生町2-10-1霜田ビル1階","lat":35.692992,"lon":139.675802},{"name":"中野区療育センターゆめなりあ","province":"東京都","city":"中野区","address":"中野区弥生町5-5-2","lat":35.686165,"lon":139.666333},{"name":"スパーク中野センター","province":"東京都","city":"中野区","address":"中野区弥生町4-25-1","lat":35.686345,"lon":139.669297},{"name":"中野区　放課後デイサービスセンター　みずいろ","province":"東京都","city":"中野区","address":"中野区丸山一丁目17番2号","lat":35.725683,"lon":139.657739},{"name":"中野区子ども発達センター　たんぽぽ","province":"東京都","city":"中野区","address":"中野区丸山一丁目17番2号","lat":35.725683,"lon":139.657739},{"name":"Ｃａｔｃｈ　ａｎｄ　Ｓｍｉｌｅ","province":"東京都","city":"中野区","address":"中野区江古田4-7-3金子ビル2階","lat":35.724363,"lon":139.662826},{"name":"さくらそうキッズ","province":"東京都","city":"中野区","address":"中野区沼袋一丁目2番地7号","lat":35.717864,"lon":139.666968},{"name":"アプリ児童デイサービス沼袋","province":"東京都","city":"中野区","address":"中野区沼袋2-28-34","lat":35.722075,"lon":139.665684},{"name":"space","province":"東京都","city":"中野区","address":"中野区上鷺宮4-6-20イサカビル2階","lat":35.733861,"lon":139.630162},{"name":"ｓｐａｃｅ　Ｋｉｄ’ｓ．ｃｏｎ　鷺ノ宮","province":"東京都","city":"中野区","address":"中野区上鷺宮5-8-5ベル・ヴィベール102号","lat":35.727484,"lon":139.627135},{"name":"中野区子ども家庭支援センター","province":"東京都","city":"中野区","address":"中野区中野4-8-1中野区役所3階","lat":35.707287,"lon":139.66381},{"name":"中野区子ども・若者支援センター","province":"東京都","city":"中野区","address":"中野区中央1-41-2","lat":35.69867,"lon":139.68387},{"name":"中野区子ども家庭支援センター","province":"東京都","city":"中野区","address":"中野区新井1-9-1","lat":35.71022,"lon":139.66594},{"name":"ハッピー・テラス中野","province":"東京都","city":"中野区","address":"中野区中野4-7-1野口ビル7階","lat":35.709726,"lon":139.66348},{"name":"Ｐｕｒ　ａｉｌｅ　新井薬師","province":"東京都","city":"中野区","address":"中野区上高田5-35-9-1階","lat":35.716528,"lon":139.673759},{"name":"スタジオそら東中野","province":"東京都","city":"中野区","address":"中野区東中野4-27-33エムエス東中野ビル1階","lat":35.710963,"lon":139.689136},{"name":"発達支援センタージョイナス東中野教室","province":"東京都","city":"中野区","address":"中野区東中野1-50-2オクト森ビル1階","lat":35.705694,"lon":139.686381},{"name":"フリップ","province":"東京都","city":"中野区","address":"中野区中央5-38-13エスエス10A202","lat":35.699649,"lon":139.667274},{"name":"パソコンあいだっく","province":"東京都","city":"中野区","address":"中野区本町2-45-13山手ビル7階","lat":35.695861,"lon":139.682392},{"name":"アトリエあいだっく新中野","province":"東京都","city":"中野区","address":"中野区本町6-35-14アダチビル3階","lat":35.697244,"lon":139.662461},{"name":"おでんくらぶ","province":"東京都","city":"中野区","address":"中野区本町6-36-5シーアイマンション新中野102号","lat":35.697261,"lon":139.662286},{"name":"アトリエあいだっく","province":"東京都","city":"中野区","address":"中野区弥生町2-10-1霜田ビル1階","lat":35.692992,"lon":139.675802},{"name":"中野区療育センターゆめなりあ","province":"東京都","city":"中野区","address":"中野区弥生町5-5-2","lat":35.686165,"lon":139.666333},{"name":"スパーク中野センター","province":"東京都","city":"中野区","address":"中野区弥生町4-25-1","lat":35.686345,"lon":139.669297},{"name":"中野区　放課後デイサービスセンター　みずいろ","province":"東京都","city":"中野区","address":"中野区丸山一丁目17番2号","lat":35.725683,"lon":139.657739},{"name":"中野区子ども発達センター　たんぽぽ","province":"東京都","city":"中野区","address":"中野区丸山一丁目17番2号","lat":35.725683,"lon":139.657739},{"name":"Ｃａｔｃｈ　ａｎｄ　Ｓｍｉｌｅ","province":"東京都","city":"中野区","address":"中野区江古田4-7-3金子ビル2階","lat":35.724363,"lon":139.662826},{"name":"さくらそうキッズ","province":"東京都","city":"中野区","address":"中野区沼袋一丁目2番地7号","lat":35.717864,"lon":139.666968},{"name":"アプリ児童デイサービス沼袋","province":"東京都","city":"中野区","address":"中野区沼袋2-28-34","lat":35.722075,"lon":139.665684},{"name":"space","province":"東京都","city":"中野区","address":"中野区上鷺宮4-6-20イサカビル2階","lat":35.733861,"lon":139.630162},{"name":"ｓｐａｃｅ　Ｋｉｄ’ｓ．ｃｏｎ　鷺ノ宮","province":"東京都","city":"中野区","address":"中野区上鷺宮5-8-5ベル・ヴィベール102号","lat":35.727484,"lon":139.627135},{"name":"中野区子ども家庭支援センター","province":"東京都","city":"中野区","address":"中野区中野4-8-1中野区役所3階","lat":35.707287,"lon":139.66381},{"name":"中野区子ども・若者支援センター","province":"東京都","city":"中野区","address":"中野区中央1-41-2","lat":35.69867,"lon":139.68387},{"name":"中野区子ども家庭支援センター","province":"東京都","city":"中野区","address":"中野区新井1-9-1","lat":35.71022,"lon":139.66594},{"name":"ハッピー・テラス中野","province":"東京都","city":"中野区","address":"中野区中野4-7-1野口ビル7階","lat":35.709726,"lon":139.66348},{"name":"Ｐｕｒ　ａｉｌｅ　新井薬師","province":"東京都","city":"中野区","address":"中野区上高田5-35-9-1階","lat":35.716528,"lon":139.673759},{"name":"スタジオそら東中野","province":"東京都","city":"中野区","address":"中野区東中野4-27-33エムエス東中野ビル1階","lat":35.710963,"lon":139.689136},{"name":"発達支援センタージョイナス東中野教室","province":"東京都","city":"中野区","address":"中野区東中野1-50-2オクト森ビル1階","lat":35.705694,"lon":139.686381},{"name":"フリップ","province":"東京都","city":"中野区","address":"中野区中央5-38-13エスエス10A202","lat":35.699649,"lon":139.667274},{"name":"パソコンあいだっく","province":"東京都","city":"中野区","address":"中野区本町2-45-13山手ビル7階","lat":35.695861,"lon":139.682392},{"name":"アトリエあいだっく新中野","province":"東京都","city":"中野区","address":"中野区本町6-35-14アダチビル3階","lat":35.697244,"lon":139.662461},{"name":"おでんくらぶ","province":"東京都","city":"中野区","address":"中野区本町6-36-5シーアイマンション新中野102号","lat":35.697261,"lon":139.662286},{"name":"アトリエあいだっく","province":"東京都","city":"中野区","address":"中野区弥生町2-10-1霜田ビル1階","lat":35.692992,"lon":139.675802},{"name":"中野区療育センターゆめなりあ","province":"東京都","city":"中野区","address":"中野区弥生町5-5-2","lat":35.686165,"lon":139.666333},{"name":"スパーク中野センター","province":"東京都","city":"中野区","address":"中野区弥生町4-25-1","lat":35.686345,"lon":139.669297},{"name":"中野区　放課後デイサービスセンター　みずいろ","province":"東京都","city":"中野区","address":"中野区丸山一丁目17番2号","lat":35.725683,"lon":139.657739},{"name":"中野区子ども発達センター　たんぽぽ","province":"東京都","city":"中野区","address":"中野区丸山一丁目17番2号","lat":35.725683,"lon":139.657739},{"name":"Ｃａｔｃｈ　ａｎｄ　Ｓｍｉｌｅ","province":"東京都","city":"中野区","address":"中野区江古田4-7-3金子ビル2階","lat":35.724363,"lon":139.662826},{"name":"さくらそうキッズ","province":"東京都","city":"中野区","address":"中野区沼袋一丁目2番地7号","lat":35.717864,"lon":139.666968},{"name":"アプリ児童デイサービス沼袋","province":"東京都","city":"中野区","address":"中野区沼袋2-28-34","lat":35.722075,"lon":139.665684},{"name":"space","province":"東京都","city":"中野区","address":"中野区上鷺宮4-6-20イサカビル2階","lat":35.733861,"lon":139.630162},{"name":"ｓｐａｃｅ　Ｋｉｄ’ｓ．ｃｏｎ　鷺ノ宮","province":"東京都","city":"中野区","address":"中野区上鷺宮5-8-5ベル・ヴィベール102号","lat":35.727484,"lon":139.627135},{"name":"中野区子ども家庭支援センター","province":"東京都","city":"中野区","address":"中野区中野4-8-1中野区役所3階","lat":35.707287,"lon":139.66381},{"name":"中野区子ども・若者支援センター","province":"東京都","city":"中野区","address":"中野区中央1-41-2","lat":35.69867,"lon":139.68387},{"name":"中野区子ども家庭支援センター","province":"東京都","city":"中野区","address":"中野区新井1-9-1","lat":35.71022,"lon":139.66594},{"name":"ハッピー・テラス中野","province":"東京都","city":"中野区","address":"中野区中野4-7-1野口ビル7階","lat":35.709726,"lon":139.66348},{"name":"Ｐｕｒ　ａｉｌｅ　新井薬師","province":"東京都","city":"中野区","address":"中野区上高田5-35-9-1階","lat":35.716528,"lon":139.673759},{"name":"スタジオそら東中野","province":"東京都","city":"中野区","address":"中野区東中野4-27-33エムエス東中野ビル1階","lat":35.710963,"lon":139.689136},{"name":"発達支援センタージョイナス東中野教室","province":"東京都","city":"中野区","address":"中野区東中野1-50-2オクト森ビル1階","lat":35.705694,"lon":139.686381},{"name":"フリップ","province":"東京都","city":"中野区","address":"中野区中央5-38-13エスエス10A202","lat":35.699649,"lon":139.667274},{"name":"パソコンあいだっく","province":"東京都","city":"中野区","address":"中野区本町2-45-13山手ビル7階","lat":35.695861,"lon":139.682392},{"name":"アトリエあいだっく新中野","province":"東京都","city":"中野区","address":"中野区本町6-35-14アダチビル3階","lat":35.697244,"lon":139.662461},{"name":"おでんくらぶ","province":"東京都","city":"中野区","address":"中野区本町6-36-5シーアイマンション新中野102号","lat":35.697261,"lon":139.662286},{"name":"アトリエあいだっく","province":"東京都","city":"中野区","address":"中野区弥生町2-10-1霜田ビル1階","lat":35.692992,"lon":139.675802},{"name":"中野区療育センターゆめなりあ","province":"東京都","city":"中野区","address":"中野区弥生町5-5-2","lat":35.686165,"lon":139.666333},{"name":"スパーク中野センター","province":"東京都","city":"中野区","address":"中野区弥生町4-25-1","lat":35.686345,"lon":139.669297},{"name":"中野区　放課後デイサービスセンター　みずいろ","province":"東京都","city":"中野区","address":"中野区丸山一丁目17番2号","lat":35.725683,"lon":139.657739},{"name":"中野区子ども発達センター　たんぽぽ","province":"東京都","city":"中野区","address":"中野区丸山一丁目17番2号","lat":35.725683,"lon":139.657739},{"name":"Ｃａｔｃｈ　ａｎｄ　Ｓｍｉｌｅ","province":"東京都","city":"中野区","address":"中野区江古田4-7-3金子ビル2階","lat":35.724363,"lon":139.662826},{"name":"さくらそうキッズ","province":"東京都","city":"中野区","address":"中野区沼袋一丁目2番地7号","lat":35.717864,"lon":139.666968},{"name":"アプリ児童デイサービス沼袋","province":"東京都","city":"中野区","address":"中野区沼袋2-28-34","lat":35.722075,"lon":139.665684},{"name":"space","province":"東京都","city":"中野区","address":"中野区上鷺宮4-6-20イサカビル2階","lat":35.733861,"lon":139.630162},{"name":"ｓｐａｃｅ　Ｋｉｄ’ｓ．ｃｏｎ　鷺ノ宮","province":"東京都","city":"中野区","address":"中野区上鷺宮5-8-5ベル・ヴィベール102号","lat":35.727484,"lon":139.627135},{"name":"中野区子ども家庭支援センター","province":"東京都","city":"中野区","address":"中野区中野4-8-1中野区役所3階","lat":35.707287,"lon":139.66381},{"name":"中野区子ども・若者支援センター","province":"東京都","city":"中野区","address":"中野区中央1-41-2","lat":35.69867,"lon":139.68387},{"name":"中野区子ども家庭支援センター","province":"東京都","city":"中野区","address":"中野区新井1-9-1","lat":35.71022,"lon":139.66594},{"name":"ハッピー・テラス中野","province":"東京都","city":"中野区","address":"中野区中野4-7-1野口ビル7階","lat":35.709726,"lon":139.66348},{"name":"Ｐｕｒ　ａｉｌｅ　新井薬師","province":"東京都","city":"中野区","address":"中野区上高田5-35-9-1階","lat":35.716528,"lon":139.673759},{"name":"スタジオそら東中野","province":"東京都","city":"中野区","address":"中野区東中野4-27-33エムエス東中野ビル1階","lat":35.710963,"lon":139.689136},{"name":"発達支援センタージョイナス東中野教室","province":"東京都","city":"中野区","address":"中野区東中野1-50-2オクト森ビル1階","lat":35.705694,"lon":139.686381},{"name":"フリップ","province":"東京都","city":"中野区","address":"中野区中央5-38-13エスエス10A202","lat":35.699649,"lon":139.667274},{"name":"パソコンあいだっく","province":"東京都","city":"中野区","address":"中野区本町2-45-13山手ビル7階","lat":35.695861,"lon":139.682392},{"name":"アトリエあいだっく新中野","province":"東京都","city":"中野区","address":"中野区本町6-35-14アダチビル3階","lat":35.697244,"lon":139.662461},{"name":"おでんくらぶ","province":"東京都","city":"中野区","address":"中野区本町6-36-5シーアイマンション新中野102号","lat":35.697261,"lon":139.662286},{"name":"アトリエあいだっく","province":"東京都","city":"中野区","address":"中野区弥生町2-10-1霜田ビル1階","lat":35.692992,"lon":139.675802},{"name":"中野区療育センターゆめなりあ","province":"東京都","city":"中野区","address":"中野区弥生町5-5-2","lat":35.686165,"lon":139.666333},{"name":"スパーク中野センター","province":"東京都","city":"中野区","address":"中野区弥生町4-25-1","lat":35.686345,"lon":139.669297},{"name":"中野区　放課後デイサービスセンター　みずいろ","province":"東京都","city":"中野区","address":"中野区丸山一丁目17番2号","lat":35.725683,"lon":139.657739},{"name":"中野区子ども発達センター　たんぽぽ","province":"東京都","city":"中野区","address":"中野区丸山一丁目17番2号","lat":35.725683,"lon":139.657739},{"name":"Ｃａｔｃｈ　ａｎｄ　Ｓｍｉｌｅ","province":"東京都","city":"中野区","address":"中野区江古田4-7-3金子ビル2階","lat":35.724363,"lon":139.662826},{"name":"さくらそうキッズ","province":"東京都","city":"中野区","address":"中野区沼袋一丁目2番地7号","lat":35.717864,"lon":139.666968},{"name":"アプリ児童デイサービス沼袋","province":"東京都","city":"中野区","address":"中野区沼袋2-28-34","lat":35.722075,"lon":139.665684},{"name":"space","province":"東京都","city":"中野区","address":"中野区上鷺宮4-6-20イサカビル2階","lat":35.733861,"lon":139.630162},{"name":"ｓｐａｃｅ　Ｋｉｄ’ｓ．ｃｏｎ　鷺ノ宮","province":"東京都","city":"中野区","address":"中野区上鷺宮5-8-5ベル・ヴィベール102号","lat":35.727484,"lon":139.627135},{"name":"中野区子ども家庭支援センター","province":"東京都","city":"中野区","address":"中野区中野4-8-1中野区役所3階","lat":35.707287,"lon":139.66381},{"name":"中野区子ども・若者支援センター","province":"東京都","city":"中野区","address":"中野区中央1-41-2","lat":35.69867,"lon":139.68387},{"name":"中野区子ども家庭支援センター","province":"東京都","city":"中野区","address":"中野区新井1-9-1","lat":35.71022,"lon":139.66594},{"name":"ハッピー・テラス中野","province":"東京都","city":"中野区","address":"中野区中野4-7-1野口ビル7階","lat":35.709726,"lon":139.66348},{"name":"Ｐｕｒ　ａｉｌｅ　新井薬師","province":"東京都","city":"中野区","address":"中野区上高田5-35-9-1階","lat":35.716528,"lon":139.673759},{"name":"スタジオそら東中野","province":"東京都","city":"中野区","address":"中野区東中野4-27-33エムエス東中野ビル1階","lat":35.710963,"lon":139.689136},{"name":"発達支援センタージョイナス東中野教室","province":"東京都","city":"中野区","address":"中野区東中野1-50-2オクト森ビル1階","lat":35.705694,"lon":139.686381},{"name":"フリップ","province":"東京都","city":"中野区","address":"中野区中央5-38-13エスエス10A202","lat":35.699649,"lon":139.667274},{"name":"パソコンあいだっく","province":"東京都","city":"中野区","address":"中野区本町2-45-13山手ビル7階","lat":35.695861,"lon":139.682392},{"name":"アトリエあいだっく新中野","province":"東京都","city":"中野区","address":"中野区本町6-35-14アダチビル3階","lat":35.697244,"lon":139.662461},{"name":"おでんくらぶ","province":"東京都","city":"中野区","address":"中野区本町6-36-5シーアイマンション新中野102号","lat":35.697261,"lon":139.662286},{"name":"アトリエあいだっく","province":"東京都","city":"中野区","address":"中野区弥生町2-10-1霜田ビル1階","lat":35.692992,"lon":139.675802},{"name":"中野区療育センターゆめなりあ","province":"東京都","city":"中野区","address":"中野区弥生町5-5-2","lat":35.686165,"lon":139.666333},{"name":"スパーク中野センター","province":"東京都","city":"中野区","address":"中野区弥生町4-25-1","lat":35.686345,"lon":139.669297},{"name":"中野区　放課後デイサービスセンター　みずいろ","province":"東京都","city":"中野区","address":"中野区丸山一丁目17番2号","lat":35.725683,"lon":139.657739},{"name":"中野区子ども発達センター　たんぽぽ","province":"東京都","city":"中野区","address":"中野区丸山一丁目17番2号","lat":35.725683,"lon":139.657739},{"name":"Ｃａｔｃｈ　ａｎｄ　Ｓｍｉｌｅ","province":"東京都","city":"中野区","address":"中野区江古田4-7-3金子ビル2階","lat":35.724363,"lon":139.662826},{"name":"さくらそうキッズ","province":"東京都","city":"中野区","address":"中野区沼袋一丁目2番地7号","lat":35.717864,"lon":139.666968},{"name":"アプリ児童デイサービス沼袋","province":"東京都","city":"中野区","address":"中野区沼袋2-28-34","lat":35.722075,"lon":139.665684},{"name":"space","province":"東京都","city":"中野区","address":"中野区上鷺宮4-6-20イサカビル2階","lat":35.733861,"lon":139.630162},{"name":"ｓｐａｃｅ　Ｋｉｄ’ｓ．ｃｏｎ　鷺ノ宮","province":"東京都","city":"中野区","address":"中野区上鷺宮5-8-5ベル・ヴィベール102号","lat":35.727484,"lon":139.627135},{"name":"中野区子ども家庭支援センター","province":"東京都","city":"中野区","address":"中野区中野4-8-1中野区役所3階","lat":35.707287,"lon":139.66381},{"name":"中野区子ども・若者支援センター","province":"東京都","city":"中野区","address":"中野区中央1-41-2","lat":35.69867,"lon":139.68387},{"name":"中野区子ども家庭支援センター","province":"東京都","city":"中野区","address":"中野区新井1-9-1","lat":35.71022,"lon":139.66594},{"name":"ハッピー・テラス中野","province":"東京都","city":"中野区","address":"中野区中野4-7-1野口ビル7階","lat":35.709726,"lon":139.66348},{"name":"Ｐｕｒ　ａｉｌｅ　新井薬師","province":"東京都","city":"中野区","address":"中野区上高田5-35-9-1階","lat":35.716528,"lon":139.673759},{"name":"スタジオそら東中野","province":"東京都","city":"中野区","address":"中野区東中野4-27-33エムエス東中野ビル1階","lat":35.710963,"lon":139.689136},{"name":"発達支援センタージョイナス東中野教室","province":"東京都","city":"中野区","address":"中野区東中野1-50-2オクト森ビル1階","lat":35.705694,"lon":139.686381},{"name":"フリップ","province":"東京都","city":"中野区","address":"中野区中央5-38-13エスエス10A202","lat":35.699649,"lon":139.667274},{"name":"パソコンあいだっく","province":"東京都","city":"中野区","address":"中野区本町2-45-13山手ビル7階","lat":35.695861,"lon":139.682392},{"name":"アトリエあいだっく新中野","province":"東京都","city":"中野区","address":"中野区本町6-35-14アダチビル3階","lat":35.697244,"lon":139.662461},{"name":"おでんくらぶ","province":"東京都","city":"中野区","address":"中野区本町6-36-5シーアイマンション新中野102号","lat":35.697261,"lon":139.662286},{"name":"アトリエあいだっく","province":"東京都","city":"中野区","address":"中野区弥生町2-10-1霜田ビル1階","lat":35.692992,"lon":139.675802},{"name":"中野区療育センターゆめなりあ","province":"東京都","city":"中野区","address":"中野区弥生町5-5-2","lat":35.686165,"lon":139.666333},{"name":"スパーク中野センター","province":"東京都","city":"中野区","address":"中野区弥生町4-25-1","lat":35.686345,"lon":139.669297},{"name":"中野区　放課後デイサービスセンター　みずいろ","province":"東京都","city":"中野区","address":"中野区丸山一丁目17番2号","lat":35.725683,"lon":139.657739},{"name":"中野区子ども発達センター　たんぽぽ","province":"東京都","city":"中野区","address":"中野区丸山一丁目17番2号","lat":35.725683,"lon":139.657739},{"name":"Ｃａｔｃｈ　ａｎｄ　Ｓｍｉｌｅ","province":"東京都","city":"中野区","address":"中野区江古田4-7-3金子ビル2階","lat":35.724363,"lon":139.662826},{"name":"さくらそうキッズ","province":"東京都","city":"中野区","address":"中野区沼袋一丁目2番地7号","lat":35.717864,"lon":139.666968},{"name":"アプリ児童デイサービス沼袋","province":"東京都","city":"中野区","address":"中野区沼袋2-28-34","lat":35.722075,"lon":139.665684},{"name":"space","province":"東京都","city":"中野区","address":"中野区上鷺宮4-6-20イサカビル2階","lat":35.733861,"lon":139.630162},{"name":"ｓｐａｃｅ　Ｋｉｄ’ｓ．ｃｏｎ　鷺ノ宮","province":"東京都","city":"中野区","address":"中野区上鷺宮5-8-5ベル・ヴィベール102号","lat":35.727484,"lon":139.627135},{"name":"中野区子ども家庭支援センター","province":"東京都","city":"中野区","address":"中野区中野4-8-1中野区役所3階","lat":35.707287,"lon":139.66381},{"name":"中野区子ども・若者支援センター","province":"東京都","city":"中野区","address":"中野区中央1-41-2","lat":35.69867,"lon":139.68387},{"name":"中野区子ども家庭支援センター","province":"東京都","city":"中野区","address":"中野区新井1-9-1","lat":35.71022,"lon":139.66594}]}