{"keyword":"自転車","data":[{"name":"中野南自転車駐車場","province":"東京都","city":"中野区","address":"東京都中野区中野2丁目23","lat":35.7047849,"lon":139.66756285},{"name":"中野西自転車駐車場","province":"東京都","city":"中野区","address":"東京都中野区中野4丁目14","lat":35.7060818,"lon":139.66198272},{"name":"鷺宮南自転車駐車場","province":"東京都","city":"中野区","address":"東京都中野区白鷺2丁目49","lat":35.72204324,"lon":139.63660917},{"name":"鷺宮東自転車駐車場","province":"東京都","city":"中野区","address":"東京都中野区若宮3丁目56","lat":35.7212712,"lon":139.64054222},{"name":"鷺宮北自転車駐車場","province":"東京都","city":"中野区","address":"東京都中野区鷺宮3丁目30","lat":35.72374036,"lon":139.63994771},{"name":"沼袋第一自転車駐車場","province":"東京都","city":"中野区","address":"東京都中野区沼袋3丁目1","lat":35.71849988,"lon":139.66284878},{"name":"沼袋南自転車等駐車整理区画","province":"東京都","city":"中野区","address":"東京都中野区沼袋3丁目1","lat":35.71849988,"lon":139.66284878},{"name":"沼袋地下自転車駐車場","province":"東京都","city":"中野区","address":"東京都中野区沼袋1丁目34-14","lat":35.71970815,"lon":139.6652013},{"name":"都立家政南自転車駐車場","province":"東京都","city":"中野区","address":"東京都中野区若宮3丁目15-12","lat":35.72169904,"lon":139.64512793},{"name":"都立家政北自転車駐車場","province":"東京都","city":"中野区","address":"東京都中野区鷺宮1丁目26-4","lat":35.72332943,"lon":139.64531673},{"name":"中野坂上駅自転車駐車場","province":"東京都","city":"中野区","address":"東京都中野区中央2丁目8","lat":35.69848608,"lon":139.68253679},{"name":"落合駅自転車等駐車整理区画","province":"東京都","city":"中野区","address":"東京都中野区東中野3丁目14","lat":35.70943763,"lon":139.68371679},{"name":"東中野駅自転車駐車場","province":"東京都","city":"中野区","address":"東京都中野区東中野3丁目9","lat":35.70774057,"lon":139.68298638},{"name":"東中野東自転車等駐車整理区画","province":"東京都","city":"中野区","address":"東京都中野区東中野5丁目3","lat":35.70671302,"lon":139.686475},{"name":"中野新橋駅自転車駐車場","province":"東京都","city":"中野区","address":"東京都中野区弥生町2丁目24","lat":35.69235876,"lon":139.67329897},{"name":"中野富士見町自転車駐車場","province":"東京都","city":"中野区","address":"東京都中野区弥生町5丁目23-17","lat":35.69008662,"lon":139.6663219},{"name":"野方第一自転車駐車場","province":"東京都","city":"中野区","address":"東京都中野区野方5丁目32","lat":35.71994941,"lon":139.65174689},{"name":"野方第二自転車駐車場","province":"東京都","city":"中野区","address":"東京都中野区野方5丁目32","lat":35.71994941,"lon":139.65174689},{"name":"野方東自転車等駐車整理区画(北)","province":"東京都","city":"中野区","address":"東京都中野区野方6丁目1","lat":35.71987447,"lon":139.65359118},{"name":"野方東自転車等駐車整理区画(南)","province":"東京都","city":"中野区","address":"東京都中野区野方5丁目25","lat":35.71893012,"lon":139.65317459},{"name":"新江古田自転車駐車場","province":"東京都","city":"中野区","address":"東京都中野区江原町2丁目29-17","lat":35.73187362,"lon":139.67130025},{"name":"新井薬師北自転車駐車場","province":"東京都","city":"中野区","address":"東京都中野区上高田5丁目43-6","lat":35.71621152,"lon":139.67230084},{"name":"新井薬師南自転車駐車場","province":"東京都","city":"中野区","address":"東京都中野区上高田3丁目36","lat":35.71477,"lon":139.67170373},{"name":"鍋横自転車駐車場","province":"東京都","city":"中野区","address":"東京都中野区本町4丁目44","lat":35.69714421,"lon":139.67012127},{"name":"杉山公園地下自転車駐車場","province":"東京都","city":"中野区","address":"東京都中野区本町6丁目15","lat":35.69692748,"lon":139.66720765},{"name":"サンブライトAエリア","province":"東京都","city":"中野区","address":"東京都中野区本町2丁目46-1","lat":35.69663628,"lon":139.68205635},{"name":"中野ブロードウェイ駐輪場","province":"東京都","city":"中野区","address":"東京都中野区中野5丁目52-15","lat":35.70911214,"lon":139.66614057},{"name":"三井のリパーク鷺ノ宮南","province":"東京都","city":"中野区","address":"東京都中野区若宮3丁目58-21","lat":35.72244605,"lon":139.63964501},{"name":"鷺ノ宮駅前第３駐輪場","province":"東京都","city":"中野区","address":"東京都中野区鷺宮4丁目4-23","lat":35.72388196,"lon":139.63802564},{"name":"鷺ノ宮駅前第４駐輪場","province":"東京都","city":"中野区","address":"東京都中野区鷺宮4丁目3-3","lat":35.72359587,"lon":139.6376479},{"name":"コインズ鷺ノ宮","province":"東京都","city":"中野区","address":"東京都中野区鷺宮3丁目15-21","lat":35.72277659,"lon":139.64075602},{"name":"ユニゾンスクエア","province":"東京都","city":"中野区","address":"東京都中野区東中野5丁目1-1","lat":35.70665471,"lon":139.68713606},{"name":"中野セントラルパークサウス","province":"東京都","city":"中野区","address":"東京都中野区中野4丁目10-2","lat":35.70697335,"lon":139.66156882},{"name":"アップルパーク野方駐輪場","province":"東京都","city":"中野区","address":"東京都中野区野方6丁目30-2","lat":35.72067157,"lon":139.65206628},{"name":"新井五丁目有料駐輪場","province":"東京都","city":"中野区","address":"東京都中野区新井5丁目26-6","lat":35.71582264,"lon":139.67097597},{"name":"ＥＣＯサイクル新井薬師１","province":"東京都","city":"中野区","address":"東京都中野区松が丘1丁目1-3","lat":35.71658645,"lon":139.67123703},{"name":"アットパーク富士見台駐輪場","province":"東京都","city":"中野区","address":"東京都中野区上鷺宮4丁目17-2","lat":35.73456667,"lon":139.629262},{"name":"ピーコックストア都立家政駐輪場Ａ","province":"東京都","city":"中野区","address":"東京都中野区鷺宮1丁目17","lat":35.72276281,"lon":139.64483624},{"name":"ピーコックストア都立家政駐輪場Ｂ","province":"東京都","city":"中野区","address":"東京都中野区鷺宮1丁目17","lat":35.72276281,"lon":139.64483624},{"name":"中野四季の森公園地下自転車駐車場","province":"東京都","city":"中野区","address":"東京都中野区中野4丁目12","lat":35.70907033,"lon":139.66118822},{"name":"西武鷺ノ宮駅駐輪場","province":"東京都","city":"中野区","address":"東京都中野区鷺宮3丁目15","lat":35.72269602,"lon":139.63945613},{"name":"Parking in 東中野駅東口駐車場","province":"東京都","city":"中野区","address":"東京都中野区東中野1丁目51-1","lat":35.70606864,"lon":139.68621116},{"name":"サンブライトBエリア","province":"東京都","city":"中野区","address":"東京都中野区本町2丁目46-1","lat":35.69663628,"lon":139.68205635},{"name":"中野サンクォーレ 駐輪場","province":"東京都","city":"中野区","address":"東京都中野区中野4丁目3","lat":35.70912598,"lon":139.66482401},{"name":"中野サンプラザ駐輪場","province":"東京都","city":"中野区","address":"東京都中野区中野4丁目1-1","lat":35.70764282,"lon":139.66476852},{"name":"エコステーション21中野マルイ駐輪場","province":"東京都","city":"中野区","address":"東京都中野区中野3丁目34","lat":35.7044043,"lon":139.66493809},{"name":"マルエツ都立家政店駐輪場","province":"東京都","city":"中野区","address":"東京都中野区上鷺宮1丁目17-8","lat":35.72966739,"lon":139.63622831},{"name":"Parking in中野5丁目","province":"東京都","city":"中野区","address":"東京都中野区中野5丁目31","lat":35.70591532,"lon":139.66754613},{"name":"TOBU PARK","province":"東京都","city":"中野区","address":"東京都中野区中央2丁目1-7","lat":35.69739732,"lon":139.68258405},{"name":"ユアーズパーキング沼袋第2","province":"東京都","city":"中野区","address":"東京都中野区沼袋1丁目32-1","lat":35.71960261,"lon":139.66564571},{"name":"アップルパーク中野ブロードウェイ駐輪場","province":"東京都","city":"中野区","address":"東京都中野区中野5丁目52","lat":35.70914267,"lon":139.66554062},{"name":"エコステーション21みずほ銀行中野北口支店駐輪場","province":"東京都","city":"中野区","address":"東京都中野区新井1丁目9-5","lat":35.71016756,"lon":139.66563223},{"name":"バイクパーク","province":"東京都","city":"中野区","address":"東京都中野区東中野2丁目24","lat":35.70539359,"lon":139.68201434},{"name":"ライフ東中野店","province":"東京都","city":"中野区","address":"東京都中野区東中野3丁目9-7","lat":35.70775723,"lon":139.68248086},{"name":"新井薬師駐輪場","province":"東京都","city":"中野区","address":"東京都中野区新井5丁目17-12","lat":35.71536157,"lon":139.67051492}]}