{"keyword":"認可","data":[{"name":"AIAI NURSERY 中野坂上","province":"東京都","city":"中野区","address":"中野区中央2-2-3","lat":35.69766,"lon":139.68187},{"name":"コンビプラザ弥生町保育園","province":"東京都","city":"中野区","address":"中野区弥生町2-41-2","lat":35.69180505,"lon":139.6727677},{"name":"中野みなみ保育園","province":"東京都","city":"中野区","address":"中野区南台5-29-9","lat":35.68157,"lon":139.66032},{"name":"七海保育園","province":"東京都","city":"中野区","address":"中野区大和町4-12-10","lat":35.71541,"lon":139.64725},{"name":"AIAI NURSERY中野坂上","province":"東京都","city":"中野区","address":"中野区中央2-2-3","lat":35.69766,"lon":139.68187},{"name":"コンビプラザ弥生町保育園","province":"東京都","city":"中野区","address":"中野区弥生町2-41-2","lat":35.69136,"lon":139.67195},{"name":"中野松が丘すきっぷ保育園３１","province":"東京都","city":"中野区","address":"中野区松が丘1-26-2","lat":35.71957,"lon":139.67067},{"name":"もみじやま保育園","province":"東京都","city":"中野区","address":"中野区中野1-58-9","lat":35.70449,"lon":139.67328},{"name":"あさひ保育園","province":"東京都","city":"中野区","address":"中野区上高田1-45-8","lat":35.7117,"lon":139.67497},{"name":"仲町保育園","province":"東京都","city":"中野区","address":"中野区中央2-52-15","lat":35.6994,"lon":139.67627},{"name":"あい・あい保育園　中野坂上園","province":"東京都","city":"中野区","address":"中野区中央2-2-3","lat":35.69766,"lon":139.68187},{"name":"宮の台保育園","province":"東京都","city":"中野区","address":"中野区本町4-14-13","lat":35.69454,"lon":139.67267},{"name":"大和東保育園","province":"東京都","city":"中野区","address":"中野区大和町1-37-4","lat":35.71192,"lon":139.65106},{"name":"大和東保育園","province":"東京都","city":"中野区","address":"中野区若宮1-1-2(仮設)","lat":35.71608,"lon":139.64978},{"name":"コンビプラザ中野保育園","province":"東京都","city":"中野区","address":"中野区中野4-6-20","lat":35.70915,"lon":139.6639},{"name":"中野ここわ保育園","province":"東京都","city":"中野区","address":"中野区中野5-4-7","lat":35.70906,"lon":139.67217},{"name":"中野南台ちとせ保育園","province":"東京都","city":"中野区","address":"中野区南台2-1-5","lat":35.68312,"lon":139.67304},{"name":"ピオニイ保育園","province":"東京都","city":"中野区","address":"中野区新井2-40-3","lat":35.71285,"lon":139.66301},{"name":"キッズフォレ平和の森","province":"東京都","city":"中野区","address":"中野区新井3-35-20","lat":35.71584,"lon":139.66036},{"name":"野方さくら保育園","province":"東京都","city":"中野区","address":"中野区野方4-41-7","lat":35.72207,"lon":139.65683},{"name":"こどもヶ丘保育園野方園","province":"東京都","city":"中野区","address":"中野区野方6-38-2","lat":35.72157,"lon":139.64916},{"name":"ぽけっとランドさぎのみや保育園","province":"東京都","city":"中野区","address":"中野区鷺宮4-33-1","lat":35.72426,"lon":139.6375},{"name":"田中ナースリー大和保育園","province":"東京都","city":"中野区","address":"中野区大和町4-42-4","lat":35.71491,"lon":139.64217},{"name":"白鷺保育園","province":"東京都","city":"中野区","address":"中野区白鷺3-3-24","lat":35.72163,"lon":139.63355},{"name":"もみじやま保育園","province":"東京都","city":"中野区","address":"中野区中野1-58-9","lat":35.70391,"lon":139.67265}]}