{"keyword":"館","data":[{"name":"文園児童館","province":"東京都","city":"中野区","address":"中野区中野6-10-6","lat":35.706477,"lon":139.676684},{"name":"城山ふれあいの家","province":"東京都","city":"中野区","address":"中野区中野1-20-4","lat":35.704021,"lon":139.676906},{"name":"上高田児童館","province":"東京都","city":"中野区","address":"中野区上高田5-30-15","lat":35.718731,"lon":139.67517},{"name":"朝日が丘児童館","province":"東京都","city":"中野区","address":"中野区本町2-32-14","lat":35.695045,"lon":139.680984},{"name":"宮の台児童館","province":"東京都","city":"中野区","address":"中野区本町4-8-16","lat":35.695672,"lon":139.673232},{"name":"南中野児童館","province":"東京都","city":"中野区","address":"中野区弥生町4-36-15","lat":35.689801,"lon":139.67091},{"name":"弥生児童館","province":"東京都","city":"中野区","address":"中野区弥生1-14-6","lat":35.690373,"lon":139.681068},{"name":"みなみ児童館","province":"東京都","city":"中野区","address":"中野区南台5-15-3","lat":35.680143,"lon":139.66232},{"name":"みずの塔ふれあいの家","province":"東京都","city":"中野区","address":"中野区江古田1-9-24","lat":35.725491,"lon":139.673539},{"name":"新井薬師児童館","province":"東京都","city":"中野区","address":"中野区新井5-4-17","lat":35.715237,"lon":139.667804},{"name":"野方児童館","province":"東京都","city":"中野区","address":"中野区新井2-48-10","lat":35.71082,"lon":139.660444},{"name":"北原児童館","province":"東京都","city":"中野区","address":"中野区野方6-35-13","lat":35.721263,"lon":139.650641},{"name":"かみさぎ児童館","province":"東京都","city":"中野区","address":"中野区上鷺宮3-9-19","lat":35.73465,"lon":139.631476},{"name":"鷺宮児童館","province":"東京都","city":"中野区","address":"中野区鷺宮3-40-13","lat":35.724563,"lon":139.642147},{"name":"若宮児童館","province":"東京都","city":"中野区","address":"中野区若宮3-54-7","lat":35.720216,"lon":139.640812},{"name":"大和西児童館","province":"東京都","city":"中野区","address":"中野区大和町4-14-9","lat":35.714442,"lon":139.646403},{"name":"大和児童館","province":"東京都","city":"中野区","address":"中野区大和町2-8-12","lat":35.715925,"lon":139.651661},{"name":"西中野児童館","province":"東京都","city":"中野区","address":"中野区白鷺3-15-5","lat":35.722163,"lon":139.630354},{"name":"文園児童館","province":"東京都","city":"中野区","address":"中野区中野6-10-6","lat":35.70642,"lon":139.67668},{"name":"上高田児童館","province":"東京都","city":"中野区","address":"中野区上高田5-30-15","lat":35.71864,"lon":139.67455},{"name":"朝日が丘児童館","province":"東京都","city":"中野区","address":"中野区本町2-32-14","lat":35.69505,"lon":139.68094},{"name":"宮の台児童館","province":"東京都","city":"中野区","address":"中野区本町4-8-16","lat":35.6952,"lon":139.67287},{"name":"弥生児童館","province":"東京都","city":"中野区","address":"中野区弥生1-14-6","lat":35.6862,"lon":139.66118},{"name":"南中野児童館","province":"東京都","city":"中野区","address":"中野区弥生町4-36-15","lat":35.68969,"lon":139.67055},{"name":"みなみ児童館","province":"東京都","city":"中野区","address":"中野区南台5-15-3","lat":35.68022,"lon":139.66254},{"name":"野方児童館","province":"東京都","city":"中野区","address":"中野区新井2-48-10","lat":35.71073,"lon":139.66078},{"name":"新井薬師児童館","province":"東京都","city":"中野区","address":"中野区新井5-4-17","lat":35.71466,"lon":139.66707},{"name":"北原児童館","province":"東京都","city":"中野区","address":"中野区野方6-35-13","lat":35.72117,"lon":139.65051},{"name":"かみさぎ児童館","province":"東京都","city":"中野区","address":"中野区上鷺宮3-9-19","lat":35.73426,"lon":139.63121},{"name":"鷺宮児童館","province":"東京都","city":"中野区","address":"中野区鷺宮3-40-13","lat":35.72448,"lon":139.64191},{"name":"若宮児童館","province":"東京都","city":"中野区","address":"中野区若宮3-54-7","lat":35.72025,"lon":139.64096},{"name":"大和児童館","province":"東京都","city":"中野区","address":"中野区大和町2-8-12","lat":35.7158,"lon":139.65149},{"name":"大和西児童館","province":"東京都","city":"中野区","address":"中野区大和町4-14-9","lat":35.71419,"lon":139.64622},{"name":"西中野児童館","province":"東京都","city":"中野区","address":"中野区白鷺3-15-5","lat":35.72253,"lon":139.63014},{"name":"弥生児童館","province":"東京都","city":"中野区","address":"中野区弥生町1-14-6","lat":35.69039,"lon":139.68069},{"name":"大和西児童館","province":"東京都","city":"中野区","address":"中野区大和町4-14-9","lat":35.71419,"lon":139.64623},{"name":"弥生児童館","province":"東京都","city":"中野区","address":"中野区弥生1-14-6","lat":39.6925,"lon":141.16884},{"name":"＊?上高田図書館","province":"東京都","city":"中野区","address":"中野区上高田5-30-15","lat":35.718764,"lon":139.675142},{"name":"＊?江古田図書館","province":"東京都","city":"中野区","address":"中野区江古田2-1-11","lat":35.724899,"lon":139.669068},{"name":"＊?鷺宮図書館","province":"東京都","city":"中野区","address":"中野区鷺宮3-22-5","lat":35.723436,"lon":139.639805},{"name":"＊?東中野図書館","province":"東京都","city":"中野区","address":"中野区東中野1-35-5","lat":35.704584,"lon":139.684825},{"name":"＊?本町図書館","province":"東京都","city":"中野区","address":"中野区本町2-13-2","lat":35.694713,"lon":139.677821},{"name":"＊?南台図書館","province":"東京都","city":"中野区","address":"中野区南台3-26-18","lat":35.68539,"lon":139.665695},{"name":"＊?野方図書館","province":"東京都","city":"中野区","address":"中野区野方3-19-5","lat":35.717446,"lon":139.654271},{"name":"＊?中央図書館","province":"東京都","city":"中野区","address":"中野区中野2-9-7","lat":35.704456,"lon":139.671765}]}