{"keyword":"スモッグ","data":[{"name":"総務部","province":"東京都","city":"新宿区","address":"東京都新宿区西新宿2丁目8-1","lat":35.68918461,"lon":139.69164748},{"name":"用地部","province":"東京都","city":"新宿区","address":"東京都新宿区西新宿2丁目8-1","lat":35.68918461,"lon":139.69164748},{"name":"道路管理部","province":"東京都","city":"新宿区","address":"東京都新宿区西新宿2丁目8-1","lat":35.68918461,"lon":139.69164748},{"name":"道路建設部","province":"東京都","city":"新宿区","address":"東京都新宿区西新宿2丁目8-1","lat":35.68918461,"lon":139.69164748},{"name":"三環状道路整備推進部","province":"東京都","city":"新宿区","address":"東京都新宿区西新宿2丁目8-1","lat":35.68918461,"lon":139.69164748},{"name":"公園緑地部","province":"東京都","city":"新宿区","address":"東京都新宿区西新宿2丁目8-1","lat":35.68918461,"lon":139.69164748},{"name":"河川部","province":"東京都","city":"新宿区","address":"東京都新宿区西新宿2丁目8-1","lat":35.68918461,"lon":139.69164748},{"name":"富山公園","province":"東京都","city":"新宿区","address":"東京都新宿区戸山一・二・三丁目、新宿区大久保三丁目","lat":35.707707,"lon":139.705066},{"name":"新宿駅西口　地下タクシー乗り場前","province":"東京都","city":"新宿区","address":"東京都新宿区西新宿1","lat":35.6911,"lon":139.69777},{"name":"新宿駅東口　アルタ前（２基設置）","province":"東京都","city":"新宿区","address":"東京都新宿区新宿3-24-3","lat":35.69267,"lon":139.70139},{"name":"歌舞伎町　交差点","province":"東京都","city":"新宿区","address":"東京都新宿区歌舞伎町1-17-13","lat":35.69409,"lon":139.70135},{"name":"歌舞伎町　セントラルロード","province":"東京都","city":"新宿区","address":"東京都新宿区歌舞伎町1-14-3","lat":35.69452,"lon":139.70206},{"name":"歌舞伎町　一番街","province":"東京都","city":"新宿区","address":"東京都新宿区歌舞伎町1-23-10","lat":35.69426,"lon":139.70093},{"name":"新宿西口駅　思い出横丁南","province":"東京都","city":"新宿区","address":"東京都新宿区西新宿1-4-2","lat":35.69304,"lon":139.69801},{"name":"新宿駅東口　モア２番街南","province":"東京都","city":"新宿区","address":"東京都新宿区新宿3-23-17","lat":35.69327,"lon":139.70085},{"name":"新宿駅東口　モア４番街南","province":"東京都","city":"新宿区","address":"東京都新宿区新宿3-26-11","lat":35.69154,"lon":139.70186},{"name":"新宿駅東南口　広場前","province":"東京都","city":"新宿区","address":"東京都新宿区新宿3-37","lat":35.69017,"lon":139.70145},{"name":"新宿駅南口　バスタ新宿前","province":"東京都","city":"新宿区","address":"東京都新宿区新宿3-38-2","lat":35.69214,"lon":139.70129},{"name":"西新宿一丁目交差点","province":"東京都","city":"新宿区","address":"東京都新宿区西新宿1-1-5","lat":35.69027,"lon":139.69939},{"name":"京王百貨店前（２基設置）","province":"東京都","city":"新宿区","address":"東京都新宿区西新宿1-1-4","lat":35.69027,"lon":139.69939},{"name":"新宿駅東口　タクシー乗り場前","province":"東京都","city":"新宿区","address":"東京都新宿区新宿3-38-1","lat":35.69214,"lon":139.70129},{"name":"新宿駅東南口　Flags前","province":"東京都","city":"新宿区","address":"東京都新宿区新宿3-36-6","lat":35.69034,"lon":139.7019},{"name":"伊勢丹本館前","province":"東京都","city":"新宿区","address":"東京都新宿区新宿3-14-1","lat":35.69234,"lon":139.70471},{"name":"新宿三丁目交差点","province":"東京都","city":"新宿区","address":"東京都新宿区新宿3-4-4","lat":35.69087,"lon":139.7054},{"name":"高田馬場駅早稲田口　西","province":"東京都","city":"新宿区","address":"東京都新宿区高田馬場3-1-4","lat":35.714317,"lon":139.703598},{"name":"高田馬場駅早稲田口　ロータリー","province":"東京都","city":"新宿区","address":"東京都新宿区高田馬場1-26-5","lat":35.712883,"lon":139.704865},{"name":"高田馬場駅戸山口　東","province":"東京都","city":"新宿区","address":"東京都新宿区高田馬場1-28-4","lat":35.71159,"lon":139.704315},{"name":"大久保駅北口","province":"東京都","city":"新宿区","address":"東京都新宿区百人町2-23-1","lat":35.70179,"lon":139.696976},{"name":"新大久保駅北口　西","province":"東京都","city":"新宿区","address":"東京都新宿区百人町2-4-1","lat":35.70155,"lon":139.700104},{"name":"新大久保駅北口　東","province":"東京都","city":"新宿区","address":"東京都新宿区百人町2-3-23","lat":35.701492,"lon":139.701004},{"name":"信濃町駅","province":"東京都","city":"新宿区","address":"東京都新宿区南元町19","lat":35.679428,"lon":139.720978},{"name":"JR四ツ谷駅四ツ谷口","province":"東京都","city":"新宿区","address":"東京都新宿区四谷1-4-2","lat":35.686832,"lon":139.728683},{"name":"JR四ツ谷駅赤坂口","province":"東京都","city":"新宿区","address":"東京都新宿区四谷1-2","lat":35.68578,"lon":139.728958},{"name":"西武線中井駅","province":"東京都","city":"新宿区","address":"東京都新宿区中落合1-20-15","lat":35.714939,"lon":139.687393},{"name":"大江戸線中井駅A2出口","province":"東京都","city":"新宿区","address":"東京都新宿区上落合2-20-6","lat":35.714153,"lon":139.686829},{"name":"神楽坂下交差点","province":"東京都","city":"新宿区","address":"東京都新宿区神楽坂2-1","lat":35.700607,"lon":139.741806},{"name":"地下鉄早稲田駅前交差点","province":"東京都","city":"新宿区","address":"東京都新宿区馬場下町3","lat":35.70573,"lon":139.720551},{"name":"東新宿駅南交差点","province":"東京都","city":"新宿区","address":"東京都新宿区新宿6-29-11","lat":35.697765,"lon":139.707779},{"name":"四谷3丁目駅前交差点","province":"東京都","city":"新宿区","address":"東京都新宿区四谷3-9-11","lat":35.687627,"lon":139.719669},{"name":"新宿中央公園 水の広場","province":"東京都","city":"新宿区","address":"東京都新宿区西新宿2-11","lat":35.691105,"lon":139.687698},{"name":"新宿御苑前駅1出口","province":"東京都","city":"新宿区","address":"東京都新宿区新宿2-8-1","lat":35.688904,"lon":139.709702},{"name":"市ヶ谷駅 DNPプラザ前","province":"東京都","city":"新宿区","address":"東京都新宿区市谷田町1-14-1","lat":35.6936,"lon":139.736542},{"name":"西新宿駅 2出口","province":"東京都","city":"新宿区","address":"東京都新宿区西新宿8-1-3","lat":35.694252,"lon":139.69368},{"name":"明治神宮外苑軟式野球場","province":"東京都","city":"新宿区","address":"東京都新宿区霞ヶ丘町1-1","lat":35.67880032,"lon":139.71766225},{"name":"都立落合中央公園野球場","province":"東京都","city":"新宿区","address":"東京都新宿区上落合1丁目2","lat":35.71287916,"lon":139.69289364},{"name":"新宿区立西戸山公園野球場","province":"東京都","city":"新宿区","address":"東京都新宿区百人町4丁目1","lat":35.70748833,"lon":139.70088483},{"name":"東京都庁第一本庁舎","province":"東京都","city":"新宿区","address":"東京都新宿区西新宿2丁目8-1","lat":35.68918461,"lon":139.69164748},{"name":"国立国際医療研究センターヘリポート","province":"東京都","city":"新宿区","address":"東京都新宿区戸山1丁目21-1","lat":35.70174214,"lon":139.71530878},{"name":"(株)川藤商会","province":"東京都","city":"新宿区","address":"新宿区西落合1-13-13","lat":35.720596,"lon":139.681747},{"name":"藤田健次郎","province":"東京都","city":"新宿区","address":"新宿区山吹町307","lat":35.70665,"lon":139.732315},{"name":"(株)長井紙業","province":"東京都","city":"新宿区","address":"新宿区戸山1-10-15","lat":35.702686,"lon":139.719254},{"name":"総務部","province":"東京都","city":"新宿区","address":"東京都新宿区西新宿2丁目8-1","lat":35.68918461,"lon":139.69164748},{"name":"用地部","province":"東京都","city":"新宿区","address":"東京都新宿区西新宿2丁目8-1","lat":35.68918461,"lon":139.69164748},{"name":"道路管理部","province":"東京都","city":"新宿区","address":"東京都新宿区西新宿2丁目8-1","lat":35.68918461,"lon":139.69164748},{"name":"道路建設部","province":"東京都","city":"新宿区","address":"東京都新宿区西新宿2丁目8-1","lat":35.68918461,"lon":139.69164748},{"name":"三環状道路整備推進部","province":"東京都","city":"新宿区","address":"東京都新宿区西新宿2丁目8-1","lat":35.68918461,"lon":139.69164748},{"name":"公園緑地部","province":"東京都","city":"新宿区","address":"東京都新宿区西新宿2丁目8-1","lat":35.68918461,"lon":139.69164748},{"name":"河川部","province":"東京都","city":"新宿区","address":"東京都新宿区西新宿2丁目8-1","lat":35.68918461,"lon":139.69164748},{"name":"富山公園","province":"東京都","city":"新宿区","address":"東京都新宿区戸山一・二・三丁目、新宿区大久保三丁目","lat":35.707707,"lon":139.705066},{"name":"東新宿駅南交差点","province":"東京都","city":"新宿区","address":"東京都新宿区新宿6-29-11","lat":35.697765,"lon":139.707779},{"name":"四谷3丁目駅前交差点","province":"東京都","city":"新宿区","address":"東京都新宿区四谷3-9-11","lat":35.687627,"lon":139.719669},{"name":"新宿中央公園 水の広場","province":"東京都","city":"新宿区","address":"東京都新宿区西新宿2-11","lat":35.691105,"lon":139.687698},{"name":"新宿御苑前駅1出口","province":"東京都","city":"新宿区","address":"東京都新宿区新宿2-8-1","lat":35.688904,"lon":139.709702},{"name":"市ヶ谷駅 DNPプラザ前","province":"東京都","city":"新宿区","address":"東京都新宿区市谷田町1-14-1","lat":35.6936,"lon":139.736542},{"name":"西新宿駅 2出口","province":"東京都","city":"新宿区","address":"東京都新宿区西新宿8-1-3","lat":35.694252,"lon":139.69368},{"name":"(株)川藤商会","province":"東京都","city":"新宿区","address":"新宿区西落合1-13-13","lat":35.720596,"lon":139.681747},{"name":"藤田健次郎","province":"東京都","city":"新宿区","address":"新宿区山吹町307","lat":35.70665,"lon":139.732315},{"name":"(株)長井紙業","province":"東京都","city":"新宿区","address":"新宿区戸山1-10-15","lat":35.702686,"lon":139.719254},{"name":"総務部","province":"東京都","city":"新宿区","address":"東京都新宿区西新宿2丁目8-1","lat":35.68918461,"lon":139.69164748},{"name":"用地部","province":"東京都","city":"新宿区","address":"東京都新宿区西新宿2丁目8-1","lat":35.68918461,"lon":139.69164748},{"name":"道路管理部","province":"東京都","city":"新宿区","address":"東京都新宿区西新宿2丁目8-1","lat":35.68918461,"lon":139.69164748},{"name":"道路建設部","province":"東京都","city":"新宿区","address":"東京都新宿区西新宿2丁目8-1","lat":35.68918461,"lon":139.69164748},{"name":"三環状道路整備推進部","province":"東京都","city":"新宿区","address":"東京都新宿区西新宿2丁目8-1","lat":35.68918461,"lon":139.69164748},{"name":"公園緑地部","province":"東京都","city":"新宿区","address":"東京都新宿区西新宿2丁目8-1","lat":35.68918461,"lon":139.69164748},{"name":"河川部","province":"東京都","city":"新宿区","address":"東京都新宿区西新宿2丁目8-1","lat":35.68918461,"lon":139.69164748},{"name":"富山公園","province":"東京都","city":"新宿区","address":"東京都新宿区戸山一・二・三丁目、新宿区大久保三丁目","lat":35.707707,"lon":139.705066},{"name":"東新宿駅南交差点","province":"東京都","city":"新宿区","address":"東京都新宿区新宿6-29-11","lat":35.697765,"lon":139.707779},{"name":"四谷3丁目駅前交差点","province":"東京都","city":"新宿区","address":"東京都新宿区四谷3-9-11","lat":35.687627,"lon":139.719669},{"name":"新宿中央公園 水の広場","province":"東京都","city":"新宿区","address":"東京都新宿区西新宿2-11","lat":35.691105,"lon":139.687698},{"name":"新宿御苑前駅1出口","province":"東京都","city":"新宿区","address":"東京都新宿区新宿2-8-1","lat":35.688904,"lon":139.709702},{"name":"市ヶ谷駅 DNPプラザ前","province":"東京都","city":"新宿区","address":"東京都新宿区市谷田町1-14-1","lat":35.6936,"lon":139.736542},{"name":"西新宿駅 2出口","province":"東京都","city":"新宿区","address":"東京都新宿区西新宿8-1-3","lat":35.694252,"lon":139.69368},{"name":"(株)川藤商会","province":"東京都","city":"新宿区","address":"新宿区西落合1-13-13","lat":35.720596,"lon":139.681747},{"name":"藤田健次郎","province":"東京都","city":"新宿区","address":"新宿区山吹町307","lat":35.70665,"lon":139.732315},{"name":"(株)長井紙業","province":"東京都","city":"新宿区","address":"新宿区戸山1-10-15","lat":35.702686,"lon":139.719254},{"name":"総務部","province":"東京都","city":"新宿区","address":"東京都新宿区西新宿2丁目8-1","lat":35.68918461,"lon":139.69164748},{"name":"用地部","province":"東京都","city":"新宿区","address":"東京都新宿区西新宿2丁目8-1","lat":35.68918461,"lon":139.69164748},{"name":"道路管理部","province":"東京都","city":"新宿区","address":"東京都新宿区西新宿2丁目8-1","lat":35.68918461,"lon":139.69164748},{"name":"道路建設部","province":"東京都","city":"新宿区","address":"東京都新宿区西新宿2丁目8-1","lat":35.68918461,"lon":139.69164748},{"name":"三環状道路整備推進部","province":"東京都","city":"新宿区","address":"東京都新宿区西新宿2丁目8-1","lat":35.68918461,"lon":139.69164748},{"name":"公園緑地部","province":"東京都","city":"新宿区","address":"東京都新宿区西新宿2丁目8-1","lat":35.68918461,"lon":139.69164748},{"name":"河川部","province":"東京都","city":"新宿区","address":"東京都新宿区西新宿2丁目8-1","lat":35.68918461,"lon":139.69164748},{"name":"富山公園","province":"東京都","city":"新宿区","address":"東京都新宿区戸山一・二・三丁目、新宿区大久保三丁目","lat":35.707707,"lon":139.705066},{"name":"東新宿駅南交差点","province":"東京都","city":"新宿区","address":"東京都新宿区新宿6-29-11","lat":35.697765,"lon":139.707779},{"name":"四谷3丁目駅前交差点","province":"東京都","city":"新宿区","address":"東京都新宿区四谷3-9-11","lat":35.687627,"lon":139.719669},{"name":"新宿中央公園 水の広場","province":"東京都","city":"新宿区","address":"東京都新宿区西新宿2-11","lat":35.691105,"lon":139.687698},{"name":"新宿御苑前駅1出口","province":"東京都","city":"新宿区","address":"東京都新宿区新宿2-8-1","lat":35.688904,"lon":139.709702},{"name":"市ヶ谷駅 DNPプラザ前","province":"東京都","city":"新宿区","address":"東京都新宿区市谷田町1-14-1","lat":35.6936,"lon":139.736542},{"name":"西新宿駅 2出口","province":"東京都","city":"新宿区","address":"東京都新宿区西新宿8-1-3","lat":35.694252,"lon":139.69368},{"name":"(株)川藤商会","province":"東京都","city":"新宿区","address":"新宿区西落合1-13-13","lat":35.720596,"lon":139.681747},{"name":"藤田健次郎","province":"東京都","city":"新宿区","address":"新宿区山吹町307","lat":35.70665,"lon":139.732315},{"name":"(株)長井紙業","province":"東京都","city":"新宿区","address":"新宿区戸山1-10-15","lat":35.702686,"lon":139.719254},{"name":"総務部","province":"東京都","city":"新宿区","address":"東京都新宿区西新宿2丁目8-1","lat":35.68918461,"lon":139.69164748},{"name":"用地部","province":"東京都","city":"新宿区","address":"東京都新宿区西新宿2丁目8-1","lat":35.68918461,"lon":139.69164748},{"name":"道路管理部","province":"東京都","city":"新宿区","address":"東京都新宿区西新宿2丁目8-1","lat":35.68918461,"lon":139.69164748},{"name":"道路建設部","province":"東京都","city":"新宿区","address":"東京都新宿区西新宿2丁目8-1","lat":35.68918461,"lon":139.69164748},{"name":"三環状道路整備推進部","province":"東京都","city":"新宿区","address":"東京都新宿区西新宿2丁目8-1","lat":35.68918461,"lon":139.69164748},{"name":"公園緑地部","province":"東京都","city":"新宿区","address":"東京都新宿区西新宿2丁目8-1","lat":35.68918461,"lon":139.69164748},{"name":"河川部","province":"東京都","city":"新宿区","address":"東京都新宿区西新宿2丁目8-1","lat":35.68918461,"lon":139.69164748},{"name":"富山公園","province":"東京都","city":"新宿区","address":"東京都新宿区戸山一・二・三丁目、新宿区大久保三丁目","lat":35.707707,"lon":139.705066},{"name":"東新宿駅南交差点","province":"東京都","city":"新宿区","address":"東京都新宿区新宿6-29-11","lat":35.697765,"lon":139.707779},{"name":"四谷3丁目駅前交差点","province":"東京都","city":"新宿区","address":"東京都新宿区四谷3-9-11","lat":35.687627,"lon":139.719669},{"name":"新宿中央公園 水の広場","province":"東京都","city":"新宿区","address":"東京都新宿区西新宿2-11","lat":35.691105,"lon":139.687698},{"name":"新宿御苑前駅1出口","province":"東京都","city":"新宿区","address":"東京都新宿区新宿2-8-1","lat":35.688904,"lon":139.709702},{"name":"市ヶ谷駅 DNPプラザ前","province":"東京都","city":"新宿区","address":"東京都新宿区市谷田町1-14-1","lat":35.6936,"lon":139.736542},{"name":"西新宿駅 2出口","province":"東京都","city":"新宿区","address":"東京都新宿区西新宿8-1-3","lat":35.694252,"lon":139.69368},{"name":"(株)川藤商会","province":"東京都","city":"新宿区","address":"新宿区西落合1-13-13","lat":35.720596,"lon":139.681747},{"name":"藤田健次郎","province":"東京都","city":"新宿区","address":"新宿区山吹町307","lat":35.70665,"lon":139.732315},{"name":"(株)長井紙業","province":"東京都","city":"新宿区","address":"新宿区戸山1-10-15","lat":35.702686,"lon":139.719254},{"name":"富山公園","province":"東京都","city":"新宿区","address":"東京都新宿区戸山一・二・三丁目、新宿区大久保三丁目","lat":35.707707,"lon":139.705066},{"name":"東新宿駅南交差点","province":"東京都","city":"新宿区","address":"東京都新宿区新宿6-29-11","lat":35.697765,"lon":139.707779},{"name":"四谷3丁目駅前交差点","province":"東京都","city":"新宿区","address":"東京都新宿区四谷3-9-11","lat":35.687627,"lon":139.719669},{"name":"新宿中央公園 水の広場","province":"東京都","city":"新宿区","address":"東京都新宿区西新宿2-11","lat":35.691105,"lon":139.687698},{"name":"新宿御苑前駅1出口","province":"東京都","city":"新宿区","address":"東京都新宿区新宿2-8-1","lat":35.688904,"lon":139.709702},{"name":"市ヶ谷駅 DNPプラザ前","province":"東京都","city":"新宿区","address":"東京都新宿区市谷田町1-14-1","lat":35.6936,"lon":139.736542},{"name":"西新宿駅 2出口","province":"東京都","city":"新宿区","address":"東京都新宿区西新宿8-1-3","lat":35.694252,"lon":139.69368},{"name":"(株)川藤商会","province":"東京都","city":"新宿区","address":"新宿区西落合1-13-13","lat":35.720596,"lon":139.681747},{"name":"藤田健次郎","province":"東京都","city":"新宿区","address":"新宿区山吹町307","lat":35.70665,"lon":139.732315},{"name":"(株)長井紙業","province":"東京都","city":"新宿区","address":"新宿区戸山1-10-15","lat":35.702686,"lon":139.719254},{"name":"富山公園","province":"東京都","city":"新宿区","address":"東京都新宿区戸山一・二・三丁目、新宿区大久保三丁目","lat":35.707707,"lon":139.705066},{"name":"東新宿駅南交差点","province":"東京都","city":"新宿区","address":"東京都新宿区新宿6-29-11","lat":35.697765,"lon":139.707779},{"name":"四谷3丁目駅前交差点","province":"東京都","city":"新宿区","address":"東京都新宿区四谷3-9-11","lat":35.687627,"lon":139.719669},{"name":"新宿中央公園 水の広場","province":"東京都","city":"新宿区","address":"東京都新宿区西新宿2-11","lat":35.691105,"lon":139.687698},{"name":"新宿御苑前駅1出口","province":"東京都","city":"新宿区","address":"東京都新宿区新宿2-8-1","lat":35.688904,"lon":139.709702},{"name":"市ヶ谷駅 DNPプラザ前","province":"東京都","city":"新宿区","address":"東京都新宿区市谷田町1-14-1","lat":35.6936,"lon":139.736542},{"name":"西新宿駅 2出口","province":"東京都","city":"新宿区","address":"東京都新宿区西新宿8-1-3","lat":35.694252,"lon":139.69368},{"name":"(株)川藤商会","province":"東京都","city":"新宿区","address":"新宿区西落合1-13-13","lat":35.720596,"lon":139.681747},{"name":"藤田健次郎","province":"東京都","city":"新宿区","address":"新宿区山吹町307","lat":35.70665,"lon":139.732315},{"name":"(株)長井紙業","province":"東京都","city":"新宿区","address":"新宿区戸山1-10-15","lat":35.702686,"lon":139.719254},{"name":"富山公園","province":"東京都","city":"新宿区","address":"東京都新宿区戸山一・二・三丁目、新宿区大久保三丁目","lat":35.707707,"lon":139.705066},{"name":"東新宿駅南交差点","province":"東京都","city":"新宿区","address":"東京都新宿区新宿6-29-11","lat":35.697765,"lon":139.707779},{"name":"四谷3丁目駅前交差点","province":"東京都","city":"新宿区","address":"東京都新宿区四谷3-9-11","lat":35.687627,"lon":139.719669},{"name":"新宿中央公園 水の広場","province":"東京都","city":"新宿区","address":"東京都新宿区西新宿2-11","lat":35.691105,"lon":139.687698},{"name":"新宿御苑前駅1出口","province":"東京都","city":"新宿区","address":"東京都新宿区新宿2-8-1","lat":35.688904,"lon":139.709702},{"name":"市ヶ谷駅 DNPプラザ前","province":"東京都","city":"新宿区","address":"東京都新宿区市谷田町1-14-1","lat":35.6936,"lon":139.736542},{"name":"西新宿駅 2出口","province":"東京都","city":"新宿区","address":"東京都新宿区西新宿8-1-3","lat":35.694252,"lon":139.69368},{"name":"(株)川藤商会","province":"東京都","city":"新宿区","address":"新宿区西落合1-13-13","lat":35.720596,"lon":139.681747},{"name":"藤田健次郎","province":"東京都","city":"新宿区","address":"新宿区山吹町307","lat":35.70665,"lon":139.732315},{"name":"(株)長井紙業","province":"東京都","city":"新宿区","address":"新宿区戸山1-10-15","lat":35.702686,"lon":139.719254},{"name":"富山公園","province":"東京都","city":"新宿区","address":"東京都新宿区戸山一・二・三丁目、新宿区大久保三丁目","lat":35.707707,"lon":139.705066},{"name":"東新宿駅南交差点","province":"東京都","city":"新宿区","address":"東京都新宿区新宿6-29-11","lat":35.697765,"lon":139.707779},{"name":"四谷3丁目駅前交差点","province":"東京都","city":"新宿区","address":"東京都新宿区四谷3-9-11","lat":35.687627,"lon":139.719669},{"name":"新宿中央公園 水の広場","province":"東京都","city":"新宿区","address":"東京都新宿区西新宿2-11","lat":35.691105,"lon":139.687698},{"name":"新宿御苑前駅1出口","province":"東京都","city":"新宿区","address":"東京都新宿区新宿2-8-1","lat":35.688904,"lon":139.709702},{"name":"市ヶ谷駅 DNPプラザ前","province":"東京都","city":"新宿区","address":"東京都新宿区市谷田町1-14-1","lat":35.6936,"lon":139.736542},{"name":"西新宿駅 2出口","province":"東京都","city":"新宿区","address":"東京都新宿区西新宿8-1-3","lat":35.694252,"lon":139.69368},{"name":"(株)川藤商会","province":"東京都","city":"新宿区","address":"新宿区西落合1-13-13","lat":35.720596,"lon":139.681747},{"name":"藤田健次郎","province":"東京都","city":"新宿区","address":"新宿区山吹町307","lat":35.70665,"lon":139.732315},{"name":"(株)長井紙業","province":"東京都","city":"新宿区","address":"新宿区戸山1-10-15","lat":35.702686,"lon":139.719254},{"name":"富山公園","province":"東京都","city":"新宿区","address":"東京都新宿区戸山一・二・三丁目、新宿区大久保三丁目","lat":35.707707,"lon":139.705066},{"name":"東新宿駅南交差点","province":"東京都","city":"新宿区","address":"東京都新宿区新宿6-29-11","lat":35.697765,"lon":139.707779},{"name":"四谷3丁目駅前交差点","province":"東京都","city":"新宿区","address":"東京都新宿区四谷3-9-11","lat":35.687627,"lon":139.719669},{"name":"新宿中央公園 水の広場","province":"東京都","city":"新宿区","address":"東京都新宿区西新宿2-11","lat":35.691105,"lon":139.687698},{"name":"新宿御苑前駅1出口","province":"東京都","city":"新宿区","address":"東京都新宿区新宿2-8-1","lat":35.688904,"lon":139.709702},{"name":"市ヶ谷駅 DNPプラザ前","province":"東京都","city":"新宿区","address":"東京都新宿区市谷田町1-14-1","lat":35.6936,"lon":139.736542},{"name":"西新宿駅 2出口","province":"東京都","city":"新宿区","address":"東京都新宿区西新宿8-1-3","lat":35.694252,"lon":139.69368},{"name":"(株)川藤商会","province":"東京都","city":"新宿区","address":"新宿区西落合1-13-13","lat":35.720596,"lon":139.681747},{"name":"藤田健次郎","province":"東京都","city":"新宿区","address":"新宿区山吹町307","lat":35.70665,"lon":139.732315},{"name":"(株)長井紙業","province":"東京都","city":"新宿区","address":"新宿区戸山1-10-15","lat":35.702686,"lon":139.719254},{"name":"富山公園","province":"東京都","city":"新宿区","address":"東京都新宿区戸山一・二・三丁目、新宿区大久保三丁目","lat":35.707707,"lon":139.705066},{"name":"東新宿駅南交差点","province":"東京都","city":"新宿区","address":"東京都新宿区新宿6-29-11","lat":35.697765,"lon":139.707779},{"name":"四谷3丁目駅前交差点","province":"東京都","city":"新宿区","address":"東京都新宿区四谷3-9-11","lat":35.687627,"lon":139.719669},{"name":"新宿中央公園 水の広場","province":"東京都","city":"新宿区","address":"東京都新宿区西新宿2-11","lat":35.691105,"lon":139.687698},{"name":"新宿御苑前駅1出口","province":"東京都","city":"新宿区","address":"東京都新宿区新宿2-8-1","lat":35.688904,"lon":139.709702},{"name":"市ヶ谷駅 DNPプラザ前","province":"東京都","city":"新宿区","address":"東京都新宿区市谷田町1-14-1","lat":35.6936,"lon":139.736542},{"name":"西新宿駅 2出口","province":"東京都","city":"新宿区","address":"東京都新宿区西新宿8-1-3","lat":35.694252,"lon":139.69368},{"name":"(株)川藤商会","province":"東京都","city":"新宿区","address":"新宿区西落合1-13-13","lat":35.720596,"lon":139.681747},{"name":"藤田健次郎","province":"東京都","city":"新宿区","address":"新宿区山吹町307","lat":35.70665,"lon":139.732315},{"name":"(株)長井紙業","province":"東京都","city":"新宿区","address":"新宿区戸山1-10-15","lat":35.702686,"lon":139.719254},{"name":"富山公園","province":"東京都","city":"新宿区","address":"東京都新宿区戸山一・二・三丁目、新宿区大久保三丁目","lat":35.707707,"lon":139.705066},{"name":"東新宿駅南交差点","province":"東京都","city":"新宿区","address":"東京都新宿区新宿6-29-11","lat":35.697765,"lon":139.707779},{"name":"四谷3丁目駅前交差点","province":"東京都","city":"新宿区","address":"東京都新宿区四谷3-9-11","lat":35.687627,"lon":139.719669},{"name":"新宿中央公園 水の広場","province":"東京都","city":"新宿区","address":"東京都新宿区西新宿2-11","lat":35.691105,"lon":139.687698},{"name":"新宿御苑前駅1出口","province":"東京都","city":"新宿区","address":"東京都新宿区新宿2-8-1","lat":35.688904,"lon":139.709702},{"name":"市ヶ谷駅 DNPプラザ前","province":"東京都","city":"新宿区","address":"東京都新宿区市谷田町1-14-1","lat":35.6936,"lon":139.736542},{"name":"西新宿駅 2出口","province":"東京都","city":"新宿区","address":"東京都新宿区西新宿8-1-3","lat":35.694252,"lon":139.69368},{"name":"(株)川藤商会","province":"東京都","city":"新宿区","address":"新宿区西落合1-13-13","lat":35.720596,"lon":139.681747},{"name":"藤田健次郎","province":"東京都","city":"新宿区","address":"新宿区山吹町307","lat":35.70665,"lon":139.732315},{"name":"(株)長井紙業","province":"東京都","city":"新宿区","address":"新宿区戸山1-10-15","lat":35.702686,"lon":139.719254},{"name":"富山公園","province":"東京都","city":"新宿区","address":"東京都新宿区戸山一・二・三丁目、新宿区大久保三丁目","lat":35.707707,"lon":139.705066},{"name":"東新宿駅南交差点","province":"東京都","city":"新宿区","address":"東京都新宿区新宿6-29-11","lat":35.697765,"lon":139.707779},{"name":"四谷3丁目駅前交差点","province":"東京都","city":"新宿区","address":"東京都新宿区四谷3-9-11","lat":35.687627,"lon":139.719669},{"name":"新宿中央公園 水の広場","province":"東京都","city":"新宿区","address":"東京都新宿区西新宿2-11","lat":35.691105,"lon":139.687698},{"name":"新宿御苑前駅1出口","province":"東京都","city":"新宿区","address":"東京都新宿区新宿2-8-1","lat":35.688904,"lon":139.709702},{"name":"市ヶ谷駅 DNPプラザ前","province":"東京都","city":"新宿区","address":"東京都新宿区市谷田町1-14-1","lat":35.6936,"lon":139.736542},{"name":"西新宿駅 2出口","province":"東京都","city":"新宿区","address":"東京都新宿区西新宿8-1-3","lat":35.694252,"lon":139.69368},{"name":"(株)川藤商会","province":"東京都","city":"新宿区","address":"新宿区西落合1-13-13","lat":35.720596,"lon":139.681747},{"name":"藤田健次郎","province":"東京都","city":"新宿区","address":"新宿区山吹町307","lat":35.70665,"lon":139.732315},{"name":"(株)長井紙業","province":"東京都","city":"新宿区","address":"新宿区戸山1-10-15","lat":35.702686,"lon":139.719254},{"name":"富山公園","province":"東京都","city":"新宿区","address":"東京都新宿区戸山一・二・三丁目、新宿区大久保三丁目","lat":35.707707,"lon":139.705066},{"name":"東新宿駅南交差点","province":"東京都","city":"新宿区","address":"東京都新宿区新宿6-29-11","lat":35.697765,"lon":139.707779},{"name":"四谷3丁目駅前交差点","province":"東京都","city":"新宿区","address":"東京都新宿区四谷3-9-11","lat":35.687627,"lon":139.719669},{"name":"新宿中央公園 水の広場","province":"東京都","city":"新宿区","address":"東京都新宿区西新宿2-11","lat":35.691105,"lon":139.687698},{"name":"新宿御苑前駅1出口","province":"東京都","city":"新宿区","address":"東京都新宿区新宿2-8-1","lat":35.688904,"lon":139.709702},{"name":"市ヶ谷駅 DNPプラザ前","province":"東京都","city":"新宿区","address":"東京都新宿区市谷田町1-14-1","lat":35.6936,"lon":139.736542},{"name":"西新宿駅 2出口","province":"東京都","city":"新宿区","address":"東京都新宿区西新宿8-1-3","lat":35.694252,"lon":139.69368},{"name":"(株)川藤商会","province":"東京都","city":"新宿区","address":"新宿区西落合1-13-13","lat":35.720596,"lon":139.681747},{"name":"藤田健次郎","province":"東京都","city":"新宿区","address":"新宿区山吹町307","lat":35.70665,"lon":139.732315},{"name":"(株)長井紙業","province":"東京都","city":"新宿区","address":"新宿区戸山1-10-15","lat":35.702686,"lon":139.719254},{"name":"富山公園","province":"東京都","city":"新宿区","address":"東京都新宿区戸山一・二・三丁目、新宿区大久保三丁目","lat":35.707707,"lon":139.705066},{"name":"東新宿駅南交差点","province":"東京都","city":"新宿区","address":"東京都新宿区新宿6-29-11","lat":35.697765,"lon":139.707779},{"name":"四谷3丁目駅前交差点","province":"東京都","city":"新宿区","address":"東京都新宿区四谷3-9-11","lat":35.687627,"lon":139.719669},{"name":"新宿中央公園 水の広場","province":"東京都","city":"新宿区","address":"東京都新宿区西新宿2-11","lat":35.691105,"lon":139.687698},{"name":"新宿御苑前駅1出口","province":"東京都","city":"新宿区","address":"東京都新宿区新宿2-8-1","lat":35.688904,"lon":139.709702},{"name":"市ヶ谷駅 DNPプラザ前","province":"東京都","city":"新宿区","address":"東京都新宿区市谷田町1-14-1","lat":35.6936,"lon":139.736542},{"name":"西新宿駅 2出口","province":"東京都","city":"新宿区","address":"東京都新宿区西新宿8-1-3","lat":35.694252,"lon":139.69368},{"name":"(株)川藤商会","province":"東京都","city":"新宿区","address":"新宿区西落合1-13-13","lat":35.720596,"lon":139.681747},{"name":"藤田健次郎","province":"東京都","city":"新宿区","address":"新宿区山吹町307","lat":35.70665,"lon":139.732315},{"name":"(株)長井紙業","province":"東京都","city":"新宿区","address":"新宿区戸山1-10-15","lat":35.702686,"lon":139.719254},{"name":"富山公園","province":"東京都","city":"新宿区","address":"東京都新宿区戸山一・二・三丁目、新宿区大久保三丁目","lat":35.707707,"lon":139.705066},{"name":"東新宿駅南交差点","province":"東京都","city":"新宿区","address":"東京都新宿区新宿6-29-11","lat":35.697765,"lon":139.707779},{"name":"四谷3丁目駅前交差点","province":"東京都","city":"新宿区","address":"東京都新宿区四谷3-9-11","lat":35.687627,"lon":139.719669},{"name":"新宿中央公園 水の広場","province":"東京都","city":"新宿区","address":"東京都新宿区西新宿2-11","lat":35.691105,"lon":139.687698},{"name":"新宿御苑前駅1出口","province":"東京都","city":"新宿区","address":"東京都新宿区新宿2-8-1","lat":35.688904,"lon":139.709702},{"name":"市ヶ谷駅 DNPプラザ前","province":"東京都","city":"新宿区","address":"東京都新宿区市谷田町1-14-1","lat":35.6936,"lon":139.736542},{"name":"西新宿駅 2出口","province":"東京都","city":"新宿区","address":"東京都新宿区西新宿8-1-3","lat":35.694252,"lon":139.69368},{"name":"(株)川藤商会","province":"東京都","city":"新宿区","address":"新宿区西落合1-13-13","lat":35.720596,"lon":139.681747},{"name":"藤田健次郎","province":"東京都","city":"新宿区","address":"新宿区山吹町307","lat":35.70665,"lon":139.732315},{"name":"(株)長井紙業","province":"東京都","city":"新宿区","address":"新宿区戸山1-10-15","lat":35.702686,"lon":139.719254},{"name":"富山公園","province":"東京都","city":"新宿区","address":"東京都新宿区戸山一・二・三丁目、新宿区大久保三丁目","lat":35.707707,"lon":139.705066},{"name":"東新宿駅南交差点","province":"東京都","city":"新宿区","address":"東京都新宿区新宿6-29-11","lat":35.697765,"lon":139.707779},{"name":"四谷3丁目駅前交差点","province":"東京都","city":"新宿区","address":"東京都新宿区四谷3-9-11","lat":35.687627,"lon":139.719669},{"name":"新宿中央公園 水の広場","province":"東京都","city":"新宿区","address":"東京都新宿区西新宿2-11","lat":35.691105,"lon":139.687698},{"name":"新宿御苑前駅1出口","province":"東京都","city":"新宿区","address":"東京都新宿区新宿2-8-1","lat":35.688904,"lon":139.709702},{"name":"市ヶ谷駅 DNPプラザ前","province":"東京都","city":"新宿区","address":"東京都新宿区市谷田町1-14-1","lat":35.6936,"lon":139.736542},{"name":"西新宿駅 2出口","province":"東京都","city":"新宿区","address":"東京都新宿区西新宿8-1-3","lat":35.694252,"lon":139.69368},{"name":"(株)川藤商会","province":"東京都","city":"新宿区","address":"新宿区西落合1-13-13","lat":35.720596,"lon":139.681747},{"name":"藤田健次郎","province":"東京都","city":"新宿区","address":"新宿区山吹町307","lat":35.70665,"lon":139.732315},{"name":"(株)長井紙業","province":"東京都","city":"新宿区","address":"新宿区戸山1-10-15","lat":35.702686,"lon":139.719254},{"name":"富山公園","province":"東京都","city":"新宿区","address":"東京都新宿区戸山一・二・三丁目、新宿区大久保三丁目","lat":35.707707,"lon":139.705066},{"name":"東新宿駅南交差点","province":"東京都","city":"新宿区","address":"東京都新宿区新宿6-29-11","lat":35.697765,"lon":139.707779},{"name":"四谷3丁目駅前交差点","province":"東京都","city":"新宿区","address":"東京都新宿区四谷3-9-11","lat":35.687627,"lon":139.719669},{"name":"新宿中央公園 水の広場","province":"東京都","city":"新宿区","address":"東京都新宿区西新宿2-11","lat":35.691105,"lon":139.687698},{"name":"新宿御苑前駅1出口","province":"東京都","city":"新宿区","address":"東京都新宿区新宿2-8-1","lat":35.688904,"lon":139.709702},{"name":"市ヶ谷駅 DNPプラザ前","province":"東京都","city":"新宿区","address":"東京都新宿区市谷田町1-14-1","lat":35.6936,"lon":139.736542},{"name":"西新宿駅 2出口","province":"東京都","city":"新宿区","address":"東京都新宿区西新宿8-1-3","lat":35.694252,"lon":139.69368},{"name":"(株)川藤商会","province":"東京都","city":"新宿区","address":"新宿区西落合1-13-13","lat":35.720596,"lon":139.681747},{"name":"藤田健次郎","province":"東京都","city":"新宿区","address":"新宿区山吹町307","lat":35.70665,"lon":139.732315},{"name":"(株)長井紙業","province":"東京都","city":"新宿区","address":"新宿区戸山1-10-15","lat":35.702686,"lon":139.719254},{"name":"富山公園","province":"東京都","city":"新宿区","address":"東京都新宿区戸山一・二・三丁目、新宿区大久保三丁目","lat":35.707707,"lon":139.705066},{"name":"東新宿駅南交差点","province":"東京都","city":"新宿区","address":"東京都新宿区新宿6-29-11","lat":35.697765,"lon":139.707779},{"name":"四谷3丁目駅前交差点","province":"東京都","city":"新宿区","address":"東京都新宿区四谷3-9-11","lat":35.687627,"lon":139.719669},{"name":"新宿中央公園 水の広場","province":"東京都","city":"新宿区","address":"東京都新宿区西新宿2-11","lat":35.691105,"lon":139.687698},{"name":"新宿御苑前駅1出口","province":"東京都","city":"新宿区","address":"東京都新宿区新宿2-8-1","lat":35.688904,"lon":139.709702},{"name":"市ヶ谷駅 DNPプラザ前","province":"東京都","city":"新宿区","address":"東京都新宿区市谷田町1-14-1","lat":35.6936,"lon":139.736542},{"name":"西新宿駅 2出口","province":"東京都","city":"新宿区","address":"東京都新宿区西新宿8-1-3","lat":35.694252,"lon":139.69368},{"name":"(株)川藤商会","province":"東京都","city":"新宿区","address":"新宿区西落合1-13-13","lat":35.720596,"lon":139.681747},{"name":"藤田健次郎","province":"東京都","city":"新宿区","address":"新宿区山吹町307","lat":35.70665,"lon":139.732315},{"name":"(株)長井紙業","province":"東京都","city":"新宿区","address":"新宿区戸山1-10-15","lat":35.702686,"lon":139.719254},{"name":"富山公園","province":"東京都","city":"新宿区","address":"東京都新宿区戸山一・二・三丁目、新宿区大久保三丁目","lat":35.707707,"lon":139.705066},{"name":"東新宿駅南交差点","province":"東京都","city":"新宿区","address":"東京都新宿区新宿6-29-11","lat":35.697765,"lon":139.707779},{"name":"四谷3丁目駅前交差点","province":"東京都","city":"新宿区","address":"東京都新宿区四谷3-9-11","lat":35.687627,"lon":139.719669},{"name":"新宿中央公園 水の広場","province":"東京都","city":"新宿区","address":"東京都新宿区西新宿2-11","lat":35.691105,"lon":139.687698},{"name":"新宿御苑前駅1出口","province":"東京都","city":"新宿区","address":"東京都新宿区新宿2-8-1","lat":35.688904,"lon":139.709702},{"name":"市ヶ谷駅 DNPプラザ前","province":"東京都","city":"新宿区","address":"東京都新宿区市谷田町1-14-1","lat":35.6936,"lon":139.736542},{"name":"西新宿駅 2出口","province":"東京都","city":"新宿区","address":"東京都新宿区西新宿8-1-3","lat":35.694252,"lon":139.69368},{"name":"(株)川藤商会","province":"東京都","city":"新宿区","address":"新宿区西落合1-13-13","lat":35.720596,"lon":139.681747},{"name":"藤田健次郎","province":"東京都","city":"新宿区","address":"新宿区山吹町307","lat":35.70665,"lon":139.732315},{"name":"(株)長井紙業","province":"東京都","city":"新宿区","address":"新宿区戸山1-10-15","lat":35.702686,"lon":139.719254},{"name":"富山公園","province":"東京都","city":"新宿区","address":"東京都新宿区戸山一・二・三丁目、新宿区大久保三丁目","lat":35.707707,"lon":139.705066},{"name":"東新宿駅南交差点","province":"東京都","city":"新宿区","address":"東京都新宿区新宿6-29-11","lat":35.697765,"lon":139.707779},{"name":"四谷3丁目駅前交差点","province":"東京都","city":"新宿区","address":"東京都新宿区四谷3-9-11","lat":35.687627,"lon":139.719669},{"name":"新宿中央公園 水の広場","province":"東京都","city":"新宿区","address":"東京都新宿区西新宿2-11","lat":35.691105,"lon":139.687698},{"name":"新宿御苑前駅1出口","province":"東京都","city":"新宿区","address":"東京都新宿区新宿2-8-1","lat":35.688904,"lon":139.709702},{"name":"市ヶ谷駅 DNPプラザ前","province":"東京都","city":"新宿区","address":"東京都新宿区市谷田町1-14-1","lat":35.6936,"lon":139.736542},{"name":"西新宿駅 2出口","province":"東京都","city":"新宿区","address":"東京都新宿区西新宿8-1-3","lat":35.694252,"lon":139.69368},{"name":"(株)川藤商会","province":"東京都","city":"新宿区","address":"新宿区西落合1-13-13","lat":35.720596,"lon":139.681747},{"name":"藤田健次郎","province":"東京都","city":"新宿区","address":"新宿区山吹町307","lat":35.70665,"lon":139.732315},{"name":"(株)長井紙業","province":"東京都","city":"新宿区","address":"新宿区戸山1-10-15","lat":35.702686,"lon":139.719254},{"name":"富山公園","province":"東京都","city":"新宿区","address":"東京都新宿区戸山一・二・三丁目、新宿区大久保三丁目","lat":35.707707,"lon":139.705066},{"name":"東新宿駅南交差点","province":"東京都","city":"新宿区","address":"東京都新宿区新宿6-29-11","lat":35.697765,"lon":139.707779},{"name":"四谷3丁目駅前交差点","province":"東京都","city":"新宿区","address":"東京都新宿区四谷3-9-11","lat":35.687627,"lon":139.719669},{"name":"新宿中央公園 水の広場","province":"東京都","city":"新宿区","address":"東京都新宿区西新宿2-11","lat":35.691105,"lon":139.687698},{"name":"新宿御苑前駅1出口","province":"東京都","city":"新宿区","address":"東京都新宿区新宿2-8-1","lat":35.688904,"lon":139.709702},{"name":"市ヶ谷駅 DNPプラザ前","province":"東京都","city":"新宿区","address":"東京都新宿区市谷田町1-14-1","lat":35.6936,"lon":139.736542},{"name":"西新宿駅 2出口","province":"東京都","city":"新宿区","address":"東京都新宿区西新宿8-1-3","lat":35.694252,"lon":139.69368},{"name":"(株)川藤商会","province":"東京都","city":"新宿区","address":"新宿区西落合1-13-13","lat":35.720596,"lon":139.681747},{"name":"藤田健次郎","province":"東京都","city":"新宿区","address":"新宿区山吹町307","lat":35.70665,"lon":139.732315},{"name":"(株)長井紙業","province":"東京都","city":"新宿区","address":"新宿区戸山1-10-15","lat":35.702686,"lon":139.719254},{"name":"富山公園","province":"東京都","city":"新宿区","address":"東京都新宿区戸山一・二・三丁目、新宿区大久保三丁目","lat":35.707707,"lon":139.705066},{"name":"東新宿駅南交差点","province":"東京都","city":"新宿区","address":"東京都新宿区新宿6-29-11","lat":35.697765,"lon":139.707779},{"name":"四谷3丁目駅前交差点","province":"東京都","city":"新宿区","address":"東京都新宿区四谷3-9-11","lat":35.687627,"lon":139.719669},{"name":"新宿中央公園 水の広場","province":"東京都","city":"新宿区","address":"東京都新宿区西新宿2-11","lat":35.691105,"lon":139.687698},{"name":"新宿御苑前駅1出口","province":"東京都","city":"新宿区","address":"東京都新宿区新宿2-8-1","lat":35.688904,"lon":139.709702},{"name":"市ヶ谷駅 DNPプラザ前","province":"東京都","city":"新宿区","address":"東京都新宿区市谷田町1-14-1","lat":35.6936,"lon":139.736542},{"name":"西新宿駅 2出口","province":"東京都","city":"新宿区","address":"東京都新宿区西新宿8-1-3","lat":35.694252,"lon":139.69368},{"name":"(株)川藤商会","province":"東京都","city":"新宿区","address":"新宿区西落合1-13-13","lat":35.720596,"lon":139.681747},{"name":"藤田健次郎","province":"東京都","city":"新宿区","address":"新宿区山吹町307","lat":35.70665,"lon":139.732315},{"name":"(株)長井紙業","province":"東京都","city":"新宿区","address":"新宿区戸山1-10-15","lat":35.702686,"lon":139.719254},{"name":"富山公園","province":"東京都","city":"新宿区","address":"東京都新宿区戸山一・二・三丁目、新宿区大久保三丁目","lat":35.707707,"lon":139.705066},{"name":"東新宿駅南交差点","province":"東京都","city":"新宿区","address":"東京都新宿区新宿6-29-11","lat":35.697765,"lon":139.707779},{"name":"四谷3丁目駅前交差点","province":"東京都","city":"新宿区","address":"東京都新宿区四谷3-9-11","lat":35.687627,"lon":139.719669},{"name":"新宿中央公園 水の広場","province":"東京都","city":"新宿区","address":"東京都新宿区西新宿2-11","lat":35.691105,"lon":139.687698},{"name":"新宿御苑前駅1出口","province":"東京都","city":"新宿区","address":"東京都新宿区新宿2-8-1","lat":35.688904,"lon":139.709702},{"name":"市ヶ谷駅 DNPプラザ前","province":"東京都","city":"新宿区","address":"東京都新宿区市谷田町1-14-1","lat":35.6936,"lon":139.736542},{"name":"西新宿駅 2出口","province":"東京都","city":"新宿区","address":"東京都新宿区西新宿8-1-3","lat":35.694252,"lon":139.69368},{"name":"(株)川藤商会","province":"東京都","city":"新宿区","address":"新宿区西落合1-13-13","lat":35.720596,"lon":139.681747},{"name":"藤田健次郎","province":"東京都","city":"新宿区","address":"新宿区山吹町307","lat":35.70665,"lon":139.732315},{"name":"(株)長井紙業","province":"東京都","city":"新宿区","address":"新宿区戸山1-10-15","lat":35.702686,"lon":139.719254},{"name":"富山公園","province":"東京都","city":"新宿区","address":"東京都新宿区戸山一・二・三丁目、新宿区大久保三丁目","lat":35.707707,"lon":139.705066},{"name":"東新宿駅南交差点","province":"東京都","city":"新宿区","address":"東京都新宿区新宿6-29-11","lat":35.697765,"lon":139.707779},{"name":"四谷3丁目駅前交差点","province":"東京都","city":"新宿区","address":"東京都新宿区四谷3-9-11","lat":35.687627,"lon":139.719669},{"name":"新宿中央公園 水の広場","province":"東京都","city":"新宿区","address":"東京都新宿区西新宿2-11","lat":35.691105,"lon":139.687698},{"name":"新宿御苑前駅1出口","province":"東京都","city":"新宿区","address":"東京都新宿区新宿2-8-1","lat":35.688904,"lon":139.709702},{"name":"市ヶ谷駅 DNPプラザ前","province":"東京都","city":"新宿区","address":"東京都新宿区市谷田町1-14-1","lat":35.6936,"lon":139.736542},{"name":"西新宿駅 2出口","province":"東京都","city":"新宿区","address":"東京都新宿区西新宿8-1-3","lat":35.694252,"lon":139.69368},{"name":"(株)川藤商会","province":"東京都","city":"新宿区","address":"新宿区西落合1-13-13","lat":35.720596,"lon":139.681747},{"name":"藤田健次郎","province":"東京都","city":"新宿区","address":"新宿区山吹町307","lat":35.70665,"lon":139.732315},{"name":"(株)長井紙業","province":"東京都","city":"新宿区","address":"新宿区戸山1-10-15","lat":35.702686,"lon":139.719254},{"name":"富山公園","province":"東京都","city":"新宿区","address":"東京都新宿区戸山一・二・三丁目、新宿区大久保三丁目","lat":35.707707,"lon":139.705066},{"name":"東新宿駅南交差点","province":"東京都","city":"新宿区","address":"東京都新宿区新宿6-29-11","lat":35.697765,"lon":139.707779},{"name":"四谷3丁目駅前交差点","province":"東京都","city":"新宿区","address":"東京都新宿区四谷3-9-11","lat":35.687627,"lon":139.719669},{"name":"新宿中央公園 水の広場","province":"東京都","city":"新宿区","address":"東京都新宿区西新宿2-11","lat":35.691105,"lon":139.687698},{"name":"新宿御苑前駅1出口","province":"東京都","city":"新宿区","address":"東京都新宿区新宿2-8-1","lat":35.688904,"lon":139.709702},{"name":"市ヶ谷駅 DNPプラザ前","province":"東京都","city":"新宿区","address":"東京都新宿区市谷田町1-14-1","lat":35.6936,"lon":139.736542},{"name":"西新宿駅 2出口","province":"東京都","city":"新宿区","address":"東京都新宿区西新宿8-1-3","lat":35.694252,"lon":139.69368},{"name":"(株)川藤商会","province":"東京都","city":"新宿区","address":"新宿区西落合1-13-13","lat":35.720596,"lon":139.681747},{"name":"藤田健次郎","province":"東京都","city":"新宿区","address":"新宿区山吹町307","lat":35.70665,"lon":139.732315},{"name":"(株)長井紙業","province":"東京都","city":"新宿区","address":"新宿区戸山1-10-15","lat":35.702686,"lon":139.719254},{"name":"富山公園","province":"東京都","city":"新宿区","address":"東京都新宿区戸山一・二・三丁目、新宿区大久保三丁目","lat":35.707707,"lon":139.705066},{"name":"東新宿駅南交差点","province":"東京都","city":"新宿区","address":"東京都新宿区新宿6-29-11","lat":35.697765,"lon":139.707779},{"name":"四谷3丁目駅前交差点","province":"東京都","city":"新宿区","address":"東京都新宿区四谷3-9-11","lat":35.687627,"lon":139.719669},{"name":"新宿中央公園 水の広場","province":"東京都","city":"新宿区","address":"東京都新宿区西新宿2-11","lat":35.691105,"lon":139.687698},{"name":"新宿御苑前駅1出口","province":"東京都","city":"新宿区","address":"東京都新宿区新宿2-8-1","lat":35.688904,"lon":139.709702},{"name":"市ヶ谷駅 DNPプラザ前","province":"東京都","city":"新宿区","address":"東京都新宿区市谷田町1-14-1","lat":35.6936,"lon":139.736542},{"name":"西新宿駅 2出口","province":"東京都","city":"新宿区","address":"東京都新宿区西新宿8-1-3","lat":35.694252,"lon":139.69368},{"name":"(株)川藤商会","province":"東京都","city":"新宿区","address":"新宿区西落合1-13-13","lat":35.720596,"lon":139.681747},{"name":"藤田健次郎","province":"東京都","city":"新宿区","address":"新宿区山吹町307","lat":35.70665,"lon":139.732315},{"name":"(株)長井紙業","province":"東京都","city":"新宿区","address":"新宿区戸山1-10-15","lat":35.702686,"lon":139.719254},{"name":"富山公園","province":"東京都","city":"新宿区","address":"東京都新宿区戸山一・二・三丁目、新宿区大久保三丁目","lat":35.707707,"lon":139.705066},{"name":"東新宿駅南交差点","province":"東京都","city":"新宿区","address":"東京都新宿区新宿6-29-11","lat":35.697765,"lon":139.707779},{"name":"四谷3丁目駅前交差点","province":"東京都","city":"新宿区","address":"東京都新宿区四谷3-9-11","lat":35.687627,"lon":139.719669},{"name":"新宿中央公園 水の広場","province":"東京都","city":"新宿区","address":"東京都新宿区西新宿2-11","lat":35.691105,"lon":139.687698},{"name":"新宿御苑前駅1出口","province":"東京都","city":"新宿区","address":"東京都新宿区新宿2-8-1","lat":35.688904,"lon":139.709702},{"name":"市ヶ谷駅 DNPプラザ前","province":"東京都","city":"新宿区","address":"東京都新宿区市谷田町1-14-1","lat":35.6936,"lon":139.736542},{"name":"西新宿駅 2出口","province":"東京都","city":"新宿区","address":"東京都新宿区西新宿8-1-3","lat":35.694252,"lon":139.69368},{"name":"(株)川藤商会","province":"東京都","city":"新宿区","address":"新宿区西落合1-13-13","lat":35.720596,"lon":139.681747},{"name":"藤田健次郎","province":"東京都","city":"新宿区","address":"新宿区山吹町307","lat":35.70665,"lon":139.732315},{"name":"(株)長井紙業","province":"東京都","city":"新宿区","address":"新宿区戸山1-10-15","lat":35.702686,"lon":139.719254},{"name":"富山公園","province":"東京都","city":"新宿区","address":"東京都新宿区戸山一・二・三丁目、新宿区大久保三丁目","lat":35.707707,"lon":139.705066},{"name":"東新宿駅南交差点","province":"東京都","city":"新宿区","address":"東京都新宿区新宿6-29-11","lat":35.697765,"lon":139.707779},{"name":"四谷3丁目駅前交差点","province":"東京都","city":"新宿区","address":"東京都新宿区四谷3-9-11","lat":35.687627,"lon":139.719669},{"name":"新宿中央公園 水の広場","province":"東京都","city":"新宿区","address":"東京都新宿区西新宿2-11","lat":35.691105,"lon":139.687698},{"name":"新宿御苑前駅1出口","province":"東京都","city":"新宿区","address":"東京都新宿区新宿2-8-1","lat":35.688904,"lon":139.709702},{"name":"市ヶ谷駅 DNPプラザ前","province":"東京都","city":"新宿区","address":"東京都新宿区市谷田町1-14-1","lat":35.6936,"lon":139.736542},{"name":"西新宿駅 2出口","province":"東京都","city":"新宿区","address":"東京都新宿区西新宿8-1-3","lat":35.694252,"lon":139.69368},{"name":"(株)川藤商会","province":"東京都","city":"新宿区","address":"新宿区西落合1-13-13","lat":35.720596,"lon":139.681747},{"name":"藤田健次郎","province":"東京都","city":"新宿区","address":"新宿区山吹町307","lat":35.70665,"lon":139.732315},{"name":"(株)長井紙業","province":"東京都","city":"新宿区","address":"新宿区戸山1-10-15","lat":35.702686,"lon":139.719254},{"name":"富山公園","province":"東京都","city":"新宿区","address":"東京都新宿区戸山一・二・三丁目、新宿区大久保三丁目","lat":35.707707,"lon":139.705066},{"name":"東新宿駅南交差点","province":"東京都","city":"新宿区","address":"東京都新宿区新宿6-29-11","lat":35.697765,"lon":139.707779},{"name":"四谷3丁目駅前交差点","province":"東京都","city":"新宿区","address":"東京都新宿区四谷3-9-11","lat":35.687627,"lon":139.719669},{"name":"新宿中央公園 水の広場","province":"東京都","city":"新宿区","address":"東京都新宿区西新宿2-11","lat":35.691105,"lon":139.687698},{"name":"新宿御苑前駅1出口","province":"東京都","city":"新宿区","address":"東京都新宿区新宿2-8-1","lat":35.688904,"lon":139.709702},{"name":"市ヶ谷駅 DNPプラザ前","province":"東京都","city":"新宿区","address":"東京都新宿区市谷田町1-14-1","lat":35.6936,"lon":139.736542},{"name":"西新宿駅 2出口","province":"東京都","city":"新宿区","address":"東京都新宿区西新宿8-1-3","lat":35.694252,"lon":139.69368},{"name":"(株)川藤商会","province":"東京都","city":"新宿区","address":"新宿区西落合1-13-13","lat":35.720596,"lon":139.681747},{"name":"藤田健次郎","province":"東京都","city":"新宿区","address":"新宿区山吹町307","lat":35.70665,"lon":139.732315},{"name":"(株)長井紙業","province":"東京都","city":"新宿区","address":"新宿区戸山1-10-15","lat":35.702686,"lon":139.719254},{"name":"富山公園","province":"東京都","city":"新宿区","address":"東京都新宿区戸山一・二・三丁目、新宿区大久保三丁目","lat":35.707707,"lon":139.705066},{"name":"東新宿駅南交差点","province":"東京都","city":"新宿区","address":"東京都新宿区新宿6-29-11","lat":35.697765,"lon":139.707779},{"name":"四谷3丁目駅前交差点","province":"東京都","city":"新宿区","address":"東京都新宿区四谷3-9-11","lat":35.687627,"lon":139.719669},{"name":"新宿中央公園 水の広場","province":"東京都","city":"新宿区","address":"東京都新宿区西新宿2-11","lat":35.691105,"lon":139.687698},{"name":"新宿御苑前駅1出口","province":"東京都","city":"新宿区","address":"東京都新宿区新宿2-8-1","lat":35.688904,"lon":139.709702},{"name":"市ヶ谷駅 DNPプラザ前","province":"東京都","city":"新宿区","address":"東京都新宿区市谷田町1-14-1","lat":35.6936,"lon":139.736542},{"name":"西新宿駅 2出口","province":"東京都","city":"新宿区","address":"東京都新宿区西新宿8-1-3","lat":35.694252,"lon":139.69368},{"name":"(株)川藤商会","province":"東京都","city":"新宿区","address":"新宿区西落合1-13-13","lat":35.720596,"lon":139.681747},{"name":"藤田健次郎","province":"東京都","city":"新宿区","address":"新宿区山吹町307","lat":35.70665,"lon":139.732315},{"name":"(株)長井紙業","province":"東京都","city":"新宿区","address":"新宿区戸山1-10-15","lat":35.702686,"lon":139.719254},{"name":"富山公園","province":"東京都","city":"新宿区","address":"東京都新宿区戸山一・二・三丁目、新宿区大久保三丁目","lat":35.707707,"lon":139.705066},{"name":"東新宿駅南交差点","province":"東京都","city":"新宿区","address":"東京都新宿区新宿6-29-11","lat":35.697765,"lon":139.707779},{"name":"四谷3丁目駅前交差点","province":"東京都","city":"新宿区","address":"東京都新宿区四谷3-9-11","lat":35.687627,"lon":139.719669},{"name":"新宿中央公園 水の広場","province":"東京都","city":"新宿区","address":"東京都新宿区西新宿2-11","lat":35.691105,"lon":139.687698},{"name":"新宿御苑前駅1出口","province":"東京都","city":"新宿区","address":"東京都新宿区新宿2-8-1","lat":35.688904,"lon":139.709702},{"name":"市ヶ谷駅 DNPプラザ前","province":"東京都","city":"新宿区","address":"東京都新宿区市谷田町1-14-1","lat":35.6936,"lon":139.736542},{"name":"西新宿駅 2出口","province":"東京都","city":"新宿区","address":"東京都新宿区西新宿8-1-3","lat":35.694252,"lon":139.69368},{"name":"(株)川藤商会","province":"東京都","city":"新宿区","address":"新宿区西落合1-13-13","lat":35.720596,"lon":139.681747},{"name":"藤田健次郎","province":"東京都","city":"新宿区","address":"新宿区山吹町307","lat":35.70665,"lon":139.732315},{"name":"(株)長井紙業","province":"東京都","city":"新宿区","address":"新宿区戸山1-10-15","lat":35.702686,"lon":139.719254},{"name":"富山公園","province":"東京都","city":"新宿区","address":"東京都新宿区戸山一・二・三丁目、新宿区大久保三丁目","lat":35.707707,"lon":139.705066},{"name":"東新宿駅南交差点","province":"東京都","city":"新宿区","address":"東京都新宿区新宿6-29-11","lat":35.697765,"lon":139.707779},{"name":"四谷3丁目駅前交差点","province":"東京都","city":"新宿区","address":"東京都新宿区四谷3-9-11","lat":35.687627,"lon":139.719669},{"name":"新宿中央公園 水の広場","province":"東京都","city":"新宿区","address":"東京都新宿区西新宿2-11","lat":35.691105,"lon":139.687698},{"name":"新宿御苑前駅1出口","province":"東京都","city":"新宿区","address":"東京都新宿区新宿2-8-1","lat":35.688904,"lon":139.709702},{"name":"市ヶ谷駅 DNPプラザ前","province":"東京都","city":"新宿区","address":"東京都新宿区市谷田町1-14-1","lat":35.6936,"lon":139.736542},{"name":"西新宿駅 2出口","province":"東京都","city":"新宿区","address":"東京都新宿区西新宿8-1-3","lat":35.694252,"lon":139.69368},{"name":"(株)川藤商会","province":"東京都","city":"新宿区","address":"新宿区西落合1-13-13","lat":35.720596,"lon":139.681747},{"name":"藤田健次郎","province":"東京都","city":"新宿区","address":"新宿区山吹町307","lat":35.70665,"lon":139.732315},{"name":"(株)長井紙業","province":"東京都","city":"新宿区","address":"新宿区戸山1-10-15","lat":35.702686,"lon":139.719254},{"name":"富山公園","province":"東京都","city":"新宿区","address":"東京都新宿区戸山一・二・三丁目、新宿区大久保三丁目","lat":35.707707,"lon":139.705066},{"name":"東新宿駅南交差点","province":"東京都","city":"新宿区","address":"東京都新宿区新宿6-29-11","lat":35.697765,"lon":139.707779},{"name":"四谷3丁目駅前交差点","province":"東京都","city":"新宿区","address":"東京都新宿区四谷3-9-11","lat":35.687627,"lon":139.719669},{"name":"新宿中央公園 水の広場","province":"東京都","city":"新宿区","address":"東京都新宿区西新宿2-11","lat":35.691105,"lon":139.687698},{"name":"新宿御苑前駅1出口","province":"東京都","city":"新宿区","address":"東京都新宿区新宿2-8-1","lat":35.688904,"lon":139.709702},{"name":"市ヶ谷駅 DNPプラザ前","province":"東京都","city":"新宿区","address":"東京都新宿区市谷田町1-14-1","lat":35.6936,"lon":139.736542},{"name":"西新宿駅 2出口","province":"東京都","city":"新宿区","address":"東京都新宿区西新宿8-1-3","lat":35.694252,"lon":139.69368},{"name":"(株)川藤商会","province":"東京都","city":"新宿区","address":"新宿区西落合1-13-13","lat":35.720596,"lon":139.681747},{"name":"藤田健次郎","province":"東京都","city":"新宿区","address":"新宿区山吹町307","lat":35.70665,"lon":139.732315},{"name":"(株)長井紙業","province":"東京都","city":"新宿区","address":"新宿区戸山1-10-15","lat":35.702686,"lon":139.719254},{"name":"富山公園","province":"東京都","city":"新宿区","address":"東京都新宿区戸山一・二・三丁目、新宿区大久保三丁目","lat":35.707707,"lon":139.705066},{"name":"東新宿駅南交差点","province":"東京都","city":"新宿区","address":"東京都新宿区新宿6-29-11","lat":35.697765,"lon":139.707779},{"name":"四谷3丁目駅前交差点","province":"東京都","city":"新宿区","address":"東京都新宿区四谷3-9-11","lat":35.687627,"lon":139.719669},{"name":"新宿中央公園 水の広場","province":"東京都","city":"新宿区","address":"東京都新宿区西新宿2-11","lat":35.691105,"lon":139.687698},{"name":"新宿御苑前駅1出口","province":"東京都","city":"新宿区","address":"東京都新宿区新宿2-8-1","lat":35.688904,"lon":139.709702},{"name":"市ヶ谷駅 DNPプラザ前","province":"東京都","city":"新宿区","address":"東京都新宿区市谷田町1-14-1","lat":35.6936,"lon":139.736542},{"name":"西新宿駅 2出口","province":"東京都","city":"新宿区","address":"東京都新宿区西新宿8-1-3","lat":35.694252,"lon":139.69368},{"name":"(株)川藤商会","province":"東京都","city":"新宿区","address":"新宿区西落合1-13-13","lat":35.720596,"lon":139.681747},{"name":"藤田健次郎","province":"東京都","city":"新宿区","address":"新宿区山吹町307","lat":35.70665,"lon":139.732315},{"name":"(株)長井紙業","province":"東京都","city":"新宿区","address":"新宿区戸山1-10-15","lat":35.702686,"lon":139.719254},{"name":"富山公園","province":"東京都","city":"新宿区","address":"東京都新宿区戸山一・二・三丁目、新宿区大久保三丁目","lat":35.707707,"lon":139.705066},{"name":"東新宿駅南交差点","province":"東京都","city":"新宿区","address":"東京都新宿区新宿6-29-11","lat":35.697765,"lon":139.707779},{"name":"四谷3丁目駅前交差点","province":"東京都","city":"新宿区","address":"東京都新宿区四谷3-9-11","lat":35.687627,"lon":139.719669},{"name":"新宿中央公園 水の広場","province":"東京都","city":"新宿区","address":"東京都新宿区西新宿2-11","lat":35.691105,"lon":139.687698},{"name":"新宿御苑前駅1出口","province":"東京都","city":"新宿区","address":"東京都新宿区新宿2-8-1","lat":35.688904,"lon":139.709702},{"name":"市ヶ谷駅 DNPプラザ前","province":"東京都","city":"新宿区","address":"東京都新宿区市谷田町1-14-1","lat":35.6936,"lon":139.736542},{"name":"西新宿駅 2出口","province":"東京都","city":"新宿区","address":"東京都新宿区西新宿8-1-3","lat":35.694252,"lon":139.69368},{"name":"(株)川藤商会","province":"東京都","city":"新宿区","address":"新宿区西落合1-13-13","lat":35.720596,"lon":139.681747},{"name":"藤田健次郎","province":"東京都","city":"新宿区","address":"新宿区山吹町307","lat":35.70665,"lon":139.732315},{"name":"(株)長井紙業","province":"東京都","city":"新宿区","address":"新宿区戸山1-10-15","lat":35.702686,"lon":139.719254},{"name":"富山公園","province":"東京都","city":"新宿区","address":"東京都新宿区戸山一・二・三丁目、新宿区大久保三丁目","lat":35.707707,"lon":139.705066},{"name":"東新宿駅南交差点","province":"東京都","city":"新宿区","address":"東京都新宿区新宿6-29-11","lat":35.697765,"lon":139.707779},{"name":"四谷3丁目駅前交差点","province":"東京都","city":"新宿区","address":"東京都新宿区四谷3-9-11","lat":35.687627,"lon":139.719669},{"name":"新宿中央公園 水の広場","province":"東京都","city":"新宿区","address":"東京都新宿区西新宿2-11","lat":35.691105,"lon":139.687698},{"name":"新宿御苑前駅1出口","province":"東京都","city":"新宿区","address":"東京都新宿区新宿2-8-1","lat":35.688904,"lon":139.709702},{"name":"市ヶ谷駅 DNPプラザ前","province":"東京都","city":"新宿区","address":"東京都新宿区市谷田町1-14-1","lat":35.6936,"lon":139.736542},{"name":"西新宿駅 2出口","province":"東京都","city":"新宿区","address":"東京都新宿区西新宿8-1-3","lat":35.694252,"lon":139.69368},{"name":"(株)川藤商会","province":"東京都","city":"新宿区","address":"新宿区西落合1-13-13","lat":35.720596,"lon":139.681747},{"name":"藤田健次郎","province":"東京都","city":"新宿区","address":"新宿区山吹町307","lat":35.70665,"lon":139.732315},{"name":"(株)長井紙業","province":"東京都","city":"新宿区","address":"新宿区戸山1-10-15","lat":35.702686,"lon":139.719254},{"name":"富山公園","province":"東京都","city":"新宿区","address":"東京都新宿区戸山一・二・三丁目、新宿区大久保三丁目","lat":35.707707,"lon":139.705066},{"name":"東新宿駅南交差点","province":"東京都","city":"新宿区","address":"東京都新宿区新宿6-29-11","lat":35.697765,"lon":139.707779},{"name":"四谷3丁目駅前交差点","province":"東京都","city":"新宿区","address":"東京都新宿区四谷3-9-11","lat":35.687627,"lon":139.719669},{"name":"新宿中央公園 水の広場","province":"東京都","city":"新宿区","address":"東京都新宿区西新宿2-11","lat":35.691105,"lon":139.687698},{"name":"新宿御苑前駅1出口","province":"東京都","city":"新宿区","address":"東京都新宿区新宿2-8-1","lat":35.688904,"lon":139.709702},{"name":"市ヶ谷駅 DNPプラザ前","province":"東京都","city":"新宿区","address":"東京都新宿区市谷田町1-14-1","lat":35.6936,"lon":139.736542},{"name":"西新宿駅 2出口","province":"東京都","city":"新宿区","address":"東京都新宿区西新宿8-1-3","lat":35.694252,"lon":139.69368},{"name":"(株)川藤商会","province":"東京都","city":"新宿区","address":"新宿区西落合1-13-13","lat":35.720596,"lon":139.681747},{"name":"藤田健次郎","province":"東京都","city":"新宿区","address":"新宿区山吹町307","lat":35.70665,"lon":139.732315},{"name":"(株)長井紙業","province":"東京都","city":"新宿区","address":"新宿区戸山1-10-15","lat":35.702686,"lon":139.719254},{"name":"富山公園","province":"東京都","city":"新宿区","address":"東京都新宿区戸山一・二・三丁目、新宿区大久保三丁目","lat":35.707707,"lon":139.705066},{"name":"東新宿駅南交差点","province":"東京都","city":"新宿区","address":"東京都新宿区新宿6-29-11","lat":35.697765,"lon":139.707779},{"name":"四谷3丁目駅前交差点","province":"東京都","city":"新宿区","address":"東京都新宿区四谷3-9-11","lat":35.687627,"lon":139.719669},{"name":"新宿中央公園 水の広場","province":"東京都","city":"新宿区","address":"東京都新宿区西新宿2-11","lat":35.691105,"lon":139.687698},{"name":"新宿御苑前駅1出口","province":"東京都","city":"新宿区","address":"東京都新宿区新宿2-8-1","lat":35.688904,"lon":139.709702},{"name":"市ヶ谷駅 DNPプラザ前","province":"東京都","city":"新宿区","address":"東京都新宿区市谷田町1-14-1","lat":35.6936,"lon":139.736542},{"name":"西新宿駅 2出口","province":"東京都","city":"新宿区","address":"東京都新宿区西新宿8-1-3","lat":35.694252,"lon":139.69368},{"name":"(株)川藤商会","province":"東京都","city":"新宿区","address":"新宿区西落合1-13-13","lat":35.720596,"lon":139.681747},{"name":"藤田健次郎","province":"東京都","city":"新宿区","address":"新宿区山吹町307","lat":35.70665,"lon":139.732315},{"name":"(株)長井紙業","province":"東京都","city":"新宿区","address":"新宿区戸山1-10-15","lat":35.702686,"lon":139.719254},{"name":"富山公園","province":"東京都","city":"新宿区","address":"東京都新宿区戸山一・二・三丁目、新宿区大久保三丁目","lat":35.707707,"lon":139.705066},{"name":"東新宿駅南交差点","province":"東京都","city":"新宿区","address":"東京都新宿区新宿6-29-11","lat":35.697765,"lon":139.707779},{"name":"四谷3丁目駅前交差点","province":"東京都","city":"新宿区","address":"東京都新宿区四谷3-9-11","lat":35.687627,"lon":139.719669},{"name":"新宿中央公園 水の広場","province":"東京都","city":"新宿区","address":"東京都新宿区西新宿2-11","lat":35.691105,"lon":139.687698},{"name":"新宿御苑前駅1出口","province":"東京都","city":"新宿区","address":"東京都新宿区新宿2-8-1","lat":35.688904,"lon":139.709702},{"name":"市ヶ谷駅 DNPプラザ前","province":"東京都","city":"新宿区","address":"東京都新宿区市谷田町1-14-1","lat":35.6936,"lon":139.736542},{"name":"西新宿駅 2出口","province":"東京都","city":"新宿区","address":"東京都新宿区西新宿8-1-3","lat":35.694252,"lon":139.69368},{"name":"(株)川藤商会","province":"東京都","city":"新宿区","address":"新宿区西落合1-13-13","lat":35.720596,"lon":139.681747},{"name":"藤田健次郎","province":"東京都","city":"新宿区","address":"新宿区山吹町307","lat":35.70665,"lon":139.732315},{"name":"(株)長井紙業","province":"東京都","city":"新宿区","address":"新宿区戸山1-10-15","lat":35.702686,"lon":139.719254},{"name":"富山公園","province":"東京都","city":"新宿区","address":"東京都新宿区戸山一・二・三丁目、新宿区大久保三丁目","lat":35.707707,"lon":139.705066},{"name":"東新宿駅南交差点","province":"東京都","city":"新宿区","address":"東京都新宿区新宿6-29-11","lat":35.697765,"lon":139.707779},{"name":"四谷3丁目駅前交差点","province":"東京都","city":"新宿区","address":"東京都新宿区四谷3-9-11","lat":35.687627,"lon":139.719669},{"name":"新宿中央公園 水の広場","province":"東京都","city":"新宿区","address":"東京都新宿区西新宿2-11","lat":35.691105,"lon":139.687698},{"name":"新宿御苑前駅1出口","province":"東京都","city":"新宿区","address":"東京都新宿区新宿2-8-1","lat":35.688904,"lon":139.709702},{"name":"市ヶ谷駅 DNPプラザ前","province":"東京都","city":"新宿区","address":"東京都新宿区市谷田町1-14-1","lat":35.6936,"lon":139.736542},{"name":"西新宿駅 2出口","province":"東京都","city":"新宿区","address":"東京都新宿区西新宿8-1-3","lat":35.694252,"lon":139.69368},{"name":"(株)川藤商会","province":"東京都","city":"新宿区","address":"新宿区西落合1-13-13","lat":35.720596,"lon":139.681747},{"name":"藤田健次郎","province":"東京都","city":"新宿区","address":"新宿区山吹町307","lat":35.70665,"lon":139.732315},{"name":"(株)長井紙業","province":"東京都","city":"新宿区","address":"新宿区戸山1-10-15","lat":35.702686,"lon":139.719254},{"name":"富山公園","province":"東京都","city":"新宿区","address":"東京都新宿区戸山一・二・三丁目、新宿区大久保三丁目","lat":35.707707,"lon":139.705066},{"name":"東新宿駅南交差点","province":"東京都","city":"新宿区","address":"東京都新宿区新宿6-29-11","lat":35.697765,"lon":139.707779},{"name":"四谷3丁目駅前交差点","province":"東京都","city":"新宿区","address":"東京都新宿区四谷3-9-11","lat":35.687627,"lon":139.719669},{"name":"新宿中央公園 水の広場","province":"東京都","city":"新宿区","address":"東京都新宿区西新宿2-11","lat":35.691105,"lon":139.687698},{"name":"新宿御苑前駅1出口","province":"東京都","city":"新宿区","address":"東京都新宿区新宿2-8-1","lat":35.688904,"lon":139.709702},{"name":"市ヶ谷駅 DNPプラザ前","province":"東京都","city":"新宿区","address":"東京都新宿区市谷田町1-14-1","lat":35.6936,"lon":139.736542},{"name":"西新宿駅 2出口","province":"東京都","city":"新宿区","address":"東京都新宿区西新宿8-1-3","lat":35.694252,"lon":139.69368},{"name":"(株)川藤商会","province":"東京都","city":"新宿区","address":"新宿区西落合1-13-13","lat":35.720596,"lon":139.681747},{"name":"藤田健次郎","province":"東京都","city":"新宿区","address":"新宿区山吹町307","lat":35.70665,"lon":139.732315},{"name":"(株)長井紙業","province":"東京都","city":"新宿区","address":"新宿区戸山1-10-15","lat":35.702686,"lon":139.719254},{"name":"富山公園","province":"東京都","city":"新宿区","address":"東京都新宿区戸山一・二・三丁目、新宿区大久保三丁目","lat":35.707707,"lon":139.705066},{"name":"東新宿駅南交差点","province":"東京都","city":"新宿区","address":"東京都新宿区新宿6-29-11","lat":35.697765,"lon":139.707779},{"name":"四谷3丁目駅前交差点","province":"東京都","city":"新宿区","address":"東京都新宿区四谷3-9-11","lat":35.687627,"lon":139.719669},{"name":"新宿中央公園 水の広場","province":"東京都","city":"新宿区","address":"東京都新宿区西新宿2-11","lat":35.691105,"lon":139.687698},{"name":"新宿御苑前駅1出口","province":"東京都","city":"新宿区","address":"東京都新宿区新宿2-8-1","lat":35.688904,"lon":139.709702},{"name":"市ヶ谷駅 DNPプラザ前","province":"東京都","city":"新宿区","address":"東京都新宿区市谷田町1-14-1","lat":35.6936,"lon":139.736542},{"name":"西新宿駅 2出口","province":"東京都","city":"新宿区","address":"東京都新宿区西新宿8-1-3","lat":35.694252,"lon":139.69368},{"name":"(株)川藤商会","province":"東京都","city":"新宿区","address":"新宿区西落合1-13-13","lat":35.720596,"lon":139.681747},{"name":"藤田健次郎","province":"東京都","city":"新宿区","address":"新宿区山吹町307","lat":35.70665,"lon":139.732315},{"name":"(株)長井紙業","province":"東京都","city":"新宿区","address":"新宿区戸山1-10-15","lat":35.702686,"lon":139.719254},{"name":"富山公園","province":"東京都","city":"新宿区","address":"東京都新宿区戸山一・二・三丁目、新宿区大久保三丁目","lat":35.707707,"lon":139.705066},{"name":"東新宿駅南交差点","province":"東京都","city":"新宿区","address":"東京都新宿区新宿6-29-11","lat":35.697765,"lon":139.707779},{"name":"四谷3丁目駅前交差点","province":"東京都","city":"新宿区","address":"東京都新宿区四谷3-9-11","lat":35.687627,"lon":139.719669},{"name":"新宿中央公園 水の広場","province":"東京都","city":"新宿区","address":"東京都新宿区西新宿2-11","lat":35.691105,"lon":139.687698},{"name":"新宿御苑前駅1出口","province":"東京都","city":"新宿区","address":"東京都新宿区新宿2-8-1","lat":35.688904,"lon":139.709702},{"name":"市ヶ谷駅 DNPプラザ前","province":"東京都","city":"新宿区","address":"東京都新宿区市谷田町1-14-1","lat":35.6936,"lon":139.736542},{"name":"西新宿駅 2出口","province":"東京都","city":"新宿区","address":"東京都新宿区西新宿8-1-3","lat":35.694252,"lon":139.69368},{"name":"(株)川藤商会","province":"東京都","city":"新宿区","address":"新宿区西落合1-13-13","lat":35.720596,"lon":139.681747},{"name":"藤田健次郎","province":"東京都","city":"新宿区","address":"新宿区山吹町307","lat":35.70665,"lon":139.732315},{"name":"(株)長井紙業","province":"東京都","city":"新宿区","address":"新宿区戸山1-10-15","lat":35.702686,"lon":139.719254},{"name":"富山公園","province":"東京都","city":"新宿区","address":"東京都新宿区戸山一・二・三丁目、新宿区大久保三丁目","lat":35.707707,"lon":139.705066},{"name":"東新宿駅南交差点","province":"東京都","city":"新宿区","address":"東京都新宿区新宿6-29-11","lat":35.697765,"lon":139.707779},{"name":"四谷3丁目駅前交差点","province":"東京都","city":"新宿区","address":"東京都新宿区四谷3-9-11","lat":35.687627,"lon":139.719669},{"name":"新宿中央公園 水の広場","province":"東京都","city":"新宿区","address":"東京都新宿区西新宿2-11","lat":35.691105,"lon":139.687698},{"name":"新宿御苑前駅1出口","province":"東京都","city":"新宿区","address":"東京都新宿区新宿2-8-1","lat":35.688904,"lon":139.709702},{"name":"市ヶ谷駅 DNPプラザ前","province":"東京都","city":"新宿区","address":"東京都新宿区市谷田町1-14-1","lat":35.6936,"lon":139.736542},{"name":"西新宿駅 2出口","province":"東京都","city":"新宿区","address":"東京都新宿区西新宿8-1-3","lat":35.694252,"lon":139.69368},{"name":"(株)川藤商会","province":"東京都","city":"新宿区","address":"新宿区西落合1-13-13","lat":35.720596,"lon":139.681747},{"name":"藤田健次郎","province":"東京都","city":"新宿区","address":"新宿区山吹町307","lat":35.70665,"lon":139.732315},{"name":"(株)長井紙業","province":"東京都","city":"新宿区","address":"新宿区戸山1-10-15","lat":35.702686,"lon":139.719254},{"name":"富山公園","province":"東京都","city":"新宿区","address":"東京都新宿区戸山一・二・三丁目、新宿区大久保三丁目","lat":35.707707,"lon":139.705066},{"name":"東新宿駅南交差点","province":"東京都","city":"新宿区","address":"東京都新宿区新宿6-29-11","lat":35.697765,"lon":139.707779},{"name":"四谷3丁目駅前交差点","province":"東京都","city":"新宿区","address":"東京都新宿区四谷3-9-11","lat":35.687627,"lon":139.719669},{"name":"新宿中央公園 水の広場","province":"東京都","city":"新宿区","address":"東京都新宿区西新宿2-11","lat":35.691105,"lon":139.687698},{"name":"新宿御苑前駅1出口","province":"東京都","city":"新宿区","address":"東京都新宿区新宿2-8-1","lat":35.688904,"lon":139.709702},{"name":"市ヶ谷駅 DNPプラザ前","province":"東京都","city":"新宿区","address":"東京都新宿区市谷田町1-14-1","lat":35.6936,"lon":139.736542},{"name":"西新宿駅 2出口","province":"東京都","city":"新宿区","address":"東京都新宿区西新宿8-1-3","lat":35.694252,"lon":139.69368},{"name":"(株)川藤商会","province":"東京都","city":"新宿区","address":"新宿区西落合1-13-13","lat":35.720596,"lon":139.681747},{"name":"藤田健次郎","province":"東京都","city":"新宿区","address":"新宿区山吹町307","lat":35.70665,"lon":139.732315},{"name":"(株)長井紙業","province":"東京都","city":"新宿区","address":"新宿区戸山1-10-15","lat":35.702686,"lon":139.719254}]}