{"keyword":"ルート","data":[{"name":"JR四ツ谷駅 四ツ谷口","province":"東京都","city":"新宿区","address":"東京都新宿区四谷1丁目5-25","lat":35.68615853,"lon":139.7300796,"番号":"Goal","コース":"E赤坂","大見出し":"赤坂氷川神社、豊川稲荷東京別院、東京ミッドタウン、赤坂サカスなど、伝統と現代が織りなす赤坂の魅力を探るコース","小見出し":""},{"name":"御鷹の松","province":"東京都","city":"新宿区","address":"東京都新宿区霞ヶ丘町1","lat":35.67775882,"lon":139.7170823,"番号":"G-3","コース":"G外苑","大見出し":"「絵になる」イチョウ並木を歩きながら、明治の歴史にふれるコース","小見出し":"言い伝えられる松"},{"name":"聖徳記念絵画館","province":"東京都","city":"新宿区","address":"東京都新宿区霞ヶ丘町1-1","lat":35.67875598,"lon":139.7176213,"番号":"G-4","コース":"G外苑","大見出し":"「絵になる」イチョウ並木を歩きながら、明治の歴史にふれるコース","小見出し":"神宮外苑のシンボル"},{"name":"樺太日露国境天測標","province":"東京都","city":"新宿区","address":"東京都新宿区霞ヶ丘町1","lat":35.67810865,"lon":139.7171661,"番号":"G-5","コース":"G外苑","大見出し":"「絵になる」イチョウ並木を歩きながら、明治の歴史にふれるコース","小見出し":"レプリカの境界天測標石"},{"name":"葬場殿趾","province":"東京都","city":"新宿区","address":"東京都新宿区霞ヶ丘町1","lat":35.6790523,"lon":139.7174872,"番号":"G-6","コース":"G外苑","大見出し":"「絵になる」イチョウ並木を歩きながら、明治の歴史にふれるコース","小見出し":"楠の大木が月日を感じさせる"},{"name":"都営大江戸線 国立競技場駅 A2出口","province":"東京都","city":"新宿区","address":"東京都新宿区霞ヶ丘町10","lat":35.67971471,"lon":139.7143615,"番号":"Goal","コース":"G外苑","大見出し":"「絵になる」イチョウ並木を歩きながら、明治の歴史にふれるコース","小見出し":""}]}