{"keyword":"一覧","data":[{"name":"新宿三丁目駅（都営新宿線）","province":"東京都","city":"新宿区","address":"東京都新宿区新宿3丁目3-2","lat":35.69064037,"lon":139.70584338},{"name":"新宿区役所第二分庁舎","province":"東京都","city":"新宿区","address":"東京都新宿区新宿5丁目18-21","lat":35.69390388,"lon":139.70567105},{"name":"新宿区役所第二分庁舎分館","province":"東京都","city":"新宿区","address":"東京都新宿区新宿5丁目18-21","lat":35.69390388,"lon":139.70567105},{"name":"東新宿駅（都営大江戸線）","province":"東京都","city":"新宿区","address":"東京都新宿区新宿7丁目27-3","lat":35.69815902,"lon":139.70807067},{"name":"国立競技場駅（都営大江戸線）","province":"東京都","city":"新宿区","address":"東京都新宿区霞ヶ丘町10-3","lat":35.67961682,"lon":139.71432917},{"name":"新宿区役所本庁舎","province":"東京都","city":"新宿区","address":"東京都新宿区歌舞伎町1丁目4-1","lat":35.69387605,"lon":139.70351568},{"name":"若松河田駅（都営大江戸線）","province":"東京都","city":"新宿区","address":"東京都新宿区河田町10-10","lat":35.69832868,"lon":139.7175115},{"name":"曙橋駅（都営新宿線）","province":"東京都","city":"新宿区","address":"東京都新宿区住吉町7-1","lat":35.69258502,"lon":139.7232251},{"name":"牛込神楽坂駅（都営大江戸線）","province":"東京都","city":"新宿区","address":"東京都新宿区箪笥町15","lat":35.70058163,"lon":139.73415715},{"name":"（水道局新宿営業所）\"","province":"東京都","city":"新宿区","address":"東京都新宿区内藤町87","lat":35.68761592,"lon":139.71443996},{"name":"落合南長崎駅（都営大江戸線）","province":"東京都","city":"新宿区","address":"東京都新宿区西落合3丁目1-18","lat":35.72283888,"lon":139.68360513},{"name":"新宿西口駅（都営大江戸線）","province":"東京都","city":"新宿区","address":"東京都新宿区西新宿1丁目3-17","lat":35.69337599,"lon":139.6986578},{"name":"東京都庁第１本庁舎","province":"東京都","city":"新宿区","address":"東京都新宿区西新宿2丁目8-1","lat":35.68918461,"lon":139.69164748},{"name":"都議会議事堂","province":"東京都","city":"新宿区","address":"東京都新宿区西新宿2丁目8-1","lat":35.68918461,"lon":139.69164748},{"name":"東京都庁第２本庁舎","province":"東京都","city":"新宿区","address":"東京都新宿区西新宿2丁目8-1","lat":35.68918461,"lon":139.69164748},{"name":"都庁前駅（都営大江戸線）","province":"東京都","city":"新宿区","address":"東京都新宿区西新宿2丁目8-1","lat":35.68918461,"lon":139.69164748},{"name":"西新宿五丁目駅（都営大江戸線）","province":"東京都","city":"新宿区","address":"東京都新宿区西新宿5丁目25-9","lat":35.69012599,"lon":139.68446196},{"name":"牛込柳町駅（都営大江戸線）","province":"東京都","city":"新宿区","address":"東京都新宿区市谷砂土原町1丁目2-32","lat":35.6944879,"lon":139.73566003},{"name":"消防防災資料センター","province":"東京都","city":"新宿区","address":"東京都新宿区四谷3丁目10","lat":35.68812154,"lon":139.7196617}]}