{"keyword":"伐採","data":[{"name":"大久保病院","province":"東京都","city":"新宿区","address":"東京都新宿区歌舞伎町2丁目44-1","lat":35.69691177,"lon":139.70156297},{"name":"東京医科大学病院","province":"東京都","city":"新宿区","address":"東京都新宿区西新宿6丁目7-1","lat":35.69402018,"lon":139.69221112},{"name":"慶応義塾大学病院","province":"東京都","city":"新宿区","address":"東京都新宿区信濃町35","lat":35.68258045,"lon":139.7181676},{"name":"東京女子医科大学病院","province":"東京都","city":"新宿区","address":"東京都新宿区河田町8-1","lat":35.69807045,"lon":139.72011683},{"name":"東京都保健医療公社大久保病院","province":"東京都","city":"新宿区","address":"東京都新宿区歌舞伎町2丁目44-1","lat":35.69691177,"lon":139.70156297},{"name":"国立国際医療研究センター病院","province":"東京都","city":"新宿区","address":"東京都新宿区戸山1丁目21-1","lat":35.70174214,"lon":139.71530878},{"name":"社会保険中央総合病院","province":"東京都","city":"新宿区","address":"東京都新宿区百人町3丁目22-1","lat":35.70470248,"lon":139.69904899},{"name":"大久保病院","province":"東京都","city":"新宿区","address":"東京都新宿区歌舞伎町2丁目44-1","lat":35.69691177,"lon":139.70156297},{"name":"国立国際医療センター","province":"東京都","city":"新宿区","address":"東京都新宿区戸山1丁目21-1","lat":35.70174214,"lon":139.71530878},{"name":"明治神宮外苑軟式野球場","province":"東京都","city":"新宿区","address":"東京都新宿区霞ヶ丘町1-1","lat":35.67880032,"lon":139.71766225},{"name":"都立落合中央公園野球場","province":"東京都","city":"新宿区","address":"東京都新宿区上落合1丁目2","lat":35.71287916,"lon":139.69289364},{"name":"新宿区立西戸山公園野球場","province":"東京都","city":"新宿区","address":"東京都新宿区百人町4丁目1","lat":35.70748833,"lon":139.70088483},{"name":"東京都庁第一本庁舎","province":"東京都","city":"新宿区","address":"東京都新宿区西新宿2丁目8-1","lat":35.68918461,"lon":139.69164748},{"name":"国立国際医療研究センターヘリポート","province":"東京都","city":"新宿区","address":"東京都新宿区戸山1丁目21-1","lat":35.70174214,"lon":139.71530878},{"name":"大久保病院","province":"東京都","city":"新宿区","address":"東京都新宿区歌舞伎町2丁目44-1","lat":35.69691177,"lon":139.70156297},{"name":"東京医科大学病院","province":"東京都","city":"新宿区","address":"東京都新宿区西新宿6丁目7-1","lat":35.69402018,"lon":139.69221112},{"name":"慶応義塾大学病院","province":"東京都","city":"新宿区","address":"東京都新宿区信濃町35","lat":35.68258045,"lon":139.7181676},{"name":"東京女子医科大学病院","province":"東京都","city":"新宿区","address":"東京都新宿区河田町8-1","lat":35.69807045,"lon":139.72011683},{"name":"東京都保健医療公社大久保病院","province":"東京都","city":"新宿区","address":"東京都新宿区歌舞伎町2丁目44-1","lat":35.69691177,"lon":139.70156297},{"name":"国立国際医療研究センター病院","province":"東京都","city":"新宿区","address":"東京都新宿区戸山1丁目21-1","lat":35.70174214,"lon":139.71530878},{"name":"社会保険中央総合病院","province":"東京都","city":"新宿区","address":"東京都新宿区百人町3丁目22-1","lat":35.70470248,"lon":139.69904899},{"name":"大久保病院","province":"東京都","city":"新宿区","address":"東京都新宿区歌舞伎町2丁目44-1","lat":35.69691177,"lon":139.70156297},{"name":"国立国際医療センター","province":"東京都","city":"新宿区","address":"東京都新宿区戸山1丁目21-1","lat":35.70174214,"lon":139.71530878},{"name":"明治神宮外苑軟式野球場","province":"東京都","city":"新宿区","address":"東京都新宿区霞ヶ丘町1-1","lat":35.67880032,"lon":139.71766225},{"name":"都立落合中央公園野球場","province":"東京都","city":"新宿区","address":"東京都新宿区上落合1丁目2","lat":35.71287916,"lon":139.69289364},{"name":"新宿区立西戸山公園野球場","province":"東京都","city":"新宿区","address":"東京都新宿区百人町4丁目1","lat":35.70748833,"lon":139.70088483},{"name":"東京都庁第一本庁舎","province":"東京都","city":"新宿区","address":"東京都新宿区西新宿2丁目8-1","lat":35.68918461,"lon":139.69164748},{"name":"国立国際医療研究センターヘリポート","province":"東京都","city":"新宿区","address":"東京都新宿区戸山1丁目21-1","lat":35.70174214,"lon":139.71530878},{"name":"大久保病院","province":"東京都","city":"新宿区","address":"東京都新宿区歌舞伎町2丁目44-1","lat":35.69691177,"lon":139.70156297},{"name":"東京医科大学病院","province":"東京都","city":"新宿区","address":"東京都新宿区西新宿6丁目7-1","lat":35.69402018,"lon":139.69221112},{"name":"慶応義塾大学病院","province":"東京都","city":"新宿区","address":"東京都新宿区信濃町35","lat":35.68258045,"lon":139.7181676},{"name":"東京女子医科大学病院","province":"東京都","city":"新宿区","address":"東京都新宿区河田町8-1","lat":35.69807045,"lon":139.72011683},{"name":"東京都保健医療公社大久保病院","province":"東京都","city":"新宿区","address":"東京都新宿区歌舞伎町2丁目44-1","lat":35.69691177,"lon":139.70156297},{"name":"国立国際医療研究センター病院","province":"東京都","city":"新宿区","address":"東京都新宿区戸山1丁目21-1","lat":35.70174214,"lon":139.71530878},{"name":"社会保険中央総合病院","province":"東京都","city":"新宿区","address":"東京都新宿区百人町3丁目22-1","lat":35.70470248,"lon":139.69904899},{"name":"大久保病院","province":"東京都","city":"新宿区","address":"東京都新宿区歌舞伎町2丁目44-1","lat":35.69691177,"lon":139.70156297},{"name":"国立国際医療センター","province":"東京都","city":"新宿区","address":"東京都新宿区戸山1丁目21-1","lat":35.70174214,"lon":139.71530878},{"name":"明治神宮外苑軟式野球場","province":"東京都","city":"新宿区","address":"東京都新宿区霞ヶ丘町1-1","lat":35.67880032,"lon":139.71766225},{"name":"都立落合中央公園野球場","province":"東京都","city":"新宿区","address":"東京都新宿区上落合1丁目2","lat":35.71287916,"lon":139.69289364},{"name":"新宿区立西戸山公園野球場","province":"東京都","city":"新宿区","address":"東京都新宿区百人町4丁目1","lat":35.70748833,"lon":139.70088483},{"name":"東京都庁第一本庁舎","province":"東京都","city":"新宿区","address":"東京都新宿区西新宿2丁目8-1","lat":35.68918461,"lon":139.69164748},{"name":"国立国際医療研究センターヘリポート","province":"東京都","city":"新宿区","address":"東京都新宿区戸山1丁目21-1","lat":35.70174214,"lon":139.71530878},{"name":"大久保病院","province":"東京都","city":"新宿区","address":"東京都新宿区歌舞伎町2丁目44-1","lat":35.69691177,"lon":139.70156297},{"name":"東京医科大学病院","province":"東京都","city":"新宿区","address":"東京都新宿区西新宿6丁目7-1","lat":35.69402018,"lon":139.69221112},{"name":"慶応義塾大学病院","province":"東京都","city":"新宿区","address":"東京都新宿区信濃町35","lat":35.68258045,"lon":139.7181676},{"name":"東京女子医科大学病院","province":"東京都","city":"新宿区","address":"東京都新宿区河田町8-1","lat":35.69807045,"lon":139.72011683},{"name":"東京都保健医療公社大久保病院","province":"東京都","city":"新宿区","address":"東京都新宿区歌舞伎町2丁目44-1","lat":35.69691177,"lon":139.70156297},{"name":"国立国際医療研究センター病院","province":"東京都","city":"新宿区","address":"東京都新宿区戸山1丁目21-1","lat":35.70174214,"lon":139.71530878},{"name":"社会保険中央総合病院","province":"東京都","city":"新宿区","address":"東京都新宿区百人町3丁目22-1","lat":35.70470248,"lon":139.69904899},{"name":"大久保病院","province":"東京都","city":"新宿区","address":"東京都新宿区歌舞伎町2丁目44-1","lat":35.69691177,"lon":139.70156297},{"name":"国立国際医療センター","province":"東京都","city":"新宿区","address":"東京都新宿区戸山1丁目21-1","lat":35.70174214,"lon":139.71530878},{"name":"大久保病院","province":"東京都","city":"新宿区","address":"東京都新宿区歌舞伎町2丁目44-1","lat":35.69691177,"lon":139.70156297},{"name":"東京医科大学病院","province":"東京都","city":"新宿区","address":"東京都新宿区西新宿6丁目7-1","lat":35.69402018,"lon":139.69221112},{"name":"慶応義塾大学病院","province":"東京都","city":"新宿区","address":"東京都新宿区信濃町35","lat":35.68258045,"lon":139.7181676},{"name":"東京女子医科大学病院","province":"東京都","city":"新宿区","address":"東京都新宿区河田町8-1","lat":35.69807045,"lon":139.72011683},{"name":"東京都保健医療公社大久保病院","province":"東京都","city":"新宿区","address":"東京都新宿区歌舞伎町2丁目44-1","lat":35.69691177,"lon":139.70156297},{"name":"国立国際医療研究センター病院","province":"東京都","city":"新宿区","address":"東京都新宿区戸山1丁目21-1","lat":35.70174214,"lon":139.71530878},{"name":"社会保険中央総合病院","province":"東京都","city":"新宿区","address":"東京都新宿区百人町3丁目22-1","lat":35.70470248,"lon":139.69904899},{"name":"大久保病院","province":"東京都","city":"新宿区","address":"東京都新宿区歌舞伎町2丁目44-1","lat":35.69691177,"lon":139.70156297},{"name":"国立国際医療センター","province":"東京都","city":"新宿区","address":"東京都新宿区戸山1丁目21-1","lat":35.70174214,"lon":139.71530878},{"name":"大久保病院","province":"東京都","city":"新宿区","address":"東京都新宿区歌舞伎町2丁目44-1","lat":35.69691177,"lon":139.70156297},{"name":"東京医科大学病院","province":"東京都","city":"新宿区","address":"東京都新宿区西新宿6丁目7-1","lat":35.69402018,"lon":139.69221112},{"name":"慶応義塾大学病院","province":"東京都","city":"新宿区","address":"東京都新宿区信濃町35","lat":35.68258045,"lon":139.7181676},{"name":"東京女子医科大学病院","province":"東京都","city":"新宿区","address":"東京都新宿区河田町8-1","lat":35.69807045,"lon":139.72011683},{"name":"東京都保健医療公社大久保病院","province":"東京都","city":"新宿区","address":"東京都新宿区歌舞伎町2丁目44-1","lat":35.69691177,"lon":139.70156297},{"name":"国立国際医療研究センター病院","province":"東京都","city":"新宿区","address":"東京都新宿区戸山1丁目21-1","lat":35.70174214,"lon":139.71530878},{"name":"社会保険中央総合病院","province":"東京都","city":"新宿区","address":"東京都新宿区百人町3丁目22-1","lat":35.70470248,"lon":139.69904899},{"name":"大久保病院","province":"東京都","city":"新宿区","address":"東京都新宿区歌舞伎町2丁目44-1","lat":35.69691177,"lon":139.70156297},{"name":"国立国際医療センター","province":"東京都","city":"新宿区","address":"東京都新宿区戸山1丁目21-1","lat":35.70174214,"lon":139.71530878},{"name":"大久保病院","province":"東京都","city":"新宿区","address":"東京都新宿区歌舞伎町2丁目44-1","lat":35.69691177,"lon":139.70156297},{"name":"東京医科大学病院","province":"東京都","city":"新宿区","address":"東京都新宿区西新宿6丁目7-1","lat":35.69402018,"lon":139.69221112},{"name":"慶応義塾大学病院","province":"東京都","city":"新宿区","address":"東京都新宿区信濃町35","lat":35.68258045,"lon":139.7181676},{"name":"東京女子医科大学病院","province":"東京都","city":"新宿区","address":"東京都新宿区河田町8-1","lat":35.69807045,"lon":139.72011683},{"name":"東京都保健医療公社大久保病院","province":"東京都","city":"新宿区","address":"東京都新宿区歌舞伎町2丁目44-1","lat":35.69691177,"lon":139.70156297},{"name":"国立国際医療研究センター病院","province":"東京都","city":"新宿区","address":"東京都新宿区戸山1丁目21-1","lat":35.70174214,"lon":139.71530878},{"name":"社会保険中央総合病院","province":"東京都","city":"新宿区","address":"東京都新宿区百人町3丁目22-1","lat":35.70470248,"lon":139.69904899},{"name":"大久保病院","province":"東京都","city":"新宿区","address":"東京都新宿区歌舞伎町2丁目44-1","lat":35.69691177,"lon":139.70156297},{"name":"国立国際医療センター","province":"東京都","city":"新宿区","address":"東京都新宿区戸山1丁目21-1","lat":35.70174214,"lon":139.71530878},{"name":"大久保病院","province":"東京都","city":"新宿区","address":"東京都新宿区歌舞伎町2丁目44-1","lat":35.69691177,"lon":139.70156297},{"name":"東京医科大学病院","province":"東京都","city":"新宿区","address":"東京都新宿区西新宿6丁目7-1","lat":35.69402018,"lon":139.69221112},{"name":"慶応義塾大学病院","province":"東京都","city":"新宿区","address":"東京都新宿区信濃町35","lat":35.68258045,"lon":139.7181676},{"name":"東京女子医科大学病院","province":"東京都","city":"新宿区","address":"東京都新宿区河田町8-1","lat":35.69807045,"lon":139.72011683},{"name":"東京都保健医療公社大久保病院","province":"東京都","city":"新宿区","address":"東京都新宿区歌舞伎町2丁目44-1","lat":35.69691177,"lon":139.70156297},{"name":"国立国際医療研究センター病院","province":"東京都","city":"新宿区","address":"東京都新宿区戸山1丁目21-1","lat":35.70174214,"lon":139.71530878},{"name":"社会保険中央総合病院","province":"東京都","city":"新宿区","address":"東京都新宿区百人町3丁目22-1","lat":35.70470248,"lon":139.69904899},{"name":"大久保病院","province":"東京都","city":"新宿区","address":"東京都新宿区歌舞伎町2丁目44-1","lat":35.69691177,"lon":139.70156297},{"name":"国立国際医療センター","province":"東京都","city":"新宿区","address":"東京都新宿区戸山1丁目21-1","lat":35.70174214,"lon":139.71530878},{"name":"大久保病院","province":"東京都","city":"新宿区","address":"東京都新宿区歌舞伎町2丁目44-1","lat":35.69691177,"lon":139.70156297},{"name":"東京医科大学病院","province":"東京都","city":"新宿区","address":"東京都新宿区西新宿6丁目7-1","lat":35.69402018,"lon":139.69221112},{"name":"慶応義塾大学病院","province":"東京都","city":"新宿区","address":"東京都新宿区信濃町35","lat":35.68258045,"lon":139.7181676},{"name":"東京女子医科大学病院","province":"東京都","city":"新宿区","address":"東京都新宿区河田町8-1","lat":35.69807045,"lon":139.72011683},{"name":"東京都保健医療公社大久保病院","province":"東京都","city":"新宿区","address":"東京都新宿区歌舞伎町2丁目44-1","lat":35.69691177,"lon":139.70156297},{"name":"国立国際医療研究センター病院","province":"東京都","city":"新宿区","address":"東京都新宿区戸山1丁目21-1","lat":35.70174214,"lon":139.71530878},{"name":"社会保険中央総合病院","province":"東京都","city":"新宿区","address":"東京都新宿区百人町3丁目22-1","lat":35.70470248,"lon":139.69904899},{"name":"大久保病院","province":"東京都","city":"新宿区","address":"東京都新宿区歌舞伎町2丁目44-1","lat":35.69691177,"lon":139.70156297},{"name":"国立国際医療センター","province":"東京都","city":"新宿区","address":"東京都新宿区戸山1丁目21-1","lat":35.70174214,"lon":139.71530878},{"name":"大久保病院","province":"東京都","city":"新宿区","address":"東京都新宿区歌舞伎町2丁目44-1","lat":35.69691177,"lon":139.70156297},{"name":"東京医科大学病院","province":"東京都","city":"新宿区","address":"東京都新宿区西新宿6丁目7-1","lat":35.69402018,"lon":139.69221112},{"name":"慶応義塾大学病院","province":"東京都","city":"新宿区","address":"東京都新宿区信濃町35","lat":35.68258045,"lon":139.7181676},{"name":"東京女子医科大学病院","province":"東京都","city":"新宿区","address":"東京都新宿区河田町8-1","lat":35.69807045,"lon":139.72011683},{"name":"東京都保健医療公社大久保病院","province":"東京都","city":"新宿区","address":"東京都新宿区歌舞伎町2丁目44-1","lat":35.69691177,"lon":139.70156297},{"name":"国立国際医療研究センター病院","province":"東京都","city":"新宿区","address":"東京都新宿区戸山1丁目21-1","lat":35.70174214,"lon":139.71530878},{"name":"社会保険中央総合病院","province":"東京都","city":"新宿区","address":"東京都新宿区百人町3丁目22-1","lat":35.70470248,"lon":139.69904899},{"name":"大久保病院","province":"東京都","city":"新宿区","address":"東京都新宿区歌舞伎町2丁目44-1","lat":35.69691177,"lon":139.70156297},{"name":"国立国際医療センター","province":"東京都","city":"新宿区","address":"東京都新宿区戸山1丁目21-1","lat":35.70174214,"lon":139.71530878},{"name":"大久保病院","province":"東京都","city":"新宿区","address":"東京都新宿区歌舞伎町2丁目44-1","lat":35.69691177,"lon":139.70156297},{"name":"東京医科大学病院","province":"東京都","city":"新宿区","address":"東京都新宿区西新宿6丁目7-1","lat":35.69402018,"lon":139.69221112},{"name":"慶応義塾大学病院","province":"東京都","city":"新宿区","address":"東京都新宿区信濃町35","lat":35.68258045,"lon":139.7181676},{"name":"東京女子医科大学病院","province":"東京都","city":"新宿区","address":"東京都新宿区河田町8-1","lat":35.69807045,"lon":139.72011683},{"name":"東京都保健医療公社大久保病院","province":"東京都","city":"新宿区","address":"東京都新宿区歌舞伎町2丁目44-1","lat":35.69691177,"lon":139.70156297},{"name":"国立国際医療研究センター病院","province":"東京都","city":"新宿区","address":"東京都新宿区戸山1丁目21-1","lat":35.70174214,"lon":139.71530878},{"name":"社会保険中央総合病院","province":"東京都","city":"新宿区","address":"東京都新宿区百人町3丁目22-1","lat":35.70470248,"lon":139.69904899},{"name":"大久保病院","province":"東京都","city":"新宿区","address":"東京都新宿区歌舞伎町2丁目44-1","lat":35.69691177,"lon":139.70156297},{"name":"国立国際医療センター","province":"東京都","city":"新宿区","address":"東京都新宿区戸山1丁目21-1","lat":35.70174214,"lon":139.71530878},{"name":"大久保病院","province":"東京都","city":"新宿区","address":"東京都新宿区歌舞伎町2丁目44-1","lat":35.69691177,"lon":139.70156297},{"name":"東京医科大学病院","province":"東京都","city":"新宿区","address":"東京都新宿区西新宿6丁目7-1","lat":35.69402018,"lon":139.69221112},{"name":"慶応義塾大学病院","province":"東京都","city":"新宿区","address":"東京都新宿区信濃町35","lat":35.68258045,"lon":139.7181676},{"name":"東京女子医科大学病院","province":"東京都","city":"新宿区","address":"東京都新宿区河田町8-1","lat":35.69807045,"lon":139.72011683},{"name":"東京都保健医療公社大久保病院","province":"東京都","city":"新宿区","address":"東京都新宿区歌舞伎町2丁目44-1","lat":35.69691177,"lon":139.70156297},{"name":"国立国際医療研究センター病院","province":"東京都","city":"新宿区","address":"東京都新宿区戸山1丁目21-1","lat":35.70174214,"lon":139.71530878},{"name":"社会保険中央総合病院","province":"東京都","city":"新宿区","address":"東京都新宿区百人町3丁目22-1","lat":35.70470248,"lon":139.69904899},{"name":"大久保病院","province":"東京都","city":"新宿区","address":"東京都新宿区歌舞伎町2丁目44-1","lat":35.69691177,"lon":139.70156297},{"name":"国立国際医療センター","province":"東京都","city":"新宿区","address":"東京都新宿区戸山1丁目21-1","lat":35.70174214,"lon":139.71530878},{"name":"大久保病院","province":"東京都","city":"新宿区","address":"東京都新宿区歌舞伎町2丁目44-1","lat":35.69691177,"lon":139.70156297},{"name":"東京医科大学病院","province":"東京都","city":"新宿区","address":"東京都新宿区西新宿6丁目7-1","lat":35.69402018,"lon":139.69221112},{"name":"慶応義塾大学病院","province":"東京都","city":"新宿区","address":"東京都新宿区信濃町35","lat":35.68258045,"lon":139.7181676},{"name":"東京女子医科大学病院","province":"東京都","city":"新宿区","address":"東京都新宿区河田町8-1","lat":35.69807045,"lon":139.72011683},{"name":"東京都保健医療公社大久保病院","province":"東京都","city":"新宿区","address":"東京都新宿区歌舞伎町2丁目44-1","lat":35.69691177,"lon":139.70156297},{"name":"国立国際医療研究センター病院","province":"東京都","city":"新宿区","address":"東京都新宿区戸山1丁目21-1","lat":35.70174214,"lon":139.71530878},{"name":"社会保険中央総合病院","province":"東京都","city":"新宿区","address":"東京都新宿区百人町3丁目22-1","lat":35.70470248,"lon":139.69904899},{"name":"大久保病院","province":"東京都","city":"新宿区","address":"東京都新宿区歌舞伎町2丁目44-1","lat":35.69691177,"lon":139.70156297},{"name":"国立国際医療センター","province":"東京都","city":"新宿区","address":"東京都新宿区戸山1丁目21-1","lat":35.70174214,"lon":139.71530878},{"name":"大久保病院","province":"東京都","city":"新宿区","address":"東京都新宿区歌舞伎町2丁目44-1","lat":35.69691177,"lon":139.70156297},{"name":"東京医科大学病院","province":"東京都","city":"新宿区","address":"東京都新宿区西新宿6丁目7-1","lat":35.69402018,"lon":139.69221112},{"name":"慶応義塾大学病院","province":"東京都","city":"新宿区","address":"東京都新宿区信濃町35","lat":35.68258045,"lon":139.7181676},{"name":"東京女子医科大学病院","province":"東京都","city":"新宿区","address":"東京都新宿区河田町8-1","lat":35.69807045,"lon":139.72011683},{"name":"東京都保健医療公社大久保病院","province":"東京都","city":"新宿区","address":"東京都新宿区歌舞伎町2丁目44-1","lat":35.69691177,"lon":139.70156297},{"name":"国立国際医療研究センター病院","province":"東京都","city":"新宿区","address":"東京都新宿区戸山1丁目21-1","lat":35.70174214,"lon":139.71530878},{"name":"社会保険中央総合病院","province":"東京都","city":"新宿区","address":"東京都新宿区百人町3丁目22-1","lat":35.70470248,"lon":139.69904899},{"name":"大久保病院","province":"東京都","city":"新宿区","address":"東京都新宿区歌舞伎町2丁目44-1","lat":35.69691177,"lon":139.70156297},{"name":"国立国際医療センター","province":"東京都","city":"新宿区","address":"東京都新宿区戸山1丁目21-1","lat":35.70174214,"lon":139.71530878},{"name":"大久保病院","province":"東京都","city":"新宿区","address":"東京都新宿区歌舞伎町2丁目44-1","lat":35.69691177,"lon":139.70156297},{"name":"東京医科大学病院","province":"東京都","city":"新宿区","address":"東京都新宿区西新宿6丁目7-1","lat":35.69402018,"lon":139.69221112},{"name":"慶応義塾大学病院","province":"東京都","city":"新宿区","address":"東京都新宿区信濃町35","lat":35.68258045,"lon":139.7181676},{"name":"東京女子医科大学病院","province":"東京都","city":"新宿区","address":"東京都新宿区河田町8-1","lat":35.69807045,"lon":139.72011683},{"name":"東京都保健医療公社大久保病院","province":"東京都","city":"新宿区","address":"東京都新宿区歌舞伎町2丁目44-1","lat":35.69691177,"lon":139.70156297},{"name":"国立国際医療研究センター病院","province":"東京都","city":"新宿区","address":"東京都新宿区戸山1丁目21-1","lat":35.70174214,"lon":139.71530878},{"name":"社会保険中央総合病院","province":"東京都","city":"新宿区","address":"東京都新宿区百人町3丁目22-1","lat":35.70470248,"lon":139.69904899},{"name":"大久保病院","province":"東京都","city":"新宿区","address":"東京都新宿区歌舞伎町2丁目44-1","lat":35.69691177,"lon":139.70156297},{"name":"国立国際医療センター","province":"東京都","city":"新宿区","address":"東京都新宿区戸山1丁目21-1","lat":35.70174214,"lon":139.71530878},{"name":"大久保病院","province":"東京都","city":"新宿区","address":"東京都新宿区歌舞伎町2丁目44-1","lat":35.69691177,"lon":139.70156297},{"name":"東京医科大学病院","province":"東京都","city":"新宿区","address":"東京都新宿区西新宿6丁目7-1","lat":35.69402018,"lon":139.69221112},{"name":"慶応義塾大学病院","province":"東京都","city":"新宿区","address":"東京都新宿区信濃町35","lat":35.68258045,"lon":139.7181676},{"name":"東京女子医科大学病院","province":"東京都","city":"新宿区","address":"東京都新宿区河田町8-1","lat":35.69807045,"lon":139.72011683},{"name":"東京都保健医療公社大久保病院","province":"東京都","city":"新宿区","address":"東京都新宿区歌舞伎町2丁目44-1","lat":35.69691177,"lon":139.70156297},{"name":"国立国際医療研究センター病院","province":"東京都","city":"新宿区","address":"東京都新宿区戸山1丁目21-1","lat":35.70174214,"lon":139.71530878},{"name":"社会保険中央総合病院","province":"東京都","city":"新宿区","address":"東京都新宿区百人町3丁目22-1","lat":35.70470248,"lon":139.69904899},{"name":"大久保病院","province":"東京都","city":"新宿区","address":"東京都新宿区歌舞伎町2丁目44-1","lat":35.69691177,"lon":139.70156297},{"name":"国立国際医療センター","province":"東京都","city":"新宿区","address":"東京都新宿区戸山1丁目21-1","lat":35.70174214,"lon":139.71530878},{"name":"大久保病院","province":"東京都","city":"新宿区","address":"東京都新宿区歌舞伎町2丁目44-1","lat":35.69691177,"lon":139.70156297},{"name":"東京医科大学病院","province":"東京都","city":"新宿区","address":"東京都新宿区西新宿6丁目7-1","lat":35.69402018,"lon":139.69221112},{"name":"慶応義塾大学病院","province":"東京都","city":"新宿区","address":"東京都新宿区信濃町35","lat":35.68258045,"lon":139.7181676},{"name":"東京女子医科大学病院","province":"東京都","city":"新宿区","address":"東京都新宿区河田町8-1","lat":35.69807045,"lon":139.72011683},{"name":"東京都保健医療公社大久保病院","province":"東京都","city":"新宿区","address":"東京都新宿区歌舞伎町2丁目44-1","lat":35.69691177,"lon":139.70156297},{"name":"国立国際医療研究センター病院","province":"東京都","city":"新宿区","address":"東京都新宿区戸山1丁目21-1","lat":35.70174214,"lon":139.71530878},{"name":"社会保険中央総合病院","province":"東京都","city":"新宿区","address":"東京都新宿区百人町3丁目22-1","lat":35.70470248,"lon":139.69904899},{"name":"大久保病院","province":"東京都","city":"新宿区","address":"東京都新宿区歌舞伎町2丁目44-1","lat":35.69691177,"lon":139.70156297},{"name":"国立国際医療センター","province":"東京都","city":"新宿区","address":"東京都新宿区戸山1丁目21-1","lat":35.70174214,"lon":139.71530878},{"name":"大久保病院","province":"東京都","city":"新宿区","address":"東京都新宿区歌舞伎町2丁目44-1","lat":35.69691177,"lon":139.70156297},{"name":"東京医科大学病院","province":"東京都","city":"新宿区","address":"東京都新宿区西新宿6丁目7-1","lat":35.69402018,"lon":139.69221112},{"name":"慶応義塾大学病院","province":"東京都","city":"新宿区","address":"東京都新宿区信濃町35","lat":35.68258045,"lon":139.7181676},{"name":"東京女子医科大学病院","province":"東京都","city":"新宿区","address":"東京都新宿区河田町8-1","lat":35.69807045,"lon":139.72011683},{"name":"東京都保健医療公社大久保病院","province":"東京都","city":"新宿区","address":"東京都新宿区歌舞伎町2丁目44-1","lat":35.69691177,"lon":139.70156297},{"name":"国立国際医療研究センター病院","province":"東京都","city":"新宿区","address":"東京都新宿区戸山1丁目21-1","lat":35.70174214,"lon":139.71530878},{"name":"社会保険中央総合病院","province":"東京都","city":"新宿区","address":"東京都新宿区百人町3丁目22-1","lat":35.70470248,"lon":139.69904899},{"name":"大久保病院","province":"東京都","city":"新宿区","address":"東京都新宿区歌舞伎町2丁目44-1","lat":35.69691177,"lon":139.70156297},{"name":"国立国際医療センター","province":"東京都","city":"新宿区","address":"東京都新宿区戸山1丁目21-1","lat":35.70174214,"lon":139.71530878},{"name":"大久保病院","province":"東京都","city":"新宿区","address":"東京都新宿区歌舞伎町2丁目44-1","lat":35.69691177,"lon":139.70156297},{"name":"東京医科大学病院","province":"東京都","city":"新宿区","address":"東京都新宿区西新宿6丁目7-1","lat":35.69402018,"lon":139.69221112},{"name":"慶応義塾大学病院","province":"東京都","city":"新宿区","address":"東京都新宿区信濃町35","lat":35.68258045,"lon":139.7181676},{"name":"東京女子医科大学病院","province":"東京都","city":"新宿区","address":"東京都新宿区河田町8-1","lat":35.69807045,"lon":139.72011683},{"name":"東京都保健医療公社大久保病院","province":"東京都","city":"新宿区","address":"東京都新宿区歌舞伎町2丁目44-1","lat":35.69691177,"lon":139.70156297},{"name":"国立国際医療研究センター病院","province":"東京都","city":"新宿区","address":"東京都新宿区戸山1丁目21-1","lat":35.70174214,"lon":139.71530878},{"name":"社会保険中央総合病院","province":"東京都","city":"新宿区","address":"東京都新宿区百人町3丁目22-1","lat":35.70470248,"lon":139.69904899},{"name":"大久保病院","province":"東京都","city":"新宿区","address":"東京都新宿区歌舞伎町2丁目44-1","lat":35.69691177,"lon":139.70156297},{"name":"国立国際医療センター","province":"東京都","city":"新宿区","address":"東京都新宿区戸山1丁目21-1","lat":35.70174214,"lon":139.71530878},{"name":"大久保病院","province":"東京都","city":"新宿区","address":"東京都新宿区歌舞伎町2丁目44-1","lat":35.69691177,"lon":139.70156297},{"name":"東京医科大学病院","province":"東京都","city":"新宿区","address":"東京都新宿区西新宿6丁目7-1","lat":35.69402018,"lon":139.69221112},{"name":"慶応義塾大学病院","province":"東京都","city":"新宿区","address":"東京都新宿区信濃町35","lat":35.68258045,"lon":139.7181676},{"name":"東京女子医科大学病院","province":"東京都","city":"新宿区","address":"東京都新宿区河田町8-1","lat":35.69807045,"lon":139.72011683},{"name":"東京都保健医療公社大久保病院","province":"東京都","city":"新宿区","address":"東京都新宿区歌舞伎町2丁目44-1","lat":35.69691177,"lon":139.70156297},{"name":"国立国際医療研究センター病院","province":"東京都","city":"新宿区","address":"東京都新宿区戸山1丁目21-1","lat":35.70174214,"lon":139.71530878},{"name":"社会保険中央総合病院","province":"東京都","city":"新宿区","address":"東京都新宿区百人町3丁目22-1","lat":35.70470248,"lon":139.69904899},{"name":"大久保病院","province":"東京都","city":"新宿区","address":"東京都新宿区歌舞伎町2丁目44-1","lat":35.69691177,"lon":139.70156297},{"name":"国立国際医療センター","province":"東京都","city":"新宿区","address":"東京都新宿区戸山1丁目21-1","lat":35.70174214,"lon":139.71530878},{"name":"大久保病院","province":"東京都","city":"新宿区","address":"東京都新宿区歌舞伎町2丁目44-1","lat":35.69691177,"lon":139.70156297},{"name":"東京医科大学病院","province":"東京都","city":"新宿区","address":"東京都新宿区西新宿6丁目7-1","lat":35.69402018,"lon":139.69221112},{"name":"慶応義塾大学病院","province":"東京都","city":"新宿区","address":"東京都新宿区信濃町35","lat":35.68258045,"lon":139.7181676},{"name":"東京女子医科大学病院","province":"東京都","city":"新宿区","address":"東京都新宿区河田町8-1","lat":35.69807045,"lon":139.72011683},{"name":"東京都保健医療公社大久保病院","province":"東京都","city":"新宿区","address":"東京都新宿区歌舞伎町2丁目44-1","lat":35.69691177,"lon":139.70156297},{"name":"国立国際医療研究センター病院","province":"東京都","city":"新宿区","address":"東京都新宿区戸山1丁目21-1","lat":35.70174214,"lon":139.71530878},{"name":"社会保険中央総合病院","province":"東京都","city":"新宿区","address":"東京都新宿区百人町3丁目22-1","lat":35.70470248,"lon":139.69904899},{"name":"大久保病院","province":"東京都","city":"新宿区","address":"東京都新宿区歌舞伎町2丁目44-1","lat":35.69691177,"lon":139.70156297},{"name":"国立国際医療センター","province":"東京都","city":"新宿区","address":"東京都新宿区戸山1丁目21-1","lat":35.70174214,"lon":139.71530878},{"name":"大久保病院","province":"東京都","city":"新宿区","address":"東京都新宿区歌舞伎町2丁目44-1","lat":35.69691177,"lon":139.70156297},{"name":"東京医科大学病院","province":"東京都","city":"新宿区","address":"東京都新宿区西新宿6丁目7-1","lat":35.69402018,"lon":139.69221112},{"name":"慶応義塾大学病院","province":"東京都","city":"新宿区","address":"東京都新宿区信濃町35","lat":35.68258045,"lon":139.7181676},{"name":"東京女子医科大学病院","province":"東京都","city":"新宿区","address":"東京都新宿区河田町8-1","lat":35.69807045,"lon":139.72011683},{"name":"東京都保健医療公社大久保病院","province":"東京都","city":"新宿区","address":"東京都新宿区歌舞伎町2丁目44-1","lat":35.69691177,"lon":139.70156297},{"name":"国立国際医療研究センター病院","province":"東京都","city":"新宿区","address":"東京都新宿区戸山1丁目21-1","lat":35.70174214,"lon":139.71530878},{"name":"社会保険中央総合病院","province":"東京都","city":"新宿区","address":"東京都新宿区百人町3丁目22-1","lat":35.70470248,"lon":139.69904899},{"name":"大久保病院","province":"東京都","city":"新宿区","address":"東京都新宿区歌舞伎町2丁目44-1","lat":35.69691177,"lon":139.70156297},{"name":"国立国際医療センター","province":"東京都","city":"新宿区","address":"東京都新宿区戸山1丁目21-1","lat":35.70174214,"lon":139.71530878},{"name":"大久保病院","province":"東京都","city":"新宿区","address":"東京都新宿区歌舞伎町2丁目44-1","lat":35.69691177,"lon":139.70156297},{"name":"東京医科大学病院","province":"東京都","city":"新宿区","address":"東京都新宿区西新宿6丁目7-1","lat":35.69402018,"lon":139.69221112},{"name":"慶応義塾大学病院","province":"東京都","city":"新宿区","address":"東京都新宿区信濃町35","lat":35.68258045,"lon":139.7181676},{"name":"東京女子医科大学病院","province":"東京都","city":"新宿区","address":"東京都新宿区河田町8-1","lat":35.69807045,"lon":139.72011683},{"name":"東京都保健医療公社大久保病院","province":"東京都","city":"新宿区","address":"東京都新宿区歌舞伎町2丁目44-1","lat":35.69691177,"lon":139.70156297},{"name":"国立国際医療研究センター病院","province":"東京都","city":"新宿区","address":"東京都新宿区戸山1丁目21-1","lat":35.70174214,"lon":139.71530878},{"name":"社会保険中央総合病院","province":"東京都","city":"新宿区","address":"東京都新宿区百人町3丁目22-1","lat":35.70470248,"lon":139.69904899},{"name":"大久保病院","province":"東京都","city":"新宿区","address":"東京都新宿区歌舞伎町2丁目44-1","lat":35.69691177,"lon":139.70156297},{"name":"国立国際医療センター","province":"東京都","city":"新宿区","address":"東京都新宿区戸山1丁目21-1","lat":35.70174214,"lon":139.71530878},{"name":"大久保病院","province":"東京都","city":"新宿区","address":"東京都新宿区歌舞伎町2丁目44-1","lat":35.69691177,"lon":139.70156297},{"name":"東京医科大学病院","province":"東京都","city":"新宿区","address":"東京都新宿区西新宿6丁目7-1","lat":35.69402018,"lon":139.69221112},{"name":"慶応義塾大学病院","province":"東京都","city":"新宿区","address":"東京都新宿区信濃町35","lat":35.68258045,"lon":139.7181676},{"name":"東京女子医科大学病院","province":"東京都","city":"新宿区","address":"東京都新宿区河田町8-1","lat":35.69807045,"lon":139.72011683},{"name":"東京都保健医療公社大久保病院","province":"東京都","city":"新宿区","address":"東京都新宿区歌舞伎町2丁目44-1","lat":35.69691177,"lon":139.70156297},{"name":"国立国際医療研究センター病院","province":"東京都","city":"新宿区","address":"東京都新宿区戸山1丁目21-1","lat":35.70174214,"lon":139.71530878},{"name":"社会保険中央総合病院","province":"東京都","city":"新宿区","address":"東京都新宿区百人町3丁目22-1","lat":35.70470248,"lon":139.69904899},{"name":"大久保病院","province":"東京都","city":"新宿区","address":"東京都新宿区歌舞伎町2丁目44-1","lat":35.69691177,"lon":139.70156297},{"name":"国立国際医療センター","province":"東京都","city":"新宿区","address":"東京都新宿区戸山1丁目21-1","lat":35.70174214,"lon":139.71530878},{"name":"大久保病院","province":"東京都","city":"新宿区","address":"東京都新宿区歌舞伎町2丁目44-1","lat":35.69691177,"lon":139.70156297},{"name":"東京医科大学病院","province":"東京都","city":"新宿区","address":"東京都新宿区西新宿6丁目7-1","lat":35.69402018,"lon":139.69221112},{"name":"慶応義塾大学病院","province":"東京都","city":"新宿区","address":"東京都新宿区信濃町35","lat":35.68258045,"lon":139.7181676},{"name":"東京女子医科大学病院","province":"東京都","city":"新宿区","address":"東京都新宿区河田町8-1","lat":35.69807045,"lon":139.72011683},{"name":"東京都保健医療公社大久保病院","province":"東京都","city":"新宿区","address":"東京都新宿区歌舞伎町2丁目44-1","lat":35.69691177,"lon":139.70156297},{"name":"国立国際医療研究センター病院","province":"東京都","city":"新宿区","address":"東京都新宿区戸山1丁目21-1","lat":35.70174214,"lon":139.71530878},{"name":"社会保険中央総合病院","province":"東京都","city":"新宿区","address":"東京都新宿区百人町3丁目22-1","lat":35.70470248,"lon":139.69904899},{"name":"大久保病院","province":"東京都","city":"新宿区","address":"東京都新宿区歌舞伎町2丁目44-1","lat":35.69691177,"lon":139.70156297},{"name":"国立国際医療センター","province":"東京都","city":"新宿区","address":"東京都新宿区戸山1丁目21-1","lat":35.70174214,"lon":139.71530878},{"name":"大久保病院","province":"東京都","city":"新宿区","address":"東京都新宿区歌舞伎町2丁目44-1","lat":35.69691177,"lon":139.70156297},{"name":"東京医科大学病院","province":"東京都","city":"新宿区","address":"東京都新宿区西新宿6丁目7-1","lat":35.69402018,"lon":139.69221112},{"name":"慶応義塾大学病院","province":"東京都","city":"新宿区","address":"東京都新宿区信濃町35","lat":35.68258045,"lon":139.7181676},{"name":"東京女子医科大学病院","province":"東京都","city":"新宿区","address":"東京都新宿区河田町8-1","lat":35.69807045,"lon":139.72011683},{"name":"東京都保健医療公社大久保病院","province":"東京都","city":"新宿区","address":"東京都新宿区歌舞伎町2丁目44-1","lat":35.69691177,"lon":139.70156297},{"name":"国立国際医療研究センター病院","province":"東京都","city":"新宿区","address":"東京都新宿区戸山1丁目21-1","lat":35.70174214,"lon":139.71530878},{"name":"社会保険中央総合病院","province":"東京都","city":"新宿区","address":"東京都新宿区百人町3丁目22-1","lat":35.70470248,"lon":139.69904899},{"name":"大久保病院","province":"東京都","city":"新宿区","address":"東京都新宿区歌舞伎町2丁目44-1","lat":35.69691177,"lon":139.70156297},{"name":"国立国際医療センター","province":"東京都","city":"新宿区","address":"東京都新宿区戸山1丁目21-1","lat":35.70174214,"lon":139.71530878},{"name":"大久保病院","province":"東京都","city":"新宿区","address":"東京都新宿区歌舞伎町2丁目44-1","lat":35.69691177,"lon":139.70156297},{"name":"東京医科大学病院","province":"東京都","city":"新宿区","address":"東京都新宿区西新宿6丁目7-1","lat":35.69402018,"lon":139.69221112},{"name":"慶応義塾大学病院","province":"東京都","city":"新宿区","address":"東京都新宿区信濃町35","lat":35.68258045,"lon":139.7181676},{"name":"東京女子医科大学病院","province":"東京都","city":"新宿区","address":"東京都新宿区河田町8-1","lat":35.69807045,"lon":139.72011683},{"name":"東京都保健医療公社大久保病院","province":"東京都","city":"新宿区","address":"東京都新宿区歌舞伎町2丁目44-1","lat":35.69691177,"lon":139.70156297},{"name":"国立国際医療研究センター病院","province":"東京都","city":"新宿区","address":"東京都新宿区戸山1丁目21-1","lat":35.70174214,"lon":139.71530878},{"name":"社会保険中央総合病院","province":"東京都","city":"新宿区","address":"東京都新宿区百人町3丁目22-1","lat":35.70470248,"lon":139.69904899},{"name":"大久保病院","province":"東京都","city":"新宿区","address":"東京都新宿区歌舞伎町2丁目44-1","lat":35.69691177,"lon":139.70156297},{"name":"国立国際医療センター","province":"東京都","city":"新宿区","address":"東京都新宿区戸山1丁目21-1","lat":35.70174214,"lon":139.71530878},{"name":"大久保病院","province":"東京都","city":"新宿区","address":"東京都新宿区歌舞伎町2丁目44-1","lat":35.69691177,"lon":139.70156297},{"name":"東京医科大学病院","province":"東京都","city":"新宿区","address":"東京都新宿区西新宿6丁目7-1","lat":35.69402018,"lon":139.69221112},{"name":"慶応義塾大学病院","province":"東京都","city":"新宿区","address":"東京都新宿区信濃町35","lat":35.68258045,"lon":139.7181676},{"name":"東京女子医科大学病院","province":"東京都","city":"新宿区","address":"東京都新宿区河田町8-1","lat":35.69807045,"lon":139.72011683},{"name":"東京都保健医療公社大久保病院","province":"東京都","city":"新宿区","address":"東京都新宿区歌舞伎町2丁目44-1","lat":35.69691177,"lon":139.70156297},{"name":"国立国際医療研究センター病院","province":"東京都","city":"新宿区","address":"東京都新宿区戸山1丁目21-1","lat":35.70174214,"lon":139.71530878},{"name":"社会保険中央総合病院","province":"東京都","city":"新宿区","address":"東京都新宿区百人町3丁目22-1","lat":35.70470248,"lon":139.69904899},{"name":"大久保病院","province":"東京都","city":"新宿区","address":"東京都新宿区歌舞伎町2丁目44-1","lat":35.69691177,"lon":139.70156297},{"name":"国立国際医療センター","province":"東京都","city":"新宿区","address":"東京都新宿区戸山1丁目21-1","lat":35.70174214,"lon":139.71530878},{"name":"大久保病院","province":"東京都","city":"新宿区","address":"東京都新宿区歌舞伎町2丁目44-1","lat":35.69691177,"lon":139.70156297},{"name":"東京医科大学病院","province":"東京都","city":"新宿区","address":"東京都新宿区西新宿6丁目7-1","lat":35.69402018,"lon":139.69221112},{"name":"慶応義塾大学病院","province":"東京都","city":"新宿区","address":"東京都新宿区信濃町35","lat":35.68258045,"lon":139.7181676},{"name":"東京女子医科大学病院","province":"東京都","city":"新宿区","address":"東京都新宿区河田町8-1","lat":35.69807045,"lon":139.72011683},{"name":"東京都保健医療公社大久保病院","province":"東京都","city":"新宿区","address":"東京都新宿区歌舞伎町2丁目44-1","lat":35.69691177,"lon":139.70156297},{"name":"国立国際医療研究センター病院","province":"東京都","city":"新宿区","address":"東京都新宿区戸山1丁目21-1","lat":35.70174214,"lon":139.71530878},{"name":"社会保険中央総合病院","province":"東京都","city":"新宿区","address":"東京都新宿区百人町3丁目22-1","lat":35.70470248,"lon":139.69904899},{"name":"大久保病院","province":"東京都","city":"新宿区","address":"東京都新宿区歌舞伎町2丁目44-1","lat":35.69691177,"lon":139.70156297},{"name":"国立国際医療センター","province":"東京都","city":"新宿区","address":"東京都新宿区戸山1丁目21-1","lat":35.70174214,"lon":139.71530878},{"name":"大久保病院","province":"東京都","city":"新宿区","address":"東京都新宿区歌舞伎町2丁目44-1","lat":35.69691177,"lon":139.70156297},{"name":"東京医科大学病院","province":"東京都","city":"新宿区","address":"東京都新宿区西新宿6丁目7-1","lat":35.69402018,"lon":139.69221112},{"name":"慶応義塾大学病院","province":"東京都","city":"新宿区","address":"東京都新宿区信濃町35","lat":35.68258045,"lon":139.7181676},{"name":"東京女子医科大学病院","province":"東京都","city":"新宿区","address":"東京都新宿区河田町8-1","lat":35.69807045,"lon":139.72011683},{"name":"東京都保健医療公社大久保病院","province":"東京都","city":"新宿区","address":"東京都新宿区歌舞伎町2丁目44-1","lat":35.69691177,"lon":139.70156297},{"name":"国立国際医療研究センター病院","province":"東京都","city":"新宿区","address":"東京都新宿区戸山1丁目21-1","lat":35.70174214,"lon":139.71530878},{"name":"社会保険中央総合病院","province":"東京都","city":"新宿区","address":"東京都新宿区百人町3丁目22-1","lat":35.70470248,"lon":139.69904899},{"name":"大久保病院","province":"東京都","city":"新宿区","address":"東京都新宿区歌舞伎町2丁目44-1","lat":35.69691177,"lon":139.70156297},{"name":"国立国際医療センター","province":"東京都","city":"新宿区","address":"東京都新宿区戸山1丁目21-1","lat":35.70174214,"lon":139.71530878},{"name":"大久保病院","province":"東京都","city":"新宿区","address":"東京都新宿区歌舞伎町2丁目44-1","lat":35.69691177,"lon":139.70156297},{"name":"東京医科大学病院","province":"東京都","city":"新宿区","address":"東京都新宿区西新宿6丁目7-1","lat":35.69402018,"lon":139.69221112},{"name":"慶応義塾大学病院","province":"東京都","city":"新宿区","address":"東京都新宿区信濃町35","lat":35.68258045,"lon":139.7181676},{"name":"東京女子医科大学病院","province":"東京都","city":"新宿区","address":"東京都新宿区河田町8-1","lat":35.69807045,"lon":139.72011683},{"name":"東京都保健医療公社大久保病院","province":"東京都","city":"新宿区","address":"東京都新宿区歌舞伎町2丁目44-1","lat":35.69691177,"lon":139.70156297},{"name":"国立国際医療研究センター病院","province":"東京都","city":"新宿区","address":"東京都新宿区戸山1丁目21-1","lat":35.70174214,"lon":139.71530878},{"name":"社会保険中央総合病院","province":"東京都","city":"新宿区","address":"東京都新宿区百人町3丁目22-1","lat":35.70470248,"lon":139.69904899},{"name":"大久保病院","province":"東京都","city":"新宿区","address":"東京都新宿区歌舞伎町2丁目44-1","lat":35.69691177,"lon":139.70156297},{"name":"国立国際医療センター","province":"東京都","city":"新宿区","address":"東京都新宿区戸山1丁目21-1","lat":35.70174214,"lon":139.71530878},{"name":"大久保病院","province":"東京都","city":"新宿区","address":"東京都新宿区歌舞伎町2丁目44-1","lat":35.69691177,"lon":139.70156297},{"name":"東京医科大学病院","province":"東京都","city":"新宿区","address":"東京都新宿区西新宿6丁目7-1","lat":35.69402018,"lon":139.69221112},{"name":"慶応義塾大学病院","province":"東京都","city":"新宿区","address":"東京都新宿区信濃町35","lat":35.68258045,"lon":139.7181676},{"name":"東京女子医科大学病院","province":"東京都","city":"新宿区","address":"東京都新宿区河田町8-1","lat":35.69807045,"lon":139.72011683},{"name":"東京都保健医療公社大久保病院","province":"東京都","city":"新宿区","address":"東京都新宿区歌舞伎町2丁目44-1","lat":35.69691177,"lon":139.70156297},{"name":"国立国際医療研究センター病院","province":"東京都","city":"新宿区","address":"東京都新宿区戸山1丁目21-1","lat":35.70174214,"lon":139.71530878},{"name":"社会保険中央総合病院","province":"東京都","city":"新宿区","address":"東京都新宿区百人町3丁目22-1","lat":35.70470248,"lon":139.69904899},{"name":"大久保病院","province":"東京都","city":"新宿区","address":"東京都新宿区歌舞伎町2丁目44-1","lat":35.69691177,"lon":139.70156297},{"name":"国立国際医療センター","province":"東京都","city":"新宿区","address":"東京都新宿区戸山1丁目21-1","lat":35.70174214,"lon":139.71530878},{"name":"大久保病院","province":"東京都","city":"新宿区","address":"東京都新宿区歌舞伎町2丁目44-1","lat":35.69691177,"lon":139.70156297},{"name":"東京医科大学病院","province":"東京都","city":"新宿区","address":"東京都新宿区西新宿6丁目7-1","lat":35.69402018,"lon":139.69221112},{"name":"慶応義塾大学病院","province":"東京都","city":"新宿区","address":"東京都新宿区信濃町35","lat":35.68258045,"lon":139.7181676},{"name":"東京女子医科大学病院","province":"東京都","city":"新宿区","address":"東京都新宿区河田町8-1","lat":35.69807045,"lon":139.72011683},{"name":"東京都保健医療公社大久保病院","province":"東京都","city":"新宿区","address":"東京都新宿区歌舞伎町2丁目44-1","lat":35.69691177,"lon":139.70156297},{"name":"国立国際医療研究センター病院","province":"東京都","city":"新宿区","address":"東京都新宿区戸山1丁目21-1","lat":35.70174214,"lon":139.71530878},{"name":"社会保険中央総合病院","province":"東京都","city":"新宿区","address":"東京都新宿区百人町3丁目22-1","lat":35.70470248,"lon":139.69904899},{"name":"大久保病院","province":"東京都","city":"新宿区","address":"東京都新宿区歌舞伎町2丁目44-1","lat":35.69691177,"lon":139.70156297},{"name":"国立国際医療センター","province":"東京都","city":"新宿区","address":"東京都新宿区戸山1丁目21-1","lat":35.70174214,"lon":139.71530878},{"name":"大久保病院","province":"東京都","city":"新宿区","address":"東京都新宿区歌舞伎町2丁目44-1","lat":35.69691177,"lon":139.70156297},{"name":"東京医科大学病院","province":"東京都","city":"新宿区","address":"東京都新宿区西新宿6丁目7-1","lat":35.69402018,"lon":139.69221112},{"name":"慶応義塾大学病院","province":"東京都","city":"新宿区","address":"東京都新宿区信濃町35","lat":35.68258045,"lon":139.7181676},{"name":"東京女子医科大学病院","province":"東京都","city":"新宿区","address":"東京都新宿区河田町8-1","lat":35.69807045,"lon":139.72011683},{"name":"東京都保健医療公社大久保病院","province":"東京都","city":"新宿区","address":"東京都新宿区歌舞伎町2丁目44-1","lat":35.69691177,"lon":139.70156297},{"name":"国立国際医療研究センター病院","province":"東京都","city":"新宿区","address":"東京都新宿区戸山1丁目21-1","lat":35.70174214,"lon":139.71530878},{"name":"社会保険中央総合病院","province":"東京都","city":"新宿区","address":"東京都新宿区百人町3丁目22-1","lat":35.70470248,"lon":139.69904899},{"name":"大久保病院","province":"東京都","city":"新宿区","address":"東京都新宿区歌舞伎町2丁目44-1","lat":35.69691177,"lon":139.70156297},{"name":"国立国際医療センター","province":"東京都","city":"新宿区","address":"東京都新宿区戸山1丁目21-1","lat":35.70174214,"lon":139.71530878},{"name":"大久保病院","province":"東京都","city":"新宿区","address":"東京都新宿区歌舞伎町2丁目44-1","lat":35.69691177,"lon":139.70156297},{"name":"東京医科大学病院","province":"東京都","city":"新宿区","address":"東京都新宿区西新宿6丁目7-1","lat":35.69402018,"lon":139.69221112},{"name":"慶応義塾大学病院","province":"東京都","city":"新宿区","address":"東京都新宿区信濃町35","lat":35.68258045,"lon":139.7181676},{"name":"東京女子医科大学病院","province":"東京都","city":"新宿区","address":"東京都新宿区河田町8-1","lat":35.69807045,"lon":139.72011683},{"name":"東京都保健医療公社大久保病院","province":"東京都","city":"新宿区","address":"東京都新宿区歌舞伎町2丁目44-1","lat":35.69691177,"lon":139.70156297},{"name":"国立国際医療研究センター病院","province":"東京都","city":"新宿区","address":"東京都新宿区戸山1丁目21-1","lat":35.70174214,"lon":139.71530878},{"name":"社会保険中央総合病院","province":"東京都","city":"新宿区","address":"東京都新宿区百人町3丁目22-1","lat":35.70470248,"lon":139.69904899},{"name":"大久保病院","province":"東京都","city":"新宿区","address":"東京都新宿区歌舞伎町2丁目44-1","lat":35.69691177,"lon":139.70156297},{"name":"国立国際医療センター","province":"東京都","city":"新宿区","address":"東京都新宿区戸山1丁目21-1","lat":35.70174214,"lon":139.71530878}]}