{"keyword":"保育","data":[{"name":"大木戸子ども園","province":"東京都","city":"新宿区","address":"新宿区四谷4-17","lat":35.688853,"lon":139.716399},{"name":"グローバルキッズ愛住町園","province":"東京都","city":"新宿区","address":"新宿区愛住町6","lat":35.686003,"lon":139.725942},{"name":"グローバルキッズ若葉園","province":"東京都","city":"新宿区","address":"新宿区若葉1-9","lat":35.68623,"lon":139.726066},{"name":"二葉南元保育園","province":"東京都","city":"新宿区","address":"新宿区南元町4","lat":35.681481,"lon":139.724597},{"name":"新宿三つの木保育園もりさんかくしかく","province":"東京都","city":"新宿区","address":"新宿区大京町29番地","lat":35.68197,"lon":139.715504},{"name":"しなのまち子ども園","province":"東京都","city":"新宿区","address":"新宿区信濃町20","lat":35.683387,"lon":139.720212},{"name":"新宿成子坂愛育園","province":"東京都","city":"新宿区","address":"新宿区西新宿6-7-39","lat":35.694328,"lon":139.691547},{"name":"グローバルキッズ西新宿園","province":"東京都","city":"新宿区","address":"新宿区西新宿5-5-1","lat":35.693765,"lon":139.686995},{"name":"西落合子ども園","province":"東京都","city":"新宿区","address":"新宿区西落合1-31-24","lat":35.719695,"lon":139.679472},{"name":"グローバルキッズ西落合保育園","province":"東京都","city":"新宿区","address":"新宿区西落合3-19-9","lat":35.725483,"lon":139.679311},{"name":"中落合第ニ保育園","province":"東京都","city":"新宿区","address":"新宿区中落合2-7-24","lat":35.717948,"lon":139.693913},{"name":"新宿こだま保育園","province":"東京都","city":"新宿区","address":"新宿区中落合4丁目25番19号","lat":35.7191,"lon":139.682125},{"name":"下落合そらいろ保育園","province":"東京都","city":"新宿区","address":"新宿区中落合2-7-5","lat":35.717831,"lon":139.69456},{"name":"新宿せいが子ども園","province":"東京都","city":"新宿区","address":"新宿区下落合2-10-20","lat":35.717376,"lon":139.701018},{"name":"キッズタウン下落合保育園","province":"東京都","city":"新宿区","address":"新宿区下落合1-9-10","lat":35.715943,"lon":139.698676},{"name":"八幡神社愛育園","province":"東京都","city":"新宿区","address":"新宿区上落合一丁目26番19号","lat":35.712682,"lon":139.690899},{"name":"あい保育園落合","province":"東京都","city":"新宿区","address":"新宿区上落合1-5-2羽場ビルディング1~3階","lat":35.711307,"lon":139.691497},{"name":"おちごなかい子ども園","province":"東京都","city":"新宿区","address":"新宿区中井1-8-12","lat":35.714759,"lon":139.683792},{"name":"獅子吼保育園","province":"東京都","city":"新宿区","address":"新宿区中井2-8-6","lat":35.717687,"lon":139.686216},{"name":"早稲田南町保育園","province":"東京都","city":"新宿区","address":"新宿区早稲田南町50","lat":35.705086,"lon":139.722305},{"name":"戸山第一子ども園","province":"東京都","city":"新宿区","address":"新宿区戸山2-26-101","lat":35.7042,"lon":139.711751},{"name":"茶々ひがしとやま子ども園","province":"東京都","city":"新宿区","address":"新宿区戸山2-34-101","lat":35.702145,"lon":139.710681},{"name":"戸山第ニ保育園","province":"東京都","city":"新宿区","address":"新宿区戸山2-18-101","lat":35.702114,"lon":139.712373},{"name":"新宿いるま保育園","province":"東京都","city":"新宿区","address":"新宿区戸山1-21-1","lat":35.70175,"lon":139.715248},{"name":"原町みゆき保育園","province":"東京都","city":"新宿区","address":"新宿区原町2丁目43番地","lat":35.698915,"lon":139.723822},{"name":"至誠会保育園","province":"東京都","city":"新宿区","address":"新宿区河田町10番13号","lat":35.697632,"lon":139.718086},{"name":"アスク薬王寺保育園","province":"東京都","city":"新宿区","address":"新宿区市谷薬王寺町51","lat":35.696143,"lon":139.724736},{"name":"ニチイキッズ曙橋保育園","province":"東京都","city":"新宿区","address":"新宿区市谷台町1-3モデラート1階","lat":35.693204,"lon":139.72052},{"name":"富久ソラのこども園ちいさなうちゅう","province":"東京都","city":"新宿区","address":"新宿区富久町14-1","lat":35.692563,"lon":139.713754},{"name":"富久町保育園","province":"東京都","city":"新宿区","address":"新宿区富久町22-21","lat":35.694032,"lon":139.715684},{"name":"アスク神楽坂保育園","province":"東京都","city":"新宿区","address":"新宿区矢来町98-1スキップビル1階","lat":35.702295,"lon":139.734454},{"name":"ほっぺるランド神楽坂","province":"東京都","city":"新宿区","address":"新宿区榎町43-1ユニゾ神楽坂ビル2F.3F","lat":35.704523,"lon":139.728666},{"name":"東五軒町保育園","province":"東京都","city":"新宿区","address":"新宿区東五軒町5-24","lat":35.706789,"lon":139.740087},{"name":"太陽の子新小川町保育園","province":"東京都","city":"新宿区","address":"新宿区新小川町1番8号こだまビル2階","lat":35.704465,"lon":139.743195},{"name":"グローバルキッズ神楽坂園","province":"東京都","city":"新宿区","address":"新宿区神楽坂4-8神楽坂プラザビル1階","lat":35.702629,"lon":139.739893},{"name":"ぽけっとランド市ヶ谷保育園","province":"東京都","city":"新宿区","address":"新宿区市谷船河原町1番地","lat":35.697268,"lon":139.739668},{"name":"アスク新宿南町保育園","province":"東京都","city":"新宿区","address":"新宿区南町20番地3","lat":35.69839,"lon":139.735018},{"name":"ポピンズナーサリースクール市ヶ谷","province":"東京都","city":"新宿区","address":"新宿区払方町19-1エムジー市ヶ谷ビル2階・3階","lat":35.696615,"lon":139.734807},{"name":"ポピンズナーサリースクール四ッ谷","province":"東京都","city":"新宿区","address":"新宿区市谷本村町2丁目10番","lat":35.690247,"lon":139.731513},{"name":"長延保育園","province":"東京都","city":"新宿区","address":"新宿区市谷長延寺町8","lat":35.694093,"lon":139.734277},{"name":"弁天町保育園","province":"東京都","city":"新宿区","address":"新宿区弁天町50","lat":35.703717,"lon":139.727194},{"name":"西早稲田保育園","province":"東京都","city":"新宿区","address":"新宿区西早稲田1-9-30","lat":35.710375,"lon":139.721194},{"name":"大久保わかくさ子ども園","province":"東京都","city":"新宿区","address":"新宿区大久保1-4-1","lat":35.699878,"lon":139.706937},{"name":"大久保第一保育園","province":"東京都","city":"新宿区","address":"新宿区大久保3-11-1","lat":35.708422,"lon":139.706387},{"name":"エイビイシイ保育園","province":"東京都","city":"新宿区","address":"新宿区大久保二丁目11番5号","lat":35.702328,"lon":139.706865},{"name":"にじいろ保育園高田馬場南","province":"東京都","city":"新宿区","address":"新宿区大久保三丁目8番4号住友不動産新宿ガーデンタワーアネックス2階","lat":35.709206,"lon":139.702904},{"name":"ほっぺるランド牛込","province":"東京都","city":"新宿区","address":"新宿区北山伏1-2-1","lat":35.699782,"lon":139.731738},{"name":"ほっぺるランド新大久保","province":"東京都","city":"新宿区","address":"新宿区大久保1-16-20","lat":35.700642,"lon":139.70301},{"name":"百人町保育園","province":"東京都","city":"新宿区","address":"新宿区百人町2-18-21","lat":35.703342,"lon":139.698182},{"name":"新栄保育園","province":"東京都","city":"新宿区","address":"新宿区百人町3-21-14","lat":35.704805,"lon":139.699868},{"name":"柏木子ども園","province":"東京都","city":"新宿区","address":"新宿区北新宿2-3-7","lat":35.698531,"lon":139.690247},{"name":"北新宿子ども園","province":"東京都","city":"新宿区","address":"新宿区北新宿3-20-2","lat":35.702972,"lon":139.689461},{"name":"よろい保育園","province":"東京都","city":"新宿区","address":"新宿区北新宿3丁目16番18号","lat":35.704541,"lon":139.692033},{"name":"東京母子愛育会保育園","province":"東京都","city":"新宿区","address":"新宿区北新宿四丁目21番14号","lat":35.707366,"lon":139.692063},{"name":"しんえい子ども園　もくもく","province":"東京都","city":"新宿区","address":"新宿区高田馬場4丁目36番12号","lat":35.709799,"lon":139.696266},{"name":"高田馬場第ニ保育園","province":"東京都","city":"新宿区","address":"新宿区高田馬場1-4-17","lat":35.710946,"lon":139.709215},{"name":"オルト保育園","province":"東京都","city":"新宿区","address":"新宿区高田馬場三丁目40番3号","lat":35.712546,"lon":139.696035},{"name":"にじいろ保育園高田馬場西","province":"東京都","city":"新宿区","address":"新宿区高田馬場一丁目24-16内田ビル1F","lat":35.711755,"lon":139.705212},{"name":"にじいろ保育園高田馬場東","province":"東京都","city":"新宿区","address":"新宿区高田馬場1-16-26","lat":35.71106,"lon":139.707373},{"name":"保育所まぁむ高田馬場駅前園","province":"東京都","city":"新宿区","address":"新宿区高田馬場3丁目1番5号花川第2ビル2F","lat":35.71451,"lon":139.703676}]}