{"keyword":"初動","data":[{"name":"陸上自衛隊市ヶ谷駐屯地","province":"東京都","city":"新宿区","address":"新宿区市谷本村町5-1","lat":35.693837,"lon":139.727038},{"name":"第五機動隊","province":"東京都","city":"新宿区","address":"新宿区市谷本村町6-1","lat":35.69359,"lon":139.725},{"name":"第八機動隊","province":"東京都","city":"新宿区","address":"新宿区若松町14-1","lat":35.69851,"lon":139.7154},{"name":"特科車両隊","province":"東京都","city":"新宿区","address":"新宿区市谷本村町7-1","lat":35.69496,"lon":139.7259},{"name":"第四方面交通機動隊","province":"東京都","city":"新宿区","address":"新宿区市谷本村町7-13","lat":35.69564,"lon":139.7258},{"name":"第四方面本部","province":"東京都","city":"新宿区","address":"新宿区市谷本村町6-1","lat":35.69359,"lon":139.725},{"name":"牛込警察署","province":"東京都","city":"新宿区","address":"新宿区南山伏町1-15","lat":35.69902,"lon":139.7316},{"name":"新宿警察署","province":"東京都","city":"新宿区","address":"新宿区西新宿6-1-1","lat":35.69348,"lon":139.6944},{"name":"戸塚警察署","province":"東京都","city":"新宿区","address":"新宿区西早稲田3-30-13","lat":35.71334,"lon":139.7112},{"name":"四谷警察署","province":"東京都","city":"新宿区","address":"新宿区左門町6-5","lat":35.68647,"lon":139.7205},{"name":"第四消防方面本部","province":"東京都","city":"新宿区","address":"新宿区大久保3-14-26","lat":35.70824,"lon":139.7086},{"name":"牛込消防署","province":"東京都","city":"新宿区","address":"新宿区筑土八幡町5-16","lat":35.70359,"lon":139.7395},{"name":"新宿消防署","province":"東京都","city":"新宿区","address":"新宿区百人町3-29-4","lat":35.70693,"lon":139.6948},{"name":"四谷消防署","province":"東京都","city":"新宿区","address":"新宿区四谷3-10","lat":35.68812,"lon":139.7197},{"name":"災害対策職員住宅柏木住宅内集中備蓄倉庫","province":"東京都","city":"新宿区","address":"新宿区北新宿4-6-1","lat":35.708274,"lon":139.693808},{"name":"新宿区","province":"東京都","city":"新宿区","address":"新宿区原町3-23","lat":35.70002,"lon":139.7223}]}