{"keyword":"区","data":[{"name":"新宿区保健所","province":"東京都","city":"新宿区","address":"新宿区新宿5-18-21","lat":35.693904,"lon":139.705677},{"name":"牛込保健センター","province":"東京都","city":"新宿区","address":"新宿区弁天町50","lat":35.703717,"lon":139.727194},{"name":"四谷保健センター","province":"東京都","city":"新宿区","address":"新宿区三栄町25","lat":35.688619,"lon":139.723967},{"name":"東新宿保健センター","province":"東京都","city":"新宿区","address":"新宿区新宿7-26-4","lat":35.698087,"lon":139.709654},{"name":"落合保健センター","province":"東京都","city":"新宿区","address":"新宿区下落合4-6-7","lat":35.718717,"lon":139.694996},{"name":"四谷保健センター","province":"東京都","city":"新宿区","address":"新宿区四谷三栄町10-16","lat":35.688474,"lon":139.726283},{"name":"新宿区保健所","province":"東京都","city":"新宿区","address":"東京都新宿区新宿5丁目18-21","lat":35.69390388,"lon":139.70567105},{"name":"牛込保健センター","province":"東京都","city":"新宿区","address":"東京都新宿区矢来町6","lat":35.70106761,"lon":139.73091853},{"name":"四谷保健センター","province":"東京都","city":"新宿区","address":"東京都新宿区四谷三栄町10-16","lat":35.68881047,"lon":139.72427238},{"name":"東新宿保健センター","province":"東京都","city":"新宿区","address":"東京都新宿区新宿7丁目26-4","lat":35.69808963,"lon":139.70962332},{"name":"落合保健センター","province":"東京都","city":"新宿区","address":"東京都新宿区下落合4丁目6-7","lat":35.71871744,"lon":139.694996},{"name":"新宿区保健所","province":"東京都","city":"新宿区","address":"新宿区新宿5-18-21","lat":35.69441,"lon":139.70663},{"name":"牛込保健センター","province":"東京都","city":"新宿区","address":"新宿区矢来町6","lat":35.70112,"lon":139.73083},{"name":"四谷保健センター","province":"東京都","city":"新宿区","address":"新宿区四谷三栄町10-16","lat":35.68874,"lon":139.72412},{"name":"東新宿保健センター","province":"東京都","city":"新宿区","address":"新宿区新宿7-26-4","lat":35.69917,"lon":139.7092},{"name":"落合保健センター","province":"東京都","city":"新宿区","address":"新宿区下落合4-6-7","lat":35.71946,"lon":139.69492},{"name":"新宿区保健所","province":"東京都","city":"新宿区","address":"新宿区新宿5-18-21","lat":35.69441,"lon":139.70664},{"name":"牛込保健センター","province":"東京都","city":"新宿区","address":"新宿区弁天町50","lat":35.70326,"lon":139.72746},{"name":"四谷保健センター","province":"東京都","city":"新宿区","address":"新宿区四谷三栄町10-16","lat":35.68864,"lon":139.72612}]}