{"keyword":"商品","data":[{"name":"大久保病院","province":"東京都","city":"新宿区","address":"東京都新宿区歌舞伎町2丁目44-1","lat":35.69691177,"lon":139.70156297},{"name":"本塩町児童館","province":"東京都","city":"新宿区","address":"新宿区四谷本塩町4番9号","lat":35.688547,"lon":139.729361},{"name":"信濃町子ども家庭支援センター","province":"東京都","city":"新宿区","address":"新宿区信濃町20","lat":35.683192,"lon":139.720395},{"name":"新宿区立子ども総合センター","province":"東京都","city":"新宿区","address":"新宿区新宿7-3-29","lat":35.701003,"lon":139.712681},{"name":"西新宿児童館","province":"東京都","city":"新宿区","address":"新宿区西新宿4-35-28","lat":35.686349,"lon":139.686929},{"name":"西落合児童館","province":"東京都","city":"新宿区","address":"新宿区西落合1-31-24","lat":35.719695,"lon":139.679472},{"name":"中落合子ども家庭支援センター","province":"東京都","city":"新宿区","address":"新宿区中落合2-7-24","lat":35.717948,"lon":139.693913},{"name":"上落合児童館","province":"東京都","city":"新宿区","address":"新宿区上落合2-28-8","lat":35.711021,"lon":139.685414},{"name":"中井児童館","province":"東京都","city":"新宿区","address":"新宿区中井1-8-12","lat":35.714759,"lon":139.683792},{"name":"早稲田南町児童館","province":"東京都","city":"新宿区","address":"新宿区早稲田南町50","lat":35.705086,"lon":139.722305},{"name":"薬王寺児童館","province":"東京都","city":"新宿区","address":"新宿区市谷仲之町2-42防災センター内3階","lat":35.693865,"lon":139.723981},{"name":"富久町児童館","province":"東京都","city":"新宿区","address":"新宿区富久町22-21","lat":35.694032,"lon":139.715684},{"name":"榎町子ども家庭支援センター","province":"東京都","city":"新宿区","address":"新宿区榎町36","lat":35.704553,"lon":139.72771},{"name":"東五軒町児童館","province":"東京都","city":"新宿区","address":"新宿区東五軒町5-24","lat":35.706789,"lon":139.740087},{"name":"中町児童館","province":"東京都","city":"新宿区","address":"新宿区中町25","lat":35.699021,"lon":139.734554},{"name":"北山伏児童館","province":"東京都","city":"新宿区","address":"新宿区北山伏町2-17","lat":35.700279,"lon":139.729902},{"name":"百人町児童館","province":"東京都","city":"新宿区","address":"新宿区百人町2-18-21","lat":35.703342,"lon":139.698182},{"name":"北新宿第一児童館","province":"東京都","city":"新宿区","address":"新宿区北新宿2-3-7","lat":35.698531,"lon":139.690247},{"name":"北新宿子ども家庭支援センター","province":"東京都","city":"新宿区","address":"新宿区北新宿3-20-2","lat":35.702972,"lon":139.689461},{"name":"高田馬場第一児童館","province":"東京都","city":"新宿区","address":"新宿区高田馬場3-18-21","lat":35.714557,"lon":139.697327},{"name":"高田馬場第二児童館","province":"東京都","city":"新宿区","address":"新宿区高田馬場1-4-17","lat":35.710946,"lon":139.709215},{"name":"シャロームみなみ風","province":"東京都","city":"新宿区","address":"新宿区弁天町32-6","lat":35.704142,"lon":139.727269},{"name":"障害者支援施設新宿けやき園","province":"東京都","city":"新宿区","address":"新宿区百人町4-5-1","lat":35.708158,"lon":139.698107},{"name":"新宿区社会福祉協議会","province":"東京都","city":"新宿区","address":"新宿区高田馬場1-17-20","lat":35.71161,"lon":139.707426},{"name":"東京都社会福祉協議会","province":"東京都","city":"新宿区","address":"新宿区神楽河岸1-1セントラルプラザ5階","lat":35.700951,"lon":139.743579},{"name":"東京都児童相談センター","province":"東京都","city":"新宿区","address":"新宿区北新宿4-6-1","lat":35.708274,"lon":139.693808},{"name":"東京都心身障害者福祉センター","province":"東京都","city":"新宿区","address":"新宿区神楽河岸1-1","lat":35.700951,"lon":139.743579},{"name":"けやき荘","province":"東京都","city":"新宿区","address":"東京都新宿区","lat":35.69388716,"lon":139.70341014},{"name":"東京都庁第一本庁舎","province":"東京都","city":"新宿区","address":"東京都新宿区西新宿2丁目8","lat":35.689389,"lon":139.691468},{"name":"東京都庁第一本庁舎","province":"東京都","city":"新宿区","address":"東京都新宿区西新宿2丁目8","lat":35.689453,"lon":139.691446},{"name":"東京都庁第一本庁舎","province":"東京都","city":"新宿区","address":"東京都新宿区西新宿2丁目8","lat":35.689338,"lon":139.691613},{"name":"東京都庁第一本庁舎","province":"東京都","city":"新宿区","address":"東京都新宿区西新宿2丁目8","lat":35.689561,"lon":139.691851},{"name":"東京都庁第一本庁舎","province":"東京都","city":"新宿区","address":"東京都新宿区西新宿2丁目8","lat":35.689638,"lon":139.691835},{"name":"東京都庁第一本庁舎","province":"東京都","city":"新宿区","address":"東京都新宿区西新宿2丁目8","lat":35.689943,"lon":139.691531},{"name":"東京都庁第一本庁舎","province":"東京都","city":"新宿区","address":"東京都新宿区西新宿2丁目8","lat":35.68903,"lon":139.691748},{"name":"東京都庁第一本庁舎","province":"東京都","city":"新宿区","address":"東京都新宿区西新宿2丁目8","lat":35.689655,"lon":139.691693},{"name":"東京都庁第一本庁舎","province":"東京都","city":"新宿区","address":"東京都新宿区西新宿2丁目8","lat":35.689881,"lon":139.691701},{"name":"東京都庁第一本庁舎","province":"東京都","city":"新宿区","address":"東京都新宿区西新宿2丁目8","lat":35.689626,"lon":139.691708},{"name":"東京都庁第一本庁舎","province":"東京都","city":"新宿区","address":"東京都新宿区西新宿2丁目8","lat":35.689619,"lon":139.691632},{"name":"東京都庁第一本庁舎","province":"東京都","city":"新宿区","address":"東京都新宿区西新宿2丁目8-1","lat":35.689334,"lon":139.691689},{"name":"東京都庁第一本庁舎","province":"東京都","city":"新宿区","address":"東京都新宿区西新宿2丁目8-1","lat":35.68935,"lon":139.691774},{"name":"東京都庁第一本庁舎","province":"東京都","city":"新宿区","address":"東京都新宿区西新宿2丁目8","lat":35.68942,"lon":139.691595},{"name":"東京都庁第一本庁舎","province":"東京都","city":"新宿区","address":"東京都新宿区西新宿2丁目8","lat":35.68965,"lon":139.691623},{"name":"東京都庁第二本庁舎","province":"東京都","city":"新宿区","address":"東京都新宿区西新宿2丁目9","lat":35.688377,"lon":139.691912},{"name":"東京都庁第二本庁舎","province":"東京都","city":"新宿区","address":"東京都新宿区西新宿2丁目8","lat":35.689787,"lon":139.691495},{"name":"東京都庁第二本庁舎","province":"東京都","city":"新宿区","address":"東京都新宿区西新宿2丁目8","lat":35.68957,"lon":139.691762},{"name":"東京都庁第二本庁舎","province":"東京都","city":"新宿区","address":"東京都新宿区西新宿2丁目9","lat":35.688238,"lon":139.691792},{"name":"東京都庁第二本庁舎","province":"東京都","city":"新宿区","address":"東京都新宿区西新宿2丁目9","lat":35.687991,"lon":139.692045},{"name":"東京都庁第二本庁舎","province":"東京都","city":"新宿区","address":"東京都新宿区西新宿2丁目9","lat":35.68798,"lon":139.692062},{"name":"東京都庁第二本庁舎","province":"東京都","city":"新宿区","address":"東京都新宿区西新宿2丁目9","lat":35.688007,"lon":139.692135},{"name":"東京都庁第二本庁舎","province":"東京都","city":"新宿区","address":"東京都新宿区西新宿2丁目9","lat":35.687987,"lon":139.691955},{"name":"東京都庁第二本庁舎","province":"東京都","city":"新宿区","address":"東京都新宿区西新宿2丁目9","lat":35.688,"lon":139.691983},{"name":"東京都議会議事堂","province":"東京都","city":"新宿区","address":"東京都新宿区西新宿2丁目5-1","lat":35.689561,"lon":139.693385},{"name":"東京都議会議事堂","province":"東京都","city":"新宿区","address":"東京都新宿区西新宿2丁目5-1","lat":35.689908,"lon":139.693315},{"name":"東京都議会議事堂","province":"東京都","city":"新宿区","address":"東京都新宿区西新宿2丁目5","lat":35.689258,"lon":139.693158},{"name":"東京都議会議事堂","province":"東京都","city":"新宿区","address":"東京都新宿区西新宿2丁目5","lat":35.690037,"lon":139.69326},{"name":"東京都議会議事堂","province":"東京都","city":"新宿区","address":"東京都新宿区西新宿2丁目5","lat":35.689249,"lon":139.6931},{"name":"東京都議会議事堂","province":"東京都","city":"新宿区","address":"東京都新宿区西新宿2丁目5-1","lat":35.689565,"lon":139.693416},{"name":"東京都議会議事堂","province":"東京都","city":"新宿区","address":"東京都新宿区西新宿2丁目5-1","lat":35.689973,"lon":139.693301},{"name":"東京都議会議事堂","province":"東京都","city":"新宿区","address":"東京都新宿区西新宿2丁目5","lat":35.689806,"lon":139.692936},{"name":"東京都議会議事堂","province":"東京都","city":"新宿区","address":"東京都新宿区西新宿2丁目5","lat":35.689573,"lon":139.692975},{"name":"東京都議会議事堂","province":"東京都","city":"新宿区","address":"東京都新宿区西新宿2丁目8","lat":35.689714,"lon":139.692127},{"name":"新宿都税事務所","province":"東京都","city":"新宿区","address":"東京都新宿区西新宿7丁目5-8","lat":35.696788,"lon":139.698553},{"name":"東京都消費生活総合センター","province":"東京都","city":"新宿区","address":"東京都新宿区神楽河岸1","lat":35.700849,"lon":139.743846},{"name":"東京都健康安全研究センター","province":"東京都","city":"新宿区","address":"東京都新宿区百人町3丁目24-1","lat":35.706094,"lon":139.697759},{"name":"小田急第一生命ビル","province":"東京都","city":"新宿区","address":"東京都新宿区西新宿2丁目7-1","lat":35.691471,"lon":139.69099},{"name":"地方独立行政法人東京都立病院機構　東京都立大久保病院","province":"東京都","city":"新宿区","address":"東京都新宿区歌舞伎町2丁目44-1","lat":35.696685,"lon":139.701453},{"name":"戸山公園","province":"東京都","city":"新宿区","address":"東京都新宿区大久保3丁目5","lat":35.705155,"lon":139.704339},{"name":"戸山公園","province":"東京都","city":"新宿区","address":"東京都新宿区戸山3丁目1","lat":35.706302,"lon":139.715819},{"name":"戸山公園","province":"東京都","city":"新宿区","address":"東京都新宿区戸山3丁目2","lat":35.705523,"lon":139.714018},{"name":"明治公園","province":"東京都","city":"新宿区","address":"東京都新宿区霞ヶ丘町5","lat":35.675463,"lon":139.713076},{"name":"都営新宿線新宿三丁目駅","province":"東京都","city":"新宿区","address":"東京都新宿区新宿3丁目9-10","lat":35.691041,"lon":139.706753},{"name":"都営新宿線曙橋駅","province":"東京都","city":"新宿区","address":"東京都新宿区住吉町7","lat":35.692413,"lon":139.722627},{"name":"都営大江戸線新宿西口駅","province":"東京都","city":"新宿区","address":"東京都新宿区西新宿1丁目3","lat":35.693315,"lon":139.699147},{"name":"都営大江戸線東新宿駅","province":"東京都","city":"新宿区","address":"東京都新宿区新宿7丁目27","lat":35.697868,"lon":139.707721},{"name":"都営大江戸線若松河田駅","province":"東京都","city":"新宿区","address":"東京都新宿区若松町10","lat":35.69928,"lon":139.718351},{"name":"都営大江戸線牛込柳町駅","province":"東京都","city":"新宿区","address":"東京都新宿区原町1丁目","lat":35.699466,"lon":139.725492},{"name":"都営大江戸線牛込神楽坂駅","province":"東京都","city":"新宿区","address":"東京都新宿区岩戸町","lat":35.70105,"lon":139.736183},{"name":"都営大江戸線国立競技場駅","province":"東京都","city":"新宿区","address":"東京都新宿区霞ヶ丘町11","lat":35.679826,"lon":139.715056},{"name":"都営大江戸線都庁前駅","province":"東京都","city":"新宿区","address":"東京都新宿区西新宿2丁目5","lat":35.690619,"lon":139.693005},{"name":"都営大江戸線西新宿五丁目駅","province":"東京都","city":"新宿区","address":"東京都新宿区西新宿4丁目5","lat":35.689905,"lon":139.684683},{"name":"都営大江戸線中井駅","province":"東京都","city":"新宿区","address":"東京都新宿区上落合2丁目22","lat":35.713874,"lon":139.686204},{"name":"都営大江戸線落合南長崎駅","province":"東京都","city":"新宿区","address":"東京都新宿区西落合3丁目2","lat":35.723537,"lon":139.683421},{"name":"新宿消防署西新宿出張所","province":"東京都","city":"新宿区","address":"東京都新宿区西新宿3丁目7-38","lat":35.686154,"lon":139.689836},{"name":"新宿区役所第一分庁舎","province":"東京都","city":"新宿区","address":"東京都新宿区歌舞伎町1丁目5-9","lat":35.693452,"lon":139.703371},{"name":"新宿区役所本庁舎","province":"東京都","city":"新宿区","address":"東京都新宿区歌舞伎町1丁目4-1","lat":35.693979,"lon":139.703457},{"name":"新宿区役所本庁舎","province":"東京都","city":"新宿区","address":"東京都新宿区歌舞伎町1丁目4-1","lat":35.693879,"lon":139.703425},{"name":"新宿区役所第一分庁舎","province":"東京都","city":"新宿区","address":"東京都新宿区歌舞伎町1丁目5-9","lat":35.693433,"lon":139.703351},{"name":"柏木特別出張所","province":"東京都","city":"新宿区","address":"東京都新宿区北新宿2丁目3-7","lat":35.698647,"lon":139.690272},{"name":"新宿区役所第二分庁舎","province":"東京都","city":"新宿区","address":"東京都新宿区新宿5丁目18-21","lat":35.694219,"lon":139.706065},{"name":"新宿区役所第二分庁舎分館","province":"東京都","city":"新宿区","address":"東京都新宿区新宿5丁目18-21","lat":35.694033,"lon":139.705958},{"name":"新宿区箪笥町特別出張所等区民施設","province":"東京都","city":"新宿区","address":"東京都新宿区箪笥町15","lat":35.700583,"lon":139.734053},{"name":"新宿区箪笥町特別出張所等区民施設","province":"東京都","city":"新宿区","address":"東京都新宿区箪笥町15","lat":35.700538,"lon":139.734201},{"name":"新宿区榎町特別出張所","province":"東京都","city":"新宿区","address":"東京都新宿区早稲田町85","lat":35.705407,"lon":139.72679},{"name":"若松町特別出張所","province":"東京都","city":"新宿区","address":"東京都新宿区若松町12-6","lat":35.698903,"lon":139.716425},{"name":"新宿区大久保特別出張所","province":"東京都","city":"新宿区","address":"東京都新宿区大久保2丁目12-7","lat":35.701587,"lon":139.706711},{"name":"落合第一特別出張所等区民施設","province":"東京都","city":"新宿区","address":"東京都新宿区下落合4丁目6-7","lat":35.718615,"lon":139.695018},{"name":"落合第一特別出張所等区民施設","province":"東京都","city":"新宿区","address":"東京都新宿区下落合4丁目6-7","lat":35.718673,"lon":139.695041},{"name":"落合第一特別出張所等区民施設","province":"東京都","city":"新宿区","address":"東京都新宿区下落合4丁目6-7","lat":35.718735,"lon":139.695077},{"name":"落合第一特別出張所等区民施設","province":"東京都","city":"新宿区","address":"東京都新宿区下落合4丁目6-7","lat":35.718757,"lon":139.695104},{"name":"落合第二特別出張所等区民施設","province":"東京都","city":"新宿区","address":"東京都新宿区中落合4丁目17-13","lat":35.719898,"lon":139.683074},{"name":"柏木地域センター","province":"東京都","city":"新宿区","address":"東京都新宿区北新宿2丁目3-7","lat":35.69845,"lon":139.690337},{"name":"新宿区角筈特別出張所等区民施設","province":"東京都","city":"新宿区","address":"東京都新宿区西新宿4丁目33-7","lat":35.686278,"lon":139.689148},{"name":"新宿区角筈特別出張所等区民施設","province":"東京都","city":"新宿区","address":"東京都新宿区西新宿4丁目33-7","lat":35.686199,"lon":139.689088},{"name":"産業会館（BIZ新宿）","province":"東京都","city":"新宿区","address":"東京都新宿区西新宿6丁目8-2","lat":35.693548,"lon":139.690306},{"name":"産業会館（BIZ新宿）","province":"東京都","city":"新宿区","address":"東京都新宿区西新宿6丁目8-2","lat":35.693499,"lon":139.690386},{"name":"戸塚特別出張所","province":"東京都","city":"新宿区","address":"東京都新宿区高田馬場2丁目18-1","lat":35.714405,"lon":139.70505},{"name":"新宿区榎町地域センター","province":"東京都","city":"新宿区","address":"東京都新宿区早稲田町85","lat":35.705471,"lon":139.726675},{"name":"新宿区榎町地域センター","province":"東京都","city":"新宿区","address":"東京都新宿区早稲田町85","lat":35.705458,"lon":139.726824},{"name":"若松地域センター","province":"東京都","city":"新宿区","address":"東京都新宿区若松町12-6","lat":35.698903,"lon":139.716425},{"name":"戸塚地域センター","province":"東京都","city":"新宿区","address":"東京都新宿区高田馬場2丁目18-1","lat":35.714395,"lon":139.705064},{"name":"戸塚地域センター","province":"東京都","city":"新宿区","address":"東京都新宿区高田馬場2丁目18-1","lat":35.714437,"lon":139.705051},{"name":"戸塚地域センター","province":"東京都","city":"新宿区","address":"東京都新宿区高田馬場2丁目18-1","lat":35.714471,"lon":139.705131},{"name":"戸塚地域センター","province":"東京都","city":"新宿区","address":"東京都新宿区高田馬場2丁目18-1","lat":35.714473,"lon":139.705107},{"name":"新宿区落合保健センター","province":"東京都","city":"新宿区","address":"東京都新宿区下落合4丁目6-7","lat":35.718633,"lon":139.695051},{"name":"区民ギャラリー","province":"東京都","city":"新宿区","address":"東京都新宿区西新宿2丁目11-4","lat":35.690996,"lon":139.688699},{"name":"新宿区立新宿NPO協働推進センター","province":"東京都","city":"新宿区","address":"東京都新宿区高田馬場4丁目36-12","lat":35.709826,"lon":139.696322},{"name":"新宿区立新宿NPO協働推進センター","province":"東京都","city":"新宿区","address":"東京都新宿区高田馬場4丁目36-12","lat":35.709654,"lon":139.696441},{"name":"戸山生涯学習館","province":"東京都","city":"新宿区","address":"東京都新宿区戸山2丁目11-10","lat":35.701969,"lon":139.714268},{"name":"戸山生涯学習館","province":"東京都","city":"新宿区","address":"東京都新宿区戸山2丁目11-10","lat":35.701951,"lon":139.714129},{"name":"住吉町生涯学習館","province":"東京都","city":"新宿区","address":"東京都新宿区住吉町13-3","lat":35.694595,"lon":139.719803},{"name":"四谷保健センター等","province":"東京都","city":"新宿区","address":"東京都新宿区四谷三栄町10-16","lat":35.688745,"lon":139.724357},{"name":"四谷保健センター等","province":"東京都","city":"新宿区","address":"東京都新宿区四谷三栄町10-16","lat":35.68885,"lon":139.724287},{"name":"東新宿保健センター","province":"東京都","city":"新宿区","address":"東京都新宿区新宿7丁目26-4","lat":35.698169,"lon":139.709683},{"name":"牛込保健センター等","province":"東京都","city":"新宿区","address":"東京都新宿区矢来町6","lat":35.701109,"lon":139.730934},{"name":"新宿区立中央図書館","province":"東京都","city":"新宿区","address":"東京都新宿区大久保3丁目1-1","lat":35.705287,"lon":139.707086},{"name":"新宿区立中央図書館","province":"東京都","city":"新宿区","address":"東京都新宿区大久保3丁目1-1","lat":35.705277,"lon":139.707455},{"name":"新宿区立中央図書館","province":"東京都","city":"新宿区","address":"東京都新宿区大久保3丁目1-1","lat":35.705199,"lon":139.707261},{"name":"新宿区立下落合図書館","province":"東京都","city":"新宿区","address":"東京都新宿区下落合1丁目9-8","lat":35.715992,"lon":139.698939},{"name":"新宿区立下落合図書館","province":"東京都","city":"新宿区","address":"東京都新宿区下落合1丁目9-8","lat":35.71599,"lon":139.698904},{"name":"新宿歴史博物館","province":"東京都","city":"新宿区","address":"東京都新宿区四谷三栄町12-16","lat":35.689929,"lon":139.725569},{"name":"新宿歴史博物館","province":"東京都","city":"新宿区","address":"東京都新宿区四谷三栄町12-16","lat":35.68996,"lon":139.725569},{"name":"新宿区立漱石山房記念館","province":"東京都","city":"新宿区","address":"東京都新宿区早稲田南町7","lat":35.703926,"lon":139.725377},{"name":"新宿区立漱石山房記念館","province":"東京都","city":"新宿区","address":"東京都新宿区早稲田南町7","lat":35.703956,"lon":139.72537},{"name":"新宿区立漱石山房記念館","province":"東京都","city":"新宿区","address":"東京都新宿区早稲田南町7","lat":35.70397,"lon":139.72549},{"name":"四谷区民センター","province":"東京都","city":"新宿区","address":"東京都新宿区内藤町87","lat":35.687564,"lon":139.714565},{"name":"新宿区立中村彝アトリエ記念館","province":"東京都","city":"新宿区","address":"東京都新宿区下落合3丁目5","lat":35.720925,"lon":139.701299},{"name":"新宿区立西戸山公園(東側)","province":"東京都","city":"新宿区","address":"東京都新宿区百人町4丁目1","lat":35.708318,"lon":139.701667},{"name":"新宿文化センター","province":"東京都","city":"新宿区","address":"東京都新宿区新宿6丁目14-1","lat":35.695372,"lon":139.709058},{"name":"新宿文化センター","province":"東京都","city":"新宿区","address":"東京都新宿区新宿6丁目14-1","lat":35.695598,"lon":139.709825},{"name":"新宿文化センター","province":"東京都","city":"新宿区","address":"東京都新宿区新宿6丁目14","lat":35.695364,"lon":139.709612},{"name":"新宿文化センター","province":"東京都","city":"新宿区","address":"東京都新宿区新宿6丁目14-1","lat":35.695706,"lon":139.709683},{"name":"新宿文化センター","province":"東京都","city":"新宿区","address":"東京都新宿区新宿6丁目14-1","lat":35.695528,"lon":139.709528},{"name":"新宿文化センター","province":"東京都","city":"新宿区","address":"東京都新宿区新宿6丁目14-1","lat":35.695542,"lon":139.709545},{"name":"新宿区立白銀公園","province":"東京都","city":"新宿区","address":"東京都新宿区白銀町3","lat":35.703781,"lon":139.737378},{"name":"新宿区立大久保公園","province":"東京都","city":"新宿区","address":"東京都新宿区歌舞伎町2丁目43","lat":35.697273,"lon":139.701536},{"name":"新宿区立西戸山公園（西側）","province":"東京都","city":"新宿区","address":"東京都新宿区百人町4丁目2","lat":35.707577,"lon":139.698554},{"name":"大久保スポーツプラザ","province":"東京都","city":"新宿区","address":"東京都新宿区大久保3丁目7-42","lat":35.706423,"lon":139.702056},{"name":"新宿区立鶴巻南公園","province":"東京都","city":"新宿区","address":"東京都新宿区早稲田町","lat":35.706078,"lon":139.723413},{"name":"新宿区立北柏木公園","province":"東京都","city":"新宿区","address":"東京都新宿区北新宿4丁目12","lat":35.707384,"lon":139.692862},{"name":"新宿区立新小川公園","province":"東京都","city":"新宿区","address":"東京都新宿区新小川町3","lat":35.704778,"lon":139.742101},{"name":"新宿区立みなみもと町公園","province":"東京都","city":"新宿区","address":"東京都新宿区南元町","lat":35.68082,"lon":139.725883},{"name":"新宿区立おとめ山公園","province":"東京都","city":"新宿区","address":"東京都新宿区下落合2丁目10","lat":35.718526,"lon":139.700994},{"name":"新宿区立おとめ山公園","province":"東京都","city":"新宿区","address":"東京都新宿区下落合2丁目11","lat":35.717477,"lon":139.70298},{"name":"新宿区立清水川橋公園","province":"東京都","city":"新宿区","address":"東京都新宿区下落合1丁目1","lat":35.716068,"lon":139.704045},{"name":"新宿区立葛ヶ谷公園","province":"東京都","city":"新宿区","address":"東京都新宿区西落合2丁目1","lat":35.723256,"lon":139.677816},{"name":"新宿区立佐伯公園","province":"東京都","city":"新宿区","address":"東京都新宿区中落合2丁目4","lat":35.720997,"lon":139.693707},{"name":"新宿区立新宿中央公園","province":"東京都","city":"新宿区","address":"東京都新宿区西新宿2丁目11","lat":35.690907,"lon":139.688158},{"name":"新宿区立新宿中央公園","province":"東京都","city":"新宿区","address":"東京都新宿区西新宿2丁目10","lat":35.686802,"lon":139.689938},{"name":"新宿区立新宿中央公園","province":"東京都","city":"新宿区","address":"東京都新宿区西新宿2丁目11","lat":35.689359,"lon":139.688865},{"name":"新宿区立新宿中央公園","province":"東京都","city":"新宿区","address":"東京都新宿区西新宿2丁目11","lat":35.691541,"lon":139.689562},{"name":"新宿区立新宿中央公園","province":"東京都","city":"新宿区","address":"東京都新宿区西新宿2丁目11","lat":35.688975,"lon":139.690624},{"name":"新宿区立新宿中央公園","province":"東京都","city":"新宿区","address":"東京都新宿区西新宿2丁目11","lat":35.690354,"lon":139.689737},{"name":"新宿区立抜弁天北公園","province":"東京都","city":"新宿区","address":"東京都新宿区新宿7丁目3","lat":35.699387,"lon":139.713773},{"name":"新宿区立かば公園","province":"東京都","city":"新宿区","address":"東京都新宿区中落合2丁目16","lat":35.718574,"lon":139.693471},{"name":"新宿区立富久さくら公園","province":"東京都","city":"新宿区","address":"東京都新宿区富久町21","lat":35.69314,"lon":139.714102},{"name":"新宿区立柏木どんぐり公園","province":"東京都","city":"新宿区","address":"東京都新宿区北新宿2丁目19","lat":35.697125,"lon":139.688828},{"name":"新宿区立みずき児童遊園","province":"東京都","city":"新宿区","address":"東京都新宿区西早稲田2丁目12","lat":35.70799,"lon":139.713142},{"name":"新宿区立津の守坂児童遊園","province":"東京都","city":"新宿区","address":"東京都新宿区四谷坂町11-14","lat":35.691601,"lon":139.725327},{"name":"新宿区立妙正寺川公園","province":"東京都","city":"新宿区","address":"東京都新宿区西落合2丁目20","lat":35.720416,"lon":139.675146},{"name":"新宿区立山伏公園","province":"東京都","city":"新宿区","address":"東京都新宿区北山伏町1","lat":35.699372,"lon":139.730726},{"name":"新宿区立新左門児童遊園","province":"東京都","city":"新宿区","address":"東京都新宿区左門町","lat":35.684523,"lon":139.72071},{"name":"新宿区立須賀公園","province":"東京都","city":"新宿区","address":"東京都新宿区須賀町","lat":35.684998,"lon":139.723114},{"name":"新宿区立なんど児童遊園","province":"東京都","city":"新宿区","address":"東京都新宿区納戸町","lat":35.698049,"lon":139.733077},{"name":"新宿区立四谷見附公園","province":"東京都","city":"新宿区","address":"東京都新宿区四谷1丁目","lat":35.683663,"lon":139.728389},{"name":"新宿区立西大久保公園","province":"東京都","city":"新宿区","address":"東京都新宿区大久保1丁目17","lat":35.699305,"lon":139.702215},{"name":"新宿区立花園西公園","province":"東京都","city":"新宿区","address":"東京都新宿区新宿1丁目32","lat":35.690633,"lon":139.711356},{"name":"新宿区立あかね公園","province":"東京都","city":"新宿区","address":"東京都新宿区西落合1丁目31","lat":35.719944,"lon":139.679733},{"name":"新宿区立中根坂東公園","province":"東京都","city":"新宿区","address":"東京都新宿区納戸町","lat":35.696424,"lon":139.73258},{"name":"新宿区立甘泉園公園","province":"東京都","city":"新宿区","address":"東京都新宿区西早稲田3丁目5","lat":35.71192,"lon":139.71656},{"name":"新宿区立落合公園","province":"東京都","city":"新宿区","address":"東京都新宿区中井1丁目14","lat":35.714959,"lon":139.680818},{"name":"新宿区立北新宿公園","province":"東京都","city":"新宿区","address":"東京都新宿区北新宿3丁目20","lat":35.702568,"lon":139.688662},{"name":"新宿区立花園公園","province":"東京都","city":"新宿区","address":"東京都新宿区新宿1丁目21","lat":35.688971,"lon":139.713293},{"name":"新宿区立やよい公園","province":"東京都","city":"新宿区","address":"東京都新宿区中落合3丁目14","lat":35.721804,"lon":139.689805},{"name":"新宿区立高田馬場公園","province":"東京都","city":"新宿区","address":"東京都新宿区高田馬場4丁目22","lat":35.710865,"lon":139.701029},{"name":"みょうが坂児童遊園","province":"東京都","city":"新宿区","address":"東京都新宿区四谷4丁目","lat":35.690455,"lon":139.715962},{"name":"新宿区立合羽坂上公衆便所","province":"東京都","city":"新宿区","address":"東京都新宿区市谷仲之町4","lat":35.695436,"lon":139.724625},{"name":"新宿区立矢来交番脇公衆便所","province":"東京都","city":"新宿区","address":"東京都新宿区東榎町","lat":35.704582,"lon":139.730659},{"name":"新宿区立御苑前公衆便所","province":"東京都","city":"新宿区","address":"東京都新宿区内藤町","lat":35.687495,"lon":139.714153},{"name":"新宿区立太宗寺内公衆便所","province":"東京都","city":"新宿区","address":"東京都新宿区新宿2丁目9","lat":35.690183,"lon":139.709148},{"name":"新宿区立新宿駅東南口公衆便所","province":"東京都","city":"新宿区","address":"東京都新宿区新宿3丁目37","lat":35.689634,"lon":139.701485},{"name":"新宿区立戸山公衆便所","province":"東京都","city":"新宿区","address":"東京都新宿区戸山2丁目33","lat":35.700947,"lon":139.709328},{"name":"新宿区立四村橋脇公衆便所","province":"東京都","city":"新宿区","address":"東京都新宿区西落合2丁目19","lat":35.720169,"lon":139.676475},{"name":"新宿区立新宿西口地下第二公衆便所","province":"東京都","city":"新宿区","address":"東京都新宿区西新宿1丁目6","lat":35.692167,"lon":139.698093},{"name":"新宿区立西武新宿駅前公衆便所","province":"東京都","city":"新宿区","address":"東京都新宿区歌舞伎町1丁目30","lat":35.695471,"lon":139.70015},{"name":"新宿区立富久町公衆便所","province":"東京都","city":"新宿区","address":"東京都新宿区富久町2","lat":35.691654,"lon":139.71843},{"name":"新宿スポーツセンター","province":"東京都","city":"新宿区","address":"東京都新宿区大久保3丁目5-1","lat":35.707119,"lon":139.705425},{"name":"新宿スポーツセンター","province":"東京都","city":"新宿区","address":"東京都新宿区大久保3丁目5-1","lat":35.707121,"lon":139.705526},{"name":"新宿コズミックセンター","province":"東京都","city":"新宿区","address":"東京都新宿区大久保3丁目1-2","lat":35.704832,"lon":139.708356},{"name":"新宿コズミックセンター","province":"東京都","city":"新宿区","address":"東京都新宿区大久保3丁目1-2","lat":35.704832,"lon":139.708283},{"name":"新宿コズミックセンター","province":"東京都","city":"新宿区","address":"東京都新宿区大久保3丁目1-2","lat":35.704851,"lon":139.708385},{"name":"新宿区立西落合児童館","province":"東京都","city":"新宿区","address":"東京都新宿区西落合1丁目31-24","lat":35.719752,"lon":139.679572},{"name":"新宿区社会福祉協議会","province":"東京都","city":"新宿区","address":"東京都新宿区高田馬場1丁目17-20","lat":35.711685,"lon":139.707388},{"name":"新宿区立障害者福祉センター","province":"東京都","city":"新宿区","address":"東京都新宿区戸山1丁目22-2","lat":35.703725,"lon":139.717513},{"name":"新宿区立障害者福祉センター","province":"東京都","city":"新宿区","address":"東京都新宿区戸山1丁目22-2","lat":35.70374195,"lon":139.7173071},{"name":"新宿区立高田馬場第一児童館","province":"東京都","city":"新宿区","address":"東京都新宿区高田馬場3丁目18-21","lat":35.714165,"lon":139.697779},{"name":"新宿区立高田馬場第一児童館","province":"東京都","city":"新宿区","address":"東京都新宿区高田馬場3丁目18-21","lat":35.714199,"lon":139.697882},{"name":"新宿区立西落合児童館","province":"東京都","city":"新宿区","address":"東京都新宿区西落合1丁目31-24","lat":35.719759,"lon":139.679662},{"name":"新宿区立富久町児童館","province":"東京都","city":"新宿区","address":"東京都新宿区富久町22-21","lat":35.694099,"lon":139.715617},{"name":"落合第二高齢者総合相談センター","province":"東京都","city":"新宿区","address":"東京都新宿区上落合2丁目22","lat":35.713989,"lon":139.686776},{"name":"薬王寺児童館","province":"東京都","city":"新宿区","address":"東京都新宿区市谷薬王寺町20-40","lat":35.69624,"lon":139.72473},{"name":"男女共同参画推進センター","province":"東京都","city":"新宿区","address":"東京都新宿区荒木町16","lat":35.691495,"lon":139.724819},{"name":"新宿区立子ども総合センター","province":"東京都","city":"新宿区","address":"東京都新宿区新宿7丁目3-29","lat":35.700993,"lon":139.712376},{"name":"新宿区立信濃町子ども家庭支援センター","province":"東京都","city":"新宿区","address":"東京都新宿区信濃町20","lat":35.683421,"lon":139.720193},{"name":"新宿区立榎町子ども家庭支援センター","province":"東京都","city":"新宿区","address":"東京都新宿区榎町36","lat":35.704541,"lon":139.727756},{"name":"環境学習情報センター","province":"東京都","city":"新宿区","address":"東京都新宿区西新宿2丁目11-4","lat":35.691064,"lon":139.688575},{"name":"新宿リサイクル活動センター","province":"東京都","city":"新宿区","address":"東京都新宿区高田馬場4丁目10-2","lat":35.712737,"lon":139.702954},{"name":"西早稲田リサイクル活動センター","province":"東京都","city":"新宿区","address":"東京都新宿区西早稲田3丁目19-5","lat":35.710974,"lon":139.712392},{"name":"新宿清掃事務所","province":"東京都","city":"新宿区","address":"東京都新宿区下落合2丁目1-1","lat":35.71666,"lon":139.704627},{"name":"新宿区立防災センター","province":"東京都","city":"新宿区","address":"東京都新宿区市谷仲之町2-42","lat":35.693921,"lon":139.723957},{"name":"新宿区立四谷スポーツスクエア","province":"東京都","city":"新宿区","address":"東京都新宿区四谷1丁目6-4","lat":35.687906,"lon":139.728411},{"name":"新宿区立西新宿児童館","province":"東京都","city":"新宿区","address":"東京都新宿区西新宿4丁目35-28","lat":35.686343,"lon":139.686902},{"name":"薬王寺地域ささえあい館","province":"東京都","city":"新宿区","address":"東京都新宿区市谷薬王寺町20-40","lat":35.696143,"lon":139.724684},{"name":"高田馬場シニア活動館","province":"東京都","city":"新宿区","address":"東京都新宿区高田馬場3丁目39-29","lat":35.712123,"lon":139.695974},{"name":"信濃町シニア活動館","province":"東京都","city":"新宿区","address":"東京都新宿区信濃町20","lat":35.683392,"lon":139.720151},{"name":"戸山シニア活動館","province":"東京都","city":"新宿区","address":"東京都新宿区戸山2丁目27-2","lat":35.704544,"lon":139.710812},{"name":"西新宿シニア活動館","province":"東京都","city":"新宿区","address":"東京都新宿区西新宿4丁目8-35","lat":35.688673,"lon":139.684398},{"name":"西早稲田地域交流館","province":"東京都","city":"新宿区","address":"東京都新宿区西早稲田1丁目22-3","lat":35.711617,"lon":139.717379},{"name":"山吹町地域交流館","province":"東京都","city":"新宿区","address":"東京都新宿区山吹町342","lat":35.707946,"lon":139.729673},{"name":"北新宿地域交流館","province":"東京都","city":"新宿区","address":"東京都新宿区北新宿2丁目3-7","lat":35.698541,"lon":139.690229},{"name":"本塩町地域交流館","province":"東京都","city":"新宿区","address":"東京都新宿区四谷本塩町4-9","lat":35.688491,"lon":139.72934},{"name":"新宿区保健所","province":"東京都","city":"新宿区","address":"東京都新宿区新宿5丁目18-21","lat":35.69390388,"lon":139.70567105},{"name":"牛込保健センター","province":"東京都","city":"新宿区","address":"東京都新宿区矢来町6","lat":35.70106761,"lon":139.73091853},{"name":"四谷保健センター","province":"東京都","city":"新宿区","address":"東京都新宿区四谷三栄町10-16","lat":35.68881047,"lon":139.72427238},{"name":"東新宿保健センター","province":"東京都","city":"新宿区","address":"東京都新宿区新宿7丁目26-4","lat":35.69808963,"lon":139.70962332},{"name":"落合保健センター","province":"東京都","city":"新宿区","address":"東京都新宿区下落合4丁目6-7","lat":35.71871744,"lon":139.694996},{"name":"二葉乳児院","province":"東京都","city":"新宿区","address":"新宿区南元町4","lat":35.6819,"lon":139.72333},{"name":"あけの星学園","province":"東京都","city":"新宿区","address":"新宿区中落合1-7-1","lat":35.71737,"lon":139.69038},{"name":"本塩町児童館","province":"東京都","city":"新宿区","address":"新宿区四谷本塩町4番9号","lat":35.68872,"lon":139.72974},{"name":"信濃町子ども家庭支援センター","province":"東京都","city":"新宿区","address":"新宿区信濃町20","lat":35.68308,"lon":139.72029},{"name":"新宿区立子ども総合センター","province":"東京都","city":"新宿区","address":"新宿区新宿7-3-29","lat":35.70022,"lon":139.7132},{"name":"西新宿児童館","province":"東京都","city":"新宿区","address":"新宿区西新宿4-35-28","lat":35.68602,"lon":139.68748},{"name":"西落合児童館","province":"東京都","city":"新宿区","address":"新宿区西落合1-31-24","lat":35.71988,"lon":139.67934},{"name":"中落合子ども家庭支援センター","province":"東京都","city":"新宿区","address":"新宿区中落合2-7-24","lat":35.71777,"lon":139.69426},{"name":"上落合児童館","province":"東京都","city":"新宿区","address":"新宿区上落合2-28-8","lat":35.71146,"lon":139.68573},{"name":"中井児童館","province":"東京都","city":"新宿区","address":"新宿区中井1-8-12","lat":35.71479,"lon":139.6843},{"name":"早稲田南町児童館","province":"東京都","city":"新宿区","address":"新宿区早稲田南町50","lat":35.70497,"lon":139.72243},{"name":"薬王寺児童館","province":"東京都","city":"新宿区","address":"新宿区市谷薬王寺町51","lat":35.69611,"lon":139.72418},{"name":"富久町児童館","province":"東京都","city":"新宿区","address":"新宿区富久町22-21","lat":35.69352,"lon":139.71545},{"name":"榎町子ども家庭支援センター","province":"東京都","city":"新宿区","address":"新宿区榎町36","lat":35.70462,"lon":139.72757},{"name":"東五軒町児童館","province":"東京都","city":"新宿区","address":"新宿区東五軒町5-24","lat":35.7067,"lon":139.73976},{"name":"中町児童館","province":"東京都","city":"新宿区","address":"新宿区中町25","lat":35.69928,"lon":139.7355},{"name":"北山伏児童館","province":"東京都","city":"新宿区","address":"新宿区北山伏町2-17","lat":35.6998,"lon":139.72971},{"name":"百人町児童館","province":"東京都","city":"新宿区","address":"新宿区百人町2-18-21","lat":35.70377,"lon":139.69818},{"name":"北新宿第一児童館","province":"東京都","city":"新宿区","address":"新宿区北新宿2-3-7","lat":35.69859,"lon":139.69046},{"name":"北新宿子ども家庭支援センター","province":"東京都","city":"新宿区","address":"新宿区北新宿3-20-2","lat":35.70238,"lon":139.68921},{"name":"高田馬場第二児童館","province":"東京都","city":"新宿区","address":"新宿区高田馬場1-4-17","lat":35.71053,"lon":139.70874},{"name":"高田馬場第一児童館","province":"東京都","city":"新宿区","address":"新宿区高田馬場3-18-21","lat":35.71444,"lon":139.69785},{"name":"ひまわりホーム","province":"東京都","city":"新宿区","address":"新宿区西新宿4-21-19","lat":35.68816,"lon":139.68472},{"name":"あじさいホーム","province":"東京都","city":"新宿区","address":"新宿区西早稲田1-11-10","lat":35.71098,"lon":139.72264},{"name":"諏訪ハウス","province":"東京都","city":"新宿区","address":"新宿区高田馬場1-15-6","lat":35.70984,"lon":139.70639},{"name":"東京都社会福祉協議会","province":"東京都","city":"新宿区","address":"新宿区神楽河岸1-1セントラルプラザ5階","lat":35.70095,"lon":139.74342},{"name":"新宿区社会福祉協議会","province":"東京都","city":"新宿区","address":"新宿区高田馬場1-17-20","lat":35.71146,"lon":139.70703},{"name":"新宿区","province":"東京都","city":"新宿区","address":"新宿区歌舞伎町1-4-1","lat":35.69392,"lon":139.70345},{"name":"新宿区保健所","province":"東京都","city":"新宿区","address":"新宿区新宿5-18-21","lat":35.69441,"lon":139.70663},{"name":"牛込保健センター","province":"東京都","city":"新宿区","address":"新宿区矢来町6","lat":35.70112,"lon":139.73083},{"name":"四谷保健センター","province":"東京都","city":"新宿区","address":"新宿区四谷三栄町10-16","lat":35.68874,"lon":139.72412},{"name":"東新宿保健センター","province":"東京都","city":"新宿区","address":"新宿区新宿7-26-4","lat":35.69917,"lon":139.7092},{"name":"落合保健センター","province":"東京都","city":"新宿区","address":"新宿区下落合4-6-7","lat":35.71946,"lon":139.69492},{"name":"東京都児童相談センター","province":"東京都","city":"新宿区","address":"新宿区北新宿4-6-1","lat":35.7081,"lon":139.69383},{"name":"東京都心身障害者福祉センター","province":"東京都","city":"新宿区","address":"新宿区神楽河岸1-1","lat":35.70095,"lon":139.74342},{"name":"けやき荘","province":"東京都","city":"新宿区","address":"東京都新宿区内藤町","lat":35.68528565,"lon":139.71532331},{"name":"淀橋荘","province":"東京都","city":"新宿区","address":"東京都新宿区内藤町","lat":35.68528565,"lon":139.71532331},{"name":"二葉乳児院","province":"東京都","city":"新宿区","address":"新宿区南元町4","lat":35.681193,"lon":139.724728},{"name":"あけの星学園","province":"東京都","city":"新宿区","address":"新宿区中落合1-7-1","lat":35.717259,"lon":139.690727},{"name":"ひまわりホーム","province":"東京都","city":"新宿区","address":"新宿区西新宿4-21-19","lat":35.687954,"lon":139.683782},{"name":"あじさいホーム","province":"東京都","city":"新宿区","address":"新宿区西早稲田1-11-10","lat":35.711098,"lon":139.722617},{"name":"諏訪ハウス","province":"東京都","city":"新宿区","address":"新宿区高田馬場1-15-6","lat":35.709909,"lon":139.706405},{"name":"東京都社会福祉協議会","province":"東京都","city":"新宿区","address":"新宿区神楽河岸1-1セントラルプラザ5階","lat":35.70101,"lon":139.7436},{"name":"西新宿児童館","province":"東京都","city":"新宿区","address":"新宿区西新宿4-35-28","lat":35.68602,"lon":139.68749},{"name":"新宿区保健所","province":"東京都","city":"新宿区","address":"新宿区新宿5-18-21","lat":35.69441,"lon":139.70664},{"name":"牛込保健センター","province":"東京都","city":"新宿区","address":"新宿区弁天町50","lat":35.70326,"lon":139.72746},{"name":"四谷保健センター","province":"東京都","city":"新宿区","address":"新宿区四谷三栄町10-16","lat":35.68864,"lon":139.72612},{"name":"薬王寺児童館","province":"東京都","city":"新宿区","address":"新宿区市谷仲之町2-42防災センター内3階","lat":35.69357,"lon":139.72421},{"name":"ひまわりホーム","province":"東京都","city":"新宿区","address":"新宿区西新宿4-21-19","lat":35.687951,"lon":139.683757},{"name":"あじさいホーム","province":"東京都","city":"新宿区","address":"新宿区西早稲田1-11-10","lat":35.711119,"lon":139.722613},{"name":"東京医科大学病院","province":"東京都","city":"新宿区","address":"東京都新宿区西新宿6丁目7-1","lat":35.69402018,"lon":139.69221112},{"name":"慶応義塾大学病院","province":"東京都","city":"新宿区","address":"東京都新宿区信濃町35","lat":35.68258045,"lon":139.7181676},{"name":"東京女子医科大学病院","province":"東京都","city":"新宿区","address":"東京都新宿区河田町8-1","lat":35.69807045,"lon":139.72011683},{"name":"東京都保健医療公社大久保病院","province":"東京都","city":"新宿区","address":"東京都新宿区歌舞伎町2丁目44-1","lat":35.69691177,"lon":139.70156297},{"name":"国立国際医療研究センター病院","province":"東京都","city":"新宿区","address":"東京都新宿区戸山1丁目21-1","lat":35.70174214,"lon":139.71530878},{"name":"社会保険中央総合病院","province":"東京都","city":"新宿区","address":"東京都新宿区百人町3丁目22-1","lat":35.70470248,"lon":139.69904899},{"name":"落合斎場","province":"東京都","city":"新宿区","address":"東京都新宿区上落合3丁目34-12","lat":35.7113901,"lon":139.68113917},{"name":"東京都教育相談センター","province":"東京都","city":"新宿区","address":"新宿区北新宿4-6-1(東京都子供家庭総合センター4階)","lat":35.70498851,"lon":139.6969975},{"name":"東京都特別支援教育推進室","province":"東京都","city":"新宿区","address":"新宿区赤城元町1-3教育庁神楽坂庁舎内","lat":35.70108594,"lon":139.7395781},{"name":"東京都心身障害者福祉センター","province":"東京都","city":"新宿区","address":"新宿区神楽河岸1-1東京都飯田橋庁舎(セントラルプラザ)12階~15階","lat":35.69771639,"lon":139.7468106},{"name":"＊?男女共同参画推進センター?「ウィズ新宿｣","province":"東京都","city":"新宿区","address":"新宿区荒木町16","lat":35.691521,"lon":139.724823},{"name":"新宿区","province":"東京都","city":"新宿区","address":"新宿区歌舞伎町1-4-1","lat":35.69389,"lon":139.703463},{"name":"陸上自衛隊市ヶ谷駐屯地","province":"東京都","city":"新宿区","address":"新宿区市谷本村町5-1","lat":35.693837,"lon":139.727038},{"name":"第五機動隊","province":"東京都","city":"新宿区","address":"新宿区市谷本村町6-1","lat":35.69359,"lon":139.725},{"name":"第八機動隊","province":"東京都","city":"新宿区","address":"新宿区若松町14-1","lat":35.69851,"lon":139.7154},{"name":"特科車両隊","province":"東京都","city":"新宿区","address":"新宿区市谷本村町7-1","lat":35.69496,"lon":139.7259},{"name":"第四方面交通機動隊","province":"東京都","city":"新宿区","address":"新宿区市谷本村町7-13","lat":35.69564,"lon":139.7258},{"name":"第四方面本部","province":"東京都","city":"新宿区","address":"新宿区市谷本村町6-1","lat":35.69359,"lon":139.725},{"name":"牛込警察署","province":"東京都","city":"新宿区","address":"新宿区南山伏町1-15","lat":35.69902,"lon":139.7316},{"name":"新宿警察署","province":"東京都","city":"新宿区","address":"新宿区西新宿6-1-1","lat":35.69348,"lon":139.6944},{"name":"戸塚警察署","province":"東京都","city":"新宿区","address":"新宿区西早稲田3-30-13","lat":35.71334,"lon":139.7112},{"name":"四谷警察署","province":"東京都","city":"新宿区","address":"新宿区左門町6-5","lat":35.68647,"lon":139.7205},{"name":"第四消防方面本部","province":"東京都","city":"新宿区","address":"新宿区大久保3-14-26","lat":35.70824,"lon":139.7086},{"name":"牛込消防署","province":"東京都","city":"新宿区","address":"新宿区筑土八幡町5-16","lat":35.70359,"lon":139.7395},{"name":"新宿消防署","province":"東京都","city":"新宿区","address":"新宿区百人町3-29-4","lat":35.70693,"lon":139.6948},{"name":"四谷消防署","province":"東京都","city":"新宿区","address":"新宿区四谷3-10","lat":35.68812,"lon":139.7197},{"name":"災害対策職員住宅柏木住宅内集中備蓄倉庫","province":"東京都","city":"新宿区","address":"新宿区北新宿4-6-1","lat":35.708274,"lon":139.693808},{"name":"新宿区","province":"東京都","city":"新宿区","address":"新宿区原町3-23","lat":35.70002,"lon":139.7223},{"name":"都庁第一本庁舎","province":"東京都","city":"新宿区","address":"新宿区西新宿2-8-1","lat":35.689185,"lon":139.691648},{"name":"新宿区立西戸山公園野球場","province":"東京都","city":"新宿区","address":"新宿区百人町4-1","lat":35.70749,"lon":139.7009},{"name":"明治神宮外苑軟式野球場","province":"東京都","city":"新宿区","address":"新宿区霞ヶ丘町1-1","lat":35.6788,"lon":139.7177},{"name":"国立国際医療研究センターヘリポート","province":"東京都","city":"新宿区","address":"新宿区戸山1-21-1","lat":35.701751,"lon":139.715248},{"name":"本塩町児童館","province":"東京都","city":"新宿区","address":"新宿区四谷本塩町4番9号","lat":35.688547,"lon":139.729361},{"name":"信濃町子ども家庭支援センター","province":"東京都","city":"新宿区","address":"新宿区信濃町20","lat":35.683192,"lon":139.720395},{"name":"新宿区立子ども総合センター","province":"東京都","city":"新宿区","address":"新宿区新宿7-3-29","lat":35.701003,"lon":139.712681},{"name":"西新宿児童館","province":"東京都","city":"新宿区","address":"新宿区西新宿4-35-28","lat":35.686349,"lon":139.686929},{"name":"西落合児童館","province":"東京都","city":"新宿区","address":"新宿区西落合1-31-24","lat":35.719695,"lon":139.679472},{"name":"中落合子ども家庭支援センター","province":"東京都","city":"新宿区","address":"新宿区中落合2-7-24","lat":35.717948,"lon":139.693913},{"name":"上落合児童館","province":"東京都","city":"新宿区","address":"新宿区上落合2-28-8","lat":35.711021,"lon":139.685414},{"name":"中井児童館","province":"東京都","city":"新宿区","address":"新宿区中井1-8-12","lat":35.714759,"lon":139.683792},{"name":"早稲田南町児童館","province":"東京都","city":"新宿区","address":"新宿区早稲田南町50","lat":35.705086,"lon":139.722305},{"name":"薬王寺児童館","province":"東京都","city":"新宿区","address":"新宿区市谷仲之町2-42防災センター内3階","lat":35.693865,"lon":139.723981},{"name":"富久町児童館","province":"東京都","city":"新宿区","address":"新宿区富久町22-21","lat":35.694032,"lon":139.715684},{"name":"榎町子ども家庭支援センター","province":"東京都","city":"新宿区","address":"新宿区榎町36","lat":35.704553,"lon":139.72771},{"name":"東五軒町児童館","province":"東京都","city":"新宿区","address":"新宿区東五軒町5-24","lat":35.706789,"lon":139.740087},{"name":"中町児童館","province":"東京都","city":"新宿区","address":"新宿区中町25","lat":35.699021,"lon":139.734554},{"name":"北山伏児童館","province":"東京都","city":"新宿区","address":"新宿区北山伏町2-17","lat":35.700279,"lon":139.729902},{"name":"百人町児童館","province":"東京都","city":"新宿区","address":"新宿区百人町2-18-21","lat":35.703342,"lon":139.698182},{"name":"北新宿第一児童館","province":"東京都","city":"新宿区","address":"新宿区北新宿2-3-7","lat":35.698531,"lon":139.690247},{"name":"北新宿子ども家庭支援センター","province":"東京都","city":"新宿区","address":"新宿区北新宿3-20-2","lat":35.702972,"lon":139.689461},{"name":"高田馬場第一児童館","province":"東京都","city":"新宿区","address":"新宿区高田馬場3-18-21","lat":35.714557,"lon":139.697327},{"name":"高田馬場第二児童館","province":"東京都","city":"新宿区","address":"新宿区高田馬場1-4-17","lat":35.710946,"lon":139.709215},{"name":"シャロームみなみ風","province":"東京都","city":"新宿区","address":"新宿区弁天町32-6","lat":35.704142,"lon":139.727269},{"name":"障害者支援施設新宿けやき園","province":"東京都","city":"新宿区","address":"新宿区百人町4-5-1","lat":35.708158,"lon":139.698107},{"name":"東京都児童相談センター","province":"東京都","city":"新宿区","address":"新宿区北新宿4-6-1","lat":35.708274,"lon":139.693808},{"name":"東京都心身障害者福祉センター","province":"東京都","city":"新宿区","address":"新宿区神楽河岸1-1","lat":35.700951,"lon":139.743579},{"name":"けやき荘","province":"東京都","city":"新宿区","address":"東京都新宿区","lat":35.69388716,"lon":139.70341014},{"name":"東京都庁第一本庁舎","province":"東京都","city":"新宿区","address":"東京都新宿区西新宿2丁目8","lat":35.689389,"lon":139.691468},{"name":"東京都庁第一本庁舎","province":"東京都","city":"新宿区","address":"東京都新宿区西新宿2丁目8","lat":35.689453,"lon":139.691446},{"name":"東京都庁第一本庁舎","province":"東京都","city":"新宿区","address":"東京都新宿区西新宿2丁目8","lat":35.689338,"lon":139.691613},{"name":"東京都庁第一本庁舎","province":"東京都","city":"新宿区","address":"東京都新宿区西新宿2丁目8","lat":35.689561,"lon":139.691851},{"name":"東京都庁第一本庁舎","province":"東京都","city":"新宿区","address":"東京都新宿区西新宿2丁目8","lat":35.689638,"lon":139.691835},{"name":"東京都庁第一本庁舎","province":"東京都","city":"新宿区","address":"東京都新宿区西新宿2丁目8","lat":35.689943,"lon":139.691531},{"name":"東京都庁第一本庁舎","province":"東京都","city":"新宿区","address":"東京都新宿区西新宿2丁目8","lat":35.68903,"lon":139.691748},{"name":"東京都庁第一本庁舎","province":"東京都","city":"新宿区","address":"東京都新宿区西新宿2丁目8","lat":35.689655,"lon":139.691693},{"name":"東京都庁第一本庁舎","province":"東京都","city":"新宿区","address":"東京都新宿区西新宿2丁目8","lat":35.689881,"lon":139.691701},{"name":"東京都庁第一本庁舎","province":"東京都","city":"新宿区","address":"東京都新宿区西新宿2丁目8","lat":35.689626,"lon":139.691708},{"name":"東京都庁第一本庁舎","province":"東京都","city":"新宿区","address":"東京都新宿区西新宿2丁目8","lat":35.689619,"lon":139.691632},{"name":"東京都庁第一本庁舎","province":"東京都","city":"新宿区","address":"東京都新宿区西新宿2丁目8-1","lat":35.689334,"lon":139.691689},{"name":"東京都庁第一本庁舎","province":"東京都","city":"新宿区","address":"東京都新宿区西新宿2丁目8-1","lat":35.68935,"lon":139.691774},{"name":"東京都庁第一本庁舎","province":"東京都","city":"新宿区","address":"東京都新宿区西新宿2丁目8","lat":35.68942,"lon":139.691595},{"name":"東京都庁第一本庁舎","province":"東京都","city":"新宿区","address":"東京都新宿区西新宿2丁目8","lat":35.68965,"lon":139.691623},{"name":"東京都庁第二本庁舎","province":"東京都","city":"新宿区","address":"東京都新宿区西新宿2丁目9","lat":35.688377,"lon":139.691912},{"name":"東京都庁第二本庁舎","province":"東京都","city":"新宿区","address":"東京都新宿区西新宿2丁目8","lat":35.689787,"lon":139.691495},{"name":"東京都庁第二本庁舎","province":"東京都","city":"新宿区","address":"東京都新宿区西新宿2丁目8","lat":35.68957,"lon":139.691762},{"name":"東京都庁第二本庁舎","province":"東京都","city":"新宿区","address":"東京都新宿区西新宿2丁目9","lat":35.688238,"lon":139.691792},{"name":"東京都庁第二本庁舎","province":"東京都","city":"新宿区","address":"東京都新宿区西新宿2丁目9","lat":35.687991,"lon":139.692045},{"name":"東京都庁第二本庁舎","province":"東京都","city":"新宿区","address":"東京都新宿区西新宿2丁目9","lat":35.68798,"lon":139.692062},{"name":"東京都庁第二本庁舎","province":"東京都","city":"新宿区","address":"東京都新宿区西新宿2丁目9","lat":35.688007,"lon":139.692135},{"name":"東京都庁第二本庁舎","province":"東京都","city":"新宿区","address":"東京都新宿区西新宿2丁目9","lat":35.687987,"lon":139.691955},{"name":"東京都庁第二本庁舎","province":"東京都","city":"新宿区","address":"東京都新宿区西新宿2丁目9","lat":35.688,"lon":139.691983},{"name":"東京都議会議事堂","province":"東京都","city":"新宿区","address":"東京都新宿区西新宿2丁目5-1","lat":35.689561,"lon":139.693385},{"name":"東京都議会議事堂","province":"東京都","city":"新宿区","address":"東京都新宿区西新宿2丁目5-1","lat":35.689908,"lon":139.693315},{"name":"東京都議会議事堂","province":"東京都","city":"新宿区","address":"東京都新宿区西新宿2丁目5","lat":35.689258,"lon":139.693158},{"name":"東京都議会議事堂","province":"東京都","city":"新宿区","address":"東京都新宿区西新宿2丁目5","lat":35.690037,"lon":139.69326},{"name":"東京都議会議事堂","province":"東京都","city":"新宿区","address":"東京都新宿区西新宿2丁目5","lat":35.689249,"lon":139.6931},{"name":"東京都議会議事堂","province":"東京都","city":"新宿区","address":"東京都新宿区西新宿2丁目5-1","lat":35.689565,"lon":139.693416},{"name":"東京都議会議事堂","province":"東京都","city":"新宿区","address":"東京都新宿区西新宿2丁目5-1","lat":35.689973,"lon":139.693301},{"name":"東京都議会議事堂","province":"東京都","city":"新宿区","address":"東京都新宿区西新宿2丁目5","lat":35.689806,"lon":139.692936},{"name":"東京都議会議事堂","province":"東京都","city":"新宿区","address":"東京都新宿区西新宿2丁目5","lat":35.689573,"lon":139.692975},{"name":"東京都議会議事堂","province":"東京都","city":"新宿区","address":"東京都新宿区西新宿2丁目8","lat":35.689714,"lon":139.692127},{"name":"新宿都税事務所","province":"東京都","city":"新宿区","address":"東京都新宿区西新宿7丁目5-8","lat":35.696788,"lon":139.698553},{"name":"東京都消費生活総合センター","province":"東京都","city":"新宿区","address":"東京都新宿区神楽河岸1","lat":35.700849,"lon":139.743846},{"name":"東京都健康安全研究センター","province":"東京都","city":"新宿区","address":"東京都新宿区百人町3丁目24-1","lat":35.706094,"lon":139.697759},{"name":"小田急第一生命ビル","province":"東京都","city":"新宿区","address":"東京都新宿区西新宿2丁目7-1","lat":35.691471,"lon":139.69099},{"name":"地方独立行政法人東京都立病院機構　東京都立大久保病院","province":"東京都","city":"新宿区","address":"東京都新宿区歌舞伎町2丁目44-1","lat":35.696685,"lon":139.701453},{"name":"戸山公園","province":"東京都","city":"新宿区","address":"東京都新宿区大久保3丁目5","lat":35.705155,"lon":139.704339},{"name":"戸山公園","province":"東京都","city":"新宿区","address":"東京都新宿区戸山3丁目1","lat":35.706302,"lon":139.715819},{"name":"戸山公園","province":"東京都","city":"新宿区","address":"東京都新宿区戸山3丁目2","lat":35.705523,"lon":139.714018},{"name":"明治公園","province":"東京都","city":"新宿区","address":"東京都新宿区霞ヶ丘町5","lat":35.675463,"lon":139.713076},{"name":"都営新宿線新宿三丁目駅","province":"東京都","city":"新宿区","address":"東京都新宿区新宿3丁目9-10","lat":35.691041,"lon":139.706753},{"name":"都営新宿線曙橋駅","province":"東京都","city":"新宿区","address":"東京都新宿区住吉町7","lat":35.692413,"lon":139.722627},{"name":"都営大江戸線新宿西口駅","province":"東京都","city":"新宿区","address":"東京都新宿区西新宿1丁目3","lat":35.693315,"lon":139.699147},{"name":"都営大江戸線東新宿駅","province":"東京都","city":"新宿区","address":"東京都新宿区新宿7丁目27","lat":35.697868,"lon":139.707721},{"name":"都営大江戸線若松河田駅","province":"東京都","city":"新宿区","address":"東京都新宿区若松町10","lat":35.69928,"lon":139.718351},{"name":"都営大江戸線牛込柳町駅","province":"東京都","city":"新宿区","address":"東京都新宿区原町1丁目","lat":35.699466,"lon":139.725492},{"name":"都営大江戸線牛込神楽坂駅","province":"東京都","city":"新宿区","address":"東京都新宿区岩戸町","lat":35.70105,"lon":139.736183},{"name":"都営大江戸線国立競技場駅","province":"東京都","city":"新宿区","address":"東京都新宿区霞ヶ丘町11","lat":35.679826,"lon":139.715056},{"name":"都営大江戸線都庁前駅","province":"東京都","city":"新宿区","address":"東京都新宿区西新宿2丁目5","lat":35.690619,"lon":139.693005},{"name":"都営大江戸線西新宿五丁目駅","province":"東京都","city":"新宿区","address":"東京都新宿区西新宿4丁目5","lat":35.689905,"lon":139.684683},{"name":"都営大江戸線中井駅","province":"東京都","city":"新宿区","address":"東京都新宿区上落合2丁目22","lat":35.713874,"lon":139.686204},{"name":"都営大江戸線落合南長崎駅","province":"東京都","city":"新宿区","address":"東京都新宿区西落合3丁目2","lat":35.723537,"lon":139.683421},{"name":"新宿消防署西新宿出張所","province":"東京都","city":"新宿区","address":"東京都新宿区西新宿3丁目7-38","lat":35.686154,"lon":139.689836},{"name":"新宿区役所第一分庁舎","province":"東京都","city":"新宿区","address":"東京都新宿区歌舞伎町1丁目5-9","lat":35.693452,"lon":139.703371},{"name":"新宿区役所本庁舎","province":"東京都","city":"新宿区","address":"東京都新宿区歌舞伎町1丁目4-1","lat":35.693979,"lon":139.703457},{"name":"新宿区役所本庁舎","province":"東京都","city":"新宿区","address":"東京都新宿区歌舞伎町1丁目4-1","lat":35.693879,"lon":139.703425},{"name":"新宿区役所第一分庁舎","province":"東京都","city":"新宿区","address":"東京都新宿区歌舞伎町1丁目5-9","lat":35.693433,"lon":139.703351},{"name":"柏木特別出張所","province":"東京都","city":"新宿区","address":"東京都新宿区北新宿2丁目3-7","lat":35.698647,"lon":139.690272},{"name":"新宿区役所第二分庁舎","province":"東京都","city":"新宿区","address":"東京都新宿区新宿5丁目18-21","lat":35.694219,"lon":139.706065},{"name":"新宿区役所第二分庁舎分館","province":"東京都","city":"新宿区","address":"東京都新宿区新宿5丁目18-21","lat":35.694033,"lon":139.705958},{"name":"新宿区箪笥町特別出張所等区民施設","province":"東京都","city":"新宿区","address":"東京都新宿区箪笥町15","lat":35.700583,"lon":139.734053},{"name":"新宿区箪笥町特別出張所等区民施設","province":"東京都","city":"新宿区","address":"東京都新宿区箪笥町15","lat":35.700538,"lon":139.734201},{"name":"新宿区榎町特別出張所","province":"東京都","city":"新宿区","address":"東京都新宿区早稲田町85","lat":35.705407,"lon":139.72679},{"name":"若松町特別出張所","province":"東京都","city":"新宿区","address":"東京都新宿区若松町12-6","lat":35.698903,"lon":139.716425},{"name":"新宿区大久保特別出張所","province":"東京都","city":"新宿区","address":"東京都新宿区大久保2丁目12-7","lat":35.701587,"lon":139.706711},{"name":"落合第一特別出張所等区民施設","province":"東京都","city":"新宿区","address":"東京都新宿区下落合4丁目6-7","lat":35.718615,"lon":139.695018},{"name":"落合第一特別出張所等区民施設","province":"東京都","city":"新宿区","address":"東京都新宿区下落合4丁目6-7","lat":35.718673,"lon":139.695041},{"name":"落合第一特別出張所等区民施設","province":"東京都","city":"新宿区","address":"東京都新宿区下落合4丁目6-7","lat":35.718735,"lon":139.695077},{"name":"落合第一特別出張所等区民施設","province":"東京都","city":"新宿区","address":"東京都新宿区下落合4丁目6-7","lat":35.718757,"lon":139.695104},{"name":"落合第二特別出張所等区民施設","province":"東京都","city":"新宿区","address":"東京都新宿区中落合4丁目17-13","lat":35.719898,"lon":139.683074},{"name":"柏木地域センター","province":"東京都","city":"新宿区","address":"東京都新宿区北新宿2丁目3-7","lat":35.69845,"lon":139.690337},{"name":"新宿区角筈特別出張所等区民施設","province":"東京都","city":"新宿区","address":"東京都新宿区西新宿4丁目33-7","lat":35.686278,"lon":139.689148},{"name":"新宿区角筈特別出張所等区民施設","province":"東京都","city":"新宿区","address":"東京都新宿区西新宿4丁目33-7","lat":35.686199,"lon":139.689088},{"name":"産業会館（BIZ新宿）","province":"東京都","city":"新宿区","address":"東京都新宿区西新宿6丁目8-2","lat":35.693548,"lon":139.690306},{"name":"産業会館（BIZ新宿）","province":"東京都","city":"新宿区","address":"東京都新宿区西新宿6丁目8-2","lat":35.693499,"lon":139.690386},{"name":"戸塚特別出張所","province":"東京都","city":"新宿区","address":"東京都新宿区高田馬場2丁目18-1","lat":35.714405,"lon":139.70505},{"name":"新宿区榎町地域センター","province":"東京都","city":"新宿区","address":"東京都新宿区早稲田町85","lat":35.705471,"lon":139.726675},{"name":"新宿区榎町地域センター","province":"東京都","city":"新宿区","address":"東京都新宿区早稲田町85","lat":35.705458,"lon":139.726824},{"name":"若松地域センター","province":"東京都","city":"新宿区","address":"東京都新宿区若松町12-6","lat":35.698903,"lon":139.716425},{"name":"戸塚地域センター","province":"東京都","city":"新宿区","address":"東京都新宿区高田馬場2丁目18-1","lat":35.714395,"lon":139.705064},{"name":"戸塚地域センター","province":"東京都","city":"新宿区","address":"東京都新宿区高田馬場2丁目18-1","lat":35.714437,"lon":139.705051},{"name":"戸塚地域センター","province":"東京都","city":"新宿区","address":"東京都新宿区高田馬場2丁目18-1","lat":35.714471,"lon":139.705131},{"name":"戸塚地域センター","province":"東京都","city":"新宿区","address":"東京都新宿区高田馬場2丁目18-1","lat":35.714473,"lon":139.705107},{"name":"新宿区落合保健センター","province":"東京都","city":"新宿区","address":"東京都新宿区下落合4丁目6-7","lat":35.718633,"lon":139.695051},{"name":"区民ギャラリー","province":"東京都","city":"新宿区","address":"東京都新宿区西新宿2丁目11-4","lat":35.690996,"lon":139.688699},{"name":"新宿区立新宿NPO協働推進センター","province":"東京都","city":"新宿区","address":"東京都新宿区高田馬場4丁目36-12","lat":35.709826,"lon":139.696322},{"name":"新宿区立新宿NPO協働推進センター","province":"東京都","city":"新宿区","address":"東京都新宿区高田馬場4丁目36-12","lat":35.709654,"lon":139.696441},{"name":"戸山生涯学習館","province":"東京都","city":"新宿区","address":"東京都新宿区戸山2丁目11-10","lat":35.701969,"lon":139.714268},{"name":"戸山生涯学習館","province":"東京都","city":"新宿区","address":"東京都新宿区戸山2丁目11-10","lat":35.701951,"lon":139.714129},{"name":"住吉町生涯学習館","province":"東京都","city":"新宿区","address":"東京都新宿区住吉町13-3","lat":35.694595,"lon":139.719803},{"name":"四谷保健センター等","province":"東京都","city":"新宿区","address":"東京都新宿区四谷三栄町10-16","lat":35.688745,"lon":139.724357},{"name":"四谷保健センター等","province":"東京都","city":"新宿区","address":"東京都新宿区四谷三栄町10-16","lat":35.68885,"lon":139.724287},{"name":"東新宿保健センター","province":"東京都","city":"新宿区","address":"東京都新宿区新宿7丁目26-4","lat":35.698169,"lon":139.709683},{"name":"牛込保健センター等","province":"東京都","city":"新宿区","address":"東京都新宿区矢来町6","lat":35.701109,"lon":139.730934},{"name":"新宿区立中央図書館","province":"東京都","city":"新宿区","address":"東京都新宿区大久保3丁目1-1","lat":35.705287,"lon":139.707086},{"name":"新宿区立中央図書館","province":"東京都","city":"新宿区","address":"東京都新宿区大久保3丁目1-1","lat":35.705277,"lon":139.707455},{"name":"新宿区立中央図書館","province":"東京都","city":"新宿区","address":"東京都新宿区大久保3丁目1-1","lat":35.705199,"lon":139.707261},{"name":"新宿区立下落合図書館","province":"東京都","city":"新宿区","address":"東京都新宿区下落合1丁目9-8","lat":35.715992,"lon":139.698939},{"name":"新宿区立下落合図書館","province":"東京都","city":"新宿区","address":"東京都新宿区下落合1丁目9-8","lat":35.71599,"lon":139.698904},{"name":"新宿歴史博物館","province":"東京都","city":"新宿区","address":"東京都新宿区四谷三栄町12-16","lat":35.689929,"lon":139.725569},{"name":"新宿歴史博物館","province":"東京都","city":"新宿区","address":"東京都新宿区四谷三栄町12-16","lat":35.68996,"lon":139.725569},{"name":"新宿区立漱石山房記念館","province":"東京都","city":"新宿区","address":"東京都新宿区早稲田南町7","lat":35.703926,"lon":139.725377},{"name":"新宿区立漱石山房記念館","province":"東京都","city":"新宿区","address":"東京都新宿区早稲田南町7","lat":35.703956,"lon":139.72537},{"name":"新宿区立漱石山房記念館","province":"東京都","city":"新宿区","address":"東京都新宿区早稲田南町7","lat":35.70397,"lon":139.72549},{"name":"四谷区民センター","province":"東京都","city":"新宿区","address":"東京都新宿区内藤町87","lat":35.687564,"lon":139.714565},{"name":"新宿区立中村彝アトリエ記念館","province":"東京都","city":"新宿区","address":"東京都新宿区下落合3丁目5","lat":35.720925,"lon":139.701299},{"name":"新宿区立西戸山公園(東側)","province":"東京都","city":"新宿区","address":"東京都新宿区百人町4丁目1","lat":35.708318,"lon":139.701667},{"name":"新宿文化センター","province":"東京都","city":"新宿区","address":"東京都新宿区新宿6丁目14-1","lat":35.695372,"lon":139.709058},{"name":"新宿文化センター","province":"東京都","city":"新宿区","address":"東京都新宿区新宿6丁目14-1","lat":35.695598,"lon":139.709825},{"name":"新宿文化センター","province":"東京都","city":"新宿区","address":"東京都新宿区新宿6丁目14","lat":35.695364,"lon":139.709612},{"name":"新宿文化センター","province":"東京都","city":"新宿区","address":"東京都新宿区新宿6丁目14-1","lat":35.695706,"lon":139.709683},{"name":"新宿文化センター","province":"東京都","city":"新宿区","address":"東京都新宿区新宿6丁目14-1","lat":35.695528,"lon":139.709528},{"name":"新宿文化センター","province":"東京都","city":"新宿区","address":"東京都新宿区新宿6丁目14-1","lat":35.695542,"lon":139.709545},{"name":"新宿区立白銀公園","province":"東京都","city":"新宿区","address":"東京都新宿区白銀町3","lat":35.703781,"lon":139.737378},{"name":"新宿区立大久保公園","province":"東京都","city":"新宿区","address":"東京都新宿区歌舞伎町2丁目43","lat":35.697273,"lon":139.701536},{"name":"新宿区立西戸山公園（西側）","province":"東京都","city":"新宿区","address":"東京都新宿区百人町4丁目2","lat":35.707577,"lon":139.698554},{"name":"大久保スポーツプラザ","province":"東京都","city":"新宿区","address":"東京都新宿区大久保3丁目7-42","lat":35.706423,"lon":139.702056},{"name":"新宿区立鶴巻南公園","province":"東京都","city":"新宿区","address":"東京都新宿区早稲田町","lat":35.706078,"lon":139.723413},{"name":"新宿区立北柏木公園","province":"東京都","city":"新宿区","address":"東京都新宿区北新宿4丁目12","lat":35.707384,"lon":139.692862},{"name":"新宿区立新小川公園","province":"東京都","city":"新宿区","address":"東京都新宿区新小川町3","lat":35.704778,"lon":139.742101},{"name":"新宿区立みなみもと町公園","province":"東京都","city":"新宿区","address":"東京都新宿区南元町","lat":35.68082,"lon":139.725883},{"name":"新宿区立おとめ山公園","province":"東京都","city":"新宿区","address":"東京都新宿区下落合2丁目10","lat":35.718526,"lon":139.700994},{"name":"新宿区立おとめ山公園","province":"東京都","city":"新宿区","address":"東京都新宿区下落合2丁目11","lat":35.717477,"lon":139.70298},{"name":"新宿区立清水川橋公園","province":"東京都","city":"新宿区","address":"東京都新宿区下落合1丁目1","lat":35.716068,"lon":139.704045},{"name":"新宿区立葛ヶ谷公園","province":"東京都","city":"新宿区","address":"東京都新宿区西落合2丁目1","lat":35.723256,"lon":139.677816},{"name":"新宿区立佐伯公園","province":"東京都","city":"新宿区","address":"東京都新宿区中落合2丁目4","lat":35.720997,"lon":139.693707},{"name":"新宿区立新宿中央公園","province":"東京都","city":"新宿区","address":"東京都新宿区西新宿2丁目11","lat":35.690907,"lon":139.688158},{"name":"新宿区立新宿中央公園","province":"東京都","city":"新宿区","address":"東京都新宿区西新宿2丁目10","lat":35.686802,"lon":139.689938},{"name":"新宿区立新宿中央公園","province":"東京都","city":"新宿区","address":"東京都新宿区西新宿2丁目11","lat":35.689359,"lon":139.688865},{"name":"新宿区立新宿中央公園","province":"東京都","city":"新宿区","address":"東京都新宿区西新宿2丁目11","lat":35.691541,"lon":139.689562},{"name":"新宿区立新宿中央公園","province":"東京都","city":"新宿区","address":"東京都新宿区西新宿2丁目11","lat":35.688975,"lon":139.690624},{"name":"新宿区立新宿中央公園","province":"東京都","city":"新宿区","address":"東京都新宿区西新宿2丁目11","lat":35.690354,"lon":139.689737},{"name":"新宿区立抜弁天北公園","province":"東京都","city":"新宿区","address":"東京都新宿区新宿7丁目3","lat":35.699387,"lon":139.713773},{"name":"新宿区立かば公園","province":"東京都","city":"新宿区","address":"東京都新宿区中落合2丁目16","lat":35.718574,"lon":139.693471},{"name":"新宿区立富久さくら公園","province":"東京都","city":"新宿区","address":"東京都新宿区富久町21","lat":35.69314,"lon":139.714102},{"name":"新宿区立柏木どんぐり公園","province":"東京都","city":"新宿区","address":"東京都新宿区北新宿2丁目19","lat":35.697125,"lon":139.688828},{"name":"新宿区立みずき児童遊園","province":"東京都","city":"新宿区","address":"東京都新宿区西早稲田2丁目12","lat":35.70799,"lon":139.713142},{"name":"新宿区立津の守坂児童遊園","province":"東京都","city":"新宿区","address":"東京都新宿区四谷坂町11-14","lat":35.691601,"lon":139.725327},{"name":"新宿区立妙正寺川公園","province":"東京都","city":"新宿区","address":"東京都新宿区西落合2丁目20","lat":35.720416,"lon":139.675146},{"name":"新宿区立山伏公園","province":"東京都","city":"新宿区","address":"東京都新宿区北山伏町1","lat":35.699372,"lon":139.730726},{"name":"新宿区立新左門児童遊園","province":"東京都","city":"新宿区","address":"東京都新宿区左門町","lat":35.684523,"lon":139.72071},{"name":"新宿区立須賀公園","province":"東京都","city":"新宿区","address":"東京都新宿区須賀町","lat":35.684998,"lon":139.723114},{"name":"新宿区立なんど児童遊園","province":"東京都","city":"新宿区","address":"東京都新宿区納戸町","lat":35.698049,"lon":139.733077},{"name":"新宿区立四谷見附公園","province":"東京都","city":"新宿区","address":"東京都新宿区四谷1丁目","lat":35.683663,"lon":139.728389},{"name":"新宿区立西大久保公園","province":"東京都","city":"新宿区","address":"東京都新宿区大久保1丁目17","lat":35.699305,"lon":139.702215},{"name":"新宿区立花園西公園","province":"東京都","city":"新宿区","address":"東京都新宿区新宿1丁目32","lat":35.690633,"lon":139.711356},{"name":"新宿区立あかね公園","province":"東京都","city":"新宿区","address":"東京都新宿区西落合1丁目31","lat":35.719944,"lon":139.679733},{"name":"新宿区立中根坂東公園","province":"東京都","city":"新宿区","address":"東京都新宿区納戸町","lat":35.696424,"lon":139.73258},{"name":"新宿区立甘泉園公園","province":"東京都","city":"新宿区","address":"東京都新宿区西早稲田3丁目5","lat":35.71192,"lon":139.71656},{"name":"新宿区立落合公園","province":"東京都","city":"新宿区","address":"東京都新宿区中井1丁目14","lat":35.714959,"lon":139.680818},{"name":"新宿区立北新宿公園","province":"東京都","city":"新宿区","address":"東京都新宿区北新宿3丁目20","lat":35.702568,"lon":139.688662},{"name":"新宿区立花園公園","province":"東京都","city":"新宿区","address":"東京都新宿区新宿1丁目21","lat":35.688971,"lon":139.713293},{"name":"新宿区立やよい公園","province":"東京都","city":"新宿区","address":"東京都新宿区中落合3丁目14","lat":35.721804,"lon":139.689805},{"name":"新宿区立高田馬場公園","province":"東京都","city":"新宿区","address":"東京都新宿区高田馬場4丁目22","lat":35.710865,"lon":139.701029},{"name":"みょうが坂児童遊園","province":"東京都","city":"新宿区","address":"東京都新宿区四谷4丁目","lat":35.690455,"lon":139.715962},{"name":"新宿区立合羽坂上公衆便所","province":"東京都","city":"新宿区","address":"東京都新宿区市谷仲之町4","lat":35.695436,"lon":139.724625},{"name":"新宿区立矢来交番脇公衆便所","province":"東京都","city":"新宿区","address":"東京都新宿区東榎町","lat":35.704582,"lon":139.730659},{"name":"新宿区立御苑前公衆便所","province":"東京都","city":"新宿区","address":"東京都新宿区内藤町","lat":35.687495,"lon":139.714153},{"name":"新宿区立太宗寺内公衆便所","province":"東京都","city":"新宿区","address":"東京都新宿区新宿2丁目9","lat":35.690183,"lon":139.709148},{"name":"新宿区立新宿駅東南口公衆便所","province":"東京都","city":"新宿区","address":"東京都新宿区新宿3丁目37","lat":35.689634,"lon":139.701485},{"name":"新宿区立戸山公衆便所","province":"東京都","city":"新宿区","address":"東京都新宿区戸山2丁目33","lat":35.700947,"lon":139.709328},{"name":"新宿区立四村橋脇公衆便所","province":"東京都","city":"新宿区","address":"東京都新宿区西落合2丁目19","lat":35.720169,"lon":139.676475},{"name":"新宿区立新宿西口地下第二公衆便所","province":"東京都","city":"新宿区","address":"東京都新宿区西新宿1丁目6","lat":35.692167,"lon":139.698093},{"name":"新宿区立西武新宿駅前公衆便所","province":"東京都","city":"新宿区","address":"東京都新宿区歌舞伎町1丁目30","lat":35.695471,"lon":139.70015},{"name":"新宿区立富久町公衆便所","province":"東京都","city":"新宿区","address":"東京都新宿区富久町2","lat":35.691654,"lon":139.71843},{"name":"新宿スポーツセンター","province":"東京都","city":"新宿区","address":"東京都新宿区大久保3丁目5-1","lat":35.707119,"lon":139.705425},{"name":"新宿スポーツセンター","province":"東京都","city":"新宿区","address":"東京都新宿区大久保3丁目5-1","lat":35.707121,"lon":139.705526},{"name":"新宿コズミックセンター","province":"東京都","city":"新宿区","address":"東京都新宿区大久保3丁目1-2","lat":35.704832,"lon":139.708356},{"name":"新宿コズミックセンター","province":"東京都","city":"新宿区","address":"東京都新宿区大久保3丁目1-2","lat":35.704832,"lon":139.708283},{"name":"新宿コズミックセンター","province":"東京都","city":"新宿区","address":"東京都新宿区大久保3丁目1-2","lat":35.704851,"lon":139.708385},{"name":"新宿区立西落合児童館","province":"東京都","city":"新宿区","address":"東京都新宿区西落合1丁目31-24","lat":35.719752,"lon":139.679572},{"name":"新宿区社会福祉協議会","province":"東京都","city":"新宿区","address":"東京都新宿区高田馬場1丁目17-20","lat":35.711685,"lon":139.707388},{"name":"新宿区立障害者福祉センター","province":"東京都","city":"新宿区","address":"東京都新宿区戸山1丁目22-2","lat":35.703725,"lon":139.717513},{"name":"新宿区立障害者福祉センター","province":"東京都","city":"新宿区","address":"東京都新宿区戸山1丁目22-2","lat":35.70374195,"lon":139.7173071},{"name":"新宿区立高田馬場第一児童館","province":"東京都","city":"新宿区","address":"東京都新宿区高田馬場3丁目18-21","lat":35.714165,"lon":139.697779},{"name":"新宿区立高田馬場第一児童館","province":"東京都","city":"新宿区","address":"東京都新宿区高田馬場3丁目18-21","lat":35.714199,"lon":139.697882},{"name":"新宿区立西落合児童館","province":"東京都","city":"新宿区","address":"東京都新宿区西落合1丁目31-24","lat":35.719759,"lon":139.679662},{"name":"新宿区立富久町児童館","province":"東京都","city":"新宿区","address":"東京都新宿区富久町22-21","lat":35.694099,"lon":139.715617},{"name":"落合第二高齢者総合相談センター","province":"東京都","city":"新宿区","address":"東京都新宿区上落合2丁目22","lat":35.713989,"lon":139.686776},{"name":"薬王寺児童館","province":"東京都","city":"新宿区","address":"東京都新宿区市谷薬王寺町20-40","lat":35.69624,"lon":139.72473},{"name":"男女共同参画推進センター","province":"東京都","city":"新宿区","address":"東京都新宿区荒木町16","lat":35.691495,"lon":139.724819},{"name":"新宿区立子ども総合センター","province":"東京都","city":"新宿区","address":"東京都新宿区新宿7丁目3-29","lat":35.700993,"lon":139.712376},{"name":"新宿区立信濃町子ども家庭支援センター","province":"東京都","city":"新宿区","address":"東京都新宿区信濃町20","lat":35.683421,"lon":139.720193},{"name":"新宿区立榎町子ども家庭支援センター","province":"東京都","city":"新宿区","address":"東京都新宿区榎町36","lat":35.704541,"lon":139.727756},{"name":"環境学習情報センター","province":"東京都","city":"新宿区","address":"東京都新宿区西新宿2丁目11-4","lat":35.691064,"lon":139.688575},{"name":"新宿リサイクル活動センター","province":"東京都","city":"新宿区","address":"東京都新宿区高田馬場4丁目10-2","lat":35.712737,"lon":139.702954},{"name":"西早稲田リサイクル活動センター","province":"東京都","city":"新宿区","address":"東京都新宿区西早稲田3丁目19-5","lat":35.710974,"lon":139.712392},{"name":"新宿清掃事務所","province":"東京都","city":"新宿区","address":"東京都新宿区下落合2丁目1-1","lat":35.71666,"lon":139.704627},{"name":"新宿区立防災センター","province":"東京都","city":"新宿区","address":"東京都新宿区市谷仲之町2-42","lat":35.693921,"lon":139.723957},{"name":"新宿区立四谷スポーツスクエア","province":"東京都","city":"新宿区","address":"東京都新宿区四谷1丁目6-4","lat":35.687906,"lon":139.728411},{"name":"新宿区立西新宿児童館","province":"東京都","city":"新宿区","address":"東京都新宿区西新宿4丁目35-28","lat":35.686343,"lon":139.686902},{"name":"薬王寺地域ささえあい館","province":"東京都","city":"新宿区","address":"東京都新宿区市谷薬王寺町20-40","lat":35.696143,"lon":139.724684},{"name":"高田馬場シニア活動館","province":"東京都","city":"新宿区","address":"東京都新宿区高田馬場3丁目39-29","lat":35.712123,"lon":139.695974},{"name":"信濃町シニア活動館","province":"東京都","city":"新宿区","address":"東京都新宿区信濃町20","lat":35.683392,"lon":139.720151},{"name":"戸山シニア活動館","province":"東京都","city":"新宿区","address":"東京都新宿区戸山2丁目27-2","lat":35.704544,"lon":139.710812},{"name":"西新宿シニア活動館","province":"東京都","city":"新宿区","address":"東京都新宿区西新宿4丁目8-35","lat":35.688673,"lon":139.684398},{"name":"西早稲田地域交流館","province":"東京都","city":"新宿区","address":"東京都新宿区西早稲田1丁目22-3","lat":35.711617,"lon":139.717379},{"name":"山吹町地域交流館","province":"東京都","city":"新宿区","address":"東京都新宿区山吹町342","lat":35.707946,"lon":139.729673},{"name":"北新宿地域交流館","province":"東京都","city":"新宿区","address":"東京都新宿区北新宿2丁目3-7","lat":35.698541,"lon":139.690229},{"name":"本塩町地域交流館","province":"東京都","city":"新宿区","address":"東京都新宿区四谷本塩町4-9","lat":35.688491,"lon":139.72934},{"name":"新宿区保健所","province":"東京都","city":"新宿区","address":"東京都新宿区新宿5丁目18-21","lat":35.69390388,"lon":139.70567105},{"name":"牛込保健センター","province":"東京都","city":"新宿区","address":"東京都新宿区矢来町6","lat":35.70106761,"lon":139.73091853},{"name":"四谷保健センター","province":"東京都","city":"新宿区","address":"東京都新宿区四谷三栄町10-16","lat":35.68881047,"lon":139.72427238},{"name":"東新宿保健センター","province":"東京都","city":"新宿区","address":"東京都新宿区新宿7丁目26-4","lat":35.69808963,"lon":139.70962332},{"name":"落合保健センター","province":"東京都","city":"新宿区","address":"東京都新宿区下落合4丁目6-7","lat":35.71871744,"lon":139.694996},{"name":"二葉乳児院","province":"東京都","city":"新宿区","address":"新宿区南元町4","lat":35.6819,"lon":139.72333},{"name":"あけの星学園","province":"東京都","city":"新宿区","address":"新宿区中落合1-7-1","lat":35.71737,"lon":139.69038},{"name":"本塩町児童館","province":"東京都","city":"新宿区","address":"新宿区四谷本塩町4番9号","lat":35.68872,"lon":139.72974},{"name":"信濃町子ども家庭支援センター","province":"東京都","city":"新宿区","address":"新宿区信濃町20","lat":35.68308,"lon":139.72029},{"name":"新宿区立子ども総合センター","province":"東京都","city":"新宿区","address":"新宿区新宿7-3-29","lat":35.70022,"lon":139.7132},{"name":"西新宿児童館","province":"東京都","city":"新宿区","address":"新宿区西新宿4-35-28","lat":35.68602,"lon":139.68748},{"name":"西落合児童館","province":"東京都","city":"新宿区","address":"新宿区西落合1-31-24","lat":35.71988,"lon":139.67934},{"name":"中落合子ども家庭支援センター","province":"東京都","city":"新宿区","address":"新宿区中落合2-7-24","lat":35.71777,"lon":139.69426},{"name":"上落合児童館","province":"東京都","city":"新宿区","address":"新宿区上落合2-28-8","lat":35.71146,"lon":139.68573},{"name":"中井児童館","province":"東京都","city":"新宿区","address":"新宿区中井1-8-12","lat":35.71479,"lon":139.6843},{"name":"早稲田南町児童館","province":"東京都","city":"新宿区","address":"新宿区早稲田南町50","lat":35.70497,"lon":139.72243},{"name":"薬王寺児童館","province":"東京都","city":"新宿区","address":"新宿区市谷薬王寺町51","lat":35.69611,"lon":139.72418},{"name":"富久町児童館","province":"東京都","city":"新宿区","address":"新宿区富久町22-21","lat":35.69352,"lon":139.71545},{"name":"榎町子ども家庭支援センター","province":"東京都","city":"新宿区","address":"新宿区榎町36","lat":35.70462,"lon":139.72757},{"name":"東五軒町児童館","province":"東京都","city":"新宿区","address":"新宿区東五軒町5-24","lat":35.7067,"lon":139.73976},{"name":"中町児童館","province":"東京都","city":"新宿区","address":"新宿区中町25","lat":35.69928,"lon":139.7355},{"name":"北山伏児童館","province":"東京都","city":"新宿区","address":"新宿区北山伏町2-17","lat":35.6998,"lon":139.72971},{"name":"百人町児童館","province":"東京都","city":"新宿区","address":"新宿区百人町2-18-21","lat":35.70377,"lon":139.69818},{"name":"北新宿第一児童館","province":"東京都","city":"新宿区","address":"新宿区北新宿2-3-7","lat":35.69859,"lon":139.69046},{"name":"北新宿子ども家庭支援センター","province":"東京都","city":"新宿区","address":"新宿区北新宿3-20-2","lat":35.70238,"lon":139.68921},{"name":"高田馬場第二児童館","province":"東京都","city":"新宿区","address":"新宿区高田馬場1-4-17","lat":35.71053,"lon":139.70874},{"name":"高田馬場第一児童館","province":"東京都","city":"新宿区","address":"新宿区高田馬場3-18-21","lat":35.71444,"lon":139.69785},{"name":"ひまわりホーム","province":"東京都","city":"新宿区","address":"新宿区西新宿4-21-19","lat":35.68816,"lon":139.68472},{"name":"あじさいホーム","province":"東京都","city":"新宿区","address":"新宿区西早稲田1-11-10","lat":35.71098,"lon":139.72264},{"name":"諏訪ハウス","province":"東京都","city":"新宿区","address":"新宿区高田馬場1-15-6","lat":35.70984,"lon":139.70639},{"name":"新宿区","province":"東京都","city":"新宿区","address":"新宿区歌舞伎町1-4-1","lat":35.69392,"lon":139.70345},{"name":"新宿区保健所","province":"東京都","city":"新宿区","address":"新宿区新宿5-18-21","lat":35.69441,"lon":139.70663},{"name":"牛込保健センター","province":"東京都","city":"新宿区","address":"新宿区矢来町6","lat":35.70112,"lon":139.73083},{"name":"四谷保健センター","province":"東京都","city":"新宿区","address":"新宿区四谷三栄町10-16","lat":35.68874,"lon":139.72412},{"name":"東新宿保健センター","province":"東京都","city":"新宿区","address":"新宿区新宿7-26-4","lat":35.69917,"lon":139.7092},{"name":"落合保健センター","province":"東京都","city":"新宿区","address":"新宿区下落合4-6-7","lat":35.71946,"lon":139.69492},{"name":"東京都児童相談センター","province":"東京都","city":"新宿区","address":"新宿区北新宿4-6-1","lat":35.7081,"lon":139.69383},{"name":"東京都心身障害者福祉センター","province":"東京都","city":"新宿区","address":"新宿区神楽河岸1-1","lat":35.70095,"lon":139.74342},{"name":"けやき荘","province":"東京都","city":"新宿区","address":"東京都新宿区内藤町","lat":35.68528565,"lon":139.71532331},{"name":"淀橋荘","province":"東京都","city":"新宿区","address":"東京都新宿区内藤町","lat":35.68528565,"lon":139.71532331},{"name":"二葉乳児院","province":"東京都","city":"新宿区","address":"新宿区南元町4","lat":35.681193,"lon":139.724728},{"name":"あけの星学園","province":"東京都","city":"新宿区","address":"新宿区中落合1-7-1","lat":35.717259,"lon":139.690727},{"name":"ひまわりホーム","province":"東京都","city":"新宿区","address":"新宿区西新宿4-21-19","lat":35.687954,"lon":139.683782},{"name":"あじさいホーム","province":"東京都","city":"新宿区","address":"新宿区西早稲田1-11-10","lat":35.711098,"lon":139.722617},{"name":"諏訪ハウス","province":"東京都","city":"新宿区","address":"新宿区高田馬場1-15-6","lat":35.709909,"lon":139.706405},{"name":"西新宿児童館","province":"東京都","city":"新宿区","address":"新宿区西新宿4-35-28","lat":35.68602,"lon":139.68749},{"name":"新宿区保健所","province":"東京都","city":"新宿区","address":"新宿区新宿5-18-21","lat":35.69441,"lon":139.70664},{"name":"牛込保健センター","province":"東京都","city":"新宿区","address":"新宿区弁天町50","lat":35.70326,"lon":139.72746},{"name":"四谷保健センター","province":"東京都","city":"新宿区","address":"新宿区四谷三栄町10-16","lat":35.68864,"lon":139.72612},{"name":"薬王寺児童館","province":"東京都","city":"新宿区","address":"新宿区市谷仲之町2-42防災センター内3階","lat":35.69357,"lon":139.72421},{"name":"ひまわりホーム","province":"東京都","city":"新宿区","address":"新宿区西新宿4-21-19","lat":35.687951,"lon":139.683757},{"name":"あじさいホーム","province":"東京都","city":"新宿区","address":"新宿区西早稲田1-11-10","lat":35.711119,"lon":139.722613},{"name":"東京都教育相談センター","province":"東京都","city":"新宿区","address":"新宿区北新宿4-6-1(東京都子供家庭総合センター4階)","lat":35.70498851,"lon":139.6969975},{"name":"東京都特別支援教育推進室","province":"東京都","city":"新宿区","address":"新宿区赤城元町1-3教育庁神楽坂庁舎内","lat":35.70108594,"lon":139.7395781},{"name":"東京都心身障害者福祉センター","province":"東京都","city":"新宿区","address":"新宿区神楽河岸1-1東京都飯田橋庁舎(セントラルプラザ)12階~15階","lat":35.69771639,"lon":139.7468106},{"name":"＊?男女共同参画推進センター?「ウィズ新宿｣","province":"東京都","city":"新宿区","address":"新宿区荒木町16","lat":35.691521,"lon":139.724823},{"name":"新宿区","province":"東京都","city":"新宿区","address":"新宿区歌舞伎町1-4-1","lat":35.69389,"lon":139.703463},{"name":"陸上自衛隊市ヶ谷駐屯地","province":"東京都","city":"新宿区","address":"新宿区市谷本村町5-1","lat":35.693837,"lon":139.727038},{"name":"第五機動隊","province":"東京都","city":"新宿区","address":"新宿区市谷本村町6-1","lat":35.69359,"lon":139.725},{"name":"第八機動隊","province":"東京都","city":"新宿区","address":"新宿区若松町14-1","lat":35.69851,"lon":139.7154},{"name":"特科車両隊","province":"東京都","city":"新宿区","address":"新宿区市谷本村町7-1","lat":35.69496,"lon":139.7259},{"name":"第四方面交通機動隊","province":"東京都","city":"新宿区","address":"新宿区市谷本村町7-13","lat":35.69564,"lon":139.7258},{"name":"第四方面本部","province":"東京都","city":"新宿区","address":"新宿区市谷本村町6-1","lat":35.69359,"lon":139.725},{"name":"牛込警察署","province":"東京都","city":"新宿区","address":"新宿区南山伏町1-15","lat":35.69902,"lon":139.7316},{"name":"新宿警察署","province":"東京都","city":"新宿区","address":"新宿区西新宿6-1-1","lat":35.69348,"lon":139.6944},{"name":"戸塚警察署","province":"東京都","city":"新宿区","address":"新宿区西早稲田3-30-13","lat":35.71334,"lon":139.7112},{"name":"四谷警察署","province":"東京都","city":"新宿区","address":"新宿区左門町6-5","lat":35.68647,"lon":139.7205},{"name":"第四消防方面本部","province":"東京都","city":"新宿区","address":"新宿区大久保3-14-26","lat":35.70824,"lon":139.7086},{"name":"牛込消防署","province":"東京都","city":"新宿区","address":"新宿区筑土八幡町5-16","lat":35.70359,"lon":139.7395},{"name":"新宿消防署","province":"東京都","city":"新宿区","address":"新宿区百人町3-29-4","lat":35.70693,"lon":139.6948},{"name":"四谷消防署","province":"東京都","city":"新宿区","address":"新宿区四谷3-10","lat":35.68812,"lon":139.7197},{"name":"都庁第一本庁舎","province":"東京都","city":"新宿区","address":"新宿区西新宿2-8-1","lat":35.689185,"lon":139.691648},{"name":"新宿区立西戸山公園野球場","province":"東京都","city":"新宿区","address":"新宿区百人町4-1","lat":35.70749,"lon":139.7009},{"name":"明治神宮外苑軟式野球場","province":"東京都","city":"新宿区","address":"新宿区霞ヶ丘町1-1","lat":35.6788,"lon":139.7177},{"name":"国立国際医療研究センターヘリポート","province":"東京都","city":"新宿区","address":"新宿区戸山1-21-1","lat":35.701751,"lon":139.715248},{"name":"本塩町児童館","province":"東京都","city":"新宿区","address":"新宿区四谷本塩町4番9号","lat":35.688547,"lon":139.729361},{"name":"信濃町子ども家庭支援センター","province":"東京都","city":"新宿区","address":"新宿区信濃町20","lat":35.683192,"lon":139.720395},{"name":"新宿区立子ども総合センター","province":"東京都","city":"新宿区","address":"新宿区新宿7-3-29","lat":35.701003,"lon":139.712681},{"name":"西新宿児童館","province":"東京都","city":"新宿区","address":"新宿区西新宿4-35-28","lat":35.686349,"lon":139.686929},{"name":"西落合児童館","province":"東京都","city":"新宿区","address":"新宿区西落合1-31-24","lat":35.719695,"lon":139.679472},{"name":"中落合子ども家庭支援センター","province":"東京都","city":"新宿区","address":"新宿区中落合2-7-24","lat":35.717948,"lon":139.693913},{"name":"上落合児童館","province":"東京都","city":"新宿区","address":"新宿区上落合2-28-8","lat":35.711021,"lon":139.685414},{"name":"中井児童館","province":"東京都","city":"新宿区","address":"新宿区中井1-8-12","lat":35.714759,"lon":139.683792},{"name":"早稲田南町児童館","province":"東京都","city":"新宿区","address":"新宿区早稲田南町50","lat":35.705086,"lon":139.722305},{"name":"薬王寺児童館","province":"東京都","city":"新宿区","address":"新宿区市谷仲之町2-42防災センター内3階","lat":35.693865,"lon":139.723981},{"name":"富久町児童館","province":"東京都","city":"新宿区","address":"新宿区富久町22-21","lat":35.694032,"lon":139.715684},{"name":"榎町子ども家庭支援センター","province":"東京都","city":"新宿区","address":"新宿区榎町36","lat":35.704553,"lon":139.72771},{"name":"東五軒町児童館","province":"東京都","city":"新宿区","address":"新宿区東五軒町5-24","lat":35.706789,"lon":139.740087},{"name":"中町児童館","province":"東京都","city":"新宿区","address":"新宿区中町25","lat":35.699021,"lon":139.734554},{"name":"北山伏児童館","province":"東京都","city":"新宿区","address":"新宿区北山伏町2-17","lat":35.700279,"lon":139.729902},{"name":"百人町児童館","province":"東京都","city":"新宿区","address":"新宿区百人町2-18-21","lat":35.703342,"lon":139.698182},{"name":"北新宿第一児童館","province":"東京都","city":"新宿区","address":"新宿区北新宿2-3-7","lat":35.698531,"lon":139.690247},{"name":"北新宿子ども家庭支援センター","province":"東京都","city":"新宿区","address":"新宿区北新宿3-20-2","lat":35.702972,"lon":139.689461},{"name":"高田馬場第一児童館","province":"東京都","city":"新宿区","address":"新宿区高田馬場3-18-21","lat":35.714557,"lon":139.697327},{"name":"高田馬場第二児童館","province":"東京都","city":"新宿区","address":"新宿区高田馬場1-4-17","lat":35.710946,"lon":139.709215},{"name":"シャロームみなみ風","province":"東京都","city":"新宿区","address":"新宿区弁天町32-6","lat":35.704142,"lon":139.727269},{"name":"障害者支援施設新宿けやき園","province":"東京都","city":"新宿区","address":"新宿区百人町4-5-1","lat":35.708158,"lon":139.698107},{"name":"東京都児童相談センター","province":"東京都","city":"新宿区","address":"新宿区北新宿4-6-1","lat":35.708274,"lon":139.693808},{"name":"東京都心身障害者福祉センター","province":"東京都","city":"新宿区","address":"新宿区神楽河岸1-1","lat":35.700951,"lon":139.743579},{"name":"けやき荘","province":"東京都","city":"新宿区","address":"東京都新宿区","lat":35.69388716,"lon":139.70341014},{"name":"二葉乳児院","province":"東京都","city":"新宿区","address":"新宿区南元町4","lat":35.6819,"lon":139.72333},{"name":"あけの星学園","province":"東京都","city":"新宿区","address":"新宿区中落合1-7-1","lat":35.71737,"lon":139.69038},{"name":"本塩町児童館","province":"東京都","city":"新宿区","address":"新宿区四谷本塩町4番9号","lat":35.68872,"lon":139.72974},{"name":"信濃町子ども家庭支援センター","province":"東京都","city":"新宿区","address":"新宿区信濃町20","lat":35.68308,"lon":139.72029},{"name":"新宿区立子ども総合センター","province":"東京都","city":"新宿区","address":"新宿区新宿7-3-29","lat":35.70022,"lon":139.7132},{"name":"西新宿児童館","province":"東京都","city":"新宿区","address":"新宿区西新宿4-35-28","lat":35.68602,"lon":139.68748},{"name":"西落合児童館","province":"東京都","city":"新宿区","address":"新宿区西落合1-31-24","lat":35.71988,"lon":139.67934},{"name":"中落合子ども家庭支援センター","province":"東京都","city":"新宿区","address":"新宿区中落合2-7-24","lat":35.71777,"lon":139.69426},{"name":"上落合児童館","province":"東京都","city":"新宿区","address":"新宿区上落合2-28-8","lat":35.71146,"lon":139.68573},{"name":"中井児童館","province":"東京都","city":"新宿区","address":"新宿区中井1-8-12","lat":35.71479,"lon":139.6843},{"name":"早稲田南町児童館","province":"東京都","city":"新宿区","address":"新宿区早稲田南町50","lat":35.70497,"lon":139.72243},{"name":"薬王寺児童館","province":"東京都","city":"新宿区","address":"新宿区市谷薬王寺町51","lat":35.69611,"lon":139.72418},{"name":"富久町児童館","province":"東京都","city":"新宿区","address":"新宿区富久町22-21","lat":35.69352,"lon":139.71545},{"name":"榎町子ども家庭支援センター","province":"東京都","city":"新宿区","address":"新宿区榎町36","lat":35.70462,"lon":139.72757},{"name":"東五軒町児童館","province":"東京都","city":"新宿区","address":"新宿区東五軒町5-24","lat":35.7067,"lon":139.73976},{"name":"中町児童館","province":"東京都","city":"新宿区","address":"新宿区中町25","lat":35.69928,"lon":139.7355},{"name":"北山伏児童館","province":"東京都","city":"新宿区","address":"新宿区北山伏町2-17","lat":35.6998,"lon":139.72971},{"name":"百人町児童館","province":"東京都","city":"新宿区","address":"新宿区百人町2-18-21","lat":35.70377,"lon":139.69818},{"name":"北新宿第一児童館","province":"東京都","city":"新宿区","address":"新宿区北新宿2-3-7","lat":35.69859,"lon":139.69046},{"name":"北新宿子ども家庭支援センター","province":"東京都","city":"新宿区","address":"新宿区北新宿3-20-2","lat":35.70238,"lon":139.68921},{"name":"高田馬場第二児童館","province":"東京都","city":"新宿区","address":"新宿区高田馬場1-4-17","lat":35.71053,"lon":139.70874},{"name":"高田馬場第一児童館","province":"東京都","city":"新宿区","address":"新宿区高田馬場3-18-21","lat":35.71444,"lon":139.69785},{"name":"ひまわりホーム","province":"東京都","city":"新宿区","address":"新宿区西新宿4-21-19","lat":35.68816,"lon":139.68472},{"name":"あじさいホーム","province":"東京都","city":"新宿区","address":"新宿区西早稲田1-11-10","lat":35.71098,"lon":139.72264},{"name":"諏訪ハウス","province":"東京都","city":"新宿区","address":"新宿区高田馬場1-15-6","lat":35.70984,"lon":139.70639},{"name":"新宿区","province":"東京都","city":"新宿区","address":"新宿区歌舞伎町1-4-1","lat":35.69392,"lon":139.70345},{"name":"東京都児童相談センター","province":"東京都","city":"新宿区","address":"新宿区北新宿4-6-1","lat":35.7081,"lon":139.69383},{"name":"東京都心身障害者福祉センター","province":"東京都","city":"新宿区","address":"新宿区神楽河岸1-1","lat":35.70095,"lon":139.74342},{"name":"けやき荘","province":"東京都","city":"新宿区","address":"東京都新宿区内藤町","lat":35.68528565,"lon":139.71532331},{"name":"淀橋荘","province":"東京都","city":"新宿区","address":"東京都新宿区内藤町","lat":35.68528565,"lon":139.71532331},{"name":"二葉乳児院","province":"東京都","city":"新宿区","address":"新宿区南元町4","lat":35.681193,"lon":139.724728},{"name":"あけの星学園","province":"東京都","city":"新宿区","address":"新宿区中落合1-7-1","lat":35.717259,"lon":139.690727},{"name":"ひまわりホーム","province":"東京都","city":"新宿区","address":"新宿区西新宿4-21-19","lat":35.687954,"lon":139.683782},{"name":"あじさいホーム","province":"東京都","city":"新宿区","address":"新宿区西早稲田1-11-10","lat":35.711098,"lon":139.722617},{"name":"諏訪ハウス","province":"東京都","city":"新宿区","address":"新宿区高田馬場1-15-6","lat":35.709909,"lon":139.706405},{"name":"西新宿児童館","province":"東京都","city":"新宿区","address":"新宿区西新宿4-35-28","lat":35.68602,"lon":139.68749},{"name":"薬王寺児童館","province":"東京都","city":"新宿区","address":"新宿区市谷仲之町2-42防災センター内3階","lat":35.69357,"lon":139.72421},{"name":"ひまわりホーム","province":"東京都","city":"新宿区","address":"新宿区西新宿4-21-19","lat":35.687951,"lon":139.683757},{"name":"あじさいホーム","province":"東京都","city":"新宿区","address":"新宿区西早稲田1-11-10","lat":35.711119,"lon":139.722613},{"name":"東京都教育相談センター","province":"東京都","city":"新宿区","address":"新宿区北新宿4-6-1(東京都子供家庭総合センター4階)","lat":35.70498851,"lon":139.6969975},{"name":"東京都特別支援教育推進室","province":"東京都","city":"新宿区","address":"新宿区赤城元町1-3教育庁神楽坂庁舎内","lat":35.70108594,"lon":139.7395781},{"name":"＊?男女共同参画推進センター?「ウィズ新宿｣","province":"東京都","city":"新宿区","address":"新宿区荒木町16","lat":35.691521,"lon":139.724823},{"name":"新宿区","province":"東京都","city":"新宿区","address":"新宿区歌舞伎町1-4-1","lat":35.69389,"lon":139.703463},{"name":"陸上自衛隊市ヶ谷駐屯地","province":"東京都","city":"新宿区","address":"新宿区市谷本村町5-1","lat":35.693837,"lon":139.727038},{"name":"シャロームみなみ風","province":"東京都","city":"新宿区","address":"新宿区弁天町32-6","lat":35.704142,"lon":139.727269},{"name":"障害者支援施設新宿けやき園","province":"東京都","city":"新宿区","address":"新宿区百人町4-5-1","lat":35.708158,"lon":139.698107},{"name":"東京都児童相談センター","province":"東京都","city":"新宿区","address":"新宿区北新宿4-6-1","lat":35.708274,"lon":139.693808},{"name":"東京都心身障害者福祉センター","province":"東京都","city":"新宿区","address":"新宿区神楽河岸1-1","lat":35.700951,"lon":139.743579},{"name":"けやき荘","province":"東京都","city":"新宿区","address":"東京都新宿区","lat":35.69388716,"lon":139.70341014},{"name":"二葉乳児院","province":"東京都","city":"新宿区","address":"新宿区南元町4","lat":35.6819,"lon":139.72333},{"name":"あけの星学園","province":"東京都","city":"新宿区","address":"新宿区中落合1-7-1","lat":35.71737,"lon":139.69038},{"name":"ひまわりホーム","province":"東京都","city":"新宿区","address":"新宿区西新宿4-21-19","lat":35.68816,"lon":139.68472},{"name":"あじさいホーム","province":"東京都","city":"新宿区","address":"新宿区西早稲田1-11-10","lat":35.71098,"lon":139.72264},{"name":"諏訪ハウス","province":"東京都","city":"新宿区","address":"新宿区高田馬場1-15-6","lat":35.70984,"lon":139.70639},{"name":"新宿区","province":"東京都","city":"新宿区","address":"新宿区歌舞伎町1-4-1","lat":35.69392,"lon":139.70345},{"name":"東京都児童相談センター","province":"東京都","city":"新宿区","address":"新宿区北新宿4-6-1","lat":35.7081,"lon":139.69383},{"name":"東京都心身障害者福祉センター","province":"東京都","city":"新宿区","address":"新宿区神楽河岸1-1","lat":35.70095,"lon":139.74342},{"name":"けやき荘","province":"東京都","city":"新宿区","address":"東京都新宿区内藤町","lat":35.68528565,"lon":139.71532331},{"name":"淀橋荘","province":"東京都","city":"新宿区","address":"東京都新宿区内藤町","lat":35.68528565,"lon":139.71532331},{"name":"二葉乳児院","province":"東京都","city":"新宿区","address":"新宿区南元町4","lat":35.681193,"lon":139.724728},{"name":"あけの星学園","province":"東京都","city":"新宿区","address":"新宿区中落合1-7-1","lat":35.717259,"lon":139.690727},{"name":"ひまわりホーム","province":"東京都","city":"新宿区","address":"新宿区西新宿4-21-19","lat":35.687954,"lon":139.683782},{"name":"あじさいホーム","province":"東京都","city":"新宿区","address":"新宿区西早稲田1-11-10","lat":35.711098,"lon":139.722617},{"name":"諏訪ハウス","province":"東京都","city":"新宿区","address":"新宿区高田馬場1-15-6","lat":35.709909,"lon":139.706405},{"name":"ひまわりホーム","province":"東京都","city":"新宿区","address":"新宿区西新宿4-21-19","lat":35.687951,"lon":139.683757},{"name":"あじさいホーム","province":"東京都","city":"新宿区","address":"新宿区西早稲田1-11-10","lat":35.711119,"lon":139.722613},{"name":"東京都教育相談センター","province":"東京都","city":"新宿区","address":"新宿区北新宿4-6-1(東京都子供家庭総合センター4階)","lat":35.70498851,"lon":139.6969975},{"name":"東京都特別支援教育推進室","province":"東京都","city":"新宿区","address":"新宿区赤城元町1-3教育庁神楽坂庁舎内","lat":35.70108594,"lon":139.7395781},{"name":"＊?男女共同参画推進センター?「ウィズ新宿｣","province":"東京都","city":"新宿区","address":"新宿区荒木町16","lat":35.691521,"lon":139.724823},{"name":"新宿区","province":"東京都","city":"新宿区","address":"新宿区歌舞伎町1-4-1","lat":35.69389,"lon":139.703463},{"name":"シャロームみなみ風","province":"東京都","city":"新宿区","address":"新宿区弁天町32-6","lat":35.704142,"lon":139.727269},{"name":"障害者支援施設新宿けやき園","province":"東京都","city":"新宿区","address":"新宿区百人町4-5-1","lat":35.708158,"lon":139.698107},{"name":"東京都児童相談センター","province":"東京都","city":"新宿区","address":"新宿区北新宿4-6-1","lat":35.708274,"lon":139.693808},{"name":"東京都心身障害者福祉センター","province":"東京都","city":"新宿区","address":"新宿区神楽河岸1-1","lat":35.700951,"lon":139.743579},{"name":"けやき荘","province":"東京都","city":"新宿区","address":"東京都新宿区","lat":35.69388716,"lon":139.70341014},{"name":"二葉乳児院","province":"東京都","city":"新宿区","address":"新宿区南元町4","lat":35.6819,"lon":139.72333},{"name":"あけの星学園","province":"東京都","city":"新宿区","address":"新宿区中落合1-7-1","lat":35.71737,"lon":139.69038},{"name":"ひまわりホーム","province":"東京都","city":"新宿区","address":"新宿区西新宿4-21-19","lat":35.68816,"lon":139.68472},{"name":"あじさいホーム","province":"東京都","city":"新宿区","address":"新宿区西早稲田1-11-10","lat":35.71098,"lon":139.72264},{"name":"諏訪ハウス","province":"東京都","city":"新宿区","address":"新宿区高田馬場1-15-6","lat":35.70984,"lon":139.70639},{"name":"新宿区","province":"東京都","city":"新宿区","address":"新宿区歌舞伎町1-4-1","lat":35.69392,"lon":139.70345},{"name":"東京都児童相談センター","province":"東京都","city":"新宿区","address":"新宿区北新宿4-6-1","lat":35.7081,"lon":139.69383},{"name":"東京都心身障害者福祉センター","province":"東京都","city":"新宿区","address":"新宿区神楽河岸1-1","lat":35.70095,"lon":139.74342},{"name":"けやき荘","province":"東京都","city":"新宿区","address":"東京都新宿区内藤町","lat":35.68528565,"lon":139.71532331},{"name":"淀橋荘","province":"東京都","city":"新宿区","address":"東京都新宿区内藤町","lat":35.68528565,"lon":139.71532331},{"name":"二葉乳児院","province":"東京都","city":"新宿区","address":"新宿区南元町4","lat":35.681193,"lon":139.724728},{"name":"あけの星学園","province":"東京都","city":"新宿区","address":"新宿区中落合1-7-1","lat":35.717259,"lon":139.690727},{"name":"ひまわりホーム","province":"東京都","city":"新宿区","address":"新宿区西新宿4-21-19","lat":35.687954,"lon":139.683782},{"name":"あじさいホーム","province":"東京都","city":"新宿区","address":"新宿区西早稲田1-11-10","lat":35.711098,"lon":139.722617},{"name":"諏訪ハウス","province":"東京都","city":"新宿区","address":"新宿区高田馬場1-15-6","lat":35.709909,"lon":139.706405},{"name":"ひまわりホーム","province":"東京都","city":"新宿区","address":"新宿区西新宿4-21-19","lat":35.687951,"lon":139.683757},{"name":"あじさいホーム","province":"東京都","city":"新宿区","address":"新宿区西早稲田1-11-10","lat":35.711119,"lon":139.722613},{"name":"東京都教育相談センター","province":"東京都","city":"新宿区","address":"新宿区北新宿4-6-1(東京都子供家庭総合センター4階)","lat":35.70498851,"lon":139.6969975},{"name":"東京都特別支援教育推進室","province":"東京都","city":"新宿区","address":"新宿区赤城元町1-3教育庁神楽坂庁舎内","lat":35.70108594,"lon":139.7395781},{"name":"＊?男女共同参画推進センター?「ウィズ新宿｣","province":"東京都","city":"新宿区","address":"新宿区荒木町16","lat":35.691521,"lon":139.724823},{"name":"新宿区","province":"東京都","city":"新宿区","address":"新宿区歌舞伎町1-4-1","lat":35.69389,"lon":139.703463},{"name":"シャロームみなみ風","province":"東京都","city":"新宿区","address":"新宿区弁天町32-6","lat":35.704142,"lon":139.727269},{"name":"障害者支援施設新宿けやき園","province":"東京都","city":"新宿区","address":"新宿区百人町4-5-1","lat":35.708158,"lon":139.698107},{"name":"東京都児童相談センター","province":"東京都","city":"新宿区","address":"新宿区北新宿4-6-1","lat":35.708274,"lon":139.693808},{"name":"東京都心身障害者福祉センター","province":"東京都","city":"新宿区","address":"新宿区神楽河岸1-1","lat":35.700951,"lon":139.743579},{"name":"けやき荘","province":"東京都","city":"新宿区","address":"東京都新宿区","lat":35.69388716,"lon":139.70341014},{"name":"二葉乳児院","province":"東京都","city":"新宿区","address":"新宿区南元町4","lat":35.6819,"lon":139.72333},{"name":"あけの星学園","province":"東京都","city":"新宿区","address":"新宿区中落合1-7-1","lat":35.71737,"lon":139.69038},{"name":"ひまわりホーム","province":"東京都","city":"新宿区","address":"新宿区西新宿4-21-19","lat":35.68816,"lon":139.68472},{"name":"あじさいホーム","province":"東京都","city":"新宿区","address":"新宿区西早稲田1-11-10","lat":35.71098,"lon":139.72264},{"name":"諏訪ハウス","province":"東京都","city":"新宿区","address":"新宿区高田馬場1-15-6","lat":35.70984,"lon":139.70639},{"name":"新宿区","province":"東京都","city":"新宿区","address":"新宿区歌舞伎町1-4-1","lat":35.69392,"lon":139.70345},{"name":"東京都児童相談センター","province":"東京都","city":"新宿区","address":"新宿区北新宿4-6-1","lat":35.7081,"lon":139.69383},{"name":"東京都心身障害者福祉センター","province":"東京都","city":"新宿区","address":"新宿区神楽河岸1-1","lat":35.70095,"lon":139.74342},{"name":"けやき荘","province":"東京都","city":"新宿区","address":"東京都新宿区内藤町","lat":35.68528565,"lon":139.71532331},{"name":"淀橋荘","province":"東京都","city":"新宿区","address":"東京都新宿区内藤町","lat":35.68528565,"lon":139.71532331},{"name":"二葉乳児院","province":"東京都","city":"新宿区","address":"新宿区南元町4","lat":35.681193,"lon":139.724728},{"name":"あけの星学園","province":"東京都","city":"新宿区","address":"新宿区中落合1-7-1","lat":35.717259,"lon":139.690727},{"name":"ひまわりホーム","province":"東京都","city":"新宿区","address":"新宿区西新宿4-21-19","lat":35.687954,"lon":139.683782},{"name":"あじさいホーム","province":"東京都","city":"新宿区","address":"新宿区西早稲田1-11-10","lat":35.711098,"lon":139.722617},{"name":"諏訪ハウス","province":"東京都","city":"新宿区","address":"新宿区高田馬場1-15-6","lat":35.709909,"lon":139.706405},{"name":"東京都教育相談センター","province":"東京都","city":"新宿区","address":"新宿区北新宿4-6-1(東京都子供家庭総合センター4階)","lat":35.70498851,"lon":139.6969975},{"name":"東京都特別支援教育推進室","province":"東京都","city":"新宿区","address":"新宿区赤城元町1-3教育庁神楽坂庁舎内","lat":35.70108594,"lon":139.7395781},{"name":"新宿区","province":"東京都","city":"新宿区","address":"新宿区歌舞伎町1-4-1","lat":35.69389,"lon":139.703463},{"name":"シャロームみなみ風","province":"東京都","city":"新宿区","address":"新宿区弁天町32-6","lat":35.704142,"lon":139.727269},{"name":"障害者支援施設新宿けやき園","province":"東京都","city":"新宿区","address":"新宿区百人町4-5-1","lat":35.708158,"lon":139.698107},{"name":"東京都児童相談センター","province":"東京都","city":"新宿区","address":"新宿区北新宿4-6-1","lat":35.708274,"lon":139.693808},{"name":"東京都心身障害者福祉センター","province":"東京都","city":"新宿区","address":"新宿区神楽河岸1-1","lat":35.700951,"lon":139.743579},{"name":"けやき荘","province":"東京都","city":"新宿区","address":"東京都新宿区","lat":35.69388716,"lon":139.70341014},{"name":"二葉乳児院","province":"東京都","city":"新宿区","address":"新宿区南元町4","lat":35.6819,"lon":139.72333},{"name":"あけの星学園","province":"東京都","city":"新宿区","address":"新宿区中落合1-7-1","lat":35.71737,"lon":139.69038},{"name":"ひまわりホーム","province":"東京都","city":"新宿区","address":"新宿区西新宿4-21-19","lat":35.68816,"lon":139.68472},{"name":"あじさいホーム","province":"東京都","city":"新宿区","address":"新宿区西早稲田1-11-10","lat":35.71098,"lon":139.72264},{"name":"諏訪ハウス","province":"東京都","city":"新宿区","address":"新宿区高田馬場1-15-6","lat":35.70984,"lon":139.70639},{"name":"新宿区","province":"東京都","city":"新宿区","address":"新宿区歌舞伎町1-4-1","lat":35.69392,"lon":139.70345},{"name":"東京都児童相談センター","province":"東京都","city":"新宿区","address":"新宿区北新宿4-6-1","lat":35.7081,"lon":139.69383},{"name":"東京都心身障害者福祉センター","province":"東京都","city":"新宿区","address":"新宿区神楽河岸1-1","lat":35.70095,"lon":139.74342},{"name":"けやき荘","province":"東京都","city":"新宿区","address":"東京都新宿区内藤町","lat":35.68528565,"lon":139.71532331},{"name":"淀橋荘","province":"東京都","city":"新宿区","address":"東京都新宿区内藤町","lat":35.68528565,"lon":139.71532331},{"name":"二葉乳児院","province":"東京都","city":"新宿区","address":"新宿区南元町4","lat":35.681193,"lon":139.724728},{"name":"あけの星学園","province":"東京都","city":"新宿区","address":"新宿区中落合1-7-1","lat":35.717259,"lon":139.690727},{"name":"ひまわりホーム","province":"東京都","city":"新宿区","address":"新宿区西新宿4-21-19","lat":35.687954,"lon":139.683782},{"name":"あじさいホーム","province":"東京都","city":"新宿区","address":"新宿区西早稲田1-11-10","lat":35.711098,"lon":139.722617},{"name":"諏訪ハウス","province":"東京都","city":"新宿区","address":"新宿区高田馬場1-15-6","lat":35.709909,"lon":139.706405},{"name":"東京都教育相談センター","province":"東京都","city":"新宿区","address":"新宿区北新宿4-6-1(東京都子供家庭総合センター4階)","lat":35.70498851,"lon":139.6969975},{"name":"東京都特別支援教育推進室","province":"東京都","city":"新宿区","address":"新宿区赤城元町1-3教育庁神楽坂庁舎内","lat":35.70108594,"lon":139.7395781},{"name":"新宿区","province":"東京都","city":"新宿区","address":"新宿区歌舞伎町1-4-1","lat":35.69389,"lon":139.703463},{"name":"シャロームみなみ風","province":"東京都","city":"新宿区","address":"新宿区弁天町32-6","lat":35.704142,"lon":139.727269},{"name":"障害者支援施設新宿けやき園","province":"東京都","city":"新宿区","address":"新宿区百人町4-5-1","lat":35.708158,"lon":139.698107},{"name":"東京都児童相談センター","province":"東京都","city":"新宿区","address":"新宿区北新宿4-6-1","lat":35.708274,"lon":139.693808},{"name":"東京都心身障害者福祉センター","province":"東京都","city":"新宿区","address":"新宿区神楽河岸1-1","lat":35.700951,"lon":139.743579},{"name":"けやき荘","province":"東京都","city":"新宿区","address":"東京都新宿区","lat":35.69388716,"lon":139.70341014},{"name":"あけの星学園","province":"東京都","city":"新宿区","address":"新宿区中落合1-7-1","lat":35.71737,"lon":139.69038},{"name":"ひまわりホーム","province":"東京都","city":"新宿区","address":"新宿区西新宿4-21-19","lat":35.68816,"lon":139.68472},{"name":"あじさいホーム","province":"東京都","city":"新宿区","address":"新宿区西早稲田1-11-10","lat":35.71098,"lon":139.72264},{"name":"諏訪ハウス","province":"東京都","city":"新宿区","address":"新宿区高田馬場1-15-6","lat":35.70984,"lon":139.70639},{"name":"新宿区","province":"東京都","city":"新宿区","address":"新宿区歌舞伎町1-4-1","lat":35.69392,"lon":139.70345},{"name":"東京都児童相談センター","province":"東京都","city":"新宿区","address":"新宿区北新宿4-6-1","lat":35.7081,"lon":139.69383},{"name":"東京都心身障害者福祉センター","province":"東京都","city":"新宿区","address":"新宿区神楽河岸1-1","lat":35.70095,"lon":139.74342},{"name":"けやき荘","province":"東京都","city":"新宿区","address":"東京都新宿区内藤町","lat":35.68528565,"lon":139.71532331},{"name":"淀橋荘","province":"東京都","city":"新宿区","address":"東京都新宿区内藤町","lat":35.68528565,"lon":139.71532331},{"name":"あけの星学園","province":"東京都","city":"新宿区","address":"新宿区中落合1-7-1","lat":35.717259,"lon":139.690727},{"name":"ひまわりホーム","province":"東京都","city":"新宿区","address":"新宿区西新宿4-21-19","lat":35.687954,"lon":139.683782},{"name":"あじさいホーム","province":"東京都","city":"新宿区","address":"新宿区西早稲田1-11-10","lat":35.711098,"lon":139.722617},{"name":"諏訪ハウス","province":"東京都","city":"新宿区","address":"新宿区高田馬場1-15-6","lat":35.709909,"lon":139.706405},{"name":"東京都教育相談センター","province":"東京都","city":"新宿区","address":"新宿区北新宿4-6-1(東京都子供家庭総合センター4階)","lat":35.70498851,"lon":139.6969975},{"name":"東京都特別支援教育推進室","province":"東京都","city":"新宿区","address":"新宿区赤城元町1-3教育庁神楽坂庁舎内","lat":35.70108594,"lon":139.7395781},{"name":"新宿区","province":"東京都","city":"新宿区","address":"新宿区歌舞伎町1-4-1","lat":35.69389,"lon":139.703463},{"name":"シャロームみなみ風","province":"東京都","city":"新宿区","address":"新宿区弁天町32-6","lat":35.704142,"lon":139.727269},{"name":"障害者支援施設新宿けやき園","province":"東京都","city":"新宿区","address":"新宿区百人町4-5-1","lat":35.708158,"lon":139.698107},{"name":"東京都児童相談センター","province":"東京都","city":"新宿区","address":"新宿区北新宿4-6-1","lat":35.708274,"lon":139.693808},{"name":"東京都心身障害者福祉センター","province":"東京都","city":"新宿区","address":"新宿区神楽河岸1-1","lat":35.700951,"lon":139.743579},{"name":"けやき荘","province":"東京都","city":"新宿区","address":"東京都新宿区","lat":35.69388716,"lon":139.70341014},{"name":"あけの星学園","province":"東京都","city":"新宿区","address":"新宿区中落合1-7-1","lat":35.71737,"lon":139.69038},{"name":"ひまわりホーム","province":"東京都","city":"新宿区","address":"新宿区西新宿4-21-19","lat":35.68816,"lon":139.68472},{"name":"あじさいホーム","province":"東京都","city":"新宿区","address":"新宿区西早稲田1-11-10","lat":35.71098,"lon":139.72264},{"name":"諏訪ハウス","province":"東京都","city":"新宿区","address":"新宿区高田馬場1-15-6","lat":35.70984,"lon":139.70639},{"name":"新宿区","province":"東京都","city":"新宿区","address":"新宿区歌舞伎町1-4-1","lat":35.69392,"lon":139.70345},{"name":"東京都児童相談センター","province":"東京都","city":"新宿区","address":"新宿区北新宿4-6-1","lat":35.7081,"lon":139.69383},{"name":"東京都心身障害者福祉センター","province":"東京都","city":"新宿区","address":"新宿区神楽河岸1-1","lat":35.70095,"lon":139.74342},{"name":"けやき荘","province":"東京都","city":"新宿区","address":"東京都新宿区内藤町","lat":35.68528565,"lon":139.71532331},{"name":"淀橋荘","province":"東京都","city":"新宿区","address":"東京都新宿区内藤町","lat":35.68528565,"lon":139.71532331},{"name":"あけの星学園","province":"東京都","city":"新宿区","address":"新宿区中落合1-7-1","lat":35.717259,"lon":139.690727},{"name":"ひまわりホーム","province":"東京都","city":"新宿区","address":"新宿区西新宿4-21-19","lat":35.687954,"lon":139.683782},{"name":"あじさいホーム","province":"東京都","city":"新宿区","address":"新宿区西早稲田1-11-10","lat":35.711098,"lon":139.722617},{"name":"諏訪ハウス","province":"東京都","city":"新宿区","address":"新宿区高田馬場1-15-6","lat":35.709909,"lon":139.706405},{"name":"東京都教育相談センター","province":"東京都","city":"新宿区","address":"新宿区北新宿4-6-1(東京都子供家庭総合センター4階)","lat":35.70498851,"lon":139.6969975},{"name":"東京都特別支援教育推進室","province":"東京都","city":"新宿区","address":"新宿区赤城元町1-3教育庁神楽坂庁舎内","lat":35.70108594,"lon":139.7395781},{"name":"新宿区","province":"東京都","city":"新宿区","address":"新宿区歌舞伎町1-4-1","lat":35.69389,"lon":139.703463},{"name":"シャロームみなみ風","province":"東京都","city":"新宿区","address":"新宿区弁天町32-6","lat":35.704142,"lon":139.727269},{"name":"障害者支援施設新宿けやき園","province":"東京都","city":"新宿区","address":"新宿区百人町4-5-1","lat":35.708158,"lon":139.698107},{"name":"東京都児童相談センター","province":"東京都","city":"新宿区","address":"新宿区北新宿4-6-1","lat":35.708274,"lon":139.693808},{"name":"東京都心身障害者福祉センター","province":"東京都","city":"新宿区","address":"新宿区神楽河岸1-1","lat":35.700951,"lon":139.743579},{"name":"けやき荘","province":"東京都","city":"新宿区","address":"東京都新宿区","lat":35.69388716,"lon":139.70341014},{"name":"あけの星学園","province":"東京都","city":"新宿区","address":"新宿区中落合1-7-1","lat":35.71737,"lon":139.69038},{"name":"ひまわりホーム","province":"東京都","city":"新宿区","address":"新宿区西新宿4-21-19","lat":35.68816,"lon":139.68472},{"name":"あじさいホーム","province":"東京都","city":"新宿区","address":"新宿区西早稲田1-11-10","lat":35.71098,"lon":139.72264},{"name":"諏訪ハウス","province":"東京都","city":"新宿区","address":"新宿区高田馬場1-15-6","lat":35.70984,"lon":139.70639},{"name":"新宿区","province":"東京都","city":"新宿区","address":"新宿区歌舞伎町1-4-1","lat":35.69392,"lon":139.70345},{"name":"東京都児童相談センター","province":"東京都","city":"新宿区","address":"新宿区北新宿4-6-1","lat":35.7081,"lon":139.69383},{"name":"東京都心身障害者福祉センター","province":"東京都","city":"新宿区","address":"新宿区神楽河岸1-1","lat":35.70095,"lon":139.74342},{"name":"けやき荘","province":"東京都","city":"新宿区","address":"東京都新宿区内藤町","lat":35.68528565,"lon":139.71532331},{"name":"淀橋荘","province":"東京都","city":"新宿区","address":"東京都新宿区内藤町","lat":35.68528565,"lon":139.71532331},{"name":"あけの星学園","province":"東京都","city":"新宿区","address":"新宿区中落合1-7-1","lat":35.717259,"lon":139.690727},{"name":"ひまわりホーム","province":"東京都","city":"新宿区","address":"新宿区西新宿4-21-19","lat":35.687954,"lon":139.683782},{"name":"あじさいホーム","province":"東京都","city":"新宿区","address":"新宿区西早稲田1-11-10","lat":35.711098,"lon":139.722617},{"name":"諏訪ハウス","province":"東京都","city":"新宿区","address":"新宿区高田馬場1-15-6","lat":35.709909,"lon":139.706405},{"name":"東京都教育相談センター","province":"東京都","city":"新宿区","address":"新宿区北新宿4-6-1(東京都子供家庭総合センター4階)","lat":35.70498851,"lon":139.6969975},{"name":"東京都特別支援教育推進室","province":"東京都","city":"新宿区","address":"新宿区赤城元町1-3教育庁神楽坂庁舎内","lat":35.70108594,"lon":139.7395781},{"name":"新宿区","province":"東京都","city":"新宿区","address":"新宿区歌舞伎町1-4-1","lat":35.69389,"lon":139.703463},{"name":"シャロームみなみ風","province":"東京都","city":"新宿区","address":"新宿区弁天町32-6","lat":35.704142,"lon":139.727269},{"name":"障害者支援施設新宿けやき園","province":"東京都","city":"新宿区","address":"新宿区百人町4-5-1","lat":35.708158,"lon":139.698107},{"name":"東京都児童相談センター","province":"東京都","city":"新宿区","address":"新宿区北新宿4-6-1","lat":35.708274,"lon":139.693808},{"name":"東京都心身障害者福祉センター","province":"東京都","city":"新宿区","address":"新宿区神楽河岸1-1","lat":35.700951,"lon":139.743579},{"name":"けやき荘","province":"東京都","city":"新宿区","address":"東京都新宿区","lat":35.69388716,"lon":139.70341014},{"name":"あけの星学園","province":"東京都","city":"新宿区","address":"新宿区中落合1-7-1","lat":35.71737,"lon":139.69038},{"name":"ひまわりホーム","province":"東京都","city":"新宿区","address":"新宿区西新宿4-21-19","lat":35.68816,"lon":139.68472},{"name":"あじさいホーム","province":"東京都","city":"新宿区","address":"新宿区西早稲田1-11-10","lat":35.71098,"lon":139.72264},{"name":"諏訪ハウス","province":"東京都","city":"新宿区","address":"新宿区高田馬場1-15-6","lat":35.70984,"lon":139.70639},{"name":"新宿区","province":"東京都","city":"新宿区","address":"新宿区歌舞伎町1-4-1","lat":35.69392,"lon":139.70345},{"name":"東京都児童相談センター","province":"東京都","city":"新宿区","address":"新宿区北新宿4-6-1","lat":35.7081,"lon":139.69383},{"name":"東京都心身障害者福祉センター","province":"東京都","city":"新宿区","address":"新宿区神楽河岸1-1","lat":35.70095,"lon":139.74342},{"name":"けやき荘","province":"東京都","city":"新宿区","address":"東京都新宿区内藤町","lat":35.68528565,"lon":139.71532331},{"name":"淀橋荘","province":"東京都","city":"新宿区","address":"東京都新宿区内藤町","lat":35.68528565,"lon":139.71532331},{"name":"あけの星学園","province":"東京都","city":"新宿区","address":"新宿区中落合1-7-1","lat":35.717259,"lon":139.690727},{"name":"ひまわりホーム","province":"東京都","city":"新宿区","address":"新宿区西新宿4-21-19","lat":35.687954,"lon":139.683782},{"name":"あじさいホーム","province":"東京都","city":"新宿区","address":"新宿区西早稲田1-11-10","lat":35.711098,"lon":139.722617},{"name":"諏訪ハウス","province":"東京都","city":"新宿区","address":"新宿区高田馬場1-15-6","lat":35.709909,"lon":139.706405},{"name":"東京都教育相談センター","province":"東京都","city":"新宿区","address":"新宿区北新宿4-6-1(東京都子供家庭総合センター4階)","lat":35.70498851,"lon":139.6969975},{"name":"東京都特別支援教育推進室","province":"東京都","city":"新宿区","address":"新宿区赤城元町1-3教育庁神楽坂庁舎内","lat":35.70108594,"lon":139.7395781},{"name":"新宿区","province":"東京都","city":"新宿区","address":"新宿区歌舞伎町1-4-1","lat":35.69389,"lon":139.703463},{"name":"シャロームみなみ風","province":"東京都","city":"新宿区","address":"新宿区弁天町32-6","lat":35.704142,"lon":139.727269},{"name":"障害者支援施設新宿けやき園","province":"東京都","city":"新宿区","address":"新宿区百人町4-5-1","lat":35.708158,"lon":139.698107},{"name":"東京都児童相談センター","province":"東京都","city":"新宿区","address":"新宿区北新宿4-6-1","lat":35.708274,"lon":139.693808},{"name":"東京都心身障害者福祉センター","province":"東京都","city":"新宿区","address":"新宿区神楽河岸1-1","lat":35.700951,"lon":139.743579},{"name":"けやき荘","province":"東京都","city":"新宿区","address":"東京都新宿区","lat":35.69388716,"lon":139.70341014},{"name":"あけの星学園","province":"東京都","city":"新宿区","address":"新宿区中落合1-7-1","lat":35.71737,"lon":139.69038},{"name":"ひまわりホーム","province":"東京都","city":"新宿区","address":"新宿区西新宿4-21-19","lat":35.68816,"lon":139.68472},{"name":"あじさいホーム","province":"東京都","city":"新宿区","address":"新宿区西早稲田1-11-10","lat":35.71098,"lon":139.72264},{"name":"諏訪ハウス","province":"東京都","city":"新宿区","address":"新宿区高田馬場1-15-6","lat":35.70984,"lon":139.70639},{"name":"新宿区","province":"東京都","city":"新宿区","address":"新宿区歌舞伎町1-4-1","lat":35.69392,"lon":139.70345},{"name":"東京都児童相談センター","province":"東京都","city":"新宿区","address":"新宿区北新宿4-6-1","lat":35.7081,"lon":139.69383},{"name":"東京都心身障害者福祉センター","province":"東京都","city":"新宿区","address":"新宿区神楽河岸1-1","lat":35.70095,"lon":139.74342},{"name":"けやき荘","province":"東京都","city":"新宿区","address":"東京都新宿区内藤町","lat":35.68528565,"lon":139.71532331},{"name":"淀橋荘","province":"東京都","city":"新宿区","address":"東京都新宿区内藤町","lat":35.68528565,"lon":139.71532331},{"name":"あけの星学園","province":"東京都","city":"新宿区","address":"新宿区中落合1-7-1","lat":35.717259,"lon":139.690727},{"name":"ひまわりホーム","province":"東京都","city":"新宿区","address":"新宿区西新宿4-21-19","lat":35.687954,"lon":139.683782},{"name":"あじさいホーム","province":"東京都","city":"新宿区","address":"新宿区西早稲田1-11-10","lat":35.711098,"lon":139.722617},{"name":"諏訪ハウス","province":"東京都","city":"新宿区","address":"新宿区高田馬場1-15-6","lat":35.709909,"lon":139.706405},{"name":"新宿区","province":"東京都","city":"新宿区","address":"新宿区歌舞伎町1-4-1","lat":35.69389,"lon":139.703463},{"name":"シャロームみなみ風","province":"東京都","city":"新宿区","address":"新宿区弁天町32-6","lat":35.704142,"lon":139.727269},{"name":"障害者支援施設新宿けやき園","province":"東京都","city":"新宿区","address":"新宿区百人町4-5-1","lat":35.708158,"lon":139.698107},{"name":"東京都児童相談センター","province":"東京都","city":"新宿区","address":"新宿区北新宿4-6-1","lat":35.708274,"lon":139.693808},{"name":"東京都心身障害者福祉センター","province":"東京都","city":"新宿区","address":"新宿区神楽河岸1-1","lat":35.700951,"lon":139.743579},{"name":"けやき荘","province":"東京都","city":"新宿区","address":"東京都新宿区","lat":35.69388716,"lon":139.70341014},{"name":"あけの星学園","province":"東京都","city":"新宿区","address":"新宿区中落合1-7-1","lat":35.71737,"lon":139.69038},{"name":"ひまわりホーム","province":"東京都","city":"新宿区","address":"新宿区西新宿4-21-19","lat":35.68816,"lon":139.68472},{"name":"あじさいホーム","province":"東京都","city":"新宿区","address":"新宿区西早稲田1-11-10","lat":35.71098,"lon":139.72264},{"name":"諏訪ハウス","province":"東京都","city":"新宿区","address":"新宿区高田馬場1-15-6","lat":35.70984,"lon":139.70639},{"name":"新宿区","province":"東京都","city":"新宿区","address":"新宿区歌舞伎町1-4-1","lat":35.69392,"lon":139.70345},{"name":"東京都児童相談センター","province":"東京都","city":"新宿区","address":"新宿区北新宿4-6-1","lat":35.7081,"lon":139.69383},{"name":"東京都心身障害者福祉センター","province":"東京都","city":"新宿区","address":"新宿区神楽河岸1-1","lat":35.70095,"lon":139.74342},{"name":"けやき荘","province":"東京都","city":"新宿区","address":"東京都新宿区内藤町","lat":35.68528565,"lon":139.71532331},{"name":"淀橋荘","province":"東京都","city":"新宿区","address":"東京都新宿区内藤町","lat":35.68528565,"lon":139.71532331},{"name":"あけの星学園","province":"東京都","city":"新宿区","address":"新宿区中落合1-7-1","lat":35.717259,"lon":139.690727},{"name":"ひまわりホーム","province":"東京都","city":"新宿区","address":"新宿区西新宿4-21-19","lat":35.687954,"lon":139.683782},{"name":"あじさいホーム","province":"東京都","city":"新宿区","address":"新宿区西早稲田1-11-10","lat":35.711098,"lon":139.722617},{"name":"諏訪ハウス","province":"東京都","city":"新宿区","address":"新宿区高田馬場1-15-6","lat":35.709909,"lon":139.706405},{"name":"新宿区","province":"東京都","city":"新宿区","address":"新宿区歌舞伎町1-4-1","lat":35.69389,"lon":139.703463},{"name":"シャロームみなみ風","province":"東京都","city":"新宿区","address":"新宿区弁天町32-6","lat":35.704142,"lon":139.727269},{"name":"障害者支援施設新宿けやき園","province":"東京都","city":"新宿区","address":"新宿区百人町4-5-1","lat":35.708158,"lon":139.698107},{"name":"東京都児童相談センター","province":"東京都","city":"新宿区","address":"新宿区北新宿4-6-1","lat":35.708274,"lon":139.693808},{"name":"東京都心身障害者福祉センター","province":"東京都","city":"新宿区","address":"新宿区神楽河岸1-1","lat":35.700951,"lon":139.743579},{"name":"けやき荘","province":"東京都","city":"新宿区","address":"東京都新宿区","lat":35.69388716,"lon":139.70341014},{"name":"あけの星学園","province":"東京都","city":"新宿区","address":"新宿区中落合1-7-1","lat":35.71737,"lon":139.69038},{"name":"ひまわりホーム","province":"東京都","city":"新宿区","address":"新宿区西新宿4-21-19","lat":35.68816,"lon":139.68472},{"name":"あじさいホーム","province":"東京都","city":"新宿区","address":"新宿区西早稲田1-11-10","lat":35.71098,"lon":139.72264},{"name":"諏訪ハウス","province":"東京都","city":"新宿区","address":"新宿区高田馬場1-15-6","lat":35.70984,"lon":139.70639},{"name":"新宿区","province":"東京都","city":"新宿区","address":"新宿区歌舞伎町1-4-1","lat":35.69392,"lon":139.70345},{"name":"東京都児童相談センター","province":"東京都","city":"新宿区","address":"新宿区北新宿4-6-1","lat":35.7081,"lon":139.69383},{"name":"東京都心身障害者福祉センター","province":"東京都","city":"新宿区","address":"新宿区神楽河岸1-1","lat":35.70095,"lon":139.74342},{"name":"けやき荘","province":"東京都","city":"新宿区","address":"東京都新宿区内藤町","lat":35.68528565,"lon":139.71532331},{"name":"淀橋荘","province":"東京都","city":"新宿区","address":"東京都新宿区内藤町","lat":35.68528565,"lon":139.71532331},{"name":"あけの星学園","province":"東京都","city":"新宿区","address":"新宿区中落合1-7-1","lat":35.717259,"lon":139.690727},{"name":"ひまわりホーム","province":"東京都","city":"新宿区","address":"新宿区西新宿4-21-19","lat":35.687954,"lon":139.683782},{"name":"あじさいホーム","province":"東京都","city":"新宿区","address":"新宿区西早稲田1-11-10","lat":35.711098,"lon":139.722617},{"name":"諏訪ハウス","province":"東京都","city":"新宿区","address":"新宿区高田馬場1-15-6","lat":35.709909,"lon":139.706405},{"name":"新宿区","province":"東京都","city":"新宿区","address":"新宿区歌舞伎町1-4-1","lat":35.69389,"lon":139.703463},{"name":"シャロームみなみ風","province":"東京都","city":"新宿区","address":"新宿区弁天町32-6","lat":35.704142,"lon":139.727269},{"name":"障害者支援施設新宿けやき園","province":"東京都","city":"新宿区","address":"新宿区百人町4-5-1","lat":35.708158,"lon":139.698107},{"name":"東京都児童相談センター","province":"東京都","city":"新宿区","address":"新宿区北新宿4-6-1","lat":35.708274,"lon":139.693808},{"name":"東京都心身障害者福祉センター","province":"東京都","city":"新宿区","address":"新宿区神楽河岸1-1","lat":35.700951,"lon":139.743579},{"name":"けやき荘","province":"東京都","city":"新宿区","address":"東京都新宿区","lat":35.69388716,"lon":139.70341014},{"name":"あけの星学園","province":"東京都","city":"新宿区","address":"新宿区中落合1-7-1","lat":35.71737,"lon":139.69038},{"name":"ひまわりホーム","province":"東京都","city":"新宿区","address":"新宿区西新宿4-21-19","lat":35.68816,"lon":139.68472},{"name":"あじさいホーム","province":"東京都","city":"新宿区","address":"新宿区西早稲田1-11-10","lat":35.71098,"lon":139.72264},{"name":"諏訪ハウス","province":"東京都","city":"新宿区","address":"新宿区高田馬場1-15-6","lat":35.70984,"lon":139.70639},{"name":"新宿区","province":"東京都","city":"新宿区","address":"新宿区歌舞伎町1-4-1","lat":35.69392,"lon":139.70345},{"name":"東京都児童相談センター","province":"東京都","city":"新宿区","address":"新宿区北新宿4-6-1","lat":35.7081,"lon":139.69383},{"name":"東京都心身障害者福祉センター","province":"東京都","city":"新宿区","address":"新宿区神楽河岸1-1","lat":35.70095,"lon":139.74342},{"name":"けやき荘","province":"東京都","city":"新宿区","address":"東京都新宿区内藤町","lat":35.68528565,"lon":139.71532331},{"name":"淀橋荘","province":"東京都","city":"新宿区","address":"東京都新宿区内藤町","lat":35.68528565,"lon":139.71532331},{"name":"あけの星学園","province":"東京都","city":"新宿区","address":"新宿区中落合1-7-1","lat":35.717259,"lon":139.690727},{"name":"ひまわりホーム","province":"東京都","city":"新宿区","address":"新宿区西新宿4-21-19","lat":35.687954,"lon":139.683782},{"name":"あじさいホーム","province":"東京都","city":"新宿区","address":"新宿区西早稲田1-11-10","lat":35.711098,"lon":139.722617},{"name":"諏訪ハウス","province":"東京都","city":"新宿区","address":"新宿区高田馬場1-15-6","lat":35.709909,"lon":139.706405},{"name":"新宿区","province":"東京都","city":"新宿区","address":"新宿区歌舞伎町1-4-1","lat":35.69389,"lon":139.703463},{"name":"シャロームみなみ風","province":"東京都","city":"新宿区","address":"新宿区弁天町32-6","lat":35.704142,"lon":139.727269},{"name":"障害者支援施設新宿けやき園","province":"東京都","city":"新宿区","address":"新宿区百人町4-5-1","lat":35.708158,"lon":139.698107},{"name":"東京都児童相談センター","province":"東京都","city":"新宿区","address":"新宿区北新宿4-6-1","lat":35.708274,"lon":139.693808},{"name":"東京都心身障害者福祉センター","province":"東京都","city":"新宿区","address":"新宿区神楽河岸1-1","lat":35.700951,"lon":139.743579},{"name":"けやき荘","province":"東京都","city":"新宿区","address":"東京都新宿区","lat":35.69388716,"lon":139.70341014},{"name":"あけの星学園","province":"東京都","city":"新宿区","address":"新宿区中落合1-7-1","lat":35.71737,"lon":139.69038},{"name":"ひまわりホーム","province":"東京都","city":"新宿区","address":"新宿区西新宿4-21-19","lat":35.68816,"lon":139.68472},{"name":"あじさいホーム","province":"東京都","city":"新宿区","address":"新宿区西早稲田1-11-10","lat":35.71098,"lon":139.72264},{"name":"諏訪ハウス","province":"東京都","city":"新宿区","address":"新宿区高田馬場1-15-6","lat":35.70984,"lon":139.70639},{"name":"新宿区","province":"東京都","city":"新宿区","address":"新宿区歌舞伎町1-4-1","lat":35.69392,"lon":139.70345},{"name":"東京都児童相談センター","province":"東京都","city":"新宿区","address":"新宿区北新宿4-6-1","lat":35.7081,"lon":139.69383},{"name":"東京都心身障害者福祉センター","province":"東京都","city":"新宿区","address":"新宿区神楽河岸1-1","lat":35.70095,"lon":139.74342},{"name":"けやき荘","province":"東京都","city":"新宿区","address":"東京都新宿区内藤町","lat":35.68528565,"lon":139.71532331},{"name":"淀橋荘","province":"東京都","city":"新宿区","address":"東京都新宿区内藤町","lat":35.68528565,"lon":139.71532331},{"name":"あけの星学園","province":"東京都","city":"新宿区","address":"新宿区中落合1-7-1","lat":35.717259,"lon":139.690727},{"name":"ひまわりホーム","province":"東京都","city":"新宿区","address":"新宿区西新宿4-21-19","lat":35.687954,"lon":139.683782},{"name":"あじさいホーム","province":"東京都","city":"新宿区","address":"新宿区西早稲田1-11-10","lat":35.711098,"lon":139.722617},{"name":"諏訪ハウス","province":"東京都","city":"新宿区","address":"新宿区高田馬場1-15-6","lat":35.709909,"lon":139.706405},{"name":"新宿区","province":"東京都","city":"新宿区","address":"新宿区歌舞伎町1-4-1","lat":35.69389,"lon":139.703463},{"name":"シャロームみなみ風","province":"東京都","city":"新宿区","address":"新宿区弁天町32-6","lat":35.704142,"lon":139.727269},{"name":"障害者支援施設新宿けやき園","province":"東京都","city":"新宿区","address":"新宿区百人町4-5-1","lat":35.708158,"lon":139.698107},{"name":"東京都児童相談センター","province":"東京都","city":"新宿区","address":"新宿区北新宿4-6-1","lat":35.708274,"lon":139.693808},{"name":"東京都心身障害者福祉センター","province":"東京都","city":"新宿区","address":"新宿区神楽河岸1-1","lat":35.700951,"lon":139.743579},{"name":"けやき荘","province":"東京都","city":"新宿区","address":"東京都新宿区","lat":35.69388716,"lon":139.70341014},{"name":"あけの星学園","province":"東京都","city":"新宿区","address":"新宿区中落合1-7-1","lat":35.71737,"lon":139.69038},{"name":"ひまわりホーム","province":"東京都","city":"新宿区","address":"新宿区西新宿4-21-19","lat":35.68816,"lon":139.68472},{"name":"あじさいホーム","province":"東京都","city":"新宿区","address":"新宿区西早稲田1-11-10","lat":35.71098,"lon":139.72264},{"name":"諏訪ハウス","province":"東京都","city":"新宿区","address":"新宿区高田馬場1-15-6","lat":35.70984,"lon":139.70639},{"name":"新宿区","province":"東京都","city":"新宿区","address":"新宿区歌舞伎町1-4-1","lat":35.69392,"lon":139.70345},{"name":"東京都児童相談センター","province":"東京都","city":"新宿区","address":"新宿区北新宿4-6-1","lat":35.7081,"lon":139.69383},{"name":"東京都心身障害者福祉センター","province":"東京都","city":"新宿区","address":"新宿区神楽河岸1-1","lat":35.70095,"lon":139.74342},{"name":"けやき荘","province":"東京都","city":"新宿区","address":"東京都新宿区内藤町","lat":35.68528565,"lon":139.71532331},{"name":"淀橋荘","province":"東京都","city":"新宿区","address":"東京都新宿区内藤町","lat":35.68528565,"lon":139.71532331},{"name":"あけの星学園","province":"東京都","city":"新宿区","address":"新宿区中落合1-7-1","lat":35.717259,"lon":139.690727},{"name":"ひまわりホーム","province":"東京都","city":"新宿区","address":"新宿区西新宿4-21-19","lat":35.687954,"lon":139.683782},{"name":"あじさいホーム","province":"東京都","city":"新宿区","address":"新宿区西早稲田1-11-10","lat":35.711098,"lon":139.722617},{"name":"諏訪ハウス","province":"東京都","city":"新宿区","address":"新宿区高田馬場1-15-6","lat":35.709909,"lon":139.706405},{"name":"新宿区","province":"東京都","city":"新宿区","address":"新宿区歌舞伎町1-4-1","lat":35.69389,"lon":139.703463},{"name":"シャロームみなみ風","province":"東京都","city":"新宿区","address":"新宿区弁天町32-6","lat":35.704142,"lon":139.727269},{"name":"障害者支援施設新宿けやき園","province":"東京都","city":"新宿区","address":"新宿区百人町4-5-1","lat":35.708158,"lon":139.698107},{"name":"東京都児童相談センター","province":"東京都","city":"新宿区","address":"新宿区北新宿4-6-1","lat":35.708274,"lon":139.693808},{"name":"東京都心身障害者福祉センター","province":"東京都","city":"新宿区","address":"新宿区神楽河岸1-1","lat":35.700951,"lon":139.743579},{"name":"けやき荘","province":"東京都","city":"新宿区","address":"東京都新宿区","lat":35.69388716,"lon":139.70341014},{"name":"あけの星学園","province":"東京都","city":"新宿区","address":"新宿区中落合1-7-1","lat":35.71737,"lon":139.69038},{"name":"ひまわりホーム","province":"東京都","city":"新宿区","address":"新宿区西新宿4-21-19","lat":35.68816,"lon":139.68472},{"name":"あじさいホーム","province":"東京都","city":"新宿区","address":"新宿区西早稲田1-11-10","lat":35.71098,"lon":139.72264},{"name":"諏訪ハウス","province":"東京都","city":"新宿区","address":"新宿区高田馬場1-15-6","lat":35.70984,"lon":139.70639},{"name":"新宿区","province":"東京都","city":"新宿区","address":"新宿区歌舞伎町1-4-1","lat":35.69392,"lon":139.70345},{"name":"東京都児童相談センター","province":"東京都","city":"新宿区","address":"新宿区北新宿4-6-1","lat":35.7081,"lon":139.69383},{"name":"東京都心身障害者福祉センター","province":"東京都","city":"新宿区","address":"新宿区神楽河岸1-1","lat":35.70095,"lon":139.74342},{"name":"けやき荘","province":"東京都","city":"新宿区","address":"東京都新宿区内藤町","lat":35.68528565,"lon":139.71532331},{"name":"淀橋荘","province":"東京都","city":"新宿区","address":"東京都新宿区内藤町","lat":35.68528565,"lon":139.71532331},{"name":"あけの星学園","province":"東京都","city":"新宿区","address":"新宿区中落合1-7-1","lat":35.717259,"lon":139.690727},{"name":"ひまわりホーム","province":"東京都","city":"新宿区","address":"新宿区西新宿4-21-19","lat":35.687954,"lon":139.683782},{"name":"あじさいホーム","province":"東京都","city":"新宿区","address":"新宿区西早稲田1-11-10","lat":35.711098,"lon":139.722617},{"name":"諏訪ハウス","province":"東京都","city":"新宿区","address":"新宿区高田馬場1-15-6","lat":35.709909,"lon":139.706405},{"name":"新宿区","province":"東京都","city":"新宿区","address":"新宿区歌舞伎町1-4-1","lat":35.69389,"lon":139.703463},{"name":"シャロームみなみ風","province":"東京都","city":"新宿区","address":"新宿区弁天町32-6","lat":35.704142,"lon":139.727269},{"name":"障害者支援施設新宿けやき園","province":"東京都","city":"新宿区","address":"新宿区百人町4-5-1","lat":35.708158,"lon":139.698107},{"name":"東京都児童相談センター","province":"東京都","city":"新宿区","address":"新宿区北新宿4-6-1","lat":35.708274,"lon":139.693808},{"name":"東京都心身障害者福祉センター","province":"東京都","city":"新宿区","address":"新宿区神楽河岸1-1","lat":35.700951,"lon":139.743579},{"name":"けやき荘","province":"東京都","city":"新宿区","address":"東京都新宿区","lat":35.69388716,"lon":139.70341014},{"name":"あけの星学園","province":"東京都","city":"新宿区","address":"新宿区中落合1-7-1","lat":35.71737,"lon":139.69038},{"name":"ひまわりホーム","province":"東京都","city":"新宿区","address":"新宿区西新宿4-21-19","lat":35.68816,"lon":139.68472},{"name":"あじさいホーム","province":"東京都","city":"新宿区","address":"新宿区西早稲田1-11-10","lat":35.71098,"lon":139.72264},{"name":"諏訪ハウス","province":"東京都","city":"新宿区","address":"新宿区高田馬場1-15-6","lat":35.70984,"lon":139.70639},{"name":"新宿区","province":"東京都","city":"新宿区","address":"新宿区歌舞伎町1-4-1","lat":35.69392,"lon":139.70345},{"name":"東京都児童相談センター","province":"東京都","city":"新宿区","address":"新宿区北新宿4-6-1","lat":35.7081,"lon":139.69383},{"name":"東京都心身障害者福祉センター","province":"東京都","city":"新宿区","address":"新宿区神楽河岸1-1","lat":35.70095,"lon":139.74342},{"name":"けやき荘","province":"東京都","city":"新宿区","address":"東京都新宿区内藤町","lat":35.68528565,"lon":139.71532331},{"name":"淀橋荘","province":"東京都","city":"新宿区","address":"東京都新宿区内藤町","lat":35.68528565,"lon":139.71532331},{"name":"あけの星学園","province":"東京都","city":"新宿区","address":"新宿区中落合1-7-1","lat":35.717259,"lon":139.690727},{"name":"ひまわりホーム","province":"東京都","city":"新宿区","address":"新宿区西新宿4-21-19","lat":35.687954,"lon":139.683782},{"name":"あじさいホーム","province":"東京都","city":"新宿区","address":"新宿区西早稲田1-11-10","lat":35.711098,"lon":139.722617},{"name":"諏訪ハウス","province":"東京都","city":"新宿区","address":"新宿区高田馬場1-15-6","lat":35.709909,"lon":139.706405},{"name":"新宿区","province":"東京都","city":"新宿区","address":"新宿区歌舞伎町1-4-1","lat":35.69389,"lon":139.703463},{"name":"シャロームみなみ風","province":"東京都","city":"新宿区","address":"新宿区弁天町32-6","lat":35.704142,"lon":139.727269},{"name":"障害者支援施設新宿けやき園","province":"東京都","city":"新宿区","address":"新宿区百人町4-5-1","lat":35.708158,"lon":139.698107},{"name":"東京都児童相談センター","province":"東京都","city":"新宿区","address":"新宿区北新宿4-6-1","lat":35.708274,"lon":139.693808},{"name":"東京都心身障害者福祉センター","province":"東京都","city":"新宿区","address":"新宿区神楽河岸1-1","lat":35.700951,"lon":139.743579},{"name":"けやき荘","province":"東京都","city":"新宿区","address":"東京都新宿区","lat":35.69388716,"lon":139.70341014},{"name":"あけの星学園","province":"東京都","city":"新宿区","address":"新宿区中落合1-7-1","lat":35.71737,"lon":139.69038},{"name":"ひまわりホーム","province":"東京都","city":"新宿区","address":"新宿区西新宿4-21-19","lat":35.68816,"lon":139.68472},{"name":"あじさいホーム","province":"東京都","city":"新宿区","address":"新宿区西早稲田1-11-10","lat":35.71098,"lon":139.72264},{"name":"諏訪ハウス","province":"東京都","city":"新宿区","address":"新宿区高田馬場1-15-6","lat":35.70984,"lon":139.70639},{"name":"新宿区","province":"東京都","city":"新宿区","address":"新宿区歌舞伎町1-4-1","lat":35.69392,"lon":139.70345},{"name":"東京都児童相談センター","province":"東京都","city":"新宿区","address":"新宿区北新宿4-6-1","lat":35.7081,"lon":139.69383},{"name":"東京都心身障害者福祉センター","province":"東京都","city":"新宿区","address":"新宿区神楽河岸1-1","lat":35.70095,"lon":139.74342},{"name":"けやき荘","province":"東京都","city":"新宿区","address":"東京都新宿区内藤町","lat":35.68528565,"lon":139.71532331},{"name":"淀橋荘","province":"東京都","city":"新宿区","address":"東京都新宿区内藤町","lat":35.68528565,"lon":139.71532331},{"name":"あけの星学園","province":"東京都","city":"新宿区","address":"新宿区中落合1-7-1","lat":35.717259,"lon":139.690727},{"name":"ひまわりホーム","province":"東京都","city":"新宿区","address":"新宿区西新宿4-21-19","lat":35.687954,"lon":139.683782},{"name":"あじさいホーム","province":"東京都","city":"新宿区","address":"新宿区西早稲田1-11-10","lat":35.711098,"lon":139.722617},{"name":"諏訪ハウス","province":"東京都","city":"新宿区","address":"新宿区高田馬場1-15-6","lat":35.709909,"lon":139.706405},{"name":"新宿区","province":"東京都","city":"新宿区","address":"新宿区歌舞伎町1-4-1","lat":35.69389,"lon":139.703463},{"name":"シャロームみなみ風","province":"東京都","city":"新宿区","address":"新宿区弁天町32-6","lat":35.704142,"lon":139.727269},{"name":"障害者支援施設新宿けやき園","province":"東京都","city":"新宿区","address":"新宿区百人町4-5-1","lat":35.708158,"lon":139.698107},{"name":"東京都児童相談センター","province":"東京都","city":"新宿区","address":"新宿区北新宿4-6-1","lat":35.708274,"lon":139.693808},{"name":"東京都心身障害者福祉センター","province":"東京都","city":"新宿区","address":"新宿区神楽河岸1-1","lat":35.700951,"lon":139.743579},{"name":"けやき荘","province":"東京都","city":"新宿区","address":"東京都新宿区","lat":35.69388716,"lon":139.70341014},{"name":"あけの星学園","province":"東京都","city":"新宿区","address":"新宿区中落合1-7-1","lat":35.71737,"lon":139.69038},{"name":"ひまわりホーム","province":"東京都","city":"新宿区","address":"新宿区西新宿4-21-19","lat":35.68816,"lon":139.68472},{"name":"あじさいホーム","province":"東京都","city":"新宿区","address":"新宿区西早稲田1-11-10","lat":35.71098,"lon":139.72264},{"name":"諏訪ハウス","province":"東京都","city":"新宿区","address":"新宿区高田馬場1-15-6","lat":35.70984,"lon":139.70639},{"name":"新宿区","province":"東京都","city":"新宿区","address":"新宿区歌舞伎町1-4-1","lat":35.69392,"lon":139.70345},{"name":"東京都児童相談センター","province":"東京都","city":"新宿区","address":"新宿区北新宿4-6-1","lat":35.7081,"lon":139.69383},{"name":"東京都心身障害者福祉センター","province":"東京都","city":"新宿区","address":"新宿区神楽河岸1-1","lat":35.70095,"lon":139.74342},{"name":"けやき荘","province":"東京都","city":"新宿区","address":"東京都新宿区内藤町","lat":35.68528565,"lon":139.71532331},{"name":"淀橋荘","province":"東京都","city":"新宿区","address":"東京都新宿区内藤町","lat":35.68528565,"lon":139.71532331},{"name":"あけの星学園","province":"東京都","city":"新宿区","address":"新宿区中落合1-7-1","lat":35.717259,"lon":139.690727},{"name":"ひまわりホーム","province":"東京都","city":"新宿区","address":"新宿区西新宿4-21-19","lat":35.687954,"lon":139.683782},{"name":"あじさいホーム","province":"東京都","city":"新宿区","address":"新宿区西早稲田1-11-10","lat":35.711098,"lon":139.722617},{"name":"諏訪ハウス","province":"東京都","city":"新宿区","address":"新宿区高田馬場1-15-6","lat":35.709909,"lon":139.706405},{"name":"新宿区","province":"東京都","city":"新宿区","address":"新宿区歌舞伎町1-4-1","lat":35.69389,"lon":139.703463},{"name":"シャロームみなみ風","province":"東京都","city":"新宿区","address":"新宿区弁天町32-6","lat":35.704142,"lon":139.727269},{"name":"障害者支援施設新宿けやき園","province":"東京都","city":"新宿区","address":"新宿区百人町4-5-1","lat":35.708158,"lon":139.698107},{"name":"東京都児童相談センター","province":"東京都","city":"新宿区","address":"新宿区北新宿4-6-1","lat":35.708274,"lon":139.693808},{"name":"東京都心身障害者福祉センター","province":"東京都","city":"新宿区","address":"新宿区神楽河岸1-1","lat":35.700951,"lon":139.743579},{"name":"けやき荘","province":"東京都","city":"新宿区","address":"東京都新宿区","lat":35.69388716,"lon":139.70341014},{"name":"あけの星学園","province":"東京都","city":"新宿区","address":"新宿区中落合1-7-1","lat":35.71737,"lon":139.69038},{"name":"ひまわりホーム","province":"東京都","city":"新宿区","address":"新宿区西新宿4-21-19","lat":35.68816,"lon":139.68472},{"name":"あじさいホーム","province":"東京都","city":"新宿区","address":"新宿区西早稲田1-11-10","lat":35.71098,"lon":139.72264},{"name":"諏訪ハウス","province":"東京都","city":"新宿区","address":"新宿区高田馬場1-15-6","lat":35.70984,"lon":139.70639},{"name":"新宿区","province":"東京都","city":"新宿区","address":"新宿区歌舞伎町1-4-1","lat":35.69392,"lon":139.70345},{"name":"東京都児童相談センター","province":"東京都","city":"新宿区","address":"新宿区北新宿4-6-1","lat":35.7081,"lon":139.69383},{"name":"東京都心身障害者福祉センター","province":"東京都","city":"新宿区","address":"新宿区神楽河岸1-1","lat":35.70095,"lon":139.74342},{"name":"けやき荘","province":"東京都","city":"新宿区","address":"東京都新宿区内藤町","lat":35.68528565,"lon":139.71532331},{"name":"淀橋荘","province":"東京都","city":"新宿区","address":"東京都新宿区内藤町","lat":35.68528565,"lon":139.71532331},{"name":"あけの星学園","province":"東京都","city":"新宿区","address":"新宿区中落合1-7-1","lat":35.717259,"lon":139.690727},{"name":"ひまわりホーム","province":"東京都","city":"新宿区","address":"新宿区西新宿4-21-19","lat":35.687954,"lon":139.683782},{"name":"あじさいホーム","province":"東京都","city":"新宿区","address":"新宿区西早稲田1-11-10","lat":35.711098,"lon":139.722617},{"name":"諏訪ハウス","province":"東京都","city":"新宿区","address":"新宿区高田馬場1-15-6","lat":35.709909,"lon":139.706405},{"name":"新宿区","province":"東京都","city":"新宿区","address":"新宿区歌舞伎町1-4-1","lat":35.69389,"lon":139.703463},{"name":"シャロームみなみ風","province":"東京都","city":"新宿区","address":"新宿区弁天町32-6","lat":35.704142,"lon":139.727269},{"name":"障害者支援施設新宿けやき園","province":"東京都","city":"新宿区","address":"新宿区百人町4-5-1","lat":35.708158,"lon":139.698107},{"name":"東京都児童相談センター","province":"東京都","city":"新宿区","address":"新宿区北新宿4-6-1","lat":35.708274,"lon":139.693808},{"name":"東京都心身障害者福祉センター","province":"東京都","city":"新宿区","address":"新宿区神楽河岸1-1","lat":35.700951,"lon":139.743579},{"name":"けやき荘","province":"東京都","city":"新宿区","address":"東京都新宿区","lat":35.69388716,"lon":139.70341014},{"name":"あけの星学園","province":"東京都","city":"新宿区","address":"新宿区中落合1-7-1","lat":35.71737,"lon":139.69038},{"name":"ひまわりホーム","province":"東京都","city":"新宿区","address":"新宿区西新宿4-21-19","lat":35.68816,"lon":139.68472},{"name":"あじさいホーム","province":"東京都","city":"新宿区","address":"新宿区西早稲田1-11-10","lat":35.71098,"lon":139.72264},{"name":"諏訪ハウス","province":"東京都","city":"新宿区","address":"新宿区高田馬場1-15-6","lat":35.70984,"lon":139.70639},{"name":"新宿区","province":"東京都","city":"新宿区","address":"新宿区歌舞伎町1-4-1","lat":35.69392,"lon":139.70345},{"name":"東京都児童相談センター","province":"東京都","city":"新宿区","address":"新宿区北新宿4-6-1","lat":35.7081,"lon":139.69383},{"name":"東京都心身障害者福祉センター","province":"東京都","city":"新宿区","address":"新宿区神楽河岸1-1","lat":35.70095,"lon":139.74342},{"name":"けやき荘","province":"東京都","city":"新宿区","address":"東京都新宿区内藤町","lat":35.68528565,"lon":139.71532331},{"name":"淀橋荘","province":"東京都","city":"新宿区","address":"東京都新宿区内藤町","lat":35.68528565,"lon":139.71532331},{"name":"あけの星学園","province":"東京都","city":"新宿区","address":"新宿区中落合1-7-1","lat":35.717259,"lon":139.690727},{"name":"ひまわりホーム","province":"東京都","city":"新宿区","address":"新宿区西新宿4-21-19","lat":35.687954,"lon":139.683782},{"name":"あじさいホーム","province":"東京都","city":"新宿区","address":"新宿区西早稲田1-11-10","lat":35.711098,"lon":139.722617},{"name":"諏訪ハウス","province":"東京都","city":"新宿区","address":"新宿区高田馬場1-15-6","lat":35.709909,"lon":139.706405},{"name":"新宿区","province":"東京都","city":"新宿区","address":"新宿区歌舞伎町1-4-1","lat":35.69389,"lon":139.703463},{"name":"シャロームみなみ風","province":"東京都","city":"新宿区","address":"新宿区弁天町32-6","lat":35.704142,"lon":139.727269},{"name":"障害者支援施設新宿けやき園","province":"東京都","city":"新宿区","address":"新宿区百人町4-5-1","lat":35.708158,"lon":139.698107},{"name":"東京都児童相談センター","province":"東京都","city":"新宿区","address":"新宿区北新宿4-6-1","lat":35.708274,"lon":139.693808},{"name":"東京都心身障害者福祉センター","province":"東京都","city":"新宿区","address":"新宿区神楽河岸1-1","lat":35.700951,"lon":139.743579},{"name":"けやき荘","province":"東京都","city":"新宿区","address":"東京都新宿区","lat":35.69388716,"lon":139.70341014},{"name":"あけの星学園","province":"東京都","city":"新宿区","address":"新宿区中落合1-7-1","lat":35.71737,"lon":139.69038},{"name":"ひまわりホーム","province":"東京都","city":"新宿区","address":"新宿区西新宿4-21-19","lat":35.68816,"lon":139.68472},{"name":"あじさいホーム","province":"東京都","city":"新宿区","address":"新宿区西早稲田1-11-10","lat":35.71098,"lon":139.72264},{"name":"諏訪ハウス","province":"東京都","city":"新宿区","address":"新宿区高田馬場1-15-6","lat":35.70984,"lon":139.70639},{"name":"新宿区","province":"東京都","city":"新宿区","address":"新宿区歌舞伎町1-4-1","lat":35.69392,"lon":139.70345},{"name":"東京都児童相談センター","province":"東京都","city":"新宿区","address":"新宿区北新宿4-6-1","lat":35.7081,"lon":139.69383},{"name":"東京都心身障害者福祉センター","province":"東京都","city":"新宿区","address":"新宿区神楽河岸1-1","lat":35.70095,"lon":139.74342},{"name":"けやき荘","province":"東京都","city":"新宿区","address":"東京都新宿区内藤町","lat":35.68528565,"lon":139.71532331},{"name":"淀橋荘","province":"東京都","city":"新宿区","address":"東京都新宿区内藤町","lat":35.68528565,"lon":139.71532331},{"name":"あけの星学園","province":"東京都","city":"新宿区","address":"新宿区中落合1-7-1","lat":35.717259,"lon":139.690727},{"name":"ひまわりホーム","province":"東京都","city":"新宿区","address":"新宿区西新宿4-21-19","lat":35.687954,"lon":139.683782},{"name":"あじさいホーム","province":"東京都","city":"新宿区","address":"新宿区西早稲田1-11-10","lat":35.711098,"lon":139.722617},{"name":"諏訪ハウス","province":"東京都","city":"新宿区","address":"新宿区高田馬場1-15-6","lat":35.709909,"lon":139.706405},{"name":"新宿区","province":"東京都","city":"新宿区","address":"新宿区歌舞伎町1-4-1","lat":35.69389,"lon":139.703463},{"name":"シャロームみなみ風","province":"東京都","city":"新宿区","address":"新宿区弁天町32-6","lat":35.704142,"lon":139.727269},{"name":"障害者支援施設新宿けやき園","province":"東京都","city":"新宿区","address":"新宿区百人町4-5-1","lat":35.708158,"lon":139.698107},{"name":"東京都児童相談センター","province":"東京都","city":"新宿区","address":"新宿区北新宿4-6-1","lat":35.708274,"lon":139.693808},{"name":"東京都心身障害者福祉センター","province":"東京都","city":"新宿区","address":"新宿区神楽河岸1-1","lat":35.700951,"lon":139.743579},{"name":"けやき荘","province":"東京都","city":"新宿区","address":"東京都新宿区","lat":35.69388716,"lon":139.70341014},{"name":"あけの星学園","province":"東京都","city":"新宿区","address":"新宿区中落合1-7-1","lat":35.71737,"lon":139.69038},{"name":"ひまわりホーム","province":"東京都","city":"新宿区","address":"新宿区西新宿4-21-19","lat":35.68816,"lon":139.68472},{"name":"あじさいホーム","province":"東京都","city":"新宿区","address":"新宿区西早稲田1-11-10","lat":35.71098,"lon":139.72264},{"name":"諏訪ハウス","province":"東京都","city":"新宿区","address":"新宿区高田馬場1-15-6","lat":35.70984,"lon":139.70639},{"name":"新宿区","province":"東京都","city":"新宿区","address":"新宿区歌舞伎町1-4-1","lat":35.69392,"lon":139.70345},{"name":"東京都児童相談センター","province":"東京都","city":"新宿区","address":"新宿区北新宿4-6-1","lat":35.7081,"lon":139.69383},{"name":"東京都心身障害者福祉センター","province":"東京都","city":"新宿区","address":"新宿区神楽河岸1-1","lat":35.70095,"lon":139.74342},{"name":"けやき荘","province":"東京都","city":"新宿区","address":"東京都新宿区内藤町","lat":35.68528565,"lon":139.71532331},{"name":"淀橋荘","province":"東京都","city":"新宿区","address":"東京都新宿区内藤町","lat":35.68528565,"lon":139.71532331},{"name":"あけの星学園","province":"東京都","city":"新宿区","address":"新宿区中落合1-7-1","lat":35.717259,"lon":139.690727},{"name":"ひまわりホーム","province":"東京都","city":"新宿区","address":"新宿区西新宿4-21-19","lat":35.687954,"lon":139.683782},{"name":"あじさいホーム","province":"東京都","city":"新宿区","address":"新宿区西早稲田1-11-10","lat":35.711098,"lon":139.722617},{"name":"諏訪ハウス","province":"東京都","city":"新宿区","address":"新宿区高田馬場1-15-6","lat":35.709909,"lon":139.706405},{"name":"新宿区","province":"東京都","city":"新宿区","address":"新宿区歌舞伎町1-4-1","lat":35.69389,"lon":139.703463},{"name":"シャロームみなみ風","province":"東京都","city":"新宿区","address":"新宿区弁天町32-6","lat":35.704142,"lon":139.727269},{"name":"障害者支援施設新宿けやき園","province":"東京都","city":"新宿区","address":"新宿区百人町4-5-1","lat":35.708158,"lon":139.698107},{"name":"東京都児童相談センター","province":"東京都","city":"新宿区","address":"新宿区北新宿4-6-1","lat":35.708274,"lon":139.693808},{"name":"東京都心身障害者福祉センター","province":"東京都","city":"新宿区","address":"新宿区神楽河岸1-1","lat":35.700951,"lon":139.743579},{"name":"けやき荘","province":"東京都","city":"新宿区","address":"東京都新宿区","lat":35.69388716,"lon":139.70341014},{"name":"あけの星学園","province":"東京都","city":"新宿区","address":"新宿区中落合1-7-1","lat":35.71737,"lon":139.69038},{"name":"ひまわりホーム","province":"東京都","city":"新宿区","address":"新宿区西新宿4-21-19","lat":35.68816,"lon":139.68472},{"name":"あじさいホーム","province":"東京都","city":"新宿区","address":"新宿区西早稲田1-11-10","lat":35.71098,"lon":139.72264},{"name":"諏訪ハウス","province":"東京都","city":"新宿区","address":"新宿区高田馬場1-15-6","lat":35.70984,"lon":139.70639},{"name":"新宿区","province":"東京都","city":"新宿区","address":"新宿区歌舞伎町1-4-1","lat":35.69392,"lon":139.70345},{"name":"東京都児童相談センター","province":"東京都","city":"新宿区","address":"新宿区北新宿4-6-1","lat":35.7081,"lon":139.69383},{"name":"東京都心身障害者福祉センター","province":"東京都","city":"新宿区","address":"新宿区神楽河岸1-1","lat":35.70095,"lon":139.74342},{"name":"けやき荘","province":"東京都","city":"新宿区","address":"東京都新宿区内藤町","lat":35.68528565,"lon":139.71532331},{"name":"淀橋荘","province":"東京都","city":"新宿区","address":"東京都新宿区内藤町","lat":35.68528565,"lon":139.71532331},{"name":"あけの星学園","province":"東京都","city":"新宿区","address":"新宿区中落合1-7-1","lat":35.717259,"lon":139.690727},{"name":"ひまわりホーム","province":"東京都","city":"新宿区","address":"新宿区西新宿4-21-19","lat":35.687954,"lon":139.683782},{"name":"あじさいホーム","province":"東京都","city":"新宿区","address":"新宿区西早稲田1-11-10","lat":35.711098,"lon":139.722617},{"name":"諏訪ハウス","province":"東京都","city":"新宿区","address":"新宿区高田馬場1-15-6","lat":35.709909,"lon":139.706405},{"name":"新宿区","province":"東京都","city":"新宿区","address":"新宿区歌舞伎町1-4-1","lat":35.69389,"lon":139.703463},{"name":"シャロームみなみ風","province":"東京都","city":"新宿区","address":"新宿区弁天町32-6","lat":35.704142,"lon":139.727269},{"name":"障害者支援施設新宿けやき園","province":"東京都","city":"新宿区","address":"新宿区百人町4-5-1","lat":35.708158,"lon":139.698107},{"name":"東京都児童相談センター","province":"東京都","city":"新宿区","address":"新宿区北新宿4-6-1","lat":35.708274,"lon":139.693808},{"name":"東京都心身障害者福祉センター","province":"東京都","city":"新宿区","address":"新宿区神楽河岸1-1","lat":35.700951,"lon":139.743579},{"name":"けやき荘","province":"東京都","city":"新宿区","address":"東京都新宿区","lat":35.69388716,"lon":139.70341014},{"name":"あけの星学園","province":"東京都","city":"新宿区","address":"新宿区中落合1-7-1","lat":35.71737,"lon":139.69038},{"name":"ひまわりホーム","province":"東京都","city":"新宿区","address":"新宿区西新宿4-21-19","lat":35.68816,"lon":139.68472},{"name":"あじさいホーム","province":"東京都","city":"新宿区","address":"新宿区西早稲田1-11-10","lat":35.71098,"lon":139.72264},{"name":"諏訪ハウス","province":"東京都","city":"新宿区","address":"新宿区高田馬場1-15-6","lat":35.70984,"lon":139.70639},{"name":"新宿区","province":"東京都","city":"新宿区","address":"新宿区歌舞伎町1-4-1","lat":35.69392,"lon":139.70345},{"name":"東京都児童相談センター","province":"東京都","city":"新宿区","address":"新宿区北新宿4-6-1","lat":35.7081,"lon":139.69383},{"name":"東京都心身障害者福祉センター","province":"東京都","city":"新宿区","address":"新宿区神楽河岸1-1","lat":35.70095,"lon":139.74342},{"name":"けやき荘","province":"東京都","city":"新宿区","address":"東京都新宿区内藤町","lat":35.68528565,"lon":139.71532331},{"name":"淀橋荘","province":"東京都","city":"新宿区","address":"東京都新宿区内藤町","lat":35.68528565,"lon":139.71532331},{"name":"あけの星学園","province":"東京都","city":"新宿区","address":"新宿区中落合1-7-1","lat":35.717259,"lon":139.690727},{"name":"ひまわりホーム","province":"東京都","city":"新宿区","address":"新宿区西新宿4-21-19","lat":35.687954,"lon":139.683782},{"name":"あじさいホーム","province":"東京都","city":"新宿区","address":"新宿区西早稲田1-11-10","lat":35.711098,"lon":139.722617},{"name":"諏訪ハウス","province":"東京都","city":"新宿区","address":"新宿区高田馬場1-15-6","lat":35.709909,"lon":139.706405},{"name":"新宿区","province":"東京都","city":"新宿区","address":"新宿区歌舞伎町1-4-1","lat":35.69389,"lon":139.703463},{"name":"シャロームみなみ風","province":"東京都","city":"新宿区","address":"新宿区弁天町32-6","lat":35.704142,"lon":139.727269},{"name":"障害者支援施設新宿けやき園","province":"東京都","city":"新宿区","address":"新宿区百人町4-5-1","lat":35.708158,"lon":139.698107},{"name":"東京都児童相談センター","province":"東京都","city":"新宿区","address":"新宿区北新宿4-6-1","lat":35.708274,"lon":139.693808},{"name":"東京都心身障害者福祉センター","province":"東京都","city":"新宿区","address":"新宿区神楽河岸1-1","lat":35.700951,"lon":139.743579},{"name":"けやき荘","province":"東京都","city":"新宿区","address":"東京都新宿区","lat":35.69388716,"lon":139.70341014},{"name":"あけの星学園","province":"東京都","city":"新宿区","address":"新宿区中落合1-7-1","lat":35.71737,"lon":139.69038},{"name":"ひまわりホーム","province":"東京都","city":"新宿区","address":"新宿区西新宿4-21-19","lat":35.68816,"lon":139.68472},{"name":"あじさいホーム","province":"東京都","city":"新宿区","address":"新宿区西早稲田1-11-10","lat":35.71098,"lon":139.72264},{"name":"諏訪ハウス","province":"東京都","city":"新宿区","address":"新宿区高田馬場1-15-6","lat":35.70984,"lon":139.70639},{"name":"新宿区","province":"東京都","city":"新宿区","address":"新宿区歌舞伎町1-4-1","lat":35.69392,"lon":139.70345},{"name":"東京都児童相談センター","province":"東京都","city":"新宿区","address":"新宿区北新宿4-6-1","lat":35.7081,"lon":139.69383},{"name":"東京都心身障害者福祉センター","province":"東京都","city":"新宿区","address":"新宿区神楽河岸1-1","lat":35.70095,"lon":139.74342},{"name":"けやき荘","province":"東京都","city":"新宿区","address":"東京都新宿区内藤町","lat":35.68528565,"lon":139.71532331},{"name":"淀橋荘","province":"東京都","city":"新宿区","address":"東京都新宿区内藤町","lat":35.68528565,"lon":139.71532331},{"name":"あけの星学園","province":"東京都","city":"新宿区","address":"新宿区中落合1-7-1","lat":35.717259,"lon":139.690727},{"name":"ひまわりホーム","province":"東京都","city":"新宿区","address":"新宿区西新宿4-21-19","lat":35.687954,"lon":139.683782},{"name":"あじさいホーム","province":"東京都","city":"新宿区","address":"新宿区西早稲田1-11-10","lat":35.711098,"lon":139.722617},{"name":"諏訪ハウス","province":"東京都","city":"新宿区","address":"新宿区高田馬場1-15-6","lat":35.709909,"lon":139.706405},{"name":"新宿区","province":"東京都","city":"新宿区","address":"新宿区歌舞伎町1-4-1","lat":35.69389,"lon":139.703463},{"name":"シャロームみなみ風","province":"東京都","city":"新宿区","address":"新宿区弁天町32-6","lat":35.704142,"lon":139.727269},{"name":"障害者支援施設新宿けやき園","province":"東京都","city":"新宿区","address":"新宿区百人町4-5-1","lat":35.708158,"lon":139.698107},{"name":"東京都児童相談センター","province":"東京都","city":"新宿区","address":"新宿区北新宿4-6-1","lat":35.708274,"lon":139.693808},{"name":"東京都心身障害者福祉センター","province":"東京都","city":"新宿区","address":"新宿区神楽河岸1-1","lat":35.700951,"lon":139.743579},{"name":"けやき荘","province":"東京都","city":"新宿区","address":"東京都新宿区","lat":35.69388716,"lon":139.70341014},{"name":"あけの星学園","province":"東京都","city":"新宿区","address":"新宿区中落合1-7-1","lat":35.71737,"lon":139.69038},{"name":"ひまわりホーム","province":"東京都","city":"新宿区","address":"新宿区西新宿4-21-19","lat":35.68816,"lon":139.68472},{"name":"あじさいホーム","province":"東京都","city":"新宿区","address":"新宿区西早稲田1-11-10","lat":35.71098,"lon":139.72264},{"name":"諏訪ハウス","province":"東京都","city":"新宿区","address":"新宿区高田馬場1-15-6","lat":35.70984,"lon":139.70639},{"name":"新宿区","province":"東京都","city":"新宿区","address":"新宿区歌舞伎町1-4-1","lat":35.69392,"lon":139.70345},{"name":"東京都児童相談センター","province":"東京都","city":"新宿区","address":"新宿区北新宿4-6-1","lat":35.7081,"lon":139.69383},{"name":"東京都心身障害者福祉センター","province":"東京都","city":"新宿区","address":"新宿区神楽河岸1-1","lat":35.70095,"lon":139.74342},{"name":"けやき荘","province":"東京都","city":"新宿区","address":"東京都新宿区内藤町","lat":35.68528565,"lon":139.71532331},{"name":"淀橋荘","province":"東京都","city":"新宿区","address":"東京都新宿区内藤町","lat":35.68528565,"lon":139.71532331},{"name":"あけの星学園","province":"東京都","city":"新宿区","address":"新宿区中落合1-7-1","lat":35.717259,"lon":139.690727},{"name":"ひまわりホーム","province":"東京都","city":"新宿区","address":"新宿区西新宿4-21-19","lat":35.687954,"lon":139.683782},{"name":"あじさいホーム","province":"東京都","city":"新宿区","address":"新宿区西早稲田1-11-10","lat":35.711098,"lon":139.722617},{"name":"諏訪ハウス","province":"東京都","city":"新宿区","address":"新宿区高田馬場1-15-6","lat":35.709909,"lon":139.706405},{"name":"新宿区","province":"東京都","city":"新宿区","address":"新宿区歌舞伎町1-4-1","lat":35.69389,"lon":139.703463},{"name":"シャロームみなみ風","province":"東京都","city":"新宿区","address":"新宿区弁天町32-6","lat":35.704142,"lon":139.727269},{"name":"障害者支援施設新宿けやき園","province":"東京都","city":"新宿区","address":"新宿区百人町4-5-1","lat":35.708158,"lon":139.698107},{"name":"東京都児童相談センター","province":"東京都","city":"新宿区","address":"新宿区北新宿4-6-1","lat":35.708274,"lon":139.693808},{"name":"東京都心身障害者福祉センター","province":"東京都","city":"新宿区","address":"新宿区神楽河岸1-1","lat":35.700951,"lon":139.743579},{"name":"けやき荘","province":"東京都","city":"新宿区","address":"東京都新宿区","lat":35.69388716,"lon":139.70341014},{"name":"あけの星学園","province":"東京都","city":"新宿区","address":"新宿区中落合1-7-1","lat":35.71737,"lon":139.69038},{"name":"ひまわりホーム","province":"東京都","city":"新宿区","address":"新宿区西新宿4-21-19","lat":35.68816,"lon":139.68472},{"name":"あじさいホーム","province":"東京都","city":"新宿区","address":"新宿区西早稲田1-11-10","lat":35.71098,"lon":139.72264},{"name":"諏訪ハウス","province":"東京都","city":"新宿区","address":"新宿区高田馬場1-15-6","lat":35.70984,"lon":139.70639},{"name":"新宿区","province":"東京都","city":"新宿区","address":"新宿区歌舞伎町1-4-1","lat":35.69392,"lon":139.70345},{"name":"東京都児童相談センター","province":"東京都","city":"新宿区","address":"新宿区北新宿4-6-1","lat":35.7081,"lon":139.69383},{"name":"東京都心身障害者福祉センター","province":"東京都","city":"新宿区","address":"新宿区神楽河岸1-1","lat":35.70095,"lon":139.74342},{"name":"けやき荘","province":"東京都","city":"新宿区","address":"東京都新宿区内藤町","lat":35.68528565,"lon":139.71532331},{"name":"淀橋荘","province":"東京都","city":"新宿区","address":"東京都新宿区内藤町","lat":35.68528565,"lon":139.71532331},{"name":"あけの星学園","province":"東京都","city":"新宿区","address":"新宿区中落合1-7-1","lat":35.717259,"lon":139.690727},{"name":"ひまわりホーム","province":"東京都","city":"新宿区","address":"新宿区西新宿4-21-19","lat":35.687954,"lon":139.683782},{"name":"あじさいホーム","province":"東京都","city":"新宿区","address":"新宿区西早稲田1-11-10","lat":35.711098,"lon":139.722617},{"name":"諏訪ハウス","province":"東京都","city":"新宿区","address":"新宿区高田馬場1-15-6","lat":35.709909,"lon":139.706405},{"name":"新宿区","province":"東京都","city":"新宿区","address":"新宿区歌舞伎町1-4-1","lat":35.69389,"lon":139.703463},{"name":"シャロームみなみ風","province":"東京都","city":"新宿区","address":"新宿区弁天町32-6","lat":35.704142,"lon":139.727269},{"name":"障害者支援施設新宿けやき園","province":"東京都","city":"新宿区","address":"新宿区百人町4-5-1","lat":35.708158,"lon":139.698107},{"name":"東京都児童相談センター","province":"東京都","city":"新宿区","address":"新宿区北新宿4-6-1","lat":35.708274,"lon":139.693808},{"name":"東京都心身障害者福祉センター","province":"東京都","city":"新宿区","address":"新宿区神楽河岸1-1","lat":35.700951,"lon":139.743579},{"name":"けやき荘","province":"東京都","city":"新宿区","address":"東京都新宿区","lat":35.69388716,"lon":139.70341014},{"name":"あけの星学園","province":"東京都","city":"新宿区","address":"新宿区中落合1-7-1","lat":35.71737,"lon":139.69038},{"name":"ひまわりホーム","province":"東京都","city":"新宿区","address":"新宿区西新宿4-21-19","lat":35.68816,"lon":139.68472},{"name":"あじさいホーム","province":"東京都","city":"新宿区","address":"新宿区西早稲田1-11-10","lat":35.71098,"lon":139.72264},{"name":"諏訪ハウス","province":"東京都","city":"新宿区","address":"新宿区高田馬場1-15-6","lat":35.70984,"lon":139.70639},{"name":"新宿区","province":"東京都","city":"新宿区","address":"新宿区歌舞伎町1-4-1","lat":35.69392,"lon":139.70345},{"name":"東京都児童相談センター","province":"東京都","city":"新宿区","address":"新宿区北新宿4-6-1","lat":35.7081,"lon":139.69383},{"name":"東京都心身障害者福祉センター","province":"東京都","city":"新宿区","address":"新宿区神楽河岸1-1","lat":35.70095,"lon":139.74342},{"name":"けやき荘","province":"東京都","city":"新宿区","address":"東京都新宿区内藤町","lat":35.68528565,"lon":139.71532331},{"name":"淀橋荘","province":"東京都","city":"新宿区","address":"東京都新宿区内藤町","lat":35.68528565,"lon":139.71532331},{"name":"あけの星学園","province":"東京都","city":"新宿区","address":"新宿区中落合1-7-1","lat":35.717259,"lon":139.690727},{"name":"ひまわりホーム","province":"東京都","city":"新宿区","address":"新宿区西新宿4-21-19","lat":35.687954,"lon":139.683782},{"name":"あじさいホーム","province":"東京都","city":"新宿区","address":"新宿区西早稲田1-11-10","lat":35.711098,"lon":139.722617},{"name":"諏訪ハウス","province":"東京都","city":"新宿区","address":"新宿区高田馬場1-15-6","lat":35.709909,"lon":139.706405},{"name":"新宿区","province":"東京都","city":"新宿区","address":"新宿区歌舞伎町1-4-1","lat":35.69389,"lon":139.703463},{"name":"シャロームみなみ風","province":"東京都","city":"新宿区","address":"新宿区弁天町32-6","lat":35.704142,"lon":139.727269},{"name":"障害者支援施設新宿けやき園","province":"東京都","city":"新宿区","address":"新宿区百人町4-5-1","lat":35.708158,"lon":139.698107},{"name":"東京都児童相談センター","province":"東京都","city":"新宿区","address":"新宿区北新宿4-6-1","lat":35.708274,"lon":139.693808},{"name":"東京都心身障害者福祉センター","province":"東京都","city":"新宿区","address":"新宿区神楽河岸1-1","lat":35.700951,"lon":139.743579},{"name":"けやき荘","province":"東京都","city":"新宿区","address":"東京都新宿区","lat":35.69388716,"lon":139.70341014},{"name":"あけの星学園","province":"東京都","city":"新宿区","address":"新宿区中落合1-7-1","lat":35.71737,"lon":139.69038},{"name":"ひまわりホーム","province":"東京都","city":"新宿区","address":"新宿区西新宿4-21-19","lat":35.68816,"lon":139.68472},{"name":"あじさいホーム","province":"東京都","city":"新宿区","address":"新宿区西早稲田1-11-10","lat":35.71098,"lon":139.72264},{"name":"諏訪ハウス","province":"東京都","city":"新宿区","address":"新宿区高田馬場1-15-6","lat":35.70984,"lon":139.70639},{"name":"新宿区","province":"東京都","city":"新宿区","address":"新宿区歌舞伎町1-4-1","lat":35.69392,"lon":139.70345},{"name":"東京都児童相談センター","province":"東京都","city":"新宿区","address":"新宿区北新宿4-6-1","lat":35.7081,"lon":139.69383},{"name":"東京都心身障害者福祉センター","province":"東京都","city":"新宿区","address":"新宿区神楽河岸1-1","lat":35.70095,"lon":139.74342},{"name":"けやき荘","province":"東京都","city":"新宿区","address":"東京都新宿区内藤町","lat":35.68528565,"lon":139.71532331},{"name":"淀橋荘","province":"東京都","city":"新宿区","address":"東京都新宿区内藤町","lat":35.68528565,"lon":139.71532331},{"name":"あけの星学園","province":"東京都","city":"新宿区","address":"新宿区中落合1-7-1","lat":35.717259,"lon":139.690727},{"name":"ひまわりホーム","province":"東京都","city":"新宿区","address":"新宿区西新宿4-21-19","lat":35.687954,"lon":139.683782},{"name":"あじさいホーム","province":"東京都","city":"新宿区","address":"新宿区西早稲田1-11-10","lat":35.711098,"lon":139.722617},{"name":"諏訪ハウス","province":"東京都","city":"新宿区","address":"新宿区高田馬場1-15-6","lat":35.709909,"lon":139.706405},{"name":"新宿区","province":"東京都","city":"新宿区","address":"新宿区歌舞伎町1-4-1","lat":35.69389,"lon":139.703463},{"name":"シャロームみなみ風","province":"東京都","city":"新宿区","address":"新宿区弁天町32-6","lat":35.704142,"lon":139.727269},{"name":"障害者支援施設新宿けやき園","province":"東京都","city":"新宿区","address":"新宿区百人町4-5-1","lat":35.708158,"lon":139.698107},{"name":"東京都児童相談センター","province":"東京都","city":"新宿区","address":"新宿区北新宿4-6-1","lat":35.708274,"lon":139.693808},{"name":"東京都心身障害者福祉センター","province":"東京都","city":"新宿区","address":"新宿区神楽河岸1-1","lat":35.700951,"lon":139.743579},{"name":"けやき荘","province":"東京都","city":"新宿区","address":"東京都新宿区","lat":35.69388716,"lon":139.70341014},{"name":"あけの星学園","province":"東京都","city":"新宿区","address":"新宿区中落合1-7-1","lat":35.71737,"lon":139.69038},{"name":"ひまわりホーム","province":"東京都","city":"新宿区","address":"新宿区西新宿4-21-19","lat":35.68816,"lon":139.68472},{"name":"あじさいホーム","province":"東京都","city":"新宿区","address":"新宿区西早稲田1-11-10","lat":35.71098,"lon":139.72264},{"name":"諏訪ハウス","province":"東京都","city":"新宿区","address":"新宿区高田馬場1-15-6","lat":35.70984,"lon":139.70639},{"name":"新宿区","province":"東京都","city":"新宿区","address":"新宿区歌舞伎町1-4-1","lat":35.69392,"lon":139.70345},{"name":"東京都児童相談センター","province":"東京都","city":"新宿区","address":"新宿区北新宿4-6-1","lat":35.7081,"lon":139.69383},{"name":"東京都心身障害者福祉センター","province":"東京都","city":"新宿区","address":"新宿区神楽河岸1-1","lat":35.70095,"lon":139.74342},{"name":"けやき荘","province":"東京都","city":"新宿区","address":"東京都新宿区内藤町","lat":35.68528565,"lon":139.71532331},{"name":"淀橋荘","province":"東京都","city":"新宿区","address":"東京都新宿区内藤町","lat":35.68528565,"lon":139.71532331},{"name":"あけの星学園","province":"東京都","city":"新宿区","address":"新宿区中落合1-7-1","lat":35.717259,"lon":139.690727},{"name":"ひまわりホーム","province":"東京都","city":"新宿区","address":"新宿区西新宿4-21-19","lat":35.687954,"lon":139.683782},{"name":"あじさいホーム","province":"東京都","city":"新宿区","address":"新宿区西早稲田1-11-10","lat":35.711098,"lon":139.722617},{"name":"諏訪ハウス","province":"東京都","city":"新宿区","address":"新宿区高田馬場1-15-6","lat":35.709909,"lon":139.706405},{"name":"新宿区","province":"東京都","city":"新宿区","address":"新宿区歌舞伎町1-4-1","lat":35.69389,"lon":139.703463},{"name":"シャロームみなみ風","province":"東京都","city":"新宿区","address":"新宿区弁天町32-6","lat":35.704142,"lon":139.727269},{"name":"障害者支援施設新宿けやき園","province":"東京都","city":"新宿区","address":"新宿区百人町4-5-1","lat":35.708158,"lon":139.698107},{"name":"東京都児童相談センター","province":"東京都","city":"新宿区","address":"新宿区北新宿4-6-1","lat":35.708274,"lon":139.693808},{"name":"東京都心身障害者福祉センター","province":"東京都","city":"新宿区","address":"新宿区神楽河岸1-1","lat":35.700951,"lon":139.743579},{"name":"けやき荘","province":"東京都","city":"新宿区","address":"東京都新宿区","lat":35.69388716,"lon":139.70341014},{"name":"あけの星学園","province":"東京都","city":"新宿区","address":"新宿区中落合1-7-1","lat":35.71737,"lon":139.69038},{"name":"ひまわりホーム","province":"東京都","city":"新宿区","address":"新宿区西新宿4-21-19","lat":35.68816,"lon":139.68472},{"name":"あじさいホーム","province":"東京都","city":"新宿区","address":"新宿区西早稲田1-11-10","lat":35.71098,"lon":139.72264},{"name":"諏訪ハウス","province":"東京都","city":"新宿区","address":"新宿区高田馬場1-15-6","lat":35.70984,"lon":139.70639},{"name":"新宿区","province":"東京都","city":"新宿区","address":"新宿区歌舞伎町1-4-1","lat":35.69392,"lon":139.70345},{"name":"東京都児童相談センター","province":"東京都","city":"新宿区","address":"新宿区北新宿4-6-1","lat":35.7081,"lon":139.69383},{"name":"東京都心身障害者福祉センター","province":"東京都","city":"新宿区","address":"新宿区神楽河岸1-1","lat":35.70095,"lon":139.74342},{"name":"けやき荘","province":"東京都","city":"新宿区","address":"東京都新宿区内藤町","lat":35.68528565,"lon":139.71532331},{"name":"淀橋荘","province":"東京都","city":"新宿区","address":"東京都新宿区内藤町","lat":35.68528565,"lon":139.71532331},{"name":"あけの星学園","province":"東京都","city":"新宿区","address":"新宿区中落合1-7-1","lat":35.717259,"lon":139.690727},{"name":"ひまわりホーム","province":"東京都","city":"新宿区","address":"新宿区西新宿4-21-19","lat":35.687954,"lon":139.683782},{"name":"あじさいホーム","province":"東京都","city":"新宿区","address":"新宿区西早稲田1-11-10","lat":35.711098,"lon":139.722617},{"name":"諏訪ハウス","province":"東京都","city":"新宿区","address":"新宿区高田馬場1-15-6","lat":35.709909,"lon":139.706405},{"name":"新宿区","province":"東京都","city":"新宿区","address":"新宿区歌舞伎町1-4-1","lat":35.69389,"lon":139.703463},{"name":"シャロームみなみ風","province":"東京都","city":"新宿区","address":"新宿区弁天町32-6","lat":35.704142,"lon":139.727269},{"name":"障害者支援施設新宿けやき園","province":"東京都","city":"新宿区","address":"新宿区百人町4-5-1","lat":35.708158,"lon":139.698107},{"name":"東京都児童相談センター","province":"東京都","city":"新宿区","address":"新宿区北新宿4-6-1","lat":35.708274,"lon":139.693808},{"name":"東京都心身障害者福祉センター","province":"東京都","city":"新宿区","address":"新宿区神楽河岸1-1","lat":35.700951,"lon":139.743579},{"name":"けやき荘","province":"東京都","city":"新宿区","address":"東京都新宿区","lat":35.69388716,"lon":139.70341014},{"name":"あけの星学園","province":"東京都","city":"新宿区","address":"新宿区中落合1-7-1","lat":35.71737,"lon":139.69038},{"name":"ひまわりホーム","province":"東京都","city":"新宿区","address":"新宿区西新宿4-21-19","lat":35.68816,"lon":139.68472},{"name":"あじさいホーム","province":"東京都","city":"新宿区","address":"新宿区西早稲田1-11-10","lat":35.71098,"lon":139.72264},{"name":"諏訪ハウス","province":"東京都","city":"新宿区","address":"新宿区高田馬場1-15-6","lat":35.70984,"lon":139.70639},{"name":"新宿区","province":"東京都","city":"新宿区","address":"新宿区歌舞伎町1-4-1","lat":35.69392,"lon":139.70345},{"name":"東京都児童相談センター","province":"東京都","city":"新宿区","address":"新宿区北新宿4-6-1","lat":35.7081,"lon":139.69383},{"name":"東京都心身障害者福祉センター","province":"東京都","city":"新宿区","address":"新宿区神楽河岸1-1","lat":35.70095,"lon":139.74342},{"name":"けやき荘","province":"東京都","city":"新宿区","address":"東京都新宿区内藤町","lat":35.68528565,"lon":139.71532331},{"name":"淀橋荘","province":"東京都","city":"新宿区","address":"東京都新宿区内藤町","lat":35.68528565,"lon":139.71532331},{"name":"あけの星学園","province":"東京都","city":"新宿区","address":"新宿区中落合1-7-1","lat":35.717259,"lon":139.690727},{"name":"ひまわりホーム","province":"東京都","city":"新宿区","address":"新宿区西新宿4-21-19","lat":35.687954,"lon":139.683782},{"name":"あじさいホーム","province":"東京都","city":"新宿区","address":"新宿区西早稲田1-11-10","lat":35.711098,"lon":139.722617},{"name":"諏訪ハウス","province":"東京都","city":"新宿区","address":"新宿区高田馬場1-15-6","lat":35.709909,"lon":139.706405},{"name":"新宿区","province":"東京都","city":"新宿区","address":"新宿区歌舞伎町1-4-1","lat":35.69389,"lon":139.703463},{"name":"シャロームみなみ風","province":"東京都","city":"新宿区","address":"新宿区弁天町32-6","lat":35.704142,"lon":139.727269},{"name":"障害者支援施設新宿けやき園","province":"東京都","city":"新宿区","address":"新宿区百人町4-5-1","lat":35.708158,"lon":139.698107},{"name":"東京都児童相談センター","province":"東京都","city":"新宿区","address":"新宿区北新宿4-6-1","lat":35.708274,"lon":139.693808},{"name":"東京都心身障害者福祉センター","province":"東京都","city":"新宿区","address":"新宿区神楽河岸1-1","lat":35.700951,"lon":139.743579},{"name":"けやき荘","province":"東京都","city":"新宿区","address":"東京都新宿区","lat":35.69388716,"lon":139.70341014},{"name":"あけの星学園","province":"東京都","city":"新宿区","address":"新宿区中落合1-7-1","lat":35.71737,"lon":139.69038},{"name":"ひまわりホーム","province":"東京都","city":"新宿区","address":"新宿区西新宿4-21-19","lat":35.68816,"lon":139.68472},{"name":"あじさいホーム","province":"東京都","city":"新宿区","address":"新宿区西早稲田1-11-10","lat":35.71098,"lon":139.72264},{"name":"諏訪ハウス","province":"東京都","city":"新宿区","address":"新宿区高田馬場1-15-6","lat":35.70984,"lon":139.70639},{"name":"新宿区","province":"東京都","city":"新宿区","address":"新宿区歌舞伎町1-4-1","lat":35.69392,"lon":139.70345},{"name":"東京都児童相談センター","province":"東京都","city":"新宿区","address":"新宿区北新宿4-6-1","lat":35.7081,"lon":139.69383},{"name":"東京都心身障害者福祉センター","province":"東京都","city":"新宿区","address":"新宿区神楽河岸1-1","lat":35.70095,"lon":139.74342},{"name":"けやき荘","province":"東京都","city":"新宿区","address":"東京都新宿区内藤町","lat":35.68528565,"lon":139.71532331},{"name":"淀橋荘","province":"東京都","city":"新宿区","address":"東京都新宿区内藤町","lat":35.68528565,"lon":139.71532331},{"name":"あけの星学園","province":"東京都","city":"新宿区","address":"新宿区中落合1-7-1","lat":35.717259,"lon":139.690727},{"name":"ひまわりホーム","province":"東京都","city":"新宿区","address":"新宿区西新宿4-21-19","lat":35.687954,"lon":139.683782},{"name":"あじさいホーム","province":"東京都","city":"新宿区","address":"新宿区西早稲田1-11-10","lat":35.711098,"lon":139.722617},{"name":"諏訪ハウス","province":"東京都","city":"新宿区","address":"新宿区高田馬場1-15-6","lat":35.709909,"lon":139.706405},{"name":"新宿区","province":"東京都","city":"新宿区","address":"新宿区歌舞伎町1-4-1","lat":35.69389,"lon":139.703463},{"name":"シャロームみなみ風","province":"東京都","city":"新宿区","address":"新宿区弁天町32-6","lat":35.704142,"lon":139.727269},{"name":"障害者支援施設新宿けやき園","province":"東京都","city":"新宿区","address":"新宿区百人町4-5-1","lat":35.708158,"lon":139.698107},{"name":"東京都児童相談センター","province":"東京都","city":"新宿区","address":"新宿区北新宿4-6-1","lat":35.708274,"lon":139.693808},{"name":"東京都心身障害者福祉センター","province":"東京都","city":"新宿区","address":"新宿区神楽河岸1-1","lat":35.700951,"lon":139.743579},{"name":"けやき荘","province":"東京都","city":"新宿区","address":"東京都新宿区","lat":35.69388716,"lon":139.70341014},{"name":"あけの星学園","province":"東京都","city":"新宿区","address":"新宿区中落合1-7-1","lat":35.71737,"lon":139.69038},{"name":"ひまわりホーム","province":"東京都","city":"新宿区","address":"新宿区西新宿4-21-19","lat":35.68816,"lon":139.68472},{"name":"あじさいホーム","province":"東京都","city":"新宿区","address":"新宿区西早稲田1-11-10","lat":35.71098,"lon":139.72264},{"name":"諏訪ハウス","province":"東京都","city":"新宿区","address":"新宿区高田馬場1-15-6","lat":35.70984,"lon":139.70639},{"name":"新宿区","province":"東京都","city":"新宿区","address":"新宿区歌舞伎町1-4-1","lat":35.69392,"lon":139.70345},{"name":"東京都児童相談センター","province":"東京都","city":"新宿区","address":"新宿区北新宿4-6-1","lat":35.7081,"lon":139.69383},{"name":"東京都心身障害者福祉センター","province":"東京都","city":"新宿区","address":"新宿区神楽河岸1-1","lat":35.70095,"lon":139.74342},{"name":"けやき荘","province":"東京都","city":"新宿区","address":"東京都新宿区内藤町","lat":35.68528565,"lon":139.71532331},{"name":"淀橋荘","province":"東京都","city":"新宿区","address":"東京都新宿区内藤町","lat":35.68528565,"lon":139.71532331},{"name":"あけの星学園","province":"東京都","city":"新宿区","address":"新宿区中落合1-7-1","lat":35.717259,"lon":139.690727},{"name":"ひまわりホーム","province":"東京都","city":"新宿区","address":"新宿区西新宿4-21-19","lat":35.687954,"lon":139.683782},{"name":"あじさいホーム","province":"東京都","city":"新宿区","address":"新宿区西早稲田1-11-10","lat":35.711098,"lon":139.722617},{"name":"諏訪ハウス","province":"東京都","city":"新宿区","address":"新宿区高田馬場1-15-6","lat":35.709909,"lon":139.706405},{"name":"新宿区","province":"東京都","city":"新宿区","address":"新宿区歌舞伎町1-4-1","lat":35.69389,"lon":139.703463},{"name":"シャロームみなみ風","province":"東京都","city":"新宿区","address":"新宿区弁天町32-6","lat":35.704142,"lon":139.727269},{"name":"障害者支援施設新宿けやき園","province":"東京都","city":"新宿区","address":"新宿区百人町4-5-1","lat":35.708158,"lon":139.698107},{"name":"東京都児童相談センター","province":"東京都","city":"新宿区","address":"新宿区北新宿4-6-1","lat":35.708274,"lon":139.693808},{"name":"東京都心身障害者福祉センター","province":"東京都","city":"新宿区","address":"新宿区神楽河岸1-1","lat":35.700951,"lon":139.743579},{"name":"けやき荘","province":"東京都","city":"新宿区","address":"東京都新宿区","lat":35.69388716,"lon":139.70341014},{"name":"あけの星学園","province":"東京都","city":"新宿区","address":"新宿区中落合1-7-1","lat":35.71737,"lon":139.69038},{"name":"ひまわりホーム","province":"東京都","city":"新宿区","address":"新宿区西新宿4-21-19","lat":35.68816,"lon":139.68472},{"name":"あじさいホーム","province":"東京都","city":"新宿区","address":"新宿区西早稲田1-11-10","lat":35.71098,"lon":139.72264},{"name":"諏訪ハウス","province":"東京都","city":"新宿区","address":"新宿区高田馬場1-15-6","lat":35.70984,"lon":139.70639},{"name":"新宿区","province":"東京都","city":"新宿区","address":"新宿区歌舞伎町1-4-1","lat":35.69392,"lon":139.70345},{"name":"東京都児童相談センター","province":"東京都","city":"新宿区","address":"新宿区北新宿4-6-1","lat":35.7081,"lon":139.69383},{"name":"東京都心身障害者福祉センター","province":"東京都","city":"新宿区","address":"新宿区神楽河岸1-1","lat":35.70095,"lon":139.74342},{"name":"けやき荘","province":"東京都","city":"新宿区","address":"東京都新宿区内藤町","lat":35.68528565,"lon":139.71532331},{"name":"淀橋荘","province":"東京都","city":"新宿区","address":"東京都新宿区内藤町","lat":35.68528565,"lon":139.71532331},{"name":"あけの星学園","province":"東京都","city":"新宿区","address":"新宿区中落合1-7-1","lat":35.717259,"lon":139.690727},{"name":"ひまわりホーム","province":"東京都","city":"新宿区","address":"新宿区西新宿4-21-19","lat":35.687954,"lon":139.683782},{"name":"あじさいホーム","province":"東京都","city":"新宿区","address":"新宿区西早稲田1-11-10","lat":35.711098,"lon":139.722617},{"name":"諏訪ハウス","province":"東京都","city":"新宿区","address":"新宿区高田馬場1-15-6","lat":35.709909,"lon":139.706405},{"name":"新宿区","province":"東京都","city":"新宿区","address":"新宿区歌舞伎町1-4-1","lat":35.69389,"lon":139.703463},{"name":"シャロームみなみ風","province":"東京都","city":"新宿区","address":"新宿区弁天町32-6","lat":35.704142,"lon":139.727269},{"name":"障害者支援施設新宿けやき園","province":"東京都","city":"新宿区","address":"新宿区百人町4-5-1","lat":35.708158,"lon":139.698107},{"name":"東京都児童相談センター","province":"東京都","city":"新宿区","address":"新宿区北新宿4-6-1","lat":35.708274,"lon":139.693808},{"name":"東京都心身障害者福祉センター","province":"東京都","city":"新宿区","address":"新宿区神楽河岸1-1","lat":35.700951,"lon":139.743579},{"name":"けやき荘","province":"東京都","city":"新宿区","address":"東京都新宿区","lat":35.69388716,"lon":139.70341014},{"name":"あけの星学園","province":"東京都","city":"新宿区","address":"新宿区中落合1-7-1","lat":35.71737,"lon":139.69038},{"name":"ひまわりホーム","province":"東京都","city":"新宿区","address":"新宿区西新宿4-21-19","lat":35.68816,"lon":139.68472},{"name":"あじさいホーム","province":"東京都","city":"新宿区","address":"新宿区西早稲田1-11-10","lat":35.71098,"lon":139.72264},{"name":"諏訪ハウス","province":"東京都","city":"新宿区","address":"新宿区高田馬場1-15-6","lat":35.70984,"lon":139.70639},{"name":"新宿区","province":"東京都","city":"新宿区","address":"新宿区歌舞伎町1-4-1","lat":35.69392,"lon":139.70345},{"name":"東京都児童相談センター","province":"東京都","city":"新宿区","address":"新宿区北新宿4-6-1","lat":35.7081,"lon":139.69383},{"name":"東京都心身障害者福祉センター","province":"東京都","city":"新宿区","address":"新宿区神楽河岸1-1","lat":35.70095,"lon":139.74342},{"name":"けやき荘","province":"東京都","city":"新宿区","address":"東京都新宿区内藤町","lat":35.68528565,"lon":139.71532331},{"name":"淀橋荘","province":"東京都","city":"新宿区","address":"東京都新宿区内藤町","lat":35.68528565,"lon":139.71532331},{"name":"あけの星学園","province":"東京都","city":"新宿区","address":"新宿区中落合1-7-1","lat":35.717259,"lon":139.690727},{"name":"ひまわりホーム","province":"東京都","city":"新宿区","address":"新宿区西新宿4-21-19","lat":35.687954,"lon":139.683782},{"name":"あじさいホーム","province":"東京都","city":"新宿区","address":"新宿区西早稲田1-11-10","lat":35.711098,"lon":139.722617},{"name":"諏訪ハウス","province":"東京都","city":"新宿区","address":"新宿区高田馬場1-15-6","lat":35.709909,"lon":139.706405},{"name":"新宿区","province":"東京都","city":"新宿区","address":"新宿区歌舞伎町1-4-1","lat":35.69389,"lon":139.703463},{"name":"シャロームみなみ風","province":"東京都","city":"新宿区","address":"新宿区弁天町32-6","lat":35.704142,"lon":139.727269},{"name":"障害者支援施設新宿けやき園","province":"東京都","city":"新宿区","address":"新宿区百人町4-5-1","lat":35.708158,"lon":139.698107},{"name":"東京都児童相談センター","province":"東京都","city":"新宿区","address":"新宿区北新宿4-6-1","lat":35.708274,"lon":139.693808},{"name":"東京都心身障害者福祉センター","province":"東京都","city":"新宿区","address":"新宿区神楽河岸1-1","lat":35.700951,"lon":139.743579},{"name":"けやき荘","province":"東京都","city":"新宿区","address":"東京都新宿区","lat":35.69388716,"lon":139.70341014},{"name":"あけの星学園","province":"東京都","city":"新宿区","address":"新宿区中落合1-7-1","lat":35.71737,"lon":139.69038},{"name":"ひまわりホーム","province":"東京都","city":"新宿区","address":"新宿区西新宿4-21-19","lat":35.68816,"lon":139.68472},{"name":"あじさいホーム","province":"東京都","city":"新宿区","address":"新宿区西早稲田1-11-10","lat":35.71098,"lon":139.72264},{"name":"諏訪ハウス","province":"東京都","city":"新宿区","address":"新宿区高田馬場1-15-6","lat":35.70984,"lon":139.70639},{"name":"新宿区","province":"東京都","city":"新宿区","address":"新宿区歌舞伎町1-4-1","lat":35.69392,"lon":139.70345},{"name":"東京都児童相談センター","province":"東京都","city":"新宿区","address":"新宿区北新宿4-6-1","lat":35.7081,"lon":139.69383},{"name":"東京都心身障害者福祉センター","province":"東京都","city":"新宿区","address":"新宿区神楽河岸1-1","lat":35.70095,"lon":139.74342},{"name":"けやき荘","province":"東京都","city":"新宿区","address":"東京都新宿区内藤町","lat":35.68528565,"lon":139.71532331},{"name":"淀橋荘","province":"東京都","city":"新宿区","address":"東京都新宿区内藤町","lat":35.68528565,"lon":139.71532331},{"name":"あけの星学園","province":"東京都","city":"新宿区","address":"新宿区中落合1-7-1","lat":35.717259,"lon":139.690727},{"name":"ひまわりホーム","province":"東京都","city":"新宿区","address":"新宿区西新宿4-21-19","lat":35.687954,"lon":139.683782},{"name":"あじさいホーム","province":"東京都","city":"新宿区","address":"新宿区西早稲田1-11-10","lat":35.711098,"lon":139.722617},{"name":"諏訪ハウス","province":"東京都","city":"新宿区","address":"新宿区高田馬場1-15-6","lat":35.709909,"lon":139.706405},{"name":"新宿区","province":"東京都","city":"新宿区","address":"新宿区歌舞伎町1-4-1","lat":35.69389,"lon":139.703463},{"name":"シャロームみなみ風","province":"東京都","city":"新宿区","address":"新宿区弁天町32-6","lat":35.704142,"lon":139.727269},{"name":"障害者支援施設新宿けやき園","province":"東京都","city":"新宿区","address":"新宿区百人町4-5-1","lat":35.708158,"lon":139.698107},{"name":"東京都児童相談センター","province":"東京都","city":"新宿区","address":"新宿区北新宿4-6-1","lat":35.708274,"lon":139.693808},{"name":"東京都心身障害者福祉センター","province":"東京都","city":"新宿区","address":"新宿区神楽河岸1-1","lat":35.700951,"lon":139.743579},{"name":"けやき荘","province":"東京都","city":"新宿区","address":"東京都新宿区","lat":35.69388716,"lon":139.70341014},{"name":"あけの星学園","province":"東京都","city":"新宿区","address":"新宿区中落合1-7-1","lat":35.71737,"lon":139.69038},{"name":"ひまわりホーム","province":"東京都","city":"新宿区","address":"新宿区西新宿4-21-19","lat":35.68816,"lon":139.68472},{"name":"あじさいホーム","province":"東京都","city":"新宿区","address":"新宿区西早稲田1-11-10","lat":35.71098,"lon":139.72264},{"name":"諏訪ハウス","province":"東京都","city":"新宿区","address":"新宿区高田馬場1-15-6","lat":35.70984,"lon":139.70639},{"name":"新宿区","province":"東京都","city":"新宿区","address":"新宿区歌舞伎町1-4-1","lat":35.69392,"lon":139.70345},{"name":"東京都児童相談センター","province":"東京都","city":"新宿区","address":"新宿区北新宿4-6-1","lat":35.7081,"lon":139.69383},{"name":"東京都心身障害者福祉センター","province":"東京都","city":"新宿区","address":"新宿区神楽河岸1-1","lat":35.70095,"lon":139.74342},{"name":"けやき荘","province":"東京都","city":"新宿区","address":"東京都新宿区内藤町","lat":35.68528565,"lon":139.71532331},{"name":"淀橋荘","province":"東京都","city":"新宿区","address":"東京都新宿区内藤町","lat":35.68528565,"lon":139.71532331},{"name":"あけの星学園","province":"東京都","city":"新宿区","address":"新宿区中落合1-7-1","lat":35.717259,"lon":139.690727},{"name":"ひまわりホーム","province":"東京都","city":"新宿区","address":"新宿区西新宿4-21-19","lat":35.687954,"lon":139.683782},{"name":"あじさいホーム","province":"東京都","city":"新宿区","address":"新宿区西早稲田1-11-10","lat":35.711098,"lon":139.722617},{"name":"諏訪ハウス","province":"東京都","city":"新宿区","address":"新宿区高田馬場1-15-6","lat":35.709909,"lon":139.706405},{"name":"新宿区","province":"東京都","city":"新宿区","address":"新宿区歌舞伎町1-4-1","lat":35.69389,"lon":139.703463},{"name":"シャロームみなみ風","province":"東京都","city":"新宿区","address":"新宿区弁天町32-6","lat":35.704142,"lon":139.727269},{"name":"障害者支援施設新宿けやき園","province":"東京都","city":"新宿区","address":"新宿区百人町4-5-1","lat":35.708158,"lon":139.698107},{"name":"東京都児童相談センター","province":"東京都","city":"新宿区","address":"新宿区北新宿4-6-1","lat":35.708274,"lon":139.693808},{"name":"東京都心身障害者福祉センター","province":"東京都","city":"新宿区","address":"新宿区神楽河岸1-1","lat":35.700951,"lon":139.743579},{"name":"けやき荘","province":"東京都","city":"新宿区","address":"東京都新宿区","lat":35.69388716,"lon":139.70341014},{"name":"あけの星学園","province":"東京都","city":"新宿区","address":"新宿区中落合1-7-1","lat":35.71737,"lon":139.69038},{"name":"ひまわりホーム","province":"東京都","city":"新宿区","address":"新宿区西新宿4-21-19","lat":35.68816,"lon":139.68472},{"name":"あじさいホーム","province":"東京都","city":"新宿区","address":"新宿区西早稲田1-11-10","lat":35.71098,"lon":139.72264},{"name":"諏訪ハウス","province":"東京都","city":"新宿区","address":"新宿区高田馬場1-15-6","lat":35.70984,"lon":139.70639},{"name":"新宿区","province":"東京都","city":"新宿区","address":"新宿区歌舞伎町1-4-1","lat":35.69392,"lon":139.70345},{"name":"東京都児童相談センター","province":"東京都","city":"新宿区","address":"新宿区北新宿4-6-1","lat":35.7081,"lon":139.69383},{"name":"東京都心身障害者福祉センター","province":"東京都","city":"新宿区","address":"新宿区神楽河岸1-1","lat":35.70095,"lon":139.74342},{"name":"けやき荘","province":"東京都","city":"新宿区","address":"東京都新宿区内藤町","lat":35.68528565,"lon":139.71532331},{"name":"淀橋荘","province":"東京都","city":"新宿区","address":"東京都新宿区内藤町","lat":35.68528565,"lon":139.71532331},{"name":"あけの星学園","province":"東京都","city":"新宿区","address":"新宿区中落合1-7-1","lat":35.717259,"lon":139.690727},{"name":"ひまわりホーム","province":"東京都","city":"新宿区","address":"新宿区西新宿4-21-19","lat":35.687954,"lon":139.683782},{"name":"あじさいホーム","province":"東京都","city":"新宿区","address":"新宿区西早稲田1-11-10","lat":35.711098,"lon":139.722617},{"name":"諏訪ハウス","province":"東京都","city":"新宿区","address":"新宿区高田馬場1-15-6","lat":35.709909,"lon":139.706405},{"name":"新宿区","province":"東京都","city":"新宿区","address":"新宿区歌舞伎町1-4-1","lat":35.69389,"lon":139.703463},{"name":"シャロームみなみ風","province":"東京都","city":"新宿区","address":"新宿区弁天町32-6","lat":35.704142,"lon":139.727269},{"name":"障害者支援施設新宿けやき園","province":"東京都","city":"新宿区","address":"新宿区百人町4-5-1","lat":35.708158,"lon":139.698107},{"name":"東京都児童相談センター","province":"東京都","city":"新宿区","address":"新宿区北新宿4-6-1","lat":35.708274,"lon":139.693808},{"name":"東京都心身障害者福祉センター","province":"東京都","city":"新宿区","address":"新宿区神楽河岸1-1","lat":35.700951,"lon":139.743579},{"name":"けやき荘","province":"東京都","city":"新宿区","address":"東京都新宿区","lat":35.69388716,"lon":139.70341014},{"name":"あけの星学園","province":"東京都","city":"新宿区","address":"新宿区中落合1-7-1","lat":35.71737,"lon":139.69038},{"name":"ひまわりホーム","province":"東京都","city":"新宿区","address":"新宿区西新宿4-21-19","lat":35.68816,"lon":139.68472},{"name":"あじさいホーム","province":"東京都","city":"新宿区","address":"新宿区西早稲田1-11-10","lat":35.71098,"lon":139.72264},{"name":"諏訪ハウス","province":"東京都","city":"新宿区","address":"新宿区高田馬場1-15-6","lat":35.70984,"lon":139.70639},{"name":"新宿区","province":"東京都","city":"新宿区","address":"新宿区歌舞伎町1-4-1","lat":35.69392,"lon":139.70345},{"name":"東京都児童相談センター","province":"東京都","city":"新宿区","address":"新宿区北新宿4-6-1","lat":35.7081,"lon":139.69383},{"name":"東京都心身障害者福祉センター","province":"東京都","city":"新宿区","address":"新宿区神楽河岸1-1","lat":35.70095,"lon":139.74342},{"name":"けやき荘","province":"東京都","city":"新宿区","address":"東京都新宿区内藤町","lat":35.68528565,"lon":139.71532331},{"name":"淀橋荘","province":"東京都","city":"新宿区","address":"東京都新宿区内藤町","lat":35.68528565,"lon":139.71532331},{"name":"あけの星学園","province":"東京都","city":"新宿区","address":"新宿区中落合1-7-1","lat":35.717259,"lon":139.690727},{"name":"ひまわりホーム","province":"東京都","city":"新宿区","address":"新宿区西新宿4-21-19","lat":35.687954,"lon":139.683782},{"name":"あじさいホーム","province":"東京都","city":"新宿区","address":"新宿区西早稲田1-11-10","lat":35.711098,"lon":139.722617},{"name":"諏訪ハウス","province":"東京都","city":"新宿区","address":"新宿区高田馬場1-15-6","lat":35.709909,"lon":139.706405},{"name":"新宿区","province":"東京都","city":"新宿区","address":"新宿区歌舞伎町1-4-1","lat":35.69389,"lon":139.703463},{"name":"シャロームみなみ風","province":"東京都","city":"新宿区","address":"新宿区弁天町32-6","lat":35.704142,"lon":139.727269},{"name":"障害者支援施設新宿けやき園","province":"東京都","city":"新宿区","address":"新宿区百人町4-5-1","lat":35.708158,"lon":139.698107},{"name":"東京都児童相談センター","province":"東京都","city":"新宿区","address":"新宿区北新宿4-6-1","lat":35.708274,"lon":139.693808},{"name":"東京都心身障害者福祉センター","province":"東京都","city":"新宿区","address":"新宿区神楽河岸1-1","lat":35.700951,"lon":139.743579},{"name":"けやき荘","province":"東京都","city":"新宿区","address":"東京都新宿区","lat":35.69388716,"lon":139.70341014},{"name":"あけの星学園","province":"東京都","city":"新宿区","address":"新宿区中落合1-7-1","lat":35.71737,"lon":139.69038},{"name":"ひまわりホーム","province":"東京都","city":"新宿区","address":"新宿区西新宿4-21-19","lat":35.68816,"lon":139.68472},{"name":"あじさいホーム","province":"東京都","city":"新宿区","address":"新宿区西早稲田1-11-10","lat":35.71098,"lon":139.72264},{"name":"諏訪ハウス","province":"東京都","city":"新宿区","address":"新宿区高田馬場1-15-6","lat":35.70984,"lon":139.70639},{"name":"新宿区","province":"東京都","city":"新宿区","address":"新宿区歌舞伎町1-4-1","lat":35.69392,"lon":139.70345},{"name":"東京都児童相談センター","province":"東京都","city":"新宿区","address":"新宿区北新宿4-6-1","lat":35.7081,"lon":139.69383},{"name":"東京都心身障害者福祉センター","province":"東京都","city":"新宿区","address":"新宿区神楽河岸1-1","lat":35.70095,"lon":139.74342},{"name":"けやき荘","province":"東京都","city":"新宿区","address":"東京都新宿区内藤町","lat":35.68528565,"lon":139.71532331},{"name":"淀橋荘","province":"東京都","city":"新宿区","address":"東京都新宿区内藤町","lat":35.68528565,"lon":139.71532331},{"name":"あけの星学園","province":"東京都","city":"新宿区","address":"新宿区中落合1-7-1","lat":35.717259,"lon":139.690727},{"name":"ひまわりホーム","province":"東京都","city":"新宿区","address":"新宿区西新宿4-21-19","lat":35.687954,"lon":139.683782},{"name":"あじさいホーム","province":"東京都","city":"新宿区","address":"新宿区西早稲田1-11-10","lat":35.711098,"lon":139.722617},{"name":"諏訪ハウス","province":"東京都","city":"新宿区","address":"新宿区高田馬場1-15-6","lat":35.709909,"lon":139.706405},{"name":"新宿区","province":"東京都","city":"新宿区","address":"新宿区歌舞伎町1-4-1","lat":35.69389,"lon":139.703463},{"name":"シャロームみなみ風","province":"東京都","city":"新宿区","address":"新宿区弁天町32-6","lat":35.704142,"lon":139.727269},{"name":"障害者支援施設新宿けやき園","province":"東京都","city":"新宿区","address":"新宿区百人町4-5-1","lat":35.708158,"lon":139.698107},{"name":"東京都児童相談センター","province":"東京都","city":"新宿区","address":"新宿区北新宿4-6-1","lat":35.708274,"lon":139.693808},{"name":"東京都心身障害者福祉センター","province":"東京都","city":"新宿区","address":"新宿区神楽河岸1-1","lat":35.700951,"lon":139.743579},{"name":"けやき荘","province":"東京都","city":"新宿区","address":"東京都新宿区","lat":35.69388716,"lon":139.70341014},{"name":"あけの星学園","province":"東京都","city":"新宿区","address":"新宿区中落合1-7-1","lat":35.71737,"lon":139.69038},{"name":"ひまわりホーム","province":"東京都","city":"新宿区","address":"新宿区西新宿4-21-19","lat":35.68816,"lon":139.68472},{"name":"あじさいホーム","province":"東京都","city":"新宿区","address":"新宿区西早稲田1-11-10","lat":35.71098,"lon":139.72264},{"name":"諏訪ハウス","province":"東京都","city":"新宿区","address":"新宿区高田馬場1-15-6","lat":35.70984,"lon":139.70639},{"name":"新宿区","province":"東京都","city":"新宿区","address":"新宿区歌舞伎町1-4-1","lat":35.69392,"lon":139.70345},{"name":"東京都児童相談センター","province":"東京都","city":"新宿区","address":"新宿区北新宿4-6-1","lat":35.7081,"lon":139.69383},{"name":"東京都心身障害者福祉センター","province":"東京都","city":"新宿区","address":"新宿区神楽河岸1-1","lat":35.70095,"lon":139.74342},{"name":"けやき荘","province":"東京都","city":"新宿区","address":"東京都新宿区内藤町","lat":35.68528565,"lon":139.71532331},{"name":"淀橋荘","province":"東京都","city":"新宿区","address":"東京都新宿区内藤町","lat":35.68528565,"lon":139.71532331},{"name":"あけの星学園","province":"東京都","city":"新宿区","address":"新宿区中落合1-7-1","lat":35.717259,"lon":139.690727},{"name":"ひまわりホーム","province":"東京都","city":"新宿区","address":"新宿区西新宿4-21-19","lat":35.687954,"lon":139.683782},{"name":"あじさいホーム","province":"東京都","city":"新宿区","address":"新宿区西早稲田1-11-10","lat":35.711098,"lon":139.722617},{"name":"諏訪ハウス","province":"東京都","city":"新宿区","address":"新宿区高田馬場1-15-6","lat":35.709909,"lon":139.706405},{"name":"新宿区","province":"東京都","city":"新宿区","address":"新宿区歌舞伎町1-4-1","lat":35.69389,"lon":139.703463},{"name":"シャロームみなみ風","province":"東京都","city":"新宿区","address":"新宿区弁天町32-6","lat":35.704142,"lon":139.727269},{"name":"障害者支援施設新宿けやき園","province":"東京都","city":"新宿区","address":"新宿区百人町4-5-1","lat":35.708158,"lon":139.698107},{"name":"東京都児童相談センター","province":"東京都","city":"新宿区","address":"新宿区北新宿4-6-1","lat":35.708274,"lon":139.693808},{"name":"東京都心身障害者福祉センター","province":"東京都","city":"新宿区","address":"新宿区神楽河岸1-1","lat":35.700951,"lon":139.743579},{"name":"けやき荘","province":"東京都","city":"新宿区","address":"東京都新宿区","lat":35.69388716,"lon":139.70341014},{"name":"あけの星学園","province":"東京都","city":"新宿区","address":"新宿区中落合1-7-1","lat":35.71737,"lon":139.69038},{"name":"ひまわりホーム","province":"東京都","city":"新宿区","address":"新宿区西新宿4-21-19","lat":35.68816,"lon":139.68472},{"name":"あじさいホーム","province":"東京都","city":"新宿区","address":"新宿区西早稲田1-11-10","lat":35.71098,"lon":139.72264},{"name":"諏訪ハウス","province":"東京都","city":"新宿区","address":"新宿区高田馬場1-15-6","lat":35.70984,"lon":139.70639},{"name":"新宿区","province":"東京都","city":"新宿区","address":"新宿区歌舞伎町1-4-1","lat":35.69392,"lon":139.70345},{"name":"東京都児童相談センター","province":"東京都","city":"新宿区","address":"新宿区北新宿4-6-1","lat":35.7081,"lon":139.69383},{"name":"東京都心身障害者福祉センター","province":"東京都","city":"新宿区","address":"新宿区神楽河岸1-1","lat":35.70095,"lon":139.74342},{"name":"けやき荘","province":"東京都","city":"新宿区","address":"東京都新宿区内藤町","lat":35.68528565,"lon":139.71532331},{"name":"淀橋荘","province":"東京都","city":"新宿区","address":"東京都新宿区内藤町","lat":35.68528565,"lon":139.71532331},{"name":"あけの星学園","province":"東京都","city":"新宿区","address":"新宿区中落合1-7-1","lat":35.717259,"lon":139.690727},{"name":"ひまわりホーム","province":"東京都","city":"新宿区","address":"新宿区西新宿4-21-19","lat":35.687954,"lon":139.683782},{"name":"あじさいホーム","province":"東京都","city":"新宿区","address":"新宿区西早稲田1-11-10","lat":35.711098,"lon":139.722617},{"name":"諏訪ハウス","province":"東京都","city":"新宿区","address":"新宿区高田馬場1-15-6","lat":35.709909,"lon":139.706405},{"name":"新宿区","province":"東京都","city":"新宿区","address":"新宿区歌舞伎町1-4-1","lat":35.69389,"lon":139.703463},{"name":"シャロームみなみ風","province":"東京都","city":"新宿区","address":"新宿区弁天町32-6","lat":35.704142,"lon":139.727269},{"name":"障害者支援施設新宿けやき園","province":"東京都","city":"新宿区","address":"新宿区百人町4-5-1","lat":35.708158,"lon":139.698107},{"name":"東京都児童相談センター","province":"東京都","city":"新宿区","address":"新宿区北新宿4-6-1","lat":35.708274,"lon":139.693808},{"name":"東京都心身障害者福祉センター","province":"東京都","city":"新宿区","address":"新宿区神楽河岸1-1","lat":35.700951,"lon":139.743579},{"name":"けやき荘","province":"東京都","city":"新宿区","address":"東京都新宿区","lat":35.69388716,"lon":139.70341014},{"name":"あけの星学園","province":"東京都","city":"新宿区","address":"新宿区中落合1-7-1","lat":35.71737,"lon":139.69038},{"name":"ひまわりホーム","province":"東京都","city":"新宿区","address":"新宿区西新宿4-21-19","lat":35.68816,"lon":139.68472},{"name":"あじさいホーム","province":"東京都","city":"新宿区","address":"新宿区西早稲田1-11-10","lat":35.71098,"lon":139.72264},{"name":"諏訪ハウス","province":"東京都","city":"新宿区","address":"新宿区高田馬場1-15-6","lat":35.70984,"lon":139.70639},{"name":"新宿区","province":"東京都","city":"新宿区","address":"新宿区歌舞伎町1-4-1","lat":35.69392,"lon":139.70345},{"name":"東京都児童相談センター","province":"東京都","city":"新宿区","address":"新宿区北新宿4-6-1","lat":35.7081,"lon":139.69383},{"name":"東京都心身障害者福祉センター","province":"東京都","city":"新宿区","address":"新宿区神楽河岸1-1","lat":35.70095,"lon":139.74342},{"name":"けやき荘","province":"東京都","city":"新宿区","address":"東京都新宿区内藤町","lat":35.68528565,"lon":139.71532331},{"name":"淀橋荘","province":"東京都","city":"新宿区","address":"東京都新宿区内藤町","lat":35.68528565,"lon":139.71532331},{"name":"あけの星学園","province":"東京都","city":"新宿区","address":"新宿区中落合1-7-1","lat":35.717259,"lon":139.690727},{"name":"ひまわりホーム","province":"東京都","city":"新宿区","address":"新宿区西新宿4-21-19","lat":35.687954,"lon":139.683782},{"name":"あじさいホーム","province":"東京都","city":"新宿区","address":"新宿区西早稲田1-11-10","lat":35.711098,"lon":139.722617},{"name":"諏訪ハウス","province":"東京都","city":"新宿区","address":"新宿区高田馬場1-15-6","lat":35.709909,"lon":139.706405},{"name":"新宿区","province":"東京都","city":"新宿区","address":"新宿区歌舞伎町1-4-1","lat":35.69389,"lon":139.703463},{"name":"シャロームみなみ風","province":"東京都","city":"新宿区","address":"新宿区弁天町32-6","lat":35.704142,"lon":139.727269},{"name":"障害者支援施設新宿けやき園","province":"東京都","city":"新宿区","address":"新宿区百人町4-5-1","lat":35.708158,"lon":139.698107},{"name":"東京都児童相談センター","province":"東京都","city":"新宿区","address":"新宿区北新宿4-6-1","lat":35.708274,"lon":139.693808},{"name":"東京都心身障害者福祉センター","province":"東京都","city":"新宿区","address":"新宿区神楽河岸1-1","lat":35.700951,"lon":139.743579},{"name":"けやき荘","province":"東京都","city":"新宿区","address":"東京都新宿区","lat":35.69388716,"lon":139.70341014},{"name":"あけの星学園","province":"東京都","city":"新宿区","address":"新宿区中落合1-7-1","lat":35.71737,"lon":139.69038},{"name":"ひまわりホーム","province":"東京都","city":"新宿区","address":"新宿区西新宿4-21-19","lat":35.68816,"lon":139.68472},{"name":"あじさいホーム","province":"東京都","city":"新宿区","address":"新宿区西早稲田1-11-10","lat":35.71098,"lon":139.72264},{"name":"諏訪ハウス","province":"東京都","city":"新宿区","address":"新宿区高田馬場1-15-6","lat":35.70984,"lon":139.70639},{"name":"新宿区","province":"東京都","city":"新宿区","address":"新宿区歌舞伎町1-4-1","lat":35.69392,"lon":139.70345},{"name":"東京都児童相談センター","province":"東京都","city":"新宿区","address":"新宿区北新宿4-6-1","lat":35.7081,"lon":139.69383},{"name":"東京都心身障害者福祉センター","province":"東京都","city":"新宿区","address":"新宿区神楽河岸1-1","lat":35.70095,"lon":139.74342},{"name":"けやき荘","province":"東京都","city":"新宿区","address":"東京都新宿区内藤町","lat":35.68528565,"lon":139.71532331},{"name":"淀橋荘","province":"東京都","city":"新宿区","address":"東京都新宿区内藤町","lat":35.68528565,"lon":139.71532331},{"name":"あけの星学園","province":"東京都","city":"新宿区","address":"新宿区中落合1-7-1","lat":35.717259,"lon":139.690727},{"name":"ひまわりホーム","province":"東京都","city":"新宿区","address":"新宿区西新宿4-21-19","lat":35.687954,"lon":139.683782},{"name":"あじさいホーム","province":"東京都","city":"新宿区","address":"新宿区西早稲田1-11-10","lat":35.711098,"lon":139.722617},{"name":"諏訪ハウス","province":"東京都","city":"新宿区","address":"新宿区高田馬場1-15-6","lat":35.709909,"lon":139.706405},{"name":"新宿区","province":"東京都","city":"新宿区","address":"新宿区歌舞伎町1-4-1","lat":35.69389,"lon":139.703463},{"name":"シャロームみなみ風","province":"東京都","city":"新宿区","address":"新宿区弁天町32-6","lat":35.704142,"lon":139.727269},{"name":"障害者支援施設新宿けやき園","province":"東京都","city":"新宿区","address":"新宿区百人町4-5-1","lat":35.708158,"lon":139.698107},{"name":"東京都児童相談センター","province":"東京都","city":"新宿区","address":"新宿区北新宿4-6-1","lat":35.708274,"lon":139.693808},{"name":"東京都心身障害者福祉センター","province":"東京都","city":"新宿区","address":"新宿区神楽河岸1-1","lat":35.700951,"lon":139.743579},{"name":"けやき荘","province":"東京都","city":"新宿区","address":"東京都新宿区","lat":35.69388716,"lon":139.70341014},{"name":"あけの星学園","province":"東京都","city":"新宿区","address":"新宿区中落合1-7-1","lat":35.71737,"lon":139.69038},{"name":"ひまわりホーム","province":"東京都","city":"新宿区","address":"新宿区西新宿4-21-19","lat":35.68816,"lon":139.68472},{"name":"あじさいホーム","province":"東京都","city":"新宿区","address":"新宿区西早稲田1-11-10","lat":35.71098,"lon":139.72264},{"name":"諏訪ハウス","province":"東京都","city":"新宿区","address":"新宿区高田馬場1-15-6","lat":35.70984,"lon":139.70639},{"name":"新宿区","province":"東京都","city":"新宿区","address":"新宿区歌舞伎町1-4-1","lat":35.69392,"lon":139.70345},{"name":"東京都児童相談センター","province":"東京都","city":"新宿区","address":"新宿区北新宿4-6-1","lat":35.7081,"lon":139.69383},{"name":"東京都心身障害者福祉センター","province":"東京都","city":"新宿区","address":"新宿区神楽河岸1-1","lat":35.70095,"lon":139.74342},{"name":"けやき荘","province":"東京都","city":"新宿区","address":"東京都新宿区内藤町","lat":35.68528565,"lon":139.71532331},{"name":"淀橋荘","province":"東京都","city":"新宿区","address":"東京都新宿区内藤町","lat":35.68528565,"lon":139.71532331},{"name":"あけの星学園","province":"東京都","city":"新宿区","address":"新宿区中落合1-7-1","lat":35.717259,"lon":139.690727},{"name":"ひまわりホーム","province":"東京都","city":"新宿区","address":"新宿区西新宿4-21-19","lat":35.687954,"lon":139.683782},{"name":"あじさいホーム","province":"東京都","city":"新宿区","address":"新宿区西早稲田1-11-10","lat":35.711098,"lon":139.722617},{"name":"諏訪ハウス","province":"東京都","city":"新宿区","address":"新宿区高田馬場1-15-6","lat":35.709909,"lon":139.706405},{"name":"新宿区","province":"東京都","city":"新宿区","address":"新宿区歌舞伎町1-4-1","lat":35.69389,"lon":139.703463},{"name":"シャロームみなみ風","province":"東京都","city":"新宿区","address":"新宿区弁天町32-6","lat":35.704142,"lon":139.727269},{"name":"障害者支援施設新宿けやき園","province":"東京都","city":"新宿区","address":"新宿区百人町4-5-1","lat":35.708158,"lon":139.698107},{"name":"東京都児童相談センター","province":"東京都","city":"新宿区","address":"新宿区北新宿4-6-1","lat":35.708274,"lon":139.693808},{"name":"東京都心身障害者福祉センター","province":"東京都","city":"新宿区","address":"新宿区神楽河岸1-1","lat":35.700951,"lon":139.743579},{"name":"けやき荘","province":"東京都","city":"新宿区","address":"東京都新宿区","lat":35.69388716,"lon":139.70341014},{"name":"あけの星学園","province":"東京都","city":"新宿区","address":"新宿区中落合1-7-1","lat":35.71737,"lon":139.69038},{"name":"ひまわりホーム","province":"東京都","city":"新宿区","address":"新宿区西新宿4-21-19","lat":35.68816,"lon":139.68472},{"name":"あじさいホーム","province":"東京都","city":"新宿区","address":"新宿区西早稲田1-11-10","lat":35.71098,"lon":139.72264},{"name":"諏訪ハウス","province":"東京都","city":"新宿区","address":"新宿区高田馬場1-15-6","lat":35.70984,"lon":139.70639},{"name":"新宿区","province":"東京都","city":"新宿区","address":"新宿区歌舞伎町1-4-1","lat":35.69392,"lon":139.70345},{"name":"東京都児童相談センター","province":"東京都","city":"新宿区","address":"新宿区北新宿4-6-1","lat":35.7081,"lon":139.69383},{"name":"東京都心身障害者福祉センター","province":"東京都","city":"新宿区","address":"新宿区神楽河岸1-1","lat":35.70095,"lon":139.74342},{"name":"けやき荘","province":"東京都","city":"新宿区","address":"東京都新宿区内藤町","lat":35.68528565,"lon":139.71532331},{"name":"淀橋荘","province":"東京都","city":"新宿区","address":"東京都新宿区内藤町","lat":35.68528565,"lon":139.71532331},{"name":"あけの星学園","province":"東京都","city":"新宿区","address":"新宿区中落合1-7-1","lat":35.717259,"lon":139.690727},{"name":"ひまわりホーム","province":"東京都","city":"新宿区","address":"新宿区西新宿4-21-19","lat":35.687954,"lon":139.683782},{"name":"あじさいホーム","province":"東京都","city":"新宿区","address":"新宿区西早稲田1-11-10","lat":35.711098,"lon":139.722617},{"name":"諏訪ハウス","province":"東京都","city":"新宿区","address":"新宿区高田馬場1-15-6","lat":35.709909,"lon":139.706405},{"name":"新宿区","province":"東京都","city":"新宿区","address":"新宿区歌舞伎町1-4-1","lat":35.69389,"lon":139.703463},{"name":"シャロームみなみ風","province":"東京都","city":"新宿区","address":"新宿区弁天町32-6","lat":35.704142,"lon":139.727269},{"name":"障害者支援施設新宿けやき園","province":"東京都","city":"新宿区","address":"新宿区百人町4-5-1","lat":35.708158,"lon":139.698107},{"name":"東京都児童相談センター","province":"東京都","city":"新宿区","address":"新宿区北新宿4-6-1","lat":35.708274,"lon":139.693808},{"name":"東京都心身障害者福祉センター","province":"東京都","city":"新宿区","address":"新宿区神楽河岸1-1","lat":35.700951,"lon":139.743579},{"name":"けやき荘","province":"東京都","city":"新宿区","address":"東京都新宿区","lat":35.69388716,"lon":139.70341014},{"name":"あけの星学園","province":"東京都","city":"新宿区","address":"新宿区中落合1-7-1","lat":35.71737,"lon":139.69038},{"name":"ひまわりホーム","province":"東京都","city":"新宿区","address":"新宿区西新宿4-21-19","lat":35.68816,"lon":139.68472},{"name":"あじさいホーム","province":"東京都","city":"新宿区","address":"新宿区西早稲田1-11-10","lat":35.71098,"lon":139.72264},{"name":"諏訪ハウス","province":"東京都","city":"新宿区","address":"新宿区高田馬場1-15-6","lat":35.70984,"lon":139.70639},{"name":"新宿区","province":"東京都","city":"新宿区","address":"新宿区歌舞伎町1-4-1","lat":35.69392,"lon":139.70345},{"name":"東京都児童相談センター","province":"東京都","city":"新宿区","address":"新宿区北新宿4-6-1","lat":35.7081,"lon":139.69383},{"name":"東京都心身障害者福祉センター","province":"東京都","city":"新宿区","address":"新宿区神楽河岸1-1","lat":35.70095,"lon":139.74342},{"name":"けやき荘","province":"東京都","city":"新宿区","address":"東京都新宿区内藤町","lat":35.68528565,"lon":139.71532331},{"name":"淀橋荘","province":"東京都","city":"新宿区","address":"東京都新宿区内藤町","lat":35.68528565,"lon":139.71532331},{"name":"あけの星学園","province":"東京都","city":"新宿区","address":"新宿区中落合1-7-1","lat":35.717259,"lon":139.690727},{"name":"ひまわりホーム","province":"東京都","city":"新宿区","address":"新宿区西新宿4-21-19","lat":35.687954,"lon":139.683782},{"name":"あじさいホーム","province":"東京都","city":"新宿区","address":"新宿区西早稲田1-11-10","lat":35.711098,"lon":139.722617},{"name":"諏訪ハウス","province":"東京都","city":"新宿区","address":"新宿区高田馬場1-15-6","lat":35.709909,"lon":139.706405},{"name":"新宿区","province":"東京都","city":"新宿区","address":"新宿区歌舞伎町1-4-1","lat":35.69389,"lon":139.703463},{"name":"シャロームみなみ風","province":"東京都","city":"新宿区","address":"新宿区弁天町32-6","lat":35.704142,"lon":139.727269},{"name":"障害者支援施設新宿けやき園","province":"東京都","city":"新宿区","address":"新宿区百人町4-5-1","lat":35.708158,"lon":139.698107},{"name":"東京都児童相談センター","province":"東京都","city":"新宿区","address":"新宿区北新宿4-6-1","lat":35.708274,"lon":139.693808},{"name":"東京都心身障害者福祉センター","province":"東京都","city":"新宿区","address":"新宿区神楽河岸1-1","lat":35.700951,"lon":139.743579},{"name":"けやき荘","province":"東京都","city":"新宿区","address":"東京都新宿区","lat":35.69388716,"lon":139.70341014},{"name":"あけの星学園","province":"東京都","city":"新宿区","address":"新宿区中落合1-7-1","lat":35.71737,"lon":139.69038},{"name":"ひまわりホーム","province":"東京都","city":"新宿区","address":"新宿区西新宿4-21-19","lat":35.68816,"lon":139.68472},{"name":"あじさいホーム","province":"東京都","city":"新宿区","address":"新宿区西早稲田1-11-10","lat":35.71098,"lon":139.72264},{"name":"諏訪ハウス","province":"東京都","city":"新宿区","address":"新宿区高田馬場1-15-6","lat":35.70984,"lon":139.70639},{"name":"新宿区","province":"東京都","city":"新宿区","address":"新宿区歌舞伎町1-4-1","lat":35.69392,"lon":139.70345},{"name":"東京都児童相談センター","province":"東京都","city":"新宿区","address":"新宿区北新宿4-6-1","lat":35.7081,"lon":139.69383},{"name":"東京都心身障害者福祉センター","province":"東京都","city":"新宿区","address":"新宿区神楽河岸1-1","lat":35.70095,"lon":139.74342},{"name":"けやき荘","province":"東京都","city":"新宿区","address":"東京都新宿区内藤町","lat":35.68528565,"lon":139.71532331},{"name":"淀橋荘","province":"東京都","city":"新宿区","address":"東京都新宿区内藤町","lat":35.68528565,"lon":139.71532331},{"name":"あけの星学園","province":"東京都","city":"新宿区","address":"新宿区中落合1-7-1","lat":35.717259,"lon":139.690727},{"name":"ひまわりホーム","province":"東京都","city":"新宿区","address":"新宿区西新宿4-21-19","lat":35.687954,"lon":139.683782},{"name":"あじさいホーム","province":"東京都","city":"新宿区","address":"新宿区西早稲田1-11-10","lat":35.711098,"lon":139.722617},{"name":"諏訪ハウス","province":"東京都","city":"新宿区","address":"新宿区高田馬場1-15-6","lat":35.709909,"lon":139.706405},{"name":"新宿区","province":"東京都","city":"新宿区","address":"新宿区歌舞伎町1-4-1","lat":35.69389,"lon":139.703463},{"name":"シャロームみなみ風","province":"東京都","city":"新宿区","address":"新宿区弁天町32-6","lat":35.704142,"lon":139.727269},{"name":"障害者支援施設新宿けやき園","province":"東京都","city":"新宿区","address":"新宿区百人町4-5-1","lat":35.708158,"lon":139.698107},{"name":"東京都児童相談センター","province":"東京都","city":"新宿区","address":"新宿区北新宿4-6-1","lat":35.708274,"lon":139.693808},{"name":"東京都心身障害者福祉センター","province":"東京都","city":"新宿区","address":"新宿区神楽河岸1-1","lat":35.700951,"lon":139.743579},{"name":"けやき荘","province":"東京都","city":"新宿区","address":"東京都新宿区","lat":35.69388716,"lon":139.70341014},{"name":"あけの星学園","province":"東京都","city":"新宿区","address":"新宿区中落合1-7-1","lat":35.71737,"lon":139.69038},{"name":"ひまわりホーム","province":"東京都","city":"新宿区","address":"新宿区西新宿4-21-19","lat":35.68816,"lon":139.68472},{"name":"あじさいホーム","province":"東京都","city":"新宿区","address":"新宿区西早稲田1-11-10","lat":35.71098,"lon":139.72264},{"name":"諏訪ハウス","province":"東京都","city":"新宿区","address":"新宿区高田馬場1-15-6","lat":35.70984,"lon":139.70639},{"name":"新宿区","province":"東京都","city":"新宿区","address":"新宿区歌舞伎町1-4-1","lat":35.69392,"lon":139.70345},{"name":"東京都児童相談センター","province":"東京都","city":"新宿区","address":"新宿区北新宿4-6-1","lat":35.7081,"lon":139.69383},{"name":"東京都心身障害者福祉センター","province":"東京都","city":"新宿区","address":"新宿区神楽河岸1-1","lat":35.70095,"lon":139.74342},{"name":"けやき荘","province":"東京都","city":"新宿区","address":"東京都新宿区内藤町","lat":35.68528565,"lon":139.71532331},{"name":"淀橋荘","province":"東京都","city":"新宿区","address":"東京都新宿区内藤町","lat":35.68528565,"lon":139.71532331},{"name":"あけの星学園","province":"東京都","city":"新宿区","address":"新宿区中落合1-7-1","lat":35.717259,"lon":139.690727},{"name":"ひまわりホーム","province":"東京都","city":"新宿区","address":"新宿区西新宿4-21-19","lat":35.687954,"lon":139.683782},{"name":"あじさいホーム","province":"東京都","city":"新宿区","address":"新宿区西早稲田1-11-10","lat":35.711098,"lon":139.722617},{"name":"諏訪ハウス","province":"東京都","city":"新宿区","address":"新宿区高田馬場1-15-6","lat":35.709909,"lon":139.706405},{"name":"新宿区","province":"東京都","city":"新宿区","address":"新宿区歌舞伎町1-4-1","lat":35.69389,"lon":139.703463},{"name":"シャロームみなみ風","province":"東京都","city":"新宿区","address":"新宿区弁天町32-6","lat":35.704142,"lon":139.727269},{"name":"障害者支援施設新宿けやき園","province":"東京都","city":"新宿区","address":"新宿区百人町4-5-1","lat":35.708158,"lon":139.698107},{"name":"東京都児童相談センター","province":"東京都","city":"新宿区","address":"新宿区北新宿4-6-1","lat":35.708274,"lon":139.693808},{"name":"東京都心身障害者福祉センター","province":"東京都","city":"新宿区","address":"新宿区神楽河岸1-1","lat":35.700951,"lon":139.743579},{"name":"けやき荘","province":"東京都","city":"新宿区","address":"東京都新宿区","lat":35.69388716,"lon":139.70341014},{"name":"あけの星学園","province":"東京都","city":"新宿区","address":"新宿区中落合1-7-1","lat":35.71737,"lon":139.69038},{"name":"ひまわりホーム","province":"東京都","city":"新宿区","address":"新宿区西新宿4-21-19","lat":35.68816,"lon":139.68472},{"name":"あじさいホーム","province":"東京都","city":"新宿区","address":"新宿区西早稲田1-11-10","lat":35.71098,"lon":139.72264},{"name":"諏訪ハウス","province":"東京都","city":"新宿区","address":"新宿区高田馬場1-15-6","lat":35.70984,"lon":139.70639},{"name":"新宿区","province":"東京都","city":"新宿区","address":"新宿区歌舞伎町1-4-1","lat":35.69392,"lon":139.70345},{"name":"東京都児童相談センター","province":"東京都","city":"新宿区","address":"新宿区北新宿4-6-1","lat":35.7081,"lon":139.69383},{"name":"東京都心身障害者福祉センター","province":"東京都","city":"新宿区","address":"新宿区神楽河岸1-1","lat":35.70095,"lon":139.74342},{"name":"けやき荘","province":"東京都","city":"新宿区","address":"東京都新宿区内藤町","lat":35.68528565,"lon":139.71532331},{"name":"淀橋荘","province":"東京都","city":"新宿区","address":"東京都新宿区内藤町","lat":35.68528565,"lon":139.71532331},{"name":"あけの星学園","province":"東京都","city":"新宿区","address":"新宿区中落合1-7-1","lat":35.717259,"lon":139.690727},{"name":"ひまわりホーム","province":"東京都","city":"新宿区","address":"新宿区西新宿4-21-19","lat":35.687954,"lon":139.683782},{"name":"あじさいホーム","province":"東京都","city":"新宿区","address":"新宿区西早稲田1-11-10","lat":35.711098,"lon":139.722617},{"name":"諏訪ハウス","province":"東京都","city":"新宿区","address":"新宿区高田馬場1-15-6","lat":35.709909,"lon":139.706405},{"name":"新宿区","province":"東京都","city":"新宿区","address":"新宿区歌舞伎町1-4-1","lat":35.69389,"lon":139.703463},{"name":"シャロームみなみ風","province":"東京都","city":"新宿区","address":"新宿区弁天町32-6","lat":35.704142,"lon":139.727269},{"name":"障害者支援施設新宿けやき園","province":"東京都","city":"新宿区","address":"新宿区百人町4-5-1","lat":35.708158,"lon":139.698107},{"name":"東京都児童相談センター","province":"東京都","city":"新宿区","address":"新宿区北新宿4-6-1","lat":35.708274,"lon":139.693808},{"name":"東京都心身障害者福祉センター","province":"東京都","city":"新宿区","address":"新宿区神楽河岸1-1","lat":35.700951,"lon":139.743579},{"name":"けやき荘","province":"東京都","city":"新宿区","address":"東京都新宿区","lat":35.69388716,"lon":139.70341014},{"name":"あけの星学園","province":"東京都","city":"新宿区","address":"新宿区中落合1-7-1","lat":35.71737,"lon":139.69038},{"name":"ひまわりホーム","province":"東京都","city":"新宿区","address":"新宿区西新宿4-21-19","lat":35.68816,"lon":139.68472},{"name":"あじさいホーム","province":"東京都","city":"新宿区","address":"新宿区西早稲田1-11-10","lat":35.71098,"lon":139.72264},{"name":"諏訪ハウス","province":"東京都","city":"新宿区","address":"新宿区高田馬場1-15-6","lat":35.70984,"lon":139.70639},{"name":"新宿区","province":"東京都","city":"新宿区","address":"新宿区歌舞伎町1-4-1","lat":35.69392,"lon":139.70345},{"name":"東京都児童相談センター","province":"東京都","city":"新宿区","address":"新宿区北新宿4-6-1","lat":35.7081,"lon":139.69383},{"name":"東京都心身障害者福祉センター","province":"東京都","city":"新宿区","address":"新宿区神楽河岸1-1","lat":35.70095,"lon":139.74342},{"name":"けやき荘","province":"東京都","city":"新宿区","address":"東京都新宿区内藤町","lat":35.68528565,"lon":139.71532331},{"name":"淀橋荘","province":"東京都","city":"新宿区","address":"東京都新宿区内藤町","lat":35.68528565,"lon":139.71532331},{"name":"あけの星学園","province":"東京都","city":"新宿区","address":"新宿区中落合1-7-1","lat":35.717259,"lon":139.690727},{"name":"ひまわりホーム","province":"東京都","city":"新宿区","address":"新宿区西新宿4-21-19","lat":35.687954,"lon":139.683782},{"name":"あじさいホーム","province":"東京都","city":"新宿区","address":"新宿区西早稲田1-11-10","lat":35.711098,"lon":139.722617},{"name":"諏訪ハウス","province":"東京都","city":"新宿区","address":"新宿区高田馬場1-15-6","lat":35.709909,"lon":139.706405},{"name":"新宿区","province":"東京都","city":"新宿区","address":"新宿区歌舞伎町1-4-1","lat":35.69389,"lon":139.703463}]}