{"keyword":"子ども","data":[{"name":"東京都庁第一本庁舎","province":"東京都","city":"新宿区","address":"東京都新宿区西新宿2丁目8","lat":35.689389,"lon":139.691468},{"name":"東京都庁第一本庁舎","province":"東京都","city":"新宿区","address":"東京都新宿区西新宿2丁目8","lat":35.689453,"lon":139.691446},{"name":"東京都庁第一本庁舎","province":"東京都","city":"新宿区","address":"東京都新宿区西新宿2丁目8","lat":35.689338,"lon":139.691613},{"name":"東京都庁第一本庁舎","province":"東京都","city":"新宿区","address":"東京都新宿区西新宿2丁目8","lat":35.689561,"lon":139.691851},{"name":"東京都庁第一本庁舎","province":"東京都","city":"新宿区","address":"東京都新宿区西新宿2丁目8","lat":35.689638,"lon":139.691835},{"name":"東京都庁第一本庁舎","province":"東京都","city":"新宿区","address":"東京都新宿区西新宿2丁目8","lat":35.689943,"lon":139.691531},{"name":"東京都庁第一本庁舎","province":"東京都","city":"新宿区","address":"東京都新宿区西新宿2丁目8","lat":35.68903,"lon":139.691748},{"name":"東京都庁第一本庁舎","province":"東京都","city":"新宿区","address":"東京都新宿区西新宿2丁目8","lat":35.689655,"lon":139.691693},{"name":"東京都庁第一本庁舎","province":"東京都","city":"新宿区","address":"東京都新宿区西新宿2丁目8","lat":35.689881,"lon":139.691701},{"name":"東京都庁第一本庁舎","province":"東京都","city":"新宿区","address":"東京都新宿区西新宿2丁目8","lat":35.689626,"lon":139.691708},{"name":"東京都庁第一本庁舎","province":"東京都","city":"新宿区","address":"東京都新宿区西新宿2丁目8","lat":35.689619,"lon":139.691632},{"name":"東京都庁第一本庁舎","province":"東京都","city":"新宿区","address":"東京都新宿区西新宿2丁目8-1","lat":35.689334,"lon":139.691689},{"name":"東京都庁第一本庁舎","province":"東京都","city":"新宿区","address":"東京都新宿区西新宿2丁目8-1","lat":35.68935,"lon":139.691774},{"name":"東京都庁第一本庁舎","province":"東京都","city":"新宿区","address":"東京都新宿区西新宿2丁目8","lat":35.68942,"lon":139.691595},{"name":"東京都庁第一本庁舎","province":"東京都","city":"新宿区","address":"東京都新宿区西新宿2丁目8","lat":35.68965,"lon":139.691623},{"name":"東京都庁第二本庁舎","province":"東京都","city":"新宿区","address":"東京都新宿区西新宿2丁目9","lat":35.688377,"lon":139.691912},{"name":"東京都庁第二本庁舎","province":"東京都","city":"新宿区","address":"東京都新宿区西新宿2丁目8","lat":35.689787,"lon":139.691495},{"name":"東京都庁第二本庁舎","province":"東京都","city":"新宿区","address":"東京都新宿区西新宿2丁目8","lat":35.68957,"lon":139.691762},{"name":"東京都庁第二本庁舎","province":"東京都","city":"新宿区","address":"東京都新宿区西新宿2丁目9","lat":35.688238,"lon":139.691792},{"name":"東京都庁第二本庁舎","province":"東京都","city":"新宿区","address":"東京都新宿区西新宿2丁目9","lat":35.687991,"lon":139.692045},{"name":"東京都庁第二本庁舎","province":"東京都","city":"新宿区","address":"東京都新宿区西新宿2丁目9","lat":35.68798,"lon":139.692062},{"name":"東京都庁第二本庁舎","province":"東京都","city":"新宿区","address":"東京都新宿区西新宿2丁目9","lat":35.688007,"lon":139.692135},{"name":"東京都庁第二本庁舎","province":"東京都","city":"新宿区","address":"東京都新宿区西新宿2丁目9","lat":35.687987,"lon":139.691955},{"name":"東京都庁第二本庁舎","province":"東京都","city":"新宿区","address":"東京都新宿区西新宿2丁目9","lat":35.688,"lon":139.691983},{"name":"東京都議会議事堂","province":"東京都","city":"新宿区","address":"東京都新宿区西新宿2丁目5-1","lat":35.689561,"lon":139.693385},{"name":"東京都議会議事堂","province":"東京都","city":"新宿区","address":"東京都新宿区西新宿2丁目5-1","lat":35.689908,"lon":139.693315},{"name":"東京都議会議事堂","province":"東京都","city":"新宿区","address":"東京都新宿区西新宿2丁目5","lat":35.689258,"lon":139.693158},{"name":"東京都議会議事堂","province":"東京都","city":"新宿区","address":"東京都新宿区西新宿2丁目5","lat":35.690037,"lon":139.69326},{"name":"東京都議会議事堂","province":"東京都","city":"新宿区","address":"東京都新宿区西新宿2丁目5","lat":35.689249,"lon":139.6931},{"name":"東京都議会議事堂","province":"東京都","city":"新宿区","address":"東京都新宿区西新宿2丁目5-1","lat":35.689565,"lon":139.693416},{"name":"東京都議会議事堂","province":"東京都","city":"新宿区","address":"東京都新宿区西新宿2丁目5-1","lat":35.689973,"lon":139.693301},{"name":"東京都議会議事堂","province":"東京都","city":"新宿区","address":"東京都新宿区西新宿2丁目5","lat":35.689806,"lon":139.692936},{"name":"東京都議会議事堂","province":"東京都","city":"新宿区","address":"東京都新宿区西新宿2丁目5","lat":35.689573,"lon":139.692975},{"name":"東京都議会議事堂","province":"東京都","city":"新宿区","address":"東京都新宿区西新宿2丁目8","lat":35.689714,"lon":139.692127},{"name":"新宿都税事務所","province":"東京都","city":"新宿区","address":"東京都新宿区西新宿7丁目5-8","lat":35.696788,"lon":139.698553},{"name":"東京都消費生活総合センター","province":"東京都","city":"新宿区","address":"東京都新宿区神楽河岸1","lat":35.700849,"lon":139.743846},{"name":"東京都健康安全研究センター","province":"東京都","city":"新宿区","address":"東京都新宿区百人町3丁目24-1","lat":35.706094,"lon":139.697759},{"name":"小田急第一生命ビル","province":"東京都","city":"新宿区","address":"東京都新宿区西新宿2丁目7-1","lat":35.691471,"lon":139.69099},{"name":"地方独立行政法人東京都立病院機構　東京都立大久保病院","province":"東京都","city":"新宿区","address":"東京都新宿区歌舞伎町2丁目44-1","lat":35.696685,"lon":139.701453},{"name":"戸山公園","province":"東京都","city":"新宿区","address":"東京都新宿区大久保3丁目5","lat":35.705155,"lon":139.704339},{"name":"戸山公園","province":"東京都","city":"新宿区","address":"東京都新宿区戸山3丁目1","lat":35.706302,"lon":139.715819},{"name":"戸山公園","province":"東京都","city":"新宿区","address":"東京都新宿区戸山3丁目2","lat":35.705523,"lon":139.714018},{"name":"明治公園","province":"東京都","city":"新宿区","address":"東京都新宿区霞ヶ丘町5","lat":35.675463,"lon":139.713076},{"name":"都営新宿線新宿三丁目駅","province":"東京都","city":"新宿区","address":"東京都新宿区新宿3丁目9-10","lat":35.691041,"lon":139.706753},{"name":"都営新宿線曙橋駅","province":"東京都","city":"新宿区","address":"東京都新宿区住吉町7","lat":35.692413,"lon":139.722627},{"name":"都営大江戸線新宿西口駅","province":"東京都","city":"新宿区","address":"東京都新宿区西新宿1丁目3","lat":35.693315,"lon":139.699147},{"name":"都営大江戸線東新宿駅","province":"東京都","city":"新宿区","address":"東京都新宿区新宿7丁目27","lat":35.697868,"lon":139.707721},{"name":"都営大江戸線若松河田駅","province":"東京都","city":"新宿区","address":"東京都新宿区若松町10","lat":35.69928,"lon":139.718351},{"name":"都営大江戸線牛込柳町駅","province":"東京都","city":"新宿区","address":"東京都新宿区原町1丁目","lat":35.699466,"lon":139.725492},{"name":"都営大江戸線牛込神楽坂駅","province":"東京都","city":"新宿区","address":"東京都新宿区岩戸町","lat":35.70105,"lon":139.736183},{"name":"都営大江戸線国立競技場駅","province":"東京都","city":"新宿区","address":"東京都新宿区霞ヶ丘町11","lat":35.679826,"lon":139.715056},{"name":"都営大江戸線都庁前駅","province":"東京都","city":"新宿区","address":"東京都新宿区西新宿2丁目5","lat":35.690619,"lon":139.693005},{"name":"都営大江戸線西新宿五丁目駅","province":"東京都","city":"新宿区","address":"東京都新宿区西新宿4丁目5","lat":35.689905,"lon":139.684683},{"name":"都営大江戸線中井駅","province":"東京都","city":"新宿区","address":"東京都新宿区上落合2丁目22","lat":35.713874,"lon":139.686204},{"name":"都営大江戸線落合南長崎駅","province":"東京都","city":"新宿区","address":"東京都新宿区西落合3丁目2","lat":35.723537,"lon":139.683421},{"name":"新宿消防署西新宿出張所","province":"東京都","city":"新宿区","address":"東京都新宿区西新宿3丁目7-38","lat":35.686154,"lon":139.689836},{"name":"新宿区役所第一分庁舎","province":"東京都","city":"新宿区","address":"東京都新宿区歌舞伎町1丁目5-9","lat":35.693452,"lon":139.703371},{"name":"新宿区役所本庁舎","province":"東京都","city":"新宿区","address":"東京都新宿区歌舞伎町1丁目4-1","lat":35.693979,"lon":139.703457},{"name":"新宿区役所本庁舎","province":"東京都","city":"新宿区","address":"東京都新宿区歌舞伎町1丁目4-1","lat":35.693879,"lon":139.703425},{"name":"新宿区役所第一分庁舎","province":"東京都","city":"新宿区","address":"東京都新宿区歌舞伎町1丁目5-9","lat":35.693433,"lon":139.703351},{"name":"柏木特別出張所","province":"東京都","city":"新宿区","address":"東京都新宿区北新宿2丁目3-7","lat":35.698647,"lon":139.690272},{"name":"新宿区役所第二分庁舎","province":"東京都","city":"新宿区","address":"東京都新宿区新宿5丁目18-21","lat":35.694219,"lon":139.706065},{"name":"新宿区役所第二分庁舎分館","province":"東京都","city":"新宿区","address":"東京都新宿区新宿5丁目18-21","lat":35.694033,"lon":139.705958},{"name":"新宿区箪笥町特別出張所等区民施設","province":"東京都","city":"新宿区","address":"東京都新宿区箪笥町15","lat":35.700583,"lon":139.734053},{"name":"新宿区箪笥町特別出張所等区民施設","province":"東京都","city":"新宿区","address":"東京都新宿区箪笥町15","lat":35.700538,"lon":139.734201},{"name":"新宿区榎町特別出張所","province":"東京都","city":"新宿区","address":"東京都新宿区早稲田町85","lat":35.705407,"lon":139.72679},{"name":"若松町特別出張所","province":"東京都","city":"新宿区","address":"東京都新宿区若松町12-6","lat":35.698903,"lon":139.716425},{"name":"新宿区大久保特別出張所","province":"東京都","city":"新宿区","address":"東京都新宿区大久保2丁目12-7","lat":35.701587,"lon":139.706711},{"name":"落合第一特別出張所等区民施設","province":"東京都","city":"新宿区","address":"東京都新宿区下落合4丁目6-7","lat":35.718615,"lon":139.695018},{"name":"落合第一特別出張所等区民施設","province":"東京都","city":"新宿区","address":"東京都新宿区下落合4丁目6-7","lat":35.718673,"lon":139.695041},{"name":"落合第一特別出張所等区民施設","province":"東京都","city":"新宿区","address":"東京都新宿区下落合4丁目6-7","lat":35.718735,"lon":139.695077},{"name":"落合第一特別出張所等区民施設","province":"東京都","city":"新宿区","address":"東京都新宿区下落合4丁目6-7","lat":35.718757,"lon":139.695104},{"name":"落合第二特別出張所等区民施設","province":"東京都","city":"新宿区","address":"東京都新宿区中落合4丁目17-13","lat":35.719898,"lon":139.683074},{"name":"柏木地域センター","province":"東京都","city":"新宿区","address":"東京都新宿区北新宿2丁目3-7","lat":35.69845,"lon":139.690337},{"name":"新宿区角筈特別出張所等区民施設","province":"東京都","city":"新宿区","address":"東京都新宿区西新宿4丁目33-7","lat":35.686278,"lon":139.689148},{"name":"新宿区角筈特別出張所等区民施設","province":"東京都","city":"新宿区","address":"東京都新宿区西新宿4丁目33-7","lat":35.686199,"lon":139.689088},{"name":"産業会館（BIZ新宿）","province":"東京都","city":"新宿区","address":"東京都新宿区西新宿6丁目8-2","lat":35.693548,"lon":139.690306},{"name":"産業会館（BIZ新宿）","province":"東京都","city":"新宿区","address":"東京都新宿区西新宿6丁目8-2","lat":35.693499,"lon":139.690386},{"name":"戸塚特別出張所","province":"東京都","city":"新宿区","address":"東京都新宿区高田馬場2丁目18-1","lat":35.714405,"lon":139.70505},{"name":"新宿区榎町地域センター","province":"東京都","city":"新宿区","address":"東京都新宿区早稲田町85","lat":35.705471,"lon":139.726675},{"name":"新宿区榎町地域センター","province":"東京都","city":"新宿区","address":"東京都新宿区早稲田町85","lat":35.705458,"lon":139.726824},{"name":"若松地域センター","province":"東京都","city":"新宿区","address":"東京都新宿区若松町12-6","lat":35.698903,"lon":139.716425},{"name":"戸塚地域センター","province":"東京都","city":"新宿区","address":"東京都新宿区高田馬場2丁目18-1","lat":35.714395,"lon":139.705064},{"name":"戸塚地域センター","province":"東京都","city":"新宿区","address":"東京都新宿区高田馬場2丁目18-1","lat":35.714437,"lon":139.705051},{"name":"戸塚地域センター","province":"東京都","city":"新宿区","address":"東京都新宿区高田馬場2丁目18-1","lat":35.714471,"lon":139.705131},{"name":"戸塚地域センター","province":"東京都","city":"新宿区","address":"東京都新宿区高田馬場2丁目18-1","lat":35.714473,"lon":139.705107},{"name":"新宿区落合保健センター","province":"東京都","city":"新宿区","address":"東京都新宿区下落合4丁目6-7","lat":35.718633,"lon":139.695051},{"name":"区民ギャラリー","province":"東京都","city":"新宿区","address":"東京都新宿区西新宿2丁目11-4","lat":35.690996,"lon":139.688699},{"name":"新宿区立新宿NPO協働推進センター","province":"東京都","city":"新宿区","address":"東京都新宿区高田馬場4丁目36-12","lat":35.709826,"lon":139.696322},{"name":"新宿区立新宿NPO協働推進センター","province":"東京都","city":"新宿区","address":"東京都新宿区高田馬場4丁目36-12","lat":35.709654,"lon":139.696441},{"name":"戸山生涯学習館","province":"東京都","city":"新宿区","address":"東京都新宿区戸山2丁目11-10","lat":35.701969,"lon":139.714268},{"name":"戸山生涯学習館","province":"東京都","city":"新宿区","address":"東京都新宿区戸山2丁目11-10","lat":35.701951,"lon":139.714129},{"name":"住吉町生涯学習館","province":"東京都","city":"新宿区","address":"東京都新宿区住吉町13-3","lat":35.694595,"lon":139.719803},{"name":"四谷保健センター等","province":"東京都","city":"新宿区","address":"東京都新宿区四谷三栄町10-16","lat":35.688745,"lon":139.724357},{"name":"四谷保健センター等","province":"東京都","city":"新宿区","address":"東京都新宿区四谷三栄町10-16","lat":35.68885,"lon":139.724287},{"name":"東新宿保健センター","province":"東京都","city":"新宿区","address":"東京都新宿区新宿7丁目26-4","lat":35.698169,"lon":139.709683},{"name":"牛込保健センター等","province":"東京都","city":"新宿区","address":"東京都新宿区矢来町6","lat":35.701109,"lon":139.730934},{"name":"新宿区立中央図書館","province":"東京都","city":"新宿区","address":"東京都新宿区大久保3丁目1-1","lat":35.705287,"lon":139.707086},{"name":"新宿区立中央図書館","province":"東京都","city":"新宿区","address":"東京都新宿区大久保3丁目1-1","lat":35.705277,"lon":139.707455},{"name":"新宿区立中央図書館","province":"東京都","city":"新宿区","address":"東京都新宿区大久保3丁目1-1","lat":35.705199,"lon":139.707261},{"name":"新宿区立下落合図書館","province":"東京都","city":"新宿区","address":"東京都新宿区下落合1丁目9-8","lat":35.715992,"lon":139.698939},{"name":"新宿区立下落合図書館","province":"東京都","city":"新宿区","address":"東京都新宿区下落合1丁目9-8","lat":35.71599,"lon":139.698904},{"name":"新宿歴史博物館","province":"東京都","city":"新宿区","address":"東京都新宿区四谷三栄町12-16","lat":35.689929,"lon":139.725569},{"name":"新宿歴史博物館","province":"東京都","city":"新宿区","address":"東京都新宿区四谷三栄町12-16","lat":35.68996,"lon":139.725569},{"name":"新宿区立漱石山房記念館","province":"東京都","city":"新宿区","address":"東京都新宿区早稲田南町7","lat":35.703926,"lon":139.725377},{"name":"新宿区立漱石山房記念館","province":"東京都","city":"新宿区","address":"東京都新宿区早稲田南町7","lat":35.703956,"lon":139.72537},{"name":"新宿区立漱石山房記念館","province":"東京都","city":"新宿区","address":"東京都新宿区早稲田南町7","lat":35.70397,"lon":139.72549},{"name":"四谷区民センター","province":"東京都","city":"新宿区","address":"東京都新宿区内藤町87","lat":35.687564,"lon":139.714565},{"name":"新宿区立中村彝アトリエ記念館","province":"東京都","city":"新宿区","address":"東京都新宿区下落合3丁目5","lat":35.720925,"lon":139.701299},{"name":"新宿区立西戸山公園(東側)","province":"東京都","city":"新宿区","address":"東京都新宿区百人町4丁目1","lat":35.708318,"lon":139.701667},{"name":"新宿文化センター","province":"東京都","city":"新宿区","address":"東京都新宿区新宿6丁目14-1","lat":35.695372,"lon":139.709058},{"name":"新宿文化センター","province":"東京都","city":"新宿区","address":"東京都新宿区新宿6丁目14-1","lat":35.695598,"lon":139.709825},{"name":"新宿文化センター","province":"東京都","city":"新宿区","address":"東京都新宿区新宿6丁目14","lat":35.695364,"lon":139.709612},{"name":"新宿文化センター","province":"東京都","city":"新宿区","address":"東京都新宿区新宿6丁目14-1","lat":35.695706,"lon":139.709683},{"name":"新宿文化センター","province":"東京都","city":"新宿区","address":"東京都新宿区新宿6丁目14-1","lat":35.695528,"lon":139.709528},{"name":"新宿文化センター","province":"東京都","city":"新宿区","address":"東京都新宿区新宿6丁目14-1","lat":35.695542,"lon":139.709545},{"name":"新宿区立白銀公園","province":"東京都","city":"新宿区","address":"東京都新宿区白銀町3","lat":35.703781,"lon":139.737378},{"name":"新宿区立大久保公園","province":"東京都","city":"新宿区","address":"東京都新宿区歌舞伎町2丁目43","lat":35.697273,"lon":139.701536},{"name":"新宿区立西戸山公園（西側）","province":"東京都","city":"新宿区","address":"東京都新宿区百人町4丁目2","lat":35.707577,"lon":139.698554},{"name":"大久保スポーツプラザ","province":"東京都","city":"新宿区","address":"東京都新宿区大久保3丁目7-42","lat":35.706423,"lon":139.702056},{"name":"新宿区立鶴巻南公園","province":"東京都","city":"新宿区","address":"東京都新宿区早稲田町","lat":35.706078,"lon":139.723413},{"name":"新宿区立北柏木公園","province":"東京都","city":"新宿区","address":"東京都新宿区北新宿4丁目12","lat":35.707384,"lon":139.692862},{"name":"新宿区立新小川公園","province":"東京都","city":"新宿区","address":"東京都新宿区新小川町3","lat":35.704778,"lon":139.742101},{"name":"新宿区立みなみもと町公園","province":"東京都","city":"新宿区","address":"東京都新宿区南元町","lat":35.68082,"lon":139.725883},{"name":"新宿区立おとめ山公園","province":"東京都","city":"新宿区","address":"東京都新宿区下落合2丁目10","lat":35.718526,"lon":139.700994},{"name":"新宿区立おとめ山公園","province":"東京都","city":"新宿区","address":"東京都新宿区下落合2丁目11","lat":35.717477,"lon":139.70298},{"name":"新宿区立清水川橋公園","province":"東京都","city":"新宿区","address":"東京都新宿区下落合1丁目1","lat":35.716068,"lon":139.704045},{"name":"新宿区立葛ヶ谷公園","province":"東京都","city":"新宿区","address":"東京都新宿区西落合2丁目1","lat":35.723256,"lon":139.677816},{"name":"新宿区立佐伯公園","province":"東京都","city":"新宿区","address":"東京都新宿区中落合2丁目4","lat":35.720997,"lon":139.693707},{"name":"新宿区立新宿中央公園","province":"東京都","city":"新宿区","address":"東京都新宿区西新宿2丁目11","lat":35.690907,"lon":139.688158},{"name":"新宿区立新宿中央公園","province":"東京都","city":"新宿区","address":"東京都新宿区西新宿2丁目10","lat":35.686802,"lon":139.689938},{"name":"新宿区立新宿中央公園","province":"東京都","city":"新宿区","address":"東京都新宿区西新宿2丁目11","lat":35.689359,"lon":139.688865},{"name":"新宿区立新宿中央公園","province":"東京都","city":"新宿区","address":"東京都新宿区西新宿2丁目11","lat":35.691541,"lon":139.689562},{"name":"新宿区立新宿中央公園","province":"東京都","city":"新宿区","address":"東京都新宿区西新宿2丁目11","lat":35.688975,"lon":139.690624},{"name":"新宿区立新宿中央公園","province":"東京都","city":"新宿区","address":"東京都新宿区西新宿2丁目11","lat":35.690354,"lon":139.689737},{"name":"新宿区立抜弁天北公園","province":"東京都","city":"新宿区","address":"東京都新宿区新宿7丁目3","lat":35.699387,"lon":139.713773},{"name":"新宿区立かば公園","province":"東京都","city":"新宿区","address":"東京都新宿区中落合2丁目16","lat":35.718574,"lon":139.693471},{"name":"新宿区立富久さくら公園","province":"東京都","city":"新宿区","address":"東京都新宿区富久町21","lat":35.69314,"lon":139.714102},{"name":"新宿区立柏木どんぐり公園","province":"東京都","city":"新宿区","address":"東京都新宿区北新宿2丁目19","lat":35.697125,"lon":139.688828},{"name":"新宿区立みずき児童遊園","province":"東京都","city":"新宿区","address":"東京都新宿区西早稲田2丁目12","lat":35.70799,"lon":139.713142},{"name":"新宿区立津の守坂児童遊園","province":"東京都","city":"新宿区","address":"東京都新宿区四谷坂町11-14","lat":35.691601,"lon":139.725327},{"name":"新宿区立妙正寺川公園","province":"東京都","city":"新宿区","address":"東京都新宿区西落合2丁目20","lat":35.720416,"lon":139.675146},{"name":"新宿区立山伏公園","province":"東京都","city":"新宿区","address":"東京都新宿区北山伏町1","lat":35.699372,"lon":139.730726},{"name":"新宿区立新左門児童遊園","province":"東京都","city":"新宿区","address":"東京都新宿区左門町","lat":35.684523,"lon":139.72071},{"name":"新宿区立須賀公園","province":"東京都","city":"新宿区","address":"東京都新宿区須賀町","lat":35.684998,"lon":139.723114},{"name":"新宿区立なんど児童遊園","province":"東京都","city":"新宿区","address":"東京都新宿区納戸町","lat":35.698049,"lon":139.733077},{"name":"新宿区立四谷見附公園","province":"東京都","city":"新宿区","address":"東京都新宿区四谷1丁目","lat":35.683663,"lon":139.728389},{"name":"新宿区立西大久保公園","province":"東京都","city":"新宿区","address":"東京都新宿区大久保1丁目17","lat":35.699305,"lon":139.702215},{"name":"新宿区立花園西公園","province":"東京都","city":"新宿区","address":"東京都新宿区新宿1丁目32","lat":35.690633,"lon":139.711356},{"name":"新宿区立あかね公園","province":"東京都","city":"新宿区","address":"東京都新宿区西落合1丁目31","lat":35.719944,"lon":139.679733},{"name":"新宿区立中根坂東公園","province":"東京都","city":"新宿区","address":"東京都新宿区納戸町","lat":35.696424,"lon":139.73258},{"name":"新宿区立甘泉園公園","province":"東京都","city":"新宿区","address":"東京都新宿区西早稲田3丁目5","lat":35.71192,"lon":139.71656},{"name":"新宿区立落合公園","province":"東京都","city":"新宿区","address":"東京都新宿区中井1丁目14","lat":35.714959,"lon":139.680818},{"name":"新宿区立北新宿公園","province":"東京都","city":"新宿区","address":"東京都新宿区北新宿3丁目20","lat":35.702568,"lon":139.688662},{"name":"新宿区立花園公園","province":"東京都","city":"新宿区","address":"東京都新宿区新宿1丁目21","lat":35.688971,"lon":139.713293},{"name":"新宿区立やよい公園","province":"東京都","city":"新宿区","address":"東京都新宿区中落合3丁目14","lat":35.721804,"lon":139.689805},{"name":"新宿区立高田馬場公園","province":"東京都","city":"新宿区","address":"東京都新宿区高田馬場4丁目22","lat":35.710865,"lon":139.701029},{"name":"みょうが坂児童遊園","province":"東京都","city":"新宿区","address":"東京都新宿区四谷4丁目","lat":35.690455,"lon":139.715962},{"name":"新宿区立合羽坂上公衆便所","province":"東京都","city":"新宿区","address":"東京都新宿区市谷仲之町4","lat":35.695436,"lon":139.724625},{"name":"新宿区立矢来交番脇公衆便所","province":"東京都","city":"新宿区","address":"東京都新宿区東榎町","lat":35.704582,"lon":139.730659},{"name":"新宿区立御苑前公衆便所","province":"東京都","city":"新宿区","address":"東京都新宿区内藤町","lat":35.687495,"lon":139.714153},{"name":"新宿区立太宗寺内公衆便所","province":"東京都","city":"新宿区","address":"東京都新宿区新宿2丁目9","lat":35.690183,"lon":139.709148},{"name":"新宿区立新宿駅東南口公衆便所","province":"東京都","city":"新宿区","address":"東京都新宿区新宿3丁目37","lat":35.689634,"lon":139.701485},{"name":"新宿区立戸山公衆便所","province":"東京都","city":"新宿区","address":"東京都新宿区戸山2丁目33","lat":35.700947,"lon":139.709328},{"name":"新宿区立四村橋脇公衆便所","province":"東京都","city":"新宿区","address":"東京都新宿区西落合2丁目19","lat":35.720169,"lon":139.676475},{"name":"新宿区立新宿西口地下第二公衆便所","province":"東京都","city":"新宿区","address":"東京都新宿区西新宿1丁目6","lat":35.692167,"lon":139.698093},{"name":"新宿区立西武新宿駅前公衆便所","province":"東京都","city":"新宿区","address":"東京都新宿区歌舞伎町1丁目30","lat":35.695471,"lon":139.70015},{"name":"新宿区立富久町公衆便所","province":"東京都","city":"新宿区","address":"東京都新宿区富久町2","lat":35.691654,"lon":139.71843},{"name":"新宿スポーツセンター","province":"東京都","city":"新宿区","address":"東京都新宿区大久保3丁目5-1","lat":35.707119,"lon":139.705425},{"name":"新宿スポーツセンター","province":"東京都","city":"新宿区","address":"東京都新宿区大久保3丁目5-1","lat":35.707121,"lon":139.705526},{"name":"新宿コズミックセンター","province":"東京都","city":"新宿区","address":"東京都新宿区大久保3丁目1-2","lat":35.704832,"lon":139.708356},{"name":"新宿コズミックセンター","province":"東京都","city":"新宿区","address":"東京都新宿区大久保3丁目1-2","lat":35.704832,"lon":139.708283},{"name":"新宿コズミックセンター","province":"東京都","city":"新宿区","address":"東京都新宿区大久保3丁目1-2","lat":35.704851,"lon":139.708385},{"name":"新宿区立西落合児童館","province":"東京都","city":"新宿区","address":"東京都新宿区西落合1丁目31-24","lat":35.719752,"lon":139.679572},{"name":"新宿区社会福祉協議会","province":"東京都","city":"新宿区","address":"東京都新宿区高田馬場1丁目17-20","lat":35.711685,"lon":139.707388},{"name":"新宿区立障害者福祉センター","province":"東京都","city":"新宿区","address":"東京都新宿区戸山1丁目22-2","lat":35.703725,"lon":139.717513},{"name":"新宿区立障害者福祉センター","province":"東京都","city":"新宿区","address":"東京都新宿区戸山1丁目22-2","lat":35.70374195,"lon":139.7173071},{"name":"新宿区立高田馬場第一児童館","province":"東京都","city":"新宿区","address":"東京都新宿区高田馬場3丁目18-21","lat":35.714165,"lon":139.697779},{"name":"新宿区立高田馬場第一児童館","province":"東京都","city":"新宿区","address":"東京都新宿区高田馬場3丁目18-21","lat":35.714199,"lon":139.697882},{"name":"新宿区立西落合児童館","province":"東京都","city":"新宿区","address":"東京都新宿区西落合1丁目31-24","lat":35.719759,"lon":139.679662},{"name":"新宿区立富久町児童館","province":"東京都","city":"新宿区","address":"東京都新宿区富久町22-21","lat":35.694099,"lon":139.715617},{"name":"落合第二高齢者総合相談センター","province":"東京都","city":"新宿区","address":"東京都新宿区上落合2丁目22","lat":35.713989,"lon":139.686776},{"name":"薬王寺児童館","province":"東京都","city":"新宿区","address":"東京都新宿区市谷薬王寺町20-40","lat":35.69624,"lon":139.72473},{"name":"男女共同参画推進センター","province":"東京都","city":"新宿区","address":"東京都新宿区荒木町16","lat":35.691495,"lon":139.724819},{"name":"新宿区立子ども総合センター","province":"東京都","city":"新宿区","address":"東京都新宿区新宿7丁目3-29","lat":35.700993,"lon":139.712376},{"name":"新宿区立信濃町子ども家庭支援センター","province":"東京都","city":"新宿区","address":"東京都新宿区信濃町20","lat":35.683421,"lon":139.720193},{"name":"新宿区立榎町子ども家庭支援センター","province":"東京都","city":"新宿区","address":"東京都新宿区榎町36","lat":35.704541,"lon":139.727756},{"name":"環境学習情報センター","province":"東京都","city":"新宿区","address":"東京都新宿区西新宿2丁目11-4","lat":35.691064,"lon":139.688575},{"name":"新宿リサイクル活動センター","province":"東京都","city":"新宿区","address":"東京都新宿区高田馬場4丁目10-2","lat":35.712737,"lon":139.702954},{"name":"西早稲田リサイクル活動センター","province":"東京都","city":"新宿区","address":"東京都新宿区西早稲田3丁目19-5","lat":35.710974,"lon":139.712392},{"name":"新宿清掃事務所","province":"東京都","city":"新宿区","address":"東京都新宿区下落合2丁目1-1","lat":35.71666,"lon":139.704627},{"name":"新宿区立防災センター","province":"東京都","city":"新宿区","address":"東京都新宿区市谷仲之町2-42","lat":35.693921,"lon":139.723957},{"name":"新宿区立四谷スポーツスクエア","province":"東京都","city":"新宿区","address":"東京都新宿区四谷1丁目6-4","lat":35.687906,"lon":139.728411},{"name":"新宿区立西新宿児童館","province":"東京都","city":"新宿区","address":"東京都新宿区西新宿4丁目35-28","lat":35.686343,"lon":139.686902},{"name":"薬王寺地域ささえあい館","province":"東京都","city":"新宿区","address":"東京都新宿区市谷薬王寺町20-40","lat":35.696143,"lon":139.724684},{"name":"高田馬場シニア活動館","province":"東京都","city":"新宿区","address":"東京都新宿区高田馬場3丁目39-29","lat":35.712123,"lon":139.695974},{"name":"信濃町シニア活動館","province":"東京都","city":"新宿区","address":"東京都新宿区信濃町20","lat":35.683392,"lon":139.720151},{"name":"戸山シニア活動館","province":"東京都","city":"新宿区","address":"東京都新宿区戸山2丁目27-2","lat":35.704544,"lon":139.710812},{"name":"西新宿シニア活動館","province":"東京都","city":"新宿区","address":"東京都新宿区西新宿4丁目8-35","lat":35.688673,"lon":139.684398},{"name":"西早稲田地域交流館","province":"東京都","city":"新宿区","address":"東京都新宿区西早稲田1丁目22-3","lat":35.711617,"lon":139.717379},{"name":"山吹町地域交流館","province":"東京都","city":"新宿区","address":"東京都新宿区山吹町342","lat":35.707946,"lon":139.729673},{"name":"北新宿地域交流館","province":"東京都","city":"新宿区","address":"東京都新宿区北新宿2丁目3-7","lat":35.698541,"lon":139.690229},{"name":"本塩町地域交流館","province":"東京都","city":"新宿区","address":"東京都新宿区四谷本塩町4-9","lat":35.688491,"lon":139.72934},{"name":"都庁第二本庁舎","province":"東京都","city":"新宿区","address":"東京都新宿区西新宿2丁目8-1","lat":35.68918461,"lon":139.69164748},{"name":"明治神宮外苑軟式野球場","province":"東京都","city":"新宿区","address":"東京都新宿区霞ヶ丘町1-1","lat":35.67880032,"lon":139.71766225},{"name":"都立落合中央公園野球場","province":"東京都","city":"新宿区","address":"東京都新宿区上落合1丁目2","lat":35.71287916,"lon":139.69289364},{"name":"新宿区立西戸山公園野球場","province":"東京都","city":"新宿区","address":"東京都新宿区百人町4丁目1","lat":35.70748833,"lon":139.70088483},{"name":"東京都庁第一本庁舎","province":"東京都","city":"新宿区","address":"東京都新宿区西新宿2丁目8-1","lat":35.68918461,"lon":139.69164748},{"name":"国立国際医療研究センターヘリポート","province":"東京都","city":"新宿区","address":"東京都新宿区戸山1丁目21-1","lat":35.70174214,"lon":139.71530878},{"name":"＊?戸山生涯学習館","province":"東京都","city":"新宿区","address":"新宿区戸山2-11-101","lat":35.701951,"lon":139.714195},{"name":"＊?赤城生涯学習館","province":"東京都","city":"新宿区","address":"新宿区赤城元町1-3","lat":35.704322,"lon":139.736335},{"name":"＊?住吉町生涯学習館","province":"東京都","city":"新宿区","address":"新宿区住吉町13-3","lat":35.694574,"lon":139.719843},{"name":"＊?北新宿生涯学習館","province":"東京都","city":"新宿区","address":"新宿区北新宿3-20-2","lat":35.702962,"lon":139.689461},{"name":"＊?西戸山生涯学習館","province":"東京都","city":"新宿区","address":"新宿区百人町4-7-1","lat":35.70895,"lon":139.695638},{"name":"＊?新宿区立区民ギャラリー","province":"東京都","city":"新宿区","address":"新宿区西新宿2-11-4","lat":35.691019,"lon":139.688613},{"name":"新宿区立新宿コズミックスポーツセンター","province":"東京都","city":"新宿区","address":"東京都新宿区大久保3丁目1-2","lat":35.70498047,"lon":139.70807873},{"name":"災害対策職員住宅柏木住宅内集中備蓄倉庫","province":"東京都","city":"新宿区","address":"新宿区北新宿4-6-1","lat":35.708274,"lon":139.693808},{"name":"新宿区","province":"東京都","city":"新宿区","address":"新宿区原町3-23","lat":35.70002,"lon":139.7223},{"name":"新宿駅","province":"東京都","city":"新宿区","address":"東京都新宿区新宿3丁目38-1","lat":35.69130129,"lon":139.70113545},{"name":"※都庁第二庁舎","province":"東京都","city":"新宿区","address":"東京都新宿区西新宿2丁目8-1","lat":35.68918461,"lon":139.69164748},{"name":"JR四ツ谷駅 四ツ谷口","province":"東京都","city":"新宿区","address":"東京都新宿区四谷1丁目5-25","lat":35.68615853,"lon":139.7300796,"番号":"Goal","コース":"E赤坂","大見出し":"赤坂氷川神社、豊川稲荷東京別院、東京ミッドタウン、赤坂サカスなど、伝統と現代が織りなす赤坂の魅力を探るコース","小見出し":""},{"name":"御鷹の松","province":"東京都","city":"新宿区","address":"東京都新宿区霞ヶ丘町1","lat":35.67775882,"lon":139.7170823,"番号":"G-3","コース":"G外苑","大見出し":"「絵になる」イチョウ並木を歩きながら、明治の歴史にふれるコース","小見出し":"言い伝えられる松"},{"name":"聖徳記念絵画館","province":"東京都","city":"新宿区","address":"東京都新宿区霞ヶ丘町1-1","lat":35.67875598,"lon":139.7176213,"番号":"G-4","コース":"G外苑","大見出し":"「絵になる」イチョウ並木を歩きながら、明治の歴史にふれるコース","小見出し":"神宮外苑のシンボル"},{"name":"樺太日露国境天測標","province":"東京都","city":"新宿区","address":"東京都新宿区霞ヶ丘町1","lat":35.67810865,"lon":139.7171661,"番号":"G-5","コース":"G外苑","大見出し":"「絵になる」イチョウ並木を歩きながら、明治の歴史にふれるコース","小見出し":"レプリカの境界天測標石"},{"name":"葬場殿趾","province":"東京都","city":"新宿区","address":"東京都新宿区霞ヶ丘町1","lat":35.6790523,"lon":139.7174872,"番号":"G-6","コース":"G外苑","大見出し":"「絵になる」イチョウ並木を歩きながら、明治の歴史にふれるコース","小見出し":"楠の大木が月日を感じさせる"},{"name":"都営大江戸線 国立競技場駅 A2出口","province":"東京都","city":"新宿区","address":"東京都新宿区霞ヶ丘町10","lat":35.67971471,"lon":139.7143615,"番号":"Goal","コース":"G外苑","大見出し":"「絵になる」イチョウ並木を歩きながら、明治の歴史にふれるコース","小見出し":""},{"name":"東京都庁第一本庁舎","province":"東京都","city":"新宿区","address":"東京都新宿区西新宿2丁目8","lat":35.689389,"lon":139.691468},{"name":"東京都庁第一本庁舎","province":"東京都","city":"新宿区","address":"東京都新宿区西新宿2丁目8","lat":35.689453,"lon":139.691446},{"name":"東京都庁第一本庁舎","province":"東京都","city":"新宿区","address":"東京都新宿区西新宿2丁目8","lat":35.689338,"lon":139.691613},{"name":"東京都庁第一本庁舎","province":"東京都","city":"新宿区","address":"東京都新宿区西新宿2丁目8","lat":35.689561,"lon":139.691851},{"name":"東京都庁第一本庁舎","province":"東京都","city":"新宿区","address":"東京都新宿区西新宿2丁目8","lat":35.689638,"lon":139.691835},{"name":"東京都庁第一本庁舎","province":"東京都","city":"新宿区","address":"東京都新宿区西新宿2丁目8","lat":35.689943,"lon":139.691531},{"name":"東京都庁第一本庁舎","province":"東京都","city":"新宿区","address":"東京都新宿区西新宿2丁目8","lat":35.68903,"lon":139.691748},{"name":"東京都庁第一本庁舎","province":"東京都","city":"新宿区","address":"東京都新宿区西新宿2丁目8","lat":35.689655,"lon":139.691693},{"name":"東京都庁第一本庁舎","province":"東京都","city":"新宿区","address":"東京都新宿区西新宿2丁目8","lat":35.689881,"lon":139.691701},{"name":"東京都庁第一本庁舎","province":"東京都","city":"新宿区","address":"東京都新宿区西新宿2丁目8","lat":35.689626,"lon":139.691708},{"name":"東京都庁第一本庁舎","province":"東京都","city":"新宿区","address":"東京都新宿区西新宿2丁目8","lat":35.689619,"lon":139.691632},{"name":"東京都庁第一本庁舎","province":"東京都","city":"新宿区","address":"東京都新宿区西新宿2丁目8-1","lat":35.689334,"lon":139.691689},{"name":"東京都庁第一本庁舎","province":"東京都","city":"新宿区","address":"東京都新宿区西新宿2丁目8-1","lat":35.68935,"lon":139.691774},{"name":"東京都庁第一本庁舎","province":"東京都","city":"新宿区","address":"東京都新宿区西新宿2丁目8","lat":35.68942,"lon":139.691595},{"name":"東京都庁第一本庁舎","province":"東京都","city":"新宿区","address":"東京都新宿区西新宿2丁目8","lat":35.68965,"lon":139.691623},{"name":"東京都庁第二本庁舎","province":"東京都","city":"新宿区","address":"東京都新宿区西新宿2丁目9","lat":35.688377,"lon":139.691912},{"name":"東京都庁第二本庁舎","province":"東京都","city":"新宿区","address":"東京都新宿区西新宿2丁目8","lat":35.689787,"lon":139.691495},{"name":"東京都庁第二本庁舎","province":"東京都","city":"新宿区","address":"東京都新宿区西新宿2丁目8","lat":35.68957,"lon":139.691762},{"name":"東京都庁第二本庁舎","province":"東京都","city":"新宿区","address":"東京都新宿区西新宿2丁目9","lat":35.688238,"lon":139.691792},{"name":"東京都庁第二本庁舎","province":"東京都","city":"新宿区","address":"東京都新宿区西新宿2丁目9","lat":35.687991,"lon":139.692045},{"name":"東京都庁第二本庁舎","province":"東京都","city":"新宿区","address":"東京都新宿区西新宿2丁目9","lat":35.68798,"lon":139.692062},{"name":"東京都庁第二本庁舎","province":"東京都","city":"新宿区","address":"東京都新宿区西新宿2丁目9","lat":35.688007,"lon":139.692135},{"name":"東京都庁第二本庁舎","province":"東京都","city":"新宿区","address":"東京都新宿区西新宿2丁目9","lat":35.687987,"lon":139.691955},{"name":"東京都庁第二本庁舎","province":"東京都","city":"新宿区","address":"東京都新宿区西新宿2丁目9","lat":35.688,"lon":139.691983},{"name":"東京都議会議事堂","province":"東京都","city":"新宿区","address":"東京都新宿区西新宿2丁目5-1","lat":35.689561,"lon":139.693385},{"name":"東京都議会議事堂","province":"東京都","city":"新宿区","address":"東京都新宿区西新宿2丁目5-1","lat":35.689908,"lon":139.693315},{"name":"東京都議会議事堂","province":"東京都","city":"新宿区","address":"東京都新宿区西新宿2丁目5","lat":35.689258,"lon":139.693158},{"name":"東京都議会議事堂","province":"東京都","city":"新宿区","address":"東京都新宿区西新宿2丁目5","lat":35.690037,"lon":139.69326},{"name":"東京都議会議事堂","province":"東京都","city":"新宿区","address":"東京都新宿区西新宿2丁目5","lat":35.689249,"lon":139.6931},{"name":"東京都議会議事堂","province":"東京都","city":"新宿区","address":"東京都新宿区西新宿2丁目5-1","lat":35.689565,"lon":139.693416},{"name":"東京都議会議事堂","province":"東京都","city":"新宿区","address":"東京都新宿区西新宿2丁目5-1","lat":35.689973,"lon":139.693301},{"name":"東京都議会議事堂","province":"東京都","city":"新宿区","address":"東京都新宿区西新宿2丁目5","lat":35.689806,"lon":139.692936},{"name":"東京都議会議事堂","province":"東京都","city":"新宿区","address":"東京都新宿区西新宿2丁目5","lat":35.689573,"lon":139.692975},{"name":"東京都議会議事堂","province":"東京都","city":"新宿区","address":"東京都新宿区西新宿2丁目8","lat":35.689714,"lon":139.692127},{"name":"新宿都税事務所","province":"東京都","city":"新宿区","address":"東京都新宿区西新宿7丁目5-8","lat":35.696788,"lon":139.698553},{"name":"東京都消費生活総合センター","province":"東京都","city":"新宿区","address":"東京都新宿区神楽河岸1","lat":35.700849,"lon":139.743846},{"name":"東京都健康安全研究センター","province":"東京都","city":"新宿区","address":"東京都新宿区百人町3丁目24-1","lat":35.706094,"lon":139.697759},{"name":"小田急第一生命ビル","province":"東京都","city":"新宿区","address":"東京都新宿区西新宿2丁目7-1","lat":35.691471,"lon":139.69099},{"name":"地方独立行政法人東京都立病院機構　東京都立大久保病院","province":"東京都","city":"新宿区","address":"東京都新宿区歌舞伎町2丁目44-1","lat":35.696685,"lon":139.701453},{"name":"戸山公園","province":"東京都","city":"新宿区","address":"東京都新宿区大久保3丁目5","lat":35.705155,"lon":139.704339},{"name":"戸山公園","province":"東京都","city":"新宿区","address":"東京都新宿区戸山3丁目1","lat":35.706302,"lon":139.715819},{"name":"戸山公園","province":"東京都","city":"新宿区","address":"東京都新宿区戸山3丁目2","lat":35.705523,"lon":139.714018},{"name":"明治公園","province":"東京都","city":"新宿区","address":"東京都新宿区霞ヶ丘町5","lat":35.675463,"lon":139.713076},{"name":"都営新宿線新宿三丁目駅","province":"東京都","city":"新宿区","address":"東京都新宿区新宿3丁目9-10","lat":35.691041,"lon":139.706753},{"name":"都営新宿線曙橋駅","province":"東京都","city":"新宿区","address":"東京都新宿区住吉町7","lat":35.692413,"lon":139.722627},{"name":"都営大江戸線新宿西口駅","province":"東京都","city":"新宿区","address":"東京都新宿区西新宿1丁目3","lat":35.693315,"lon":139.699147},{"name":"都営大江戸線東新宿駅","province":"東京都","city":"新宿区","address":"東京都新宿区新宿7丁目27","lat":35.697868,"lon":139.707721},{"name":"都営大江戸線若松河田駅","province":"東京都","city":"新宿区","address":"東京都新宿区若松町10","lat":35.69928,"lon":139.718351},{"name":"都営大江戸線牛込柳町駅","province":"東京都","city":"新宿区","address":"東京都新宿区原町1丁目","lat":35.699466,"lon":139.725492},{"name":"都営大江戸線牛込神楽坂駅","province":"東京都","city":"新宿区","address":"東京都新宿区岩戸町","lat":35.70105,"lon":139.736183},{"name":"都営大江戸線国立競技場駅","province":"東京都","city":"新宿区","address":"東京都新宿区霞ヶ丘町11","lat":35.679826,"lon":139.715056},{"name":"都営大江戸線都庁前駅","province":"東京都","city":"新宿区","address":"東京都新宿区西新宿2丁目5","lat":35.690619,"lon":139.693005},{"name":"都営大江戸線西新宿五丁目駅","province":"東京都","city":"新宿区","address":"東京都新宿区西新宿4丁目5","lat":35.689905,"lon":139.684683},{"name":"都営大江戸線中井駅","province":"東京都","city":"新宿区","address":"東京都新宿区上落合2丁目22","lat":35.713874,"lon":139.686204},{"name":"都営大江戸線落合南長崎駅","province":"東京都","city":"新宿区","address":"東京都新宿区西落合3丁目2","lat":35.723537,"lon":139.683421},{"name":"新宿消防署西新宿出張所","province":"東京都","city":"新宿区","address":"東京都新宿区西新宿3丁目7-38","lat":35.686154,"lon":139.689836},{"name":"新宿区役所第一分庁舎","province":"東京都","city":"新宿区","address":"東京都新宿区歌舞伎町1丁目5-9","lat":35.693452,"lon":139.703371},{"name":"新宿区役所本庁舎","province":"東京都","city":"新宿区","address":"東京都新宿区歌舞伎町1丁目4-1","lat":35.693979,"lon":139.703457},{"name":"新宿区役所本庁舎","province":"東京都","city":"新宿区","address":"東京都新宿区歌舞伎町1丁目4-1","lat":35.693879,"lon":139.703425},{"name":"新宿区役所第一分庁舎","province":"東京都","city":"新宿区","address":"東京都新宿区歌舞伎町1丁目5-9","lat":35.693433,"lon":139.703351},{"name":"柏木特別出張所","province":"東京都","city":"新宿区","address":"東京都新宿区北新宿2丁目3-7","lat":35.698647,"lon":139.690272},{"name":"新宿区役所第二分庁舎","province":"東京都","city":"新宿区","address":"東京都新宿区新宿5丁目18-21","lat":35.694219,"lon":139.706065},{"name":"新宿区役所第二分庁舎分館","province":"東京都","city":"新宿区","address":"東京都新宿区新宿5丁目18-21","lat":35.694033,"lon":139.705958},{"name":"新宿区箪笥町特別出張所等区民施設","province":"東京都","city":"新宿区","address":"東京都新宿区箪笥町15","lat":35.700583,"lon":139.734053},{"name":"新宿区箪笥町特別出張所等区民施設","province":"東京都","city":"新宿区","address":"東京都新宿区箪笥町15","lat":35.700538,"lon":139.734201},{"name":"新宿区榎町特別出張所","province":"東京都","city":"新宿区","address":"東京都新宿区早稲田町85","lat":35.705407,"lon":139.72679},{"name":"若松町特別出張所","province":"東京都","city":"新宿区","address":"東京都新宿区若松町12-6","lat":35.698903,"lon":139.716425},{"name":"新宿区大久保特別出張所","province":"東京都","city":"新宿区","address":"東京都新宿区大久保2丁目12-7","lat":35.701587,"lon":139.706711},{"name":"落合第一特別出張所等区民施設","province":"東京都","city":"新宿区","address":"東京都新宿区下落合4丁目6-7","lat":35.718615,"lon":139.695018},{"name":"落合第一特別出張所等区民施設","province":"東京都","city":"新宿区","address":"東京都新宿区下落合4丁目6-7","lat":35.718673,"lon":139.695041},{"name":"落合第一特別出張所等区民施設","province":"東京都","city":"新宿区","address":"東京都新宿区下落合4丁目6-7","lat":35.718735,"lon":139.695077},{"name":"落合第一特別出張所等区民施設","province":"東京都","city":"新宿区","address":"東京都新宿区下落合4丁目6-7","lat":35.718757,"lon":139.695104},{"name":"落合第二特別出張所等区民施設","province":"東京都","city":"新宿区","address":"東京都新宿区中落合4丁目17-13","lat":35.719898,"lon":139.683074},{"name":"柏木地域センター","province":"東京都","city":"新宿区","address":"東京都新宿区北新宿2丁目3-7","lat":35.69845,"lon":139.690337},{"name":"新宿区角筈特別出張所等区民施設","province":"東京都","city":"新宿区","address":"東京都新宿区西新宿4丁目33-7","lat":35.686278,"lon":139.689148},{"name":"新宿区角筈特別出張所等区民施設","province":"東京都","city":"新宿区","address":"東京都新宿区西新宿4丁目33-7","lat":35.686199,"lon":139.689088},{"name":"産業会館（BIZ新宿）","province":"東京都","city":"新宿区","address":"東京都新宿区西新宿6丁目8-2","lat":35.693548,"lon":139.690306},{"name":"産業会館（BIZ新宿）","province":"東京都","city":"新宿区","address":"東京都新宿区西新宿6丁目8-2","lat":35.693499,"lon":139.690386},{"name":"戸塚特別出張所","province":"東京都","city":"新宿区","address":"東京都新宿区高田馬場2丁目18-1","lat":35.714405,"lon":139.70505},{"name":"新宿区榎町地域センター","province":"東京都","city":"新宿区","address":"東京都新宿区早稲田町85","lat":35.705471,"lon":139.726675},{"name":"新宿区榎町地域センター","province":"東京都","city":"新宿区","address":"東京都新宿区早稲田町85","lat":35.705458,"lon":139.726824},{"name":"若松地域センター","province":"東京都","city":"新宿区","address":"東京都新宿区若松町12-6","lat":35.698903,"lon":139.716425},{"name":"戸塚地域センター","province":"東京都","city":"新宿区","address":"東京都新宿区高田馬場2丁目18-1","lat":35.714395,"lon":139.705064},{"name":"戸塚地域センター","province":"東京都","city":"新宿区","address":"東京都新宿区高田馬場2丁目18-1","lat":35.714437,"lon":139.705051},{"name":"戸塚地域センター","province":"東京都","city":"新宿区","address":"東京都新宿区高田馬場2丁目18-1","lat":35.714471,"lon":139.705131},{"name":"戸塚地域センター","province":"東京都","city":"新宿区","address":"東京都新宿区高田馬場2丁目18-1","lat":35.714473,"lon":139.705107},{"name":"新宿区落合保健センター","province":"東京都","city":"新宿区","address":"東京都新宿区下落合4丁目6-7","lat":35.718633,"lon":139.695051},{"name":"区民ギャラリー","province":"東京都","city":"新宿区","address":"東京都新宿区西新宿2丁目11-4","lat":35.690996,"lon":139.688699},{"name":"新宿区立新宿NPO協働推進センター","province":"東京都","city":"新宿区","address":"東京都新宿区高田馬場4丁目36-12","lat":35.709826,"lon":139.696322},{"name":"新宿区立新宿NPO協働推進センター","province":"東京都","city":"新宿区","address":"東京都新宿区高田馬場4丁目36-12","lat":35.709654,"lon":139.696441},{"name":"戸山生涯学習館","province":"東京都","city":"新宿区","address":"東京都新宿区戸山2丁目11-10","lat":35.701969,"lon":139.714268},{"name":"戸山生涯学習館","province":"東京都","city":"新宿区","address":"東京都新宿区戸山2丁目11-10","lat":35.701951,"lon":139.714129},{"name":"住吉町生涯学習館","province":"東京都","city":"新宿区","address":"東京都新宿区住吉町13-3","lat":35.694595,"lon":139.719803},{"name":"四谷保健センター等","province":"東京都","city":"新宿区","address":"東京都新宿区四谷三栄町10-16","lat":35.688745,"lon":139.724357},{"name":"四谷保健センター等","province":"東京都","city":"新宿区","address":"東京都新宿区四谷三栄町10-16","lat":35.68885,"lon":139.724287},{"name":"東新宿保健センター","province":"東京都","city":"新宿区","address":"東京都新宿区新宿7丁目26-4","lat":35.698169,"lon":139.709683},{"name":"牛込保健センター等","province":"東京都","city":"新宿区","address":"東京都新宿区矢来町6","lat":35.701109,"lon":139.730934},{"name":"新宿区立中央図書館","province":"東京都","city":"新宿区","address":"東京都新宿区大久保3丁目1-1","lat":35.705287,"lon":139.707086},{"name":"新宿区立中央図書館","province":"東京都","city":"新宿区","address":"東京都新宿区大久保3丁目1-1","lat":35.705277,"lon":139.707455},{"name":"新宿区立中央図書館","province":"東京都","city":"新宿区","address":"東京都新宿区大久保3丁目1-1","lat":35.705199,"lon":139.707261},{"name":"新宿区立下落合図書館","province":"東京都","city":"新宿区","address":"東京都新宿区下落合1丁目9-8","lat":35.715992,"lon":139.698939},{"name":"新宿区立下落合図書館","province":"東京都","city":"新宿区","address":"東京都新宿区下落合1丁目9-8","lat":35.71599,"lon":139.698904},{"name":"新宿歴史博物館","province":"東京都","city":"新宿区","address":"東京都新宿区四谷三栄町12-16","lat":35.689929,"lon":139.725569},{"name":"新宿歴史博物館","province":"東京都","city":"新宿区","address":"東京都新宿区四谷三栄町12-16","lat":35.68996,"lon":139.725569},{"name":"新宿区立漱石山房記念館","province":"東京都","city":"新宿区","address":"東京都新宿区早稲田南町7","lat":35.703926,"lon":139.725377},{"name":"新宿区立漱石山房記念館","province":"東京都","city":"新宿区","address":"東京都新宿区早稲田南町7","lat":35.703956,"lon":139.72537},{"name":"新宿区立漱石山房記念館","province":"東京都","city":"新宿区","address":"東京都新宿区早稲田南町7","lat":35.70397,"lon":139.72549},{"name":"四谷区民センター","province":"東京都","city":"新宿区","address":"東京都新宿区内藤町87","lat":35.687564,"lon":139.714565},{"name":"新宿区立中村彝アトリエ記念館","province":"東京都","city":"新宿区","address":"東京都新宿区下落合3丁目5","lat":35.720925,"lon":139.701299},{"name":"新宿区立西戸山公園(東側)","province":"東京都","city":"新宿区","address":"東京都新宿区百人町4丁目1","lat":35.708318,"lon":139.701667},{"name":"新宿文化センター","province":"東京都","city":"新宿区","address":"東京都新宿区新宿6丁目14-1","lat":35.695372,"lon":139.709058},{"name":"新宿文化センター","province":"東京都","city":"新宿区","address":"東京都新宿区新宿6丁目14-1","lat":35.695598,"lon":139.709825},{"name":"新宿文化センター","province":"東京都","city":"新宿区","address":"東京都新宿区新宿6丁目14","lat":35.695364,"lon":139.709612},{"name":"新宿文化センター","province":"東京都","city":"新宿区","address":"東京都新宿区新宿6丁目14-1","lat":35.695706,"lon":139.709683},{"name":"新宿文化センター","province":"東京都","city":"新宿区","address":"東京都新宿区新宿6丁目14-1","lat":35.695528,"lon":139.709528},{"name":"新宿文化センター","province":"東京都","city":"新宿区","address":"東京都新宿区新宿6丁目14-1","lat":35.695542,"lon":139.709545},{"name":"新宿区立白銀公園","province":"東京都","city":"新宿区","address":"東京都新宿区白銀町3","lat":35.703781,"lon":139.737378},{"name":"新宿区立大久保公園","province":"東京都","city":"新宿区","address":"東京都新宿区歌舞伎町2丁目43","lat":35.697273,"lon":139.701536},{"name":"新宿区立西戸山公園（西側）","province":"東京都","city":"新宿区","address":"東京都新宿区百人町4丁目2","lat":35.707577,"lon":139.698554},{"name":"大久保スポーツプラザ","province":"東京都","city":"新宿区","address":"東京都新宿区大久保3丁目7-42","lat":35.706423,"lon":139.702056},{"name":"新宿区立鶴巻南公園","province":"東京都","city":"新宿区","address":"東京都新宿区早稲田町","lat":35.706078,"lon":139.723413},{"name":"新宿区立北柏木公園","province":"東京都","city":"新宿区","address":"東京都新宿区北新宿4丁目12","lat":35.707384,"lon":139.692862},{"name":"新宿区立新小川公園","province":"東京都","city":"新宿区","address":"東京都新宿区新小川町3","lat":35.704778,"lon":139.742101},{"name":"新宿区立みなみもと町公園","province":"東京都","city":"新宿区","address":"東京都新宿区南元町","lat":35.68082,"lon":139.725883},{"name":"新宿区立おとめ山公園","province":"東京都","city":"新宿区","address":"東京都新宿区下落合2丁目10","lat":35.718526,"lon":139.700994},{"name":"新宿区立おとめ山公園","province":"東京都","city":"新宿区","address":"東京都新宿区下落合2丁目11","lat":35.717477,"lon":139.70298},{"name":"新宿区立清水川橋公園","province":"東京都","city":"新宿区","address":"東京都新宿区下落合1丁目1","lat":35.716068,"lon":139.704045},{"name":"新宿区立葛ヶ谷公園","province":"東京都","city":"新宿区","address":"東京都新宿区西落合2丁目1","lat":35.723256,"lon":139.677816},{"name":"新宿区立佐伯公園","province":"東京都","city":"新宿区","address":"東京都新宿区中落合2丁目4","lat":35.720997,"lon":139.693707},{"name":"新宿区立新宿中央公園","province":"東京都","city":"新宿区","address":"東京都新宿区西新宿2丁目11","lat":35.690907,"lon":139.688158},{"name":"新宿区立新宿中央公園","province":"東京都","city":"新宿区","address":"東京都新宿区西新宿2丁目10","lat":35.686802,"lon":139.689938},{"name":"新宿区立新宿中央公園","province":"東京都","city":"新宿区","address":"東京都新宿区西新宿2丁目11","lat":35.689359,"lon":139.688865},{"name":"新宿区立新宿中央公園","province":"東京都","city":"新宿区","address":"東京都新宿区西新宿2丁目11","lat":35.691541,"lon":139.689562},{"name":"新宿区立新宿中央公園","province":"東京都","city":"新宿区","address":"東京都新宿区西新宿2丁目11","lat":35.688975,"lon":139.690624},{"name":"新宿区立新宿中央公園","province":"東京都","city":"新宿区","address":"東京都新宿区西新宿2丁目11","lat":35.690354,"lon":139.689737},{"name":"新宿区立抜弁天北公園","province":"東京都","city":"新宿区","address":"東京都新宿区新宿7丁目3","lat":35.699387,"lon":139.713773},{"name":"新宿区立かば公園","province":"東京都","city":"新宿区","address":"東京都新宿区中落合2丁目16","lat":35.718574,"lon":139.693471},{"name":"新宿区立富久さくら公園","province":"東京都","city":"新宿区","address":"東京都新宿区富久町21","lat":35.69314,"lon":139.714102},{"name":"新宿区立柏木どんぐり公園","province":"東京都","city":"新宿区","address":"東京都新宿区北新宿2丁目19","lat":35.697125,"lon":139.688828},{"name":"新宿区立みずき児童遊園","province":"東京都","city":"新宿区","address":"東京都新宿区西早稲田2丁目12","lat":35.70799,"lon":139.713142},{"name":"新宿区立津の守坂児童遊園","province":"東京都","city":"新宿区","address":"東京都新宿区四谷坂町11-14","lat":35.691601,"lon":139.725327},{"name":"新宿区立妙正寺川公園","province":"東京都","city":"新宿区","address":"東京都新宿区西落合2丁目20","lat":35.720416,"lon":139.675146},{"name":"新宿区立山伏公園","province":"東京都","city":"新宿区","address":"東京都新宿区北山伏町1","lat":35.699372,"lon":139.730726},{"name":"新宿区立新左門児童遊園","province":"東京都","city":"新宿区","address":"東京都新宿区左門町","lat":35.684523,"lon":139.72071},{"name":"新宿区立須賀公園","province":"東京都","city":"新宿区","address":"東京都新宿区須賀町","lat":35.684998,"lon":139.723114},{"name":"新宿区立なんど児童遊園","province":"東京都","city":"新宿区","address":"東京都新宿区納戸町","lat":35.698049,"lon":139.733077},{"name":"新宿区立四谷見附公園","province":"東京都","city":"新宿区","address":"東京都新宿区四谷1丁目","lat":35.683663,"lon":139.728389},{"name":"新宿区立西大久保公園","province":"東京都","city":"新宿区","address":"東京都新宿区大久保1丁目17","lat":35.699305,"lon":139.702215},{"name":"新宿区立花園西公園","province":"東京都","city":"新宿区","address":"東京都新宿区新宿1丁目32","lat":35.690633,"lon":139.711356},{"name":"新宿区立あかね公園","province":"東京都","city":"新宿区","address":"東京都新宿区西落合1丁目31","lat":35.719944,"lon":139.679733},{"name":"新宿区立中根坂東公園","province":"東京都","city":"新宿区","address":"東京都新宿区納戸町","lat":35.696424,"lon":139.73258},{"name":"新宿区立甘泉園公園","province":"東京都","city":"新宿区","address":"東京都新宿区西早稲田3丁目5","lat":35.71192,"lon":139.71656},{"name":"新宿区立落合公園","province":"東京都","city":"新宿区","address":"東京都新宿区中井1丁目14","lat":35.714959,"lon":139.680818},{"name":"新宿区立北新宿公園","province":"東京都","city":"新宿区","address":"東京都新宿区北新宿3丁目20","lat":35.702568,"lon":139.688662},{"name":"新宿区立花園公園","province":"東京都","city":"新宿区","address":"東京都新宿区新宿1丁目21","lat":35.688971,"lon":139.713293},{"name":"新宿区立やよい公園","province":"東京都","city":"新宿区","address":"東京都新宿区中落合3丁目14","lat":35.721804,"lon":139.689805},{"name":"新宿区立高田馬場公園","province":"東京都","city":"新宿区","address":"東京都新宿区高田馬場4丁目22","lat":35.710865,"lon":139.701029},{"name":"みょうが坂児童遊園","province":"東京都","city":"新宿区","address":"東京都新宿区四谷4丁目","lat":35.690455,"lon":139.715962},{"name":"新宿区立合羽坂上公衆便所","province":"東京都","city":"新宿区","address":"東京都新宿区市谷仲之町4","lat":35.695436,"lon":139.724625},{"name":"新宿区立矢来交番脇公衆便所","province":"東京都","city":"新宿区","address":"東京都新宿区東榎町","lat":35.704582,"lon":139.730659},{"name":"新宿区立御苑前公衆便所","province":"東京都","city":"新宿区","address":"東京都新宿区内藤町","lat":35.687495,"lon":139.714153},{"name":"新宿区立太宗寺内公衆便所","province":"東京都","city":"新宿区","address":"東京都新宿区新宿2丁目9","lat":35.690183,"lon":139.709148},{"name":"新宿区立新宿駅東南口公衆便所","province":"東京都","city":"新宿区","address":"東京都新宿区新宿3丁目37","lat":35.689634,"lon":139.701485},{"name":"新宿区立戸山公衆便所","province":"東京都","city":"新宿区","address":"東京都新宿区戸山2丁目33","lat":35.700947,"lon":139.709328},{"name":"新宿区立四村橋脇公衆便所","province":"東京都","city":"新宿区","address":"東京都新宿区西落合2丁目19","lat":35.720169,"lon":139.676475},{"name":"新宿区立新宿西口地下第二公衆便所","province":"東京都","city":"新宿区","address":"東京都新宿区西新宿1丁目6","lat":35.692167,"lon":139.698093},{"name":"新宿区立西武新宿駅前公衆便所","province":"東京都","city":"新宿区","address":"東京都新宿区歌舞伎町1丁目30","lat":35.695471,"lon":139.70015},{"name":"新宿区立富久町公衆便所","province":"東京都","city":"新宿区","address":"東京都新宿区富久町2","lat":35.691654,"lon":139.71843},{"name":"新宿スポーツセンター","province":"東京都","city":"新宿区","address":"東京都新宿区大久保3丁目5-1","lat":35.707119,"lon":139.705425},{"name":"新宿スポーツセンター","province":"東京都","city":"新宿区","address":"東京都新宿区大久保3丁目5-1","lat":35.707121,"lon":139.705526},{"name":"新宿コズミックセンター","province":"東京都","city":"新宿区","address":"東京都新宿区大久保3丁目1-2","lat":35.704832,"lon":139.708356},{"name":"新宿コズミックセンター","province":"東京都","city":"新宿区","address":"東京都新宿区大久保3丁目1-2","lat":35.704832,"lon":139.708283},{"name":"新宿コズミックセンター","province":"東京都","city":"新宿区","address":"東京都新宿区大久保3丁目1-2","lat":35.704851,"lon":139.708385},{"name":"新宿区立西落合児童館","province":"東京都","city":"新宿区","address":"東京都新宿区西落合1丁目31-24","lat":35.719752,"lon":139.679572},{"name":"新宿区社会福祉協議会","province":"東京都","city":"新宿区","address":"東京都新宿区高田馬場1丁目17-20","lat":35.711685,"lon":139.707388},{"name":"新宿区立障害者福祉センター","province":"東京都","city":"新宿区","address":"東京都新宿区戸山1丁目22-2","lat":35.703725,"lon":139.717513},{"name":"新宿区立障害者福祉センター","province":"東京都","city":"新宿区","address":"東京都新宿区戸山1丁目22-2","lat":35.70374195,"lon":139.7173071},{"name":"新宿区立高田馬場第一児童館","province":"東京都","city":"新宿区","address":"東京都新宿区高田馬場3丁目18-21","lat":35.714165,"lon":139.697779},{"name":"新宿区立高田馬場第一児童館","province":"東京都","city":"新宿区","address":"東京都新宿区高田馬場3丁目18-21","lat":35.714199,"lon":139.697882},{"name":"新宿区立西落合児童館","province":"東京都","city":"新宿区","address":"東京都新宿区西落合1丁目31-24","lat":35.719759,"lon":139.679662},{"name":"新宿区立富久町児童館","province":"東京都","city":"新宿区","address":"東京都新宿区富久町22-21","lat":35.694099,"lon":139.715617},{"name":"落合第二高齢者総合相談センター","province":"東京都","city":"新宿区","address":"東京都新宿区上落合2丁目22","lat":35.713989,"lon":139.686776},{"name":"薬王寺児童館","province":"東京都","city":"新宿区","address":"東京都新宿区市谷薬王寺町20-40","lat":35.69624,"lon":139.72473},{"name":"男女共同参画推進センター","province":"東京都","city":"新宿区","address":"東京都新宿区荒木町16","lat":35.691495,"lon":139.724819},{"name":"新宿区立子ども総合センター","province":"東京都","city":"新宿区","address":"東京都新宿区新宿7丁目3-29","lat":35.700993,"lon":139.712376},{"name":"新宿区立信濃町子ども家庭支援センター","province":"東京都","city":"新宿区","address":"東京都新宿区信濃町20","lat":35.683421,"lon":139.720193},{"name":"新宿区立榎町子ども家庭支援センター","province":"東京都","city":"新宿区","address":"東京都新宿区榎町36","lat":35.704541,"lon":139.727756},{"name":"環境学習情報センター","province":"東京都","city":"新宿区","address":"東京都新宿区西新宿2丁目11-4","lat":35.691064,"lon":139.688575},{"name":"新宿リサイクル活動センター","province":"東京都","city":"新宿区","address":"東京都新宿区高田馬場4丁目10-2","lat":35.712737,"lon":139.702954},{"name":"西早稲田リサイクル活動センター","province":"東京都","city":"新宿区","address":"東京都新宿区西早稲田3丁目19-5","lat":35.710974,"lon":139.712392},{"name":"新宿清掃事務所","province":"東京都","city":"新宿区","address":"東京都新宿区下落合2丁目1-1","lat":35.71666,"lon":139.704627},{"name":"新宿区立防災センター","province":"東京都","city":"新宿区","address":"東京都新宿区市谷仲之町2-42","lat":35.693921,"lon":139.723957},{"name":"新宿区立四谷スポーツスクエア","province":"東京都","city":"新宿区","address":"東京都新宿区四谷1丁目6-4","lat":35.687906,"lon":139.728411},{"name":"新宿区立西新宿児童館","province":"東京都","city":"新宿区","address":"東京都新宿区西新宿4丁目35-28","lat":35.686343,"lon":139.686902},{"name":"薬王寺地域ささえあい館","province":"東京都","city":"新宿区","address":"東京都新宿区市谷薬王寺町20-40","lat":35.696143,"lon":139.724684},{"name":"高田馬場シニア活動館","province":"東京都","city":"新宿区","address":"東京都新宿区高田馬場3丁目39-29","lat":35.712123,"lon":139.695974},{"name":"信濃町シニア活動館","province":"東京都","city":"新宿区","address":"東京都新宿区信濃町20","lat":35.683392,"lon":139.720151},{"name":"戸山シニア活動館","province":"東京都","city":"新宿区","address":"東京都新宿区戸山2丁目27-2","lat":35.704544,"lon":139.710812},{"name":"西新宿シニア活動館","province":"東京都","city":"新宿区","address":"東京都新宿区西新宿4丁目8-35","lat":35.688673,"lon":139.684398},{"name":"西早稲田地域交流館","province":"東京都","city":"新宿区","address":"東京都新宿区西早稲田1丁目22-3","lat":35.711617,"lon":139.717379},{"name":"山吹町地域交流館","province":"東京都","city":"新宿区","address":"東京都新宿区山吹町342","lat":35.707946,"lon":139.729673},{"name":"北新宿地域交流館","province":"東京都","city":"新宿区","address":"東京都新宿区北新宿2丁目3-7","lat":35.698541,"lon":139.690229},{"name":"本塩町地域交流館","province":"東京都","city":"新宿区","address":"東京都新宿区四谷本塩町4-9","lat":35.688491,"lon":139.72934},{"name":"都庁第二本庁舎","province":"東京都","city":"新宿区","address":"東京都新宿区西新宿2丁目8-1","lat":35.68918461,"lon":139.69164748},{"name":"＊?戸山生涯学習館","province":"東京都","city":"新宿区","address":"新宿区戸山2-11-101","lat":35.701951,"lon":139.714195},{"name":"＊?赤城生涯学習館","province":"東京都","city":"新宿区","address":"新宿区赤城元町1-3","lat":35.704322,"lon":139.736335},{"name":"＊?住吉町生涯学習館","province":"東京都","city":"新宿区","address":"新宿区住吉町13-3","lat":35.694574,"lon":139.719843},{"name":"＊?北新宿生涯学習館","province":"東京都","city":"新宿区","address":"新宿区北新宿3-20-2","lat":35.702962,"lon":139.689461},{"name":"＊?西戸山生涯学習館","province":"東京都","city":"新宿区","address":"新宿区百人町4-7-1","lat":35.70895,"lon":139.695638},{"name":"＊?新宿区立区民ギャラリー","province":"東京都","city":"新宿区","address":"新宿区西新宿2-11-4","lat":35.691019,"lon":139.688613},{"name":"JR四ツ谷駅 四ツ谷口","province":"東京都","city":"新宿区","address":"東京都新宿区四谷1丁目5-25","lat":35.68615853,"lon":139.7300796,"番号":"Goal","コース":"E赤坂","大見出し":"赤坂氷川神社、豊川稲荷東京別院、東京ミッドタウン、赤坂サカスなど、伝統と現代が織りなす赤坂の魅力を探るコース","小見出し":""},{"name":"御鷹の松","province":"東京都","city":"新宿区","address":"東京都新宿区霞ヶ丘町1","lat":35.67775882,"lon":139.7170823,"番号":"G-3","コース":"G外苑","大見出し":"「絵になる」イチョウ並木を歩きながら、明治の歴史にふれるコース","小見出し":"言い伝えられる松"},{"name":"聖徳記念絵画館","province":"東京都","city":"新宿区","address":"東京都新宿区霞ヶ丘町1-1","lat":35.67875598,"lon":139.7176213,"番号":"G-4","コース":"G外苑","大見出し":"「絵になる」イチョウ並木を歩きながら、明治の歴史にふれるコース","小見出し":"神宮外苑のシンボル"},{"name":"樺太日露国境天測標","province":"東京都","city":"新宿区","address":"東京都新宿区霞ヶ丘町1","lat":35.67810865,"lon":139.7171661,"番号":"G-5","コース":"G外苑","大見出し":"「絵になる」イチョウ並木を歩きながら、明治の歴史にふれるコース","小見出し":"レプリカの境界天測標石"},{"name":"葬場殿趾","province":"東京都","city":"新宿区","address":"東京都新宿区霞ヶ丘町1","lat":35.6790523,"lon":139.7174872,"番号":"G-6","コース":"G外苑","大見出し":"「絵になる」イチョウ並木を歩きながら、明治の歴史にふれるコース","小見出し":"楠の大木が月日を感じさせる"},{"name":"都営大江戸線 国立競技場駅 A2出口","province":"東京都","city":"新宿区","address":"東京都新宿区霞ヶ丘町10","lat":35.67971471,"lon":139.7143615,"番号":"Goal","コース":"G外苑","大見出し":"「絵になる」イチョウ並木を歩きながら、明治の歴史にふれるコース","小見出し":""},{"name":"東京都庁第一本庁舎","province":"東京都","city":"新宿区","address":"東京都新宿区西新宿2丁目8","lat":35.689389,"lon":139.691468},{"name":"東京都庁第一本庁舎","province":"東京都","city":"新宿区","address":"東京都新宿区西新宿2丁目8","lat":35.689453,"lon":139.691446},{"name":"東京都庁第一本庁舎","province":"東京都","city":"新宿区","address":"東京都新宿区西新宿2丁目8","lat":35.689338,"lon":139.691613},{"name":"東京都庁第一本庁舎","province":"東京都","city":"新宿区","address":"東京都新宿区西新宿2丁目8","lat":35.689561,"lon":139.691851},{"name":"東京都庁第一本庁舎","province":"東京都","city":"新宿区","address":"東京都新宿区西新宿2丁目8","lat":35.689638,"lon":139.691835},{"name":"東京都庁第一本庁舎","province":"東京都","city":"新宿区","address":"東京都新宿区西新宿2丁目8","lat":35.689943,"lon":139.691531},{"name":"東京都庁第一本庁舎","province":"東京都","city":"新宿区","address":"東京都新宿区西新宿2丁目8","lat":35.68903,"lon":139.691748},{"name":"東京都庁第一本庁舎","province":"東京都","city":"新宿区","address":"東京都新宿区西新宿2丁目8","lat":35.689655,"lon":139.691693},{"name":"東京都庁第一本庁舎","province":"東京都","city":"新宿区","address":"東京都新宿区西新宿2丁目8","lat":35.689881,"lon":139.691701},{"name":"東京都庁第一本庁舎","province":"東京都","city":"新宿区","address":"東京都新宿区西新宿2丁目8","lat":35.689626,"lon":139.691708},{"name":"東京都庁第一本庁舎","province":"東京都","city":"新宿区","address":"東京都新宿区西新宿2丁目8","lat":35.689619,"lon":139.691632},{"name":"東京都庁第一本庁舎","province":"東京都","city":"新宿区","address":"東京都新宿区西新宿2丁目8-1","lat":35.689334,"lon":139.691689},{"name":"東京都庁第一本庁舎","province":"東京都","city":"新宿区","address":"東京都新宿区西新宿2丁目8-1","lat":35.68935,"lon":139.691774},{"name":"東京都庁第一本庁舎","province":"東京都","city":"新宿区","address":"東京都新宿区西新宿2丁目8","lat":35.68942,"lon":139.691595},{"name":"東京都庁第一本庁舎","province":"東京都","city":"新宿区","address":"東京都新宿区西新宿2丁目8","lat":35.68965,"lon":139.691623},{"name":"東京都庁第二本庁舎","province":"東京都","city":"新宿区","address":"東京都新宿区西新宿2丁目9","lat":35.688377,"lon":139.691912},{"name":"東京都庁第二本庁舎","province":"東京都","city":"新宿区","address":"東京都新宿区西新宿2丁目8","lat":35.689787,"lon":139.691495},{"name":"東京都庁第二本庁舎","province":"東京都","city":"新宿区","address":"東京都新宿区西新宿2丁目8","lat":35.68957,"lon":139.691762},{"name":"東京都庁第二本庁舎","province":"東京都","city":"新宿区","address":"東京都新宿区西新宿2丁目9","lat":35.688238,"lon":139.691792},{"name":"東京都庁第二本庁舎","province":"東京都","city":"新宿区","address":"東京都新宿区西新宿2丁目9","lat":35.687991,"lon":139.692045},{"name":"東京都庁第二本庁舎","province":"東京都","city":"新宿区","address":"東京都新宿区西新宿2丁目9","lat":35.68798,"lon":139.692062},{"name":"東京都庁第二本庁舎","province":"東京都","city":"新宿区","address":"東京都新宿区西新宿2丁目9","lat":35.688007,"lon":139.692135},{"name":"東京都庁第二本庁舎","province":"東京都","city":"新宿区","address":"東京都新宿区西新宿2丁目9","lat":35.687987,"lon":139.691955},{"name":"東京都庁第二本庁舎","province":"東京都","city":"新宿区","address":"東京都新宿区西新宿2丁目9","lat":35.688,"lon":139.691983},{"name":"東京都議会議事堂","province":"東京都","city":"新宿区","address":"東京都新宿区西新宿2丁目5-1","lat":35.689561,"lon":139.693385},{"name":"東京都議会議事堂","province":"東京都","city":"新宿区","address":"東京都新宿区西新宿2丁目5-1","lat":35.689908,"lon":139.693315},{"name":"東京都議会議事堂","province":"東京都","city":"新宿区","address":"東京都新宿区西新宿2丁目5","lat":35.689258,"lon":139.693158},{"name":"東京都議会議事堂","province":"東京都","city":"新宿区","address":"東京都新宿区西新宿2丁目5","lat":35.690037,"lon":139.69326},{"name":"東京都議会議事堂","province":"東京都","city":"新宿区","address":"東京都新宿区西新宿2丁目5","lat":35.689249,"lon":139.6931},{"name":"東京都議会議事堂","province":"東京都","city":"新宿区","address":"東京都新宿区西新宿2丁目5-1","lat":35.689565,"lon":139.693416},{"name":"東京都議会議事堂","province":"東京都","city":"新宿区","address":"東京都新宿区西新宿2丁目5-1","lat":35.689973,"lon":139.693301},{"name":"東京都議会議事堂","province":"東京都","city":"新宿区","address":"東京都新宿区西新宿2丁目5","lat":35.689806,"lon":139.692936},{"name":"東京都議会議事堂","province":"東京都","city":"新宿区","address":"東京都新宿区西新宿2丁目5","lat":35.689573,"lon":139.692975},{"name":"東京都議会議事堂","province":"東京都","city":"新宿区","address":"東京都新宿区西新宿2丁目8","lat":35.689714,"lon":139.692127},{"name":"新宿都税事務所","province":"東京都","city":"新宿区","address":"東京都新宿区西新宿7丁目5-8","lat":35.696788,"lon":139.698553},{"name":"東京都消費生活総合センター","province":"東京都","city":"新宿区","address":"東京都新宿区神楽河岸1","lat":35.700849,"lon":139.743846},{"name":"東京都健康安全研究センター","province":"東京都","city":"新宿区","address":"東京都新宿区百人町3丁目24-1","lat":35.706094,"lon":139.697759},{"name":"小田急第一生命ビル","province":"東京都","city":"新宿区","address":"東京都新宿区西新宿2丁目7-1","lat":35.691471,"lon":139.69099},{"name":"地方独立行政法人東京都立病院機構　東京都立大久保病院","province":"東京都","city":"新宿区","address":"東京都新宿区歌舞伎町2丁目44-1","lat":35.696685,"lon":139.701453},{"name":"戸山公園","province":"東京都","city":"新宿区","address":"東京都新宿区大久保3丁目5","lat":35.705155,"lon":139.704339},{"name":"戸山公園","province":"東京都","city":"新宿区","address":"東京都新宿区戸山3丁目1","lat":35.706302,"lon":139.715819},{"name":"戸山公園","province":"東京都","city":"新宿区","address":"東京都新宿区戸山3丁目2","lat":35.705523,"lon":139.714018},{"name":"明治公園","province":"東京都","city":"新宿区","address":"東京都新宿区霞ヶ丘町5","lat":35.675463,"lon":139.713076},{"name":"都営新宿線新宿三丁目駅","province":"東京都","city":"新宿区","address":"東京都新宿区新宿3丁目9-10","lat":35.691041,"lon":139.706753},{"name":"都営新宿線曙橋駅","province":"東京都","city":"新宿区","address":"東京都新宿区住吉町7","lat":35.692413,"lon":139.722627},{"name":"都営大江戸線新宿西口駅","province":"東京都","city":"新宿区","address":"東京都新宿区西新宿1丁目3","lat":35.693315,"lon":139.699147},{"name":"都営大江戸線東新宿駅","province":"東京都","city":"新宿区","address":"東京都新宿区新宿7丁目27","lat":35.697868,"lon":139.707721},{"name":"都営大江戸線若松河田駅","province":"東京都","city":"新宿区","address":"東京都新宿区若松町10","lat":35.69928,"lon":139.718351},{"name":"都営大江戸線牛込柳町駅","province":"東京都","city":"新宿区","address":"東京都新宿区原町1丁目","lat":35.699466,"lon":139.725492},{"name":"都営大江戸線牛込神楽坂駅","province":"東京都","city":"新宿区","address":"東京都新宿区岩戸町","lat":35.70105,"lon":139.736183},{"name":"都営大江戸線国立競技場駅","province":"東京都","city":"新宿区","address":"東京都新宿区霞ヶ丘町11","lat":35.679826,"lon":139.715056},{"name":"都営大江戸線都庁前駅","province":"東京都","city":"新宿区","address":"東京都新宿区西新宿2丁目5","lat":35.690619,"lon":139.693005},{"name":"都営大江戸線西新宿五丁目駅","province":"東京都","city":"新宿区","address":"東京都新宿区西新宿4丁目5","lat":35.689905,"lon":139.684683},{"name":"都営大江戸線中井駅","province":"東京都","city":"新宿区","address":"東京都新宿区上落合2丁目22","lat":35.713874,"lon":139.686204},{"name":"都営大江戸線落合南長崎駅","province":"東京都","city":"新宿区","address":"東京都新宿区西落合3丁目2","lat":35.723537,"lon":139.683421},{"name":"新宿消防署西新宿出張所","province":"東京都","city":"新宿区","address":"東京都新宿区西新宿3丁目7-38","lat":35.686154,"lon":139.689836},{"name":"新宿区役所第一分庁舎","province":"東京都","city":"新宿区","address":"東京都新宿区歌舞伎町1丁目5-9","lat":35.693452,"lon":139.703371},{"name":"新宿区役所本庁舎","province":"東京都","city":"新宿区","address":"東京都新宿区歌舞伎町1丁目4-1","lat":35.693979,"lon":139.703457},{"name":"新宿区役所本庁舎","province":"東京都","city":"新宿区","address":"東京都新宿区歌舞伎町1丁目4-1","lat":35.693879,"lon":139.703425},{"name":"新宿区役所第一分庁舎","province":"東京都","city":"新宿区","address":"東京都新宿区歌舞伎町1丁目5-9","lat":35.693433,"lon":139.703351},{"name":"柏木特別出張所","province":"東京都","city":"新宿区","address":"東京都新宿区北新宿2丁目3-7","lat":35.698647,"lon":139.690272},{"name":"新宿区役所第二分庁舎","province":"東京都","city":"新宿区","address":"東京都新宿区新宿5丁目18-21","lat":35.694219,"lon":139.706065},{"name":"新宿区役所第二分庁舎分館","province":"東京都","city":"新宿区","address":"東京都新宿区新宿5丁目18-21","lat":35.694033,"lon":139.705958},{"name":"新宿区箪笥町特別出張所等区民施設","province":"東京都","city":"新宿区","address":"東京都新宿区箪笥町15","lat":35.700583,"lon":139.734053},{"name":"新宿区箪笥町特別出張所等区民施設","province":"東京都","city":"新宿区","address":"東京都新宿区箪笥町15","lat":35.700538,"lon":139.734201},{"name":"新宿区榎町特別出張所","province":"東京都","city":"新宿区","address":"東京都新宿区早稲田町85","lat":35.705407,"lon":139.72679},{"name":"若松町特別出張所","province":"東京都","city":"新宿区","address":"東京都新宿区若松町12-6","lat":35.698903,"lon":139.716425},{"name":"新宿区大久保特別出張所","province":"東京都","city":"新宿区","address":"東京都新宿区大久保2丁目12-7","lat":35.701587,"lon":139.706711},{"name":"落合第一特別出張所等区民施設","province":"東京都","city":"新宿区","address":"東京都新宿区下落合4丁目6-7","lat":35.718615,"lon":139.695018},{"name":"落合第一特別出張所等区民施設","province":"東京都","city":"新宿区","address":"東京都新宿区下落合4丁目6-7","lat":35.718673,"lon":139.695041},{"name":"落合第一特別出張所等区民施設","province":"東京都","city":"新宿区","address":"東京都新宿区下落合4丁目6-7","lat":35.718735,"lon":139.695077},{"name":"落合第一特別出張所等区民施設","province":"東京都","city":"新宿区","address":"東京都新宿区下落合4丁目6-7","lat":35.718757,"lon":139.695104},{"name":"落合第二特別出張所等区民施設","province":"東京都","city":"新宿区","address":"東京都新宿区中落合4丁目17-13","lat":35.719898,"lon":139.683074},{"name":"柏木地域センター","province":"東京都","city":"新宿区","address":"東京都新宿区北新宿2丁目3-7","lat":35.69845,"lon":139.690337},{"name":"新宿区角筈特別出張所等区民施設","province":"東京都","city":"新宿区","address":"東京都新宿区西新宿4丁目33-7","lat":35.686278,"lon":139.689148},{"name":"新宿区角筈特別出張所等区民施設","province":"東京都","city":"新宿区","address":"東京都新宿区西新宿4丁目33-7","lat":35.686199,"lon":139.689088},{"name":"産業会館（BIZ新宿）","province":"東京都","city":"新宿区","address":"東京都新宿区西新宿6丁目8-2","lat":35.693548,"lon":139.690306},{"name":"産業会館（BIZ新宿）","province":"東京都","city":"新宿区","address":"東京都新宿区西新宿6丁目8-2","lat":35.693499,"lon":139.690386},{"name":"戸塚特別出張所","province":"東京都","city":"新宿区","address":"東京都新宿区高田馬場2丁目18-1","lat":35.714405,"lon":139.70505},{"name":"新宿区榎町地域センター","province":"東京都","city":"新宿区","address":"東京都新宿区早稲田町85","lat":35.705471,"lon":139.726675},{"name":"新宿区榎町地域センター","province":"東京都","city":"新宿区","address":"東京都新宿区早稲田町85","lat":35.705458,"lon":139.726824},{"name":"若松地域センター","province":"東京都","city":"新宿区","address":"東京都新宿区若松町12-6","lat":35.698903,"lon":139.716425},{"name":"戸塚地域センター","province":"東京都","city":"新宿区","address":"東京都新宿区高田馬場2丁目18-1","lat":35.714395,"lon":139.705064},{"name":"戸塚地域センター","province":"東京都","city":"新宿区","address":"東京都新宿区高田馬場2丁目18-1","lat":35.714437,"lon":139.705051},{"name":"戸塚地域センター","province":"東京都","city":"新宿区","address":"東京都新宿区高田馬場2丁目18-1","lat":35.714471,"lon":139.705131},{"name":"戸塚地域センター","province":"東京都","city":"新宿区","address":"東京都新宿区高田馬場2丁目18-1","lat":35.714473,"lon":139.705107},{"name":"新宿区落合保健センター","province":"東京都","city":"新宿区","address":"東京都新宿区下落合4丁目6-7","lat":35.718633,"lon":139.695051},{"name":"区民ギャラリー","province":"東京都","city":"新宿区","address":"東京都新宿区西新宿2丁目11-4","lat":35.690996,"lon":139.688699},{"name":"新宿区立新宿NPO協働推進センター","province":"東京都","city":"新宿区","address":"東京都新宿区高田馬場4丁目36-12","lat":35.709826,"lon":139.696322},{"name":"新宿区立新宿NPO協働推進センター","province":"東京都","city":"新宿区","address":"東京都新宿区高田馬場4丁目36-12","lat":35.709654,"lon":139.696441},{"name":"戸山生涯学習館","province":"東京都","city":"新宿区","address":"東京都新宿区戸山2丁目11-10","lat":35.701969,"lon":139.714268},{"name":"戸山生涯学習館","province":"東京都","city":"新宿区","address":"東京都新宿区戸山2丁目11-10","lat":35.701951,"lon":139.714129},{"name":"住吉町生涯学習館","province":"東京都","city":"新宿区","address":"東京都新宿区住吉町13-3","lat":35.694595,"lon":139.719803},{"name":"四谷保健センター等","province":"東京都","city":"新宿区","address":"東京都新宿区四谷三栄町10-16","lat":35.688745,"lon":139.724357},{"name":"四谷保健センター等","province":"東京都","city":"新宿区","address":"東京都新宿区四谷三栄町10-16","lat":35.68885,"lon":139.724287},{"name":"東新宿保健センター","province":"東京都","city":"新宿区","address":"東京都新宿区新宿7丁目26-4","lat":35.698169,"lon":139.709683},{"name":"牛込保健センター等","province":"東京都","city":"新宿区","address":"東京都新宿区矢来町6","lat":35.701109,"lon":139.730934},{"name":"新宿区立中央図書館","province":"東京都","city":"新宿区","address":"東京都新宿区大久保3丁目1-1","lat":35.705287,"lon":139.707086},{"name":"新宿区立中央図書館","province":"東京都","city":"新宿区","address":"東京都新宿区大久保3丁目1-1","lat":35.705277,"lon":139.707455},{"name":"新宿区立中央図書館","province":"東京都","city":"新宿区","address":"東京都新宿区大久保3丁目1-1","lat":35.705199,"lon":139.707261},{"name":"新宿区立下落合図書館","province":"東京都","city":"新宿区","address":"東京都新宿区下落合1丁目9-8","lat":35.715992,"lon":139.698939},{"name":"新宿区立下落合図書館","province":"東京都","city":"新宿区","address":"東京都新宿区下落合1丁目9-8","lat":35.71599,"lon":139.698904},{"name":"新宿歴史博物館","province":"東京都","city":"新宿区","address":"東京都新宿区四谷三栄町12-16","lat":35.689929,"lon":139.725569},{"name":"新宿歴史博物館","province":"東京都","city":"新宿区","address":"東京都新宿区四谷三栄町12-16","lat":35.68996,"lon":139.725569},{"name":"新宿区立漱石山房記念館","province":"東京都","city":"新宿区","address":"東京都新宿区早稲田南町7","lat":35.703926,"lon":139.725377},{"name":"新宿区立漱石山房記念館","province":"東京都","city":"新宿区","address":"東京都新宿区早稲田南町7","lat":35.703956,"lon":139.72537},{"name":"新宿区立漱石山房記念館","province":"東京都","city":"新宿区","address":"東京都新宿区早稲田南町7","lat":35.70397,"lon":139.72549},{"name":"四谷区民センター","province":"東京都","city":"新宿区","address":"東京都新宿区内藤町87","lat":35.687564,"lon":139.714565},{"name":"新宿区立中村彝アトリエ記念館","province":"東京都","city":"新宿区","address":"東京都新宿区下落合3丁目5","lat":35.720925,"lon":139.701299},{"name":"新宿区立西戸山公園(東側)","province":"東京都","city":"新宿区","address":"東京都新宿区百人町4丁目1","lat":35.708318,"lon":139.701667},{"name":"新宿文化センター","province":"東京都","city":"新宿区","address":"東京都新宿区新宿6丁目14-1","lat":35.695372,"lon":139.709058},{"name":"新宿文化センター","province":"東京都","city":"新宿区","address":"東京都新宿区新宿6丁目14-1","lat":35.695598,"lon":139.709825},{"name":"新宿文化センター","province":"東京都","city":"新宿区","address":"東京都新宿区新宿6丁目14","lat":35.695364,"lon":139.709612},{"name":"新宿文化センター","province":"東京都","city":"新宿区","address":"東京都新宿区新宿6丁目14-1","lat":35.695706,"lon":139.709683},{"name":"新宿文化センター","province":"東京都","city":"新宿区","address":"東京都新宿区新宿6丁目14-1","lat":35.695528,"lon":139.709528},{"name":"新宿文化センター","province":"東京都","city":"新宿区","address":"東京都新宿区新宿6丁目14-1","lat":35.695542,"lon":139.709545},{"name":"新宿区立白銀公園","province":"東京都","city":"新宿区","address":"東京都新宿区白銀町3","lat":35.703781,"lon":139.737378},{"name":"新宿区立大久保公園","province":"東京都","city":"新宿区","address":"東京都新宿区歌舞伎町2丁目43","lat":35.697273,"lon":139.701536},{"name":"新宿区立西戸山公園（西側）","province":"東京都","city":"新宿区","address":"東京都新宿区百人町4丁目2","lat":35.707577,"lon":139.698554},{"name":"大久保スポーツプラザ","province":"東京都","city":"新宿区","address":"東京都新宿区大久保3丁目7-42","lat":35.706423,"lon":139.702056},{"name":"新宿区立鶴巻南公園","province":"東京都","city":"新宿区","address":"東京都新宿区早稲田町","lat":35.706078,"lon":139.723413},{"name":"新宿区立北柏木公園","province":"東京都","city":"新宿区","address":"東京都新宿区北新宿4丁目12","lat":35.707384,"lon":139.692862},{"name":"新宿区立新小川公園","province":"東京都","city":"新宿区","address":"東京都新宿区新小川町3","lat":35.704778,"lon":139.742101},{"name":"新宿区立みなみもと町公園","province":"東京都","city":"新宿区","address":"東京都新宿区南元町","lat":35.68082,"lon":139.725883},{"name":"新宿区立おとめ山公園","province":"東京都","city":"新宿区","address":"東京都新宿区下落合2丁目10","lat":35.718526,"lon":139.700994},{"name":"新宿区立おとめ山公園","province":"東京都","city":"新宿区","address":"東京都新宿区下落合2丁目11","lat":35.717477,"lon":139.70298},{"name":"新宿区立清水川橋公園","province":"東京都","city":"新宿区","address":"東京都新宿区下落合1丁目1","lat":35.716068,"lon":139.704045},{"name":"新宿区立葛ヶ谷公園","province":"東京都","city":"新宿区","address":"東京都新宿区西落合2丁目1","lat":35.723256,"lon":139.677816},{"name":"新宿区立佐伯公園","province":"東京都","city":"新宿区","address":"東京都新宿区中落合2丁目4","lat":35.720997,"lon":139.693707},{"name":"新宿区立新宿中央公園","province":"東京都","city":"新宿区","address":"東京都新宿区西新宿2丁目11","lat":35.690907,"lon":139.688158},{"name":"新宿区立新宿中央公園","province":"東京都","city":"新宿区","address":"東京都新宿区西新宿2丁目10","lat":35.686802,"lon":139.689938},{"name":"新宿区立新宿中央公園","province":"東京都","city":"新宿区","address":"東京都新宿区西新宿2丁目11","lat":35.689359,"lon":139.688865},{"name":"新宿区立新宿中央公園","province":"東京都","city":"新宿区","address":"東京都新宿区西新宿2丁目11","lat":35.691541,"lon":139.689562},{"name":"新宿区立新宿中央公園","province":"東京都","city":"新宿区","address":"東京都新宿区西新宿2丁目11","lat":35.688975,"lon":139.690624},{"name":"新宿区立新宿中央公園","province":"東京都","city":"新宿区","address":"東京都新宿区西新宿2丁目11","lat":35.690354,"lon":139.689737},{"name":"新宿区立抜弁天北公園","province":"東京都","city":"新宿区","address":"東京都新宿区新宿7丁目3","lat":35.699387,"lon":139.713773},{"name":"新宿区立かば公園","province":"東京都","city":"新宿区","address":"東京都新宿区中落合2丁目16","lat":35.718574,"lon":139.693471},{"name":"新宿区立富久さくら公園","province":"東京都","city":"新宿区","address":"東京都新宿区富久町21","lat":35.69314,"lon":139.714102},{"name":"新宿区立柏木どんぐり公園","province":"東京都","city":"新宿区","address":"東京都新宿区北新宿2丁目19","lat":35.697125,"lon":139.688828},{"name":"新宿区立みずき児童遊園","province":"東京都","city":"新宿区","address":"東京都新宿区西早稲田2丁目12","lat":35.70799,"lon":139.713142},{"name":"新宿区立津の守坂児童遊園","province":"東京都","city":"新宿区","address":"東京都新宿区四谷坂町11-14","lat":35.691601,"lon":139.725327},{"name":"新宿区立妙正寺川公園","province":"東京都","city":"新宿区","address":"東京都新宿区西落合2丁目20","lat":35.720416,"lon":139.675146},{"name":"新宿区立山伏公園","province":"東京都","city":"新宿区","address":"東京都新宿区北山伏町1","lat":35.699372,"lon":139.730726},{"name":"新宿区立新左門児童遊園","province":"東京都","city":"新宿区","address":"東京都新宿区左門町","lat":35.684523,"lon":139.72071},{"name":"新宿区立須賀公園","province":"東京都","city":"新宿区","address":"東京都新宿区須賀町","lat":35.684998,"lon":139.723114},{"name":"新宿区立なんど児童遊園","province":"東京都","city":"新宿区","address":"東京都新宿区納戸町","lat":35.698049,"lon":139.733077},{"name":"新宿区立四谷見附公園","province":"東京都","city":"新宿区","address":"東京都新宿区四谷1丁目","lat":35.683663,"lon":139.728389},{"name":"新宿区立西大久保公園","province":"東京都","city":"新宿区","address":"東京都新宿区大久保1丁目17","lat":35.699305,"lon":139.702215},{"name":"新宿区立花園西公園","province":"東京都","city":"新宿区","address":"東京都新宿区新宿1丁目32","lat":35.690633,"lon":139.711356},{"name":"新宿区立あかね公園","province":"東京都","city":"新宿区","address":"東京都新宿区西落合1丁目31","lat":35.719944,"lon":139.679733},{"name":"新宿区立中根坂東公園","province":"東京都","city":"新宿区","address":"東京都新宿区納戸町","lat":35.696424,"lon":139.73258},{"name":"新宿区立甘泉園公園","province":"東京都","city":"新宿区","address":"東京都新宿区西早稲田3丁目5","lat":35.71192,"lon":139.71656},{"name":"新宿区立落合公園","province":"東京都","city":"新宿区","address":"東京都新宿区中井1丁目14","lat":35.714959,"lon":139.680818},{"name":"新宿区立北新宿公園","province":"東京都","city":"新宿区","address":"東京都新宿区北新宿3丁目20","lat":35.702568,"lon":139.688662},{"name":"新宿区立花園公園","province":"東京都","city":"新宿区","address":"東京都新宿区新宿1丁目21","lat":35.688971,"lon":139.713293},{"name":"新宿区立やよい公園","province":"東京都","city":"新宿区","address":"東京都新宿区中落合3丁目14","lat":35.721804,"lon":139.689805},{"name":"新宿区立高田馬場公園","province":"東京都","city":"新宿区","address":"東京都新宿区高田馬場4丁目22","lat":35.710865,"lon":139.701029},{"name":"みょうが坂児童遊園","province":"東京都","city":"新宿区","address":"東京都新宿区四谷4丁目","lat":35.690455,"lon":139.715962},{"name":"新宿区立合羽坂上公衆便所","province":"東京都","city":"新宿区","address":"東京都新宿区市谷仲之町4","lat":35.695436,"lon":139.724625},{"name":"新宿区立矢来交番脇公衆便所","province":"東京都","city":"新宿区","address":"東京都新宿区東榎町","lat":35.704582,"lon":139.730659},{"name":"新宿区立御苑前公衆便所","province":"東京都","city":"新宿区","address":"東京都新宿区内藤町","lat":35.687495,"lon":139.714153},{"name":"新宿区立太宗寺内公衆便所","province":"東京都","city":"新宿区","address":"東京都新宿区新宿2丁目9","lat":35.690183,"lon":139.709148},{"name":"新宿区立新宿駅東南口公衆便所","province":"東京都","city":"新宿区","address":"東京都新宿区新宿3丁目37","lat":35.689634,"lon":139.701485},{"name":"新宿区立戸山公衆便所","province":"東京都","city":"新宿区","address":"東京都新宿区戸山2丁目33","lat":35.700947,"lon":139.709328},{"name":"新宿区立四村橋脇公衆便所","province":"東京都","city":"新宿区","address":"東京都新宿区西落合2丁目19","lat":35.720169,"lon":139.676475},{"name":"新宿区立新宿西口地下第二公衆便所","province":"東京都","city":"新宿区","address":"東京都新宿区西新宿1丁目6","lat":35.692167,"lon":139.698093},{"name":"新宿区立西武新宿駅前公衆便所","province":"東京都","city":"新宿区","address":"東京都新宿区歌舞伎町1丁目30","lat":35.695471,"lon":139.70015},{"name":"新宿区立富久町公衆便所","province":"東京都","city":"新宿区","address":"東京都新宿区富久町2","lat":35.691654,"lon":139.71843},{"name":"新宿スポーツセンター","province":"東京都","city":"新宿区","address":"東京都新宿区大久保3丁目5-1","lat":35.707119,"lon":139.705425},{"name":"新宿スポーツセンター","province":"東京都","city":"新宿区","address":"東京都新宿区大久保3丁目5-1","lat":35.707121,"lon":139.705526},{"name":"新宿コズミックセンター","province":"東京都","city":"新宿区","address":"東京都新宿区大久保3丁目1-2","lat":35.704832,"lon":139.708356},{"name":"新宿コズミックセンター","province":"東京都","city":"新宿区","address":"東京都新宿区大久保3丁目1-2","lat":35.704832,"lon":139.708283},{"name":"新宿コズミックセンター","province":"東京都","city":"新宿区","address":"東京都新宿区大久保3丁目1-2","lat":35.704851,"lon":139.708385},{"name":"新宿区立西落合児童館","province":"東京都","city":"新宿区","address":"東京都新宿区西落合1丁目31-24","lat":35.719752,"lon":139.679572},{"name":"新宿区社会福祉協議会","province":"東京都","city":"新宿区","address":"東京都新宿区高田馬場1丁目17-20","lat":35.711685,"lon":139.707388},{"name":"新宿区立障害者福祉センター","province":"東京都","city":"新宿区","address":"東京都新宿区戸山1丁目22-2","lat":35.703725,"lon":139.717513},{"name":"新宿区立障害者福祉センター","province":"東京都","city":"新宿区","address":"東京都新宿区戸山1丁目22-2","lat":35.70374195,"lon":139.7173071},{"name":"新宿区立高田馬場第一児童館","province":"東京都","city":"新宿区","address":"東京都新宿区高田馬場3丁目18-21","lat":35.714165,"lon":139.697779},{"name":"新宿区立高田馬場第一児童館","province":"東京都","city":"新宿区","address":"東京都新宿区高田馬場3丁目18-21","lat":35.714199,"lon":139.697882},{"name":"新宿区立西落合児童館","province":"東京都","city":"新宿区","address":"東京都新宿区西落合1丁目31-24","lat":35.719759,"lon":139.679662},{"name":"新宿区立富久町児童館","province":"東京都","city":"新宿区","address":"東京都新宿区富久町22-21","lat":35.694099,"lon":139.715617},{"name":"落合第二高齢者総合相談センター","province":"東京都","city":"新宿区","address":"東京都新宿区上落合2丁目22","lat":35.713989,"lon":139.686776},{"name":"薬王寺児童館","province":"東京都","city":"新宿区","address":"東京都新宿区市谷薬王寺町20-40","lat":35.69624,"lon":139.72473},{"name":"男女共同参画推進センター","province":"東京都","city":"新宿区","address":"東京都新宿区荒木町16","lat":35.691495,"lon":139.724819},{"name":"新宿区立子ども総合センター","province":"東京都","city":"新宿区","address":"東京都新宿区新宿7丁目3-29","lat":35.700993,"lon":139.712376},{"name":"新宿区立信濃町子ども家庭支援センター","province":"東京都","city":"新宿区","address":"東京都新宿区信濃町20","lat":35.683421,"lon":139.720193},{"name":"新宿区立榎町子ども家庭支援センター","province":"東京都","city":"新宿区","address":"東京都新宿区榎町36","lat":35.704541,"lon":139.727756},{"name":"環境学習情報センター","province":"東京都","city":"新宿区","address":"東京都新宿区西新宿2丁目11-4","lat":35.691064,"lon":139.688575},{"name":"新宿リサイクル活動センター","province":"東京都","city":"新宿区","address":"東京都新宿区高田馬場4丁目10-2","lat":35.712737,"lon":139.702954},{"name":"西早稲田リサイクル活動センター","province":"東京都","city":"新宿区","address":"東京都新宿区西早稲田3丁目19-5","lat":35.710974,"lon":139.712392},{"name":"新宿清掃事務所","province":"東京都","city":"新宿区","address":"東京都新宿区下落合2丁目1-1","lat":35.71666,"lon":139.704627},{"name":"新宿区立防災センター","province":"東京都","city":"新宿区","address":"東京都新宿区市谷仲之町2-42","lat":35.693921,"lon":139.723957},{"name":"新宿区立四谷スポーツスクエア","province":"東京都","city":"新宿区","address":"東京都新宿区四谷1丁目6-4","lat":35.687906,"lon":139.728411},{"name":"新宿区立西新宿児童館","province":"東京都","city":"新宿区","address":"東京都新宿区西新宿4丁目35-28","lat":35.686343,"lon":139.686902},{"name":"薬王寺地域ささえあい館","province":"東京都","city":"新宿区","address":"東京都新宿区市谷薬王寺町20-40","lat":35.696143,"lon":139.724684},{"name":"高田馬場シニア活動館","province":"東京都","city":"新宿区","address":"東京都新宿区高田馬場3丁目39-29","lat":35.712123,"lon":139.695974},{"name":"信濃町シニア活動館","province":"東京都","city":"新宿区","address":"東京都新宿区信濃町20","lat":35.683392,"lon":139.720151},{"name":"戸山シニア活動館","province":"東京都","city":"新宿区","address":"東京都新宿区戸山2丁目27-2","lat":35.704544,"lon":139.710812},{"name":"西新宿シニア活動館","province":"東京都","city":"新宿区","address":"東京都新宿区西新宿4丁目8-35","lat":35.688673,"lon":139.684398},{"name":"西早稲田地域交流館","province":"東京都","city":"新宿区","address":"東京都新宿区西早稲田1丁目22-3","lat":35.711617,"lon":139.717379},{"name":"山吹町地域交流館","province":"東京都","city":"新宿区","address":"東京都新宿区山吹町342","lat":35.707946,"lon":139.729673},{"name":"北新宿地域交流館","province":"東京都","city":"新宿区","address":"東京都新宿区北新宿2丁目3-7","lat":35.698541,"lon":139.690229},{"name":"本塩町地域交流館","province":"東京都","city":"新宿区","address":"東京都新宿区四谷本塩町4-9","lat":35.688491,"lon":139.72934},{"name":"都庁第二本庁舎","province":"東京都","city":"新宿区","address":"東京都新宿区西新宿2丁目8-1","lat":35.68918461,"lon":139.69164748},{"name":"＊?戸山生涯学習館","province":"東京都","city":"新宿区","address":"新宿区戸山2-11-101","lat":35.701951,"lon":139.714195},{"name":"＊?赤城生涯学習館","province":"東京都","city":"新宿区","address":"新宿区赤城元町1-3","lat":35.704322,"lon":139.736335},{"name":"＊?住吉町生涯学習館","province":"東京都","city":"新宿区","address":"新宿区住吉町13-3","lat":35.694574,"lon":139.719843},{"name":"＊?北新宿生涯学習館","province":"東京都","city":"新宿区","address":"新宿区北新宿3-20-2","lat":35.702962,"lon":139.689461},{"name":"＊?西戸山生涯学習館","province":"東京都","city":"新宿区","address":"新宿区百人町4-7-1","lat":35.70895,"lon":139.695638},{"name":"＊?新宿区立区民ギャラリー","province":"東京都","city":"新宿区","address":"新宿区西新宿2-11-4","lat":35.691019,"lon":139.688613},{"name":"JR四ツ谷駅 四ツ谷口","province":"東京都","city":"新宿区","address":"東京都新宿区四谷1丁目5-25","lat":35.68615853,"lon":139.7300796,"番号":"Goal","コース":"E赤坂","大見出し":"赤坂氷川神社、豊川稲荷東京別院、東京ミッドタウン、赤坂サカスなど、伝統と現代が織りなす赤坂の魅力を探るコース","小見出し":""},{"name":"御鷹の松","province":"東京都","city":"新宿区","address":"東京都新宿区霞ヶ丘町1","lat":35.67775882,"lon":139.7170823,"番号":"G-3","コース":"G外苑","大見出し":"「絵になる」イチョウ並木を歩きながら、明治の歴史にふれるコース","小見出し":"言い伝えられる松"},{"name":"聖徳記念絵画館","province":"東京都","city":"新宿区","address":"東京都新宿区霞ヶ丘町1-1","lat":35.67875598,"lon":139.7176213,"番号":"G-4","コース":"G外苑","大見出し":"「絵になる」イチョウ並木を歩きながら、明治の歴史にふれるコース","小見出し":"神宮外苑のシンボル"},{"name":"樺太日露国境天測標","province":"東京都","city":"新宿区","address":"東京都新宿区霞ヶ丘町1","lat":35.67810865,"lon":139.7171661,"番号":"G-5","コース":"G外苑","大見出し":"「絵になる」イチョウ並木を歩きながら、明治の歴史にふれるコース","小見出し":"レプリカの境界天測標石"},{"name":"葬場殿趾","province":"東京都","city":"新宿区","address":"東京都新宿区霞ヶ丘町1","lat":35.6790523,"lon":139.7174872,"番号":"G-6","コース":"G外苑","大見出し":"「絵になる」イチョウ並木を歩きながら、明治の歴史にふれるコース","小見出し":"楠の大木が月日を感じさせる"},{"name":"都営大江戸線 国立競技場駅 A2出口","province":"東京都","city":"新宿区","address":"東京都新宿区霞ヶ丘町10","lat":35.67971471,"lon":139.7143615,"番号":"Goal","コース":"G外苑","大見出し":"「絵になる」イチョウ並木を歩きながら、明治の歴史にふれるコース","小見出し":""},{"name":"東京都庁第一本庁舎","province":"東京都","city":"新宿区","address":"東京都新宿区西新宿2丁目8","lat":35.689389,"lon":139.691468},{"name":"東京都庁第一本庁舎","province":"東京都","city":"新宿区","address":"東京都新宿区西新宿2丁目8","lat":35.689453,"lon":139.691446},{"name":"東京都庁第一本庁舎","province":"東京都","city":"新宿区","address":"東京都新宿区西新宿2丁目8","lat":35.689338,"lon":139.691613},{"name":"東京都庁第一本庁舎","province":"東京都","city":"新宿区","address":"東京都新宿区西新宿2丁目8","lat":35.689561,"lon":139.691851},{"name":"東京都庁第一本庁舎","province":"東京都","city":"新宿区","address":"東京都新宿区西新宿2丁目8","lat":35.689638,"lon":139.691835},{"name":"東京都庁第一本庁舎","province":"東京都","city":"新宿区","address":"東京都新宿区西新宿2丁目8","lat":35.689943,"lon":139.691531},{"name":"東京都庁第一本庁舎","province":"東京都","city":"新宿区","address":"東京都新宿区西新宿2丁目8","lat":35.68903,"lon":139.691748},{"name":"東京都庁第一本庁舎","province":"東京都","city":"新宿区","address":"東京都新宿区西新宿2丁目8","lat":35.689655,"lon":139.691693},{"name":"東京都庁第一本庁舎","province":"東京都","city":"新宿区","address":"東京都新宿区西新宿2丁目8","lat":35.689881,"lon":139.691701},{"name":"東京都庁第一本庁舎","province":"東京都","city":"新宿区","address":"東京都新宿区西新宿2丁目8","lat":35.689626,"lon":139.691708},{"name":"東京都庁第一本庁舎","province":"東京都","city":"新宿区","address":"東京都新宿区西新宿2丁目8","lat":35.689619,"lon":139.691632},{"name":"東京都庁第一本庁舎","province":"東京都","city":"新宿区","address":"東京都新宿区西新宿2丁目8-1","lat":35.689334,"lon":139.691689},{"name":"東京都庁第一本庁舎","province":"東京都","city":"新宿区","address":"東京都新宿区西新宿2丁目8-1","lat":35.68935,"lon":139.691774},{"name":"東京都庁第一本庁舎","province":"東京都","city":"新宿区","address":"東京都新宿区西新宿2丁目8","lat":35.68942,"lon":139.691595},{"name":"東京都庁第一本庁舎","province":"東京都","city":"新宿区","address":"東京都新宿区西新宿2丁目8","lat":35.68965,"lon":139.691623},{"name":"東京都庁第二本庁舎","province":"東京都","city":"新宿区","address":"東京都新宿区西新宿2丁目9","lat":35.688377,"lon":139.691912},{"name":"東京都庁第二本庁舎","province":"東京都","city":"新宿区","address":"東京都新宿区西新宿2丁目8","lat":35.689787,"lon":139.691495},{"name":"東京都庁第二本庁舎","province":"東京都","city":"新宿区","address":"東京都新宿区西新宿2丁目8","lat":35.68957,"lon":139.691762},{"name":"東京都庁第二本庁舎","province":"東京都","city":"新宿区","address":"東京都新宿区西新宿2丁目9","lat":35.688238,"lon":139.691792},{"name":"東京都庁第二本庁舎","province":"東京都","city":"新宿区","address":"東京都新宿区西新宿2丁目9","lat":35.687991,"lon":139.692045},{"name":"東京都庁第二本庁舎","province":"東京都","city":"新宿区","address":"東京都新宿区西新宿2丁目9","lat":35.68798,"lon":139.692062},{"name":"東京都庁第二本庁舎","province":"東京都","city":"新宿区","address":"東京都新宿区西新宿2丁目9","lat":35.688007,"lon":139.692135},{"name":"東京都庁第二本庁舎","province":"東京都","city":"新宿区","address":"東京都新宿区西新宿2丁目9","lat":35.687987,"lon":139.691955},{"name":"東京都庁第二本庁舎","province":"東京都","city":"新宿区","address":"東京都新宿区西新宿2丁目9","lat":35.688,"lon":139.691983},{"name":"東京都議会議事堂","province":"東京都","city":"新宿区","address":"東京都新宿区西新宿2丁目5-1","lat":35.689561,"lon":139.693385},{"name":"東京都議会議事堂","province":"東京都","city":"新宿区","address":"東京都新宿区西新宿2丁目5-1","lat":35.689908,"lon":139.693315},{"name":"東京都議会議事堂","province":"東京都","city":"新宿区","address":"東京都新宿区西新宿2丁目5","lat":35.689258,"lon":139.693158},{"name":"東京都議会議事堂","province":"東京都","city":"新宿区","address":"東京都新宿区西新宿2丁目5","lat":35.690037,"lon":139.69326},{"name":"東京都議会議事堂","province":"東京都","city":"新宿区","address":"東京都新宿区西新宿2丁目5","lat":35.689249,"lon":139.6931},{"name":"東京都議会議事堂","province":"東京都","city":"新宿区","address":"東京都新宿区西新宿2丁目5-1","lat":35.689565,"lon":139.693416},{"name":"東京都議会議事堂","province":"東京都","city":"新宿区","address":"東京都新宿区西新宿2丁目5-1","lat":35.689973,"lon":139.693301},{"name":"東京都議会議事堂","province":"東京都","city":"新宿区","address":"東京都新宿区西新宿2丁目5","lat":35.689806,"lon":139.692936},{"name":"東京都議会議事堂","province":"東京都","city":"新宿区","address":"東京都新宿区西新宿2丁目5","lat":35.689573,"lon":139.692975},{"name":"東京都議会議事堂","province":"東京都","city":"新宿区","address":"東京都新宿区西新宿2丁目8","lat":35.689714,"lon":139.692127},{"name":"新宿都税事務所","province":"東京都","city":"新宿区","address":"東京都新宿区西新宿7丁目5-8","lat":35.696788,"lon":139.698553},{"name":"東京都消費生活総合センター","province":"東京都","city":"新宿区","address":"東京都新宿区神楽河岸1","lat":35.700849,"lon":139.743846},{"name":"東京都健康安全研究センター","province":"東京都","city":"新宿区","address":"東京都新宿区百人町3丁目24-1","lat":35.706094,"lon":139.697759},{"name":"小田急第一生命ビル","province":"東京都","city":"新宿区","address":"東京都新宿区西新宿2丁目7-1","lat":35.691471,"lon":139.69099},{"name":"地方独立行政法人東京都立病院機構　東京都立大久保病院","province":"東京都","city":"新宿区","address":"東京都新宿区歌舞伎町2丁目44-1","lat":35.696685,"lon":139.701453},{"name":"戸山公園","province":"東京都","city":"新宿区","address":"東京都新宿区大久保3丁目5","lat":35.705155,"lon":139.704339},{"name":"戸山公園","province":"東京都","city":"新宿区","address":"東京都新宿区戸山3丁目1","lat":35.706302,"lon":139.715819},{"name":"戸山公園","province":"東京都","city":"新宿区","address":"東京都新宿区戸山3丁目2","lat":35.705523,"lon":139.714018},{"name":"明治公園","province":"東京都","city":"新宿区","address":"東京都新宿区霞ヶ丘町5","lat":35.675463,"lon":139.713076},{"name":"都営新宿線新宿三丁目駅","province":"東京都","city":"新宿区","address":"東京都新宿区新宿3丁目9-10","lat":35.691041,"lon":139.706753},{"name":"都営新宿線曙橋駅","province":"東京都","city":"新宿区","address":"東京都新宿区住吉町7","lat":35.692413,"lon":139.722627},{"name":"都営大江戸線新宿西口駅","province":"東京都","city":"新宿区","address":"東京都新宿区西新宿1丁目3","lat":35.693315,"lon":139.699147},{"name":"都営大江戸線東新宿駅","province":"東京都","city":"新宿区","address":"東京都新宿区新宿7丁目27","lat":35.697868,"lon":139.707721},{"name":"都営大江戸線若松河田駅","province":"東京都","city":"新宿区","address":"東京都新宿区若松町10","lat":35.69928,"lon":139.718351},{"name":"都営大江戸線牛込柳町駅","province":"東京都","city":"新宿区","address":"東京都新宿区原町1丁目","lat":35.699466,"lon":139.725492},{"name":"都営大江戸線牛込神楽坂駅","province":"東京都","city":"新宿区","address":"東京都新宿区岩戸町","lat":35.70105,"lon":139.736183},{"name":"都営大江戸線国立競技場駅","province":"東京都","city":"新宿区","address":"東京都新宿区霞ヶ丘町11","lat":35.679826,"lon":139.715056},{"name":"都営大江戸線都庁前駅","province":"東京都","city":"新宿区","address":"東京都新宿区西新宿2丁目5","lat":35.690619,"lon":139.693005},{"name":"都営大江戸線西新宿五丁目駅","province":"東京都","city":"新宿区","address":"東京都新宿区西新宿4丁目5","lat":35.689905,"lon":139.684683},{"name":"都営大江戸線中井駅","province":"東京都","city":"新宿区","address":"東京都新宿区上落合2丁目22","lat":35.713874,"lon":139.686204},{"name":"都営大江戸線落合南長崎駅","province":"東京都","city":"新宿区","address":"東京都新宿区西落合3丁目2","lat":35.723537,"lon":139.683421},{"name":"新宿消防署西新宿出張所","province":"東京都","city":"新宿区","address":"東京都新宿区西新宿3丁目7-38","lat":35.686154,"lon":139.689836},{"name":"新宿区役所第一分庁舎","province":"東京都","city":"新宿区","address":"東京都新宿区歌舞伎町1丁目5-9","lat":35.693452,"lon":139.703371},{"name":"新宿区役所本庁舎","province":"東京都","city":"新宿区","address":"東京都新宿区歌舞伎町1丁目4-1","lat":35.693979,"lon":139.703457},{"name":"新宿区役所本庁舎","province":"東京都","city":"新宿区","address":"東京都新宿区歌舞伎町1丁目4-1","lat":35.693879,"lon":139.703425},{"name":"新宿区役所第一分庁舎","province":"東京都","city":"新宿区","address":"東京都新宿区歌舞伎町1丁目5-9","lat":35.693433,"lon":139.703351},{"name":"柏木特別出張所","province":"東京都","city":"新宿区","address":"東京都新宿区北新宿2丁目3-7","lat":35.698647,"lon":139.690272},{"name":"新宿区役所第二分庁舎","province":"東京都","city":"新宿区","address":"東京都新宿区新宿5丁目18-21","lat":35.694219,"lon":139.706065},{"name":"新宿区役所第二分庁舎分館","province":"東京都","city":"新宿区","address":"東京都新宿区新宿5丁目18-21","lat":35.694033,"lon":139.705958},{"name":"新宿区箪笥町特別出張所等区民施設","province":"東京都","city":"新宿区","address":"東京都新宿区箪笥町15","lat":35.700583,"lon":139.734053},{"name":"新宿区箪笥町特別出張所等区民施設","province":"東京都","city":"新宿区","address":"東京都新宿区箪笥町15","lat":35.700538,"lon":139.734201},{"name":"新宿区榎町特別出張所","province":"東京都","city":"新宿区","address":"東京都新宿区早稲田町85","lat":35.705407,"lon":139.72679},{"name":"若松町特別出張所","province":"東京都","city":"新宿区","address":"東京都新宿区若松町12-6","lat":35.698903,"lon":139.716425},{"name":"新宿区大久保特別出張所","province":"東京都","city":"新宿区","address":"東京都新宿区大久保2丁目12-7","lat":35.701587,"lon":139.706711},{"name":"落合第一特別出張所等区民施設","province":"東京都","city":"新宿区","address":"東京都新宿区下落合4丁目6-7","lat":35.718615,"lon":139.695018},{"name":"落合第一特別出張所等区民施設","province":"東京都","city":"新宿区","address":"東京都新宿区下落合4丁目6-7","lat":35.718673,"lon":139.695041},{"name":"落合第一特別出張所等区民施設","province":"東京都","city":"新宿区","address":"東京都新宿区下落合4丁目6-7","lat":35.718735,"lon":139.695077},{"name":"落合第一特別出張所等区民施設","province":"東京都","city":"新宿区","address":"東京都新宿区下落合4丁目6-7","lat":35.718757,"lon":139.695104},{"name":"落合第二特別出張所等区民施設","province":"東京都","city":"新宿区","address":"東京都新宿区中落合4丁目17-13","lat":35.719898,"lon":139.683074},{"name":"柏木地域センター","province":"東京都","city":"新宿区","address":"東京都新宿区北新宿2丁目3-7","lat":35.69845,"lon":139.690337},{"name":"新宿区角筈特別出張所等区民施設","province":"東京都","city":"新宿区","address":"東京都新宿区西新宿4丁目33-7","lat":35.686278,"lon":139.689148},{"name":"新宿区角筈特別出張所等区民施設","province":"東京都","city":"新宿区","address":"東京都新宿区西新宿4丁目33-7","lat":35.686199,"lon":139.689088},{"name":"産業会館（BIZ新宿）","province":"東京都","city":"新宿区","address":"東京都新宿区西新宿6丁目8-2","lat":35.693548,"lon":139.690306},{"name":"産業会館（BIZ新宿）","province":"東京都","city":"新宿区","address":"東京都新宿区西新宿6丁目8-2","lat":35.693499,"lon":139.690386},{"name":"戸塚特別出張所","province":"東京都","city":"新宿区","address":"東京都新宿区高田馬場2丁目18-1","lat":35.714405,"lon":139.70505},{"name":"新宿区榎町地域センター","province":"東京都","city":"新宿区","address":"東京都新宿区早稲田町85","lat":35.705471,"lon":139.726675},{"name":"新宿区榎町地域センター","province":"東京都","city":"新宿区","address":"東京都新宿区早稲田町85","lat":35.705458,"lon":139.726824},{"name":"若松地域センター","province":"東京都","city":"新宿区","address":"東京都新宿区若松町12-6","lat":35.698903,"lon":139.716425},{"name":"戸塚地域センター","province":"東京都","city":"新宿区","address":"東京都新宿区高田馬場2丁目18-1","lat":35.714395,"lon":139.705064},{"name":"戸塚地域センター","province":"東京都","city":"新宿区","address":"東京都新宿区高田馬場2丁目18-1","lat":35.714437,"lon":139.705051},{"name":"戸塚地域センター","province":"東京都","city":"新宿区","address":"東京都新宿区高田馬場2丁目18-1","lat":35.714471,"lon":139.705131},{"name":"戸塚地域センター","province":"東京都","city":"新宿区","address":"東京都新宿区高田馬場2丁目18-1","lat":35.714473,"lon":139.705107},{"name":"新宿区落合保健センター","province":"東京都","city":"新宿区","address":"東京都新宿区下落合4丁目6-7","lat":35.718633,"lon":139.695051},{"name":"区民ギャラリー","province":"東京都","city":"新宿区","address":"東京都新宿区西新宿2丁目11-4","lat":35.690996,"lon":139.688699},{"name":"新宿区立新宿NPO協働推進センター","province":"東京都","city":"新宿区","address":"東京都新宿区高田馬場4丁目36-12","lat":35.709826,"lon":139.696322},{"name":"新宿区立新宿NPO協働推進センター","province":"東京都","city":"新宿区","address":"東京都新宿区高田馬場4丁目36-12","lat":35.709654,"lon":139.696441},{"name":"戸山生涯学習館","province":"東京都","city":"新宿区","address":"東京都新宿区戸山2丁目11-10","lat":35.701969,"lon":139.714268},{"name":"戸山生涯学習館","province":"東京都","city":"新宿区","address":"東京都新宿区戸山2丁目11-10","lat":35.701951,"lon":139.714129},{"name":"住吉町生涯学習館","province":"東京都","city":"新宿区","address":"東京都新宿区住吉町13-3","lat":35.694595,"lon":139.719803},{"name":"四谷保健センター等","province":"東京都","city":"新宿区","address":"東京都新宿区四谷三栄町10-16","lat":35.688745,"lon":139.724357},{"name":"四谷保健センター等","province":"東京都","city":"新宿区","address":"東京都新宿区四谷三栄町10-16","lat":35.68885,"lon":139.724287},{"name":"東新宿保健センター","province":"東京都","city":"新宿区","address":"東京都新宿区新宿7丁目26-4","lat":35.698169,"lon":139.709683},{"name":"牛込保健センター等","province":"東京都","city":"新宿区","address":"東京都新宿区矢来町6","lat":35.701109,"lon":139.730934},{"name":"新宿区立中央図書館","province":"東京都","city":"新宿区","address":"東京都新宿区大久保3丁目1-1","lat":35.705287,"lon":139.707086},{"name":"新宿区立中央図書館","province":"東京都","city":"新宿区","address":"東京都新宿区大久保3丁目1-1","lat":35.705277,"lon":139.707455},{"name":"新宿区立中央図書館","province":"東京都","city":"新宿区","address":"東京都新宿区大久保3丁目1-1","lat":35.705199,"lon":139.707261},{"name":"新宿区立下落合図書館","province":"東京都","city":"新宿区","address":"東京都新宿区下落合1丁目9-8","lat":35.715992,"lon":139.698939},{"name":"新宿区立下落合図書館","province":"東京都","city":"新宿区","address":"東京都新宿区下落合1丁目9-8","lat":35.71599,"lon":139.698904},{"name":"新宿歴史博物館","province":"東京都","city":"新宿区","address":"東京都新宿区四谷三栄町12-16","lat":35.689929,"lon":139.725569},{"name":"新宿歴史博物館","province":"東京都","city":"新宿区","address":"東京都新宿区四谷三栄町12-16","lat":35.68996,"lon":139.725569},{"name":"新宿区立漱石山房記念館","province":"東京都","city":"新宿区","address":"東京都新宿区早稲田南町7","lat":35.703926,"lon":139.725377},{"name":"新宿区立漱石山房記念館","province":"東京都","city":"新宿区","address":"東京都新宿区早稲田南町7","lat":35.703956,"lon":139.72537},{"name":"新宿区立漱石山房記念館","province":"東京都","city":"新宿区","address":"東京都新宿区早稲田南町7","lat":35.70397,"lon":139.72549},{"name":"四谷区民センター","province":"東京都","city":"新宿区","address":"東京都新宿区内藤町87","lat":35.687564,"lon":139.714565},{"name":"新宿区立中村彝アトリエ記念館","province":"東京都","city":"新宿区","address":"東京都新宿区下落合3丁目5","lat":35.720925,"lon":139.701299},{"name":"新宿区立西戸山公園(東側)","province":"東京都","city":"新宿区","address":"東京都新宿区百人町4丁目1","lat":35.708318,"lon":139.701667},{"name":"新宿文化センター","province":"東京都","city":"新宿区","address":"東京都新宿区新宿6丁目14-1","lat":35.695372,"lon":139.709058},{"name":"新宿文化センター","province":"東京都","city":"新宿区","address":"東京都新宿区新宿6丁目14-1","lat":35.695598,"lon":139.709825},{"name":"新宿文化センター","province":"東京都","city":"新宿区","address":"東京都新宿区新宿6丁目14","lat":35.695364,"lon":139.709612},{"name":"新宿文化センター","province":"東京都","city":"新宿区","address":"東京都新宿区新宿6丁目14-1","lat":35.695706,"lon":139.709683},{"name":"新宿文化センター","province":"東京都","city":"新宿区","address":"東京都新宿区新宿6丁目14-1","lat":35.695528,"lon":139.709528},{"name":"新宿文化センター","province":"東京都","city":"新宿区","address":"東京都新宿区新宿6丁目14-1","lat":35.695542,"lon":139.709545},{"name":"新宿区立白銀公園","province":"東京都","city":"新宿区","address":"東京都新宿区白銀町3","lat":35.703781,"lon":139.737378},{"name":"新宿区立大久保公園","province":"東京都","city":"新宿区","address":"東京都新宿区歌舞伎町2丁目43","lat":35.697273,"lon":139.701536},{"name":"新宿区立西戸山公園（西側）","province":"東京都","city":"新宿区","address":"東京都新宿区百人町4丁目2","lat":35.707577,"lon":139.698554},{"name":"大久保スポーツプラザ","province":"東京都","city":"新宿区","address":"東京都新宿区大久保3丁目7-42","lat":35.706423,"lon":139.702056},{"name":"新宿区立鶴巻南公園","province":"東京都","city":"新宿区","address":"東京都新宿区早稲田町","lat":35.706078,"lon":139.723413},{"name":"新宿区立北柏木公園","province":"東京都","city":"新宿区","address":"東京都新宿区北新宿4丁目12","lat":35.707384,"lon":139.692862},{"name":"新宿区立新小川公園","province":"東京都","city":"新宿区","address":"東京都新宿区新小川町3","lat":35.704778,"lon":139.742101},{"name":"新宿区立みなみもと町公園","province":"東京都","city":"新宿区","address":"東京都新宿区南元町","lat":35.68082,"lon":139.725883},{"name":"新宿区立おとめ山公園","province":"東京都","city":"新宿区","address":"東京都新宿区下落合2丁目10","lat":35.718526,"lon":139.700994},{"name":"新宿区立おとめ山公園","province":"東京都","city":"新宿区","address":"東京都新宿区下落合2丁目11","lat":35.717477,"lon":139.70298},{"name":"新宿区立清水川橋公園","province":"東京都","city":"新宿区","address":"東京都新宿区下落合1丁目1","lat":35.716068,"lon":139.704045},{"name":"新宿区立葛ヶ谷公園","province":"東京都","city":"新宿区","address":"東京都新宿区西落合2丁目1","lat":35.723256,"lon":139.677816},{"name":"新宿区立佐伯公園","province":"東京都","city":"新宿区","address":"東京都新宿区中落合2丁目4","lat":35.720997,"lon":139.693707},{"name":"新宿区立新宿中央公園","province":"東京都","city":"新宿区","address":"東京都新宿区西新宿2丁目11","lat":35.690907,"lon":139.688158},{"name":"新宿区立新宿中央公園","province":"東京都","city":"新宿区","address":"東京都新宿区西新宿2丁目10","lat":35.686802,"lon":139.689938},{"name":"新宿区立新宿中央公園","province":"東京都","city":"新宿区","address":"東京都新宿区西新宿2丁目11","lat":35.689359,"lon":139.688865},{"name":"新宿区立新宿中央公園","province":"東京都","city":"新宿区","address":"東京都新宿区西新宿2丁目11","lat":35.691541,"lon":139.689562},{"name":"新宿区立新宿中央公園","province":"東京都","city":"新宿区","address":"東京都新宿区西新宿2丁目11","lat":35.688975,"lon":139.690624},{"name":"新宿区立新宿中央公園","province":"東京都","city":"新宿区","address":"東京都新宿区西新宿2丁目11","lat":35.690354,"lon":139.689737},{"name":"新宿区立抜弁天北公園","province":"東京都","city":"新宿区","address":"東京都新宿区新宿7丁目3","lat":35.699387,"lon":139.713773},{"name":"新宿区立かば公園","province":"東京都","city":"新宿区","address":"東京都新宿区中落合2丁目16","lat":35.718574,"lon":139.693471},{"name":"新宿区立富久さくら公園","province":"東京都","city":"新宿区","address":"東京都新宿区富久町21","lat":35.69314,"lon":139.714102},{"name":"新宿区立柏木どんぐり公園","province":"東京都","city":"新宿区","address":"東京都新宿区北新宿2丁目19","lat":35.697125,"lon":139.688828},{"name":"新宿区立みずき児童遊園","province":"東京都","city":"新宿区","address":"東京都新宿区西早稲田2丁目12","lat":35.70799,"lon":139.713142},{"name":"新宿区立津の守坂児童遊園","province":"東京都","city":"新宿区","address":"東京都新宿区四谷坂町11-14","lat":35.691601,"lon":139.725327},{"name":"新宿区立妙正寺川公園","province":"東京都","city":"新宿区","address":"東京都新宿区西落合2丁目20","lat":35.720416,"lon":139.675146},{"name":"新宿区立山伏公園","province":"東京都","city":"新宿区","address":"東京都新宿区北山伏町1","lat":35.699372,"lon":139.730726},{"name":"新宿区立新左門児童遊園","province":"東京都","city":"新宿区","address":"東京都新宿区左門町","lat":35.684523,"lon":139.72071},{"name":"新宿区立須賀公園","province":"東京都","city":"新宿区","address":"東京都新宿区須賀町","lat":35.684998,"lon":139.723114},{"name":"新宿区立なんど児童遊園","province":"東京都","city":"新宿区","address":"東京都新宿区納戸町","lat":35.698049,"lon":139.733077},{"name":"新宿区立四谷見附公園","province":"東京都","city":"新宿区","address":"東京都新宿区四谷1丁目","lat":35.683663,"lon":139.728389},{"name":"新宿区立西大久保公園","province":"東京都","city":"新宿区","address":"東京都新宿区大久保1丁目17","lat":35.699305,"lon":139.702215},{"name":"新宿区立花園西公園","province":"東京都","city":"新宿区","address":"東京都新宿区新宿1丁目32","lat":35.690633,"lon":139.711356},{"name":"新宿区立あかね公園","province":"東京都","city":"新宿区","address":"東京都新宿区西落合1丁目31","lat":35.719944,"lon":139.679733},{"name":"新宿区立中根坂東公園","province":"東京都","city":"新宿区","address":"東京都新宿区納戸町","lat":35.696424,"lon":139.73258},{"name":"新宿区立甘泉園公園","province":"東京都","city":"新宿区","address":"東京都新宿区西早稲田3丁目5","lat":35.71192,"lon":139.71656},{"name":"新宿区立落合公園","province":"東京都","city":"新宿区","address":"東京都新宿区中井1丁目14","lat":35.714959,"lon":139.680818},{"name":"新宿区立北新宿公園","province":"東京都","city":"新宿区","address":"東京都新宿区北新宿3丁目20","lat":35.702568,"lon":139.688662},{"name":"新宿区立花園公園","province":"東京都","city":"新宿区","address":"東京都新宿区新宿1丁目21","lat":35.688971,"lon":139.713293},{"name":"新宿区立やよい公園","province":"東京都","city":"新宿区","address":"東京都新宿区中落合3丁目14","lat":35.721804,"lon":139.689805},{"name":"新宿区立高田馬場公園","province":"東京都","city":"新宿区","address":"東京都新宿区高田馬場4丁目22","lat":35.710865,"lon":139.701029},{"name":"みょうが坂児童遊園","province":"東京都","city":"新宿区","address":"東京都新宿区四谷4丁目","lat":35.690455,"lon":139.715962},{"name":"新宿区立合羽坂上公衆便所","province":"東京都","city":"新宿区","address":"東京都新宿区市谷仲之町4","lat":35.695436,"lon":139.724625},{"name":"新宿区立矢来交番脇公衆便所","province":"東京都","city":"新宿区","address":"東京都新宿区東榎町","lat":35.704582,"lon":139.730659},{"name":"新宿区立御苑前公衆便所","province":"東京都","city":"新宿区","address":"東京都新宿区内藤町","lat":35.687495,"lon":139.714153},{"name":"新宿区立太宗寺内公衆便所","province":"東京都","city":"新宿区","address":"東京都新宿区新宿2丁目9","lat":35.690183,"lon":139.709148},{"name":"新宿区立新宿駅東南口公衆便所","province":"東京都","city":"新宿区","address":"東京都新宿区新宿3丁目37","lat":35.689634,"lon":139.701485},{"name":"新宿区立戸山公衆便所","province":"東京都","city":"新宿区","address":"東京都新宿区戸山2丁目33","lat":35.700947,"lon":139.709328},{"name":"新宿区立四村橋脇公衆便所","province":"東京都","city":"新宿区","address":"東京都新宿区西落合2丁目19","lat":35.720169,"lon":139.676475},{"name":"新宿区立新宿西口地下第二公衆便所","province":"東京都","city":"新宿区","address":"東京都新宿区西新宿1丁目6","lat":35.692167,"lon":139.698093},{"name":"新宿区立西武新宿駅前公衆便所","province":"東京都","city":"新宿区","address":"東京都新宿区歌舞伎町1丁目30","lat":35.695471,"lon":139.70015},{"name":"新宿区立富久町公衆便所","province":"東京都","city":"新宿区","address":"東京都新宿区富久町2","lat":35.691654,"lon":139.71843},{"name":"新宿スポーツセンター","province":"東京都","city":"新宿区","address":"東京都新宿区大久保3丁目5-1","lat":35.707119,"lon":139.705425},{"name":"新宿スポーツセンター","province":"東京都","city":"新宿区","address":"東京都新宿区大久保3丁目5-1","lat":35.707121,"lon":139.705526},{"name":"新宿コズミックセンター","province":"東京都","city":"新宿区","address":"東京都新宿区大久保3丁目1-2","lat":35.704832,"lon":139.708356},{"name":"新宿コズミックセンター","province":"東京都","city":"新宿区","address":"東京都新宿区大久保3丁目1-2","lat":35.704832,"lon":139.708283},{"name":"新宿コズミックセンター","province":"東京都","city":"新宿区","address":"東京都新宿区大久保3丁目1-2","lat":35.704851,"lon":139.708385},{"name":"新宿区立西落合児童館","province":"東京都","city":"新宿区","address":"東京都新宿区西落合1丁目31-24","lat":35.719752,"lon":139.679572},{"name":"新宿区社会福祉協議会","province":"東京都","city":"新宿区","address":"東京都新宿区高田馬場1丁目17-20","lat":35.711685,"lon":139.707388},{"name":"新宿区立障害者福祉センター","province":"東京都","city":"新宿区","address":"東京都新宿区戸山1丁目22-2","lat":35.703725,"lon":139.717513},{"name":"新宿区立障害者福祉センター","province":"東京都","city":"新宿区","address":"東京都新宿区戸山1丁目22-2","lat":35.70374195,"lon":139.7173071},{"name":"新宿区立高田馬場第一児童館","province":"東京都","city":"新宿区","address":"東京都新宿区高田馬場3丁目18-21","lat":35.714165,"lon":139.697779},{"name":"新宿区立高田馬場第一児童館","province":"東京都","city":"新宿区","address":"東京都新宿区高田馬場3丁目18-21","lat":35.714199,"lon":139.697882},{"name":"新宿区立西落合児童館","province":"東京都","city":"新宿区","address":"東京都新宿区西落合1丁目31-24","lat":35.719759,"lon":139.679662},{"name":"新宿区立富久町児童館","province":"東京都","city":"新宿区","address":"東京都新宿区富久町22-21","lat":35.694099,"lon":139.715617},{"name":"落合第二高齢者総合相談センター","province":"東京都","city":"新宿区","address":"東京都新宿区上落合2丁目22","lat":35.713989,"lon":139.686776},{"name":"薬王寺児童館","province":"東京都","city":"新宿区","address":"東京都新宿区市谷薬王寺町20-40","lat":35.69624,"lon":139.72473},{"name":"男女共同参画推進センター","province":"東京都","city":"新宿区","address":"東京都新宿区荒木町16","lat":35.691495,"lon":139.724819},{"name":"新宿区立子ども総合センター","province":"東京都","city":"新宿区","address":"東京都新宿区新宿7丁目3-29","lat":35.700993,"lon":139.712376},{"name":"新宿区立信濃町子ども家庭支援センター","province":"東京都","city":"新宿区","address":"東京都新宿区信濃町20","lat":35.683421,"lon":139.720193},{"name":"新宿区立榎町子ども家庭支援センター","province":"東京都","city":"新宿区","address":"東京都新宿区榎町36","lat":35.704541,"lon":139.727756},{"name":"環境学習情報センター","province":"東京都","city":"新宿区","address":"東京都新宿区西新宿2丁目11-4","lat":35.691064,"lon":139.688575},{"name":"新宿リサイクル活動センター","province":"東京都","city":"新宿区","address":"東京都新宿区高田馬場4丁目10-2","lat":35.712737,"lon":139.702954},{"name":"西早稲田リサイクル活動センター","province":"東京都","city":"新宿区","address":"東京都新宿区西早稲田3丁目19-5","lat":35.710974,"lon":139.712392},{"name":"新宿清掃事務所","province":"東京都","city":"新宿区","address":"東京都新宿区下落合2丁目1-1","lat":35.71666,"lon":139.704627},{"name":"新宿区立防災センター","province":"東京都","city":"新宿区","address":"東京都新宿区市谷仲之町2-42","lat":35.693921,"lon":139.723957},{"name":"新宿区立四谷スポーツスクエア","province":"東京都","city":"新宿区","address":"東京都新宿区四谷1丁目6-4","lat":35.687906,"lon":139.728411},{"name":"新宿区立西新宿児童館","province":"東京都","city":"新宿区","address":"東京都新宿区西新宿4丁目35-28","lat":35.686343,"lon":139.686902},{"name":"薬王寺地域ささえあい館","province":"東京都","city":"新宿区","address":"東京都新宿区市谷薬王寺町20-40","lat":35.696143,"lon":139.724684},{"name":"高田馬場シニア活動館","province":"東京都","city":"新宿区","address":"東京都新宿区高田馬場3丁目39-29","lat":35.712123,"lon":139.695974},{"name":"信濃町シニア活動館","province":"東京都","city":"新宿区","address":"東京都新宿区信濃町20","lat":35.683392,"lon":139.720151},{"name":"戸山シニア活動館","province":"東京都","city":"新宿区","address":"東京都新宿区戸山2丁目27-2","lat":35.704544,"lon":139.710812},{"name":"西新宿シニア活動館","province":"東京都","city":"新宿区","address":"東京都新宿区西新宿4丁目8-35","lat":35.688673,"lon":139.684398},{"name":"西早稲田地域交流館","province":"東京都","city":"新宿区","address":"東京都新宿区西早稲田1丁目22-3","lat":35.711617,"lon":139.717379},{"name":"山吹町地域交流館","province":"東京都","city":"新宿区","address":"東京都新宿区山吹町342","lat":35.707946,"lon":139.729673},{"name":"北新宿地域交流館","province":"東京都","city":"新宿区","address":"東京都新宿区北新宿2丁目3-7","lat":35.698541,"lon":139.690229},{"name":"本塩町地域交流館","province":"東京都","city":"新宿区","address":"東京都新宿区四谷本塩町4-9","lat":35.688491,"lon":139.72934},{"name":"都庁第二本庁舎","province":"東京都","city":"新宿区","address":"東京都新宿区西新宿2丁目8-1","lat":35.68918461,"lon":139.69164748},{"name":"＊?戸山生涯学習館","province":"東京都","city":"新宿区","address":"新宿区戸山2-11-101","lat":35.701951,"lon":139.714195},{"name":"＊?赤城生涯学習館","province":"東京都","city":"新宿区","address":"新宿区赤城元町1-3","lat":35.704322,"lon":139.736335},{"name":"＊?住吉町生涯学習館","province":"東京都","city":"新宿区","address":"新宿区住吉町13-3","lat":35.694574,"lon":139.719843},{"name":"＊?北新宿生涯学習館","province":"東京都","city":"新宿区","address":"新宿区北新宿3-20-2","lat":35.702962,"lon":139.689461},{"name":"＊?西戸山生涯学習館","province":"東京都","city":"新宿区","address":"新宿区百人町4-7-1","lat":35.70895,"lon":139.695638},{"name":"＊?新宿区立区民ギャラリー","province":"東京都","city":"新宿区","address":"新宿区西新宿2-11-4","lat":35.691019,"lon":139.688613},{"name":"JR四ツ谷駅 四ツ谷口","province":"東京都","city":"新宿区","address":"東京都新宿区四谷1丁目5-25","lat":35.68615853,"lon":139.7300796,"番号":"Goal","コース":"E赤坂","大見出し":"赤坂氷川神社、豊川稲荷東京別院、東京ミッドタウン、赤坂サカスなど、伝統と現代が織りなす赤坂の魅力を探るコース","小見出し":""},{"name":"御鷹の松","province":"東京都","city":"新宿区","address":"東京都新宿区霞ヶ丘町1","lat":35.67775882,"lon":139.7170823,"番号":"G-3","コース":"G外苑","大見出し":"「絵になる」イチョウ並木を歩きながら、明治の歴史にふれるコース","小見出し":"言い伝えられる松"},{"name":"聖徳記念絵画館","province":"東京都","city":"新宿区","address":"東京都新宿区霞ヶ丘町1-1","lat":35.67875598,"lon":139.7176213,"番号":"G-4","コース":"G外苑","大見出し":"「絵になる」イチョウ並木を歩きながら、明治の歴史にふれるコース","小見出し":"神宮外苑のシンボル"},{"name":"樺太日露国境天測標","province":"東京都","city":"新宿区","address":"東京都新宿区霞ヶ丘町1","lat":35.67810865,"lon":139.7171661,"番号":"G-5","コース":"G外苑","大見出し":"「絵になる」イチョウ並木を歩きながら、明治の歴史にふれるコース","小見出し":"レプリカの境界天測標石"},{"name":"葬場殿趾","province":"東京都","city":"新宿区","address":"東京都新宿区霞ヶ丘町1","lat":35.6790523,"lon":139.7174872,"番号":"G-6","コース":"G外苑","大見出し":"「絵になる」イチョウ並木を歩きながら、明治の歴史にふれるコース","小見出し":"楠の大木が月日を感じさせる"},{"name":"都営大江戸線 国立競技場駅 A2出口","province":"東京都","city":"新宿区","address":"東京都新宿区霞ヶ丘町10","lat":35.67971471,"lon":139.7143615,"番号":"Goal","コース":"G外苑","大見出し":"「絵になる」イチョウ並木を歩きながら、明治の歴史にふれるコース","小見出し":""},{"name":"都庁第二本庁舎","province":"東京都","city":"新宿区","address":"東京都新宿区西新宿2丁目8-1","lat":35.68918461,"lon":139.69164748},{"name":"＊?戸山生涯学習館","province":"東京都","city":"新宿区","address":"新宿区戸山2-11-101","lat":35.701951,"lon":139.714195},{"name":"＊?赤城生涯学習館","province":"東京都","city":"新宿区","address":"新宿区赤城元町1-3","lat":35.704322,"lon":139.736335},{"name":"＊?住吉町生涯学習館","province":"東京都","city":"新宿区","address":"新宿区住吉町13-3","lat":35.694574,"lon":139.719843},{"name":"＊?北新宿生涯学習館","province":"東京都","city":"新宿区","address":"新宿区北新宿3-20-2","lat":35.702962,"lon":139.689461},{"name":"＊?西戸山生涯学習館","province":"東京都","city":"新宿区","address":"新宿区百人町4-7-1","lat":35.70895,"lon":139.695638},{"name":"＊?新宿区立区民ギャラリー","province":"東京都","city":"新宿区","address":"新宿区西新宿2-11-4","lat":35.691019,"lon":139.688613},{"name":"都庁第二本庁舎","province":"東京都","city":"新宿区","address":"東京都新宿区西新宿2丁目8-1","lat":35.68918461,"lon":139.69164748},{"name":"＊?戸山生涯学習館","province":"東京都","city":"新宿区","address":"新宿区戸山2-11-101","lat":35.701951,"lon":139.714195},{"name":"＊?赤城生涯学習館","province":"東京都","city":"新宿区","address":"新宿区赤城元町1-3","lat":35.704322,"lon":139.736335},{"name":"＊?住吉町生涯学習館","province":"東京都","city":"新宿区","address":"新宿区住吉町13-3","lat":35.694574,"lon":139.719843},{"name":"＊?北新宿生涯学習館","province":"東京都","city":"新宿区","address":"新宿区北新宿3-20-2","lat":35.702962,"lon":139.689461},{"name":"＊?西戸山生涯学習館","province":"東京都","city":"新宿区","address":"新宿区百人町4-7-1","lat":35.70895,"lon":139.695638},{"name":"＊?新宿区立区民ギャラリー","province":"東京都","city":"新宿区","address":"新宿区西新宿2-11-4","lat":35.691019,"lon":139.688613},{"name":"＊?戸山生涯学習館","province":"東京都","city":"新宿区","address":"新宿区戸山2-11-101","lat":35.701951,"lon":139.714195},{"name":"＊?赤城生涯学習館","province":"東京都","city":"新宿区","address":"新宿区赤城元町1-3","lat":35.704322,"lon":139.736335},{"name":"＊?住吉町生涯学習館","province":"東京都","city":"新宿区","address":"新宿区住吉町13-3","lat":35.694574,"lon":139.719843},{"name":"＊?北新宿生涯学習館","province":"東京都","city":"新宿区","address":"新宿区北新宿3-20-2","lat":35.702962,"lon":139.689461},{"name":"＊?西戸山生涯学習館","province":"東京都","city":"新宿区","address":"新宿区百人町4-7-1","lat":35.70895,"lon":139.695638},{"name":"＊?新宿区立区民ギャラリー","province":"東京都","city":"新宿区","address":"新宿区西新宿2-11-4","lat":35.691019,"lon":139.688613},{"name":"＊?戸山生涯学習館","province":"東京都","city":"新宿区","address":"新宿区戸山2-11-101","lat":35.701951,"lon":139.714195},{"name":"＊?赤城生涯学習館","province":"東京都","city":"新宿区","address":"新宿区赤城元町1-3","lat":35.704322,"lon":139.736335},{"name":"＊?住吉町生涯学習館","province":"東京都","city":"新宿区","address":"新宿区住吉町13-3","lat":35.694574,"lon":139.719843},{"name":"＊?北新宿生涯学習館","province":"東京都","city":"新宿区","address":"新宿区北新宿3-20-2","lat":35.702962,"lon":139.689461},{"name":"＊?西戸山生涯学習館","province":"東京都","city":"新宿区","address":"新宿区百人町4-7-1","lat":35.70895,"lon":139.695638},{"name":"＊?新宿区立区民ギャラリー","province":"東京都","city":"新宿区","address":"新宿区西新宿2-11-4","lat":35.691019,"lon":139.688613},{"name":"＊?戸山生涯学習館","province":"東京都","city":"新宿区","address":"新宿区戸山2-11-101","lat":35.701951,"lon":139.714195},{"name":"＊?赤城生涯学習館","province":"東京都","city":"新宿区","address":"新宿区赤城元町1-3","lat":35.704322,"lon":139.736335},{"name":"＊?住吉町生涯学習館","province":"東京都","city":"新宿区","address":"新宿区住吉町13-3","lat":35.694574,"lon":139.719843},{"name":"＊?北新宿生涯学習館","province":"東京都","city":"新宿区","address":"新宿区北新宿3-20-2","lat":35.702962,"lon":139.689461},{"name":"＊?西戸山生涯学習館","province":"東京都","city":"新宿区","address":"新宿区百人町4-7-1","lat":35.70895,"lon":139.695638},{"name":"＊?新宿区立区民ギャラリー","province":"東京都","city":"新宿区","address":"新宿区西新宿2-11-4","lat":35.691019,"lon":139.688613},{"name":"＊?戸山生涯学習館","province":"東京都","city":"新宿区","address":"新宿区戸山2-11-101","lat":35.701951,"lon":139.714195},{"name":"＊?赤城生涯学習館","province":"東京都","city":"新宿区","address":"新宿区赤城元町1-3","lat":35.704322,"lon":139.736335},{"name":"＊?住吉町生涯学習館","province":"東京都","city":"新宿区","address":"新宿区住吉町13-3","lat":35.694574,"lon":139.719843},{"name":"＊?北新宿生涯学習館","province":"東京都","city":"新宿区","address":"新宿区北新宿3-20-2","lat":35.702962,"lon":139.689461},{"name":"＊?西戸山生涯学習館","province":"東京都","city":"新宿区","address":"新宿区百人町4-7-1","lat":35.70895,"lon":139.695638},{"name":"＊?新宿区立区民ギャラリー","province":"東京都","city":"新宿区","address":"新宿区西新宿2-11-4","lat":35.691019,"lon":139.688613},{"name":"＊?戸山生涯学習館","province":"東京都","city":"新宿区","address":"新宿区戸山2-11-101","lat":35.701951,"lon":139.714195},{"name":"＊?赤城生涯学習館","province":"東京都","city":"新宿区","address":"新宿区赤城元町1-3","lat":35.704322,"lon":139.736335},{"name":"＊?住吉町生涯学習館","province":"東京都","city":"新宿区","address":"新宿区住吉町13-3","lat":35.694574,"lon":139.719843},{"name":"＊?北新宿生涯学習館","province":"東京都","city":"新宿区","address":"新宿区北新宿3-20-2","lat":35.702962,"lon":139.689461},{"name":"＊?西戸山生涯学習館","province":"東京都","city":"新宿区","address":"新宿区百人町4-7-1","lat":35.70895,"lon":139.695638},{"name":"＊?新宿区立区民ギャラリー","province":"東京都","city":"新宿区","address":"新宿区西新宿2-11-4","lat":35.691019,"lon":139.688613},{"name":"＊?戸山生涯学習館","province":"東京都","city":"新宿区","address":"新宿区戸山2-11-101","lat":35.701951,"lon":139.714195},{"name":"＊?赤城生涯学習館","province":"東京都","city":"新宿区","address":"新宿区赤城元町1-3","lat":35.704322,"lon":139.736335},{"name":"＊?住吉町生涯学習館","province":"東京都","city":"新宿区","address":"新宿区住吉町13-3","lat":35.694574,"lon":139.719843},{"name":"＊?北新宿生涯学習館","province":"東京都","city":"新宿区","address":"新宿区北新宿3-20-2","lat":35.702962,"lon":139.689461},{"name":"＊?西戸山生涯学習館","province":"東京都","city":"新宿区","address":"新宿区百人町4-7-1","lat":35.70895,"lon":139.695638},{"name":"＊?新宿区立区民ギャラリー","province":"東京都","city":"新宿区","address":"新宿区西新宿2-11-4","lat":35.691019,"lon":139.688613},{"name":"＊?戸山生涯学習館","province":"東京都","city":"新宿区","address":"新宿区戸山2-11-101","lat":35.701951,"lon":139.714195},{"name":"＊?赤城生涯学習館","province":"東京都","city":"新宿区","address":"新宿区赤城元町1-3","lat":35.704322,"lon":139.736335},{"name":"＊?住吉町生涯学習館","province":"東京都","city":"新宿区","address":"新宿区住吉町13-3","lat":35.694574,"lon":139.719843},{"name":"＊?北新宿生涯学習館","province":"東京都","city":"新宿区","address":"新宿区北新宿3-20-2","lat":35.702962,"lon":139.689461},{"name":"＊?西戸山生涯学習館","province":"東京都","city":"新宿区","address":"新宿区百人町4-7-1","lat":35.70895,"lon":139.695638},{"name":"＊?新宿区立区民ギャラリー","province":"東京都","city":"新宿区","address":"新宿区西新宿2-11-4","lat":35.691019,"lon":139.688613},{"name":"＊?戸山生涯学習館","province":"東京都","city":"新宿区","address":"新宿区戸山2-11-101","lat":35.701951,"lon":139.714195},{"name":"＊?赤城生涯学習館","province":"東京都","city":"新宿区","address":"新宿区赤城元町1-3","lat":35.704322,"lon":139.736335},{"name":"＊?住吉町生涯学習館","province":"東京都","city":"新宿区","address":"新宿区住吉町13-3","lat":35.694574,"lon":139.719843},{"name":"＊?北新宿生涯学習館","province":"東京都","city":"新宿区","address":"新宿区北新宿3-20-2","lat":35.702962,"lon":139.689461},{"name":"＊?西戸山生涯学習館","province":"東京都","city":"新宿区","address":"新宿区百人町4-7-1","lat":35.70895,"lon":139.695638},{"name":"＊?新宿区立区民ギャラリー","province":"東京都","city":"新宿区","address":"新宿区西新宿2-11-4","lat":35.691019,"lon":139.688613},{"name":"＊?戸山生涯学習館","province":"東京都","city":"新宿区","address":"新宿区戸山2-11-101","lat":35.701951,"lon":139.714195},{"name":"＊?赤城生涯学習館","province":"東京都","city":"新宿区","address":"新宿区赤城元町1-3","lat":35.704322,"lon":139.736335},{"name":"＊?住吉町生涯学習館","province":"東京都","city":"新宿区","address":"新宿区住吉町13-3","lat":35.694574,"lon":139.719843},{"name":"＊?北新宿生涯学習館","province":"東京都","city":"新宿区","address":"新宿区北新宿3-20-2","lat":35.702962,"lon":139.689461},{"name":"＊?西戸山生涯学習館","province":"東京都","city":"新宿区","address":"新宿区百人町4-7-1","lat":35.70895,"lon":139.695638},{"name":"＊?新宿区立区民ギャラリー","province":"東京都","city":"新宿区","address":"新宿区西新宿2-11-4","lat":35.691019,"lon":139.688613},{"name":"＊?戸山生涯学習館","province":"東京都","city":"新宿区","address":"新宿区戸山2-11-101","lat":35.701951,"lon":139.714195},{"name":"＊?赤城生涯学習館","province":"東京都","city":"新宿区","address":"新宿区赤城元町1-3","lat":35.704322,"lon":139.736335},{"name":"＊?住吉町生涯学習館","province":"東京都","city":"新宿区","address":"新宿区住吉町13-3","lat":35.694574,"lon":139.719843},{"name":"＊?北新宿生涯学習館","province":"東京都","city":"新宿区","address":"新宿区北新宿3-20-2","lat":35.702962,"lon":139.689461},{"name":"＊?西戸山生涯学習館","province":"東京都","city":"新宿区","address":"新宿区百人町4-7-1","lat":35.70895,"lon":139.695638},{"name":"＊?新宿区立区民ギャラリー","province":"東京都","city":"新宿区","address":"新宿区西新宿2-11-4","lat":35.691019,"lon":139.688613},{"name":"＊?戸山生涯学習館","province":"東京都","city":"新宿区","address":"新宿区戸山2-11-101","lat":35.701951,"lon":139.714195},{"name":"＊?赤城生涯学習館","province":"東京都","city":"新宿区","address":"新宿区赤城元町1-3","lat":35.704322,"lon":139.736335},{"name":"＊?住吉町生涯学習館","province":"東京都","city":"新宿区","address":"新宿区住吉町13-3","lat":35.694574,"lon":139.719843},{"name":"＊?北新宿生涯学習館","province":"東京都","city":"新宿区","address":"新宿区北新宿3-20-2","lat":35.702962,"lon":139.689461},{"name":"＊?西戸山生涯学習館","province":"東京都","city":"新宿区","address":"新宿区百人町4-7-1","lat":35.70895,"lon":139.695638},{"name":"＊?新宿区立区民ギャラリー","province":"東京都","city":"新宿区","address":"新宿区西新宿2-11-4","lat":35.691019,"lon":139.688613},{"name":"＊?戸山生涯学習館","province":"東京都","city":"新宿区","address":"新宿区戸山2-11-101","lat":35.701951,"lon":139.714195},{"name":"＊?赤城生涯学習館","province":"東京都","city":"新宿区","address":"新宿区赤城元町1-3","lat":35.704322,"lon":139.736335},{"name":"＊?住吉町生涯学習館","province":"東京都","city":"新宿区","address":"新宿区住吉町13-3","lat":35.694574,"lon":139.719843},{"name":"＊?北新宿生涯学習館","province":"東京都","city":"新宿区","address":"新宿区北新宿3-20-2","lat":35.702962,"lon":139.689461},{"name":"＊?西戸山生涯学習館","province":"東京都","city":"新宿区","address":"新宿区百人町4-7-1","lat":35.70895,"lon":139.695638},{"name":"＊?新宿区立区民ギャラリー","province":"東京都","city":"新宿区","address":"新宿区西新宿2-11-4","lat":35.691019,"lon":139.688613},{"name":"＊?戸山生涯学習館","province":"東京都","city":"新宿区","address":"新宿区戸山2-11-101","lat":35.701951,"lon":139.714195},{"name":"＊?赤城生涯学習館","province":"東京都","city":"新宿区","address":"新宿区赤城元町1-3","lat":35.704322,"lon":139.736335},{"name":"＊?住吉町生涯学習館","province":"東京都","city":"新宿区","address":"新宿区住吉町13-3","lat":35.694574,"lon":139.719843},{"name":"＊?北新宿生涯学習館","province":"東京都","city":"新宿区","address":"新宿区北新宿3-20-2","lat":35.702962,"lon":139.689461},{"name":"＊?西戸山生涯学習館","province":"東京都","city":"新宿区","address":"新宿区百人町4-7-1","lat":35.70895,"lon":139.695638},{"name":"＊?新宿区立区民ギャラリー","province":"東京都","city":"新宿区","address":"新宿区西新宿2-11-4","lat":35.691019,"lon":139.688613},{"name":"＊?戸山生涯学習館","province":"東京都","city":"新宿区","address":"新宿区戸山2-11-101","lat":35.701951,"lon":139.714195},{"name":"＊?赤城生涯学習館","province":"東京都","city":"新宿区","address":"新宿区赤城元町1-3","lat":35.704322,"lon":139.736335},{"name":"＊?住吉町生涯学習館","province":"東京都","city":"新宿区","address":"新宿区住吉町13-3","lat":35.694574,"lon":139.719843},{"name":"＊?北新宿生涯学習館","province":"東京都","city":"新宿区","address":"新宿区北新宿3-20-2","lat":35.702962,"lon":139.689461},{"name":"＊?西戸山生涯学習館","province":"東京都","city":"新宿区","address":"新宿区百人町4-7-1","lat":35.70895,"lon":139.695638},{"name":"＊?新宿区立区民ギャラリー","province":"東京都","city":"新宿区","address":"新宿区西新宿2-11-4","lat":35.691019,"lon":139.688613},{"name":"＊?戸山生涯学習館","province":"東京都","city":"新宿区","address":"新宿区戸山2-11-101","lat":35.701951,"lon":139.714195},{"name":"＊?赤城生涯学習館","province":"東京都","city":"新宿区","address":"新宿区赤城元町1-3","lat":35.704322,"lon":139.736335},{"name":"＊?住吉町生涯学習館","province":"東京都","city":"新宿区","address":"新宿区住吉町13-3","lat":35.694574,"lon":139.719843},{"name":"＊?北新宿生涯学習館","province":"東京都","city":"新宿区","address":"新宿区北新宿3-20-2","lat":35.702962,"lon":139.689461},{"name":"＊?西戸山生涯学習館","province":"東京都","city":"新宿区","address":"新宿区百人町4-7-1","lat":35.70895,"lon":139.695638},{"name":"＊?新宿区立区民ギャラリー","province":"東京都","city":"新宿区","address":"新宿区西新宿2-11-4","lat":35.691019,"lon":139.688613},{"name":"＊?戸山生涯学習館","province":"東京都","city":"新宿区","address":"新宿区戸山2-11-101","lat":35.701951,"lon":139.714195},{"name":"＊?赤城生涯学習館","province":"東京都","city":"新宿区","address":"新宿区赤城元町1-3","lat":35.704322,"lon":139.736335},{"name":"＊?住吉町生涯学習館","province":"東京都","city":"新宿区","address":"新宿区住吉町13-3","lat":35.694574,"lon":139.719843},{"name":"＊?北新宿生涯学習館","province":"東京都","city":"新宿区","address":"新宿区北新宿3-20-2","lat":35.702962,"lon":139.689461},{"name":"＊?西戸山生涯学習館","province":"東京都","city":"新宿区","address":"新宿区百人町4-7-1","lat":35.70895,"lon":139.695638},{"name":"＊?新宿区立区民ギャラリー","province":"東京都","city":"新宿区","address":"新宿区西新宿2-11-4","lat":35.691019,"lon":139.688613},{"name":"＊?戸山生涯学習館","province":"東京都","city":"新宿区","address":"新宿区戸山2-11-101","lat":35.701951,"lon":139.714195},{"name":"＊?赤城生涯学習館","province":"東京都","city":"新宿区","address":"新宿区赤城元町1-3","lat":35.704322,"lon":139.736335},{"name":"＊?住吉町生涯学習館","province":"東京都","city":"新宿区","address":"新宿区住吉町13-3","lat":35.694574,"lon":139.719843},{"name":"＊?北新宿生涯学習館","province":"東京都","city":"新宿区","address":"新宿区北新宿3-20-2","lat":35.702962,"lon":139.689461},{"name":"＊?西戸山生涯学習館","province":"東京都","city":"新宿区","address":"新宿区百人町4-7-1","lat":35.70895,"lon":139.695638},{"name":"＊?新宿区立区民ギャラリー","province":"東京都","city":"新宿区","address":"新宿区西新宿2-11-4","lat":35.691019,"lon":139.688613},{"name":"＊?戸山生涯学習館","province":"東京都","city":"新宿区","address":"新宿区戸山2-11-101","lat":35.701951,"lon":139.714195},{"name":"＊?赤城生涯学習館","province":"東京都","city":"新宿区","address":"新宿区赤城元町1-3","lat":35.704322,"lon":139.736335},{"name":"＊?住吉町生涯学習館","province":"東京都","city":"新宿区","address":"新宿区住吉町13-3","lat":35.694574,"lon":139.719843},{"name":"＊?北新宿生涯学習館","province":"東京都","city":"新宿区","address":"新宿区北新宿3-20-2","lat":35.702962,"lon":139.689461},{"name":"＊?西戸山生涯学習館","province":"東京都","city":"新宿区","address":"新宿区百人町4-7-1","lat":35.70895,"lon":139.695638},{"name":"＊?新宿区立区民ギャラリー","province":"東京都","city":"新宿区","address":"新宿区西新宿2-11-4","lat":35.691019,"lon":139.688613},{"name":"＊?戸山生涯学習館","province":"東京都","city":"新宿区","address":"新宿区戸山2-11-101","lat":35.701951,"lon":139.714195},{"name":"＊?赤城生涯学習館","province":"東京都","city":"新宿区","address":"新宿区赤城元町1-3","lat":35.704322,"lon":139.736335},{"name":"＊?住吉町生涯学習館","province":"東京都","city":"新宿区","address":"新宿区住吉町13-3","lat":35.694574,"lon":139.719843},{"name":"＊?北新宿生涯学習館","province":"東京都","city":"新宿区","address":"新宿区北新宿3-20-2","lat":35.702962,"lon":139.689461},{"name":"＊?西戸山生涯学習館","province":"東京都","city":"新宿区","address":"新宿区百人町4-7-1","lat":35.70895,"lon":139.695638},{"name":"＊?新宿区立区民ギャラリー","province":"東京都","city":"新宿区","address":"新宿区西新宿2-11-4","lat":35.691019,"lon":139.688613},{"name":"＊?戸山生涯学習館","province":"東京都","city":"新宿区","address":"新宿区戸山2-11-101","lat":35.701951,"lon":139.714195},{"name":"＊?赤城生涯学習館","province":"東京都","city":"新宿区","address":"新宿区赤城元町1-3","lat":35.704322,"lon":139.736335},{"name":"＊?住吉町生涯学習館","province":"東京都","city":"新宿区","address":"新宿区住吉町13-3","lat":35.694574,"lon":139.719843},{"name":"＊?北新宿生涯学習館","province":"東京都","city":"新宿区","address":"新宿区北新宿3-20-2","lat":35.702962,"lon":139.689461},{"name":"＊?西戸山生涯学習館","province":"東京都","city":"新宿区","address":"新宿区百人町4-7-1","lat":35.70895,"lon":139.695638},{"name":"＊?新宿区立区民ギャラリー","province":"東京都","city":"新宿区","address":"新宿区西新宿2-11-4","lat":35.691019,"lon":139.688613},{"name":"＊?戸山生涯学習館","province":"東京都","city":"新宿区","address":"新宿区戸山2-11-101","lat":35.701951,"lon":139.714195},{"name":"＊?赤城生涯学習館","province":"東京都","city":"新宿区","address":"新宿区赤城元町1-3","lat":35.704322,"lon":139.736335},{"name":"＊?住吉町生涯学習館","province":"東京都","city":"新宿区","address":"新宿区住吉町13-3","lat":35.694574,"lon":139.719843},{"name":"＊?北新宿生涯学習館","province":"東京都","city":"新宿区","address":"新宿区北新宿3-20-2","lat":35.702962,"lon":139.689461},{"name":"＊?西戸山生涯学習館","province":"東京都","city":"新宿区","address":"新宿区百人町4-7-1","lat":35.70895,"lon":139.695638},{"name":"＊?新宿区立区民ギャラリー","province":"東京都","city":"新宿区","address":"新宿区西新宿2-11-4","lat":35.691019,"lon":139.688613},{"name":"＊?戸山生涯学習館","province":"東京都","city":"新宿区","address":"新宿区戸山2-11-101","lat":35.701951,"lon":139.714195},{"name":"＊?赤城生涯学習館","province":"東京都","city":"新宿区","address":"新宿区赤城元町1-3","lat":35.704322,"lon":139.736335},{"name":"＊?住吉町生涯学習館","province":"東京都","city":"新宿区","address":"新宿区住吉町13-3","lat":35.694574,"lon":139.719843},{"name":"＊?北新宿生涯学習館","province":"東京都","city":"新宿区","address":"新宿区北新宿3-20-2","lat":35.702962,"lon":139.689461},{"name":"＊?西戸山生涯学習館","province":"東京都","city":"新宿区","address":"新宿区百人町4-7-1","lat":35.70895,"lon":139.695638},{"name":"＊?新宿区立区民ギャラリー","province":"東京都","city":"新宿区","address":"新宿区西新宿2-11-4","lat":35.691019,"lon":139.688613},{"name":"＊?戸山生涯学習館","province":"東京都","city":"新宿区","address":"新宿区戸山2-11-101","lat":35.701951,"lon":139.714195},{"name":"＊?赤城生涯学習館","province":"東京都","city":"新宿区","address":"新宿区赤城元町1-3","lat":35.704322,"lon":139.736335},{"name":"＊?住吉町生涯学習館","province":"東京都","city":"新宿区","address":"新宿区住吉町13-3","lat":35.694574,"lon":139.719843},{"name":"＊?北新宿生涯学習館","province":"東京都","city":"新宿区","address":"新宿区北新宿3-20-2","lat":35.702962,"lon":139.689461},{"name":"＊?西戸山生涯学習館","province":"東京都","city":"新宿区","address":"新宿区百人町4-7-1","lat":35.70895,"lon":139.695638},{"name":"＊?新宿区立区民ギャラリー","province":"東京都","city":"新宿区","address":"新宿区西新宿2-11-4","lat":35.691019,"lon":139.688613},{"name":"＊?戸山生涯学習館","province":"東京都","city":"新宿区","address":"新宿区戸山2-11-101","lat":35.701951,"lon":139.714195},{"name":"＊?赤城生涯学習館","province":"東京都","city":"新宿区","address":"新宿区赤城元町1-3","lat":35.704322,"lon":139.736335},{"name":"＊?住吉町生涯学習館","province":"東京都","city":"新宿区","address":"新宿区住吉町13-3","lat":35.694574,"lon":139.719843},{"name":"＊?北新宿生涯学習館","province":"東京都","city":"新宿区","address":"新宿区北新宿3-20-2","lat":35.702962,"lon":139.689461},{"name":"＊?西戸山生涯学習館","province":"東京都","city":"新宿区","address":"新宿区百人町4-7-1","lat":35.70895,"lon":139.695638},{"name":"＊?新宿区立区民ギャラリー","province":"東京都","city":"新宿区","address":"新宿区西新宿2-11-4","lat":35.691019,"lon":139.688613},{"name":"＊?戸山生涯学習館","province":"東京都","city":"新宿区","address":"新宿区戸山2-11-101","lat":35.701951,"lon":139.714195},{"name":"＊?赤城生涯学習館","province":"東京都","city":"新宿区","address":"新宿区赤城元町1-3","lat":35.704322,"lon":139.736335},{"name":"＊?住吉町生涯学習館","province":"東京都","city":"新宿区","address":"新宿区住吉町13-3","lat":35.694574,"lon":139.719843},{"name":"＊?北新宿生涯学習館","province":"東京都","city":"新宿区","address":"新宿区北新宿3-20-2","lat":35.702962,"lon":139.689461},{"name":"＊?西戸山生涯学習館","province":"東京都","city":"新宿区","address":"新宿区百人町4-7-1","lat":35.70895,"lon":139.695638},{"name":"＊?新宿区立区民ギャラリー","province":"東京都","city":"新宿区","address":"新宿区西新宿2-11-4","lat":35.691019,"lon":139.688613},{"name":"＊?戸山生涯学習館","province":"東京都","city":"新宿区","address":"新宿区戸山2-11-101","lat":35.701951,"lon":139.714195},{"name":"＊?赤城生涯学習館","province":"東京都","city":"新宿区","address":"新宿区赤城元町1-3","lat":35.704322,"lon":139.736335},{"name":"＊?住吉町生涯学習館","province":"東京都","city":"新宿区","address":"新宿区住吉町13-3","lat":35.694574,"lon":139.719843},{"name":"＊?北新宿生涯学習館","province":"東京都","city":"新宿区","address":"新宿区北新宿3-20-2","lat":35.702962,"lon":139.689461},{"name":"＊?西戸山生涯学習館","province":"東京都","city":"新宿区","address":"新宿区百人町4-7-1","lat":35.70895,"lon":139.695638},{"name":"＊?新宿区立区民ギャラリー","province":"東京都","city":"新宿区","address":"新宿区西新宿2-11-4","lat":35.691019,"lon":139.688613},{"name":"＊?戸山生涯学習館","province":"東京都","city":"新宿区","address":"新宿区戸山2-11-101","lat":35.701951,"lon":139.714195},{"name":"＊?赤城生涯学習館","province":"東京都","city":"新宿区","address":"新宿区赤城元町1-3","lat":35.704322,"lon":139.736335},{"name":"＊?住吉町生涯学習館","province":"東京都","city":"新宿区","address":"新宿区住吉町13-3","lat":35.694574,"lon":139.719843},{"name":"＊?北新宿生涯学習館","province":"東京都","city":"新宿区","address":"新宿区北新宿3-20-2","lat":35.702962,"lon":139.689461},{"name":"＊?西戸山生涯学習館","province":"東京都","city":"新宿区","address":"新宿区百人町4-7-1","lat":35.70895,"lon":139.695638},{"name":"＊?新宿区立区民ギャラリー","province":"東京都","city":"新宿区","address":"新宿区西新宿2-11-4","lat":35.691019,"lon":139.688613},{"name":"＊?戸山生涯学習館","province":"東京都","city":"新宿区","address":"新宿区戸山2-11-101","lat":35.701951,"lon":139.714195},{"name":"＊?赤城生涯学習館","province":"東京都","city":"新宿区","address":"新宿区赤城元町1-3","lat":35.704322,"lon":139.736335},{"name":"＊?住吉町生涯学習館","province":"東京都","city":"新宿区","address":"新宿区住吉町13-3","lat":35.694574,"lon":139.719843},{"name":"＊?北新宿生涯学習館","province":"東京都","city":"新宿区","address":"新宿区北新宿3-20-2","lat":35.702962,"lon":139.689461},{"name":"＊?西戸山生涯学習館","province":"東京都","city":"新宿区","address":"新宿区百人町4-7-1","lat":35.70895,"lon":139.695638},{"name":"＊?新宿区立区民ギャラリー","province":"東京都","city":"新宿区","address":"新宿区西新宿2-11-4","lat":35.691019,"lon":139.688613},{"name":"＊?戸山生涯学習館","province":"東京都","city":"新宿区","address":"新宿区戸山2-11-101","lat":35.701951,"lon":139.714195},{"name":"＊?赤城生涯学習館","province":"東京都","city":"新宿区","address":"新宿区赤城元町1-3","lat":35.704322,"lon":139.736335},{"name":"＊?住吉町生涯学習館","province":"東京都","city":"新宿区","address":"新宿区住吉町13-3","lat":35.694574,"lon":139.719843},{"name":"＊?北新宿生涯学習館","province":"東京都","city":"新宿区","address":"新宿区北新宿3-20-2","lat":35.702962,"lon":139.689461},{"name":"＊?西戸山生涯学習館","province":"東京都","city":"新宿区","address":"新宿区百人町4-7-1","lat":35.70895,"lon":139.695638},{"name":"＊?新宿区立区民ギャラリー","province":"東京都","city":"新宿区","address":"新宿区西新宿2-11-4","lat":35.691019,"lon":139.688613},{"name":"＊?戸山生涯学習館","province":"東京都","city":"新宿区","address":"新宿区戸山2-11-101","lat":35.701951,"lon":139.714195},{"name":"＊?赤城生涯学習館","province":"東京都","city":"新宿区","address":"新宿区赤城元町1-3","lat":35.704322,"lon":139.736335},{"name":"＊?住吉町生涯学習館","province":"東京都","city":"新宿区","address":"新宿区住吉町13-3","lat":35.694574,"lon":139.719843},{"name":"＊?北新宿生涯学習館","province":"東京都","city":"新宿区","address":"新宿区北新宿3-20-2","lat":35.702962,"lon":139.689461},{"name":"＊?西戸山生涯学習館","province":"東京都","city":"新宿区","address":"新宿区百人町4-7-1","lat":35.70895,"lon":139.695638},{"name":"＊?新宿区立区民ギャラリー","province":"東京都","city":"新宿区","address":"新宿区西新宿2-11-4","lat":35.691019,"lon":139.688613},{"name":"＊?戸山生涯学習館","province":"東京都","city":"新宿区","address":"新宿区戸山2-11-101","lat":35.701951,"lon":139.714195},{"name":"＊?赤城生涯学習館","province":"東京都","city":"新宿区","address":"新宿区赤城元町1-3","lat":35.704322,"lon":139.736335},{"name":"＊?住吉町生涯学習館","province":"東京都","city":"新宿区","address":"新宿区住吉町13-3","lat":35.694574,"lon":139.719843},{"name":"＊?北新宿生涯学習館","province":"東京都","city":"新宿区","address":"新宿区北新宿3-20-2","lat":35.702962,"lon":139.689461},{"name":"＊?西戸山生涯学習館","province":"東京都","city":"新宿区","address":"新宿区百人町4-7-1","lat":35.70895,"lon":139.695638},{"name":"＊?新宿区立区民ギャラリー","province":"東京都","city":"新宿区","address":"新宿区西新宿2-11-4","lat":35.691019,"lon":139.688613},{"name":"＊?戸山生涯学習館","province":"東京都","city":"新宿区","address":"新宿区戸山2-11-101","lat":35.701951,"lon":139.714195},{"name":"＊?赤城生涯学習館","province":"東京都","city":"新宿区","address":"新宿区赤城元町1-3","lat":35.704322,"lon":139.736335},{"name":"＊?住吉町生涯学習館","province":"東京都","city":"新宿区","address":"新宿区住吉町13-3","lat":35.694574,"lon":139.719843},{"name":"＊?北新宿生涯学習館","province":"東京都","city":"新宿区","address":"新宿区北新宿3-20-2","lat":35.702962,"lon":139.689461},{"name":"＊?西戸山生涯学習館","province":"東京都","city":"新宿区","address":"新宿区百人町4-7-1","lat":35.70895,"lon":139.695638},{"name":"＊?新宿区立区民ギャラリー","province":"東京都","city":"新宿区","address":"新宿区西新宿2-11-4","lat":35.691019,"lon":139.688613},{"name":"＊?戸山生涯学習館","province":"東京都","city":"新宿区","address":"新宿区戸山2-11-101","lat":35.701951,"lon":139.714195},{"name":"＊?赤城生涯学習館","province":"東京都","city":"新宿区","address":"新宿区赤城元町1-3","lat":35.704322,"lon":139.736335},{"name":"＊?住吉町生涯学習館","province":"東京都","city":"新宿区","address":"新宿区住吉町13-3","lat":35.694574,"lon":139.719843},{"name":"＊?北新宿生涯学習館","province":"東京都","city":"新宿区","address":"新宿区北新宿3-20-2","lat":35.702962,"lon":139.689461},{"name":"＊?西戸山生涯学習館","province":"東京都","city":"新宿区","address":"新宿区百人町4-7-1","lat":35.70895,"lon":139.695638},{"name":"＊?新宿区立区民ギャラリー","province":"東京都","city":"新宿区","address":"新宿区西新宿2-11-4","lat":35.691019,"lon":139.688613},{"name":"＊?戸山生涯学習館","province":"東京都","city":"新宿区","address":"新宿区戸山2-11-101","lat":35.701951,"lon":139.714195},{"name":"＊?赤城生涯学習館","province":"東京都","city":"新宿区","address":"新宿区赤城元町1-3","lat":35.704322,"lon":139.736335},{"name":"＊?住吉町生涯学習館","province":"東京都","city":"新宿区","address":"新宿区住吉町13-3","lat":35.694574,"lon":139.719843},{"name":"＊?北新宿生涯学習館","province":"東京都","city":"新宿区","address":"新宿区北新宿3-20-2","lat":35.702962,"lon":139.689461},{"name":"＊?西戸山生涯学習館","province":"東京都","city":"新宿区","address":"新宿区百人町4-7-1","lat":35.70895,"lon":139.695638},{"name":"＊?新宿区立区民ギャラリー","province":"東京都","city":"新宿区","address":"新宿区西新宿2-11-4","lat":35.691019,"lon":139.688613},{"name":"＊?戸山生涯学習館","province":"東京都","city":"新宿区","address":"新宿区戸山2-11-101","lat":35.701951,"lon":139.714195},{"name":"＊?赤城生涯学習館","province":"東京都","city":"新宿区","address":"新宿区赤城元町1-3","lat":35.704322,"lon":139.736335},{"name":"＊?住吉町生涯学習館","province":"東京都","city":"新宿区","address":"新宿区住吉町13-3","lat":35.694574,"lon":139.719843},{"name":"＊?北新宿生涯学習館","province":"東京都","city":"新宿区","address":"新宿区北新宿3-20-2","lat":35.702962,"lon":139.689461},{"name":"＊?西戸山生涯学習館","province":"東京都","city":"新宿区","address":"新宿区百人町4-7-1","lat":35.70895,"lon":139.695638},{"name":"＊?新宿区立区民ギャラリー","province":"東京都","city":"新宿区","address":"新宿区西新宿2-11-4","lat":35.691019,"lon":139.688613},{"name":"＊?戸山生涯学習館","province":"東京都","city":"新宿区","address":"新宿区戸山2-11-101","lat":35.701951,"lon":139.714195},{"name":"＊?赤城生涯学習館","province":"東京都","city":"新宿区","address":"新宿区赤城元町1-3","lat":35.704322,"lon":139.736335},{"name":"＊?住吉町生涯学習館","province":"東京都","city":"新宿区","address":"新宿区住吉町13-3","lat":35.694574,"lon":139.719843},{"name":"＊?北新宿生涯学習館","province":"東京都","city":"新宿区","address":"新宿区北新宿3-20-2","lat":35.702962,"lon":139.689461},{"name":"＊?西戸山生涯学習館","province":"東京都","city":"新宿区","address":"新宿区百人町4-7-1","lat":35.70895,"lon":139.695638},{"name":"＊?新宿区立区民ギャラリー","province":"東京都","city":"新宿区","address":"新宿区西新宿2-11-4","lat":35.691019,"lon":139.688613},{"name":"＊?戸山生涯学習館","province":"東京都","city":"新宿区","address":"新宿区戸山2-11-101","lat":35.701951,"lon":139.714195},{"name":"＊?赤城生涯学習館","province":"東京都","city":"新宿区","address":"新宿区赤城元町1-3","lat":35.704322,"lon":139.736335},{"name":"＊?住吉町生涯学習館","province":"東京都","city":"新宿区","address":"新宿区住吉町13-3","lat":35.694574,"lon":139.719843},{"name":"＊?北新宿生涯学習館","province":"東京都","city":"新宿区","address":"新宿区北新宿3-20-2","lat":35.702962,"lon":139.689461},{"name":"＊?西戸山生涯学習館","province":"東京都","city":"新宿区","address":"新宿区百人町4-7-1","lat":35.70895,"lon":139.695638},{"name":"＊?新宿区立区民ギャラリー","province":"東京都","city":"新宿区","address":"新宿区西新宿2-11-4","lat":35.691019,"lon":139.688613},{"name":"＊?戸山生涯学習館","province":"東京都","city":"新宿区","address":"新宿区戸山2-11-101","lat":35.701951,"lon":139.714195},{"name":"＊?赤城生涯学習館","province":"東京都","city":"新宿区","address":"新宿区赤城元町1-3","lat":35.704322,"lon":139.736335},{"name":"＊?住吉町生涯学習館","province":"東京都","city":"新宿区","address":"新宿区住吉町13-3","lat":35.694574,"lon":139.719843},{"name":"＊?北新宿生涯学習館","province":"東京都","city":"新宿区","address":"新宿区北新宿3-20-2","lat":35.702962,"lon":139.689461},{"name":"＊?西戸山生涯学習館","province":"東京都","city":"新宿区","address":"新宿区百人町4-7-1","lat":35.70895,"lon":139.695638},{"name":"＊?新宿区立区民ギャラリー","province":"東京都","city":"新宿区","address":"新宿区西新宿2-11-4","lat":35.691019,"lon":139.688613},{"name":"＊?戸山生涯学習館","province":"東京都","city":"新宿区","address":"新宿区戸山2-11-101","lat":35.701951,"lon":139.714195},{"name":"＊?赤城生涯学習館","province":"東京都","city":"新宿区","address":"新宿区赤城元町1-3","lat":35.704322,"lon":139.736335},{"name":"＊?住吉町生涯学習館","province":"東京都","city":"新宿区","address":"新宿区住吉町13-3","lat":35.694574,"lon":139.719843},{"name":"＊?北新宿生涯学習館","province":"東京都","city":"新宿区","address":"新宿区北新宿3-20-2","lat":35.702962,"lon":139.689461},{"name":"＊?西戸山生涯学習館","province":"東京都","city":"新宿区","address":"新宿区百人町4-7-1","lat":35.70895,"lon":139.695638},{"name":"＊?新宿区立区民ギャラリー","province":"東京都","city":"新宿区","address":"新宿区西新宿2-11-4","lat":35.691019,"lon":139.688613},{"name":"＊?戸山生涯学習館","province":"東京都","city":"新宿区","address":"新宿区戸山2-11-101","lat":35.701951,"lon":139.714195},{"name":"＊?赤城生涯学習館","province":"東京都","city":"新宿区","address":"新宿区赤城元町1-3","lat":35.704322,"lon":139.736335},{"name":"＊?住吉町生涯学習館","province":"東京都","city":"新宿区","address":"新宿区住吉町13-3","lat":35.694574,"lon":139.719843},{"name":"＊?北新宿生涯学習館","province":"東京都","city":"新宿区","address":"新宿区北新宿3-20-2","lat":35.702962,"lon":139.689461},{"name":"＊?西戸山生涯学習館","province":"東京都","city":"新宿区","address":"新宿区百人町4-7-1","lat":35.70895,"lon":139.695638},{"name":"＊?新宿区立区民ギャラリー","province":"東京都","city":"新宿区","address":"新宿区西新宿2-11-4","lat":35.691019,"lon":139.688613},{"name":"＊?戸山生涯学習館","province":"東京都","city":"新宿区","address":"新宿区戸山2-11-101","lat":35.701951,"lon":139.714195},{"name":"＊?赤城生涯学習館","province":"東京都","city":"新宿区","address":"新宿区赤城元町1-3","lat":35.704322,"lon":139.736335},{"name":"＊?住吉町生涯学習館","province":"東京都","city":"新宿区","address":"新宿区住吉町13-3","lat":35.694574,"lon":139.719843},{"name":"＊?北新宿生涯学習館","province":"東京都","city":"新宿区","address":"新宿区北新宿3-20-2","lat":35.702962,"lon":139.689461},{"name":"＊?西戸山生涯学習館","province":"東京都","city":"新宿区","address":"新宿区百人町4-7-1","lat":35.70895,"lon":139.695638},{"name":"＊?新宿区立区民ギャラリー","province":"東京都","city":"新宿区","address":"新宿区西新宿2-11-4","lat":35.691019,"lon":139.688613},{"name":"＊?戸山生涯学習館","province":"東京都","city":"新宿区","address":"新宿区戸山2-11-101","lat":35.701951,"lon":139.714195},{"name":"＊?赤城生涯学習館","province":"東京都","city":"新宿区","address":"新宿区赤城元町1-3","lat":35.704322,"lon":139.736335},{"name":"＊?住吉町生涯学習館","province":"東京都","city":"新宿区","address":"新宿区住吉町13-3","lat":35.694574,"lon":139.719843},{"name":"＊?北新宿生涯学習館","province":"東京都","city":"新宿区","address":"新宿区北新宿3-20-2","lat":35.702962,"lon":139.689461},{"name":"＊?西戸山生涯学習館","province":"東京都","city":"新宿区","address":"新宿区百人町4-7-1","lat":35.70895,"lon":139.695638},{"name":"＊?新宿区立区民ギャラリー","province":"東京都","city":"新宿区","address":"新宿区西新宿2-11-4","lat":35.691019,"lon":139.688613},{"name":"＊?戸山生涯学習館","province":"東京都","city":"新宿区","address":"新宿区戸山2-11-101","lat":35.701951,"lon":139.714195},{"name":"＊?赤城生涯学習館","province":"東京都","city":"新宿区","address":"新宿区赤城元町1-3","lat":35.704322,"lon":139.736335},{"name":"＊?住吉町生涯学習館","province":"東京都","city":"新宿区","address":"新宿区住吉町13-3","lat":35.694574,"lon":139.719843},{"name":"＊?北新宿生涯学習館","province":"東京都","city":"新宿区","address":"新宿区北新宿3-20-2","lat":35.702962,"lon":139.689461},{"name":"＊?西戸山生涯学習館","province":"東京都","city":"新宿区","address":"新宿区百人町4-7-1","lat":35.70895,"lon":139.695638},{"name":"＊?新宿区立区民ギャラリー","province":"東京都","city":"新宿区","address":"新宿区西新宿2-11-4","lat":35.691019,"lon":139.688613},{"name":"＊?戸山生涯学習館","province":"東京都","city":"新宿区","address":"新宿区戸山2-11-101","lat":35.701951,"lon":139.714195},{"name":"＊?赤城生涯学習館","province":"東京都","city":"新宿区","address":"新宿区赤城元町1-3","lat":35.704322,"lon":139.736335},{"name":"＊?住吉町生涯学習館","province":"東京都","city":"新宿区","address":"新宿区住吉町13-3","lat":35.694574,"lon":139.719843},{"name":"＊?北新宿生涯学習館","province":"東京都","city":"新宿区","address":"新宿区北新宿3-20-2","lat":35.702962,"lon":139.689461},{"name":"＊?西戸山生涯学習館","province":"東京都","city":"新宿区","address":"新宿区百人町4-7-1","lat":35.70895,"lon":139.695638},{"name":"＊?新宿区立区民ギャラリー","province":"東京都","city":"新宿区","address":"新宿区西新宿2-11-4","lat":35.691019,"lon":139.688613},{"name":"＊?戸山生涯学習館","province":"東京都","city":"新宿区","address":"新宿区戸山2-11-101","lat":35.701951,"lon":139.714195},{"name":"＊?赤城生涯学習館","province":"東京都","city":"新宿区","address":"新宿区赤城元町1-3","lat":35.704322,"lon":139.736335},{"name":"＊?住吉町生涯学習館","province":"東京都","city":"新宿区","address":"新宿区住吉町13-3","lat":35.694574,"lon":139.719843},{"name":"＊?北新宿生涯学習館","province":"東京都","city":"新宿区","address":"新宿区北新宿3-20-2","lat":35.702962,"lon":139.689461},{"name":"＊?西戸山生涯学習館","province":"東京都","city":"新宿区","address":"新宿区百人町4-7-1","lat":35.70895,"lon":139.695638},{"name":"＊?新宿区立区民ギャラリー","province":"東京都","city":"新宿区","address":"新宿区西新宿2-11-4","lat":35.691019,"lon":139.688613}]}