{"keyword":"宿泊","data":[{"name":"地域生活支援ホームやまぶき舎","province":"東京都","city":"新宿区","address":"新宿区赤城下町53","lat":35.705987,"lon":139.734057},{"name":"救世軍新光館","province":"東京都","city":"新宿区","address":"新宿区赤城下町87","lat":35.705056,"lon":139.735382},{"name":"さくら上落合ハウス","province":"東京都","city":"新宿区","address":"新宿区上落合1-13-2","lat":35.714673,"lon":139.692138},{"name":"いこい","province":"東京都","city":"新宿区","address":"新宿区富久町25-7","lat":35.694935,"lon":139.715117},{"name":"春陽寮","province":"東京都","city":"新宿区","address":"新宿区弁天町42","lat":35.704284,"lon":139.727721},{"name":"ドミトリー落合","province":"東京都","city":"新宿区","address":"新宿区上落合2-28-12","lat":35.711526,"lon":139.6855},{"name":"ＴＥＯＳ北新宿ハウス","province":"東京都","city":"新宿区","address":"新宿区北新宿3-10-2","lat":35.702169,"lon":139.691019},{"name":"さくら上落合ハウス","province":"東京都","city":"新宿区","address":"新宿区上落合1-13-2","lat":35.71501,"lon":139.69226},{"name":"ドミトリー落合","province":"東京都","city":"新宿区","address":"新宿区上落合2-28-12","lat":35.71146,"lon":139.68573},{"name":"いこい","province":"東京都","city":"新宿区","address":"新宿区富久町25-7","lat":35.69491,"lon":139.71503},{"name":"地域生活支援ホームやまぶき舎","province":"東京都","city":"新宿区","address":"新宿区赤城下町53","lat":35.70583,"lon":139.7341},{"name":"救世軍新光館","province":"東京都","city":"新宿区","address":"新宿区赤城下町87","lat":35.7055,"lon":139.73486},{"name":"春陽寮","province":"東京都","city":"新宿区","address":"新宿区弁天町42","lat":35.70423,"lon":139.7276},{"name":"ＴＥＯＳ北新宿ハウス","province":"東京都","city":"新宿区","address":"新宿区北新宿3-10-2","lat":35.70206,"lon":139.69075},{"name":"東京セントラルユースホステル","province":"東京都","city":"新宿区","address":"新宿区神楽河岸1-1セントラルプラザ18階","lat":35.69758638,"lon":139.7467536}]}