{"keyword":"戸数","data":[{"name":"大久保病院","province":"東京都","city":"新宿区","address":"東京都新宿区歌舞伎町2丁目44-1","lat":35.69691177,"lon":139.70156297},{"name":"新宿区社会福祉協議会","province":"東京都","city":"新宿区","address":"新宿区高田馬場1-17-20","lat":35.71161,"lon":139.707426},{"name":"東京都社会福祉協議会","province":"東京都","city":"新宿区","address":"新宿区神楽河岸1-1セントラルプラザ5階","lat":35.700951,"lon":139.743579},{"name":"新宿区","province":"東京都","city":"新宿区","address":"新宿区歌舞伎町1-4-1","lat":35.69389,"lon":139.7034633},{"name":"東京都建設局道路管理部　管理課指導担当","province":"東京都","city":"新宿区","address":"新宿区西新宿2-8-1","lat":35.6891847,"lon":139.6916481},{"name":"帝都典礼株式会社","province":"東京都","city":"新宿区","address":"東京都新宿区新宿2-16-6","lat":35.691647,"lon":139.708237},{"name":"四谷津乃國屋","province":"東京都","city":"新宿区","address":"東京都新宿区四谷2-13","lat":35.688007,"lon":139.72374},{"name":"株式会社天行社","province":"東京都","city":"新宿区","address":"東京都新宿区神楽坂6-48","lat":35.703335,"lon":139.735703},{"name":"有限会社広礼式典津乃國屋","province":"東京都","city":"新宿区","address":"東京都新宿区市谷甲良町2-19","lat":35.699286,"lon":139.728681},{"name":"有限会社早稲田近藤葬祭","province":"東京都","city":"新宿区","address":"東京都新宿区早稲田鶴巻町302","lat":35.709217,"lon":139.724197},{"name":"株式会社髙嶋","province":"東京都","city":"新宿区","address":"東京都新宿区西早稲田3-1-7","lat":35.709679,"lon":139.715527},{"name":"有限会社三国屋","province":"東京都","city":"新宿区","address":"東京都新宿区百人町1-24-8","lat":35.698776,"lon":139.697525},{"name":"株式会社公営社","province":"東京都","city":"新宿区","address":"東京都新宿区百人町2-21-1","lat":35.701751,"lon":139.697589},{"name":"赤堀商店","province":"東京都","city":"新宿区","address":"東京都新宿区上落合1-29-2","lat":35.711346,"lon":139.690567},{"name":"有限会社欅式典","province":"東京都","city":"新宿区","address":"東京都新宿区西新宿1-13-1","lat":35.689007,"lon":139.697617},{"name":"足立葬祭","province":"東京都","city":"新宿区","address":"東京都新宿区西新宿4-25-2","lat":35.686869,"lon":139.686935},{"name":"合資会社結城屋","province":"東京都","city":"新宿区","address":"東京都新宿区四谷4-28-104","lat":35.687859,"lon":139.71521},{"name":"東京都社会福祉協議会","province":"東京都","city":"新宿区","address":"新宿区神楽河岸1-1セントラルプラザ5階","lat":35.70095,"lon":139.74342},{"name":"新宿区社会福祉協議会","province":"東京都","city":"新宿区","address":"新宿区高田馬場1-17-20","lat":35.71146,"lon":139.70703},{"name":"東京都社会福祉協議会","province":"東京都","city":"新宿区","address":"新宿区神楽河岸1-1セントラルプラザ5階","lat":35.70101,"lon":139.7436},{"name":"新宿駅西口　地下タクシー乗り場前","province":"東京都","city":"新宿区","address":"東京都新宿区西新宿1","lat":35.6911,"lon":139.69777},{"name":"新宿駅東口　アルタ前（２基設置）","province":"東京都","city":"新宿区","address":"東京都新宿区新宿3-24-3","lat":35.69267,"lon":139.70139},{"name":"歌舞伎町　交差点","province":"東京都","city":"新宿区","address":"東京都新宿区歌舞伎町1-17-13","lat":35.69409,"lon":139.70135},{"name":"歌舞伎町　セントラルロード","province":"東京都","city":"新宿区","address":"東京都新宿区歌舞伎町1-14-3","lat":35.69452,"lon":139.70206},{"name":"歌舞伎町　一番街","province":"東京都","city":"新宿区","address":"東京都新宿区歌舞伎町1-23-10","lat":35.69426,"lon":139.70093},{"name":"新宿西口駅　思い出横丁南","province":"東京都","city":"新宿区","address":"東京都新宿区西新宿1-4-2","lat":35.69304,"lon":139.69801},{"name":"新宿駅東口　モア２番街南","province":"東京都","city":"新宿区","address":"東京都新宿区新宿3-23-17","lat":35.69327,"lon":139.70085},{"name":"新宿駅東口　モア４番街南","province":"東京都","city":"新宿区","address":"東京都新宿区新宿3-26-11","lat":35.69154,"lon":139.70186},{"name":"新宿駅東南口　広場前","province":"東京都","city":"新宿区","address":"東京都新宿区新宿3-37","lat":35.69017,"lon":139.70145},{"name":"新宿駅南口　バスタ新宿前","province":"東京都","city":"新宿区","address":"東京都新宿区新宿3-38-2","lat":35.69214,"lon":139.70129},{"name":"西新宿一丁目交差点","province":"東京都","city":"新宿区","address":"東京都新宿区西新宿1-1-5","lat":35.69027,"lon":139.69939},{"name":"京王百貨店前（２基設置）","province":"東京都","city":"新宿区","address":"東京都新宿区西新宿1-1-4","lat":35.69027,"lon":139.69939},{"name":"新宿駅東口　タクシー乗り場前","province":"東京都","city":"新宿区","address":"東京都新宿区新宿3-38-1","lat":35.69214,"lon":139.70129},{"name":"新宿駅東南口　Flags前","province":"東京都","city":"新宿区","address":"東京都新宿区新宿3-36-6","lat":35.69034,"lon":139.7019},{"name":"伊勢丹本館前","province":"東京都","city":"新宿区","address":"東京都新宿区新宿3-14-1","lat":35.69234,"lon":139.70471},{"name":"新宿三丁目交差点","province":"東京都","city":"新宿区","address":"東京都新宿区新宿3-4-4","lat":35.69087,"lon":139.7054},{"name":"高田馬場駅早稲田口　西","province":"東京都","city":"新宿区","address":"東京都新宿区高田馬場3-1-4","lat":35.714317,"lon":139.703598},{"name":"高田馬場駅早稲田口　ロータリー","province":"東京都","city":"新宿区","address":"東京都新宿区高田馬場1-26-5","lat":35.712883,"lon":139.704865},{"name":"高田馬場駅戸山口　東","province":"東京都","city":"新宿区","address":"東京都新宿区高田馬場1-28-4","lat":35.71159,"lon":139.704315},{"name":"大久保駅北口","province":"東京都","city":"新宿区","address":"東京都新宿区百人町2-23-1","lat":35.70179,"lon":139.696976},{"name":"新大久保駅北口　西","province":"東京都","city":"新宿区","address":"東京都新宿区百人町2-4-1","lat":35.70155,"lon":139.700104},{"name":"新大久保駅北口　東","province":"東京都","city":"新宿区","address":"東京都新宿区百人町2-3-23","lat":35.701492,"lon":139.701004},{"name":"信濃町駅","province":"東京都","city":"新宿区","address":"東京都新宿区南元町19","lat":35.679428,"lon":139.720978},{"name":"JR四ツ谷駅四ツ谷口","province":"東京都","city":"新宿区","address":"東京都新宿区四谷1-4-2","lat":35.686832,"lon":139.728683},{"name":"JR四ツ谷駅赤坂口","province":"東京都","city":"新宿区","address":"東京都新宿区四谷1-2","lat":35.68578,"lon":139.728958},{"name":"西武線中井駅","province":"東京都","city":"新宿区","address":"東京都新宿区中落合1-20-15","lat":35.714939,"lon":139.687393},{"name":"大江戸線中井駅A2出口","province":"東京都","city":"新宿区","address":"東京都新宿区上落合2-20-6","lat":35.714153,"lon":139.686829},{"name":"神楽坂下交差点","province":"東京都","city":"新宿区","address":"東京都新宿区神楽坂2-1","lat":35.700607,"lon":139.741806},{"name":"地下鉄早稲田駅前交差点","province":"東京都","city":"新宿区","address":"東京都新宿区馬場下町3","lat":35.70573,"lon":139.720551},{"name":"東新宿駅南交差点","province":"東京都","city":"新宿区","address":"東京都新宿区新宿6-29-11","lat":35.697765,"lon":139.707779},{"name":"四谷3丁目駅前交差点","province":"東京都","city":"新宿区","address":"東京都新宿区四谷3-9-11","lat":35.687627,"lon":139.719669},{"name":"新宿中央公園 水の広場","province":"東京都","city":"新宿区","address":"東京都新宿区西新宿2-11","lat":35.691105,"lon":139.687698},{"name":"新宿御苑前駅1出口","province":"東京都","city":"新宿区","address":"東京都新宿区新宿2-8-1","lat":35.688904,"lon":139.709702},{"name":"市ヶ谷駅 DNPプラザ前","province":"東京都","city":"新宿区","address":"東京都新宿区市谷田町1-14-1","lat":35.6936,"lon":139.736542},{"name":"西新宿駅 2出口","province":"東京都","city":"新宿区","address":"東京都新宿区西新宿8-1-3","lat":35.694252,"lon":139.69368},{"name":"東京医科大学病院","province":"東京都","city":"新宿区","address":"東京都新宿区西新宿6丁目7-1","lat":35.69402018,"lon":139.69221112},{"name":"慶応義塾大学病院","province":"東京都","city":"新宿区","address":"東京都新宿区信濃町35","lat":35.68258045,"lon":139.7181676},{"name":"東京女子医科大学病院","province":"東京都","city":"新宿区","address":"東京都新宿区河田町8-1","lat":35.69807045,"lon":139.72011683},{"name":"東京都保健医療公社大久保病院","province":"東京都","city":"新宿区","address":"東京都新宿区歌舞伎町2丁目44-1","lat":35.69691177,"lon":139.70156297},{"name":"国立国際医療研究センター病院","province":"東京都","city":"新宿区","address":"東京都新宿区戸山1丁目21-1","lat":35.70174214,"lon":139.71530878},{"name":"社会保険中央総合病院","province":"東京都","city":"新宿区","address":"東京都新宿区百人町3丁目22-1","lat":35.70470248,"lon":139.69904899},{"name":"落合斎場","province":"東京都","city":"新宿区","address":"東京都新宿区上落合3丁目34-12","lat":35.7113901,"lon":139.68113917},{"name":"淀橋給水所","province":"東京都","city":"新宿区","address":"東京都新宿区西新宿2丁目10-1","lat":35.68811804,"lon":139.69063928},{"name":"区立鶴巻南公園","province":"東京都","city":"新宿区","address":"東京都新宿区早稲田鶴巻町507","lat":35.70624187,"lon":139.72408838},{"name":"区立百人町ふれあい公園","province":"東京都","city":"新宿区","address":"東京都新宿区百人町3丁目28","lat":35.70541065,"lon":139.69568815},{"name":"区立鶴巻南公園（注１）","province":"東京都","city":"新宿区","address":"東京都新宿区早稲田鶴巻町507","lat":35.70624187,"lon":139.72408838},{"name":"明治神宮外苑軟式野球場","province":"東京都","city":"新宿区","address":"東京都新宿区霞ヶ丘町1-1","lat":35.67880032,"lon":139.71766225},{"name":"都立落合中央公園野球場","province":"東京都","city":"新宿区","address":"東京都新宿区上落合1丁目2","lat":35.71287916,"lon":139.69289364},{"name":"新宿区立西戸山公園野球場","province":"東京都","city":"新宿区","address":"東京都新宿区百人町4丁目1","lat":35.70748833,"lon":139.70088483},{"name":"東京都庁第一本庁舎","province":"東京都","city":"新宿区","address":"東京都新宿区西新宿2丁目8-1","lat":35.68918461,"lon":139.69164748},{"name":"国立国際医療研究センターヘリポート","province":"東京都","city":"新宿区","address":"東京都新宿区戸山1丁目21-1","lat":35.70174214,"lon":139.71530878},{"name":"新宿区選挙管理委員会","province":"東京都","city":"新宿区","address":"新宿区歌舞伎町1-5-1第1分庁舎3階","lat":35.693396,"lon":139.703409},{"name":"東京都庁第二本庁舎","province":"東京都","city":"新宿区","address":"東京都新宿区西新宿2丁目8-1","lat":35.68918461,"lon":139.69164748},{"name":"東京都議会議事堂","province":"東京都","city":"新宿区","address":"東京都新宿区西新宿2丁目8-1","lat":35.68918461,"lon":139.69164748},{"name":"新宿都税事務所","province":"東京都","city":"新宿区","address":"東京都新宿区西新宿7丁目5-8","lat":35.69678671,"lon":139.69874655},{"name":"淀橋市場","province":"東京都","city":"新宿区","address":"東京都新宿区北新宿4丁目2-1","lat":35.70560501,"lon":139.69364387},{"name":"戸山高等学校","province":"東京都","city":"新宿区","address":"東京都新宿区戸山3丁目19-1","lat":35.70655814,"lon":139.71058956},{"name":"新宿高等学校","province":"東京都","city":"新宿区","address":"東京都新宿区内藤町11-4","lat":35.68919329,"lon":139.70543237},{"name":"総合芸術高等学校","province":"東京都","city":"新宿区","address":"東京都新宿区富久町22-1","lat":35.69324863,"lon":139.71483721},{"name":"新宿山吹高等学校","province":"東京都","city":"新宿区","address":"東京都新宿区山吹町81","lat":35.70703913,"lon":139.7287324},{"name":"消防博物館","province":"東京都","city":"新宿区","address":"東京都新宿区四谷3丁目10","lat":35.68812154,"lon":139.7196617},{"name":"災害対策職員住宅柏木住宅内集中備蓄倉庫","province":"東京都","city":"新宿区","address":"新宿区北新宿4-6-1","lat":35.708274,"lon":139.693808},{"name":"新宿区","province":"東京都","city":"新宿区","address":"新宿区原町3-23","lat":35.70002,"lon":139.7223},{"name":"東日本電信電話（株）四谷ビル","province":"東京都","city":"新宿区","address":"新宿区新宿1-33-13","lat":35.69097,"lon":139.7121},{"name":"ＮＴＴコミュニケーションズ（株）新宿ビル","province":"東京都","city":"新宿区","address":"新宿区北新宿1-5-1","lat":35.69958,"lon":139.6958},{"name":"大久保病院","province":"東京都","city":"新宿区","address":"東京都新宿区歌舞伎町2丁目44-1","lat":35.69691177,"lon":139.70156297},{"name":"新宿区社会福祉協議会","province":"東京都","city":"新宿区","address":"新宿区高田馬場1-17-20","lat":35.71161,"lon":139.707426},{"name":"東京都社会福祉協議会","province":"東京都","city":"新宿区","address":"新宿区神楽河岸1-1セントラルプラザ5階","lat":35.700951,"lon":139.743579},{"name":"東京都建設局道路管理部　管理課指導担当","province":"東京都","city":"新宿区","address":"新宿区西新宿2-8-1","lat":35.6891847,"lon":139.6916481},{"name":"東京都社会福祉協議会","province":"東京都","city":"新宿区","address":"新宿区神楽河岸1-1セントラルプラザ5階","lat":35.70095,"lon":139.74342},{"name":"新宿区社会福祉協議会","province":"東京都","city":"新宿区","address":"新宿区高田馬場1-17-20","lat":35.71146,"lon":139.70703},{"name":"東京都社会福祉協議会","province":"東京都","city":"新宿区","address":"新宿区神楽河岸1-1セントラルプラザ5階","lat":35.70101,"lon":139.7436},{"name":"新宿駅西口　地下タクシー乗り場前","province":"東京都","city":"新宿区","address":"東京都新宿区西新宿1","lat":35.6911,"lon":139.69777},{"name":"新宿駅東口　アルタ前（２基設置）","province":"東京都","city":"新宿区","address":"東京都新宿区新宿3-24-3","lat":35.69267,"lon":139.70139},{"name":"歌舞伎町　交差点","province":"東京都","city":"新宿区","address":"東京都新宿区歌舞伎町1-17-13","lat":35.69409,"lon":139.70135},{"name":"歌舞伎町　セントラルロード","province":"東京都","city":"新宿区","address":"東京都新宿区歌舞伎町1-14-3","lat":35.69452,"lon":139.70206},{"name":"歌舞伎町　一番街","province":"東京都","city":"新宿区","address":"東京都新宿区歌舞伎町1-23-10","lat":35.69426,"lon":139.70093},{"name":"新宿西口駅　思い出横丁南","province":"東京都","city":"新宿区","address":"東京都新宿区西新宿1-4-2","lat":35.69304,"lon":139.69801},{"name":"新宿駅東口　モア２番街南","province":"東京都","city":"新宿区","address":"東京都新宿区新宿3-23-17","lat":35.69327,"lon":139.70085},{"name":"新宿駅東口　モア４番街南","province":"東京都","city":"新宿区","address":"東京都新宿区新宿3-26-11","lat":35.69154,"lon":139.70186},{"name":"新宿駅東南口　広場前","province":"東京都","city":"新宿区","address":"東京都新宿区新宿3-37","lat":35.69017,"lon":139.70145},{"name":"新宿駅南口　バスタ新宿前","province":"東京都","city":"新宿区","address":"東京都新宿区新宿3-38-2","lat":35.69214,"lon":139.70129},{"name":"西新宿一丁目交差点","province":"東京都","city":"新宿区","address":"東京都新宿区西新宿1-1-5","lat":35.69027,"lon":139.69939},{"name":"京王百貨店前（２基設置）","province":"東京都","city":"新宿区","address":"東京都新宿区西新宿1-1-4","lat":35.69027,"lon":139.69939},{"name":"新宿駅東口　タクシー乗り場前","province":"東京都","city":"新宿区","address":"東京都新宿区新宿3-38-1","lat":35.69214,"lon":139.70129},{"name":"新宿駅東南口　Flags前","province":"東京都","city":"新宿区","address":"東京都新宿区新宿3-36-6","lat":35.69034,"lon":139.7019},{"name":"伊勢丹本館前","province":"東京都","city":"新宿区","address":"東京都新宿区新宿3-14-1","lat":35.69234,"lon":139.70471},{"name":"新宿三丁目交差点","province":"東京都","city":"新宿区","address":"東京都新宿区新宿3-4-4","lat":35.69087,"lon":139.7054},{"name":"高田馬場駅早稲田口　西","province":"東京都","city":"新宿区","address":"東京都新宿区高田馬場3-1-4","lat":35.714317,"lon":139.703598},{"name":"高田馬場駅早稲田口　ロータリー","province":"東京都","city":"新宿区","address":"東京都新宿区高田馬場1-26-5","lat":35.712883,"lon":139.704865},{"name":"高田馬場駅戸山口　東","province":"東京都","city":"新宿区","address":"東京都新宿区高田馬場1-28-4","lat":35.71159,"lon":139.704315},{"name":"大久保駅北口","province":"東京都","city":"新宿区","address":"東京都新宿区百人町2-23-1","lat":35.70179,"lon":139.696976},{"name":"新大久保駅北口　西","province":"東京都","city":"新宿区","address":"東京都新宿区百人町2-4-1","lat":35.70155,"lon":139.700104},{"name":"新大久保駅北口　東","province":"東京都","city":"新宿区","address":"東京都新宿区百人町2-3-23","lat":35.701492,"lon":139.701004},{"name":"信濃町駅","province":"東京都","city":"新宿区","address":"東京都新宿区南元町19","lat":35.679428,"lon":139.720978},{"name":"JR四ツ谷駅四ツ谷口","province":"東京都","city":"新宿区","address":"東京都新宿区四谷1-4-2","lat":35.686832,"lon":139.728683},{"name":"JR四ツ谷駅赤坂口","province":"東京都","city":"新宿区","address":"東京都新宿区四谷1-2","lat":35.68578,"lon":139.728958},{"name":"西武線中井駅","province":"東京都","city":"新宿区","address":"東京都新宿区中落合1-20-15","lat":35.714939,"lon":139.687393},{"name":"大江戸線中井駅A2出口","province":"東京都","city":"新宿区","address":"東京都新宿区上落合2-20-6","lat":35.714153,"lon":139.686829},{"name":"神楽坂下交差点","province":"東京都","city":"新宿区","address":"東京都新宿区神楽坂2-1","lat":35.700607,"lon":139.741806},{"name":"地下鉄早稲田駅前交差点","province":"東京都","city":"新宿区","address":"東京都新宿区馬場下町3","lat":35.70573,"lon":139.720551},{"name":"東新宿駅南交差点","province":"東京都","city":"新宿区","address":"東京都新宿区新宿6-29-11","lat":35.697765,"lon":139.707779},{"name":"四谷3丁目駅前交差点","province":"東京都","city":"新宿区","address":"東京都新宿区四谷3-9-11","lat":35.687627,"lon":139.719669},{"name":"新宿中央公園 水の広場","province":"東京都","city":"新宿区","address":"東京都新宿区西新宿2-11","lat":35.691105,"lon":139.687698},{"name":"新宿御苑前駅1出口","province":"東京都","city":"新宿区","address":"東京都新宿区新宿2-8-1","lat":35.688904,"lon":139.709702},{"name":"市ヶ谷駅 DNPプラザ前","province":"東京都","city":"新宿区","address":"東京都新宿区市谷田町1-14-1","lat":35.6936,"lon":139.736542},{"name":"西新宿駅 2出口","province":"東京都","city":"新宿区","address":"東京都新宿区西新宿8-1-3","lat":35.694252,"lon":139.69368},{"name":"東京医科大学病院","province":"東京都","city":"新宿区","address":"東京都新宿区西新宿6丁目7-1","lat":35.69402018,"lon":139.69221112},{"name":"慶応義塾大学病院","province":"東京都","city":"新宿区","address":"東京都新宿区信濃町35","lat":35.68258045,"lon":139.7181676},{"name":"東京女子医科大学病院","province":"東京都","city":"新宿区","address":"東京都新宿区河田町8-1","lat":35.69807045,"lon":139.72011683},{"name":"東京都保健医療公社大久保病院","province":"東京都","city":"新宿区","address":"東京都新宿区歌舞伎町2丁目44-1","lat":35.69691177,"lon":139.70156297},{"name":"国立国際医療研究センター病院","province":"東京都","city":"新宿区","address":"東京都新宿区戸山1丁目21-1","lat":35.70174214,"lon":139.71530878},{"name":"社会保険中央総合病院","province":"東京都","city":"新宿区","address":"東京都新宿区百人町3丁目22-1","lat":35.70470248,"lon":139.69904899},{"name":"落合斎場","province":"東京都","city":"新宿区","address":"東京都新宿区上落合3丁目34-12","lat":35.7113901,"lon":139.68113917},{"name":"淀橋給水所","province":"東京都","city":"新宿区","address":"東京都新宿区西新宿2丁目10-1","lat":35.68811804,"lon":139.69063928},{"name":"区立鶴巻南公園","province":"東京都","city":"新宿区","address":"東京都新宿区早稲田鶴巻町507","lat":35.70624187,"lon":139.72408838},{"name":"区立百人町ふれあい公園","province":"東京都","city":"新宿区","address":"東京都新宿区百人町3丁目28","lat":35.70541065,"lon":139.69568815},{"name":"区立鶴巻南公園（注１）","province":"東京都","city":"新宿区","address":"東京都新宿区早稲田鶴巻町507","lat":35.70624187,"lon":139.72408838},{"name":"明治神宮外苑軟式野球場","province":"東京都","city":"新宿区","address":"東京都新宿区霞ヶ丘町1-1","lat":35.67880032,"lon":139.71766225},{"name":"都立落合中央公園野球場","province":"東京都","city":"新宿区","address":"東京都新宿区上落合1丁目2","lat":35.71287916,"lon":139.69289364},{"name":"新宿区立西戸山公園野球場","province":"東京都","city":"新宿区","address":"東京都新宿区百人町4丁目1","lat":35.70748833,"lon":139.70088483},{"name":"東京都庁第一本庁舎","province":"東京都","city":"新宿区","address":"東京都新宿区西新宿2丁目8-1","lat":35.68918461,"lon":139.69164748},{"name":"国立国際医療研究センターヘリポート","province":"東京都","city":"新宿区","address":"東京都新宿区戸山1丁目21-1","lat":35.70174214,"lon":139.71530878},{"name":"東京都庁第二本庁舎","province":"東京都","city":"新宿区","address":"東京都新宿区西新宿2丁目8-1","lat":35.68918461,"lon":139.69164748},{"name":"東京都議会議事堂","province":"東京都","city":"新宿区","address":"東京都新宿区西新宿2丁目8-1","lat":35.68918461,"lon":139.69164748},{"name":"新宿都税事務所","province":"東京都","city":"新宿区","address":"東京都新宿区西新宿7丁目5-8","lat":35.69678671,"lon":139.69874655},{"name":"淀橋市場","province":"東京都","city":"新宿区","address":"東京都新宿区北新宿4丁目2-1","lat":35.70560501,"lon":139.69364387},{"name":"戸山高等学校","province":"東京都","city":"新宿区","address":"東京都新宿区戸山3丁目19-1","lat":35.70655814,"lon":139.71058956},{"name":"新宿高等学校","province":"東京都","city":"新宿区","address":"東京都新宿区内藤町11-4","lat":35.68919329,"lon":139.70543237},{"name":"総合芸術高等学校","province":"東京都","city":"新宿区","address":"東京都新宿区富久町22-1","lat":35.69324863,"lon":139.71483721},{"name":"新宿山吹高等学校","province":"東京都","city":"新宿区","address":"東京都新宿区山吹町81","lat":35.70703913,"lon":139.7287324},{"name":"消防博物館","province":"東京都","city":"新宿区","address":"東京都新宿区四谷3丁目10","lat":35.68812154,"lon":139.7196617},{"name":"災害対策職員住宅柏木住宅内集中備蓄倉庫","province":"東京都","city":"新宿区","address":"新宿区北新宿4-6-1","lat":35.708274,"lon":139.693808},{"name":"新宿区","province":"東京都","city":"新宿区","address":"新宿区原町3-23","lat":35.70002,"lon":139.7223},{"name":"東日本電信電話（株）四谷ビル","province":"東京都","city":"新宿区","address":"新宿区新宿1-33-13","lat":35.69097,"lon":139.7121},{"name":"ＮＴＴコミュニケーションズ（株）新宿ビル","province":"東京都","city":"新宿区","address":"新宿区北新宿1-5-1","lat":35.69958,"lon":139.6958},{"name":"大久保病院","province":"東京都","city":"新宿区","address":"東京都新宿区歌舞伎町2丁目44-1","lat":35.69691177,"lon":139.70156297},{"name":"東京都建設局道路管理部　管理課指導担当","province":"東京都","city":"新宿区","address":"新宿区西新宿2-8-1","lat":35.6891847,"lon":139.6916481},{"name":"新宿駅西口　地下タクシー乗り場前","province":"東京都","city":"新宿区","address":"東京都新宿区西新宿1","lat":35.6911,"lon":139.69777},{"name":"新宿駅東口　アルタ前（２基設置）","province":"東京都","city":"新宿区","address":"東京都新宿区新宿3-24-3","lat":35.69267,"lon":139.70139},{"name":"歌舞伎町　交差点","province":"東京都","city":"新宿区","address":"東京都新宿区歌舞伎町1-17-13","lat":35.69409,"lon":139.70135},{"name":"歌舞伎町　セントラルロード","province":"東京都","city":"新宿区","address":"東京都新宿区歌舞伎町1-14-3","lat":35.69452,"lon":139.70206},{"name":"歌舞伎町　一番街","province":"東京都","city":"新宿区","address":"東京都新宿区歌舞伎町1-23-10","lat":35.69426,"lon":139.70093},{"name":"新宿西口駅　思い出横丁南","province":"東京都","city":"新宿区","address":"東京都新宿区西新宿1-4-2","lat":35.69304,"lon":139.69801},{"name":"新宿駅東口　モア２番街南","province":"東京都","city":"新宿区","address":"東京都新宿区新宿3-23-17","lat":35.69327,"lon":139.70085},{"name":"新宿駅東口　モア４番街南","province":"東京都","city":"新宿区","address":"東京都新宿区新宿3-26-11","lat":35.69154,"lon":139.70186},{"name":"新宿駅東南口　広場前","province":"東京都","city":"新宿区","address":"東京都新宿区新宿3-37","lat":35.69017,"lon":139.70145},{"name":"新宿駅南口　バスタ新宿前","province":"東京都","city":"新宿区","address":"東京都新宿区新宿3-38-2","lat":35.69214,"lon":139.70129},{"name":"西新宿一丁目交差点","province":"東京都","city":"新宿区","address":"東京都新宿区西新宿1-1-5","lat":35.69027,"lon":139.69939},{"name":"京王百貨店前（２基設置）","province":"東京都","city":"新宿区","address":"東京都新宿区西新宿1-1-4","lat":35.69027,"lon":139.69939},{"name":"新宿駅東口　タクシー乗り場前","province":"東京都","city":"新宿区","address":"東京都新宿区新宿3-38-1","lat":35.69214,"lon":139.70129},{"name":"新宿駅東南口　Flags前","province":"東京都","city":"新宿区","address":"東京都新宿区新宿3-36-6","lat":35.69034,"lon":139.7019},{"name":"伊勢丹本館前","province":"東京都","city":"新宿区","address":"東京都新宿区新宿3-14-1","lat":35.69234,"lon":139.70471},{"name":"新宿三丁目交差点","province":"東京都","city":"新宿区","address":"東京都新宿区新宿3-4-4","lat":35.69087,"lon":139.7054},{"name":"高田馬場駅早稲田口　西","province":"東京都","city":"新宿区","address":"東京都新宿区高田馬場3-1-4","lat":35.714317,"lon":139.703598},{"name":"高田馬場駅早稲田口　ロータリー","province":"東京都","city":"新宿区","address":"東京都新宿区高田馬場1-26-5","lat":35.712883,"lon":139.704865},{"name":"高田馬場駅戸山口　東","province":"東京都","city":"新宿区","address":"東京都新宿区高田馬場1-28-4","lat":35.71159,"lon":139.704315},{"name":"大久保駅北口","province":"東京都","city":"新宿区","address":"東京都新宿区百人町2-23-1","lat":35.70179,"lon":139.696976},{"name":"新大久保駅北口　西","province":"東京都","city":"新宿区","address":"東京都新宿区百人町2-4-1","lat":35.70155,"lon":139.700104},{"name":"新大久保駅北口　東","province":"東京都","city":"新宿区","address":"東京都新宿区百人町2-3-23","lat":35.701492,"lon":139.701004},{"name":"信濃町駅","province":"東京都","city":"新宿区","address":"東京都新宿区南元町19","lat":35.679428,"lon":139.720978},{"name":"JR四ツ谷駅四ツ谷口","province":"東京都","city":"新宿区","address":"東京都新宿区四谷1-4-2","lat":35.686832,"lon":139.728683},{"name":"JR四ツ谷駅赤坂口","province":"東京都","city":"新宿区","address":"東京都新宿区四谷1-2","lat":35.68578,"lon":139.728958},{"name":"西武線中井駅","province":"東京都","city":"新宿区","address":"東京都新宿区中落合1-20-15","lat":35.714939,"lon":139.687393},{"name":"大江戸線中井駅A2出口","province":"東京都","city":"新宿区","address":"東京都新宿区上落合2-20-6","lat":35.714153,"lon":139.686829},{"name":"神楽坂下交差点","province":"東京都","city":"新宿区","address":"東京都新宿区神楽坂2-1","lat":35.700607,"lon":139.741806},{"name":"地下鉄早稲田駅前交差点","province":"東京都","city":"新宿区","address":"東京都新宿区馬場下町3","lat":35.70573,"lon":139.720551},{"name":"東新宿駅南交差点","province":"東京都","city":"新宿区","address":"東京都新宿区新宿6-29-11","lat":35.697765,"lon":139.707779},{"name":"四谷3丁目駅前交差点","province":"東京都","city":"新宿区","address":"東京都新宿区四谷3-9-11","lat":35.687627,"lon":139.719669},{"name":"新宿中央公園 水の広場","province":"東京都","city":"新宿区","address":"東京都新宿区西新宿2-11","lat":35.691105,"lon":139.687698},{"name":"新宿御苑前駅1出口","province":"東京都","city":"新宿区","address":"東京都新宿区新宿2-8-1","lat":35.688904,"lon":139.709702},{"name":"市ヶ谷駅 DNPプラザ前","province":"東京都","city":"新宿区","address":"東京都新宿区市谷田町1-14-1","lat":35.6936,"lon":139.736542},{"name":"西新宿駅 2出口","province":"東京都","city":"新宿区","address":"東京都新宿区西新宿8-1-3","lat":35.694252,"lon":139.69368},{"name":"東京医科大学病院","province":"東京都","city":"新宿区","address":"東京都新宿区西新宿6丁目7-1","lat":35.69402018,"lon":139.69221112},{"name":"慶応義塾大学病院","province":"東京都","city":"新宿区","address":"東京都新宿区信濃町35","lat":35.68258045,"lon":139.7181676},{"name":"東京女子医科大学病院","province":"東京都","city":"新宿区","address":"東京都新宿区河田町8-1","lat":35.69807045,"lon":139.72011683},{"name":"東京都保健医療公社大久保病院","province":"東京都","city":"新宿区","address":"東京都新宿区歌舞伎町2丁目44-1","lat":35.69691177,"lon":139.70156297},{"name":"国立国際医療研究センター病院","province":"東京都","city":"新宿区","address":"東京都新宿区戸山1丁目21-1","lat":35.70174214,"lon":139.71530878},{"name":"社会保険中央総合病院","province":"東京都","city":"新宿区","address":"東京都新宿区百人町3丁目22-1","lat":35.70470248,"lon":139.69904899},{"name":"東京都庁第二本庁舎","province":"東京都","city":"新宿区","address":"東京都新宿区西新宿2丁目8-1","lat":35.68918461,"lon":139.69164748},{"name":"東京都議会議事堂","province":"東京都","city":"新宿区","address":"東京都新宿区西新宿2丁目8-1","lat":35.68918461,"lon":139.69164748},{"name":"新宿都税事務所","province":"東京都","city":"新宿区","address":"東京都新宿区西新宿7丁目5-8","lat":35.69678671,"lon":139.69874655},{"name":"淀橋市場","province":"東京都","city":"新宿区","address":"東京都新宿区北新宿4丁目2-1","lat":35.70560501,"lon":139.69364387},{"name":"戸山高等学校","province":"東京都","city":"新宿区","address":"東京都新宿区戸山3丁目19-1","lat":35.70655814,"lon":139.71058956},{"name":"新宿高等学校","province":"東京都","city":"新宿区","address":"東京都新宿区内藤町11-4","lat":35.68919329,"lon":139.70543237},{"name":"総合芸術高等学校","province":"東京都","city":"新宿区","address":"東京都新宿区富久町22-1","lat":35.69324863,"lon":139.71483721},{"name":"新宿山吹高等学校","province":"東京都","city":"新宿区","address":"東京都新宿区山吹町81","lat":35.70703913,"lon":139.7287324},{"name":"消防博物館","province":"東京都","city":"新宿区","address":"東京都新宿区四谷3丁目10","lat":35.68812154,"lon":139.7196617},{"name":"大久保病院","province":"東京都","city":"新宿区","address":"東京都新宿区歌舞伎町2丁目44-1","lat":35.69691177,"lon":139.70156297},{"name":"東京都建設局道路管理部　管理課指導担当","province":"東京都","city":"新宿区","address":"新宿区西新宿2-8-1","lat":35.6891847,"lon":139.6916481},{"name":"新宿駅西口　地下タクシー乗り場前","province":"東京都","city":"新宿区","address":"東京都新宿区西新宿1","lat":35.6911,"lon":139.69777},{"name":"新宿駅東口　アルタ前（２基設置）","province":"東京都","city":"新宿区","address":"東京都新宿区新宿3-24-3","lat":35.69267,"lon":139.70139},{"name":"歌舞伎町　交差点","province":"東京都","city":"新宿区","address":"東京都新宿区歌舞伎町1-17-13","lat":35.69409,"lon":139.70135},{"name":"歌舞伎町　セントラルロード","province":"東京都","city":"新宿区","address":"東京都新宿区歌舞伎町1-14-3","lat":35.69452,"lon":139.70206},{"name":"歌舞伎町　一番街","province":"東京都","city":"新宿区","address":"東京都新宿区歌舞伎町1-23-10","lat":35.69426,"lon":139.70093},{"name":"新宿西口駅　思い出横丁南","province":"東京都","city":"新宿区","address":"東京都新宿区西新宿1-4-2","lat":35.69304,"lon":139.69801},{"name":"新宿駅東口　モア２番街南","province":"東京都","city":"新宿区","address":"東京都新宿区新宿3-23-17","lat":35.69327,"lon":139.70085},{"name":"新宿駅東口　モア４番街南","province":"東京都","city":"新宿区","address":"東京都新宿区新宿3-26-11","lat":35.69154,"lon":139.70186},{"name":"新宿駅東南口　広場前","province":"東京都","city":"新宿区","address":"東京都新宿区新宿3-37","lat":35.69017,"lon":139.70145},{"name":"新宿駅南口　バスタ新宿前","province":"東京都","city":"新宿区","address":"東京都新宿区新宿3-38-2","lat":35.69214,"lon":139.70129},{"name":"西新宿一丁目交差点","province":"東京都","city":"新宿区","address":"東京都新宿区西新宿1-1-5","lat":35.69027,"lon":139.69939},{"name":"京王百貨店前（２基設置）","province":"東京都","city":"新宿区","address":"東京都新宿区西新宿1-1-4","lat":35.69027,"lon":139.69939},{"name":"新宿駅東口　タクシー乗り場前","province":"東京都","city":"新宿区","address":"東京都新宿区新宿3-38-1","lat":35.69214,"lon":139.70129},{"name":"新宿駅東南口　Flags前","province":"東京都","city":"新宿区","address":"東京都新宿区新宿3-36-6","lat":35.69034,"lon":139.7019},{"name":"伊勢丹本館前","province":"東京都","city":"新宿区","address":"東京都新宿区新宿3-14-1","lat":35.69234,"lon":139.70471},{"name":"新宿三丁目交差点","province":"東京都","city":"新宿区","address":"東京都新宿区新宿3-4-4","lat":35.69087,"lon":139.7054},{"name":"高田馬場駅早稲田口　西","province":"東京都","city":"新宿区","address":"東京都新宿区高田馬場3-1-4","lat":35.714317,"lon":139.703598},{"name":"高田馬場駅早稲田口　ロータリー","province":"東京都","city":"新宿区","address":"東京都新宿区高田馬場1-26-5","lat":35.712883,"lon":139.704865},{"name":"高田馬場駅戸山口　東","province":"東京都","city":"新宿区","address":"東京都新宿区高田馬場1-28-4","lat":35.71159,"lon":139.704315},{"name":"大久保駅北口","province":"東京都","city":"新宿区","address":"東京都新宿区百人町2-23-1","lat":35.70179,"lon":139.696976},{"name":"新大久保駅北口　西","province":"東京都","city":"新宿区","address":"東京都新宿区百人町2-4-1","lat":35.70155,"lon":139.700104},{"name":"新大久保駅北口　東","province":"東京都","city":"新宿区","address":"東京都新宿区百人町2-3-23","lat":35.701492,"lon":139.701004},{"name":"信濃町駅","province":"東京都","city":"新宿区","address":"東京都新宿区南元町19","lat":35.679428,"lon":139.720978},{"name":"JR四ツ谷駅四ツ谷口","province":"東京都","city":"新宿区","address":"東京都新宿区四谷1-4-2","lat":35.686832,"lon":139.728683},{"name":"JR四ツ谷駅赤坂口","province":"東京都","city":"新宿区","address":"東京都新宿区四谷1-2","lat":35.68578,"lon":139.728958},{"name":"西武線中井駅","province":"東京都","city":"新宿区","address":"東京都新宿区中落合1-20-15","lat":35.714939,"lon":139.687393},{"name":"大江戸線中井駅A2出口","province":"東京都","city":"新宿区","address":"東京都新宿区上落合2-20-6","lat":35.714153,"lon":139.686829},{"name":"神楽坂下交差点","province":"東京都","city":"新宿区","address":"東京都新宿区神楽坂2-1","lat":35.700607,"lon":139.741806},{"name":"地下鉄早稲田駅前交差点","province":"東京都","city":"新宿区","address":"東京都新宿区馬場下町3","lat":35.70573,"lon":139.720551},{"name":"東新宿駅南交差点","province":"東京都","city":"新宿区","address":"東京都新宿区新宿6-29-11","lat":35.697765,"lon":139.707779},{"name":"四谷3丁目駅前交差点","province":"東京都","city":"新宿区","address":"東京都新宿区四谷3-9-11","lat":35.687627,"lon":139.719669},{"name":"新宿中央公園 水の広場","province":"東京都","city":"新宿区","address":"東京都新宿区西新宿2-11","lat":35.691105,"lon":139.687698},{"name":"新宿御苑前駅1出口","province":"東京都","city":"新宿区","address":"東京都新宿区新宿2-8-1","lat":35.688904,"lon":139.709702},{"name":"市ヶ谷駅 DNPプラザ前","province":"東京都","city":"新宿区","address":"東京都新宿区市谷田町1-14-1","lat":35.6936,"lon":139.736542},{"name":"西新宿駅 2出口","province":"東京都","city":"新宿区","address":"東京都新宿区西新宿8-1-3","lat":35.694252,"lon":139.69368},{"name":"東京医科大学病院","province":"東京都","city":"新宿区","address":"東京都新宿区西新宿6丁目7-1","lat":35.69402018,"lon":139.69221112},{"name":"慶応義塾大学病院","province":"東京都","city":"新宿区","address":"東京都新宿区信濃町35","lat":35.68258045,"lon":139.7181676},{"name":"東京女子医科大学病院","province":"東京都","city":"新宿区","address":"東京都新宿区河田町8-1","lat":35.69807045,"lon":139.72011683},{"name":"東京都保健医療公社大久保病院","province":"東京都","city":"新宿区","address":"東京都新宿区歌舞伎町2丁目44-1","lat":35.69691177,"lon":139.70156297},{"name":"国立国際医療研究センター病院","province":"東京都","city":"新宿区","address":"東京都新宿区戸山1丁目21-1","lat":35.70174214,"lon":139.71530878},{"name":"社会保険中央総合病院","province":"東京都","city":"新宿区","address":"東京都新宿区百人町3丁目22-1","lat":35.70470248,"lon":139.69904899},{"name":"東京都庁第二本庁舎","province":"東京都","city":"新宿区","address":"東京都新宿区西新宿2丁目8-1","lat":35.68918461,"lon":139.69164748},{"name":"東京都議会議事堂","province":"東京都","city":"新宿区","address":"東京都新宿区西新宿2丁目8-1","lat":35.68918461,"lon":139.69164748},{"name":"新宿都税事務所","province":"東京都","city":"新宿区","address":"東京都新宿区西新宿7丁目5-8","lat":35.69678671,"lon":139.69874655},{"name":"淀橋市場","province":"東京都","city":"新宿区","address":"東京都新宿区北新宿4丁目2-1","lat":35.70560501,"lon":139.69364387},{"name":"戸山高等学校","province":"東京都","city":"新宿区","address":"東京都新宿区戸山3丁目19-1","lat":35.70655814,"lon":139.71058956},{"name":"新宿高等学校","province":"東京都","city":"新宿区","address":"東京都新宿区内藤町11-4","lat":35.68919329,"lon":139.70543237},{"name":"総合芸術高等学校","province":"東京都","city":"新宿区","address":"東京都新宿区富久町22-1","lat":35.69324863,"lon":139.71483721},{"name":"新宿山吹高等学校","province":"東京都","city":"新宿区","address":"東京都新宿区山吹町81","lat":35.70703913,"lon":139.7287324},{"name":"消防博物館","province":"東京都","city":"新宿区","address":"東京都新宿区四谷3丁目10","lat":35.68812154,"lon":139.7196617},{"name":"大久保病院","province":"東京都","city":"新宿区","address":"東京都新宿区歌舞伎町2丁目44-1","lat":35.69691177,"lon":139.70156297},{"name":"東京都建設局道路管理部　管理課指導担当","province":"東京都","city":"新宿区","address":"新宿区西新宿2-8-1","lat":35.6891847,"lon":139.6916481},{"name":"新宿駅西口　地下タクシー乗り場前","province":"東京都","city":"新宿区","address":"東京都新宿区西新宿1","lat":35.6911,"lon":139.69777},{"name":"新宿駅東口　アルタ前（２基設置）","province":"東京都","city":"新宿区","address":"東京都新宿区新宿3-24-3","lat":35.69267,"lon":139.70139},{"name":"歌舞伎町　交差点","province":"東京都","city":"新宿区","address":"東京都新宿区歌舞伎町1-17-13","lat":35.69409,"lon":139.70135},{"name":"歌舞伎町　セントラルロード","province":"東京都","city":"新宿区","address":"東京都新宿区歌舞伎町1-14-3","lat":35.69452,"lon":139.70206},{"name":"歌舞伎町　一番街","province":"東京都","city":"新宿区","address":"東京都新宿区歌舞伎町1-23-10","lat":35.69426,"lon":139.70093},{"name":"新宿西口駅　思い出横丁南","province":"東京都","city":"新宿区","address":"東京都新宿区西新宿1-4-2","lat":35.69304,"lon":139.69801},{"name":"新宿駅東口　モア２番街南","province":"東京都","city":"新宿区","address":"東京都新宿区新宿3-23-17","lat":35.69327,"lon":139.70085},{"name":"新宿駅東口　モア４番街南","province":"東京都","city":"新宿区","address":"東京都新宿区新宿3-26-11","lat":35.69154,"lon":139.70186},{"name":"新宿駅東南口　広場前","province":"東京都","city":"新宿区","address":"東京都新宿区新宿3-37","lat":35.69017,"lon":139.70145},{"name":"新宿駅南口　バスタ新宿前","province":"東京都","city":"新宿区","address":"東京都新宿区新宿3-38-2","lat":35.69214,"lon":139.70129},{"name":"西新宿一丁目交差点","province":"東京都","city":"新宿区","address":"東京都新宿区西新宿1-1-5","lat":35.69027,"lon":139.69939},{"name":"京王百貨店前（２基設置）","province":"東京都","city":"新宿区","address":"東京都新宿区西新宿1-1-4","lat":35.69027,"lon":139.69939},{"name":"新宿駅東口　タクシー乗り場前","province":"東京都","city":"新宿区","address":"東京都新宿区新宿3-38-1","lat":35.69214,"lon":139.70129},{"name":"新宿駅東南口　Flags前","province":"東京都","city":"新宿区","address":"東京都新宿区新宿3-36-6","lat":35.69034,"lon":139.7019},{"name":"伊勢丹本館前","province":"東京都","city":"新宿区","address":"東京都新宿区新宿3-14-1","lat":35.69234,"lon":139.70471},{"name":"新宿三丁目交差点","province":"東京都","city":"新宿区","address":"東京都新宿区新宿3-4-4","lat":35.69087,"lon":139.7054},{"name":"高田馬場駅早稲田口　西","province":"東京都","city":"新宿区","address":"東京都新宿区高田馬場3-1-4","lat":35.714317,"lon":139.703598},{"name":"高田馬場駅早稲田口　ロータリー","province":"東京都","city":"新宿区","address":"東京都新宿区高田馬場1-26-5","lat":35.712883,"lon":139.704865},{"name":"高田馬場駅戸山口　東","province":"東京都","city":"新宿区","address":"東京都新宿区高田馬場1-28-4","lat":35.71159,"lon":139.704315},{"name":"大久保駅北口","province":"東京都","city":"新宿区","address":"東京都新宿区百人町2-23-1","lat":35.70179,"lon":139.696976},{"name":"新大久保駅北口　西","province":"東京都","city":"新宿区","address":"東京都新宿区百人町2-4-1","lat":35.70155,"lon":139.700104},{"name":"新大久保駅北口　東","province":"東京都","city":"新宿区","address":"東京都新宿区百人町2-3-23","lat":35.701492,"lon":139.701004},{"name":"信濃町駅","province":"東京都","city":"新宿区","address":"東京都新宿区南元町19","lat":35.679428,"lon":139.720978},{"name":"JR四ツ谷駅四ツ谷口","province":"東京都","city":"新宿区","address":"東京都新宿区四谷1-4-2","lat":35.686832,"lon":139.728683},{"name":"JR四ツ谷駅赤坂口","province":"東京都","city":"新宿区","address":"東京都新宿区四谷1-2","lat":35.68578,"lon":139.728958},{"name":"西武線中井駅","province":"東京都","city":"新宿区","address":"東京都新宿区中落合1-20-15","lat":35.714939,"lon":139.687393},{"name":"大江戸線中井駅A2出口","province":"東京都","city":"新宿区","address":"東京都新宿区上落合2-20-6","lat":35.714153,"lon":139.686829},{"name":"神楽坂下交差点","province":"東京都","city":"新宿区","address":"東京都新宿区神楽坂2-1","lat":35.700607,"lon":139.741806},{"name":"地下鉄早稲田駅前交差点","province":"東京都","city":"新宿区","address":"東京都新宿区馬場下町3","lat":35.70573,"lon":139.720551},{"name":"東新宿駅南交差点","province":"東京都","city":"新宿区","address":"東京都新宿区新宿6-29-11","lat":35.697765,"lon":139.707779},{"name":"四谷3丁目駅前交差点","province":"東京都","city":"新宿区","address":"東京都新宿区四谷3-9-11","lat":35.687627,"lon":139.719669},{"name":"新宿中央公園 水の広場","province":"東京都","city":"新宿区","address":"東京都新宿区西新宿2-11","lat":35.691105,"lon":139.687698},{"name":"新宿御苑前駅1出口","province":"東京都","city":"新宿区","address":"東京都新宿区新宿2-8-1","lat":35.688904,"lon":139.709702},{"name":"市ヶ谷駅 DNPプラザ前","province":"東京都","city":"新宿区","address":"東京都新宿区市谷田町1-14-1","lat":35.6936,"lon":139.736542},{"name":"西新宿駅 2出口","province":"東京都","city":"新宿区","address":"東京都新宿区西新宿8-1-3","lat":35.694252,"lon":139.69368},{"name":"大久保病院","province":"東京都","city":"新宿区","address":"東京都新宿区歌舞伎町2丁目44-1","lat":35.69691177,"lon":139.70156297},{"name":"東京都建設局道路管理部　管理課指導担当","province":"東京都","city":"新宿区","address":"新宿区西新宿2-8-1","lat":35.6891847,"lon":139.6916481},{"name":"新宿駅西口　地下タクシー乗り場前","province":"東京都","city":"新宿区","address":"東京都新宿区西新宿1","lat":35.6911,"lon":139.69777},{"name":"新宿駅東口　アルタ前（２基設置）","province":"東京都","city":"新宿区","address":"東京都新宿区新宿3-24-3","lat":35.69267,"lon":139.70139},{"name":"歌舞伎町　交差点","province":"東京都","city":"新宿区","address":"東京都新宿区歌舞伎町1-17-13","lat":35.69409,"lon":139.70135},{"name":"歌舞伎町　セントラルロード","province":"東京都","city":"新宿区","address":"東京都新宿区歌舞伎町1-14-3","lat":35.69452,"lon":139.70206},{"name":"歌舞伎町　一番街","province":"東京都","city":"新宿区","address":"東京都新宿区歌舞伎町1-23-10","lat":35.69426,"lon":139.70093},{"name":"新宿西口駅　思い出横丁南","province":"東京都","city":"新宿区","address":"東京都新宿区西新宿1-4-2","lat":35.69304,"lon":139.69801},{"name":"新宿駅東口　モア２番街南","province":"東京都","city":"新宿区","address":"東京都新宿区新宿3-23-17","lat":35.69327,"lon":139.70085},{"name":"新宿駅東口　モア４番街南","province":"東京都","city":"新宿区","address":"東京都新宿区新宿3-26-11","lat":35.69154,"lon":139.70186},{"name":"新宿駅東南口　広場前","province":"東京都","city":"新宿区","address":"東京都新宿区新宿3-37","lat":35.69017,"lon":139.70145},{"name":"新宿駅南口　バスタ新宿前","province":"東京都","city":"新宿区","address":"東京都新宿区新宿3-38-2","lat":35.69214,"lon":139.70129},{"name":"西新宿一丁目交差点","province":"東京都","city":"新宿区","address":"東京都新宿区西新宿1-1-5","lat":35.69027,"lon":139.69939},{"name":"京王百貨店前（２基設置）","province":"東京都","city":"新宿区","address":"東京都新宿区西新宿1-1-4","lat":35.69027,"lon":139.69939},{"name":"新宿駅東口　タクシー乗り場前","province":"東京都","city":"新宿区","address":"東京都新宿区新宿3-38-1","lat":35.69214,"lon":139.70129},{"name":"新宿駅東南口　Flags前","province":"東京都","city":"新宿区","address":"東京都新宿区新宿3-36-6","lat":35.69034,"lon":139.7019},{"name":"伊勢丹本館前","province":"東京都","city":"新宿区","address":"東京都新宿区新宿3-14-1","lat":35.69234,"lon":139.70471},{"name":"新宿三丁目交差点","province":"東京都","city":"新宿区","address":"東京都新宿区新宿3-4-4","lat":35.69087,"lon":139.7054},{"name":"高田馬場駅早稲田口　西","province":"東京都","city":"新宿区","address":"東京都新宿区高田馬場3-1-4","lat":35.714317,"lon":139.703598},{"name":"高田馬場駅早稲田口　ロータリー","province":"東京都","city":"新宿区","address":"東京都新宿区高田馬場1-26-5","lat":35.712883,"lon":139.704865},{"name":"高田馬場駅戸山口　東","province":"東京都","city":"新宿区","address":"東京都新宿区高田馬場1-28-4","lat":35.71159,"lon":139.704315},{"name":"大久保駅北口","province":"東京都","city":"新宿区","address":"東京都新宿区百人町2-23-1","lat":35.70179,"lon":139.696976},{"name":"新大久保駅北口　西","province":"東京都","city":"新宿区","address":"東京都新宿区百人町2-4-1","lat":35.70155,"lon":139.700104},{"name":"新大久保駅北口　東","province":"東京都","city":"新宿区","address":"東京都新宿区百人町2-3-23","lat":35.701492,"lon":139.701004},{"name":"信濃町駅","province":"東京都","city":"新宿区","address":"東京都新宿区南元町19","lat":35.679428,"lon":139.720978},{"name":"JR四ツ谷駅四ツ谷口","province":"東京都","city":"新宿区","address":"東京都新宿区四谷1-4-2","lat":35.686832,"lon":139.728683},{"name":"JR四ツ谷駅赤坂口","province":"東京都","city":"新宿区","address":"東京都新宿区四谷1-2","lat":35.68578,"lon":139.728958},{"name":"西武線中井駅","province":"東京都","city":"新宿区","address":"東京都新宿区中落合1-20-15","lat":35.714939,"lon":139.687393},{"name":"大江戸線中井駅A2出口","province":"東京都","city":"新宿区","address":"東京都新宿区上落合2-20-6","lat":35.714153,"lon":139.686829},{"name":"神楽坂下交差点","province":"東京都","city":"新宿区","address":"東京都新宿区神楽坂2-1","lat":35.700607,"lon":139.741806},{"name":"地下鉄早稲田駅前交差点","province":"東京都","city":"新宿区","address":"東京都新宿区馬場下町3","lat":35.70573,"lon":139.720551},{"name":"東新宿駅南交差点","province":"東京都","city":"新宿区","address":"東京都新宿区新宿6-29-11","lat":35.697765,"lon":139.707779},{"name":"四谷3丁目駅前交差点","province":"東京都","city":"新宿区","address":"東京都新宿区四谷3-9-11","lat":35.687627,"lon":139.719669},{"name":"新宿中央公園 水の広場","province":"東京都","city":"新宿区","address":"東京都新宿区西新宿2-11","lat":35.691105,"lon":139.687698},{"name":"新宿御苑前駅1出口","province":"東京都","city":"新宿区","address":"東京都新宿区新宿2-8-1","lat":35.688904,"lon":139.709702},{"name":"市ヶ谷駅 DNPプラザ前","province":"東京都","city":"新宿区","address":"東京都新宿区市谷田町1-14-1","lat":35.6936,"lon":139.736542},{"name":"西新宿駅 2出口","province":"東京都","city":"新宿区","address":"東京都新宿区西新宿8-1-3","lat":35.694252,"lon":139.69368},{"name":"東京都建設局道路管理部　管理課指導担当","province":"東京都","city":"新宿区","address":"新宿区西新宿2-8-1","lat":35.6891847,"lon":139.6916481},{"name":"新宿駅西口　地下タクシー乗り場前","province":"東京都","city":"新宿区","address":"東京都新宿区西新宿1","lat":35.6911,"lon":139.69777},{"name":"新宿駅東口　アルタ前（２基設置）","province":"東京都","city":"新宿区","address":"東京都新宿区新宿3-24-3","lat":35.69267,"lon":139.70139},{"name":"歌舞伎町　交差点","province":"東京都","city":"新宿区","address":"東京都新宿区歌舞伎町1-17-13","lat":35.69409,"lon":139.70135},{"name":"歌舞伎町　セントラルロード","province":"東京都","city":"新宿区","address":"東京都新宿区歌舞伎町1-14-3","lat":35.69452,"lon":139.70206},{"name":"歌舞伎町　一番街","province":"東京都","city":"新宿区","address":"東京都新宿区歌舞伎町1-23-10","lat":35.69426,"lon":139.70093},{"name":"新宿西口駅　思い出横丁南","province":"東京都","city":"新宿区","address":"東京都新宿区西新宿1-4-2","lat":35.69304,"lon":139.69801},{"name":"新宿駅東口　モア２番街南","province":"東京都","city":"新宿区","address":"東京都新宿区新宿3-23-17","lat":35.69327,"lon":139.70085},{"name":"新宿駅東口　モア４番街南","province":"東京都","city":"新宿区","address":"東京都新宿区新宿3-26-11","lat":35.69154,"lon":139.70186},{"name":"新宿駅東南口　広場前","province":"東京都","city":"新宿区","address":"東京都新宿区新宿3-37","lat":35.69017,"lon":139.70145},{"name":"新宿駅南口　バスタ新宿前","province":"東京都","city":"新宿区","address":"東京都新宿区新宿3-38-2","lat":35.69214,"lon":139.70129},{"name":"西新宿一丁目交差点","province":"東京都","city":"新宿区","address":"東京都新宿区西新宿1-1-5","lat":35.69027,"lon":139.69939},{"name":"京王百貨店前（２基設置）","province":"東京都","city":"新宿区","address":"東京都新宿区西新宿1-1-4","lat":35.69027,"lon":139.69939},{"name":"新宿駅東口　タクシー乗り場前","province":"東京都","city":"新宿区","address":"東京都新宿区新宿3-38-1","lat":35.69214,"lon":139.70129},{"name":"新宿駅東南口　Flags前","province":"東京都","city":"新宿区","address":"東京都新宿区新宿3-36-6","lat":35.69034,"lon":139.7019},{"name":"伊勢丹本館前","province":"東京都","city":"新宿区","address":"東京都新宿区新宿3-14-1","lat":35.69234,"lon":139.70471},{"name":"新宿三丁目交差点","province":"東京都","city":"新宿区","address":"東京都新宿区新宿3-4-4","lat":35.69087,"lon":139.7054},{"name":"高田馬場駅早稲田口　西","province":"東京都","city":"新宿区","address":"東京都新宿区高田馬場3-1-4","lat":35.714317,"lon":139.703598},{"name":"高田馬場駅早稲田口　ロータリー","province":"東京都","city":"新宿区","address":"東京都新宿区高田馬場1-26-5","lat":35.712883,"lon":139.704865},{"name":"高田馬場駅戸山口　東","province":"東京都","city":"新宿区","address":"東京都新宿区高田馬場1-28-4","lat":35.71159,"lon":139.704315},{"name":"大久保駅北口","province":"東京都","city":"新宿区","address":"東京都新宿区百人町2-23-1","lat":35.70179,"lon":139.696976},{"name":"新大久保駅北口　西","province":"東京都","city":"新宿区","address":"東京都新宿区百人町2-4-1","lat":35.70155,"lon":139.700104},{"name":"新大久保駅北口　東","province":"東京都","city":"新宿区","address":"東京都新宿区百人町2-3-23","lat":35.701492,"lon":139.701004},{"name":"信濃町駅","province":"東京都","city":"新宿区","address":"東京都新宿区南元町19","lat":35.679428,"lon":139.720978},{"name":"JR四ツ谷駅四ツ谷口","province":"東京都","city":"新宿区","address":"東京都新宿区四谷1-4-2","lat":35.686832,"lon":139.728683},{"name":"JR四ツ谷駅赤坂口","province":"東京都","city":"新宿区","address":"東京都新宿区四谷1-2","lat":35.68578,"lon":139.728958},{"name":"西武線中井駅","province":"東京都","city":"新宿区","address":"東京都新宿区中落合1-20-15","lat":35.714939,"lon":139.687393},{"name":"大江戸線中井駅A2出口","province":"東京都","city":"新宿区","address":"東京都新宿区上落合2-20-6","lat":35.714153,"lon":139.686829},{"name":"神楽坂下交差点","province":"東京都","city":"新宿区","address":"東京都新宿区神楽坂2-1","lat":35.700607,"lon":139.741806},{"name":"地下鉄早稲田駅前交差点","province":"東京都","city":"新宿区","address":"東京都新宿区馬場下町3","lat":35.70573,"lon":139.720551},{"name":"東新宿駅南交差点","province":"東京都","city":"新宿区","address":"東京都新宿区新宿6-29-11","lat":35.697765,"lon":139.707779},{"name":"四谷3丁目駅前交差点","province":"東京都","city":"新宿区","address":"東京都新宿区四谷3-9-11","lat":35.687627,"lon":139.719669},{"name":"新宿中央公園 水の広場","province":"東京都","city":"新宿区","address":"東京都新宿区西新宿2-11","lat":35.691105,"lon":139.687698},{"name":"新宿御苑前駅1出口","province":"東京都","city":"新宿区","address":"東京都新宿区新宿2-8-1","lat":35.688904,"lon":139.709702},{"name":"市ヶ谷駅 DNPプラザ前","province":"東京都","city":"新宿区","address":"東京都新宿区市谷田町1-14-1","lat":35.6936,"lon":139.736542},{"name":"西新宿駅 2出口","province":"東京都","city":"新宿区","address":"東京都新宿区西新宿8-1-3","lat":35.694252,"lon":139.69368},{"name":"東京都建設局道路管理部　管理課指導担当","province":"東京都","city":"新宿区","address":"新宿区西新宿2-8-1","lat":35.6891847,"lon":139.6916481},{"name":"新宿駅西口　地下タクシー乗り場前","province":"東京都","city":"新宿区","address":"東京都新宿区西新宿1","lat":35.6911,"lon":139.69777},{"name":"新宿駅東口　アルタ前（２基設置）","province":"東京都","city":"新宿区","address":"東京都新宿区新宿3-24-3","lat":35.69267,"lon":139.70139},{"name":"歌舞伎町　交差点","province":"東京都","city":"新宿区","address":"東京都新宿区歌舞伎町1-17-13","lat":35.69409,"lon":139.70135},{"name":"歌舞伎町　セントラルロード","province":"東京都","city":"新宿区","address":"東京都新宿区歌舞伎町1-14-3","lat":35.69452,"lon":139.70206},{"name":"歌舞伎町　一番街","province":"東京都","city":"新宿区","address":"東京都新宿区歌舞伎町1-23-10","lat":35.69426,"lon":139.70093},{"name":"新宿西口駅　思い出横丁南","province":"東京都","city":"新宿区","address":"東京都新宿区西新宿1-4-2","lat":35.69304,"lon":139.69801},{"name":"新宿駅東口　モア２番街南","province":"東京都","city":"新宿区","address":"東京都新宿区新宿3-23-17","lat":35.69327,"lon":139.70085},{"name":"新宿駅東口　モア４番街南","province":"東京都","city":"新宿区","address":"東京都新宿区新宿3-26-11","lat":35.69154,"lon":139.70186},{"name":"新宿駅東南口　広場前","province":"東京都","city":"新宿区","address":"東京都新宿区新宿3-37","lat":35.69017,"lon":139.70145},{"name":"新宿駅南口　バスタ新宿前","province":"東京都","city":"新宿区","address":"東京都新宿区新宿3-38-2","lat":35.69214,"lon":139.70129},{"name":"西新宿一丁目交差点","province":"東京都","city":"新宿区","address":"東京都新宿区西新宿1-1-5","lat":35.69027,"lon":139.69939},{"name":"京王百貨店前（２基設置）","province":"東京都","city":"新宿区","address":"東京都新宿区西新宿1-1-4","lat":35.69027,"lon":139.69939},{"name":"新宿駅東口　タクシー乗り場前","province":"東京都","city":"新宿区","address":"東京都新宿区新宿3-38-1","lat":35.69214,"lon":139.70129},{"name":"新宿駅東南口　Flags前","province":"東京都","city":"新宿区","address":"東京都新宿区新宿3-36-6","lat":35.69034,"lon":139.7019},{"name":"伊勢丹本館前","province":"東京都","city":"新宿区","address":"東京都新宿区新宿3-14-1","lat":35.69234,"lon":139.70471},{"name":"新宿三丁目交差点","province":"東京都","city":"新宿区","address":"東京都新宿区新宿3-4-4","lat":35.69087,"lon":139.7054},{"name":"高田馬場駅早稲田口　西","province":"東京都","city":"新宿区","address":"東京都新宿区高田馬場3-1-4","lat":35.714317,"lon":139.703598},{"name":"高田馬場駅早稲田口　ロータリー","province":"東京都","city":"新宿区","address":"東京都新宿区高田馬場1-26-5","lat":35.712883,"lon":139.704865},{"name":"高田馬場駅戸山口　東","province":"東京都","city":"新宿区","address":"東京都新宿区高田馬場1-28-4","lat":35.71159,"lon":139.704315},{"name":"大久保駅北口","province":"東京都","city":"新宿区","address":"東京都新宿区百人町2-23-1","lat":35.70179,"lon":139.696976},{"name":"新大久保駅北口　西","province":"東京都","city":"新宿区","address":"東京都新宿区百人町2-4-1","lat":35.70155,"lon":139.700104},{"name":"新大久保駅北口　東","province":"東京都","city":"新宿区","address":"東京都新宿区百人町2-3-23","lat":35.701492,"lon":139.701004},{"name":"信濃町駅","province":"東京都","city":"新宿区","address":"東京都新宿区南元町19","lat":35.679428,"lon":139.720978},{"name":"JR四ツ谷駅四ツ谷口","province":"東京都","city":"新宿区","address":"東京都新宿区四谷1-4-2","lat":35.686832,"lon":139.728683},{"name":"JR四ツ谷駅赤坂口","province":"東京都","city":"新宿区","address":"東京都新宿区四谷1-2","lat":35.68578,"lon":139.728958},{"name":"西武線中井駅","province":"東京都","city":"新宿区","address":"東京都新宿区中落合1-20-15","lat":35.714939,"lon":139.687393},{"name":"大江戸線中井駅A2出口","province":"東京都","city":"新宿区","address":"東京都新宿区上落合2-20-6","lat":35.714153,"lon":139.686829},{"name":"神楽坂下交差点","province":"東京都","city":"新宿区","address":"東京都新宿区神楽坂2-1","lat":35.700607,"lon":139.741806},{"name":"地下鉄早稲田駅前交差点","province":"東京都","city":"新宿区","address":"東京都新宿区馬場下町3","lat":35.70573,"lon":139.720551},{"name":"東新宿駅南交差点","province":"東京都","city":"新宿区","address":"東京都新宿区新宿6-29-11","lat":35.697765,"lon":139.707779},{"name":"四谷3丁目駅前交差点","province":"東京都","city":"新宿区","address":"東京都新宿区四谷3-9-11","lat":35.687627,"lon":139.719669},{"name":"新宿中央公園 水の広場","province":"東京都","city":"新宿区","address":"東京都新宿区西新宿2-11","lat":35.691105,"lon":139.687698},{"name":"新宿御苑前駅1出口","province":"東京都","city":"新宿区","address":"東京都新宿区新宿2-8-1","lat":35.688904,"lon":139.709702},{"name":"市ヶ谷駅 DNPプラザ前","province":"東京都","city":"新宿区","address":"東京都新宿区市谷田町1-14-1","lat":35.6936,"lon":139.736542},{"name":"西新宿駅 2出口","province":"東京都","city":"新宿区","address":"東京都新宿区西新宿8-1-3","lat":35.694252,"lon":139.69368},{"name":"東京都建設局道路管理部　管理課指導担当","province":"東京都","city":"新宿区","address":"新宿区西新宿2-8-1","lat":35.6891847,"lon":139.6916481},{"name":"東京都建設局道路管理部　管理課指導担当","province":"東京都","city":"新宿区","address":"新宿区西新宿2-8-1","lat":35.6891847,"lon":139.6916481},{"name":"東京都建設局道路管理部　管理課指導担当","province":"東京都","city":"新宿区","address":"新宿区西新宿2-8-1","lat":35.6891847,"lon":139.6916481},{"name":"東京都建設局道路管理部　管理課指導担当","province":"東京都","city":"新宿区","address":"新宿区西新宿2-8-1","lat":35.6891847,"lon":139.6916481},{"name":"東京都建設局道路管理部　管理課指導担当","province":"東京都","city":"新宿区","address":"新宿区西新宿2-8-1","lat":35.6891847,"lon":139.6916481}]}