{"keyword":"放課後","data":[{"name":"プレミア・ケア・ジュニア　四ツ谷店","province":"東京都","city":"新宿区","address":"新宿区四谷3-1-4斉藤ビルディング2階","lat":35.687708,"lon":139.72267},{"name":"ＴＥＥＮＳ新宿","province":"東京都","city":"新宿区","address":"新宿区西新宿6-2-3","lat":35.693615,"lon":139.69413},{"name":"放課後デイサービス　スリーセブン","province":"東京都","city":"新宿区","address":"新宿区西落合1-16-9フラットMONA1階","lat":35.722433,"lon":139.681419},{"name":"ケアステップ新宿","province":"東京都","city":"新宿区","address":"新宿区早稲田鶴巻町525稲田ビル1階","lat":35.706867,"lon":139.723997},{"name":"テラコヤキッズ　新宿本教室","province":"東京都","city":"新宿区","address":"新宿区住吉町2-10ソフィアM3F","lat":35.691957,"lon":139.720745},{"name":"ノーサイド新宿＠Ｌｅａｆ音楽療法センター","province":"東京都","city":"新宿区","address":"新宿区矢来町43三新ビル1階","lat":35.704045,"lon":139.73106},{"name":"ベアーズ","province":"東京都","city":"新宿区","address":"新宿区榎町45さくらビル2階","lat":35.704664,"lon":139.72898},{"name":"にこにこルームベリタス","province":"東京都","city":"新宿区","address":"新宿区西早稲田2-7-17イールハウス101号","lat":35.708144,"lon":139.71467},{"name":"放課後等デイサービス　アトリエたいよう","province":"東京都","city":"新宿区","address":"新宿区北新宿4-4-13","lat":35.707496,"lon":139.694008},{"name":"スポーツひろばプレイス　高田馬場教室","province":"東京都","city":"新宿区","address":"新宿区高田馬場1-9-21エムハットビル1階","lat":35.71016,"lon":139.708895},{"name":"放課後等デイサービス　すまいる","province":"東京都","city":"新宿区","address":"新宿区高田馬場1-25-36タイオー・インターナショナルビルディング30C号室","lat":35.711844,"lon":139.706348},{"name":"サッカーあいだっく","province":"東京都","city":"新宿区","address":"新宿区高田馬場3-25-3東京京装ビル2階","lat":35.712454,"lon":139.697727},{"name":"児童発達支援・放課後等デイサービス　Ｓｍｉｌｅ　Ｓｅｅｄ（すまいるしーど）","province":"東京都","city":"新宿区","address":"新宿区高田馬場1-5-8YSビル1階","lat":35.710755,"lon":139.708145}]}