{"keyword":"標準","data":[{"name":"小泉八雲旧居跡","province":"東京都","city":"新宿区","address":"東京都新宿区富久町7-30","lat":35.691418,"lon":139.717239},{"name":"服部半蔵の墓","province":"東京都","city":"新宿区","address":"東京都新宿区若葉2-9","lat":35.684599,"lon":139.725659},{"name":"三遊亭円朝旧居跡","province":"東京都","city":"新宿区","address":"東京都新宿区新宿1-21","lat":35.688881,"lon":136.713079},{"name":"林芙美子終焉の地","province":"東京都","city":"新宿区","address":"東京都新宿区中井2-20-1","lat":35.715782,"lon":139.684141},{"name":"新宿駅西口　地下タクシー乗り場前","province":"東京都","city":"新宿区","address":"東京都新宿区西新宿1","lat":35.6911,"lon":139.69777},{"name":"新宿駅東口　アルタ前（２基設置）","province":"東京都","city":"新宿区","address":"東京都新宿区新宿3-24-3","lat":35.69267,"lon":139.70139},{"name":"歌舞伎町　交差点","province":"東京都","city":"新宿区","address":"東京都新宿区歌舞伎町1-17-13","lat":35.69409,"lon":139.70135},{"name":"歌舞伎町　セントラルロード","province":"東京都","city":"新宿区","address":"東京都新宿区歌舞伎町1-14-3","lat":35.69452,"lon":139.70206},{"name":"歌舞伎町　一番街","province":"東京都","city":"新宿区","address":"東京都新宿区歌舞伎町1-23-10","lat":35.69426,"lon":139.70093},{"name":"新宿西口駅　思い出横丁南","province":"東京都","city":"新宿区","address":"東京都新宿区西新宿1-4-2","lat":35.69304,"lon":139.69801},{"name":"新宿駅東口　モア２番街南","province":"東京都","city":"新宿区","address":"東京都新宿区新宿3-23-17","lat":35.69327,"lon":139.70085},{"name":"新宿駅東口　モア４番街南","province":"東京都","city":"新宿区","address":"東京都新宿区新宿3-26-11","lat":35.69154,"lon":139.70186},{"name":"新宿駅東南口　広場前","province":"東京都","city":"新宿区","address":"東京都新宿区新宿3-37","lat":35.69017,"lon":139.70145},{"name":"新宿駅南口　バスタ新宿前","province":"東京都","city":"新宿区","address":"東京都新宿区新宿3-38-2","lat":35.69214,"lon":139.70129},{"name":"西新宿一丁目交差点","province":"東京都","city":"新宿区","address":"東京都新宿区西新宿1-1-5","lat":35.69027,"lon":139.69939},{"name":"京王百貨店前（２基設置）","province":"東京都","city":"新宿区","address":"東京都新宿区西新宿1-1-4","lat":35.69027,"lon":139.69939},{"name":"新宿駅東口　タクシー乗り場前","province":"東京都","city":"新宿区","address":"東京都新宿区新宿3-38-1","lat":35.69214,"lon":139.70129},{"name":"新宿駅東南口　Flags前","province":"東京都","city":"新宿区","address":"東京都新宿区新宿3-36-6","lat":35.69034,"lon":139.7019},{"name":"伊勢丹本館前","province":"東京都","city":"新宿区","address":"東京都新宿区新宿3-14-1","lat":35.69234,"lon":139.70471},{"name":"新宿三丁目交差点","province":"東京都","city":"新宿区","address":"東京都新宿区新宿3-4-4","lat":35.69087,"lon":139.7054},{"name":"高田馬場駅早稲田口　西","province":"東京都","city":"新宿区","address":"東京都新宿区高田馬場3-1-4","lat":35.714317,"lon":139.703598},{"name":"高田馬場駅早稲田口　ロータリー","province":"東京都","city":"新宿区","address":"東京都新宿区高田馬場1-26-5","lat":35.712883,"lon":139.704865},{"name":"高田馬場駅戸山口　東","province":"東京都","city":"新宿区","address":"東京都新宿区高田馬場1-28-4","lat":35.71159,"lon":139.704315},{"name":"大久保駅北口","province":"東京都","city":"新宿区","address":"東京都新宿区百人町2-23-1","lat":35.70179,"lon":139.696976},{"name":"新大久保駅北口　西","province":"東京都","city":"新宿区","address":"東京都新宿区百人町2-4-1","lat":35.70155,"lon":139.700104},{"name":"新大久保駅北口　東","province":"東京都","city":"新宿区","address":"東京都新宿区百人町2-3-23","lat":35.701492,"lon":139.701004},{"name":"信濃町駅","province":"東京都","city":"新宿区","address":"東京都新宿区南元町19","lat":35.679428,"lon":139.720978},{"name":"JR四ツ谷駅四ツ谷口","province":"東京都","city":"新宿区","address":"東京都新宿区四谷1-4-2","lat":35.686832,"lon":139.728683},{"name":"JR四ツ谷駅赤坂口","province":"東京都","city":"新宿区","address":"東京都新宿区四谷1-2","lat":35.68578,"lon":139.728958},{"name":"西武線中井駅","province":"東京都","city":"新宿区","address":"東京都新宿区中落合1-20-15","lat":35.714939,"lon":139.687393},{"name":"大江戸線中井駅A2出口","province":"東京都","city":"新宿区","address":"東京都新宿区上落合2-20-6","lat":35.714153,"lon":139.686829},{"name":"神楽坂下交差点","province":"東京都","city":"新宿区","address":"東京都新宿区神楽坂2-1","lat":35.700607,"lon":139.741806},{"name":"地下鉄早稲田駅前交差点","province":"東京都","city":"新宿区","address":"東京都新宿区馬場下町3","lat":35.70573,"lon":139.720551}]}