{"keyword":"点字","data":[{"name":"日本盲人会連合点字図書舘","province":"東京都","city":"新宿区","address":"新宿区西早稲田2-18-2","lat":35.710077,"lon":139.711164},{"name":"東京ヘレン・ケラー協会点字図書館","province":"東京都","city":"新宿区","address":"新宿区大久保3-14-20","lat":35.707863,"lon":139.708381},{"name":"日本点字図書館","province":"東京都","city":"新宿区","address":"新宿区高田馬場1-23-4","lat":35.710894,"lon":139.704682},{"name":"日本視覚障害者団体連合点字図書舘","province":"東京都","city":"新宿区","address":"新宿区西早稲田2-18-2","lat":35.71054,"lon":139.71118},{"name":"東京ヘレン・ケラー協会点字図書館","province":"東京都","city":"新宿区","address":"新宿区大久保3-14-20","lat":35.70773,"lon":139.70857},{"name":"日本点字図書館","province":"東京都","city":"新宿区","address":"新宿区高田馬場1-23-4","lat":35.7109,"lon":139.7048},{"name":"日本視覚障害者団体連合点字図書舘","province":"東京都","city":"新宿区","address":"新宿区西早稲田2-18-2","lat":35.710077,"lon":139.711164},{"name":"日本視覚障害者団体連合点字図書舘","province":"東京都","city":"新宿区","address":"新宿区西早稲田2-18-2","lat":35.7101,"lon":139.71118},{"name":"日本視覚障害者団体連合点字図書舘","province":"東京都","city":"新宿区","address":"新宿区西早稲田2-18-2","lat":35.71031,"lon":139.71114}]}