{"keyword":"自転車","data":[{"name":"曙橋駅自転車等駐車場","province":"東京都","city":"新宿区","address":"東京都新宿区片町5","lat":35.69231008,"lon":139.72450277},{"name":"曙橋駅自動二輪駐車場","province":"東京都","city":"新宿区","address":"東京都新宿区片町5","lat":35.69231008,"lon":139.72450277},{"name":"飯田橋駅自転車等駐車場","province":"東京都","city":"新宿区","address":"東京都新宿区神楽河岸1","lat":35.70066242,"lon":139.74358409},{"name":"飯田橋駅駐輪場","province":"東京都","city":"新宿区","address":"東京都新宿区下宮比町1","lat":35.70273721,"lon":139.74418395},{"name":"市ヶ谷駅駐輪場","province":"東京都","city":"新宿区","address":"東京都新宿区市谷田町1丁目10","lat":35.69312695,"lon":139.73604616},{"name":"牛込神楽坂駅駐輪場Ａ","province":"東京都","city":"新宿区","address":"東京都新宿区箪笥町43","lat":35.70056502,"lon":139.73602088},{"name":"牛込神楽坂駅駐輪場Ｂ","province":"東京都","city":"新宿区","address":"東京都新宿区箪笥町15","lat":35.70058163,"lon":139.73415715},{"name":"牛込柳町駅自転車等駐車場Ａ","province":"東京都","city":"新宿区","address":"東京都新宿区原町1丁目10","lat":35.69973706,"lon":139.72491079},{"name":"牛込柳町駅自転車等駐車場Ｂ","province":"東京都","city":"新宿区","address":"東京都新宿区原町2丁目6","lat":35.69947873,"lon":139.72418308},{"name":"神楽坂駅駐輪場","province":"東京都","city":"新宿区","address":"東京都新宿区矢来町104","lat":35.70368408,"lon":139.73425703},{"name":"国立競技場駅駐輪場","province":"東京都","city":"新宿区","address":"東京都新宿区霞ヶ丘町10","lat":35.67680881,"lon":139.71501811},{"name":"信濃町駅駐輪場Ａ","province":"東京都","city":"新宿区","address":"東京都新宿区霞ヶ丘町12","lat":35.67993908,"lon":139.7177733},{"name":"信濃町駅駐輪場Ｂ","province":"東京都","city":"新宿区","address":"東京都新宿区南元町19","lat":35.67971971,"lon":139.72017032},{"name":"新宿御苑前駅駐輪場","province":"東京都","city":"新宿区","address":"東京都新宿区新宿1丁目4","lat":35.6883463,"lon":139.71080415},{"name":"新宿三丁目駅駐輪場","province":"東京都","city":"新宿区","address":"東京都新宿区新宿2丁目12","lat":35.69045711,"lon":139.70798209},{"name":"新宿三丁目駅自動二輪駐車場","province":"東京都","city":"新宿区","address":"東京都新宿区新宿3丁目1","lat":35.69011263,"lon":139.7049657},{"name":"都電早稲田駅駐輪場","province":"東京都","city":"新宿区","address":"東京都新宿区西早稲田1丁目23","lat":35.71257988,"lon":139.71753317},{"name":"四ツ谷駅駐輪場","province":"東京都","city":"新宿区","address":"東京都新宿区四谷1丁目5","lat":35.68678027,"lon":139.73043302},{"name":"四ツ谷駅自転車駐輪場","province":"東京都","city":"新宿区","address":"東京都新宿区四谷1丁目6","lat":35.687969,"lon":139.72890811},{"name":"四谷三丁目駅駐輪場","province":"東京都","city":"新宿区","address":"東京都新宿区四谷3丁目4","lat":35.68789107,"lon":139.72180041},{"name":"若松河田駅駐輪場Ａ","province":"東京都","city":"新宿区","address":"東京都新宿区河田町10-10","lat":35.69832868,"lon":139.7175115},{"name":"若松河田駅駐輪場Ｂ","province":"東京都","city":"新宿区","address":"東京都新宿区若松町12-6","lat":35.69907024,"lon":139.71640879},{"name":"若松河田駅駐輪場Ｃ","province":"東京都","city":"新宿区","address":"東京都新宿区河田町10","lat":35.69804539,"lon":139.71780038},{"name":"早稲田駅駐輪場","province":"東京都","city":"新宿区","address":"東京都新宿区戸塚町1丁目100","lat":35.70766384,"lon":139.72022756},{"name":"早大通り自転車等駐輪場","province":"東京都","city":"新宿区","address":"東京都新宿区早稲田鶴巻町517","lat":35.70826659,"lon":139.72191628},{"name":"高田馬場駅自転車駐輪場","province":"東京都","city":"新宿区","address":"東京都新宿区高田馬場2丁目18-11","lat":35.71377385,"lon":139.70500644},{"name":"高田馬場駅第一自転車等駐輪場","province":"東京都","city":"新宿区","address":"東京都新宿区高田馬場4丁目10-2","lat":35.71275167,"lon":139.70286778},{"name":"高田馬場駅第二自転車駐輪場","province":"東京都","city":"新宿区","address":"東京都新宿区高田馬場2丁目19","lat":35.71409602,"lon":139.70455647},{"name":"高田馬場駅第三自転車等駐輪場","province":"東京都","city":"新宿区","address":"東京都新宿区高田馬場1丁目35","lat":35.71243786,"lon":139.70405103},{"name":"高田馬場駅自転車等駐輪場①","province":"東京都","city":"新宿区","address":"東京都新宿区高田馬場1丁目26","lat":35.71293227,"lon":139.70496759},{"name":"高田馬場駅自転車等駐輪場②","province":"東京都","city":"新宿区","address":"東京都新宿区高田馬場2丁目18-11","lat":35.71377385,"lon":139.70500644},{"name":"高田馬場駅自転車等駐輪場③","province":"東京都","city":"新宿区","address":"東京都新宿区高田馬場2丁目19","lat":35.71409602,"lon":139.70455647},{"name":"高田馬場駅自転車等駐輪場④","province":"東京都","city":"新宿区","address":"東京都新宿区高田馬場3丁目5","lat":35.71469035,"lon":139.70298158},{"name":"落合南長崎駅自転車駐輪場①","province":"東京都","city":"新宿区","address":"東京都新宿区西落合3丁目1","lat":35.7229083,"lon":139.68302741},{"name":"落合南長崎駅自転車駐輪場②","province":"東京都","city":"新宿区","address":"東京都新宿区西落合3丁目8-19","lat":35.72315269,"lon":139.68228023},{"name":"下落合駅自転車等駐輪場","province":"東京都","city":"新宿区","address":"東京都新宿区上落合1丁目17","lat":35.71615936,"lon":139.69365178},{"name":"新大久保駅自転車等駐輪場","province":"東京都","city":"新宿区","address":"東京都新宿区百人町2丁目3","lat":35.70220837,"lon":139.70089337},{"name":"中井駅北自転車等駐輪場","province":"東京都","city":"新宿区","address":"東京都新宿区中落合1丁目18","lat":35.7154176,"lon":139.68741623},{"name":"中井駅南自転車等駐輪場","province":"東京都","city":"新宿区","address":"東京都新宿区上落合2丁目20","lat":35.71447047,"lon":139.68678021},{"name":"西早稲田駅自転車駐輪場","province":"東京都","city":"新宿区","address":"東京都新宿区高田馬場1丁目1","lat":35.70915224,"lon":139.70877574},{"name":"西新宿駅自転車駐輪場","province":"東京都","city":"新宿区","address":"東京都新宿区西新宿6丁目26-3","lat":35.69535049,"lon":139.68850029},{"name":"西新宿駅第二自転車駐輪場","province":"東京都","city":"新宿区","address":"東京都新宿区西新宿6丁目4","lat":35.69404799,"lon":139.69318326},{"name":"西武新宿駅自転車駐輪場","province":"東京都","city":"新宿区","address":"東京都新宿区歌舞伎町1丁目23","lat":35.69415928,"lon":139.70083536},{"name":"新宿駅靖国通り自転車駐輪場","province":"東京都","city":"新宿区","address":"東京都新宿区歌舞伎町1丁目1","lat":35.69382886,"lon":139.70464614},{"name":"新宿駅新南口バイク駐輪場","province":"東京都","city":"新宿区","address":"東京都新宿区新宿4丁目1","lat":35.68852386,"lon":139.70267431},{"name":"新宿駅東口自転車駐輪場","province":"東京都","city":"新宿区","address":"東京都新宿区新宿3丁目23","lat":35.69257335,"lon":139.70063822},{"name":"新宿駅東南口自転車駐輪場","province":"東京都","city":"新宿区","address":"東京都新宿区新宿3丁目37-1","lat":35.68992645,"lon":139.70150769},{"name":"新宿駅路上自転車駐輪場","province":"東京都","city":"新宿区","address":"東京都新宿区西新宿1丁目1","lat":35.69037079,"lon":139.69938286},{"name":"新宿西口駅自転車等駐輪場","province":"東京都","city":"新宿区","address":"東京都新宿区西新宿7丁目10","lat":35.69410366,"lon":139.69836613},{"name":"都庁前高架下自転車駐輪場","province":"東京都","city":"新宿区","address":"東京都新宿区西新宿2丁目1-1","lat":35.69190103,"lon":139.69394439},{"name":"都庁前駅自転車駐輪場","province":"東京都","city":"新宿区","address":"東京都新宿区西新宿2丁目1-1","lat":35.69190103,"lon":139.69394439},{"name":"都庁前駅第二自転車駐輪場","province":"東京都","city":"新宿区","address":"東京都新宿区西新宿2丁目7","lat":35.69124826,"lon":139.69128076},{"name":"新宿駅西口自転車駐輪場","province":"東京都","city":"新宿区","address":"東京都新宿区西新宿1丁目8","lat":35.69049016,"lon":139.6969664},{"name":"新宿駅南口自転車駐輪場","province":"東京都","city":"新宿区","address":"東京都新宿区西新宿1丁目18","lat":35.68874316,"lon":139.69830802}]}