{"keyword":"葬儀","data":[{"name":"帝都典礼株式会社","province":"東京都","city":"新宿区","address":"東京都新宿区新宿2-16-6","lat":35.691647,"lon":139.708237},{"name":"四谷津乃國屋","province":"東京都","city":"新宿区","address":"東京都新宿区四谷2-13","lat":35.688007,"lon":139.72374},{"name":"株式会社天行社","province":"東京都","city":"新宿区","address":"東京都新宿区神楽坂6-48","lat":35.703335,"lon":139.735703},{"name":"有限会社広礼式典津乃國屋","province":"東京都","city":"新宿区","address":"東京都新宿区市谷甲良町2-19","lat":35.699286,"lon":139.728681},{"name":"有限会社早稲田近藤葬祭","province":"東京都","city":"新宿区","address":"東京都新宿区早稲田鶴巻町302","lat":35.709217,"lon":139.724197},{"name":"株式会社髙嶋","province":"東京都","city":"新宿区","address":"東京都新宿区西早稲田3-1-7","lat":35.709679,"lon":139.715527},{"name":"有限会社三国屋","province":"東京都","city":"新宿区","address":"東京都新宿区百人町1-24-8","lat":35.698776,"lon":139.697525},{"name":"株式会社公営社","province":"東京都","city":"新宿区","address":"東京都新宿区百人町2-21-1","lat":35.701751,"lon":139.697589},{"name":"赤堀商店","province":"東京都","city":"新宿区","address":"東京都新宿区上落合1-29-2","lat":35.711346,"lon":139.690567},{"name":"有限会社欅式典","province":"東京都","city":"新宿区","address":"東京都新宿区西新宿1-13-1","lat":35.689007,"lon":139.697617},{"name":"足立葬祭","province":"東京都","city":"新宿区","address":"東京都新宿区西新宿4-25-2","lat":35.686869,"lon":139.686935},{"name":"合資会社結城屋","province":"東京都","city":"新宿区","address":"東京都新宿区四谷4-28-104","lat":35.687859,"lon":139.71521}]}