{"keyword":"認可","data":[{"name":"あい保育園西新宿","province":"東京都","city":"新宿区","address":"新宿区西新宿6-11-3Dタワー西新宿2F","lat":35.69478,"lon":139.68979},{"name":"ルーチェ保育園西新宿","province":"東京都","city":"新宿区","address":"新宿区西新宿7-18-1TOMOEビル2F","lat":35.69614,"lon":139.69653},{"name":"あい保育園落合","province":"東京都","city":"新宿区","address":"新宿区上落合1-5-2羽場ビル","lat":35.71143,"lon":139.69115},{"name":"にじいろ保育園高田馬場南","province":"東京都","city":"新宿区","address":"新宿区大久保三丁目8番4号新宿ガーデンタワーアネックス2階","lat":35.70868,"lon":139.70309},{"name":"グローバルキッズ若葉園","province":"東京都","city":"新宿区","address":"新宿区若葉1-9","lat":35.6857,"lon":139.72582},{"name":"新宿三つの木保育園もりさんかくしかく","province":"東京都","city":"新宿区","address":"新宿区大京町29","lat":35.68197,"lon":139.71548},{"name":"保育所ま?anitize]む高田馬場駅前園","province":"東京都","city":"新宿区","address":"新宿区高田馬場3-1-5花川第2ビル1・2F","lat":35.7146,"lon":139.70346},{"name":"にじいろ保育園四ツ谷","province":"東京都","city":"新宿区","address":"新宿区四谷1-6-1","lat":35.68541,"lon":139.72891},{"name":"フロンティアキッズ新宿","province":"東京都","city":"新宿区","address":"新宿区新宿6-27-56新宿スクエアビル2階","lat":35.69828,"lon":139.71304},{"name":"ほっぺるランド神楽坂","province":"東京都","city":"新宿区","address":"新宿区榎町43-1ユニゾ神楽坂ビル2階、3階","lat":35.70067,"lon":139.74167},{"name":"グローバルキッズ神楽坂園","province":"東京都","city":"新宿区","address":"新宿区神楽坂4-8神楽坂プラザビル1階","lat":35.68591,"lon":139.72881},{"name":"にじいろ保育園高田馬場南","province":"東京都","city":"新宿区","address":"新宿区大久保三丁目8番4号住友不動産新宿ガーデンタワーアネックス2階","lat":35.76077,"lon":139.8622},{"name":"東京母子愛育会保育園","province":"東京都","city":"新宿区","address":"新宿区北新宿四丁目21番14号","lat":35.68906,"lon":139.70476}]}