{"keyword":"青少年","data":[{"name":"(一社)ガールスカウト東京都連盟","province":"東京都","city":"新宿区","address":"東京都新宿区高田馬場4丁目4-18","lat":35.7126211,"lon":139.7014068},{"name":"（社福）東京都社会福祉協議会","province":"東京都","city":"新宿区","address":"東京都新宿区神楽河岸1-1","lat":35.70095405,"lon":139.74357574},{"name":"東京都民生児童委員連合会","province":"東京都","city":"新宿区","address":"東京都新宿区神楽河岸1-1","lat":35.70095405,"lon":139.74357574},{"name":"（公財）東京ＹＭＣＡ","province":"東京都","city":"新宿区","address":"東京都新宿区西早稲田2丁目3-18","lat":35.70800259,"lon":139.71663343},{"name":"(一財)日本青年館","province":"東京都","city":"新宿区","address":"東京都新宿区霞ヶ丘町4-1","lat":35.67426467,"lon":139.71549317},{"name":"日本赤十字社東京都支部","province":"東京都","city":"新宿区","address":"東京都新宿区大久保1丁目2-15","lat":35.69949496,"lon":139.70744845},{"name":"日本青年団協議会","province":"東京都","city":"新宿区","address":"東京都新宿区霞ヶ丘町4-1","lat":35.67426467,"lon":139.71549317},{"name":"東京都教育相談センター","province":"東京都","city":"新宿区","address":"新宿区北新宿4-6-1(東京都子供家庭総合センター4階)","lat":35.70498851,"lon":139.6969975},{"name":"東京都特別支援教育推進室","province":"東京都","city":"新宿区","address":"新宿区赤城元町1-3教育庁神楽坂庁舎内","lat":35.70108594,"lon":139.7395781}]}