{"keyword":"音響","data":[{"name":"初台","province":"東京都","city":"新宿区","address":"東京都新宿区西新宿3丁目19-2","lat":35.68342406,"lon":139.68792025},{"name":"牛込北町","province":"東京都","city":"新宿区","address":"東京都新宿区細工町3-17","lat":35.69972337,"lon":139.73309895},{"name":"柳町","province":"東京都","city":"新宿区","address":"東京都新宿区市谷柳町8","lat":35.69916215,"lon":139.72636901},{"name":"住吉町","province":"東京都","city":"新宿区","address":"東京都新宿区住吉町4-7","lat":35.69231556,"lon":139.72087532},{"name":"若松町","province":"東京都","city":"新宿区","address":"東京都新宿区原町3丁目35","lat":35.70033968,"lon":139.72127498},{"name":"市谷見附","province":"東京都","city":"新宿区","address":"東京都新宿区市谷八幡町2-1","lat":35.69234922,"lon":139.73487685},{"name":"馬場下町","province":"東京都","city":"新宿区","address":"東京都新宿区西早稲田2丁目1-12","lat":35.70665002,"lon":139.71847775},{"name":"地下鉄早稲田駅前","province":"東京都","city":"新宿区","address":"東京都新宿区馬場下町61","lat":35.70629455,"lon":139.72041094},{"name":"矢来町第二","province":"東京都","city":"新宿区","address":"東京都新宿区矢来町125","lat":35.70431176,"lon":139.73331542},{"name":"牛込河田町","province":"東京都","city":"新宿区","address":"東京都新宿区若松町28-7","lat":35.69958135,"lon":139.71846414},{"name":"原町三丁目","province":"東京都","city":"新宿区","address":"東京都新宿区若松町6-13","lat":35.6997342,"lon":139.72191661},{"name":"余丁町小学校前","province":"東京都","city":"新宿区","address":"東京都新宿区若松町15-2","lat":35.69834808,"lon":139.71542279},{"name":"東京女子医大前","province":"東京都","city":"新宿区","address":"東京都新宿区河田町8-1","lat":35.69807045,"lon":139.72011683},{"name":"統計局前","province":"東京都","city":"新宿区","address":"東京都新宿区若松町19-1","lat":35.70076446,"lon":139.71483386},{"name":"原町小学校前","province":"東京都","city":"新宿区","address":"東京都新宿区原町3丁目1","lat":35.69953148,"lon":139.72331649},{"name":"喜久井町","province":"東京都","city":"新宿区","address":"東京都新宿区喜久井町38","lat":35.70321158,"lon":139.72139708},{"name":"早稲田町","province":"東京都","city":"新宿区","address":"東京都新宿区早稲田町74","lat":35.70596131,"lon":139.72251909},{"name":"国立国際医療センター東","province":"東京都","city":"新宿区","address":"東京都新宿区戸山1丁目21-1","lat":35.70174214,"lon":139.71530878},{"name":"国立国際医療センター前","province":"東京都","city":"新宿区","address":"東京都新宿区若松町23-9","lat":35.70105335,"lon":139.71645038},{"name":"河田町西","province":"東京都","city":"新宿区","address":"東京都新宿区河田町10-10","lat":35.69832868,"lon":139.7175115},{"name":"若松町出張所前","province":"東京都","city":"新宿区","address":"東京都新宿区若松町29-7","lat":35.7006257,"lon":139.7191446},{"name":"龍善寺前","province":"東京都","city":"新宿区","address":"東京都新宿区早稲田町12","lat":35.70550026,"lon":139.72274965},{"name":"夏目坂上","province":"東京都","city":"新宿区","address":"東京都新宿区喜久井町14","lat":35.70447533,"lon":139.72117205},{"name":"戸山ハイツ前","province":"東京都","city":"新宿区","address":"東京都新宿区新宿7丁目20-10","lat":35.70064212,"lon":139.70980098},{"name":"税務大学入口","province":"東京都","city":"新宿区","address":"東京都新宿区河田町8-1","lat":35.69807045,"lon":139.72011683},{"name":"戸山町","province":"東京都","city":"新宿区","address":"東京都新宿区戸山3丁目15-1","lat":35.70448057,"lon":139.70974528},{"name":"児童相談センター前","province":"東京都","city":"新宿区","address":"東京都新宿区大久保3丁目4-1","lat":35.70606921,"lon":139.70680936},{"name":"戸山ハイツ西","province":"東京都","city":"新宿区","address":"東京都新宿区戸山2丁目33","lat":35.70169476,"lon":139.70910377},{"name":"早稲田大学文学部前","province":"東京都","city":"新宿区","address":"東京都新宿区西早稲田2丁目2-2","lat":35.70686105,"lon":139.71635849},{"name":"戸山サンライズ前","province":"東京都","city":"新宿区","address":"東京都新宿区戸山1丁目20-1","lat":35.70270043,"lon":139.7174641},{"name":"戸山ハイツ北","province":"東京都","city":"新宿区","address":"東京都新宿区戸山1丁目23","lat":35.70442523,"lon":139.71728905},{"name":"市谷台町第二","province":"東京都","city":"新宿区","address":"東京都新宿区市谷台町9-12","lat":35.69398198,"lon":139.71898654},{"name":"若松町北","province":"東京都","city":"新宿区","address":"東京都新宿区原町3丁目61","lat":35.70155621,"lon":139.72160267},{"name":"新隆慶橋西詰","province":"東京都","city":"新宿区","address":"東京都新宿区新小川町4-1","lat":35.70523969,"lon":139.74339782},{"name":"新宿駅東口","province":"東京都","city":"新宿区","address":"東京都新宿区新宿3丁目24-1","lat":35.69265391,"lon":139.70164368},{"name":"新宿三丁目第二","province":"東京都","city":"新宿区","address":"東京都新宿区西落合3丁目26-15","lat":35.72421077,"lon":139.6771473},{"name":"新宿大ガード西","province":"東京都","city":"新宿区","address":"東京都新宿区西新宿7丁目10-1","lat":35.69390926,"lon":139.69875499},{"name":"大久保二丁目","province":"東京都","city":"新宿区","address":"東京都新宿区大久保1丁目3-15","lat":35.70079204,"lon":139.70768171},{"name":"新宿大ガード東","province":"東京都","city":"新宿区","address":"東京都新宿区新宿3丁目23-7","lat":35.69332882,"lon":139.70076595},{"name":"新宿七丁目","province":"東京都","city":"新宿区","address":"東京都新宿区新宿6丁目29-10","lat":35.69769795,"lon":139.70768183},{"name":"成子坂下","province":"東京都","city":"新宿区","address":"東京都新宿区北新宿2丁目21-2","lat":35.69621706,"lon":139.68858913},{"name":"新宿駅南口","province":"東京都","city":"新宿区","address":"東京都新宿区新宿3丁目38","lat":35.69278442,"lon":139.70010492},{"name":"新宿六丁目","province":"東京都","city":"新宿区","address":"東京都新宿区歌舞伎町2丁目1-11","lat":35.69512876,"lon":139.70657925},{"name":"一番街前","province":"東京都","city":"新宿区","address":"東京都新宿区新宿3丁目23-7","lat":35.69332882,"lon":139.70076595},{"name":"歌舞伎町","province":"東京都","city":"新宿区","address":"東京都新宿区新宿3丁目23-12","lat":35.69338438,"lon":139.7011548},{"name":"桜通り前","province":"東京都","city":"新宿区","address":"東京都新宿区新宿3丁目22-13","lat":35.69316221,"lon":139.70208807},{"name":"北新宿百人町","province":"東京都","city":"新宿区","address":"東京都新宿区西新宿7丁目6-6","lat":35.69782545,"lon":139.69773549},{"name":"新宿消防署前","province":"東京都","city":"新宿区","address":"東京都新宿区百人町3丁目29-4","lat":35.706916,"lon":139.69469094},{"name":"新宿中央公園北","province":"東京都","city":"新宿区","address":"東京都新宿区西新宿2丁目7-1","lat":35.69172598,"lon":139.69108909},{"name":"新宿駅前","province":"東京都","city":"新宿区","address":"東京都新宿区新宿3丁目38-1","lat":35.69130129,"lon":139.70113545},{"name":"東京医大病院前","province":"東京都","city":"新宿区","address":"東京都新宿区西新宿8丁目4-2","lat":35.69457293,"lon":139.69336378},{"name":"新宿区役所前","province":"東京都","city":"新宿区","address":"東京都新宿区新宿3丁目15-11","lat":35.69280117,"lon":139.7032602},{"name":"新大久保駅前","province":"東京都","city":"新宿区","address":"東京都新宿区百人町2丁目4-1","lat":35.70169452,"lon":139.70008235},{"name":"地下鉄新宿駅西口前","province":"東京都","city":"新宿区","address":"東京都新宿区西新宿1丁目5-1","lat":35.69259273,"lon":139.69867728},{"name":"成子天神下","province":"東京都","city":"新宿区","address":"東京都新宿区西新宿8丁目19-2","lat":35.69538665,"lon":139.69056676},{"name":"西新宿一丁目","province":"東京都","city":"新宿区","address":"東京都新宿区西新宿1丁目18-3","lat":35.68871541,"lon":139.6986191},{"name":"抜弁天","province":"東京都","city":"新宿区","address":"東京都新宿区余丁町8-5","lat":35.69760089,"lon":139.71332856},{"name":"副都心八号線入口","province":"東京都","city":"新宿区","address":"東京都新宿区西新宿1丁目19-8","lat":35.68802099,"lon":139.69680818},{"name":"都立戸山高等学校前","province":"東京都","city":"新宿区","address":"東京都新宿区大久保3丁目14-9","lat":35.70718024,"lon":139.70858695},{"name":"大久保駅前","province":"東京都","city":"新宿区","address":"東京都新宿区百人町1丁目17-1","lat":35.70151667,"lon":139.69678543},{"name":"新宿警察署前","province":"東京都","city":"新宿区","address":"東京都新宿区西新宿1丁目26-2","lat":35.69300371,"lon":139.69533867},{"name":"新宿郵便局前","province":"東京都","city":"新宿区","address":"東京都新宿区西新宿1丁目23-1","lat":35.68992353,"lon":139.69616649},{"name":"西新宿","province":"東京都","city":"新宿区","address":"東京都新宿区西新宿3丁目2-4","lat":35.68703492,"lon":139.69411124},{"name":"大久保小学校入口","province":"東京都","city":"新宿区","address":"東京都新宿区大久保2丁目18-7","lat":35.70121695,"lon":139.70584297},{"name":"新宿中央公園前","province":"東京都","city":"新宿区","address":"東京都新宿区西新宿2丁目11","lat":35.69079265,"lon":139.68741167},{"name":"新宿中央公園南","province":"東京都","city":"新宿区","address":"東京都新宿区西新宿2丁目11","lat":35.69079265,"lon":139.68741167},{"name":"新宿警察署裏","province":"東京都","city":"新宿区","address":"東京都新宿区西新宿6丁目5-3","lat":35.69313145,"lon":139.69418599},{"name":"新宿副都心四号線入口","province":"東京都","city":"新宿区","address":"東京都新宿区西新宿1丁目24-1","lat":35.69040402,"lon":139.69588317},{"name":"中央通り東","province":"東京都","city":"新宿区","address":"東京都新宿区西新宿1丁目24-2","lat":35.69066787,"lon":139.69538042},{"name":"新宿西口地下道横","province":"東京都","city":"新宿区","address":"東京都新宿区西新宿1丁目4-2","lat":35.69286216,"lon":139.69891891},{"name":"西武新宿駅前第二","province":"東京都","city":"新宿区","address":"東京都新宿区歌舞伎町1丁目30","lat":35.69576463,"lon":139.69966873},{"name":"大久保二丁目第二","province":"東京都","city":"新宿区","address":"東京都新宿区新宿7丁目26-36","lat":35.70075041,"lon":139.70863441},{"name":"議事堂北","province":"東京都","city":"新宿区","address":"東京都新宿区西新宿6丁目5-1","lat":35.69311753,"lon":139.69308886},{"name":"都庁北","province":"東京都","city":"新宿区","address":"東京都新宿区西新宿6丁目6-2","lat":35.69272863,"lon":139.69106683},{"name":"新宿駅西口前通り","province":"東京都","city":"新宿区","address":"東京都新宿区西新宿1丁目10-1","lat":35.68984582,"lon":139.69833853},{"name":"新宿六丁目第二","province":"東京都","city":"新宿区","address":"東京都新宿区新宿5丁目18-7","lat":35.69469267,"lon":139.70552659},{"name":"大久保スポーツプラザ入口","province":"東京都","city":"新宿区","address":"東京都新宿区高田馬場1丁目31-18","lat":35.70961593,"lon":139.7031151},{"name":"新宿公務員住宅南","province":"東京都","city":"新宿区","address":"東京都新宿区百人町3丁目1-1","lat":35.70447476,"lon":139.70016556},{"name":"百人町二丁目","province":"東京都","city":"新宿区","address":"東京都新宿区百人町2丁目17-3","lat":35.70179167,"lon":139.69813808},{"name":"西武新宿駅前第三","province":"東京都","city":"新宿区","address":"東京都新宿区歌舞伎町1丁目30-1","lat":35.69621736,"lon":139.70011867},{"name":"副都心八号線入口第二","province":"東京都","city":"新宿区","address":"東京都新宿区西新宿1丁目19-11","lat":35.68828485,"lon":139.69668874},{"name":"国際電電ビル前","province":"東京都","city":"新宿区","address":"東京都新宿区西新宿2丁目3-2","lat":35.68797372,"lon":139.69479169},{"name":"都庁南","province":"東京都","city":"新宿区","address":"東京都新宿区西新宿3丁目2-9","lat":35.68693491,"lon":139.69311966},{"name":"副都心地下道入口","province":"東京都","city":"新宿区","address":"東京都新宿区西新宿2丁目2-1","lat":35.6896263,"lon":139.69440555},{"name":"保善高校入口","province":"東京都","city":"新宿区","address":"東京都新宿区高田馬場1丁目21-6","lat":35.7092771,"lon":139.70424835},{"name":"議事堂南","province":"東京都","city":"新宿区","address":"東京都新宿区西新宿2丁目3-2","lat":35.68797372,"lon":139.69479169},{"name":"新宿中央公園南第二","province":"東京都","city":"新宿区","address":"東京都新宿区西新宿2丁目9","lat":35.68815418,"lon":139.69192249},{"name":"東京都庁前","province":"東京都","city":"新宿区","address":"東京都新宿区西新宿2丁目5","lat":35.68970403,"lon":139.69296401},{"name":"都議会議事堂前","province":"東京都","city":"新宿区","address":"東京都新宿区西新宿2丁目2-1","lat":35.6896263,"lon":139.69440555},{"name":"新宿西口ロータリー入口","province":"東京都","city":"新宿区","address":"東京都新宿区西新宿1丁目6-1","lat":35.69217609,"lon":139.6972552},{"name":"新宿駅西口ロータリー","province":"東京都","city":"新宿区","address":"東京都新宿区西新宿1丁目7-2","lat":35.69161504,"lon":139.69734966},{"name":"バスタ新宿前","province":"東京都","city":"新宿区","address":"東京都新宿区新宿3丁目37-1","lat":35.68992645,"lon":139.70150769},{"name":"高田馬場口","province":"東京都","city":"新宿区","address":"東京都新宿区西早稲田2丁目21-12","lat":35.71122428,"lon":139.71020887},{"name":"中落合三丁目","province":"東京都","city":"新宿区","address":"東京都新宿区中落合2丁目27-17","lat":35.72230308,"lon":139.69272938},{"name":"高田馬場駅前","province":"東京都","city":"新宿区","address":"東京都新宿区高田馬場1丁目35-2","lat":35.71231564,"lon":139.70381216},{"name":"高田馬場駅ガード西","province":"東京都","city":"新宿区","address":"東京都新宿区高田馬場4丁目7-5","lat":35.71360994,"lon":139.70373712},{"name":"下落合四丁目","province":"東京都","city":"新宿区","address":"東京都新宿区中落合2丁目1-15","lat":35.7221337,"lon":139.69419315},{"name":"小滝橋","province":"東京都","city":"新宿区","address":"東京都新宿区百人町4丁目9-6","lat":35.70942126,"lon":139.69414645},{"name":"戸塚警察署前","province":"東京都","city":"新宿区","address":"東京都新宿区西早稲田3丁目30-13","lat":35.71333796,"lon":139.71117537},{"name":"諏訪町","province":"東京都","city":"新宿区","address":"東京都新宿区戸山3丁目20-2","lat":35.70799686,"lon":139.71014511},{"name":"高田馬場二丁目","province":"東京都","city":"新宿区","address":"東京都新宿区高田馬場2丁目14-2","lat":35.71254627,"lon":139.70719241},{"name":"上落合一丁目","province":"東京都","city":"新宿区","address":"東京都新宿区上落合1丁目29-7","lat":35.71143202,"lon":139.68979674},{"name":"戸塚第三小学校入口","province":"東京都","city":"新宿区","address":"東京都新宿区高田馬場4丁目28-18","lat":35.7119961,"lon":139.69901814},{"name":"目白変電所入口","province":"東京都","city":"新宿区","address":"東京都新宿区高田馬場3丁目3-8","lat":35.7135571,"lon":139.7015262},{"name":"西落合二丁目","province":"東京都","city":"新宿区","address":"東京都新宿区西落合1丁目30-10","lat":35.72073065,"lon":139.67894174},{"name":"落合処理場南","province":"東京都","city":"新宿区","address":"東京都新宿区上落合1丁目4-1","lat":35.71108213,"lon":139.69254374},{"name":"高田馬場駅東","province":"東京都","city":"新宿区","address":"東京都新宿区高田馬場1丁目26-7","lat":35.71299894,"lon":139.70515091},{"name":"高田馬場駅東第二","province":"東京都","city":"新宿区","address":"東京都新宿区高田馬場1丁目27-8","lat":35.7127434,"lon":139.70480095},{"name":"高戸橋","province":"東京都","city":"新宿区","address":"東京都新宿区西早稲田3丁目31-11","lat":35.71431842,"lon":139.71204748},{"name":"戸塚第一出張所入口","province":"東京都","city":"新宿区","address":"東京都新宿区高田馬場1丁目5-16","lat":35.71161862,"lon":139.70822847},{"name":"戸塚第二小学校前","province":"東京都","city":"新宿区","address":"東京都新宿区高田馬場1丁目25-21","lat":35.71254623,"lon":139.70595363},{"name":"点字図書館前","province":"東京都","city":"新宿区","address":"東京都新宿区高田馬場1丁目29-10","lat":35.71127133,"lon":139.70427049},{"name":"下落合二丁目","province":"東京都","city":"新宿区","address":"東京都新宿区下落合2丁目6-3","lat":35.71669282,"lon":139.70024007},{"name":"高田馬場三丁目","province":"東京都","city":"新宿区","address":"東京都新宿区高田馬場3丁目12-10","lat":35.71265439,"lon":139.70012358},{"name":"高田馬場口南","province":"東京都","city":"新宿区","address":"東京都新宿区西早稲田2丁目21-4","lat":35.71021882,"lon":139.70980616},{"name":"上落合交番前","province":"東京都","city":"新宿区","address":"東京都新宿区上落合3丁目4-12","lat":35.71336223,"lon":139.6852665},{"name":"戸塚児童館入口","province":"東京都","city":"新宿区","address":"東京都新宿区高田馬場4丁目38-17","lat":35.71139333,"lon":139.69690724},{"name":"都バス早稲田営業所前","province":"東京都","city":"新宿区","address":"東京都新宿区西早稲田1丁目10-7","lat":35.71126904,"lon":139.72181062},{"name":"高田馬場郵便局前","province":"東京都","city":"新宿区","address":"東京都新宿区高田馬場4丁目9-11","lat":35.71340715,"lon":139.70270665},{"name":"西早稲田二丁目","province":"東京都","city":"新宿区","address":"東京都新宿区西早稲田2丁目18-19","lat":35.71099378,"lon":139.71121434},{"name":"玄国寺南","province":"東京都","city":"新宿区","address":"東京都新宿区高田馬場1丁目13-1","lat":35.70886055,"lon":139.70650372},{"name":"戸塚諏訪神社前","province":"東京都","city":"新宿区","address":"東京都新宿区高田馬場1丁目12-6","lat":35.70911334,"lon":139.70770639},{"name":"甘泉園公園","province":"東京都","city":"新宿区","address":"東京都新宿区西早稲田1丁目22-3","lat":35.71174387,"lon":139.71750265},{"name":"点字図書館南","province":"東京都","city":"新宿区","address":"東京都新宿区高田馬場1丁目29-2","lat":35.71027143,"lon":139.70390112},{"name":"新宿三丁目","province":"東京都","city":"新宿区","address":"東京都新宿区新宿3丁目4-4","lat":35.69084866,"lon":139.70510455},{"name":"四谷見附","province":"東京都","city":"新宿区","address":"東京都新宿区四谷1丁目","lat":35.68669411,"lon":139.72785547},{"name":"新宿五丁目","province":"東京都","city":"新宿区","address":"東京都新宿区戸山3丁目13-6","lat":35.70524993,"lon":139.70960915},{"name":"新宿四丁目","province":"東京都","city":"新宿区","address":"東京都新宿区新宿4丁目3-23","lat":35.68948212,"lon":139.70419636},{"name":"四谷三丁目","province":"東京都","city":"新宿区","address":"東京都新宿区四谷3丁目10","lat":35.68812154,"lon":139.7196617},{"name":"新宿二丁目","province":"東京都","city":"新宿区","address":"東京都新宿区新宿3丁目1-30","lat":35.68994879,"lon":139.70645447},{"name":"新宿三丁目西","province":"東京都","city":"新宿区","address":"東京都新宿区新宿3丁目30-11","lat":35.69112637,"lon":139.70357968},{"name":"新宿一丁目","province":"東京都","city":"新宿区","address":"東京都新宿区新宿1丁目1-14","lat":35.68770755,"lon":139.71359837},{"name":"新宿二丁目南","province":"東京都","city":"新宿区","address":"東京都新宿区百人町2丁目5-4","lat":35.70305269,"lon":139.70004897},{"name":"信濃町駅前","province":"東京都","city":"新宿区","address":"東京都新宿区信濃町34","lat":35.68016966,"lon":139.72009808},{"name":"新宿四丁目南","province":"東京都","city":"新宿区","address":"東京都新宿区新宿4丁目4-1","lat":35.68794338,"lon":139.70309096},{"name":"新宿五丁目東","province":"東京都","city":"新宿区","address":"東京都新宿区新宿2丁目19-9","lat":35.69185138,"lon":139.70727655},{"name":"四谷四丁目東","province":"東京都","city":"新宿区","address":"東京都新宿区四谷4丁目1","lat":35.6872466,"lon":139.71821187},{"name":"四谷警察署前","province":"東京都","city":"新宿区","address":"東京都新宿区左門町13-1","lat":35.68674392,"lon":139.71996728},{"name":"新宿柳通り","province":"東京都","city":"新宿区","address":"東京都新宿区新宿3丁目9-1","lat":35.69099868,"lon":139.70671274},{"name":"日本青年館前","province":"東京都","city":"新宿区","address":"東京都新宿区霞ヶ丘町3","lat":35.67542289,"lon":139.71668469},{"name":"新宿三丁目北","province":"東京都","city":"新宿区","address":"東京都新宿区新宿3丁目5-6","lat":35.69162358,"lon":139.70564336},{"name":"新宿三丁目東","province":"東京都","city":"新宿区","address":"東京都新宿区新宿3丁目3","lat":35.6905376,"lon":139.70573785}]}