{"keyword":"館","data":[{"name":"本塩町児童館","province":"東京都","city":"新宿区","address":"新宿区四谷本塩町4番9号","lat":35.688547,"lon":139.729361},{"name":"信濃町子ども家庭支援センター","province":"東京都","city":"新宿区","address":"新宿区信濃町20","lat":35.683192,"lon":139.720395},{"name":"新宿区立子ども総合センター","province":"東京都","city":"新宿区","address":"新宿区新宿7-3-29","lat":35.701003,"lon":139.712681},{"name":"西新宿児童館","province":"東京都","city":"新宿区","address":"新宿区西新宿4-35-28","lat":35.686349,"lon":139.686929},{"name":"西落合児童館","province":"東京都","city":"新宿区","address":"新宿区西落合1-31-24","lat":35.719695,"lon":139.679472},{"name":"中落合子ども家庭支援センター","province":"東京都","city":"新宿区","address":"新宿区中落合2-7-24","lat":35.717948,"lon":139.693913},{"name":"上落合児童館","province":"東京都","city":"新宿区","address":"新宿区上落合2-28-8","lat":35.711021,"lon":139.685414},{"name":"中井児童館","province":"東京都","city":"新宿区","address":"新宿区中井1-8-12","lat":35.714759,"lon":139.683792},{"name":"早稲田南町児童館","province":"東京都","city":"新宿区","address":"新宿区早稲田南町50","lat":35.705086,"lon":139.722305},{"name":"薬王寺児童館","province":"東京都","city":"新宿区","address":"新宿区市谷仲之町2-42防災センター内3階","lat":35.693865,"lon":139.723981},{"name":"富久町児童館","province":"東京都","city":"新宿区","address":"新宿区富久町22-21","lat":35.694032,"lon":139.715684},{"name":"榎町子ども家庭支援センター","province":"東京都","city":"新宿区","address":"新宿区榎町36","lat":35.704553,"lon":139.72771},{"name":"東五軒町児童館","province":"東京都","city":"新宿区","address":"新宿区東五軒町5-24","lat":35.706789,"lon":139.740087},{"name":"中町児童館","province":"東京都","city":"新宿区","address":"新宿区中町25","lat":35.699021,"lon":139.734554},{"name":"北山伏児童館","province":"東京都","city":"新宿区","address":"新宿区北山伏町2-17","lat":35.700279,"lon":139.729902},{"name":"百人町児童館","province":"東京都","city":"新宿区","address":"新宿区百人町2-18-21","lat":35.703342,"lon":139.698182},{"name":"北新宿第一児童館","province":"東京都","city":"新宿区","address":"新宿区北新宿2-3-7","lat":35.698531,"lon":139.690247},{"name":"北新宿子ども家庭支援センター","province":"東京都","city":"新宿区","address":"新宿区北新宿3-20-2","lat":35.702972,"lon":139.689461},{"name":"高田馬場第一児童館","province":"東京都","city":"新宿区","address":"新宿区高田馬場3-18-21","lat":35.714557,"lon":139.697327},{"name":"高田馬場第二児童館","province":"東京都","city":"新宿区","address":"新宿区高田馬場1-4-17","lat":35.710946,"lon":139.709215},{"name":"青梅市小曾木図書館","province":"東京都","city":"新宿区","address":"東京都新宿区","lat":35.69388716,"lon":139.70341014},{"name":"新宿区立こども図書館","province":"東京都","city":"新宿区","address":"東京都新宿区大久保3-1-1","lat":35.70524,"lon":139.707189},{"name":"新宿区立鶴巻図書館","province":"東京都","city":"新宿区","address":"東京都新宿区鶴巻町521","lat":35.707373,"lon":139.724697},{"name":"新宿区立西落合図書館","province":"東京都","city":"新宿区","address":"東京都新宿区西落合4-13-17","lat":35.725756,"lon":139.678959},{"name":"新宿区立戸山図書館","province":"東京都","city":"新宿区","address":"東京都新宿区戸山2-11-101","lat":35.701874,"lon":139.714233},{"name":"新宿区立中町図書館","province":"東京都","city":"新宿区","address":"東京都新宿区中町25","lat":35.69886,"lon":139.734616},{"name":"新宿区立角筈図書館","province":"東京都","city":"新宿区","address":"東京都新宿区西新宿4-33-7","lat":35.68618,"lon":139.689153},{"name":"本塩町児童館","province":"東京都","city":"新宿区","address":"新宿区四谷本塩町4番9号","lat":35.68872,"lon":139.72974},{"name":"信濃町子ども家庭支援センター","province":"東京都","city":"新宿区","address":"新宿区信濃町20","lat":35.68308,"lon":139.72029},{"name":"新宿区立子ども総合センター","province":"東京都","city":"新宿区","address":"新宿区新宿7-3-29","lat":35.70022,"lon":139.7132},{"name":"西新宿児童館","province":"東京都","city":"新宿区","address":"新宿区西新宿4-35-28","lat":35.68602,"lon":139.68748},{"name":"西落合児童館","province":"東京都","city":"新宿区","address":"新宿区西落合1-31-24","lat":35.71988,"lon":139.67934},{"name":"中落合子ども家庭支援センター","province":"東京都","city":"新宿区","address":"新宿区中落合2-7-24","lat":35.71777,"lon":139.69426},{"name":"上落合児童館","province":"東京都","city":"新宿区","address":"新宿区上落合2-28-8","lat":35.71146,"lon":139.68573},{"name":"中井児童館","province":"東京都","city":"新宿区","address":"新宿区中井1-8-12","lat":35.71479,"lon":139.6843},{"name":"早稲田南町児童館","province":"東京都","city":"新宿区","address":"新宿区早稲田南町50","lat":35.70497,"lon":139.72243},{"name":"薬王寺児童館","province":"東京都","city":"新宿区","address":"新宿区市谷薬王寺町51","lat":35.69611,"lon":139.72418},{"name":"富久町児童館","province":"東京都","city":"新宿区","address":"新宿区富久町22-21","lat":35.69352,"lon":139.71545},{"name":"榎町子ども家庭支援センター","province":"東京都","city":"新宿区","address":"新宿区榎町36","lat":35.70462,"lon":139.72757},{"name":"東五軒町児童館","province":"東京都","city":"新宿区","address":"新宿区東五軒町5-24","lat":35.7067,"lon":139.73976},{"name":"中町児童館","province":"東京都","city":"新宿区","address":"新宿区中町25","lat":35.69928,"lon":139.7355},{"name":"北山伏児童館","province":"東京都","city":"新宿区","address":"新宿区北山伏町2-17","lat":35.6998,"lon":139.72971},{"name":"百人町児童館","province":"東京都","city":"新宿区","address":"新宿区百人町2-18-21","lat":35.70377,"lon":139.69818},{"name":"北新宿第一児童館","province":"東京都","city":"新宿区","address":"新宿区北新宿2-3-7","lat":35.69859,"lon":139.69046},{"name":"北新宿子ども家庭支援センター","province":"東京都","city":"新宿区","address":"新宿区北新宿3-20-2","lat":35.70238,"lon":139.68921},{"name":"高田馬場第二児童館","province":"東京都","city":"新宿区","address":"新宿区高田馬場1-4-17","lat":35.71053,"lon":139.70874},{"name":"高田馬場第一児童館","province":"東京都","city":"新宿区","address":"新宿区高田馬場3-18-21","lat":35.71444,"lon":139.69785},{"name":"西新宿児童館","province":"東京都","city":"新宿区","address":"新宿区西新宿4-35-28","lat":35.68602,"lon":139.68749},{"name":"薬王寺児童館","province":"東京都","city":"新宿区","address":"新宿区市谷仲之町2-42防災センター内3階","lat":35.69357,"lon":139.72421},{"name":"＊?中央図書館","province":"東京都","city":"新宿区","address":"新宿区大久保3-1-1","lat":35.705244,"lon":139.707263},{"name":"＊?こども図書館","province":"東京都","city":"新宿区","address":"新宿区大久保3-1-1","lat":35.705244,"lon":139.707263},{"name":"＊?四谷図書館","province":"東京都","city":"新宿区","address":"新宿区内藤町87","lat":35.687578,"lon":139.714447},{"name":"＊?鶴巻図書館","province":"東京都","city":"新宿区","address":"新宿区早稲田鶴巻町521","lat":35.707405,"lon":139.7247},{"name":"＊?西落合図書館","province":"東京都","city":"新宿区","address":"新宿区西落合4-13-17","lat":35.725769,"lon":139.678965},{"name":"＊?戸山図書館","province":"東京都","city":"新宿区","address":"新宿区戸山2-11-101","lat":35.701951,"lon":139.714195},{"name":"＊?北新宿図書館","province":"東京都","city":"新宿区","address":"新宿区北新宿3-20-2","lat":35.702962,"lon":139.689461},{"name":"＊?中町図書館","province":"東京都","city":"新宿区","address":"新宿区中町25","lat":35.698969,"lon":139.734577},{"name":"＊?角筈図書館","province":"東京都","city":"新宿区","address":"新宿区西新宿4-33-7","lat":35.686218,"lon":139.689091},{"name":"＊?大久保図書館","province":"東京都","city":"新宿区","address":"新宿区大久保2-12-7","lat":35.701416,"lon":139.706773},{"name":"＊?下落合図書館","province":"東京都","city":"新宿区","address":"新宿区下落合1-9-8","lat":35.716019,"lon":139.698795},{"name":"＊?中央図書館区役所内分室","province":"東京都","city":"新宿区","address":"新宿区歌舞伎町1-4-1","lat":35.693893,"lon":139.703426}]}