{"keyword":"スモッグ","data":[{"name":"狭山・境緑道","province":"東京都","city":"小平市","address":"東京都小平市花小金井南町一・二・三丁目、花小金井六丁目、鈴木町二丁目、天神町一・二丁目、大沼町一・三丁目、東村山市萩山町一・二・三丁目、栄町三丁目、廻田町二丁目、美住町一・二丁目、東大和市清水一・二丁目、西東京市向台三・四・五・六丁目、新町四・五丁目","lat":35.852839,"lon":139.412183},{"name":"上水南浄水所","province":"東京都","city":"小平市","address":"東京都小平市上水南町3丁目12-36","lat":35.71160196,"lon":139.49171079},{"name":"小川浄水所","province":"東京都","city":"小平市","address":"東京都小平市小川町1丁目847","lat":35.72563541,"lon":139.45317197},{"name":"丸井小金井総合グラウンド","province":"東京都","city":"小平市","address":"東京都小平市花小金井8丁目25-1","lat":35.73125838,"lon":139.50415049},{"name":"千代田区花小金井グラウンド","province":"東京都","city":"小平市","address":"東京都小平市花小金井南町3丁目2","lat":35.72044891,"lon":139.51886641},{"name":"小平市立中央公園グラウンド","province":"東京都","city":"小平市","address":"東京都小平市津田町1丁目1","lat":35.72249436,"lon":139.46201018},{"name":"(株)前原紙業  小平営業所","province":"東京都","city":"小平市","address":"小平市小川東町5-1872-3","lat":35.733185,"lon":139.470963},{"name":"狭山・境緑道","province":"東京都","city":"小平市","address":"東京都小平市花小金井南町一・二・三丁目、花小金井六丁目、鈴木町二丁目、天神町一・二丁目、大沼町一・三丁目、東村山市萩山町一・二・三丁目、栄町三丁目、廻田町二丁目、美住町一・二丁目、東大和市清水一・二丁目、西東京市向台三・四・五・六丁目、新町四・五丁目","lat":35.852839,"lon":139.412183},{"name":"(株)前原紙業  小平営業所","province":"東京都","city":"小平市","address":"小平市小川東町5-1872-3","lat":35.733185,"lon":139.470963},{"name":"狭山・境緑道","province":"東京都","city":"小平市","address":"東京都小平市花小金井南町一・二・三丁目、花小金井六丁目、鈴木町二丁目、天神町一・二丁目、大沼町一・三丁目、東村山市萩山町一・二・三丁目、栄町三丁目、廻田町二丁目、美住町一・二丁目、東大和市清水一・二丁目、西東京市向台三・四・五・六丁目、新町四・五丁目","lat":35.852839,"lon":139.412183},{"name":"(株)前原紙業  小平営業所","province":"東京都","city":"小平市","address":"小平市小川東町5-1872-3","lat":35.733185,"lon":139.470963},{"name":"狭山・境緑道","province":"東京都","city":"小平市","address":"東京都小平市花小金井南町一・二・三丁目、花小金井六丁目、鈴木町二丁目、天神町一・二丁目、大沼町一・三丁目、東村山市萩山町一・二・三丁目、栄町三丁目、廻田町二丁目、美住町一・二丁目、東大和市清水一・二丁目、西東京市向台三・四・五・六丁目、新町四・五丁目","lat":35.852839,"lon":139.412183},{"name":"(株)前原紙業  小平営業所","province":"東京都","city":"小平市","address":"小平市小川東町5-1872-3","lat":35.733185,"lon":139.470963},{"name":"狭山・境緑道","province":"東京都","city":"小平市","address":"東京都小平市花小金井南町一・二・三丁目、花小金井六丁目、鈴木町二丁目、天神町一・二丁目、大沼町一・三丁目、東村山市萩山町一・二・三丁目、栄町三丁目、廻田町二丁目、美住町一・二丁目、東大和市清水一・二丁目、西東京市向台三・四・五・六丁目、新町四・五丁目","lat":35.852839,"lon":139.412183},{"name":"(株)前原紙業  小平営業所","province":"東京都","city":"小平市","address":"小平市小川東町5-1872-3","lat":35.733185,"lon":139.470963},{"name":"狭山・境緑道","province":"東京都","city":"小平市","address":"東京都小平市花小金井南町一・二・三丁目、花小金井六丁目、鈴木町二丁目、天神町一・二丁目、大沼町一・三丁目、東村山市萩山町一・二・三丁目、栄町三丁目、廻田町二丁目、美住町一・二丁目、東大和市清水一・二丁目、西東京市向台三・四・五・六丁目、新町四・五丁目","lat":35.852839,"lon":139.412183},{"name":"(株)前原紙業  小平営業所","province":"東京都","city":"小平市","address":"小平市小川東町5-1872-3","lat":35.733185,"lon":139.470963},{"name":"狭山・境緑道","province":"東京都","city":"小平市","address":"東京都小平市花小金井南町一・二・三丁目、花小金井六丁目、鈴木町二丁目、天神町一・二丁目、大沼町一・三丁目、東村山市萩山町一・二・三丁目、栄町三丁目、廻田町二丁目、美住町一・二丁目、東大和市清水一・二丁目、西東京市向台三・四・五・六丁目、新町四・五丁目","lat":35.852839,"lon":139.412183},{"name":"(株)前原紙業  小平営業所","province":"東京都","city":"小平市","address":"小平市小川東町5-1872-3","lat":35.733185,"lon":139.470963},{"name":"狭山・境緑道","province":"東京都","city":"小平市","address":"東京都小平市花小金井南町一・二・三丁目、花小金井六丁目、鈴木町二丁目、天神町一・二丁目、大沼町一・三丁目、東村山市萩山町一・二・三丁目、栄町三丁目、廻田町二丁目、美住町一・二丁目、東大和市清水一・二丁目、西東京市向台三・四・五・六丁目、新町四・五丁目","lat":35.852839,"lon":139.412183},{"name":"(株)前原紙業  小平営業所","province":"東京都","city":"小平市","address":"小平市小川東町5-1872-3","lat":35.733185,"lon":139.470963},{"name":"狭山・境緑道","province":"東京都","city":"小平市","address":"東京都小平市花小金井南町一・二・三丁目、花小金井六丁目、鈴木町二丁目、天神町一・二丁目、大沼町一・三丁目、東村山市萩山町一・二・三丁目、栄町三丁目、廻田町二丁目、美住町一・二丁目、東大和市清水一・二丁目、西東京市向台三・四・五・六丁目、新町四・五丁目","lat":35.852839,"lon":139.412183},{"name":"(株)前原紙業  小平営業所","province":"東京都","city":"小平市","address":"小平市小川東町5-1872-3","lat":35.733185,"lon":139.470963},{"name":"狭山・境緑道","province":"東京都","city":"小平市","address":"東京都小平市花小金井南町一・二・三丁目、花小金井六丁目、鈴木町二丁目、天神町一・二丁目、大沼町一・三丁目、東村山市萩山町一・二・三丁目、栄町三丁目、廻田町二丁目、美住町一・二丁目、東大和市清水一・二丁目、西東京市向台三・四・五・六丁目、新町四・五丁目","lat":35.852839,"lon":139.412183},{"name":"(株)前原紙業  小平営業所","province":"東京都","city":"小平市","address":"小平市小川東町5-1872-3","lat":35.733185,"lon":139.470963},{"name":"狭山・境緑道","province":"東京都","city":"小平市","address":"東京都小平市花小金井南町一・二・三丁目、花小金井六丁目、鈴木町二丁目、天神町一・二丁目、大沼町一・三丁目、東村山市萩山町一・二・三丁目、栄町三丁目、廻田町二丁目、美住町一・二丁目、東大和市清水一・二丁目、西東京市向台三・四・五・六丁目、新町四・五丁目","lat":35.852839,"lon":139.412183},{"name":"(株)前原紙業  小平営業所","province":"東京都","city":"小平市","address":"小平市小川東町5-1872-3","lat":35.733185,"lon":139.470963},{"name":"狭山・境緑道","province":"東京都","city":"小平市","address":"東京都小平市花小金井南町一・二・三丁目、花小金井六丁目、鈴木町二丁目、天神町一・二丁目、大沼町一・三丁目、東村山市萩山町一・二・三丁目、栄町三丁目、廻田町二丁目、美住町一・二丁目、東大和市清水一・二丁目、西東京市向台三・四・五・六丁目、新町四・五丁目","lat":35.852839,"lon":139.412183},{"name":"(株)前原紙業  小平営業所","province":"東京都","city":"小平市","address":"小平市小川東町5-1872-3","lat":35.733185,"lon":139.470963},{"name":"狭山・境緑道","province":"東京都","city":"小平市","address":"東京都小平市花小金井南町一・二・三丁目、花小金井六丁目、鈴木町二丁目、天神町一・二丁目、大沼町一・三丁目、東村山市萩山町一・二・三丁目、栄町三丁目、廻田町二丁目、美住町一・二丁目、東大和市清水一・二丁目、西東京市向台三・四・五・六丁目、新町四・五丁目","lat":35.852839,"lon":139.412183},{"name":"(株)前原紙業  小平営業所","province":"東京都","city":"小平市","address":"小平市小川東町5-1872-3","lat":35.733185,"lon":139.470963},{"name":"狭山・境緑道","province":"東京都","city":"小平市","address":"東京都小平市花小金井南町一・二・三丁目、花小金井六丁目、鈴木町二丁目、天神町一・二丁目、大沼町一・三丁目、東村山市萩山町一・二・三丁目、栄町三丁目、廻田町二丁目、美住町一・二丁目、東大和市清水一・二丁目、西東京市向台三・四・五・六丁目、新町四・五丁目","lat":35.852839,"lon":139.412183},{"name":"(株)前原紙業  小平営業所","province":"東京都","city":"小平市","address":"小平市小川東町5-1872-3","lat":35.733185,"lon":139.470963},{"name":"狭山・境緑道","province":"東京都","city":"小平市","address":"東京都小平市花小金井南町一・二・三丁目、花小金井六丁目、鈴木町二丁目、天神町一・二丁目、大沼町一・三丁目、東村山市萩山町一・二・三丁目、栄町三丁目、廻田町二丁目、美住町一・二丁目、東大和市清水一・二丁目、西東京市向台三・四・五・六丁目、新町四・五丁目","lat":35.852839,"lon":139.412183},{"name":"(株)前原紙業  小平営業所","province":"東京都","city":"小平市","address":"小平市小川東町5-1872-3","lat":35.733185,"lon":139.470963},{"name":"狭山・境緑道","province":"東京都","city":"小平市","address":"東京都小平市花小金井南町一・二・三丁目、花小金井六丁目、鈴木町二丁目、天神町一・二丁目、大沼町一・三丁目、東村山市萩山町一・二・三丁目、栄町三丁目、廻田町二丁目、美住町一・二丁目、東大和市清水一・二丁目、西東京市向台三・四・五・六丁目、新町四・五丁目","lat":35.852839,"lon":139.412183},{"name":"(株)前原紙業  小平営業所","province":"東京都","city":"小平市","address":"小平市小川東町5-1872-3","lat":35.733185,"lon":139.470963},{"name":"狭山・境緑道","province":"東京都","city":"小平市","address":"東京都小平市花小金井南町一・二・三丁目、花小金井六丁目、鈴木町二丁目、天神町一・二丁目、大沼町一・三丁目、東村山市萩山町一・二・三丁目、栄町三丁目、廻田町二丁目、美住町一・二丁目、東大和市清水一・二丁目、西東京市向台三・四・五・六丁目、新町四・五丁目","lat":35.852839,"lon":139.412183},{"name":"(株)前原紙業  小平営業所","province":"東京都","city":"小平市","address":"小平市小川東町5-1872-3","lat":35.733185,"lon":139.470963},{"name":"狭山・境緑道","province":"東京都","city":"小平市","address":"東京都小平市花小金井南町一・二・三丁目、花小金井六丁目、鈴木町二丁目、天神町一・二丁目、大沼町一・三丁目、東村山市萩山町一・二・三丁目、栄町三丁目、廻田町二丁目、美住町一・二丁目、東大和市清水一・二丁目、西東京市向台三・四・五・六丁目、新町四・五丁目","lat":35.852839,"lon":139.412183},{"name":"(株)前原紙業  小平営業所","province":"東京都","city":"小平市","address":"小平市小川東町5-1872-3","lat":35.733185,"lon":139.470963},{"name":"狭山・境緑道","province":"東京都","city":"小平市","address":"東京都小平市花小金井南町一・二・三丁目、花小金井六丁目、鈴木町二丁目、天神町一・二丁目、大沼町一・三丁目、東村山市萩山町一・二・三丁目、栄町三丁目、廻田町二丁目、美住町一・二丁目、東大和市清水一・二丁目、西東京市向台三・四・五・六丁目、新町四・五丁目","lat":35.852839,"lon":139.412183},{"name":"(株)前原紙業  小平営業所","province":"東京都","city":"小平市","address":"小平市小川東町5-1872-3","lat":35.733185,"lon":139.470963},{"name":"狭山・境緑道","province":"東京都","city":"小平市","address":"東京都小平市花小金井南町一・二・三丁目、花小金井六丁目、鈴木町二丁目、天神町一・二丁目、大沼町一・三丁目、東村山市萩山町一・二・三丁目、栄町三丁目、廻田町二丁目、美住町一・二丁目、東大和市清水一・二丁目、西東京市向台三・四・五・六丁目、新町四・五丁目","lat":35.852839,"lon":139.412183},{"name":"(株)前原紙業  小平営業所","province":"東京都","city":"小平市","address":"小平市小川東町5-1872-3","lat":35.733185,"lon":139.470963},{"name":"狭山・境緑道","province":"東京都","city":"小平市","address":"東京都小平市花小金井南町一・二・三丁目、花小金井六丁目、鈴木町二丁目、天神町一・二丁目、大沼町一・三丁目、東村山市萩山町一・二・三丁目、栄町三丁目、廻田町二丁目、美住町一・二丁目、東大和市清水一・二丁目、西東京市向台三・四・五・六丁目、新町四・五丁目","lat":35.852839,"lon":139.412183},{"name":"(株)前原紙業  小平営業所","province":"東京都","city":"小平市","address":"小平市小川東町5-1872-3","lat":35.733185,"lon":139.470963},{"name":"狭山・境緑道","province":"東京都","city":"小平市","address":"東京都小平市花小金井南町一・二・三丁目、花小金井六丁目、鈴木町二丁目、天神町一・二丁目、大沼町一・三丁目、東村山市萩山町一・二・三丁目、栄町三丁目、廻田町二丁目、美住町一・二丁目、東大和市清水一・二丁目、西東京市向台三・四・五・六丁目、新町四・五丁目","lat":35.852839,"lon":139.412183},{"name":"(株)前原紙業  小平営業所","province":"東京都","city":"小平市","address":"小平市小川東町5-1872-3","lat":35.733185,"lon":139.470963},{"name":"狭山・境緑道","province":"東京都","city":"小平市","address":"東京都小平市花小金井南町一・二・三丁目、花小金井六丁目、鈴木町二丁目、天神町一・二丁目、大沼町一・三丁目、東村山市萩山町一・二・三丁目、栄町三丁目、廻田町二丁目、美住町一・二丁目、東大和市清水一・二丁目、西東京市向台三・四・五・六丁目、新町四・五丁目","lat":35.852839,"lon":139.412183},{"name":"(株)前原紙業  小平営業所","province":"東京都","city":"小平市","address":"小平市小川東町5-1872-3","lat":35.733185,"lon":139.470963},{"name":"狭山・境緑道","province":"東京都","city":"小平市","address":"東京都小平市花小金井南町一・二・三丁目、花小金井六丁目、鈴木町二丁目、天神町一・二丁目、大沼町一・三丁目、東村山市萩山町一・二・三丁目、栄町三丁目、廻田町二丁目、美住町一・二丁目、東大和市清水一・二丁目、西東京市向台三・四・五・六丁目、新町四・五丁目","lat":35.852839,"lon":139.412183},{"name":"(株)前原紙業  小平営業所","province":"東京都","city":"小平市","address":"小平市小川東町5-1872-3","lat":35.733185,"lon":139.470963},{"name":"狭山・境緑道","province":"東京都","city":"小平市","address":"東京都小平市花小金井南町一・二・三丁目、花小金井六丁目、鈴木町二丁目、天神町一・二丁目、大沼町一・三丁目、東村山市萩山町一・二・三丁目、栄町三丁目、廻田町二丁目、美住町一・二丁目、東大和市清水一・二丁目、西東京市向台三・四・五・六丁目、新町四・五丁目","lat":35.852839,"lon":139.412183},{"name":"(株)前原紙業  小平営業所","province":"東京都","city":"小平市","address":"小平市小川東町5-1872-3","lat":35.733185,"lon":139.470963},{"name":"狭山・境緑道","province":"東京都","city":"小平市","address":"東京都小平市花小金井南町一・二・三丁目、花小金井六丁目、鈴木町二丁目、天神町一・二丁目、大沼町一・三丁目、東村山市萩山町一・二・三丁目、栄町三丁目、廻田町二丁目、美住町一・二丁目、東大和市清水一・二丁目、西東京市向台三・四・五・六丁目、新町四・五丁目","lat":35.852839,"lon":139.412183},{"name":"(株)前原紙業  小平営業所","province":"東京都","city":"小平市","address":"小平市小川東町5-1872-3","lat":35.733185,"lon":139.470963},{"name":"狭山・境緑道","province":"東京都","city":"小平市","address":"東京都小平市花小金井南町一・二・三丁目、花小金井六丁目、鈴木町二丁目、天神町一・二丁目、大沼町一・三丁目、東村山市萩山町一・二・三丁目、栄町三丁目、廻田町二丁目、美住町一・二丁目、東大和市清水一・二丁目、西東京市向台三・四・五・六丁目、新町四・五丁目","lat":35.852839,"lon":139.412183},{"name":"(株)前原紙業  小平営業所","province":"東京都","city":"小平市","address":"小平市小川東町5-1872-3","lat":35.733185,"lon":139.470963},{"name":"狭山・境緑道","province":"東京都","city":"小平市","address":"東京都小平市花小金井南町一・二・三丁目、花小金井六丁目、鈴木町二丁目、天神町一・二丁目、大沼町一・三丁目、東村山市萩山町一・二・三丁目、栄町三丁目、廻田町二丁目、美住町一・二丁目、東大和市清水一・二丁目、西東京市向台三・四・五・六丁目、新町四・五丁目","lat":35.852839,"lon":139.412183},{"name":"(株)前原紙業  小平営業所","province":"東京都","city":"小平市","address":"小平市小川東町5-1872-3","lat":35.733185,"lon":139.470963},{"name":"狭山・境緑道","province":"東京都","city":"小平市","address":"東京都小平市花小金井南町一・二・三丁目、花小金井六丁目、鈴木町二丁目、天神町一・二丁目、大沼町一・三丁目、東村山市萩山町一・二・三丁目、栄町三丁目、廻田町二丁目、美住町一・二丁目、東大和市清水一・二丁目、西東京市向台三・四・五・六丁目、新町四・五丁目","lat":35.852839,"lon":139.412183},{"name":"(株)前原紙業  小平営業所","province":"東京都","city":"小平市","address":"小平市小川東町5-1872-3","lat":35.733185,"lon":139.470963},{"name":"狭山・境緑道","province":"東京都","city":"小平市","address":"東京都小平市花小金井南町一・二・三丁目、花小金井六丁目、鈴木町二丁目、天神町一・二丁目、大沼町一・三丁目、東村山市萩山町一・二・三丁目、栄町三丁目、廻田町二丁目、美住町一・二丁目、東大和市清水一・二丁目、西東京市向台三・四・五・六丁目、新町四・五丁目","lat":35.852839,"lon":139.412183},{"name":"(株)前原紙業  小平営業所","province":"東京都","city":"小平市","address":"小平市小川東町5-1872-3","lat":35.733185,"lon":139.470963},{"name":"狭山・境緑道","province":"東京都","city":"小平市","address":"東京都小平市花小金井南町一・二・三丁目、花小金井六丁目、鈴木町二丁目、天神町一・二丁目、大沼町一・三丁目、東村山市萩山町一・二・三丁目、栄町三丁目、廻田町二丁目、美住町一・二丁目、東大和市清水一・二丁目、西東京市向台三・四・五・六丁目、新町四・五丁目","lat":35.852839,"lon":139.412183},{"name":"(株)前原紙業  小平営業所","province":"東京都","city":"小平市","address":"小平市小川東町5-1872-3","lat":35.733185,"lon":139.470963},{"name":"狭山・境緑道","province":"東京都","city":"小平市","address":"東京都小平市花小金井南町一・二・三丁目、花小金井六丁目、鈴木町二丁目、天神町一・二丁目、大沼町一・三丁目、東村山市萩山町一・二・三丁目、栄町三丁目、廻田町二丁目、美住町一・二丁目、東大和市清水一・二丁目、西東京市向台三・四・五・六丁目、新町四・五丁目","lat":35.852839,"lon":139.412183},{"name":"(株)前原紙業  小平営業所","province":"東京都","city":"小平市","address":"小平市小川東町5-1872-3","lat":35.733185,"lon":139.470963},{"name":"狭山・境緑道","province":"東京都","city":"小平市","address":"東京都小平市花小金井南町一・二・三丁目、花小金井六丁目、鈴木町二丁目、天神町一・二丁目、大沼町一・三丁目、東村山市萩山町一・二・三丁目、栄町三丁目、廻田町二丁目、美住町一・二丁目、東大和市清水一・二丁目、西東京市向台三・四・五・六丁目、新町四・五丁目","lat":35.852839,"lon":139.412183},{"name":"(株)前原紙業  小平営業所","province":"東京都","city":"小平市","address":"小平市小川東町5-1872-3","lat":35.733185,"lon":139.470963},{"name":"狭山・境緑道","province":"東京都","city":"小平市","address":"東京都小平市花小金井南町一・二・三丁目、花小金井六丁目、鈴木町二丁目、天神町一・二丁目、大沼町一・三丁目、東村山市萩山町一・二・三丁目、栄町三丁目、廻田町二丁目、美住町一・二丁目、東大和市清水一・二丁目、西東京市向台三・四・五・六丁目、新町四・五丁目","lat":35.852839,"lon":139.412183},{"name":"(株)前原紙業  小平営業所","province":"東京都","city":"小平市","address":"小平市小川東町5-1872-3","lat":35.733185,"lon":139.470963},{"name":"狭山・境緑道","province":"東京都","city":"小平市","address":"東京都小平市花小金井南町一・二・三丁目、花小金井六丁目、鈴木町二丁目、天神町一・二丁目、大沼町一・三丁目、東村山市萩山町一・二・三丁目、栄町三丁目、廻田町二丁目、美住町一・二丁目、東大和市清水一・二丁目、西東京市向台三・四・五・六丁目、新町四・五丁目","lat":35.852839,"lon":139.412183},{"name":"(株)前原紙業  小平営業所","province":"東京都","city":"小平市","address":"小平市小川東町5-1872-3","lat":35.733185,"lon":139.470963},{"name":"狭山・境緑道","province":"東京都","city":"小平市","address":"東京都小平市花小金井南町一・二・三丁目、花小金井六丁目、鈴木町二丁目、天神町一・二丁目、大沼町一・三丁目、東村山市萩山町一・二・三丁目、栄町三丁目、廻田町二丁目、美住町一・二丁目、東大和市清水一・二丁目、西東京市向台三・四・五・六丁目、新町四・五丁目","lat":35.852839,"lon":139.412183},{"name":"(株)前原紙業  小平営業所","province":"東京都","city":"小平市","address":"小平市小川東町5-1872-3","lat":35.733185,"lon":139.470963},{"name":"狭山・境緑道","province":"東京都","city":"小平市","address":"東京都小平市花小金井南町一・二・三丁目、花小金井六丁目、鈴木町二丁目、天神町一・二丁目、大沼町一・三丁目、東村山市萩山町一・二・三丁目、栄町三丁目、廻田町二丁目、美住町一・二丁目、東大和市清水一・二丁目、西東京市向台三・四・五・六丁目、新町四・五丁目","lat":35.852839,"lon":139.412183},{"name":"(株)前原紙業  小平営業所","province":"東京都","city":"小平市","address":"小平市小川東町5-1872-3","lat":35.733185,"lon":139.470963},{"name":"狭山・境緑道","province":"東京都","city":"小平市","address":"東京都小平市花小金井南町一・二・三丁目、花小金井六丁目、鈴木町二丁目、天神町一・二丁目、大沼町一・三丁目、東村山市萩山町一・二・三丁目、栄町三丁目、廻田町二丁目、美住町一・二丁目、東大和市清水一・二丁目、西東京市向台三・四・五・六丁目、新町四・五丁目","lat":35.852839,"lon":139.412183},{"name":"(株)前原紙業  小平営業所","province":"東京都","city":"小平市","address":"小平市小川東町5-1872-3","lat":35.733185,"lon":139.470963},{"name":"狭山・境緑道","province":"東京都","city":"小平市","address":"東京都小平市花小金井南町一・二・三丁目、花小金井六丁目、鈴木町二丁目、天神町一・二丁目、大沼町一・三丁目、東村山市萩山町一・二・三丁目、栄町三丁目、廻田町二丁目、美住町一・二丁目、東大和市清水一・二丁目、西東京市向台三・四・五・六丁目、新町四・五丁目","lat":35.852839,"lon":139.412183},{"name":"(株)前原紙業  小平営業所","province":"東京都","city":"小平市","address":"小平市小川東町5-1872-3","lat":35.733185,"lon":139.470963},{"name":"狭山・境緑道","province":"東京都","city":"小平市","address":"東京都小平市花小金井南町一・二・三丁目、花小金井六丁目、鈴木町二丁目、天神町一・二丁目、大沼町一・三丁目、東村山市萩山町一・二・三丁目、栄町三丁目、廻田町二丁目、美住町一・二丁目、東大和市清水一・二丁目、西東京市向台三・四・五・六丁目、新町四・五丁目","lat":35.852839,"lon":139.412183},{"name":"(株)前原紙業  小平営業所","province":"東京都","city":"小平市","address":"小平市小川東町5-1872-3","lat":35.733185,"lon":139.470963},{"name":"狭山・境緑道","province":"東京都","city":"小平市","address":"東京都小平市花小金井南町一・二・三丁目、花小金井六丁目、鈴木町二丁目、天神町一・二丁目、大沼町一・三丁目、東村山市萩山町一・二・三丁目、栄町三丁目、廻田町二丁目、美住町一・二丁目、東大和市清水一・二丁目、西東京市向台三・四・五・六丁目、新町四・五丁目","lat":35.852839,"lon":139.412183},{"name":"(株)前原紙業  小平営業所","province":"東京都","city":"小平市","address":"小平市小川東町5-1872-3","lat":35.733185,"lon":139.470963},{"name":"狭山・境緑道","province":"東京都","city":"小平市","address":"東京都小平市花小金井南町一・二・三丁目、花小金井六丁目、鈴木町二丁目、天神町一・二丁目、大沼町一・三丁目、東村山市萩山町一・二・三丁目、栄町三丁目、廻田町二丁目、美住町一・二丁目、東大和市清水一・二丁目、西東京市向台三・四・五・六丁目、新町四・五丁目","lat":35.852839,"lon":139.412183},{"name":"(株)前原紙業  小平営業所","province":"東京都","city":"小平市","address":"小平市小川東町5-1872-3","lat":35.733185,"lon":139.470963},{"name":"狭山・境緑道","province":"東京都","city":"小平市","address":"東京都小平市花小金井南町一・二・三丁目、花小金井六丁目、鈴木町二丁目、天神町一・二丁目、大沼町一・三丁目、東村山市萩山町一・二・三丁目、栄町三丁目、廻田町二丁目、美住町一・二丁目、東大和市清水一・二丁目、西東京市向台三・四・五・六丁目、新町四・五丁目","lat":35.852839,"lon":139.412183},{"name":"(株)前原紙業  小平営業所","province":"東京都","city":"小平市","address":"小平市小川東町5-1872-3","lat":35.733185,"lon":139.470963},{"name":"狭山・境緑道","province":"東京都","city":"小平市","address":"東京都小平市花小金井南町一・二・三丁目、花小金井六丁目、鈴木町二丁目、天神町一・二丁目、大沼町一・三丁目、東村山市萩山町一・二・三丁目、栄町三丁目、廻田町二丁目、美住町一・二丁目、東大和市清水一・二丁目、西東京市向台三・四・五・六丁目、新町四・五丁目","lat":35.852839,"lon":139.412183},{"name":"(株)前原紙業  小平営業所","province":"東京都","city":"小平市","address":"小平市小川東町5-1872-3","lat":35.733185,"lon":139.470963},{"name":"狭山・境緑道","province":"東京都","city":"小平市","address":"東京都小平市花小金井南町一・二・三丁目、花小金井六丁目、鈴木町二丁目、天神町一・二丁目、大沼町一・三丁目、東村山市萩山町一・二・三丁目、栄町三丁目、廻田町二丁目、美住町一・二丁目、東大和市清水一・二丁目、西東京市向台三・四・五・六丁目、新町四・五丁目","lat":35.852839,"lon":139.412183},{"name":"(株)前原紙業  小平営業所","province":"東京都","city":"小平市","address":"小平市小川東町5-1872-3","lat":35.733185,"lon":139.470963},{"name":"狭山・境緑道","province":"東京都","city":"小平市","address":"東京都小平市花小金井南町一・二・三丁目、花小金井六丁目、鈴木町二丁目、天神町一・二丁目、大沼町一・三丁目、東村山市萩山町一・二・三丁目、栄町三丁目、廻田町二丁目、美住町一・二丁目、東大和市清水一・二丁目、西東京市向台三・四・五・六丁目、新町四・五丁目","lat":35.852839,"lon":139.412183},{"name":"(株)前原紙業  小平営業所","province":"東京都","city":"小平市","address":"小平市小川東町5-1872-3","lat":35.733185,"lon":139.470963}]}