{"keyword":"一覧","data":[{"name":"小平市立大沼図書館・公民館","province":"東京都","city":"小平市","address":"東京都小平市大沼町7丁目1-17","lat":35.73549383,"lon":139.49711482},{"name":"大沼地域センター","province":"東京都","city":"小平市","address":"東京都小平市大沼町2丁目17-33","lat":35.74152364,"lon":139.49448146},{"name":"小平市西部市民センター","province":"東京都","city":"小平市","address":"東京都小平市小川西町4丁目10-13","lat":35.73514287,"lon":139.46176801},{"name":"小川西町地域センター","province":"東京都","city":"小平市","address":"東京都小平市小川西町5丁目4-17","lat":35.73524268,"lon":139.45597407},{"name":"小川東町地域センター","province":"東京都","city":"小平市","address":"東京都小平市小川東町1805","lat":35.73520169,"lon":139.47807488},{"name":"小川東第二地域センター","province":"東京都","city":"小平市","address":"東京都小平市小川東町5丁目9-1","lat":35.73259615,"lon":139.4685564},{"name":"学園西町地域センター","province":"東京都","city":"小平市","address":"東京都小平市学園西町2丁目12-22","lat":35.72270583,"lon":139.4756423},{"name":"健康センター","province":"東京都","city":"小平市","address":"東京都小平市学園東町1丁目19-12","lat":35.72699983,"lon":139.47754474},{"name":"学園東町地域センター","province":"東京都","city":"小平市","address":"東京都小平市学園東町2丁目16-11","lat":35.72580291,"lon":139.4835387},{"name":"喜平地域センター","province":"東京都","city":"小平市","address":"東京都小平市喜平町1丁目10-9","lat":35.71612914,"lon":139.48851087},{"name":"喜平図書館","province":"東京都","city":"小平市","address":"東京都小平市喜平町3丁目3-18","lat":35.71731796,"lon":139.49086896},{"name":"小平市立小川公民館","province":"東京都","city":"小平市","address":"東京都小平市小川町1丁目1012-6","lat":35.72536062,"lon":139.45931308},{"name":"小川町一丁目地域センター","province":"東京都","city":"小平市","address":"東京都小平市小川町1丁目3045","lat":35.72933204,"lon":139.44813337},{"name":"小平市立上宿公民館","province":"東京都","city":"小平市","address":"東京都小平市小川町1丁目308","lat":35.73162888,"lon":139.44385031},{"name":"上宿図書館","province":"東京都","city":"小平市","address":"東京都小平市小川町1丁目345","lat":35.73025947,"lon":139.43915078},{"name":"小川町二丁目地域センター","province":"東京都","city":"小平市","address":"東京都小平市小川町2丁目1154","lat":35.72773834,"lon":139.46729283},{"name":"小平市中央公民館","province":"東京都","city":"小平市","address":"東京都小平市小川町2丁目1325","lat":35.72776638,"lon":139.47652812},{"name":"中央図書館","province":"東京都","city":"小平市","address":"東京都小平市小川町2丁目1325","lat":35.72776638,"lon":139.47652812},{"name":"御幸地域センター","province":"東京都","city":"小平市","address":"東京都小平市御幸町58","lat":35.71441858,"lon":139.50126542},{"name":"上水新町地域センター","province":"東京都","city":"小平市","address":"東京都小平市上水新町1丁目14-18","lat":35.72534338,"lon":139.43885382},{"name":"上水本町地域センター","province":"東京都","city":"小平市","address":"東京都小平市上水本町3丁目11-11","lat":35.71745906,"lon":139.47036797},{"name":"小平市立上水南公民館","province":"東京都","city":"小平市","address":"東京都小平市上水南町1丁目27-1","lat":35.71308768,"lon":139.48370586},{"name":"鈴木地域センター","province":"東京都","city":"小平市","address":"東京都小平市鈴木町1丁目400","lat":35.72084005,"lon":139.50078182},{"name":"小平市立鈴木公民館","province":"東京都","city":"小平市","address":"東京都小平市鈴木町2丁目772","lat":35.72158181,"lon":139.50726457},{"name":"小平市民総合体育館","province":"東京都","city":"小平市","address":"東京都小平市津田町1丁目1-1","lat":35.72261103,"lon":139.46257124},{"name":"天神地域センター","province":"東京都","city":"小平市","address":"東京都小平市天神町4丁目3-1","lat":35.72818354,"lon":139.49668741},{"name":"中島地域センター","province":"東京都","city":"小平市","address":"東京都小平市中島町26-9","lat":35.72983162,"lon":139.43429289},{"name":"なかまちテラス","province":"東京都","city":"小平市","address":"東京都小平市仲町145","lat":35.73089403,"lon":139.48487726},{"name":"小平市東部市民センター","province":"東京都","city":"小平市","address":"東京都小平市花小金井1丁目8-1","lat":35.72796735,"lon":139.51405254},{"name":"花小金井北地域センター","province":"東京都","city":"小平市","address":"東京都小平市花小金井3丁目10-1","lat":35.73451666,"lon":139.51785185},{"name":"小平市立花小金井北公民館","province":"東京都","city":"小平市","address":"東京都小平市花小金井5丁目41-3","lat":35.73433596,"lon":139.51011647},{"name":"小平市立花小金井南公民館","province":"東京都","city":"小平市","address":"東京都小平市花小金井南町2丁目12-6","lat":35.72433172,"lon":139.51603866},{"name":"花小金井南地域センター","province":"東京都","city":"小平市","address":"東京都小平市花小金井南町3丁目3-17","lat":35.72218481,"lon":139.51861356},{"name":"美園地域センター","province":"東京都","city":"小平市","address":"東京都小平市美園町1丁目19-2","lat":35.73457707,"lon":139.48949056}]}