{"keyword":"伐採","data":[{"name":"公立昭和病院","province":"東京都","city":"小平市","address":"東京都小平市花小金井8丁目1-1","lat":35.7313167,"lon":139.50336445},{"name":"丸井小金井総合グラウンド","province":"東京都","city":"小平市","address":"東京都小平市花小金井8丁目25-1","lat":35.73125838,"lon":139.50415049},{"name":"千代田区花小金井グラウンド","province":"東京都","city":"小平市","address":"東京都小平市花小金井南町3丁目2","lat":35.72044891,"lon":139.51886641},{"name":"小平市立中央公園グラウンド","province":"東京都","city":"小平市","address":"東京都小平市津田町1丁目1","lat":35.72249436,"lon":139.46201018},{"name":"公立昭和病院","province":"東京都","city":"小平市","address":"東京都小平市花小金井8丁目1-1","lat":35.7313167,"lon":139.50336445},{"name":"丸井小金井総合グラウンド","province":"東京都","city":"小平市","address":"東京都小平市花小金井8丁目25-1","lat":35.73125838,"lon":139.50415049},{"name":"千代田区花小金井グラウンド","province":"東京都","city":"小平市","address":"東京都小平市花小金井南町3丁目2","lat":35.72044891,"lon":139.51886641},{"name":"小平市立中央公園グラウンド","province":"東京都","city":"小平市","address":"東京都小平市津田町1丁目1","lat":35.72249436,"lon":139.46201018},{"name":"公立昭和病院","province":"東京都","city":"小平市","address":"東京都小平市花小金井8丁目1-1","lat":35.7313167,"lon":139.50336445},{"name":"丸井小金井総合グラウンド","province":"東京都","city":"小平市","address":"東京都小平市花小金井8丁目25-1","lat":35.73125838,"lon":139.50415049},{"name":"千代田区花小金井グラウンド","province":"東京都","city":"小平市","address":"東京都小平市花小金井南町3丁目2","lat":35.72044891,"lon":139.51886641},{"name":"小平市立中央公園グラウンド","province":"東京都","city":"小平市","address":"東京都小平市津田町1丁目1","lat":35.72249436,"lon":139.46201018},{"name":"公立昭和病院","province":"東京都","city":"小平市","address":"東京都小平市花小金井8丁目1-1","lat":35.7313167,"lon":139.50336445},{"name":"公立昭和病院","province":"東京都","city":"小平市","address":"東京都小平市花小金井8丁目1-1","lat":35.7313167,"lon":139.50336445},{"name":"公立昭和病院","province":"東京都","city":"小平市","address":"東京都小平市花小金井8丁目1-1","lat":35.7313167,"lon":139.50336445},{"name":"公立昭和病院","province":"東京都","city":"小平市","address":"東京都小平市花小金井8丁目1-1","lat":35.7313167,"lon":139.50336445},{"name":"公立昭和病院","province":"東京都","city":"小平市","address":"東京都小平市花小金井8丁目1-1","lat":35.7313167,"lon":139.50336445},{"name":"公立昭和病院","province":"東京都","city":"小平市","address":"東京都小平市花小金井8丁目1-1","lat":35.7313167,"lon":139.50336445},{"name":"公立昭和病院","province":"東京都","city":"小平市","address":"東京都小平市花小金井8丁目1-1","lat":35.7313167,"lon":139.50336445},{"name":"公立昭和病院","province":"東京都","city":"小平市","address":"東京都小平市花小金井8丁目1-1","lat":35.7313167,"lon":139.50336445},{"name":"公立昭和病院","province":"東京都","city":"小平市","address":"東京都小平市花小金井8丁目1-1","lat":35.7313167,"lon":139.50336445},{"name":"公立昭和病院","province":"東京都","city":"小平市","address":"東京都小平市花小金井8丁目1-1","lat":35.7313167,"lon":139.50336445},{"name":"公立昭和病院","province":"東京都","city":"小平市","address":"東京都小平市花小金井8丁目1-1","lat":35.7313167,"lon":139.50336445},{"name":"公立昭和病院","province":"東京都","city":"小平市","address":"東京都小平市花小金井8丁目1-1","lat":35.7313167,"lon":139.50336445},{"name":"公立昭和病院","province":"東京都","city":"小平市","address":"東京都小平市花小金井8丁目1-1","lat":35.7313167,"lon":139.50336445},{"name":"公立昭和病院","province":"東京都","city":"小平市","address":"東京都小平市花小金井8丁目1-1","lat":35.7313167,"lon":139.50336445},{"name":"公立昭和病院","province":"東京都","city":"小平市","address":"東京都小平市花小金井8丁目1-1","lat":35.7313167,"lon":139.50336445},{"name":"公立昭和病院","province":"東京都","city":"小平市","address":"東京都小平市花小金井8丁目1-1","lat":35.7313167,"lon":139.50336445},{"name":"公立昭和病院","province":"東京都","city":"小平市","address":"東京都小平市花小金井8丁目1-1","lat":35.7313167,"lon":139.50336445},{"name":"公立昭和病院","province":"東京都","city":"小平市","address":"東京都小平市花小金井8丁目1-1","lat":35.7313167,"lon":139.50336445},{"name":"公立昭和病院","province":"東京都","city":"小平市","address":"東京都小平市花小金井8丁目1-1","lat":35.7313167,"lon":139.50336445},{"name":"公立昭和病院","province":"東京都","city":"小平市","address":"東京都小平市花小金井8丁目1-1","lat":35.7313167,"lon":139.50336445},{"name":"公立昭和病院","province":"東京都","city":"小平市","address":"東京都小平市花小金井8丁目1-1","lat":35.7313167,"lon":139.50336445},{"name":"公立昭和病院","province":"東京都","city":"小平市","address":"東京都小平市花小金井8丁目1-1","lat":35.7313167,"lon":139.50336445},{"name":"公立昭和病院","province":"東京都","city":"小平市","address":"東京都小平市花小金井8丁目1-1","lat":35.7313167,"lon":139.50336445},{"name":"公立昭和病院","province":"東京都","city":"小平市","address":"東京都小平市花小金井8丁目1-1","lat":35.7313167,"lon":139.50336445},{"name":"公立昭和病院","province":"東京都","city":"小平市","address":"東京都小平市花小金井8丁目1-1","lat":35.7313167,"lon":139.50336445},{"name":"公立昭和病院","province":"東京都","city":"小平市","address":"東京都小平市花小金井8丁目1-1","lat":35.7313167,"lon":139.50336445},{"name":"公立昭和病院","province":"東京都","city":"小平市","address":"東京都小平市花小金井8丁目1-1","lat":35.7313167,"lon":139.50336445},{"name":"公立昭和病院","province":"東京都","city":"小平市","address":"東京都小平市花小金井8丁目1-1","lat":35.7313167,"lon":139.50336445},{"name":"公立昭和病院","province":"東京都","city":"小平市","address":"東京都小平市花小金井8丁目1-1","lat":35.7313167,"lon":139.50336445},{"name":"公立昭和病院","province":"東京都","city":"小平市","address":"東京都小平市花小金井8丁目1-1","lat":35.7313167,"lon":139.50336445},{"name":"公立昭和病院","province":"東京都","city":"小平市","address":"東京都小平市花小金井8丁目1-1","lat":35.7313167,"lon":139.50336445},{"name":"公立昭和病院","province":"東京都","city":"小平市","address":"東京都小平市花小金井8丁目1-1","lat":35.7313167,"lon":139.50336445}]}