{"keyword":"保育","data":[{"name":"コビープリスクールこだいら","province":"東京都","city":"小平市","address":"小平市大沼町1-3-8","lat":35.736805,"lon":139.49344},{"name":"大沼保育園","province":"東京都","city":"小平市","address":"小平市大沼町2-2-8","lat":35.739435,"lon":139.492643},{"name":"花小金井愛育園","province":"東京都","city":"小平市","address":"小平市花小金井1-26-10","lat":35.729076,"lon":139.514927},{"name":"花小金井にこにこ保育園","province":"東京都","city":"小平市","address":"小平市花小金井4-11-22","lat":35.738116,"lon":139.50843},{"name":"ココファン・ナーサリー花小金井","province":"東京都","city":"小平市","address":"小平市花小金井3-1-21-1","lat":35.734855,"lon":139.513619},{"name":"アスク花小金井保育園","province":"東京都","city":"小平市","address":"小平市花小金井6-16-3","lat":35.730345,"lon":139.508125},{"name":"花小金井保育園","province":"東京都","city":"小平市","address":"小平市花小金井5-41-3","lat":35.734336,"lon":139.510116},{"name":"このはな保育園","province":"東京都","city":"小平市","address":"小平市花小金井7-27-1","lat":35.72937,"lon":139.50555},{"name":"白梅保育園","province":"東京都","city":"小平市","address":"小平市花小金井南町2-12-5","lat":35.724551,"lon":139.515928},{"name":"ドリームキッズ花南保育園","province":"東京都","city":"小平市","address":"小平市花小金井南町1-8-10","lat":35.722746,"lon":139.512186},{"name":"小平花小金井雲母保育園","province":"東京都","city":"小平市","address":"小平市花小金井南町2-10-40","lat":35.722774,"lon":139.516641},{"name":"ひめゆり保育園","province":"東京都","city":"小平市","address":"小平市天神町2-6-1","lat":35.7336,"lon":139.49386},{"name":"てんじん保育園","province":"東京都","city":"小平市","address":"小平市天神町2-11-26","lat":35.732514,"lon":139.493818},{"name":"こぶし保育園","province":"東京都","city":"小平市","address":"小平市鈴木町1-148","lat":35.72557,"lon":139.494952},{"name":"うめのき保育園","province":"東京都","city":"小平市","address":"小平市鈴木町2-186-4","lat":35.723612,"lon":139.507276},{"name":"やさしい森保育園","province":"東京都","city":"小平市","address":"小平市鈴木町1-463-1","lat":35.722245,"lon":139.497246},{"name":"すずのき台保育園","province":"東京都","city":"小平市","address":"小平市鈴木町1-166-1","lat":35.72575,"lon":139.496668},{"name":"うれしい森保育園","province":"東京都","city":"小平市","address":"小平市鈴木町2-147-10","lat":35.724987,"lon":139.510289},{"name":"プチ・ふたば保育園","province":"東京都","city":"小平市","address":"小平市鈴木町1-344","lat":35.72327,"lon":139.502629},{"name":"上水南保育園","province":"東京都","city":"小平市","address":"小平市上水南町3-8-2","lat":35.712088,"lon":139.489144},{"name":"にじいろ保育園上水本町","province":"東京都","city":"小平市","address":"小平市上水本町4-11-9","lat":35.717154,"lon":139.476595},{"name":"よつぎ第三保育園","province":"東京都","city":"小平市","address":"小平市津田町3-25-10","lat":35.723272,"lon":139.46891},{"name":"津田保育園","province":"東京都","city":"小平市","address":"小平市津田町3-31-7","lat":35.723108,"lon":139.470137},{"name":"れんげ萩山保育園","province":"東京都","city":"小平市","address":"小平市小川東町4-3-18","lat":35.740065,"lon":139.474931},{"name":"小平にこにこ保育園","province":"東京都","city":"小平市","address":"小平市小川東町1-38-18","lat":35.741176,"lon":139.465776},{"name":"まるやま保育園","province":"東京都","city":"小平市","address":"小平市小川東町1-32-13","lat":35.739895,"lon":139.46539},{"name":"たのしい森保育園","province":"東京都","city":"小平市","address":"小平市小川町1-3004-5","lat":35.725366,"lon":139.443781},{"name":"小川保育園","province":"東京都","city":"小平市","address":"小平市小川町1-983","lat":35.72653,"lon":139.458244},{"name":"上宿保育園","province":"東京都","city":"小平市","address":"小平市小川町1-308","lat":35.731629,"lon":139.44385},{"name":"まなびの森保育園新小平","province":"東京都","city":"小平市","address":"小平市小川町2-1316-1","lat":35.72825,"lon":139.475459},{"name":"小川西保育園","province":"東京都","city":"小平市","address":"小平市小川西町5-13-22","lat":35.736723,"lon":139.458165},{"name":"美園おひさま保育園","province":"東京都","city":"小平市","address":"小平市美園町3-18-11","lat":35.739563,"lon":139.490765},{"name":"仲町保育園","province":"東京都","city":"小平市","address":"小平市仲町7","lat":35.733638,"lon":139.479253},{"name":"仲町にこにこ保育園","province":"東京都","city":"小平市","address":"小平市仲町351番地の38","lat":35.728678,"lon":139.489682},{"name":"小平なみき保育園","province":"東京都","city":"小平市","address":"小平市仲町304-1","lat":35.729908,"lon":139.491357},{"name":"ゆりのこ保育園","province":"東京都","city":"小平市","address":"小平市仲町521","lat":35.73005,"lon":139.485008},{"name":"ゆたか保育園","province":"東京都","city":"小平市","address":"小平市学園東町575-35","lat":35.727536,"lon":139.483322},{"name":"学園まるやま保育園","province":"東京都","city":"小平市","address":"小平市学園東町二丁目6番35号","lat":35.723473,"lon":139.48423},{"name":"喜平保育園","province":"東京都","city":"小平市","address":"小平市喜平町3-2-36","lat":35.719348,"lon":139.489691},{"name":"小平一橋学園雲母保育園","province":"東京都","city":"小平市","address":"小平市喜平町1-1-2","lat":35.716854,"lon":139.480759},{"name":"ふれあいの森保育園","province":"東京都","city":"小平市","address":"小平市学園西町2-9-17","lat":35.721511,"lon":139.471187},{"name":"小平学園西雲母保育園","province":"東京都","city":"小平市","address":"小平市学園西町3-27-14","lat":35.726616,"lon":139.473737}]}