{"keyword":"公民","data":[{"name":"＊?小平市立上水南公民館","province":"東京都","city":"小平市","address":"小平市上水南町1-27-1","lat":35.713091,"lon":139.483708},{"name":"＊?小平市中央公民館","province":"東京都","city":"小平市","address":"小平市小川町2-1325","lat":35.727774,"lon":139.476668},{"name":"＊?小平市立仲町公民館","province":"東京都","city":"小平市","address":"小平市仲町521","lat":35.730156,"lon":139.484916},{"name":"＊?小平市立津田公民館","province":"東京都","city":"小平市","address":"小平市津田町3-11-1","lat":35.72077,"lon":139.470078},{"name":"＊?小平市立大沼公民館","province":"東京都","city":"小平市","address":"小平市大沼町7-1-17","lat":35.735394,"lon":139.497223},{"name":"＊?小平市立小川西町公民館","province":"東京都","city":"小平市","address":"小平市小川西町4-10-13","lat":35.735126,"lon":139.461798},{"name":"＊?小平市立小川公民館","province":"東京都","city":"小平市","address":"小平市小川町1-1012","lat":35.725787,"lon":139.459263},{"name":"＊?小平市立上宿公民館","province":"東京都","city":"小平市","address":"小平市小川町1-308","lat":35.731629,"lon":139.443796},{"name":"＊?小平市立花小金井南公民館","province":"東京都","city":"小平市","address":"小平市花小金井南町2-12-6","lat":35.724354,"lon":139.516113},{"name":"＊?小平市立花小金井北公民館","province":"東京都","city":"小平市","address":"小平市花小金井5-41-3","lat":35.734251,"lon":139.510261},{"name":"＊?小平市立鈴木公民館","province":"東京都","city":"小平市","address":"小平市鈴木町2-772","lat":35.722005,"lon":139.507369}]}