{"keyword":"収蔵","data":[{"name":"上水南給水所","province":"東京都","city":"小平市","address":"東京都小平市上水南町3-12-36","lat":35.711611,"lon":139.491713},{"name":"小川給水所","province":"東京都","city":"小平市","address":"東京都小平市小川町1-847","lat":35.7256378,"lon":139.453172},{"name":"市立津田公園","province":"東京都","city":"小平市","address":"東京都小平市津田町3-39","lat":35.722887,"lon":139.470526},{"name":"公立昭和病院","province":"東京都","city":"小平市","address":"東京都小平市花小金井8丁目1-1","lat":35.7313167,"lon":139.50336445},{"name":"上水南浄水所","province":"東京都","city":"小平市","address":"東京都小平市上水南町3丁目12-36","lat":35.71160196,"lon":139.49171079},{"name":"小川浄水所","province":"東京都","city":"小平市","address":"東京都小平市小川町1丁目847","lat":35.72563541,"lon":139.45317197},{"name":"丸井小金井総合グラウンド","province":"東京都","city":"小平市","address":"東京都小平市花小金井8丁目25-1","lat":35.73125838,"lon":139.50415049},{"name":"千代田区花小金井グラウンド","province":"東京都","city":"小平市","address":"東京都小平市花小金井南町3丁目2","lat":35.72044891,"lon":139.51886641},{"name":"小平市立中央公園グラウンド","province":"東京都","city":"小平市","address":"東京都小平市津田町1丁目1","lat":35.72249436,"lon":139.46201018},{"name":"＊?小平市立上水南公民館","province":"東京都","city":"小平市","address":"小平市上水南町1-27-1","lat":35.713091,"lon":139.483708},{"name":"＊?小平市中央公民館","province":"東京都","city":"小平市","address":"小平市小川町2-1325","lat":35.727774,"lon":139.476668},{"name":"＊?小平市立仲町公民館","province":"東京都","city":"小平市","address":"小平市仲町521","lat":35.730156,"lon":139.484916},{"name":"＊?小平市立津田公民館","province":"東京都","city":"小平市","address":"小平市津田町3-11-1","lat":35.72077,"lon":139.470078},{"name":"＊?小平市立大沼公民館","province":"東京都","city":"小平市","address":"小平市大沼町7-1-17","lat":35.735394,"lon":139.497223},{"name":"＊?小平市立小川西町公民館","province":"東京都","city":"小平市","address":"小平市小川西町4-10-13","lat":35.735126,"lon":139.461798},{"name":"＊?小平市立小川公民館","province":"東京都","city":"小平市","address":"小平市小川町1-1012","lat":35.725787,"lon":139.459263},{"name":"＊?小平市立上宿公民館","province":"東京都","city":"小平市","address":"小平市小川町1-308","lat":35.731629,"lon":139.443796},{"name":"＊?小平市立花小金井南公民館","province":"東京都","city":"小平市","address":"小平市花小金井南町2-12-6","lat":35.724354,"lon":139.516113},{"name":"＊?小平市立花小金井北公民館","province":"東京都","city":"小平市","address":"小平市花小金井5-41-3","lat":35.734251,"lon":139.510261},{"name":"＊?小平市立鈴木公民館","province":"東京都","city":"小平市","address":"小平市鈴木町2-772","lat":35.722005,"lon":139.507369},{"name":"西武地区","province":"東京都","city":"小平市","address":"小平市美園町3-1-8","lat":35.73848,"lon":139.4873},{"name":"（株）日栄東海物流センター","province":"東京都","city":"小平市","address":"小平市小川東町4-6-7","lat":35.73489,"lon":139.4766},{"name":"上水南給水所","province":"東京都","city":"小平市","address":"東京都小平市上水南町3-12-36","lat":35.711611,"lon":139.491713},{"name":"小川給水所","province":"東京都","city":"小平市","address":"東京都小平市小川町1-847","lat":35.7256378,"lon":139.453172},{"name":"市立津田公園","province":"東京都","city":"小平市","address":"東京都小平市津田町3-39","lat":35.722887,"lon":139.470526},{"name":"公立昭和病院","province":"東京都","city":"小平市","address":"東京都小平市花小金井8丁目1-1","lat":35.7313167,"lon":139.50336445},{"name":"上水南浄水所","province":"東京都","city":"小平市","address":"東京都小平市上水南町3丁目12-36","lat":35.71160196,"lon":139.49171079},{"name":"小川浄水所","province":"東京都","city":"小平市","address":"東京都小平市小川町1丁目847","lat":35.72563541,"lon":139.45317197},{"name":"丸井小金井総合グラウンド","province":"東京都","city":"小平市","address":"東京都小平市花小金井8丁目25-1","lat":35.73125838,"lon":139.50415049},{"name":"千代田区花小金井グラウンド","province":"東京都","city":"小平市","address":"東京都小平市花小金井南町3丁目2","lat":35.72044891,"lon":139.51886641},{"name":"小平市立中央公園グラウンド","province":"東京都","city":"小平市","address":"東京都小平市津田町1丁目1","lat":35.72249436,"lon":139.46201018},{"name":"＊?小平市立上水南公民館","province":"東京都","city":"小平市","address":"小平市上水南町1-27-1","lat":35.713091,"lon":139.483708},{"name":"＊?小平市中央公民館","province":"東京都","city":"小平市","address":"小平市小川町2-1325","lat":35.727774,"lon":139.476668},{"name":"＊?小平市立仲町公民館","province":"東京都","city":"小平市","address":"小平市仲町521","lat":35.730156,"lon":139.484916},{"name":"＊?小平市立津田公民館","province":"東京都","city":"小平市","address":"小平市津田町3-11-1","lat":35.72077,"lon":139.470078},{"name":"＊?小平市立大沼公民館","province":"東京都","city":"小平市","address":"小平市大沼町7-1-17","lat":35.735394,"lon":139.497223},{"name":"＊?小平市立小川西町公民館","province":"東京都","city":"小平市","address":"小平市小川西町4-10-13","lat":35.735126,"lon":139.461798},{"name":"＊?小平市立小川公民館","province":"東京都","city":"小平市","address":"小平市小川町1-1012","lat":35.725787,"lon":139.459263},{"name":"＊?小平市立上宿公民館","province":"東京都","city":"小平市","address":"小平市小川町1-308","lat":35.731629,"lon":139.443796},{"name":"＊?小平市立花小金井南公民館","province":"東京都","city":"小平市","address":"小平市花小金井南町2-12-6","lat":35.724354,"lon":139.516113},{"name":"＊?小平市立花小金井北公民館","province":"東京都","city":"小平市","address":"小平市花小金井5-41-3","lat":35.734251,"lon":139.510261},{"name":"＊?小平市立鈴木公民館","province":"東京都","city":"小平市","address":"小平市鈴木町2-772","lat":35.722005,"lon":139.507369},{"name":"西武地区","province":"東京都","city":"小平市","address":"小平市美園町3-1-8","lat":35.73848,"lon":139.4873},{"name":"（株）日栄東海物流センター","province":"東京都","city":"小平市","address":"小平市小川東町4-6-7","lat":35.73489,"lon":139.4766},{"name":"上水南給水所","province":"東京都","city":"小平市","address":"東京都小平市上水南町3-12-36","lat":35.711611,"lon":139.491713},{"name":"小川給水所","province":"東京都","city":"小平市","address":"東京都小平市小川町1-847","lat":35.7256378,"lon":139.453172},{"name":"市立津田公園","province":"東京都","city":"小平市","address":"東京都小平市津田町3-39","lat":35.722887,"lon":139.470526},{"name":"公立昭和病院","province":"東京都","city":"小平市","address":"東京都小平市花小金井8丁目1-1","lat":35.7313167,"lon":139.50336445},{"name":"上水南浄水所","province":"東京都","city":"小平市","address":"東京都小平市上水南町3丁目12-36","lat":35.71160196,"lon":139.49171079},{"name":"小川浄水所","province":"東京都","city":"小平市","address":"東京都小平市小川町1丁目847","lat":35.72563541,"lon":139.45317197},{"name":"丸井小金井総合グラウンド","province":"東京都","city":"小平市","address":"東京都小平市花小金井8丁目25-1","lat":35.73125838,"lon":139.50415049},{"name":"千代田区花小金井グラウンド","province":"東京都","city":"小平市","address":"東京都小平市花小金井南町3丁目2","lat":35.72044891,"lon":139.51886641},{"name":"小平市立中央公園グラウンド","province":"東京都","city":"小平市","address":"東京都小平市津田町1丁目1","lat":35.72249436,"lon":139.46201018},{"name":"＊?小平市立上水南公民館","province":"東京都","city":"小平市","address":"小平市上水南町1-27-1","lat":35.713091,"lon":139.483708},{"name":"＊?小平市中央公民館","province":"東京都","city":"小平市","address":"小平市小川町2-1325","lat":35.727774,"lon":139.476668},{"name":"＊?小平市立仲町公民館","province":"東京都","city":"小平市","address":"小平市仲町521","lat":35.730156,"lon":139.484916},{"name":"＊?小平市立津田公民館","province":"東京都","city":"小平市","address":"小平市津田町3-11-1","lat":35.72077,"lon":139.470078},{"name":"＊?小平市立大沼公民館","province":"東京都","city":"小平市","address":"小平市大沼町7-1-17","lat":35.735394,"lon":139.497223},{"name":"＊?小平市立小川西町公民館","province":"東京都","city":"小平市","address":"小平市小川西町4-10-13","lat":35.735126,"lon":139.461798},{"name":"＊?小平市立小川公民館","province":"東京都","city":"小平市","address":"小平市小川町1-1012","lat":35.725787,"lon":139.459263},{"name":"＊?小平市立上宿公民館","province":"東京都","city":"小平市","address":"小平市小川町1-308","lat":35.731629,"lon":139.443796},{"name":"＊?小平市立花小金井南公民館","province":"東京都","city":"小平市","address":"小平市花小金井南町2-12-6","lat":35.724354,"lon":139.516113},{"name":"＊?小平市立花小金井北公民館","province":"東京都","city":"小平市","address":"小平市花小金井5-41-3","lat":35.734251,"lon":139.510261},{"name":"＊?小平市立鈴木公民館","province":"東京都","city":"小平市","address":"小平市鈴木町2-772","lat":35.722005,"lon":139.507369},{"name":"西武地区","province":"東京都","city":"小平市","address":"小平市美園町3-1-8","lat":35.73848,"lon":139.4873},{"name":"（株）日栄東海物流センター","province":"東京都","city":"小平市","address":"小平市小川東町4-6-7","lat":35.73489,"lon":139.4766},{"name":"上水南給水所","province":"東京都","city":"小平市","address":"東京都小平市上水南町3-12-36","lat":35.711611,"lon":139.491713},{"name":"小川給水所","province":"東京都","city":"小平市","address":"東京都小平市小川町1-847","lat":35.7256378,"lon":139.453172},{"name":"市立津田公園","province":"東京都","city":"小平市","address":"東京都小平市津田町3-39","lat":35.722887,"lon":139.470526},{"name":"公立昭和病院","province":"東京都","city":"小平市","address":"東京都小平市花小金井8丁目1-1","lat":35.7313167,"lon":139.50336445},{"name":"丸井小金井総合グラウンド","province":"東京都","city":"小平市","address":"東京都小平市花小金井8丁目25-1","lat":35.73125838,"lon":139.50415049},{"name":"千代田区花小金井グラウンド","province":"東京都","city":"小平市","address":"東京都小平市花小金井南町3丁目2","lat":35.72044891,"lon":139.51886641},{"name":"小平市立中央公園グラウンド","province":"東京都","city":"小平市","address":"東京都小平市津田町1丁目1","lat":35.72249436,"lon":139.46201018},{"name":"＊?小平市立上水南公民館","province":"東京都","city":"小平市","address":"小平市上水南町1-27-1","lat":35.713091,"lon":139.483708},{"name":"＊?小平市中央公民館","province":"東京都","city":"小平市","address":"小平市小川町2-1325","lat":35.727774,"lon":139.476668},{"name":"＊?小平市立仲町公民館","province":"東京都","city":"小平市","address":"小平市仲町521","lat":35.730156,"lon":139.484916},{"name":"＊?小平市立津田公民館","province":"東京都","city":"小平市","address":"小平市津田町3-11-1","lat":35.72077,"lon":139.470078},{"name":"＊?小平市立大沼公民館","province":"東京都","city":"小平市","address":"小平市大沼町7-1-17","lat":35.735394,"lon":139.497223},{"name":"＊?小平市立小川西町公民館","province":"東京都","city":"小平市","address":"小平市小川西町4-10-13","lat":35.735126,"lon":139.461798},{"name":"＊?小平市立小川公民館","province":"東京都","city":"小平市","address":"小平市小川町1-1012","lat":35.725787,"lon":139.459263},{"name":"＊?小平市立上宿公民館","province":"東京都","city":"小平市","address":"小平市小川町1-308","lat":35.731629,"lon":139.443796},{"name":"＊?小平市立花小金井南公民館","province":"東京都","city":"小平市","address":"小平市花小金井南町2-12-6","lat":35.724354,"lon":139.516113},{"name":"＊?小平市立花小金井北公民館","province":"東京都","city":"小平市","address":"小平市花小金井5-41-3","lat":35.734251,"lon":139.510261},{"name":"＊?小平市立鈴木公民館","province":"東京都","city":"小平市","address":"小平市鈴木町2-772","lat":35.722005,"lon":139.507369},{"name":"西武地区","province":"東京都","city":"小平市","address":"小平市美園町3-1-8","lat":35.73848,"lon":139.4873},{"name":"（株）日栄東海物流センター","province":"東京都","city":"小平市","address":"小平市小川東町4-6-7","lat":35.73489,"lon":139.4766},{"name":"上水南給水所","province":"東京都","city":"小平市","address":"東京都小平市上水南町3-12-36","lat":35.711611,"lon":139.491713},{"name":"小川給水所","province":"東京都","city":"小平市","address":"東京都小平市小川町1-847","lat":35.7256378,"lon":139.453172},{"name":"市立津田公園","province":"東京都","city":"小平市","address":"東京都小平市津田町3-39","lat":35.722887,"lon":139.470526},{"name":"公立昭和病院","province":"東京都","city":"小平市","address":"東京都小平市花小金井8丁目1-1","lat":35.7313167,"lon":139.50336445},{"name":"＊?小平市立上水南公民館","province":"東京都","city":"小平市","address":"小平市上水南町1-27-1","lat":35.713091,"lon":139.483708},{"name":"＊?小平市中央公民館","province":"東京都","city":"小平市","address":"小平市小川町2-1325","lat":35.727774,"lon":139.476668},{"name":"＊?小平市立仲町公民館","province":"東京都","city":"小平市","address":"小平市仲町521","lat":35.730156,"lon":139.484916},{"name":"＊?小平市立津田公民館","province":"東京都","city":"小平市","address":"小平市津田町3-11-1","lat":35.72077,"lon":139.470078},{"name":"＊?小平市立大沼公民館","province":"東京都","city":"小平市","address":"小平市大沼町7-1-17","lat":35.735394,"lon":139.497223},{"name":"＊?小平市立小川西町公民館","province":"東京都","city":"小平市","address":"小平市小川西町4-10-13","lat":35.735126,"lon":139.461798},{"name":"＊?小平市立小川公民館","province":"東京都","city":"小平市","address":"小平市小川町1-1012","lat":35.725787,"lon":139.459263},{"name":"＊?小平市立上宿公民館","province":"東京都","city":"小平市","address":"小平市小川町1-308","lat":35.731629,"lon":139.443796},{"name":"＊?小平市立花小金井南公民館","province":"東京都","city":"小平市","address":"小平市花小金井南町2-12-6","lat":35.724354,"lon":139.516113},{"name":"＊?小平市立花小金井北公民館","province":"東京都","city":"小平市","address":"小平市花小金井5-41-3","lat":35.734251,"lon":139.510261},{"name":"＊?小平市立鈴木公民館","province":"東京都","city":"小平市","address":"小平市鈴木町2-772","lat":35.722005,"lon":139.507369},{"name":"西武地区","province":"東京都","city":"小平市","address":"小平市美園町3-1-8","lat":35.73848,"lon":139.4873},{"name":"（株）日栄東海物流センター","province":"東京都","city":"小平市","address":"小平市小川東町4-6-7","lat":35.73489,"lon":139.4766},{"name":"上水南給水所","province":"東京都","city":"小平市","address":"東京都小平市上水南町3-12-36","lat":35.711611,"lon":139.491713},{"name":"小川給水所","province":"東京都","city":"小平市","address":"東京都小平市小川町1-847","lat":35.7256378,"lon":139.453172},{"name":"市立津田公園","province":"東京都","city":"小平市","address":"東京都小平市津田町3-39","lat":35.722887,"lon":139.470526},{"name":"公立昭和病院","province":"東京都","city":"小平市","address":"東京都小平市花小金井8丁目1-1","lat":35.7313167,"lon":139.50336445},{"name":"＊?小平市立上水南公民館","province":"東京都","city":"小平市","address":"小平市上水南町1-27-1","lat":35.713091,"lon":139.483708},{"name":"＊?小平市中央公民館","province":"東京都","city":"小平市","address":"小平市小川町2-1325","lat":35.727774,"lon":139.476668},{"name":"＊?小平市立仲町公民館","province":"東京都","city":"小平市","address":"小平市仲町521","lat":35.730156,"lon":139.484916},{"name":"＊?小平市立津田公民館","province":"東京都","city":"小平市","address":"小平市津田町3-11-1","lat":35.72077,"lon":139.470078},{"name":"＊?小平市立大沼公民館","province":"東京都","city":"小平市","address":"小平市大沼町7-1-17","lat":35.735394,"lon":139.497223},{"name":"＊?小平市立小川西町公民館","province":"東京都","city":"小平市","address":"小平市小川西町4-10-13","lat":35.735126,"lon":139.461798},{"name":"＊?小平市立小川公民館","province":"東京都","city":"小平市","address":"小平市小川町1-1012","lat":35.725787,"lon":139.459263},{"name":"＊?小平市立上宿公民館","province":"東京都","city":"小平市","address":"小平市小川町1-308","lat":35.731629,"lon":139.443796},{"name":"＊?小平市立花小金井南公民館","province":"東京都","city":"小平市","address":"小平市花小金井南町2-12-6","lat":35.724354,"lon":139.516113},{"name":"＊?小平市立花小金井北公民館","province":"東京都","city":"小平市","address":"小平市花小金井5-41-3","lat":35.734251,"lon":139.510261},{"name":"＊?小平市立鈴木公民館","province":"東京都","city":"小平市","address":"小平市鈴木町2-772","lat":35.722005,"lon":139.507369},{"name":"西武地区","province":"東京都","city":"小平市","address":"小平市美園町3-1-8","lat":35.73848,"lon":139.4873},{"name":"（株）日栄東海物流センター","province":"東京都","city":"小平市","address":"小平市小川東町4-6-7","lat":35.73489,"lon":139.4766},{"name":"上水南給水所","province":"東京都","city":"小平市","address":"東京都小平市上水南町3-12-36","lat":35.711611,"lon":139.491713},{"name":"小川給水所","province":"東京都","city":"小平市","address":"東京都小平市小川町1-847","lat":35.7256378,"lon":139.453172},{"name":"市立津田公園","province":"東京都","city":"小平市","address":"東京都小平市津田町3-39","lat":35.722887,"lon":139.470526},{"name":"公立昭和病院","province":"東京都","city":"小平市","address":"東京都小平市花小金井8丁目1-1","lat":35.7313167,"lon":139.50336445},{"name":"＊?小平市立上水南公民館","province":"東京都","city":"小平市","address":"小平市上水南町1-27-1","lat":35.713091,"lon":139.483708},{"name":"＊?小平市中央公民館","province":"東京都","city":"小平市","address":"小平市小川町2-1325","lat":35.727774,"lon":139.476668},{"name":"＊?小平市立仲町公民館","province":"東京都","city":"小平市","address":"小平市仲町521","lat":35.730156,"lon":139.484916},{"name":"＊?小平市立津田公民館","province":"東京都","city":"小平市","address":"小平市津田町3-11-1","lat":35.72077,"lon":139.470078},{"name":"＊?小平市立大沼公民館","province":"東京都","city":"小平市","address":"小平市大沼町7-1-17","lat":35.735394,"lon":139.497223},{"name":"＊?小平市立小川西町公民館","province":"東京都","city":"小平市","address":"小平市小川西町4-10-13","lat":35.735126,"lon":139.461798},{"name":"＊?小平市立小川公民館","province":"東京都","city":"小平市","address":"小平市小川町1-1012","lat":35.725787,"lon":139.459263},{"name":"＊?小平市立上宿公民館","province":"東京都","city":"小平市","address":"小平市小川町1-308","lat":35.731629,"lon":139.443796},{"name":"＊?小平市立花小金井南公民館","province":"東京都","city":"小平市","address":"小平市花小金井南町2-12-6","lat":35.724354,"lon":139.516113},{"name":"＊?小平市立花小金井北公民館","province":"東京都","city":"小平市","address":"小平市花小金井5-41-3","lat":35.734251,"lon":139.510261},{"name":"＊?小平市立鈴木公民館","province":"東京都","city":"小平市","address":"小平市鈴木町2-772","lat":35.722005,"lon":139.507369},{"name":"西武地区","province":"東京都","city":"小平市","address":"小平市美園町3-1-8","lat":35.73848,"lon":139.4873},{"name":"（株）日栄東海物流センター","province":"東京都","city":"小平市","address":"小平市小川東町4-6-7","lat":35.73489,"lon":139.4766},{"name":"上水南給水所","province":"東京都","city":"小平市","address":"東京都小平市上水南町3-12-36","lat":35.711611,"lon":139.491713},{"name":"小川給水所","province":"東京都","city":"小平市","address":"東京都小平市小川町1-847","lat":35.7256378,"lon":139.453172},{"name":"市立津田公園","province":"東京都","city":"小平市","address":"東京都小平市津田町3-39","lat":35.722887,"lon":139.470526},{"name":"公立昭和病院","province":"東京都","city":"小平市","address":"東京都小平市花小金井8丁目1-1","lat":35.7313167,"lon":139.50336445},{"name":"＊?小平市立上水南公民館","province":"東京都","city":"小平市","address":"小平市上水南町1-27-1","lat":35.713091,"lon":139.483708},{"name":"＊?小平市中央公民館","province":"東京都","city":"小平市","address":"小平市小川町2-1325","lat":35.727774,"lon":139.476668},{"name":"＊?小平市立仲町公民館","province":"東京都","city":"小平市","address":"小平市仲町521","lat":35.730156,"lon":139.484916},{"name":"＊?小平市立津田公民館","province":"東京都","city":"小平市","address":"小平市津田町3-11-1","lat":35.72077,"lon":139.470078},{"name":"＊?小平市立大沼公民館","province":"東京都","city":"小平市","address":"小平市大沼町7-1-17","lat":35.735394,"lon":139.497223},{"name":"＊?小平市立小川西町公民館","province":"東京都","city":"小平市","address":"小平市小川西町4-10-13","lat":35.735126,"lon":139.461798},{"name":"＊?小平市立小川公民館","province":"東京都","city":"小平市","address":"小平市小川町1-1012","lat":35.725787,"lon":139.459263},{"name":"＊?小平市立上宿公民館","province":"東京都","city":"小平市","address":"小平市小川町1-308","lat":35.731629,"lon":139.443796},{"name":"＊?小平市立花小金井南公民館","province":"東京都","city":"小平市","address":"小平市花小金井南町2-12-6","lat":35.724354,"lon":139.516113},{"name":"＊?小平市立花小金井北公民館","province":"東京都","city":"小平市","address":"小平市花小金井5-41-3","lat":35.734251,"lon":139.510261},{"name":"＊?小平市立鈴木公民館","province":"東京都","city":"小平市","address":"小平市鈴木町2-772","lat":35.722005,"lon":139.507369},{"name":"西武地区","province":"東京都","city":"小平市","address":"小平市美園町3-1-8","lat":35.73848,"lon":139.4873},{"name":"（株）日栄東海物流センター","province":"東京都","city":"小平市","address":"小平市小川東町4-6-7","lat":35.73489,"lon":139.4766},{"name":"上水南給水所","province":"東京都","city":"小平市","address":"東京都小平市上水南町3-12-36","lat":35.711611,"lon":139.491713},{"name":"小川給水所","province":"東京都","city":"小平市","address":"東京都小平市小川町1-847","lat":35.7256378,"lon":139.453172},{"name":"市立津田公園","province":"東京都","city":"小平市","address":"東京都小平市津田町3-39","lat":35.722887,"lon":139.470526},{"name":"公立昭和病院","province":"東京都","city":"小平市","address":"東京都小平市花小金井8丁目1-1","lat":35.7313167,"lon":139.50336445},{"name":"＊?小平市立上水南公民館","province":"東京都","city":"小平市","address":"小平市上水南町1-27-1","lat":35.713091,"lon":139.483708},{"name":"＊?小平市中央公民館","province":"東京都","city":"小平市","address":"小平市小川町2-1325","lat":35.727774,"lon":139.476668},{"name":"＊?小平市立仲町公民館","province":"東京都","city":"小平市","address":"小平市仲町521","lat":35.730156,"lon":139.484916},{"name":"＊?小平市立津田公民館","province":"東京都","city":"小平市","address":"小平市津田町3-11-1","lat":35.72077,"lon":139.470078},{"name":"＊?小平市立大沼公民館","province":"東京都","city":"小平市","address":"小平市大沼町7-1-17","lat":35.735394,"lon":139.497223},{"name":"＊?小平市立小川西町公民館","province":"東京都","city":"小平市","address":"小平市小川西町4-10-13","lat":35.735126,"lon":139.461798},{"name":"＊?小平市立小川公民館","province":"東京都","city":"小平市","address":"小平市小川町1-1012","lat":35.725787,"lon":139.459263},{"name":"＊?小平市立上宿公民館","province":"東京都","city":"小平市","address":"小平市小川町1-308","lat":35.731629,"lon":139.443796},{"name":"＊?小平市立花小金井南公民館","province":"東京都","city":"小平市","address":"小平市花小金井南町2-12-6","lat":35.724354,"lon":139.516113},{"name":"＊?小平市立花小金井北公民館","province":"東京都","city":"小平市","address":"小平市花小金井5-41-3","lat":35.734251,"lon":139.510261},{"name":"＊?小平市立鈴木公民館","province":"東京都","city":"小平市","address":"小平市鈴木町2-772","lat":35.722005,"lon":139.507369},{"name":"西武地区","province":"東京都","city":"小平市","address":"小平市美園町3-1-8","lat":35.73848,"lon":139.4873},{"name":"（株）日栄東海物流センター","province":"東京都","city":"小平市","address":"小平市小川東町4-6-7","lat":35.73489,"lon":139.4766},{"name":"上水南給水所","province":"東京都","city":"小平市","address":"東京都小平市上水南町3-12-36","lat":35.711611,"lon":139.491713},{"name":"小川給水所","province":"東京都","city":"小平市","address":"東京都小平市小川町1-847","lat":35.7256378,"lon":139.453172},{"name":"市立津田公園","province":"東京都","city":"小平市","address":"東京都小平市津田町3-39","lat":35.722887,"lon":139.470526},{"name":"公立昭和病院","province":"東京都","city":"小平市","address":"東京都小平市花小金井8丁目1-1","lat":35.7313167,"lon":139.50336445},{"name":"＊?小平市立上水南公民館","province":"東京都","city":"小平市","address":"小平市上水南町1-27-1","lat":35.713091,"lon":139.483708},{"name":"＊?小平市中央公民館","province":"東京都","city":"小平市","address":"小平市小川町2-1325","lat":35.727774,"lon":139.476668},{"name":"＊?小平市立仲町公民館","province":"東京都","city":"小平市","address":"小平市仲町521","lat":35.730156,"lon":139.484916},{"name":"＊?小平市立津田公民館","province":"東京都","city":"小平市","address":"小平市津田町3-11-1","lat":35.72077,"lon":139.470078},{"name":"＊?小平市立大沼公民館","province":"東京都","city":"小平市","address":"小平市大沼町7-1-17","lat":35.735394,"lon":139.497223},{"name":"＊?小平市立小川西町公民館","province":"東京都","city":"小平市","address":"小平市小川西町4-10-13","lat":35.735126,"lon":139.461798},{"name":"＊?小平市立小川公民館","province":"東京都","city":"小平市","address":"小平市小川町1-1012","lat":35.725787,"lon":139.459263},{"name":"＊?小平市立上宿公民館","province":"東京都","city":"小平市","address":"小平市小川町1-308","lat":35.731629,"lon":139.443796},{"name":"＊?小平市立花小金井南公民館","province":"東京都","city":"小平市","address":"小平市花小金井南町2-12-6","lat":35.724354,"lon":139.516113},{"name":"＊?小平市立花小金井北公民館","province":"東京都","city":"小平市","address":"小平市花小金井5-41-3","lat":35.734251,"lon":139.510261},{"name":"＊?小平市立鈴木公民館","province":"東京都","city":"小平市","address":"小平市鈴木町2-772","lat":35.722005,"lon":139.507369},{"name":"西武地区","province":"東京都","city":"小平市","address":"小平市美園町3-1-8","lat":35.73848,"lon":139.4873},{"name":"（株）日栄東海物流センター","province":"東京都","city":"小平市","address":"小平市小川東町4-6-7","lat":35.73489,"lon":139.4766},{"name":"上水南給水所","province":"東京都","city":"小平市","address":"東京都小平市上水南町3-12-36","lat":35.711611,"lon":139.491713},{"name":"小川給水所","province":"東京都","city":"小平市","address":"東京都小平市小川町1-847","lat":35.7256378,"lon":139.453172},{"name":"市立津田公園","province":"東京都","city":"小平市","address":"東京都小平市津田町3-39","lat":35.722887,"lon":139.470526},{"name":"＊?小平市立上水南公民館","province":"東京都","city":"小平市","address":"小平市上水南町1-27-1","lat":35.713091,"lon":139.483708},{"name":"＊?小平市中央公民館","province":"東京都","city":"小平市","address":"小平市小川町2-1325","lat":35.727774,"lon":139.476668},{"name":"＊?小平市立仲町公民館","province":"東京都","city":"小平市","address":"小平市仲町521","lat":35.730156,"lon":139.484916},{"name":"＊?小平市立津田公民館","province":"東京都","city":"小平市","address":"小平市津田町3-11-1","lat":35.72077,"lon":139.470078},{"name":"＊?小平市立大沼公民館","province":"東京都","city":"小平市","address":"小平市大沼町7-1-17","lat":35.735394,"lon":139.497223},{"name":"＊?小平市立小川西町公民館","province":"東京都","city":"小平市","address":"小平市小川西町4-10-13","lat":35.735126,"lon":139.461798},{"name":"＊?小平市立小川公民館","province":"東京都","city":"小平市","address":"小平市小川町1-1012","lat":35.725787,"lon":139.459263},{"name":"＊?小平市立上宿公民館","province":"東京都","city":"小平市","address":"小平市小川町1-308","lat":35.731629,"lon":139.443796},{"name":"＊?小平市立花小金井南公民館","province":"東京都","city":"小平市","address":"小平市花小金井南町2-12-6","lat":35.724354,"lon":139.516113},{"name":"＊?小平市立花小金井北公民館","province":"東京都","city":"小平市","address":"小平市花小金井5-41-3","lat":35.734251,"lon":139.510261},{"name":"＊?小平市立鈴木公民館","province":"東京都","city":"小平市","address":"小平市鈴木町2-772","lat":35.722005,"lon":139.507369},{"name":"西武地区","province":"東京都","city":"小平市","address":"小平市美園町3-1-8","lat":35.73848,"lon":139.4873},{"name":"（株）日栄東海物流センター","province":"東京都","city":"小平市","address":"小平市小川東町4-6-7","lat":35.73489,"lon":139.4766},{"name":"上水南給水所","province":"東京都","city":"小平市","address":"東京都小平市上水南町3-12-36","lat":35.711611,"lon":139.491713},{"name":"小川給水所","province":"東京都","city":"小平市","address":"東京都小平市小川町1-847","lat":35.7256378,"lon":139.453172},{"name":"市立津田公園","province":"東京都","city":"小平市","address":"東京都小平市津田町3-39","lat":35.722887,"lon":139.470526},{"name":"＊?小平市立上水南公民館","province":"東京都","city":"小平市","address":"小平市上水南町1-27-1","lat":35.713091,"lon":139.483708},{"name":"＊?小平市中央公民館","province":"東京都","city":"小平市","address":"小平市小川町2-1325","lat":35.727774,"lon":139.476668},{"name":"＊?小平市立仲町公民館","province":"東京都","city":"小平市","address":"小平市仲町521","lat":35.730156,"lon":139.484916},{"name":"＊?小平市立津田公民館","province":"東京都","city":"小平市","address":"小平市津田町3-11-1","lat":35.72077,"lon":139.470078},{"name":"＊?小平市立大沼公民館","province":"東京都","city":"小平市","address":"小平市大沼町7-1-17","lat":35.735394,"lon":139.497223},{"name":"＊?小平市立小川西町公民館","province":"東京都","city":"小平市","address":"小平市小川西町4-10-13","lat":35.735126,"lon":139.461798},{"name":"＊?小平市立小川公民館","province":"東京都","city":"小平市","address":"小平市小川町1-1012","lat":35.725787,"lon":139.459263},{"name":"＊?小平市立上宿公民館","province":"東京都","city":"小平市","address":"小平市小川町1-308","lat":35.731629,"lon":139.443796},{"name":"＊?小平市立花小金井南公民館","province":"東京都","city":"小平市","address":"小平市花小金井南町2-12-6","lat":35.724354,"lon":139.516113},{"name":"＊?小平市立花小金井北公民館","province":"東京都","city":"小平市","address":"小平市花小金井5-41-3","lat":35.734251,"lon":139.510261},{"name":"＊?小平市立鈴木公民館","province":"東京都","city":"小平市","address":"小平市鈴木町2-772","lat":35.722005,"lon":139.507369},{"name":"西武地区","province":"東京都","city":"小平市","address":"小平市美園町3-1-8","lat":35.73848,"lon":139.4873},{"name":"（株）日栄東海物流センター","province":"東京都","city":"小平市","address":"小平市小川東町4-6-7","lat":35.73489,"lon":139.4766},{"name":"上水南給水所","province":"東京都","city":"小平市","address":"東京都小平市上水南町3-12-36","lat":35.711611,"lon":139.491713},{"name":"小川給水所","province":"東京都","city":"小平市","address":"東京都小平市小川町1-847","lat":35.7256378,"lon":139.453172},{"name":"市立津田公園","province":"東京都","city":"小平市","address":"東京都小平市津田町3-39","lat":35.722887,"lon":139.470526},{"name":"＊?小平市立上水南公民館","province":"東京都","city":"小平市","address":"小平市上水南町1-27-1","lat":35.713091,"lon":139.483708},{"name":"＊?小平市中央公民館","province":"東京都","city":"小平市","address":"小平市小川町2-1325","lat":35.727774,"lon":139.476668},{"name":"＊?小平市立仲町公民館","province":"東京都","city":"小平市","address":"小平市仲町521","lat":35.730156,"lon":139.484916},{"name":"＊?小平市立津田公民館","province":"東京都","city":"小平市","address":"小平市津田町3-11-1","lat":35.72077,"lon":139.470078},{"name":"＊?小平市立大沼公民館","province":"東京都","city":"小平市","address":"小平市大沼町7-1-17","lat":35.735394,"lon":139.497223},{"name":"＊?小平市立小川西町公民館","province":"東京都","city":"小平市","address":"小平市小川西町4-10-13","lat":35.735126,"lon":139.461798},{"name":"＊?小平市立小川公民館","province":"東京都","city":"小平市","address":"小平市小川町1-1012","lat":35.725787,"lon":139.459263},{"name":"＊?小平市立上宿公民館","province":"東京都","city":"小平市","address":"小平市小川町1-308","lat":35.731629,"lon":139.443796},{"name":"＊?小平市立花小金井南公民館","province":"東京都","city":"小平市","address":"小平市花小金井南町2-12-6","lat":35.724354,"lon":139.516113},{"name":"＊?小平市立花小金井北公民館","province":"東京都","city":"小平市","address":"小平市花小金井5-41-3","lat":35.734251,"lon":139.510261},{"name":"＊?小平市立鈴木公民館","province":"東京都","city":"小平市","address":"小平市鈴木町2-772","lat":35.722005,"lon":139.507369},{"name":"西武地区","province":"東京都","city":"小平市","address":"小平市美園町3-1-8","lat":35.73848,"lon":139.4873},{"name":"（株）日栄東海物流センター","province":"東京都","city":"小平市","address":"小平市小川東町4-6-7","lat":35.73489,"lon":139.4766},{"name":"上水南給水所","province":"東京都","city":"小平市","address":"東京都小平市上水南町3-12-36","lat":35.711611,"lon":139.491713},{"name":"小川給水所","province":"東京都","city":"小平市","address":"東京都小平市小川町1-847","lat":35.7256378,"lon":139.453172},{"name":"市立津田公園","province":"東京都","city":"小平市","address":"東京都小平市津田町3-39","lat":35.722887,"lon":139.470526},{"name":"＊?小平市立上水南公民館","province":"東京都","city":"小平市","address":"小平市上水南町1-27-1","lat":35.713091,"lon":139.483708},{"name":"＊?小平市中央公民館","province":"東京都","city":"小平市","address":"小平市小川町2-1325","lat":35.727774,"lon":139.476668},{"name":"＊?小平市立仲町公民館","province":"東京都","city":"小平市","address":"小平市仲町521","lat":35.730156,"lon":139.484916},{"name":"＊?小平市立津田公民館","province":"東京都","city":"小平市","address":"小平市津田町3-11-1","lat":35.72077,"lon":139.470078},{"name":"＊?小平市立大沼公民館","province":"東京都","city":"小平市","address":"小平市大沼町7-1-17","lat":35.735394,"lon":139.497223},{"name":"＊?小平市立小川西町公民館","province":"東京都","city":"小平市","address":"小平市小川西町4-10-13","lat":35.735126,"lon":139.461798},{"name":"＊?小平市立小川公民館","province":"東京都","city":"小平市","address":"小平市小川町1-1012","lat":35.725787,"lon":139.459263},{"name":"＊?小平市立上宿公民館","province":"東京都","city":"小平市","address":"小平市小川町1-308","lat":35.731629,"lon":139.443796},{"name":"＊?小平市立花小金井南公民館","province":"東京都","city":"小平市","address":"小平市花小金井南町2-12-6","lat":35.724354,"lon":139.516113},{"name":"＊?小平市立花小金井北公民館","province":"東京都","city":"小平市","address":"小平市花小金井5-41-3","lat":35.734251,"lon":139.510261},{"name":"＊?小平市立鈴木公民館","province":"東京都","city":"小平市","address":"小平市鈴木町2-772","lat":35.722005,"lon":139.507369},{"name":"西武地区","province":"東京都","city":"小平市","address":"小平市美園町3-1-8","lat":35.73848,"lon":139.4873},{"name":"（株）日栄東海物流センター","province":"東京都","city":"小平市","address":"小平市小川東町4-6-7","lat":35.73489,"lon":139.4766},{"name":"上水南給水所","province":"東京都","city":"小平市","address":"東京都小平市上水南町3-12-36","lat":35.711611,"lon":139.491713},{"name":"小川給水所","province":"東京都","city":"小平市","address":"東京都小平市小川町1-847","lat":35.7256378,"lon":139.453172},{"name":"市立津田公園","province":"東京都","city":"小平市","address":"東京都小平市津田町3-39","lat":35.722887,"lon":139.470526},{"name":"＊?小平市立上水南公民館","province":"東京都","city":"小平市","address":"小平市上水南町1-27-1","lat":35.713091,"lon":139.483708},{"name":"＊?小平市中央公民館","province":"東京都","city":"小平市","address":"小平市小川町2-1325","lat":35.727774,"lon":139.476668},{"name":"＊?小平市立仲町公民館","province":"東京都","city":"小平市","address":"小平市仲町521","lat":35.730156,"lon":139.484916},{"name":"＊?小平市立津田公民館","province":"東京都","city":"小平市","address":"小平市津田町3-11-1","lat":35.72077,"lon":139.470078},{"name":"＊?小平市立大沼公民館","province":"東京都","city":"小平市","address":"小平市大沼町7-1-17","lat":35.735394,"lon":139.497223},{"name":"＊?小平市立小川西町公民館","province":"東京都","city":"小平市","address":"小平市小川西町4-10-13","lat":35.735126,"lon":139.461798},{"name":"＊?小平市立小川公民館","province":"東京都","city":"小平市","address":"小平市小川町1-1012","lat":35.725787,"lon":139.459263},{"name":"＊?小平市立上宿公民館","province":"東京都","city":"小平市","address":"小平市小川町1-308","lat":35.731629,"lon":139.443796},{"name":"＊?小平市立花小金井南公民館","province":"東京都","city":"小平市","address":"小平市花小金井南町2-12-6","lat":35.724354,"lon":139.516113},{"name":"＊?小平市立花小金井北公民館","province":"東京都","city":"小平市","address":"小平市花小金井5-41-3","lat":35.734251,"lon":139.510261},{"name":"＊?小平市立鈴木公民館","province":"東京都","city":"小平市","address":"小平市鈴木町2-772","lat":35.722005,"lon":139.507369},{"name":"西武地区","province":"東京都","city":"小平市","address":"小平市美園町3-1-8","lat":35.73848,"lon":139.4873},{"name":"（株）日栄東海物流センター","province":"東京都","city":"小平市","address":"小平市小川東町4-6-7","lat":35.73489,"lon":139.4766},{"name":"上水南給水所","province":"東京都","city":"小平市","address":"東京都小平市上水南町3-12-36","lat":35.711611,"lon":139.491713},{"name":"小川給水所","province":"東京都","city":"小平市","address":"東京都小平市小川町1-847","lat":35.7256378,"lon":139.453172},{"name":"市立津田公園","province":"東京都","city":"小平市","address":"東京都小平市津田町3-39","lat":35.722887,"lon":139.470526},{"name":"＊?小平市立上水南公民館","province":"東京都","city":"小平市","address":"小平市上水南町1-27-1","lat":35.713091,"lon":139.483708},{"name":"＊?小平市中央公民館","province":"東京都","city":"小平市","address":"小平市小川町2-1325","lat":35.727774,"lon":139.476668},{"name":"＊?小平市立仲町公民館","province":"東京都","city":"小平市","address":"小平市仲町521","lat":35.730156,"lon":139.484916},{"name":"＊?小平市立津田公民館","province":"東京都","city":"小平市","address":"小平市津田町3-11-1","lat":35.72077,"lon":139.470078},{"name":"＊?小平市立大沼公民館","province":"東京都","city":"小平市","address":"小平市大沼町7-1-17","lat":35.735394,"lon":139.497223},{"name":"＊?小平市立小川西町公民館","province":"東京都","city":"小平市","address":"小平市小川西町4-10-13","lat":35.735126,"lon":139.461798},{"name":"＊?小平市立小川公民館","province":"東京都","city":"小平市","address":"小平市小川町1-1012","lat":35.725787,"lon":139.459263},{"name":"＊?小平市立上宿公民館","province":"東京都","city":"小平市","address":"小平市小川町1-308","lat":35.731629,"lon":139.443796},{"name":"＊?小平市立花小金井南公民館","province":"東京都","city":"小平市","address":"小平市花小金井南町2-12-6","lat":35.724354,"lon":139.516113},{"name":"＊?小平市立花小金井北公民館","province":"東京都","city":"小平市","address":"小平市花小金井5-41-3","lat":35.734251,"lon":139.510261},{"name":"＊?小平市立鈴木公民館","province":"東京都","city":"小平市","address":"小平市鈴木町2-772","lat":35.722005,"lon":139.507369},{"name":"西武地区","province":"東京都","city":"小平市","address":"小平市美園町3-1-8","lat":35.73848,"lon":139.4873},{"name":"（株）日栄東海物流センター","province":"東京都","city":"小平市","address":"小平市小川東町4-6-7","lat":35.73489,"lon":139.4766},{"name":"上水南給水所","province":"東京都","city":"小平市","address":"東京都小平市上水南町3-12-36","lat":35.711611,"lon":139.491713},{"name":"小川給水所","province":"東京都","city":"小平市","address":"東京都小平市小川町1-847","lat":35.7256378,"lon":139.453172},{"name":"市立津田公園","province":"東京都","city":"小平市","address":"東京都小平市津田町3-39","lat":35.722887,"lon":139.470526},{"name":"＊?小平市立上水南公民館","province":"東京都","city":"小平市","address":"小平市上水南町1-27-1","lat":35.713091,"lon":139.483708},{"name":"＊?小平市中央公民館","province":"東京都","city":"小平市","address":"小平市小川町2-1325","lat":35.727774,"lon":139.476668},{"name":"＊?小平市立仲町公民館","province":"東京都","city":"小平市","address":"小平市仲町521","lat":35.730156,"lon":139.484916},{"name":"＊?小平市立津田公民館","province":"東京都","city":"小平市","address":"小平市津田町3-11-1","lat":35.72077,"lon":139.470078},{"name":"＊?小平市立大沼公民館","province":"東京都","city":"小平市","address":"小平市大沼町7-1-17","lat":35.735394,"lon":139.497223},{"name":"＊?小平市立小川西町公民館","province":"東京都","city":"小平市","address":"小平市小川西町4-10-13","lat":35.735126,"lon":139.461798},{"name":"＊?小平市立小川公民館","province":"東京都","city":"小平市","address":"小平市小川町1-1012","lat":35.725787,"lon":139.459263},{"name":"＊?小平市立上宿公民館","province":"東京都","city":"小平市","address":"小平市小川町1-308","lat":35.731629,"lon":139.443796},{"name":"＊?小平市立花小金井南公民館","province":"東京都","city":"小平市","address":"小平市花小金井南町2-12-6","lat":35.724354,"lon":139.516113},{"name":"＊?小平市立花小金井北公民館","province":"東京都","city":"小平市","address":"小平市花小金井5-41-3","lat":35.734251,"lon":139.510261},{"name":"＊?小平市立鈴木公民館","province":"東京都","city":"小平市","address":"小平市鈴木町2-772","lat":35.722005,"lon":139.507369},{"name":"西武地区","province":"東京都","city":"小平市","address":"小平市美園町3-1-8","lat":35.73848,"lon":139.4873},{"name":"（株）日栄東海物流センター","province":"東京都","city":"小平市","address":"小平市小川東町4-6-7","lat":35.73489,"lon":139.4766},{"name":"上水南給水所","province":"東京都","city":"小平市","address":"東京都小平市上水南町3-12-36","lat":35.711611,"lon":139.491713},{"name":"小川給水所","province":"東京都","city":"小平市","address":"東京都小平市小川町1-847","lat":35.7256378,"lon":139.453172},{"name":"市立津田公園","province":"東京都","city":"小平市","address":"東京都小平市津田町3-39","lat":35.722887,"lon":139.470526},{"name":"＊?小平市立上水南公民館","province":"東京都","city":"小平市","address":"小平市上水南町1-27-1","lat":35.713091,"lon":139.483708},{"name":"＊?小平市中央公民館","province":"東京都","city":"小平市","address":"小平市小川町2-1325","lat":35.727774,"lon":139.476668},{"name":"＊?小平市立仲町公民館","province":"東京都","city":"小平市","address":"小平市仲町521","lat":35.730156,"lon":139.484916},{"name":"＊?小平市立津田公民館","province":"東京都","city":"小平市","address":"小平市津田町3-11-1","lat":35.72077,"lon":139.470078},{"name":"＊?小平市立大沼公民館","province":"東京都","city":"小平市","address":"小平市大沼町7-1-17","lat":35.735394,"lon":139.497223},{"name":"＊?小平市立小川西町公民館","province":"東京都","city":"小平市","address":"小平市小川西町4-10-13","lat":35.735126,"lon":139.461798},{"name":"＊?小平市立小川公民館","province":"東京都","city":"小平市","address":"小平市小川町1-1012","lat":35.725787,"lon":139.459263},{"name":"＊?小平市立上宿公民館","province":"東京都","city":"小平市","address":"小平市小川町1-308","lat":35.731629,"lon":139.443796},{"name":"＊?小平市立花小金井南公民館","province":"東京都","city":"小平市","address":"小平市花小金井南町2-12-6","lat":35.724354,"lon":139.516113},{"name":"＊?小平市立花小金井北公民館","province":"東京都","city":"小平市","address":"小平市花小金井5-41-3","lat":35.734251,"lon":139.510261},{"name":"＊?小平市立鈴木公民館","province":"東京都","city":"小平市","address":"小平市鈴木町2-772","lat":35.722005,"lon":139.507369},{"name":"西武地区","province":"東京都","city":"小平市","address":"小平市美園町3-1-8","lat":35.73848,"lon":139.4873},{"name":"（株）日栄東海物流センター","province":"東京都","city":"小平市","address":"小平市小川東町4-6-7","lat":35.73489,"lon":139.4766},{"name":"上水南給水所","province":"東京都","city":"小平市","address":"東京都小平市上水南町3-12-36","lat":35.711611,"lon":139.491713},{"name":"小川給水所","province":"東京都","city":"小平市","address":"東京都小平市小川町1-847","lat":35.7256378,"lon":139.453172},{"name":"市立津田公園","province":"東京都","city":"小平市","address":"東京都小平市津田町3-39","lat":35.722887,"lon":139.470526},{"name":"＊?小平市立上水南公民館","province":"東京都","city":"小平市","address":"小平市上水南町1-27-1","lat":35.713091,"lon":139.483708},{"name":"＊?小平市中央公民館","province":"東京都","city":"小平市","address":"小平市小川町2-1325","lat":35.727774,"lon":139.476668},{"name":"＊?小平市立仲町公民館","province":"東京都","city":"小平市","address":"小平市仲町521","lat":35.730156,"lon":139.484916},{"name":"＊?小平市立津田公民館","province":"東京都","city":"小平市","address":"小平市津田町3-11-1","lat":35.72077,"lon":139.470078},{"name":"＊?小平市立大沼公民館","province":"東京都","city":"小平市","address":"小平市大沼町7-1-17","lat":35.735394,"lon":139.497223},{"name":"＊?小平市立小川西町公民館","province":"東京都","city":"小平市","address":"小平市小川西町4-10-13","lat":35.735126,"lon":139.461798},{"name":"＊?小平市立小川公民館","province":"東京都","city":"小平市","address":"小平市小川町1-1012","lat":35.725787,"lon":139.459263},{"name":"＊?小平市立上宿公民館","province":"東京都","city":"小平市","address":"小平市小川町1-308","lat":35.731629,"lon":139.443796},{"name":"＊?小平市立花小金井南公民館","province":"東京都","city":"小平市","address":"小平市花小金井南町2-12-6","lat":35.724354,"lon":139.516113},{"name":"＊?小平市立花小金井北公民館","province":"東京都","city":"小平市","address":"小平市花小金井5-41-3","lat":35.734251,"lon":139.510261},{"name":"＊?小平市立鈴木公民館","province":"東京都","city":"小平市","address":"小平市鈴木町2-772","lat":35.722005,"lon":139.507369},{"name":"西武地区","province":"東京都","city":"小平市","address":"小平市美園町3-1-8","lat":35.73848,"lon":139.4873},{"name":"（株）日栄東海物流センター","province":"東京都","city":"小平市","address":"小平市小川東町4-6-7","lat":35.73489,"lon":139.4766},{"name":"上水南給水所","province":"東京都","city":"小平市","address":"東京都小平市上水南町3-12-36","lat":35.711611,"lon":139.491713},{"name":"小川給水所","province":"東京都","city":"小平市","address":"東京都小平市小川町1-847","lat":35.7256378,"lon":139.453172},{"name":"市立津田公園","province":"東京都","city":"小平市","address":"東京都小平市津田町3-39","lat":35.722887,"lon":139.470526},{"name":"＊?小平市立上水南公民館","province":"東京都","city":"小平市","address":"小平市上水南町1-27-1","lat":35.713091,"lon":139.483708},{"name":"＊?小平市中央公民館","province":"東京都","city":"小平市","address":"小平市小川町2-1325","lat":35.727774,"lon":139.476668},{"name":"＊?小平市立仲町公民館","province":"東京都","city":"小平市","address":"小平市仲町521","lat":35.730156,"lon":139.484916},{"name":"＊?小平市立津田公民館","province":"東京都","city":"小平市","address":"小平市津田町3-11-1","lat":35.72077,"lon":139.470078},{"name":"＊?小平市立大沼公民館","province":"東京都","city":"小平市","address":"小平市大沼町7-1-17","lat":35.735394,"lon":139.497223},{"name":"＊?小平市立小川西町公民館","province":"東京都","city":"小平市","address":"小平市小川西町4-10-13","lat":35.735126,"lon":139.461798},{"name":"＊?小平市立小川公民館","province":"東京都","city":"小平市","address":"小平市小川町1-1012","lat":35.725787,"lon":139.459263},{"name":"＊?小平市立上宿公民館","province":"東京都","city":"小平市","address":"小平市小川町1-308","lat":35.731629,"lon":139.443796},{"name":"＊?小平市立花小金井南公民館","province":"東京都","city":"小平市","address":"小平市花小金井南町2-12-6","lat":35.724354,"lon":139.516113},{"name":"＊?小平市立花小金井北公民館","province":"東京都","city":"小平市","address":"小平市花小金井5-41-3","lat":35.734251,"lon":139.510261},{"name":"＊?小平市立鈴木公民館","province":"東京都","city":"小平市","address":"小平市鈴木町2-772","lat":35.722005,"lon":139.507369},{"name":"西武地区","province":"東京都","city":"小平市","address":"小平市美園町3-1-8","lat":35.73848,"lon":139.4873},{"name":"（株）日栄東海物流センター","province":"東京都","city":"小平市","address":"小平市小川東町4-6-7","lat":35.73489,"lon":139.4766},{"name":"上水南給水所","province":"東京都","city":"小平市","address":"東京都小平市上水南町3-12-36","lat":35.711611,"lon":139.491713},{"name":"小川給水所","province":"東京都","city":"小平市","address":"東京都小平市小川町1-847","lat":35.7256378,"lon":139.453172},{"name":"市立津田公園","province":"東京都","city":"小平市","address":"東京都小平市津田町3-39","lat":35.722887,"lon":139.470526},{"name":"＊?小平市立上水南公民館","province":"東京都","city":"小平市","address":"小平市上水南町1-27-1","lat":35.713091,"lon":139.483708},{"name":"＊?小平市中央公民館","province":"東京都","city":"小平市","address":"小平市小川町2-1325","lat":35.727774,"lon":139.476668},{"name":"＊?小平市立仲町公民館","province":"東京都","city":"小平市","address":"小平市仲町521","lat":35.730156,"lon":139.484916},{"name":"＊?小平市立津田公民館","province":"東京都","city":"小平市","address":"小平市津田町3-11-1","lat":35.72077,"lon":139.470078},{"name":"＊?小平市立大沼公民館","province":"東京都","city":"小平市","address":"小平市大沼町7-1-17","lat":35.735394,"lon":139.497223},{"name":"＊?小平市立小川西町公民館","province":"東京都","city":"小平市","address":"小平市小川西町4-10-13","lat":35.735126,"lon":139.461798},{"name":"＊?小平市立小川公民館","province":"東京都","city":"小平市","address":"小平市小川町1-1012","lat":35.725787,"lon":139.459263},{"name":"＊?小平市立上宿公民館","province":"東京都","city":"小平市","address":"小平市小川町1-308","lat":35.731629,"lon":139.443796},{"name":"＊?小平市立花小金井南公民館","province":"東京都","city":"小平市","address":"小平市花小金井南町2-12-6","lat":35.724354,"lon":139.516113},{"name":"＊?小平市立花小金井北公民館","province":"東京都","city":"小平市","address":"小平市花小金井5-41-3","lat":35.734251,"lon":139.510261},{"name":"＊?小平市立鈴木公民館","province":"東京都","city":"小平市","address":"小平市鈴木町2-772","lat":35.722005,"lon":139.507369},{"name":"西武地区","province":"東京都","city":"小平市","address":"小平市美園町3-1-8","lat":35.73848,"lon":139.4873},{"name":"（株）日栄東海物流センター","province":"東京都","city":"小平市","address":"小平市小川東町4-6-7","lat":35.73489,"lon":139.4766},{"name":"上水南給水所","province":"東京都","city":"小平市","address":"東京都小平市上水南町3-12-36","lat":35.711611,"lon":139.491713},{"name":"小川給水所","province":"東京都","city":"小平市","address":"東京都小平市小川町1-847","lat":35.7256378,"lon":139.453172},{"name":"市立津田公園","province":"東京都","city":"小平市","address":"東京都小平市津田町3-39","lat":35.722887,"lon":139.470526},{"name":"＊?小平市立上水南公民館","province":"東京都","city":"小平市","address":"小平市上水南町1-27-1","lat":35.713091,"lon":139.483708},{"name":"＊?小平市中央公民館","province":"東京都","city":"小平市","address":"小平市小川町2-1325","lat":35.727774,"lon":139.476668},{"name":"＊?小平市立仲町公民館","province":"東京都","city":"小平市","address":"小平市仲町521","lat":35.730156,"lon":139.484916},{"name":"＊?小平市立津田公民館","province":"東京都","city":"小平市","address":"小平市津田町3-11-1","lat":35.72077,"lon":139.470078},{"name":"＊?小平市立大沼公民館","province":"東京都","city":"小平市","address":"小平市大沼町7-1-17","lat":35.735394,"lon":139.497223},{"name":"＊?小平市立小川西町公民館","province":"東京都","city":"小平市","address":"小平市小川西町4-10-13","lat":35.735126,"lon":139.461798},{"name":"＊?小平市立小川公民館","province":"東京都","city":"小平市","address":"小平市小川町1-1012","lat":35.725787,"lon":139.459263},{"name":"＊?小平市立上宿公民館","province":"東京都","city":"小平市","address":"小平市小川町1-308","lat":35.731629,"lon":139.443796},{"name":"＊?小平市立花小金井南公民館","province":"東京都","city":"小平市","address":"小平市花小金井南町2-12-6","lat":35.724354,"lon":139.516113},{"name":"＊?小平市立花小金井北公民館","province":"東京都","city":"小平市","address":"小平市花小金井5-41-3","lat":35.734251,"lon":139.510261},{"name":"＊?小平市立鈴木公民館","province":"東京都","city":"小平市","address":"小平市鈴木町2-772","lat":35.722005,"lon":139.507369},{"name":"西武地区","province":"東京都","city":"小平市","address":"小平市美園町3-1-8","lat":35.73848,"lon":139.4873},{"name":"（株）日栄東海物流センター","province":"東京都","city":"小平市","address":"小平市小川東町4-6-7","lat":35.73489,"lon":139.4766},{"name":"上水南給水所","province":"東京都","city":"小平市","address":"東京都小平市上水南町3-12-36","lat":35.711611,"lon":139.491713},{"name":"小川給水所","province":"東京都","city":"小平市","address":"東京都小平市小川町1-847","lat":35.7256378,"lon":139.453172},{"name":"市立津田公園","province":"東京都","city":"小平市","address":"東京都小平市津田町3-39","lat":35.722887,"lon":139.470526},{"name":"＊?小平市立上水南公民館","province":"東京都","city":"小平市","address":"小平市上水南町1-27-1","lat":35.713091,"lon":139.483708},{"name":"＊?小平市中央公民館","province":"東京都","city":"小平市","address":"小平市小川町2-1325","lat":35.727774,"lon":139.476668},{"name":"＊?小平市立仲町公民館","province":"東京都","city":"小平市","address":"小平市仲町521","lat":35.730156,"lon":139.484916},{"name":"＊?小平市立津田公民館","province":"東京都","city":"小平市","address":"小平市津田町3-11-1","lat":35.72077,"lon":139.470078},{"name":"＊?小平市立大沼公民館","province":"東京都","city":"小平市","address":"小平市大沼町7-1-17","lat":35.735394,"lon":139.497223},{"name":"＊?小平市立小川西町公民館","province":"東京都","city":"小平市","address":"小平市小川西町4-10-13","lat":35.735126,"lon":139.461798},{"name":"＊?小平市立小川公民館","province":"東京都","city":"小平市","address":"小平市小川町1-1012","lat":35.725787,"lon":139.459263},{"name":"＊?小平市立上宿公民館","province":"東京都","city":"小平市","address":"小平市小川町1-308","lat":35.731629,"lon":139.443796},{"name":"＊?小平市立花小金井南公民館","province":"東京都","city":"小平市","address":"小平市花小金井南町2-12-6","lat":35.724354,"lon":139.516113},{"name":"＊?小平市立花小金井北公民館","province":"東京都","city":"小平市","address":"小平市花小金井5-41-3","lat":35.734251,"lon":139.510261},{"name":"＊?小平市立鈴木公民館","province":"東京都","city":"小平市","address":"小平市鈴木町2-772","lat":35.722005,"lon":139.507369},{"name":"西武地区","province":"東京都","city":"小平市","address":"小平市美園町3-1-8","lat":35.73848,"lon":139.4873},{"name":"（株）日栄東海物流センター","province":"東京都","city":"小平市","address":"小平市小川東町4-6-7","lat":35.73489,"lon":139.4766},{"name":"上水南給水所","province":"東京都","city":"小平市","address":"東京都小平市上水南町3-12-36","lat":35.711611,"lon":139.491713},{"name":"小川給水所","province":"東京都","city":"小平市","address":"東京都小平市小川町1-847","lat":35.7256378,"lon":139.453172},{"name":"市立津田公園","province":"東京都","city":"小平市","address":"東京都小平市津田町3-39","lat":35.722887,"lon":139.470526},{"name":"＊?小平市立上水南公民館","province":"東京都","city":"小平市","address":"小平市上水南町1-27-1","lat":35.713091,"lon":139.483708},{"name":"＊?小平市中央公民館","province":"東京都","city":"小平市","address":"小平市小川町2-1325","lat":35.727774,"lon":139.476668},{"name":"＊?小平市立仲町公民館","province":"東京都","city":"小平市","address":"小平市仲町521","lat":35.730156,"lon":139.484916},{"name":"＊?小平市立津田公民館","province":"東京都","city":"小平市","address":"小平市津田町3-11-1","lat":35.72077,"lon":139.470078},{"name":"＊?小平市立大沼公民館","province":"東京都","city":"小平市","address":"小平市大沼町7-1-17","lat":35.735394,"lon":139.497223},{"name":"＊?小平市立小川西町公民館","province":"東京都","city":"小平市","address":"小平市小川西町4-10-13","lat":35.735126,"lon":139.461798},{"name":"＊?小平市立小川公民館","province":"東京都","city":"小平市","address":"小平市小川町1-1012","lat":35.725787,"lon":139.459263},{"name":"＊?小平市立上宿公民館","province":"東京都","city":"小平市","address":"小平市小川町1-308","lat":35.731629,"lon":139.443796},{"name":"＊?小平市立花小金井南公民館","province":"東京都","city":"小平市","address":"小平市花小金井南町2-12-6","lat":35.724354,"lon":139.516113},{"name":"＊?小平市立花小金井北公民館","province":"東京都","city":"小平市","address":"小平市花小金井5-41-3","lat":35.734251,"lon":139.510261},{"name":"＊?小平市立鈴木公民館","province":"東京都","city":"小平市","address":"小平市鈴木町2-772","lat":35.722005,"lon":139.507369},{"name":"西武地区","province":"東京都","city":"小平市","address":"小平市美園町3-1-8","lat":35.73848,"lon":139.4873},{"name":"（株）日栄東海物流センター","province":"東京都","city":"小平市","address":"小平市小川東町4-6-7","lat":35.73489,"lon":139.4766},{"name":"上水南給水所","province":"東京都","city":"小平市","address":"東京都小平市上水南町3-12-36","lat":35.711611,"lon":139.491713},{"name":"小川給水所","province":"東京都","city":"小平市","address":"東京都小平市小川町1-847","lat":35.7256378,"lon":139.453172},{"name":"市立津田公園","province":"東京都","city":"小平市","address":"東京都小平市津田町3-39","lat":35.722887,"lon":139.470526},{"name":"＊?小平市立上水南公民館","province":"東京都","city":"小平市","address":"小平市上水南町1-27-1","lat":35.713091,"lon":139.483708},{"name":"＊?小平市中央公民館","province":"東京都","city":"小平市","address":"小平市小川町2-1325","lat":35.727774,"lon":139.476668},{"name":"＊?小平市立仲町公民館","province":"東京都","city":"小平市","address":"小平市仲町521","lat":35.730156,"lon":139.484916},{"name":"＊?小平市立津田公民館","province":"東京都","city":"小平市","address":"小平市津田町3-11-1","lat":35.72077,"lon":139.470078},{"name":"＊?小平市立大沼公民館","province":"東京都","city":"小平市","address":"小平市大沼町7-1-17","lat":35.735394,"lon":139.497223},{"name":"＊?小平市立小川西町公民館","province":"東京都","city":"小平市","address":"小平市小川西町4-10-13","lat":35.735126,"lon":139.461798},{"name":"＊?小平市立小川公民館","province":"東京都","city":"小平市","address":"小平市小川町1-1012","lat":35.725787,"lon":139.459263},{"name":"＊?小平市立上宿公民館","province":"東京都","city":"小平市","address":"小平市小川町1-308","lat":35.731629,"lon":139.443796},{"name":"＊?小平市立花小金井南公民館","province":"東京都","city":"小平市","address":"小平市花小金井南町2-12-6","lat":35.724354,"lon":139.516113},{"name":"＊?小平市立花小金井北公民館","province":"東京都","city":"小平市","address":"小平市花小金井5-41-3","lat":35.734251,"lon":139.510261},{"name":"＊?小平市立鈴木公民館","province":"東京都","city":"小平市","address":"小平市鈴木町2-772","lat":35.722005,"lon":139.507369},{"name":"西武地区","province":"東京都","city":"小平市","address":"小平市美園町3-1-8","lat":35.73848,"lon":139.4873},{"name":"（株）日栄東海物流センター","province":"東京都","city":"小平市","address":"小平市小川東町4-6-7","lat":35.73489,"lon":139.4766},{"name":"上水南給水所","province":"東京都","city":"小平市","address":"東京都小平市上水南町3-12-36","lat":35.711611,"lon":139.491713},{"name":"小川給水所","province":"東京都","city":"小平市","address":"東京都小平市小川町1-847","lat":35.7256378,"lon":139.453172},{"name":"市立津田公園","province":"東京都","city":"小平市","address":"東京都小平市津田町3-39","lat":35.722887,"lon":139.470526},{"name":"＊?小平市立上水南公民館","province":"東京都","city":"小平市","address":"小平市上水南町1-27-1","lat":35.713091,"lon":139.483708},{"name":"＊?小平市中央公民館","province":"東京都","city":"小平市","address":"小平市小川町2-1325","lat":35.727774,"lon":139.476668},{"name":"＊?小平市立仲町公民館","province":"東京都","city":"小平市","address":"小平市仲町521","lat":35.730156,"lon":139.484916},{"name":"＊?小平市立津田公民館","province":"東京都","city":"小平市","address":"小平市津田町3-11-1","lat":35.72077,"lon":139.470078},{"name":"＊?小平市立大沼公民館","province":"東京都","city":"小平市","address":"小平市大沼町7-1-17","lat":35.735394,"lon":139.497223},{"name":"＊?小平市立小川西町公民館","province":"東京都","city":"小平市","address":"小平市小川西町4-10-13","lat":35.735126,"lon":139.461798},{"name":"＊?小平市立小川公民館","province":"東京都","city":"小平市","address":"小平市小川町1-1012","lat":35.725787,"lon":139.459263},{"name":"＊?小平市立上宿公民館","province":"東京都","city":"小平市","address":"小平市小川町1-308","lat":35.731629,"lon":139.443796},{"name":"＊?小平市立花小金井南公民館","province":"東京都","city":"小平市","address":"小平市花小金井南町2-12-6","lat":35.724354,"lon":139.516113},{"name":"＊?小平市立花小金井北公民館","province":"東京都","city":"小平市","address":"小平市花小金井5-41-3","lat":35.734251,"lon":139.510261},{"name":"＊?小平市立鈴木公民館","province":"東京都","city":"小平市","address":"小平市鈴木町2-772","lat":35.722005,"lon":139.507369},{"name":"西武地区","province":"東京都","city":"小平市","address":"小平市美園町3-1-8","lat":35.73848,"lon":139.4873},{"name":"（株）日栄東海物流センター","province":"東京都","city":"小平市","address":"小平市小川東町4-6-7","lat":35.73489,"lon":139.4766},{"name":"上水南給水所","province":"東京都","city":"小平市","address":"東京都小平市上水南町3-12-36","lat":35.711611,"lon":139.491713},{"name":"小川給水所","province":"東京都","city":"小平市","address":"東京都小平市小川町1-847","lat":35.7256378,"lon":139.453172},{"name":"市立津田公園","province":"東京都","city":"小平市","address":"東京都小平市津田町3-39","lat":35.722887,"lon":139.470526},{"name":"＊?小平市立上水南公民館","province":"東京都","city":"小平市","address":"小平市上水南町1-27-1","lat":35.713091,"lon":139.483708},{"name":"＊?小平市中央公民館","province":"東京都","city":"小平市","address":"小平市小川町2-1325","lat":35.727774,"lon":139.476668},{"name":"＊?小平市立仲町公民館","province":"東京都","city":"小平市","address":"小平市仲町521","lat":35.730156,"lon":139.484916},{"name":"＊?小平市立津田公民館","province":"東京都","city":"小平市","address":"小平市津田町3-11-1","lat":35.72077,"lon":139.470078},{"name":"＊?小平市立大沼公民館","province":"東京都","city":"小平市","address":"小平市大沼町7-1-17","lat":35.735394,"lon":139.497223},{"name":"＊?小平市立小川西町公民館","province":"東京都","city":"小平市","address":"小平市小川西町4-10-13","lat":35.735126,"lon":139.461798},{"name":"＊?小平市立小川公民館","province":"東京都","city":"小平市","address":"小平市小川町1-1012","lat":35.725787,"lon":139.459263},{"name":"＊?小平市立上宿公民館","province":"東京都","city":"小平市","address":"小平市小川町1-308","lat":35.731629,"lon":139.443796},{"name":"＊?小平市立花小金井南公民館","province":"東京都","city":"小平市","address":"小平市花小金井南町2-12-6","lat":35.724354,"lon":139.516113},{"name":"＊?小平市立花小金井北公民館","province":"東京都","city":"小平市","address":"小平市花小金井5-41-3","lat":35.734251,"lon":139.510261},{"name":"＊?小平市立鈴木公民館","province":"東京都","city":"小平市","address":"小平市鈴木町2-772","lat":35.722005,"lon":139.507369},{"name":"西武地区","province":"東京都","city":"小平市","address":"小平市美園町3-1-8","lat":35.73848,"lon":139.4873},{"name":"（株）日栄東海物流センター","province":"東京都","city":"小平市","address":"小平市小川東町4-6-7","lat":35.73489,"lon":139.4766},{"name":"上水南給水所","province":"東京都","city":"小平市","address":"東京都小平市上水南町3-12-36","lat":35.711611,"lon":139.491713},{"name":"小川給水所","province":"東京都","city":"小平市","address":"東京都小平市小川町1-847","lat":35.7256378,"lon":139.453172},{"name":"市立津田公園","province":"東京都","city":"小平市","address":"東京都小平市津田町3-39","lat":35.722887,"lon":139.470526},{"name":"＊?小平市立上水南公民館","province":"東京都","city":"小平市","address":"小平市上水南町1-27-1","lat":35.713091,"lon":139.483708},{"name":"＊?小平市中央公民館","province":"東京都","city":"小平市","address":"小平市小川町2-1325","lat":35.727774,"lon":139.476668},{"name":"＊?小平市立仲町公民館","province":"東京都","city":"小平市","address":"小平市仲町521","lat":35.730156,"lon":139.484916},{"name":"＊?小平市立津田公民館","province":"東京都","city":"小平市","address":"小平市津田町3-11-1","lat":35.72077,"lon":139.470078},{"name":"＊?小平市立大沼公民館","province":"東京都","city":"小平市","address":"小平市大沼町7-1-17","lat":35.735394,"lon":139.497223},{"name":"＊?小平市立小川西町公民館","province":"東京都","city":"小平市","address":"小平市小川西町4-10-13","lat":35.735126,"lon":139.461798},{"name":"＊?小平市立小川公民館","province":"東京都","city":"小平市","address":"小平市小川町1-1012","lat":35.725787,"lon":139.459263},{"name":"＊?小平市立上宿公民館","province":"東京都","city":"小平市","address":"小平市小川町1-308","lat":35.731629,"lon":139.443796},{"name":"＊?小平市立花小金井南公民館","province":"東京都","city":"小平市","address":"小平市花小金井南町2-12-6","lat":35.724354,"lon":139.516113},{"name":"＊?小平市立花小金井北公民館","province":"東京都","city":"小平市","address":"小平市花小金井5-41-3","lat":35.734251,"lon":139.510261},{"name":"＊?小平市立鈴木公民館","province":"東京都","city":"小平市","address":"小平市鈴木町2-772","lat":35.722005,"lon":139.507369},{"name":"西武地区","province":"東京都","city":"小平市","address":"小平市美園町3-1-8","lat":35.73848,"lon":139.4873},{"name":"（株）日栄東海物流センター","province":"東京都","city":"小平市","address":"小平市小川東町4-6-7","lat":35.73489,"lon":139.4766},{"name":"上水南給水所","province":"東京都","city":"小平市","address":"東京都小平市上水南町3-12-36","lat":35.711611,"lon":139.491713},{"name":"小川給水所","province":"東京都","city":"小平市","address":"東京都小平市小川町1-847","lat":35.7256378,"lon":139.453172},{"name":"市立津田公園","province":"東京都","city":"小平市","address":"東京都小平市津田町3-39","lat":35.722887,"lon":139.470526},{"name":"＊?小平市立上水南公民館","province":"東京都","city":"小平市","address":"小平市上水南町1-27-1","lat":35.713091,"lon":139.483708},{"name":"＊?小平市中央公民館","province":"東京都","city":"小平市","address":"小平市小川町2-1325","lat":35.727774,"lon":139.476668},{"name":"＊?小平市立仲町公民館","province":"東京都","city":"小平市","address":"小平市仲町521","lat":35.730156,"lon":139.484916},{"name":"＊?小平市立津田公民館","province":"東京都","city":"小平市","address":"小平市津田町3-11-1","lat":35.72077,"lon":139.470078},{"name":"＊?小平市立大沼公民館","province":"東京都","city":"小平市","address":"小平市大沼町7-1-17","lat":35.735394,"lon":139.497223},{"name":"＊?小平市立小川西町公民館","province":"東京都","city":"小平市","address":"小平市小川西町4-10-13","lat":35.735126,"lon":139.461798},{"name":"＊?小平市立小川公民館","province":"東京都","city":"小平市","address":"小平市小川町1-1012","lat":35.725787,"lon":139.459263},{"name":"＊?小平市立上宿公民館","province":"東京都","city":"小平市","address":"小平市小川町1-308","lat":35.731629,"lon":139.443796},{"name":"＊?小平市立花小金井南公民館","province":"東京都","city":"小平市","address":"小平市花小金井南町2-12-6","lat":35.724354,"lon":139.516113},{"name":"＊?小平市立花小金井北公民館","province":"東京都","city":"小平市","address":"小平市花小金井5-41-3","lat":35.734251,"lon":139.510261},{"name":"＊?小平市立鈴木公民館","province":"東京都","city":"小平市","address":"小平市鈴木町2-772","lat":35.722005,"lon":139.507369},{"name":"西武地区","province":"東京都","city":"小平市","address":"小平市美園町3-1-8","lat":35.73848,"lon":139.4873},{"name":"（株）日栄東海物流センター","province":"東京都","city":"小平市","address":"小平市小川東町4-6-7","lat":35.73489,"lon":139.4766},{"name":"上水南給水所","province":"東京都","city":"小平市","address":"東京都小平市上水南町3-12-36","lat":35.711611,"lon":139.491713},{"name":"小川給水所","province":"東京都","city":"小平市","address":"東京都小平市小川町1-847","lat":35.7256378,"lon":139.453172},{"name":"市立津田公園","province":"東京都","city":"小平市","address":"東京都小平市津田町3-39","lat":35.722887,"lon":139.470526},{"name":"＊?小平市立上水南公民館","province":"東京都","city":"小平市","address":"小平市上水南町1-27-1","lat":35.713091,"lon":139.483708},{"name":"＊?小平市中央公民館","province":"東京都","city":"小平市","address":"小平市小川町2-1325","lat":35.727774,"lon":139.476668},{"name":"＊?小平市立仲町公民館","province":"東京都","city":"小平市","address":"小平市仲町521","lat":35.730156,"lon":139.484916},{"name":"＊?小平市立津田公民館","province":"東京都","city":"小平市","address":"小平市津田町3-11-1","lat":35.72077,"lon":139.470078},{"name":"＊?小平市立大沼公民館","province":"東京都","city":"小平市","address":"小平市大沼町7-1-17","lat":35.735394,"lon":139.497223},{"name":"＊?小平市立小川西町公民館","province":"東京都","city":"小平市","address":"小平市小川西町4-10-13","lat":35.735126,"lon":139.461798},{"name":"＊?小平市立小川公民館","province":"東京都","city":"小平市","address":"小平市小川町1-1012","lat":35.725787,"lon":139.459263},{"name":"＊?小平市立上宿公民館","province":"東京都","city":"小平市","address":"小平市小川町1-308","lat":35.731629,"lon":139.443796},{"name":"＊?小平市立花小金井南公民館","province":"東京都","city":"小平市","address":"小平市花小金井南町2-12-6","lat":35.724354,"lon":139.516113},{"name":"＊?小平市立花小金井北公民館","province":"東京都","city":"小平市","address":"小平市花小金井5-41-3","lat":35.734251,"lon":139.510261},{"name":"＊?小平市立鈴木公民館","province":"東京都","city":"小平市","address":"小平市鈴木町2-772","lat":35.722005,"lon":139.507369},{"name":"西武地区","province":"東京都","city":"小平市","address":"小平市美園町3-1-8","lat":35.73848,"lon":139.4873},{"name":"（株）日栄東海物流センター","province":"東京都","city":"小平市","address":"小平市小川東町4-6-7","lat":35.73489,"lon":139.4766},{"name":"上水南給水所","province":"東京都","city":"小平市","address":"東京都小平市上水南町3-12-36","lat":35.711611,"lon":139.491713},{"name":"小川給水所","province":"東京都","city":"小平市","address":"東京都小平市小川町1-847","lat":35.7256378,"lon":139.453172},{"name":"市立津田公園","province":"東京都","city":"小平市","address":"東京都小平市津田町3-39","lat":35.722887,"lon":139.470526},{"name":"＊?小平市立上水南公民館","province":"東京都","city":"小平市","address":"小平市上水南町1-27-1","lat":35.713091,"lon":139.483708},{"name":"＊?小平市中央公民館","province":"東京都","city":"小平市","address":"小平市小川町2-1325","lat":35.727774,"lon":139.476668},{"name":"＊?小平市立仲町公民館","province":"東京都","city":"小平市","address":"小平市仲町521","lat":35.730156,"lon":139.484916},{"name":"＊?小平市立津田公民館","province":"東京都","city":"小平市","address":"小平市津田町3-11-1","lat":35.72077,"lon":139.470078},{"name":"＊?小平市立大沼公民館","province":"東京都","city":"小平市","address":"小平市大沼町7-1-17","lat":35.735394,"lon":139.497223},{"name":"＊?小平市立小川西町公民館","province":"東京都","city":"小平市","address":"小平市小川西町4-10-13","lat":35.735126,"lon":139.461798},{"name":"＊?小平市立小川公民館","province":"東京都","city":"小平市","address":"小平市小川町1-1012","lat":35.725787,"lon":139.459263},{"name":"＊?小平市立上宿公民館","province":"東京都","city":"小平市","address":"小平市小川町1-308","lat":35.731629,"lon":139.443796},{"name":"＊?小平市立花小金井南公民館","province":"東京都","city":"小平市","address":"小平市花小金井南町2-12-6","lat":35.724354,"lon":139.516113},{"name":"＊?小平市立花小金井北公民館","province":"東京都","city":"小平市","address":"小平市花小金井5-41-3","lat":35.734251,"lon":139.510261},{"name":"＊?小平市立鈴木公民館","province":"東京都","city":"小平市","address":"小平市鈴木町2-772","lat":35.722005,"lon":139.507369},{"name":"西武地区","province":"東京都","city":"小平市","address":"小平市美園町3-1-8","lat":35.73848,"lon":139.4873},{"name":"（株）日栄東海物流センター","province":"東京都","city":"小平市","address":"小平市小川東町4-6-7","lat":35.73489,"lon":139.4766},{"name":"上水南給水所","province":"東京都","city":"小平市","address":"東京都小平市上水南町3-12-36","lat":35.711611,"lon":139.491713},{"name":"小川給水所","province":"東京都","city":"小平市","address":"東京都小平市小川町1-847","lat":35.7256378,"lon":139.453172},{"name":"市立津田公園","province":"東京都","city":"小平市","address":"東京都小平市津田町3-39","lat":35.722887,"lon":139.470526},{"name":"＊?小平市立上水南公民館","province":"東京都","city":"小平市","address":"小平市上水南町1-27-1","lat":35.713091,"lon":139.483708},{"name":"＊?小平市中央公民館","province":"東京都","city":"小平市","address":"小平市小川町2-1325","lat":35.727774,"lon":139.476668},{"name":"＊?小平市立仲町公民館","province":"東京都","city":"小平市","address":"小平市仲町521","lat":35.730156,"lon":139.484916},{"name":"＊?小平市立津田公民館","province":"東京都","city":"小平市","address":"小平市津田町3-11-1","lat":35.72077,"lon":139.470078},{"name":"＊?小平市立大沼公民館","province":"東京都","city":"小平市","address":"小平市大沼町7-1-17","lat":35.735394,"lon":139.497223},{"name":"＊?小平市立小川西町公民館","province":"東京都","city":"小平市","address":"小平市小川西町4-10-13","lat":35.735126,"lon":139.461798},{"name":"＊?小平市立小川公民館","province":"東京都","city":"小平市","address":"小平市小川町1-1012","lat":35.725787,"lon":139.459263},{"name":"＊?小平市立上宿公民館","province":"東京都","city":"小平市","address":"小平市小川町1-308","lat":35.731629,"lon":139.443796},{"name":"＊?小平市立花小金井南公民館","province":"東京都","city":"小平市","address":"小平市花小金井南町2-12-6","lat":35.724354,"lon":139.516113},{"name":"＊?小平市立花小金井北公民館","province":"東京都","city":"小平市","address":"小平市花小金井5-41-3","lat":35.734251,"lon":139.510261},{"name":"＊?小平市立鈴木公民館","province":"東京都","city":"小平市","address":"小平市鈴木町2-772","lat":35.722005,"lon":139.507369},{"name":"西武地区","province":"東京都","city":"小平市","address":"小平市美園町3-1-8","lat":35.73848,"lon":139.4873},{"name":"（株）日栄東海物流センター","province":"東京都","city":"小平市","address":"小平市小川東町4-6-7","lat":35.73489,"lon":139.4766},{"name":"上水南給水所","province":"東京都","city":"小平市","address":"東京都小平市上水南町3-12-36","lat":35.711611,"lon":139.491713},{"name":"小川給水所","province":"東京都","city":"小平市","address":"東京都小平市小川町1-847","lat":35.7256378,"lon":139.453172},{"name":"市立津田公園","province":"東京都","city":"小平市","address":"東京都小平市津田町3-39","lat":35.722887,"lon":139.470526},{"name":"＊?小平市立上水南公民館","province":"東京都","city":"小平市","address":"小平市上水南町1-27-1","lat":35.713091,"lon":139.483708},{"name":"＊?小平市中央公民館","province":"東京都","city":"小平市","address":"小平市小川町2-1325","lat":35.727774,"lon":139.476668},{"name":"＊?小平市立仲町公民館","province":"東京都","city":"小平市","address":"小平市仲町521","lat":35.730156,"lon":139.484916},{"name":"＊?小平市立津田公民館","province":"東京都","city":"小平市","address":"小平市津田町3-11-1","lat":35.72077,"lon":139.470078},{"name":"＊?小平市立大沼公民館","province":"東京都","city":"小平市","address":"小平市大沼町7-1-17","lat":35.735394,"lon":139.497223},{"name":"＊?小平市立小川西町公民館","province":"東京都","city":"小平市","address":"小平市小川西町4-10-13","lat":35.735126,"lon":139.461798},{"name":"＊?小平市立小川公民館","province":"東京都","city":"小平市","address":"小平市小川町1-1012","lat":35.725787,"lon":139.459263},{"name":"＊?小平市立上宿公民館","province":"東京都","city":"小平市","address":"小平市小川町1-308","lat":35.731629,"lon":139.443796},{"name":"＊?小平市立花小金井南公民館","province":"東京都","city":"小平市","address":"小平市花小金井南町2-12-6","lat":35.724354,"lon":139.516113},{"name":"＊?小平市立花小金井北公民館","province":"東京都","city":"小平市","address":"小平市花小金井5-41-3","lat":35.734251,"lon":139.510261},{"name":"＊?小平市立鈴木公民館","province":"東京都","city":"小平市","address":"小平市鈴木町2-772","lat":35.722005,"lon":139.507369},{"name":"上水南給水所","province":"東京都","city":"小平市","address":"東京都小平市上水南町3-12-36","lat":35.711611,"lon":139.491713},{"name":"小川給水所","province":"東京都","city":"小平市","address":"東京都小平市小川町1-847","lat":35.7256378,"lon":139.453172},{"name":"市立津田公園","province":"東京都","city":"小平市","address":"東京都小平市津田町3-39","lat":35.722887,"lon":139.470526},{"name":"＊?小平市立上水南公民館","province":"東京都","city":"小平市","address":"小平市上水南町1-27-1","lat":35.713091,"lon":139.483708},{"name":"＊?小平市中央公民館","province":"東京都","city":"小平市","address":"小平市小川町2-1325","lat":35.727774,"lon":139.476668},{"name":"＊?小平市立仲町公民館","province":"東京都","city":"小平市","address":"小平市仲町521","lat":35.730156,"lon":139.484916},{"name":"＊?小平市立津田公民館","province":"東京都","city":"小平市","address":"小平市津田町3-11-1","lat":35.72077,"lon":139.470078},{"name":"＊?小平市立大沼公民館","province":"東京都","city":"小平市","address":"小平市大沼町7-1-17","lat":35.735394,"lon":139.497223},{"name":"＊?小平市立小川西町公民館","province":"東京都","city":"小平市","address":"小平市小川西町4-10-13","lat":35.735126,"lon":139.461798},{"name":"＊?小平市立小川公民館","province":"東京都","city":"小平市","address":"小平市小川町1-1012","lat":35.725787,"lon":139.459263},{"name":"＊?小平市立上宿公民館","province":"東京都","city":"小平市","address":"小平市小川町1-308","lat":35.731629,"lon":139.443796},{"name":"＊?小平市立花小金井南公民館","province":"東京都","city":"小平市","address":"小平市花小金井南町2-12-6","lat":35.724354,"lon":139.516113},{"name":"＊?小平市立花小金井北公民館","province":"東京都","city":"小平市","address":"小平市花小金井5-41-3","lat":35.734251,"lon":139.510261},{"name":"＊?小平市立鈴木公民館","province":"東京都","city":"小平市","address":"小平市鈴木町2-772","lat":35.722005,"lon":139.507369},{"name":"上水南給水所","province":"東京都","city":"小平市","address":"東京都小平市上水南町3-12-36","lat":35.711611,"lon":139.491713},{"name":"小川給水所","province":"東京都","city":"小平市","address":"東京都小平市小川町1-847","lat":35.7256378,"lon":139.453172},{"name":"市立津田公園","province":"東京都","city":"小平市","address":"東京都小平市津田町3-39","lat":35.722887,"lon":139.470526},{"name":"＊?小平市立上水南公民館","province":"東京都","city":"小平市","address":"小平市上水南町1-27-1","lat":35.713091,"lon":139.483708},{"name":"＊?小平市中央公民館","province":"東京都","city":"小平市","address":"小平市小川町2-1325","lat":35.727774,"lon":139.476668},{"name":"＊?小平市立仲町公民館","province":"東京都","city":"小平市","address":"小平市仲町521","lat":35.730156,"lon":139.484916},{"name":"＊?小平市立津田公民館","province":"東京都","city":"小平市","address":"小平市津田町3-11-1","lat":35.72077,"lon":139.470078},{"name":"＊?小平市立大沼公民館","province":"東京都","city":"小平市","address":"小平市大沼町7-1-17","lat":35.735394,"lon":139.497223},{"name":"＊?小平市立小川西町公民館","province":"東京都","city":"小平市","address":"小平市小川西町4-10-13","lat":35.735126,"lon":139.461798},{"name":"＊?小平市立小川公民館","province":"東京都","city":"小平市","address":"小平市小川町1-1012","lat":35.725787,"lon":139.459263},{"name":"＊?小平市立上宿公民館","province":"東京都","city":"小平市","address":"小平市小川町1-308","lat":35.731629,"lon":139.443796},{"name":"＊?小平市立花小金井南公民館","province":"東京都","city":"小平市","address":"小平市花小金井南町2-12-6","lat":35.724354,"lon":139.516113},{"name":"＊?小平市立花小金井北公民館","province":"東京都","city":"小平市","address":"小平市花小金井5-41-3","lat":35.734251,"lon":139.510261},{"name":"＊?小平市立鈴木公民館","province":"東京都","city":"小平市","address":"小平市鈴木町2-772","lat":35.722005,"lon":139.507369},{"name":"上水南給水所","province":"東京都","city":"小平市","address":"東京都小平市上水南町3-12-36","lat":35.711611,"lon":139.491713},{"name":"小川給水所","province":"東京都","city":"小平市","address":"東京都小平市小川町1-847","lat":35.7256378,"lon":139.453172},{"name":"市立津田公園","province":"東京都","city":"小平市","address":"東京都小平市津田町3-39","lat":35.722887,"lon":139.470526},{"name":"＊?小平市立上水南公民館","province":"東京都","city":"小平市","address":"小平市上水南町1-27-1","lat":35.713091,"lon":139.483708},{"name":"＊?小平市中央公民館","province":"東京都","city":"小平市","address":"小平市小川町2-1325","lat":35.727774,"lon":139.476668},{"name":"＊?小平市立仲町公民館","province":"東京都","city":"小平市","address":"小平市仲町521","lat":35.730156,"lon":139.484916},{"name":"＊?小平市立津田公民館","province":"東京都","city":"小平市","address":"小平市津田町3-11-1","lat":35.72077,"lon":139.470078},{"name":"＊?小平市立大沼公民館","province":"東京都","city":"小平市","address":"小平市大沼町7-1-17","lat":35.735394,"lon":139.497223},{"name":"＊?小平市立小川西町公民館","province":"東京都","city":"小平市","address":"小平市小川西町4-10-13","lat":35.735126,"lon":139.461798},{"name":"＊?小平市立小川公民館","province":"東京都","city":"小平市","address":"小平市小川町1-1012","lat":35.725787,"lon":139.459263},{"name":"＊?小平市立上宿公民館","province":"東京都","city":"小平市","address":"小平市小川町1-308","lat":35.731629,"lon":139.443796},{"name":"＊?小平市立花小金井南公民館","province":"東京都","city":"小平市","address":"小平市花小金井南町2-12-6","lat":35.724354,"lon":139.516113},{"name":"＊?小平市立花小金井北公民館","province":"東京都","city":"小平市","address":"小平市花小金井5-41-3","lat":35.734251,"lon":139.510261},{"name":"＊?小平市立鈴木公民館","province":"東京都","city":"小平市","address":"小平市鈴木町2-772","lat":35.722005,"lon":139.507369},{"name":"上水南給水所","province":"東京都","city":"小平市","address":"東京都小平市上水南町3-12-36","lat":35.711611,"lon":139.491713},{"name":"小川給水所","province":"東京都","city":"小平市","address":"東京都小平市小川町1-847","lat":35.7256378,"lon":139.453172},{"name":"市立津田公園","province":"東京都","city":"小平市","address":"東京都小平市津田町3-39","lat":35.722887,"lon":139.470526},{"name":"＊?小平市立上水南公民館","province":"東京都","city":"小平市","address":"小平市上水南町1-27-1","lat":35.713091,"lon":139.483708},{"name":"＊?小平市中央公民館","province":"東京都","city":"小平市","address":"小平市小川町2-1325","lat":35.727774,"lon":139.476668},{"name":"＊?小平市立仲町公民館","province":"東京都","city":"小平市","address":"小平市仲町521","lat":35.730156,"lon":139.484916},{"name":"＊?小平市立津田公民館","province":"東京都","city":"小平市","address":"小平市津田町3-11-1","lat":35.72077,"lon":139.470078},{"name":"＊?小平市立大沼公民館","province":"東京都","city":"小平市","address":"小平市大沼町7-1-17","lat":35.735394,"lon":139.497223},{"name":"＊?小平市立小川西町公民館","province":"東京都","city":"小平市","address":"小平市小川西町4-10-13","lat":35.735126,"lon":139.461798},{"name":"＊?小平市立小川公民館","province":"東京都","city":"小平市","address":"小平市小川町1-1012","lat":35.725787,"lon":139.459263},{"name":"＊?小平市立上宿公民館","province":"東京都","city":"小平市","address":"小平市小川町1-308","lat":35.731629,"lon":139.443796},{"name":"＊?小平市立花小金井南公民館","province":"東京都","city":"小平市","address":"小平市花小金井南町2-12-6","lat":35.724354,"lon":139.516113},{"name":"＊?小平市立花小金井北公民館","province":"東京都","city":"小平市","address":"小平市花小金井5-41-3","lat":35.734251,"lon":139.510261},{"name":"＊?小平市立鈴木公民館","province":"東京都","city":"小平市","address":"小平市鈴木町2-772","lat":35.722005,"lon":139.507369},{"name":"上水南給水所","province":"東京都","city":"小平市","address":"東京都小平市上水南町3-12-36","lat":35.711611,"lon":139.491713},{"name":"小川給水所","province":"東京都","city":"小平市","address":"東京都小平市小川町1-847","lat":35.7256378,"lon":139.453172},{"name":"市立津田公園","province":"東京都","city":"小平市","address":"東京都小平市津田町3-39","lat":35.722887,"lon":139.470526},{"name":"＊?小平市立上水南公民館","province":"東京都","city":"小平市","address":"小平市上水南町1-27-1","lat":35.713091,"lon":139.483708},{"name":"＊?小平市中央公民館","province":"東京都","city":"小平市","address":"小平市小川町2-1325","lat":35.727774,"lon":139.476668},{"name":"＊?小平市立仲町公民館","province":"東京都","city":"小平市","address":"小平市仲町521","lat":35.730156,"lon":139.484916},{"name":"＊?小平市立津田公民館","province":"東京都","city":"小平市","address":"小平市津田町3-11-1","lat":35.72077,"lon":139.470078},{"name":"＊?小平市立大沼公民館","province":"東京都","city":"小平市","address":"小平市大沼町7-1-17","lat":35.735394,"lon":139.497223},{"name":"＊?小平市立小川西町公民館","province":"東京都","city":"小平市","address":"小平市小川西町4-10-13","lat":35.735126,"lon":139.461798},{"name":"＊?小平市立小川公民館","province":"東京都","city":"小平市","address":"小平市小川町1-1012","lat":35.725787,"lon":139.459263},{"name":"＊?小平市立上宿公民館","province":"東京都","city":"小平市","address":"小平市小川町1-308","lat":35.731629,"lon":139.443796},{"name":"＊?小平市立花小金井南公民館","province":"東京都","city":"小平市","address":"小平市花小金井南町2-12-6","lat":35.724354,"lon":139.516113},{"name":"＊?小平市立花小金井北公民館","province":"東京都","city":"小平市","address":"小平市花小金井5-41-3","lat":35.734251,"lon":139.510261},{"name":"＊?小平市立鈴木公民館","province":"東京都","city":"小平市","address":"小平市鈴木町2-772","lat":35.722005,"lon":139.507369},{"name":"上水南給水所","province":"東京都","city":"小平市","address":"東京都小平市上水南町3-12-36","lat":35.711611,"lon":139.491713},{"name":"小川給水所","province":"東京都","city":"小平市","address":"東京都小平市小川町1-847","lat":35.7256378,"lon":139.453172},{"name":"市立津田公園","province":"東京都","city":"小平市","address":"東京都小平市津田町3-39","lat":35.722887,"lon":139.470526},{"name":"＊?小平市立上水南公民館","province":"東京都","city":"小平市","address":"小平市上水南町1-27-1","lat":35.713091,"lon":139.483708},{"name":"＊?小平市中央公民館","province":"東京都","city":"小平市","address":"小平市小川町2-1325","lat":35.727774,"lon":139.476668},{"name":"＊?小平市立仲町公民館","province":"東京都","city":"小平市","address":"小平市仲町521","lat":35.730156,"lon":139.484916},{"name":"＊?小平市立津田公民館","province":"東京都","city":"小平市","address":"小平市津田町3-11-1","lat":35.72077,"lon":139.470078},{"name":"＊?小平市立大沼公民館","province":"東京都","city":"小平市","address":"小平市大沼町7-1-17","lat":35.735394,"lon":139.497223},{"name":"＊?小平市立小川西町公民館","province":"東京都","city":"小平市","address":"小平市小川西町4-10-13","lat":35.735126,"lon":139.461798},{"name":"＊?小平市立小川公民館","province":"東京都","city":"小平市","address":"小平市小川町1-1012","lat":35.725787,"lon":139.459263},{"name":"＊?小平市立上宿公民館","province":"東京都","city":"小平市","address":"小平市小川町1-308","lat":35.731629,"lon":139.443796},{"name":"＊?小平市立花小金井南公民館","province":"東京都","city":"小平市","address":"小平市花小金井南町2-12-6","lat":35.724354,"lon":139.516113},{"name":"＊?小平市立花小金井北公民館","province":"東京都","city":"小平市","address":"小平市花小金井5-41-3","lat":35.734251,"lon":139.510261},{"name":"＊?小平市立鈴木公民館","province":"東京都","city":"小平市","address":"小平市鈴木町2-772","lat":35.722005,"lon":139.507369},{"name":"上水南給水所","province":"東京都","city":"小平市","address":"東京都小平市上水南町3-12-36","lat":35.711611,"lon":139.491713},{"name":"小川給水所","province":"東京都","city":"小平市","address":"東京都小平市小川町1-847","lat":35.7256378,"lon":139.453172},{"name":"市立津田公園","province":"東京都","city":"小平市","address":"東京都小平市津田町3-39","lat":35.722887,"lon":139.470526},{"name":"＊?小平市立上水南公民館","province":"東京都","city":"小平市","address":"小平市上水南町1-27-1","lat":35.713091,"lon":139.483708},{"name":"＊?小平市中央公民館","province":"東京都","city":"小平市","address":"小平市小川町2-1325","lat":35.727774,"lon":139.476668},{"name":"＊?小平市立仲町公民館","province":"東京都","city":"小平市","address":"小平市仲町521","lat":35.730156,"lon":139.484916},{"name":"＊?小平市立津田公民館","province":"東京都","city":"小平市","address":"小平市津田町3-11-1","lat":35.72077,"lon":139.470078},{"name":"＊?小平市立大沼公民館","province":"東京都","city":"小平市","address":"小平市大沼町7-1-17","lat":35.735394,"lon":139.497223},{"name":"＊?小平市立小川西町公民館","province":"東京都","city":"小平市","address":"小平市小川西町4-10-13","lat":35.735126,"lon":139.461798},{"name":"＊?小平市立小川公民館","province":"東京都","city":"小平市","address":"小平市小川町1-1012","lat":35.725787,"lon":139.459263},{"name":"＊?小平市立上宿公民館","province":"東京都","city":"小平市","address":"小平市小川町1-308","lat":35.731629,"lon":139.443796},{"name":"＊?小平市立花小金井南公民館","province":"東京都","city":"小平市","address":"小平市花小金井南町2-12-6","lat":35.724354,"lon":139.516113},{"name":"＊?小平市立花小金井北公民館","province":"東京都","city":"小平市","address":"小平市花小金井5-41-3","lat":35.734251,"lon":139.510261},{"name":"＊?小平市立鈴木公民館","province":"東京都","city":"小平市","address":"小平市鈴木町2-772","lat":35.722005,"lon":139.507369},{"name":"上水南給水所","province":"東京都","city":"小平市","address":"東京都小平市上水南町3-12-36","lat":35.711611,"lon":139.491713},{"name":"小川給水所","province":"東京都","city":"小平市","address":"東京都小平市小川町1-847","lat":35.7256378,"lon":139.453172},{"name":"市立津田公園","province":"東京都","city":"小平市","address":"東京都小平市津田町3-39","lat":35.722887,"lon":139.470526},{"name":"＊?小平市立上水南公民館","province":"東京都","city":"小平市","address":"小平市上水南町1-27-1","lat":35.713091,"lon":139.483708},{"name":"＊?小平市中央公民館","province":"東京都","city":"小平市","address":"小平市小川町2-1325","lat":35.727774,"lon":139.476668},{"name":"＊?小平市立仲町公民館","province":"東京都","city":"小平市","address":"小平市仲町521","lat":35.730156,"lon":139.484916},{"name":"＊?小平市立津田公民館","province":"東京都","city":"小平市","address":"小平市津田町3-11-1","lat":35.72077,"lon":139.470078},{"name":"＊?小平市立大沼公民館","province":"東京都","city":"小平市","address":"小平市大沼町7-1-17","lat":35.735394,"lon":139.497223},{"name":"＊?小平市立小川西町公民館","province":"東京都","city":"小平市","address":"小平市小川西町4-10-13","lat":35.735126,"lon":139.461798},{"name":"＊?小平市立小川公民館","province":"東京都","city":"小平市","address":"小平市小川町1-1012","lat":35.725787,"lon":139.459263},{"name":"＊?小平市立上宿公民館","province":"東京都","city":"小平市","address":"小平市小川町1-308","lat":35.731629,"lon":139.443796},{"name":"＊?小平市立花小金井南公民館","province":"東京都","city":"小平市","address":"小平市花小金井南町2-12-6","lat":35.724354,"lon":139.516113},{"name":"＊?小平市立花小金井北公民館","province":"東京都","city":"小平市","address":"小平市花小金井5-41-3","lat":35.734251,"lon":139.510261},{"name":"＊?小平市立鈴木公民館","province":"東京都","city":"小平市","address":"小平市鈴木町2-772","lat":35.722005,"lon":139.507369},{"name":"上水南給水所","province":"東京都","city":"小平市","address":"東京都小平市上水南町3-12-36","lat":35.711611,"lon":139.491713},{"name":"小川給水所","province":"東京都","city":"小平市","address":"東京都小平市小川町1-847","lat":35.7256378,"lon":139.453172},{"name":"市立津田公園","province":"東京都","city":"小平市","address":"東京都小平市津田町3-39","lat":35.722887,"lon":139.470526},{"name":"＊?小平市立上水南公民館","province":"東京都","city":"小平市","address":"小平市上水南町1-27-1","lat":35.713091,"lon":139.483708},{"name":"＊?小平市中央公民館","province":"東京都","city":"小平市","address":"小平市小川町2-1325","lat":35.727774,"lon":139.476668},{"name":"＊?小平市立仲町公民館","province":"東京都","city":"小平市","address":"小平市仲町521","lat":35.730156,"lon":139.484916},{"name":"＊?小平市立津田公民館","province":"東京都","city":"小平市","address":"小平市津田町3-11-1","lat":35.72077,"lon":139.470078},{"name":"＊?小平市立大沼公民館","province":"東京都","city":"小平市","address":"小平市大沼町7-1-17","lat":35.735394,"lon":139.497223},{"name":"＊?小平市立小川西町公民館","province":"東京都","city":"小平市","address":"小平市小川西町4-10-13","lat":35.735126,"lon":139.461798},{"name":"＊?小平市立小川公民館","province":"東京都","city":"小平市","address":"小平市小川町1-1012","lat":35.725787,"lon":139.459263},{"name":"＊?小平市立上宿公民館","province":"東京都","city":"小平市","address":"小平市小川町1-308","lat":35.731629,"lon":139.443796},{"name":"＊?小平市立花小金井南公民館","province":"東京都","city":"小平市","address":"小平市花小金井南町2-12-6","lat":35.724354,"lon":139.516113},{"name":"＊?小平市立花小金井北公民館","province":"東京都","city":"小平市","address":"小平市花小金井5-41-3","lat":35.734251,"lon":139.510261},{"name":"＊?小平市立鈴木公民館","province":"東京都","city":"小平市","address":"小平市鈴木町2-772","lat":35.722005,"lon":139.507369},{"name":"上水南給水所","province":"東京都","city":"小平市","address":"東京都小平市上水南町3-12-36","lat":35.711611,"lon":139.491713},{"name":"小川給水所","province":"東京都","city":"小平市","address":"東京都小平市小川町1-847","lat":35.7256378,"lon":139.453172},{"name":"市立津田公園","province":"東京都","city":"小平市","address":"東京都小平市津田町3-39","lat":35.722887,"lon":139.470526},{"name":"＊?小平市立上水南公民館","province":"東京都","city":"小平市","address":"小平市上水南町1-27-1","lat":35.713091,"lon":139.483708},{"name":"＊?小平市中央公民館","province":"東京都","city":"小平市","address":"小平市小川町2-1325","lat":35.727774,"lon":139.476668},{"name":"＊?小平市立仲町公民館","province":"東京都","city":"小平市","address":"小平市仲町521","lat":35.730156,"lon":139.484916},{"name":"＊?小平市立津田公民館","province":"東京都","city":"小平市","address":"小平市津田町3-11-1","lat":35.72077,"lon":139.470078},{"name":"＊?小平市立大沼公民館","province":"東京都","city":"小平市","address":"小平市大沼町7-1-17","lat":35.735394,"lon":139.497223},{"name":"＊?小平市立小川西町公民館","province":"東京都","city":"小平市","address":"小平市小川西町4-10-13","lat":35.735126,"lon":139.461798},{"name":"＊?小平市立小川公民館","province":"東京都","city":"小平市","address":"小平市小川町1-1012","lat":35.725787,"lon":139.459263},{"name":"＊?小平市立上宿公民館","province":"東京都","city":"小平市","address":"小平市小川町1-308","lat":35.731629,"lon":139.443796},{"name":"＊?小平市立花小金井南公民館","province":"東京都","city":"小平市","address":"小平市花小金井南町2-12-6","lat":35.724354,"lon":139.516113},{"name":"＊?小平市立花小金井北公民館","province":"東京都","city":"小平市","address":"小平市花小金井5-41-3","lat":35.734251,"lon":139.510261},{"name":"＊?小平市立鈴木公民館","province":"東京都","city":"小平市","address":"小平市鈴木町2-772","lat":35.722005,"lon":139.507369},{"name":"上水南給水所","province":"東京都","city":"小平市","address":"東京都小平市上水南町3-12-36","lat":35.711611,"lon":139.491713},{"name":"小川給水所","province":"東京都","city":"小平市","address":"東京都小平市小川町1-847","lat":35.7256378,"lon":139.453172},{"name":"市立津田公園","province":"東京都","city":"小平市","address":"東京都小平市津田町3-39","lat":35.722887,"lon":139.470526},{"name":"＊?小平市立上水南公民館","province":"東京都","city":"小平市","address":"小平市上水南町1-27-1","lat":35.713091,"lon":139.483708},{"name":"＊?小平市中央公民館","province":"東京都","city":"小平市","address":"小平市小川町2-1325","lat":35.727774,"lon":139.476668},{"name":"＊?小平市立仲町公民館","province":"東京都","city":"小平市","address":"小平市仲町521","lat":35.730156,"lon":139.484916},{"name":"＊?小平市立津田公民館","province":"東京都","city":"小平市","address":"小平市津田町3-11-1","lat":35.72077,"lon":139.470078},{"name":"＊?小平市立大沼公民館","province":"東京都","city":"小平市","address":"小平市大沼町7-1-17","lat":35.735394,"lon":139.497223},{"name":"＊?小平市立小川西町公民館","province":"東京都","city":"小平市","address":"小平市小川西町4-10-13","lat":35.735126,"lon":139.461798},{"name":"＊?小平市立小川公民館","province":"東京都","city":"小平市","address":"小平市小川町1-1012","lat":35.725787,"lon":139.459263},{"name":"＊?小平市立上宿公民館","province":"東京都","city":"小平市","address":"小平市小川町1-308","lat":35.731629,"lon":139.443796},{"name":"＊?小平市立花小金井南公民館","province":"東京都","city":"小平市","address":"小平市花小金井南町2-12-6","lat":35.724354,"lon":139.516113},{"name":"＊?小平市立花小金井北公民館","province":"東京都","city":"小平市","address":"小平市花小金井5-41-3","lat":35.734251,"lon":139.510261},{"name":"＊?小平市立鈴木公民館","province":"東京都","city":"小平市","address":"小平市鈴木町2-772","lat":35.722005,"lon":139.507369},{"name":"上水南給水所","province":"東京都","city":"小平市","address":"東京都小平市上水南町3-12-36","lat":35.711611,"lon":139.491713},{"name":"小川給水所","province":"東京都","city":"小平市","address":"東京都小平市小川町1-847","lat":35.7256378,"lon":139.453172},{"name":"市立津田公園","province":"東京都","city":"小平市","address":"東京都小平市津田町3-39","lat":35.722887,"lon":139.470526},{"name":"＊?小平市立上水南公民館","province":"東京都","city":"小平市","address":"小平市上水南町1-27-1","lat":35.713091,"lon":139.483708},{"name":"＊?小平市中央公民館","province":"東京都","city":"小平市","address":"小平市小川町2-1325","lat":35.727774,"lon":139.476668},{"name":"＊?小平市立仲町公民館","province":"東京都","city":"小平市","address":"小平市仲町521","lat":35.730156,"lon":139.484916},{"name":"＊?小平市立津田公民館","province":"東京都","city":"小平市","address":"小平市津田町3-11-1","lat":35.72077,"lon":139.470078},{"name":"＊?小平市立大沼公民館","province":"東京都","city":"小平市","address":"小平市大沼町7-1-17","lat":35.735394,"lon":139.497223},{"name":"＊?小平市立小川西町公民館","province":"東京都","city":"小平市","address":"小平市小川西町4-10-13","lat":35.735126,"lon":139.461798},{"name":"＊?小平市立小川公民館","province":"東京都","city":"小平市","address":"小平市小川町1-1012","lat":35.725787,"lon":139.459263},{"name":"＊?小平市立上宿公民館","province":"東京都","city":"小平市","address":"小平市小川町1-308","lat":35.731629,"lon":139.443796},{"name":"＊?小平市立花小金井南公民館","province":"東京都","city":"小平市","address":"小平市花小金井南町2-12-6","lat":35.724354,"lon":139.516113},{"name":"＊?小平市立花小金井北公民館","province":"東京都","city":"小平市","address":"小平市花小金井5-41-3","lat":35.734251,"lon":139.510261},{"name":"＊?小平市立鈴木公民館","province":"東京都","city":"小平市","address":"小平市鈴木町2-772","lat":35.722005,"lon":139.507369}]}