{"keyword":"店","data":[{"name":"公立昭和病院","province":"東京都","city":"小平市","address":"小平市花小金井8-1-1","lat":35.731297,"lon":139.503337},{"name":"小平荘","province":"東京都","city":"小平市","address":"小平市花小金井8-28-1","lat":35.730833,"lon":139.505728},{"name":"花小金井ハイツ","province":"東京都","city":"小平市","address":"小平市花小金井6-20-3","lat":35.730195,"lon":139.510728},{"name":"南台病院","province":"東京都","city":"小平市","address":"小平市小川町1-485","lat":35.727651,"lon":139.440373},{"name":"多摩済生病院","province":"東京都","city":"小平市","address":"小平市美園町3-11-1","lat":35.740607,"lon":139.489257},{"name":"小平市社会福祉協議会","province":"東京都","city":"小平市","address":"小平市学園東町1-19-13福祉会館内","lat":35.726567,"lon":139.478114},{"name":"小平荘","province":"東京都","city":"小平市","address":"小平市花小金井8-28-1","lat":35.73142,"lon":139.50586},{"name":"花小金井ハイツ","province":"東京都","city":"小平市","address":"小平市花小金井6-20-3","lat":35.73022,"lon":139.51057},{"name":"ひのでセレモニー","province":"東京都","city":"小平市","address":"東京都小平市栄町2丁目29-11","lat":35.7336955,"lon":139.45121901},{"name":"株式会社エムエスジー葬儀の正行","province":"東京都","city":"小平市","address":"東京都小平市学園東町2丁目4-22","lat":35.72311438,"lon":139.48558585},{"name":"有限会社　小平典礼","province":"東京都","city":"小平市","address":"東京都小平市花小金井8丁目1-2","lat":35.73079452,"lon":139.5032617},{"name":"有限会社小平典礼","province":"東京都","city":"小平市","address":"東京都小平市花小金井8丁目1-2","lat":35.73079452,"lon":139.5032617},{"name":"株式会社京典","province":"東京都","city":"小平市","address":"東京都小平市小川西町4丁目33-20","lat":35.73925633,"lon":139.46327602},{"name":"有限会社岩手屋商事","province":"東京都","city":"小平市","address":"東京都小平市学園西町1丁目20-7","lat":35.72013401,"lon":139.48013645},{"name":"公立昭和病院","province":"東京都","city":"小平市","address":"小平市花小金井8-1-1","lat":35.73167,"lon":139.50266},{"name":"くるめ園","province":"東京都","city":"小平市","address":"小平市上水南町4-7-45","lat":35.71013,"lon":139.4913},{"name":"あかつき","province":"東京都","city":"小平市","address":"小平市小川町1-485","lat":35.72841,"lon":139.44067},{"name":"黎明寮","province":"東京都","city":"小平市","address":"小平市小川町1-485","lat":35.72841,"lon":139.44067},{"name":"花小金井ハイツ２","province":"東京都","city":"小平市","address":"小平市花小金井6-20-3","lat":35.73022,"lon":139.51057},{"name":"ロッジ小平","province":"東京都","city":"小平市","address":"小平市花小金井8-28-1","lat":35.73142,"lon":139.50586},{"name":"天神ハイツ","province":"東京都","city":"小平市","address":"小平市天神町2-4-33","lat":35.73304,"lon":139.49271},{"name":"天神ハイツ２","province":"東京都","city":"小平市","address":"小平市天神町2-4-33","lat":35.73304,"lon":139.49271},{"name":"小平市社会福祉協議会","province":"東京都","city":"小平市","address":"小平市学園東町1-19-13福祉会館4階","lat":35.72678,"lon":139.47797},{"name":"あかつき","province":"東京都","city":"小平市","address":"小平市小川町1-485","lat":35.727651,"lon":139.440373},{"name":"くるめ園","province":"東京都","city":"小平市","address":"小平市上水南町4-7-45","lat":35.708799,"lon":139.491028},{"name":"黎明寮","province":"東京都","city":"小平市","address":"小平市小川町1-485","lat":35.727651,"lon":139.440373},{"name":"社会福祉法人未来ワークセンター夢の樹","province":"東京都","city":"小平市","address":"東京都小平市大沼町2丁目1-3","lat":35.7386878,"lon":139.49255676},{"name":"社会福祉法人未来みくま","province":"東京都","city":"小平市","address":"東京都小平市大沼町2丁目1-12","lat":35.73818229,"lon":139.49219293},{"name":"社会福祉法人桂会あしたば作業所","province":"東京都","city":"小平市","address":"東京都小平市鈴木町2丁目187-3","lat":35.72360934,"lon":139.50689505},{"name":"小平市立あおぞら福祉センター","province":"東京都","city":"小平市","address":"東京都小平市鈴木町1丁目472-89","lat":35.72002896,"lon":139.49796266},{"name":"生活リハビリセンター六三四","province":"東京都","city":"小平市","address":"東京都小平市仲町364-1","lat":35.72810559,"lon":139.48970749},{"name":"小平第二みどり作業所","province":"東京都","city":"小平市","address":"東京都小平市天神町3丁目7-16","lat":35.73086109,"lon":139.49950648},{"name":"サングリーン","province":"東京都","city":"小平市","address":"東京都小平市小川町1丁目943","lat":35.72774082,"lon":139.456641},{"name":"社会福祉法人つむぎおだまき","province":"東京都","city":"小平市","address":"東京都小平市小川東町4丁目2-1","lat":35.74015101,"lon":139.47406669},{"name":"花小金井ハイツ","province":"東京都","city":"小平市","address":"小平市花小金井6-20-3","lat":35.73023,"lon":139.51057},{"name":"花小金井ハイツ2","province":"東京都","city":"小平市","address":"小平市花小金井6-20-3","lat":35.73023,"lon":139.51057},{"name":"花小金井ハイツ2","province":"東京都","city":"小平市","address":"小平市花小金井6-20-3","lat":35.73022,"lon":139.51057},{"name":"けやきの郷","province":"東京都","city":"小平市","address":"小平市小川町1-485","lat":35.727651,"lon":139.440373},{"name":"公立昭和病院","province":"東京都","city":"小平市","address":"小平市花小金井8-1-1","lat":35.731297,"lon":139.503337},{"name":"小平荘","province":"東京都","city":"小平市","address":"小平市花小金井8-28-1","lat":35.730833,"lon":139.505728},{"name":"花小金井ハイツ","province":"東京都","city":"小平市","address":"小平市花小金井6-20-3","lat":35.730195,"lon":139.510728},{"name":"南台病院","province":"東京都","city":"小平市","address":"小平市小川町1-485","lat":35.727651,"lon":139.440373},{"name":"多摩済生病院","province":"東京都","city":"小平市","address":"小平市美園町3-11-1","lat":35.740607,"lon":139.489257},{"name":"小平市社会福祉協議会","province":"東京都","city":"小平市","address":"小平市学園東町1-19-13福祉会館内","lat":35.726567,"lon":139.478114},{"name":"小平荘","province":"東京都","city":"小平市","address":"小平市花小金井8-28-1","lat":35.73142,"lon":139.50586},{"name":"花小金井ハイツ","province":"東京都","city":"小平市","address":"小平市花小金井6-20-3","lat":35.73022,"lon":139.51057},{"name":"ひのでセレモニー","province":"東京都","city":"小平市","address":"東京都小平市栄町2丁目29-11","lat":35.7336955,"lon":139.45121901},{"name":"株式会社エムエスジー葬儀の正行","province":"東京都","city":"小平市","address":"東京都小平市学園東町2丁目4-22","lat":35.72311438,"lon":139.48558585},{"name":"有限会社　小平典礼","province":"東京都","city":"小平市","address":"東京都小平市花小金井8丁目1-2","lat":35.73079452,"lon":139.5032617},{"name":"有限会社小平典礼","province":"東京都","city":"小平市","address":"東京都小平市花小金井8丁目1-2","lat":35.73079452,"lon":139.5032617},{"name":"株式会社京典","province":"東京都","city":"小平市","address":"東京都小平市小川西町4丁目33-20","lat":35.73925633,"lon":139.46327602},{"name":"有限会社岩手屋商事","province":"東京都","city":"小平市","address":"東京都小平市学園西町1丁目20-7","lat":35.72013401,"lon":139.48013645},{"name":"公立昭和病院","province":"東京都","city":"小平市","address":"小平市花小金井8-1-1","lat":35.73167,"lon":139.50266},{"name":"くるめ園","province":"東京都","city":"小平市","address":"小平市上水南町4-7-45","lat":35.71013,"lon":139.4913},{"name":"あかつき","province":"東京都","city":"小平市","address":"小平市小川町1-485","lat":35.72841,"lon":139.44067},{"name":"黎明寮","province":"東京都","city":"小平市","address":"小平市小川町1-485","lat":35.72841,"lon":139.44067},{"name":"花小金井ハイツ２","province":"東京都","city":"小平市","address":"小平市花小金井6-20-3","lat":35.73022,"lon":139.51057},{"name":"ロッジ小平","province":"東京都","city":"小平市","address":"小平市花小金井8-28-1","lat":35.73142,"lon":139.50586},{"name":"天神ハイツ","province":"東京都","city":"小平市","address":"小平市天神町2-4-33","lat":35.73304,"lon":139.49271},{"name":"天神ハイツ２","province":"東京都","city":"小平市","address":"小平市天神町2-4-33","lat":35.73304,"lon":139.49271},{"name":"小平市社会福祉協議会","province":"東京都","city":"小平市","address":"小平市学園東町1-19-13福祉会館4階","lat":35.72678,"lon":139.47797},{"name":"あかつき","province":"東京都","city":"小平市","address":"小平市小川町1-485","lat":35.727651,"lon":139.440373},{"name":"くるめ園","province":"東京都","city":"小平市","address":"小平市上水南町4-7-45","lat":35.708799,"lon":139.491028},{"name":"黎明寮","province":"東京都","city":"小平市","address":"小平市小川町1-485","lat":35.727651,"lon":139.440373},{"name":"社会福祉法人未来ワークセンター夢の樹","province":"東京都","city":"小平市","address":"東京都小平市大沼町2丁目1-3","lat":35.7386878,"lon":139.49255676},{"name":"社会福祉法人未来みくま","province":"東京都","city":"小平市","address":"東京都小平市大沼町2丁目1-12","lat":35.73818229,"lon":139.49219293},{"name":"社会福祉法人桂会あしたば作業所","province":"東京都","city":"小平市","address":"東京都小平市鈴木町2丁目187-3","lat":35.72360934,"lon":139.50689505},{"name":"小平市立あおぞら福祉センター","province":"東京都","city":"小平市","address":"東京都小平市鈴木町1丁目472-89","lat":35.72002896,"lon":139.49796266},{"name":"生活リハビリセンター六三四","province":"東京都","city":"小平市","address":"東京都小平市仲町364-1","lat":35.72810559,"lon":139.48970749},{"name":"小平第二みどり作業所","province":"東京都","city":"小平市","address":"東京都小平市天神町3丁目7-16","lat":35.73086109,"lon":139.49950648},{"name":"サングリーン","province":"東京都","city":"小平市","address":"東京都小平市小川町1丁目943","lat":35.72774082,"lon":139.456641},{"name":"社会福祉法人つむぎおだまき","province":"東京都","city":"小平市","address":"東京都小平市小川東町4丁目2-1","lat":35.74015101,"lon":139.47406669},{"name":"花小金井ハイツ","province":"東京都","city":"小平市","address":"小平市花小金井6-20-3","lat":35.73023,"lon":139.51057},{"name":"花小金井ハイツ2","province":"東京都","city":"小平市","address":"小平市花小金井6-20-3","lat":35.73023,"lon":139.51057},{"name":"花小金井ハイツ2","province":"東京都","city":"小平市","address":"小平市花小金井6-20-3","lat":35.73022,"lon":139.51057},{"name":"けやきの郷","province":"東京都","city":"小平市","address":"小平市小川町1-485","lat":35.727651,"lon":139.440373},{"name":"公立昭和病院","province":"東京都","city":"小平市","address":"小平市花小金井8-1-1","lat":35.731297,"lon":139.503337},{"name":"小平荘","province":"東京都","city":"小平市","address":"小平市花小金井8-28-1","lat":35.730833,"lon":139.505728},{"name":"花小金井ハイツ","province":"東京都","city":"小平市","address":"小平市花小金井6-20-3","lat":35.730195,"lon":139.510728},{"name":"南台病院","province":"東京都","city":"小平市","address":"小平市小川町1-485","lat":35.727651,"lon":139.440373},{"name":"多摩済生病院","province":"東京都","city":"小平市","address":"小平市美園町3-11-1","lat":35.740607,"lon":139.489257},{"name":"小平市社会福祉協議会","province":"東京都","city":"小平市","address":"小平市学園東町1-19-13福祉会館内","lat":35.726567,"lon":139.478114},{"name":"小平荘","province":"東京都","city":"小平市","address":"小平市花小金井8-28-1","lat":35.73142,"lon":139.50586},{"name":"花小金井ハイツ","province":"東京都","city":"小平市","address":"小平市花小金井6-20-3","lat":35.73022,"lon":139.51057},{"name":"ひのでセレモニー","province":"東京都","city":"小平市","address":"東京都小平市栄町2丁目29-11","lat":35.7336955,"lon":139.45121901},{"name":"株式会社エムエスジー葬儀の正行","province":"東京都","city":"小平市","address":"東京都小平市学園東町2丁目4-22","lat":35.72311438,"lon":139.48558585},{"name":"有限会社　小平典礼","province":"東京都","city":"小平市","address":"東京都小平市花小金井8丁目1-2","lat":35.73079452,"lon":139.5032617},{"name":"有限会社小平典礼","province":"東京都","city":"小平市","address":"東京都小平市花小金井8丁目1-2","lat":35.73079452,"lon":139.5032617},{"name":"株式会社京典","province":"東京都","city":"小平市","address":"東京都小平市小川西町4丁目33-20","lat":35.73925633,"lon":139.46327602},{"name":"有限会社岩手屋商事","province":"東京都","city":"小平市","address":"東京都小平市学園西町1丁目20-7","lat":35.72013401,"lon":139.48013645},{"name":"公立昭和病院","province":"東京都","city":"小平市","address":"小平市花小金井8-1-1","lat":35.73167,"lon":139.50266},{"name":"くるめ園","province":"東京都","city":"小平市","address":"小平市上水南町4-7-45","lat":35.71013,"lon":139.4913},{"name":"あかつき","province":"東京都","city":"小平市","address":"小平市小川町1-485","lat":35.72841,"lon":139.44067},{"name":"黎明寮","province":"東京都","city":"小平市","address":"小平市小川町1-485","lat":35.72841,"lon":139.44067},{"name":"花小金井ハイツ２","province":"東京都","city":"小平市","address":"小平市花小金井6-20-3","lat":35.73022,"lon":139.51057},{"name":"ロッジ小平","province":"東京都","city":"小平市","address":"小平市花小金井8-28-1","lat":35.73142,"lon":139.50586},{"name":"天神ハイツ","province":"東京都","city":"小平市","address":"小平市天神町2-4-33","lat":35.73304,"lon":139.49271},{"name":"天神ハイツ２","province":"東京都","city":"小平市","address":"小平市天神町2-4-33","lat":35.73304,"lon":139.49271},{"name":"小平市社会福祉協議会","province":"東京都","city":"小平市","address":"小平市学園東町1-19-13福祉会館4階","lat":35.72678,"lon":139.47797},{"name":"あかつき","province":"東京都","city":"小平市","address":"小平市小川町1-485","lat":35.727651,"lon":139.440373},{"name":"くるめ園","province":"東京都","city":"小平市","address":"小平市上水南町4-7-45","lat":35.708799,"lon":139.491028},{"name":"黎明寮","province":"東京都","city":"小平市","address":"小平市小川町1-485","lat":35.727651,"lon":139.440373},{"name":"社会福祉法人未来ワークセンター夢の樹","province":"東京都","city":"小平市","address":"東京都小平市大沼町2丁目1-3","lat":35.7386878,"lon":139.49255676},{"name":"社会福祉法人未来みくま","province":"東京都","city":"小平市","address":"東京都小平市大沼町2丁目1-12","lat":35.73818229,"lon":139.49219293},{"name":"社会福祉法人桂会あしたば作業所","province":"東京都","city":"小平市","address":"東京都小平市鈴木町2丁目187-3","lat":35.72360934,"lon":139.50689505},{"name":"小平市立あおぞら福祉センター","province":"東京都","city":"小平市","address":"東京都小平市鈴木町1丁目472-89","lat":35.72002896,"lon":139.49796266},{"name":"生活リハビリセンター六三四","province":"東京都","city":"小平市","address":"東京都小平市仲町364-1","lat":35.72810559,"lon":139.48970749},{"name":"小平第二みどり作業所","province":"東京都","city":"小平市","address":"東京都小平市天神町3丁目7-16","lat":35.73086109,"lon":139.49950648},{"name":"サングリーン","province":"東京都","city":"小平市","address":"東京都小平市小川町1丁目943","lat":35.72774082,"lon":139.456641},{"name":"社会福祉法人つむぎおだまき","province":"東京都","city":"小平市","address":"東京都小平市小川東町4丁目2-1","lat":35.74015101,"lon":139.47406669},{"name":"花小金井ハイツ","province":"東京都","city":"小平市","address":"小平市花小金井6-20-3","lat":35.73023,"lon":139.51057},{"name":"花小金井ハイツ2","province":"東京都","city":"小平市","address":"小平市花小金井6-20-3","lat":35.73023,"lon":139.51057},{"name":"花小金井ハイツ2","province":"東京都","city":"小平市","address":"小平市花小金井6-20-3","lat":35.73022,"lon":139.51057},{"name":"けやきの郷","province":"東京都","city":"小平市","address":"小平市小川町1-485","lat":35.727651,"lon":139.440373},{"name":"公立昭和病院","province":"東京都","city":"小平市","address":"小平市花小金井8-1-1","lat":35.731297,"lon":139.503337},{"name":"小平荘","province":"東京都","city":"小平市","address":"小平市花小金井8-28-1","lat":35.730833,"lon":139.505728},{"name":"花小金井ハイツ","province":"東京都","city":"小平市","address":"小平市花小金井6-20-3","lat":35.730195,"lon":139.510728},{"name":"南台病院","province":"東京都","city":"小平市","address":"小平市小川町1-485","lat":35.727651,"lon":139.440373},{"name":"多摩済生病院","province":"東京都","city":"小平市","address":"小平市美園町3-11-1","lat":35.740607,"lon":139.489257},{"name":"小平市社会福祉協議会","province":"東京都","city":"小平市","address":"小平市学園東町1-19-13福祉会館内","lat":35.726567,"lon":139.478114},{"name":"小平荘","province":"東京都","city":"小平市","address":"小平市花小金井8-28-1","lat":35.73142,"lon":139.50586},{"name":"花小金井ハイツ","province":"東京都","city":"小平市","address":"小平市花小金井6-20-3","lat":35.73022,"lon":139.51057},{"name":"ひのでセレモニー","province":"東京都","city":"小平市","address":"東京都小平市栄町2丁目29-11","lat":35.7336955,"lon":139.45121901},{"name":"株式会社エムエスジー葬儀の正行","province":"東京都","city":"小平市","address":"東京都小平市学園東町2丁目4-22","lat":35.72311438,"lon":139.48558585},{"name":"有限会社　小平典礼","province":"東京都","city":"小平市","address":"東京都小平市花小金井8丁目1-2","lat":35.73079452,"lon":139.5032617},{"name":"有限会社小平典礼","province":"東京都","city":"小平市","address":"東京都小平市花小金井8丁目1-2","lat":35.73079452,"lon":139.5032617},{"name":"株式会社京典","province":"東京都","city":"小平市","address":"東京都小平市小川西町4丁目33-20","lat":35.73925633,"lon":139.46327602},{"name":"有限会社岩手屋商事","province":"東京都","city":"小平市","address":"東京都小平市学園西町1丁目20-7","lat":35.72013401,"lon":139.48013645},{"name":"公立昭和病院","province":"東京都","city":"小平市","address":"小平市花小金井8-1-1","lat":35.73167,"lon":139.50266},{"name":"くるめ園","province":"東京都","city":"小平市","address":"小平市上水南町4-7-45","lat":35.71013,"lon":139.4913},{"name":"あかつき","province":"東京都","city":"小平市","address":"小平市小川町1-485","lat":35.72841,"lon":139.44067},{"name":"黎明寮","province":"東京都","city":"小平市","address":"小平市小川町1-485","lat":35.72841,"lon":139.44067},{"name":"花小金井ハイツ２","province":"東京都","city":"小平市","address":"小平市花小金井6-20-3","lat":35.73022,"lon":139.51057},{"name":"ロッジ小平","province":"東京都","city":"小平市","address":"小平市花小金井8-28-1","lat":35.73142,"lon":139.50586},{"name":"天神ハイツ","province":"東京都","city":"小平市","address":"小平市天神町2-4-33","lat":35.73304,"lon":139.49271},{"name":"天神ハイツ２","province":"東京都","city":"小平市","address":"小平市天神町2-4-33","lat":35.73304,"lon":139.49271},{"name":"小平市社会福祉協議会","province":"東京都","city":"小平市","address":"小平市学園東町1-19-13福祉会館4階","lat":35.72678,"lon":139.47797},{"name":"あかつき","province":"東京都","city":"小平市","address":"小平市小川町1-485","lat":35.727651,"lon":139.440373},{"name":"くるめ園","province":"東京都","city":"小平市","address":"小平市上水南町4-7-45","lat":35.708799,"lon":139.491028},{"name":"黎明寮","province":"東京都","city":"小平市","address":"小平市小川町1-485","lat":35.727651,"lon":139.440373},{"name":"社会福祉法人未来ワークセンター夢の樹","province":"東京都","city":"小平市","address":"東京都小平市大沼町2丁目1-3","lat":35.7386878,"lon":139.49255676},{"name":"社会福祉法人未来みくま","province":"東京都","city":"小平市","address":"東京都小平市大沼町2丁目1-12","lat":35.73818229,"lon":139.49219293},{"name":"社会福祉法人桂会あしたば作業所","province":"東京都","city":"小平市","address":"東京都小平市鈴木町2丁目187-3","lat":35.72360934,"lon":139.50689505},{"name":"小平市立あおぞら福祉センター","province":"東京都","city":"小平市","address":"東京都小平市鈴木町1丁目472-89","lat":35.72002896,"lon":139.49796266},{"name":"生活リハビリセンター六三四","province":"東京都","city":"小平市","address":"東京都小平市仲町364-1","lat":35.72810559,"lon":139.48970749},{"name":"小平第二みどり作業所","province":"東京都","city":"小平市","address":"東京都小平市天神町3丁目7-16","lat":35.73086109,"lon":139.49950648},{"name":"サングリーン","province":"東京都","city":"小平市","address":"東京都小平市小川町1丁目943","lat":35.72774082,"lon":139.456641},{"name":"社会福祉法人つむぎおだまき","province":"東京都","city":"小平市","address":"東京都小平市小川東町4丁目2-1","lat":35.74015101,"lon":139.47406669},{"name":"花小金井ハイツ","province":"東京都","city":"小平市","address":"小平市花小金井6-20-3","lat":35.73023,"lon":139.51057},{"name":"花小金井ハイツ2","province":"東京都","city":"小平市","address":"小平市花小金井6-20-3","lat":35.73023,"lon":139.51057},{"name":"花小金井ハイツ2","province":"東京都","city":"小平市","address":"小平市花小金井6-20-3","lat":35.73022,"lon":139.51057},{"name":"けやきの郷","province":"東京都","city":"小平市","address":"小平市小川町1-485","lat":35.727651,"lon":139.440373},{"name":"公立昭和病院","province":"東京都","city":"小平市","address":"小平市花小金井8-1-1","lat":35.731297,"lon":139.503337},{"name":"小平荘","province":"東京都","city":"小平市","address":"小平市花小金井8-28-1","lat":35.730833,"lon":139.505728},{"name":"花小金井ハイツ","province":"東京都","city":"小平市","address":"小平市花小金井6-20-3","lat":35.730195,"lon":139.510728},{"name":"南台病院","province":"東京都","city":"小平市","address":"小平市小川町1-485","lat":35.727651,"lon":139.440373},{"name":"多摩済生病院","province":"東京都","city":"小平市","address":"小平市美園町3-11-1","lat":35.740607,"lon":139.489257},{"name":"小平市社会福祉協議会","province":"東京都","city":"小平市","address":"小平市学園東町1-19-13福祉会館内","lat":35.726567,"lon":139.478114},{"name":"小平荘","province":"東京都","city":"小平市","address":"小平市花小金井8-28-1","lat":35.73142,"lon":139.50586},{"name":"花小金井ハイツ","province":"東京都","city":"小平市","address":"小平市花小金井6-20-3","lat":35.73022,"lon":139.51057},{"name":"ひのでセレモニー","province":"東京都","city":"小平市","address":"東京都小平市栄町2丁目29-11","lat":35.7336955,"lon":139.45121901},{"name":"株式会社エムエスジー葬儀の正行","province":"東京都","city":"小平市","address":"東京都小平市学園東町2丁目4-22","lat":35.72311438,"lon":139.48558585},{"name":"有限会社　小平典礼","province":"東京都","city":"小平市","address":"東京都小平市花小金井8丁目1-2","lat":35.73079452,"lon":139.5032617},{"name":"有限会社小平典礼","province":"東京都","city":"小平市","address":"東京都小平市花小金井8丁目1-2","lat":35.73079452,"lon":139.5032617},{"name":"株式会社京典","province":"東京都","city":"小平市","address":"東京都小平市小川西町4丁目33-20","lat":35.73925633,"lon":139.46327602},{"name":"有限会社岩手屋商事","province":"東京都","city":"小平市","address":"東京都小平市学園西町1丁目20-7","lat":35.72013401,"lon":139.48013645},{"name":"公立昭和病院","province":"東京都","city":"小平市","address":"小平市花小金井8-1-1","lat":35.73167,"lon":139.50266},{"name":"くるめ園","province":"東京都","city":"小平市","address":"小平市上水南町4-7-45","lat":35.71013,"lon":139.4913},{"name":"あかつき","province":"東京都","city":"小平市","address":"小平市小川町1-485","lat":35.72841,"lon":139.44067},{"name":"黎明寮","province":"東京都","city":"小平市","address":"小平市小川町1-485","lat":35.72841,"lon":139.44067},{"name":"花小金井ハイツ２","province":"東京都","city":"小平市","address":"小平市花小金井6-20-3","lat":35.73022,"lon":139.51057},{"name":"ロッジ小平","province":"東京都","city":"小平市","address":"小平市花小金井8-28-1","lat":35.73142,"lon":139.50586},{"name":"天神ハイツ","province":"東京都","city":"小平市","address":"小平市天神町2-4-33","lat":35.73304,"lon":139.49271},{"name":"天神ハイツ２","province":"東京都","city":"小平市","address":"小平市天神町2-4-33","lat":35.73304,"lon":139.49271},{"name":"小平市社会福祉協議会","province":"東京都","city":"小平市","address":"小平市学園東町1-19-13福祉会館4階","lat":35.72678,"lon":139.47797},{"name":"あかつき","province":"東京都","city":"小平市","address":"小平市小川町1-485","lat":35.727651,"lon":139.440373},{"name":"くるめ園","province":"東京都","city":"小平市","address":"小平市上水南町4-7-45","lat":35.708799,"lon":139.491028},{"name":"黎明寮","province":"東京都","city":"小平市","address":"小平市小川町1-485","lat":35.727651,"lon":139.440373},{"name":"社会福祉法人未来ワークセンター夢の樹","province":"東京都","city":"小平市","address":"東京都小平市大沼町2丁目1-3","lat":35.7386878,"lon":139.49255676},{"name":"社会福祉法人未来みくま","province":"東京都","city":"小平市","address":"東京都小平市大沼町2丁目1-12","lat":35.73818229,"lon":139.49219293},{"name":"社会福祉法人桂会あしたば作業所","province":"東京都","city":"小平市","address":"東京都小平市鈴木町2丁目187-3","lat":35.72360934,"lon":139.50689505},{"name":"小平市立あおぞら福祉センター","province":"東京都","city":"小平市","address":"東京都小平市鈴木町1丁目472-89","lat":35.72002896,"lon":139.49796266},{"name":"生活リハビリセンター六三四","province":"東京都","city":"小平市","address":"東京都小平市仲町364-1","lat":35.72810559,"lon":139.48970749},{"name":"小平第二みどり作業所","province":"東京都","city":"小平市","address":"東京都小平市天神町3丁目7-16","lat":35.73086109,"lon":139.49950648},{"name":"サングリーン","province":"東京都","city":"小平市","address":"東京都小平市小川町1丁目943","lat":35.72774082,"lon":139.456641},{"name":"社会福祉法人つむぎおだまき","province":"東京都","city":"小平市","address":"東京都小平市小川東町4丁目2-1","lat":35.74015101,"lon":139.47406669},{"name":"花小金井ハイツ","province":"東京都","city":"小平市","address":"小平市花小金井6-20-3","lat":35.73023,"lon":139.51057},{"name":"花小金井ハイツ2","province":"東京都","city":"小平市","address":"小平市花小金井6-20-3","lat":35.73023,"lon":139.51057},{"name":"花小金井ハイツ2","province":"東京都","city":"小平市","address":"小平市花小金井6-20-3","lat":35.73022,"lon":139.51057},{"name":"けやきの郷","province":"東京都","city":"小平市","address":"小平市小川町1-485","lat":35.727651,"lon":139.440373},{"name":"公立昭和病院","province":"東京都","city":"小平市","address":"小平市花小金井8-1-1","lat":35.731297,"lon":139.503337},{"name":"小平荘","province":"東京都","city":"小平市","address":"小平市花小金井8-28-1","lat":35.730833,"lon":139.505728},{"name":"花小金井ハイツ","province":"東京都","city":"小平市","address":"小平市花小金井6-20-3","lat":35.730195,"lon":139.510728},{"name":"南台病院","province":"東京都","city":"小平市","address":"小平市小川町1-485","lat":35.727651,"lon":139.440373},{"name":"多摩済生病院","province":"東京都","city":"小平市","address":"小平市美園町3-11-1","lat":35.740607,"lon":139.489257},{"name":"小平市社会福祉協議会","province":"東京都","city":"小平市","address":"小平市学園東町1-19-13福祉会館内","lat":35.726567,"lon":139.478114},{"name":"小平荘","province":"東京都","city":"小平市","address":"小平市花小金井8-28-1","lat":35.73142,"lon":139.50586},{"name":"花小金井ハイツ","province":"東京都","city":"小平市","address":"小平市花小金井6-20-3","lat":35.73022,"lon":139.51057},{"name":"公立昭和病院","province":"東京都","city":"小平市","address":"小平市花小金井8-1-1","lat":35.73167,"lon":139.50266},{"name":"くるめ園","province":"東京都","city":"小平市","address":"小平市上水南町4-7-45","lat":35.71013,"lon":139.4913},{"name":"あかつき","province":"東京都","city":"小平市","address":"小平市小川町1-485","lat":35.72841,"lon":139.44067},{"name":"黎明寮","province":"東京都","city":"小平市","address":"小平市小川町1-485","lat":35.72841,"lon":139.44067},{"name":"花小金井ハイツ２","province":"東京都","city":"小平市","address":"小平市花小金井6-20-3","lat":35.73022,"lon":139.51057},{"name":"ロッジ小平","province":"東京都","city":"小平市","address":"小平市花小金井8-28-1","lat":35.73142,"lon":139.50586},{"name":"天神ハイツ","province":"東京都","city":"小平市","address":"小平市天神町2-4-33","lat":35.73304,"lon":139.49271},{"name":"天神ハイツ２","province":"東京都","city":"小平市","address":"小平市天神町2-4-33","lat":35.73304,"lon":139.49271},{"name":"小平市社会福祉協議会","province":"東京都","city":"小平市","address":"小平市学園東町1-19-13福祉会館4階","lat":35.72678,"lon":139.47797},{"name":"あかつき","province":"東京都","city":"小平市","address":"小平市小川町1-485","lat":35.727651,"lon":139.440373},{"name":"くるめ園","province":"東京都","city":"小平市","address":"小平市上水南町4-7-45","lat":35.708799,"lon":139.491028},{"name":"黎明寮","province":"東京都","city":"小平市","address":"小平市小川町1-485","lat":35.727651,"lon":139.440373},{"name":"社会福祉法人未来ワークセンター夢の樹","province":"東京都","city":"小平市","address":"東京都小平市大沼町2丁目1-3","lat":35.7386878,"lon":139.49255676},{"name":"社会福祉法人未来みくま","province":"東京都","city":"小平市","address":"東京都小平市大沼町2丁目1-12","lat":35.73818229,"lon":139.49219293},{"name":"社会福祉法人桂会あしたば作業所","province":"東京都","city":"小平市","address":"東京都小平市鈴木町2丁目187-3","lat":35.72360934,"lon":139.50689505},{"name":"小平市立あおぞら福祉センター","province":"東京都","city":"小平市","address":"東京都小平市鈴木町1丁目472-89","lat":35.72002896,"lon":139.49796266},{"name":"生活リハビリセンター六三四","province":"東京都","city":"小平市","address":"東京都小平市仲町364-1","lat":35.72810559,"lon":139.48970749},{"name":"小平第二みどり作業所","province":"東京都","city":"小平市","address":"東京都小平市天神町3丁目7-16","lat":35.73086109,"lon":139.49950648},{"name":"サングリーン","province":"東京都","city":"小平市","address":"東京都小平市小川町1丁目943","lat":35.72774082,"lon":139.456641},{"name":"社会福祉法人つむぎおだまき","province":"東京都","city":"小平市","address":"東京都小平市小川東町4丁目2-1","lat":35.74015101,"lon":139.47406669},{"name":"花小金井ハイツ","province":"東京都","city":"小平市","address":"小平市花小金井6-20-3","lat":35.73023,"lon":139.51057},{"name":"花小金井ハイツ2","province":"東京都","city":"小平市","address":"小平市花小金井6-20-3","lat":35.73023,"lon":139.51057},{"name":"花小金井ハイツ2","province":"東京都","city":"小平市","address":"小平市花小金井6-20-3","lat":35.73022,"lon":139.51057},{"name":"けやきの郷","province":"東京都","city":"小平市","address":"小平市小川町1-485","lat":35.727651,"lon":139.440373},{"name":"公立昭和病院","province":"東京都","city":"小平市","address":"小平市花小金井8-1-1","lat":35.731297,"lon":139.503337},{"name":"小平荘","province":"東京都","city":"小平市","address":"小平市花小金井8-28-1","lat":35.730833,"lon":139.505728},{"name":"花小金井ハイツ","province":"東京都","city":"小平市","address":"小平市花小金井6-20-3","lat":35.730195,"lon":139.510728},{"name":"南台病院","province":"東京都","city":"小平市","address":"小平市小川町1-485","lat":35.727651,"lon":139.440373},{"name":"多摩済生病院","province":"東京都","city":"小平市","address":"小平市美園町3-11-1","lat":35.740607,"lon":139.489257},{"name":"小平市社会福祉協議会","province":"東京都","city":"小平市","address":"小平市学園東町1-19-13福祉会館内","lat":35.726567,"lon":139.478114},{"name":"小平荘","province":"東京都","city":"小平市","address":"小平市花小金井8-28-1","lat":35.73142,"lon":139.50586},{"name":"花小金井ハイツ","province":"東京都","city":"小平市","address":"小平市花小金井6-20-3","lat":35.73022,"lon":139.51057},{"name":"公立昭和病院","province":"東京都","city":"小平市","address":"小平市花小金井8-1-1","lat":35.73167,"lon":139.50266},{"name":"くるめ園","province":"東京都","city":"小平市","address":"小平市上水南町4-7-45","lat":35.71013,"lon":139.4913},{"name":"あかつき","province":"東京都","city":"小平市","address":"小平市小川町1-485","lat":35.72841,"lon":139.44067},{"name":"黎明寮","province":"東京都","city":"小平市","address":"小平市小川町1-485","lat":35.72841,"lon":139.44067},{"name":"花小金井ハイツ２","province":"東京都","city":"小平市","address":"小平市花小金井6-20-3","lat":35.73022,"lon":139.51057},{"name":"ロッジ小平","province":"東京都","city":"小平市","address":"小平市花小金井8-28-1","lat":35.73142,"lon":139.50586},{"name":"天神ハイツ","province":"東京都","city":"小平市","address":"小平市天神町2-4-33","lat":35.73304,"lon":139.49271},{"name":"天神ハイツ２","province":"東京都","city":"小平市","address":"小平市天神町2-4-33","lat":35.73304,"lon":139.49271},{"name":"小平市社会福祉協議会","province":"東京都","city":"小平市","address":"小平市学園東町1-19-13福祉会館4階","lat":35.72678,"lon":139.47797},{"name":"あかつき","province":"東京都","city":"小平市","address":"小平市小川町1-485","lat":35.727651,"lon":139.440373},{"name":"くるめ園","province":"東京都","city":"小平市","address":"小平市上水南町4-7-45","lat":35.708799,"lon":139.491028},{"name":"黎明寮","province":"東京都","city":"小平市","address":"小平市小川町1-485","lat":35.727651,"lon":139.440373},{"name":"社会福祉法人未来ワークセンター夢の樹","province":"東京都","city":"小平市","address":"東京都小平市大沼町2丁目1-3","lat":35.7386878,"lon":139.49255676},{"name":"社会福祉法人未来みくま","province":"東京都","city":"小平市","address":"東京都小平市大沼町2丁目1-12","lat":35.73818229,"lon":139.49219293},{"name":"社会福祉法人桂会あしたば作業所","province":"東京都","city":"小平市","address":"東京都小平市鈴木町2丁目187-3","lat":35.72360934,"lon":139.50689505},{"name":"小平市立あおぞら福祉センター","province":"東京都","city":"小平市","address":"東京都小平市鈴木町1丁目472-89","lat":35.72002896,"lon":139.49796266},{"name":"生活リハビリセンター六三四","province":"東京都","city":"小平市","address":"東京都小平市仲町364-1","lat":35.72810559,"lon":139.48970749},{"name":"小平第二みどり作業所","province":"東京都","city":"小平市","address":"東京都小平市天神町3丁目7-16","lat":35.73086109,"lon":139.49950648},{"name":"サングリーン","province":"東京都","city":"小平市","address":"東京都小平市小川町1丁目943","lat":35.72774082,"lon":139.456641},{"name":"社会福祉法人つむぎおだまき","province":"東京都","city":"小平市","address":"東京都小平市小川東町4丁目2-1","lat":35.74015101,"lon":139.47406669},{"name":"花小金井ハイツ","province":"東京都","city":"小平市","address":"小平市花小金井6-20-3","lat":35.73023,"lon":139.51057},{"name":"花小金井ハイツ2","province":"東京都","city":"小平市","address":"小平市花小金井6-20-3","lat":35.73023,"lon":139.51057},{"name":"花小金井ハイツ2","province":"東京都","city":"小平市","address":"小平市花小金井6-20-3","lat":35.73022,"lon":139.51057},{"name":"けやきの郷","province":"東京都","city":"小平市","address":"小平市小川町1-485","lat":35.727651,"lon":139.440373},{"name":"公立昭和病院","province":"東京都","city":"小平市","address":"小平市花小金井8-1-1","lat":35.731297,"lon":139.503337},{"name":"小平荘","province":"東京都","city":"小平市","address":"小平市花小金井8-28-1","lat":35.730833,"lon":139.505728},{"name":"花小金井ハイツ","province":"東京都","city":"小平市","address":"小平市花小金井6-20-3","lat":35.730195,"lon":139.510728},{"name":"南台病院","province":"東京都","city":"小平市","address":"小平市小川町1-485","lat":35.727651,"lon":139.440373},{"name":"多摩済生病院","province":"東京都","city":"小平市","address":"小平市美園町3-11-1","lat":35.740607,"lon":139.489257},{"name":"小平市社会福祉協議会","province":"東京都","city":"小平市","address":"小平市学園東町1-19-13福祉会館内","lat":35.726567,"lon":139.478114},{"name":"小平荘","province":"東京都","city":"小平市","address":"小平市花小金井8-28-1","lat":35.73142,"lon":139.50586},{"name":"花小金井ハイツ","province":"東京都","city":"小平市","address":"小平市花小金井6-20-3","lat":35.73022,"lon":139.51057},{"name":"公立昭和病院","province":"東京都","city":"小平市","address":"小平市花小金井8-1-1","lat":35.73167,"lon":139.50266},{"name":"くるめ園","province":"東京都","city":"小平市","address":"小平市上水南町4-7-45","lat":35.71013,"lon":139.4913},{"name":"あかつき","province":"東京都","city":"小平市","address":"小平市小川町1-485","lat":35.72841,"lon":139.44067},{"name":"黎明寮","province":"東京都","city":"小平市","address":"小平市小川町1-485","lat":35.72841,"lon":139.44067},{"name":"花小金井ハイツ２","province":"東京都","city":"小平市","address":"小平市花小金井6-20-3","lat":35.73022,"lon":139.51057},{"name":"ロッジ小平","province":"東京都","city":"小平市","address":"小平市花小金井8-28-1","lat":35.73142,"lon":139.50586},{"name":"天神ハイツ","province":"東京都","city":"小平市","address":"小平市天神町2-4-33","lat":35.73304,"lon":139.49271},{"name":"天神ハイツ２","province":"東京都","city":"小平市","address":"小平市天神町2-4-33","lat":35.73304,"lon":139.49271},{"name":"小平市社会福祉協議会","province":"東京都","city":"小平市","address":"小平市学園東町1-19-13福祉会館4階","lat":35.72678,"lon":139.47797},{"name":"あかつき","province":"東京都","city":"小平市","address":"小平市小川町1-485","lat":35.727651,"lon":139.440373},{"name":"くるめ園","province":"東京都","city":"小平市","address":"小平市上水南町4-7-45","lat":35.708799,"lon":139.491028},{"name":"黎明寮","province":"東京都","city":"小平市","address":"小平市小川町1-485","lat":35.727651,"lon":139.440373},{"name":"社会福祉法人未来ワークセンター夢の樹","province":"東京都","city":"小平市","address":"東京都小平市大沼町2丁目1-3","lat":35.7386878,"lon":139.49255676},{"name":"社会福祉法人未来みくま","province":"東京都","city":"小平市","address":"東京都小平市大沼町2丁目1-12","lat":35.73818229,"lon":139.49219293},{"name":"社会福祉法人桂会あしたば作業所","province":"東京都","city":"小平市","address":"東京都小平市鈴木町2丁目187-3","lat":35.72360934,"lon":139.50689505},{"name":"小平市立あおぞら福祉センター","province":"東京都","city":"小平市","address":"東京都小平市鈴木町1丁目472-89","lat":35.72002896,"lon":139.49796266},{"name":"生活リハビリセンター六三四","province":"東京都","city":"小平市","address":"東京都小平市仲町364-1","lat":35.72810559,"lon":139.48970749},{"name":"小平第二みどり作業所","province":"東京都","city":"小平市","address":"東京都小平市天神町3丁目7-16","lat":35.73086109,"lon":139.49950648},{"name":"サングリーン","province":"東京都","city":"小平市","address":"東京都小平市小川町1丁目943","lat":35.72774082,"lon":139.456641},{"name":"社会福祉法人つむぎおだまき","province":"東京都","city":"小平市","address":"東京都小平市小川東町4丁目2-1","lat":35.74015101,"lon":139.47406669},{"name":"花小金井ハイツ","province":"東京都","city":"小平市","address":"小平市花小金井6-20-3","lat":35.73023,"lon":139.51057},{"name":"花小金井ハイツ2","province":"東京都","city":"小平市","address":"小平市花小金井6-20-3","lat":35.73023,"lon":139.51057},{"name":"花小金井ハイツ2","province":"東京都","city":"小平市","address":"小平市花小金井6-20-3","lat":35.73022,"lon":139.51057},{"name":"けやきの郷","province":"東京都","city":"小平市","address":"小平市小川町1-485","lat":35.727651,"lon":139.440373},{"name":"公立昭和病院","province":"東京都","city":"小平市","address":"小平市花小金井8-1-1","lat":35.731297,"lon":139.503337},{"name":"小平荘","province":"東京都","city":"小平市","address":"小平市花小金井8-28-1","lat":35.730833,"lon":139.505728},{"name":"花小金井ハイツ","province":"東京都","city":"小平市","address":"小平市花小金井6-20-3","lat":35.730195,"lon":139.510728},{"name":"南台病院","province":"東京都","city":"小平市","address":"小平市小川町1-485","lat":35.727651,"lon":139.440373},{"name":"多摩済生病院","province":"東京都","city":"小平市","address":"小平市美園町3-11-1","lat":35.740607,"lon":139.489257},{"name":"小平市社会福祉協議会","province":"東京都","city":"小平市","address":"小平市学園東町1-19-13福祉会館内","lat":35.726567,"lon":139.478114},{"name":"小平荘","province":"東京都","city":"小平市","address":"小平市花小金井8-28-1","lat":35.73142,"lon":139.50586},{"name":"花小金井ハイツ","province":"東京都","city":"小平市","address":"小平市花小金井6-20-3","lat":35.73022,"lon":139.51057},{"name":"公立昭和病院","province":"東京都","city":"小平市","address":"小平市花小金井8-1-1","lat":35.73167,"lon":139.50266},{"name":"くるめ園","province":"東京都","city":"小平市","address":"小平市上水南町4-7-45","lat":35.71013,"lon":139.4913},{"name":"あかつき","province":"東京都","city":"小平市","address":"小平市小川町1-485","lat":35.72841,"lon":139.44067},{"name":"黎明寮","province":"東京都","city":"小平市","address":"小平市小川町1-485","lat":35.72841,"lon":139.44067},{"name":"花小金井ハイツ２","province":"東京都","city":"小平市","address":"小平市花小金井6-20-3","lat":35.73022,"lon":139.51057},{"name":"ロッジ小平","province":"東京都","city":"小平市","address":"小平市花小金井8-28-1","lat":35.73142,"lon":139.50586},{"name":"天神ハイツ","province":"東京都","city":"小平市","address":"小平市天神町2-4-33","lat":35.73304,"lon":139.49271},{"name":"天神ハイツ２","province":"東京都","city":"小平市","address":"小平市天神町2-4-33","lat":35.73304,"lon":139.49271},{"name":"小平市社会福祉協議会","province":"東京都","city":"小平市","address":"小平市学園東町1-19-13福祉会館4階","lat":35.72678,"lon":139.47797},{"name":"あかつき","province":"東京都","city":"小平市","address":"小平市小川町1-485","lat":35.727651,"lon":139.440373},{"name":"くるめ園","province":"東京都","city":"小平市","address":"小平市上水南町4-7-45","lat":35.708799,"lon":139.491028},{"name":"黎明寮","province":"東京都","city":"小平市","address":"小平市小川町1-485","lat":35.727651,"lon":139.440373},{"name":"社会福祉法人未来ワークセンター夢の樹","province":"東京都","city":"小平市","address":"東京都小平市大沼町2丁目1-3","lat":35.7386878,"lon":139.49255676},{"name":"社会福祉法人未来みくま","province":"東京都","city":"小平市","address":"東京都小平市大沼町2丁目1-12","lat":35.73818229,"lon":139.49219293},{"name":"社会福祉法人桂会あしたば作業所","province":"東京都","city":"小平市","address":"東京都小平市鈴木町2丁目187-3","lat":35.72360934,"lon":139.50689505},{"name":"小平市立あおぞら福祉センター","province":"東京都","city":"小平市","address":"東京都小平市鈴木町1丁目472-89","lat":35.72002896,"lon":139.49796266},{"name":"生活リハビリセンター六三四","province":"東京都","city":"小平市","address":"東京都小平市仲町364-1","lat":35.72810559,"lon":139.48970749},{"name":"小平第二みどり作業所","province":"東京都","city":"小平市","address":"東京都小平市天神町3丁目7-16","lat":35.73086109,"lon":139.49950648},{"name":"サングリーン","province":"東京都","city":"小平市","address":"東京都小平市小川町1丁目943","lat":35.72774082,"lon":139.456641},{"name":"社会福祉法人つむぎおだまき","province":"東京都","city":"小平市","address":"東京都小平市小川東町4丁目2-1","lat":35.74015101,"lon":139.47406669},{"name":"花小金井ハイツ","province":"東京都","city":"小平市","address":"小平市花小金井6-20-3","lat":35.73023,"lon":139.51057},{"name":"花小金井ハイツ2","province":"東京都","city":"小平市","address":"小平市花小金井6-20-3","lat":35.73023,"lon":139.51057},{"name":"花小金井ハイツ2","province":"東京都","city":"小平市","address":"小平市花小金井6-20-3","lat":35.73022,"lon":139.51057},{"name":"けやきの郷","province":"東京都","city":"小平市","address":"小平市小川町1-485","lat":35.727651,"lon":139.440373},{"name":"公立昭和病院","province":"東京都","city":"小平市","address":"小平市花小金井8-1-1","lat":35.731297,"lon":139.503337},{"name":"小平荘","province":"東京都","city":"小平市","address":"小平市花小金井8-28-1","lat":35.730833,"lon":139.505728},{"name":"花小金井ハイツ","province":"東京都","city":"小平市","address":"小平市花小金井6-20-3","lat":35.730195,"lon":139.510728},{"name":"南台病院","province":"東京都","city":"小平市","address":"小平市小川町1-485","lat":35.727651,"lon":139.440373},{"name":"多摩済生病院","province":"東京都","city":"小平市","address":"小平市美園町3-11-1","lat":35.740607,"lon":139.489257},{"name":"小平市社会福祉協議会","province":"東京都","city":"小平市","address":"小平市学園東町1-19-13福祉会館内","lat":35.726567,"lon":139.478114},{"name":"小平荘","province":"東京都","city":"小平市","address":"小平市花小金井8-28-1","lat":35.73142,"lon":139.50586},{"name":"花小金井ハイツ","province":"東京都","city":"小平市","address":"小平市花小金井6-20-3","lat":35.73022,"lon":139.51057},{"name":"公立昭和病院","province":"東京都","city":"小平市","address":"小平市花小金井8-1-1","lat":35.73167,"lon":139.50266},{"name":"くるめ園","province":"東京都","city":"小平市","address":"小平市上水南町4-7-45","lat":35.71013,"lon":139.4913},{"name":"あかつき","province":"東京都","city":"小平市","address":"小平市小川町1-485","lat":35.72841,"lon":139.44067},{"name":"黎明寮","province":"東京都","city":"小平市","address":"小平市小川町1-485","lat":35.72841,"lon":139.44067},{"name":"花小金井ハイツ２","province":"東京都","city":"小平市","address":"小平市花小金井6-20-3","lat":35.73022,"lon":139.51057},{"name":"ロッジ小平","province":"東京都","city":"小平市","address":"小平市花小金井8-28-1","lat":35.73142,"lon":139.50586},{"name":"天神ハイツ","province":"東京都","city":"小平市","address":"小平市天神町2-4-33","lat":35.73304,"lon":139.49271},{"name":"天神ハイツ２","province":"東京都","city":"小平市","address":"小平市天神町2-4-33","lat":35.73304,"lon":139.49271},{"name":"小平市社会福祉協議会","province":"東京都","city":"小平市","address":"小平市学園東町1-19-13福祉会館4階","lat":35.72678,"lon":139.47797},{"name":"あかつき","province":"東京都","city":"小平市","address":"小平市小川町1-485","lat":35.727651,"lon":139.440373},{"name":"くるめ園","province":"東京都","city":"小平市","address":"小平市上水南町4-7-45","lat":35.708799,"lon":139.491028},{"name":"黎明寮","province":"東京都","city":"小平市","address":"小平市小川町1-485","lat":35.727651,"lon":139.440373},{"name":"社会福祉法人未来ワークセンター夢の樹","province":"東京都","city":"小平市","address":"東京都小平市大沼町2丁目1-3","lat":35.7386878,"lon":139.49255676},{"name":"社会福祉法人未来みくま","province":"東京都","city":"小平市","address":"東京都小平市大沼町2丁目1-12","lat":35.73818229,"lon":139.49219293},{"name":"社会福祉法人桂会あしたば作業所","province":"東京都","city":"小平市","address":"東京都小平市鈴木町2丁目187-3","lat":35.72360934,"lon":139.50689505},{"name":"小平市立あおぞら福祉センター","province":"東京都","city":"小平市","address":"東京都小平市鈴木町1丁目472-89","lat":35.72002896,"lon":139.49796266},{"name":"生活リハビリセンター六三四","province":"東京都","city":"小平市","address":"東京都小平市仲町364-1","lat":35.72810559,"lon":139.48970749},{"name":"小平第二みどり作業所","province":"東京都","city":"小平市","address":"東京都小平市天神町3丁目7-16","lat":35.73086109,"lon":139.49950648},{"name":"サングリーン","province":"東京都","city":"小平市","address":"東京都小平市小川町1丁目943","lat":35.72774082,"lon":139.456641},{"name":"社会福祉法人つむぎおだまき","province":"東京都","city":"小平市","address":"東京都小平市小川東町4丁目2-1","lat":35.74015101,"lon":139.47406669},{"name":"花小金井ハイツ","province":"東京都","city":"小平市","address":"小平市花小金井6-20-3","lat":35.73023,"lon":139.51057},{"name":"花小金井ハイツ2","province":"東京都","city":"小平市","address":"小平市花小金井6-20-3","lat":35.73023,"lon":139.51057},{"name":"花小金井ハイツ2","province":"東京都","city":"小平市","address":"小平市花小金井6-20-3","lat":35.73022,"lon":139.51057},{"name":"けやきの郷","province":"東京都","city":"小平市","address":"小平市小川町1-485","lat":35.727651,"lon":139.440373},{"name":"公立昭和病院","province":"東京都","city":"小平市","address":"小平市花小金井8-1-1","lat":35.731297,"lon":139.503337},{"name":"小平荘","province":"東京都","city":"小平市","address":"小平市花小金井8-28-1","lat":35.730833,"lon":139.505728},{"name":"花小金井ハイツ","province":"東京都","city":"小平市","address":"小平市花小金井6-20-3","lat":35.730195,"lon":139.510728},{"name":"南台病院","province":"東京都","city":"小平市","address":"小平市小川町1-485","lat":35.727651,"lon":139.440373},{"name":"多摩済生病院","province":"東京都","city":"小平市","address":"小平市美園町3-11-1","lat":35.740607,"lon":139.489257},{"name":"小平市社会福祉協議会","province":"東京都","city":"小平市","address":"小平市学園東町1-19-13福祉会館内","lat":35.726567,"lon":139.478114},{"name":"小平荘","province":"東京都","city":"小平市","address":"小平市花小金井8-28-1","lat":35.73142,"lon":139.50586},{"name":"花小金井ハイツ","province":"東京都","city":"小平市","address":"小平市花小金井6-20-3","lat":35.73022,"lon":139.51057},{"name":"公立昭和病院","province":"東京都","city":"小平市","address":"小平市花小金井8-1-1","lat":35.73167,"lon":139.50266},{"name":"くるめ園","province":"東京都","city":"小平市","address":"小平市上水南町4-7-45","lat":35.71013,"lon":139.4913},{"name":"あかつき","province":"東京都","city":"小平市","address":"小平市小川町1-485","lat":35.72841,"lon":139.44067},{"name":"黎明寮","province":"東京都","city":"小平市","address":"小平市小川町1-485","lat":35.72841,"lon":139.44067},{"name":"花小金井ハイツ２","province":"東京都","city":"小平市","address":"小平市花小金井6-20-3","lat":35.73022,"lon":139.51057},{"name":"ロッジ小平","province":"東京都","city":"小平市","address":"小平市花小金井8-28-1","lat":35.73142,"lon":139.50586},{"name":"天神ハイツ","province":"東京都","city":"小平市","address":"小平市天神町2-4-33","lat":35.73304,"lon":139.49271},{"name":"天神ハイツ２","province":"東京都","city":"小平市","address":"小平市天神町2-4-33","lat":35.73304,"lon":139.49271},{"name":"小平市社会福祉協議会","province":"東京都","city":"小平市","address":"小平市学園東町1-19-13福祉会館4階","lat":35.72678,"lon":139.47797},{"name":"あかつき","province":"東京都","city":"小平市","address":"小平市小川町1-485","lat":35.727651,"lon":139.440373},{"name":"くるめ園","province":"東京都","city":"小平市","address":"小平市上水南町4-7-45","lat":35.708799,"lon":139.491028},{"name":"黎明寮","province":"東京都","city":"小平市","address":"小平市小川町1-485","lat":35.727651,"lon":139.440373},{"name":"社会福祉法人未来ワークセンター夢の樹","province":"東京都","city":"小平市","address":"東京都小平市大沼町2丁目1-3","lat":35.7386878,"lon":139.49255676},{"name":"社会福祉法人未来みくま","province":"東京都","city":"小平市","address":"東京都小平市大沼町2丁目1-12","lat":35.73818229,"lon":139.49219293},{"name":"社会福祉法人桂会あしたば作業所","province":"東京都","city":"小平市","address":"東京都小平市鈴木町2丁目187-3","lat":35.72360934,"lon":139.50689505},{"name":"小平市立あおぞら福祉センター","province":"東京都","city":"小平市","address":"東京都小平市鈴木町1丁目472-89","lat":35.72002896,"lon":139.49796266},{"name":"生活リハビリセンター六三四","province":"東京都","city":"小平市","address":"東京都小平市仲町364-1","lat":35.72810559,"lon":139.48970749},{"name":"小平第二みどり作業所","province":"東京都","city":"小平市","address":"東京都小平市天神町3丁目7-16","lat":35.73086109,"lon":139.49950648},{"name":"サングリーン","province":"東京都","city":"小平市","address":"東京都小平市小川町1丁目943","lat":35.72774082,"lon":139.456641},{"name":"社会福祉法人つむぎおだまき","province":"東京都","city":"小平市","address":"東京都小平市小川東町4丁目2-1","lat":35.74015101,"lon":139.47406669},{"name":"花小金井ハイツ","province":"東京都","city":"小平市","address":"小平市花小金井6-20-3","lat":35.73023,"lon":139.51057},{"name":"花小金井ハイツ2","province":"東京都","city":"小平市","address":"小平市花小金井6-20-3","lat":35.73023,"lon":139.51057},{"name":"花小金井ハイツ2","province":"東京都","city":"小平市","address":"小平市花小金井6-20-3","lat":35.73022,"lon":139.51057},{"name":"けやきの郷","province":"東京都","city":"小平市","address":"小平市小川町1-485","lat":35.727651,"lon":139.440373},{"name":"公立昭和病院","province":"東京都","city":"小平市","address":"小平市花小金井8-1-1","lat":35.731297,"lon":139.503337},{"name":"小平荘","province":"東京都","city":"小平市","address":"小平市花小金井8-28-1","lat":35.730833,"lon":139.505728},{"name":"花小金井ハイツ","province":"東京都","city":"小平市","address":"小平市花小金井6-20-3","lat":35.730195,"lon":139.510728},{"name":"南台病院","province":"東京都","city":"小平市","address":"小平市小川町1-485","lat":35.727651,"lon":139.440373},{"name":"多摩済生病院","province":"東京都","city":"小平市","address":"小平市美園町3-11-1","lat":35.740607,"lon":139.489257},{"name":"小平市社会福祉協議会","province":"東京都","city":"小平市","address":"小平市学園東町1-19-13福祉会館内","lat":35.726567,"lon":139.478114},{"name":"小平荘","province":"東京都","city":"小平市","address":"小平市花小金井8-28-1","lat":35.73142,"lon":139.50586},{"name":"花小金井ハイツ","province":"東京都","city":"小平市","address":"小平市花小金井6-20-3","lat":35.73022,"lon":139.51057},{"name":"公立昭和病院","province":"東京都","city":"小平市","address":"小平市花小金井8-1-1","lat":35.73167,"lon":139.50266},{"name":"くるめ園","province":"東京都","city":"小平市","address":"小平市上水南町4-7-45","lat":35.71013,"lon":139.4913},{"name":"あかつき","province":"東京都","city":"小平市","address":"小平市小川町1-485","lat":35.72841,"lon":139.44067},{"name":"黎明寮","province":"東京都","city":"小平市","address":"小平市小川町1-485","lat":35.72841,"lon":139.44067},{"name":"花小金井ハイツ２","province":"東京都","city":"小平市","address":"小平市花小金井6-20-3","lat":35.73022,"lon":139.51057},{"name":"ロッジ小平","province":"東京都","city":"小平市","address":"小平市花小金井8-28-1","lat":35.73142,"lon":139.50586},{"name":"天神ハイツ","province":"東京都","city":"小平市","address":"小平市天神町2-4-33","lat":35.73304,"lon":139.49271},{"name":"天神ハイツ２","province":"東京都","city":"小平市","address":"小平市天神町2-4-33","lat":35.73304,"lon":139.49271},{"name":"小平市社会福祉協議会","province":"東京都","city":"小平市","address":"小平市学園東町1-19-13福祉会館4階","lat":35.72678,"lon":139.47797},{"name":"あかつき","province":"東京都","city":"小平市","address":"小平市小川町1-485","lat":35.727651,"lon":139.440373},{"name":"くるめ園","province":"東京都","city":"小平市","address":"小平市上水南町4-7-45","lat":35.708799,"lon":139.491028},{"name":"黎明寮","province":"東京都","city":"小平市","address":"小平市小川町1-485","lat":35.727651,"lon":139.440373},{"name":"社会福祉法人未来ワークセンター夢の樹","province":"東京都","city":"小平市","address":"東京都小平市大沼町2丁目1-3","lat":35.7386878,"lon":139.49255676},{"name":"社会福祉法人未来みくま","province":"東京都","city":"小平市","address":"東京都小平市大沼町2丁目1-12","lat":35.73818229,"lon":139.49219293},{"name":"社会福祉法人桂会あしたば作業所","province":"東京都","city":"小平市","address":"東京都小平市鈴木町2丁目187-3","lat":35.72360934,"lon":139.50689505},{"name":"小平市立あおぞら福祉センター","province":"東京都","city":"小平市","address":"東京都小平市鈴木町1丁目472-89","lat":35.72002896,"lon":139.49796266},{"name":"生活リハビリセンター六三四","province":"東京都","city":"小平市","address":"東京都小平市仲町364-1","lat":35.72810559,"lon":139.48970749},{"name":"小平第二みどり作業所","province":"東京都","city":"小平市","address":"東京都小平市天神町3丁目7-16","lat":35.73086109,"lon":139.49950648},{"name":"サングリーン","province":"東京都","city":"小平市","address":"東京都小平市小川町1丁目943","lat":35.72774082,"lon":139.456641},{"name":"社会福祉法人つむぎおだまき","province":"東京都","city":"小平市","address":"東京都小平市小川東町4丁目2-1","lat":35.74015101,"lon":139.47406669},{"name":"花小金井ハイツ","province":"東京都","city":"小平市","address":"小平市花小金井6-20-3","lat":35.73023,"lon":139.51057},{"name":"花小金井ハイツ2","province":"東京都","city":"小平市","address":"小平市花小金井6-20-3","lat":35.73023,"lon":139.51057},{"name":"花小金井ハイツ2","province":"東京都","city":"小平市","address":"小平市花小金井6-20-3","lat":35.73022,"lon":139.51057},{"name":"けやきの郷","province":"東京都","city":"小平市","address":"小平市小川町1-485","lat":35.727651,"lon":139.440373},{"name":"公立昭和病院","province":"東京都","city":"小平市","address":"小平市花小金井8-1-1","lat":35.731297,"lon":139.503337},{"name":"小平荘","province":"東京都","city":"小平市","address":"小平市花小金井8-28-1","lat":35.730833,"lon":139.505728},{"name":"花小金井ハイツ","province":"東京都","city":"小平市","address":"小平市花小金井6-20-3","lat":35.730195,"lon":139.510728},{"name":"南台病院","province":"東京都","city":"小平市","address":"小平市小川町1-485","lat":35.727651,"lon":139.440373},{"name":"多摩済生病院","province":"東京都","city":"小平市","address":"小平市美園町3-11-1","lat":35.740607,"lon":139.489257},{"name":"小平市社会福祉協議会","province":"東京都","city":"小平市","address":"小平市学園東町1-19-13福祉会館内","lat":35.726567,"lon":139.478114},{"name":"小平荘","province":"東京都","city":"小平市","address":"小平市花小金井8-28-1","lat":35.73142,"lon":139.50586},{"name":"花小金井ハイツ","province":"東京都","city":"小平市","address":"小平市花小金井6-20-3","lat":35.73022,"lon":139.51057},{"name":"公立昭和病院","province":"東京都","city":"小平市","address":"小平市花小金井8-1-1","lat":35.73167,"lon":139.50266},{"name":"くるめ園","province":"東京都","city":"小平市","address":"小平市上水南町4-7-45","lat":35.71013,"lon":139.4913},{"name":"あかつき","province":"東京都","city":"小平市","address":"小平市小川町1-485","lat":35.72841,"lon":139.44067},{"name":"黎明寮","province":"東京都","city":"小平市","address":"小平市小川町1-485","lat":35.72841,"lon":139.44067},{"name":"花小金井ハイツ２","province":"東京都","city":"小平市","address":"小平市花小金井6-20-3","lat":35.73022,"lon":139.51057},{"name":"ロッジ小平","province":"東京都","city":"小平市","address":"小平市花小金井8-28-1","lat":35.73142,"lon":139.50586},{"name":"天神ハイツ","province":"東京都","city":"小平市","address":"小平市天神町2-4-33","lat":35.73304,"lon":139.49271},{"name":"天神ハイツ２","province":"東京都","city":"小平市","address":"小平市天神町2-4-33","lat":35.73304,"lon":139.49271},{"name":"小平市社会福祉協議会","province":"東京都","city":"小平市","address":"小平市学園東町1-19-13福祉会館4階","lat":35.72678,"lon":139.47797},{"name":"あかつき","province":"東京都","city":"小平市","address":"小平市小川町1-485","lat":35.727651,"lon":139.440373},{"name":"くるめ園","province":"東京都","city":"小平市","address":"小平市上水南町4-7-45","lat":35.708799,"lon":139.491028},{"name":"黎明寮","province":"東京都","city":"小平市","address":"小平市小川町1-485","lat":35.727651,"lon":139.440373},{"name":"社会福祉法人未来ワークセンター夢の樹","province":"東京都","city":"小平市","address":"東京都小平市大沼町2丁目1-3","lat":35.7386878,"lon":139.49255676},{"name":"社会福祉法人未来みくま","province":"東京都","city":"小平市","address":"東京都小平市大沼町2丁目1-12","lat":35.73818229,"lon":139.49219293},{"name":"社会福祉法人桂会あしたば作業所","province":"東京都","city":"小平市","address":"東京都小平市鈴木町2丁目187-3","lat":35.72360934,"lon":139.50689505},{"name":"小平市立あおぞら福祉センター","province":"東京都","city":"小平市","address":"東京都小平市鈴木町1丁目472-89","lat":35.72002896,"lon":139.49796266},{"name":"生活リハビリセンター六三四","province":"東京都","city":"小平市","address":"東京都小平市仲町364-1","lat":35.72810559,"lon":139.48970749},{"name":"小平第二みどり作業所","province":"東京都","city":"小平市","address":"東京都小平市天神町3丁目7-16","lat":35.73086109,"lon":139.49950648},{"name":"サングリーン","province":"東京都","city":"小平市","address":"東京都小平市小川町1丁目943","lat":35.72774082,"lon":139.456641},{"name":"社会福祉法人つむぎおだまき","province":"東京都","city":"小平市","address":"東京都小平市小川東町4丁目2-1","lat":35.74015101,"lon":139.47406669},{"name":"花小金井ハイツ","province":"東京都","city":"小平市","address":"小平市花小金井6-20-3","lat":35.73023,"lon":139.51057},{"name":"花小金井ハイツ2","province":"東京都","city":"小平市","address":"小平市花小金井6-20-3","lat":35.73023,"lon":139.51057},{"name":"花小金井ハイツ2","province":"東京都","city":"小平市","address":"小平市花小金井6-20-3","lat":35.73022,"lon":139.51057},{"name":"けやきの郷","province":"東京都","city":"小平市","address":"小平市小川町1-485","lat":35.727651,"lon":139.440373},{"name":"公立昭和病院","province":"東京都","city":"小平市","address":"小平市花小金井8-1-1","lat":35.731297,"lon":139.503337},{"name":"小平荘","province":"東京都","city":"小平市","address":"小平市花小金井8-28-1","lat":35.730833,"lon":139.505728},{"name":"花小金井ハイツ","province":"東京都","city":"小平市","address":"小平市花小金井6-20-3","lat":35.730195,"lon":139.510728},{"name":"南台病院","province":"東京都","city":"小平市","address":"小平市小川町1-485","lat":35.727651,"lon":139.440373},{"name":"多摩済生病院","province":"東京都","city":"小平市","address":"小平市美園町3-11-1","lat":35.740607,"lon":139.489257},{"name":"小平市社会福祉協議会","province":"東京都","city":"小平市","address":"小平市学園東町1-19-13福祉会館内","lat":35.726567,"lon":139.478114},{"name":"小平荘","province":"東京都","city":"小平市","address":"小平市花小金井8-28-1","lat":35.73142,"lon":139.50586},{"name":"花小金井ハイツ","province":"東京都","city":"小平市","address":"小平市花小金井6-20-3","lat":35.73022,"lon":139.51057},{"name":"公立昭和病院","province":"東京都","city":"小平市","address":"小平市花小金井8-1-1","lat":35.73167,"lon":139.50266},{"name":"くるめ園","province":"東京都","city":"小平市","address":"小平市上水南町4-7-45","lat":35.71013,"lon":139.4913},{"name":"あかつき","province":"東京都","city":"小平市","address":"小平市小川町1-485","lat":35.72841,"lon":139.44067},{"name":"黎明寮","province":"東京都","city":"小平市","address":"小平市小川町1-485","lat":35.72841,"lon":139.44067},{"name":"花小金井ハイツ２","province":"東京都","city":"小平市","address":"小平市花小金井6-20-3","lat":35.73022,"lon":139.51057},{"name":"ロッジ小平","province":"東京都","city":"小平市","address":"小平市花小金井8-28-1","lat":35.73142,"lon":139.50586},{"name":"天神ハイツ","province":"東京都","city":"小平市","address":"小平市天神町2-4-33","lat":35.73304,"lon":139.49271},{"name":"天神ハイツ２","province":"東京都","city":"小平市","address":"小平市天神町2-4-33","lat":35.73304,"lon":139.49271},{"name":"小平市社会福祉協議会","province":"東京都","city":"小平市","address":"小平市学園東町1-19-13福祉会館4階","lat":35.72678,"lon":139.47797},{"name":"あかつき","province":"東京都","city":"小平市","address":"小平市小川町1-485","lat":35.727651,"lon":139.440373},{"name":"くるめ園","province":"東京都","city":"小平市","address":"小平市上水南町4-7-45","lat":35.708799,"lon":139.491028},{"name":"黎明寮","province":"東京都","city":"小平市","address":"小平市小川町1-485","lat":35.727651,"lon":139.440373},{"name":"社会福祉法人未来ワークセンター夢の樹","province":"東京都","city":"小平市","address":"東京都小平市大沼町2丁目1-3","lat":35.7386878,"lon":139.49255676},{"name":"社会福祉法人未来みくま","province":"東京都","city":"小平市","address":"東京都小平市大沼町2丁目1-12","lat":35.73818229,"lon":139.49219293},{"name":"社会福祉法人桂会あしたば作業所","province":"東京都","city":"小平市","address":"東京都小平市鈴木町2丁目187-3","lat":35.72360934,"lon":139.50689505},{"name":"小平市立あおぞら福祉センター","province":"東京都","city":"小平市","address":"東京都小平市鈴木町1丁目472-89","lat":35.72002896,"lon":139.49796266},{"name":"生活リハビリセンター六三四","province":"東京都","city":"小平市","address":"東京都小平市仲町364-1","lat":35.72810559,"lon":139.48970749},{"name":"小平第二みどり作業所","province":"東京都","city":"小平市","address":"東京都小平市天神町3丁目7-16","lat":35.73086109,"lon":139.49950648},{"name":"サングリーン","province":"東京都","city":"小平市","address":"東京都小平市小川町1丁目943","lat":35.72774082,"lon":139.456641},{"name":"社会福祉法人つむぎおだまき","province":"東京都","city":"小平市","address":"東京都小平市小川東町4丁目2-1","lat":35.74015101,"lon":139.47406669},{"name":"花小金井ハイツ","province":"東京都","city":"小平市","address":"小平市花小金井6-20-3","lat":35.73023,"lon":139.51057},{"name":"花小金井ハイツ2","province":"東京都","city":"小平市","address":"小平市花小金井6-20-3","lat":35.73023,"lon":139.51057},{"name":"花小金井ハイツ2","province":"東京都","city":"小平市","address":"小平市花小金井6-20-3","lat":35.73022,"lon":139.51057},{"name":"けやきの郷","province":"東京都","city":"小平市","address":"小平市小川町1-485","lat":35.727651,"lon":139.440373},{"name":"公立昭和病院","province":"東京都","city":"小平市","address":"小平市花小金井8-1-1","lat":35.731297,"lon":139.503337},{"name":"小平荘","province":"東京都","city":"小平市","address":"小平市花小金井8-28-1","lat":35.730833,"lon":139.505728},{"name":"花小金井ハイツ","province":"東京都","city":"小平市","address":"小平市花小金井6-20-3","lat":35.730195,"lon":139.510728},{"name":"南台病院","province":"東京都","city":"小平市","address":"小平市小川町1-485","lat":35.727651,"lon":139.440373},{"name":"多摩済生病院","province":"東京都","city":"小平市","address":"小平市美園町3-11-1","lat":35.740607,"lon":139.489257},{"name":"小平市社会福祉協議会","province":"東京都","city":"小平市","address":"小平市学園東町1-19-13福祉会館内","lat":35.726567,"lon":139.478114},{"name":"小平荘","province":"東京都","city":"小平市","address":"小平市花小金井8-28-1","lat":35.73142,"lon":139.50586},{"name":"花小金井ハイツ","province":"東京都","city":"小平市","address":"小平市花小金井6-20-3","lat":35.73022,"lon":139.51057},{"name":"公立昭和病院","province":"東京都","city":"小平市","address":"小平市花小金井8-1-1","lat":35.73167,"lon":139.50266},{"name":"くるめ園","province":"東京都","city":"小平市","address":"小平市上水南町4-7-45","lat":35.71013,"lon":139.4913},{"name":"あかつき","province":"東京都","city":"小平市","address":"小平市小川町1-485","lat":35.72841,"lon":139.44067},{"name":"黎明寮","province":"東京都","city":"小平市","address":"小平市小川町1-485","lat":35.72841,"lon":139.44067},{"name":"花小金井ハイツ２","province":"東京都","city":"小平市","address":"小平市花小金井6-20-3","lat":35.73022,"lon":139.51057},{"name":"ロッジ小平","province":"東京都","city":"小平市","address":"小平市花小金井8-28-1","lat":35.73142,"lon":139.50586},{"name":"天神ハイツ","province":"東京都","city":"小平市","address":"小平市天神町2-4-33","lat":35.73304,"lon":139.49271},{"name":"天神ハイツ２","province":"東京都","city":"小平市","address":"小平市天神町2-4-33","lat":35.73304,"lon":139.49271},{"name":"小平市社会福祉協議会","province":"東京都","city":"小平市","address":"小平市学園東町1-19-13福祉会館4階","lat":35.72678,"lon":139.47797},{"name":"あかつき","province":"東京都","city":"小平市","address":"小平市小川町1-485","lat":35.727651,"lon":139.440373},{"name":"くるめ園","province":"東京都","city":"小平市","address":"小平市上水南町4-7-45","lat":35.708799,"lon":139.491028},{"name":"黎明寮","province":"東京都","city":"小平市","address":"小平市小川町1-485","lat":35.727651,"lon":139.440373},{"name":"社会福祉法人未来ワークセンター夢の樹","province":"東京都","city":"小平市","address":"東京都小平市大沼町2丁目1-3","lat":35.7386878,"lon":139.49255676},{"name":"社会福祉法人未来みくま","province":"東京都","city":"小平市","address":"東京都小平市大沼町2丁目1-12","lat":35.73818229,"lon":139.49219293},{"name":"社会福祉法人桂会あしたば作業所","province":"東京都","city":"小平市","address":"東京都小平市鈴木町2丁目187-3","lat":35.72360934,"lon":139.50689505},{"name":"小平市立あおぞら福祉センター","province":"東京都","city":"小平市","address":"東京都小平市鈴木町1丁目472-89","lat":35.72002896,"lon":139.49796266},{"name":"生活リハビリセンター六三四","province":"東京都","city":"小平市","address":"東京都小平市仲町364-1","lat":35.72810559,"lon":139.48970749},{"name":"小平第二みどり作業所","province":"東京都","city":"小平市","address":"東京都小平市天神町3丁目7-16","lat":35.73086109,"lon":139.49950648},{"name":"サングリーン","province":"東京都","city":"小平市","address":"東京都小平市小川町1丁目943","lat":35.72774082,"lon":139.456641},{"name":"社会福祉法人つむぎおだまき","province":"東京都","city":"小平市","address":"東京都小平市小川東町4丁目2-1","lat":35.74015101,"lon":139.47406669},{"name":"花小金井ハイツ","province":"東京都","city":"小平市","address":"小平市花小金井6-20-3","lat":35.73023,"lon":139.51057},{"name":"花小金井ハイツ2","province":"東京都","city":"小平市","address":"小平市花小金井6-20-3","lat":35.73023,"lon":139.51057},{"name":"花小金井ハイツ2","province":"東京都","city":"小平市","address":"小平市花小金井6-20-3","lat":35.73022,"lon":139.51057},{"name":"けやきの郷","province":"東京都","city":"小平市","address":"小平市小川町1-485","lat":35.727651,"lon":139.440373},{"name":"公立昭和病院","province":"東京都","city":"小平市","address":"小平市花小金井8-1-1","lat":35.731297,"lon":139.503337},{"name":"小平荘","province":"東京都","city":"小平市","address":"小平市花小金井8-28-1","lat":35.730833,"lon":139.505728},{"name":"花小金井ハイツ","province":"東京都","city":"小平市","address":"小平市花小金井6-20-3","lat":35.730195,"lon":139.510728},{"name":"南台病院","province":"東京都","city":"小平市","address":"小平市小川町1-485","lat":35.727651,"lon":139.440373},{"name":"多摩済生病院","province":"東京都","city":"小平市","address":"小平市美園町3-11-1","lat":35.740607,"lon":139.489257},{"name":"小平市社会福祉協議会","province":"東京都","city":"小平市","address":"小平市学園東町1-19-13福祉会館内","lat":35.726567,"lon":139.478114},{"name":"小平荘","province":"東京都","city":"小平市","address":"小平市花小金井8-28-1","lat":35.73142,"lon":139.50586},{"name":"花小金井ハイツ","province":"東京都","city":"小平市","address":"小平市花小金井6-20-3","lat":35.73022,"lon":139.51057},{"name":"公立昭和病院","province":"東京都","city":"小平市","address":"小平市花小金井8-1-1","lat":35.73167,"lon":139.50266},{"name":"くるめ園","province":"東京都","city":"小平市","address":"小平市上水南町4-7-45","lat":35.71013,"lon":139.4913},{"name":"あかつき","province":"東京都","city":"小平市","address":"小平市小川町1-485","lat":35.72841,"lon":139.44067},{"name":"黎明寮","province":"東京都","city":"小平市","address":"小平市小川町1-485","lat":35.72841,"lon":139.44067},{"name":"花小金井ハイツ２","province":"東京都","city":"小平市","address":"小平市花小金井6-20-3","lat":35.73022,"lon":139.51057},{"name":"ロッジ小平","province":"東京都","city":"小平市","address":"小平市花小金井8-28-1","lat":35.73142,"lon":139.50586},{"name":"天神ハイツ","province":"東京都","city":"小平市","address":"小平市天神町2-4-33","lat":35.73304,"lon":139.49271},{"name":"天神ハイツ２","province":"東京都","city":"小平市","address":"小平市天神町2-4-33","lat":35.73304,"lon":139.49271},{"name":"小平市社会福祉協議会","province":"東京都","city":"小平市","address":"小平市学園東町1-19-13福祉会館4階","lat":35.72678,"lon":139.47797},{"name":"あかつき","province":"東京都","city":"小平市","address":"小平市小川町1-485","lat":35.727651,"lon":139.440373},{"name":"くるめ園","province":"東京都","city":"小平市","address":"小平市上水南町4-7-45","lat":35.708799,"lon":139.491028},{"name":"黎明寮","province":"東京都","city":"小平市","address":"小平市小川町1-485","lat":35.727651,"lon":139.440373},{"name":"社会福祉法人未来ワークセンター夢の樹","province":"東京都","city":"小平市","address":"東京都小平市大沼町2丁目1-3","lat":35.7386878,"lon":139.49255676},{"name":"社会福祉法人未来みくま","province":"東京都","city":"小平市","address":"東京都小平市大沼町2丁目1-12","lat":35.73818229,"lon":139.49219293},{"name":"社会福祉法人桂会あしたば作業所","province":"東京都","city":"小平市","address":"東京都小平市鈴木町2丁目187-3","lat":35.72360934,"lon":139.50689505},{"name":"小平市立あおぞら福祉センター","province":"東京都","city":"小平市","address":"東京都小平市鈴木町1丁目472-89","lat":35.72002896,"lon":139.49796266},{"name":"生活リハビリセンター六三四","province":"東京都","city":"小平市","address":"東京都小平市仲町364-1","lat":35.72810559,"lon":139.48970749},{"name":"小平第二みどり作業所","province":"東京都","city":"小平市","address":"東京都小平市天神町3丁目7-16","lat":35.73086109,"lon":139.49950648},{"name":"サングリーン","province":"東京都","city":"小平市","address":"東京都小平市小川町1丁目943","lat":35.72774082,"lon":139.456641},{"name":"社会福祉法人つむぎおだまき","province":"東京都","city":"小平市","address":"東京都小平市小川東町4丁目2-1","lat":35.74015101,"lon":139.47406669},{"name":"花小金井ハイツ","province":"東京都","city":"小平市","address":"小平市花小金井6-20-3","lat":35.73023,"lon":139.51057},{"name":"花小金井ハイツ2","province":"東京都","city":"小平市","address":"小平市花小金井6-20-3","lat":35.73023,"lon":139.51057},{"name":"花小金井ハイツ2","province":"東京都","city":"小平市","address":"小平市花小金井6-20-3","lat":35.73022,"lon":139.51057},{"name":"けやきの郷","province":"東京都","city":"小平市","address":"小平市小川町1-485","lat":35.727651,"lon":139.440373},{"name":"公立昭和病院","province":"東京都","city":"小平市","address":"小平市花小金井8-1-1","lat":35.731297,"lon":139.503337},{"name":"小平荘","province":"東京都","city":"小平市","address":"小平市花小金井8-28-1","lat":35.730833,"lon":139.505728},{"name":"花小金井ハイツ","province":"東京都","city":"小平市","address":"小平市花小金井6-20-3","lat":35.730195,"lon":139.510728},{"name":"南台病院","province":"東京都","city":"小平市","address":"小平市小川町1-485","lat":35.727651,"lon":139.440373},{"name":"多摩済生病院","province":"東京都","city":"小平市","address":"小平市美園町3-11-1","lat":35.740607,"lon":139.489257},{"name":"小平市社会福祉協議会","province":"東京都","city":"小平市","address":"小平市学園東町1-19-13福祉会館内","lat":35.726567,"lon":139.478114},{"name":"小平荘","province":"東京都","city":"小平市","address":"小平市花小金井8-28-1","lat":35.73142,"lon":139.50586},{"name":"花小金井ハイツ","province":"東京都","city":"小平市","address":"小平市花小金井6-20-3","lat":35.73022,"lon":139.51057},{"name":"公立昭和病院","province":"東京都","city":"小平市","address":"小平市花小金井8-1-1","lat":35.73167,"lon":139.50266},{"name":"くるめ園","province":"東京都","city":"小平市","address":"小平市上水南町4-7-45","lat":35.71013,"lon":139.4913},{"name":"あかつき","province":"東京都","city":"小平市","address":"小平市小川町1-485","lat":35.72841,"lon":139.44067},{"name":"黎明寮","province":"東京都","city":"小平市","address":"小平市小川町1-485","lat":35.72841,"lon":139.44067},{"name":"花小金井ハイツ２","province":"東京都","city":"小平市","address":"小平市花小金井6-20-3","lat":35.73022,"lon":139.51057},{"name":"ロッジ小平","province":"東京都","city":"小平市","address":"小平市花小金井8-28-1","lat":35.73142,"lon":139.50586},{"name":"天神ハイツ","province":"東京都","city":"小平市","address":"小平市天神町2-4-33","lat":35.73304,"lon":139.49271},{"name":"天神ハイツ２","province":"東京都","city":"小平市","address":"小平市天神町2-4-33","lat":35.73304,"lon":139.49271},{"name":"小平市社会福祉協議会","province":"東京都","city":"小平市","address":"小平市学園東町1-19-13福祉会館4階","lat":35.72678,"lon":139.47797},{"name":"あかつき","province":"東京都","city":"小平市","address":"小平市小川町1-485","lat":35.727651,"lon":139.440373},{"name":"くるめ園","province":"東京都","city":"小平市","address":"小平市上水南町4-7-45","lat":35.708799,"lon":139.491028},{"name":"黎明寮","province":"東京都","city":"小平市","address":"小平市小川町1-485","lat":35.727651,"lon":139.440373},{"name":"社会福祉法人未来ワークセンター夢の樹","province":"東京都","city":"小平市","address":"東京都小平市大沼町2丁目1-3","lat":35.7386878,"lon":139.49255676},{"name":"社会福祉法人未来みくま","province":"東京都","city":"小平市","address":"東京都小平市大沼町2丁目1-12","lat":35.73818229,"lon":139.49219293},{"name":"社会福祉法人桂会あしたば作業所","province":"東京都","city":"小平市","address":"東京都小平市鈴木町2丁目187-3","lat":35.72360934,"lon":139.50689505},{"name":"小平市立あおぞら福祉センター","province":"東京都","city":"小平市","address":"東京都小平市鈴木町1丁目472-89","lat":35.72002896,"lon":139.49796266},{"name":"生活リハビリセンター六三四","province":"東京都","city":"小平市","address":"東京都小平市仲町364-1","lat":35.72810559,"lon":139.48970749},{"name":"小平第二みどり作業所","province":"東京都","city":"小平市","address":"東京都小平市天神町3丁目7-16","lat":35.73086109,"lon":139.49950648},{"name":"サングリーン","province":"東京都","city":"小平市","address":"東京都小平市小川町1丁目943","lat":35.72774082,"lon":139.456641},{"name":"社会福祉法人つむぎおだまき","province":"東京都","city":"小平市","address":"東京都小平市小川東町4丁目2-1","lat":35.74015101,"lon":139.47406669},{"name":"花小金井ハイツ","province":"東京都","city":"小平市","address":"小平市花小金井6-20-3","lat":35.73023,"lon":139.51057},{"name":"花小金井ハイツ2","province":"東京都","city":"小平市","address":"小平市花小金井6-20-3","lat":35.73023,"lon":139.51057},{"name":"花小金井ハイツ2","province":"東京都","city":"小平市","address":"小平市花小金井6-20-3","lat":35.73022,"lon":139.51057},{"name":"けやきの郷","province":"東京都","city":"小平市","address":"小平市小川町1-485","lat":35.727651,"lon":139.440373},{"name":"公立昭和病院","province":"東京都","city":"小平市","address":"小平市花小金井8-1-1","lat":35.731297,"lon":139.503337},{"name":"小平荘","province":"東京都","city":"小平市","address":"小平市花小金井8-28-1","lat":35.730833,"lon":139.505728},{"name":"花小金井ハイツ","province":"東京都","city":"小平市","address":"小平市花小金井6-20-3","lat":35.730195,"lon":139.510728},{"name":"南台病院","province":"東京都","city":"小平市","address":"小平市小川町1-485","lat":35.727651,"lon":139.440373},{"name":"多摩済生病院","province":"東京都","city":"小平市","address":"小平市美園町3-11-1","lat":35.740607,"lon":139.489257},{"name":"小平市社会福祉協議会","province":"東京都","city":"小平市","address":"小平市学園東町1-19-13福祉会館内","lat":35.726567,"lon":139.478114},{"name":"小平荘","province":"東京都","city":"小平市","address":"小平市花小金井8-28-1","lat":35.73142,"lon":139.50586},{"name":"花小金井ハイツ","province":"東京都","city":"小平市","address":"小平市花小金井6-20-3","lat":35.73022,"lon":139.51057},{"name":"公立昭和病院","province":"東京都","city":"小平市","address":"小平市花小金井8-1-1","lat":35.73167,"lon":139.50266},{"name":"くるめ園","province":"東京都","city":"小平市","address":"小平市上水南町4-7-45","lat":35.71013,"lon":139.4913},{"name":"あかつき","province":"東京都","city":"小平市","address":"小平市小川町1-485","lat":35.72841,"lon":139.44067},{"name":"黎明寮","province":"東京都","city":"小平市","address":"小平市小川町1-485","lat":35.72841,"lon":139.44067},{"name":"花小金井ハイツ２","province":"東京都","city":"小平市","address":"小平市花小金井6-20-3","lat":35.73022,"lon":139.51057},{"name":"ロッジ小平","province":"東京都","city":"小平市","address":"小平市花小金井8-28-1","lat":35.73142,"lon":139.50586},{"name":"天神ハイツ","province":"東京都","city":"小平市","address":"小平市天神町2-4-33","lat":35.73304,"lon":139.49271},{"name":"天神ハイツ２","province":"東京都","city":"小平市","address":"小平市天神町2-4-33","lat":35.73304,"lon":139.49271},{"name":"小平市社会福祉協議会","province":"東京都","city":"小平市","address":"小平市学園東町1-19-13福祉会館4階","lat":35.72678,"lon":139.47797},{"name":"あかつき","province":"東京都","city":"小平市","address":"小平市小川町1-485","lat":35.727651,"lon":139.440373},{"name":"くるめ園","province":"東京都","city":"小平市","address":"小平市上水南町4-7-45","lat":35.708799,"lon":139.491028},{"name":"黎明寮","province":"東京都","city":"小平市","address":"小平市小川町1-485","lat":35.727651,"lon":139.440373},{"name":"社会福祉法人未来ワークセンター夢の樹","province":"東京都","city":"小平市","address":"東京都小平市大沼町2丁目1-3","lat":35.7386878,"lon":139.49255676},{"name":"社会福祉法人未来みくま","province":"東京都","city":"小平市","address":"東京都小平市大沼町2丁目1-12","lat":35.73818229,"lon":139.49219293},{"name":"社会福祉法人桂会あしたば作業所","province":"東京都","city":"小平市","address":"東京都小平市鈴木町2丁目187-3","lat":35.72360934,"lon":139.50689505},{"name":"小平市立あおぞら福祉センター","province":"東京都","city":"小平市","address":"東京都小平市鈴木町1丁目472-89","lat":35.72002896,"lon":139.49796266},{"name":"生活リハビリセンター六三四","province":"東京都","city":"小平市","address":"東京都小平市仲町364-1","lat":35.72810559,"lon":139.48970749},{"name":"小平第二みどり作業所","province":"東京都","city":"小平市","address":"東京都小平市天神町3丁目7-16","lat":35.73086109,"lon":139.49950648},{"name":"サングリーン","province":"東京都","city":"小平市","address":"東京都小平市小川町1丁目943","lat":35.72774082,"lon":139.456641},{"name":"社会福祉法人つむぎおだまき","province":"東京都","city":"小平市","address":"東京都小平市小川東町4丁目2-1","lat":35.74015101,"lon":139.47406669},{"name":"花小金井ハイツ","province":"東京都","city":"小平市","address":"小平市花小金井6-20-3","lat":35.73023,"lon":139.51057},{"name":"花小金井ハイツ2","province":"東京都","city":"小平市","address":"小平市花小金井6-20-3","lat":35.73023,"lon":139.51057},{"name":"花小金井ハイツ2","province":"東京都","city":"小平市","address":"小平市花小金井6-20-3","lat":35.73022,"lon":139.51057},{"name":"けやきの郷","province":"東京都","city":"小平市","address":"小平市小川町1-485","lat":35.727651,"lon":139.440373},{"name":"公立昭和病院","province":"東京都","city":"小平市","address":"小平市花小金井8-1-1","lat":35.731297,"lon":139.503337},{"name":"小平荘","province":"東京都","city":"小平市","address":"小平市花小金井8-28-1","lat":35.730833,"lon":139.505728},{"name":"花小金井ハイツ","province":"東京都","city":"小平市","address":"小平市花小金井6-20-3","lat":35.730195,"lon":139.510728},{"name":"南台病院","province":"東京都","city":"小平市","address":"小平市小川町1-485","lat":35.727651,"lon":139.440373},{"name":"多摩済生病院","province":"東京都","city":"小平市","address":"小平市美園町3-11-1","lat":35.740607,"lon":139.489257},{"name":"小平市社会福祉協議会","province":"東京都","city":"小平市","address":"小平市学園東町1-19-13福祉会館内","lat":35.726567,"lon":139.478114},{"name":"小平荘","province":"東京都","city":"小平市","address":"小平市花小金井8-28-1","lat":35.73142,"lon":139.50586},{"name":"花小金井ハイツ","province":"東京都","city":"小平市","address":"小平市花小金井6-20-3","lat":35.73022,"lon":139.51057},{"name":"公立昭和病院","province":"東京都","city":"小平市","address":"小平市花小金井8-1-1","lat":35.73167,"lon":139.50266},{"name":"くるめ園","province":"東京都","city":"小平市","address":"小平市上水南町4-7-45","lat":35.71013,"lon":139.4913},{"name":"あかつき","province":"東京都","city":"小平市","address":"小平市小川町1-485","lat":35.72841,"lon":139.44067},{"name":"黎明寮","province":"東京都","city":"小平市","address":"小平市小川町1-485","lat":35.72841,"lon":139.44067},{"name":"花小金井ハイツ２","province":"東京都","city":"小平市","address":"小平市花小金井6-20-3","lat":35.73022,"lon":139.51057},{"name":"ロッジ小平","province":"東京都","city":"小平市","address":"小平市花小金井8-28-1","lat":35.73142,"lon":139.50586},{"name":"天神ハイツ","province":"東京都","city":"小平市","address":"小平市天神町2-4-33","lat":35.73304,"lon":139.49271},{"name":"天神ハイツ２","province":"東京都","city":"小平市","address":"小平市天神町2-4-33","lat":35.73304,"lon":139.49271},{"name":"小平市社会福祉協議会","province":"東京都","city":"小平市","address":"小平市学園東町1-19-13福祉会館4階","lat":35.72678,"lon":139.47797},{"name":"あかつき","province":"東京都","city":"小平市","address":"小平市小川町1-485","lat":35.727651,"lon":139.440373},{"name":"くるめ園","province":"東京都","city":"小平市","address":"小平市上水南町4-7-45","lat":35.708799,"lon":139.491028},{"name":"黎明寮","province":"東京都","city":"小平市","address":"小平市小川町1-485","lat":35.727651,"lon":139.440373},{"name":"社会福祉法人未来ワークセンター夢の樹","province":"東京都","city":"小平市","address":"東京都小平市大沼町2丁目1-3","lat":35.7386878,"lon":139.49255676},{"name":"社会福祉法人未来みくま","province":"東京都","city":"小平市","address":"東京都小平市大沼町2丁目1-12","lat":35.73818229,"lon":139.49219293},{"name":"社会福祉法人桂会あしたば作業所","province":"東京都","city":"小平市","address":"東京都小平市鈴木町2丁目187-3","lat":35.72360934,"lon":139.50689505},{"name":"小平市立あおぞら福祉センター","province":"東京都","city":"小平市","address":"東京都小平市鈴木町1丁目472-89","lat":35.72002896,"lon":139.49796266},{"name":"生活リハビリセンター六三四","province":"東京都","city":"小平市","address":"東京都小平市仲町364-1","lat":35.72810559,"lon":139.48970749},{"name":"小平第二みどり作業所","province":"東京都","city":"小平市","address":"東京都小平市天神町3丁目7-16","lat":35.73086109,"lon":139.49950648},{"name":"サングリーン","province":"東京都","city":"小平市","address":"東京都小平市小川町1丁目943","lat":35.72774082,"lon":139.456641},{"name":"社会福祉法人つむぎおだまき","province":"東京都","city":"小平市","address":"東京都小平市小川東町4丁目2-1","lat":35.74015101,"lon":139.47406669},{"name":"花小金井ハイツ","province":"東京都","city":"小平市","address":"小平市花小金井6-20-3","lat":35.73023,"lon":139.51057},{"name":"花小金井ハイツ2","province":"東京都","city":"小平市","address":"小平市花小金井6-20-3","lat":35.73023,"lon":139.51057},{"name":"花小金井ハイツ2","province":"東京都","city":"小平市","address":"小平市花小金井6-20-3","lat":35.73022,"lon":139.51057},{"name":"けやきの郷","province":"東京都","city":"小平市","address":"小平市小川町1-485","lat":35.727651,"lon":139.440373},{"name":"公立昭和病院","province":"東京都","city":"小平市","address":"小平市花小金井8-1-1","lat":35.731297,"lon":139.503337},{"name":"小平荘","province":"東京都","city":"小平市","address":"小平市花小金井8-28-1","lat":35.730833,"lon":139.505728},{"name":"花小金井ハイツ","province":"東京都","city":"小平市","address":"小平市花小金井6-20-3","lat":35.730195,"lon":139.510728},{"name":"南台病院","province":"東京都","city":"小平市","address":"小平市小川町1-485","lat":35.727651,"lon":139.440373},{"name":"多摩済生病院","province":"東京都","city":"小平市","address":"小平市美園町3-11-1","lat":35.740607,"lon":139.489257},{"name":"小平市社会福祉協議会","province":"東京都","city":"小平市","address":"小平市学園東町1-19-13福祉会館内","lat":35.726567,"lon":139.478114},{"name":"小平荘","province":"東京都","city":"小平市","address":"小平市花小金井8-28-1","lat":35.73142,"lon":139.50586},{"name":"花小金井ハイツ","province":"東京都","city":"小平市","address":"小平市花小金井6-20-3","lat":35.73022,"lon":139.51057},{"name":"公立昭和病院","province":"東京都","city":"小平市","address":"小平市花小金井8-1-1","lat":35.73167,"lon":139.50266},{"name":"くるめ園","province":"東京都","city":"小平市","address":"小平市上水南町4-7-45","lat":35.71013,"lon":139.4913},{"name":"あかつき","province":"東京都","city":"小平市","address":"小平市小川町1-485","lat":35.72841,"lon":139.44067},{"name":"黎明寮","province":"東京都","city":"小平市","address":"小平市小川町1-485","lat":35.72841,"lon":139.44067},{"name":"花小金井ハイツ２","province":"東京都","city":"小平市","address":"小平市花小金井6-20-3","lat":35.73022,"lon":139.51057},{"name":"ロッジ小平","province":"東京都","city":"小平市","address":"小平市花小金井8-28-1","lat":35.73142,"lon":139.50586},{"name":"天神ハイツ","province":"東京都","city":"小平市","address":"小平市天神町2-4-33","lat":35.73304,"lon":139.49271},{"name":"天神ハイツ２","province":"東京都","city":"小平市","address":"小平市天神町2-4-33","lat":35.73304,"lon":139.49271},{"name":"小平市社会福祉協議会","province":"東京都","city":"小平市","address":"小平市学園東町1-19-13福祉会館4階","lat":35.72678,"lon":139.47797},{"name":"あかつき","province":"東京都","city":"小平市","address":"小平市小川町1-485","lat":35.727651,"lon":139.440373},{"name":"くるめ園","province":"東京都","city":"小平市","address":"小平市上水南町4-7-45","lat":35.708799,"lon":139.491028},{"name":"黎明寮","province":"東京都","city":"小平市","address":"小平市小川町1-485","lat":35.727651,"lon":139.440373},{"name":"社会福祉法人未来ワークセンター夢の樹","province":"東京都","city":"小平市","address":"東京都小平市大沼町2丁目1-3","lat":35.7386878,"lon":139.49255676},{"name":"社会福祉法人未来みくま","province":"東京都","city":"小平市","address":"東京都小平市大沼町2丁目1-12","lat":35.73818229,"lon":139.49219293},{"name":"社会福祉法人桂会あしたば作業所","province":"東京都","city":"小平市","address":"東京都小平市鈴木町2丁目187-3","lat":35.72360934,"lon":139.50689505},{"name":"小平市立あおぞら福祉センター","province":"東京都","city":"小平市","address":"東京都小平市鈴木町1丁目472-89","lat":35.72002896,"lon":139.49796266},{"name":"生活リハビリセンター六三四","province":"東京都","city":"小平市","address":"東京都小平市仲町364-1","lat":35.72810559,"lon":139.48970749},{"name":"小平第二みどり作業所","province":"東京都","city":"小平市","address":"東京都小平市天神町3丁目7-16","lat":35.73086109,"lon":139.49950648},{"name":"サングリーン","province":"東京都","city":"小平市","address":"東京都小平市小川町1丁目943","lat":35.72774082,"lon":139.456641},{"name":"社会福祉法人つむぎおだまき","province":"東京都","city":"小平市","address":"東京都小平市小川東町4丁目2-1","lat":35.74015101,"lon":139.47406669},{"name":"花小金井ハイツ","province":"東京都","city":"小平市","address":"小平市花小金井6-20-3","lat":35.73023,"lon":139.51057},{"name":"花小金井ハイツ2","province":"東京都","city":"小平市","address":"小平市花小金井6-20-3","lat":35.73023,"lon":139.51057},{"name":"花小金井ハイツ2","province":"東京都","city":"小平市","address":"小平市花小金井6-20-3","lat":35.73022,"lon":139.51057},{"name":"けやきの郷","province":"東京都","city":"小平市","address":"小平市小川町1-485","lat":35.727651,"lon":139.440373},{"name":"公立昭和病院","province":"東京都","city":"小平市","address":"小平市花小金井8-1-1","lat":35.731297,"lon":139.503337},{"name":"小平荘","province":"東京都","city":"小平市","address":"小平市花小金井8-28-1","lat":35.730833,"lon":139.505728},{"name":"花小金井ハイツ","province":"東京都","city":"小平市","address":"小平市花小金井6-20-3","lat":35.730195,"lon":139.510728},{"name":"南台病院","province":"東京都","city":"小平市","address":"小平市小川町1-485","lat":35.727651,"lon":139.440373},{"name":"多摩済生病院","province":"東京都","city":"小平市","address":"小平市美園町3-11-1","lat":35.740607,"lon":139.489257},{"name":"小平市社会福祉協議会","province":"東京都","city":"小平市","address":"小平市学園東町1-19-13福祉会館内","lat":35.726567,"lon":139.478114},{"name":"小平荘","province":"東京都","city":"小平市","address":"小平市花小金井8-28-1","lat":35.73142,"lon":139.50586},{"name":"花小金井ハイツ","province":"東京都","city":"小平市","address":"小平市花小金井6-20-3","lat":35.73022,"lon":139.51057},{"name":"公立昭和病院","province":"東京都","city":"小平市","address":"小平市花小金井8-1-1","lat":35.73167,"lon":139.50266},{"name":"くるめ園","province":"東京都","city":"小平市","address":"小平市上水南町4-7-45","lat":35.71013,"lon":139.4913},{"name":"あかつき","province":"東京都","city":"小平市","address":"小平市小川町1-485","lat":35.72841,"lon":139.44067},{"name":"黎明寮","province":"東京都","city":"小平市","address":"小平市小川町1-485","lat":35.72841,"lon":139.44067},{"name":"花小金井ハイツ２","province":"東京都","city":"小平市","address":"小平市花小金井6-20-3","lat":35.73022,"lon":139.51057},{"name":"ロッジ小平","province":"東京都","city":"小平市","address":"小平市花小金井8-28-1","lat":35.73142,"lon":139.50586},{"name":"天神ハイツ","province":"東京都","city":"小平市","address":"小平市天神町2-4-33","lat":35.73304,"lon":139.49271},{"name":"天神ハイツ２","province":"東京都","city":"小平市","address":"小平市天神町2-4-33","lat":35.73304,"lon":139.49271},{"name":"小平市社会福祉協議会","province":"東京都","city":"小平市","address":"小平市学園東町1-19-13福祉会館4階","lat":35.72678,"lon":139.47797},{"name":"あかつき","province":"東京都","city":"小平市","address":"小平市小川町1-485","lat":35.727651,"lon":139.440373},{"name":"くるめ園","province":"東京都","city":"小平市","address":"小平市上水南町4-7-45","lat":35.708799,"lon":139.491028},{"name":"黎明寮","province":"東京都","city":"小平市","address":"小平市小川町1-485","lat":35.727651,"lon":139.440373},{"name":"社会福祉法人未来ワークセンター夢の樹","province":"東京都","city":"小平市","address":"東京都小平市大沼町2丁目1-3","lat":35.7386878,"lon":139.49255676},{"name":"社会福祉法人未来みくま","province":"東京都","city":"小平市","address":"東京都小平市大沼町2丁目1-12","lat":35.73818229,"lon":139.49219293},{"name":"社会福祉法人桂会あしたば作業所","province":"東京都","city":"小平市","address":"東京都小平市鈴木町2丁目187-3","lat":35.72360934,"lon":139.50689505},{"name":"小平市立あおぞら福祉センター","province":"東京都","city":"小平市","address":"東京都小平市鈴木町1丁目472-89","lat":35.72002896,"lon":139.49796266},{"name":"生活リハビリセンター六三四","province":"東京都","city":"小平市","address":"東京都小平市仲町364-1","lat":35.72810559,"lon":139.48970749},{"name":"小平第二みどり作業所","province":"東京都","city":"小平市","address":"東京都小平市天神町3丁目7-16","lat":35.73086109,"lon":139.49950648},{"name":"サングリーン","province":"東京都","city":"小平市","address":"東京都小平市小川町1丁目943","lat":35.72774082,"lon":139.456641},{"name":"社会福祉法人つむぎおだまき","province":"東京都","city":"小平市","address":"東京都小平市小川東町4丁目2-1","lat":35.74015101,"lon":139.47406669},{"name":"花小金井ハイツ","province":"東京都","city":"小平市","address":"小平市花小金井6-20-3","lat":35.73023,"lon":139.51057},{"name":"花小金井ハイツ2","province":"東京都","city":"小平市","address":"小平市花小金井6-20-3","lat":35.73023,"lon":139.51057},{"name":"花小金井ハイツ2","province":"東京都","city":"小平市","address":"小平市花小金井6-20-3","lat":35.73022,"lon":139.51057},{"name":"けやきの郷","province":"東京都","city":"小平市","address":"小平市小川町1-485","lat":35.727651,"lon":139.440373},{"name":"公立昭和病院","province":"東京都","city":"小平市","address":"小平市花小金井8-1-1","lat":35.731297,"lon":139.503337},{"name":"小平荘","province":"東京都","city":"小平市","address":"小平市花小金井8-28-1","lat":35.730833,"lon":139.505728},{"name":"花小金井ハイツ","province":"東京都","city":"小平市","address":"小平市花小金井6-20-3","lat":35.730195,"lon":139.510728},{"name":"南台病院","province":"東京都","city":"小平市","address":"小平市小川町1-485","lat":35.727651,"lon":139.440373},{"name":"多摩済生病院","province":"東京都","city":"小平市","address":"小平市美園町3-11-1","lat":35.740607,"lon":139.489257},{"name":"小平市社会福祉協議会","province":"東京都","city":"小平市","address":"小平市学園東町1-19-13福祉会館内","lat":35.726567,"lon":139.478114},{"name":"小平荘","province":"東京都","city":"小平市","address":"小平市花小金井8-28-1","lat":35.73142,"lon":139.50586},{"name":"花小金井ハイツ","province":"東京都","city":"小平市","address":"小平市花小金井6-20-3","lat":35.73022,"lon":139.51057},{"name":"公立昭和病院","province":"東京都","city":"小平市","address":"小平市花小金井8-1-1","lat":35.73167,"lon":139.50266},{"name":"くるめ園","province":"東京都","city":"小平市","address":"小平市上水南町4-7-45","lat":35.71013,"lon":139.4913},{"name":"あかつき","province":"東京都","city":"小平市","address":"小平市小川町1-485","lat":35.72841,"lon":139.44067},{"name":"黎明寮","province":"東京都","city":"小平市","address":"小平市小川町1-485","lat":35.72841,"lon":139.44067},{"name":"花小金井ハイツ２","province":"東京都","city":"小平市","address":"小平市花小金井6-20-3","lat":35.73022,"lon":139.51057},{"name":"ロッジ小平","province":"東京都","city":"小平市","address":"小平市花小金井8-28-1","lat":35.73142,"lon":139.50586},{"name":"天神ハイツ","province":"東京都","city":"小平市","address":"小平市天神町2-4-33","lat":35.73304,"lon":139.49271},{"name":"天神ハイツ２","province":"東京都","city":"小平市","address":"小平市天神町2-4-33","lat":35.73304,"lon":139.49271},{"name":"小平市社会福祉協議会","province":"東京都","city":"小平市","address":"小平市学園東町1-19-13福祉会館4階","lat":35.72678,"lon":139.47797},{"name":"あかつき","province":"東京都","city":"小平市","address":"小平市小川町1-485","lat":35.727651,"lon":139.440373},{"name":"くるめ園","province":"東京都","city":"小平市","address":"小平市上水南町4-7-45","lat":35.708799,"lon":139.491028},{"name":"黎明寮","province":"東京都","city":"小平市","address":"小平市小川町1-485","lat":35.727651,"lon":139.440373},{"name":"社会福祉法人未来ワークセンター夢の樹","province":"東京都","city":"小平市","address":"東京都小平市大沼町2丁目1-3","lat":35.7386878,"lon":139.49255676},{"name":"社会福祉法人未来みくま","province":"東京都","city":"小平市","address":"東京都小平市大沼町2丁目1-12","lat":35.73818229,"lon":139.49219293},{"name":"社会福祉法人桂会あしたば作業所","province":"東京都","city":"小平市","address":"東京都小平市鈴木町2丁目187-3","lat":35.72360934,"lon":139.50689505},{"name":"小平市立あおぞら福祉センター","province":"東京都","city":"小平市","address":"東京都小平市鈴木町1丁目472-89","lat":35.72002896,"lon":139.49796266},{"name":"生活リハビリセンター六三四","province":"東京都","city":"小平市","address":"東京都小平市仲町364-1","lat":35.72810559,"lon":139.48970749},{"name":"小平第二みどり作業所","province":"東京都","city":"小平市","address":"東京都小平市天神町3丁目7-16","lat":35.73086109,"lon":139.49950648},{"name":"サングリーン","province":"東京都","city":"小平市","address":"東京都小平市小川町1丁目943","lat":35.72774082,"lon":139.456641},{"name":"社会福祉法人つむぎおだまき","province":"東京都","city":"小平市","address":"東京都小平市小川東町4丁目2-1","lat":35.74015101,"lon":139.47406669},{"name":"花小金井ハイツ","province":"東京都","city":"小平市","address":"小平市花小金井6-20-3","lat":35.73023,"lon":139.51057},{"name":"花小金井ハイツ2","province":"東京都","city":"小平市","address":"小平市花小金井6-20-3","lat":35.73023,"lon":139.51057},{"name":"花小金井ハイツ2","province":"東京都","city":"小平市","address":"小平市花小金井6-20-3","lat":35.73022,"lon":139.51057},{"name":"けやきの郷","province":"東京都","city":"小平市","address":"小平市小川町1-485","lat":35.727651,"lon":139.440373},{"name":"公立昭和病院","province":"東京都","city":"小平市","address":"小平市花小金井8-1-1","lat":35.731297,"lon":139.503337},{"name":"小平荘","province":"東京都","city":"小平市","address":"小平市花小金井8-28-1","lat":35.730833,"lon":139.505728},{"name":"花小金井ハイツ","province":"東京都","city":"小平市","address":"小平市花小金井6-20-3","lat":35.730195,"lon":139.510728},{"name":"南台病院","province":"東京都","city":"小平市","address":"小平市小川町1-485","lat":35.727651,"lon":139.440373},{"name":"多摩済生病院","province":"東京都","city":"小平市","address":"小平市美園町3-11-1","lat":35.740607,"lon":139.489257},{"name":"小平市社会福祉協議会","province":"東京都","city":"小平市","address":"小平市学園東町1-19-13福祉会館内","lat":35.726567,"lon":139.478114},{"name":"小平荘","province":"東京都","city":"小平市","address":"小平市花小金井8-28-1","lat":35.73142,"lon":139.50586},{"name":"花小金井ハイツ","province":"東京都","city":"小平市","address":"小平市花小金井6-20-3","lat":35.73022,"lon":139.51057},{"name":"公立昭和病院","province":"東京都","city":"小平市","address":"小平市花小金井8-1-1","lat":35.73167,"lon":139.50266},{"name":"くるめ園","province":"東京都","city":"小平市","address":"小平市上水南町4-7-45","lat":35.71013,"lon":139.4913},{"name":"あかつき","province":"東京都","city":"小平市","address":"小平市小川町1-485","lat":35.72841,"lon":139.44067},{"name":"黎明寮","province":"東京都","city":"小平市","address":"小平市小川町1-485","lat":35.72841,"lon":139.44067},{"name":"花小金井ハイツ２","province":"東京都","city":"小平市","address":"小平市花小金井6-20-3","lat":35.73022,"lon":139.51057},{"name":"ロッジ小平","province":"東京都","city":"小平市","address":"小平市花小金井8-28-1","lat":35.73142,"lon":139.50586},{"name":"天神ハイツ","province":"東京都","city":"小平市","address":"小平市天神町2-4-33","lat":35.73304,"lon":139.49271},{"name":"天神ハイツ２","province":"東京都","city":"小平市","address":"小平市天神町2-4-33","lat":35.73304,"lon":139.49271},{"name":"小平市社会福祉協議会","province":"東京都","city":"小平市","address":"小平市学園東町1-19-13福祉会館4階","lat":35.72678,"lon":139.47797},{"name":"あかつき","province":"東京都","city":"小平市","address":"小平市小川町1-485","lat":35.727651,"lon":139.440373},{"name":"くるめ園","province":"東京都","city":"小平市","address":"小平市上水南町4-7-45","lat":35.708799,"lon":139.491028},{"name":"黎明寮","province":"東京都","city":"小平市","address":"小平市小川町1-485","lat":35.727651,"lon":139.440373},{"name":"社会福祉法人未来ワークセンター夢の樹","province":"東京都","city":"小平市","address":"東京都小平市大沼町2丁目1-3","lat":35.7386878,"lon":139.49255676},{"name":"社会福祉法人未来みくま","province":"東京都","city":"小平市","address":"東京都小平市大沼町2丁目1-12","lat":35.73818229,"lon":139.49219293},{"name":"社会福祉法人桂会あしたば作業所","province":"東京都","city":"小平市","address":"東京都小平市鈴木町2丁目187-3","lat":35.72360934,"lon":139.50689505},{"name":"小平市立あおぞら福祉センター","province":"東京都","city":"小平市","address":"東京都小平市鈴木町1丁目472-89","lat":35.72002896,"lon":139.49796266},{"name":"生活リハビリセンター六三四","province":"東京都","city":"小平市","address":"東京都小平市仲町364-1","lat":35.72810559,"lon":139.48970749},{"name":"小平第二みどり作業所","province":"東京都","city":"小平市","address":"東京都小平市天神町3丁目7-16","lat":35.73086109,"lon":139.49950648},{"name":"サングリーン","province":"東京都","city":"小平市","address":"東京都小平市小川町1丁目943","lat":35.72774082,"lon":139.456641},{"name":"社会福祉法人つむぎおだまき","province":"東京都","city":"小平市","address":"東京都小平市小川東町4丁目2-1","lat":35.74015101,"lon":139.47406669},{"name":"花小金井ハイツ","province":"東京都","city":"小平市","address":"小平市花小金井6-20-3","lat":35.73023,"lon":139.51057},{"name":"花小金井ハイツ2","province":"東京都","city":"小平市","address":"小平市花小金井6-20-3","lat":35.73023,"lon":139.51057},{"name":"花小金井ハイツ2","province":"東京都","city":"小平市","address":"小平市花小金井6-20-3","lat":35.73022,"lon":139.51057},{"name":"けやきの郷","province":"東京都","city":"小平市","address":"小平市小川町1-485","lat":35.727651,"lon":139.440373},{"name":"公立昭和病院","province":"東京都","city":"小平市","address":"小平市花小金井8-1-1","lat":35.731297,"lon":139.503337},{"name":"小平荘","province":"東京都","city":"小平市","address":"小平市花小金井8-28-1","lat":35.730833,"lon":139.505728},{"name":"花小金井ハイツ","province":"東京都","city":"小平市","address":"小平市花小金井6-20-3","lat":35.730195,"lon":139.510728},{"name":"南台病院","province":"東京都","city":"小平市","address":"小平市小川町1-485","lat":35.727651,"lon":139.440373},{"name":"多摩済生病院","province":"東京都","city":"小平市","address":"小平市美園町3-11-1","lat":35.740607,"lon":139.489257},{"name":"小平市社会福祉協議会","province":"東京都","city":"小平市","address":"小平市学園東町1-19-13福祉会館内","lat":35.726567,"lon":139.478114},{"name":"小平荘","province":"東京都","city":"小平市","address":"小平市花小金井8-28-1","lat":35.73142,"lon":139.50586},{"name":"花小金井ハイツ","province":"東京都","city":"小平市","address":"小平市花小金井6-20-3","lat":35.73022,"lon":139.51057},{"name":"公立昭和病院","province":"東京都","city":"小平市","address":"小平市花小金井8-1-1","lat":35.73167,"lon":139.50266},{"name":"くるめ園","province":"東京都","city":"小平市","address":"小平市上水南町4-7-45","lat":35.71013,"lon":139.4913},{"name":"あかつき","province":"東京都","city":"小平市","address":"小平市小川町1-485","lat":35.72841,"lon":139.44067},{"name":"黎明寮","province":"東京都","city":"小平市","address":"小平市小川町1-485","lat":35.72841,"lon":139.44067},{"name":"花小金井ハイツ２","province":"東京都","city":"小平市","address":"小平市花小金井6-20-3","lat":35.73022,"lon":139.51057},{"name":"ロッジ小平","province":"東京都","city":"小平市","address":"小平市花小金井8-28-1","lat":35.73142,"lon":139.50586},{"name":"天神ハイツ","province":"東京都","city":"小平市","address":"小平市天神町2-4-33","lat":35.73304,"lon":139.49271},{"name":"天神ハイツ２","province":"東京都","city":"小平市","address":"小平市天神町2-4-33","lat":35.73304,"lon":139.49271},{"name":"小平市社会福祉協議会","province":"東京都","city":"小平市","address":"小平市学園東町1-19-13福祉会館4階","lat":35.72678,"lon":139.47797},{"name":"あかつき","province":"東京都","city":"小平市","address":"小平市小川町1-485","lat":35.727651,"lon":139.440373},{"name":"くるめ園","province":"東京都","city":"小平市","address":"小平市上水南町4-7-45","lat":35.708799,"lon":139.491028},{"name":"黎明寮","province":"東京都","city":"小平市","address":"小平市小川町1-485","lat":35.727651,"lon":139.440373},{"name":"社会福祉法人未来ワークセンター夢の樹","province":"東京都","city":"小平市","address":"東京都小平市大沼町2丁目1-3","lat":35.7386878,"lon":139.49255676},{"name":"社会福祉法人未来みくま","province":"東京都","city":"小平市","address":"東京都小平市大沼町2丁目1-12","lat":35.73818229,"lon":139.49219293},{"name":"社会福祉法人桂会あしたば作業所","province":"東京都","city":"小平市","address":"東京都小平市鈴木町2丁目187-3","lat":35.72360934,"lon":139.50689505},{"name":"小平市立あおぞら福祉センター","province":"東京都","city":"小平市","address":"東京都小平市鈴木町1丁目472-89","lat":35.72002896,"lon":139.49796266},{"name":"生活リハビリセンター六三四","province":"東京都","city":"小平市","address":"東京都小平市仲町364-1","lat":35.72810559,"lon":139.48970749},{"name":"小平第二みどり作業所","province":"東京都","city":"小平市","address":"東京都小平市天神町3丁目7-16","lat":35.73086109,"lon":139.49950648},{"name":"サングリーン","province":"東京都","city":"小平市","address":"東京都小平市小川町1丁目943","lat":35.72774082,"lon":139.456641},{"name":"社会福祉法人つむぎおだまき","province":"東京都","city":"小平市","address":"東京都小平市小川東町4丁目2-1","lat":35.74015101,"lon":139.47406669},{"name":"花小金井ハイツ","province":"東京都","city":"小平市","address":"小平市花小金井6-20-3","lat":35.73023,"lon":139.51057},{"name":"花小金井ハイツ2","province":"東京都","city":"小平市","address":"小平市花小金井6-20-3","lat":35.73023,"lon":139.51057},{"name":"花小金井ハイツ2","province":"東京都","city":"小平市","address":"小平市花小金井6-20-3","lat":35.73022,"lon":139.51057},{"name":"けやきの郷","province":"東京都","city":"小平市","address":"小平市小川町1-485","lat":35.727651,"lon":139.440373},{"name":"公立昭和病院","province":"東京都","city":"小平市","address":"小平市花小金井8-1-1","lat":35.731297,"lon":139.503337},{"name":"小平荘","province":"東京都","city":"小平市","address":"小平市花小金井8-28-1","lat":35.730833,"lon":139.505728},{"name":"花小金井ハイツ","province":"東京都","city":"小平市","address":"小平市花小金井6-20-3","lat":35.730195,"lon":139.510728},{"name":"南台病院","province":"東京都","city":"小平市","address":"小平市小川町1-485","lat":35.727651,"lon":139.440373},{"name":"多摩済生病院","province":"東京都","city":"小平市","address":"小平市美園町3-11-1","lat":35.740607,"lon":139.489257},{"name":"小平市社会福祉協議会","province":"東京都","city":"小平市","address":"小平市学園東町1-19-13福祉会館内","lat":35.726567,"lon":139.478114},{"name":"小平荘","province":"東京都","city":"小平市","address":"小平市花小金井8-28-1","lat":35.73142,"lon":139.50586},{"name":"花小金井ハイツ","province":"東京都","city":"小平市","address":"小平市花小金井6-20-3","lat":35.73022,"lon":139.51057},{"name":"公立昭和病院","province":"東京都","city":"小平市","address":"小平市花小金井8-1-1","lat":35.73167,"lon":139.50266},{"name":"くるめ園","province":"東京都","city":"小平市","address":"小平市上水南町4-7-45","lat":35.71013,"lon":139.4913},{"name":"あかつき","province":"東京都","city":"小平市","address":"小平市小川町1-485","lat":35.72841,"lon":139.44067},{"name":"黎明寮","province":"東京都","city":"小平市","address":"小平市小川町1-485","lat":35.72841,"lon":139.44067},{"name":"花小金井ハイツ２","province":"東京都","city":"小平市","address":"小平市花小金井6-20-3","lat":35.73022,"lon":139.51057},{"name":"ロッジ小平","province":"東京都","city":"小平市","address":"小平市花小金井8-28-1","lat":35.73142,"lon":139.50586},{"name":"天神ハイツ","province":"東京都","city":"小平市","address":"小平市天神町2-4-33","lat":35.73304,"lon":139.49271},{"name":"天神ハイツ２","province":"東京都","city":"小平市","address":"小平市天神町2-4-33","lat":35.73304,"lon":139.49271},{"name":"小平市社会福祉協議会","province":"東京都","city":"小平市","address":"小平市学園東町1-19-13福祉会館4階","lat":35.72678,"lon":139.47797},{"name":"あかつき","province":"東京都","city":"小平市","address":"小平市小川町1-485","lat":35.727651,"lon":139.440373},{"name":"くるめ園","province":"東京都","city":"小平市","address":"小平市上水南町4-7-45","lat":35.708799,"lon":139.491028},{"name":"黎明寮","province":"東京都","city":"小平市","address":"小平市小川町1-485","lat":35.727651,"lon":139.440373},{"name":"社会福祉法人未来ワークセンター夢の樹","province":"東京都","city":"小平市","address":"東京都小平市大沼町2丁目1-3","lat":35.7386878,"lon":139.49255676},{"name":"社会福祉法人未来みくま","province":"東京都","city":"小平市","address":"東京都小平市大沼町2丁目1-12","lat":35.73818229,"lon":139.49219293},{"name":"社会福祉法人桂会あしたば作業所","province":"東京都","city":"小平市","address":"東京都小平市鈴木町2丁目187-3","lat":35.72360934,"lon":139.50689505},{"name":"小平市立あおぞら福祉センター","province":"東京都","city":"小平市","address":"東京都小平市鈴木町1丁目472-89","lat":35.72002896,"lon":139.49796266},{"name":"生活リハビリセンター六三四","province":"東京都","city":"小平市","address":"東京都小平市仲町364-1","lat":35.72810559,"lon":139.48970749},{"name":"小平第二みどり作業所","province":"東京都","city":"小平市","address":"東京都小平市天神町3丁目7-16","lat":35.73086109,"lon":139.49950648},{"name":"サングリーン","province":"東京都","city":"小平市","address":"東京都小平市小川町1丁目943","lat":35.72774082,"lon":139.456641},{"name":"社会福祉法人つむぎおだまき","province":"東京都","city":"小平市","address":"東京都小平市小川東町4丁目2-1","lat":35.74015101,"lon":139.47406669},{"name":"花小金井ハイツ","province":"東京都","city":"小平市","address":"小平市花小金井6-20-3","lat":35.73023,"lon":139.51057},{"name":"花小金井ハイツ2","province":"東京都","city":"小平市","address":"小平市花小金井6-20-3","lat":35.73023,"lon":139.51057},{"name":"花小金井ハイツ2","province":"東京都","city":"小平市","address":"小平市花小金井6-20-3","lat":35.73022,"lon":139.51057},{"name":"けやきの郷","province":"東京都","city":"小平市","address":"小平市小川町1-485","lat":35.727651,"lon":139.440373},{"name":"公立昭和病院","province":"東京都","city":"小平市","address":"小平市花小金井8-1-1","lat":35.731297,"lon":139.503337},{"name":"小平荘","province":"東京都","city":"小平市","address":"小平市花小金井8-28-1","lat":35.730833,"lon":139.505728},{"name":"花小金井ハイツ","province":"東京都","city":"小平市","address":"小平市花小金井6-20-3","lat":35.730195,"lon":139.510728},{"name":"南台病院","province":"東京都","city":"小平市","address":"小平市小川町1-485","lat":35.727651,"lon":139.440373},{"name":"多摩済生病院","province":"東京都","city":"小平市","address":"小平市美園町3-11-1","lat":35.740607,"lon":139.489257},{"name":"小平市社会福祉協議会","province":"東京都","city":"小平市","address":"小平市学園東町1-19-13福祉会館内","lat":35.726567,"lon":139.478114},{"name":"小平荘","province":"東京都","city":"小平市","address":"小平市花小金井8-28-1","lat":35.73142,"lon":139.50586},{"name":"花小金井ハイツ","province":"東京都","city":"小平市","address":"小平市花小金井6-20-3","lat":35.73022,"lon":139.51057},{"name":"公立昭和病院","province":"東京都","city":"小平市","address":"小平市花小金井8-1-1","lat":35.73167,"lon":139.50266},{"name":"くるめ園","province":"東京都","city":"小平市","address":"小平市上水南町4-7-45","lat":35.71013,"lon":139.4913},{"name":"あかつき","province":"東京都","city":"小平市","address":"小平市小川町1-485","lat":35.72841,"lon":139.44067},{"name":"黎明寮","province":"東京都","city":"小平市","address":"小平市小川町1-485","lat":35.72841,"lon":139.44067},{"name":"花小金井ハイツ２","province":"東京都","city":"小平市","address":"小平市花小金井6-20-3","lat":35.73022,"lon":139.51057},{"name":"ロッジ小平","province":"東京都","city":"小平市","address":"小平市花小金井8-28-1","lat":35.73142,"lon":139.50586},{"name":"天神ハイツ","province":"東京都","city":"小平市","address":"小平市天神町2-4-33","lat":35.73304,"lon":139.49271},{"name":"天神ハイツ２","province":"東京都","city":"小平市","address":"小平市天神町2-4-33","lat":35.73304,"lon":139.49271},{"name":"小平市社会福祉協議会","province":"東京都","city":"小平市","address":"小平市学園東町1-19-13福祉会館4階","lat":35.72678,"lon":139.47797},{"name":"あかつき","province":"東京都","city":"小平市","address":"小平市小川町1-485","lat":35.727651,"lon":139.440373},{"name":"くるめ園","province":"東京都","city":"小平市","address":"小平市上水南町4-7-45","lat":35.708799,"lon":139.491028},{"name":"黎明寮","province":"東京都","city":"小平市","address":"小平市小川町1-485","lat":35.727651,"lon":139.440373},{"name":"社会福祉法人未来ワークセンター夢の樹","province":"東京都","city":"小平市","address":"東京都小平市大沼町2丁目1-3","lat":35.7386878,"lon":139.49255676},{"name":"社会福祉法人未来みくま","province":"東京都","city":"小平市","address":"東京都小平市大沼町2丁目1-12","lat":35.73818229,"lon":139.49219293},{"name":"社会福祉法人桂会あしたば作業所","province":"東京都","city":"小平市","address":"東京都小平市鈴木町2丁目187-3","lat":35.72360934,"lon":139.50689505},{"name":"小平市立あおぞら福祉センター","province":"東京都","city":"小平市","address":"東京都小平市鈴木町1丁目472-89","lat":35.72002896,"lon":139.49796266},{"name":"生活リハビリセンター六三四","province":"東京都","city":"小平市","address":"東京都小平市仲町364-1","lat":35.72810559,"lon":139.48970749},{"name":"小平第二みどり作業所","province":"東京都","city":"小平市","address":"東京都小平市天神町3丁目7-16","lat":35.73086109,"lon":139.49950648},{"name":"サングリーン","province":"東京都","city":"小平市","address":"東京都小平市小川町1丁目943","lat":35.72774082,"lon":139.456641},{"name":"社会福祉法人つむぎおだまき","province":"東京都","city":"小平市","address":"東京都小平市小川東町4丁目2-1","lat":35.74015101,"lon":139.47406669},{"name":"花小金井ハイツ","province":"東京都","city":"小平市","address":"小平市花小金井6-20-3","lat":35.73023,"lon":139.51057},{"name":"花小金井ハイツ2","province":"東京都","city":"小平市","address":"小平市花小金井6-20-3","lat":35.73023,"lon":139.51057},{"name":"花小金井ハイツ2","province":"東京都","city":"小平市","address":"小平市花小金井6-20-3","lat":35.73022,"lon":139.51057},{"name":"けやきの郷","province":"東京都","city":"小平市","address":"小平市小川町1-485","lat":35.727651,"lon":139.440373},{"name":"公立昭和病院","province":"東京都","city":"小平市","address":"小平市花小金井8-1-1","lat":35.731297,"lon":139.503337},{"name":"小平荘","province":"東京都","city":"小平市","address":"小平市花小金井8-28-1","lat":35.730833,"lon":139.505728},{"name":"花小金井ハイツ","province":"東京都","city":"小平市","address":"小平市花小金井6-20-3","lat":35.730195,"lon":139.510728},{"name":"南台病院","province":"東京都","city":"小平市","address":"小平市小川町1-485","lat":35.727651,"lon":139.440373},{"name":"多摩済生病院","province":"東京都","city":"小平市","address":"小平市美園町3-11-1","lat":35.740607,"lon":139.489257},{"name":"小平市社会福祉協議会","province":"東京都","city":"小平市","address":"小平市学園東町1-19-13福祉会館内","lat":35.726567,"lon":139.478114},{"name":"小平荘","province":"東京都","city":"小平市","address":"小平市花小金井8-28-1","lat":35.73142,"lon":139.50586},{"name":"花小金井ハイツ","province":"東京都","city":"小平市","address":"小平市花小金井6-20-3","lat":35.73022,"lon":139.51057},{"name":"公立昭和病院","province":"東京都","city":"小平市","address":"小平市花小金井8-1-1","lat":35.73167,"lon":139.50266},{"name":"くるめ園","province":"東京都","city":"小平市","address":"小平市上水南町4-7-45","lat":35.71013,"lon":139.4913},{"name":"あかつき","province":"東京都","city":"小平市","address":"小平市小川町1-485","lat":35.72841,"lon":139.44067},{"name":"黎明寮","province":"東京都","city":"小平市","address":"小平市小川町1-485","lat":35.72841,"lon":139.44067},{"name":"花小金井ハイツ２","province":"東京都","city":"小平市","address":"小平市花小金井6-20-3","lat":35.73022,"lon":139.51057},{"name":"ロッジ小平","province":"東京都","city":"小平市","address":"小平市花小金井8-28-1","lat":35.73142,"lon":139.50586},{"name":"天神ハイツ","province":"東京都","city":"小平市","address":"小平市天神町2-4-33","lat":35.73304,"lon":139.49271},{"name":"天神ハイツ２","province":"東京都","city":"小平市","address":"小平市天神町2-4-33","lat":35.73304,"lon":139.49271},{"name":"小平市社会福祉協議会","province":"東京都","city":"小平市","address":"小平市学園東町1-19-13福祉会館4階","lat":35.72678,"lon":139.47797},{"name":"あかつき","province":"東京都","city":"小平市","address":"小平市小川町1-485","lat":35.727651,"lon":139.440373},{"name":"くるめ園","province":"東京都","city":"小平市","address":"小平市上水南町4-7-45","lat":35.708799,"lon":139.491028},{"name":"黎明寮","province":"東京都","city":"小平市","address":"小平市小川町1-485","lat":35.727651,"lon":139.440373},{"name":"社会福祉法人未来ワークセンター夢の樹","province":"東京都","city":"小平市","address":"東京都小平市大沼町2丁目1-3","lat":35.7386878,"lon":139.49255676},{"name":"社会福祉法人未来みくま","province":"東京都","city":"小平市","address":"東京都小平市大沼町2丁目1-12","lat":35.73818229,"lon":139.49219293},{"name":"社会福祉法人桂会あしたば作業所","province":"東京都","city":"小平市","address":"東京都小平市鈴木町2丁目187-3","lat":35.72360934,"lon":139.50689505},{"name":"小平市立あおぞら福祉センター","province":"東京都","city":"小平市","address":"東京都小平市鈴木町1丁目472-89","lat":35.72002896,"lon":139.49796266},{"name":"生活リハビリセンター六三四","province":"東京都","city":"小平市","address":"東京都小平市仲町364-1","lat":35.72810559,"lon":139.48970749},{"name":"小平第二みどり作業所","province":"東京都","city":"小平市","address":"東京都小平市天神町3丁目7-16","lat":35.73086109,"lon":139.49950648},{"name":"サングリーン","province":"東京都","city":"小平市","address":"東京都小平市小川町1丁目943","lat":35.72774082,"lon":139.456641},{"name":"社会福祉法人つむぎおだまき","province":"東京都","city":"小平市","address":"東京都小平市小川東町4丁目2-1","lat":35.74015101,"lon":139.47406669},{"name":"花小金井ハイツ","province":"東京都","city":"小平市","address":"小平市花小金井6-20-3","lat":35.73023,"lon":139.51057},{"name":"花小金井ハイツ2","province":"東京都","city":"小平市","address":"小平市花小金井6-20-3","lat":35.73023,"lon":139.51057},{"name":"花小金井ハイツ2","province":"東京都","city":"小平市","address":"小平市花小金井6-20-3","lat":35.73022,"lon":139.51057},{"name":"けやきの郷","province":"東京都","city":"小平市","address":"小平市小川町1-485","lat":35.727651,"lon":139.440373},{"name":"公立昭和病院","province":"東京都","city":"小平市","address":"小平市花小金井8-1-1","lat":35.731297,"lon":139.503337},{"name":"小平荘","province":"東京都","city":"小平市","address":"小平市花小金井8-28-1","lat":35.730833,"lon":139.505728},{"name":"花小金井ハイツ","province":"東京都","city":"小平市","address":"小平市花小金井6-20-3","lat":35.730195,"lon":139.510728},{"name":"南台病院","province":"東京都","city":"小平市","address":"小平市小川町1-485","lat":35.727651,"lon":139.440373},{"name":"多摩済生病院","province":"東京都","city":"小平市","address":"小平市美園町3-11-1","lat":35.740607,"lon":139.489257},{"name":"小平市社会福祉協議会","province":"東京都","city":"小平市","address":"小平市学園東町1-19-13福祉会館内","lat":35.726567,"lon":139.478114},{"name":"小平荘","province":"東京都","city":"小平市","address":"小平市花小金井8-28-1","lat":35.73142,"lon":139.50586},{"name":"花小金井ハイツ","province":"東京都","city":"小平市","address":"小平市花小金井6-20-3","lat":35.73022,"lon":139.51057},{"name":"公立昭和病院","province":"東京都","city":"小平市","address":"小平市花小金井8-1-1","lat":35.73167,"lon":139.50266},{"name":"くるめ園","province":"東京都","city":"小平市","address":"小平市上水南町4-7-45","lat":35.71013,"lon":139.4913},{"name":"あかつき","province":"東京都","city":"小平市","address":"小平市小川町1-485","lat":35.72841,"lon":139.44067},{"name":"黎明寮","province":"東京都","city":"小平市","address":"小平市小川町1-485","lat":35.72841,"lon":139.44067},{"name":"花小金井ハイツ２","province":"東京都","city":"小平市","address":"小平市花小金井6-20-3","lat":35.73022,"lon":139.51057},{"name":"ロッジ小平","province":"東京都","city":"小平市","address":"小平市花小金井8-28-1","lat":35.73142,"lon":139.50586},{"name":"天神ハイツ","province":"東京都","city":"小平市","address":"小平市天神町2-4-33","lat":35.73304,"lon":139.49271},{"name":"天神ハイツ２","province":"東京都","city":"小平市","address":"小平市天神町2-4-33","lat":35.73304,"lon":139.49271},{"name":"小平市社会福祉協議会","province":"東京都","city":"小平市","address":"小平市学園東町1-19-13福祉会館4階","lat":35.72678,"lon":139.47797},{"name":"あかつき","province":"東京都","city":"小平市","address":"小平市小川町1-485","lat":35.727651,"lon":139.440373},{"name":"くるめ園","province":"東京都","city":"小平市","address":"小平市上水南町4-7-45","lat":35.708799,"lon":139.491028},{"name":"黎明寮","province":"東京都","city":"小平市","address":"小平市小川町1-485","lat":35.727651,"lon":139.440373},{"name":"社会福祉法人未来ワークセンター夢の樹","province":"東京都","city":"小平市","address":"東京都小平市大沼町2丁目1-3","lat":35.7386878,"lon":139.49255676},{"name":"社会福祉法人未来みくま","province":"東京都","city":"小平市","address":"東京都小平市大沼町2丁目1-12","lat":35.73818229,"lon":139.49219293},{"name":"社会福祉法人桂会あしたば作業所","province":"東京都","city":"小平市","address":"東京都小平市鈴木町2丁目187-3","lat":35.72360934,"lon":139.50689505},{"name":"小平市立あおぞら福祉センター","province":"東京都","city":"小平市","address":"東京都小平市鈴木町1丁目472-89","lat":35.72002896,"lon":139.49796266},{"name":"生活リハビリセンター六三四","province":"東京都","city":"小平市","address":"東京都小平市仲町364-1","lat":35.72810559,"lon":139.48970749},{"name":"小平第二みどり作業所","province":"東京都","city":"小平市","address":"東京都小平市天神町3丁目7-16","lat":35.73086109,"lon":139.49950648},{"name":"サングリーン","province":"東京都","city":"小平市","address":"東京都小平市小川町1丁目943","lat":35.72774082,"lon":139.456641},{"name":"社会福祉法人つむぎおだまき","province":"東京都","city":"小平市","address":"東京都小平市小川東町4丁目2-1","lat":35.74015101,"lon":139.47406669},{"name":"花小金井ハイツ","province":"東京都","city":"小平市","address":"小平市花小金井6-20-3","lat":35.73023,"lon":139.51057},{"name":"花小金井ハイツ2","province":"東京都","city":"小平市","address":"小平市花小金井6-20-3","lat":35.73023,"lon":139.51057},{"name":"花小金井ハイツ2","province":"東京都","city":"小平市","address":"小平市花小金井6-20-3","lat":35.73022,"lon":139.51057},{"name":"けやきの郷","province":"東京都","city":"小平市","address":"小平市小川町1-485","lat":35.727651,"lon":139.440373},{"name":"公立昭和病院","province":"東京都","city":"小平市","address":"小平市花小金井8-1-1","lat":35.731297,"lon":139.503337},{"name":"小平荘","province":"東京都","city":"小平市","address":"小平市花小金井8-28-1","lat":35.730833,"lon":139.505728},{"name":"花小金井ハイツ","province":"東京都","city":"小平市","address":"小平市花小金井6-20-3","lat":35.730195,"lon":139.510728},{"name":"南台病院","province":"東京都","city":"小平市","address":"小平市小川町1-485","lat":35.727651,"lon":139.440373},{"name":"多摩済生病院","province":"東京都","city":"小平市","address":"小平市美園町3-11-1","lat":35.740607,"lon":139.489257},{"name":"小平市社会福祉協議会","province":"東京都","city":"小平市","address":"小平市学園東町1-19-13福祉会館内","lat":35.726567,"lon":139.478114},{"name":"小平荘","province":"東京都","city":"小平市","address":"小平市花小金井8-28-1","lat":35.73142,"lon":139.50586},{"name":"花小金井ハイツ","province":"東京都","city":"小平市","address":"小平市花小金井6-20-3","lat":35.73022,"lon":139.51057},{"name":"公立昭和病院","province":"東京都","city":"小平市","address":"小平市花小金井8-1-1","lat":35.73167,"lon":139.50266},{"name":"くるめ園","province":"東京都","city":"小平市","address":"小平市上水南町4-7-45","lat":35.71013,"lon":139.4913},{"name":"あかつき","province":"東京都","city":"小平市","address":"小平市小川町1-485","lat":35.72841,"lon":139.44067},{"name":"黎明寮","province":"東京都","city":"小平市","address":"小平市小川町1-485","lat":35.72841,"lon":139.44067},{"name":"花小金井ハイツ２","province":"東京都","city":"小平市","address":"小平市花小金井6-20-3","lat":35.73022,"lon":139.51057},{"name":"ロッジ小平","province":"東京都","city":"小平市","address":"小平市花小金井8-28-1","lat":35.73142,"lon":139.50586},{"name":"天神ハイツ","province":"東京都","city":"小平市","address":"小平市天神町2-4-33","lat":35.73304,"lon":139.49271},{"name":"天神ハイツ２","province":"東京都","city":"小平市","address":"小平市天神町2-4-33","lat":35.73304,"lon":139.49271},{"name":"小平市社会福祉協議会","province":"東京都","city":"小平市","address":"小平市学園東町1-19-13福祉会館4階","lat":35.72678,"lon":139.47797},{"name":"あかつき","province":"東京都","city":"小平市","address":"小平市小川町1-485","lat":35.727651,"lon":139.440373},{"name":"くるめ園","province":"東京都","city":"小平市","address":"小平市上水南町4-7-45","lat":35.708799,"lon":139.491028},{"name":"黎明寮","province":"東京都","city":"小平市","address":"小平市小川町1-485","lat":35.727651,"lon":139.440373},{"name":"花小金井ハイツ","province":"東京都","city":"小平市","address":"小平市花小金井6-20-3","lat":35.73023,"lon":139.51057},{"name":"花小金井ハイツ2","province":"東京都","city":"小平市","address":"小平市花小金井6-20-3","lat":35.73023,"lon":139.51057},{"name":"花小金井ハイツ2","province":"東京都","city":"小平市","address":"小平市花小金井6-20-3","lat":35.73022,"lon":139.51057},{"name":"けやきの郷","province":"東京都","city":"小平市","address":"小平市小川町1-485","lat":35.727651,"lon":139.440373},{"name":"公立昭和病院","province":"東京都","city":"小平市","address":"小平市花小金井8-1-1","lat":35.731297,"lon":139.503337},{"name":"小平荘","province":"東京都","city":"小平市","address":"小平市花小金井8-28-1","lat":35.730833,"lon":139.505728},{"name":"花小金井ハイツ","province":"東京都","city":"小平市","address":"小平市花小金井6-20-3","lat":35.730195,"lon":139.510728},{"name":"南台病院","province":"東京都","city":"小平市","address":"小平市小川町1-485","lat":35.727651,"lon":139.440373},{"name":"多摩済生病院","province":"東京都","city":"小平市","address":"小平市美園町3-11-1","lat":35.740607,"lon":139.489257},{"name":"小平市社会福祉協議会","province":"東京都","city":"小平市","address":"小平市学園東町1-19-13福祉会館内","lat":35.726567,"lon":139.478114},{"name":"小平荘","province":"東京都","city":"小平市","address":"小平市花小金井8-28-1","lat":35.73142,"lon":139.50586},{"name":"花小金井ハイツ","province":"東京都","city":"小平市","address":"小平市花小金井6-20-3","lat":35.73022,"lon":139.51057},{"name":"公立昭和病院","province":"東京都","city":"小平市","address":"小平市花小金井8-1-1","lat":35.73167,"lon":139.50266},{"name":"くるめ園","province":"東京都","city":"小平市","address":"小平市上水南町4-7-45","lat":35.71013,"lon":139.4913},{"name":"あかつき","province":"東京都","city":"小平市","address":"小平市小川町1-485","lat":35.72841,"lon":139.44067},{"name":"黎明寮","province":"東京都","city":"小平市","address":"小平市小川町1-485","lat":35.72841,"lon":139.44067},{"name":"花小金井ハイツ２","province":"東京都","city":"小平市","address":"小平市花小金井6-20-3","lat":35.73022,"lon":139.51057},{"name":"ロッジ小平","province":"東京都","city":"小平市","address":"小平市花小金井8-28-1","lat":35.73142,"lon":139.50586},{"name":"天神ハイツ","province":"東京都","city":"小平市","address":"小平市天神町2-4-33","lat":35.73304,"lon":139.49271},{"name":"天神ハイツ２","province":"東京都","city":"小平市","address":"小平市天神町2-4-33","lat":35.73304,"lon":139.49271},{"name":"小平市社会福祉協議会","province":"東京都","city":"小平市","address":"小平市学園東町1-19-13福祉会館4階","lat":35.72678,"lon":139.47797},{"name":"あかつき","province":"東京都","city":"小平市","address":"小平市小川町1-485","lat":35.727651,"lon":139.440373},{"name":"くるめ園","province":"東京都","city":"小平市","address":"小平市上水南町4-7-45","lat":35.708799,"lon":139.491028},{"name":"黎明寮","province":"東京都","city":"小平市","address":"小平市小川町1-485","lat":35.727651,"lon":139.440373},{"name":"花小金井ハイツ","province":"東京都","city":"小平市","address":"小平市花小金井6-20-3","lat":35.73023,"lon":139.51057},{"name":"花小金井ハイツ2","province":"東京都","city":"小平市","address":"小平市花小金井6-20-3","lat":35.73023,"lon":139.51057},{"name":"花小金井ハイツ2","province":"東京都","city":"小平市","address":"小平市花小金井6-20-3","lat":35.73022,"lon":139.51057},{"name":"けやきの郷","province":"東京都","city":"小平市","address":"小平市小川町1-485","lat":35.727651,"lon":139.440373},{"name":"公立昭和病院","province":"東京都","city":"小平市","address":"小平市花小金井8-1-1","lat":35.731297,"lon":139.503337},{"name":"小平荘","province":"東京都","city":"小平市","address":"小平市花小金井8-28-1","lat":35.730833,"lon":139.505728},{"name":"花小金井ハイツ","province":"東京都","city":"小平市","address":"小平市花小金井6-20-3","lat":35.730195,"lon":139.510728},{"name":"南台病院","province":"東京都","city":"小平市","address":"小平市小川町1-485","lat":35.727651,"lon":139.440373},{"name":"多摩済生病院","province":"東京都","city":"小平市","address":"小平市美園町3-11-1","lat":35.740607,"lon":139.489257},{"name":"小平市社会福祉協議会","province":"東京都","city":"小平市","address":"小平市学園東町1-19-13福祉会館内","lat":35.726567,"lon":139.478114},{"name":"小平荘","province":"東京都","city":"小平市","address":"小平市花小金井8-28-1","lat":35.73142,"lon":139.50586},{"name":"花小金井ハイツ","province":"東京都","city":"小平市","address":"小平市花小金井6-20-3","lat":35.73022,"lon":139.51057},{"name":"公立昭和病院","province":"東京都","city":"小平市","address":"小平市花小金井8-1-1","lat":35.73167,"lon":139.50266},{"name":"くるめ園","province":"東京都","city":"小平市","address":"小平市上水南町4-7-45","lat":35.71013,"lon":139.4913},{"name":"あかつき","province":"東京都","city":"小平市","address":"小平市小川町1-485","lat":35.72841,"lon":139.44067},{"name":"黎明寮","province":"東京都","city":"小平市","address":"小平市小川町1-485","lat":35.72841,"lon":139.44067},{"name":"花小金井ハイツ２","province":"東京都","city":"小平市","address":"小平市花小金井6-20-3","lat":35.73022,"lon":139.51057},{"name":"ロッジ小平","province":"東京都","city":"小平市","address":"小平市花小金井8-28-1","lat":35.73142,"lon":139.50586},{"name":"天神ハイツ","province":"東京都","city":"小平市","address":"小平市天神町2-4-33","lat":35.73304,"lon":139.49271},{"name":"天神ハイツ２","province":"東京都","city":"小平市","address":"小平市天神町2-4-33","lat":35.73304,"lon":139.49271},{"name":"小平市社会福祉協議会","province":"東京都","city":"小平市","address":"小平市学園東町1-19-13福祉会館4階","lat":35.72678,"lon":139.47797},{"name":"あかつき","province":"東京都","city":"小平市","address":"小平市小川町1-485","lat":35.727651,"lon":139.440373},{"name":"くるめ園","province":"東京都","city":"小平市","address":"小平市上水南町4-7-45","lat":35.708799,"lon":139.491028},{"name":"黎明寮","province":"東京都","city":"小平市","address":"小平市小川町1-485","lat":35.727651,"lon":139.440373},{"name":"花小金井ハイツ","province":"東京都","city":"小平市","address":"小平市花小金井6-20-3","lat":35.73023,"lon":139.51057},{"name":"花小金井ハイツ2","province":"東京都","city":"小平市","address":"小平市花小金井6-20-3","lat":35.73023,"lon":139.51057},{"name":"花小金井ハイツ2","province":"東京都","city":"小平市","address":"小平市花小金井6-20-3","lat":35.73022,"lon":139.51057},{"name":"けやきの郷","province":"東京都","city":"小平市","address":"小平市小川町1-485","lat":35.727651,"lon":139.440373},{"name":"公立昭和病院","province":"東京都","city":"小平市","address":"小平市花小金井8-1-1","lat":35.731297,"lon":139.503337},{"name":"小平荘","province":"東京都","city":"小平市","address":"小平市花小金井8-28-1","lat":35.730833,"lon":139.505728},{"name":"花小金井ハイツ","province":"東京都","city":"小平市","address":"小平市花小金井6-20-3","lat":35.730195,"lon":139.510728},{"name":"南台病院","province":"東京都","city":"小平市","address":"小平市小川町1-485","lat":35.727651,"lon":139.440373},{"name":"多摩済生病院","province":"東京都","city":"小平市","address":"小平市美園町3-11-1","lat":35.740607,"lon":139.489257},{"name":"小平市社会福祉協議会","province":"東京都","city":"小平市","address":"小平市学園東町1-19-13福祉会館内","lat":35.726567,"lon":139.478114},{"name":"小平荘","province":"東京都","city":"小平市","address":"小平市花小金井8-28-1","lat":35.73142,"lon":139.50586},{"name":"花小金井ハイツ","province":"東京都","city":"小平市","address":"小平市花小金井6-20-3","lat":35.73022,"lon":139.51057},{"name":"公立昭和病院","province":"東京都","city":"小平市","address":"小平市花小金井8-1-1","lat":35.73167,"lon":139.50266},{"name":"くるめ園","province":"東京都","city":"小平市","address":"小平市上水南町4-7-45","lat":35.71013,"lon":139.4913},{"name":"あかつき","province":"東京都","city":"小平市","address":"小平市小川町1-485","lat":35.72841,"lon":139.44067},{"name":"黎明寮","province":"東京都","city":"小平市","address":"小平市小川町1-485","lat":35.72841,"lon":139.44067},{"name":"花小金井ハイツ２","province":"東京都","city":"小平市","address":"小平市花小金井6-20-3","lat":35.73022,"lon":139.51057},{"name":"ロッジ小平","province":"東京都","city":"小平市","address":"小平市花小金井8-28-1","lat":35.73142,"lon":139.50586},{"name":"天神ハイツ","province":"東京都","city":"小平市","address":"小平市天神町2-4-33","lat":35.73304,"lon":139.49271},{"name":"天神ハイツ２","province":"東京都","city":"小平市","address":"小平市天神町2-4-33","lat":35.73304,"lon":139.49271},{"name":"小平市社会福祉協議会","province":"東京都","city":"小平市","address":"小平市学園東町1-19-13福祉会館4階","lat":35.72678,"lon":139.47797},{"name":"あかつき","province":"東京都","city":"小平市","address":"小平市小川町1-485","lat":35.727651,"lon":139.440373},{"name":"くるめ園","province":"東京都","city":"小平市","address":"小平市上水南町4-7-45","lat":35.708799,"lon":139.491028},{"name":"黎明寮","province":"東京都","city":"小平市","address":"小平市小川町1-485","lat":35.727651,"lon":139.440373},{"name":"花小金井ハイツ","province":"東京都","city":"小平市","address":"小平市花小金井6-20-3","lat":35.73023,"lon":139.51057},{"name":"花小金井ハイツ2","province":"東京都","city":"小平市","address":"小平市花小金井6-20-3","lat":35.73023,"lon":139.51057},{"name":"花小金井ハイツ2","province":"東京都","city":"小平市","address":"小平市花小金井6-20-3","lat":35.73022,"lon":139.51057},{"name":"けやきの郷","province":"東京都","city":"小平市","address":"小平市小川町1-485","lat":35.727651,"lon":139.440373},{"name":"公立昭和病院","province":"東京都","city":"小平市","address":"小平市花小金井8-1-1","lat":35.731297,"lon":139.503337},{"name":"小平荘","province":"東京都","city":"小平市","address":"小平市花小金井8-28-1","lat":35.730833,"lon":139.505728},{"name":"花小金井ハイツ","province":"東京都","city":"小平市","address":"小平市花小金井6-20-3","lat":35.730195,"lon":139.510728},{"name":"南台病院","province":"東京都","city":"小平市","address":"小平市小川町1-485","lat":35.727651,"lon":139.440373},{"name":"多摩済生病院","province":"東京都","city":"小平市","address":"小平市美園町3-11-1","lat":35.740607,"lon":139.489257},{"name":"小平市社会福祉協議会","province":"東京都","city":"小平市","address":"小平市学園東町1-19-13福祉会館内","lat":35.726567,"lon":139.478114},{"name":"小平荘","province":"東京都","city":"小平市","address":"小平市花小金井8-28-1","lat":35.73142,"lon":139.50586},{"name":"花小金井ハイツ","province":"東京都","city":"小平市","address":"小平市花小金井6-20-3","lat":35.73022,"lon":139.51057},{"name":"公立昭和病院","province":"東京都","city":"小平市","address":"小平市花小金井8-1-1","lat":35.73167,"lon":139.50266},{"name":"くるめ園","province":"東京都","city":"小平市","address":"小平市上水南町4-7-45","lat":35.71013,"lon":139.4913},{"name":"あかつき","province":"東京都","city":"小平市","address":"小平市小川町1-485","lat":35.72841,"lon":139.44067},{"name":"黎明寮","province":"東京都","city":"小平市","address":"小平市小川町1-485","lat":35.72841,"lon":139.44067},{"name":"花小金井ハイツ２","province":"東京都","city":"小平市","address":"小平市花小金井6-20-3","lat":35.73022,"lon":139.51057},{"name":"ロッジ小平","province":"東京都","city":"小平市","address":"小平市花小金井8-28-1","lat":35.73142,"lon":139.50586},{"name":"天神ハイツ","province":"東京都","city":"小平市","address":"小平市天神町2-4-33","lat":35.73304,"lon":139.49271},{"name":"天神ハイツ２","province":"東京都","city":"小平市","address":"小平市天神町2-4-33","lat":35.73304,"lon":139.49271},{"name":"小平市社会福祉協議会","province":"東京都","city":"小平市","address":"小平市学園東町1-19-13福祉会館4階","lat":35.72678,"lon":139.47797},{"name":"あかつき","province":"東京都","city":"小平市","address":"小平市小川町1-485","lat":35.727651,"lon":139.440373},{"name":"くるめ園","province":"東京都","city":"小平市","address":"小平市上水南町4-7-45","lat":35.708799,"lon":139.491028},{"name":"黎明寮","province":"東京都","city":"小平市","address":"小平市小川町1-485","lat":35.727651,"lon":139.440373},{"name":"花小金井ハイツ","province":"東京都","city":"小平市","address":"小平市花小金井6-20-3","lat":35.73023,"lon":139.51057},{"name":"花小金井ハイツ2","province":"東京都","city":"小平市","address":"小平市花小金井6-20-3","lat":35.73023,"lon":139.51057},{"name":"花小金井ハイツ2","province":"東京都","city":"小平市","address":"小平市花小金井6-20-3","lat":35.73022,"lon":139.51057},{"name":"けやきの郷","province":"東京都","city":"小平市","address":"小平市小川町1-485","lat":35.727651,"lon":139.440373},{"name":"公立昭和病院","province":"東京都","city":"小平市","address":"小平市花小金井8-1-1","lat":35.731297,"lon":139.503337},{"name":"小平荘","province":"東京都","city":"小平市","address":"小平市花小金井8-28-1","lat":35.730833,"lon":139.505728},{"name":"花小金井ハイツ","province":"東京都","city":"小平市","address":"小平市花小金井6-20-3","lat":35.730195,"lon":139.510728},{"name":"南台病院","province":"東京都","city":"小平市","address":"小平市小川町1-485","lat":35.727651,"lon":139.440373},{"name":"多摩済生病院","province":"東京都","city":"小平市","address":"小平市美園町3-11-1","lat":35.740607,"lon":139.489257},{"name":"小平市社会福祉協議会","province":"東京都","city":"小平市","address":"小平市学園東町1-19-13福祉会館内","lat":35.726567,"lon":139.478114},{"name":"小平荘","province":"東京都","city":"小平市","address":"小平市花小金井8-28-1","lat":35.73142,"lon":139.50586},{"name":"花小金井ハイツ","province":"東京都","city":"小平市","address":"小平市花小金井6-20-3","lat":35.73022,"lon":139.51057},{"name":"公立昭和病院","province":"東京都","city":"小平市","address":"小平市花小金井8-1-1","lat":35.73167,"lon":139.50266},{"name":"くるめ園","province":"東京都","city":"小平市","address":"小平市上水南町4-7-45","lat":35.71013,"lon":139.4913},{"name":"あかつき","province":"東京都","city":"小平市","address":"小平市小川町1-485","lat":35.72841,"lon":139.44067},{"name":"黎明寮","province":"東京都","city":"小平市","address":"小平市小川町1-485","lat":35.72841,"lon":139.44067},{"name":"花小金井ハイツ２","province":"東京都","city":"小平市","address":"小平市花小金井6-20-3","lat":35.73022,"lon":139.51057},{"name":"ロッジ小平","province":"東京都","city":"小平市","address":"小平市花小金井8-28-1","lat":35.73142,"lon":139.50586},{"name":"天神ハイツ","province":"東京都","city":"小平市","address":"小平市天神町2-4-33","lat":35.73304,"lon":139.49271},{"name":"天神ハイツ２","province":"東京都","city":"小平市","address":"小平市天神町2-4-33","lat":35.73304,"lon":139.49271},{"name":"小平市社会福祉協議会","province":"東京都","city":"小平市","address":"小平市学園東町1-19-13福祉会館4階","lat":35.72678,"lon":139.47797},{"name":"あかつき","province":"東京都","city":"小平市","address":"小平市小川町1-485","lat":35.727651,"lon":139.440373},{"name":"くるめ園","province":"東京都","city":"小平市","address":"小平市上水南町4-7-45","lat":35.708799,"lon":139.491028},{"name":"黎明寮","province":"東京都","city":"小平市","address":"小平市小川町1-485","lat":35.727651,"lon":139.440373},{"name":"花小金井ハイツ","province":"東京都","city":"小平市","address":"小平市花小金井6-20-3","lat":35.73023,"lon":139.51057},{"name":"花小金井ハイツ2","province":"東京都","city":"小平市","address":"小平市花小金井6-20-3","lat":35.73023,"lon":139.51057},{"name":"花小金井ハイツ2","province":"東京都","city":"小平市","address":"小平市花小金井6-20-3","lat":35.73022,"lon":139.51057},{"name":"けやきの郷","province":"東京都","city":"小平市","address":"小平市小川町1-485","lat":35.727651,"lon":139.440373},{"name":"公立昭和病院","province":"東京都","city":"小平市","address":"小平市花小金井8-1-1","lat":35.731297,"lon":139.503337},{"name":"小平荘","province":"東京都","city":"小平市","address":"小平市花小金井8-28-1","lat":35.730833,"lon":139.505728},{"name":"花小金井ハイツ","province":"東京都","city":"小平市","address":"小平市花小金井6-20-3","lat":35.730195,"lon":139.510728},{"name":"南台病院","province":"東京都","city":"小平市","address":"小平市小川町1-485","lat":35.727651,"lon":139.440373},{"name":"多摩済生病院","province":"東京都","city":"小平市","address":"小平市美園町3-11-1","lat":35.740607,"lon":139.489257},{"name":"小平市社会福祉協議会","province":"東京都","city":"小平市","address":"小平市学園東町1-19-13福祉会館内","lat":35.726567,"lon":139.478114},{"name":"小平荘","province":"東京都","city":"小平市","address":"小平市花小金井8-28-1","lat":35.73142,"lon":139.50586},{"name":"花小金井ハイツ","province":"東京都","city":"小平市","address":"小平市花小金井6-20-3","lat":35.73022,"lon":139.51057},{"name":"公立昭和病院","province":"東京都","city":"小平市","address":"小平市花小金井8-1-1","lat":35.73167,"lon":139.50266},{"name":"くるめ園","province":"東京都","city":"小平市","address":"小平市上水南町4-7-45","lat":35.71013,"lon":139.4913},{"name":"あかつき","province":"東京都","city":"小平市","address":"小平市小川町1-485","lat":35.72841,"lon":139.44067},{"name":"黎明寮","province":"東京都","city":"小平市","address":"小平市小川町1-485","lat":35.72841,"lon":139.44067},{"name":"花小金井ハイツ２","province":"東京都","city":"小平市","address":"小平市花小金井6-20-3","lat":35.73022,"lon":139.51057},{"name":"ロッジ小平","province":"東京都","city":"小平市","address":"小平市花小金井8-28-1","lat":35.73142,"lon":139.50586},{"name":"天神ハイツ","province":"東京都","city":"小平市","address":"小平市天神町2-4-33","lat":35.73304,"lon":139.49271},{"name":"天神ハイツ２","province":"東京都","city":"小平市","address":"小平市天神町2-4-33","lat":35.73304,"lon":139.49271},{"name":"小平市社会福祉協議会","province":"東京都","city":"小平市","address":"小平市学園東町1-19-13福祉会館4階","lat":35.72678,"lon":139.47797},{"name":"あかつき","province":"東京都","city":"小平市","address":"小平市小川町1-485","lat":35.727651,"lon":139.440373},{"name":"くるめ園","province":"東京都","city":"小平市","address":"小平市上水南町4-7-45","lat":35.708799,"lon":139.491028},{"name":"黎明寮","province":"東京都","city":"小平市","address":"小平市小川町1-485","lat":35.727651,"lon":139.440373},{"name":"花小金井ハイツ","province":"東京都","city":"小平市","address":"小平市花小金井6-20-3","lat":35.73023,"lon":139.51057},{"name":"花小金井ハイツ2","province":"東京都","city":"小平市","address":"小平市花小金井6-20-3","lat":35.73023,"lon":139.51057},{"name":"花小金井ハイツ2","province":"東京都","city":"小平市","address":"小平市花小金井6-20-3","lat":35.73022,"lon":139.51057},{"name":"けやきの郷","province":"東京都","city":"小平市","address":"小平市小川町1-485","lat":35.727651,"lon":139.440373},{"name":"公立昭和病院","province":"東京都","city":"小平市","address":"小平市花小金井8-1-1","lat":35.731297,"lon":139.503337},{"name":"小平荘","province":"東京都","city":"小平市","address":"小平市花小金井8-28-1","lat":35.730833,"lon":139.505728},{"name":"花小金井ハイツ","province":"東京都","city":"小平市","address":"小平市花小金井6-20-3","lat":35.730195,"lon":139.510728},{"name":"南台病院","province":"東京都","city":"小平市","address":"小平市小川町1-485","lat":35.727651,"lon":139.440373},{"name":"多摩済生病院","province":"東京都","city":"小平市","address":"小平市美園町3-11-1","lat":35.740607,"lon":139.489257},{"name":"小平市社会福祉協議会","province":"東京都","city":"小平市","address":"小平市学園東町1-19-13福祉会館内","lat":35.726567,"lon":139.478114},{"name":"小平荘","province":"東京都","city":"小平市","address":"小平市花小金井8-28-1","lat":35.73142,"lon":139.50586},{"name":"花小金井ハイツ","province":"東京都","city":"小平市","address":"小平市花小金井6-20-3","lat":35.73022,"lon":139.51057},{"name":"公立昭和病院","province":"東京都","city":"小平市","address":"小平市花小金井8-1-1","lat":35.73167,"lon":139.50266},{"name":"くるめ園","province":"東京都","city":"小平市","address":"小平市上水南町4-7-45","lat":35.71013,"lon":139.4913},{"name":"あかつき","province":"東京都","city":"小平市","address":"小平市小川町1-485","lat":35.72841,"lon":139.44067},{"name":"黎明寮","province":"東京都","city":"小平市","address":"小平市小川町1-485","lat":35.72841,"lon":139.44067},{"name":"花小金井ハイツ２","province":"東京都","city":"小平市","address":"小平市花小金井6-20-3","lat":35.73022,"lon":139.51057},{"name":"ロッジ小平","province":"東京都","city":"小平市","address":"小平市花小金井8-28-1","lat":35.73142,"lon":139.50586},{"name":"天神ハイツ","province":"東京都","city":"小平市","address":"小平市天神町2-4-33","lat":35.73304,"lon":139.49271},{"name":"天神ハイツ２","province":"東京都","city":"小平市","address":"小平市天神町2-4-33","lat":35.73304,"lon":139.49271},{"name":"小平市社会福祉協議会","province":"東京都","city":"小平市","address":"小平市学園東町1-19-13福祉会館4階","lat":35.72678,"lon":139.47797},{"name":"あかつき","province":"東京都","city":"小平市","address":"小平市小川町1-485","lat":35.727651,"lon":139.440373},{"name":"くるめ園","province":"東京都","city":"小平市","address":"小平市上水南町4-7-45","lat":35.708799,"lon":139.491028},{"name":"黎明寮","province":"東京都","city":"小平市","address":"小平市小川町1-485","lat":35.727651,"lon":139.440373},{"name":"花小金井ハイツ","province":"東京都","city":"小平市","address":"小平市花小金井6-20-3","lat":35.73023,"lon":139.51057},{"name":"花小金井ハイツ2","province":"東京都","city":"小平市","address":"小平市花小金井6-20-3","lat":35.73023,"lon":139.51057},{"name":"花小金井ハイツ2","province":"東京都","city":"小平市","address":"小平市花小金井6-20-3","lat":35.73022,"lon":139.51057},{"name":"けやきの郷","province":"東京都","city":"小平市","address":"小平市小川町1-485","lat":35.727651,"lon":139.440373},{"name":"公立昭和病院","province":"東京都","city":"小平市","address":"小平市花小金井8-1-1","lat":35.731297,"lon":139.503337},{"name":"小平荘","province":"東京都","city":"小平市","address":"小平市花小金井8-28-1","lat":35.730833,"lon":139.505728},{"name":"花小金井ハイツ","province":"東京都","city":"小平市","address":"小平市花小金井6-20-3","lat":35.730195,"lon":139.510728},{"name":"南台病院","province":"東京都","city":"小平市","address":"小平市小川町1-485","lat":35.727651,"lon":139.440373},{"name":"多摩済生病院","province":"東京都","city":"小平市","address":"小平市美園町3-11-1","lat":35.740607,"lon":139.489257},{"name":"小平市社会福祉協議会","province":"東京都","city":"小平市","address":"小平市学園東町1-19-13福祉会館内","lat":35.726567,"lon":139.478114},{"name":"小平荘","province":"東京都","city":"小平市","address":"小平市花小金井8-28-1","lat":35.73142,"lon":139.50586},{"name":"花小金井ハイツ","province":"東京都","city":"小平市","address":"小平市花小金井6-20-3","lat":35.73022,"lon":139.51057},{"name":"公立昭和病院","province":"東京都","city":"小平市","address":"小平市花小金井8-1-1","lat":35.73167,"lon":139.50266},{"name":"くるめ園","province":"東京都","city":"小平市","address":"小平市上水南町4-7-45","lat":35.71013,"lon":139.4913},{"name":"あかつき","province":"東京都","city":"小平市","address":"小平市小川町1-485","lat":35.72841,"lon":139.44067},{"name":"黎明寮","province":"東京都","city":"小平市","address":"小平市小川町1-485","lat":35.72841,"lon":139.44067},{"name":"花小金井ハイツ２","province":"東京都","city":"小平市","address":"小平市花小金井6-20-3","lat":35.73022,"lon":139.51057},{"name":"ロッジ小平","province":"東京都","city":"小平市","address":"小平市花小金井8-28-1","lat":35.73142,"lon":139.50586},{"name":"天神ハイツ","province":"東京都","city":"小平市","address":"小平市天神町2-4-33","lat":35.73304,"lon":139.49271},{"name":"天神ハイツ２","province":"東京都","city":"小平市","address":"小平市天神町2-4-33","lat":35.73304,"lon":139.49271},{"name":"小平市社会福祉協議会","province":"東京都","city":"小平市","address":"小平市学園東町1-19-13福祉会館4階","lat":35.72678,"lon":139.47797},{"name":"あかつき","province":"東京都","city":"小平市","address":"小平市小川町1-485","lat":35.727651,"lon":139.440373},{"name":"くるめ園","province":"東京都","city":"小平市","address":"小平市上水南町4-7-45","lat":35.708799,"lon":139.491028},{"name":"黎明寮","province":"東京都","city":"小平市","address":"小平市小川町1-485","lat":35.727651,"lon":139.440373},{"name":"花小金井ハイツ","province":"東京都","city":"小平市","address":"小平市花小金井6-20-3","lat":35.73023,"lon":139.51057},{"name":"花小金井ハイツ2","province":"東京都","city":"小平市","address":"小平市花小金井6-20-3","lat":35.73023,"lon":139.51057},{"name":"花小金井ハイツ2","province":"東京都","city":"小平市","address":"小平市花小金井6-20-3","lat":35.73022,"lon":139.51057},{"name":"けやきの郷","province":"東京都","city":"小平市","address":"小平市小川町1-485","lat":35.727651,"lon":139.440373},{"name":"公立昭和病院","province":"東京都","city":"小平市","address":"小平市花小金井8-1-1","lat":35.731297,"lon":139.503337},{"name":"小平荘","province":"東京都","city":"小平市","address":"小平市花小金井8-28-1","lat":35.730833,"lon":139.505728},{"name":"花小金井ハイツ","province":"東京都","city":"小平市","address":"小平市花小金井6-20-3","lat":35.730195,"lon":139.510728},{"name":"南台病院","province":"東京都","city":"小平市","address":"小平市小川町1-485","lat":35.727651,"lon":139.440373},{"name":"多摩済生病院","province":"東京都","city":"小平市","address":"小平市美園町3-11-1","lat":35.740607,"lon":139.489257},{"name":"小平市社会福祉協議会","province":"東京都","city":"小平市","address":"小平市学園東町1-19-13福祉会館内","lat":35.726567,"lon":139.478114},{"name":"小平荘","province":"東京都","city":"小平市","address":"小平市花小金井8-28-1","lat":35.73142,"lon":139.50586},{"name":"花小金井ハイツ","province":"東京都","city":"小平市","address":"小平市花小金井6-20-3","lat":35.73022,"lon":139.51057},{"name":"公立昭和病院","province":"東京都","city":"小平市","address":"小平市花小金井8-1-1","lat":35.73167,"lon":139.50266},{"name":"くるめ園","province":"東京都","city":"小平市","address":"小平市上水南町4-7-45","lat":35.71013,"lon":139.4913},{"name":"あかつき","province":"東京都","city":"小平市","address":"小平市小川町1-485","lat":35.72841,"lon":139.44067},{"name":"黎明寮","province":"東京都","city":"小平市","address":"小平市小川町1-485","lat":35.72841,"lon":139.44067},{"name":"花小金井ハイツ２","province":"東京都","city":"小平市","address":"小平市花小金井6-20-3","lat":35.73022,"lon":139.51057},{"name":"ロッジ小平","province":"東京都","city":"小平市","address":"小平市花小金井8-28-1","lat":35.73142,"lon":139.50586},{"name":"天神ハイツ","province":"東京都","city":"小平市","address":"小平市天神町2-4-33","lat":35.73304,"lon":139.49271},{"name":"天神ハイツ２","province":"東京都","city":"小平市","address":"小平市天神町2-4-33","lat":35.73304,"lon":139.49271},{"name":"小平市社会福祉協議会","province":"東京都","city":"小平市","address":"小平市学園東町1-19-13福祉会館4階","lat":35.72678,"lon":139.47797},{"name":"あかつき","province":"東京都","city":"小平市","address":"小平市小川町1-485","lat":35.727651,"lon":139.440373},{"name":"くるめ園","province":"東京都","city":"小平市","address":"小平市上水南町4-7-45","lat":35.708799,"lon":139.491028},{"name":"黎明寮","province":"東京都","city":"小平市","address":"小平市小川町1-485","lat":35.727651,"lon":139.440373},{"name":"花小金井ハイツ","province":"東京都","city":"小平市","address":"小平市花小金井6-20-3","lat":35.73023,"lon":139.51057},{"name":"花小金井ハイツ2","province":"東京都","city":"小平市","address":"小平市花小金井6-20-3","lat":35.73023,"lon":139.51057},{"name":"花小金井ハイツ2","province":"東京都","city":"小平市","address":"小平市花小金井6-20-3","lat":35.73022,"lon":139.51057},{"name":"けやきの郷","province":"東京都","city":"小平市","address":"小平市小川町1-485","lat":35.727651,"lon":139.440373},{"name":"公立昭和病院","province":"東京都","city":"小平市","address":"小平市花小金井8-1-1","lat":35.731297,"lon":139.503337},{"name":"小平荘","province":"東京都","city":"小平市","address":"小平市花小金井8-28-1","lat":35.730833,"lon":139.505728},{"name":"花小金井ハイツ","province":"東京都","city":"小平市","address":"小平市花小金井6-20-3","lat":35.730195,"lon":139.510728},{"name":"南台病院","province":"東京都","city":"小平市","address":"小平市小川町1-485","lat":35.727651,"lon":139.440373},{"name":"多摩済生病院","province":"東京都","city":"小平市","address":"小平市美園町3-11-1","lat":35.740607,"lon":139.489257},{"name":"小平市社会福祉協議会","province":"東京都","city":"小平市","address":"小平市学園東町1-19-13福祉会館内","lat":35.726567,"lon":139.478114},{"name":"小平荘","province":"東京都","city":"小平市","address":"小平市花小金井8-28-1","lat":35.73142,"lon":139.50586},{"name":"花小金井ハイツ","province":"東京都","city":"小平市","address":"小平市花小金井6-20-3","lat":35.73022,"lon":139.51057},{"name":"公立昭和病院","province":"東京都","city":"小平市","address":"小平市花小金井8-1-1","lat":35.73167,"lon":139.50266},{"name":"くるめ園","province":"東京都","city":"小平市","address":"小平市上水南町4-7-45","lat":35.71013,"lon":139.4913},{"name":"あかつき","province":"東京都","city":"小平市","address":"小平市小川町1-485","lat":35.72841,"lon":139.44067},{"name":"黎明寮","province":"東京都","city":"小平市","address":"小平市小川町1-485","lat":35.72841,"lon":139.44067},{"name":"花小金井ハイツ２","province":"東京都","city":"小平市","address":"小平市花小金井6-20-3","lat":35.73022,"lon":139.51057},{"name":"ロッジ小平","province":"東京都","city":"小平市","address":"小平市花小金井8-28-1","lat":35.73142,"lon":139.50586},{"name":"天神ハイツ","province":"東京都","city":"小平市","address":"小平市天神町2-4-33","lat":35.73304,"lon":139.49271},{"name":"天神ハイツ２","province":"東京都","city":"小平市","address":"小平市天神町2-4-33","lat":35.73304,"lon":139.49271},{"name":"小平市社会福祉協議会","province":"東京都","city":"小平市","address":"小平市学園東町1-19-13福祉会館4階","lat":35.72678,"lon":139.47797},{"name":"あかつき","province":"東京都","city":"小平市","address":"小平市小川町1-485","lat":35.727651,"lon":139.440373},{"name":"くるめ園","province":"東京都","city":"小平市","address":"小平市上水南町4-7-45","lat":35.708799,"lon":139.491028},{"name":"黎明寮","province":"東京都","city":"小平市","address":"小平市小川町1-485","lat":35.727651,"lon":139.440373},{"name":"花小金井ハイツ","province":"東京都","city":"小平市","address":"小平市花小金井6-20-3","lat":35.73023,"lon":139.51057},{"name":"花小金井ハイツ2","province":"東京都","city":"小平市","address":"小平市花小金井6-20-3","lat":35.73023,"lon":139.51057},{"name":"花小金井ハイツ2","province":"東京都","city":"小平市","address":"小平市花小金井6-20-3","lat":35.73022,"lon":139.51057},{"name":"けやきの郷","province":"東京都","city":"小平市","address":"小平市小川町1-485","lat":35.727651,"lon":139.440373},{"name":"公立昭和病院","province":"東京都","city":"小平市","address":"小平市花小金井8-1-1","lat":35.731297,"lon":139.503337},{"name":"小平荘","province":"東京都","city":"小平市","address":"小平市花小金井8-28-1","lat":35.730833,"lon":139.505728},{"name":"花小金井ハイツ","province":"東京都","city":"小平市","address":"小平市花小金井6-20-3","lat":35.730195,"lon":139.510728},{"name":"南台病院","province":"東京都","city":"小平市","address":"小平市小川町1-485","lat":35.727651,"lon":139.440373},{"name":"多摩済生病院","province":"東京都","city":"小平市","address":"小平市美園町3-11-1","lat":35.740607,"lon":139.489257},{"name":"小平市社会福祉協議会","province":"東京都","city":"小平市","address":"小平市学園東町1-19-13福祉会館内","lat":35.726567,"lon":139.478114},{"name":"小平荘","province":"東京都","city":"小平市","address":"小平市花小金井8-28-1","lat":35.73142,"lon":139.50586},{"name":"花小金井ハイツ","province":"東京都","city":"小平市","address":"小平市花小金井6-20-3","lat":35.73022,"lon":139.51057},{"name":"公立昭和病院","province":"東京都","city":"小平市","address":"小平市花小金井8-1-1","lat":35.73167,"lon":139.50266},{"name":"くるめ園","province":"東京都","city":"小平市","address":"小平市上水南町4-7-45","lat":35.71013,"lon":139.4913},{"name":"あかつき","province":"東京都","city":"小平市","address":"小平市小川町1-485","lat":35.72841,"lon":139.44067},{"name":"黎明寮","province":"東京都","city":"小平市","address":"小平市小川町1-485","lat":35.72841,"lon":139.44067},{"name":"花小金井ハイツ２","province":"東京都","city":"小平市","address":"小平市花小金井6-20-3","lat":35.73022,"lon":139.51057},{"name":"ロッジ小平","province":"東京都","city":"小平市","address":"小平市花小金井8-28-1","lat":35.73142,"lon":139.50586},{"name":"天神ハイツ","province":"東京都","city":"小平市","address":"小平市天神町2-4-33","lat":35.73304,"lon":139.49271},{"name":"天神ハイツ２","province":"東京都","city":"小平市","address":"小平市天神町2-4-33","lat":35.73304,"lon":139.49271},{"name":"小平市社会福祉協議会","province":"東京都","city":"小平市","address":"小平市学園東町1-19-13福祉会館4階","lat":35.72678,"lon":139.47797},{"name":"あかつき","province":"東京都","city":"小平市","address":"小平市小川町1-485","lat":35.727651,"lon":139.440373},{"name":"くるめ園","province":"東京都","city":"小平市","address":"小平市上水南町4-7-45","lat":35.708799,"lon":139.491028},{"name":"黎明寮","province":"東京都","city":"小平市","address":"小平市小川町1-485","lat":35.727651,"lon":139.440373},{"name":"花小金井ハイツ","province":"東京都","city":"小平市","address":"小平市花小金井6-20-3","lat":35.73023,"lon":139.51057},{"name":"花小金井ハイツ2","province":"東京都","city":"小平市","address":"小平市花小金井6-20-3","lat":35.73023,"lon":139.51057},{"name":"花小金井ハイツ2","province":"東京都","city":"小平市","address":"小平市花小金井6-20-3","lat":35.73022,"lon":139.51057},{"name":"けやきの郷","province":"東京都","city":"小平市","address":"小平市小川町1-485","lat":35.727651,"lon":139.440373},{"name":"公立昭和病院","province":"東京都","city":"小平市","address":"小平市花小金井8-1-1","lat":35.731297,"lon":139.503337},{"name":"小平荘","province":"東京都","city":"小平市","address":"小平市花小金井8-28-1","lat":35.730833,"lon":139.505728},{"name":"花小金井ハイツ","province":"東京都","city":"小平市","address":"小平市花小金井6-20-3","lat":35.730195,"lon":139.510728},{"name":"南台病院","province":"東京都","city":"小平市","address":"小平市小川町1-485","lat":35.727651,"lon":139.440373},{"name":"多摩済生病院","province":"東京都","city":"小平市","address":"小平市美園町3-11-1","lat":35.740607,"lon":139.489257},{"name":"小平市社会福祉協議会","province":"東京都","city":"小平市","address":"小平市学園東町1-19-13福祉会館内","lat":35.726567,"lon":139.478114},{"name":"小平荘","province":"東京都","city":"小平市","address":"小平市花小金井8-28-1","lat":35.73142,"lon":139.50586},{"name":"花小金井ハイツ","province":"東京都","city":"小平市","address":"小平市花小金井6-20-3","lat":35.73022,"lon":139.51057},{"name":"公立昭和病院","province":"東京都","city":"小平市","address":"小平市花小金井8-1-1","lat":35.73167,"lon":139.50266},{"name":"くるめ園","province":"東京都","city":"小平市","address":"小平市上水南町4-7-45","lat":35.71013,"lon":139.4913},{"name":"あかつき","province":"東京都","city":"小平市","address":"小平市小川町1-485","lat":35.72841,"lon":139.44067},{"name":"黎明寮","province":"東京都","city":"小平市","address":"小平市小川町1-485","lat":35.72841,"lon":139.44067},{"name":"花小金井ハイツ２","province":"東京都","city":"小平市","address":"小平市花小金井6-20-3","lat":35.73022,"lon":139.51057},{"name":"ロッジ小平","province":"東京都","city":"小平市","address":"小平市花小金井8-28-1","lat":35.73142,"lon":139.50586},{"name":"天神ハイツ","province":"東京都","city":"小平市","address":"小平市天神町2-4-33","lat":35.73304,"lon":139.49271},{"name":"天神ハイツ２","province":"東京都","city":"小平市","address":"小平市天神町2-4-33","lat":35.73304,"lon":139.49271},{"name":"小平市社会福祉協議会","province":"東京都","city":"小平市","address":"小平市学園東町1-19-13福祉会館4階","lat":35.72678,"lon":139.47797},{"name":"あかつき","province":"東京都","city":"小平市","address":"小平市小川町1-485","lat":35.727651,"lon":139.440373},{"name":"くるめ園","province":"東京都","city":"小平市","address":"小平市上水南町4-7-45","lat":35.708799,"lon":139.491028},{"name":"黎明寮","province":"東京都","city":"小平市","address":"小平市小川町1-485","lat":35.727651,"lon":139.440373},{"name":"花小金井ハイツ","province":"東京都","city":"小平市","address":"小平市花小金井6-20-3","lat":35.73023,"lon":139.51057},{"name":"花小金井ハイツ2","province":"東京都","city":"小平市","address":"小平市花小金井6-20-3","lat":35.73023,"lon":139.51057},{"name":"花小金井ハイツ2","province":"東京都","city":"小平市","address":"小平市花小金井6-20-3","lat":35.73022,"lon":139.51057},{"name":"けやきの郷","province":"東京都","city":"小平市","address":"小平市小川町1-485","lat":35.727651,"lon":139.440373},{"name":"公立昭和病院","province":"東京都","city":"小平市","address":"小平市花小金井8-1-1","lat":35.731297,"lon":139.503337},{"name":"小平荘","province":"東京都","city":"小平市","address":"小平市花小金井8-28-1","lat":35.730833,"lon":139.505728},{"name":"花小金井ハイツ","province":"東京都","city":"小平市","address":"小平市花小金井6-20-3","lat":35.730195,"lon":139.510728},{"name":"南台病院","province":"東京都","city":"小平市","address":"小平市小川町1-485","lat":35.727651,"lon":139.440373},{"name":"多摩済生病院","province":"東京都","city":"小平市","address":"小平市美園町3-11-1","lat":35.740607,"lon":139.489257},{"name":"小平市社会福祉協議会","province":"東京都","city":"小平市","address":"小平市学園東町1-19-13福祉会館内","lat":35.726567,"lon":139.478114},{"name":"小平荘","province":"東京都","city":"小平市","address":"小平市花小金井8-28-1","lat":35.73142,"lon":139.50586},{"name":"花小金井ハイツ","province":"東京都","city":"小平市","address":"小平市花小金井6-20-3","lat":35.73022,"lon":139.51057},{"name":"公立昭和病院","province":"東京都","city":"小平市","address":"小平市花小金井8-1-1","lat":35.73167,"lon":139.50266},{"name":"くるめ園","province":"東京都","city":"小平市","address":"小平市上水南町4-7-45","lat":35.71013,"lon":139.4913},{"name":"あかつき","province":"東京都","city":"小平市","address":"小平市小川町1-485","lat":35.72841,"lon":139.44067},{"name":"黎明寮","province":"東京都","city":"小平市","address":"小平市小川町1-485","lat":35.72841,"lon":139.44067},{"name":"花小金井ハイツ２","province":"東京都","city":"小平市","address":"小平市花小金井6-20-3","lat":35.73022,"lon":139.51057},{"name":"ロッジ小平","province":"東京都","city":"小平市","address":"小平市花小金井8-28-1","lat":35.73142,"lon":139.50586},{"name":"天神ハイツ","province":"東京都","city":"小平市","address":"小平市天神町2-4-33","lat":35.73304,"lon":139.49271},{"name":"天神ハイツ２","province":"東京都","city":"小平市","address":"小平市天神町2-4-33","lat":35.73304,"lon":139.49271},{"name":"小平市社会福祉協議会","province":"東京都","city":"小平市","address":"小平市学園東町1-19-13福祉会館4階","lat":35.72678,"lon":139.47797},{"name":"あかつき","province":"東京都","city":"小平市","address":"小平市小川町1-485","lat":35.727651,"lon":139.440373},{"name":"くるめ園","province":"東京都","city":"小平市","address":"小平市上水南町4-7-45","lat":35.708799,"lon":139.491028},{"name":"黎明寮","province":"東京都","city":"小平市","address":"小平市小川町1-485","lat":35.727651,"lon":139.440373},{"name":"花小金井ハイツ","province":"東京都","city":"小平市","address":"小平市花小金井6-20-3","lat":35.73023,"lon":139.51057},{"name":"花小金井ハイツ2","province":"東京都","city":"小平市","address":"小平市花小金井6-20-3","lat":35.73023,"lon":139.51057},{"name":"花小金井ハイツ2","province":"東京都","city":"小平市","address":"小平市花小金井6-20-3","lat":35.73022,"lon":139.51057},{"name":"けやきの郷","province":"東京都","city":"小平市","address":"小平市小川町1-485","lat":35.727651,"lon":139.440373},{"name":"公立昭和病院","province":"東京都","city":"小平市","address":"小平市花小金井8-1-1","lat":35.731297,"lon":139.503337},{"name":"小平荘","province":"東京都","city":"小平市","address":"小平市花小金井8-28-1","lat":35.730833,"lon":139.505728},{"name":"花小金井ハイツ","province":"東京都","city":"小平市","address":"小平市花小金井6-20-3","lat":35.730195,"lon":139.510728},{"name":"南台病院","province":"東京都","city":"小平市","address":"小平市小川町1-485","lat":35.727651,"lon":139.440373},{"name":"多摩済生病院","province":"東京都","city":"小平市","address":"小平市美園町3-11-1","lat":35.740607,"lon":139.489257},{"name":"小平市社会福祉協議会","province":"東京都","city":"小平市","address":"小平市学園東町1-19-13福祉会館内","lat":35.726567,"lon":139.478114},{"name":"小平荘","province":"東京都","city":"小平市","address":"小平市花小金井8-28-1","lat":35.73142,"lon":139.50586},{"name":"花小金井ハイツ","province":"東京都","city":"小平市","address":"小平市花小金井6-20-3","lat":35.73022,"lon":139.51057},{"name":"公立昭和病院","province":"東京都","city":"小平市","address":"小平市花小金井8-1-1","lat":35.73167,"lon":139.50266},{"name":"くるめ園","province":"東京都","city":"小平市","address":"小平市上水南町4-7-45","lat":35.71013,"lon":139.4913},{"name":"あかつき","province":"東京都","city":"小平市","address":"小平市小川町1-485","lat":35.72841,"lon":139.44067},{"name":"黎明寮","province":"東京都","city":"小平市","address":"小平市小川町1-485","lat":35.72841,"lon":139.44067},{"name":"花小金井ハイツ２","province":"東京都","city":"小平市","address":"小平市花小金井6-20-3","lat":35.73022,"lon":139.51057},{"name":"ロッジ小平","province":"東京都","city":"小平市","address":"小平市花小金井8-28-1","lat":35.73142,"lon":139.50586},{"name":"天神ハイツ","province":"東京都","city":"小平市","address":"小平市天神町2-4-33","lat":35.73304,"lon":139.49271},{"name":"天神ハイツ２","province":"東京都","city":"小平市","address":"小平市天神町2-4-33","lat":35.73304,"lon":139.49271},{"name":"小平市社会福祉協議会","province":"東京都","city":"小平市","address":"小平市学園東町1-19-13福祉会館4階","lat":35.72678,"lon":139.47797},{"name":"あかつき","province":"東京都","city":"小平市","address":"小平市小川町1-485","lat":35.727651,"lon":139.440373},{"name":"くるめ園","province":"東京都","city":"小平市","address":"小平市上水南町4-7-45","lat":35.708799,"lon":139.491028},{"name":"黎明寮","province":"東京都","city":"小平市","address":"小平市小川町1-485","lat":35.727651,"lon":139.440373},{"name":"花小金井ハイツ","province":"東京都","city":"小平市","address":"小平市花小金井6-20-3","lat":35.73023,"lon":139.51057},{"name":"花小金井ハイツ2","province":"東京都","city":"小平市","address":"小平市花小金井6-20-3","lat":35.73023,"lon":139.51057},{"name":"花小金井ハイツ2","province":"東京都","city":"小平市","address":"小平市花小金井6-20-3","lat":35.73022,"lon":139.51057},{"name":"けやきの郷","province":"東京都","city":"小平市","address":"小平市小川町1-485","lat":35.727651,"lon":139.440373},{"name":"公立昭和病院","province":"東京都","city":"小平市","address":"小平市花小金井8-1-1","lat":35.731297,"lon":139.503337},{"name":"小平荘","province":"東京都","city":"小平市","address":"小平市花小金井8-28-1","lat":35.730833,"lon":139.505728},{"name":"花小金井ハイツ","province":"東京都","city":"小平市","address":"小平市花小金井6-20-3","lat":35.730195,"lon":139.510728},{"name":"南台病院","province":"東京都","city":"小平市","address":"小平市小川町1-485","lat":35.727651,"lon":139.440373},{"name":"多摩済生病院","province":"東京都","city":"小平市","address":"小平市美園町3-11-1","lat":35.740607,"lon":139.489257},{"name":"小平市社会福祉協議会","province":"東京都","city":"小平市","address":"小平市学園東町1-19-13福祉会館内","lat":35.726567,"lon":139.478114},{"name":"小平荘","province":"東京都","city":"小平市","address":"小平市花小金井8-28-1","lat":35.73142,"lon":139.50586},{"name":"花小金井ハイツ","province":"東京都","city":"小平市","address":"小平市花小金井6-20-3","lat":35.73022,"lon":139.51057},{"name":"公立昭和病院","province":"東京都","city":"小平市","address":"小平市花小金井8-1-1","lat":35.73167,"lon":139.50266},{"name":"くるめ園","province":"東京都","city":"小平市","address":"小平市上水南町4-7-45","lat":35.71013,"lon":139.4913},{"name":"あかつき","province":"東京都","city":"小平市","address":"小平市小川町1-485","lat":35.72841,"lon":139.44067},{"name":"黎明寮","province":"東京都","city":"小平市","address":"小平市小川町1-485","lat":35.72841,"lon":139.44067},{"name":"花小金井ハイツ２","province":"東京都","city":"小平市","address":"小平市花小金井6-20-3","lat":35.73022,"lon":139.51057},{"name":"ロッジ小平","province":"東京都","city":"小平市","address":"小平市花小金井8-28-1","lat":35.73142,"lon":139.50586},{"name":"天神ハイツ","province":"東京都","city":"小平市","address":"小平市天神町2-4-33","lat":35.73304,"lon":139.49271},{"name":"天神ハイツ２","province":"東京都","city":"小平市","address":"小平市天神町2-4-33","lat":35.73304,"lon":139.49271},{"name":"小平市社会福祉協議会","province":"東京都","city":"小平市","address":"小平市学園東町1-19-13福祉会館4階","lat":35.72678,"lon":139.47797},{"name":"あかつき","province":"東京都","city":"小平市","address":"小平市小川町1-485","lat":35.727651,"lon":139.440373},{"name":"くるめ園","province":"東京都","city":"小平市","address":"小平市上水南町4-7-45","lat":35.708799,"lon":139.491028},{"name":"黎明寮","province":"東京都","city":"小平市","address":"小平市小川町1-485","lat":35.727651,"lon":139.440373},{"name":"花小金井ハイツ","province":"東京都","city":"小平市","address":"小平市花小金井6-20-3","lat":35.73023,"lon":139.51057},{"name":"花小金井ハイツ2","province":"東京都","city":"小平市","address":"小平市花小金井6-20-3","lat":35.73023,"lon":139.51057},{"name":"花小金井ハイツ2","province":"東京都","city":"小平市","address":"小平市花小金井6-20-3","lat":35.73022,"lon":139.51057},{"name":"けやきの郷","province":"東京都","city":"小平市","address":"小平市小川町1-485","lat":35.727651,"lon":139.440373},{"name":"公立昭和病院","province":"東京都","city":"小平市","address":"小平市花小金井8-1-1","lat":35.731297,"lon":139.503337},{"name":"小平荘","province":"東京都","city":"小平市","address":"小平市花小金井8-28-1","lat":35.730833,"lon":139.505728},{"name":"花小金井ハイツ","province":"東京都","city":"小平市","address":"小平市花小金井6-20-3","lat":35.730195,"lon":139.510728},{"name":"南台病院","province":"東京都","city":"小平市","address":"小平市小川町1-485","lat":35.727651,"lon":139.440373},{"name":"多摩済生病院","province":"東京都","city":"小平市","address":"小平市美園町3-11-1","lat":35.740607,"lon":139.489257},{"name":"小平市社会福祉協議会","province":"東京都","city":"小平市","address":"小平市学園東町1-19-13福祉会館内","lat":35.726567,"lon":139.478114},{"name":"小平荘","province":"東京都","city":"小平市","address":"小平市花小金井8-28-1","lat":35.73142,"lon":139.50586},{"name":"花小金井ハイツ","province":"東京都","city":"小平市","address":"小平市花小金井6-20-3","lat":35.73022,"lon":139.51057},{"name":"公立昭和病院","province":"東京都","city":"小平市","address":"小平市花小金井8-1-1","lat":35.73167,"lon":139.50266},{"name":"くるめ園","province":"東京都","city":"小平市","address":"小平市上水南町4-7-45","lat":35.71013,"lon":139.4913},{"name":"あかつき","province":"東京都","city":"小平市","address":"小平市小川町1-485","lat":35.72841,"lon":139.44067},{"name":"黎明寮","province":"東京都","city":"小平市","address":"小平市小川町1-485","lat":35.72841,"lon":139.44067},{"name":"花小金井ハイツ２","province":"東京都","city":"小平市","address":"小平市花小金井6-20-3","lat":35.73022,"lon":139.51057},{"name":"ロッジ小平","province":"東京都","city":"小平市","address":"小平市花小金井8-28-1","lat":35.73142,"lon":139.50586},{"name":"天神ハイツ","province":"東京都","city":"小平市","address":"小平市天神町2-4-33","lat":35.73304,"lon":139.49271},{"name":"天神ハイツ２","province":"東京都","city":"小平市","address":"小平市天神町2-4-33","lat":35.73304,"lon":139.49271},{"name":"小平市社会福祉協議会","province":"東京都","city":"小平市","address":"小平市学園東町1-19-13福祉会館4階","lat":35.72678,"lon":139.47797},{"name":"あかつき","province":"東京都","city":"小平市","address":"小平市小川町1-485","lat":35.727651,"lon":139.440373},{"name":"くるめ園","province":"東京都","city":"小平市","address":"小平市上水南町4-7-45","lat":35.708799,"lon":139.491028},{"name":"黎明寮","province":"東京都","city":"小平市","address":"小平市小川町1-485","lat":35.727651,"lon":139.440373},{"name":"花小金井ハイツ","province":"東京都","city":"小平市","address":"小平市花小金井6-20-3","lat":35.73023,"lon":139.51057},{"name":"花小金井ハイツ2","province":"東京都","city":"小平市","address":"小平市花小金井6-20-3","lat":35.73023,"lon":139.51057},{"name":"花小金井ハイツ2","province":"東京都","city":"小平市","address":"小平市花小金井6-20-3","lat":35.73022,"lon":139.51057},{"name":"けやきの郷","province":"東京都","city":"小平市","address":"小平市小川町1-485","lat":35.727651,"lon":139.440373},{"name":"公立昭和病院","province":"東京都","city":"小平市","address":"小平市花小金井8-1-1","lat":35.731297,"lon":139.503337},{"name":"小平荘","province":"東京都","city":"小平市","address":"小平市花小金井8-28-1","lat":35.730833,"lon":139.505728},{"name":"花小金井ハイツ","province":"東京都","city":"小平市","address":"小平市花小金井6-20-3","lat":35.730195,"lon":139.510728},{"name":"南台病院","province":"東京都","city":"小平市","address":"小平市小川町1-485","lat":35.727651,"lon":139.440373},{"name":"多摩済生病院","province":"東京都","city":"小平市","address":"小平市美園町3-11-1","lat":35.740607,"lon":139.489257},{"name":"小平市社会福祉協議会","province":"東京都","city":"小平市","address":"小平市学園東町1-19-13福祉会館内","lat":35.726567,"lon":139.478114},{"name":"小平荘","province":"東京都","city":"小平市","address":"小平市花小金井8-28-1","lat":35.73142,"lon":139.50586},{"name":"花小金井ハイツ","province":"東京都","city":"小平市","address":"小平市花小金井6-20-3","lat":35.73022,"lon":139.51057},{"name":"公立昭和病院","province":"東京都","city":"小平市","address":"小平市花小金井8-1-1","lat":35.73167,"lon":139.50266},{"name":"くるめ園","province":"東京都","city":"小平市","address":"小平市上水南町4-7-45","lat":35.71013,"lon":139.4913},{"name":"あかつき","province":"東京都","city":"小平市","address":"小平市小川町1-485","lat":35.72841,"lon":139.44067},{"name":"黎明寮","province":"東京都","city":"小平市","address":"小平市小川町1-485","lat":35.72841,"lon":139.44067},{"name":"花小金井ハイツ２","province":"東京都","city":"小平市","address":"小平市花小金井6-20-3","lat":35.73022,"lon":139.51057},{"name":"ロッジ小平","province":"東京都","city":"小平市","address":"小平市花小金井8-28-1","lat":35.73142,"lon":139.50586},{"name":"天神ハイツ","province":"東京都","city":"小平市","address":"小平市天神町2-4-33","lat":35.73304,"lon":139.49271},{"name":"天神ハイツ２","province":"東京都","city":"小平市","address":"小平市天神町2-4-33","lat":35.73304,"lon":139.49271},{"name":"小平市社会福祉協議会","province":"東京都","city":"小平市","address":"小平市学園東町1-19-13福祉会館4階","lat":35.72678,"lon":139.47797},{"name":"あかつき","province":"東京都","city":"小平市","address":"小平市小川町1-485","lat":35.727651,"lon":139.440373},{"name":"くるめ園","province":"東京都","city":"小平市","address":"小平市上水南町4-7-45","lat":35.708799,"lon":139.491028},{"name":"黎明寮","province":"東京都","city":"小平市","address":"小平市小川町1-485","lat":35.727651,"lon":139.440373},{"name":"花小金井ハイツ","province":"東京都","city":"小平市","address":"小平市花小金井6-20-3","lat":35.73023,"lon":139.51057},{"name":"花小金井ハイツ2","province":"東京都","city":"小平市","address":"小平市花小金井6-20-3","lat":35.73023,"lon":139.51057},{"name":"花小金井ハイツ2","province":"東京都","city":"小平市","address":"小平市花小金井6-20-3","lat":35.73022,"lon":139.51057},{"name":"けやきの郷","province":"東京都","city":"小平市","address":"小平市小川町1-485","lat":35.727651,"lon":139.440373},{"name":"公立昭和病院","province":"東京都","city":"小平市","address":"小平市花小金井8-1-1","lat":35.731297,"lon":139.503337},{"name":"小平荘","province":"東京都","city":"小平市","address":"小平市花小金井8-28-1","lat":35.730833,"lon":139.505728},{"name":"花小金井ハイツ","province":"東京都","city":"小平市","address":"小平市花小金井6-20-3","lat":35.730195,"lon":139.510728},{"name":"南台病院","province":"東京都","city":"小平市","address":"小平市小川町1-485","lat":35.727651,"lon":139.440373},{"name":"多摩済生病院","province":"東京都","city":"小平市","address":"小平市美園町3-11-1","lat":35.740607,"lon":139.489257},{"name":"小平市社会福祉協議会","province":"東京都","city":"小平市","address":"小平市学園東町1-19-13福祉会館内","lat":35.726567,"lon":139.478114},{"name":"小平荘","province":"東京都","city":"小平市","address":"小平市花小金井8-28-1","lat":35.73142,"lon":139.50586},{"name":"花小金井ハイツ","province":"東京都","city":"小平市","address":"小平市花小金井6-20-3","lat":35.73022,"lon":139.51057},{"name":"公立昭和病院","province":"東京都","city":"小平市","address":"小平市花小金井8-1-1","lat":35.73167,"lon":139.50266},{"name":"くるめ園","province":"東京都","city":"小平市","address":"小平市上水南町4-7-45","lat":35.71013,"lon":139.4913},{"name":"あかつき","province":"東京都","city":"小平市","address":"小平市小川町1-485","lat":35.72841,"lon":139.44067},{"name":"黎明寮","province":"東京都","city":"小平市","address":"小平市小川町1-485","lat":35.72841,"lon":139.44067},{"name":"花小金井ハイツ２","province":"東京都","city":"小平市","address":"小平市花小金井6-20-3","lat":35.73022,"lon":139.51057},{"name":"ロッジ小平","province":"東京都","city":"小平市","address":"小平市花小金井8-28-1","lat":35.73142,"lon":139.50586},{"name":"天神ハイツ","province":"東京都","city":"小平市","address":"小平市天神町2-4-33","lat":35.73304,"lon":139.49271},{"name":"天神ハイツ２","province":"東京都","city":"小平市","address":"小平市天神町2-4-33","lat":35.73304,"lon":139.49271},{"name":"小平市社会福祉協議会","province":"東京都","city":"小平市","address":"小平市学園東町1-19-13福祉会館4階","lat":35.72678,"lon":139.47797},{"name":"あかつき","province":"東京都","city":"小平市","address":"小平市小川町1-485","lat":35.727651,"lon":139.440373},{"name":"くるめ園","province":"東京都","city":"小平市","address":"小平市上水南町4-7-45","lat":35.708799,"lon":139.491028},{"name":"黎明寮","province":"東京都","city":"小平市","address":"小平市小川町1-485","lat":35.727651,"lon":139.440373},{"name":"花小金井ハイツ","province":"東京都","city":"小平市","address":"小平市花小金井6-20-3","lat":35.73023,"lon":139.51057},{"name":"花小金井ハイツ2","province":"東京都","city":"小平市","address":"小平市花小金井6-20-3","lat":35.73023,"lon":139.51057},{"name":"花小金井ハイツ2","province":"東京都","city":"小平市","address":"小平市花小金井6-20-3","lat":35.73022,"lon":139.51057},{"name":"けやきの郷","province":"東京都","city":"小平市","address":"小平市小川町1-485","lat":35.727651,"lon":139.440373},{"name":"公立昭和病院","province":"東京都","city":"小平市","address":"小平市花小金井8-1-1","lat":35.731297,"lon":139.503337},{"name":"小平荘","province":"東京都","city":"小平市","address":"小平市花小金井8-28-1","lat":35.730833,"lon":139.505728},{"name":"花小金井ハイツ","province":"東京都","city":"小平市","address":"小平市花小金井6-20-3","lat":35.730195,"lon":139.510728},{"name":"南台病院","province":"東京都","city":"小平市","address":"小平市小川町1-485","lat":35.727651,"lon":139.440373},{"name":"多摩済生病院","province":"東京都","city":"小平市","address":"小平市美園町3-11-1","lat":35.740607,"lon":139.489257},{"name":"小平市社会福祉協議会","province":"東京都","city":"小平市","address":"小平市学園東町1-19-13福祉会館内","lat":35.726567,"lon":139.478114},{"name":"小平荘","province":"東京都","city":"小平市","address":"小平市花小金井8-28-1","lat":35.73142,"lon":139.50586},{"name":"花小金井ハイツ","province":"東京都","city":"小平市","address":"小平市花小金井6-20-3","lat":35.73022,"lon":139.51057},{"name":"公立昭和病院","province":"東京都","city":"小平市","address":"小平市花小金井8-1-1","lat":35.73167,"lon":139.50266},{"name":"くるめ園","province":"東京都","city":"小平市","address":"小平市上水南町4-7-45","lat":35.71013,"lon":139.4913},{"name":"あかつき","province":"東京都","city":"小平市","address":"小平市小川町1-485","lat":35.72841,"lon":139.44067},{"name":"黎明寮","province":"東京都","city":"小平市","address":"小平市小川町1-485","lat":35.72841,"lon":139.44067},{"name":"花小金井ハイツ２","province":"東京都","city":"小平市","address":"小平市花小金井6-20-3","lat":35.73022,"lon":139.51057},{"name":"ロッジ小平","province":"東京都","city":"小平市","address":"小平市花小金井8-28-1","lat":35.73142,"lon":139.50586},{"name":"天神ハイツ","province":"東京都","city":"小平市","address":"小平市天神町2-4-33","lat":35.73304,"lon":139.49271},{"name":"天神ハイツ２","province":"東京都","city":"小平市","address":"小平市天神町2-4-33","lat":35.73304,"lon":139.49271},{"name":"小平市社会福祉協議会","province":"東京都","city":"小平市","address":"小平市学園東町1-19-13福祉会館4階","lat":35.72678,"lon":139.47797},{"name":"あかつき","province":"東京都","city":"小平市","address":"小平市小川町1-485","lat":35.727651,"lon":139.440373},{"name":"くるめ園","province":"東京都","city":"小平市","address":"小平市上水南町4-7-45","lat":35.708799,"lon":139.491028},{"name":"黎明寮","province":"東京都","city":"小平市","address":"小平市小川町1-485","lat":35.727651,"lon":139.440373},{"name":"花小金井ハイツ","province":"東京都","city":"小平市","address":"小平市花小金井6-20-3","lat":35.73023,"lon":139.51057},{"name":"花小金井ハイツ2","province":"東京都","city":"小平市","address":"小平市花小金井6-20-3","lat":35.73023,"lon":139.51057},{"name":"花小金井ハイツ2","province":"東京都","city":"小平市","address":"小平市花小金井6-20-3","lat":35.73022,"lon":139.51057},{"name":"けやきの郷","province":"東京都","city":"小平市","address":"小平市小川町1-485","lat":35.727651,"lon":139.440373}]}