{"keyword":"戸数","data":[{"name":"小平市社会福祉協議会","province":"東京都","city":"小平市","address":"小平市学園東町1-19-13福祉会館内","lat":35.726567,"lon":139.478114},{"name":"小平市","province":"東京都","city":"小平市","address":"小平市小川町2-1333","lat":35.7284081,"lon":139.4779089},{"name":"ひのでセレモニー","province":"東京都","city":"小平市","address":"東京都小平市栄町2丁目29-11","lat":35.7336955,"lon":139.45121901},{"name":"株式会社エムエスジー葬儀の正行","province":"東京都","city":"小平市","address":"東京都小平市学園東町2丁目4-22","lat":35.72311438,"lon":139.48558585},{"name":"有限会社　小平典礼","province":"東京都","city":"小平市","address":"東京都小平市花小金井8丁目1-2","lat":35.73079452,"lon":139.5032617},{"name":"有限会社小平典礼","province":"東京都","city":"小平市","address":"東京都小平市花小金井8丁目1-2","lat":35.73079452,"lon":139.5032617},{"name":"株式会社京典","province":"東京都","city":"小平市","address":"東京都小平市小川西町4丁目33-20","lat":35.73925633,"lon":139.46327602},{"name":"有限会社岩手屋商事","province":"東京都","city":"小平市","address":"東京都小平市学園西町1丁目20-7","lat":35.72013401,"lon":139.48013645},{"name":"小平市社会福祉協議会","province":"東京都","city":"小平市","address":"小平市学園東町1-19-13福祉会館4階","lat":35.72678,"lon":139.47797},{"name":"小平市高齢者支援課地域支援担当","province":"東京都","city":"小平市","address":"小平市小川町2-1333","lat":35.729321,"lon":139.476929},{"name":"小平市地域包括支援センター中央センター","province":"東京都","city":"小平市","address":"小平市小川町2-1333","lat":35.729321,"lon":139.476929},{"name":"小平市地域包括支援センターけやきの郷","province":"東京都","city":"小平市","address":"小平市小川町1-485","lat":35.728409,"lon":139.440674},{"name":"小平市地域包括支援センターけやきの郷 たかの台出張所","province":"東京都","city":"小平市","address":"小平市津田町1-7-10","lat":35.725746,"lon":139.46315},{"name":"小平市地域包括支援センター小川ホーム","province":"東京都","city":"小平市","address":"小平市小川西町2-35-2","lat":35.737125,"lon":139.460754},{"name":"小平市地域包括支援センター小川ホーム 四小通り出張所","province":"東京都","city":"小平市","address":"小平市津田町3-38-7","lat":35.724014,"lon":139.470901},{"name":"小平市地域包括支援センター多摩済生ケアセンター","province":"東京都","city":"小平市","address":"小平市美園町3-12-1","lat":35.740219,"lon":139.490341},{"name":"小平市地域包括支援センター多摩済生ケアセンター 喜平橋出張所","province":"東京都","city":"小平市","address":"小平市上水南町2-23-20","lat":35.71479,"lon":139.487808},{"name":"小平市地域包括支援センター小平健成苑","province":"東京都","city":"小平市","address":"小平市鈴木町2-230-3","lat":35.724255,"lon":139.504379},{"name":"小平市地域包括支援センター小平健成苑 花小金井出張所","province":"東京都","city":"小平市","address":"小平市花小金井5-37-4","lat":35.731026,"lon":139.509979},{"name":"小平市消費生活センター","province":"東京都","city":"小平市","address":"小平市小川町2-1333","lat":35.729321,"lon":139.476929},{"name":"公立昭和病院","province":"東京都","city":"小平市","address":"東京都小平市花小金井8丁目1-1","lat":35.7313167,"lon":139.50336445},{"name":"上水南浄水所","province":"東京都","city":"小平市","address":"東京都小平市上水南町3丁目12-36","lat":35.71160196,"lon":139.49171079},{"name":"小川浄水所","province":"東京都","city":"小平市","address":"東京都小平市小川町1丁目847","lat":35.72563541,"lon":139.45317197},{"name":"丸井小金井総合グラウンド","province":"東京都","city":"小平市","address":"東京都小平市花小金井8丁目25-1","lat":35.73125838,"lon":139.50415049},{"name":"千代田区花小金井グラウンド","province":"東京都","city":"小平市","address":"東京都小平市花小金井南町3丁目2","lat":35.72044891,"lon":139.51886641},{"name":"小平市立中央公園グラウンド","province":"東京都","city":"小平市","address":"東京都小平市津田町1丁目1","lat":35.72249436,"lon":139.46201018},{"name":"小平市選挙管理委員会","province":"東京都","city":"小平市","address":"小平市学園東町1-19-12健康センター","lat":35.726968,"lon":139.477577},{"name":"小平高等学校","province":"東京都","city":"小平市","address":"東京都小平市仲町112-1","lat":35.7328521,"lon":139.48319675},{"name":"小平南高等学校","province":"東京都","city":"小平市","address":"東京都小平市上水本町6丁目21-1","lat":35.71163208,"lon":139.47501223},{"name":"小平西高等学校","province":"東京都","city":"小平市","address":"東京都小平市小川町1丁目502-95","lat":35.72551567,"lon":139.44206742},{"name":"西武地区","province":"東京都","city":"小平市","address":"小平市美園町3-1-8","lat":35.73848,"lon":139.4873},{"name":"（株）日栄東海物流センター","province":"東京都","city":"小平市","address":"小平市小川東町4-6-7","lat":35.73489,"lon":139.4766},{"name":"ごみ焼却施設","province":"東京都","city":"小平市","address":"小平市中島町2-1","lat":35.729443,"lon":139.427826},{"name":"小平市社会福祉協議会","province":"東京都","city":"小平市","address":"小平市学園東町1-19-13福祉会館内","lat":35.726567,"lon":139.478114},{"name":"小平市社会福祉協議会","province":"東京都","city":"小平市","address":"小平市学園東町1-19-13福祉会館4階","lat":35.72678,"lon":139.47797},{"name":"小平市高齢者支援課地域支援担当","province":"東京都","city":"小平市","address":"小平市小川町2-1333","lat":35.729321,"lon":139.476929},{"name":"小平市地域包括支援センター中央センター","province":"東京都","city":"小平市","address":"小平市小川町2-1333","lat":35.729321,"lon":139.476929},{"name":"小平市地域包括支援センターけやきの郷","province":"東京都","city":"小平市","address":"小平市小川町1-485","lat":35.728409,"lon":139.440674},{"name":"小平市地域包括支援センターけやきの郷 たかの台出張所","province":"東京都","city":"小平市","address":"小平市津田町1-7-10","lat":35.725746,"lon":139.46315},{"name":"小平市地域包括支援センター小川ホーム","province":"東京都","city":"小平市","address":"小平市小川西町2-35-2","lat":35.737125,"lon":139.460754},{"name":"小平市地域包括支援センター小川ホーム 四小通り出張所","province":"東京都","city":"小平市","address":"小平市津田町3-38-7","lat":35.724014,"lon":139.470901},{"name":"小平市地域包括支援センター多摩済生ケアセンター","province":"東京都","city":"小平市","address":"小平市美園町3-12-1","lat":35.740219,"lon":139.490341},{"name":"小平市地域包括支援センター多摩済生ケアセンター 喜平橋出張所","province":"東京都","city":"小平市","address":"小平市上水南町2-23-20","lat":35.71479,"lon":139.487808},{"name":"小平市地域包括支援センター小平健成苑","province":"東京都","city":"小平市","address":"小平市鈴木町2-230-3","lat":35.724255,"lon":139.504379},{"name":"小平市地域包括支援センター小平健成苑 花小金井出張所","province":"東京都","city":"小平市","address":"小平市花小金井5-37-4","lat":35.731026,"lon":139.509979},{"name":"小平市消費生活センター","province":"東京都","city":"小平市","address":"小平市小川町2-1333","lat":35.729321,"lon":139.476929},{"name":"公立昭和病院","province":"東京都","city":"小平市","address":"東京都小平市花小金井8丁目1-1","lat":35.7313167,"lon":139.50336445},{"name":"上水南浄水所","province":"東京都","city":"小平市","address":"東京都小平市上水南町3丁目12-36","lat":35.71160196,"lon":139.49171079},{"name":"小川浄水所","province":"東京都","city":"小平市","address":"東京都小平市小川町1丁目847","lat":35.72563541,"lon":139.45317197},{"name":"丸井小金井総合グラウンド","province":"東京都","city":"小平市","address":"東京都小平市花小金井8丁目25-1","lat":35.73125838,"lon":139.50415049},{"name":"千代田区花小金井グラウンド","province":"東京都","city":"小平市","address":"東京都小平市花小金井南町3丁目2","lat":35.72044891,"lon":139.51886641},{"name":"小平市立中央公園グラウンド","province":"東京都","city":"小平市","address":"東京都小平市津田町1丁目1","lat":35.72249436,"lon":139.46201018},{"name":"小平高等学校","province":"東京都","city":"小平市","address":"東京都小平市仲町112-1","lat":35.7328521,"lon":139.48319675},{"name":"小平南高等学校","province":"東京都","city":"小平市","address":"東京都小平市上水本町6丁目21-1","lat":35.71163208,"lon":139.47501223},{"name":"小平西高等学校","province":"東京都","city":"小平市","address":"東京都小平市小川町1丁目502-95","lat":35.72551567,"lon":139.44206742},{"name":"西武地区","province":"東京都","city":"小平市","address":"小平市美園町3-1-8","lat":35.73848,"lon":139.4873},{"name":"（株）日栄東海物流センター","province":"東京都","city":"小平市","address":"小平市小川東町4-6-7","lat":35.73489,"lon":139.4766},{"name":"ごみ焼却施設","province":"東京都","city":"小平市","address":"小平市中島町2-1","lat":35.729443,"lon":139.427826},{"name":"小平市高齢者支援課地域支援担当","province":"東京都","city":"小平市","address":"小平市小川町2-1333","lat":35.729321,"lon":139.476929},{"name":"小平市地域包括支援センター中央センター","province":"東京都","city":"小平市","address":"小平市小川町2-1333","lat":35.729321,"lon":139.476929},{"name":"小平市地域包括支援センターけやきの郷","province":"東京都","city":"小平市","address":"小平市小川町1-485","lat":35.728409,"lon":139.440674},{"name":"小平市地域包括支援センターけやきの郷 たかの台出張所","province":"東京都","city":"小平市","address":"小平市津田町1-7-10","lat":35.725746,"lon":139.46315},{"name":"小平市地域包括支援センター小川ホーム","province":"東京都","city":"小平市","address":"小平市小川西町2-35-2","lat":35.737125,"lon":139.460754},{"name":"小平市地域包括支援センター小川ホーム 四小通り出張所","province":"東京都","city":"小平市","address":"小平市津田町3-38-7","lat":35.724014,"lon":139.470901},{"name":"小平市地域包括支援センター多摩済生ケアセンター","province":"東京都","city":"小平市","address":"小平市美園町3-12-1","lat":35.740219,"lon":139.490341},{"name":"小平市地域包括支援センター多摩済生ケアセンター 喜平橋出張所","province":"東京都","city":"小平市","address":"小平市上水南町2-23-20","lat":35.71479,"lon":139.487808},{"name":"小平市地域包括支援センター小平健成苑","province":"東京都","city":"小平市","address":"小平市鈴木町2-230-3","lat":35.724255,"lon":139.504379},{"name":"小平市地域包括支援センター小平健成苑 花小金井出張所","province":"東京都","city":"小平市","address":"小平市花小金井5-37-4","lat":35.731026,"lon":139.509979},{"name":"小平市消費生活センター","province":"東京都","city":"小平市","address":"小平市小川町2-1333","lat":35.729321,"lon":139.476929},{"name":"公立昭和病院","province":"東京都","city":"小平市","address":"東京都小平市花小金井8丁目1-1","lat":35.7313167,"lon":139.50336445},{"name":"小平高等学校","province":"東京都","city":"小平市","address":"東京都小平市仲町112-1","lat":35.7328521,"lon":139.48319675},{"name":"小平南高等学校","province":"東京都","city":"小平市","address":"東京都小平市上水本町6丁目21-1","lat":35.71163208,"lon":139.47501223},{"name":"小平西高等学校","province":"東京都","city":"小平市","address":"東京都小平市小川町1丁目502-95","lat":35.72551567,"lon":139.44206742},{"name":"小平市高齢者支援課地域支援担当","province":"東京都","city":"小平市","address":"小平市小川町2-1333","lat":35.729321,"lon":139.476929},{"name":"小平市地域包括支援センター中央センター","province":"東京都","city":"小平市","address":"小平市小川町2-1333","lat":35.729321,"lon":139.476929},{"name":"小平市地域包括支援センターけやきの郷","province":"東京都","city":"小平市","address":"小平市小川町1-485","lat":35.728409,"lon":139.440674},{"name":"小平市地域包括支援センターけやきの郷 たかの台出張所","province":"東京都","city":"小平市","address":"小平市津田町1-7-10","lat":35.725746,"lon":139.46315},{"name":"小平市地域包括支援センター小川ホーム","province":"東京都","city":"小平市","address":"小平市小川西町2-35-2","lat":35.737125,"lon":139.460754},{"name":"小平市地域包括支援センター小川ホーム 四小通り出張所","province":"東京都","city":"小平市","address":"小平市津田町3-38-7","lat":35.724014,"lon":139.470901},{"name":"小平市地域包括支援センター多摩済生ケアセンター","province":"東京都","city":"小平市","address":"小平市美園町3-12-1","lat":35.740219,"lon":139.490341},{"name":"小平市地域包括支援センター多摩済生ケアセンター 喜平橋出張所","province":"東京都","city":"小平市","address":"小平市上水南町2-23-20","lat":35.71479,"lon":139.487808},{"name":"小平市地域包括支援センター小平健成苑","province":"東京都","city":"小平市","address":"小平市鈴木町2-230-3","lat":35.724255,"lon":139.504379},{"name":"小平市地域包括支援センター小平健成苑 花小金井出張所","province":"東京都","city":"小平市","address":"小平市花小金井5-37-4","lat":35.731026,"lon":139.509979},{"name":"小平市消費生活センター","province":"東京都","city":"小平市","address":"小平市小川町2-1333","lat":35.729321,"lon":139.476929},{"name":"公立昭和病院","province":"東京都","city":"小平市","address":"東京都小平市花小金井8丁目1-1","lat":35.7313167,"lon":139.50336445},{"name":"小平高等学校","province":"東京都","city":"小平市","address":"東京都小平市仲町112-1","lat":35.7328521,"lon":139.48319675},{"name":"小平南高等学校","province":"東京都","city":"小平市","address":"東京都小平市上水本町6丁目21-1","lat":35.71163208,"lon":139.47501223},{"name":"小平西高等学校","province":"東京都","city":"小平市","address":"東京都小平市小川町1丁目502-95","lat":35.72551567,"lon":139.44206742},{"name":"小平市高齢者支援課地域支援担当","province":"東京都","city":"小平市","address":"小平市小川町2-1333","lat":35.729321,"lon":139.476929},{"name":"小平市地域包括支援センター中央センター","province":"東京都","city":"小平市","address":"小平市小川町2-1333","lat":35.729321,"lon":139.476929},{"name":"小平市地域包括支援センターけやきの郷","province":"東京都","city":"小平市","address":"小平市小川町1-485","lat":35.728409,"lon":139.440674},{"name":"小平市地域包括支援センターけやきの郷 たかの台出張所","province":"東京都","city":"小平市","address":"小平市津田町1-7-10","lat":35.725746,"lon":139.46315},{"name":"小平市地域包括支援センター小川ホーム","province":"東京都","city":"小平市","address":"小平市小川西町2-35-2","lat":35.737125,"lon":139.460754},{"name":"小平市地域包括支援センター小川ホーム 四小通り出張所","province":"東京都","city":"小平市","address":"小平市津田町3-38-7","lat":35.724014,"lon":139.470901},{"name":"小平市地域包括支援センター多摩済生ケアセンター","province":"東京都","city":"小平市","address":"小平市美園町3-12-1","lat":35.740219,"lon":139.490341},{"name":"小平市地域包括支援センター多摩済生ケアセンター 喜平橋出張所","province":"東京都","city":"小平市","address":"小平市上水南町2-23-20","lat":35.71479,"lon":139.487808},{"name":"小平市地域包括支援センター小平健成苑","province":"東京都","city":"小平市","address":"小平市鈴木町2-230-3","lat":35.724255,"lon":139.504379},{"name":"小平市地域包括支援センター小平健成苑 花小金井出張所","province":"東京都","city":"小平市","address":"小平市花小金井5-37-4","lat":35.731026,"lon":139.509979},{"name":"小平市消費生活センター","province":"東京都","city":"小平市","address":"小平市小川町2-1333","lat":35.729321,"lon":139.476929},{"name":"小平市高齢者支援課地域支援担当","province":"東京都","city":"小平市","address":"小平市小川町2-1333","lat":35.729321,"lon":139.476929},{"name":"小平市地域包括支援センター中央センター","province":"東京都","city":"小平市","address":"小平市小川町2-1333","lat":35.729321,"lon":139.476929},{"name":"小平市地域包括支援センターけやきの郷","province":"東京都","city":"小平市","address":"小平市小川町1-485","lat":35.728409,"lon":139.440674},{"name":"小平市地域包括支援センターけやきの郷 たかの台出張所","province":"東京都","city":"小平市","address":"小平市津田町1-7-10","lat":35.725746,"lon":139.46315},{"name":"小平市地域包括支援センター小川ホーム","province":"東京都","city":"小平市","address":"小平市小川西町2-35-2","lat":35.737125,"lon":139.460754},{"name":"小平市地域包括支援センター小川ホーム 四小通り出張所","province":"東京都","city":"小平市","address":"小平市津田町3-38-7","lat":35.724014,"lon":139.470901},{"name":"小平市地域包括支援センター多摩済生ケアセンター","province":"東京都","city":"小平市","address":"小平市美園町3-12-1","lat":35.740219,"lon":139.490341},{"name":"小平市地域包括支援センター多摩済生ケアセンター 喜平橋出張所","province":"東京都","city":"小平市","address":"小平市上水南町2-23-20","lat":35.71479,"lon":139.487808},{"name":"小平市地域包括支援センター小平健成苑","province":"東京都","city":"小平市","address":"小平市鈴木町2-230-3","lat":35.724255,"lon":139.504379},{"name":"小平市地域包括支援センター小平健成苑 花小金井出張所","province":"東京都","city":"小平市","address":"小平市花小金井5-37-4","lat":35.731026,"lon":139.509979},{"name":"小平市消費生活センター","province":"東京都","city":"小平市","address":"小平市小川町2-1333","lat":35.729321,"lon":139.476929},{"name":"小平市高齢者支援課地域支援担当","province":"東京都","city":"小平市","address":"小平市小川町2-1333","lat":35.729321,"lon":139.476929},{"name":"小平市地域包括支援センター中央センター","province":"東京都","city":"小平市","address":"小平市小川町2-1333","lat":35.729321,"lon":139.476929},{"name":"小平市地域包括支援センターけやきの郷","province":"東京都","city":"小平市","address":"小平市小川町1-485","lat":35.728409,"lon":139.440674},{"name":"小平市地域包括支援センターけやきの郷 たかの台出張所","province":"東京都","city":"小平市","address":"小平市津田町1-7-10","lat":35.725746,"lon":139.46315},{"name":"小平市地域包括支援センター小川ホーム","province":"東京都","city":"小平市","address":"小平市小川西町2-35-2","lat":35.737125,"lon":139.460754},{"name":"小平市地域包括支援センター小川ホーム 四小通り出張所","province":"東京都","city":"小平市","address":"小平市津田町3-38-7","lat":35.724014,"lon":139.470901},{"name":"小平市地域包括支援センター多摩済生ケアセンター","province":"東京都","city":"小平市","address":"小平市美園町3-12-1","lat":35.740219,"lon":139.490341},{"name":"小平市地域包括支援センター多摩済生ケアセンター 喜平橋出張所","province":"東京都","city":"小平市","address":"小平市上水南町2-23-20","lat":35.71479,"lon":139.487808},{"name":"小平市地域包括支援センター小平健成苑","province":"東京都","city":"小平市","address":"小平市鈴木町2-230-3","lat":35.724255,"lon":139.504379},{"name":"小平市地域包括支援センター小平健成苑 花小金井出張所","province":"東京都","city":"小平市","address":"小平市花小金井5-37-4","lat":35.731026,"lon":139.509979},{"name":"小平市消費生活センター","province":"東京都","city":"小平市","address":"小平市小川町2-1333","lat":35.729321,"lon":139.476929},{"name":"小平市高齢者支援課地域支援担当","province":"東京都","city":"小平市","address":"小平市小川町2-1333","lat":35.729321,"lon":139.476929},{"name":"小平市地域包括支援センター中央センター","province":"東京都","city":"小平市","address":"小平市小川町2-1333","lat":35.729321,"lon":139.476929},{"name":"小平市地域包括支援センターけやきの郷","province":"東京都","city":"小平市","address":"小平市小川町1-485","lat":35.728409,"lon":139.440674},{"name":"小平市地域包括支援センターけやきの郷 たかの台出張所","province":"東京都","city":"小平市","address":"小平市津田町1-7-10","lat":35.725746,"lon":139.46315},{"name":"小平市地域包括支援センター小川ホーム","province":"東京都","city":"小平市","address":"小平市小川西町2-35-2","lat":35.737125,"lon":139.460754},{"name":"小平市地域包括支援センター小川ホーム 四小通り出張所","province":"東京都","city":"小平市","address":"小平市津田町3-38-7","lat":35.724014,"lon":139.470901},{"name":"小平市地域包括支援センター多摩済生ケアセンター","province":"東京都","city":"小平市","address":"小平市美園町3-12-1","lat":35.740219,"lon":139.490341},{"name":"小平市地域包括支援センター多摩済生ケアセンター 喜平橋出張所","province":"東京都","city":"小平市","address":"小平市上水南町2-23-20","lat":35.71479,"lon":139.487808},{"name":"小平市地域包括支援センター小平健成苑","province":"東京都","city":"小平市","address":"小平市鈴木町2-230-3","lat":35.724255,"lon":139.504379},{"name":"小平市地域包括支援センター小平健成苑 花小金井出張所","province":"東京都","city":"小平市","address":"小平市花小金井5-37-4","lat":35.731026,"lon":139.509979},{"name":"小平市消費生活センター","province":"東京都","city":"小平市","address":"小平市小川町2-1333","lat":35.729321,"lon":139.476929},{"name":"小平市高齢者支援課地域支援担当","province":"東京都","city":"小平市","address":"小平市小川町2-1333","lat":35.729321,"lon":139.476929},{"name":"小平市地域包括支援センター中央センター","province":"東京都","city":"小平市","address":"小平市小川町2-1333","lat":35.729321,"lon":139.476929},{"name":"小平市地域包括支援センターけやきの郷","province":"東京都","city":"小平市","address":"小平市小川町1-485","lat":35.728409,"lon":139.440674},{"name":"小平市地域包括支援センターけやきの郷 たかの台出張所","province":"東京都","city":"小平市","address":"小平市津田町1-7-10","lat":35.725746,"lon":139.46315},{"name":"小平市地域包括支援センター小川ホーム","province":"東京都","city":"小平市","address":"小平市小川西町2-35-2","lat":35.737125,"lon":139.460754},{"name":"小平市地域包括支援センター小川ホーム 四小通り出張所","province":"東京都","city":"小平市","address":"小平市津田町3-38-7","lat":35.724014,"lon":139.470901},{"name":"小平市地域包括支援センター多摩済生ケアセンター","province":"東京都","city":"小平市","address":"小平市美園町3-12-1","lat":35.740219,"lon":139.490341},{"name":"小平市地域包括支援センター多摩済生ケアセンター 喜平橋出張所","province":"東京都","city":"小平市","address":"小平市上水南町2-23-20","lat":35.71479,"lon":139.487808},{"name":"小平市地域包括支援センター小平健成苑","province":"東京都","city":"小平市","address":"小平市鈴木町2-230-3","lat":35.724255,"lon":139.504379},{"name":"小平市地域包括支援センター小平健成苑 花小金井出張所","province":"東京都","city":"小平市","address":"小平市花小金井5-37-4","lat":35.731026,"lon":139.509979},{"name":"小平市消費生活センター","province":"東京都","city":"小平市","address":"小平市小川町2-1333","lat":35.729321,"lon":139.476929},{"name":"小平市高齢者支援課地域支援担当","province":"東京都","city":"小平市","address":"小平市小川町2-1333","lat":35.729321,"lon":139.476929},{"name":"小平市地域包括支援センター中央センター","province":"東京都","city":"小平市","address":"小平市小川町2-1333","lat":35.729321,"lon":139.476929},{"name":"小平市地域包括支援センターけやきの郷","province":"東京都","city":"小平市","address":"小平市小川町1-485","lat":35.728409,"lon":139.440674},{"name":"小平市地域包括支援センターけやきの郷 たかの台出張所","province":"東京都","city":"小平市","address":"小平市津田町1-7-10","lat":35.725746,"lon":139.46315},{"name":"小平市地域包括支援センター小川ホーム","province":"東京都","city":"小平市","address":"小平市小川西町2-35-2","lat":35.737125,"lon":139.460754},{"name":"小平市地域包括支援センター小川ホーム 四小通り出張所","province":"東京都","city":"小平市","address":"小平市津田町3-38-7","lat":35.724014,"lon":139.470901},{"name":"小平市地域包括支援センター多摩済生ケアセンター","province":"東京都","city":"小平市","address":"小平市美園町3-12-1","lat":35.740219,"lon":139.490341},{"name":"小平市地域包括支援センター多摩済生ケアセンター 喜平橋出張所","province":"東京都","city":"小平市","address":"小平市上水南町2-23-20","lat":35.71479,"lon":139.487808},{"name":"小平市地域包括支援センター小平健成苑","province":"東京都","city":"小平市","address":"小平市鈴木町2-230-3","lat":35.724255,"lon":139.504379},{"name":"小平市地域包括支援センター小平健成苑 花小金井出張所","province":"東京都","city":"小平市","address":"小平市花小金井5-37-4","lat":35.731026,"lon":139.509979},{"name":"小平市消費生活センター","province":"東京都","city":"小平市","address":"小平市小川町2-1333","lat":35.729321,"lon":139.476929},{"name":"小平市高齢者支援課地域支援担当","province":"東京都","city":"小平市","address":"小平市小川町2-1333","lat":35.729321,"lon":139.476929},{"name":"小平市地域包括支援センター中央センター","province":"東京都","city":"小平市","address":"小平市小川町2-1333","lat":35.729321,"lon":139.476929},{"name":"小平市地域包括支援センターけやきの郷","province":"東京都","city":"小平市","address":"小平市小川町1-485","lat":35.728409,"lon":139.440674},{"name":"小平市地域包括支援センターけやきの郷 たかの台出張所","province":"東京都","city":"小平市","address":"小平市津田町1-7-10","lat":35.725746,"lon":139.46315},{"name":"小平市地域包括支援センター小川ホーム","province":"東京都","city":"小平市","address":"小平市小川西町2-35-2","lat":35.737125,"lon":139.460754},{"name":"小平市地域包括支援センター小川ホーム 四小通り出張所","province":"東京都","city":"小平市","address":"小平市津田町3-38-7","lat":35.724014,"lon":139.470901},{"name":"小平市地域包括支援センター多摩済生ケアセンター","province":"東京都","city":"小平市","address":"小平市美園町3-12-1","lat":35.740219,"lon":139.490341},{"name":"小平市地域包括支援センター多摩済生ケアセンター 喜平橋出張所","province":"東京都","city":"小平市","address":"小平市上水南町2-23-20","lat":35.71479,"lon":139.487808},{"name":"小平市地域包括支援センター小平健成苑","province":"東京都","city":"小平市","address":"小平市鈴木町2-230-3","lat":35.724255,"lon":139.504379},{"name":"小平市地域包括支援センター小平健成苑 花小金井出張所","province":"東京都","city":"小平市","address":"小平市花小金井5-37-4","lat":35.731026,"lon":139.509979},{"name":"小平市消費生活センター","province":"東京都","city":"小平市","address":"小平市小川町2-1333","lat":35.729321,"lon":139.476929},{"name":"小平市高齢者支援課地域支援担当","province":"東京都","city":"小平市","address":"小平市小川町2-1333","lat":35.729321,"lon":139.476929},{"name":"小平市地域包括支援センター中央センター","province":"東京都","city":"小平市","address":"小平市小川町2-1333","lat":35.729321,"lon":139.476929},{"name":"小平市地域包括支援センターけやきの郷","province":"東京都","city":"小平市","address":"小平市小川町1-485","lat":35.728409,"lon":139.440674},{"name":"小平市地域包括支援センターけやきの郷 たかの台出張所","province":"東京都","city":"小平市","address":"小平市津田町1-7-10","lat":35.725746,"lon":139.46315},{"name":"小平市地域包括支援センター小川ホーム","province":"東京都","city":"小平市","address":"小平市小川西町2-35-2","lat":35.737125,"lon":139.460754},{"name":"小平市地域包括支援センター小川ホーム 四小通り出張所","province":"東京都","city":"小平市","address":"小平市津田町3-38-7","lat":35.724014,"lon":139.470901},{"name":"小平市地域包括支援センター多摩済生ケアセンター","province":"東京都","city":"小平市","address":"小平市美園町3-12-1","lat":35.740219,"lon":139.490341},{"name":"小平市地域包括支援センター多摩済生ケアセンター 喜平橋出張所","province":"東京都","city":"小平市","address":"小平市上水南町2-23-20","lat":35.71479,"lon":139.487808},{"name":"小平市地域包括支援センター小平健成苑","province":"東京都","city":"小平市","address":"小平市鈴木町2-230-3","lat":35.724255,"lon":139.504379},{"name":"小平市地域包括支援センター小平健成苑 花小金井出張所","province":"東京都","city":"小平市","address":"小平市花小金井5-37-4","lat":35.731026,"lon":139.509979},{"name":"小平市消費生活センター","province":"東京都","city":"小平市","address":"小平市小川町2-1333","lat":35.729321,"lon":139.476929},{"name":"小平市高齢者支援課地域支援担当","province":"東京都","city":"小平市","address":"小平市小川町2-1333","lat":35.729321,"lon":139.476929},{"name":"小平市地域包括支援センター中央センター","province":"東京都","city":"小平市","address":"小平市小川町2-1333","lat":35.729321,"lon":139.476929},{"name":"小平市地域包括支援センターけやきの郷","province":"東京都","city":"小平市","address":"小平市小川町1-485","lat":35.728409,"lon":139.440674},{"name":"小平市地域包括支援センターけやきの郷 たかの台出張所","province":"東京都","city":"小平市","address":"小平市津田町1-7-10","lat":35.725746,"lon":139.46315},{"name":"小平市地域包括支援センター小川ホーム","province":"東京都","city":"小平市","address":"小平市小川西町2-35-2","lat":35.737125,"lon":139.460754},{"name":"小平市地域包括支援センター小川ホーム 四小通り出張所","province":"東京都","city":"小平市","address":"小平市津田町3-38-7","lat":35.724014,"lon":139.470901},{"name":"小平市地域包括支援センター多摩済生ケアセンター","province":"東京都","city":"小平市","address":"小平市美園町3-12-1","lat":35.740219,"lon":139.490341},{"name":"小平市地域包括支援センター多摩済生ケアセンター 喜平橋出張所","province":"東京都","city":"小平市","address":"小平市上水南町2-23-20","lat":35.71479,"lon":139.487808},{"name":"小平市地域包括支援センター小平健成苑","province":"東京都","city":"小平市","address":"小平市鈴木町2-230-3","lat":35.724255,"lon":139.504379},{"name":"小平市地域包括支援センター小平健成苑 花小金井出張所","province":"東京都","city":"小平市","address":"小平市花小金井5-37-4","lat":35.731026,"lon":139.509979},{"name":"小平市消費生活センター","province":"東京都","city":"小平市","address":"小平市小川町2-1333","lat":35.729321,"lon":139.476929},{"name":"小平市高齢者支援課地域支援担当","province":"東京都","city":"小平市","address":"小平市小川町2-1333","lat":35.729321,"lon":139.476929},{"name":"小平市地域包括支援センター中央センター","province":"東京都","city":"小平市","address":"小平市小川町2-1333","lat":35.729321,"lon":139.476929},{"name":"小平市地域包括支援センターけやきの郷","province":"東京都","city":"小平市","address":"小平市小川町1-485","lat":35.728409,"lon":139.440674},{"name":"小平市地域包括支援センターけやきの郷 たかの台出張所","province":"東京都","city":"小平市","address":"小平市津田町1-7-10","lat":35.725746,"lon":139.46315},{"name":"小平市地域包括支援センター小川ホーム","province":"東京都","city":"小平市","address":"小平市小川西町2-35-2","lat":35.737125,"lon":139.460754},{"name":"小平市地域包括支援センター小川ホーム 四小通り出張所","province":"東京都","city":"小平市","address":"小平市津田町3-38-7","lat":35.724014,"lon":139.470901},{"name":"小平市地域包括支援センター多摩済生ケアセンター","province":"東京都","city":"小平市","address":"小平市美園町3-12-1","lat":35.740219,"lon":139.490341},{"name":"小平市地域包括支援センター多摩済生ケアセンター 喜平橋出張所","province":"東京都","city":"小平市","address":"小平市上水南町2-23-20","lat":35.71479,"lon":139.487808},{"name":"小平市地域包括支援センター小平健成苑","province":"東京都","city":"小平市","address":"小平市鈴木町2-230-3","lat":35.724255,"lon":139.504379},{"name":"小平市地域包括支援センター小平健成苑 花小金井出張所","province":"東京都","city":"小平市","address":"小平市花小金井5-37-4","lat":35.731026,"lon":139.509979},{"name":"小平市消費生活センター","province":"東京都","city":"小平市","address":"小平市小川町2-1333","lat":35.729321,"lon":139.476929},{"name":"小平市高齢者支援課地域支援担当","province":"東京都","city":"小平市","address":"小平市小川町2-1333","lat":35.729321,"lon":139.476929},{"name":"小平市地域包括支援センター中央センター","province":"東京都","city":"小平市","address":"小平市小川町2-1333","lat":35.729321,"lon":139.476929},{"name":"小平市地域包括支援センターけやきの郷","province":"東京都","city":"小平市","address":"小平市小川町1-485","lat":35.728409,"lon":139.440674},{"name":"小平市地域包括支援センターけやきの郷 たかの台出張所","province":"東京都","city":"小平市","address":"小平市津田町1-7-10","lat":35.725746,"lon":139.46315},{"name":"小平市地域包括支援センター小川ホーム","province":"東京都","city":"小平市","address":"小平市小川西町2-35-2","lat":35.737125,"lon":139.460754},{"name":"小平市地域包括支援センター小川ホーム 四小通り出張所","province":"東京都","city":"小平市","address":"小平市津田町3-38-7","lat":35.724014,"lon":139.470901},{"name":"小平市地域包括支援センター多摩済生ケアセンター","province":"東京都","city":"小平市","address":"小平市美園町3-12-1","lat":35.740219,"lon":139.490341},{"name":"小平市地域包括支援センター多摩済生ケアセンター 喜平橋出張所","province":"東京都","city":"小平市","address":"小平市上水南町2-23-20","lat":35.71479,"lon":139.487808},{"name":"小平市地域包括支援センター小平健成苑","province":"東京都","city":"小平市","address":"小平市鈴木町2-230-3","lat":35.724255,"lon":139.504379},{"name":"小平市地域包括支援センター小平健成苑 花小金井出張所","province":"東京都","city":"小平市","address":"小平市花小金井5-37-4","lat":35.731026,"lon":139.509979},{"name":"小平市消費生活センター","province":"東京都","city":"小平市","address":"小平市小川町2-1333","lat":35.729321,"lon":139.476929},{"name":"小平市高齢者支援課地域支援担当","province":"東京都","city":"小平市","address":"小平市小川町2-1333","lat":35.729321,"lon":139.476929},{"name":"小平市地域包括支援センター中央センター","province":"東京都","city":"小平市","address":"小平市小川町2-1333","lat":35.729321,"lon":139.476929},{"name":"小平市地域包括支援センターけやきの郷","province":"東京都","city":"小平市","address":"小平市小川町1-485","lat":35.728409,"lon":139.440674},{"name":"小平市地域包括支援センターけやきの郷 たかの台出張所","province":"東京都","city":"小平市","address":"小平市津田町1-7-10","lat":35.725746,"lon":139.46315},{"name":"小平市地域包括支援センター小川ホーム","province":"東京都","city":"小平市","address":"小平市小川西町2-35-2","lat":35.737125,"lon":139.460754},{"name":"小平市地域包括支援センター小川ホーム 四小通り出張所","province":"東京都","city":"小平市","address":"小平市津田町3-38-7","lat":35.724014,"lon":139.470901},{"name":"小平市地域包括支援センター多摩済生ケアセンター","province":"東京都","city":"小平市","address":"小平市美園町3-12-1","lat":35.740219,"lon":139.490341},{"name":"小平市地域包括支援センター多摩済生ケアセンター 喜平橋出張所","province":"東京都","city":"小平市","address":"小平市上水南町2-23-20","lat":35.71479,"lon":139.487808},{"name":"小平市地域包括支援センター小平健成苑","province":"東京都","city":"小平市","address":"小平市鈴木町2-230-3","lat":35.724255,"lon":139.504379},{"name":"小平市地域包括支援センター小平健成苑 花小金井出張所","province":"東京都","city":"小平市","address":"小平市花小金井5-37-4","lat":35.731026,"lon":139.509979},{"name":"小平市消費生活センター","province":"東京都","city":"小平市","address":"小平市小川町2-1333","lat":35.729321,"lon":139.476929},{"name":"小平市高齢者支援課地域支援担当","province":"東京都","city":"小平市","address":"小平市小川町2-1333","lat":35.729321,"lon":139.476929},{"name":"小平市地域包括支援センター中央センター","province":"東京都","city":"小平市","address":"小平市小川町2-1333","lat":35.729321,"lon":139.476929},{"name":"小平市地域包括支援センターけやきの郷","province":"東京都","city":"小平市","address":"小平市小川町1-485","lat":35.728409,"lon":139.440674},{"name":"小平市地域包括支援センターけやきの郷 たかの台出張所","province":"東京都","city":"小平市","address":"小平市津田町1-7-10","lat":35.725746,"lon":139.46315},{"name":"小平市地域包括支援センター小川ホーム","province":"東京都","city":"小平市","address":"小平市小川西町2-35-2","lat":35.737125,"lon":139.460754},{"name":"小平市地域包括支援センター小川ホーム 四小通り出張所","province":"東京都","city":"小平市","address":"小平市津田町3-38-7","lat":35.724014,"lon":139.470901},{"name":"小平市地域包括支援センター多摩済生ケアセンター","province":"東京都","city":"小平市","address":"小平市美園町3-12-1","lat":35.740219,"lon":139.490341},{"name":"小平市地域包括支援センター多摩済生ケアセンター 喜平橋出張所","province":"東京都","city":"小平市","address":"小平市上水南町2-23-20","lat":35.71479,"lon":139.487808},{"name":"小平市地域包括支援センター小平健成苑","province":"東京都","city":"小平市","address":"小平市鈴木町2-230-3","lat":35.724255,"lon":139.504379},{"name":"小平市地域包括支援センター小平健成苑 花小金井出張所","province":"東京都","city":"小平市","address":"小平市花小金井5-37-4","lat":35.731026,"lon":139.509979},{"name":"小平市消費生活センター","province":"東京都","city":"小平市","address":"小平市小川町2-1333","lat":35.729321,"lon":139.476929},{"name":"小平市高齢者支援課地域支援担当","province":"東京都","city":"小平市","address":"小平市小川町2-1333","lat":35.729321,"lon":139.476929},{"name":"小平市地域包括支援センター中央センター","province":"東京都","city":"小平市","address":"小平市小川町2-1333","lat":35.729321,"lon":139.476929},{"name":"小平市地域包括支援センターけやきの郷","province":"東京都","city":"小平市","address":"小平市小川町1-485","lat":35.728409,"lon":139.440674},{"name":"小平市地域包括支援センターけやきの郷 たかの台出張所","province":"東京都","city":"小平市","address":"小平市津田町1-7-10","lat":35.725746,"lon":139.46315},{"name":"小平市地域包括支援センター小川ホーム","province":"東京都","city":"小平市","address":"小平市小川西町2-35-2","lat":35.737125,"lon":139.460754},{"name":"小平市地域包括支援センター小川ホーム 四小通り出張所","province":"東京都","city":"小平市","address":"小平市津田町3-38-7","lat":35.724014,"lon":139.470901},{"name":"小平市地域包括支援センター多摩済生ケアセンター","province":"東京都","city":"小平市","address":"小平市美園町3-12-1","lat":35.740219,"lon":139.490341},{"name":"小平市地域包括支援センター多摩済生ケアセンター 喜平橋出張所","province":"東京都","city":"小平市","address":"小平市上水南町2-23-20","lat":35.71479,"lon":139.487808},{"name":"小平市地域包括支援センター小平健成苑","province":"東京都","city":"小平市","address":"小平市鈴木町2-230-3","lat":35.724255,"lon":139.504379},{"name":"小平市地域包括支援センター小平健成苑 花小金井出張所","province":"東京都","city":"小平市","address":"小平市花小金井5-37-4","lat":35.731026,"lon":139.509979},{"name":"小平市消費生活センター","province":"東京都","city":"小平市","address":"小平市小川町2-1333","lat":35.729321,"lon":139.476929},{"name":"小平市高齢者支援課地域支援担当","province":"東京都","city":"小平市","address":"小平市小川町2-1333","lat":35.729321,"lon":139.476929},{"name":"小平市地域包括支援センター中央センター","province":"東京都","city":"小平市","address":"小平市小川町2-1333","lat":35.729321,"lon":139.476929},{"name":"小平市地域包括支援センターけやきの郷","province":"東京都","city":"小平市","address":"小平市小川町1-485","lat":35.728409,"lon":139.440674},{"name":"小平市地域包括支援センターけやきの郷 たかの台出張所","province":"東京都","city":"小平市","address":"小平市津田町1-7-10","lat":35.725746,"lon":139.46315},{"name":"小平市地域包括支援センター小川ホーム","province":"東京都","city":"小平市","address":"小平市小川西町2-35-2","lat":35.737125,"lon":139.460754},{"name":"小平市地域包括支援センター小川ホーム 四小通り出張所","province":"東京都","city":"小平市","address":"小平市津田町3-38-7","lat":35.724014,"lon":139.470901},{"name":"小平市地域包括支援センター多摩済生ケアセンター","province":"東京都","city":"小平市","address":"小平市美園町3-12-1","lat":35.740219,"lon":139.490341},{"name":"小平市地域包括支援センター多摩済生ケアセンター 喜平橋出張所","province":"東京都","city":"小平市","address":"小平市上水南町2-23-20","lat":35.71479,"lon":139.487808},{"name":"小平市地域包括支援センター小平健成苑","province":"東京都","city":"小平市","address":"小平市鈴木町2-230-3","lat":35.724255,"lon":139.504379},{"name":"小平市地域包括支援センター小平健成苑 花小金井出張所","province":"東京都","city":"小平市","address":"小平市花小金井5-37-4","lat":35.731026,"lon":139.509979},{"name":"小平市消費生活センター","province":"東京都","city":"小平市","address":"小平市小川町2-1333","lat":35.729321,"lon":139.476929},{"name":"小平市高齢者支援課地域支援担当","province":"東京都","city":"小平市","address":"小平市小川町2-1333","lat":35.729321,"lon":139.476929},{"name":"小平市地域包括支援センター中央センター","province":"東京都","city":"小平市","address":"小平市小川町2-1333","lat":35.729321,"lon":139.476929},{"name":"小平市地域包括支援センターけやきの郷","province":"東京都","city":"小平市","address":"小平市小川町1-485","lat":35.728409,"lon":139.440674},{"name":"小平市地域包括支援センターけやきの郷 たかの台出張所","province":"東京都","city":"小平市","address":"小平市津田町1-7-10","lat":35.725746,"lon":139.46315},{"name":"小平市地域包括支援センター小川ホーム","province":"東京都","city":"小平市","address":"小平市小川西町2-35-2","lat":35.737125,"lon":139.460754},{"name":"小平市地域包括支援センター小川ホーム 四小通り出張所","province":"東京都","city":"小平市","address":"小平市津田町3-38-7","lat":35.724014,"lon":139.470901},{"name":"小平市地域包括支援センター多摩済生ケアセンター","province":"東京都","city":"小平市","address":"小平市美園町3-12-1","lat":35.740219,"lon":139.490341},{"name":"小平市地域包括支援センター多摩済生ケアセンター 喜平橋出張所","province":"東京都","city":"小平市","address":"小平市上水南町2-23-20","lat":35.71479,"lon":139.487808},{"name":"小平市地域包括支援センター小平健成苑","province":"東京都","city":"小平市","address":"小平市鈴木町2-230-3","lat":35.724255,"lon":139.504379},{"name":"小平市地域包括支援センター小平健成苑 花小金井出張所","province":"東京都","city":"小平市","address":"小平市花小金井5-37-4","lat":35.731026,"lon":139.509979},{"name":"小平市消費生活センター","province":"東京都","city":"小平市","address":"小平市小川町2-1333","lat":35.729321,"lon":139.476929},{"name":"小平市高齢者支援課地域支援担当","province":"東京都","city":"小平市","address":"小平市小川町2-1333","lat":35.729321,"lon":139.476929},{"name":"小平市地域包括支援センター中央センター","province":"東京都","city":"小平市","address":"小平市小川町2-1333","lat":35.729321,"lon":139.476929},{"name":"小平市地域包括支援センターけやきの郷","province":"東京都","city":"小平市","address":"小平市小川町1-485","lat":35.728409,"lon":139.440674},{"name":"小平市地域包括支援センターけやきの郷 たかの台出張所","province":"東京都","city":"小平市","address":"小平市津田町1-7-10","lat":35.725746,"lon":139.46315},{"name":"小平市地域包括支援センター小川ホーム","province":"東京都","city":"小平市","address":"小平市小川西町2-35-2","lat":35.737125,"lon":139.460754},{"name":"小平市地域包括支援センター小川ホーム 四小通り出張所","province":"東京都","city":"小平市","address":"小平市津田町3-38-7","lat":35.724014,"lon":139.470901},{"name":"小平市地域包括支援センター多摩済生ケアセンター","province":"東京都","city":"小平市","address":"小平市美園町3-12-1","lat":35.740219,"lon":139.490341},{"name":"小平市地域包括支援センター多摩済生ケアセンター 喜平橋出張所","province":"東京都","city":"小平市","address":"小平市上水南町2-23-20","lat":35.71479,"lon":139.487808},{"name":"小平市地域包括支援センター小平健成苑","province":"東京都","city":"小平市","address":"小平市鈴木町2-230-3","lat":35.724255,"lon":139.504379},{"name":"小平市地域包括支援センター小平健成苑 花小金井出張所","province":"東京都","city":"小平市","address":"小平市花小金井5-37-4","lat":35.731026,"lon":139.509979},{"name":"小平市消費生活センター","province":"東京都","city":"小平市","address":"小平市小川町2-1333","lat":35.729321,"lon":139.476929}]}