{"keyword":"放課後","data":[{"name":"みんなの家７７","province":"東京都","city":"小平市","address":"小平市大沼町6-7-25","lat":35.731578,"lon":139.501567},{"name":"小平福祉園","province":"東京都","city":"小平市","address":"小平市花小金井8-1-10","lat":35.731692,"lon":139.50204},{"name":"ゆうやけ第３子どもクラブ","province":"東京都","city":"小平市","address":"小平市鈴木町1-291-2","lat":35.723145,"lon":139.50104},{"name":"放課後等デイサービス　ラソ","province":"東京都","city":"小平市","address":"小平市小川東町4-6-17","lat":35.735293,"lon":139.476828},{"name":"ゆうやけ子どもクラブ","province":"東京都","city":"小平市","address":"小平市小川町1-983","lat":35.72653,"lon":139.458244},{"name":"放課後等デイサービスＳＴＥＰ小平","province":"東京都","city":"小平市","address":"小平市栄町1-1-4","lat":35.733915,"lon":139.437323},{"name":"あすなろの家","province":"東京都","city":"小平市","address":"小平市小川西町5-13-24","lat":35.736793,"lon":139.458488},{"name":"あい","province":"東京都","city":"小平市","address":"小平市小川西町5-22-12","lat":35.734376,"lon":139.458429},{"name":"整育園通所センター","province":"東京都","city":"小平市","address":"小平市小川西町2-35-1","lat":35.737176,"lon":139.461124},{"name":"ゆうやけ第２子どもクラブ","province":"東京都","city":"小平市","address":"小平市学園東町3-3-18メゾンセサミ1階","lat":35.723273,"lon":139.490624},{"name":"アート療育FACT小平","province":"東京都","city":"小平市","address":"小平市喜平町1-12-14","lat":35.716749,"lon":139.489075},{"name":"小平ＪＡＭきっず事業所　ポップコーン","province":"東京都","city":"小平市","address":"小平市学園西町3-9-3","lat":35.724939,"lon":139.47097}]}