{"keyword":"朝","data":[{"name":"ひのでセレモニー","province":"東京都","city":"小平市","address":"東京都小平市栄町2丁目29-11","lat":35.7336955,"lon":139.45121901},{"name":"株式会社エムエスジー葬儀の正行","province":"東京都","city":"小平市","address":"東京都小平市学園東町2丁目4-22","lat":35.72311438,"lon":139.48558585},{"name":"有限会社　小平典礼","province":"東京都","city":"小平市","address":"東京都小平市花小金井8丁目1-2","lat":35.73079452,"lon":139.5032617},{"name":"有限会社小平典礼","province":"東京都","city":"小平市","address":"東京都小平市花小金井8丁目1-2","lat":35.73079452,"lon":139.5032617},{"name":"株式会社京典","province":"東京都","city":"小平市","address":"東京都小平市小川西町4丁目33-20","lat":35.73925633,"lon":139.46327602},{"name":"有限会社岩手屋商事","province":"東京都","city":"小平市","address":"東京都小平市学園西町1丁目20-7","lat":35.72013401,"lon":139.48013645},{"name":"なかまちテラス前","province":"東京都","city":"小平市","address":"東京都小平市仲町164","lat":35.73089682,"lon":139.48542443},{"name":"喜平図書館前","province":"東京都","city":"小平市","address":"東京都小平市喜平町1丁目14-20","lat":35.71679857,"lon":139.49088286},{"name":"滝山南","province":"東京都","city":"小平市","address":"東京都小平市大沼町3丁目14-1","lat":35.7410544,"lon":139.50055593},{"name":"久右衛門橋南","province":"東京都","city":"小平市","address":"東京都小平市上水本町2丁目9-6","lat":35.72057523,"lon":139.46506832},{"name":"小平東部市民センター入口","province":"東京都","city":"小平市","address":"東京都小平市花小金井1丁目25-2","lat":35.72821456,"lon":139.51462747},{"name":"小平団地西","province":"東京都","city":"小平市","address":"東京都小平市喜平町3丁目3-4","lat":35.71766231,"lon":139.48886356},{"name":"小平合同庁舎前","province":"東京都","city":"小平市","address":"東京都小平市花小金井1丁目6-20","lat":35.7301171,"lon":139.51407743},{"name":"小平鈴木町二丁目","province":"東京都","city":"小平市","address":"東京都小平市鈴木町2丁目150","lat":35.72652021,"lon":139.51087789},{"name":"緑成会病院前","province":"東京都","city":"小平市","address":"東京都小平市小川西町4丁目12-12","lat":35.73721486,"lon":139.46164848},{"name":"小平駅南口","province":"東京都","city":"小平市","address":"東京都小平市美園町1丁目8-1","lat":35.73606018,"lon":139.48763232},{"name":"多摩済生病院入口","province":"東京都","city":"小平市","address":"東京都小平市美園町2丁目2-11","lat":35.73821829,"lon":139.48844882},{"name":"小平武道館前","province":"東京都","city":"小平市","address":"東京都小平市花小金井6丁目3-7","lat":35.73041963,"lon":139.50587815},{"name":"一橋学園駅前郵便局","province":"東京都","city":"小平市","address":"東京都小平市学園西町2丁目14-17","lat":35.72368359,"lon":139.47944193},{"name":"学園東町一丁目","province":"東京都","city":"小平市","address":"東京都小平市学園東町2丁目5-1","lat":35.72346427,"lon":139.48291385},{"name":"中央公民館前","province":"東京都","city":"小平市","address":"東京都小平市小川町2丁目1325","lat":35.72776638,"lon":139.47652812},{"name":"小平富士見橋","province":"東京都","city":"小平市","address":"東京都小平市小川西町2丁目5","lat":35.73848119,"lon":139.45588783},{"name":"ルネ小平","province":"東京都","city":"小平市","address":"東京都小平市美園町1丁目8-5","lat":35.73494087,"lon":139.48741851},{"name":"小平駅南口第三","province":"東京都","city":"小平市","address":"東京都小平市美園町1丁目6","lat":35.73709062,"lon":139.48732119},{"name":"小平市役所南","province":"東京都","city":"小平市","address":"東京都小平市学園東町1丁目19","lat":35.7267082,"lon":139.47805303},{"name":"小平障害者福祉センター前","province":"東京都","city":"小平市","address":"東京都小平市小川西町2丁目34-1","lat":35.73789253,"lon":139.46105684},{"name":"小平小川町一丁目東","province":"東京都","city":"小平市","address":"東京都小平市小川町1丁目1028","lat":35.73040173,"lon":139.46048498},{"name":"花小金井消防署前","province":"東京都","city":"小平市","address":"東京都小平市花小金井6丁目16","lat":35.73025861,"lon":139.50848347},{"name":"久右衛門橋北","province":"東京都","city":"小平市","address":"東京都小平市津田町2丁目1-1","lat":35.72186677,"lon":139.46597652},{"name":"小平仲宿通り","province":"東京都","city":"小平市","address":"東京都小平市小川西町3丁目18-10","lat":35.740084,"lon":139.46269271},{"name":"西部市民センター西","province":"東京都","city":"小平市","address":"東京都小平市小川西町5丁目39","lat":35.73603161,"lon":139.46009312},{"name":"上水南浄水所","province":"東京都","city":"小平市","address":"東京都小平市上水南町3丁目12-36","lat":35.71160196,"lon":139.49171079},{"name":"小川浄水所","province":"東京都","city":"小平市","address":"東京都小平市小川町1丁目847","lat":35.72563541,"lon":139.45317197},{"name":"小平市中央公民館","province":"東京都","city":"小平市","address":"小平市小川町2-1325","lat":35.728603,"lon":139.474609},{"name":"小平市立花小金井南公民館","province":"東京都","city":"小平市","address":"小平市花小金井南町2-12-6","lat":35.724243,"lon":139.51651},{"name":"小平市立花小金井北公民館","province":"東京都","city":"小平市","address":"小平市花小金井5-41-3","lat":35.734188,"lon":139.510284},{"name":"小平市立小川公民館","province":"東京都","city":"小平市","address":"小平市小川町1-1012","lat":35.725826,"lon":139.459244},{"name":"小平市立小川西町公民館","province":"東京都","city":"小平市","address":"小平市小川西町4-10-13","lat":35.735207,"lon":139.461807},{"name":"小平市立上宿公民館","province":"東京都","city":"小平市","address":"小平市小川町1-308","lat":35.731262,"lon":139.44281},{"name":"小平市立上水南公民館","province":"東京都","city":"小平市","address":"小平市上水南町1-27-1","lat":35.713055,"lon":139.483688},{"name":"小平市立大沼公民館","province":"東京都","city":"小平市","address":"小平市大沼町7-1-17","lat":35.733967,"lon":139.496414},{"name":"小平市立仲町公民館","province":"東京都","city":"小平市","address":"小平市仲町521","lat":35.730274,"lon":139.484863},{"name":"小平市立津田公民館","province":"東京都","city":"小平市","address":"小平市津田町3-11-1","lat":35.720867,"lon":139.470032},{"name":"小平市立鈴木公民館","province":"東京都","city":"小平市","address":"小平市鈴木町2-772","lat":35.722507,"lon":139.507401},{"name":"小平市大沼図書館","province":"東京都","city":"小平市","address":"小平市大沼町7-1-17","lat":35.733967,"lon":139.496414},{"name":"小平市中央図書館","province":"東京都","city":"小平市","address":"小平市小川町2-1325","lat":35.728603,"lon":139.474609},{"name":"小平市中央図書館花小金井北分室","province":"東京都","city":"小平市","address":"小平市花小金井5-41-3","lat":35.734188,"lon":139.510284},{"name":"小平市中央図書館小川分室","province":"東京都","city":"小平市","address":"小平市小川町1-1012","lat":35.725826,"lon":139.459244},{"name":"小平市中央図書館上水南分室","province":"東京都","city":"小平市","address":"小平市上水南町1-27-1","lat":35.713055,"lon":139.483688},{"name":"小平市立花小金井図書館","province":"東京都","city":"小平市","address":"小平市花小金井1-8-1","lat":35.727486,"lon":139.513535},{"name":"小平市立喜平図書館","province":"東京都","city":"小平市","address":"小平市喜平町3-3-18","lat":35.719769,"lon":139.490204},{"name":"小平市立小川西町図書館","province":"東京都","city":"小平市","address":"小平市小川西町4-10-13","lat":35.735207,"lon":139.461807},{"name":"小平市立上宿図書館","province":"東京都","city":"小平市","address":"小平市小川町1-345","lat":35.730995,"lon":139.438889},{"name":"小平市立仲町図書館","province":"東京都","city":"小平市","address":"小平市仲町145","lat":35.731598,"lon":139.483566},{"name":"小平市立津田図書館","province":"東京都","city":"小平市","address":"小平市津田町3-11-1","lat":35.720867,"lon":139.470032},{"name":"小平市鈴木遺跡資料館","province":"東京都","city":"小平市","address":"小平市鈴木町1-487-1","lat":35.718842,"lon":139.496735},{"name":"小平市平櫛田中彫刻美術館","province":"東京都","city":"小平市","address":"小平市学園西町1-7-5","lat":35.718006,"lon":139.475555},{"name":"ひのでセレモニー","province":"東京都","city":"小平市","address":"東京都小平市栄町2丁目29-11","lat":35.7336955,"lon":139.45121901},{"name":"株式会社エムエスジー葬儀の正行","province":"東京都","city":"小平市","address":"東京都小平市学園東町2丁目4-22","lat":35.72311438,"lon":139.48558585},{"name":"有限会社　小平典礼","province":"東京都","city":"小平市","address":"東京都小平市花小金井8丁目1-2","lat":35.73079452,"lon":139.5032617},{"name":"有限会社小平典礼","province":"東京都","city":"小平市","address":"東京都小平市花小金井8丁目1-2","lat":35.73079452,"lon":139.5032617},{"name":"株式会社京典","province":"東京都","city":"小平市","address":"東京都小平市小川西町4丁目33-20","lat":35.73925633,"lon":139.46327602},{"name":"有限会社岩手屋商事","province":"東京都","city":"小平市","address":"東京都小平市学園西町1丁目20-7","lat":35.72013401,"lon":139.48013645},{"name":"なかまちテラス前","province":"東京都","city":"小平市","address":"東京都小平市仲町164","lat":35.73089682,"lon":139.48542443},{"name":"喜平図書館前","province":"東京都","city":"小平市","address":"東京都小平市喜平町1丁目14-20","lat":35.71679857,"lon":139.49088286},{"name":"滝山南","province":"東京都","city":"小平市","address":"東京都小平市大沼町3丁目14-1","lat":35.7410544,"lon":139.50055593},{"name":"久右衛門橋南","province":"東京都","city":"小平市","address":"東京都小平市上水本町2丁目9-6","lat":35.72057523,"lon":139.46506832},{"name":"小平東部市民センター入口","province":"東京都","city":"小平市","address":"東京都小平市花小金井1丁目25-2","lat":35.72821456,"lon":139.51462747},{"name":"小平団地西","province":"東京都","city":"小平市","address":"東京都小平市喜平町3丁目3-4","lat":35.71766231,"lon":139.48886356},{"name":"小平合同庁舎前","province":"東京都","city":"小平市","address":"東京都小平市花小金井1丁目6-20","lat":35.7301171,"lon":139.51407743},{"name":"小平鈴木町二丁目","province":"東京都","city":"小平市","address":"東京都小平市鈴木町2丁目150","lat":35.72652021,"lon":139.51087789},{"name":"緑成会病院前","province":"東京都","city":"小平市","address":"東京都小平市小川西町4丁目12-12","lat":35.73721486,"lon":139.46164848},{"name":"小平駅南口","province":"東京都","city":"小平市","address":"東京都小平市美園町1丁目8-1","lat":35.73606018,"lon":139.48763232},{"name":"多摩済生病院入口","province":"東京都","city":"小平市","address":"東京都小平市美園町2丁目2-11","lat":35.73821829,"lon":139.48844882},{"name":"小平武道館前","province":"東京都","city":"小平市","address":"東京都小平市花小金井6丁目3-7","lat":35.73041963,"lon":139.50587815},{"name":"一橋学園駅前郵便局","province":"東京都","city":"小平市","address":"東京都小平市学園西町2丁目14-17","lat":35.72368359,"lon":139.47944193},{"name":"学園東町一丁目","province":"東京都","city":"小平市","address":"東京都小平市学園東町2丁目5-1","lat":35.72346427,"lon":139.48291385},{"name":"中央公民館前","province":"東京都","city":"小平市","address":"東京都小平市小川町2丁目1325","lat":35.72776638,"lon":139.47652812},{"name":"小平富士見橋","province":"東京都","city":"小平市","address":"東京都小平市小川西町2丁目5","lat":35.73848119,"lon":139.45588783},{"name":"ルネ小平","province":"東京都","city":"小平市","address":"東京都小平市美園町1丁目8-5","lat":35.73494087,"lon":139.48741851},{"name":"小平駅南口第三","province":"東京都","city":"小平市","address":"東京都小平市美園町1丁目6","lat":35.73709062,"lon":139.48732119},{"name":"小平市役所南","province":"東京都","city":"小平市","address":"東京都小平市学園東町1丁目19","lat":35.7267082,"lon":139.47805303},{"name":"小平障害者福祉センター前","province":"東京都","city":"小平市","address":"東京都小平市小川西町2丁目34-1","lat":35.73789253,"lon":139.46105684},{"name":"小平小川町一丁目東","province":"東京都","city":"小平市","address":"東京都小平市小川町1丁目1028","lat":35.73040173,"lon":139.46048498},{"name":"花小金井消防署前","province":"東京都","city":"小平市","address":"東京都小平市花小金井6丁目16","lat":35.73025861,"lon":139.50848347},{"name":"久右衛門橋北","province":"東京都","city":"小平市","address":"東京都小平市津田町2丁目1-1","lat":35.72186677,"lon":139.46597652},{"name":"小平仲宿通り","province":"東京都","city":"小平市","address":"東京都小平市小川西町3丁目18-10","lat":35.740084,"lon":139.46269271},{"name":"西部市民センター西","province":"東京都","city":"小平市","address":"東京都小平市小川西町5丁目39","lat":35.73603161,"lon":139.46009312},{"name":"上水南浄水所","province":"東京都","city":"小平市","address":"東京都小平市上水南町3丁目12-36","lat":35.71160196,"lon":139.49171079},{"name":"小川浄水所","province":"東京都","city":"小平市","address":"東京都小平市小川町1丁目847","lat":35.72563541,"lon":139.45317197},{"name":"小平市中央公民館","province":"東京都","city":"小平市","address":"小平市小川町2-1325","lat":35.728603,"lon":139.474609},{"name":"小平市立花小金井南公民館","province":"東京都","city":"小平市","address":"小平市花小金井南町2-12-6","lat":35.724243,"lon":139.51651},{"name":"小平市立花小金井北公民館","province":"東京都","city":"小平市","address":"小平市花小金井5-41-3","lat":35.734188,"lon":139.510284},{"name":"小平市立小川公民館","province":"東京都","city":"小平市","address":"小平市小川町1-1012","lat":35.725826,"lon":139.459244},{"name":"小平市立小川西町公民館","province":"東京都","city":"小平市","address":"小平市小川西町4-10-13","lat":35.735207,"lon":139.461807},{"name":"小平市立上宿公民館","province":"東京都","city":"小平市","address":"小平市小川町1-308","lat":35.731262,"lon":139.44281},{"name":"小平市立上水南公民館","province":"東京都","city":"小平市","address":"小平市上水南町1-27-1","lat":35.713055,"lon":139.483688},{"name":"小平市立大沼公民館","province":"東京都","city":"小平市","address":"小平市大沼町7-1-17","lat":35.733967,"lon":139.496414},{"name":"小平市立仲町公民館","province":"東京都","city":"小平市","address":"小平市仲町521","lat":35.730274,"lon":139.484863},{"name":"小平市立津田公民館","province":"東京都","city":"小平市","address":"小平市津田町3-11-1","lat":35.720867,"lon":139.470032},{"name":"小平市立鈴木公民館","province":"東京都","city":"小平市","address":"小平市鈴木町2-772","lat":35.722507,"lon":139.507401},{"name":"小平市大沼図書館","province":"東京都","city":"小平市","address":"小平市大沼町7-1-17","lat":35.733967,"lon":139.496414},{"name":"小平市中央図書館","province":"東京都","city":"小平市","address":"小平市小川町2-1325","lat":35.728603,"lon":139.474609},{"name":"小平市中央図書館花小金井北分室","province":"東京都","city":"小平市","address":"小平市花小金井5-41-3","lat":35.734188,"lon":139.510284},{"name":"小平市中央図書館小川分室","province":"東京都","city":"小平市","address":"小平市小川町1-1012","lat":35.725826,"lon":139.459244},{"name":"小平市中央図書館上水南分室","province":"東京都","city":"小平市","address":"小平市上水南町1-27-1","lat":35.713055,"lon":139.483688},{"name":"小平市立花小金井図書館","province":"東京都","city":"小平市","address":"小平市花小金井1-8-1","lat":35.727486,"lon":139.513535},{"name":"小平市立喜平図書館","province":"東京都","city":"小平市","address":"小平市喜平町3-3-18","lat":35.719769,"lon":139.490204},{"name":"小平市立小川西町図書館","province":"東京都","city":"小平市","address":"小平市小川西町4-10-13","lat":35.735207,"lon":139.461807},{"name":"小平市立上宿図書館","province":"東京都","city":"小平市","address":"小平市小川町1-345","lat":35.730995,"lon":139.438889},{"name":"小平市立仲町図書館","province":"東京都","city":"小平市","address":"小平市仲町145","lat":35.731598,"lon":139.483566},{"name":"小平市立津田図書館","province":"東京都","city":"小平市","address":"小平市津田町3-11-1","lat":35.720867,"lon":139.470032},{"name":"小平市鈴木遺跡資料館","province":"東京都","city":"小平市","address":"小平市鈴木町1-487-1","lat":35.718842,"lon":139.496735},{"name":"小平市平櫛田中彫刻美術館","province":"東京都","city":"小平市","address":"小平市学園西町1-7-5","lat":35.718006,"lon":139.475555},{"name":"ひのでセレモニー","province":"東京都","city":"小平市","address":"東京都小平市栄町2丁目29-11","lat":35.7336955,"lon":139.45121901},{"name":"株式会社エムエスジー葬儀の正行","province":"東京都","city":"小平市","address":"東京都小平市学園東町2丁目4-22","lat":35.72311438,"lon":139.48558585},{"name":"有限会社　小平典礼","province":"東京都","city":"小平市","address":"東京都小平市花小金井8丁目1-2","lat":35.73079452,"lon":139.5032617},{"name":"有限会社小平典礼","province":"東京都","city":"小平市","address":"東京都小平市花小金井8丁目1-2","lat":35.73079452,"lon":139.5032617},{"name":"株式会社京典","province":"東京都","city":"小平市","address":"東京都小平市小川西町4丁目33-20","lat":35.73925633,"lon":139.46327602},{"name":"有限会社岩手屋商事","province":"東京都","city":"小平市","address":"東京都小平市学園西町1丁目20-7","lat":35.72013401,"lon":139.48013645},{"name":"なかまちテラス前","province":"東京都","city":"小平市","address":"東京都小平市仲町164","lat":35.73089682,"lon":139.48542443},{"name":"喜平図書館前","province":"東京都","city":"小平市","address":"東京都小平市喜平町1丁目14-20","lat":35.71679857,"lon":139.49088286},{"name":"滝山南","province":"東京都","city":"小平市","address":"東京都小平市大沼町3丁目14-1","lat":35.7410544,"lon":139.50055593},{"name":"久右衛門橋南","province":"東京都","city":"小平市","address":"東京都小平市上水本町2丁目9-6","lat":35.72057523,"lon":139.46506832},{"name":"小平東部市民センター入口","province":"東京都","city":"小平市","address":"東京都小平市花小金井1丁目25-2","lat":35.72821456,"lon":139.51462747},{"name":"小平団地西","province":"東京都","city":"小平市","address":"東京都小平市喜平町3丁目3-4","lat":35.71766231,"lon":139.48886356},{"name":"小平合同庁舎前","province":"東京都","city":"小平市","address":"東京都小平市花小金井1丁目6-20","lat":35.7301171,"lon":139.51407743},{"name":"小平鈴木町二丁目","province":"東京都","city":"小平市","address":"東京都小平市鈴木町2丁目150","lat":35.72652021,"lon":139.51087789},{"name":"緑成会病院前","province":"東京都","city":"小平市","address":"東京都小平市小川西町4丁目12-12","lat":35.73721486,"lon":139.46164848},{"name":"小平駅南口","province":"東京都","city":"小平市","address":"東京都小平市美園町1丁目8-1","lat":35.73606018,"lon":139.48763232},{"name":"多摩済生病院入口","province":"東京都","city":"小平市","address":"東京都小平市美園町2丁目2-11","lat":35.73821829,"lon":139.48844882},{"name":"小平武道館前","province":"東京都","city":"小平市","address":"東京都小平市花小金井6丁目3-7","lat":35.73041963,"lon":139.50587815},{"name":"一橋学園駅前郵便局","province":"東京都","city":"小平市","address":"東京都小平市学園西町2丁目14-17","lat":35.72368359,"lon":139.47944193},{"name":"学園東町一丁目","province":"東京都","city":"小平市","address":"東京都小平市学園東町2丁目5-1","lat":35.72346427,"lon":139.48291385},{"name":"中央公民館前","province":"東京都","city":"小平市","address":"東京都小平市小川町2丁目1325","lat":35.72776638,"lon":139.47652812},{"name":"小平富士見橋","province":"東京都","city":"小平市","address":"東京都小平市小川西町2丁目5","lat":35.73848119,"lon":139.45588783},{"name":"ルネ小平","province":"東京都","city":"小平市","address":"東京都小平市美園町1丁目8-5","lat":35.73494087,"lon":139.48741851},{"name":"小平駅南口第三","province":"東京都","city":"小平市","address":"東京都小平市美園町1丁目6","lat":35.73709062,"lon":139.48732119},{"name":"小平市役所南","province":"東京都","city":"小平市","address":"東京都小平市学園東町1丁目19","lat":35.7267082,"lon":139.47805303},{"name":"小平障害者福祉センター前","province":"東京都","city":"小平市","address":"東京都小平市小川西町2丁目34-1","lat":35.73789253,"lon":139.46105684},{"name":"小平小川町一丁目東","province":"東京都","city":"小平市","address":"東京都小平市小川町1丁目1028","lat":35.73040173,"lon":139.46048498},{"name":"花小金井消防署前","province":"東京都","city":"小平市","address":"東京都小平市花小金井6丁目16","lat":35.73025861,"lon":139.50848347},{"name":"久右衛門橋北","province":"東京都","city":"小平市","address":"東京都小平市津田町2丁目1-1","lat":35.72186677,"lon":139.46597652},{"name":"小平仲宿通り","province":"東京都","city":"小平市","address":"東京都小平市小川西町3丁目18-10","lat":35.740084,"lon":139.46269271},{"name":"西部市民センター西","province":"東京都","city":"小平市","address":"東京都小平市小川西町5丁目39","lat":35.73603161,"lon":139.46009312},{"name":"上水南浄水所","province":"東京都","city":"小平市","address":"東京都小平市上水南町3丁目12-36","lat":35.71160196,"lon":139.49171079},{"name":"小川浄水所","province":"東京都","city":"小平市","address":"東京都小平市小川町1丁目847","lat":35.72563541,"lon":139.45317197},{"name":"小平市中央公民館","province":"東京都","city":"小平市","address":"小平市小川町2-1325","lat":35.728603,"lon":139.474609},{"name":"小平市立花小金井南公民館","province":"東京都","city":"小平市","address":"小平市花小金井南町2-12-6","lat":35.724243,"lon":139.51651},{"name":"小平市立花小金井北公民館","province":"東京都","city":"小平市","address":"小平市花小金井5-41-3","lat":35.734188,"lon":139.510284},{"name":"小平市立小川公民館","province":"東京都","city":"小平市","address":"小平市小川町1-1012","lat":35.725826,"lon":139.459244},{"name":"小平市立小川西町公民館","province":"東京都","city":"小平市","address":"小平市小川西町4-10-13","lat":35.735207,"lon":139.461807},{"name":"小平市立上宿公民館","province":"東京都","city":"小平市","address":"小平市小川町1-308","lat":35.731262,"lon":139.44281},{"name":"小平市立上水南公民館","province":"東京都","city":"小平市","address":"小平市上水南町1-27-1","lat":35.713055,"lon":139.483688},{"name":"小平市立大沼公民館","province":"東京都","city":"小平市","address":"小平市大沼町7-1-17","lat":35.733967,"lon":139.496414},{"name":"小平市立仲町公民館","province":"東京都","city":"小平市","address":"小平市仲町521","lat":35.730274,"lon":139.484863},{"name":"小平市立津田公民館","province":"東京都","city":"小平市","address":"小平市津田町3-11-1","lat":35.720867,"lon":139.470032},{"name":"小平市立鈴木公民館","province":"東京都","city":"小平市","address":"小平市鈴木町2-772","lat":35.722507,"lon":139.507401},{"name":"小平市大沼図書館","province":"東京都","city":"小平市","address":"小平市大沼町7-1-17","lat":35.733967,"lon":139.496414},{"name":"小平市中央図書館","province":"東京都","city":"小平市","address":"小平市小川町2-1325","lat":35.728603,"lon":139.474609},{"name":"小平市中央図書館花小金井北分室","province":"東京都","city":"小平市","address":"小平市花小金井5-41-3","lat":35.734188,"lon":139.510284},{"name":"小平市中央図書館小川分室","province":"東京都","city":"小平市","address":"小平市小川町1-1012","lat":35.725826,"lon":139.459244},{"name":"小平市中央図書館上水南分室","province":"東京都","city":"小平市","address":"小平市上水南町1-27-1","lat":35.713055,"lon":139.483688},{"name":"小平市立花小金井図書館","province":"東京都","city":"小平市","address":"小平市花小金井1-8-1","lat":35.727486,"lon":139.513535},{"name":"小平市立喜平図書館","province":"東京都","city":"小平市","address":"小平市喜平町3-3-18","lat":35.719769,"lon":139.490204},{"name":"小平市立小川西町図書館","province":"東京都","city":"小平市","address":"小平市小川西町4-10-13","lat":35.735207,"lon":139.461807},{"name":"小平市立上宿図書館","province":"東京都","city":"小平市","address":"小平市小川町1-345","lat":35.730995,"lon":139.438889},{"name":"小平市立仲町図書館","province":"東京都","city":"小平市","address":"小平市仲町145","lat":35.731598,"lon":139.483566},{"name":"小平市立津田図書館","province":"東京都","city":"小平市","address":"小平市津田町3-11-1","lat":35.720867,"lon":139.470032},{"name":"小平市鈴木遺跡資料館","province":"東京都","city":"小平市","address":"小平市鈴木町1-487-1","lat":35.718842,"lon":139.496735},{"name":"小平市平櫛田中彫刻美術館","province":"東京都","city":"小平市","address":"小平市学園西町1-7-5","lat":35.718006,"lon":139.475555},{"name":"ひのでセレモニー","province":"東京都","city":"小平市","address":"東京都小平市栄町2丁目29-11","lat":35.7336955,"lon":139.45121901},{"name":"株式会社エムエスジー葬儀の正行","province":"東京都","city":"小平市","address":"東京都小平市学園東町2丁目4-22","lat":35.72311438,"lon":139.48558585},{"name":"有限会社　小平典礼","province":"東京都","city":"小平市","address":"東京都小平市花小金井8丁目1-2","lat":35.73079452,"lon":139.5032617},{"name":"有限会社小平典礼","province":"東京都","city":"小平市","address":"東京都小平市花小金井8丁目1-2","lat":35.73079452,"lon":139.5032617},{"name":"株式会社京典","province":"東京都","city":"小平市","address":"東京都小平市小川西町4丁目33-20","lat":35.73925633,"lon":139.46327602},{"name":"有限会社岩手屋商事","province":"東京都","city":"小平市","address":"東京都小平市学園西町1丁目20-7","lat":35.72013401,"lon":139.48013645},{"name":"なかまちテラス前","province":"東京都","city":"小平市","address":"東京都小平市仲町164","lat":35.73089682,"lon":139.48542443},{"name":"喜平図書館前","province":"東京都","city":"小平市","address":"東京都小平市喜平町1丁目14-20","lat":35.71679857,"lon":139.49088286},{"name":"滝山南","province":"東京都","city":"小平市","address":"東京都小平市大沼町3丁目14-1","lat":35.7410544,"lon":139.50055593},{"name":"久右衛門橋南","province":"東京都","city":"小平市","address":"東京都小平市上水本町2丁目9-6","lat":35.72057523,"lon":139.46506832},{"name":"小平東部市民センター入口","province":"東京都","city":"小平市","address":"東京都小平市花小金井1丁目25-2","lat":35.72821456,"lon":139.51462747},{"name":"小平団地西","province":"東京都","city":"小平市","address":"東京都小平市喜平町3丁目3-4","lat":35.71766231,"lon":139.48886356},{"name":"小平合同庁舎前","province":"東京都","city":"小平市","address":"東京都小平市花小金井1丁目6-20","lat":35.7301171,"lon":139.51407743},{"name":"小平鈴木町二丁目","province":"東京都","city":"小平市","address":"東京都小平市鈴木町2丁目150","lat":35.72652021,"lon":139.51087789},{"name":"緑成会病院前","province":"東京都","city":"小平市","address":"東京都小平市小川西町4丁目12-12","lat":35.73721486,"lon":139.46164848},{"name":"小平駅南口","province":"東京都","city":"小平市","address":"東京都小平市美園町1丁目8-1","lat":35.73606018,"lon":139.48763232},{"name":"多摩済生病院入口","province":"東京都","city":"小平市","address":"東京都小平市美園町2丁目2-11","lat":35.73821829,"lon":139.48844882},{"name":"小平武道館前","province":"東京都","city":"小平市","address":"東京都小平市花小金井6丁目3-7","lat":35.73041963,"lon":139.50587815},{"name":"一橋学園駅前郵便局","province":"東京都","city":"小平市","address":"東京都小平市学園西町2丁目14-17","lat":35.72368359,"lon":139.47944193},{"name":"学園東町一丁目","province":"東京都","city":"小平市","address":"東京都小平市学園東町2丁目5-1","lat":35.72346427,"lon":139.48291385},{"name":"中央公民館前","province":"東京都","city":"小平市","address":"東京都小平市小川町2丁目1325","lat":35.72776638,"lon":139.47652812},{"name":"小平富士見橋","province":"東京都","city":"小平市","address":"東京都小平市小川西町2丁目5","lat":35.73848119,"lon":139.45588783},{"name":"ルネ小平","province":"東京都","city":"小平市","address":"東京都小平市美園町1丁目8-5","lat":35.73494087,"lon":139.48741851},{"name":"小平駅南口第三","province":"東京都","city":"小平市","address":"東京都小平市美園町1丁目6","lat":35.73709062,"lon":139.48732119},{"name":"小平市役所南","province":"東京都","city":"小平市","address":"東京都小平市学園東町1丁目19","lat":35.7267082,"lon":139.47805303},{"name":"小平障害者福祉センター前","province":"東京都","city":"小平市","address":"東京都小平市小川西町2丁目34-1","lat":35.73789253,"lon":139.46105684},{"name":"小平小川町一丁目東","province":"東京都","city":"小平市","address":"東京都小平市小川町1丁目1028","lat":35.73040173,"lon":139.46048498},{"name":"花小金井消防署前","province":"東京都","city":"小平市","address":"東京都小平市花小金井6丁目16","lat":35.73025861,"lon":139.50848347},{"name":"久右衛門橋北","province":"東京都","city":"小平市","address":"東京都小平市津田町2丁目1-1","lat":35.72186677,"lon":139.46597652},{"name":"小平仲宿通り","province":"東京都","city":"小平市","address":"東京都小平市小川西町3丁目18-10","lat":35.740084,"lon":139.46269271},{"name":"西部市民センター西","province":"東京都","city":"小平市","address":"東京都小平市小川西町5丁目39","lat":35.73603161,"lon":139.46009312},{"name":"上水南浄水所","province":"東京都","city":"小平市","address":"東京都小平市上水南町3丁目12-36","lat":35.71160196,"lon":139.49171079},{"name":"小川浄水所","province":"東京都","city":"小平市","address":"東京都小平市小川町1丁目847","lat":35.72563541,"lon":139.45317197},{"name":"小平市中央公民館","province":"東京都","city":"小平市","address":"小平市小川町2-1325","lat":35.728603,"lon":139.474609},{"name":"小平市立花小金井南公民館","province":"東京都","city":"小平市","address":"小平市花小金井南町2-12-6","lat":35.724243,"lon":139.51651},{"name":"小平市立花小金井北公民館","province":"東京都","city":"小平市","address":"小平市花小金井5-41-3","lat":35.734188,"lon":139.510284},{"name":"小平市立小川公民館","province":"東京都","city":"小平市","address":"小平市小川町1-1012","lat":35.725826,"lon":139.459244},{"name":"小平市立小川西町公民館","province":"東京都","city":"小平市","address":"小平市小川西町4-10-13","lat":35.735207,"lon":139.461807},{"name":"小平市立上宿公民館","province":"東京都","city":"小平市","address":"小平市小川町1-308","lat":35.731262,"lon":139.44281},{"name":"小平市立上水南公民館","province":"東京都","city":"小平市","address":"小平市上水南町1-27-1","lat":35.713055,"lon":139.483688},{"name":"小平市立大沼公民館","province":"東京都","city":"小平市","address":"小平市大沼町7-1-17","lat":35.733967,"lon":139.496414},{"name":"小平市立仲町公民館","province":"東京都","city":"小平市","address":"小平市仲町521","lat":35.730274,"lon":139.484863},{"name":"小平市立津田公民館","province":"東京都","city":"小平市","address":"小平市津田町3-11-1","lat":35.720867,"lon":139.470032},{"name":"小平市立鈴木公民館","province":"東京都","city":"小平市","address":"小平市鈴木町2-772","lat":35.722507,"lon":139.507401},{"name":"小平市大沼図書館","province":"東京都","city":"小平市","address":"小平市大沼町7-1-17","lat":35.733967,"lon":139.496414},{"name":"小平市中央図書館","province":"東京都","city":"小平市","address":"小平市小川町2-1325","lat":35.728603,"lon":139.474609},{"name":"小平市中央図書館花小金井北分室","province":"東京都","city":"小平市","address":"小平市花小金井5-41-3","lat":35.734188,"lon":139.510284},{"name":"小平市中央図書館小川分室","province":"東京都","city":"小平市","address":"小平市小川町1-1012","lat":35.725826,"lon":139.459244},{"name":"小平市中央図書館上水南分室","province":"東京都","city":"小平市","address":"小平市上水南町1-27-1","lat":35.713055,"lon":139.483688},{"name":"小平市立花小金井図書館","province":"東京都","city":"小平市","address":"小平市花小金井1-8-1","lat":35.727486,"lon":139.513535},{"name":"小平市立喜平図書館","province":"東京都","city":"小平市","address":"小平市喜平町3-3-18","lat":35.719769,"lon":139.490204},{"name":"小平市立小川西町図書館","province":"東京都","city":"小平市","address":"小平市小川西町4-10-13","lat":35.735207,"lon":139.461807},{"name":"小平市立上宿図書館","province":"東京都","city":"小平市","address":"小平市小川町1-345","lat":35.730995,"lon":139.438889},{"name":"小平市立仲町図書館","province":"東京都","city":"小平市","address":"小平市仲町145","lat":35.731598,"lon":139.483566},{"name":"小平市立津田図書館","province":"東京都","city":"小平市","address":"小平市津田町3-11-1","lat":35.720867,"lon":139.470032},{"name":"小平市鈴木遺跡資料館","province":"東京都","city":"小平市","address":"小平市鈴木町1-487-1","lat":35.718842,"lon":139.496735},{"name":"小平市平櫛田中彫刻美術館","province":"東京都","city":"小平市","address":"小平市学園西町1-7-5","lat":35.718006,"lon":139.475555},{"name":"ひのでセレモニー","province":"東京都","city":"小平市","address":"東京都小平市栄町2丁目29-11","lat":35.7336955,"lon":139.45121901},{"name":"株式会社エムエスジー葬儀の正行","province":"東京都","city":"小平市","address":"東京都小平市学園東町2丁目4-22","lat":35.72311438,"lon":139.48558585},{"name":"有限会社　小平典礼","province":"東京都","city":"小平市","address":"東京都小平市花小金井8丁目1-2","lat":35.73079452,"lon":139.5032617},{"name":"有限会社小平典礼","province":"東京都","city":"小平市","address":"東京都小平市花小金井8丁目1-2","lat":35.73079452,"lon":139.5032617},{"name":"株式会社京典","province":"東京都","city":"小平市","address":"東京都小平市小川西町4丁目33-20","lat":35.73925633,"lon":139.46327602},{"name":"有限会社岩手屋商事","province":"東京都","city":"小平市","address":"東京都小平市学園西町1丁目20-7","lat":35.72013401,"lon":139.48013645},{"name":"なかまちテラス前","province":"東京都","city":"小平市","address":"東京都小平市仲町164","lat":35.73089682,"lon":139.48542443},{"name":"喜平図書館前","province":"東京都","city":"小平市","address":"東京都小平市喜平町1丁目14-20","lat":35.71679857,"lon":139.49088286},{"name":"滝山南","province":"東京都","city":"小平市","address":"東京都小平市大沼町3丁目14-1","lat":35.7410544,"lon":139.50055593},{"name":"久右衛門橋南","province":"東京都","city":"小平市","address":"東京都小平市上水本町2丁目9-6","lat":35.72057523,"lon":139.46506832},{"name":"小平東部市民センター入口","province":"東京都","city":"小平市","address":"東京都小平市花小金井1丁目25-2","lat":35.72821456,"lon":139.51462747},{"name":"小平団地西","province":"東京都","city":"小平市","address":"東京都小平市喜平町3丁目3-4","lat":35.71766231,"lon":139.48886356},{"name":"小平合同庁舎前","province":"東京都","city":"小平市","address":"東京都小平市花小金井1丁目6-20","lat":35.7301171,"lon":139.51407743},{"name":"小平鈴木町二丁目","province":"東京都","city":"小平市","address":"東京都小平市鈴木町2丁目150","lat":35.72652021,"lon":139.51087789},{"name":"緑成会病院前","province":"東京都","city":"小平市","address":"東京都小平市小川西町4丁目12-12","lat":35.73721486,"lon":139.46164848},{"name":"小平駅南口","province":"東京都","city":"小平市","address":"東京都小平市美園町1丁目8-1","lat":35.73606018,"lon":139.48763232},{"name":"多摩済生病院入口","province":"東京都","city":"小平市","address":"東京都小平市美園町2丁目2-11","lat":35.73821829,"lon":139.48844882},{"name":"小平武道館前","province":"東京都","city":"小平市","address":"東京都小平市花小金井6丁目3-7","lat":35.73041963,"lon":139.50587815},{"name":"一橋学園駅前郵便局","province":"東京都","city":"小平市","address":"東京都小平市学園西町2丁目14-17","lat":35.72368359,"lon":139.47944193},{"name":"学園東町一丁目","province":"東京都","city":"小平市","address":"東京都小平市学園東町2丁目5-1","lat":35.72346427,"lon":139.48291385},{"name":"中央公民館前","province":"東京都","city":"小平市","address":"東京都小平市小川町2丁目1325","lat":35.72776638,"lon":139.47652812},{"name":"小平富士見橋","province":"東京都","city":"小平市","address":"東京都小平市小川西町2丁目5","lat":35.73848119,"lon":139.45588783},{"name":"ルネ小平","province":"東京都","city":"小平市","address":"東京都小平市美園町1丁目8-5","lat":35.73494087,"lon":139.48741851},{"name":"小平駅南口第三","province":"東京都","city":"小平市","address":"東京都小平市美園町1丁目6","lat":35.73709062,"lon":139.48732119},{"name":"小平市役所南","province":"東京都","city":"小平市","address":"東京都小平市学園東町1丁目19","lat":35.7267082,"lon":139.47805303},{"name":"小平障害者福祉センター前","province":"東京都","city":"小平市","address":"東京都小平市小川西町2丁目34-1","lat":35.73789253,"lon":139.46105684},{"name":"小平小川町一丁目東","province":"東京都","city":"小平市","address":"東京都小平市小川町1丁目1028","lat":35.73040173,"lon":139.46048498},{"name":"花小金井消防署前","province":"東京都","city":"小平市","address":"東京都小平市花小金井6丁目16","lat":35.73025861,"lon":139.50848347},{"name":"久右衛門橋北","province":"東京都","city":"小平市","address":"東京都小平市津田町2丁目1-1","lat":35.72186677,"lon":139.46597652},{"name":"小平仲宿通り","province":"東京都","city":"小平市","address":"東京都小平市小川西町3丁目18-10","lat":35.740084,"lon":139.46269271},{"name":"西部市民センター西","province":"東京都","city":"小平市","address":"東京都小平市小川西町5丁目39","lat":35.73603161,"lon":139.46009312},{"name":"上水南浄水所","province":"東京都","city":"小平市","address":"東京都小平市上水南町3丁目12-36","lat":35.71160196,"lon":139.49171079},{"name":"小川浄水所","province":"東京都","city":"小平市","address":"東京都小平市小川町1丁目847","lat":35.72563541,"lon":139.45317197},{"name":"小平市中央公民館","province":"東京都","city":"小平市","address":"小平市小川町2-1325","lat":35.728603,"lon":139.474609},{"name":"小平市立花小金井南公民館","province":"東京都","city":"小平市","address":"小平市花小金井南町2-12-6","lat":35.724243,"lon":139.51651},{"name":"小平市立花小金井北公民館","province":"東京都","city":"小平市","address":"小平市花小金井5-41-3","lat":35.734188,"lon":139.510284},{"name":"小平市立小川公民館","province":"東京都","city":"小平市","address":"小平市小川町1-1012","lat":35.725826,"lon":139.459244},{"name":"小平市立小川西町公民館","province":"東京都","city":"小平市","address":"小平市小川西町4-10-13","lat":35.735207,"lon":139.461807},{"name":"小平市立上宿公民館","province":"東京都","city":"小平市","address":"小平市小川町1-308","lat":35.731262,"lon":139.44281},{"name":"小平市立上水南公民館","province":"東京都","city":"小平市","address":"小平市上水南町1-27-1","lat":35.713055,"lon":139.483688},{"name":"小平市立大沼公民館","province":"東京都","city":"小平市","address":"小平市大沼町7-1-17","lat":35.733967,"lon":139.496414},{"name":"小平市立仲町公民館","province":"東京都","city":"小平市","address":"小平市仲町521","lat":35.730274,"lon":139.484863},{"name":"小平市立津田公民館","province":"東京都","city":"小平市","address":"小平市津田町3-11-1","lat":35.720867,"lon":139.470032},{"name":"小平市立鈴木公民館","province":"東京都","city":"小平市","address":"小平市鈴木町2-772","lat":35.722507,"lon":139.507401},{"name":"小平市大沼図書館","province":"東京都","city":"小平市","address":"小平市大沼町7-1-17","lat":35.733967,"lon":139.496414},{"name":"小平市中央図書館","province":"東京都","city":"小平市","address":"小平市小川町2-1325","lat":35.728603,"lon":139.474609},{"name":"小平市中央図書館花小金井北分室","province":"東京都","city":"小平市","address":"小平市花小金井5-41-3","lat":35.734188,"lon":139.510284},{"name":"小平市中央図書館小川分室","province":"東京都","city":"小平市","address":"小平市小川町1-1012","lat":35.725826,"lon":139.459244},{"name":"小平市中央図書館上水南分室","province":"東京都","city":"小平市","address":"小平市上水南町1-27-1","lat":35.713055,"lon":139.483688},{"name":"小平市立花小金井図書館","province":"東京都","city":"小平市","address":"小平市花小金井1-8-1","lat":35.727486,"lon":139.513535},{"name":"小平市立喜平図書館","province":"東京都","city":"小平市","address":"小平市喜平町3-3-18","lat":35.719769,"lon":139.490204},{"name":"小平市立小川西町図書館","province":"東京都","city":"小平市","address":"小平市小川西町4-10-13","lat":35.735207,"lon":139.461807},{"name":"小平市立上宿図書館","province":"東京都","city":"小平市","address":"小平市小川町1-345","lat":35.730995,"lon":139.438889},{"name":"小平市立仲町図書館","province":"東京都","city":"小平市","address":"小平市仲町145","lat":35.731598,"lon":139.483566},{"name":"小平市立津田図書館","province":"東京都","city":"小平市","address":"小平市津田町3-11-1","lat":35.720867,"lon":139.470032},{"name":"小平市鈴木遺跡資料館","province":"東京都","city":"小平市","address":"小平市鈴木町1-487-1","lat":35.718842,"lon":139.496735},{"name":"小平市平櫛田中彫刻美術館","province":"東京都","city":"小平市","address":"小平市学園西町1-7-5","lat":35.718006,"lon":139.475555},{"name":"ひのでセレモニー","province":"東京都","city":"小平市","address":"東京都小平市栄町2丁目29-11","lat":35.7336955,"lon":139.45121901},{"name":"株式会社エムエスジー葬儀の正行","province":"東京都","city":"小平市","address":"東京都小平市学園東町2丁目4-22","lat":35.72311438,"lon":139.48558585},{"name":"有限会社　小平典礼","province":"東京都","city":"小平市","address":"東京都小平市花小金井8丁目1-2","lat":35.73079452,"lon":139.5032617},{"name":"有限会社小平典礼","province":"東京都","city":"小平市","address":"東京都小平市花小金井8丁目1-2","lat":35.73079452,"lon":139.5032617},{"name":"株式会社京典","province":"東京都","city":"小平市","address":"東京都小平市小川西町4丁目33-20","lat":35.73925633,"lon":139.46327602},{"name":"有限会社岩手屋商事","province":"東京都","city":"小平市","address":"東京都小平市学園西町1丁目20-7","lat":35.72013401,"lon":139.48013645},{"name":"なかまちテラス前","province":"東京都","city":"小平市","address":"東京都小平市仲町164","lat":35.73089682,"lon":139.48542443},{"name":"喜平図書館前","province":"東京都","city":"小平市","address":"東京都小平市喜平町1丁目14-20","lat":35.71679857,"lon":139.49088286},{"name":"滝山南","province":"東京都","city":"小平市","address":"東京都小平市大沼町3丁目14-1","lat":35.7410544,"lon":139.50055593},{"name":"久右衛門橋南","province":"東京都","city":"小平市","address":"東京都小平市上水本町2丁目9-6","lat":35.72057523,"lon":139.46506832},{"name":"小平東部市民センター入口","province":"東京都","city":"小平市","address":"東京都小平市花小金井1丁目25-2","lat":35.72821456,"lon":139.51462747},{"name":"小平団地西","province":"東京都","city":"小平市","address":"東京都小平市喜平町3丁目3-4","lat":35.71766231,"lon":139.48886356},{"name":"小平合同庁舎前","province":"東京都","city":"小平市","address":"東京都小平市花小金井1丁目6-20","lat":35.7301171,"lon":139.51407743},{"name":"小平鈴木町二丁目","province":"東京都","city":"小平市","address":"東京都小平市鈴木町2丁目150","lat":35.72652021,"lon":139.51087789},{"name":"緑成会病院前","province":"東京都","city":"小平市","address":"東京都小平市小川西町4丁目12-12","lat":35.73721486,"lon":139.46164848},{"name":"小平駅南口","province":"東京都","city":"小平市","address":"東京都小平市美園町1丁目8-1","lat":35.73606018,"lon":139.48763232},{"name":"多摩済生病院入口","province":"東京都","city":"小平市","address":"東京都小平市美園町2丁目2-11","lat":35.73821829,"lon":139.48844882},{"name":"小平武道館前","province":"東京都","city":"小平市","address":"東京都小平市花小金井6丁目3-7","lat":35.73041963,"lon":139.50587815},{"name":"一橋学園駅前郵便局","province":"東京都","city":"小平市","address":"東京都小平市学園西町2丁目14-17","lat":35.72368359,"lon":139.47944193},{"name":"学園東町一丁目","province":"東京都","city":"小平市","address":"東京都小平市学園東町2丁目5-1","lat":35.72346427,"lon":139.48291385},{"name":"中央公民館前","province":"東京都","city":"小平市","address":"東京都小平市小川町2丁目1325","lat":35.72776638,"lon":139.47652812},{"name":"小平富士見橋","province":"東京都","city":"小平市","address":"東京都小平市小川西町2丁目5","lat":35.73848119,"lon":139.45588783},{"name":"ルネ小平","province":"東京都","city":"小平市","address":"東京都小平市美園町1丁目8-5","lat":35.73494087,"lon":139.48741851},{"name":"小平駅南口第三","province":"東京都","city":"小平市","address":"東京都小平市美園町1丁目6","lat":35.73709062,"lon":139.48732119},{"name":"小平市役所南","province":"東京都","city":"小平市","address":"東京都小平市学園東町1丁目19","lat":35.7267082,"lon":139.47805303},{"name":"小平障害者福祉センター前","province":"東京都","city":"小平市","address":"東京都小平市小川西町2丁目34-1","lat":35.73789253,"lon":139.46105684},{"name":"小平小川町一丁目東","province":"東京都","city":"小平市","address":"東京都小平市小川町1丁目1028","lat":35.73040173,"lon":139.46048498},{"name":"花小金井消防署前","province":"東京都","city":"小平市","address":"東京都小平市花小金井6丁目16","lat":35.73025861,"lon":139.50848347},{"name":"久右衛門橋北","province":"東京都","city":"小平市","address":"東京都小平市津田町2丁目1-1","lat":35.72186677,"lon":139.46597652},{"name":"小平仲宿通り","province":"東京都","city":"小平市","address":"東京都小平市小川西町3丁目18-10","lat":35.740084,"lon":139.46269271},{"name":"西部市民センター西","province":"東京都","city":"小平市","address":"東京都小平市小川西町5丁目39","lat":35.73603161,"lon":139.46009312},{"name":"上水南浄水所","province":"東京都","city":"小平市","address":"東京都小平市上水南町3丁目12-36","lat":35.71160196,"lon":139.49171079},{"name":"小川浄水所","province":"東京都","city":"小平市","address":"東京都小平市小川町1丁目847","lat":35.72563541,"lon":139.45317197},{"name":"小平市中央公民館","province":"東京都","city":"小平市","address":"小平市小川町2-1325","lat":35.728603,"lon":139.474609},{"name":"小平市立花小金井南公民館","province":"東京都","city":"小平市","address":"小平市花小金井南町2-12-6","lat":35.724243,"lon":139.51651},{"name":"小平市立花小金井北公民館","province":"東京都","city":"小平市","address":"小平市花小金井5-41-3","lat":35.734188,"lon":139.510284},{"name":"小平市立小川公民館","province":"東京都","city":"小平市","address":"小平市小川町1-1012","lat":35.725826,"lon":139.459244},{"name":"小平市立小川西町公民館","province":"東京都","city":"小平市","address":"小平市小川西町4-10-13","lat":35.735207,"lon":139.461807},{"name":"小平市立上宿公民館","province":"東京都","city":"小平市","address":"小平市小川町1-308","lat":35.731262,"lon":139.44281},{"name":"小平市立上水南公民館","province":"東京都","city":"小平市","address":"小平市上水南町1-27-1","lat":35.713055,"lon":139.483688},{"name":"小平市立大沼公民館","province":"東京都","city":"小平市","address":"小平市大沼町7-1-17","lat":35.733967,"lon":139.496414},{"name":"小平市立仲町公民館","province":"東京都","city":"小平市","address":"小平市仲町521","lat":35.730274,"lon":139.484863},{"name":"小平市立津田公民館","province":"東京都","city":"小平市","address":"小平市津田町3-11-1","lat":35.720867,"lon":139.470032},{"name":"小平市立鈴木公民館","province":"東京都","city":"小平市","address":"小平市鈴木町2-772","lat":35.722507,"lon":139.507401},{"name":"小平市大沼図書館","province":"東京都","city":"小平市","address":"小平市大沼町7-1-17","lat":35.733967,"lon":139.496414},{"name":"小平市中央図書館","province":"東京都","city":"小平市","address":"小平市小川町2-1325","lat":35.728603,"lon":139.474609},{"name":"小平市中央図書館花小金井北分室","province":"東京都","city":"小平市","address":"小平市花小金井5-41-3","lat":35.734188,"lon":139.510284},{"name":"小平市中央図書館小川分室","province":"東京都","city":"小平市","address":"小平市小川町1-1012","lat":35.725826,"lon":139.459244},{"name":"小平市中央図書館上水南分室","province":"東京都","city":"小平市","address":"小平市上水南町1-27-1","lat":35.713055,"lon":139.483688},{"name":"小平市立花小金井図書館","province":"東京都","city":"小平市","address":"小平市花小金井1-8-1","lat":35.727486,"lon":139.513535},{"name":"小平市立喜平図書館","province":"東京都","city":"小平市","address":"小平市喜平町3-3-18","lat":35.719769,"lon":139.490204},{"name":"小平市立小川西町図書館","province":"東京都","city":"小平市","address":"小平市小川西町4-10-13","lat":35.735207,"lon":139.461807},{"name":"小平市立上宿図書館","province":"東京都","city":"小平市","address":"小平市小川町1-345","lat":35.730995,"lon":139.438889},{"name":"小平市立仲町図書館","province":"東京都","city":"小平市","address":"小平市仲町145","lat":35.731598,"lon":139.483566},{"name":"小平市立津田図書館","province":"東京都","city":"小平市","address":"小平市津田町3-11-1","lat":35.720867,"lon":139.470032},{"name":"小平市鈴木遺跡資料館","province":"東京都","city":"小平市","address":"小平市鈴木町1-487-1","lat":35.718842,"lon":139.496735},{"name":"小平市平櫛田中彫刻美術館","province":"東京都","city":"小平市","address":"小平市学園西町1-7-5","lat":35.718006,"lon":139.475555},{"name":"ひのでセレモニー","province":"東京都","city":"小平市","address":"東京都小平市栄町2丁目29-11","lat":35.7336955,"lon":139.45121901},{"name":"株式会社エムエスジー葬儀の正行","province":"東京都","city":"小平市","address":"東京都小平市学園東町2丁目4-22","lat":35.72311438,"lon":139.48558585},{"name":"有限会社　小平典礼","province":"東京都","city":"小平市","address":"東京都小平市花小金井8丁目1-2","lat":35.73079452,"lon":139.5032617},{"name":"有限会社小平典礼","province":"東京都","city":"小平市","address":"東京都小平市花小金井8丁目1-2","lat":35.73079452,"lon":139.5032617},{"name":"株式会社京典","province":"東京都","city":"小平市","address":"東京都小平市小川西町4丁目33-20","lat":35.73925633,"lon":139.46327602},{"name":"有限会社岩手屋商事","province":"東京都","city":"小平市","address":"東京都小平市学園西町1丁目20-7","lat":35.72013401,"lon":139.48013645},{"name":"なかまちテラス前","province":"東京都","city":"小平市","address":"東京都小平市仲町164","lat":35.73089682,"lon":139.48542443},{"name":"喜平図書館前","province":"東京都","city":"小平市","address":"東京都小平市喜平町1丁目14-20","lat":35.71679857,"lon":139.49088286},{"name":"滝山南","province":"東京都","city":"小平市","address":"東京都小平市大沼町3丁目14-1","lat":35.7410544,"lon":139.50055593},{"name":"久右衛門橋南","province":"東京都","city":"小平市","address":"東京都小平市上水本町2丁目9-6","lat":35.72057523,"lon":139.46506832},{"name":"小平東部市民センター入口","province":"東京都","city":"小平市","address":"東京都小平市花小金井1丁目25-2","lat":35.72821456,"lon":139.51462747},{"name":"小平団地西","province":"東京都","city":"小平市","address":"東京都小平市喜平町3丁目3-4","lat":35.71766231,"lon":139.48886356},{"name":"小平合同庁舎前","province":"東京都","city":"小平市","address":"東京都小平市花小金井1丁目6-20","lat":35.7301171,"lon":139.51407743},{"name":"小平鈴木町二丁目","province":"東京都","city":"小平市","address":"東京都小平市鈴木町2丁目150","lat":35.72652021,"lon":139.51087789},{"name":"緑成会病院前","province":"東京都","city":"小平市","address":"東京都小平市小川西町4丁目12-12","lat":35.73721486,"lon":139.46164848},{"name":"小平駅南口","province":"東京都","city":"小平市","address":"東京都小平市美園町1丁目8-1","lat":35.73606018,"lon":139.48763232},{"name":"多摩済生病院入口","province":"東京都","city":"小平市","address":"東京都小平市美園町2丁目2-11","lat":35.73821829,"lon":139.48844882},{"name":"小平武道館前","province":"東京都","city":"小平市","address":"東京都小平市花小金井6丁目3-7","lat":35.73041963,"lon":139.50587815},{"name":"一橋学園駅前郵便局","province":"東京都","city":"小平市","address":"東京都小平市学園西町2丁目14-17","lat":35.72368359,"lon":139.47944193},{"name":"学園東町一丁目","province":"東京都","city":"小平市","address":"東京都小平市学園東町2丁目5-1","lat":35.72346427,"lon":139.48291385},{"name":"中央公民館前","province":"東京都","city":"小平市","address":"東京都小平市小川町2丁目1325","lat":35.72776638,"lon":139.47652812},{"name":"小平富士見橋","province":"東京都","city":"小平市","address":"東京都小平市小川西町2丁目5","lat":35.73848119,"lon":139.45588783},{"name":"ルネ小平","province":"東京都","city":"小平市","address":"東京都小平市美園町1丁目8-5","lat":35.73494087,"lon":139.48741851},{"name":"小平駅南口第三","province":"東京都","city":"小平市","address":"東京都小平市美園町1丁目6","lat":35.73709062,"lon":139.48732119},{"name":"小平市役所南","province":"東京都","city":"小平市","address":"東京都小平市学園東町1丁目19","lat":35.7267082,"lon":139.47805303},{"name":"小平障害者福祉センター前","province":"東京都","city":"小平市","address":"東京都小平市小川西町2丁目34-1","lat":35.73789253,"lon":139.46105684},{"name":"小平小川町一丁目東","province":"東京都","city":"小平市","address":"東京都小平市小川町1丁目1028","lat":35.73040173,"lon":139.46048498},{"name":"花小金井消防署前","province":"東京都","city":"小平市","address":"東京都小平市花小金井6丁目16","lat":35.73025861,"lon":139.50848347},{"name":"久右衛門橋北","province":"東京都","city":"小平市","address":"東京都小平市津田町2丁目1-1","lat":35.72186677,"lon":139.46597652},{"name":"小平仲宿通り","province":"東京都","city":"小平市","address":"東京都小平市小川西町3丁目18-10","lat":35.740084,"lon":139.46269271},{"name":"西部市民センター西","province":"東京都","city":"小平市","address":"東京都小平市小川西町5丁目39","lat":35.73603161,"lon":139.46009312},{"name":"上水南浄水所","province":"東京都","city":"小平市","address":"東京都小平市上水南町3丁目12-36","lat":35.71160196,"lon":139.49171079},{"name":"小川浄水所","province":"東京都","city":"小平市","address":"東京都小平市小川町1丁目847","lat":35.72563541,"lon":139.45317197},{"name":"小平市中央公民館","province":"東京都","city":"小平市","address":"小平市小川町2-1325","lat":35.728603,"lon":139.474609},{"name":"小平市立花小金井南公民館","province":"東京都","city":"小平市","address":"小平市花小金井南町2-12-6","lat":35.724243,"lon":139.51651},{"name":"小平市立花小金井北公民館","province":"東京都","city":"小平市","address":"小平市花小金井5-41-3","lat":35.734188,"lon":139.510284},{"name":"小平市立小川公民館","province":"東京都","city":"小平市","address":"小平市小川町1-1012","lat":35.725826,"lon":139.459244},{"name":"小平市立小川西町公民館","province":"東京都","city":"小平市","address":"小平市小川西町4-10-13","lat":35.735207,"lon":139.461807},{"name":"小平市立上宿公民館","province":"東京都","city":"小平市","address":"小平市小川町1-308","lat":35.731262,"lon":139.44281},{"name":"小平市立上水南公民館","province":"東京都","city":"小平市","address":"小平市上水南町1-27-1","lat":35.713055,"lon":139.483688},{"name":"小平市立大沼公民館","province":"東京都","city":"小平市","address":"小平市大沼町7-1-17","lat":35.733967,"lon":139.496414},{"name":"小平市立仲町公民館","province":"東京都","city":"小平市","address":"小平市仲町521","lat":35.730274,"lon":139.484863},{"name":"小平市立津田公民館","province":"東京都","city":"小平市","address":"小平市津田町3-11-1","lat":35.720867,"lon":139.470032},{"name":"小平市立鈴木公民館","province":"東京都","city":"小平市","address":"小平市鈴木町2-772","lat":35.722507,"lon":139.507401},{"name":"小平市大沼図書館","province":"東京都","city":"小平市","address":"小平市大沼町7-1-17","lat":35.733967,"lon":139.496414},{"name":"小平市中央図書館","province":"東京都","city":"小平市","address":"小平市小川町2-1325","lat":35.728603,"lon":139.474609},{"name":"小平市中央図書館花小金井北分室","province":"東京都","city":"小平市","address":"小平市花小金井5-41-3","lat":35.734188,"lon":139.510284},{"name":"小平市中央図書館小川分室","province":"東京都","city":"小平市","address":"小平市小川町1-1012","lat":35.725826,"lon":139.459244},{"name":"小平市中央図書館上水南分室","province":"東京都","city":"小平市","address":"小平市上水南町1-27-1","lat":35.713055,"lon":139.483688},{"name":"小平市立花小金井図書館","province":"東京都","city":"小平市","address":"小平市花小金井1-8-1","lat":35.727486,"lon":139.513535},{"name":"小平市立喜平図書館","province":"東京都","city":"小平市","address":"小平市喜平町3-3-18","lat":35.719769,"lon":139.490204},{"name":"小平市立小川西町図書館","province":"東京都","city":"小平市","address":"小平市小川西町4-10-13","lat":35.735207,"lon":139.461807},{"name":"小平市立上宿図書館","province":"東京都","city":"小平市","address":"小平市小川町1-345","lat":35.730995,"lon":139.438889},{"name":"小平市立仲町図書館","province":"東京都","city":"小平市","address":"小平市仲町145","lat":35.731598,"lon":139.483566},{"name":"小平市立津田図書館","province":"東京都","city":"小平市","address":"小平市津田町3-11-1","lat":35.720867,"lon":139.470032},{"name":"小平市鈴木遺跡資料館","province":"東京都","city":"小平市","address":"小平市鈴木町1-487-1","lat":35.718842,"lon":139.496735},{"name":"小平市平櫛田中彫刻美術館","province":"東京都","city":"小平市","address":"小平市学園西町1-7-5","lat":35.718006,"lon":139.475555},{"name":"ひのでセレモニー","province":"東京都","city":"小平市","address":"東京都小平市栄町2丁目29-11","lat":35.7336955,"lon":139.45121901},{"name":"株式会社エムエスジー葬儀の正行","province":"東京都","city":"小平市","address":"東京都小平市学園東町2丁目4-22","lat":35.72311438,"lon":139.48558585},{"name":"有限会社　小平典礼","province":"東京都","city":"小平市","address":"東京都小平市花小金井8丁目1-2","lat":35.73079452,"lon":139.5032617},{"name":"有限会社小平典礼","province":"東京都","city":"小平市","address":"東京都小平市花小金井8丁目1-2","lat":35.73079452,"lon":139.5032617},{"name":"株式会社京典","province":"東京都","city":"小平市","address":"東京都小平市小川西町4丁目33-20","lat":35.73925633,"lon":139.46327602},{"name":"有限会社岩手屋商事","province":"東京都","city":"小平市","address":"東京都小平市学園西町1丁目20-7","lat":35.72013401,"lon":139.48013645},{"name":"なかまちテラス前","province":"東京都","city":"小平市","address":"東京都小平市仲町164","lat":35.73089682,"lon":139.48542443},{"name":"喜平図書館前","province":"東京都","city":"小平市","address":"東京都小平市喜平町1丁目14-20","lat":35.71679857,"lon":139.49088286},{"name":"滝山南","province":"東京都","city":"小平市","address":"東京都小平市大沼町3丁目14-1","lat":35.7410544,"lon":139.50055593},{"name":"久右衛門橋南","province":"東京都","city":"小平市","address":"東京都小平市上水本町2丁目9-6","lat":35.72057523,"lon":139.46506832},{"name":"小平東部市民センター入口","province":"東京都","city":"小平市","address":"東京都小平市花小金井1丁目25-2","lat":35.72821456,"lon":139.51462747},{"name":"小平団地西","province":"東京都","city":"小平市","address":"東京都小平市喜平町3丁目3-4","lat":35.71766231,"lon":139.48886356},{"name":"小平合同庁舎前","province":"東京都","city":"小平市","address":"東京都小平市花小金井1丁目6-20","lat":35.7301171,"lon":139.51407743},{"name":"小平鈴木町二丁目","province":"東京都","city":"小平市","address":"東京都小平市鈴木町2丁目150","lat":35.72652021,"lon":139.51087789},{"name":"緑成会病院前","province":"東京都","city":"小平市","address":"東京都小平市小川西町4丁目12-12","lat":35.73721486,"lon":139.46164848},{"name":"小平駅南口","province":"東京都","city":"小平市","address":"東京都小平市美園町1丁目8-1","lat":35.73606018,"lon":139.48763232},{"name":"多摩済生病院入口","province":"東京都","city":"小平市","address":"東京都小平市美園町2丁目2-11","lat":35.73821829,"lon":139.48844882},{"name":"小平武道館前","province":"東京都","city":"小平市","address":"東京都小平市花小金井6丁目3-7","lat":35.73041963,"lon":139.50587815},{"name":"一橋学園駅前郵便局","province":"東京都","city":"小平市","address":"東京都小平市学園西町2丁目14-17","lat":35.72368359,"lon":139.47944193},{"name":"学園東町一丁目","province":"東京都","city":"小平市","address":"東京都小平市学園東町2丁目5-1","lat":35.72346427,"lon":139.48291385},{"name":"中央公民館前","province":"東京都","city":"小平市","address":"東京都小平市小川町2丁目1325","lat":35.72776638,"lon":139.47652812},{"name":"小平富士見橋","province":"東京都","city":"小平市","address":"東京都小平市小川西町2丁目5","lat":35.73848119,"lon":139.45588783},{"name":"ルネ小平","province":"東京都","city":"小平市","address":"東京都小平市美園町1丁目8-5","lat":35.73494087,"lon":139.48741851},{"name":"小平駅南口第三","province":"東京都","city":"小平市","address":"東京都小平市美園町1丁目6","lat":35.73709062,"lon":139.48732119},{"name":"小平市役所南","province":"東京都","city":"小平市","address":"東京都小平市学園東町1丁目19","lat":35.7267082,"lon":139.47805303},{"name":"小平障害者福祉センター前","province":"東京都","city":"小平市","address":"東京都小平市小川西町2丁目34-1","lat":35.73789253,"lon":139.46105684},{"name":"小平小川町一丁目東","province":"東京都","city":"小平市","address":"東京都小平市小川町1丁目1028","lat":35.73040173,"lon":139.46048498},{"name":"花小金井消防署前","province":"東京都","city":"小平市","address":"東京都小平市花小金井6丁目16","lat":35.73025861,"lon":139.50848347},{"name":"久右衛門橋北","province":"東京都","city":"小平市","address":"東京都小平市津田町2丁目1-1","lat":35.72186677,"lon":139.46597652},{"name":"小平仲宿通り","province":"東京都","city":"小平市","address":"東京都小平市小川西町3丁目18-10","lat":35.740084,"lon":139.46269271},{"name":"西部市民センター西","province":"東京都","city":"小平市","address":"東京都小平市小川西町5丁目39","lat":35.73603161,"lon":139.46009312},{"name":"上水南浄水所","province":"東京都","city":"小平市","address":"東京都小平市上水南町3丁目12-36","lat":35.71160196,"lon":139.49171079},{"name":"小川浄水所","province":"東京都","city":"小平市","address":"東京都小平市小川町1丁目847","lat":35.72563541,"lon":139.45317197},{"name":"小平市中央公民館","province":"東京都","city":"小平市","address":"小平市小川町2-1325","lat":35.728603,"lon":139.474609},{"name":"小平市立花小金井南公民館","province":"東京都","city":"小平市","address":"小平市花小金井南町2-12-6","lat":35.724243,"lon":139.51651},{"name":"小平市立花小金井北公民館","province":"東京都","city":"小平市","address":"小平市花小金井5-41-3","lat":35.734188,"lon":139.510284},{"name":"小平市立小川公民館","province":"東京都","city":"小平市","address":"小平市小川町1-1012","lat":35.725826,"lon":139.459244},{"name":"小平市立小川西町公民館","province":"東京都","city":"小平市","address":"小平市小川西町4-10-13","lat":35.735207,"lon":139.461807},{"name":"小平市立上宿公民館","province":"東京都","city":"小平市","address":"小平市小川町1-308","lat":35.731262,"lon":139.44281},{"name":"小平市立上水南公民館","province":"東京都","city":"小平市","address":"小平市上水南町1-27-1","lat":35.713055,"lon":139.483688},{"name":"小平市立大沼公民館","province":"東京都","city":"小平市","address":"小平市大沼町7-1-17","lat":35.733967,"lon":139.496414},{"name":"小平市立仲町公民館","province":"東京都","city":"小平市","address":"小平市仲町521","lat":35.730274,"lon":139.484863},{"name":"小平市立津田公民館","province":"東京都","city":"小平市","address":"小平市津田町3-11-1","lat":35.720867,"lon":139.470032},{"name":"小平市立鈴木公民館","province":"東京都","city":"小平市","address":"小平市鈴木町2-772","lat":35.722507,"lon":139.507401},{"name":"小平市大沼図書館","province":"東京都","city":"小平市","address":"小平市大沼町7-1-17","lat":35.733967,"lon":139.496414},{"name":"小平市中央図書館","province":"東京都","city":"小平市","address":"小平市小川町2-1325","lat":35.728603,"lon":139.474609},{"name":"小平市中央図書館花小金井北分室","province":"東京都","city":"小平市","address":"小平市花小金井5-41-3","lat":35.734188,"lon":139.510284},{"name":"小平市中央図書館小川分室","province":"東京都","city":"小平市","address":"小平市小川町1-1012","lat":35.725826,"lon":139.459244},{"name":"小平市中央図書館上水南分室","province":"東京都","city":"小平市","address":"小平市上水南町1-27-1","lat":35.713055,"lon":139.483688},{"name":"小平市立花小金井図書館","province":"東京都","city":"小平市","address":"小平市花小金井1-8-1","lat":35.727486,"lon":139.513535},{"name":"小平市立喜平図書館","province":"東京都","city":"小平市","address":"小平市喜平町3-3-18","lat":35.719769,"lon":139.490204},{"name":"小平市立小川西町図書館","province":"東京都","city":"小平市","address":"小平市小川西町4-10-13","lat":35.735207,"lon":139.461807},{"name":"小平市立上宿図書館","province":"東京都","city":"小平市","address":"小平市小川町1-345","lat":35.730995,"lon":139.438889},{"name":"小平市立仲町図書館","province":"東京都","city":"小平市","address":"小平市仲町145","lat":35.731598,"lon":139.483566},{"name":"小平市立津田図書館","province":"東京都","city":"小平市","address":"小平市津田町3-11-1","lat":35.720867,"lon":139.470032},{"name":"小平市鈴木遺跡資料館","province":"東京都","city":"小平市","address":"小平市鈴木町1-487-1","lat":35.718842,"lon":139.496735},{"name":"小平市平櫛田中彫刻美術館","province":"東京都","city":"小平市","address":"小平市学園西町1-7-5","lat":35.718006,"lon":139.475555},{"name":"ひのでセレモニー","province":"東京都","city":"小平市","address":"東京都小平市栄町2丁目29-11","lat":35.7336955,"lon":139.45121901},{"name":"株式会社エムエスジー葬儀の正行","province":"東京都","city":"小平市","address":"東京都小平市学園東町2丁目4-22","lat":35.72311438,"lon":139.48558585},{"name":"有限会社　小平典礼","province":"東京都","city":"小平市","address":"東京都小平市花小金井8丁目1-2","lat":35.73079452,"lon":139.5032617},{"name":"有限会社小平典礼","province":"東京都","city":"小平市","address":"東京都小平市花小金井8丁目1-2","lat":35.73079452,"lon":139.5032617},{"name":"株式会社京典","province":"東京都","city":"小平市","address":"東京都小平市小川西町4丁目33-20","lat":35.73925633,"lon":139.46327602},{"name":"有限会社岩手屋商事","province":"東京都","city":"小平市","address":"東京都小平市学園西町1丁目20-7","lat":35.72013401,"lon":139.48013645},{"name":"なかまちテラス前","province":"東京都","city":"小平市","address":"東京都小平市仲町164","lat":35.73089682,"lon":139.48542443},{"name":"喜平図書館前","province":"東京都","city":"小平市","address":"東京都小平市喜平町1丁目14-20","lat":35.71679857,"lon":139.49088286},{"name":"滝山南","province":"東京都","city":"小平市","address":"東京都小平市大沼町3丁目14-1","lat":35.7410544,"lon":139.50055593},{"name":"久右衛門橋南","province":"東京都","city":"小平市","address":"東京都小平市上水本町2丁目9-6","lat":35.72057523,"lon":139.46506832},{"name":"小平東部市民センター入口","province":"東京都","city":"小平市","address":"東京都小平市花小金井1丁目25-2","lat":35.72821456,"lon":139.51462747},{"name":"小平団地西","province":"東京都","city":"小平市","address":"東京都小平市喜平町3丁目3-4","lat":35.71766231,"lon":139.48886356},{"name":"小平合同庁舎前","province":"東京都","city":"小平市","address":"東京都小平市花小金井1丁目6-20","lat":35.7301171,"lon":139.51407743},{"name":"小平鈴木町二丁目","province":"東京都","city":"小平市","address":"東京都小平市鈴木町2丁目150","lat":35.72652021,"lon":139.51087789},{"name":"緑成会病院前","province":"東京都","city":"小平市","address":"東京都小平市小川西町4丁目12-12","lat":35.73721486,"lon":139.46164848},{"name":"小平駅南口","province":"東京都","city":"小平市","address":"東京都小平市美園町1丁目8-1","lat":35.73606018,"lon":139.48763232},{"name":"多摩済生病院入口","province":"東京都","city":"小平市","address":"東京都小平市美園町2丁目2-11","lat":35.73821829,"lon":139.48844882},{"name":"小平武道館前","province":"東京都","city":"小平市","address":"東京都小平市花小金井6丁目3-7","lat":35.73041963,"lon":139.50587815},{"name":"一橋学園駅前郵便局","province":"東京都","city":"小平市","address":"東京都小平市学園西町2丁目14-17","lat":35.72368359,"lon":139.47944193},{"name":"学園東町一丁目","province":"東京都","city":"小平市","address":"東京都小平市学園東町2丁目5-1","lat":35.72346427,"lon":139.48291385},{"name":"中央公民館前","province":"東京都","city":"小平市","address":"東京都小平市小川町2丁目1325","lat":35.72776638,"lon":139.47652812},{"name":"小平富士見橋","province":"東京都","city":"小平市","address":"東京都小平市小川西町2丁目5","lat":35.73848119,"lon":139.45588783},{"name":"ルネ小平","province":"東京都","city":"小平市","address":"東京都小平市美園町1丁目8-5","lat":35.73494087,"lon":139.48741851},{"name":"小平駅南口第三","province":"東京都","city":"小平市","address":"東京都小平市美園町1丁目6","lat":35.73709062,"lon":139.48732119},{"name":"小平市役所南","province":"東京都","city":"小平市","address":"東京都小平市学園東町1丁目19","lat":35.7267082,"lon":139.47805303},{"name":"小平障害者福祉センター前","province":"東京都","city":"小平市","address":"東京都小平市小川西町2丁目34-1","lat":35.73789253,"lon":139.46105684},{"name":"小平小川町一丁目東","province":"東京都","city":"小平市","address":"東京都小平市小川町1丁目1028","lat":35.73040173,"lon":139.46048498},{"name":"花小金井消防署前","province":"東京都","city":"小平市","address":"東京都小平市花小金井6丁目16","lat":35.73025861,"lon":139.50848347},{"name":"久右衛門橋北","province":"東京都","city":"小平市","address":"東京都小平市津田町2丁目1-1","lat":35.72186677,"lon":139.46597652},{"name":"小平仲宿通り","province":"東京都","city":"小平市","address":"東京都小平市小川西町3丁目18-10","lat":35.740084,"lon":139.46269271},{"name":"西部市民センター西","province":"東京都","city":"小平市","address":"東京都小平市小川西町5丁目39","lat":35.73603161,"lon":139.46009312},{"name":"上水南浄水所","province":"東京都","city":"小平市","address":"東京都小平市上水南町3丁目12-36","lat":35.71160196,"lon":139.49171079},{"name":"小川浄水所","province":"東京都","city":"小平市","address":"東京都小平市小川町1丁目847","lat":35.72563541,"lon":139.45317197},{"name":"小平市中央公民館","province":"東京都","city":"小平市","address":"小平市小川町2-1325","lat":35.728603,"lon":139.474609},{"name":"小平市立花小金井南公民館","province":"東京都","city":"小平市","address":"小平市花小金井南町2-12-6","lat":35.724243,"lon":139.51651},{"name":"小平市立花小金井北公民館","province":"東京都","city":"小平市","address":"小平市花小金井5-41-3","lat":35.734188,"lon":139.510284},{"name":"小平市立小川公民館","province":"東京都","city":"小平市","address":"小平市小川町1-1012","lat":35.725826,"lon":139.459244},{"name":"小平市立小川西町公民館","province":"東京都","city":"小平市","address":"小平市小川西町4-10-13","lat":35.735207,"lon":139.461807},{"name":"小平市立上宿公民館","province":"東京都","city":"小平市","address":"小平市小川町1-308","lat":35.731262,"lon":139.44281},{"name":"小平市立上水南公民館","province":"東京都","city":"小平市","address":"小平市上水南町1-27-1","lat":35.713055,"lon":139.483688},{"name":"小平市立大沼公民館","province":"東京都","city":"小平市","address":"小平市大沼町7-1-17","lat":35.733967,"lon":139.496414},{"name":"小平市立仲町公民館","province":"東京都","city":"小平市","address":"小平市仲町521","lat":35.730274,"lon":139.484863},{"name":"小平市立津田公民館","province":"東京都","city":"小平市","address":"小平市津田町3-11-1","lat":35.720867,"lon":139.470032},{"name":"小平市立鈴木公民館","province":"東京都","city":"小平市","address":"小平市鈴木町2-772","lat":35.722507,"lon":139.507401},{"name":"小平市大沼図書館","province":"東京都","city":"小平市","address":"小平市大沼町7-1-17","lat":35.733967,"lon":139.496414},{"name":"小平市中央図書館","province":"東京都","city":"小平市","address":"小平市小川町2-1325","lat":35.728603,"lon":139.474609},{"name":"小平市中央図書館花小金井北分室","province":"東京都","city":"小平市","address":"小平市花小金井5-41-3","lat":35.734188,"lon":139.510284},{"name":"小平市中央図書館小川分室","province":"東京都","city":"小平市","address":"小平市小川町1-1012","lat":35.725826,"lon":139.459244},{"name":"小平市中央図書館上水南分室","province":"東京都","city":"小平市","address":"小平市上水南町1-27-1","lat":35.713055,"lon":139.483688},{"name":"小平市立花小金井図書館","province":"東京都","city":"小平市","address":"小平市花小金井1-8-1","lat":35.727486,"lon":139.513535},{"name":"小平市立喜平図書館","province":"東京都","city":"小平市","address":"小平市喜平町3-3-18","lat":35.719769,"lon":139.490204},{"name":"小平市立小川西町図書館","province":"東京都","city":"小平市","address":"小平市小川西町4-10-13","lat":35.735207,"lon":139.461807},{"name":"小平市立上宿図書館","province":"東京都","city":"小平市","address":"小平市小川町1-345","lat":35.730995,"lon":139.438889},{"name":"小平市立仲町図書館","province":"東京都","city":"小平市","address":"小平市仲町145","lat":35.731598,"lon":139.483566},{"name":"小平市立津田図書館","province":"東京都","city":"小平市","address":"小平市津田町3-11-1","lat":35.720867,"lon":139.470032},{"name":"小平市鈴木遺跡資料館","province":"東京都","city":"小平市","address":"小平市鈴木町1-487-1","lat":35.718842,"lon":139.496735},{"name":"小平市平櫛田中彫刻美術館","province":"東京都","city":"小平市","address":"小平市学園西町1-7-5","lat":35.718006,"lon":139.475555},{"name":"ひのでセレモニー","province":"東京都","city":"小平市","address":"東京都小平市栄町2丁目29-11","lat":35.7336955,"lon":139.45121901},{"name":"株式会社エムエスジー葬儀の正行","province":"東京都","city":"小平市","address":"東京都小平市学園東町2丁目4-22","lat":35.72311438,"lon":139.48558585},{"name":"有限会社　小平典礼","province":"東京都","city":"小平市","address":"東京都小平市花小金井8丁目1-2","lat":35.73079452,"lon":139.5032617},{"name":"有限会社小平典礼","province":"東京都","city":"小平市","address":"東京都小平市花小金井8丁目1-2","lat":35.73079452,"lon":139.5032617},{"name":"株式会社京典","province":"東京都","city":"小平市","address":"東京都小平市小川西町4丁目33-20","lat":35.73925633,"lon":139.46327602},{"name":"有限会社岩手屋商事","province":"東京都","city":"小平市","address":"東京都小平市学園西町1丁目20-7","lat":35.72013401,"lon":139.48013645},{"name":"小平市中央公民館","province":"東京都","city":"小平市","address":"小平市小川町2-1325","lat":35.728603,"lon":139.474609},{"name":"小平市立花小金井南公民館","province":"東京都","city":"小平市","address":"小平市花小金井南町2-12-6","lat":35.724243,"lon":139.51651},{"name":"小平市立花小金井北公民館","province":"東京都","city":"小平市","address":"小平市花小金井5-41-3","lat":35.734188,"lon":139.510284},{"name":"小平市立小川公民館","province":"東京都","city":"小平市","address":"小平市小川町1-1012","lat":35.725826,"lon":139.459244},{"name":"小平市立小川西町公民館","province":"東京都","city":"小平市","address":"小平市小川西町4-10-13","lat":35.735207,"lon":139.461807},{"name":"小平市立上宿公民館","province":"東京都","city":"小平市","address":"小平市小川町1-308","lat":35.731262,"lon":139.44281},{"name":"小平市立上水南公民館","province":"東京都","city":"小平市","address":"小平市上水南町1-27-1","lat":35.713055,"lon":139.483688},{"name":"小平市立大沼公民館","province":"東京都","city":"小平市","address":"小平市大沼町7-1-17","lat":35.733967,"lon":139.496414},{"name":"小平市立仲町公民館","province":"東京都","city":"小平市","address":"小平市仲町521","lat":35.730274,"lon":139.484863},{"name":"小平市立津田公民館","province":"東京都","city":"小平市","address":"小平市津田町3-11-1","lat":35.720867,"lon":139.470032},{"name":"小平市立鈴木公民館","province":"東京都","city":"小平市","address":"小平市鈴木町2-772","lat":35.722507,"lon":139.507401},{"name":"小平市大沼図書館","province":"東京都","city":"小平市","address":"小平市大沼町7-1-17","lat":35.733967,"lon":139.496414},{"name":"小平市中央図書館","province":"東京都","city":"小平市","address":"小平市小川町2-1325","lat":35.728603,"lon":139.474609},{"name":"小平市中央図書館花小金井北分室","province":"東京都","city":"小平市","address":"小平市花小金井5-41-3","lat":35.734188,"lon":139.510284},{"name":"小平市中央図書館小川分室","province":"東京都","city":"小平市","address":"小平市小川町1-1012","lat":35.725826,"lon":139.459244},{"name":"小平市中央図書館上水南分室","province":"東京都","city":"小平市","address":"小平市上水南町1-27-1","lat":35.713055,"lon":139.483688},{"name":"小平市立花小金井図書館","province":"東京都","city":"小平市","address":"小平市花小金井1-8-1","lat":35.727486,"lon":139.513535},{"name":"小平市立喜平図書館","province":"東京都","city":"小平市","address":"小平市喜平町3-3-18","lat":35.719769,"lon":139.490204},{"name":"小平市立小川西町図書館","province":"東京都","city":"小平市","address":"小平市小川西町4-10-13","lat":35.735207,"lon":139.461807},{"name":"小平市立上宿図書館","province":"東京都","city":"小平市","address":"小平市小川町1-345","lat":35.730995,"lon":139.438889},{"name":"小平市立仲町図書館","province":"東京都","city":"小平市","address":"小平市仲町145","lat":35.731598,"lon":139.483566},{"name":"小平市立津田図書館","province":"東京都","city":"小平市","address":"小平市津田町3-11-1","lat":35.720867,"lon":139.470032},{"name":"小平市鈴木遺跡資料館","province":"東京都","city":"小平市","address":"小平市鈴木町1-487-1","lat":35.718842,"lon":139.496735},{"name":"小平市平櫛田中彫刻美術館","province":"東京都","city":"小平市","address":"小平市学園西町1-7-5","lat":35.718006,"lon":139.475555},{"name":"ひのでセレモニー","province":"東京都","city":"小平市","address":"東京都小平市栄町2丁目29-11","lat":35.7336955,"lon":139.45121901},{"name":"株式会社エムエスジー葬儀の正行","province":"東京都","city":"小平市","address":"東京都小平市学園東町2丁目4-22","lat":35.72311438,"lon":139.48558585},{"name":"有限会社　小平典礼","province":"東京都","city":"小平市","address":"東京都小平市花小金井8丁目1-2","lat":35.73079452,"lon":139.5032617},{"name":"有限会社小平典礼","province":"東京都","city":"小平市","address":"東京都小平市花小金井8丁目1-2","lat":35.73079452,"lon":139.5032617},{"name":"株式会社京典","province":"東京都","city":"小平市","address":"東京都小平市小川西町4丁目33-20","lat":35.73925633,"lon":139.46327602},{"name":"有限会社岩手屋商事","province":"東京都","city":"小平市","address":"東京都小平市学園西町1丁目20-7","lat":35.72013401,"lon":139.48013645},{"name":"小平市中央公民館","province":"東京都","city":"小平市","address":"小平市小川町2-1325","lat":35.728603,"lon":139.474609},{"name":"小平市立花小金井南公民館","province":"東京都","city":"小平市","address":"小平市花小金井南町2-12-6","lat":35.724243,"lon":139.51651},{"name":"小平市立花小金井北公民館","province":"東京都","city":"小平市","address":"小平市花小金井5-41-3","lat":35.734188,"lon":139.510284},{"name":"小平市立小川公民館","province":"東京都","city":"小平市","address":"小平市小川町1-1012","lat":35.725826,"lon":139.459244},{"name":"小平市立小川西町公民館","province":"東京都","city":"小平市","address":"小平市小川西町4-10-13","lat":35.735207,"lon":139.461807},{"name":"小平市立上宿公民館","province":"東京都","city":"小平市","address":"小平市小川町1-308","lat":35.731262,"lon":139.44281},{"name":"小平市立上水南公民館","province":"東京都","city":"小平市","address":"小平市上水南町1-27-1","lat":35.713055,"lon":139.483688},{"name":"小平市立大沼公民館","province":"東京都","city":"小平市","address":"小平市大沼町7-1-17","lat":35.733967,"lon":139.496414},{"name":"小平市立仲町公民館","province":"東京都","city":"小平市","address":"小平市仲町521","lat":35.730274,"lon":139.484863},{"name":"小平市立津田公民館","province":"東京都","city":"小平市","address":"小平市津田町3-11-1","lat":35.720867,"lon":139.470032},{"name":"小平市立鈴木公民館","province":"東京都","city":"小平市","address":"小平市鈴木町2-772","lat":35.722507,"lon":139.507401},{"name":"小平市大沼図書館","province":"東京都","city":"小平市","address":"小平市大沼町7-1-17","lat":35.733967,"lon":139.496414},{"name":"小平市中央図書館","province":"東京都","city":"小平市","address":"小平市小川町2-1325","lat":35.728603,"lon":139.474609},{"name":"小平市中央図書館花小金井北分室","province":"東京都","city":"小平市","address":"小平市花小金井5-41-3","lat":35.734188,"lon":139.510284},{"name":"小平市中央図書館小川分室","province":"東京都","city":"小平市","address":"小平市小川町1-1012","lat":35.725826,"lon":139.459244},{"name":"小平市中央図書館上水南分室","province":"東京都","city":"小平市","address":"小平市上水南町1-27-1","lat":35.713055,"lon":139.483688},{"name":"小平市立花小金井図書館","province":"東京都","city":"小平市","address":"小平市花小金井1-8-1","lat":35.727486,"lon":139.513535},{"name":"小平市立喜平図書館","province":"東京都","city":"小平市","address":"小平市喜平町3-3-18","lat":35.719769,"lon":139.490204},{"name":"小平市立小川西町図書館","province":"東京都","city":"小平市","address":"小平市小川西町4-10-13","lat":35.735207,"lon":139.461807},{"name":"小平市立上宿図書館","province":"東京都","city":"小平市","address":"小平市小川町1-345","lat":35.730995,"lon":139.438889},{"name":"小平市立仲町図書館","province":"東京都","city":"小平市","address":"小平市仲町145","lat":35.731598,"lon":139.483566},{"name":"小平市立津田図書館","province":"東京都","city":"小平市","address":"小平市津田町3-11-1","lat":35.720867,"lon":139.470032},{"name":"小平市鈴木遺跡資料館","province":"東京都","city":"小平市","address":"小平市鈴木町1-487-1","lat":35.718842,"lon":139.496735},{"name":"小平市平櫛田中彫刻美術館","province":"東京都","city":"小平市","address":"小平市学園西町1-7-5","lat":35.718006,"lon":139.475555},{"name":"ひのでセレモニー","province":"東京都","city":"小平市","address":"東京都小平市栄町2丁目29-11","lat":35.7336955,"lon":139.45121901},{"name":"株式会社エムエスジー葬儀の正行","province":"東京都","city":"小平市","address":"東京都小平市学園東町2丁目4-22","lat":35.72311438,"lon":139.48558585},{"name":"有限会社　小平典礼","province":"東京都","city":"小平市","address":"東京都小平市花小金井8丁目1-2","lat":35.73079452,"lon":139.5032617},{"name":"有限会社小平典礼","province":"東京都","city":"小平市","address":"東京都小平市花小金井8丁目1-2","lat":35.73079452,"lon":139.5032617},{"name":"株式会社京典","province":"東京都","city":"小平市","address":"東京都小平市小川西町4丁目33-20","lat":35.73925633,"lon":139.46327602},{"name":"有限会社岩手屋商事","province":"東京都","city":"小平市","address":"東京都小平市学園西町1丁目20-7","lat":35.72013401,"lon":139.48013645},{"name":"小平市中央公民館","province":"東京都","city":"小平市","address":"小平市小川町2-1325","lat":35.728603,"lon":139.474609},{"name":"小平市立花小金井南公民館","province":"東京都","city":"小平市","address":"小平市花小金井南町2-12-6","lat":35.724243,"lon":139.51651},{"name":"小平市立花小金井北公民館","province":"東京都","city":"小平市","address":"小平市花小金井5-41-3","lat":35.734188,"lon":139.510284},{"name":"小平市立小川公民館","province":"東京都","city":"小平市","address":"小平市小川町1-1012","lat":35.725826,"lon":139.459244},{"name":"小平市立小川西町公民館","province":"東京都","city":"小平市","address":"小平市小川西町4-10-13","lat":35.735207,"lon":139.461807},{"name":"小平市立上宿公民館","province":"東京都","city":"小平市","address":"小平市小川町1-308","lat":35.731262,"lon":139.44281},{"name":"小平市立上水南公民館","province":"東京都","city":"小平市","address":"小平市上水南町1-27-1","lat":35.713055,"lon":139.483688},{"name":"小平市立大沼公民館","province":"東京都","city":"小平市","address":"小平市大沼町7-1-17","lat":35.733967,"lon":139.496414},{"name":"小平市立仲町公民館","province":"東京都","city":"小平市","address":"小平市仲町521","lat":35.730274,"lon":139.484863},{"name":"小平市立津田公民館","province":"東京都","city":"小平市","address":"小平市津田町3-11-1","lat":35.720867,"lon":139.470032},{"name":"小平市立鈴木公民館","province":"東京都","city":"小平市","address":"小平市鈴木町2-772","lat":35.722507,"lon":139.507401},{"name":"小平市大沼図書館","province":"東京都","city":"小平市","address":"小平市大沼町7-1-17","lat":35.733967,"lon":139.496414},{"name":"小平市中央図書館","province":"東京都","city":"小平市","address":"小平市小川町2-1325","lat":35.728603,"lon":139.474609},{"name":"小平市中央図書館花小金井北分室","province":"東京都","city":"小平市","address":"小平市花小金井5-41-3","lat":35.734188,"lon":139.510284},{"name":"小平市中央図書館小川分室","province":"東京都","city":"小平市","address":"小平市小川町1-1012","lat":35.725826,"lon":139.459244},{"name":"小平市中央図書館上水南分室","province":"東京都","city":"小平市","address":"小平市上水南町1-27-1","lat":35.713055,"lon":139.483688},{"name":"小平市立花小金井図書館","province":"東京都","city":"小平市","address":"小平市花小金井1-8-1","lat":35.727486,"lon":139.513535},{"name":"小平市立喜平図書館","province":"東京都","city":"小平市","address":"小平市喜平町3-3-18","lat":35.719769,"lon":139.490204},{"name":"小平市立小川西町図書館","province":"東京都","city":"小平市","address":"小平市小川西町4-10-13","lat":35.735207,"lon":139.461807},{"name":"小平市立上宿図書館","province":"東京都","city":"小平市","address":"小平市小川町1-345","lat":35.730995,"lon":139.438889},{"name":"小平市立仲町図書館","province":"東京都","city":"小平市","address":"小平市仲町145","lat":35.731598,"lon":139.483566},{"name":"小平市立津田図書館","province":"東京都","city":"小平市","address":"小平市津田町3-11-1","lat":35.720867,"lon":139.470032},{"name":"小平市鈴木遺跡資料館","province":"東京都","city":"小平市","address":"小平市鈴木町1-487-1","lat":35.718842,"lon":139.496735},{"name":"小平市平櫛田中彫刻美術館","province":"東京都","city":"小平市","address":"小平市学園西町1-7-5","lat":35.718006,"lon":139.475555},{"name":"ひのでセレモニー","province":"東京都","city":"小平市","address":"東京都小平市栄町2丁目29-11","lat":35.7336955,"lon":139.45121901},{"name":"株式会社エムエスジー葬儀の正行","province":"東京都","city":"小平市","address":"東京都小平市学園東町2丁目4-22","lat":35.72311438,"lon":139.48558585},{"name":"有限会社　小平典礼","province":"東京都","city":"小平市","address":"東京都小平市花小金井8丁目1-2","lat":35.73079452,"lon":139.5032617},{"name":"有限会社小平典礼","province":"東京都","city":"小平市","address":"東京都小平市花小金井8丁目1-2","lat":35.73079452,"lon":139.5032617},{"name":"株式会社京典","province":"東京都","city":"小平市","address":"東京都小平市小川西町4丁目33-20","lat":35.73925633,"lon":139.46327602},{"name":"有限会社岩手屋商事","province":"東京都","city":"小平市","address":"東京都小平市学園西町1丁目20-7","lat":35.72013401,"lon":139.48013645},{"name":"小平市中央公民館","province":"東京都","city":"小平市","address":"小平市小川町2-1325","lat":35.728603,"lon":139.474609},{"name":"小平市立花小金井南公民館","province":"東京都","city":"小平市","address":"小平市花小金井南町2-12-6","lat":35.724243,"lon":139.51651},{"name":"小平市立花小金井北公民館","province":"東京都","city":"小平市","address":"小平市花小金井5-41-3","lat":35.734188,"lon":139.510284},{"name":"小平市立小川公民館","province":"東京都","city":"小平市","address":"小平市小川町1-1012","lat":35.725826,"lon":139.459244},{"name":"小平市立小川西町公民館","province":"東京都","city":"小平市","address":"小平市小川西町4-10-13","lat":35.735207,"lon":139.461807},{"name":"小平市立上宿公民館","province":"東京都","city":"小平市","address":"小平市小川町1-308","lat":35.731262,"lon":139.44281},{"name":"小平市立上水南公民館","province":"東京都","city":"小平市","address":"小平市上水南町1-27-1","lat":35.713055,"lon":139.483688},{"name":"小平市立大沼公民館","province":"東京都","city":"小平市","address":"小平市大沼町7-1-17","lat":35.733967,"lon":139.496414},{"name":"小平市立仲町公民館","province":"東京都","city":"小平市","address":"小平市仲町521","lat":35.730274,"lon":139.484863},{"name":"小平市立津田公民館","province":"東京都","city":"小平市","address":"小平市津田町3-11-1","lat":35.720867,"lon":139.470032},{"name":"小平市立鈴木公民館","province":"東京都","city":"小平市","address":"小平市鈴木町2-772","lat":35.722507,"lon":139.507401},{"name":"小平市大沼図書館","province":"東京都","city":"小平市","address":"小平市大沼町7-1-17","lat":35.733967,"lon":139.496414},{"name":"小平市中央図書館","province":"東京都","city":"小平市","address":"小平市小川町2-1325","lat":35.728603,"lon":139.474609},{"name":"小平市中央図書館花小金井北分室","province":"東京都","city":"小平市","address":"小平市花小金井5-41-3","lat":35.734188,"lon":139.510284},{"name":"小平市中央図書館小川分室","province":"東京都","city":"小平市","address":"小平市小川町1-1012","lat":35.725826,"lon":139.459244},{"name":"小平市中央図書館上水南分室","province":"東京都","city":"小平市","address":"小平市上水南町1-27-1","lat":35.713055,"lon":139.483688},{"name":"小平市立花小金井図書館","province":"東京都","city":"小平市","address":"小平市花小金井1-8-1","lat":35.727486,"lon":139.513535},{"name":"小平市立喜平図書館","province":"東京都","city":"小平市","address":"小平市喜平町3-3-18","lat":35.719769,"lon":139.490204},{"name":"小平市立小川西町図書館","province":"東京都","city":"小平市","address":"小平市小川西町4-10-13","lat":35.735207,"lon":139.461807},{"name":"小平市立上宿図書館","province":"東京都","city":"小平市","address":"小平市小川町1-345","lat":35.730995,"lon":139.438889},{"name":"小平市立仲町図書館","province":"東京都","city":"小平市","address":"小平市仲町145","lat":35.731598,"lon":139.483566},{"name":"小平市立津田図書館","province":"東京都","city":"小平市","address":"小平市津田町3-11-1","lat":35.720867,"lon":139.470032},{"name":"小平市鈴木遺跡資料館","province":"東京都","city":"小平市","address":"小平市鈴木町1-487-1","lat":35.718842,"lon":139.496735},{"name":"小平市平櫛田中彫刻美術館","province":"東京都","city":"小平市","address":"小平市学園西町1-7-5","lat":35.718006,"lon":139.475555},{"name":"ひのでセレモニー","province":"東京都","city":"小平市","address":"東京都小平市栄町2丁目29-11","lat":35.7336955,"lon":139.45121901},{"name":"株式会社エムエスジー葬儀の正行","province":"東京都","city":"小平市","address":"東京都小平市学園東町2丁目4-22","lat":35.72311438,"lon":139.48558585},{"name":"有限会社　小平典礼","province":"東京都","city":"小平市","address":"東京都小平市花小金井8丁目1-2","lat":35.73079452,"lon":139.5032617},{"name":"有限会社小平典礼","province":"東京都","city":"小平市","address":"東京都小平市花小金井8丁目1-2","lat":35.73079452,"lon":139.5032617},{"name":"株式会社京典","province":"東京都","city":"小平市","address":"東京都小平市小川西町4丁目33-20","lat":35.73925633,"lon":139.46327602},{"name":"有限会社岩手屋商事","province":"東京都","city":"小平市","address":"東京都小平市学園西町1丁目20-7","lat":35.72013401,"lon":139.48013645},{"name":"小平市中央公民館","province":"東京都","city":"小平市","address":"小平市小川町2-1325","lat":35.728603,"lon":139.474609},{"name":"小平市立花小金井南公民館","province":"東京都","city":"小平市","address":"小平市花小金井南町2-12-6","lat":35.724243,"lon":139.51651},{"name":"小平市立花小金井北公民館","province":"東京都","city":"小平市","address":"小平市花小金井5-41-3","lat":35.734188,"lon":139.510284},{"name":"小平市立小川公民館","province":"東京都","city":"小平市","address":"小平市小川町1-1012","lat":35.725826,"lon":139.459244},{"name":"小平市立小川西町公民館","province":"東京都","city":"小平市","address":"小平市小川西町4-10-13","lat":35.735207,"lon":139.461807},{"name":"小平市立上宿公民館","province":"東京都","city":"小平市","address":"小平市小川町1-308","lat":35.731262,"lon":139.44281},{"name":"小平市立上水南公民館","province":"東京都","city":"小平市","address":"小平市上水南町1-27-1","lat":35.713055,"lon":139.483688},{"name":"小平市立大沼公民館","province":"東京都","city":"小平市","address":"小平市大沼町7-1-17","lat":35.733967,"lon":139.496414},{"name":"小平市立仲町公民館","province":"東京都","city":"小平市","address":"小平市仲町521","lat":35.730274,"lon":139.484863},{"name":"小平市立津田公民館","province":"東京都","city":"小平市","address":"小平市津田町3-11-1","lat":35.720867,"lon":139.470032},{"name":"小平市立鈴木公民館","province":"東京都","city":"小平市","address":"小平市鈴木町2-772","lat":35.722507,"lon":139.507401},{"name":"小平市大沼図書館","province":"東京都","city":"小平市","address":"小平市大沼町7-1-17","lat":35.733967,"lon":139.496414},{"name":"小平市中央図書館","province":"東京都","city":"小平市","address":"小平市小川町2-1325","lat":35.728603,"lon":139.474609},{"name":"小平市中央図書館花小金井北分室","province":"東京都","city":"小平市","address":"小平市花小金井5-41-3","lat":35.734188,"lon":139.510284},{"name":"小平市中央図書館小川分室","province":"東京都","city":"小平市","address":"小平市小川町1-1012","lat":35.725826,"lon":139.459244},{"name":"小平市中央図書館上水南分室","province":"東京都","city":"小平市","address":"小平市上水南町1-27-1","lat":35.713055,"lon":139.483688},{"name":"小平市立花小金井図書館","province":"東京都","city":"小平市","address":"小平市花小金井1-8-1","lat":35.727486,"lon":139.513535},{"name":"小平市立喜平図書館","province":"東京都","city":"小平市","address":"小平市喜平町3-3-18","lat":35.719769,"lon":139.490204},{"name":"小平市立小川西町図書館","province":"東京都","city":"小平市","address":"小平市小川西町4-10-13","lat":35.735207,"lon":139.461807},{"name":"小平市立上宿図書館","province":"東京都","city":"小平市","address":"小平市小川町1-345","lat":35.730995,"lon":139.438889},{"name":"小平市立仲町図書館","province":"東京都","city":"小平市","address":"小平市仲町145","lat":35.731598,"lon":139.483566},{"name":"小平市立津田図書館","province":"東京都","city":"小平市","address":"小平市津田町3-11-1","lat":35.720867,"lon":139.470032},{"name":"小平市鈴木遺跡資料館","province":"東京都","city":"小平市","address":"小平市鈴木町1-487-1","lat":35.718842,"lon":139.496735},{"name":"小平市平櫛田中彫刻美術館","province":"東京都","city":"小平市","address":"小平市学園西町1-7-5","lat":35.718006,"lon":139.475555},{"name":"ひのでセレモニー","province":"東京都","city":"小平市","address":"東京都小平市栄町2丁目29-11","lat":35.7336955,"lon":139.45121901},{"name":"株式会社エムエスジー葬儀の正行","province":"東京都","city":"小平市","address":"東京都小平市学園東町2丁目4-22","lat":35.72311438,"lon":139.48558585},{"name":"有限会社　小平典礼","province":"東京都","city":"小平市","address":"東京都小平市花小金井8丁目1-2","lat":35.73079452,"lon":139.5032617},{"name":"有限会社小平典礼","province":"東京都","city":"小平市","address":"東京都小平市花小金井8丁目1-2","lat":35.73079452,"lon":139.5032617},{"name":"株式会社京典","province":"東京都","city":"小平市","address":"東京都小平市小川西町4丁目33-20","lat":35.73925633,"lon":139.46327602},{"name":"有限会社岩手屋商事","province":"東京都","city":"小平市","address":"東京都小平市学園西町1丁目20-7","lat":35.72013401,"lon":139.48013645},{"name":"小平市中央公民館","province":"東京都","city":"小平市","address":"小平市小川町2-1325","lat":35.728603,"lon":139.474609},{"name":"小平市立花小金井南公民館","province":"東京都","city":"小平市","address":"小平市花小金井南町2-12-6","lat":35.724243,"lon":139.51651},{"name":"小平市立花小金井北公民館","province":"東京都","city":"小平市","address":"小平市花小金井5-41-3","lat":35.734188,"lon":139.510284},{"name":"小平市立小川公民館","province":"東京都","city":"小平市","address":"小平市小川町1-1012","lat":35.725826,"lon":139.459244},{"name":"小平市立小川西町公民館","province":"東京都","city":"小平市","address":"小平市小川西町4-10-13","lat":35.735207,"lon":139.461807},{"name":"小平市立上宿公民館","province":"東京都","city":"小平市","address":"小平市小川町1-308","lat":35.731262,"lon":139.44281},{"name":"小平市立上水南公民館","province":"東京都","city":"小平市","address":"小平市上水南町1-27-1","lat":35.713055,"lon":139.483688},{"name":"小平市立大沼公民館","province":"東京都","city":"小平市","address":"小平市大沼町7-1-17","lat":35.733967,"lon":139.496414},{"name":"小平市立仲町公民館","province":"東京都","city":"小平市","address":"小平市仲町521","lat":35.730274,"lon":139.484863},{"name":"小平市立津田公民館","province":"東京都","city":"小平市","address":"小平市津田町3-11-1","lat":35.720867,"lon":139.470032},{"name":"小平市立鈴木公民館","province":"東京都","city":"小平市","address":"小平市鈴木町2-772","lat":35.722507,"lon":139.507401},{"name":"小平市大沼図書館","province":"東京都","city":"小平市","address":"小平市大沼町7-1-17","lat":35.733967,"lon":139.496414},{"name":"小平市中央図書館","province":"東京都","city":"小平市","address":"小平市小川町2-1325","lat":35.728603,"lon":139.474609},{"name":"小平市中央図書館花小金井北分室","province":"東京都","city":"小平市","address":"小平市花小金井5-41-3","lat":35.734188,"lon":139.510284},{"name":"小平市中央図書館小川分室","province":"東京都","city":"小平市","address":"小平市小川町1-1012","lat":35.725826,"lon":139.459244},{"name":"小平市中央図書館上水南分室","province":"東京都","city":"小平市","address":"小平市上水南町1-27-1","lat":35.713055,"lon":139.483688},{"name":"小平市立花小金井図書館","province":"東京都","city":"小平市","address":"小平市花小金井1-8-1","lat":35.727486,"lon":139.513535},{"name":"小平市立喜平図書館","province":"東京都","city":"小平市","address":"小平市喜平町3-3-18","lat":35.719769,"lon":139.490204},{"name":"小平市立小川西町図書館","province":"東京都","city":"小平市","address":"小平市小川西町4-10-13","lat":35.735207,"lon":139.461807},{"name":"小平市立上宿図書館","province":"東京都","city":"小平市","address":"小平市小川町1-345","lat":35.730995,"lon":139.438889},{"name":"小平市立仲町図書館","province":"東京都","city":"小平市","address":"小平市仲町145","lat":35.731598,"lon":139.483566},{"name":"小平市立津田図書館","province":"東京都","city":"小平市","address":"小平市津田町3-11-1","lat":35.720867,"lon":139.470032},{"name":"小平市鈴木遺跡資料館","province":"東京都","city":"小平市","address":"小平市鈴木町1-487-1","lat":35.718842,"lon":139.496735},{"name":"小平市平櫛田中彫刻美術館","province":"東京都","city":"小平市","address":"小平市学園西町1-7-5","lat":35.718006,"lon":139.475555},{"name":"ひのでセレモニー","province":"東京都","city":"小平市","address":"東京都小平市栄町2丁目29-11","lat":35.7336955,"lon":139.45121901},{"name":"株式会社エムエスジー葬儀の正行","province":"東京都","city":"小平市","address":"東京都小平市学園東町2丁目4-22","lat":35.72311438,"lon":139.48558585},{"name":"有限会社　小平典礼","province":"東京都","city":"小平市","address":"東京都小平市花小金井8丁目1-2","lat":35.73079452,"lon":139.5032617},{"name":"有限会社小平典礼","province":"東京都","city":"小平市","address":"東京都小平市花小金井8丁目1-2","lat":35.73079452,"lon":139.5032617},{"name":"株式会社京典","province":"東京都","city":"小平市","address":"東京都小平市小川西町4丁目33-20","lat":35.73925633,"lon":139.46327602},{"name":"有限会社岩手屋商事","province":"東京都","city":"小平市","address":"東京都小平市学園西町1丁目20-7","lat":35.72013401,"lon":139.48013645},{"name":"小平市中央公民館","province":"東京都","city":"小平市","address":"小平市小川町2-1325","lat":35.728603,"lon":139.474609},{"name":"小平市立花小金井南公民館","province":"東京都","city":"小平市","address":"小平市花小金井南町2-12-6","lat":35.724243,"lon":139.51651},{"name":"小平市立花小金井北公民館","province":"東京都","city":"小平市","address":"小平市花小金井5-41-3","lat":35.734188,"lon":139.510284},{"name":"小平市立小川公民館","province":"東京都","city":"小平市","address":"小平市小川町1-1012","lat":35.725826,"lon":139.459244},{"name":"小平市立小川西町公民館","province":"東京都","city":"小平市","address":"小平市小川西町4-10-13","lat":35.735207,"lon":139.461807},{"name":"小平市立上宿公民館","province":"東京都","city":"小平市","address":"小平市小川町1-308","lat":35.731262,"lon":139.44281},{"name":"小平市立上水南公民館","province":"東京都","city":"小平市","address":"小平市上水南町1-27-1","lat":35.713055,"lon":139.483688},{"name":"小平市立大沼公民館","province":"東京都","city":"小平市","address":"小平市大沼町7-1-17","lat":35.733967,"lon":139.496414},{"name":"小平市立仲町公民館","province":"東京都","city":"小平市","address":"小平市仲町521","lat":35.730274,"lon":139.484863},{"name":"小平市立津田公民館","province":"東京都","city":"小平市","address":"小平市津田町3-11-1","lat":35.720867,"lon":139.470032},{"name":"小平市立鈴木公民館","province":"東京都","city":"小平市","address":"小平市鈴木町2-772","lat":35.722507,"lon":139.507401},{"name":"小平市大沼図書館","province":"東京都","city":"小平市","address":"小平市大沼町7-1-17","lat":35.733967,"lon":139.496414},{"name":"小平市中央図書館","province":"東京都","city":"小平市","address":"小平市小川町2-1325","lat":35.728603,"lon":139.474609},{"name":"小平市中央図書館花小金井北分室","province":"東京都","city":"小平市","address":"小平市花小金井5-41-3","lat":35.734188,"lon":139.510284},{"name":"小平市中央図書館小川分室","province":"東京都","city":"小平市","address":"小平市小川町1-1012","lat":35.725826,"lon":139.459244},{"name":"小平市中央図書館上水南分室","province":"東京都","city":"小平市","address":"小平市上水南町1-27-1","lat":35.713055,"lon":139.483688},{"name":"小平市立花小金井図書館","province":"東京都","city":"小平市","address":"小平市花小金井1-8-1","lat":35.727486,"lon":139.513535},{"name":"小平市立喜平図書館","province":"東京都","city":"小平市","address":"小平市喜平町3-3-18","lat":35.719769,"lon":139.490204},{"name":"小平市立小川西町図書館","province":"東京都","city":"小平市","address":"小平市小川西町4-10-13","lat":35.735207,"lon":139.461807},{"name":"小平市立上宿図書館","province":"東京都","city":"小平市","address":"小平市小川町1-345","lat":35.730995,"lon":139.438889},{"name":"小平市立仲町図書館","province":"東京都","city":"小平市","address":"小平市仲町145","lat":35.731598,"lon":139.483566},{"name":"小平市立津田図書館","province":"東京都","city":"小平市","address":"小平市津田町3-11-1","lat":35.720867,"lon":139.470032},{"name":"小平市鈴木遺跡資料館","province":"東京都","city":"小平市","address":"小平市鈴木町1-487-1","lat":35.718842,"lon":139.496735},{"name":"小平市平櫛田中彫刻美術館","province":"東京都","city":"小平市","address":"小平市学園西町1-7-5","lat":35.718006,"lon":139.475555},{"name":"ひのでセレモニー","province":"東京都","city":"小平市","address":"東京都小平市栄町2丁目29-11","lat":35.7336955,"lon":139.45121901},{"name":"株式会社エムエスジー葬儀の正行","province":"東京都","city":"小平市","address":"東京都小平市学園東町2丁目4-22","lat":35.72311438,"lon":139.48558585},{"name":"有限会社　小平典礼","province":"東京都","city":"小平市","address":"東京都小平市花小金井8丁目1-2","lat":35.73079452,"lon":139.5032617},{"name":"有限会社小平典礼","province":"東京都","city":"小平市","address":"東京都小平市花小金井8丁目1-2","lat":35.73079452,"lon":139.5032617},{"name":"株式会社京典","province":"東京都","city":"小平市","address":"東京都小平市小川西町4丁目33-20","lat":35.73925633,"lon":139.46327602},{"name":"有限会社岩手屋商事","province":"東京都","city":"小平市","address":"東京都小平市学園西町1丁目20-7","lat":35.72013401,"lon":139.48013645},{"name":"小平市中央公民館","province":"東京都","city":"小平市","address":"小平市小川町2-1325","lat":35.728603,"lon":139.474609},{"name":"小平市立花小金井南公民館","province":"東京都","city":"小平市","address":"小平市花小金井南町2-12-6","lat":35.724243,"lon":139.51651},{"name":"小平市立花小金井北公民館","province":"東京都","city":"小平市","address":"小平市花小金井5-41-3","lat":35.734188,"lon":139.510284},{"name":"小平市立小川公民館","province":"東京都","city":"小平市","address":"小平市小川町1-1012","lat":35.725826,"lon":139.459244},{"name":"小平市立小川西町公民館","province":"東京都","city":"小平市","address":"小平市小川西町4-10-13","lat":35.735207,"lon":139.461807},{"name":"小平市立上宿公民館","province":"東京都","city":"小平市","address":"小平市小川町1-308","lat":35.731262,"lon":139.44281},{"name":"小平市立上水南公民館","province":"東京都","city":"小平市","address":"小平市上水南町1-27-1","lat":35.713055,"lon":139.483688},{"name":"小平市立大沼公民館","province":"東京都","city":"小平市","address":"小平市大沼町7-1-17","lat":35.733967,"lon":139.496414},{"name":"小平市立仲町公民館","province":"東京都","city":"小平市","address":"小平市仲町521","lat":35.730274,"lon":139.484863},{"name":"小平市立津田公民館","province":"東京都","city":"小平市","address":"小平市津田町3-11-1","lat":35.720867,"lon":139.470032},{"name":"小平市立鈴木公民館","province":"東京都","city":"小平市","address":"小平市鈴木町2-772","lat":35.722507,"lon":139.507401},{"name":"小平市大沼図書館","province":"東京都","city":"小平市","address":"小平市大沼町7-1-17","lat":35.733967,"lon":139.496414},{"name":"小平市中央図書館","province":"東京都","city":"小平市","address":"小平市小川町2-1325","lat":35.728603,"lon":139.474609},{"name":"小平市中央図書館花小金井北分室","province":"東京都","city":"小平市","address":"小平市花小金井5-41-3","lat":35.734188,"lon":139.510284},{"name":"小平市中央図書館小川分室","province":"東京都","city":"小平市","address":"小平市小川町1-1012","lat":35.725826,"lon":139.459244},{"name":"小平市中央図書館上水南分室","province":"東京都","city":"小平市","address":"小平市上水南町1-27-1","lat":35.713055,"lon":139.483688},{"name":"小平市立花小金井図書館","province":"東京都","city":"小平市","address":"小平市花小金井1-8-1","lat":35.727486,"lon":139.513535},{"name":"小平市立喜平図書館","province":"東京都","city":"小平市","address":"小平市喜平町3-3-18","lat":35.719769,"lon":139.490204},{"name":"小平市立小川西町図書館","province":"東京都","city":"小平市","address":"小平市小川西町4-10-13","lat":35.735207,"lon":139.461807},{"name":"小平市立上宿図書館","province":"東京都","city":"小平市","address":"小平市小川町1-345","lat":35.730995,"lon":139.438889},{"name":"小平市立仲町図書館","province":"東京都","city":"小平市","address":"小平市仲町145","lat":35.731598,"lon":139.483566},{"name":"小平市立津田図書館","province":"東京都","city":"小平市","address":"小平市津田町3-11-1","lat":35.720867,"lon":139.470032},{"name":"小平市鈴木遺跡資料館","province":"東京都","city":"小平市","address":"小平市鈴木町1-487-1","lat":35.718842,"lon":139.496735},{"name":"小平市平櫛田中彫刻美術館","province":"東京都","city":"小平市","address":"小平市学園西町1-7-5","lat":35.718006,"lon":139.475555},{"name":"ひのでセレモニー","province":"東京都","city":"小平市","address":"東京都小平市栄町2丁目29-11","lat":35.7336955,"lon":139.45121901},{"name":"株式会社エムエスジー葬儀の正行","province":"東京都","city":"小平市","address":"東京都小平市学園東町2丁目4-22","lat":35.72311438,"lon":139.48558585},{"name":"有限会社　小平典礼","province":"東京都","city":"小平市","address":"東京都小平市花小金井8丁目1-2","lat":35.73079452,"lon":139.5032617},{"name":"有限会社小平典礼","province":"東京都","city":"小平市","address":"東京都小平市花小金井8丁目1-2","lat":35.73079452,"lon":139.5032617},{"name":"株式会社京典","province":"東京都","city":"小平市","address":"東京都小平市小川西町4丁目33-20","lat":35.73925633,"lon":139.46327602},{"name":"有限会社岩手屋商事","province":"東京都","city":"小平市","address":"東京都小平市学園西町1丁目20-7","lat":35.72013401,"lon":139.48013645},{"name":"小平市中央公民館","province":"東京都","city":"小平市","address":"小平市小川町2-1325","lat":35.728603,"lon":139.474609},{"name":"小平市立花小金井南公民館","province":"東京都","city":"小平市","address":"小平市花小金井南町2-12-6","lat":35.724243,"lon":139.51651},{"name":"小平市立花小金井北公民館","province":"東京都","city":"小平市","address":"小平市花小金井5-41-3","lat":35.734188,"lon":139.510284},{"name":"小平市立小川公民館","province":"東京都","city":"小平市","address":"小平市小川町1-1012","lat":35.725826,"lon":139.459244},{"name":"小平市立小川西町公民館","province":"東京都","city":"小平市","address":"小平市小川西町4-10-13","lat":35.735207,"lon":139.461807},{"name":"小平市立上宿公民館","province":"東京都","city":"小平市","address":"小平市小川町1-308","lat":35.731262,"lon":139.44281},{"name":"小平市立上水南公民館","province":"東京都","city":"小平市","address":"小平市上水南町1-27-1","lat":35.713055,"lon":139.483688},{"name":"小平市立大沼公民館","province":"東京都","city":"小平市","address":"小平市大沼町7-1-17","lat":35.733967,"lon":139.496414},{"name":"小平市立仲町公民館","province":"東京都","city":"小平市","address":"小平市仲町521","lat":35.730274,"lon":139.484863},{"name":"小平市立津田公民館","province":"東京都","city":"小平市","address":"小平市津田町3-11-1","lat":35.720867,"lon":139.470032},{"name":"小平市立鈴木公民館","province":"東京都","city":"小平市","address":"小平市鈴木町2-772","lat":35.722507,"lon":139.507401},{"name":"小平市大沼図書館","province":"東京都","city":"小平市","address":"小平市大沼町7-1-17","lat":35.733967,"lon":139.496414},{"name":"小平市中央図書館","province":"東京都","city":"小平市","address":"小平市小川町2-1325","lat":35.728603,"lon":139.474609},{"name":"小平市中央図書館花小金井北分室","province":"東京都","city":"小平市","address":"小平市花小金井5-41-3","lat":35.734188,"lon":139.510284},{"name":"小平市中央図書館小川分室","province":"東京都","city":"小平市","address":"小平市小川町1-1012","lat":35.725826,"lon":139.459244},{"name":"小平市中央図書館上水南分室","province":"東京都","city":"小平市","address":"小平市上水南町1-27-1","lat":35.713055,"lon":139.483688},{"name":"小平市立花小金井図書館","province":"東京都","city":"小平市","address":"小平市花小金井1-8-1","lat":35.727486,"lon":139.513535},{"name":"小平市立喜平図書館","province":"東京都","city":"小平市","address":"小平市喜平町3-3-18","lat":35.719769,"lon":139.490204},{"name":"小平市立小川西町図書館","province":"東京都","city":"小平市","address":"小平市小川西町4-10-13","lat":35.735207,"lon":139.461807},{"name":"小平市立上宿図書館","province":"東京都","city":"小平市","address":"小平市小川町1-345","lat":35.730995,"lon":139.438889},{"name":"小平市立仲町図書館","province":"東京都","city":"小平市","address":"小平市仲町145","lat":35.731598,"lon":139.483566},{"name":"小平市立津田図書館","province":"東京都","city":"小平市","address":"小平市津田町3-11-1","lat":35.720867,"lon":139.470032},{"name":"小平市鈴木遺跡資料館","province":"東京都","city":"小平市","address":"小平市鈴木町1-487-1","lat":35.718842,"lon":139.496735},{"name":"小平市平櫛田中彫刻美術館","province":"東京都","city":"小平市","address":"小平市学園西町1-7-5","lat":35.718006,"lon":139.475555},{"name":"ひのでセレモニー","province":"東京都","city":"小平市","address":"東京都小平市栄町2丁目29-11","lat":35.7336955,"lon":139.45121901},{"name":"株式会社エムエスジー葬儀の正行","province":"東京都","city":"小平市","address":"東京都小平市学園東町2丁目4-22","lat":35.72311438,"lon":139.48558585},{"name":"有限会社　小平典礼","province":"東京都","city":"小平市","address":"東京都小平市花小金井8丁目1-2","lat":35.73079452,"lon":139.5032617},{"name":"有限会社小平典礼","province":"東京都","city":"小平市","address":"東京都小平市花小金井8丁目1-2","lat":35.73079452,"lon":139.5032617},{"name":"株式会社京典","province":"東京都","city":"小平市","address":"東京都小平市小川西町4丁目33-20","lat":35.73925633,"lon":139.46327602},{"name":"有限会社岩手屋商事","province":"東京都","city":"小平市","address":"東京都小平市学園西町1丁目20-7","lat":35.72013401,"lon":139.48013645},{"name":"小平市中央公民館","province":"東京都","city":"小平市","address":"小平市小川町2-1325","lat":35.728603,"lon":139.474609},{"name":"小平市立花小金井南公民館","province":"東京都","city":"小平市","address":"小平市花小金井南町2-12-6","lat":35.724243,"lon":139.51651},{"name":"小平市立花小金井北公民館","province":"東京都","city":"小平市","address":"小平市花小金井5-41-3","lat":35.734188,"lon":139.510284},{"name":"小平市立小川公民館","province":"東京都","city":"小平市","address":"小平市小川町1-1012","lat":35.725826,"lon":139.459244},{"name":"小平市立小川西町公民館","province":"東京都","city":"小平市","address":"小平市小川西町4-10-13","lat":35.735207,"lon":139.461807},{"name":"小平市立上宿公民館","province":"東京都","city":"小平市","address":"小平市小川町1-308","lat":35.731262,"lon":139.44281},{"name":"小平市立上水南公民館","province":"東京都","city":"小平市","address":"小平市上水南町1-27-1","lat":35.713055,"lon":139.483688},{"name":"小平市立大沼公民館","province":"東京都","city":"小平市","address":"小平市大沼町7-1-17","lat":35.733967,"lon":139.496414},{"name":"小平市立仲町公民館","province":"東京都","city":"小平市","address":"小平市仲町521","lat":35.730274,"lon":139.484863},{"name":"小平市立津田公民館","province":"東京都","city":"小平市","address":"小平市津田町3-11-1","lat":35.720867,"lon":139.470032},{"name":"小平市立鈴木公民館","province":"東京都","city":"小平市","address":"小平市鈴木町2-772","lat":35.722507,"lon":139.507401},{"name":"小平市大沼図書館","province":"東京都","city":"小平市","address":"小平市大沼町7-1-17","lat":35.733967,"lon":139.496414},{"name":"小平市中央図書館","province":"東京都","city":"小平市","address":"小平市小川町2-1325","lat":35.728603,"lon":139.474609},{"name":"小平市中央図書館花小金井北分室","province":"東京都","city":"小平市","address":"小平市花小金井5-41-3","lat":35.734188,"lon":139.510284},{"name":"小平市中央図書館小川分室","province":"東京都","city":"小平市","address":"小平市小川町1-1012","lat":35.725826,"lon":139.459244},{"name":"小平市中央図書館上水南分室","province":"東京都","city":"小平市","address":"小平市上水南町1-27-1","lat":35.713055,"lon":139.483688},{"name":"小平市立花小金井図書館","province":"東京都","city":"小平市","address":"小平市花小金井1-8-1","lat":35.727486,"lon":139.513535},{"name":"小平市立喜平図書館","province":"東京都","city":"小平市","address":"小平市喜平町3-3-18","lat":35.719769,"lon":139.490204},{"name":"小平市立小川西町図書館","province":"東京都","city":"小平市","address":"小平市小川西町4-10-13","lat":35.735207,"lon":139.461807},{"name":"小平市立上宿図書館","province":"東京都","city":"小平市","address":"小平市小川町1-345","lat":35.730995,"lon":139.438889},{"name":"小平市立仲町図書館","province":"東京都","city":"小平市","address":"小平市仲町145","lat":35.731598,"lon":139.483566},{"name":"小平市立津田図書館","province":"東京都","city":"小平市","address":"小平市津田町3-11-1","lat":35.720867,"lon":139.470032},{"name":"小平市鈴木遺跡資料館","province":"東京都","city":"小平市","address":"小平市鈴木町1-487-1","lat":35.718842,"lon":139.496735},{"name":"小平市平櫛田中彫刻美術館","province":"東京都","city":"小平市","address":"小平市学園西町1-7-5","lat":35.718006,"lon":139.475555},{"name":"ひのでセレモニー","province":"東京都","city":"小平市","address":"東京都小平市栄町2丁目29-11","lat":35.7336955,"lon":139.45121901},{"name":"株式会社エムエスジー葬儀の正行","province":"東京都","city":"小平市","address":"東京都小平市学園東町2丁目4-22","lat":35.72311438,"lon":139.48558585},{"name":"有限会社　小平典礼","province":"東京都","city":"小平市","address":"東京都小平市花小金井8丁目1-2","lat":35.73079452,"lon":139.5032617},{"name":"有限会社小平典礼","province":"東京都","city":"小平市","address":"東京都小平市花小金井8丁目1-2","lat":35.73079452,"lon":139.5032617},{"name":"株式会社京典","province":"東京都","city":"小平市","address":"東京都小平市小川西町4丁目33-20","lat":35.73925633,"lon":139.46327602},{"name":"有限会社岩手屋商事","province":"東京都","city":"小平市","address":"東京都小平市学園西町1丁目20-7","lat":35.72013401,"lon":139.48013645},{"name":"小平市中央公民館","province":"東京都","city":"小平市","address":"小平市小川町2-1325","lat":35.728603,"lon":139.474609},{"name":"小平市立花小金井南公民館","province":"東京都","city":"小平市","address":"小平市花小金井南町2-12-6","lat":35.724243,"lon":139.51651},{"name":"小平市立花小金井北公民館","province":"東京都","city":"小平市","address":"小平市花小金井5-41-3","lat":35.734188,"lon":139.510284},{"name":"小平市立小川公民館","province":"東京都","city":"小平市","address":"小平市小川町1-1012","lat":35.725826,"lon":139.459244},{"name":"小平市立小川西町公民館","province":"東京都","city":"小平市","address":"小平市小川西町4-10-13","lat":35.735207,"lon":139.461807},{"name":"小平市立上宿公民館","province":"東京都","city":"小平市","address":"小平市小川町1-308","lat":35.731262,"lon":139.44281},{"name":"小平市立上水南公民館","province":"東京都","city":"小平市","address":"小平市上水南町1-27-1","lat":35.713055,"lon":139.483688},{"name":"小平市立大沼公民館","province":"東京都","city":"小平市","address":"小平市大沼町7-1-17","lat":35.733967,"lon":139.496414},{"name":"小平市立仲町公民館","province":"東京都","city":"小平市","address":"小平市仲町521","lat":35.730274,"lon":139.484863},{"name":"小平市立津田公民館","province":"東京都","city":"小平市","address":"小平市津田町3-11-1","lat":35.720867,"lon":139.470032},{"name":"小平市立鈴木公民館","province":"東京都","city":"小平市","address":"小平市鈴木町2-772","lat":35.722507,"lon":139.507401},{"name":"小平市大沼図書館","province":"東京都","city":"小平市","address":"小平市大沼町7-1-17","lat":35.733967,"lon":139.496414},{"name":"小平市中央図書館","province":"東京都","city":"小平市","address":"小平市小川町2-1325","lat":35.728603,"lon":139.474609},{"name":"小平市中央図書館花小金井北分室","province":"東京都","city":"小平市","address":"小平市花小金井5-41-3","lat":35.734188,"lon":139.510284},{"name":"小平市中央図書館小川分室","province":"東京都","city":"小平市","address":"小平市小川町1-1012","lat":35.725826,"lon":139.459244},{"name":"小平市中央図書館上水南分室","province":"東京都","city":"小平市","address":"小平市上水南町1-27-1","lat":35.713055,"lon":139.483688},{"name":"小平市立花小金井図書館","province":"東京都","city":"小平市","address":"小平市花小金井1-8-1","lat":35.727486,"lon":139.513535},{"name":"小平市立喜平図書館","province":"東京都","city":"小平市","address":"小平市喜平町3-3-18","lat":35.719769,"lon":139.490204},{"name":"小平市立小川西町図書館","province":"東京都","city":"小平市","address":"小平市小川西町4-10-13","lat":35.735207,"lon":139.461807},{"name":"小平市立上宿図書館","province":"東京都","city":"小平市","address":"小平市小川町1-345","lat":35.730995,"lon":139.438889},{"name":"小平市立仲町図書館","province":"東京都","city":"小平市","address":"小平市仲町145","lat":35.731598,"lon":139.483566},{"name":"小平市立津田図書館","province":"東京都","city":"小平市","address":"小平市津田町3-11-1","lat":35.720867,"lon":139.470032},{"name":"小平市鈴木遺跡資料館","province":"東京都","city":"小平市","address":"小平市鈴木町1-487-1","lat":35.718842,"lon":139.496735},{"name":"小平市平櫛田中彫刻美術館","province":"東京都","city":"小平市","address":"小平市学園西町1-7-5","lat":35.718006,"lon":139.475555},{"name":"ひのでセレモニー","province":"東京都","city":"小平市","address":"東京都小平市栄町2丁目29-11","lat":35.7336955,"lon":139.45121901},{"name":"株式会社エムエスジー葬儀の正行","province":"東京都","city":"小平市","address":"東京都小平市学園東町2丁目4-22","lat":35.72311438,"lon":139.48558585},{"name":"有限会社　小平典礼","province":"東京都","city":"小平市","address":"東京都小平市花小金井8丁目1-2","lat":35.73079452,"lon":139.5032617},{"name":"有限会社小平典礼","province":"東京都","city":"小平市","address":"東京都小平市花小金井8丁目1-2","lat":35.73079452,"lon":139.5032617},{"name":"株式会社京典","province":"東京都","city":"小平市","address":"東京都小平市小川西町4丁目33-20","lat":35.73925633,"lon":139.46327602},{"name":"有限会社岩手屋商事","province":"東京都","city":"小平市","address":"東京都小平市学園西町1丁目20-7","lat":35.72013401,"lon":139.48013645},{"name":"小平市中央公民館","province":"東京都","city":"小平市","address":"小平市小川町2-1325","lat":35.728603,"lon":139.474609},{"name":"小平市立花小金井南公民館","province":"東京都","city":"小平市","address":"小平市花小金井南町2-12-6","lat":35.724243,"lon":139.51651},{"name":"小平市立花小金井北公民館","province":"東京都","city":"小平市","address":"小平市花小金井5-41-3","lat":35.734188,"lon":139.510284},{"name":"小平市立小川公民館","province":"東京都","city":"小平市","address":"小平市小川町1-1012","lat":35.725826,"lon":139.459244},{"name":"小平市立小川西町公民館","province":"東京都","city":"小平市","address":"小平市小川西町4-10-13","lat":35.735207,"lon":139.461807},{"name":"小平市立上宿公民館","province":"東京都","city":"小平市","address":"小平市小川町1-308","lat":35.731262,"lon":139.44281},{"name":"小平市立上水南公民館","province":"東京都","city":"小平市","address":"小平市上水南町1-27-1","lat":35.713055,"lon":139.483688},{"name":"小平市立大沼公民館","province":"東京都","city":"小平市","address":"小平市大沼町7-1-17","lat":35.733967,"lon":139.496414},{"name":"小平市立仲町公民館","province":"東京都","city":"小平市","address":"小平市仲町521","lat":35.730274,"lon":139.484863},{"name":"小平市立津田公民館","province":"東京都","city":"小平市","address":"小平市津田町3-11-1","lat":35.720867,"lon":139.470032},{"name":"小平市立鈴木公民館","province":"東京都","city":"小平市","address":"小平市鈴木町2-772","lat":35.722507,"lon":139.507401},{"name":"小平市大沼図書館","province":"東京都","city":"小平市","address":"小平市大沼町7-1-17","lat":35.733967,"lon":139.496414},{"name":"小平市中央図書館","province":"東京都","city":"小平市","address":"小平市小川町2-1325","lat":35.728603,"lon":139.474609},{"name":"小平市中央図書館花小金井北分室","province":"東京都","city":"小平市","address":"小平市花小金井5-41-3","lat":35.734188,"lon":139.510284},{"name":"小平市中央図書館小川分室","province":"東京都","city":"小平市","address":"小平市小川町1-1012","lat":35.725826,"lon":139.459244},{"name":"小平市中央図書館上水南分室","province":"東京都","city":"小平市","address":"小平市上水南町1-27-1","lat":35.713055,"lon":139.483688},{"name":"小平市立花小金井図書館","province":"東京都","city":"小平市","address":"小平市花小金井1-8-1","lat":35.727486,"lon":139.513535},{"name":"小平市立喜平図書館","province":"東京都","city":"小平市","address":"小平市喜平町3-3-18","lat":35.719769,"lon":139.490204},{"name":"小平市立小川西町図書館","province":"東京都","city":"小平市","address":"小平市小川西町4-10-13","lat":35.735207,"lon":139.461807},{"name":"小平市立上宿図書館","province":"東京都","city":"小平市","address":"小平市小川町1-345","lat":35.730995,"lon":139.438889},{"name":"小平市立仲町図書館","province":"東京都","city":"小平市","address":"小平市仲町145","lat":35.731598,"lon":139.483566},{"name":"小平市立津田図書館","province":"東京都","city":"小平市","address":"小平市津田町3-11-1","lat":35.720867,"lon":139.470032},{"name":"小平市鈴木遺跡資料館","province":"東京都","city":"小平市","address":"小平市鈴木町1-487-1","lat":35.718842,"lon":139.496735},{"name":"小平市平櫛田中彫刻美術館","province":"東京都","city":"小平市","address":"小平市学園西町1-7-5","lat":35.718006,"lon":139.475555},{"name":"ひのでセレモニー","province":"東京都","city":"小平市","address":"東京都小平市栄町2丁目29-11","lat":35.7336955,"lon":139.45121901},{"name":"株式会社エムエスジー葬儀の正行","province":"東京都","city":"小平市","address":"東京都小平市学園東町2丁目4-22","lat":35.72311438,"lon":139.48558585},{"name":"有限会社　小平典礼","province":"東京都","city":"小平市","address":"東京都小平市花小金井8丁目1-2","lat":35.73079452,"lon":139.5032617},{"name":"有限会社小平典礼","province":"東京都","city":"小平市","address":"東京都小平市花小金井8丁目1-2","lat":35.73079452,"lon":139.5032617},{"name":"株式会社京典","province":"東京都","city":"小平市","address":"東京都小平市小川西町4丁目33-20","lat":35.73925633,"lon":139.46327602},{"name":"有限会社岩手屋商事","province":"東京都","city":"小平市","address":"東京都小平市学園西町1丁目20-7","lat":35.72013401,"lon":139.48013645},{"name":"小平市中央公民館","province":"東京都","city":"小平市","address":"小平市小川町2-1325","lat":35.728603,"lon":139.474609},{"name":"小平市立花小金井南公民館","province":"東京都","city":"小平市","address":"小平市花小金井南町2-12-6","lat":35.724243,"lon":139.51651},{"name":"小平市立花小金井北公民館","province":"東京都","city":"小平市","address":"小平市花小金井5-41-3","lat":35.734188,"lon":139.510284},{"name":"小平市立小川公民館","province":"東京都","city":"小平市","address":"小平市小川町1-1012","lat":35.725826,"lon":139.459244},{"name":"小平市立小川西町公民館","province":"東京都","city":"小平市","address":"小平市小川西町4-10-13","lat":35.735207,"lon":139.461807},{"name":"小平市立上宿公民館","province":"東京都","city":"小平市","address":"小平市小川町1-308","lat":35.731262,"lon":139.44281},{"name":"小平市立上水南公民館","province":"東京都","city":"小平市","address":"小平市上水南町1-27-1","lat":35.713055,"lon":139.483688},{"name":"小平市立大沼公民館","province":"東京都","city":"小平市","address":"小平市大沼町7-1-17","lat":35.733967,"lon":139.496414},{"name":"小平市立仲町公民館","province":"東京都","city":"小平市","address":"小平市仲町521","lat":35.730274,"lon":139.484863},{"name":"小平市立津田公民館","province":"東京都","city":"小平市","address":"小平市津田町3-11-1","lat":35.720867,"lon":139.470032},{"name":"小平市立鈴木公民館","province":"東京都","city":"小平市","address":"小平市鈴木町2-772","lat":35.722507,"lon":139.507401},{"name":"小平市大沼図書館","province":"東京都","city":"小平市","address":"小平市大沼町7-1-17","lat":35.733967,"lon":139.496414},{"name":"小平市中央図書館","province":"東京都","city":"小平市","address":"小平市小川町2-1325","lat":35.728603,"lon":139.474609},{"name":"小平市中央図書館花小金井北分室","province":"東京都","city":"小平市","address":"小平市花小金井5-41-3","lat":35.734188,"lon":139.510284},{"name":"小平市中央図書館小川分室","province":"東京都","city":"小平市","address":"小平市小川町1-1012","lat":35.725826,"lon":139.459244},{"name":"小平市中央図書館上水南分室","province":"東京都","city":"小平市","address":"小平市上水南町1-27-1","lat":35.713055,"lon":139.483688},{"name":"小平市立花小金井図書館","province":"東京都","city":"小平市","address":"小平市花小金井1-8-1","lat":35.727486,"lon":139.513535},{"name":"小平市立喜平図書館","province":"東京都","city":"小平市","address":"小平市喜平町3-3-18","lat":35.719769,"lon":139.490204},{"name":"小平市立小川西町図書館","province":"東京都","city":"小平市","address":"小平市小川西町4-10-13","lat":35.735207,"lon":139.461807},{"name":"小平市立上宿図書館","province":"東京都","city":"小平市","address":"小平市小川町1-345","lat":35.730995,"lon":139.438889},{"name":"小平市立仲町図書館","province":"東京都","city":"小平市","address":"小平市仲町145","lat":35.731598,"lon":139.483566},{"name":"小平市立津田図書館","province":"東京都","city":"小平市","address":"小平市津田町3-11-1","lat":35.720867,"lon":139.470032},{"name":"小平市鈴木遺跡資料館","province":"東京都","city":"小平市","address":"小平市鈴木町1-487-1","lat":35.718842,"lon":139.496735},{"name":"小平市平櫛田中彫刻美術館","province":"東京都","city":"小平市","address":"小平市学園西町1-7-5","lat":35.718006,"lon":139.475555},{"name":"ひのでセレモニー","province":"東京都","city":"小平市","address":"東京都小平市栄町2丁目29-11","lat":35.7336955,"lon":139.45121901},{"name":"株式会社エムエスジー葬儀の正行","province":"東京都","city":"小平市","address":"東京都小平市学園東町2丁目4-22","lat":35.72311438,"lon":139.48558585},{"name":"有限会社　小平典礼","province":"東京都","city":"小平市","address":"東京都小平市花小金井8丁目1-2","lat":35.73079452,"lon":139.5032617},{"name":"有限会社小平典礼","province":"東京都","city":"小平市","address":"東京都小平市花小金井8丁目1-2","lat":35.73079452,"lon":139.5032617},{"name":"株式会社京典","province":"東京都","city":"小平市","address":"東京都小平市小川西町4丁目33-20","lat":35.73925633,"lon":139.46327602},{"name":"有限会社岩手屋商事","province":"東京都","city":"小平市","address":"東京都小平市学園西町1丁目20-7","lat":35.72013401,"lon":139.48013645},{"name":"小平市中央公民館","province":"東京都","city":"小平市","address":"小平市小川町2-1325","lat":35.728603,"lon":139.474609},{"name":"小平市立花小金井南公民館","province":"東京都","city":"小平市","address":"小平市花小金井南町2-12-6","lat":35.724243,"lon":139.51651},{"name":"小平市立花小金井北公民館","province":"東京都","city":"小平市","address":"小平市花小金井5-41-3","lat":35.734188,"lon":139.510284},{"name":"小平市立小川公民館","province":"東京都","city":"小平市","address":"小平市小川町1-1012","lat":35.725826,"lon":139.459244},{"name":"小平市立小川西町公民館","province":"東京都","city":"小平市","address":"小平市小川西町4-10-13","lat":35.735207,"lon":139.461807},{"name":"小平市立上宿公民館","province":"東京都","city":"小平市","address":"小平市小川町1-308","lat":35.731262,"lon":139.44281},{"name":"小平市立上水南公民館","province":"東京都","city":"小平市","address":"小平市上水南町1-27-1","lat":35.713055,"lon":139.483688},{"name":"小平市立大沼公民館","province":"東京都","city":"小平市","address":"小平市大沼町7-1-17","lat":35.733967,"lon":139.496414},{"name":"小平市立仲町公民館","province":"東京都","city":"小平市","address":"小平市仲町521","lat":35.730274,"lon":139.484863},{"name":"小平市立津田公民館","province":"東京都","city":"小平市","address":"小平市津田町3-11-1","lat":35.720867,"lon":139.470032},{"name":"小平市立鈴木公民館","province":"東京都","city":"小平市","address":"小平市鈴木町2-772","lat":35.722507,"lon":139.507401},{"name":"小平市大沼図書館","province":"東京都","city":"小平市","address":"小平市大沼町7-1-17","lat":35.733967,"lon":139.496414},{"name":"小平市中央図書館","province":"東京都","city":"小平市","address":"小平市小川町2-1325","lat":35.728603,"lon":139.474609},{"name":"小平市中央図書館花小金井北分室","province":"東京都","city":"小平市","address":"小平市花小金井5-41-3","lat":35.734188,"lon":139.510284},{"name":"小平市中央図書館小川分室","province":"東京都","city":"小平市","address":"小平市小川町1-1012","lat":35.725826,"lon":139.459244},{"name":"小平市中央図書館上水南分室","province":"東京都","city":"小平市","address":"小平市上水南町1-27-1","lat":35.713055,"lon":139.483688},{"name":"小平市立花小金井図書館","province":"東京都","city":"小平市","address":"小平市花小金井1-8-1","lat":35.727486,"lon":139.513535},{"name":"小平市立喜平図書館","province":"東京都","city":"小平市","address":"小平市喜平町3-3-18","lat":35.719769,"lon":139.490204},{"name":"小平市立小川西町図書館","province":"東京都","city":"小平市","address":"小平市小川西町4-10-13","lat":35.735207,"lon":139.461807},{"name":"小平市立上宿図書館","province":"東京都","city":"小平市","address":"小平市小川町1-345","lat":35.730995,"lon":139.438889},{"name":"小平市立仲町図書館","province":"東京都","city":"小平市","address":"小平市仲町145","lat":35.731598,"lon":139.483566},{"name":"小平市立津田図書館","province":"東京都","city":"小平市","address":"小平市津田町3-11-1","lat":35.720867,"lon":139.470032},{"name":"小平市鈴木遺跡資料館","province":"東京都","city":"小平市","address":"小平市鈴木町1-487-1","lat":35.718842,"lon":139.496735},{"name":"小平市平櫛田中彫刻美術館","province":"東京都","city":"小平市","address":"小平市学園西町1-7-5","lat":35.718006,"lon":139.475555},{"name":"ひのでセレモニー","province":"東京都","city":"小平市","address":"東京都小平市栄町2丁目29-11","lat":35.7336955,"lon":139.45121901},{"name":"株式会社エムエスジー葬儀の正行","province":"東京都","city":"小平市","address":"東京都小平市学園東町2丁目4-22","lat":35.72311438,"lon":139.48558585},{"name":"有限会社　小平典礼","province":"東京都","city":"小平市","address":"東京都小平市花小金井8丁目1-2","lat":35.73079452,"lon":139.5032617},{"name":"有限会社小平典礼","province":"東京都","city":"小平市","address":"東京都小平市花小金井8丁目1-2","lat":35.73079452,"lon":139.5032617},{"name":"株式会社京典","province":"東京都","city":"小平市","address":"東京都小平市小川西町4丁目33-20","lat":35.73925633,"lon":139.46327602},{"name":"有限会社岩手屋商事","province":"東京都","city":"小平市","address":"東京都小平市学園西町1丁目20-7","lat":35.72013401,"lon":139.48013645},{"name":"小平市中央公民館","province":"東京都","city":"小平市","address":"小平市小川町2-1325","lat":35.728603,"lon":139.474609},{"name":"小平市立花小金井南公民館","province":"東京都","city":"小平市","address":"小平市花小金井南町2-12-6","lat":35.724243,"lon":139.51651},{"name":"小平市立花小金井北公民館","province":"東京都","city":"小平市","address":"小平市花小金井5-41-3","lat":35.734188,"lon":139.510284},{"name":"小平市立小川公民館","province":"東京都","city":"小平市","address":"小平市小川町1-1012","lat":35.725826,"lon":139.459244},{"name":"小平市立小川西町公民館","province":"東京都","city":"小平市","address":"小平市小川西町4-10-13","lat":35.735207,"lon":139.461807},{"name":"小平市立上宿公民館","province":"東京都","city":"小平市","address":"小平市小川町1-308","lat":35.731262,"lon":139.44281},{"name":"小平市立上水南公民館","province":"東京都","city":"小平市","address":"小平市上水南町1-27-1","lat":35.713055,"lon":139.483688},{"name":"小平市立大沼公民館","province":"東京都","city":"小平市","address":"小平市大沼町7-1-17","lat":35.733967,"lon":139.496414},{"name":"小平市立仲町公民館","province":"東京都","city":"小平市","address":"小平市仲町521","lat":35.730274,"lon":139.484863},{"name":"小平市立津田公民館","province":"東京都","city":"小平市","address":"小平市津田町3-11-1","lat":35.720867,"lon":139.470032},{"name":"小平市立鈴木公民館","province":"東京都","city":"小平市","address":"小平市鈴木町2-772","lat":35.722507,"lon":139.507401},{"name":"小平市大沼図書館","province":"東京都","city":"小平市","address":"小平市大沼町7-1-17","lat":35.733967,"lon":139.496414},{"name":"小平市中央図書館","province":"東京都","city":"小平市","address":"小平市小川町2-1325","lat":35.728603,"lon":139.474609},{"name":"小平市中央図書館花小金井北分室","province":"東京都","city":"小平市","address":"小平市花小金井5-41-3","lat":35.734188,"lon":139.510284},{"name":"小平市中央図書館小川分室","province":"東京都","city":"小平市","address":"小平市小川町1-1012","lat":35.725826,"lon":139.459244},{"name":"小平市中央図書館上水南分室","province":"東京都","city":"小平市","address":"小平市上水南町1-27-1","lat":35.713055,"lon":139.483688},{"name":"小平市立花小金井図書館","province":"東京都","city":"小平市","address":"小平市花小金井1-8-1","lat":35.727486,"lon":139.513535},{"name":"小平市立喜平図書館","province":"東京都","city":"小平市","address":"小平市喜平町3-3-18","lat":35.719769,"lon":139.490204},{"name":"小平市立小川西町図書館","province":"東京都","city":"小平市","address":"小平市小川西町4-10-13","lat":35.735207,"lon":139.461807},{"name":"小平市立上宿図書館","province":"東京都","city":"小平市","address":"小平市小川町1-345","lat":35.730995,"lon":139.438889},{"name":"小平市立仲町図書館","province":"東京都","city":"小平市","address":"小平市仲町145","lat":35.731598,"lon":139.483566},{"name":"小平市立津田図書館","province":"東京都","city":"小平市","address":"小平市津田町3-11-1","lat":35.720867,"lon":139.470032},{"name":"小平市鈴木遺跡資料館","province":"東京都","city":"小平市","address":"小平市鈴木町1-487-1","lat":35.718842,"lon":139.496735},{"name":"小平市平櫛田中彫刻美術館","province":"東京都","city":"小平市","address":"小平市学園西町1-7-5","lat":35.718006,"lon":139.475555},{"name":"ひのでセレモニー","province":"東京都","city":"小平市","address":"東京都小平市栄町2丁目29-11","lat":35.7336955,"lon":139.45121901},{"name":"株式会社エムエスジー葬儀の正行","province":"東京都","city":"小平市","address":"東京都小平市学園東町2丁目4-22","lat":35.72311438,"lon":139.48558585},{"name":"有限会社　小平典礼","province":"東京都","city":"小平市","address":"東京都小平市花小金井8丁目1-2","lat":35.73079452,"lon":139.5032617},{"name":"有限会社小平典礼","province":"東京都","city":"小平市","address":"東京都小平市花小金井8丁目1-2","lat":35.73079452,"lon":139.5032617},{"name":"株式会社京典","province":"東京都","city":"小平市","address":"東京都小平市小川西町4丁目33-20","lat":35.73925633,"lon":139.46327602},{"name":"有限会社岩手屋商事","province":"東京都","city":"小平市","address":"東京都小平市学園西町1丁目20-7","lat":35.72013401,"lon":139.48013645},{"name":"小平市中央公民館","province":"東京都","city":"小平市","address":"小平市小川町2-1325","lat":35.728603,"lon":139.474609},{"name":"小平市立花小金井南公民館","province":"東京都","city":"小平市","address":"小平市花小金井南町2-12-6","lat":35.724243,"lon":139.51651},{"name":"小平市立花小金井北公民館","province":"東京都","city":"小平市","address":"小平市花小金井5-41-3","lat":35.734188,"lon":139.510284},{"name":"小平市立小川公民館","province":"東京都","city":"小平市","address":"小平市小川町1-1012","lat":35.725826,"lon":139.459244},{"name":"小平市立小川西町公民館","province":"東京都","city":"小平市","address":"小平市小川西町4-10-13","lat":35.735207,"lon":139.461807},{"name":"小平市立上宿公民館","province":"東京都","city":"小平市","address":"小平市小川町1-308","lat":35.731262,"lon":139.44281},{"name":"小平市立上水南公民館","province":"東京都","city":"小平市","address":"小平市上水南町1-27-1","lat":35.713055,"lon":139.483688},{"name":"小平市立大沼公民館","province":"東京都","city":"小平市","address":"小平市大沼町7-1-17","lat":35.733967,"lon":139.496414},{"name":"小平市立仲町公民館","province":"東京都","city":"小平市","address":"小平市仲町521","lat":35.730274,"lon":139.484863},{"name":"小平市立津田公民館","province":"東京都","city":"小平市","address":"小平市津田町3-11-1","lat":35.720867,"lon":139.470032},{"name":"小平市立鈴木公民館","province":"東京都","city":"小平市","address":"小平市鈴木町2-772","lat":35.722507,"lon":139.507401},{"name":"小平市大沼図書館","province":"東京都","city":"小平市","address":"小平市大沼町7-1-17","lat":35.733967,"lon":139.496414},{"name":"小平市中央図書館","province":"東京都","city":"小平市","address":"小平市小川町2-1325","lat":35.728603,"lon":139.474609},{"name":"小平市中央図書館花小金井北分室","province":"東京都","city":"小平市","address":"小平市花小金井5-41-3","lat":35.734188,"lon":139.510284},{"name":"小平市中央図書館小川分室","province":"東京都","city":"小平市","address":"小平市小川町1-1012","lat":35.725826,"lon":139.459244},{"name":"小平市中央図書館上水南分室","province":"東京都","city":"小平市","address":"小平市上水南町1-27-1","lat":35.713055,"lon":139.483688},{"name":"小平市立花小金井図書館","province":"東京都","city":"小平市","address":"小平市花小金井1-8-1","lat":35.727486,"lon":139.513535},{"name":"小平市立喜平図書館","province":"東京都","city":"小平市","address":"小平市喜平町3-3-18","lat":35.719769,"lon":139.490204},{"name":"小平市立小川西町図書館","province":"東京都","city":"小平市","address":"小平市小川西町4-10-13","lat":35.735207,"lon":139.461807},{"name":"小平市立上宿図書館","province":"東京都","city":"小平市","address":"小平市小川町1-345","lat":35.730995,"lon":139.438889},{"name":"小平市立仲町図書館","province":"東京都","city":"小平市","address":"小平市仲町145","lat":35.731598,"lon":139.483566},{"name":"小平市立津田図書館","province":"東京都","city":"小平市","address":"小平市津田町3-11-1","lat":35.720867,"lon":139.470032},{"name":"小平市鈴木遺跡資料館","province":"東京都","city":"小平市","address":"小平市鈴木町1-487-1","lat":35.718842,"lon":139.496735},{"name":"小平市平櫛田中彫刻美術館","province":"東京都","city":"小平市","address":"小平市学園西町1-7-5","lat":35.718006,"lon":139.475555},{"name":"ひのでセレモニー","province":"東京都","city":"小平市","address":"東京都小平市栄町2丁目29-11","lat":35.7336955,"lon":139.45121901},{"name":"株式会社エムエスジー葬儀の正行","province":"東京都","city":"小平市","address":"東京都小平市学園東町2丁目4-22","lat":35.72311438,"lon":139.48558585},{"name":"有限会社　小平典礼","province":"東京都","city":"小平市","address":"東京都小平市花小金井8丁目1-2","lat":35.73079452,"lon":139.5032617},{"name":"有限会社小平典礼","province":"東京都","city":"小平市","address":"東京都小平市花小金井8丁目1-2","lat":35.73079452,"lon":139.5032617},{"name":"株式会社京典","province":"東京都","city":"小平市","address":"東京都小平市小川西町4丁目33-20","lat":35.73925633,"lon":139.46327602},{"name":"有限会社岩手屋商事","province":"東京都","city":"小平市","address":"東京都小平市学園西町1丁目20-7","lat":35.72013401,"lon":139.48013645},{"name":"小平市中央公民館","province":"東京都","city":"小平市","address":"小平市小川町2-1325","lat":35.728603,"lon":139.474609},{"name":"小平市立花小金井南公民館","province":"東京都","city":"小平市","address":"小平市花小金井南町2-12-6","lat":35.724243,"lon":139.51651},{"name":"小平市立花小金井北公民館","province":"東京都","city":"小平市","address":"小平市花小金井5-41-3","lat":35.734188,"lon":139.510284},{"name":"小平市立小川公民館","province":"東京都","city":"小平市","address":"小平市小川町1-1012","lat":35.725826,"lon":139.459244},{"name":"小平市立小川西町公民館","province":"東京都","city":"小平市","address":"小平市小川西町4-10-13","lat":35.735207,"lon":139.461807},{"name":"小平市立上宿公民館","province":"東京都","city":"小平市","address":"小平市小川町1-308","lat":35.731262,"lon":139.44281},{"name":"小平市立上水南公民館","province":"東京都","city":"小平市","address":"小平市上水南町1-27-1","lat":35.713055,"lon":139.483688},{"name":"小平市立大沼公民館","province":"東京都","city":"小平市","address":"小平市大沼町7-1-17","lat":35.733967,"lon":139.496414},{"name":"小平市立仲町公民館","province":"東京都","city":"小平市","address":"小平市仲町521","lat":35.730274,"lon":139.484863},{"name":"小平市立津田公民館","province":"東京都","city":"小平市","address":"小平市津田町3-11-1","lat":35.720867,"lon":139.470032},{"name":"小平市立鈴木公民館","province":"東京都","city":"小平市","address":"小平市鈴木町2-772","lat":35.722507,"lon":139.507401},{"name":"小平市大沼図書館","province":"東京都","city":"小平市","address":"小平市大沼町7-1-17","lat":35.733967,"lon":139.496414},{"name":"小平市中央図書館","province":"東京都","city":"小平市","address":"小平市小川町2-1325","lat":35.728603,"lon":139.474609},{"name":"小平市中央図書館花小金井北分室","province":"東京都","city":"小平市","address":"小平市花小金井5-41-3","lat":35.734188,"lon":139.510284},{"name":"小平市中央図書館小川分室","province":"東京都","city":"小平市","address":"小平市小川町1-1012","lat":35.725826,"lon":139.459244},{"name":"小平市中央図書館上水南分室","province":"東京都","city":"小平市","address":"小平市上水南町1-27-1","lat":35.713055,"lon":139.483688},{"name":"小平市立花小金井図書館","province":"東京都","city":"小平市","address":"小平市花小金井1-8-1","lat":35.727486,"lon":139.513535},{"name":"小平市立喜平図書館","province":"東京都","city":"小平市","address":"小平市喜平町3-3-18","lat":35.719769,"lon":139.490204},{"name":"小平市立小川西町図書館","province":"東京都","city":"小平市","address":"小平市小川西町4-10-13","lat":35.735207,"lon":139.461807},{"name":"小平市立上宿図書館","province":"東京都","city":"小平市","address":"小平市小川町1-345","lat":35.730995,"lon":139.438889},{"name":"小平市立仲町図書館","province":"東京都","city":"小平市","address":"小平市仲町145","lat":35.731598,"lon":139.483566},{"name":"小平市立津田図書館","province":"東京都","city":"小平市","address":"小平市津田町3-11-1","lat":35.720867,"lon":139.470032},{"name":"小平市鈴木遺跡資料館","province":"東京都","city":"小平市","address":"小平市鈴木町1-487-1","lat":35.718842,"lon":139.496735},{"name":"小平市平櫛田中彫刻美術館","province":"東京都","city":"小平市","address":"小平市学園西町1-7-5","lat":35.718006,"lon":139.475555},{"name":"ひのでセレモニー","province":"東京都","city":"小平市","address":"東京都小平市栄町2丁目29-11","lat":35.7336955,"lon":139.45121901},{"name":"株式会社エムエスジー葬儀の正行","province":"東京都","city":"小平市","address":"東京都小平市学園東町2丁目4-22","lat":35.72311438,"lon":139.48558585},{"name":"有限会社　小平典礼","province":"東京都","city":"小平市","address":"東京都小平市花小金井8丁目1-2","lat":35.73079452,"lon":139.5032617},{"name":"有限会社小平典礼","province":"東京都","city":"小平市","address":"東京都小平市花小金井8丁目1-2","lat":35.73079452,"lon":139.5032617},{"name":"株式会社京典","province":"東京都","city":"小平市","address":"東京都小平市小川西町4丁目33-20","lat":35.73925633,"lon":139.46327602},{"name":"有限会社岩手屋商事","province":"東京都","city":"小平市","address":"東京都小平市学園西町1丁目20-7","lat":35.72013401,"lon":139.48013645},{"name":"小平市中央公民館","province":"東京都","city":"小平市","address":"小平市小川町2-1325","lat":35.728603,"lon":139.474609},{"name":"小平市立花小金井南公民館","province":"東京都","city":"小平市","address":"小平市花小金井南町2-12-6","lat":35.724243,"lon":139.51651},{"name":"小平市立花小金井北公民館","province":"東京都","city":"小平市","address":"小平市花小金井5-41-3","lat":35.734188,"lon":139.510284},{"name":"小平市立小川公民館","province":"東京都","city":"小平市","address":"小平市小川町1-1012","lat":35.725826,"lon":139.459244},{"name":"小平市立小川西町公民館","province":"東京都","city":"小平市","address":"小平市小川西町4-10-13","lat":35.735207,"lon":139.461807},{"name":"小平市立上宿公民館","province":"東京都","city":"小平市","address":"小平市小川町1-308","lat":35.731262,"lon":139.44281},{"name":"小平市立上水南公民館","province":"東京都","city":"小平市","address":"小平市上水南町1-27-1","lat":35.713055,"lon":139.483688},{"name":"小平市立大沼公民館","province":"東京都","city":"小平市","address":"小平市大沼町7-1-17","lat":35.733967,"lon":139.496414},{"name":"小平市立仲町公民館","province":"東京都","city":"小平市","address":"小平市仲町521","lat":35.730274,"lon":139.484863},{"name":"小平市立津田公民館","province":"東京都","city":"小平市","address":"小平市津田町3-11-1","lat":35.720867,"lon":139.470032},{"name":"小平市立鈴木公民館","province":"東京都","city":"小平市","address":"小平市鈴木町2-772","lat":35.722507,"lon":139.507401},{"name":"小平市大沼図書館","province":"東京都","city":"小平市","address":"小平市大沼町7-1-17","lat":35.733967,"lon":139.496414},{"name":"小平市中央図書館","province":"東京都","city":"小平市","address":"小平市小川町2-1325","lat":35.728603,"lon":139.474609},{"name":"小平市中央図書館花小金井北分室","province":"東京都","city":"小平市","address":"小平市花小金井5-41-3","lat":35.734188,"lon":139.510284},{"name":"小平市中央図書館小川分室","province":"東京都","city":"小平市","address":"小平市小川町1-1012","lat":35.725826,"lon":139.459244},{"name":"小平市中央図書館上水南分室","province":"東京都","city":"小平市","address":"小平市上水南町1-27-1","lat":35.713055,"lon":139.483688},{"name":"小平市立花小金井図書館","province":"東京都","city":"小平市","address":"小平市花小金井1-8-1","lat":35.727486,"lon":139.513535},{"name":"小平市立喜平図書館","province":"東京都","city":"小平市","address":"小平市喜平町3-3-18","lat":35.719769,"lon":139.490204},{"name":"小平市立小川西町図書館","province":"東京都","city":"小平市","address":"小平市小川西町4-10-13","lat":35.735207,"lon":139.461807},{"name":"小平市立上宿図書館","province":"東京都","city":"小平市","address":"小平市小川町1-345","lat":35.730995,"lon":139.438889},{"name":"小平市立仲町図書館","province":"東京都","city":"小平市","address":"小平市仲町145","lat":35.731598,"lon":139.483566},{"name":"小平市立津田図書館","province":"東京都","city":"小平市","address":"小平市津田町3-11-1","lat":35.720867,"lon":139.470032},{"name":"小平市鈴木遺跡資料館","province":"東京都","city":"小平市","address":"小平市鈴木町1-487-1","lat":35.718842,"lon":139.496735},{"name":"小平市平櫛田中彫刻美術館","province":"東京都","city":"小平市","address":"小平市学園西町1-7-5","lat":35.718006,"lon":139.475555},{"name":"ひのでセレモニー","province":"東京都","city":"小平市","address":"東京都小平市栄町2丁目29-11","lat":35.7336955,"lon":139.45121901},{"name":"株式会社エムエスジー葬儀の正行","province":"東京都","city":"小平市","address":"東京都小平市学園東町2丁目4-22","lat":35.72311438,"lon":139.48558585},{"name":"有限会社　小平典礼","province":"東京都","city":"小平市","address":"東京都小平市花小金井8丁目1-2","lat":35.73079452,"lon":139.5032617},{"name":"有限会社小平典礼","province":"東京都","city":"小平市","address":"東京都小平市花小金井8丁目1-2","lat":35.73079452,"lon":139.5032617},{"name":"株式会社京典","province":"東京都","city":"小平市","address":"東京都小平市小川西町4丁目33-20","lat":35.73925633,"lon":139.46327602},{"name":"有限会社岩手屋商事","province":"東京都","city":"小平市","address":"東京都小平市学園西町1丁目20-7","lat":35.72013401,"lon":139.48013645},{"name":"小平市中央公民館","province":"東京都","city":"小平市","address":"小平市小川町2-1325","lat":35.728603,"lon":139.474609},{"name":"小平市立花小金井南公民館","province":"東京都","city":"小平市","address":"小平市花小金井南町2-12-6","lat":35.724243,"lon":139.51651},{"name":"小平市立花小金井北公民館","province":"東京都","city":"小平市","address":"小平市花小金井5-41-3","lat":35.734188,"lon":139.510284},{"name":"小平市立小川公民館","province":"東京都","city":"小平市","address":"小平市小川町1-1012","lat":35.725826,"lon":139.459244},{"name":"小平市立小川西町公民館","province":"東京都","city":"小平市","address":"小平市小川西町4-10-13","lat":35.735207,"lon":139.461807},{"name":"小平市立上宿公民館","province":"東京都","city":"小平市","address":"小平市小川町1-308","lat":35.731262,"lon":139.44281},{"name":"小平市立上水南公民館","province":"東京都","city":"小平市","address":"小平市上水南町1-27-1","lat":35.713055,"lon":139.483688},{"name":"小平市立大沼公民館","province":"東京都","city":"小平市","address":"小平市大沼町7-1-17","lat":35.733967,"lon":139.496414},{"name":"小平市立仲町公民館","province":"東京都","city":"小平市","address":"小平市仲町521","lat":35.730274,"lon":139.484863},{"name":"小平市立津田公民館","province":"東京都","city":"小平市","address":"小平市津田町3-11-1","lat":35.720867,"lon":139.470032},{"name":"小平市立鈴木公民館","province":"東京都","city":"小平市","address":"小平市鈴木町2-772","lat":35.722507,"lon":139.507401},{"name":"小平市大沼図書館","province":"東京都","city":"小平市","address":"小平市大沼町7-1-17","lat":35.733967,"lon":139.496414},{"name":"小平市中央図書館","province":"東京都","city":"小平市","address":"小平市小川町2-1325","lat":35.728603,"lon":139.474609},{"name":"小平市中央図書館花小金井北分室","province":"東京都","city":"小平市","address":"小平市花小金井5-41-3","lat":35.734188,"lon":139.510284},{"name":"小平市中央図書館小川分室","province":"東京都","city":"小平市","address":"小平市小川町1-1012","lat":35.725826,"lon":139.459244},{"name":"小平市中央図書館上水南分室","province":"東京都","city":"小平市","address":"小平市上水南町1-27-1","lat":35.713055,"lon":139.483688},{"name":"小平市立花小金井図書館","province":"東京都","city":"小平市","address":"小平市花小金井1-8-1","lat":35.727486,"lon":139.513535},{"name":"小平市立喜平図書館","province":"東京都","city":"小平市","address":"小平市喜平町3-3-18","lat":35.719769,"lon":139.490204},{"name":"小平市立小川西町図書館","province":"東京都","city":"小平市","address":"小平市小川西町4-10-13","lat":35.735207,"lon":139.461807},{"name":"小平市立上宿図書館","province":"東京都","city":"小平市","address":"小平市小川町1-345","lat":35.730995,"lon":139.438889},{"name":"小平市立仲町図書館","province":"東京都","city":"小平市","address":"小平市仲町145","lat":35.731598,"lon":139.483566},{"name":"小平市立津田図書館","province":"東京都","city":"小平市","address":"小平市津田町3-11-1","lat":35.720867,"lon":139.470032},{"name":"小平市鈴木遺跡資料館","province":"東京都","city":"小平市","address":"小平市鈴木町1-487-1","lat":35.718842,"lon":139.496735},{"name":"小平市平櫛田中彫刻美術館","province":"東京都","city":"小平市","address":"小平市学園西町1-7-5","lat":35.718006,"lon":139.475555},{"name":"ひのでセレモニー","province":"東京都","city":"小平市","address":"東京都小平市栄町2丁目29-11","lat":35.7336955,"lon":139.45121901},{"name":"株式会社エムエスジー葬儀の正行","province":"東京都","city":"小平市","address":"東京都小平市学園東町2丁目4-22","lat":35.72311438,"lon":139.48558585},{"name":"有限会社　小平典礼","province":"東京都","city":"小平市","address":"東京都小平市花小金井8丁目1-2","lat":35.73079452,"lon":139.5032617},{"name":"有限会社小平典礼","province":"東京都","city":"小平市","address":"東京都小平市花小金井8丁目1-2","lat":35.73079452,"lon":139.5032617},{"name":"株式会社京典","province":"東京都","city":"小平市","address":"東京都小平市小川西町4丁目33-20","lat":35.73925633,"lon":139.46327602},{"name":"有限会社岩手屋商事","province":"東京都","city":"小平市","address":"東京都小平市学園西町1丁目20-7","lat":35.72013401,"lon":139.48013645},{"name":"小平市中央公民館","province":"東京都","city":"小平市","address":"小平市小川町2-1325","lat":35.728603,"lon":139.474609},{"name":"小平市立花小金井南公民館","province":"東京都","city":"小平市","address":"小平市花小金井南町2-12-6","lat":35.724243,"lon":139.51651},{"name":"小平市立花小金井北公民館","province":"東京都","city":"小平市","address":"小平市花小金井5-41-3","lat":35.734188,"lon":139.510284},{"name":"小平市立小川公民館","province":"東京都","city":"小平市","address":"小平市小川町1-1012","lat":35.725826,"lon":139.459244},{"name":"小平市立小川西町公民館","province":"東京都","city":"小平市","address":"小平市小川西町4-10-13","lat":35.735207,"lon":139.461807},{"name":"小平市立上宿公民館","province":"東京都","city":"小平市","address":"小平市小川町1-308","lat":35.731262,"lon":139.44281},{"name":"小平市立上水南公民館","province":"東京都","city":"小平市","address":"小平市上水南町1-27-1","lat":35.713055,"lon":139.483688},{"name":"小平市立大沼公民館","province":"東京都","city":"小平市","address":"小平市大沼町7-1-17","lat":35.733967,"lon":139.496414},{"name":"小平市立仲町公民館","province":"東京都","city":"小平市","address":"小平市仲町521","lat":35.730274,"lon":139.484863},{"name":"小平市立津田公民館","province":"東京都","city":"小平市","address":"小平市津田町3-11-1","lat":35.720867,"lon":139.470032},{"name":"小平市立鈴木公民館","province":"東京都","city":"小平市","address":"小平市鈴木町2-772","lat":35.722507,"lon":139.507401},{"name":"小平市大沼図書館","province":"東京都","city":"小平市","address":"小平市大沼町7-1-17","lat":35.733967,"lon":139.496414},{"name":"小平市中央図書館","province":"東京都","city":"小平市","address":"小平市小川町2-1325","lat":35.728603,"lon":139.474609},{"name":"小平市中央図書館花小金井北分室","province":"東京都","city":"小平市","address":"小平市花小金井5-41-3","lat":35.734188,"lon":139.510284},{"name":"小平市中央図書館小川分室","province":"東京都","city":"小平市","address":"小平市小川町1-1012","lat":35.725826,"lon":139.459244},{"name":"小平市中央図書館上水南分室","province":"東京都","city":"小平市","address":"小平市上水南町1-27-1","lat":35.713055,"lon":139.483688},{"name":"小平市立花小金井図書館","province":"東京都","city":"小平市","address":"小平市花小金井1-8-1","lat":35.727486,"lon":139.513535},{"name":"小平市立喜平図書館","province":"東京都","city":"小平市","address":"小平市喜平町3-3-18","lat":35.719769,"lon":139.490204},{"name":"小平市立小川西町図書館","province":"東京都","city":"小平市","address":"小平市小川西町4-10-13","lat":35.735207,"lon":139.461807},{"name":"小平市立上宿図書館","province":"東京都","city":"小平市","address":"小平市小川町1-345","lat":35.730995,"lon":139.438889},{"name":"小平市立仲町図書館","province":"東京都","city":"小平市","address":"小平市仲町145","lat":35.731598,"lon":139.483566},{"name":"小平市立津田図書館","province":"東京都","city":"小平市","address":"小平市津田町3-11-1","lat":35.720867,"lon":139.470032},{"name":"小平市鈴木遺跡資料館","province":"東京都","city":"小平市","address":"小平市鈴木町1-487-1","lat":35.718842,"lon":139.496735},{"name":"小平市平櫛田中彫刻美術館","province":"東京都","city":"小平市","address":"小平市学園西町1-7-5","lat":35.718006,"lon":139.475555},{"name":"ひのでセレモニー","province":"東京都","city":"小平市","address":"東京都小平市栄町2丁目29-11","lat":35.7336955,"lon":139.45121901},{"name":"株式会社エムエスジー葬儀の正行","province":"東京都","city":"小平市","address":"東京都小平市学園東町2丁目4-22","lat":35.72311438,"lon":139.48558585},{"name":"有限会社　小平典礼","province":"東京都","city":"小平市","address":"東京都小平市花小金井8丁目1-2","lat":35.73079452,"lon":139.5032617},{"name":"有限会社小平典礼","province":"東京都","city":"小平市","address":"東京都小平市花小金井8丁目1-2","lat":35.73079452,"lon":139.5032617},{"name":"株式会社京典","province":"東京都","city":"小平市","address":"東京都小平市小川西町4丁目33-20","lat":35.73925633,"lon":139.46327602},{"name":"有限会社岩手屋商事","province":"東京都","city":"小平市","address":"東京都小平市学園西町1丁目20-7","lat":35.72013401,"lon":139.48013645},{"name":"小平市中央公民館","province":"東京都","city":"小平市","address":"小平市小川町2-1325","lat":35.728603,"lon":139.474609},{"name":"小平市立花小金井南公民館","province":"東京都","city":"小平市","address":"小平市花小金井南町2-12-6","lat":35.724243,"lon":139.51651},{"name":"小平市立花小金井北公民館","province":"東京都","city":"小平市","address":"小平市花小金井5-41-3","lat":35.734188,"lon":139.510284},{"name":"小平市立小川公民館","province":"東京都","city":"小平市","address":"小平市小川町1-1012","lat":35.725826,"lon":139.459244},{"name":"小平市立小川西町公民館","province":"東京都","city":"小平市","address":"小平市小川西町4-10-13","lat":35.735207,"lon":139.461807},{"name":"小平市立上宿公民館","province":"東京都","city":"小平市","address":"小平市小川町1-308","lat":35.731262,"lon":139.44281},{"name":"小平市立上水南公民館","province":"東京都","city":"小平市","address":"小平市上水南町1-27-1","lat":35.713055,"lon":139.483688},{"name":"小平市立大沼公民館","province":"東京都","city":"小平市","address":"小平市大沼町7-1-17","lat":35.733967,"lon":139.496414},{"name":"小平市立仲町公民館","province":"東京都","city":"小平市","address":"小平市仲町521","lat":35.730274,"lon":139.484863},{"name":"小平市立津田公民館","province":"東京都","city":"小平市","address":"小平市津田町3-11-1","lat":35.720867,"lon":139.470032},{"name":"小平市立鈴木公民館","province":"東京都","city":"小平市","address":"小平市鈴木町2-772","lat":35.722507,"lon":139.507401},{"name":"小平市大沼図書館","province":"東京都","city":"小平市","address":"小平市大沼町7-1-17","lat":35.733967,"lon":139.496414},{"name":"小平市中央図書館","province":"東京都","city":"小平市","address":"小平市小川町2-1325","lat":35.728603,"lon":139.474609},{"name":"小平市中央図書館花小金井北分室","province":"東京都","city":"小平市","address":"小平市花小金井5-41-3","lat":35.734188,"lon":139.510284},{"name":"小平市中央図書館小川分室","province":"東京都","city":"小平市","address":"小平市小川町1-1012","lat":35.725826,"lon":139.459244},{"name":"小平市中央図書館上水南分室","province":"東京都","city":"小平市","address":"小平市上水南町1-27-1","lat":35.713055,"lon":139.483688},{"name":"小平市立花小金井図書館","province":"東京都","city":"小平市","address":"小平市花小金井1-8-1","lat":35.727486,"lon":139.513535},{"name":"小平市立喜平図書館","province":"東京都","city":"小平市","address":"小平市喜平町3-3-18","lat":35.719769,"lon":139.490204},{"name":"小平市立小川西町図書館","province":"東京都","city":"小平市","address":"小平市小川西町4-10-13","lat":35.735207,"lon":139.461807},{"name":"小平市立上宿図書館","province":"東京都","city":"小平市","address":"小平市小川町1-345","lat":35.730995,"lon":139.438889},{"name":"小平市立仲町図書館","province":"東京都","city":"小平市","address":"小平市仲町145","lat":35.731598,"lon":139.483566},{"name":"小平市立津田図書館","province":"東京都","city":"小平市","address":"小平市津田町3-11-1","lat":35.720867,"lon":139.470032},{"name":"小平市鈴木遺跡資料館","province":"東京都","city":"小平市","address":"小平市鈴木町1-487-1","lat":35.718842,"lon":139.496735},{"name":"小平市平櫛田中彫刻美術館","province":"東京都","city":"小平市","address":"小平市学園西町1-7-5","lat":35.718006,"lon":139.475555},{"name":"ひのでセレモニー","province":"東京都","city":"小平市","address":"東京都小平市栄町2丁目29-11","lat":35.7336955,"lon":139.45121901},{"name":"株式会社エムエスジー葬儀の正行","province":"東京都","city":"小平市","address":"東京都小平市学園東町2丁目4-22","lat":35.72311438,"lon":139.48558585},{"name":"有限会社　小平典礼","province":"東京都","city":"小平市","address":"東京都小平市花小金井8丁目1-2","lat":35.73079452,"lon":139.5032617},{"name":"有限会社小平典礼","province":"東京都","city":"小平市","address":"東京都小平市花小金井8丁目1-2","lat":35.73079452,"lon":139.5032617},{"name":"株式会社京典","province":"東京都","city":"小平市","address":"東京都小平市小川西町4丁目33-20","lat":35.73925633,"lon":139.46327602},{"name":"有限会社岩手屋商事","province":"東京都","city":"小平市","address":"東京都小平市学園西町1丁目20-7","lat":35.72013401,"lon":139.48013645},{"name":"小平市中央公民館","province":"東京都","city":"小平市","address":"小平市小川町2-1325","lat":35.728603,"lon":139.474609},{"name":"小平市立花小金井南公民館","province":"東京都","city":"小平市","address":"小平市花小金井南町2-12-6","lat":35.724243,"lon":139.51651},{"name":"小平市立花小金井北公民館","province":"東京都","city":"小平市","address":"小平市花小金井5-41-3","lat":35.734188,"lon":139.510284},{"name":"小平市立小川公民館","province":"東京都","city":"小平市","address":"小平市小川町1-1012","lat":35.725826,"lon":139.459244},{"name":"小平市立小川西町公民館","province":"東京都","city":"小平市","address":"小平市小川西町4-10-13","lat":35.735207,"lon":139.461807},{"name":"小平市立上宿公民館","province":"東京都","city":"小平市","address":"小平市小川町1-308","lat":35.731262,"lon":139.44281},{"name":"小平市立上水南公民館","province":"東京都","city":"小平市","address":"小平市上水南町1-27-1","lat":35.713055,"lon":139.483688},{"name":"小平市立大沼公民館","province":"東京都","city":"小平市","address":"小平市大沼町7-1-17","lat":35.733967,"lon":139.496414},{"name":"小平市立仲町公民館","province":"東京都","city":"小平市","address":"小平市仲町521","lat":35.730274,"lon":139.484863},{"name":"小平市立津田公民館","province":"東京都","city":"小平市","address":"小平市津田町3-11-1","lat":35.720867,"lon":139.470032},{"name":"小平市立鈴木公民館","province":"東京都","city":"小平市","address":"小平市鈴木町2-772","lat":35.722507,"lon":139.507401},{"name":"小平市大沼図書館","province":"東京都","city":"小平市","address":"小平市大沼町7-1-17","lat":35.733967,"lon":139.496414},{"name":"小平市中央図書館","province":"東京都","city":"小平市","address":"小平市小川町2-1325","lat":35.728603,"lon":139.474609},{"name":"小平市中央図書館花小金井北分室","province":"東京都","city":"小平市","address":"小平市花小金井5-41-3","lat":35.734188,"lon":139.510284},{"name":"小平市中央図書館小川分室","province":"東京都","city":"小平市","address":"小平市小川町1-1012","lat":35.725826,"lon":139.459244},{"name":"小平市中央図書館上水南分室","province":"東京都","city":"小平市","address":"小平市上水南町1-27-1","lat":35.713055,"lon":139.483688},{"name":"小平市立花小金井図書館","province":"東京都","city":"小平市","address":"小平市花小金井1-8-1","lat":35.727486,"lon":139.513535},{"name":"小平市立喜平図書館","province":"東京都","city":"小平市","address":"小平市喜平町3-3-18","lat":35.719769,"lon":139.490204},{"name":"小平市立小川西町図書館","province":"東京都","city":"小平市","address":"小平市小川西町4-10-13","lat":35.735207,"lon":139.461807},{"name":"小平市立上宿図書館","province":"東京都","city":"小平市","address":"小平市小川町1-345","lat":35.730995,"lon":139.438889},{"name":"小平市立仲町図書館","province":"東京都","city":"小平市","address":"小平市仲町145","lat":35.731598,"lon":139.483566},{"name":"小平市立津田図書館","province":"東京都","city":"小平市","address":"小平市津田町3-11-1","lat":35.720867,"lon":139.470032},{"name":"小平市鈴木遺跡資料館","province":"東京都","city":"小平市","address":"小平市鈴木町1-487-1","lat":35.718842,"lon":139.496735},{"name":"小平市平櫛田中彫刻美術館","province":"東京都","city":"小平市","address":"小平市学園西町1-7-5","lat":35.718006,"lon":139.475555},{"name":"ひのでセレモニー","province":"東京都","city":"小平市","address":"東京都小平市栄町2丁目29-11","lat":35.7336955,"lon":139.45121901},{"name":"株式会社エムエスジー葬儀の正行","province":"東京都","city":"小平市","address":"東京都小平市学園東町2丁目4-22","lat":35.72311438,"lon":139.48558585},{"name":"有限会社　小平典礼","province":"東京都","city":"小平市","address":"東京都小平市花小金井8丁目1-2","lat":35.73079452,"lon":139.5032617},{"name":"有限会社小平典礼","province":"東京都","city":"小平市","address":"東京都小平市花小金井8丁目1-2","lat":35.73079452,"lon":139.5032617},{"name":"株式会社京典","province":"東京都","city":"小平市","address":"東京都小平市小川西町4丁目33-20","lat":35.73925633,"lon":139.46327602},{"name":"有限会社岩手屋商事","province":"東京都","city":"小平市","address":"東京都小平市学園西町1丁目20-7","lat":35.72013401,"lon":139.48013645},{"name":"小平市中央公民館","province":"東京都","city":"小平市","address":"小平市小川町2-1325","lat":35.728603,"lon":139.474609},{"name":"小平市立花小金井南公民館","province":"東京都","city":"小平市","address":"小平市花小金井南町2-12-6","lat":35.724243,"lon":139.51651},{"name":"小平市立花小金井北公民館","province":"東京都","city":"小平市","address":"小平市花小金井5-41-3","lat":35.734188,"lon":139.510284},{"name":"小平市立小川公民館","province":"東京都","city":"小平市","address":"小平市小川町1-1012","lat":35.725826,"lon":139.459244},{"name":"小平市立小川西町公民館","province":"東京都","city":"小平市","address":"小平市小川西町4-10-13","lat":35.735207,"lon":139.461807},{"name":"小平市立上宿公民館","province":"東京都","city":"小平市","address":"小平市小川町1-308","lat":35.731262,"lon":139.44281},{"name":"小平市立上水南公民館","province":"東京都","city":"小平市","address":"小平市上水南町1-27-1","lat":35.713055,"lon":139.483688},{"name":"小平市立大沼公民館","province":"東京都","city":"小平市","address":"小平市大沼町7-1-17","lat":35.733967,"lon":139.496414},{"name":"小平市立仲町公民館","province":"東京都","city":"小平市","address":"小平市仲町521","lat":35.730274,"lon":139.484863},{"name":"小平市立津田公民館","province":"東京都","city":"小平市","address":"小平市津田町3-11-1","lat":35.720867,"lon":139.470032},{"name":"小平市立鈴木公民館","province":"東京都","city":"小平市","address":"小平市鈴木町2-772","lat":35.722507,"lon":139.507401},{"name":"小平市大沼図書館","province":"東京都","city":"小平市","address":"小平市大沼町7-1-17","lat":35.733967,"lon":139.496414},{"name":"小平市中央図書館","province":"東京都","city":"小平市","address":"小平市小川町2-1325","lat":35.728603,"lon":139.474609},{"name":"小平市中央図書館花小金井北分室","province":"東京都","city":"小平市","address":"小平市花小金井5-41-3","lat":35.734188,"lon":139.510284},{"name":"小平市中央図書館小川分室","province":"東京都","city":"小平市","address":"小平市小川町1-1012","lat":35.725826,"lon":139.459244},{"name":"小平市中央図書館上水南分室","province":"東京都","city":"小平市","address":"小平市上水南町1-27-1","lat":35.713055,"lon":139.483688},{"name":"小平市立花小金井図書館","province":"東京都","city":"小平市","address":"小平市花小金井1-8-1","lat":35.727486,"lon":139.513535},{"name":"小平市立喜平図書館","province":"東京都","city":"小平市","address":"小平市喜平町3-3-18","lat":35.719769,"lon":139.490204},{"name":"小平市立小川西町図書館","province":"東京都","city":"小平市","address":"小平市小川西町4-10-13","lat":35.735207,"lon":139.461807},{"name":"小平市立上宿図書館","province":"東京都","city":"小平市","address":"小平市小川町1-345","lat":35.730995,"lon":139.438889},{"name":"小平市立仲町図書館","province":"東京都","city":"小平市","address":"小平市仲町145","lat":35.731598,"lon":139.483566},{"name":"小平市立津田図書館","province":"東京都","city":"小平市","address":"小平市津田町3-11-1","lat":35.720867,"lon":139.470032},{"name":"小平市鈴木遺跡資料館","province":"東京都","city":"小平市","address":"小平市鈴木町1-487-1","lat":35.718842,"lon":139.496735},{"name":"小平市平櫛田中彫刻美術館","province":"東京都","city":"小平市","address":"小平市学園西町1-7-5","lat":35.718006,"lon":139.475555},{"name":"ひのでセレモニー","province":"東京都","city":"小平市","address":"東京都小平市栄町2丁目29-11","lat":35.7336955,"lon":139.45121901},{"name":"株式会社エムエスジー葬儀の正行","province":"東京都","city":"小平市","address":"東京都小平市学園東町2丁目4-22","lat":35.72311438,"lon":139.48558585},{"name":"有限会社　小平典礼","province":"東京都","city":"小平市","address":"東京都小平市花小金井8丁目1-2","lat":35.73079452,"lon":139.5032617},{"name":"有限会社小平典礼","province":"東京都","city":"小平市","address":"東京都小平市花小金井8丁目1-2","lat":35.73079452,"lon":139.5032617},{"name":"株式会社京典","province":"東京都","city":"小平市","address":"東京都小平市小川西町4丁目33-20","lat":35.73925633,"lon":139.46327602},{"name":"有限会社岩手屋商事","province":"東京都","city":"小平市","address":"東京都小平市学園西町1丁目20-7","lat":35.72013401,"lon":139.48013645},{"name":"小平市中央公民館","province":"東京都","city":"小平市","address":"小平市小川町2-1325","lat":35.728603,"lon":139.474609},{"name":"小平市立花小金井南公民館","province":"東京都","city":"小平市","address":"小平市花小金井南町2-12-6","lat":35.724243,"lon":139.51651},{"name":"小平市立花小金井北公民館","province":"東京都","city":"小平市","address":"小平市花小金井5-41-3","lat":35.734188,"lon":139.510284},{"name":"小平市立小川公民館","province":"東京都","city":"小平市","address":"小平市小川町1-1012","lat":35.725826,"lon":139.459244},{"name":"小平市立小川西町公民館","province":"東京都","city":"小平市","address":"小平市小川西町4-10-13","lat":35.735207,"lon":139.461807},{"name":"小平市立上宿公民館","province":"東京都","city":"小平市","address":"小平市小川町1-308","lat":35.731262,"lon":139.44281},{"name":"小平市立上水南公民館","province":"東京都","city":"小平市","address":"小平市上水南町1-27-1","lat":35.713055,"lon":139.483688},{"name":"小平市立大沼公民館","province":"東京都","city":"小平市","address":"小平市大沼町7-1-17","lat":35.733967,"lon":139.496414},{"name":"小平市立仲町公民館","province":"東京都","city":"小平市","address":"小平市仲町521","lat":35.730274,"lon":139.484863},{"name":"小平市立津田公民館","province":"東京都","city":"小平市","address":"小平市津田町3-11-1","lat":35.720867,"lon":139.470032},{"name":"小平市立鈴木公民館","province":"東京都","city":"小平市","address":"小平市鈴木町2-772","lat":35.722507,"lon":139.507401},{"name":"小平市大沼図書館","province":"東京都","city":"小平市","address":"小平市大沼町7-1-17","lat":35.733967,"lon":139.496414},{"name":"小平市中央図書館","province":"東京都","city":"小平市","address":"小平市小川町2-1325","lat":35.728603,"lon":139.474609},{"name":"小平市中央図書館花小金井北分室","province":"東京都","city":"小平市","address":"小平市花小金井5-41-3","lat":35.734188,"lon":139.510284},{"name":"小平市中央図書館小川分室","province":"東京都","city":"小平市","address":"小平市小川町1-1012","lat":35.725826,"lon":139.459244},{"name":"小平市中央図書館上水南分室","province":"東京都","city":"小平市","address":"小平市上水南町1-27-1","lat":35.713055,"lon":139.483688},{"name":"小平市立花小金井図書館","province":"東京都","city":"小平市","address":"小平市花小金井1-8-1","lat":35.727486,"lon":139.513535},{"name":"小平市立喜平図書館","province":"東京都","city":"小平市","address":"小平市喜平町3-3-18","lat":35.719769,"lon":139.490204},{"name":"小平市立小川西町図書館","province":"東京都","city":"小平市","address":"小平市小川西町4-10-13","lat":35.735207,"lon":139.461807},{"name":"小平市立上宿図書館","province":"東京都","city":"小平市","address":"小平市小川町1-345","lat":35.730995,"lon":139.438889},{"name":"小平市立仲町図書館","province":"東京都","city":"小平市","address":"小平市仲町145","lat":35.731598,"lon":139.483566},{"name":"小平市立津田図書館","province":"東京都","city":"小平市","address":"小平市津田町3-11-1","lat":35.720867,"lon":139.470032},{"name":"小平市鈴木遺跡資料館","province":"東京都","city":"小平市","address":"小平市鈴木町1-487-1","lat":35.718842,"lon":139.496735},{"name":"小平市平櫛田中彫刻美術館","province":"東京都","city":"小平市","address":"小平市学園西町1-7-5","lat":35.718006,"lon":139.475555},{"name":"ひのでセレモニー","province":"東京都","city":"小平市","address":"東京都小平市栄町2丁目29-11","lat":35.7336955,"lon":139.45121901},{"name":"株式会社エムエスジー葬儀の正行","province":"東京都","city":"小平市","address":"東京都小平市学園東町2丁目4-22","lat":35.72311438,"lon":139.48558585},{"name":"有限会社　小平典礼","province":"東京都","city":"小平市","address":"東京都小平市花小金井8丁目1-2","lat":35.73079452,"lon":139.5032617},{"name":"有限会社小平典礼","province":"東京都","city":"小平市","address":"東京都小平市花小金井8丁目1-2","lat":35.73079452,"lon":139.5032617},{"name":"株式会社京典","province":"東京都","city":"小平市","address":"東京都小平市小川西町4丁目33-20","lat":35.73925633,"lon":139.46327602},{"name":"有限会社岩手屋商事","province":"東京都","city":"小平市","address":"東京都小平市学園西町1丁目20-7","lat":35.72013401,"lon":139.48013645},{"name":"小平市中央公民館","province":"東京都","city":"小平市","address":"小平市小川町2-1325","lat":35.728603,"lon":139.474609},{"name":"小平市立花小金井南公民館","province":"東京都","city":"小平市","address":"小平市花小金井南町2-12-6","lat":35.724243,"lon":139.51651},{"name":"小平市立花小金井北公民館","province":"東京都","city":"小平市","address":"小平市花小金井5-41-3","lat":35.734188,"lon":139.510284},{"name":"小平市立小川公民館","province":"東京都","city":"小平市","address":"小平市小川町1-1012","lat":35.725826,"lon":139.459244},{"name":"小平市立小川西町公民館","province":"東京都","city":"小平市","address":"小平市小川西町4-10-13","lat":35.735207,"lon":139.461807},{"name":"小平市立上宿公民館","province":"東京都","city":"小平市","address":"小平市小川町1-308","lat":35.731262,"lon":139.44281},{"name":"小平市立上水南公民館","province":"東京都","city":"小平市","address":"小平市上水南町1-27-1","lat":35.713055,"lon":139.483688},{"name":"小平市立大沼公民館","province":"東京都","city":"小平市","address":"小平市大沼町7-1-17","lat":35.733967,"lon":139.496414},{"name":"小平市立仲町公民館","province":"東京都","city":"小平市","address":"小平市仲町521","lat":35.730274,"lon":139.484863},{"name":"小平市立津田公民館","province":"東京都","city":"小平市","address":"小平市津田町3-11-1","lat":35.720867,"lon":139.470032},{"name":"小平市立鈴木公民館","province":"東京都","city":"小平市","address":"小平市鈴木町2-772","lat":35.722507,"lon":139.507401},{"name":"小平市大沼図書館","province":"東京都","city":"小平市","address":"小平市大沼町7-1-17","lat":35.733967,"lon":139.496414},{"name":"小平市中央図書館","province":"東京都","city":"小平市","address":"小平市小川町2-1325","lat":35.728603,"lon":139.474609},{"name":"小平市中央図書館花小金井北分室","province":"東京都","city":"小平市","address":"小平市花小金井5-41-3","lat":35.734188,"lon":139.510284},{"name":"小平市中央図書館小川分室","province":"東京都","city":"小平市","address":"小平市小川町1-1012","lat":35.725826,"lon":139.459244},{"name":"小平市中央図書館上水南分室","province":"東京都","city":"小平市","address":"小平市上水南町1-27-1","lat":35.713055,"lon":139.483688},{"name":"小平市立花小金井図書館","province":"東京都","city":"小平市","address":"小平市花小金井1-8-1","lat":35.727486,"lon":139.513535},{"name":"小平市立喜平図書館","province":"東京都","city":"小平市","address":"小平市喜平町3-3-18","lat":35.719769,"lon":139.490204},{"name":"小平市立小川西町図書館","province":"東京都","city":"小平市","address":"小平市小川西町4-10-13","lat":35.735207,"lon":139.461807},{"name":"小平市立上宿図書館","province":"東京都","city":"小平市","address":"小平市小川町1-345","lat":35.730995,"lon":139.438889},{"name":"小平市立仲町図書館","province":"東京都","city":"小平市","address":"小平市仲町145","lat":35.731598,"lon":139.483566},{"name":"小平市立津田図書館","province":"東京都","city":"小平市","address":"小平市津田町3-11-1","lat":35.720867,"lon":139.470032},{"name":"小平市鈴木遺跡資料館","province":"東京都","city":"小平市","address":"小平市鈴木町1-487-1","lat":35.718842,"lon":139.496735},{"name":"小平市平櫛田中彫刻美術館","province":"東京都","city":"小平市","address":"小平市学園西町1-7-5","lat":35.718006,"lon":139.475555},{"name":"ひのでセレモニー","province":"東京都","city":"小平市","address":"東京都小平市栄町2丁目29-11","lat":35.7336955,"lon":139.45121901},{"name":"株式会社エムエスジー葬儀の正行","province":"東京都","city":"小平市","address":"東京都小平市学園東町2丁目4-22","lat":35.72311438,"lon":139.48558585},{"name":"有限会社　小平典礼","province":"東京都","city":"小平市","address":"東京都小平市花小金井8丁目1-2","lat":35.73079452,"lon":139.5032617},{"name":"有限会社小平典礼","province":"東京都","city":"小平市","address":"東京都小平市花小金井8丁目1-2","lat":35.73079452,"lon":139.5032617},{"name":"株式会社京典","province":"東京都","city":"小平市","address":"東京都小平市小川西町4丁目33-20","lat":35.73925633,"lon":139.46327602},{"name":"有限会社岩手屋商事","province":"東京都","city":"小平市","address":"東京都小平市学園西町1丁目20-7","lat":35.72013401,"lon":139.48013645},{"name":"小平市中央公民館","province":"東京都","city":"小平市","address":"小平市小川町2-1325","lat":35.728603,"lon":139.474609},{"name":"小平市立花小金井南公民館","province":"東京都","city":"小平市","address":"小平市花小金井南町2-12-6","lat":35.724243,"lon":139.51651},{"name":"小平市立花小金井北公民館","province":"東京都","city":"小平市","address":"小平市花小金井5-41-3","lat":35.734188,"lon":139.510284},{"name":"小平市立小川公民館","province":"東京都","city":"小平市","address":"小平市小川町1-1012","lat":35.725826,"lon":139.459244},{"name":"小平市立小川西町公民館","province":"東京都","city":"小平市","address":"小平市小川西町4-10-13","lat":35.735207,"lon":139.461807},{"name":"小平市立上宿公民館","province":"東京都","city":"小平市","address":"小平市小川町1-308","lat":35.731262,"lon":139.44281},{"name":"小平市立上水南公民館","province":"東京都","city":"小平市","address":"小平市上水南町1-27-1","lat":35.713055,"lon":139.483688},{"name":"小平市立大沼公民館","province":"東京都","city":"小平市","address":"小平市大沼町7-1-17","lat":35.733967,"lon":139.496414},{"name":"小平市立仲町公民館","province":"東京都","city":"小平市","address":"小平市仲町521","lat":35.730274,"lon":139.484863},{"name":"小平市立津田公民館","province":"東京都","city":"小平市","address":"小平市津田町3-11-1","lat":35.720867,"lon":139.470032},{"name":"小平市立鈴木公民館","province":"東京都","city":"小平市","address":"小平市鈴木町2-772","lat":35.722507,"lon":139.507401},{"name":"小平市大沼図書館","province":"東京都","city":"小平市","address":"小平市大沼町7-1-17","lat":35.733967,"lon":139.496414},{"name":"小平市中央図書館","province":"東京都","city":"小平市","address":"小平市小川町2-1325","lat":35.728603,"lon":139.474609},{"name":"小平市中央図書館花小金井北分室","province":"東京都","city":"小平市","address":"小平市花小金井5-41-3","lat":35.734188,"lon":139.510284},{"name":"小平市中央図書館小川分室","province":"東京都","city":"小平市","address":"小平市小川町1-1012","lat":35.725826,"lon":139.459244},{"name":"小平市中央図書館上水南分室","province":"東京都","city":"小平市","address":"小平市上水南町1-27-1","lat":35.713055,"lon":139.483688},{"name":"小平市立花小金井図書館","province":"東京都","city":"小平市","address":"小平市花小金井1-8-1","lat":35.727486,"lon":139.513535},{"name":"小平市立喜平図書館","province":"東京都","city":"小平市","address":"小平市喜平町3-3-18","lat":35.719769,"lon":139.490204},{"name":"小平市立小川西町図書館","province":"東京都","city":"小平市","address":"小平市小川西町4-10-13","lat":35.735207,"lon":139.461807},{"name":"小平市立上宿図書館","province":"東京都","city":"小平市","address":"小平市小川町1-345","lat":35.730995,"lon":139.438889},{"name":"小平市立仲町図書館","province":"東京都","city":"小平市","address":"小平市仲町145","lat":35.731598,"lon":139.483566},{"name":"小平市立津田図書館","province":"東京都","city":"小平市","address":"小平市津田町3-11-1","lat":35.720867,"lon":139.470032},{"name":"小平市鈴木遺跡資料館","province":"東京都","city":"小平市","address":"小平市鈴木町1-487-1","lat":35.718842,"lon":139.496735},{"name":"小平市平櫛田中彫刻美術館","province":"東京都","city":"小平市","address":"小平市学園西町1-7-5","lat":35.718006,"lon":139.475555},{"name":"ひのでセレモニー","province":"東京都","city":"小平市","address":"東京都小平市栄町2丁目29-11","lat":35.7336955,"lon":139.45121901},{"name":"株式会社エムエスジー葬儀の正行","province":"東京都","city":"小平市","address":"東京都小平市学園東町2丁目4-22","lat":35.72311438,"lon":139.48558585},{"name":"有限会社　小平典礼","province":"東京都","city":"小平市","address":"東京都小平市花小金井8丁目1-2","lat":35.73079452,"lon":139.5032617},{"name":"有限会社小平典礼","province":"東京都","city":"小平市","address":"東京都小平市花小金井8丁目1-2","lat":35.73079452,"lon":139.5032617},{"name":"株式会社京典","province":"東京都","city":"小平市","address":"東京都小平市小川西町4丁目33-20","lat":35.73925633,"lon":139.46327602},{"name":"有限会社岩手屋商事","province":"東京都","city":"小平市","address":"東京都小平市学園西町1丁目20-7","lat":35.72013401,"lon":139.48013645},{"name":"小平市中央公民館","province":"東京都","city":"小平市","address":"小平市小川町2-1325","lat":35.728603,"lon":139.474609},{"name":"小平市立花小金井南公民館","province":"東京都","city":"小平市","address":"小平市花小金井南町2-12-6","lat":35.724243,"lon":139.51651},{"name":"小平市立花小金井北公民館","province":"東京都","city":"小平市","address":"小平市花小金井5-41-3","lat":35.734188,"lon":139.510284},{"name":"小平市立小川公民館","province":"東京都","city":"小平市","address":"小平市小川町1-1012","lat":35.725826,"lon":139.459244},{"name":"小平市立小川西町公民館","province":"東京都","city":"小平市","address":"小平市小川西町4-10-13","lat":35.735207,"lon":139.461807},{"name":"小平市立上宿公民館","province":"東京都","city":"小平市","address":"小平市小川町1-308","lat":35.731262,"lon":139.44281},{"name":"小平市立上水南公民館","province":"東京都","city":"小平市","address":"小平市上水南町1-27-1","lat":35.713055,"lon":139.483688},{"name":"小平市立大沼公民館","province":"東京都","city":"小平市","address":"小平市大沼町7-1-17","lat":35.733967,"lon":139.496414},{"name":"小平市立仲町公民館","province":"東京都","city":"小平市","address":"小平市仲町521","lat":35.730274,"lon":139.484863},{"name":"小平市立津田公民館","province":"東京都","city":"小平市","address":"小平市津田町3-11-1","lat":35.720867,"lon":139.470032},{"name":"小平市立鈴木公民館","province":"東京都","city":"小平市","address":"小平市鈴木町2-772","lat":35.722507,"lon":139.507401},{"name":"小平市大沼図書館","province":"東京都","city":"小平市","address":"小平市大沼町7-1-17","lat":35.733967,"lon":139.496414},{"name":"小平市中央図書館","province":"東京都","city":"小平市","address":"小平市小川町2-1325","lat":35.728603,"lon":139.474609},{"name":"小平市中央図書館花小金井北分室","province":"東京都","city":"小平市","address":"小平市花小金井5-41-3","lat":35.734188,"lon":139.510284},{"name":"小平市中央図書館小川分室","province":"東京都","city":"小平市","address":"小平市小川町1-1012","lat":35.725826,"lon":139.459244},{"name":"小平市中央図書館上水南分室","province":"東京都","city":"小平市","address":"小平市上水南町1-27-1","lat":35.713055,"lon":139.483688},{"name":"小平市立花小金井図書館","province":"東京都","city":"小平市","address":"小平市花小金井1-8-1","lat":35.727486,"lon":139.513535},{"name":"小平市立喜平図書館","province":"東京都","city":"小平市","address":"小平市喜平町3-3-18","lat":35.719769,"lon":139.490204},{"name":"小平市立小川西町図書館","province":"東京都","city":"小平市","address":"小平市小川西町4-10-13","lat":35.735207,"lon":139.461807},{"name":"小平市立上宿図書館","province":"東京都","city":"小平市","address":"小平市小川町1-345","lat":35.730995,"lon":139.438889},{"name":"小平市立仲町図書館","province":"東京都","city":"小平市","address":"小平市仲町145","lat":35.731598,"lon":139.483566},{"name":"小平市立津田図書館","province":"東京都","city":"小平市","address":"小平市津田町3-11-1","lat":35.720867,"lon":139.470032},{"name":"小平市鈴木遺跡資料館","province":"東京都","city":"小平市","address":"小平市鈴木町1-487-1","lat":35.718842,"lon":139.496735},{"name":"小平市平櫛田中彫刻美術館","province":"東京都","city":"小平市","address":"小平市学園西町1-7-5","lat":35.718006,"lon":139.475555},{"name":"ひのでセレモニー","province":"東京都","city":"小平市","address":"東京都小平市栄町2丁目29-11","lat":35.7336955,"lon":139.45121901},{"name":"株式会社エムエスジー葬儀の正行","province":"東京都","city":"小平市","address":"東京都小平市学園東町2丁目4-22","lat":35.72311438,"lon":139.48558585},{"name":"有限会社　小平典礼","province":"東京都","city":"小平市","address":"東京都小平市花小金井8丁目1-2","lat":35.73079452,"lon":139.5032617},{"name":"有限会社小平典礼","province":"東京都","city":"小平市","address":"東京都小平市花小金井8丁目1-2","lat":35.73079452,"lon":139.5032617},{"name":"株式会社京典","province":"東京都","city":"小平市","address":"東京都小平市小川西町4丁目33-20","lat":35.73925633,"lon":139.46327602},{"name":"有限会社岩手屋商事","province":"東京都","city":"小平市","address":"東京都小平市学園西町1丁目20-7","lat":35.72013401,"lon":139.48013645},{"name":"小平市中央公民館","province":"東京都","city":"小平市","address":"小平市小川町2-1325","lat":35.728603,"lon":139.474609},{"name":"小平市立花小金井南公民館","province":"東京都","city":"小平市","address":"小平市花小金井南町2-12-6","lat":35.724243,"lon":139.51651},{"name":"小平市立花小金井北公民館","province":"東京都","city":"小平市","address":"小平市花小金井5-41-3","lat":35.734188,"lon":139.510284},{"name":"小平市立小川公民館","province":"東京都","city":"小平市","address":"小平市小川町1-1012","lat":35.725826,"lon":139.459244},{"name":"小平市立小川西町公民館","province":"東京都","city":"小平市","address":"小平市小川西町4-10-13","lat":35.735207,"lon":139.461807},{"name":"小平市立上宿公民館","province":"東京都","city":"小平市","address":"小平市小川町1-308","lat":35.731262,"lon":139.44281},{"name":"小平市立上水南公民館","province":"東京都","city":"小平市","address":"小平市上水南町1-27-1","lat":35.713055,"lon":139.483688},{"name":"小平市立大沼公民館","province":"東京都","city":"小平市","address":"小平市大沼町7-1-17","lat":35.733967,"lon":139.496414},{"name":"小平市立仲町公民館","province":"東京都","city":"小平市","address":"小平市仲町521","lat":35.730274,"lon":139.484863},{"name":"小平市立津田公民館","province":"東京都","city":"小平市","address":"小平市津田町3-11-1","lat":35.720867,"lon":139.470032},{"name":"小平市立鈴木公民館","province":"東京都","city":"小平市","address":"小平市鈴木町2-772","lat":35.722507,"lon":139.507401},{"name":"小平市大沼図書館","province":"東京都","city":"小平市","address":"小平市大沼町7-1-17","lat":35.733967,"lon":139.496414},{"name":"小平市中央図書館","province":"東京都","city":"小平市","address":"小平市小川町2-1325","lat":35.728603,"lon":139.474609},{"name":"小平市中央図書館花小金井北分室","province":"東京都","city":"小平市","address":"小平市花小金井5-41-3","lat":35.734188,"lon":139.510284},{"name":"小平市中央図書館小川分室","province":"東京都","city":"小平市","address":"小平市小川町1-1012","lat":35.725826,"lon":139.459244},{"name":"小平市中央図書館上水南分室","province":"東京都","city":"小平市","address":"小平市上水南町1-27-1","lat":35.713055,"lon":139.483688},{"name":"小平市立花小金井図書館","province":"東京都","city":"小平市","address":"小平市花小金井1-8-1","lat":35.727486,"lon":139.513535},{"name":"小平市立喜平図書館","province":"東京都","city":"小平市","address":"小平市喜平町3-3-18","lat":35.719769,"lon":139.490204},{"name":"小平市立小川西町図書館","province":"東京都","city":"小平市","address":"小平市小川西町4-10-13","lat":35.735207,"lon":139.461807},{"name":"小平市立上宿図書館","province":"東京都","city":"小平市","address":"小平市小川町1-345","lat":35.730995,"lon":139.438889},{"name":"小平市立仲町図書館","province":"東京都","city":"小平市","address":"小平市仲町145","lat":35.731598,"lon":139.483566},{"name":"小平市立津田図書館","province":"東京都","city":"小平市","address":"小平市津田町3-11-1","lat":35.720867,"lon":139.470032},{"name":"小平市鈴木遺跡資料館","province":"東京都","city":"小平市","address":"小平市鈴木町1-487-1","lat":35.718842,"lon":139.496735},{"name":"小平市平櫛田中彫刻美術館","province":"東京都","city":"小平市","address":"小平市学園西町1-7-5","lat":35.718006,"lon":139.475555},{"name":"ひのでセレモニー","province":"東京都","city":"小平市","address":"東京都小平市栄町2丁目29-11","lat":35.7336955,"lon":139.45121901},{"name":"株式会社エムエスジー葬儀の正行","province":"東京都","city":"小平市","address":"東京都小平市学園東町2丁目4-22","lat":35.72311438,"lon":139.48558585},{"name":"有限会社　小平典礼","province":"東京都","city":"小平市","address":"東京都小平市花小金井8丁目1-2","lat":35.73079452,"lon":139.5032617},{"name":"有限会社小平典礼","province":"東京都","city":"小平市","address":"東京都小平市花小金井8丁目1-2","lat":35.73079452,"lon":139.5032617},{"name":"株式会社京典","province":"東京都","city":"小平市","address":"東京都小平市小川西町4丁目33-20","lat":35.73925633,"lon":139.46327602},{"name":"有限会社岩手屋商事","province":"東京都","city":"小平市","address":"東京都小平市学園西町1丁目20-7","lat":35.72013401,"lon":139.48013645},{"name":"小平市中央公民館","province":"東京都","city":"小平市","address":"小平市小川町2-1325","lat":35.728603,"lon":139.474609},{"name":"小平市立花小金井南公民館","province":"東京都","city":"小平市","address":"小平市花小金井南町2-12-6","lat":35.724243,"lon":139.51651},{"name":"小平市立花小金井北公民館","province":"東京都","city":"小平市","address":"小平市花小金井5-41-3","lat":35.734188,"lon":139.510284},{"name":"小平市立小川公民館","province":"東京都","city":"小平市","address":"小平市小川町1-1012","lat":35.725826,"lon":139.459244},{"name":"小平市立小川西町公民館","province":"東京都","city":"小平市","address":"小平市小川西町4-10-13","lat":35.735207,"lon":139.461807},{"name":"小平市立上宿公民館","province":"東京都","city":"小平市","address":"小平市小川町1-308","lat":35.731262,"lon":139.44281},{"name":"小平市立上水南公民館","province":"東京都","city":"小平市","address":"小平市上水南町1-27-1","lat":35.713055,"lon":139.483688},{"name":"小平市立大沼公民館","province":"東京都","city":"小平市","address":"小平市大沼町7-1-17","lat":35.733967,"lon":139.496414},{"name":"小平市立仲町公民館","province":"東京都","city":"小平市","address":"小平市仲町521","lat":35.730274,"lon":139.484863},{"name":"小平市立津田公民館","province":"東京都","city":"小平市","address":"小平市津田町3-11-1","lat":35.720867,"lon":139.470032},{"name":"小平市立鈴木公民館","province":"東京都","city":"小平市","address":"小平市鈴木町2-772","lat":35.722507,"lon":139.507401},{"name":"小平市大沼図書館","province":"東京都","city":"小平市","address":"小平市大沼町7-1-17","lat":35.733967,"lon":139.496414},{"name":"小平市中央図書館","province":"東京都","city":"小平市","address":"小平市小川町2-1325","lat":35.728603,"lon":139.474609},{"name":"小平市中央図書館花小金井北分室","province":"東京都","city":"小平市","address":"小平市花小金井5-41-3","lat":35.734188,"lon":139.510284},{"name":"小平市中央図書館小川分室","province":"東京都","city":"小平市","address":"小平市小川町1-1012","lat":35.725826,"lon":139.459244},{"name":"小平市中央図書館上水南分室","province":"東京都","city":"小平市","address":"小平市上水南町1-27-1","lat":35.713055,"lon":139.483688},{"name":"小平市立花小金井図書館","province":"東京都","city":"小平市","address":"小平市花小金井1-8-1","lat":35.727486,"lon":139.513535},{"name":"小平市立喜平図書館","province":"東京都","city":"小平市","address":"小平市喜平町3-3-18","lat":35.719769,"lon":139.490204},{"name":"小平市立小川西町図書館","province":"東京都","city":"小平市","address":"小平市小川西町4-10-13","lat":35.735207,"lon":139.461807},{"name":"小平市立上宿図書館","province":"東京都","city":"小平市","address":"小平市小川町1-345","lat":35.730995,"lon":139.438889},{"name":"小平市立仲町図書館","province":"東京都","city":"小平市","address":"小平市仲町145","lat":35.731598,"lon":139.483566},{"name":"小平市立津田図書館","province":"東京都","city":"小平市","address":"小平市津田町3-11-1","lat":35.720867,"lon":139.470032},{"name":"小平市鈴木遺跡資料館","province":"東京都","city":"小平市","address":"小平市鈴木町1-487-1","lat":35.718842,"lon":139.496735},{"name":"小平市平櫛田中彫刻美術館","province":"東京都","city":"小平市","address":"小平市学園西町1-7-5","lat":35.718006,"lon":139.475555},{"name":"ひのでセレモニー","province":"東京都","city":"小平市","address":"東京都小平市栄町2丁目29-11","lat":35.7336955,"lon":139.45121901},{"name":"株式会社エムエスジー葬儀の正行","province":"東京都","city":"小平市","address":"東京都小平市学園東町2丁目4-22","lat":35.72311438,"lon":139.48558585},{"name":"有限会社　小平典礼","province":"東京都","city":"小平市","address":"東京都小平市花小金井8丁目1-2","lat":35.73079452,"lon":139.5032617},{"name":"有限会社小平典礼","province":"東京都","city":"小平市","address":"東京都小平市花小金井8丁目1-2","lat":35.73079452,"lon":139.5032617},{"name":"株式会社京典","province":"東京都","city":"小平市","address":"東京都小平市小川西町4丁目33-20","lat":35.73925633,"lon":139.46327602},{"name":"有限会社岩手屋商事","province":"東京都","city":"小平市","address":"東京都小平市学園西町1丁目20-7","lat":35.72013401,"lon":139.48013645},{"name":"小平市中央公民館","province":"東京都","city":"小平市","address":"小平市小川町2-1325","lat":35.728603,"lon":139.474609},{"name":"小平市立花小金井南公民館","province":"東京都","city":"小平市","address":"小平市花小金井南町2-12-6","lat":35.724243,"lon":139.51651},{"name":"小平市立花小金井北公民館","province":"東京都","city":"小平市","address":"小平市花小金井5-41-3","lat":35.734188,"lon":139.510284},{"name":"小平市立小川公民館","province":"東京都","city":"小平市","address":"小平市小川町1-1012","lat":35.725826,"lon":139.459244},{"name":"小平市立小川西町公民館","province":"東京都","city":"小平市","address":"小平市小川西町4-10-13","lat":35.735207,"lon":139.461807},{"name":"小平市立上宿公民館","province":"東京都","city":"小平市","address":"小平市小川町1-308","lat":35.731262,"lon":139.44281},{"name":"小平市立上水南公民館","province":"東京都","city":"小平市","address":"小平市上水南町1-27-1","lat":35.713055,"lon":139.483688},{"name":"小平市立大沼公民館","province":"東京都","city":"小平市","address":"小平市大沼町7-1-17","lat":35.733967,"lon":139.496414},{"name":"小平市立仲町公民館","province":"東京都","city":"小平市","address":"小平市仲町521","lat":35.730274,"lon":139.484863},{"name":"小平市立津田公民館","province":"東京都","city":"小平市","address":"小平市津田町3-11-1","lat":35.720867,"lon":139.470032},{"name":"小平市立鈴木公民館","province":"東京都","city":"小平市","address":"小平市鈴木町2-772","lat":35.722507,"lon":139.507401},{"name":"小平市大沼図書館","province":"東京都","city":"小平市","address":"小平市大沼町7-1-17","lat":35.733967,"lon":139.496414},{"name":"小平市中央図書館","province":"東京都","city":"小平市","address":"小平市小川町2-1325","lat":35.728603,"lon":139.474609},{"name":"小平市中央図書館花小金井北分室","province":"東京都","city":"小平市","address":"小平市花小金井5-41-3","lat":35.734188,"lon":139.510284},{"name":"小平市中央図書館小川分室","province":"東京都","city":"小平市","address":"小平市小川町1-1012","lat":35.725826,"lon":139.459244},{"name":"小平市中央図書館上水南分室","province":"東京都","city":"小平市","address":"小平市上水南町1-27-1","lat":35.713055,"lon":139.483688},{"name":"小平市立花小金井図書館","province":"東京都","city":"小平市","address":"小平市花小金井1-8-1","lat":35.727486,"lon":139.513535},{"name":"小平市立喜平図書館","province":"東京都","city":"小平市","address":"小平市喜平町3-3-18","lat":35.719769,"lon":139.490204},{"name":"小平市立小川西町図書館","province":"東京都","city":"小平市","address":"小平市小川西町4-10-13","lat":35.735207,"lon":139.461807},{"name":"小平市立上宿図書館","province":"東京都","city":"小平市","address":"小平市小川町1-345","lat":35.730995,"lon":139.438889},{"name":"小平市立仲町図書館","province":"東京都","city":"小平市","address":"小平市仲町145","lat":35.731598,"lon":139.483566},{"name":"小平市立津田図書館","province":"東京都","city":"小平市","address":"小平市津田町3-11-1","lat":35.720867,"lon":139.470032},{"name":"小平市鈴木遺跡資料館","province":"東京都","city":"小平市","address":"小平市鈴木町1-487-1","lat":35.718842,"lon":139.496735},{"name":"小平市平櫛田中彫刻美術館","province":"東京都","city":"小平市","address":"小平市学園西町1-7-5","lat":35.718006,"lon":139.475555},{"name":"ひのでセレモニー","province":"東京都","city":"小平市","address":"東京都小平市栄町2丁目29-11","lat":35.7336955,"lon":139.45121901},{"name":"株式会社エムエスジー葬儀の正行","province":"東京都","city":"小平市","address":"東京都小平市学園東町2丁目4-22","lat":35.72311438,"lon":139.48558585},{"name":"有限会社　小平典礼","province":"東京都","city":"小平市","address":"東京都小平市花小金井8丁目1-2","lat":35.73079452,"lon":139.5032617},{"name":"有限会社小平典礼","province":"東京都","city":"小平市","address":"東京都小平市花小金井8丁目1-2","lat":35.73079452,"lon":139.5032617},{"name":"株式会社京典","province":"東京都","city":"小平市","address":"東京都小平市小川西町4丁目33-20","lat":35.73925633,"lon":139.46327602},{"name":"有限会社岩手屋商事","province":"東京都","city":"小平市","address":"東京都小平市学園西町1丁目20-7","lat":35.72013401,"lon":139.48013645},{"name":"小平市中央公民館","province":"東京都","city":"小平市","address":"小平市小川町2-1325","lat":35.728603,"lon":139.474609},{"name":"小平市立花小金井南公民館","province":"東京都","city":"小平市","address":"小平市花小金井南町2-12-6","lat":35.724243,"lon":139.51651},{"name":"小平市立花小金井北公民館","province":"東京都","city":"小平市","address":"小平市花小金井5-41-3","lat":35.734188,"lon":139.510284},{"name":"小平市立小川公民館","province":"東京都","city":"小平市","address":"小平市小川町1-1012","lat":35.725826,"lon":139.459244},{"name":"小平市立小川西町公民館","province":"東京都","city":"小平市","address":"小平市小川西町4-10-13","lat":35.735207,"lon":139.461807},{"name":"小平市立上宿公民館","province":"東京都","city":"小平市","address":"小平市小川町1-308","lat":35.731262,"lon":139.44281},{"name":"小平市立上水南公民館","province":"東京都","city":"小平市","address":"小平市上水南町1-27-1","lat":35.713055,"lon":139.483688},{"name":"小平市立大沼公民館","province":"東京都","city":"小平市","address":"小平市大沼町7-1-17","lat":35.733967,"lon":139.496414},{"name":"小平市立仲町公民館","province":"東京都","city":"小平市","address":"小平市仲町521","lat":35.730274,"lon":139.484863},{"name":"小平市立津田公民館","province":"東京都","city":"小平市","address":"小平市津田町3-11-1","lat":35.720867,"lon":139.470032},{"name":"小平市立鈴木公民館","province":"東京都","city":"小平市","address":"小平市鈴木町2-772","lat":35.722507,"lon":139.507401},{"name":"小平市大沼図書館","province":"東京都","city":"小平市","address":"小平市大沼町7-1-17","lat":35.733967,"lon":139.496414},{"name":"小平市中央図書館","province":"東京都","city":"小平市","address":"小平市小川町2-1325","lat":35.728603,"lon":139.474609},{"name":"小平市中央図書館花小金井北分室","province":"東京都","city":"小平市","address":"小平市花小金井5-41-3","lat":35.734188,"lon":139.510284},{"name":"小平市中央図書館小川分室","province":"東京都","city":"小平市","address":"小平市小川町1-1012","lat":35.725826,"lon":139.459244},{"name":"小平市中央図書館上水南分室","province":"東京都","city":"小平市","address":"小平市上水南町1-27-1","lat":35.713055,"lon":139.483688},{"name":"小平市立花小金井図書館","province":"東京都","city":"小平市","address":"小平市花小金井1-8-1","lat":35.727486,"lon":139.513535},{"name":"小平市立喜平図書館","province":"東京都","city":"小平市","address":"小平市喜平町3-3-18","lat":35.719769,"lon":139.490204},{"name":"小平市立小川西町図書館","province":"東京都","city":"小平市","address":"小平市小川西町4-10-13","lat":35.735207,"lon":139.461807},{"name":"小平市立上宿図書館","province":"東京都","city":"小平市","address":"小平市小川町1-345","lat":35.730995,"lon":139.438889},{"name":"小平市立仲町図書館","province":"東京都","city":"小平市","address":"小平市仲町145","lat":35.731598,"lon":139.483566},{"name":"小平市立津田図書館","province":"東京都","city":"小平市","address":"小平市津田町3-11-1","lat":35.720867,"lon":139.470032},{"name":"小平市鈴木遺跡資料館","province":"東京都","city":"小平市","address":"小平市鈴木町1-487-1","lat":35.718842,"lon":139.496735},{"name":"小平市平櫛田中彫刻美術館","province":"東京都","city":"小平市","address":"小平市学園西町1-7-5","lat":35.718006,"lon":139.475555},{"name":"ひのでセレモニー","province":"東京都","city":"小平市","address":"東京都小平市栄町2丁目29-11","lat":35.7336955,"lon":139.45121901},{"name":"株式会社エムエスジー葬儀の正行","province":"東京都","city":"小平市","address":"東京都小平市学園東町2丁目4-22","lat":35.72311438,"lon":139.48558585},{"name":"有限会社　小平典礼","province":"東京都","city":"小平市","address":"東京都小平市花小金井8丁目1-2","lat":35.73079452,"lon":139.5032617},{"name":"有限会社小平典礼","province":"東京都","city":"小平市","address":"東京都小平市花小金井8丁目1-2","lat":35.73079452,"lon":139.5032617},{"name":"株式会社京典","province":"東京都","city":"小平市","address":"東京都小平市小川西町4丁目33-20","lat":35.73925633,"lon":139.46327602},{"name":"有限会社岩手屋商事","province":"東京都","city":"小平市","address":"東京都小平市学園西町1丁目20-7","lat":35.72013401,"lon":139.48013645},{"name":"小平市中央公民館","province":"東京都","city":"小平市","address":"小平市小川町2-1325","lat":35.728603,"lon":139.474609},{"name":"小平市立花小金井南公民館","province":"東京都","city":"小平市","address":"小平市花小金井南町2-12-6","lat":35.724243,"lon":139.51651},{"name":"小平市立花小金井北公民館","province":"東京都","city":"小平市","address":"小平市花小金井5-41-3","lat":35.734188,"lon":139.510284},{"name":"小平市立小川公民館","province":"東京都","city":"小平市","address":"小平市小川町1-1012","lat":35.725826,"lon":139.459244},{"name":"小平市立小川西町公民館","province":"東京都","city":"小平市","address":"小平市小川西町4-10-13","lat":35.735207,"lon":139.461807},{"name":"小平市立上宿公民館","province":"東京都","city":"小平市","address":"小平市小川町1-308","lat":35.731262,"lon":139.44281},{"name":"小平市立上水南公民館","province":"東京都","city":"小平市","address":"小平市上水南町1-27-1","lat":35.713055,"lon":139.483688},{"name":"小平市立大沼公民館","province":"東京都","city":"小平市","address":"小平市大沼町7-1-17","lat":35.733967,"lon":139.496414},{"name":"小平市立仲町公民館","province":"東京都","city":"小平市","address":"小平市仲町521","lat":35.730274,"lon":139.484863},{"name":"小平市立津田公民館","province":"東京都","city":"小平市","address":"小平市津田町3-11-1","lat":35.720867,"lon":139.470032},{"name":"小平市立鈴木公民館","province":"東京都","city":"小平市","address":"小平市鈴木町2-772","lat":35.722507,"lon":139.507401},{"name":"小平市大沼図書館","province":"東京都","city":"小平市","address":"小平市大沼町7-1-17","lat":35.733967,"lon":139.496414},{"name":"小平市中央図書館","province":"東京都","city":"小平市","address":"小平市小川町2-1325","lat":35.728603,"lon":139.474609},{"name":"小平市中央図書館花小金井北分室","province":"東京都","city":"小平市","address":"小平市花小金井5-41-3","lat":35.734188,"lon":139.510284},{"name":"小平市中央図書館小川分室","province":"東京都","city":"小平市","address":"小平市小川町1-1012","lat":35.725826,"lon":139.459244},{"name":"小平市中央図書館上水南分室","province":"東京都","city":"小平市","address":"小平市上水南町1-27-1","lat":35.713055,"lon":139.483688},{"name":"小平市立花小金井図書館","province":"東京都","city":"小平市","address":"小平市花小金井1-8-1","lat":35.727486,"lon":139.513535},{"name":"小平市立喜平図書館","province":"東京都","city":"小平市","address":"小平市喜平町3-3-18","lat":35.719769,"lon":139.490204},{"name":"小平市立小川西町図書館","province":"東京都","city":"小平市","address":"小平市小川西町4-10-13","lat":35.735207,"lon":139.461807},{"name":"小平市立上宿図書館","province":"東京都","city":"小平市","address":"小平市小川町1-345","lat":35.730995,"lon":139.438889},{"name":"小平市立仲町図書館","province":"東京都","city":"小平市","address":"小平市仲町145","lat":35.731598,"lon":139.483566},{"name":"小平市立津田図書館","province":"東京都","city":"小平市","address":"小平市津田町3-11-1","lat":35.720867,"lon":139.470032},{"name":"小平市鈴木遺跡資料館","province":"東京都","city":"小平市","address":"小平市鈴木町1-487-1","lat":35.718842,"lon":139.496735},{"name":"小平市平櫛田中彫刻美術館","province":"東京都","city":"小平市","address":"小平市学園西町1-7-5","lat":35.718006,"lon":139.475555},{"name":"ひのでセレモニー","province":"東京都","city":"小平市","address":"東京都小平市栄町2丁目29-11","lat":35.7336955,"lon":139.45121901},{"name":"株式会社エムエスジー葬儀の正行","province":"東京都","city":"小平市","address":"東京都小平市学園東町2丁目4-22","lat":35.72311438,"lon":139.48558585},{"name":"有限会社　小平典礼","province":"東京都","city":"小平市","address":"東京都小平市花小金井8丁目1-2","lat":35.73079452,"lon":139.5032617},{"name":"有限会社小平典礼","province":"東京都","city":"小平市","address":"東京都小平市花小金井8丁目1-2","lat":35.73079452,"lon":139.5032617},{"name":"株式会社京典","province":"東京都","city":"小平市","address":"東京都小平市小川西町4丁目33-20","lat":35.73925633,"lon":139.46327602},{"name":"有限会社岩手屋商事","province":"東京都","city":"小平市","address":"東京都小平市学園西町1丁目20-7","lat":35.72013401,"lon":139.48013645},{"name":"小平市中央公民館","province":"東京都","city":"小平市","address":"小平市小川町2-1325","lat":35.728603,"lon":139.474609},{"name":"小平市立花小金井南公民館","province":"東京都","city":"小平市","address":"小平市花小金井南町2-12-6","lat":35.724243,"lon":139.51651},{"name":"小平市立花小金井北公民館","province":"東京都","city":"小平市","address":"小平市花小金井5-41-3","lat":35.734188,"lon":139.510284},{"name":"小平市立小川公民館","province":"東京都","city":"小平市","address":"小平市小川町1-1012","lat":35.725826,"lon":139.459244},{"name":"小平市立小川西町公民館","province":"東京都","city":"小平市","address":"小平市小川西町4-10-13","lat":35.735207,"lon":139.461807},{"name":"小平市立上宿公民館","province":"東京都","city":"小平市","address":"小平市小川町1-308","lat":35.731262,"lon":139.44281},{"name":"小平市立上水南公民館","province":"東京都","city":"小平市","address":"小平市上水南町1-27-1","lat":35.713055,"lon":139.483688},{"name":"小平市立大沼公民館","province":"東京都","city":"小平市","address":"小平市大沼町7-1-17","lat":35.733967,"lon":139.496414},{"name":"小平市立仲町公民館","province":"東京都","city":"小平市","address":"小平市仲町521","lat":35.730274,"lon":139.484863},{"name":"小平市立津田公民館","province":"東京都","city":"小平市","address":"小平市津田町3-11-1","lat":35.720867,"lon":139.470032},{"name":"小平市立鈴木公民館","province":"東京都","city":"小平市","address":"小平市鈴木町2-772","lat":35.722507,"lon":139.507401},{"name":"小平市大沼図書館","province":"東京都","city":"小平市","address":"小平市大沼町7-1-17","lat":35.733967,"lon":139.496414},{"name":"小平市中央図書館","province":"東京都","city":"小平市","address":"小平市小川町2-1325","lat":35.728603,"lon":139.474609},{"name":"小平市中央図書館花小金井北分室","province":"東京都","city":"小平市","address":"小平市花小金井5-41-3","lat":35.734188,"lon":139.510284},{"name":"小平市中央図書館小川分室","province":"東京都","city":"小平市","address":"小平市小川町1-1012","lat":35.725826,"lon":139.459244},{"name":"小平市中央図書館上水南分室","province":"東京都","city":"小平市","address":"小平市上水南町1-27-1","lat":35.713055,"lon":139.483688},{"name":"小平市立花小金井図書館","province":"東京都","city":"小平市","address":"小平市花小金井1-8-1","lat":35.727486,"lon":139.513535},{"name":"小平市立喜平図書館","province":"東京都","city":"小平市","address":"小平市喜平町3-3-18","lat":35.719769,"lon":139.490204},{"name":"小平市立小川西町図書館","province":"東京都","city":"小平市","address":"小平市小川西町4-10-13","lat":35.735207,"lon":139.461807},{"name":"小平市立上宿図書館","province":"東京都","city":"小平市","address":"小平市小川町1-345","lat":35.730995,"lon":139.438889},{"name":"小平市立仲町図書館","province":"東京都","city":"小平市","address":"小平市仲町145","lat":35.731598,"lon":139.483566},{"name":"小平市立津田図書館","province":"東京都","city":"小平市","address":"小平市津田町3-11-1","lat":35.720867,"lon":139.470032},{"name":"小平市鈴木遺跡資料館","province":"東京都","city":"小平市","address":"小平市鈴木町1-487-1","lat":35.718842,"lon":139.496735},{"name":"小平市平櫛田中彫刻美術館","province":"東京都","city":"小平市","address":"小平市学園西町1-7-5","lat":35.718006,"lon":139.475555}]}