{"keyword":"構築","data":[{"name":"なかまちテラス前","province":"東京都","city":"小平市","address":"東京都小平市仲町164","lat":35.73089682,"lon":139.48542443},{"name":"喜平図書館前","province":"東京都","city":"小平市","address":"東京都小平市喜平町1丁目14-20","lat":35.71679857,"lon":139.49088286},{"name":"滝山南","province":"東京都","city":"小平市","address":"東京都小平市大沼町3丁目14-1","lat":35.7410544,"lon":139.50055593},{"name":"久右衛門橋南","province":"東京都","city":"小平市","address":"東京都小平市上水本町2丁目9-6","lat":35.72057523,"lon":139.46506832},{"name":"小平東部市民センター入口","province":"東京都","city":"小平市","address":"東京都小平市花小金井1丁目25-2","lat":35.72821456,"lon":139.51462747},{"name":"小平団地西","province":"東京都","city":"小平市","address":"東京都小平市喜平町3丁目3-4","lat":35.71766231,"lon":139.48886356},{"name":"小平合同庁舎前","province":"東京都","city":"小平市","address":"東京都小平市花小金井1丁目6-20","lat":35.7301171,"lon":139.51407743},{"name":"小平鈴木町二丁目","province":"東京都","city":"小平市","address":"東京都小平市鈴木町2丁目150","lat":35.72652021,"lon":139.51087789},{"name":"緑成会病院前","province":"東京都","city":"小平市","address":"東京都小平市小川西町4丁目12-12","lat":35.73721486,"lon":139.46164848},{"name":"小平駅南口","province":"東京都","city":"小平市","address":"東京都小平市美園町1丁目8-1","lat":35.73606018,"lon":139.48763232},{"name":"多摩済生病院入口","province":"東京都","city":"小平市","address":"東京都小平市美園町2丁目2-11","lat":35.73821829,"lon":139.48844882},{"name":"小平武道館前","province":"東京都","city":"小平市","address":"東京都小平市花小金井6丁目3-7","lat":35.73041963,"lon":139.50587815},{"name":"一橋学園駅前郵便局","province":"東京都","city":"小平市","address":"東京都小平市学園西町2丁目14-17","lat":35.72368359,"lon":139.47944193},{"name":"学園東町一丁目","province":"東京都","city":"小平市","address":"東京都小平市学園東町2丁目5-1","lat":35.72346427,"lon":139.48291385},{"name":"中央公民館前","province":"東京都","city":"小平市","address":"東京都小平市小川町2丁目1325","lat":35.72776638,"lon":139.47652812},{"name":"小平富士見橋","province":"東京都","city":"小平市","address":"東京都小平市小川西町2丁目5","lat":35.73848119,"lon":139.45588783},{"name":"ルネ小平","province":"東京都","city":"小平市","address":"東京都小平市美園町1丁目8-5","lat":35.73494087,"lon":139.48741851},{"name":"小平駅南口第三","province":"東京都","city":"小平市","address":"東京都小平市美園町1丁目6","lat":35.73709062,"lon":139.48732119},{"name":"小平市役所南","province":"東京都","city":"小平市","address":"東京都小平市学園東町1丁目19","lat":35.7267082,"lon":139.47805303},{"name":"小平障害者福祉センター前","province":"東京都","city":"小平市","address":"東京都小平市小川西町2丁目34-1","lat":35.73789253,"lon":139.46105684},{"name":"小平小川町一丁目東","province":"東京都","city":"小平市","address":"東京都小平市小川町1丁目1028","lat":35.73040173,"lon":139.46048498},{"name":"花小金井消防署前","province":"東京都","city":"小平市","address":"東京都小平市花小金井6丁目16","lat":35.73025861,"lon":139.50848347},{"name":"久右衛門橋北","province":"東京都","city":"小平市","address":"東京都小平市津田町2丁目1-1","lat":35.72186677,"lon":139.46597652},{"name":"小平仲宿通り","province":"東京都","city":"小平市","address":"東京都小平市小川西町3丁目18-10","lat":35.740084,"lon":139.46269271},{"name":"西部市民センター西","province":"東京都","city":"小平市","address":"東京都小平市小川西町5丁目39","lat":35.73603161,"lon":139.46009312},{"name":"上水南浄水所","province":"東京都","city":"小平市","address":"東京都小平市上水南町3丁目12-36","lat":35.71160196,"lon":139.49171079},{"name":"小川浄水所","province":"東京都","city":"小平市","address":"東京都小平市小川町1丁目847","lat":35.72563541,"lon":139.45317197},{"name":"多摩小平保健所","province":"東京都","city":"小平市","address":"東京都小平市花小金井1丁目31-24","lat":35.73006161,"lon":139.5166883},{"name":"陸上自衛隊小平駐屯地","province":"東京都","city":"小平市","address":"小平市喜平町2-3-1","lat":35.72053,"lon":139.4836},{"name":"小平警察署","province":"東京都","city":"小平市","address":"小平市小川町2-1265-1","lat":35.72562,"lon":139.4483},{"name":"小平消防署","province":"東京都","city":"小平市","address":"小平市仲町21","lat":35.73076,"lon":139.4801},{"name":"西武地区","province":"東京都","city":"小平市","address":"小平市美園町3-1-8","lat":35.73848,"lon":139.4873},{"name":"（株）日栄東海物流センター","province":"東京都","city":"小平市","address":"小平市小川東町4-6-7","lat":35.73489,"lon":139.4766},{"name":"丸井研修センター総合グラウンド","province":"東京都","city":"小平市","address":"小平市花小金井8-25-1","lat":35.73122,"lon":139.5042},{"name":"なかまちテラス前","province":"東京都","city":"小平市","address":"東京都小平市仲町164","lat":35.73089682,"lon":139.48542443},{"name":"喜平図書館前","province":"東京都","city":"小平市","address":"東京都小平市喜平町1丁目14-20","lat":35.71679857,"lon":139.49088286},{"name":"滝山南","province":"東京都","city":"小平市","address":"東京都小平市大沼町3丁目14-1","lat":35.7410544,"lon":139.50055593},{"name":"久右衛門橋南","province":"東京都","city":"小平市","address":"東京都小平市上水本町2丁目9-6","lat":35.72057523,"lon":139.46506832},{"name":"小平東部市民センター入口","province":"東京都","city":"小平市","address":"東京都小平市花小金井1丁目25-2","lat":35.72821456,"lon":139.51462747},{"name":"小平団地西","province":"東京都","city":"小平市","address":"東京都小平市喜平町3丁目3-4","lat":35.71766231,"lon":139.48886356},{"name":"小平合同庁舎前","province":"東京都","city":"小平市","address":"東京都小平市花小金井1丁目6-20","lat":35.7301171,"lon":139.51407743},{"name":"小平鈴木町二丁目","province":"東京都","city":"小平市","address":"東京都小平市鈴木町2丁目150","lat":35.72652021,"lon":139.51087789},{"name":"緑成会病院前","province":"東京都","city":"小平市","address":"東京都小平市小川西町4丁目12-12","lat":35.73721486,"lon":139.46164848},{"name":"小平駅南口","province":"東京都","city":"小平市","address":"東京都小平市美園町1丁目8-1","lat":35.73606018,"lon":139.48763232},{"name":"多摩済生病院入口","province":"東京都","city":"小平市","address":"東京都小平市美園町2丁目2-11","lat":35.73821829,"lon":139.48844882},{"name":"小平武道館前","province":"東京都","city":"小平市","address":"東京都小平市花小金井6丁目3-7","lat":35.73041963,"lon":139.50587815},{"name":"一橋学園駅前郵便局","province":"東京都","city":"小平市","address":"東京都小平市学園西町2丁目14-17","lat":35.72368359,"lon":139.47944193},{"name":"学園東町一丁目","province":"東京都","city":"小平市","address":"東京都小平市学園東町2丁目5-1","lat":35.72346427,"lon":139.48291385},{"name":"中央公民館前","province":"東京都","city":"小平市","address":"東京都小平市小川町2丁目1325","lat":35.72776638,"lon":139.47652812},{"name":"小平富士見橋","province":"東京都","city":"小平市","address":"東京都小平市小川西町2丁目5","lat":35.73848119,"lon":139.45588783},{"name":"ルネ小平","province":"東京都","city":"小平市","address":"東京都小平市美園町1丁目8-5","lat":35.73494087,"lon":139.48741851},{"name":"小平駅南口第三","province":"東京都","city":"小平市","address":"東京都小平市美園町1丁目6","lat":35.73709062,"lon":139.48732119},{"name":"小平市役所南","province":"東京都","city":"小平市","address":"東京都小平市学園東町1丁目19","lat":35.7267082,"lon":139.47805303},{"name":"小平障害者福祉センター前","province":"東京都","city":"小平市","address":"東京都小平市小川西町2丁目34-1","lat":35.73789253,"lon":139.46105684},{"name":"小平小川町一丁目東","province":"東京都","city":"小平市","address":"東京都小平市小川町1丁目1028","lat":35.73040173,"lon":139.46048498},{"name":"花小金井消防署前","province":"東京都","city":"小平市","address":"東京都小平市花小金井6丁目16","lat":35.73025861,"lon":139.50848347},{"name":"久右衛門橋北","province":"東京都","city":"小平市","address":"東京都小平市津田町2丁目1-1","lat":35.72186677,"lon":139.46597652},{"name":"小平仲宿通り","province":"東京都","city":"小平市","address":"東京都小平市小川西町3丁目18-10","lat":35.740084,"lon":139.46269271},{"name":"西部市民センター西","province":"東京都","city":"小平市","address":"東京都小平市小川西町5丁目39","lat":35.73603161,"lon":139.46009312},{"name":"上水南浄水所","province":"東京都","city":"小平市","address":"東京都小平市上水南町3丁目12-36","lat":35.71160196,"lon":139.49171079},{"name":"小川浄水所","province":"東京都","city":"小平市","address":"東京都小平市小川町1丁目847","lat":35.72563541,"lon":139.45317197},{"name":"多摩小平保健所","province":"東京都","city":"小平市","address":"東京都小平市花小金井1丁目31-24","lat":35.73006161,"lon":139.5166883},{"name":"陸上自衛隊小平駐屯地","province":"東京都","city":"小平市","address":"小平市喜平町2-3-1","lat":35.72053,"lon":139.4836},{"name":"小平警察署","province":"東京都","city":"小平市","address":"小平市小川町2-1265-1","lat":35.72562,"lon":139.4483},{"name":"小平消防署","province":"東京都","city":"小平市","address":"小平市仲町21","lat":35.73076,"lon":139.4801},{"name":"西武地区","province":"東京都","city":"小平市","address":"小平市美園町3-1-8","lat":35.73848,"lon":139.4873},{"name":"（株）日栄東海物流センター","province":"東京都","city":"小平市","address":"小平市小川東町4-6-7","lat":35.73489,"lon":139.4766},{"name":"なかまちテラス前","province":"東京都","city":"小平市","address":"東京都小平市仲町164","lat":35.73089682,"lon":139.48542443},{"name":"喜平図書館前","province":"東京都","city":"小平市","address":"東京都小平市喜平町1丁目14-20","lat":35.71679857,"lon":139.49088286},{"name":"滝山南","province":"東京都","city":"小平市","address":"東京都小平市大沼町3丁目14-1","lat":35.7410544,"lon":139.50055593},{"name":"久右衛門橋南","province":"東京都","city":"小平市","address":"東京都小平市上水本町2丁目9-6","lat":35.72057523,"lon":139.46506832},{"name":"小平東部市民センター入口","province":"東京都","city":"小平市","address":"東京都小平市花小金井1丁目25-2","lat":35.72821456,"lon":139.51462747},{"name":"小平団地西","province":"東京都","city":"小平市","address":"東京都小平市喜平町3丁目3-4","lat":35.71766231,"lon":139.48886356},{"name":"小平合同庁舎前","province":"東京都","city":"小平市","address":"東京都小平市花小金井1丁目6-20","lat":35.7301171,"lon":139.51407743},{"name":"小平鈴木町二丁目","province":"東京都","city":"小平市","address":"東京都小平市鈴木町2丁目150","lat":35.72652021,"lon":139.51087789},{"name":"緑成会病院前","province":"東京都","city":"小平市","address":"東京都小平市小川西町4丁目12-12","lat":35.73721486,"lon":139.46164848},{"name":"小平駅南口","province":"東京都","city":"小平市","address":"東京都小平市美園町1丁目8-1","lat":35.73606018,"lon":139.48763232},{"name":"多摩済生病院入口","province":"東京都","city":"小平市","address":"東京都小平市美園町2丁目2-11","lat":35.73821829,"lon":139.48844882},{"name":"小平武道館前","province":"東京都","city":"小平市","address":"東京都小平市花小金井6丁目3-7","lat":35.73041963,"lon":139.50587815},{"name":"一橋学園駅前郵便局","province":"東京都","city":"小平市","address":"東京都小平市学園西町2丁目14-17","lat":35.72368359,"lon":139.47944193},{"name":"学園東町一丁目","province":"東京都","city":"小平市","address":"東京都小平市学園東町2丁目5-1","lat":35.72346427,"lon":139.48291385},{"name":"中央公民館前","province":"東京都","city":"小平市","address":"東京都小平市小川町2丁目1325","lat":35.72776638,"lon":139.47652812},{"name":"小平富士見橋","province":"東京都","city":"小平市","address":"東京都小平市小川西町2丁目5","lat":35.73848119,"lon":139.45588783},{"name":"ルネ小平","province":"東京都","city":"小平市","address":"東京都小平市美園町1丁目8-5","lat":35.73494087,"lon":139.48741851},{"name":"小平駅南口第三","province":"東京都","city":"小平市","address":"東京都小平市美園町1丁目6","lat":35.73709062,"lon":139.48732119},{"name":"小平市役所南","province":"東京都","city":"小平市","address":"東京都小平市学園東町1丁目19","lat":35.7267082,"lon":139.47805303},{"name":"小平障害者福祉センター前","province":"東京都","city":"小平市","address":"東京都小平市小川西町2丁目34-1","lat":35.73789253,"lon":139.46105684},{"name":"小平小川町一丁目東","province":"東京都","city":"小平市","address":"東京都小平市小川町1丁目1028","lat":35.73040173,"lon":139.46048498},{"name":"花小金井消防署前","province":"東京都","city":"小平市","address":"東京都小平市花小金井6丁目16","lat":35.73025861,"lon":139.50848347},{"name":"久右衛門橋北","province":"東京都","city":"小平市","address":"東京都小平市津田町2丁目1-1","lat":35.72186677,"lon":139.46597652},{"name":"小平仲宿通り","province":"東京都","city":"小平市","address":"東京都小平市小川西町3丁目18-10","lat":35.740084,"lon":139.46269271},{"name":"西部市民センター西","province":"東京都","city":"小平市","address":"東京都小平市小川西町5丁目39","lat":35.73603161,"lon":139.46009312},{"name":"上水南浄水所","province":"東京都","city":"小平市","address":"東京都小平市上水南町3丁目12-36","lat":35.71160196,"lon":139.49171079},{"name":"小川浄水所","province":"東京都","city":"小平市","address":"東京都小平市小川町1丁目847","lat":35.72563541,"lon":139.45317197},{"name":"多摩小平保健所","province":"東京都","city":"小平市","address":"東京都小平市花小金井1丁目31-24","lat":35.73006161,"lon":139.5166883},{"name":"陸上自衛隊小平駐屯地","province":"東京都","city":"小平市","address":"小平市喜平町2-3-1","lat":35.72053,"lon":139.4836},{"name":"小平警察署","province":"東京都","city":"小平市","address":"小平市小川町2-1265-1","lat":35.72562,"lon":139.4483},{"name":"小平消防署","province":"東京都","city":"小平市","address":"小平市仲町21","lat":35.73076,"lon":139.4801},{"name":"西武地区","province":"東京都","city":"小平市","address":"小平市美園町3-1-8","lat":35.73848,"lon":139.4873},{"name":"（株）日栄東海物流センター","province":"東京都","city":"小平市","address":"小平市小川東町4-6-7","lat":35.73489,"lon":139.4766},{"name":"なかまちテラス前","province":"東京都","city":"小平市","address":"東京都小平市仲町164","lat":35.73089682,"lon":139.48542443},{"name":"喜平図書館前","province":"東京都","city":"小平市","address":"東京都小平市喜平町1丁目14-20","lat":35.71679857,"lon":139.49088286},{"name":"滝山南","province":"東京都","city":"小平市","address":"東京都小平市大沼町3丁目14-1","lat":35.7410544,"lon":139.50055593},{"name":"久右衛門橋南","province":"東京都","city":"小平市","address":"東京都小平市上水本町2丁目9-6","lat":35.72057523,"lon":139.46506832},{"name":"小平東部市民センター入口","province":"東京都","city":"小平市","address":"東京都小平市花小金井1丁目25-2","lat":35.72821456,"lon":139.51462747},{"name":"小平団地西","province":"東京都","city":"小平市","address":"東京都小平市喜平町3丁目3-4","lat":35.71766231,"lon":139.48886356},{"name":"小平合同庁舎前","province":"東京都","city":"小平市","address":"東京都小平市花小金井1丁目6-20","lat":35.7301171,"lon":139.51407743},{"name":"小平鈴木町二丁目","province":"東京都","city":"小平市","address":"東京都小平市鈴木町2丁目150","lat":35.72652021,"lon":139.51087789},{"name":"緑成会病院前","province":"東京都","city":"小平市","address":"東京都小平市小川西町4丁目12-12","lat":35.73721486,"lon":139.46164848},{"name":"小平駅南口","province":"東京都","city":"小平市","address":"東京都小平市美園町1丁目8-1","lat":35.73606018,"lon":139.48763232},{"name":"多摩済生病院入口","province":"東京都","city":"小平市","address":"東京都小平市美園町2丁目2-11","lat":35.73821829,"lon":139.48844882},{"name":"小平武道館前","province":"東京都","city":"小平市","address":"東京都小平市花小金井6丁目3-7","lat":35.73041963,"lon":139.50587815},{"name":"一橋学園駅前郵便局","province":"東京都","city":"小平市","address":"東京都小平市学園西町2丁目14-17","lat":35.72368359,"lon":139.47944193},{"name":"学園東町一丁目","province":"東京都","city":"小平市","address":"東京都小平市学園東町2丁目5-1","lat":35.72346427,"lon":139.48291385},{"name":"中央公民館前","province":"東京都","city":"小平市","address":"東京都小平市小川町2丁目1325","lat":35.72776638,"lon":139.47652812},{"name":"小平富士見橋","province":"東京都","city":"小平市","address":"東京都小平市小川西町2丁目5","lat":35.73848119,"lon":139.45588783},{"name":"ルネ小平","province":"東京都","city":"小平市","address":"東京都小平市美園町1丁目8-5","lat":35.73494087,"lon":139.48741851},{"name":"小平駅南口第三","province":"東京都","city":"小平市","address":"東京都小平市美園町1丁目6","lat":35.73709062,"lon":139.48732119},{"name":"小平市役所南","province":"東京都","city":"小平市","address":"東京都小平市学園東町1丁目19","lat":35.7267082,"lon":139.47805303},{"name":"小平障害者福祉センター前","province":"東京都","city":"小平市","address":"東京都小平市小川西町2丁目34-1","lat":35.73789253,"lon":139.46105684},{"name":"小平小川町一丁目東","province":"東京都","city":"小平市","address":"東京都小平市小川町1丁目1028","lat":35.73040173,"lon":139.46048498},{"name":"花小金井消防署前","province":"東京都","city":"小平市","address":"東京都小平市花小金井6丁目16","lat":35.73025861,"lon":139.50848347},{"name":"久右衛門橋北","province":"東京都","city":"小平市","address":"東京都小平市津田町2丁目1-1","lat":35.72186677,"lon":139.46597652},{"name":"小平仲宿通り","province":"東京都","city":"小平市","address":"東京都小平市小川西町3丁目18-10","lat":35.740084,"lon":139.46269271},{"name":"西部市民センター西","province":"東京都","city":"小平市","address":"東京都小平市小川西町5丁目39","lat":35.73603161,"lon":139.46009312},{"name":"上水南浄水所","province":"東京都","city":"小平市","address":"東京都小平市上水南町3丁目12-36","lat":35.71160196,"lon":139.49171079},{"name":"小川浄水所","province":"東京都","city":"小平市","address":"東京都小平市小川町1丁目847","lat":35.72563541,"lon":139.45317197},{"name":"多摩小平保健所","province":"東京都","city":"小平市","address":"東京都小平市花小金井1丁目31-24","lat":35.73006161,"lon":139.5166883},{"name":"陸上自衛隊小平駐屯地","province":"東京都","city":"小平市","address":"小平市喜平町2-3-1","lat":35.72053,"lon":139.4836},{"name":"小平警察署","province":"東京都","city":"小平市","address":"小平市小川町2-1265-1","lat":35.72562,"lon":139.4483},{"name":"小平消防署","province":"東京都","city":"小平市","address":"小平市仲町21","lat":35.73076,"lon":139.4801},{"name":"西武地区","province":"東京都","city":"小平市","address":"小平市美園町3-1-8","lat":35.73848,"lon":139.4873},{"name":"（株）日栄東海物流センター","province":"東京都","city":"小平市","address":"小平市小川東町4-6-7","lat":35.73489,"lon":139.4766},{"name":"なかまちテラス前","province":"東京都","city":"小平市","address":"東京都小平市仲町164","lat":35.73089682,"lon":139.48542443},{"name":"喜平図書館前","province":"東京都","city":"小平市","address":"東京都小平市喜平町1丁目14-20","lat":35.71679857,"lon":139.49088286},{"name":"滝山南","province":"東京都","city":"小平市","address":"東京都小平市大沼町3丁目14-1","lat":35.7410544,"lon":139.50055593},{"name":"久右衛門橋南","province":"東京都","city":"小平市","address":"東京都小平市上水本町2丁目9-6","lat":35.72057523,"lon":139.46506832},{"name":"小平東部市民センター入口","province":"東京都","city":"小平市","address":"東京都小平市花小金井1丁目25-2","lat":35.72821456,"lon":139.51462747},{"name":"小平団地西","province":"東京都","city":"小平市","address":"東京都小平市喜平町3丁目3-4","lat":35.71766231,"lon":139.48886356},{"name":"小平合同庁舎前","province":"東京都","city":"小平市","address":"東京都小平市花小金井1丁目6-20","lat":35.7301171,"lon":139.51407743},{"name":"小平鈴木町二丁目","province":"東京都","city":"小平市","address":"東京都小平市鈴木町2丁目150","lat":35.72652021,"lon":139.51087789},{"name":"緑成会病院前","province":"東京都","city":"小平市","address":"東京都小平市小川西町4丁目12-12","lat":35.73721486,"lon":139.46164848},{"name":"小平駅南口","province":"東京都","city":"小平市","address":"東京都小平市美園町1丁目8-1","lat":35.73606018,"lon":139.48763232},{"name":"多摩済生病院入口","province":"東京都","city":"小平市","address":"東京都小平市美園町2丁目2-11","lat":35.73821829,"lon":139.48844882},{"name":"小平武道館前","province":"東京都","city":"小平市","address":"東京都小平市花小金井6丁目3-7","lat":35.73041963,"lon":139.50587815},{"name":"一橋学園駅前郵便局","province":"東京都","city":"小平市","address":"東京都小平市学園西町2丁目14-17","lat":35.72368359,"lon":139.47944193},{"name":"学園東町一丁目","province":"東京都","city":"小平市","address":"東京都小平市学園東町2丁目5-1","lat":35.72346427,"lon":139.48291385},{"name":"中央公民館前","province":"東京都","city":"小平市","address":"東京都小平市小川町2丁目1325","lat":35.72776638,"lon":139.47652812},{"name":"小平富士見橋","province":"東京都","city":"小平市","address":"東京都小平市小川西町2丁目5","lat":35.73848119,"lon":139.45588783},{"name":"ルネ小平","province":"東京都","city":"小平市","address":"東京都小平市美園町1丁目8-5","lat":35.73494087,"lon":139.48741851},{"name":"小平駅南口第三","province":"東京都","city":"小平市","address":"東京都小平市美園町1丁目6","lat":35.73709062,"lon":139.48732119},{"name":"小平市役所南","province":"東京都","city":"小平市","address":"東京都小平市学園東町1丁目19","lat":35.7267082,"lon":139.47805303},{"name":"小平障害者福祉センター前","province":"東京都","city":"小平市","address":"東京都小平市小川西町2丁目34-1","lat":35.73789253,"lon":139.46105684},{"name":"小平小川町一丁目東","province":"東京都","city":"小平市","address":"東京都小平市小川町1丁目1028","lat":35.73040173,"lon":139.46048498},{"name":"花小金井消防署前","province":"東京都","city":"小平市","address":"東京都小平市花小金井6丁目16","lat":35.73025861,"lon":139.50848347},{"name":"久右衛門橋北","province":"東京都","city":"小平市","address":"東京都小平市津田町2丁目1-1","lat":35.72186677,"lon":139.46597652},{"name":"小平仲宿通り","province":"東京都","city":"小平市","address":"東京都小平市小川西町3丁目18-10","lat":35.740084,"lon":139.46269271},{"name":"西部市民センター西","province":"東京都","city":"小平市","address":"東京都小平市小川西町5丁目39","lat":35.73603161,"lon":139.46009312},{"name":"上水南浄水所","province":"東京都","city":"小平市","address":"東京都小平市上水南町3丁目12-36","lat":35.71160196,"lon":139.49171079},{"name":"小川浄水所","province":"東京都","city":"小平市","address":"東京都小平市小川町1丁目847","lat":35.72563541,"lon":139.45317197},{"name":"多摩小平保健所","province":"東京都","city":"小平市","address":"東京都小平市花小金井1丁目31-24","lat":35.73006161,"lon":139.5166883},{"name":"陸上自衛隊小平駐屯地","province":"東京都","city":"小平市","address":"小平市喜平町2-3-1","lat":35.72053,"lon":139.4836},{"name":"小平警察署","province":"東京都","city":"小平市","address":"小平市小川町2-1265-1","lat":35.72562,"lon":139.4483},{"name":"小平消防署","province":"東京都","city":"小平市","address":"小平市仲町21","lat":35.73076,"lon":139.4801},{"name":"西武地区","province":"東京都","city":"小平市","address":"小平市美園町3-1-8","lat":35.73848,"lon":139.4873},{"name":"（株）日栄東海物流センター","province":"東京都","city":"小平市","address":"小平市小川東町4-6-7","lat":35.73489,"lon":139.4766},{"name":"なかまちテラス前","province":"東京都","city":"小平市","address":"東京都小平市仲町164","lat":35.73089682,"lon":139.48542443},{"name":"喜平図書館前","province":"東京都","city":"小平市","address":"東京都小平市喜平町1丁目14-20","lat":35.71679857,"lon":139.49088286},{"name":"滝山南","province":"東京都","city":"小平市","address":"東京都小平市大沼町3丁目14-1","lat":35.7410544,"lon":139.50055593},{"name":"久右衛門橋南","province":"東京都","city":"小平市","address":"東京都小平市上水本町2丁目9-6","lat":35.72057523,"lon":139.46506832},{"name":"小平東部市民センター入口","province":"東京都","city":"小平市","address":"東京都小平市花小金井1丁目25-2","lat":35.72821456,"lon":139.51462747},{"name":"小平団地西","province":"東京都","city":"小平市","address":"東京都小平市喜平町3丁目3-4","lat":35.71766231,"lon":139.48886356},{"name":"小平合同庁舎前","province":"東京都","city":"小平市","address":"東京都小平市花小金井1丁目6-20","lat":35.7301171,"lon":139.51407743},{"name":"小平鈴木町二丁目","province":"東京都","city":"小平市","address":"東京都小平市鈴木町2丁目150","lat":35.72652021,"lon":139.51087789},{"name":"緑成会病院前","province":"東京都","city":"小平市","address":"東京都小平市小川西町4丁目12-12","lat":35.73721486,"lon":139.46164848},{"name":"小平駅南口","province":"東京都","city":"小平市","address":"東京都小平市美園町1丁目8-1","lat":35.73606018,"lon":139.48763232},{"name":"多摩済生病院入口","province":"東京都","city":"小平市","address":"東京都小平市美園町2丁目2-11","lat":35.73821829,"lon":139.48844882},{"name":"小平武道館前","province":"東京都","city":"小平市","address":"東京都小平市花小金井6丁目3-7","lat":35.73041963,"lon":139.50587815},{"name":"一橋学園駅前郵便局","province":"東京都","city":"小平市","address":"東京都小平市学園西町2丁目14-17","lat":35.72368359,"lon":139.47944193},{"name":"学園東町一丁目","province":"東京都","city":"小平市","address":"東京都小平市学園東町2丁目5-1","lat":35.72346427,"lon":139.48291385},{"name":"中央公民館前","province":"東京都","city":"小平市","address":"東京都小平市小川町2丁目1325","lat":35.72776638,"lon":139.47652812},{"name":"小平富士見橋","province":"東京都","city":"小平市","address":"東京都小平市小川西町2丁目5","lat":35.73848119,"lon":139.45588783},{"name":"ルネ小平","province":"東京都","city":"小平市","address":"東京都小平市美園町1丁目8-5","lat":35.73494087,"lon":139.48741851},{"name":"小平駅南口第三","province":"東京都","city":"小平市","address":"東京都小平市美園町1丁目6","lat":35.73709062,"lon":139.48732119},{"name":"小平市役所南","province":"東京都","city":"小平市","address":"東京都小平市学園東町1丁目19","lat":35.7267082,"lon":139.47805303},{"name":"小平障害者福祉センター前","province":"東京都","city":"小平市","address":"東京都小平市小川西町2丁目34-1","lat":35.73789253,"lon":139.46105684},{"name":"小平小川町一丁目東","province":"東京都","city":"小平市","address":"東京都小平市小川町1丁目1028","lat":35.73040173,"lon":139.46048498},{"name":"花小金井消防署前","province":"東京都","city":"小平市","address":"東京都小平市花小金井6丁目16","lat":35.73025861,"lon":139.50848347},{"name":"久右衛門橋北","province":"東京都","city":"小平市","address":"東京都小平市津田町2丁目1-1","lat":35.72186677,"lon":139.46597652},{"name":"小平仲宿通り","province":"東京都","city":"小平市","address":"東京都小平市小川西町3丁目18-10","lat":35.740084,"lon":139.46269271},{"name":"西部市民センター西","province":"東京都","city":"小平市","address":"東京都小平市小川西町5丁目39","lat":35.73603161,"lon":139.46009312},{"name":"上水南浄水所","province":"東京都","city":"小平市","address":"東京都小平市上水南町3丁目12-36","lat":35.71160196,"lon":139.49171079},{"name":"小川浄水所","province":"東京都","city":"小平市","address":"東京都小平市小川町1丁目847","lat":35.72563541,"lon":139.45317197},{"name":"多摩小平保健所","province":"東京都","city":"小平市","address":"東京都小平市花小金井1丁目31-24","lat":35.73006161,"lon":139.5166883},{"name":"陸上自衛隊小平駐屯地","province":"東京都","city":"小平市","address":"小平市喜平町2-3-1","lat":35.72053,"lon":139.4836},{"name":"小平警察署","province":"東京都","city":"小平市","address":"小平市小川町2-1265-1","lat":35.72562,"lon":139.4483},{"name":"小平消防署","province":"東京都","city":"小平市","address":"小平市仲町21","lat":35.73076,"lon":139.4801},{"name":"西武地区","province":"東京都","city":"小平市","address":"小平市美園町3-1-8","lat":35.73848,"lon":139.4873},{"name":"（株）日栄東海物流センター","province":"東京都","city":"小平市","address":"小平市小川東町4-6-7","lat":35.73489,"lon":139.4766},{"name":"なかまちテラス前","province":"東京都","city":"小平市","address":"東京都小平市仲町164","lat":35.73089682,"lon":139.48542443},{"name":"喜平図書館前","province":"東京都","city":"小平市","address":"東京都小平市喜平町1丁目14-20","lat":35.71679857,"lon":139.49088286},{"name":"滝山南","province":"東京都","city":"小平市","address":"東京都小平市大沼町3丁目14-1","lat":35.7410544,"lon":139.50055593},{"name":"久右衛門橋南","province":"東京都","city":"小平市","address":"東京都小平市上水本町2丁目9-6","lat":35.72057523,"lon":139.46506832},{"name":"小平東部市民センター入口","province":"東京都","city":"小平市","address":"東京都小平市花小金井1丁目25-2","lat":35.72821456,"lon":139.51462747},{"name":"小平団地西","province":"東京都","city":"小平市","address":"東京都小平市喜平町3丁目3-4","lat":35.71766231,"lon":139.48886356},{"name":"小平合同庁舎前","province":"東京都","city":"小平市","address":"東京都小平市花小金井1丁目6-20","lat":35.7301171,"lon":139.51407743},{"name":"小平鈴木町二丁目","province":"東京都","city":"小平市","address":"東京都小平市鈴木町2丁目150","lat":35.72652021,"lon":139.51087789},{"name":"緑成会病院前","province":"東京都","city":"小平市","address":"東京都小平市小川西町4丁目12-12","lat":35.73721486,"lon":139.46164848},{"name":"小平駅南口","province":"東京都","city":"小平市","address":"東京都小平市美園町1丁目8-1","lat":35.73606018,"lon":139.48763232},{"name":"多摩済生病院入口","province":"東京都","city":"小平市","address":"東京都小平市美園町2丁目2-11","lat":35.73821829,"lon":139.48844882},{"name":"小平武道館前","province":"東京都","city":"小平市","address":"東京都小平市花小金井6丁目3-7","lat":35.73041963,"lon":139.50587815},{"name":"一橋学園駅前郵便局","province":"東京都","city":"小平市","address":"東京都小平市学園西町2丁目14-17","lat":35.72368359,"lon":139.47944193},{"name":"学園東町一丁目","province":"東京都","city":"小平市","address":"東京都小平市学園東町2丁目5-1","lat":35.72346427,"lon":139.48291385},{"name":"中央公民館前","province":"東京都","city":"小平市","address":"東京都小平市小川町2丁目1325","lat":35.72776638,"lon":139.47652812},{"name":"小平富士見橋","province":"東京都","city":"小平市","address":"東京都小平市小川西町2丁目5","lat":35.73848119,"lon":139.45588783},{"name":"ルネ小平","province":"東京都","city":"小平市","address":"東京都小平市美園町1丁目8-5","lat":35.73494087,"lon":139.48741851},{"name":"小平駅南口第三","province":"東京都","city":"小平市","address":"東京都小平市美園町1丁目6","lat":35.73709062,"lon":139.48732119},{"name":"小平市役所南","province":"東京都","city":"小平市","address":"東京都小平市学園東町1丁目19","lat":35.7267082,"lon":139.47805303},{"name":"小平障害者福祉センター前","province":"東京都","city":"小平市","address":"東京都小平市小川西町2丁目34-1","lat":35.73789253,"lon":139.46105684},{"name":"小平小川町一丁目東","province":"東京都","city":"小平市","address":"東京都小平市小川町1丁目1028","lat":35.73040173,"lon":139.46048498},{"name":"花小金井消防署前","province":"東京都","city":"小平市","address":"東京都小平市花小金井6丁目16","lat":35.73025861,"lon":139.50848347},{"name":"久右衛門橋北","province":"東京都","city":"小平市","address":"東京都小平市津田町2丁目1-1","lat":35.72186677,"lon":139.46597652},{"name":"小平仲宿通り","province":"東京都","city":"小平市","address":"東京都小平市小川西町3丁目18-10","lat":35.740084,"lon":139.46269271},{"name":"西部市民センター西","province":"東京都","city":"小平市","address":"東京都小平市小川西町5丁目39","lat":35.73603161,"lon":139.46009312},{"name":"上水南浄水所","province":"東京都","city":"小平市","address":"東京都小平市上水南町3丁目12-36","lat":35.71160196,"lon":139.49171079},{"name":"小川浄水所","province":"東京都","city":"小平市","address":"東京都小平市小川町1丁目847","lat":35.72563541,"lon":139.45317197},{"name":"多摩小平保健所","province":"東京都","city":"小平市","address":"東京都小平市花小金井1丁目31-24","lat":35.73006161,"lon":139.5166883},{"name":"陸上自衛隊小平駐屯地","province":"東京都","city":"小平市","address":"小平市喜平町2-3-1","lat":35.72053,"lon":139.4836},{"name":"小平警察署","province":"東京都","city":"小平市","address":"小平市小川町2-1265-1","lat":35.72562,"lon":139.4483},{"name":"小平消防署","province":"東京都","city":"小平市","address":"小平市仲町21","lat":35.73076,"lon":139.4801},{"name":"西武地区","province":"東京都","city":"小平市","address":"小平市美園町3-1-8","lat":35.73848,"lon":139.4873},{"name":"（株）日栄東海物流センター","province":"東京都","city":"小平市","address":"小平市小川東町4-6-7","lat":35.73489,"lon":139.4766},{"name":"なかまちテラス前","province":"東京都","city":"小平市","address":"東京都小平市仲町164","lat":35.73089682,"lon":139.48542443},{"name":"喜平図書館前","province":"東京都","city":"小平市","address":"東京都小平市喜平町1丁目14-20","lat":35.71679857,"lon":139.49088286},{"name":"滝山南","province":"東京都","city":"小平市","address":"東京都小平市大沼町3丁目14-1","lat":35.7410544,"lon":139.50055593},{"name":"久右衛門橋南","province":"東京都","city":"小平市","address":"東京都小平市上水本町2丁目9-6","lat":35.72057523,"lon":139.46506832},{"name":"小平東部市民センター入口","province":"東京都","city":"小平市","address":"東京都小平市花小金井1丁目25-2","lat":35.72821456,"lon":139.51462747},{"name":"小平団地西","province":"東京都","city":"小平市","address":"東京都小平市喜平町3丁目3-4","lat":35.71766231,"lon":139.48886356},{"name":"小平合同庁舎前","province":"東京都","city":"小平市","address":"東京都小平市花小金井1丁目6-20","lat":35.7301171,"lon":139.51407743},{"name":"小平鈴木町二丁目","province":"東京都","city":"小平市","address":"東京都小平市鈴木町2丁目150","lat":35.72652021,"lon":139.51087789},{"name":"緑成会病院前","province":"東京都","city":"小平市","address":"東京都小平市小川西町4丁目12-12","lat":35.73721486,"lon":139.46164848},{"name":"小平駅南口","province":"東京都","city":"小平市","address":"東京都小平市美園町1丁目8-1","lat":35.73606018,"lon":139.48763232},{"name":"多摩済生病院入口","province":"東京都","city":"小平市","address":"東京都小平市美園町2丁目2-11","lat":35.73821829,"lon":139.48844882},{"name":"小平武道館前","province":"東京都","city":"小平市","address":"東京都小平市花小金井6丁目3-7","lat":35.73041963,"lon":139.50587815},{"name":"一橋学園駅前郵便局","province":"東京都","city":"小平市","address":"東京都小平市学園西町2丁目14-17","lat":35.72368359,"lon":139.47944193},{"name":"学園東町一丁目","province":"東京都","city":"小平市","address":"東京都小平市学園東町2丁目5-1","lat":35.72346427,"lon":139.48291385},{"name":"中央公民館前","province":"東京都","city":"小平市","address":"東京都小平市小川町2丁目1325","lat":35.72776638,"lon":139.47652812},{"name":"小平富士見橋","province":"東京都","city":"小平市","address":"東京都小平市小川西町2丁目5","lat":35.73848119,"lon":139.45588783},{"name":"ルネ小平","province":"東京都","city":"小平市","address":"東京都小平市美園町1丁目8-5","lat":35.73494087,"lon":139.48741851},{"name":"小平駅南口第三","province":"東京都","city":"小平市","address":"東京都小平市美園町1丁目6","lat":35.73709062,"lon":139.48732119},{"name":"小平市役所南","province":"東京都","city":"小平市","address":"東京都小平市学園東町1丁目19","lat":35.7267082,"lon":139.47805303},{"name":"小平障害者福祉センター前","province":"東京都","city":"小平市","address":"東京都小平市小川西町2丁目34-1","lat":35.73789253,"lon":139.46105684},{"name":"小平小川町一丁目東","province":"東京都","city":"小平市","address":"東京都小平市小川町1丁目1028","lat":35.73040173,"lon":139.46048498},{"name":"花小金井消防署前","province":"東京都","city":"小平市","address":"東京都小平市花小金井6丁目16","lat":35.73025861,"lon":139.50848347},{"name":"久右衛門橋北","province":"東京都","city":"小平市","address":"東京都小平市津田町2丁目1-1","lat":35.72186677,"lon":139.46597652},{"name":"小平仲宿通り","province":"東京都","city":"小平市","address":"東京都小平市小川西町3丁目18-10","lat":35.740084,"lon":139.46269271},{"name":"西部市民センター西","province":"東京都","city":"小平市","address":"東京都小平市小川西町5丁目39","lat":35.73603161,"lon":139.46009312},{"name":"上水南浄水所","province":"東京都","city":"小平市","address":"東京都小平市上水南町3丁目12-36","lat":35.71160196,"lon":139.49171079},{"name":"小川浄水所","province":"東京都","city":"小平市","address":"東京都小平市小川町1丁目847","lat":35.72563541,"lon":139.45317197},{"name":"多摩小平保健所","province":"東京都","city":"小平市","address":"東京都小平市花小金井1丁目31-24","lat":35.73006161,"lon":139.5166883},{"name":"陸上自衛隊小平駐屯地","province":"東京都","city":"小平市","address":"小平市喜平町2-3-1","lat":35.72053,"lon":139.4836},{"name":"小平警察署","province":"東京都","city":"小平市","address":"小平市小川町2-1265-1","lat":35.72562,"lon":139.4483},{"name":"小平消防署","province":"東京都","city":"小平市","address":"小平市仲町21","lat":35.73076,"lon":139.4801},{"name":"西武地区","province":"東京都","city":"小平市","address":"小平市美園町3-1-8","lat":35.73848,"lon":139.4873},{"name":"（株）日栄東海物流センター","province":"東京都","city":"小平市","address":"小平市小川東町4-6-7","lat":35.73489,"lon":139.4766},{"name":"なかまちテラス前","province":"東京都","city":"小平市","address":"東京都小平市仲町164","lat":35.73089682,"lon":139.48542443},{"name":"喜平図書館前","province":"東京都","city":"小平市","address":"東京都小平市喜平町1丁目14-20","lat":35.71679857,"lon":139.49088286},{"name":"滝山南","province":"東京都","city":"小平市","address":"東京都小平市大沼町3丁目14-1","lat":35.7410544,"lon":139.50055593},{"name":"久右衛門橋南","province":"東京都","city":"小平市","address":"東京都小平市上水本町2丁目9-6","lat":35.72057523,"lon":139.46506832},{"name":"小平東部市民センター入口","province":"東京都","city":"小平市","address":"東京都小平市花小金井1丁目25-2","lat":35.72821456,"lon":139.51462747},{"name":"小平団地西","province":"東京都","city":"小平市","address":"東京都小平市喜平町3丁目3-4","lat":35.71766231,"lon":139.48886356},{"name":"小平合同庁舎前","province":"東京都","city":"小平市","address":"東京都小平市花小金井1丁目6-20","lat":35.7301171,"lon":139.51407743},{"name":"小平鈴木町二丁目","province":"東京都","city":"小平市","address":"東京都小平市鈴木町2丁目150","lat":35.72652021,"lon":139.51087789},{"name":"緑成会病院前","province":"東京都","city":"小平市","address":"東京都小平市小川西町4丁目12-12","lat":35.73721486,"lon":139.46164848},{"name":"小平駅南口","province":"東京都","city":"小平市","address":"東京都小平市美園町1丁目8-1","lat":35.73606018,"lon":139.48763232},{"name":"多摩済生病院入口","province":"東京都","city":"小平市","address":"東京都小平市美園町2丁目2-11","lat":35.73821829,"lon":139.48844882},{"name":"小平武道館前","province":"東京都","city":"小平市","address":"東京都小平市花小金井6丁目3-7","lat":35.73041963,"lon":139.50587815},{"name":"一橋学園駅前郵便局","province":"東京都","city":"小平市","address":"東京都小平市学園西町2丁目14-17","lat":35.72368359,"lon":139.47944193},{"name":"学園東町一丁目","province":"東京都","city":"小平市","address":"東京都小平市学園東町2丁目5-1","lat":35.72346427,"lon":139.48291385},{"name":"中央公民館前","province":"東京都","city":"小平市","address":"東京都小平市小川町2丁目1325","lat":35.72776638,"lon":139.47652812},{"name":"小平富士見橋","province":"東京都","city":"小平市","address":"東京都小平市小川西町2丁目5","lat":35.73848119,"lon":139.45588783},{"name":"ルネ小平","province":"東京都","city":"小平市","address":"東京都小平市美園町1丁目8-5","lat":35.73494087,"lon":139.48741851},{"name":"小平駅南口第三","province":"東京都","city":"小平市","address":"東京都小平市美園町1丁目6","lat":35.73709062,"lon":139.48732119},{"name":"小平市役所南","province":"東京都","city":"小平市","address":"東京都小平市学園東町1丁目19","lat":35.7267082,"lon":139.47805303},{"name":"小平障害者福祉センター前","province":"東京都","city":"小平市","address":"東京都小平市小川西町2丁目34-1","lat":35.73789253,"lon":139.46105684},{"name":"小平小川町一丁目東","province":"東京都","city":"小平市","address":"東京都小平市小川町1丁目1028","lat":35.73040173,"lon":139.46048498},{"name":"花小金井消防署前","province":"東京都","city":"小平市","address":"東京都小平市花小金井6丁目16","lat":35.73025861,"lon":139.50848347},{"name":"久右衛門橋北","province":"東京都","city":"小平市","address":"東京都小平市津田町2丁目1-1","lat":35.72186677,"lon":139.46597652},{"name":"小平仲宿通り","province":"東京都","city":"小平市","address":"東京都小平市小川西町3丁目18-10","lat":35.740084,"lon":139.46269271},{"name":"西部市民センター西","province":"東京都","city":"小平市","address":"東京都小平市小川西町5丁目39","lat":35.73603161,"lon":139.46009312},{"name":"上水南浄水所","province":"東京都","city":"小平市","address":"東京都小平市上水南町3丁目12-36","lat":35.71160196,"lon":139.49171079},{"name":"小川浄水所","province":"東京都","city":"小平市","address":"東京都小平市小川町1丁目847","lat":35.72563541,"lon":139.45317197},{"name":"多摩小平保健所","province":"東京都","city":"小平市","address":"東京都小平市花小金井1丁目31-24","lat":35.73006161,"lon":139.5166883},{"name":"陸上自衛隊小平駐屯地","province":"東京都","city":"小平市","address":"小平市喜平町2-3-1","lat":35.72053,"lon":139.4836},{"name":"小平警察署","province":"東京都","city":"小平市","address":"小平市小川町2-1265-1","lat":35.72562,"lon":139.4483},{"name":"小平消防署","province":"東京都","city":"小平市","address":"小平市仲町21","lat":35.73076,"lon":139.4801},{"name":"西武地区","province":"東京都","city":"小平市","address":"小平市美園町3-1-8","lat":35.73848,"lon":139.4873},{"name":"（株）日栄東海物流センター","province":"東京都","city":"小平市","address":"小平市小川東町4-6-7","lat":35.73489,"lon":139.4766},{"name":"なかまちテラス前","province":"東京都","city":"小平市","address":"東京都小平市仲町164","lat":35.73089682,"lon":139.48542443},{"name":"喜平図書館前","province":"東京都","city":"小平市","address":"東京都小平市喜平町1丁目14-20","lat":35.71679857,"lon":139.49088286},{"name":"滝山南","province":"東京都","city":"小平市","address":"東京都小平市大沼町3丁目14-1","lat":35.7410544,"lon":139.50055593},{"name":"久右衛門橋南","province":"東京都","city":"小平市","address":"東京都小平市上水本町2丁目9-6","lat":35.72057523,"lon":139.46506832},{"name":"小平東部市民センター入口","province":"東京都","city":"小平市","address":"東京都小平市花小金井1丁目25-2","lat":35.72821456,"lon":139.51462747},{"name":"小平団地西","province":"東京都","city":"小平市","address":"東京都小平市喜平町3丁目3-4","lat":35.71766231,"lon":139.48886356},{"name":"小平合同庁舎前","province":"東京都","city":"小平市","address":"東京都小平市花小金井1丁目6-20","lat":35.7301171,"lon":139.51407743},{"name":"小平鈴木町二丁目","province":"東京都","city":"小平市","address":"東京都小平市鈴木町2丁目150","lat":35.72652021,"lon":139.51087789},{"name":"緑成会病院前","province":"東京都","city":"小平市","address":"東京都小平市小川西町4丁目12-12","lat":35.73721486,"lon":139.46164848},{"name":"小平駅南口","province":"東京都","city":"小平市","address":"東京都小平市美園町1丁目8-1","lat":35.73606018,"lon":139.48763232},{"name":"多摩済生病院入口","province":"東京都","city":"小平市","address":"東京都小平市美園町2丁目2-11","lat":35.73821829,"lon":139.48844882},{"name":"小平武道館前","province":"東京都","city":"小平市","address":"東京都小平市花小金井6丁目3-7","lat":35.73041963,"lon":139.50587815},{"name":"一橋学園駅前郵便局","province":"東京都","city":"小平市","address":"東京都小平市学園西町2丁目14-17","lat":35.72368359,"lon":139.47944193},{"name":"学園東町一丁目","province":"東京都","city":"小平市","address":"東京都小平市学園東町2丁目5-1","lat":35.72346427,"lon":139.48291385},{"name":"中央公民館前","province":"東京都","city":"小平市","address":"東京都小平市小川町2丁目1325","lat":35.72776638,"lon":139.47652812},{"name":"小平富士見橋","province":"東京都","city":"小平市","address":"東京都小平市小川西町2丁目5","lat":35.73848119,"lon":139.45588783},{"name":"ルネ小平","province":"東京都","city":"小平市","address":"東京都小平市美園町1丁目8-5","lat":35.73494087,"lon":139.48741851},{"name":"小平駅南口第三","province":"東京都","city":"小平市","address":"東京都小平市美園町1丁目6","lat":35.73709062,"lon":139.48732119},{"name":"小平市役所南","province":"東京都","city":"小平市","address":"東京都小平市学園東町1丁目19","lat":35.7267082,"lon":139.47805303},{"name":"小平障害者福祉センター前","province":"東京都","city":"小平市","address":"東京都小平市小川西町2丁目34-1","lat":35.73789253,"lon":139.46105684},{"name":"小平小川町一丁目東","province":"東京都","city":"小平市","address":"東京都小平市小川町1丁目1028","lat":35.73040173,"lon":139.46048498},{"name":"花小金井消防署前","province":"東京都","city":"小平市","address":"東京都小平市花小金井6丁目16","lat":35.73025861,"lon":139.50848347},{"name":"久右衛門橋北","province":"東京都","city":"小平市","address":"東京都小平市津田町2丁目1-1","lat":35.72186677,"lon":139.46597652},{"name":"小平仲宿通り","province":"東京都","city":"小平市","address":"東京都小平市小川西町3丁目18-10","lat":35.740084,"lon":139.46269271},{"name":"西部市民センター西","province":"東京都","city":"小平市","address":"東京都小平市小川西町5丁目39","lat":35.73603161,"lon":139.46009312},{"name":"上水南浄水所","province":"東京都","city":"小平市","address":"東京都小平市上水南町3丁目12-36","lat":35.71160196,"lon":139.49171079},{"name":"小川浄水所","province":"東京都","city":"小平市","address":"東京都小平市小川町1丁目847","lat":35.72563541,"lon":139.45317197},{"name":"多摩小平保健所","province":"東京都","city":"小平市","address":"東京都小平市花小金井1丁目31-24","lat":35.73006161,"lon":139.5166883},{"name":"陸上自衛隊小平駐屯地","province":"東京都","city":"小平市","address":"小平市喜平町2-3-1","lat":35.72053,"lon":139.4836},{"name":"小平警察署","province":"東京都","city":"小平市","address":"小平市小川町2-1265-1","lat":35.72562,"lon":139.4483},{"name":"小平消防署","province":"東京都","city":"小平市","address":"小平市仲町21","lat":35.73076,"lon":139.4801},{"name":"西武地区","province":"東京都","city":"小平市","address":"小平市美園町3-1-8","lat":35.73848,"lon":139.4873},{"name":"（株）日栄東海物流センター","province":"東京都","city":"小平市","address":"小平市小川東町4-6-7","lat":35.73489,"lon":139.4766},{"name":"なかまちテラス前","province":"東京都","city":"小平市","address":"東京都小平市仲町164","lat":35.73089682,"lon":139.48542443},{"name":"喜平図書館前","province":"東京都","city":"小平市","address":"東京都小平市喜平町1丁目14-20","lat":35.71679857,"lon":139.49088286},{"name":"滝山南","province":"東京都","city":"小平市","address":"東京都小平市大沼町3丁目14-1","lat":35.7410544,"lon":139.50055593},{"name":"久右衛門橋南","province":"東京都","city":"小平市","address":"東京都小平市上水本町2丁目9-6","lat":35.72057523,"lon":139.46506832},{"name":"小平東部市民センター入口","province":"東京都","city":"小平市","address":"東京都小平市花小金井1丁目25-2","lat":35.72821456,"lon":139.51462747},{"name":"小平団地西","province":"東京都","city":"小平市","address":"東京都小平市喜平町3丁目3-4","lat":35.71766231,"lon":139.48886356},{"name":"小平合同庁舎前","province":"東京都","city":"小平市","address":"東京都小平市花小金井1丁目6-20","lat":35.7301171,"lon":139.51407743},{"name":"小平鈴木町二丁目","province":"東京都","city":"小平市","address":"東京都小平市鈴木町2丁目150","lat":35.72652021,"lon":139.51087789},{"name":"緑成会病院前","province":"東京都","city":"小平市","address":"東京都小平市小川西町4丁目12-12","lat":35.73721486,"lon":139.46164848},{"name":"小平駅南口","province":"東京都","city":"小平市","address":"東京都小平市美園町1丁目8-1","lat":35.73606018,"lon":139.48763232},{"name":"多摩済生病院入口","province":"東京都","city":"小平市","address":"東京都小平市美園町2丁目2-11","lat":35.73821829,"lon":139.48844882},{"name":"小平武道館前","province":"東京都","city":"小平市","address":"東京都小平市花小金井6丁目3-7","lat":35.73041963,"lon":139.50587815},{"name":"一橋学園駅前郵便局","province":"東京都","city":"小平市","address":"東京都小平市学園西町2丁目14-17","lat":35.72368359,"lon":139.47944193},{"name":"学園東町一丁目","province":"東京都","city":"小平市","address":"東京都小平市学園東町2丁目5-1","lat":35.72346427,"lon":139.48291385},{"name":"中央公民館前","province":"東京都","city":"小平市","address":"東京都小平市小川町2丁目1325","lat":35.72776638,"lon":139.47652812},{"name":"小平富士見橋","province":"東京都","city":"小平市","address":"東京都小平市小川西町2丁目5","lat":35.73848119,"lon":139.45588783},{"name":"ルネ小平","province":"東京都","city":"小平市","address":"東京都小平市美園町1丁目8-5","lat":35.73494087,"lon":139.48741851},{"name":"小平駅南口第三","province":"東京都","city":"小平市","address":"東京都小平市美園町1丁目6","lat":35.73709062,"lon":139.48732119},{"name":"小平市役所南","province":"東京都","city":"小平市","address":"東京都小平市学園東町1丁目19","lat":35.7267082,"lon":139.47805303},{"name":"小平障害者福祉センター前","province":"東京都","city":"小平市","address":"東京都小平市小川西町2丁目34-1","lat":35.73789253,"lon":139.46105684},{"name":"小平小川町一丁目東","province":"東京都","city":"小平市","address":"東京都小平市小川町1丁目1028","lat":35.73040173,"lon":139.46048498},{"name":"花小金井消防署前","province":"東京都","city":"小平市","address":"東京都小平市花小金井6丁目16","lat":35.73025861,"lon":139.50848347},{"name":"久右衛門橋北","province":"東京都","city":"小平市","address":"東京都小平市津田町2丁目1-1","lat":35.72186677,"lon":139.46597652},{"name":"小平仲宿通り","province":"東京都","city":"小平市","address":"東京都小平市小川西町3丁目18-10","lat":35.740084,"lon":139.46269271},{"name":"西部市民センター西","province":"東京都","city":"小平市","address":"東京都小平市小川西町5丁目39","lat":35.73603161,"lon":139.46009312},{"name":"上水南浄水所","province":"東京都","city":"小平市","address":"東京都小平市上水南町3丁目12-36","lat":35.71160196,"lon":139.49171079},{"name":"小川浄水所","province":"東京都","city":"小平市","address":"東京都小平市小川町1丁目847","lat":35.72563541,"lon":139.45317197},{"name":"多摩小平保健所","province":"東京都","city":"小平市","address":"東京都小平市花小金井1丁目31-24","lat":35.73006161,"lon":139.5166883},{"name":"陸上自衛隊小平駐屯地","province":"東京都","city":"小平市","address":"小平市喜平町2-3-1","lat":35.72053,"lon":139.4836},{"name":"小平警察署","province":"東京都","city":"小平市","address":"小平市小川町2-1265-1","lat":35.72562,"lon":139.4483},{"name":"小平消防署","province":"東京都","city":"小平市","address":"小平市仲町21","lat":35.73076,"lon":139.4801},{"name":"西武地区","province":"東京都","city":"小平市","address":"小平市美園町3-1-8","lat":35.73848,"lon":139.4873},{"name":"（株）日栄東海物流センター","province":"東京都","city":"小平市","address":"小平市小川東町4-6-7","lat":35.73489,"lon":139.4766},{"name":"なかまちテラス前","province":"東京都","city":"小平市","address":"東京都小平市仲町164","lat":35.73089682,"lon":139.48542443},{"name":"喜平図書館前","province":"東京都","city":"小平市","address":"東京都小平市喜平町1丁目14-20","lat":35.71679857,"lon":139.49088286},{"name":"滝山南","province":"東京都","city":"小平市","address":"東京都小平市大沼町3丁目14-1","lat":35.7410544,"lon":139.50055593},{"name":"久右衛門橋南","province":"東京都","city":"小平市","address":"東京都小平市上水本町2丁目9-6","lat":35.72057523,"lon":139.46506832},{"name":"小平東部市民センター入口","province":"東京都","city":"小平市","address":"東京都小平市花小金井1丁目25-2","lat":35.72821456,"lon":139.51462747},{"name":"小平団地西","province":"東京都","city":"小平市","address":"東京都小平市喜平町3丁目3-4","lat":35.71766231,"lon":139.48886356},{"name":"小平合同庁舎前","province":"東京都","city":"小平市","address":"東京都小平市花小金井1丁目6-20","lat":35.7301171,"lon":139.51407743},{"name":"小平鈴木町二丁目","province":"東京都","city":"小平市","address":"東京都小平市鈴木町2丁目150","lat":35.72652021,"lon":139.51087789},{"name":"緑成会病院前","province":"東京都","city":"小平市","address":"東京都小平市小川西町4丁目12-12","lat":35.73721486,"lon":139.46164848},{"name":"小平駅南口","province":"東京都","city":"小平市","address":"東京都小平市美園町1丁目8-1","lat":35.73606018,"lon":139.48763232},{"name":"多摩済生病院入口","province":"東京都","city":"小平市","address":"東京都小平市美園町2丁目2-11","lat":35.73821829,"lon":139.48844882},{"name":"小平武道館前","province":"東京都","city":"小平市","address":"東京都小平市花小金井6丁目3-7","lat":35.73041963,"lon":139.50587815},{"name":"一橋学園駅前郵便局","province":"東京都","city":"小平市","address":"東京都小平市学園西町2丁目14-17","lat":35.72368359,"lon":139.47944193},{"name":"学園東町一丁目","province":"東京都","city":"小平市","address":"東京都小平市学園東町2丁目5-1","lat":35.72346427,"lon":139.48291385},{"name":"中央公民館前","province":"東京都","city":"小平市","address":"東京都小平市小川町2丁目1325","lat":35.72776638,"lon":139.47652812},{"name":"小平富士見橋","province":"東京都","city":"小平市","address":"東京都小平市小川西町2丁目5","lat":35.73848119,"lon":139.45588783},{"name":"ルネ小平","province":"東京都","city":"小平市","address":"東京都小平市美園町1丁目8-5","lat":35.73494087,"lon":139.48741851},{"name":"小平駅南口第三","province":"東京都","city":"小平市","address":"東京都小平市美園町1丁目6","lat":35.73709062,"lon":139.48732119},{"name":"小平市役所南","province":"東京都","city":"小平市","address":"東京都小平市学園東町1丁目19","lat":35.7267082,"lon":139.47805303},{"name":"小平障害者福祉センター前","province":"東京都","city":"小平市","address":"東京都小平市小川西町2丁目34-1","lat":35.73789253,"lon":139.46105684},{"name":"小平小川町一丁目東","province":"東京都","city":"小平市","address":"東京都小平市小川町1丁目1028","lat":35.73040173,"lon":139.46048498},{"name":"花小金井消防署前","province":"東京都","city":"小平市","address":"東京都小平市花小金井6丁目16","lat":35.73025861,"lon":139.50848347},{"name":"久右衛門橋北","province":"東京都","city":"小平市","address":"東京都小平市津田町2丁目1-1","lat":35.72186677,"lon":139.46597652},{"name":"小平仲宿通り","province":"東京都","city":"小平市","address":"東京都小平市小川西町3丁目18-10","lat":35.740084,"lon":139.46269271},{"name":"西部市民センター西","province":"東京都","city":"小平市","address":"東京都小平市小川西町5丁目39","lat":35.73603161,"lon":139.46009312},{"name":"上水南浄水所","province":"東京都","city":"小平市","address":"東京都小平市上水南町3丁目12-36","lat":35.71160196,"lon":139.49171079},{"name":"小川浄水所","province":"東京都","city":"小平市","address":"東京都小平市小川町1丁目847","lat":35.72563541,"lon":139.45317197},{"name":"多摩小平保健所","province":"東京都","city":"小平市","address":"東京都小平市花小金井1丁目31-24","lat":35.73006161,"lon":139.5166883},{"name":"陸上自衛隊小平駐屯地","province":"東京都","city":"小平市","address":"小平市喜平町2-3-1","lat":35.72053,"lon":139.4836},{"name":"小平警察署","province":"東京都","city":"小平市","address":"小平市小川町2-1265-1","lat":35.72562,"lon":139.4483},{"name":"小平消防署","province":"東京都","city":"小平市","address":"小平市仲町21","lat":35.73076,"lon":139.4801},{"name":"西武地区","province":"東京都","city":"小平市","address":"小平市美園町3-1-8","lat":35.73848,"lon":139.4873},{"name":"（株）日栄東海物流センター","province":"東京都","city":"小平市","address":"小平市小川東町4-6-7","lat":35.73489,"lon":139.4766},{"name":"なかまちテラス前","province":"東京都","city":"小平市","address":"東京都小平市仲町164","lat":35.73089682,"lon":139.48542443},{"name":"喜平図書館前","province":"東京都","city":"小平市","address":"東京都小平市喜平町1丁目14-20","lat":35.71679857,"lon":139.49088286},{"name":"滝山南","province":"東京都","city":"小平市","address":"東京都小平市大沼町3丁目14-1","lat":35.7410544,"lon":139.50055593},{"name":"久右衛門橋南","province":"東京都","city":"小平市","address":"東京都小平市上水本町2丁目9-6","lat":35.72057523,"lon":139.46506832},{"name":"小平東部市民センター入口","province":"東京都","city":"小平市","address":"東京都小平市花小金井1丁目25-2","lat":35.72821456,"lon":139.51462747},{"name":"小平団地西","province":"東京都","city":"小平市","address":"東京都小平市喜平町3丁目3-4","lat":35.71766231,"lon":139.48886356},{"name":"小平合同庁舎前","province":"東京都","city":"小平市","address":"東京都小平市花小金井1丁目6-20","lat":35.7301171,"lon":139.51407743},{"name":"小平鈴木町二丁目","province":"東京都","city":"小平市","address":"東京都小平市鈴木町2丁目150","lat":35.72652021,"lon":139.51087789},{"name":"緑成会病院前","province":"東京都","city":"小平市","address":"東京都小平市小川西町4丁目12-12","lat":35.73721486,"lon":139.46164848},{"name":"小平駅南口","province":"東京都","city":"小平市","address":"東京都小平市美園町1丁目8-1","lat":35.73606018,"lon":139.48763232},{"name":"多摩済生病院入口","province":"東京都","city":"小平市","address":"東京都小平市美園町2丁目2-11","lat":35.73821829,"lon":139.48844882},{"name":"小平武道館前","province":"東京都","city":"小平市","address":"東京都小平市花小金井6丁目3-7","lat":35.73041963,"lon":139.50587815},{"name":"一橋学園駅前郵便局","province":"東京都","city":"小平市","address":"東京都小平市学園西町2丁目14-17","lat":35.72368359,"lon":139.47944193},{"name":"学園東町一丁目","province":"東京都","city":"小平市","address":"東京都小平市学園東町2丁目5-1","lat":35.72346427,"lon":139.48291385},{"name":"中央公民館前","province":"東京都","city":"小平市","address":"東京都小平市小川町2丁目1325","lat":35.72776638,"lon":139.47652812},{"name":"小平富士見橋","province":"東京都","city":"小平市","address":"東京都小平市小川西町2丁目5","lat":35.73848119,"lon":139.45588783},{"name":"ルネ小平","province":"東京都","city":"小平市","address":"東京都小平市美園町1丁目8-5","lat":35.73494087,"lon":139.48741851},{"name":"小平駅南口第三","province":"東京都","city":"小平市","address":"東京都小平市美園町1丁目6","lat":35.73709062,"lon":139.48732119},{"name":"小平市役所南","province":"東京都","city":"小平市","address":"東京都小平市学園東町1丁目19","lat":35.7267082,"lon":139.47805303},{"name":"小平障害者福祉センター前","province":"東京都","city":"小平市","address":"東京都小平市小川西町2丁目34-1","lat":35.73789253,"lon":139.46105684},{"name":"小平小川町一丁目東","province":"東京都","city":"小平市","address":"東京都小平市小川町1丁目1028","lat":35.73040173,"lon":139.46048498},{"name":"花小金井消防署前","province":"東京都","city":"小平市","address":"東京都小平市花小金井6丁目16","lat":35.73025861,"lon":139.50848347},{"name":"久右衛門橋北","province":"東京都","city":"小平市","address":"東京都小平市津田町2丁目1-1","lat":35.72186677,"lon":139.46597652},{"name":"小平仲宿通り","province":"東京都","city":"小平市","address":"東京都小平市小川西町3丁目18-10","lat":35.740084,"lon":139.46269271},{"name":"西部市民センター西","province":"東京都","city":"小平市","address":"東京都小平市小川西町5丁目39","lat":35.73603161,"lon":139.46009312},{"name":"上水南浄水所","province":"東京都","city":"小平市","address":"東京都小平市上水南町3丁目12-36","lat":35.71160196,"lon":139.49171079},{"name":"小川浄水所","province":"東京都","city":"小平市","address":"東京都小平市小川町1丁目847","lat":35.72563541,"lon":139.45317197},{"name":"多摩小平保健所","province":"東京都","city":"小平市","address":"東京都小平市花小金井1丁目31-24","lat":35.73006161,"lon":139.5166883},{"name":"陸上自衛隊小平駐屯地","province":"東京都","city":"小平市","address":"小平市喜平町2-3-1","lat":35.72053,"lon":139.4836},{"name":"小平警察署","province":"東京都","city":"小平市","address":"小平市小川町2-1265-1","lat":35.72562,"lon":139.4483},{"name":"小平消防署","province":"東京都","city":"小平市","address":"小平市仲町21","lat":35.73076,"lon":139.4801},{"name":"西武地区","province":"東京都","city":"小平市","address":"小平市美園町3-1-8","lat":35.73848,"lon":139.4873},{"name":"（株）日栄東海物流センター","province":"東京都","city":"小平市","address":"小平市小川東町4-6-7","lat":35.73489,"lon":139.4766}]}