{"keyword":"自転車","data":[{"name":"鷹の台駅北第一有料自転車駐車場","province":"東京都","city":"小平市","address":"東京都小平市たかの台30-2","lat":35.72464408,"lon":139.46110462},{"name":"鷹の台駅南有料自転車駐車場","province":"東京都","city":"小平市","address":"東京都小平市上水本町1丁目16-20","lat":35.72086952,"lon":139.46092979},{"name":"新小平駅西有料自転車駐車場","province":"東京都","city":"小平市","address":"東京都小平市小川町2丁目1169","lat":35.72936319,"lon":139.46829267},{"name":"一橋学園駅有料自転車駐車場","province":"東京都","city":"小平市","address":"東京都小平市喜平町2丁目3-1","lat":35.72053406,"lon":139.4836028},{"name":"一橋学園駅北有料自転車駐車場","province":"東京都","city":"小平市","address":"東京都小平市学園東町1丁目6-16","lat":35.72381692,"lon":139.479753},{"name":"一橋学園駅東有料自転車駐車場","province":"東京都","city":"小平市","address":"東京都小平市学園東町2丁目1-28","lat":35.72204784,"lon":139.48583865},{"name":"小平駅南口有料自転車駐車場","province":"東京都","city":"小平市","address":"東京都小平市美園町1丁目34-5","lat":35.73678234,"lon":139.48837945},{"name":"小平駅東有料自転車駐車場","province":"東京都","city":"小平市","address":"東京都小平市美園町1丁目31-1","lat":35.73608244,"lon":139.48923217},{"name":"小平駅西有料自転車駐車場","province":"東京都","city":"小平市","address":"東京都小平市美園町1丁目3-6","lat":35.73687396,"lon":139.48670182},{"name":"小平駅北第一有料自転車駐車場","province":"東京都","city":"小平市","address":"東京都小平市美園町2丁目11-11","lat":35.73675184,"lon":139.49010706},{"name":"小平駅北第二有料自転車駐車場","province":"東京都","city":"小平市","address":"東京都小平市美園町3丁目18-18","lat":35.73973486,"lon":139.49102352},{"name":"花小金井駅南有料自転車駐車場","province":"東京都","city":"小平市","address":"東京都小平市花小金井南町2丁目19-13","lat":35.72500937,"lon":139.51442488},{"name":"花小金井駅北有料自転車駐車場","province":"東京都","city":"小平市","address":"東京都小平市花小金井1丁目3-29","lat":35.72716184,"lon":139.51228885},{"name":"小川駅西自転車駐車場","province":"東京都","city":"小平市","address":"東京都小平市小川西町5丁目25-20","lat":35.73582048,"lon":139.45887379}]}