{"keyword":"認可","data":[{"name":"コビープリスクールこだいら","province":"東京都","city":"小平市","address":"小平市大沼町1-3-8","lat":35.73676,"lon":139.49333},{"name":"大沼保育園","province":"東京都","city":"小平市","address":"小平市大沼町2-2-8","lat":35.73965,"lon":139.49269},{"name":"花小金井愛育園","province":"東京都","city":"小平市","address":"小平市花小金井1-26-10","lat":35.72847,"lon":139.51472},{"name":"Ｇａｋｋｅｎほいくえん花小金井","province":"東京都","city":"小平市","address":"小平市花小金井3-1-21-1","lat":35.73568,"lon":139.51393},{"name":"花小金井にこにこ保育園","province":"東京都","city":"小平市","address":"小平市花小金井4-11-22","lat":35.73759,"lon":139.50821},{"name":"花小金井保育園","province":"東京都","city":"小平市","address":"小平市花小金井5-41-3","lat":35.73419,"lon":139.51028},{"name":"アスク花小金井保育園","province":"東京都","city":"小平市","address":"小平市花小金井6-16-3","lat":35.72997,"lon":139.50829},{"name":"このはな保育園","province":"東京都","city":"小平市","address":"小平市花小金井7-27-1","lat":35.72921,"lon":139.50534},{"name":"しあわせの森保育園","province":"東京都","city":"小平市","address":"小平市花小金井南町1-6-20","lat":35.72235,"lon":139.51099},{"name":"ドリームキッズ花南保育園","province":"東京都","city":"小平市","address":"小平市花小金井南町1-8-10","lat":35.72231,"lon":139.51216},{"name":"小平花小金井雲母保育園","province":"東京都","city":"小平市","address":"小平市花小金井南町2-10-40","lat":35.72334,"lon":139.51604},{"name":"白梅保育園","province":"東京都","city":"小平市","address":"小平市花小金井南町2-12-5","lat":35.72424,"lon":139.51651},{"name":"あゆみの森保育園","province":"東京都","city":"小平市","address":"小平市花小金井南町2丁目3番19号","lat":35.72161,"lon":139.515},{"name":"花小金井おひさま保育園","province":"東京都","city":"小平市","address":"小平市花小金井南町三丁目34番49号","lat":35.72341,"lon":139.51917},{"name":"てんじん保育園","province":"東京都","city":"小平市","address":"小平市天神町2-11-26","lat":35.73177,"lon":139.49376},{"name":"ひめゆり保育園","province":"東京都","city":"小平市","address":"小平市天神町2-6-1","lat":35.73331,"lon":139.49348},{"name":"こぶし保育園","province":"東京都","city":"小平市","address":"小平市鈴木町1-148","lat":35.72602,"lon":139.49507},{"name":"すずのき台保育園","province":"東京都","city":"小平市","address":"小平市鈴木町1-166-1","lat":35.7248,"lon":139.4967},{"name":"プチ・ふたば保育園","province":"東京都","city":"小平市","address":"小平市鈴木町1-344","lat":35.72445,"lon":139.50154},{"name":"やさしい森保育園","province":"東京都","city":"小平市","address":"小平市鈴木町1-463-1","lat":35.72249,"lon":139.49699},{"name":"うれしい森保育園","province":"東京都","city":"小平市","address":"小平市鈴木町2-147-10","lat":35.72421,"lon":139.50909},{"name":"うめのき保育園","province":"東京都","city":"小平市","address":"小平市鈴木町2-186-4","lat":35.72421,"lon":139.50909},{"name":"すこやかな森保育園","province":"東京都","city":"小平市","address":"小平市鈴木町2-865-8","lat":35.71873,"lon":139.5085},{"name":"こだすずコスモ保育園","province":"東京都","city":"小平市","address":"小平市鈴木町2丁目621番地21","lat":35.72245,"lon":139.50316},{"name":"まなびの森保育園花小金井","province":"東京都","city":"小平市","address":"小平市回田町315番7","lat":35.71457,"lon":139.49802},{"name":"上水南保育園","province":"東京都","city":"小平市","address":"小平市上水南町3-8-2","lat":35.71194,"lon":139.48909},{"name":"にじいろ保育園上水本町","province":"東京都","city":"小平市","address":"小平市上水本町4-11-9","lat":35.71703,"lon":139.47633},{"name":"よつぎ第三保育園","province":"東京都","city":"小平市","address":"小平市津田町3-25-10","lat":35.72321,"lon":139.46904},{"name":"津田保育園","province":"東京都","city":"小平市","address":"小平市津田町3-31-7","lat":35.72254,"lon":139.47023},{"name":"まるやま保育園","province":"東京都","city":"小平市","address":"小平市小川東町1-32-13","lat":35.73996,"lon":139.46539},{"name":"小平にこにこ保育園","province":"東京都","city":"小平市","address":"小平市小川東町1-38-18","lat":35.74123,"lon":139.46587},{"name":"れんげ萩山保育園","province":"東京都","city":"小平市","address":"小平市小川東町4-3-18","lat":35.74028,"lon":139.47495},{"name":"たのしい森保育園","province":"東京都","city":"小平市","address":"小平市小川町1-3004-5","lat":35.72746,"lon":139.44478},{"name":"上宿保育園","province":"東京都","city":"小平市","address":"小平市小川町1-308","lat":35.73126,"lon":139.44281},{"name":"小川保育園","province":"東京都","city":"小平市","address":"小平市小川町1-983","lat":35.72581,"lon":139.45819},{"name":"まなびの森保育園新小平","province":"東京都","city":"小平市","address":"小平市小川町2-1316-1","lat":35.72918,"lon":139.47282},{"name":"小川西保育園","province":"東京都","city":"小平市","address":"小平市小川西町5-13-22","lat":35.73649,"lon":139.45805},{"name":"美園おひさま保育園","province":"東京都","city":"小平市","address":"小平市美園町3-18-11","lat":35.73849,"lon":139.4906},{"name":"小平なみき保育園","province":"東京都","city":"小平市","address":"小平市仲町304-1","lat":35.73088,"lon":139.48541},{"name":"仲町にこにこ保育園","province":"東京都","city":"小平市","address":"小平市仲町351番地の38","lat":35.72856,"lon":139.48988},{"name":"ゆりのこ保育園","province":"東京都","city":"小平市","address":"小平市仲町521","lat":35.73027,"lon":139.48486},{"name":"仲町保育園","province":"東京都","city":"小平市","address":"小平市仲町7","lat":35.73352,"lon":139.47939},{"name":"ゆたか保育園","province":"東京都","city":"小平市","address":"小平市学園東町575-35","lat":35.72716,"lon":139.48352},{"name":"学園まるやま保育園","province":"東京都","city":"小平市","address":"小平市学園東町二丁目6番35号","lat":35.72359,"lon":139.48482},{"name":"小平一橋学園雲母保育園","province":"東京都","city":"小平市","address":"小平市喜平町1-1-2","lat":35.7171,"lon":139.48088},{"name":"喜平保育園","province":"東京都","city":"小平市","address":"小平市喜平町3-2-36","lat":35.71899,"lon":139.4884},{"name":"ふれあいの森保育園","province":"東京都","city":"小平市","address":"小平市学園西町2-9-17","lat":35.72164,"lon":139.47182},{"name":"小平学園西雲母保育園","province":"東京都","city":"小平市","address":"小平市学園西町3-27-14","lat":35.72658,"lon":139.47409},{"name":"Gakkenほいくえん花小金井","province":"東京都","city":"小平市","address":"小平市花小金井3-1-21-1","lat":35.73568,"lon":139.51393},{"name":"ココファン・ナーサリー花小金井","province":"東京都","city":"小平市","address":"小平市花小金井3-1-21-1","lat":35.73568,"lon":139.51393},{"name":"花小金井愛育園","province":"東京都","city":"小平市","address":"小平市花小金井1-26-10","lat":35.72847,"lon":139.51473},{"name":"ひめゆり保育園","province":"東京都","city":"小平市","address":"小平市天神町2-6-1","lat":35.73332,"lon":139.49348},{"name":"上水南保育園","province":"東京都","city":"小平市","address":"小平市上水南町3-8-2","lat":35.71195,"lon":139.48909},{"name":"小川保育園","province":"東京都","city":"小平市","address":"小平市小川町1-983","lat":35.72582,"lon":139.45819},{"name":"美園おひさま保育園","province":"東京都","city":"小平市","address":"小平市美園町3-18-11","lat":35.7385,"lon":139.4906},{"name":"ココファン・ナーサリー花小金井","province":"東京都","city":"小平市","address":"小平市花小金井3-1-21-1","lat":35.73739,"lon":139.51396},{"name":"やさしい森保育園","province":"東京都","city":"小平市","address":"小平市鈴木町1-463-1","lat":35.721,"lon":139.49171},{"name":"小平なみき保育園","province":"東京都","city":"小平市","address":"小平市仲町304-1","lat":35.73157,"lon":139.47917}]}