{"keyword":"連絡","data":[{"name":"小平市高齢者支援課地域支援担当","province":"東京都","city":"小平市","address":"小平市小川町2-1333","lat":35.729321,"lon":139.476929},{"name":"小平市地域包括支援センター中央センター","province":"東京都","city":"小平市","address":"小平市小川町2-1333","lat":35.729321,"lon":139.476929},{"name":"小平市地域包括支援センターけやきの郷","province":"東京都","city":"小平市","address":"小平市小川町1-485","lat":35.728409,"lon":139.440674},{"name":"小平市地域包括支援センターけやきの郷 たかの台出張所","province":"東京都","city":"小平市","address":"小平市津田町1-7-10","lat":35.725746,"lon":139.46315},{"name":"小平市地域包括支援センター小川ホーム","province":"東京都","city":"小平市","address":"小平市小川西町2-35-2","lat":35.737125,"lon":139.460754},{"name":"小平市地域包括支援センター小川ホーム 四小通り出張所","province":"東京都","city":"小平市","address":"小平市津田町3-38-7","lat":35.724014,"lon":139.470901},{"name":"小平市地域包括支援センター多摩済生ケアセンター","province":"東京都","city":"小平市","address":"小平市美園町3-12-1","lat":35.740219,"lon":139.490341},{"name":"小平市地域包括支援センター多摩済生ケアセンター 喜平橋出張所","province":"東京都","city":"小平市","address":"小平市上水南町2-23-20","lat":35.71479,"lon":139.487808},{"name":"小平市地域包括支援センター小平健成苑","province":"東京都","city":"小平市","address":"小平市鈴木町2-230-3","lat":35.724255,"lon":139.504379},{"name":"小平市地域包括支援センター小平健成苑 花小金井出張所","province":"東京都","city":"小平市","address":"小平市花小金井5-37-4","lat":35.731026,"lon":139.509979},{"name":"小平市消費生活センター","province":"東京都","city":"小平市","address":"小平市小川町2-1333","lat":35.729321,"lon":139.476929}]}