{"keyword":"館","data":[{"name":"小平市立花小金井南児童館","province":"東京都","city":"小平市","address":"小平市花小金井南町3-3-17","lat":35.722185,"lon":139.518614},{"name":"小平市立小川町二丁目児童館","province":"東京都","city":"小平市","address":"小平市小川町2-1154","lat":35.72763,"lon":139.467282},{"name":"小平市立小川町一丁目児童館","province":"東京都","city":"小平市","address":"小平市小川町1-3045","lat":35.729332,"lon":139.448133},{"name":"中央図書館","province":"東京都","city":"小平市","address":"東京都小平市小川町2-1325","lat":35.727628,"lon":139.476586},{"name":"仲町図書館","province":"東京都","city":"小平市","address":"東京都小平市仲町145なかまちテラス2階、3階","lat":35.7308486,"lon":139.484965},{"name":"花小金井図書館","province":"東京都","city":"小平市","address":"東京都小平市花小金井1-8-1東部市民センター2階","lat":35.72805,"lon":139.51417},{"name":"小川西町図書館","province":"東京都","city":"小平市","address":"東京都小平市\"東京都小平市小川西町4-10-13西部市民センター2階\"","lat":35.735209,"lon":139.461968},{"name":"喜平図書館","province":"東京都","city":"小平市","address":"東京都小平市喜平町3-3-18","lat":35.7173097,"lon":139.490885},{"name":"上宿図書館","province":"東京都","city":"小平市","address":"東京都小平市小川町1-345","lat":35.7302521,"lon":139.439208},{"name":"津田図書館","province":"東京都","city":"小平市","address":"東京都小平市津田町3-11-1","lat":35.7207743,"lon":139.470137},{"name":"大沼図書館","province":"東京都","city":"小平市","address":"東京都小平市大沼町7-1-17","lat":35.735551,"lon":139.49718},{"name":"花小金井北分室","province":"東京都","city":"小平市","address":"東京都小平市花小金井5-41-3花小金井北公民館内","lat":35.7134529,"lon":139.48361},{"name":"小川分室","province":"東京都","city":"小平市","address":"東京都小平市小川町1-1012小川公民館内","lat":35.726038,"lon":139.459393},{"name":"上水南分室","province":"東京都","city":"小平市","address":"東京都小平市上水南町1-27-1上水南公民館内","lat":35.713087,"lon":139.483696},{"name":"小平市立花小金井南児童館","province":"東京都","city":"小平市","address":"小平市花小金井南町3-3-17","lat":35.722,"lon":139.51906},{"name":"小平市立小川町一丁目児童館","province":"東京都","city":"小平市","address":"小平市小川町1-3045","lat":35.72923,"lon":139.45003},{"name":"小平市立小川町二丁目児童館","province":"東京都","city":"小平市","address":"小平市小川町2-1154","lat":35.72876,"lon":139.46681},{"name":"＊?小平市立喜平図書館","province":"東京都","city":"小平市","address":"小平市喜平町3-3-18","lat":35.71733,"lon":139.490929},{"name":"＊?小平市中央図書館上水南分室","province":"東京都","city":"小平市","address":"小平市上水南町1-27-1","lat":35.713091,"lon":139.483708},{"name":"＊?小平市立津田図書館","province":"東京都","city":"小平市","address":"小平市津田町3-11-1","lat":35.72077,"lon":139.470078},{"name":"＊?小平市大沼図書館","province":"東京都","city":"小平市","address":"小平市大沼町7-1-17","lat":35.735394,"lon":139.497223},{"name":"＊?小平市立小川西町図書館","province":"東京都","city":"小平市","address":"小平市小川西町4-10-13","lat":35.735126,"lon":139.461798},{"name":"＊?小平市立上宿図書館","province":"東京都","city":"小平市","address":"小平市小川町1-345","lat":35.73016,"lon":139.439591},{"name":"＊?小平市立仲町図書館","province":"東京都","city":"小平市","address":"小平市仲町145","lat":35.730896,"lon":139.484917},{"name":"＊?小平市中央図書館","province":"東京都","city":"小平市","address":"小平市小川町2-1325","lat":35.727774,"lon":139.476668},{"name":"＊?小平市中央図書館小川分室","province":"東京都","city":"小平市","address":"小平市小川町1-1012","lat":35.725788,"lon":139.45927},{"name":"＊?小平市中央図書館花小金井北分室","province":"東京都","city":"小平市","address":"小平市花小金井5-41-3","lat":35.734251,"lon":139.510261},{"name":"＊?小平市立花小金井図書館","province":"東京都","city":"小平市","address":"小平市花小金井1-8-1","lat":35.727919,"lon":139.514084}]}