{"keyword":"管","data":[{"name":"大島のサクラ株","province":"東京都","city":"大島町","address":"東京都大島町泉津","lat":34.78307496,"lon":139.41375561},{"name":"カモシカ","province":"東京都","city":"大島町","address":"東京都大島町泉津","lat":34.78307496,"lon":139.41375561},{"name":"シイノキ山のシイノキ群叢","province":"東京都","city":"大島町","address":"東京都大島町泉津","lat":34.78307496,"lon":139.41375561},{"name":"大島海浜植物群落","province":"東京都","city":"大島町","address":"東京都大島町泉津","lat":34.78307496,"lon":139.41375561},{"name":"オジロワシ","province":"東京都","city":"大島町","address":"東京都大島町泉津","lat":34.78307496,"lon":139.41375561},{"name":"コクガン","province":"東京都","city":"大島町","address":"東京都大島町泉津","lat":34.78307496,"lon":139.41375561},{"name":"マガン","province":"東京都","city":"大島町","address":"東京都大島町泉津","lat":34.78307496,"lon":139.41375561},{"name":"前田家住宅外便所","province":"東京都","city":"新島村","address":"東京都新島村本村","lat":34.37612616,"lon":139.25397696},{"name":"板絵着色婦女群犬図","province":"東京都","city":"新島村","address":"東京都新島村本村6丁目10","lat":34.37602896,"lon":139.2529687},{"name":"銅鏡(松枝散双鳥鏡外8面)","province":"東京都","city":"新島村","address":"東京都新島村本村6丁目10","lat":34.37602896,"lon":139.2529687},{"name":"銅鏡（松竹双鶴鏡外1面）","province":"東京都","city":"新島村","address":"東京都新島村本村6丁目10","lat":34.37602896,"lon":139.2529687},{"name":"銅鏡（山吹双鳥鏡外1面）","province":"東京都","city":"新島村","address":"東京都新島村式根島","lat":34.32432977,"lon":139.21927444},{"name":"新島島役所資料（646冊394通9枚）","province":"東京都","city":"新島村","address":"東京都新島村本村","lat":34.37612616,"lon":139.25397696},{"name":"新島十三社神社資料（134冊）","province":"東京都","city":"新島村","address":"東京都新島村本村6丁目10","lat":34.37602896,"lon":139.2529687},{"name":"新島の神楽","province":"東京都","city":"新島村","address":"東京都新島村本村6丁目10","lat":34.37602896,"lon":139.2529687},{"name":"獅子木遣","province":"東京都","city":"新島村","address":"東京都新島村本村6丁目10","lat":34.37602896,"lon":139.2529687},{"name":"鉄砲場の岩陰遺跡","province":"東京都","city":"大島町","address":"東京都大島町泉津","lat":34.78307496,"lon":139.41375561},{"name":"ケッケイ山遺跡","province":"東京都","city":"","address":"東京都利島村","lat":34.52913806,"lon":139.28194827},{"name":"原町の井戸","province":"東京都","city":"新島村","address":"東京都新島村本村","lat":34.37612616,"lon":139.25397696},{"name":"大島下高洞遺跡","province":"東京都","city":"大島町","address":"東京都大島町元町","lat":34.75069975,"lon":139.35458395},{"name":"利島阿豆佐和気命本宮境域","province":"東京都","city":"","address":"東京都利島村","lat":34.52913806,"lon":139.28194827},{"name":"利島大山小山神社境域","province":"東京都","city":"","address":"東京都利島村","lat":34.52913806,"lon":139.28194827},{"name":"利島下上神社境域","province":"東京都","city":"","address":"東京都利島村","lat":34.52913806,"lon":139.28194827},{"name":"吹之江遺跡","province":"東京都","city":"新島村","address":"東京都新島村式根島","lat":34.32432977,"lon":139.21927444},{"name":"利島大石山遺跡","province":"東京都","city":"","address":"東京都利島村","lat":34.52913806,"lon":139.28194827},{"name":"大島竜の口遺跡","province":"東京都","city":"大島町","address":"東京都大島町野増","lat":34.73029943,"lon":139.35466575},{"name":"神津島阿波命神社境域","province":"東京都","city":"神津島村","address":"東京都神津島村","lat":34.20526867,"lon":139.13425768},{"name":"役行者窟","province":"東京都","city":"大島町","address":"東京都大島町泉津","lat":34.78307496,"lon":139.41375561},{"name":"秋広平六墓","province":"東京都","city":"大島町","address":"東京都大島町波浮港","lat":34.68677239,"lon":139.44189881},{"name":"天宥法印墓","province":"東京都","city":"新島村","address":"東京都新島村","lat":34.37713721,"lon":139.25657395},{"name":"差木地の大クス","province":"東京都","city":"大島町","address":"東京都大島町差木地","lat":34.68312246,"lon":139.41394612},{"name":"潮吹の鼻","province":"東京都","city":"大島町","address":"東京都大島町泉津","lat":34.78307496,"lon":139.41375561},{"name":"おたいね浦の岩脈と筆島","province":"東京都","city":"大島町","address":"東京都大島町波浮港","lat":34.68677239,"lon":139.44189881},{"name":"野増大宮神社の十二座神楽","province":"東京都","city":"大島町","address":"東京都大島町野増大宮上手（字）","lat":34.73296069,"lon":139.37116714},{"name":"宝篋印塔と五輪塔","province":"東京都","city":"新島村","address":"東京都新島村本村","lat":34.37612616,"lon":139.25397696},{"name":"物忌奈命神社本殿拝殿","province":"東京都","city":"神津島村","address":"東京都神津島村","lat":34.20526867,"lon":139.13425768},{"name":"延命山涛響寺本堂","province":"東京都","city":"神津島村","address":"東京都神津島村","lat":34.20526867,"lon":139.13425768},{"name":"庵屋霊場","province":"東京都","city":"神津島村","address":"東京都神津島村","lat":34.20526867,"lon":139.13425768},{"name":"秩父霊場","province":"東京都","city":"神津島村","address":"東京都神津島村","lat":34.20526867,"lon":139.13425768},{"name":"物忌奈命神社御神体","province":"東京都","city":"神津島村","address":"東京都神津島村","lat":34.20526867,"lon":139.13425768},{"name":"物忌奈命神社薬王殿","province":"東京都","city":"神津島村","address":"東京都神津島村","lat":34.20526867,"lon":139.13425768},{"name":"流人墓地","province":"東京都","city":"新島村","address":"東京都新島村本村","lat":34.37612616,"lon":139.25397696},{"name":"向畑刑場跡","province":"東京都","city":"新島村","address":"東京都新島村本村","lat":34.37612616,"lon":139.25397696},{"name":"式根島のまいまいず井戸","province":"東京都","city":"新島村","address":"東京都新島村式根島","lat":34.32432977,"lon":139.21927444},{"name":"里川の水源","province":"東京都","city":"新島村","address":"東京都新島村","lat":34.37713721,"lon":139.25657395},{"name":"流人墓地","province":"東京都","city":"神津島村","address":"東京都神津島村","lat":34.20526867,"lon":139.13425768},{"name":"新島測量基点","province":"東京都","city":"新島村","address":"東京都新島村本村","lat":34.37612616,"lon":139.25397696},{"name":"流人牢屋跡","province":"東京都","city":"新島村","address":"東京都新島村本村","lat":34.37612616,"lon":139.25397696},{"name":"薩摩畑","province":"東京都","city":"新島村","address":"東京都新島村","lat":34.37713721,"lon":139.25657395},{"name":"塩釜の跡","province":"東京都","city":"新島村","address":"東京都新島村式根島","lat":34.32432977,"lon":139.21927444},{"name":"丸山の方角石","province":"東京都","city":"新島村","address":"東京都新島村式根島","lat":34.32432977,"lon":139.21927444},{"name":"カラスバト","province":"東京都","city":"大島町","address":"東京都大島町泉津","lat":34.78307496,"lon":139.41375561},{"name":"元町のハマンカー（南井戸）","province":"東京都","city":"大島町","address":"東京都大島町元町","lat":34.75069975,"lon":139.35458395},{"name":"赤穂義士　間瀬定八の墓","province":"東京都","city":"大島町","address":"東京都大島町元町","lat":34.75069975,"lon":139.35458395},{"name":"力士　大島伝吉の碑（勇鑑石とも）","province":"東京都","city":"大島町","address":"東京都大島町岡田","lat":34.78878237,"lon":139.39285739},{"name":"粟本佐次朗記念碑（テリコの碑）","province":"東京都","city":"大島町","address":"東京都大島町岡田","lat":34.78878237,"lon":139.39285739},{"name":"波浮港開港碑","province":"東京都","city":"大島町","address":"東京都大島町波浮港","lat":34.68677239,"lon":139.44189881},{"name":"なまこ桟橋","province":"東京都","city":"新島村","address":"東京都新島村式根島","lat":34.32432977,"lon":139.21927444},{"name":"クロマツ　　別名オマツ","province":"東京都","city":"","address":"東京都利島村","lat":34.52913806,"lon":139.28194827},{"name":"シマモクセイ　　別名ハチジョウモクセイ","province":"東京都","city":"","address":"東京都利島村","lat":34.52913806,"lon":139.28194827},{"name":"イヌマキ　　別名クサマキマキ","province":"東京都","city":"","address":"東京都利島村","lat":34.52913806,"lon":139.28194827},{"name":"オオモミジ","province":"東京都","city":"","address":"東京都利島村","lat":34.52913806,"lon":139.28194827},{"name":"スダジイ　　別名イメジイ・ナカジイ","province":"東京都","city":"","address":"東京都利島村","lat":34.52913806,"lon":139.28194827},{"name":"イブキ　　別名ビャクシン・イブキビャクシン","province":"東京都","city":"","address":"東京都利島村","lat":34.52913806,"lon":139.28194827},{"name":"高根山霊場","province":"東京都","city":"神津島村","address":"東京都神津島村","lat":34.20526867,"lon":139.13425768},{"name":"続堂霊場","province":"東京都","city":"神津島村","address":"東京都神津島村","lat":34.20526867,"lon":139.13425768},{"name":"観音霊場","province":"東京都","city":"神津島村","address":"東京都神津島村","lat":34.20526867,"lon":139.13425768}]}