{"keyword":"幼稚園","data":[{"name":"第一幼稚園","province":"東京都","city":"文京区","address":"東京都文京区西片2丁目17番6号","lat":35.7174499999999,"lon":139.755034999999},{"name":"柳町こどもの森(柳町幼稚園)","province":"東京都","city":"文京区","address":"東京都文京区小石川1丁目23番6号","lat":35.713695,"lon":139.750496999999},{"name":"明化幼稚園","province":"東京都","city":"文京区","address":"東京都文京区千石1丁目13番9号","lat":35.7248329999999,"lon":139.744880999999},{"name":"青柳幼稚園","province":"東京都","city":"文京区","address":"東京都文京区大塚5丁目40番18号","lat":35.7204169999999,"lon":139.725097},{"name":"根津幼稚園","province":"東京都","city":"文京区","address":"東京都文京区根津1丁目14番2号","lat":35.718575,"lon":139.763037999999},{"name":"小日向台町幼稚園","province":"東京都","city":"文京区","address":"東京都文京区小日向2丁目2番2号","lat":35.7129979999999,"lon":139.734867},{"name":"本駒込幼稚園","province":"東京都","city":"文京区","address":"東京都文京区本駒込4丁目35番15号","lat":35.7332759999999,"lon":139.755369},{"name":"千駄木幼稚園","province":"東京都","city":"文京区","address":"東京都文京区千駄木5丁目43番3号","lat":35.72867,"lon":139.758015999999},{"name":"後楽幼稚園","province":"東京都","city":"文京区","address":"東京都文京区後楽1丁目7番7号","lat":35.7063619999999,"lon":139.746769999999},{"name":"湯島幼稚園","province":"東京都","city":"文京区","address":"東京都文京区本郷3丁目10番18号","lat":35.7040119999999,"lon":139.763645999999},{"name":"愛星幼稚園","province":"東京都","city":"文京区","address":"東京都文京区白山2丁目37番3号","lat":35.718823,"lon":139.749376},{"name":"音羽幼稚園","province":"東京都","city":"文京区","address":"東京都文京区大塚5丁目40番1号","lat":35.721578,"lon":139.725761},{"name":"京北幼稚園","province":"東京都","city":"文京区","address":"東京都文京区本駒込2丁目13番5号","lat":35.727938,"lon":139.747805999999},{"name":"彰栄幼稚園","province":"東京都","city":"文京区","address":"東京都文京区白山4丁目14番15号","lat":35.7232709999999,"lon":139.745733},{"name":"聖園幼稚園","province":"東京都","city":"文京区","address":"東京都文京区関口3丁目16番15号","lat":35.714216,"lon":139.726609999999},{"name":"共立大日坂幼稚園","province":"東京都","city":"文京区","address":"東京都文京区小日向2丁目17番7号","lat":35.7112899999999,"lon":139.733893999999},{"name":"中央会堂幼稚園","province":"東京都","city":"文京区","address":"東京都文京区本郷3丁目37番9号","lat":35.7073279999999,"lon":139.762378},{"name":"貞静幼稚園","province":"東京都","city":"文京区","address":"東京都文京区大塚1丁目2番10号","lat":35.7162819999999,"lon":139.735251},{"name":"同仁美登里幼稚園","province":"東京都","city":"文京区","address":"東京都文京区目白台3丁目10番9号","lat":35.7166169999999,"lon":139.725517999999},{"name":"日本女子大学附属豊明幼稚園","province":"東京都","city":"文京区","address":"東京都文京区目白台1丁目18番14号","lat":35.7155109999999,"lon":139.719765999999},{"name":"福寿幼稚園","province":"東京都","city":"文京区","address":"東京都文京区小石川3丁目2番23号","lat":35.7117939999999,"lon":139.746419},{"name":"文京学院大学文京幼稚園","province":"東京都","city":"文京区","address":"東京都文京区向丘2丁目4番1号","lat":35.7189989999999,"lon":139.758048},{"name":"明照幼稚園","province":"東京都","city":"文京区","address":"東京都文京区小石川4丁目12番8号","lat":35.7153619999999,"lon":139.744983999999},{"name":"大和郷幼稚園","province":"東京都","city":"文京区","address":"東京都文京区本駒込6丁目9番7号","lat":35.731304,"lon":139.743959999999},{"name":"弓町本郷幼稚園","province":"東京都","city":"文京区","address":"東京都文京区本郷2丁目35番14号","lat":35.7067899999999,"lon":139.757459},{"name":"城南","province":"","city":"","address":"南品川2-8-21","lat":35.613153,"lon":139.742914},{"name":"平塚","province":"","city":"","address":"荏原4-5-22","lat":35.61507,"lon":139.707675},{"name":"浜川","province":"","city":"","address":"南大井4-3-14","lat":35.597638,"lon":139.736177},{"name":"御殿山","province":"","city":"","address":"北品川5-3-1","lat":35.622495,"lon":139.731753},{"name":"伊藤","province":"","city":"","address":"西大井5-22-8","lat":35.598088,"lon":139.716943},{"name":"第一日野","province":"","city":"","address":"西五反田6-5-6","lat":35.622359,"lon":139.716741},{"name":"台場","province":"","city":"","address":"東品川1-8-30","lat":35.620869,"lon":139.743667},{"name":"二葉","province":"","city":"","address":"二葉1-3-40","lat":35.607037,"lon":139.72556},{"name":"八潮わかば","province":"","city":"","address":"八潮5-6-32","lat":35.596297,"lon":139.749755},{"name":"あけぼの","province":"","city":"","address":"大井5-10-12","lat":35.598344,"lon":139.730038},{"name":"アライアンス","province":"","city":"","address":"小山4-4-13","lat":35.618352,"lon":139.703939},{"name":"荏原学園旭","province":"","city":"","address":"中延5-6-18","lat":35.602977,"lon":139.708684},{"name":"エトワール","province":"","city":"","address":"南品川5-12-4","lat":35.608815,"lon":139.741023},{"name":"大井うさぎ","province":"","city":"","address":"大井7-1-5","lat":35.597321,"lon":139.725223},{"name":"大崎","province":"","city":"","address":"大崎3-11-1","lat":35.619356,"lon":139.723618},{"name":"品川翔英","province":"","city":"","address":"西大井1-6-13","lat":35.602243,"lon":139.726098},{"name":"亀田","province":"","city":"","address":"中延6-1-3","lat":35.603899,"lon":139.710397},{"name":"品川教会附属","province":"","city":"","address":"北品川4-7-40","lat":35.622526,"lon":139.737538},{"name":"鈴ヶ森めばえ","province":"","city":"","address":"南大井2-4-1","lat":35.593102,"lon":139.736781},{"name":"専修","province":"","city":"","address":"西五反田6-11-5","lat":35.621096,"lon":139.717545},{"name":"洗足うさぎ","province":"","city":"","address":"荏原7-18-15","lat":35.609917,"lon":139.698749},{"name":"戸越","province":"","city":"","address":"戸越1-21-15","lat":35.615289,"lon":139.72126},{"name":"帝京にしき","province":"","city":"","address":"旗の台6-5-30","lat":35.608604,"lon":139.700191},{"name":"日本音楽学校","province":"","city":"","address":"豊町2-16-12","lat":35.610111,"lon":39.725085},{"name":"ひまわり","province":"","city":"","address":"小山6-10-11","lat":35.613638,"lon":139.697971},{"name":"文教大学付属","province":"","city":"","address":"旗の台3-2-17","lat":35.605835,"lon":139.70686},{"name":"八潮","province":"","city":"","address":"東品川3-24-8","lat":35.61236,"lon":139.745769},{"name":"根岸幼稚園","province":"","city":"","address":"根岸3丁目9番7号","lat":35.72347353,"lon":139.7787543},{"name":"田原幼稚園","province":"","city":"","address":"雷門1丁目5番17号","lat":35.70995493,"lon":139.7931438},{"name":"大正幼稚園","province":"","city":"","address":"入谷2丁目23番8号","lat":35.72086387,"lon":139.7884935},{"name":"千束幼稚園","province":"","city":"","address":"浅草4丁目24番15号","lat":35.7189541,"lon":139.7939331},{"name":"富士幼稚園","province":"","city":"","address":"浅草4丁目48番18号","lat":35.71844433,"lon":139.7983428},{"name":"清島幼稚園","province":"","city":"","address":"東上野6丁目16番8号","lat":35.71360445,"lon":139.7838643},{"name":"台桜幼稚園","province":"","city":"","address":"谷中2丁目9番4号","lat":35.72342299,"lon":139.7650251},{"name":"育英幼稚園","province":"","city":"","address":"浅草橋5丁目1番35号(令和5年12月まで仮園舎)","lat":35.69955528,"lon":139.7824695},{"name":"竹町幼稚園","province":"","city":"","address":"台東4丁目21番9号","lat":35.7060651,"lon":139.780155},{"name":"石浜橋場こども園","province":"","city":"","address":"橋場1丁目35番1号","lat":35.72536488,"lon":139.8077331},{"name":"金竜幼稚園","province":"","city":"","address":"千束1丁目9番21号","lat":35.71856409,"lon":139.7901734},{"name":"谷中幼稚園","province":"","city":"","address":"谷中3丁目17番1号","lat":35.72969239,"lon":139.764945},{"name":"寛永寺幼稚園","province":"","city":"","address":"上野桜木1丁目14番11号","lat":35.72175351,"lon":139.7737846},{"name":"仰願寺幼稚園","province":"","city":"","address":"清川1丁目4番3号","lat":35.72315435,"lon":139.8025927},{"name":"蔵前幼稚園","province":"","city":"","address":"蔵前2丁目11番10号","lat":35.70347557,"lon":139.7929445},{"name":"浅草寺幼稚園","province":"","city":"","address":"浅草2丁目3番1号","lat":35.71325466,"lon":139.7964132},{"name":"台東初音幼稚園","province":"","city":"","address":"谷中5丁目2番4号","lat":35.72370314,"lon":139.7685049},{"name":"徳風幼稚園","province":"","city":"","address":"西浅草1丁目5番5号","lat":35.71100477,"lon":139.789664},{"name":"ことぶきこども園","province":"","city":"","address":"寿1丁目10番9号","lat":35.70679568,"lon":139.7888379},{"name":"たいとうこども園","province":"","city":"","address":"下谷3丁目1番12号","lat":35.72360407,"lon":139.7857058},{"name":"はぐはぐキッズこども園東上野","province":"","city":"","address":"東上野2丁目13番12号M&Mビル3階","lat":35.70936061,"lon":139.7781591},{"name":"忍岡こども園","province":"東京都","city":"台東区","address":"台東区池之端2丁目1番22号","lat":35.7138335,"lon":139.766732},{"name":"光が丘さくら幼稚園","province":"東京都","city":"練馬区","address":"練馬区光が丘2-4-8-101","lat":35.76267834,"lon":139.6318626},{"name":"光が丘むらさき幼稚園","province":"東京都","city":"練馬区","address":"練馬区光が丘3-3-5-101","lat":35.75592202,"lon":139.6297159},{"name":"北大泉幼稚園","province":"東京都","city":"練馬区","address":"練馬区大泉町2-46-6","lat":35.76292525,"lon":139.6034281},{"name":"つくし野天使幼稚園","province":"東京都","city":"町田市","address":"町田市つくし野2-18-4","lat":35.527439,"lon":139.482917},{"name":"南つくし野保育園","province":"東京都","city":"町田市","address":"町田市南つくし野2-17-1","lat":35.517007,"lon":139.474982},{"name":"もりのおがわ保育園","province":"東京都","city":"町田市","address":"町田市小川1-11-2","lat":35.527463,"lon":139.475184},{"name":"こびとのもり保育園","province":"東京都","city":"町田市","address":"町田市小川6-1-32","lat":35.521951,"lon":139.470971},{"name":"南ヶ丘幼稚園","province":"東京都","city":"町田市","address":"町田市小川6-2-1","lat":35.521084,"lon":139.471482},{"name":"小川幼稚園","province":"東京都","city":"町田市","address":"町田市小川1-18ー1","lat":35.528623,"lon":139.476493},{"name":"田園保育園","province":"東京都","city":"町田市","address":"町田市鶴間411-4","lat":35.519515,"lon":139.466922},{"name":"レイモンド南町田保育園","province":"東京都","city":"町田市","address":"町田市鶴間8-4-30クレインドビル1F","lat":35.511193,"lon":139.474284},{"name":"光の原保育園","province":"東京都","city":"町田市","address":"町田市南町田1-3-48","lat":35.522857,"lon":139.468965},{"name":"ハッピードリーム鶴間","province":"東京都","city":"町田市","address":"町田市南町田4-22-7","lat":35.514862,"lon":139.466798},{"name":"保育室こどものいえ","province":"東京都","city":"町田市","address":"町田市南町田1-36-2","lat":35.520953,"lon":139.463676},{"name":"野いちご保育室","province":"東京都","city":"町田市","address":"町田市南町田3-44-60キャロットハウス103","lat":35.515295,"lon":139.472105},{"name":"鶴間幼稚園","province":"東京都","city":"町田市","address":"町田市南町田2-12-1","lat":35.520581,"lon":139.469112},{"name":"ポピンズナーサリースクール南町田","province":"東京都","city":"町田市","address":"町田市南町田5-14-4ガーデンセシアセシアプラザ内2階","lat":35.514263,"lon":139.471426},{"name":"成瀬南野保育園","province":"東京都","city":"町田市","address":"町田市成瀬が丘3-22-1","lat":35.536168,"lon":139.46793},{"name":"わかくさのおうち","province":"東京都","city":"町田市","address":"町田市成瀬が丘2-23-14","lat":35.535134,"lon":139.472089},{"name":"こうりん保育園","province":"東京都","city":"町田市","address":"町田市金森7-6-1","lat":35.532559,"lon":139.454048},{"name":"こばと保育園","province":"東京都","city":"町田市","address":"町田市金森6-37-18","lat":35.522738,"lon":139.455194},{"name":"光認定こども園","province":"東京都","city":"町田市","address":"町田市金森3-41-1","lat":35.525449,"lon":139.461232},{"name":"町田ひまわり幼稚園","province":"東京都","city":"町田市","address":"町田市金森1-8ー26","lat":35.536609,"lon":139.45307},{"name":"市立町田保育園","province":"東京都","city":"町田市","address":"町田市原町田6-26-15","lat":35.544554,"lon":139.447812},{"name":"こひつじ保育園","province":"東京都","city":"町田市","address":"町田市原町田2-11-5","lat":35.540834,"lon":139.452368},{"name":"赤ちゃんの家保育園","province":"東京都","city":"町田市","address":"町田市原町田6-27-10","lat":35.545057,"lon":139.448646},{"name":"こひつじ保育園　分園","province":"東京都","city":"町田市","address":"町田市原町田2-18-3","lat":35.541461,"lon":139.455337},{"name":"なごみ保育園","province":"東京都","city":"町田市","address":"町田市原町田5-1-5","lat":35.546922,"lon":139.448148},{"name":"なごみ第二保育園","province":"東京都","city":"町田市","address":"町田市原町田3-19-6","lat":35.542893,"lon":139.454828},{"name":"太陽の子町田駅前保育園","province":"東京都","city":"町田市","address":"町田市原町田6-17-8クオーレ1階","lat":35.545758,"lon":139.446955},{"name":"つながり保育園・まちだ","province":"東京都","city":"町田市","address":"町田市原町田5-3-8グラン・シャリオ町田1F","lat":35.546069,"lon":139.449385},{"name":"原町田幼稚園","province":"東京都","city":"町田市","address":"町田市原町田3-9?16","lat":35.541611,"lon":139.451978},{"name":"町田プチ・クレイシュ","province":"東京都","city":"町田市","address":"町田市原町田6-28-19フジビル981F","lat":35.545659,"lon":139.447465},{"name":"にじいろ保育園サクセス町田","province":"東京都","city":"町田市","address":"町田市原町田4-1-11大塚プラザビル3階","lat":35.541191,"lon":139.448473},{"name":"高ヶ坂保育園","province":"東京都","city":"町田市","address":"町田市高ヶ坂6-2-10","lat":35.541877,"lon":139.461058},{"name":"高ヶ坂ふたば保育園","province":"東京都","city":"町田市","address":"町田市高ヶ坂7-26-6","lat":35.539871,"lon":139.462376},{"name":"スナグル・ポット保育ルーム","province":"東京都","city":"町田市","address":"町田市高ヶ坂4-16-7","lat":35.549212,"lon":139.465725},{"name":"高ヶ坂こども園","province":"東京都","city":"町田市","address":"町田市高ヶ坂5-6-19","lat":35.545443,"lon":139.461317},{"name":"たちはな幼稚園","province":"東京都","city":"町田市","address":"町田市高ヶ坂976-1","lat":35.541577,"lon":139.465131},{"name":"町田こひつじ幼稚園","province":"東京都","city":"町田市","address":"町田市高ヶ坂2-37高ヶ坂2-37-24","lat":35.542249,"lon":139.457026},{"name":"市立金森保育園","province":"東京都","city":"町田市","address":"町田市金森東1-12-16","lat":35.535159,"lon":139.459834},{"name":"町田南保育園","province":"東京都","city":"町田市","address":"町田市金森東4-36-8","lat":35.527732,"lon":139.467873},{"name":"ねむの木保育園","province":"東京都","city":"町田市","address":"町田市金森東3-17-25","lat":35.530374,"lon":139.464879},{"name":"未来保育ＣＬＵＢ","province":"東京都","city":"町田市","address":"町田市中町1-31-4","lat":35.547981,"lon":139.448368},{"name":"森野三丁目保育園","province":"東京都","city":"町田市","address":"町田市森野3-11-16","lat":35.553393,"lon":139.435735},{"name":"光の森保育園","province":"東京都","city":"町田市","address":"町田市森野5-21-5","lat":35.550598,"lon":139.433586},{"name":"もりの聖愛保育園","province":"東京都","city":"町田市","address":"町田市森野4-8-10","lat":35.554043,"lon":139.432499},{"name":"町田文化幼稚園","province":"東京都","city":"町田市","address":"町田市旭町1-17","lat":35.554043,"lon":139.441363},{"name":"ぐりーんぴーす家庭保育室","province":"東京都","city":"町田市","address":"町田市南大谷1165-6","lat":35.552209,"lon":139.459964},{"name":"草笛保育園","province":"東京都","city":"町田市","address":"町田市本町田3133-5","lat":35.570029,"lon":139.450687},{"name":"わかば保育園","province":"東京都","city":"町田市","address":"町田市本町田2591-20","lat":35.567231,"lon":139.440312},{"name":"本町田わかくさ保育園","province":"東京都","city":"町田市","address":"町田市本町田29-8","lat":35.557782,"lon":139.453892},{"name":"開進こども保育園","province":"東京都","city":"町田市","address":"町田市本町田3350-38","lat":35.570148,"lon":139.444906},{"name":"さふらん","province":"東京都","city":"町田市","address":"町田市本町田2441","lat":35.565896,"lon":139.437682},{"name":"開進認定こども園","province":"東京都","city":"町田市","address":"町田市本町田3350-24","lat":35.56982,"lon":139.444998},{"name":"山ゆり幼稚園","province":"東京都","city":"町田市","address":"町田市本町田3450","lat":35.564293,"lon":139.451611},{"name":"町田こばと幼稚園","province":"東京都","city":"町田市","address":"町田市本町田2904","lat":35.570013,"lon":139.440638},{"name":"境川幼稚園","province":"東京都","city":"町田市","address":"町田市木曽町941","lat":35.562775,"lon":139.423931},{"name":"しぜんの国保育園","province":"東京都","city":"町田市","address":"町田市忠生2-5-3","lat":35.577432,"lon":139.424901},{"name":"町田自然幼稚園","province":"東京都","city":"町田市","address":"町田市忠生2-7-5","lat":35.579022,"lon":139.425635},{"name":"すみれ保育園","province":"東京都","city":"町田市","address":"町田市木曽東2-8-1","lat":35.556391,"lon":139.425104},{"name":"木曽保育園","province":"東京都","city":"町田市","address":"町田市木曽東4-13-7","lat":35.566329,"lon":139.431213},{"name":"すずらん保育園","province":"東京都","city":"町田市","address":"町田市木曽東2-3-22","lat":35.555708,"lon":139.426761},{"name":"きそ幼稚園","province":"東京都","city":"町田市","address":"町田市木曽東1-27-16","lat":35.560412,"lon":139.429033},{"name":"ひかりの子保育園","province":"東京都","city":"町田市","address":"町田市木曽西1-34-1","lat":35.566931,"lon":139.415383},{"name":"ひかりの子保育園　分園","province":"東京都","city":"町田市","address":"町田市木曽西3-9-7","lat":35.572864,"lon":139.41562},{"name":"第二わかくさ保育園","province":"東京都","city":"町田市","address":"町田市木曽西5-1-1","lat":35.566658,"lon":139.424047},{"name":"アスク木曽西保育園","province":"東京都","city":"町田市","address":"町田市木曽西3-18-2","lat":35.572981,"lon":139.419106},{"name":"まなざし保育園","province":"東京都","city":"町田市","address":"町田市根岸1-2-3","lat":35.57107,"lon":139.41157},{"name":"つぼみ保育室","province":"東京都","city":"町田市","address":"町田市根岸2-16-5","lat":35.575133,"lon":139.411095},{"name":"玉川さくら保育園","province":"東京都","city":"町田市","address":"町田市玉川学園3-35-48","lat":35.562641,"lon":139.459208},{"name":"Ａｌｏｈａ　Ｋｅｉｋｉ家庭保育室","province":"東京都","city":"町田市","address":"町田市玉川学園4-23-14","lat":35.564061,"lon":139.453594},{"name":"玉川中央幼稚園","province":"東京都","city":"町田市","address":"町田市玉川学園2-3-27","lat":35.562194,"lon":139.459238},{"name":"玉川学園幼稚部","province":"東京都","city":"町田市","address":"町田市玉川学園6-1ー1","lat":35.568721,"lon":139.468992},{"name":"成瀬台幼稚園","province":"東京都","city":"町田市","address":"町田市成瀬台2-2-12","lat":35.549706,"lon":139.478327},{"name":"町田わかくさ保育園","province":"東京都","city":"町田市","address":"町田市成瀬7-10-7","lat":35.540699,"lon":139.475431},{"name":"成瀬くりの家保育園","province":"東京都","city":"町田市","address":"町田市成瀬1-5-1","lat":35.548265,"lon":139.472494},{"name":"こざくら保育室","province":"東京都","city":"町田市","address":"町田市成瀬1-2-8エクセルメゾン弐-館101","lat":35.546183,"lon":139.473519},{"name":"第一富士幼稚園","province":"東京都","city":"町田市","address":"町田市成瀬1416","lat":35.542641,"lon":139.472019},{"name":"町田わかくさ保育園　分園","province":"東京都","city":"町田市","address":"町田市南成瀬1-8-7成和ビル1F","lat":35.537295,"lon":139.471947},{"name":"都市型保育園ポポラー東京成瀬園","province":"東京都","city":"町田市","address":"町田市南成瀬1-3-5そうてつローゼン成瀬SCアネックスビル2階","lat":35.536505,"lon":139.4722},{"name":"Ｍａｍｍｙ’ｓ保育ルーム","province":"東京都","city":"町田市","address":"町田市上小山田町442-24","lat":35.590961,"lon":139.398557},{"name":"桜台保育園","province":"東京都","city":"町田市","address":"町田市小山田桜台1-18","lat":35.589178,"lon":139.402906},{"name":"市立こうさぎ保育園","province":"東京都","city":"町田市","address":"町田市相原町792","lat":35.604348,"lon":139.333732},{"name":"クローバー保育園","province":"東京都","city":"町田市","address":"町田市相原町3338-1","lat":35.609492,"lon":139.297235},{"name":"相原幼稚園","province":"東京都","city":"町田市","address":"町田市相原町4445ー3","lat":35.612473,"lon":139.292843},{"name":"小山保育園","province":"東京都","city":"町田市","address":"町田市小山町954","lat":35.59666,"lon":139.381545},{"name":"多摩境敬愛保育園","province":"東京都","city":"町田市","address":"町田市小山町4464","lat":35.601385,"lon":139.364848},{"name":"サンフィール保育園","province":"東京都","city":"町田市","address":"町田市小山町4604-2","lat":35.60167,"lon":139.359922},{"name":"かえで保育園","province":"東京都","city":"町田市","address":"町田市小山町775","lat":35.591266,"lon":139.380761},{"name":"子どもの森保育園　分園","province":"東京都","city":"町田市","address":"町田市小山町1016","lat":35.59401,"lon":139.37764},{"name":"サンフィール保育園　分園","province":"東京都","city":"町田市","address":"町田市小山町3166-1","lat":35.599929,"lon":139.362544},{"name":"プチコパン","province":"東京都","city":"町田市","address":"町田市小山町3651-1","lat":35.601559,"lon":139.353431},{"name":"ティンクほいくしつ","province":"東京都","city":"町田市","address":"町田市小山町1618-103","lat":35.596999,"lon":139.381544},{"name":"町田すみれ幼稚園","province":"東京都","city":"町田市","address":"町田市小山町4365ー1","lat":35.605237,"lon":139.359682},{"name":"町田ときわ保育園","province":"東京都","city":"町田市","address":"町田市常盤町3465-1","lat":35.583017,"lon":139.401649},{"name":"子どもの森保育園","province":"東京都","city":"町田市","address":"町田市常盤町2970-1","lat":35.58846,"lon":139.395109},{"name":"こっこのもり保育園","province":"東京都","city":"町田市","address":"町田市常盤町3028-3","lat":35.589486,"lon":139.393163},{"name":"子どもの森こども園","province":"東京都","city":"町田市","address":"町田市常盤町3031-2","lat":35.589587,"lon":139.393599},{"name":"桜美林幼稚園","province":"東京都","city":"町田市","address":"町田市常盤町3624-1","lat":35.583651,"lon":139.405668},{"name":"敬愛桃の実保育園","province":"東京都","city":"町田市","address":"町田市小山ヶ丘3-28","lat":35.602584,"lon":139.366466},{"name":"もみの木保育園","province":"東京都","city":"町田市","address":"町田市小山ヶ丘1-3-2","lat":35.596391,"lon":139.385138},{"name":"かりん保育園","province":"東京都","city":"町田市","address":"町田市小山ヶ丘1-10-2","lat":35.599042,"lon":139.383092},{"name":"種まく人","province":"東京都","city":"町田市","address":"町田市小山ヶ丘5-42-12","lat":35.606576,"lon":139.350763},{"name":"町田サレジオ幼稚園","province":"東京都","city":"町田市","address":"町田市小山ヶ丘4-6-2","lat":35.60522,"lon":139.359661},{"name":"町田多摩境雲母(きらら)保育園","province":"東京都","city":"町田市","address":"町田市小山ヶ丘3-28アパガーデンパレス多摩境1F","lat":35.602571,"lon":139.366452},{"name":"和光鶴川幼稚園","province":"東京都","city":"町田市","address":"町田市真光寺町1271-1","lat":35.599449,"lon":139.457197},{"name":"東平ひまわり保育園","province":"東京都","city":"町田市","address":"町田市広袴町543-1","lat":35.593517,"lon":139.475735},{"name":"東平しらゆり保育園","province":"東京都","city":"町田市","address":"町田市広袴町542","lat":35.593741,"lon":139.475509},{"name":"みどりの森保育園","province":"東京都","city":"町田市","address":"町田市能ヶ谷4-7-19","lat":35.587618,"lon":139.481823},{"name":"ななくさ家庭保育室","province":"東京都","city":"町田市","address":"町田市能ヶ谷7-23-31きのかの家102","lat":35.590683,"lon":139.480407},{"name":"にじの丘家庭保育室","province":"東京都","city":"町田市","address":"町田市能ヶ谷6-28-20","lat":35.589157,"lon":139.485938},{"name":"ゆりかご保育室","province":"東京都","city":"町田市","address":"町田市能ヶ谷5-8-11","lat":35.587433,"lon":139.490731},{"name":"鶴川平和台幼稚園","province":"東京都","city":"町田市","address":"町田市能ヶ谷6-41-1","lat":35.590922,"lon":139.484809},{"name":"木下の保育園　鶴川","province":"東京都","city":"町田市","address":"町田市能ヶ谷1-6-2小田急マルシェ鶴川2階","lat":35.583366,"lon":139.481498},{"name":"三輪保育園","province":"東京都","city":"町田市","address":"町田市三輪町1720-8","lat":35.579823,"lon":139.493673},{"name":"三輪あいこう保育園","province":"東京都","city":"町田市","address":"町田市三輪町82-7","lat":35.581863,"lon":139.493039},{"name":"三輪保育園　分園","province":"東京都","city":"町田市","address":"町田市三輪町1760-3","lat":35.579872,"lon":139.493531},{"name":"鶴川幼稚園鶴川女子短期大学附属幼稚園","province":"東京都","city":"町田市","address":"町田市三輪町122","lat":35.582523,"lon":139.494811},{"name":"ほほえみ家庭保育室","province":"東京都","city":"町田市","address":"町田市三輪緑山3-2106-25","lat":35.574053,"lon":139.485193},{"name":"花の木保育園","province":"東京都","city":"町田市","address":"町田市真光寺3-1-6","lat":35.597577,"lon":139.463035},{"name":"ききょう保育園","province":"東京都","city":"町田市","address":"町田市鶴川1-16-7","lat":35.587424,"lon":139.478185},{"name":"慶松幼稚園","province":"東京都","city":"町田市","address":"町田市鶴川1-5ー2","lat":35.586085,"lon":139.47434},{"name":"市立大蔵保育園","province":"東京都","city":"町田市","address":"町田市大蔵町1984","lat":35.588694,"lon":139.467966},{"name":"つるかわ保育園","province":"東京都","city":"町田市","address":"町田市大蔵町2177-2","lat":35.585371,"lon":139.474076},{"name":"井の花保育園","province":"東京都","city":"町田市","address":"町田市大蔵町530-1","lat":35.589396,"lon":139.460624},{"name":"ぽっぽの森保育園","province":"東京都","city":"町田市","address":"町田市大蔵町410","lat":35.587947,"lon":139.465382},{"name":"鶴川シオン幼稚園","province":"東京都","city":"町田市","address":"町田市大蔵町2216","lat":35.584426,"lon":139.475282},{"name":"おひさま共同保育園","province":"東京都","city":"町田市","address":"町田市野津田町498-1","lat":35.586821,"lon":139.442773},{"name":"小野路保育園　第一分園","province":"東京都","city":"町田市","address":"町田市野津田町1084-1","lat":35.588125,"lon":139.458143},{"name":"鶴川若竹幼稚園","province":"東京都","city":"町田市","address":"町田市野津田町1303","lat":35.591409,"lon":139.456613},{"name":"小野路保育園","province":"東京都","city":"町田市","address":"町田市小野路町1416","lat":35.598551,"lon":139.440479},{"name":"ゆうき山保育園","province":"東京都","city":"町田市","address":"町田市金井町2938-14","lat":35.568063,"lon":139.454497},{"name":"藤の台幼稚園","province":"東京都","city":"町田市","address":"町田市金井町3040ー2","lat":35.572629,"lon":139.45046},{"name":"ひだまり保育室","province":"東京都","city":"町田市","address":"町田市金井4-19-37","lat":35.581676,"lon":139.468141},{"name":"たかね保育園","province":"東京都","city":"町田市","address":"町田市山崎町2160","lat":35.569883,"lon":139.434607},{"name":"たかね第二保育園","province":"東京都","city":"町田市","address":"町田市山崎町1555","lat":35.575358,"lon":139.432977},{"name":"カナリヤ保育園","province":"東京都","city":"町田市","address":"町田市山崎町2130","lat":35.571274,"lon":139.436083},{"name":"正和幼稚園","province":"東京都","city":"町田市","address":"町田市山崎町2261-1","lat":35.568435,"lon":139.431505},{"name":"カナリヤこども園","province":"東京都","city":"町田市","address":"町田市山崎町2088-1","lat":35.573008,"lon":139.435374},{"name":"市立山崎保育園","province":"東京都","city":"町田市","address":"町田市山崎1-2-14","lat":35.568663,"lon":139.428988},{"name":"第一幼稚園","province":"東京都","city":"文京区","address":"東京都文京区西片2丁目17番6号","lat":35.71745,"lon":139.755035},{"name":"柳町こどもの森(柳町幼稚園)","province":"東京都","city":"文京区","address":"東京都文京区小石川1丁目23番6号","lat":35.713695,"lon":139.750497},{"name":"明化幼稚園","province":"東京都","city":"文京区","address":"東京都文京区千石1丁目13番9号","lat":35.724833,"lon":139.744881},{"name":"青柳幼稚園","province":"東京都","city":"文京区","address":"東京都文京区大塚5丁目40番18号","lat":35.720417,"lon":139.725097},{"name":"根津幼稚園","province":"東京都","city":"文京区","address":"東京都文京区根津1丁目14番2号","lat":35.718575,"lon":139.763038},{"name":"小日向台町幼稚園","province":"東京都","city":"文京区","address":"東京都文京区小日向2丁目2番2号","lat":35.712998,"lon":139.734867},{"name":"本駒込幼稚園","province":"東京都","city":"文京区","address":"東京都文京区本駒込4丁目35番15号","lat":35.733276,"lon":139.755369},{"name":"千駄木幼稚園","province":"東京都","city":"文京区","address":"東京都文京区千駄木5丁目43番3号","lat":35.72867,"lon":139.758016},{"name":"後楽幼稚園","province":"東京都","city":"文京区","address":"東京都文京区後楽1丁目7番7号","lat":35.706362,"lon":139.74677},{"name":"湯島幼稚園","province":"東京都","city":"文京区","address":"東京都文京区本郷3丁目10番18号","lat":35.704012,"lon":139.763646},{"name":"京北幼稚園","province":"東京都","city":"文京区","address":"東京都文京区本駒込2丁目13番5号","lat":35.727938,"lon":139.747806},{"name":"彰栄幼稚園","province":"東京都","city":"文京区","address":"東京都文京区白山4丁目14番15号","lat":35.723271,"lon":139.745733},{"name":"聖園幼稚園","province":"東京都","city":"文京区","address":"東京都文京区関口3丁目16番15号","lat":35.714216,"lon":139.72661},{"name":"共立大日坂幼稚園","province":"東京都","city":"文京区","address":"東京都文京区小日向2丁目17番7号","lat":35.71129,"lon":139.733894},{"name":"中央会堂幼稚園","province":"東京都","city":"文京区","address":"東京都文京区本郷3丁目37番9号","lat":35.707328,"lon":139.762378},{"name":"貞静幼稚園","province":"東京都","city":"文京区","address":"東京都文京区大塚1丁目2番10号","lat":35.716282,"lon":139.735251},{"name":"同仁美登里幼稚園","province":"東京都","city":"文京区","address":"東京都文京区目白台3丁目10番9号","lat":35.716617,"lon":139.725518},{"name":"日本女子大学附属豊明幼稚園","province":"東京都","city":"文京区","address":"東京都文京区目白台1丁目18番14号","lat":35.715511,"lon":139.719766},{"name":"福寿幼稚園","province":"東京都","city":"文京区","address":"東京都文京区小石川3丁目2番23号","lat":35.711794,"lon":139.746419},{"name":"文京学院大学文京幼稚園","province":"東京都","city":"文京区","address":"東京都文京区向丘2丁目4番1号","lat":35.718999,"lon":139.758048},{"name":"明照幼稚園","province":"東京都","city":"文京区","address":"東京都文京区小石川4丁目12番8号","lat":35.715362,"lon":139.744984},{"name":"大和郷幼稚園","province":"東京都","city":"文京区","address":"東京都文京区本駒込6丁目9番7号","lat":35.731304,"lon":139.74396},{"name":"弓町本郷幼稚園","province":"東京都","city":"文京区","address":"東京都文京区本郷2丁目35番14号","lat":35.70679,"lon":139.757459},{"name":"緑幼稚園","province":"東京都","city":"墨田区","address":"墨田区緑二丁目11番5号","lat":35.69394,"lon":139.800797},{"name":"菊川幼稚園","province":"東京都","city":"墨田区","address":"墨田区立川四丁目12番15号","lat":35.691621,"lon":139.807607},{"name":"第三寺島幼稚園","province":"東京都","city":"墨田区","address":"墨田区東向島六丁目8番1号","lat":35.721427,"lon":139.820419},{"name":"曳舟幼稚園","province":"東京都","city":"墨田区","address":"墨田区京島一丁目28番2号","lat":35.716019,"lon":139.820805},{"name":"両国幼稚園","province":"東京都","city":"墨田区","address":"墨田区両国二丁目8番10号","lat":35.693532,"lon":139.791443},{"name":"江東学園幼稚園","province":"東京都","city":"墨田区","address":"墨田区横網一丁目7番2号","lat":35.698438,"lon":139.796632},{"name":"本所白百合幼稚園","province":"東京都","city":"墨田区","address":"墨田区石原四丁目37番2号","lat":35.701949,"lon":139.805133},{"name":"言問幼稚園","province":"東京都","city":"墨田区","address":"墨田区向島五丁目4番4号","lat":35.717593,"lon":139.809185},{"name":"墨田幼稚園","province":"東京都","city":"墨田区","address":"墨田区堤通一丁目5番9号","lat":35.723251,"lon":139.811862},{"name":"あさひ幼稚園","province":"東京都","city":"墨田区","address":"墨田区文花一丁目1番10号","lat":35.708525,"lon":139.819184},{"name":"あづま幼稚園","province":"東京都","city":"墨田区","address":"墨田区文花一丁目25番7号","lat":35.709445,"lon":139.823744},{"name":"向島文化幼稚園","province":"東京都","city":"墨田区","address":"墨田区八広六丁目24番6号","lat":35.727148,"lon":139.827704},{"name":"緑","province":"愛知県","city":"一宮市","address":"愛知県一宮市緑2丁目11-5","lat":35.30085146,"lon":136.81552495},{"name":"柳島","province":"東京都","city":"墨田区","address":"東京都墨田区横川5丁目2-30","lat":35.70359917,"lon":139.81754005},{"name":"菊川","province":"東京都","city":"墨田区","address":"東京都墨田区立川4丁目12-15","lat":35.69164531,"lon":139.8076726},{"name":"第三寺島","province":"東京都","city":"墨田区","address":"東京都墨田区東向島6丁目8-1","lat":35.72140784,"lon":139.82042783},{"name":"曳舟","province":"東京都","city":"墨田区","address":"東京都墨田区京島1丁目28-2","lat":35.71662214,"lon":139.82089427},{"name":"八広","province":"東京都","city":"墨田区","address":"東京都墨田区八広5丁目12-15","lat":35.72710192,"lon":139.82632158},{"name":"立花","province":"東京都","city":"墨田区","address":"東京都墨田区立花1丁目25-9","lat":35.70481094,"lon":139.83169354},{"name":"合計","province":"東京都","city":"練馬区","address":"東京都練馬区大泉学園町7丁目","lat":35.77324394,"lon":139.58840334},{"name":"あづま","province":"東京都","city":"墨田区","address":"東京都墨田区文花1丁目25-7","lat":35.70941666,"lon":139.82369974},{"name":"江東学園","province":"東京都","city":"墨田区","address":"東京都墨田区横網1丁目7-2","lat":35.69846955,"lon":139.79662613},{"name":"言問","province":"東京都","city":"墨田区","address":"東京都墨田区向島5丁目4-4","lat":35.71784645,"lon":139.80903464},{"name":"墨田","province":"東京都","city":"墨田区","address":"東京都墨田区堤通1丁目5-9","lat":35.72314921,"lon":139.81204315},{"name":"本所白百合","province":"東京都","city":"墨田区","address":"東京都墨田区石原4丁目37-2","lat":35.70169688,"lon":139.80547175},{"name":"向島文化","province":"東京都","city":"墨田区","address":"東京都墨田区八広6丁目24-6","lat":35.72716583,"lon":139.82769918},{"name":"両国","province":"東京都","city":"墨田区","address":"東京都墨田区両国2丁目8-10","lat":35.69330899,"lon":139.79200745}]}