{"keyword":"集会","data":[{"name":"心身障害者福祉集会所","province":"東京都","city":"練馬区","address":"練馬区光が丘2-9-6","lat":35.75923642,"lon":139.6298308},{"name":"市民会館 （萌え木ホール）","province":"東京都","city":"小金井市","address":"東京都小金井市前原町3丁目33-25","lat":35.69893146,"lon":139.5024743},{"name":"東小金井駅開設記念会館（マロンホール）","province":"東京都","city":"小金井市","address":"東京都小金井市東町3丁目7-21","lat":35.70026535,"lon":139.52904704},{"name":"前原暫定集会施設","province":"東京都","city":"小金井市","address":"東京都小金井市前原町3丁目33-27","lat":35.69891202,"lon":139.50262151},{"name":"婦人会館","province":"東京都","city":"小金井市","address":"東京都小金井市梶野町5丁目10-32","lat":35.70495366,"lon":139.5264804},{"name":"上之原会館","province":"東京都","city":"小金井市","address":"東京都小金井市本町5丁目6-19","lat":35.70252549,"lon":139.50201586},{"name":"前原町西之台会館","province":"東京都","city":"小金井市","address":"東京都小金井市前原町3丁目8-1","lat":35.69391528,"lon":139.49958585},{"name":"桜町上水会館","province":"東京都","city":"小金井市","address":"東京都小金井市桜町2丁目8-13","lat":35.71088575,"lon":139.50495693},{"name":"貫井北町集会場","province":"東京都","city":"小金井市","address":"東京都小金井市貫井北町3丁目31-17","lat":35.71155208,"lon":139.49595488},{"name":"貫井北町中之久保集会所","province":"東京都","city":"小金井市","address":"東京都小金井市貫井北町1丁目18-21","lat":35.70261971,"lon":139.49436649},{"name":"前原町丸山台集会所","province":"東京都","city":"小金井市","address":"東京都小金井市前原町4丁目18-14","lat":35.6905852,"lon":139.50343011},{"name":"貫井南町三楽集会所","province":"東京都","city":"小金井市","address":"東京都小金井市貫井南町3丁目6-18","lat":35.69950063,"lon":139.49511933},{"name":"東町友愛会館","province":"東京都","city":"小金井市","address":"東京都小金井市東町4丁目10-2","lat":35.69457696,"lon":139.52368384},{"name":"中町桜並集会所","province":"東京都","city":"小金井市","address":"東京都小金井市中町3丁目19-12","lat":35.70013995,"lon":139.51267897},{"name":"貫井北五集会所","province":"東京都","city":"小金井市","address":"東京都小金井市貫井北町5丁目16-13","lat":35.70290563,"lon":139.48851974},{"name":"中町天神前集会所","province":"東京都","city":"小金井市","address":"東京都小金井市中町1丁目7-7","lat":35.69348506,"lon":139.50991835},{"name":"東町集会所(東ｾﾝﾀｰ内)","province":"東京都","city":"小金井市","address":"東京都小金井市東町1丁目39-1","lat":35.69401043,"lon":139.52652529},{"name":"すずかけ会館","province":"東京都","city":"町田市","address":"東京都町田市南つくし野3丁目7-6","lat":35.51718439,"lon":139.4807583},{"name":"小川会館","province":"東京都","city":"町田市","address":"東京都町田市小川3丁目10-11","lat":35.5278534,"lon":139.47178855},{"name":"鶴間会館","province":"東京都","city":"町田市","address":"東京都町田市鶴間6丁目8-37","lat":35.50514179,"lon":139.47569792},{"name":"南町田会館","province":"東京都","city":"町田市","address":"東京都町田市鶴間3丁目16-1","lat":35.50882623,"lon":139.46933685},{"name":"原クラブ会館","province":"東京都","city":"町田市","address":"東京都町田市南町田1丁目9-20","lat":35.52275111,"lon":139.46758627},{"name":"成瀬が丘ふれあい会館","province":"東京都","city":"町田市","address":"東京都町田市成瀬が丘2丁目20-3","lat":35.53424709,"lon":139.47159952},{"name":"金森中央会館","province":"東京都","city":"町田市","address":"東京都町田市金森2丁目22-40","lat":35.53271582,"lon":139.4603669},{"name":"金森１丁目総合会館","province":"東京都","city":"町田市","address":"東京都町田市金森1丁目6-17","lat":35.5372789,"lon":139.45369227},{"name":"金森センターかわせみ","province":"東京都","city":"町田市","address":"東京都町田市金森3丁目36-13","lat":35.52646373,"lon":139.45921995},{"name":"高ヶ坂ふれあいセンター","province":"東京都","city":"町田市","address":"東京都町田市高ヶ坂6丁目1-20","lat":35.5420537,"lon":139.46053049},{"name":"新中町会館","province":"東京都","city":"町田市","address":"東京都町田市中町3丁目6-22","lat":35.55147169,"lon":139.44762283},{"name":"森野中央町内会館","province":"東京都","city":"町田市","address":"東京都町田市森野2丁目21-32","lat":35.54948015,"lon":139.43969026},{"name":"旭町地区会館","province":"東京都","city":"町田市","address":"東京都町田市旭町1丁目11-6","lat":35.55553513,"lon":139.43882903},{"name":"南大谷さくら会館","province":"東京都","city":"町田市","address":"東京都町田市南大谷439","lat":35.55354411,"lon":139.46028567},{"name":"今井会館","province":"東京都","city":"町田市","address":"東京都町田市本町田3220","lat":35.57262787,"lon":139.44400312},{"name":"コミニティセンター忠生","province":"東京都","city":"町田市","address":"東京都町田市忠生2丁目16-1","lat":35.57590772,"lon":139.42372989},{"name":"さかいがわ会館","province":"東京都","city":"町田市","address":"東京都町田市木曽東2丁目10-2","lat":35.56013998,"lon":139.4221721},{"name":"忠生木曽会館","province":"東京都","city":"町田市","address":"東京都町田市木曽西4丁目14-34","lat":35.56617818,"lon":139.42109427},{"name":"玉川学園さくらんぼホール","province":"東京都","city":"町田市","address":"東京都町田市玉川学園3丁目35-45","lat":35.56302635,"lon":139.4590521},{"name":"玉川学園こすもす会館","province":"東京都","city":"町田市","address":"東京都町田市東玉川学園4丁目3471-17","lat":35.55829961,"lon":139.46738785},{"name":"成瀬台ゆりの木会館","province":"東京都","city":"町田市","address":"東京都町田市成瀬台3丁目9-5","lat":35.55532891,"lon":139.4787181},{"name":"小山田会館","province":"東京都","city":"町田市","address":"東京都町田市下小山田町2600-1","lat":35.59682162,"lon":139.40859447},{"name":"坂下さくら会館","province":"東京都","city":"町田市","address":"東京都町田市相原町366-8","lat":35.60787475,"lon":139.34248017},{"name":"馬場さくら会館","province":"東京都","city":"町田市","address":"東京都町田市小山町4669","lat":35.59187424,"lon":139.38821019},{"name":"田端かたくり会館","province":"東京都","city":"町田市","address":"東京都町田市小山町3102-2","lat":35.60091724,"lon":139.36164266},{"name":"鶴川いちょう会館","province":"東京都","city":"町田市","address":"東京都町田市能ヶ谷2丁目26-8","lat":35.58757117,"lon":139.4800954},{"name":"能ヶ谷いこい会館","province":"東京都","city":"町田市","address":"東京都町田市能ヶ谷4丁目2-15","lat":35.58558015,"lon":139.48374535},{"name":"広袴会館","province":"東京都","city":"町田市","address":"東京都町田市広袴4丁目4-3","lat":35.59561424,"lon":139.47524536},{"name":"真光寺会館","province":"東京都","city":"町田市","address":"東京都町田市真光寺1丁目27-1","lat":35.60279558,"lon":139.46482328},{"name":"鶴川さるびあ会館","province":"東京都","city":"町田市","address":"東京都町田市鶴川5丁目5-12","lat":35.59425475,"lon":139.46375412},{"name":"大蔵会館","province":"東京都","city":"町田市","address":"東京都町田市大蔵町350-1","lat":35.58655295,"lon":139.46722353},{"name":"野津田公民館","province":"東京都","city":"町田市","address":"東京都町田市野津田町778-1","lat":35.588607,"lon":139.44778579},{"name":"金井クラブ","province":"東京都","city":"町田市","address":"東京都町田市金井5丁目20-3","lat":35.58043353,"lon":139.46307376},{"name":"立川集会所","province":"東京都","city":"墨田区","address":"墨田区立川一丁目5番2号","lat":35.6905,"lon":139.799531},{"name":"寺島集会所","province":"東京都","city":"墨田区","address":"墨田区東向島一丁目23番10号","lat":35.720181,"lon":139.812601},{"name":"千歳集会所","province":"東京都","city":"墨田区","address":"墨田区千歳二丁目2番5号","lat":35.690696,"lon":139.795273},{"name":"八広中央集会所","province":"東京都","city":"墨田区","address":"墨田区八広三丁目14番5号","lat":35.71911,"lon":139.826839},{"name":"東あずま公園集会所","province":"東京都","city":"墨田区","address":"墨田区立花二丁目32番12号","lat":35.708436,"lon":139.830708},{"name":"東駒形集会所","province":"東京都","city":"墨田区","address":"墨田区東駒形四丁目14番1号","lat":35.705524,"lon":139.807754},{"name":"曳舟集会所","province":"東京都","city":"墨田区","address":"墨田区東向島二丁目17番14号","lat":35.718484,"lon":139.815563},{"name":"押上集会所","province":"東京都","city":"墨田区","address":"墨田区押上一丁目47番6号","lat":35.709283,"lon":139.817543},{"name":"東向島集会所","province":"東京都","city":"墨田区","address":"墨田区東向島四丁目8番12号","lat":35.727562,"lon":139.815476},{"name":"八広一丁目集会所","province":"東京都","city":"墨田区","address":"墨田区八広一丁目19番14号","lat":35.718802,"lon":139.822942},{"name":"梅若橋集会所","province":"東京都","city":"墨田区","address":"墨田区堤通二丁目9番1号","lat":35.735395,"lon":139.816696},{"name":"東墨田うめぞの集会所","province":"東京都","city":"墨田区","address":"墨田区東墨田三丁目19番1号","lat":35.718449,"lon":139.837679},{"name":"横川三丁目集会所","province":"東京都","city":"墨田区","address":"墨田区横川三丁目12番12号","lat":35.70536,"lon":139.813658},{"name":"横川集会所","province":"東京都","city":"墨田区","address":"墨田区横川五丁目9番1号","lat":35.705116,"lon":139.81758},{"name":"江東橋集会所","province":"東京都","city":"墨田区","address":"墨田区江東橋五丁目16番15号","lat":35.692618,"lon":139.810783},{"name":"一寺言問集会所","province":"東京都","city":"墨田区","address":"墨田区東向島一丁目20番6号","lat":35.720655,"lon":139.813889},{"name":"業平三丁目集会所","province":"東京都","city":"墨田区","address":"墨田区業平三丁目2番5号","lat":35.706341,"lon":139.813065},{"name":"立花四丁目集会所","province":"東京都","city":"墨田区","address":"墨田区立花四丁目8番10号","lat":35.710535,"lon":139.8309},{"name":"京島第一集会所","province":"東京都","city":"墨田区","address":"墨田区京島三丁目3番6号","lat":35.715163,"lon":139.821389},{"name":"京島第二集会所","province":"東京都","city":"墨田区","address":"墨田区京島三丁目52番8号","lat":35.714724,"lon":139.82455},{"name":"なりひら神明橋集会所","province":"東京都","city":"墨田区","address":"墨田区業平五丁目6番2号","lat":35.707082,"lon":139.817985},{"name":"太平四丁目集会所","province":"東京都","city":"墨田区","address":"墨田区太平四丁目1番4号","lat":35.700854,"lon":139.81758},{"name":"吾妻橋会館","province":"東京都","city":"墨田区","address":"墨田区吾妻橋一丁目23番27号","lat":35.709744,"lon":139.801425},{"name":"両国駅前会館","province":"東京都","city":"墨田区","address":"墨田区両国二丁目20番12号101号室","lat":35.695345,"lon":139.79262}]}