{"keyword":"スモッグ","data":[{"name":"井の頭恩賜公園","province":"東京都","city":"武蔵野市","address":"東京都武蔵野市御殿山一丁目、吉祥寺南町一丁目、三鷹市井の頭三・四・五丁目、下連雀一丁目、牟礼四丁目","lat":35.7007,"lon":139.574491},{"name":"武蔵野中央公園","province":"東京都","city":"武蔵野市","address":"東京都武蔵野市八幡町二丁目","lat":35.718669,"lon":139.55854},{"name":"第一浄水場","province":"東京都","city":"武蔵野市","address":"東京都武蔵野市吉祥寺北町4丁目11-46","lat":35.71395903,"lon":139.56650423},{"name":"第二浄水場","province":"東京都","city":"武蔵野市","address":"東京都武蔵野市桜堤1丁目6-6","lat":35.70967278,"lon":139.53635988},{"name":"武蔵野陸上競技場","province":"東京都","city":"武蔵野市","address":"東京都武蔵野市吉祥寺北町5丁目11-20","lat":35.71788638,"lon":139.56758731},{"name":"都立武蔵野中央公園","province":"東京都","city":"武蔵野市","address":"東京都武蔵野市八幡町2丁目4-22","lat":35.718175,"lon":139.55645772},{"name":"武蔵野赤十字病院ヘリポート","province":"東京都","city":"武蔵野市","address":"東京都武蔵野市境南町1丁目26-1","lat":35.69687727,"lon":139.54853159},{"name":"井の頭恩賜公園","province":"東京都","city":"武蔵野市","address":"東京都武蔵野市御殿山一丁目、吉祥寺南町一丁目、三鷹市井の頭三・四・五丁目、下連雀一丁目、牟礼四丁目","lat":35.7007,"lon":139.574491},{"name":"武蔵野中央公園","province":"東京都","city":"武蔵野市","address":"東京都武蔵野市八幡町二丁目","lat":35.718669,"lon":139.55854},{"name":"井の頭恩賜公園","province":"東京都","city":"武蔵野市","address":"東京都武蔵野市御殿山一丁目、吉祥寺南町一丁目、三鷹市井の頭三・四・五丁目、下連雀一丁目、牟礼四丁目","lat":35.7007,"lon":139.574491},{"name":"武蔵野中央公園","province":"東京都","city":"武蔵野市","address":"東京都武蔵野市八幡町二丁目","lat":35.718669,"lon":139.55854},{"name":"井の頭恩賜公園","province":"東京都","city":"武蔵野市","address":"東京都武蔵野市御殿山一丁目、吉祥寺南町一丁目、三鷹市井の頭三・四・五丁目、下連雀一丁目、牟礼四丁目","lat":35.7007,"lon":139.574491},{"name":"武蔵野中央公園","province":"東京都","city":"武蔵野市","address":"東京都武蔵野市八幡町二丁目","lat":35.718669,"lon":139.55854},{"name":"井の頭恩賜公園","province":"東京都","city":"武蔵野市","address":"東京都武蔵野市御殿山一丁目、吉祥寺南町一丁目、三鷹市井の頭三・四・五丁目、下連雀一丁目、牟礼四丁目","lat":35.7007,"lon":139.574491},{"name":"武蔵野中央公園","province":"東京都","city":"武蔵野市","address":"東京都武蔵野市八幡町二丁目","lat":35.718669,"lon":139.55854},{"name":"井の頭恩賜公園","province":"東京都","city":"武蔵野市","address":"東京都武蔵野市御殿山一丁目、吉祥寺南町一丁目、三鷹市井の頭三・四・五丁目、下連雀一丁目、牟礼四丁目","lat":35.7007,"lon":139.574491},{"name":"武蔵野中央公園","province":"東京都","city":"武蔵野市","address":"東京都武蔵野市八幡町二丁目","lat":35.718669,"lon":139.55854},{"name":"井の頭恩賜公園","province":"東京都","city":"武蔵野市","address":"東京都武蔵野市御殿山一丁目、吉祥寺南町一丁目、三鷹市井の頭三・四・五丁目、下連雀一丁目、牟礼四丁目","lat":35.7007,"lon":139.574491},{"name":"武蔵野中央公園","province":"東京都","city":"武蔵野市","address":"東京都武蔵野市八幡町二丁目","lat":35.718669,"lon":139.55854},{"name":"井の頭恩賜公園","province":"東京都","city":"武蔵野市","address":"東京都武蔵野市御殿山一丁目、吉祥寺南町一丁目、三鷹市井の頭三・四・五丁目、下連雀一丁目、牟礼四丁目","lat":35.7007,"lon":139.574491},{"name":"武蔵野中央公園","province":"東京都","city":"武蔵野市","address":"東京都武蔵野市八幡町二丁目","lat":35.718669,"lon":139.55854},{"name":"井の頭恩賜公園","province":"東京都","city":"武蔵野市","address":"東京都武蔵野市御殿山一丁目、吉祥寺南町一丁目、三鷹市井の頭三・四・五丁目、下連雀一丁目、牟礼四丁目","lat":35.7007,"lon":139.574491},{"name":"武蔵野中央公園","province":"東京都","city":"武蔵野市","address":"東京都武蔵野市八幡町二丁目","lat":35.718669,"lon":139.55854},{"name":"井の頭恩賜公園","province":"東京都","city":"武蔵野市","address":"東京都武蔵野市御殿山一丁目、吉祥寺南町一丁目、三鷹市井の頭三・四・五丁目、下連雀一丁目、牟礼四丁目","lat":35.7007,"lon":139.574491},{"name":"武蔵野中央公園","province":"東京都","city":"武蔵野市","address":"東京都武蔵野市八幡町二丁目","lat":35.718669,"lon":139.55854},{"name":"井の頭恩賜公園","province":"東京都","city":"武蔵野市","address":"東京都武蔵野市御殿山一丁目、吉祥寺南町一丁目、三鷹市井の頭三・四・五丁目、下連雀一丁目、牟礼四丁目","lat":35.7007,"lon":139.574491},{"name":"武蔵野中央公園","province":"東京都","city":"武蔵野市","address":"東京都武蔵野市八幡町二丁目","lat":35.718669,"lon":139.55854},{"name":"井の頭恩賜公園","province":"東京都","city":"武蔵野市","address":"東京都武蔵野市御殿山一丁目、吉祥寺南町一丁目、三鷹市井の頭三・四・五丁目、下連雀一丁目、牟礼四丁目","lat":35.7007,"lon":139.574491},{"name":"武蔵野中央公園","province":"東京都","city":"武蔵野市","address":"東京都武蔵野市八幡町二丁目","lat":35.718669,"lon":139.55854},{"name":"井の頭恩賜公園","province":"東京都","city":"武蔵野市","address":"東京都武蔵野市御殿山一丁目、吉祥寺南町一丁目、三鷹市井の頭三・四・五丁目、下連雀一丁目、牟礼四丁目","lat":35.7007,"lon":139.574491},{"name":"武蔵野中央公園","province":"東京都","city":"武蔵野市","address":"東京都武蔵野市八幡町二丁目","lat":35.718669,"lon":139.55854},{"name":"井の頭恩賜公園","province":"東京都","city":"武蔵野市","address":"東京都武蔵野市御殿山一丁目、吉祥寺南町一丁目、三鷹市井の頭三・四・五丁目、下連雀一丁目、牟礼四丁目","lat":35.7007,"lon":139.574491},{"name":"武蔵野中央公園","province":"東京都","city":"武蔵野市","address":"東京都武蔵野市八幡町二丁目","lat":35.718669,"lon":139.55854},{"name":"井の頭恩賜公園","province":"東京都","city":"武蔵野市","address":"東京都武蔵野市御殿山一丁目、吉祥寺南町一丁目、三鷹市井の頭三・四・五丁目、下連雀一丁目、牟礼四丁目","lat":35.7007,"lon":139.574491},{"name":"武蔵野中央公園","province":"東京都","city":"武蔵野市","address":"東京都武蔵野市八幡町二丁目","lat":35.718669,"lon":139.55854},{"name":"井の頭恩賜公園","province":"東京都","city":"武蔵野市","address":"東京都武蔵野市御殿山一丁目、吉祥寺南町一丁目、三鷹市井の頭三・四・五丁目、下連雀一丁目、牟礼四丁目","lat":35.7007,"lon":139.574491},{"name":"武蔵野中央公園","province":"東京都","city":"武蔵野市","address":"東京都武蔵野市八幡町二丁目","lat":35.718669,"lon":139.55854},{"name":"井の頭恩賜公園","province":"東京都","city":"武蔵野市","address":"東京都武蔵野市御殿山一丁目、吉祥寺南町一丁目、三鷹市井の頭三・四・五丁目、下連雀一丁目、牟礼四丁目","lat":35.7007,"lon":139.574491},{"name":"武蔵野中央公園","province":"東京都","city":"武蔵野市","address":"東京都武蔵野市八幡町二丁目","lat":35.718669,"lon":139.55854},{"name":"井の頭恩賜公園","province":"東京都","city":"武蔵野市","address":"東京都武蔵野市御殿山一丁目、吉祥寺南町一丁目、三鷹市井の頭三・四・五丁目、下連雀一丁目、牟礼四丁目","lat":35.7007,"lon":139.574491},{"name":"武蔵野中央公園","province":"東京都","city":"武蔵野市","address":"東京都武蔵野市八幡町二丁目","lat":35.718669,"lon":139.55854},{"name":"井の頭恩賜公園","province":"東京都","city":"武蔵野市","address":"東京都武蔵野市御殿山一丁目、吉祥寺南町一丁目、三鷹市井の頭三・四・五丁目、下連雀一丁目、牟礼四丁目","lat":35.7007,"lon":139.574491},{"name":"武蔵野中央公園","province":"東京都","city":"武蔵野市","address":"東京都武蔵野市八幡町二丁目","lat":35.718669,"lon":139.55854},{"name":"井の頭恩賜公園","province":"東京都","city":"武蔵野市","address":"東京都武蔵野市御殿山一丁目、吉祥寺南町一丁目、三鷹市井の頭三・四・五丁目、下連雀一丁目、牟礼四丁目","lat":35.7007,"lon":139.574491},{"name":"武蔵野中央公園","province":"東京都","city":"武蔵野市","address":"東京都武蔵野市八幡町二丁目","lat":35.718669,"lon":139.55854},{"name":"井の頭恩賜公園","province":"東京都","city":"武蔵野市","address":"東京都武蔵野市御殿山一丁目、吉祥寺南町一丁目、三鷹市井の頭三・四・五丁目、下連雀一丁目、牟礼四丁目","lat":35.7007,"lon":139.574491},{"name":"武蔵野中央公園","province":"東京都","city":"武蔵野市","address":"東京都武蔵野市八幡町二丁目","lat":35.718669,"lon":139.55854},{"name":"井の頭恩賜公園","province":"東京都","city":"武蔵野市","address":"東京都武蔵野市御殿山一丁目、吉祥寺南町一丁目、三鷹市井の頭三・四・五丁目、下連雀一丁目、牟礼四丁目","lat":35.7007,"lon":139.574491},{"name":"武蔵野中央公園","province":"東京都","city":"武蔵野市","address":"東京都武蔵野市八幡町二丁目","lat":35.718669,"lon":139.55854},{"name":"井の頭恩賜公園","province":"東京都","city":"武蔵野市","address":"東京都武蔵野市御殿山一丁目、吉祥寺南町一丁目、三鷹市井の頭三・四・五丁目、下連雀一丁目、牟礼四丁目","lat":35.7007,"lon":139.574491},{"name":"武蔵野中央公園","province":"東京都","city":"武蔵野市","address":"東京都武蔵野市八幡町二丁目","lat":35.718669,"lon":139.55854},{"name":"井の頭恩賜公園","province":"東京都","city":"武蔵野市","address":"東京都武蔵野市御殿山一丁目、吉祥寺南町一丁目、三鷹市井の頭三・四・五丁目、下連雀一丁目、牟礼四丁目","lat":35.7007,"lon":139.574491},{"name":"武蔵野中央公園","province":"東京都","city":"武蔵野市","address":"東京都武蔵野市八幡町二丁目","lat":35.718669,"lon":139.55854},{"name":"井の頭恩賜公園","province":"東京都","city":"武蔵野市","address":"東京都武蔵野市御殿山一丁目、吉祥寺南町一丁目、三鷹市井の頭三・四・五丁目、下連雀一丁目、牟礼四丁目","lat":35.7007,"lon":139.574491},{"name":"武蔵野中央公園","province":"東京都","city":"武蔵野市","address":"東京都武蔵野市八幡町二丁目","lat":35.718669,"lon":139.55854},{"name":"井の頭恩賜公園","province":"東京都","city":"武蔵野市","address":"東京都武蔵野市御殿山一丁目、吉祥寺南町一丁目、三鷹市井の頭三・四・五丁目、下連雀一丁目、牟礼四丁目","lat":35.7007,"lon":139.574491},{"name":"武蔵野中央公園","province":"東京都","city":"武蔵野市","address":"東京都武蔵野市八幡町二丁目","lat":35.718669,"lon":139.55854},{"name":"井の頭恩賜公園","province":"東京都","city":"武蔵野市","address":"東京都武蔵野市御殿山一丁目、吉祥寺南町一丁目、三鷹市井の頭三・四・五丁目、下連雀一丁目、牟礼四丁目","lat":35.7007,"lon":139.574491},{"name":"武蔵野中央公園","province":"東京都","city":"武蔵野市","address":"東京都武蔵野市八幡町二丁目","lat":35.718669,"lon":139.55854},{"name":"井の頭恩賜公園","province":"東京都","city":"武蔵野市","address":"東京都武蔵野市御殿山一丁目、吉祥寺南町一丁目、三鷹市井の頭三・四・五丁目、下連雀一丁目、牟礼四丁目","lat":35.7007,"lon":139.574491},{"name":"武蔵野中央公園","province":"東京都","city":"武蔵野市","address":"東京都武蔵野市八幡町二丁目","lat":35.718669,"lon":139.55854},{"name":"井の頭恩賜公園","province":"東京都","city":"武蔵野市","address":"東京都武蔵野市御殿山一丁目、吉祥寺南町一丁目、三鷹市井の頭三・四・五丁目、下連雀一丁目、牟礼四丁目","lat":35.7007,"lon":139.574491},{"name":"武蔵野中央公園","province":"東京都","city":"武蔵野市","address":"東京都武蔵野市八幡町二丁目","lat":35.718669,"lon":139.55854},{"name":"井の頭恩賜公園","province":"東京都","city":"武蔵野市","address":"東京都武蔵野市御殿山一丁目、吉祥寺南町一丁目、三鷹市井の頭三・四・五丁目、下連雀一丁目、牟礼四丁目","lat":35.7007,"lon":139.574491},{"name":"武蔵野中央公園","province":"東京都","city":"武蔵野市","address":"東京都武蔵野市八幡町二丁目","lat":35.718669,"lon":139.55854},{"name":"井の頭恩賜公園","province":"東京都","city":"武蔵野市","address":"東京都武蔵野市御殿山一丁目、吉祥寺南町一丁目、三鷹市井の頭三・四・五丁目、下連雀一丁目、牟礼四丁目","lat":35.7007,"lon":139.574491},{"name":"武蔵野中央公園","province":"東京都","city":"武蔵野市","address":"東京都武蔵野市八幡町二丁目","lat":35.718669,"lon":139.55854},{"name":"井の頭恩賜公園","province":"東京都","city":"武蔵野市","address":"東京都武蔵野市御殿山一丁目、吉祥寺南町一丁目、三鷹市井の頭三・四・五丁目、下連雀一丁目、牟礼四丁目","lat":35.7007,"lon":139.574491},{"name":"武蔵野中央公園","province":"東京都","city":"武蔵野市","address":"東京都武蔵野市八幡町二丁目","lat":35.718669,"lon":139.55854},{"name":"井の頭恩賜公園","province":"東京都","city":"武蔵野市","address":"東京都武蔵野市御殿山一丁目、吉祥寺南町一丁目、三鷹市井の頭三・四・五丁目、下連雀一丁目、牟礼四丁目","lat":35.7007,"lon":139.574491},{"name":"武蔵野中央公園","province":"東京都","city":"武蔵野市","address":"東京都武蔵野市八幡町二丁目","lat":35.718669,"lon":139.55854},{"name":"井の頭恩賜公園","province":"東京都","city":"武蔵野市","address":"東京都武蔵野市御殿山一丁目、吉祥寺南町一丁目、三鷹市井の頭三・四・五丁目、下連雀一丁目、牟礼四丁目","lat":35.7007,"lon":139.574491},{"name":"武蔵野中央公園","province":"東京都","city":"武蔵野市","address":"東京都武蔵野市八幡町二丁目","lat":35.718669,"lon":139.55854},{"name":"井の頭恩賜公園","province":"東京都","city":"武蔵野市","address":"東京都武蔵野市御殿山一丁目、吉祥寺南町一丁目、三鷹市井の頭三・四・五丁目、下連雀一丁目、牟礼四丁目","lat":35.7007,"lon":139.574491},{"name":"武蔵野中央公園","province":"東京都","city":"武蔵野市","address":"東京都武蔵野市八幡町二丁目","lat":35.718669,"lon":139.55854},{"name":"井の頭恩賜公園","province":"東京都","city":"武蔵野市","address":"東京都武蔵野市御殿山一丁目、吉祥寺南町一丁目、三鷹市井の頭三・四・五丁目、下連雀一丁目、牟礼四丁目","lat":35.7007,"lon":139.574491},{"name":"武蔵野中央公園","province":"東京都","city":"武蔵野市","address":"東京都武蔵野市八幡町二丁目","lat":35.718669,"lon":139.55854},{"name":"井の頭恩賜公園","province":"東京都","city":"武蔵野市","address":"東京都武蔵野市御殿山一丁目、吉祥寺南町一丁目、三鷹市井の頭三・四・五丁目、下連雀一丁目、牟礼四丁目","lat":35.7007,"lon":139.574491},{"name":"武蔵野中央公園","province":"東京都","city":"武蔵野市","address":"東京都武蔵野市八幡町二丁目","lat":35.718669,"lon":139.55854},{"name":"井の頭恩賜公園","province":"東京都","city":"武蔵野市","address":"東京都武蔵野市御殿山一丁目、吉祥寺南町一丁目、三鷹市井の頭三・四・五丁目、下連雀一丁目、牟礼四丁目","lat":35.7007,"lon":139.574491},{"name":"武蔵野中央公園","province":"東京都","city":"武蔵野市","address":"東京都武蔵野市八幡町二丁目","lat":35.718669,"lon":139.55854},{"name":"井の頭恩賜公園","province":"東京都","city":"武蔵野市","address":"東京都武蔵野市御殿山一丁目、吉祥寺南町一丁目、三鷹市井の頭三・四・五丁目、下連雀一丁目、牟礼四丁目","lat":35.7007,"lon":139.574491},{"name":"武蔵野中央公園","province":"東京都","city":"武蔵野市","address":"東京都武蔵野市八幡町二丁目","lat":35.718669,"lon":139.55854},{"name":"井の頭恩賜公園","province":"東京都","city":"武蔵野市","address":"東京都武蔵野市御殿山一丁目、吉祥寺南町一丁目、三鷹市井の頭三・四・五丁目、下連雀一丁目、牟礼四丁目","lat":35.7007,"lon":139.574491},{"name":"武蔵野中央公園","province":"東京都","city":"武蔵野市","address":"東京都武蔵野市八幡町二丁目","lat":35.718669,"lon":139.55854},{"name":"井の頭恩賜公園","province":"東京都","city":"武蔵野市","address":"東京都武蔵野市御殿山一丁目、吉祥寺南町一丁目、三鷹市井の頭三・四・五丁目、下連雀一丁目、牟礼四丁目","lat":35.7007,"lon":139.574491},{"name":"武蔵野中央公園","province":"東京都","city":"武蔵野市","address":"東京都武蔵野市八幡町二丁目","lat":35.718669,"lon":139.55854},{"name":"井の頭恩賜公園","province":"東京都","city":"武蔵野市","address":"東京都武蔵野市御殿山一丁目、吉祥寺南町一丁目、三鷹市井の頭三・四・五丁目、下連雀一丁目、牟礼四丁目","lat":35.7007,"lon":139.574491},{"name":"武蔵野中央公園","province":"東京都","city":"武蔵野市","address":"東京都武蔵野市八幡町二丁目","lat":35.718669,"lon":139.55854},{"name":"井の頭恩賜公園","province":"東京都","city":"武蔵野市","address":"東京都武蔵野市御殿山一丁目、吉祥寺南町一丁目、三鷹市井の頭三・四・五丁目、下連雀一丁目、牟礼四丁目","lat":35.7007,"lon":139.574491},{"name":"武蔵野中央公園","province":"東京都","city":"武蔵野市","address":"東京都武蔵野市八幡町二丁目","lat":35.718669,"lon":139.55854},{"name":"井の頭恩賜公園","province":"東京都","city":"武蔵野市","address":"東京都武蔵野市御殿山一丁目、吉祥寺南町一丁目、三鷹市井の頭三・四・五丁目、下連雀一丁目、牟礼四丁目","lat":35.7007,"lon":139.574491},{"name":"武蔵野中央公園","province":"東京都","city":"武蔵野市","address":"東京都武蔵野市八幡町二丁目","lat":35.718669,"lon":139.55854},{"name":"井の頭恩賜公園","province":"東京都","city":"武蔵野市","address":"東京都武蔵野市御殿山一丁目、吉祥寺南町一丁目、三鷹市井の頭三・四・五丁目、下連雀一丁目、牟礼四丁目","lat":35.7007,"lon":139.574491},{"name":"武蔵野中央公園","province":"東京都","city":"武蔵野市","address":"東京都武蔵野市八幡町二丁目","lat":35.718669,"lon":139.55854},{"name":"井の頭恩賜公園","province":"東京都","city":"武蔵野市","address":"東京都武蔵野市御殿山一丁目、吉祥寺南町一丁目、三鷹市井の頭三・四・五丁目、下連雀一丁目、牟礼四丁目","lat":35.7007,"lon":139.574491},{"name":"武蔵野中央公園","province":"東京都","city":"武蔵野市","address":"東京都武蔵野市八幡町二丁目","lat":35.718669,"lon":139.55854}]}