{"keyword":"伐採","data":[{"name":"武蔵野赤十字病院","province":"東京都","city":"武蔵野市","address":"東京都武蔵野市境南町1丁目26-1","lat":35.69687727,"lon":139.54853159},{"name":"武蔵野陸上競技場","province":"東京都","city":"武蔵野市","address":"東京都武蔵野市吉祥寺北町5丁目11-20","lat":35.71788638,"lon":139.56758731},{"name":"都立武蔵野中央公園","province":"東京都","city":"武蔵野市","address":"東京都武蔵野市八幡町2丁目4-22","lat":35.718175,"lon":139.55645772},{"name":"武蔵野赤十字病院ヘリポート","province":"東京都","city":"武蔵野市","address":"東京都武蔵野市境南町1丁目26-1","lat":35.69687727,"lon":139.54853159},{"name":"武蔵野赤十字病院","province":"東京都","city":"武蔵野市","address":"東京都武蔵野市境南町1丁目26-1","lat":35.69687727,"lon":139.54853159},{"name":"武蔵野陸上競技場","province":"東京都","city":"武蔵野市","address":"東京都武蔵野市吉祥寺北町5丁目11-20","lat":35.71788638,"lon":139.56758731},{"name":"都立武蔵野中央公園","province":"東京都","city":"武蔵野市","address":"東京都武蔵野市八幡町2丁目4-22","lat":35.718175,"lon":139.55645772},{"name":"武蔵野赤十字病院ヘリポート","province":"東京都","city":"武蔵野市","address":"東京都武蔵野市境南町1丁目26-1","lat":35.69687727,"lon":139.54853159},{"name":"武蔵野赤十字病院","province":"東京都","city":"武蔵野市","address":"東京都武蔵野市境南町1丁目26-1","lat":35.69687727,"lon":139.54853159},{"name":"武蔵野陸上競技場","province":"東京都","city":"武蔵野市","address":"東京都武蔵野市吉祥寺北町5丁目11-20","lat":35.71788638,"lon":139.56758731},{"name":"都立武蔵野中央公園","province":"東京都","city":"武蔵野市","address":"東京都武蔵野市八幡町2丁目4-22","lat":35.718175,"lon":139.55645772},{"name":"武蔵野赤十字病院ヘリポート","province":"東京都","city":"武蔵野市","address":"東京都武蔵野市境南町1丁目26-1","lat":35.69687727,"lon":139.54853159},{"name":"武蔵野赤十字病院","province":"東京都","city":"武蔵野市","address":"東京都武蔵野市境南町1丁目26-1","lat":35.69687727,"lon":139.54853159},{"name":"武蔵野赤十字病院","province":"東京都","city":"武蔵野市","address":"東京都武蔵野市境南町1丁目26-1","lat":35.69687727,"lon":139.54853159},{"name":"武蔵野赤十字病院","province":"東京都","city":"武蔵野市","address":"東京都武蔵野市境南町1丁目26-1","lat":35.69687727,"lon":139.54853159},{"name":"武蔵野赤十字病院","province":"東京都","city":"武蔵野市","address":"東京都武蔵野市境南町1丁目26-1","lat":35.69687727,"lon":139.54853159},{"name":"武蔵野赤十字病院","province":"東京都","city":"武蔵野市","address":"東京都武蔵野市境南町1丁目26-1","lat":35.69687727,"lon":139.54853159},{"name":"武蔵野赤十字病院","province":"東京都","city":"武蔵野市","address":"東京都武蔵野市境南町1丁目26-1","lat":35.69687727,"lon":139.54853159},{"name":"武蔵野赤十字病院","province":"東京都","city":"武蔵野市","address":"東京都武蔵野市境南町1丁目26-1","lat":35.69687727,"lon":139.54853159},{"name":"武蔵野赤十字病院","province":"東京都","city":"武蔵野市","address":"東京都武蔵野市境南町1丁目26-1","lat":35.69687727,"lon":139.54853159},{"name":"武蔵野赤十字病院","province":"東京都","city":"武蔵野市","address":"東京都武蔵野市境南町1丁目26-1","lat":35.69687727,"lon":139.54853159},{"name":"武蔵野赤十字病院","province":"東京都","city":"武蔵野市","address":"東京都武蔵野市境南町1丁目26-1","lat":35.69687727,"lon":139.54853159},{"name":"武蔵野赤十字病院","province":"東京都","city":"武蔵野市","address":"東京都武蔵野市境南町1丁目26-1","lat":35.69687727,"lon":139.54853159},{"name":"武蔵野赤十字病院","province":"東京都","city":"武蔵野市","address":"東京都武蔵野市境南町1丁目26-1","lat":35.69687727,"lon":139.54853159},{"name":"武蔵野赤十字病院","province":"東京都","city":"武蔵野市","address":"東京都武蔵野市境南町1丁目26-1","lat":35.69687727,"lon":139.54853159},{"name":"武蔵野赤十字病院","province":"東京都","city":"武蔵野市","address":"東京都武蔵野市境南町1丁目26-1","lat":35.69687727,"lon":139.54853159},{"name":"武蔵野赤十字病院","province":"東京都","city":"武蔵野市","address":"東京都武蔵野市境南町1丁目26-1","lat":35.69687727,"lon":139.54853159},{"name":"武蔵野赤十字病院","province":"東京都","city":"武蔵野市","address":"東京都武蔵野市境南町1丁目26-1","lat":35.69687727,"lon":139.54853159},{"name":"武蔵野赤十字病院","province":"東京都","city":"武蔵野市","address":"東京都武蔵野市境南町1丁目26-1","lat":35.69687727,"lon":139.54853159},{"name":"武蔵野赤十字病院","province":"東京都","city":"武蔵野市","address":"東京都武蔵野市境南町1丁目26-1","lat":35.69687727,"lon":139.54853159},{"name":"武蔵野赤十字病院","province":"東京都","city":"武蔵野市","address":"東京都武蔵野市境南町1丁目26-1","lat":35.69687727,"lon":139.54853159},{"name":"武蔵野赤十字病院","province":"東京都","city":"武蔵野市","address":"東京都武蔵野市境南町1丁目26-1","lat":35.69687727,"lon":139.54853159},{"name":"武蔵野赤十字病院","province":"東京都","city":"武蔵野市","address":"東京都武蔵野市境南町1丁目26-1","lat":35.69687727,"lon":139.54853159},{"name":"武蔵野赤十字病院","province":"東京都","city":"武蔵野市","address":"東京都武蔵野市境南町1丁目26-1","lat":35.69687727,"lon":139.54853159},{"name":"武蔵野赤十字病院","province":"東京都","city":"武蔵野市","address":"東京都武蔵野市境南町1丁目26-1","lat":35.69687727,"lon":139.54853159},{"name":"武蔵野赤十字病院","province":"東京都","city":"武蔵野市","address":"東京都武蔵野市境南町1丁目26-1","lat":35.69687727,"lon":139.54853159},{"name":"武蔵野赤十字病院","province":"東京都","city":"武蔵野市","address":"東京都武蔵野市境南町1丁目26-1","lat":35.69687727,"lon":139.54853159},{"name":"武蔵野赤十字病院","province":"東京都","city":"武蔵野市","address":"東京都武蔵野市境南町1丁目26-1","lat":35.69687727,"lon":139.54853159},{"name":"武蔵野赤十字病院","province":"東京都","city":"武蔵野市","address":"東京都武蔵野市境南町1丁目26-1","lat":35.69687727,"lon":139.54853159},{"name":"武蔵野赤十字病院","province":"東京都","city":"武蔵野市","address":"東京都武蔵野市境南町1丁目26-1","lat":35.69687727,"lon":139.54853159},{"name":"武蔵野赤十字病院","province":"東京都","city":"武蔵野市","address":"東京都武蔵野市境南町1丁目26-1","lat":35.69687727,"lon":139.54853159},{"name":"武蔵野赤十字病院","province":"東京都","city":"武蔵野市","address":"東京都武蔵野市境南町1丁目26-1","lat":35.69687727,"lon":139.54853159},{"name":"武蔵野赤十字病院","province":"東京都","city":"武蔵野市","address":"東京都武蔵野市境南町1丁目26-1","lat":35.69687727,"lon":139.54853159},{"name":"武蔵野赤十字病院","province":"東京都","city":"武蔵野市","address":"東京都武蔵野市境南町1丁目26-1","lat":35.69687727,"lon":139.54853159}]}