{"keyword":"保育","data":[{"name":"吉祥寺保育園","province":"東京都","city":"武蔵野市","address":"武蔵野市吉祥寺北町5-11-51","lat":35.71797,"lon":139.569654},{"name":"北町保育園","province":"東京都","city":"武蔵野市","address":"武蔵野市吉祥寺北町1-23-17","lat":35.712198,"lon":139.577448},{"name":"東保育園","province":"東京都","city":"武蔵野市","address":"武蔵野市吉祥寺東町3-28-3","lat":35.706572,"lon":139.590883},{"name":"マミー吉祥寺東保育園","province":"東京都","city":"武蔵野市","address":"武蔵野市吉祥寺東町3-1-2","lat":35.704322,"lon":139.58637},{"name":"南保育園","province":"東京都","city":"武蔵野市","address":"武蔵野市吉祥寺南町3-6-15","lat":35.699433,"lon":139.58592},{"name":"まちの保育園　吉祥寺","province":"東京都","city":"武蔵野市","address":"武蔵野市吉祥寺本町3-27-13","lat":35.704032,"lon":139.56758},{"name":"うぃず吉祥寺第一保育園","province":"東京都","city":"武蔵野市","address":"武蔵野市吉祥寺本町2-35-12","lat":35.703635,"lon":139.574246},{"name":"うぃず吉祥寺第二保育園","province":"東京都","city":"武蔵野市","address":"武蔵野市吉祥寺本町2-23-4","lat":35.703335,"lon":139.574598},{"name":"武蔵野赤十字保育園","province":"東京都","city":"武蔵野市","address":"武蔵野市中町3-25-7","lat":35.708199,"lon":139.568235},{"name":"精華第一保育園","province":"東京都","city":"武蔵野市","address":"武蔵野市中町2-31-8","lat":35.705291,"lon":139.56761},{"name":"千川保育園","province":"東京都","city":"武蔵野市","address":"武蔵野市八幡町1-4-13","lat":35.716125,"lon":139.556063},{"name":"ニチイキッズ武蔵野やはた保育園","province":"東京都","city":"武蔵野市","address":"武蔵野市八幡町1-2-25","lat":35.716609,"lon":139.558291},{"name":"ふじの実保育園","province":"東京都","city":"武蔵野市","address":"武蔵野市緑町3-4-3","lat":35.720886,"lon":139.565287},{"name":"西久保保育園","province":"東京都","city":"武蔵野市","address":"武蔵野市西久保2-18-6","lat":35.709154,"lon":139.557283},{"name":"ありんこ保育園","province":"東京都","city":"武蔵野市","address":"武蔵野市西久保1-11-10","lat":35.704404,"lon":139.558289},{"name":"精華第二保育園","province":"東京都","city":"武蔵野市","address":"武蔵野市西久保2-15-3","lat":35.708623,"lon":139.558661},{"name":"キッズガーデン武蔵野関前","province":"東京都","city":"武蔵野市","address":"武蔵野市関前3-4-11アビタシオン武蔵野1階","lat":35.71397,"lon":139.556608},{"name":"桜堤保育園","province":"東京都","city":"武蔵野市","address":"武蔵野市桜堤2-1-27","lat":35.70794,"lon":139.532444},{"name":"境こども園","province":"東京都","city":"武蔵野市","address":"武蔵野市境4-11-6","lat":35.709887,"lon":139.539037},{"name":"境保育園","province":"東京都","city":"武蔵野市","address":"武蔵野市境4-11-3","lat":35.709984,"lon":139.53926},{"name":"武蔵境コスモ保育園","province":"東京都","city":"武蔵野市","address":"武蔵野市境1-20-5","lat":35.705046,"lon":139.547706},{"name":"ひまわり保育園","province":"東京都","city":"武蔵野市","address":"武蔵野市境4-7-12","lat":35.706876,"lon":139.541276},{"name":"境南保育園","province":"東京都","city":"武蔵野市","address":"武蔵野市境南町5-1-1","lat":35.697047,"lon":139.540782},{"name":"境南第２保育園","province":"東京都","city":"武蔵野市","address":"武蔵野市境南町2-20-17","lat":35.697741,"lon":139.54204},{"name":"グローバルキッズ武蔵境園","province":"東京都","city":"武蔵野市","address":"武蔵野市境南町4-2-19","lat":35.701882,"lon":139.535474},{"name":"境南すみれ保育園","province":"東京都","city":"武蔵野市","address":"武蔵野市境南町1-21-6","lat":35.698949,"lon":139.550145}]}