{"keyword":"医薬","data":[{"name":"武蔵野市","province":"東京都","city":"武蔵野市","address":"武蔵野市緑町2-2-28","lat":35.7178369,"lon":139.5659378},{"name":"玉川上水緑道","province":"東京都","city":"武蔵野市","address":"東京都武蔵野市境3丁目6","lat":35.709387,"lon":139.543974},{"name":"井の頭恩賜公園","province":"東京都","city":"武蔵野市","address":"東京都武蔵野市御殿山1丁目19","lat":35.699434,"lon":139.571379},{"name":"井の頭恩賜公園","province":"東京都","city":"武蔵野市","address":"東京都武蔵野市御殿山1丁目19","lat":35.699433,"lon":139.571379},{"name":"井の頭恩賜公園","province":"東京都","city":"武蔵野市","address":"東京都武蔵野市御殿山1丁目18","lat":35.700648,"lon":139.573718},{"name":"井の頭恩賜公園","province":"東京都","city":"武蔵野市","address":"東京都武蔵野市御殿山1丁目18","lat":35.700846,"lon":139.574472},{"name":"井の頭恩賜公園","province":"東京都","city":"武蔵野市","address":"東京都武蔵野市御殿山1丁目19","lat":35.699428,"lon":139.571345},{"name":"小金井公園","province":"東京都","city":"武蔵野市","address":"東京都武蔵野市桜堤3丁目21-1","lat":35.71404,"lon":139.527767},{"name":"小金井公園","province":"東京都","city":"武蔵野市","address":"東京都武蔵野市桜堤3丁目8","lat":35.713908,"lon":139.526692},{"name":"武蔵野中央公園","province":"東京都","city":"武蔵野市","address":"東京都武蔵野市八幡町2丁目4","lat":35.718037,"lon":139.556673},{"name":"武蔵野中央公園","province":"東京都","city":"武蔵野市","address":"東京都武蔵野市八幡町2丁目4","lat":35.717275,"lon":139.558496},{"name":"武蔵野中央公園","province":"東京都","city":"武蔵野市","address":"東京都武蔵野市八幡町2丁目4","lat":35.719302,"lon":139.560332},{"name":"井の頭自然文化園","province":"東京都","city":"武蔵野市","address":"東京都武蔵野市御殿山1丁目17","lat":35.701015,"lon":139.572365},{"name":"井の頭自然文化園","province":"東京都","city":"武蔵野市","address":"東京都武蔵野市御殿山1丁目17","lat":35.700359,"lon":139.571377},{"name":"井の頭自然文化園","province":"東京都","city":"武蔵野市","address":"東京都武蔵野市御殿山1丁目17","lat":35.701206,"lon":139.56985},{"name":"井の頭自然文化園","province":"東京都","city":"武蔵野市","address":"東京都武蔵野市御殿山1丁目17","lat":35.702242,"lon":139.570267},{"name":"井の頭自然文化園","province":"東京都","city":"武蔵野市","address":"東京都武蔵野市御殿山1丁目17","lat":35.700425,"lon":139.569227},{"name":"武蔵野消防署","province":"東京都","city":"武蔵野市","address":"東京都武蔵野市吉祥寺北町4丁目6-1","lat":35.71165,"lon":139.567311},{"name":"武蔵野消防署武蔵境出張所","province":"東京都","city":"武蔵野市","address":"東京都武蔵野市境南町1丁目26-38","lat":35.695988,"lon":139.546944},{"name":"武蔵野消防署吉祥寺出張所","province":"東京都","city":"武蔵野市","address":"東京都武蔵野市吉祥寺東町1丁目1-21","lat":35.707205,"lon":139.58012},{"name":"西久保公園","province":"東京都","city":"武蔵野市","address":"東京都武蔵野市西久保1丁目43","lat":35.705974,"lon":139.553659},{"name":"武蔵野市役所本庁舎","province":"東京都","city":"武蔵野市","address":"東京都武蔵野市緑町2丁目2-28","lat":35.717857,"lon":139.566017},{"name":"武蔵野市役所本庁舎","province":"東京都","city":"武蔵野市","address":"東京都武蔵野市緑町2丁目2-28","lat":35.717629,"lon":139.565918},{"name":"中央市政センター","province":"東京都","city":"武蔵野市","address":"東京都武蔵野市中町1丁目2-8","lat":35.7037,"lon":139.559772},{"name":"吉祥寺市政センター","province":"東京都","city":"武蔵野市","address":"東京都武蔵野市吉祥寺本町1丁目10-7","lat":35.705776,"lon":139.578917},{"name":"武蔵野市立武蔵野商工会館","province":"東京都","city":"武蔵野市","address":"東京都武蔵野市吉祥寺本町1丁目10-7","lat":35.705759,"lon":139.578978},{"name":"武蔵野市立武蔵野商工会館","province":"東京都","city":"武蔵野市","address":"東京都武蔵野市吉祥寺本町1丁目10-7","lat":35.705778,"lon":139.578929},{"name":"吉祥寺東コミュニティセンター","province":"東京都","city":"武蔵野市","address":"東京都武蔵野市吉祥寺東町1丁目12","lat":35.707681,"lon":139.58403},{"name":"本宿コミュニティセンター","province":"東京都","city":"武蔵野市","address":"東京都武蔵野市吉祥寺東町3丁目25-2","lat":35.704047,"lon":139.590046},{"name":"吉祥寺南町コミュニティセンター","province":"東京都","city":"武蔵野市","address":"東京都武蔵野市吉祥寺南町3丁目13-1","lat":35.699206,"lon":139.586628},{"name":"御殿山コミュニティセンター","province":"東京都","city":"武蔵野市","address":"東京都武蔵野市御殿山1丁目5-11","lat":35.702284,"lon":139.57583},{"name":"本町コミュニティセンター","province":"東京都","city":"武蔵野市","address":"東京都武蔵野市吉祥寺本町1丁目22","lat":35.704455,"lon":139.581971},{"name":"吉祥寺西コミュニティセンター","province":"東京都","city":"武蔵野市","address":"東京都武蔵野市吉祥寺本町3丁目20-17","lat":35.705789,"lon":139.570014},{"name":"吉祥寺北コミュニティセンター","province":"東京都","city":"武蔵野市","address":"東京都武蔵野市吉祥寺北町1丁目22-10","lat":35.712271,"lon":139.578005},{"name":"けやきコミュニティセンター","province":"東京都","city":"武蔵野市","address":"東京都武蔵野市吉祥寺北町5丁目6-19","lat":35.717833,"lon":139.571726},{"name":"中央コミュニティセンター","province":"東京都","city":"武蔵野市","address":"東京都武蔵野市中町3丁目5-17","lat":35.711135,"lon":139.564999},{"name":"西久保コミュニティセンター","province":"東京都","city":"武蔵野市","address":"東京都武蔵野市西久保1丁目23-7","lat":35.705981,"lon":139.556916},{"name":"緑町コミュニティセンター","province":"東京都","city":"武蔵野市","address":"東京都武蔵野市緑町3丁目1-17","lat":35.720033,"lon":139.565766},{"name":"八幡町コミュニティセンター","province":"東京都","city":"武蔵野市","address":"東京都武蔵野市八幡町3丁目3-16","lat":35.71699,"lon":139.552463},{"name":"八幡町コミュニティセンター","province":"東京都","city":"武蔵野市","address":"東京都武蔵野市八幡町3丁目3-16","lat":35.716983,"lon":139.552392},{"name":"関前コミュニティセンター","province":"東京都","city":"武蔵野市","address":"東京都武蔵野市関前2丁目26-10","lat":35.712854,"lon":139.549135},{"name":"西部コミュニティセンター","province":"東京都","city":"武蔵野市","address":"東京都武蔵野市境5丁目6-20","lat":35.706446,"lon":139.535561},{"name":"西部コミュニティセンター","province":"東京都","city":"武蔵野市","address":"東京都武蔵野市境5丁目6-20","lat":35.706446,"lon":139.535581},{"name":"桜堤コミュニティセンター","province":"東京都","city":"武蔵野市","address":"東京都武蔵野市桜堤3丁目3-11","lat":35.714848,"lon":139.528861},{"name":"市民会館","province":"東京都","city":"武蔵野市","address":"東京都武蔵野市境2丁目3-7","lat":35.70527,"lon":139.543419},{"name":"市民会館","province":"東京都","city":"武蔵野市","address":"東京都武蔵野市境2丁目3-7","lat":35.705288,"lon":139.543419},{"name":"境南コミュニティセンター","province":"東京都","city":"武蔵野市","address":"東京都武蔵野市境南町3丁目22-9","lat":35.698249,"lon":139.540109},{"name":"武蔵野市立保健センター","province":"東京都","city":"武蔵野市","address":"東京都武蔵野市吉祥寺北町4丁目8-10","lat":35.712866,"lon":139.566532},{"name":"武蔵野市立中央図書館","province":"東京都","city":"武蔵野市","address":"東京都武蔵野市吉祥寺北町4丁目8-3","lat":35.712507,"lon":139.566331},{"name":"武蔵野市立中央図書館","province":"東京都","city":"武蔵野市","address":"東京都武蔵野市吉祥寺北町4丁目8-3","lat":35.712482,"lon":139.566319},{"name":"武蔵野市立吉祥寺図書館","province":"東京都","city":"武蔵野市","address":"東京都武蔵野市吉祥寺本町1丁目21-13","lat":35.70501,"lon":139.582381},{"name":"武蔵野プレイス（図書館、会議出、スタジオ等複合施設）","province":"東京都","city":"武蔵野市","address":"東京都武蔵野市境南町2丁目3-18","lat":35.701022,"lon":139.543796},{"name":"武蔵野プレイス（図書館、会議出、スタジオ等複合施設）","province":"東京都","city":"武蔵野市","address":"東京都武蔵野市境南町2丁目3-18","lat":35.701094,"lon":139.543762},{"name":"武蔵野三鷹地域センター","province":"東京都","city":"武蔵野市","address":"東京都武蔵野市西久保3丁目1-22","lat":35.710772,"lon":139.562684},{"name":"武蔵野ふるさと歴史館","province":"東京都","city":"武蔵野市","address":"東京都武蔵野市境5丁目15-5","lat":35.702255,"lon":139.53473},{"name":"武蔵野市民文化会館","province":"東京都","city":"武蔵野市","address":"東京都武蔵野市中町3丁目9-11","lat":35.711548,"lon":139.56572},{"name":"武蔵野市民文化会館","province":"東京都","city":"武蔵野市","address":"東京都武蔵野市中町3丁目9-11","lat":35.711465,"lon":139.565666},{"name":"武蔵野市民文化会館","province":"東京都","city":"武蔵野市","address":"東京都武蔵野市中町3丁目9-11","lat":35.71161,"lon":139.566195},{"name":"武蔵野スイングホール","province":"東京都","city":"武蔵野市","address":"東京都武蔵野市境2丁目14-1","lat":35.702512,"lon":139.542911},{"name":"武蔵野スイングホール","province":"東京都","city":"武蔵野市","address":"東京都武蔵野市境2丁目14-1","lat":35.702845,"lon":139.542946},{"name":"武蔵野芸能劇場","province":"東京都","city":"武蔵野市","address":"東京都武蔵野市中町1丁目15-10","lat":35.703173,"lon":139.561613},{"name":"武蔵野芸能劇場","province":"東京都","city":"武蔵野市","address":"東京都武蔵野市中町1丁目15-10","lat":35.703105,"lon":139.561405},{"name":"武蔵野公会堂","province":"東京都","city":"武蔵野市","address":"東京都武蔵野市吉祥寺南町1丁目6","lat":35.701542,"lon":139.579636},{"name":"吉祥寺シアター","province":"東京都","city":"武蔵野市","address":"東京都武蔵野市吉祥寺本町1丁目33-22","lat":35.703833,"lon":139.583314},{"name":"かたらいの道市民スペース","province":"東京都","city":"武蔵野市","address":"東京都武蔵野市中町1丁目11-16","lat":35.705025,"lon":139.561509},{"name":"武蔵野市立吉祥寺美術館","province":"東京都","city":"武蔵野市","address":"東京都武蔵野市吉祥寺本町1丁目11-5","lat":35.704803,"lon":139.579048},{"name":"農業ふれあい公園","province":"東京都","city":"武蔵野市","address":"東京都武蔵野市関前5丁目19","lat":35.711103,"lon":139.540131},{"name":"むさしの市民公園","province":"東京都","city":"武蔵野市","address":"東京都武蔵野市緑町2丁目2","lat":35.716678,"lon":139.565725},{"name":"関前公園","province":"東京都","city":"武蔵野市","address":"東京都武蔵野市関前3丁目14","lat":35.713294,"lon":139.554647},{"name":"市民の森公園","province":"東京都","city":"武蔵野市","address":"東京都武蔵野市関前3丁目32","lat":35.714122,"lon":139.550758},{"name":"本田東公園","province":"東京都","city":"武蔵野市","address":"東京都武蔵野市吉祥寺東町4丁目18","lat":35.703961,"lon":139.594095},{"name":"玉川上水緑道","province":"東京都","city":"武蔵野市","address":"東京都武蔵野市境3丁目6","lat":35.709382,"lon":139.543973},{"name":"大野田公園","province":"東京都","city":"武蔵野市","address":"東京都武蔵野市吉祥寺北町4丁目11","lat":35.714489,"lon":139.566932},{"name":"吉祥寺東町農業公園","province":"東京都","city":"武蔵野市","address":"東京都武蔵野市吉祥寺東町3丁目15","lat":35.704356,"lon":139.587998},{"name":"吉祥寺駅南口公衆トイレ","province":"東京都","city":"武蔵野市","address":"東京都武蔵野市吉祥寺南町2丁目2","lat":35.70238,"lon":139.58025},{"name":"武蔵境駅南口公衆トイレ","province":"東京都","city":"武蔵野市","address":"東京都武蔵野市境南町2丁目1-13","lat":35.701798,"lon":139.543605},{"name":"桜堤公衆トイレ","province":"東京都","city":"武蔵野市","address":"東京都武蔵野市桜堤2丁目1-18","lat":35.70927,"lon":139.533012},{"name":"武蔵野総合体育館","province":"東京都","city":"武蔵野市","address":"東京都武蔵野市吉祥寺北町5丁目11-20","lat":35.717939,"lon":139.567535},{"name":"武蔵野総合体育館","province":"東京都","city":"武蔵野市","address":"東京都武蔵野市吉祥寺北町5丁目11-20","lat":35.717303,"lon":139.567273},{"name":"武蔵野総合体育館","province":"東京都","city":"武蔵野市","address":"東京都武蔵野市吉祥寺北町5丁目11-20","lat":35.717662,"lon":139.567516},{"name":"武蔵野総合体育館","province":"東京都","city":"武蔵野市","address":"東京都武蔵野市吉祥寺北町5丁目11-20","lat":35.717577,"lon":139.567498},{"name":"武蔵野陸上競技場","province":"東京都","city":"武蔵野市","address":"東京都武蔵野市吉祥寺北町5丁目11","lat":35.717743,"lon":139.567755},{"name":"武蔵野クリーンセンター","province":"東京都","city":"武蔵野市","address":"東京都武蔵野市緑町3丁目1","lat":35.719095,"lon":139.566081},{"name":"武蔵野クリーンセンター","province":"東京都","city":"武蔵野市","address":"東京都武蔵野市緑町3丁目1-5","lat":35.718439,"lon":139.566568},{"name":"第一浄水場","province":"東京都","city":"武蔵野市","address":"東京都武蔵野市吉祥寺北町4-11-46","lat":35.7152429,"lon":139.566641},{"name":"第二浄水場","province":"東京都","city":"武蔵野市","address":"東京都武蔵野市桜堤1-6-6","lat":35.709673,"lon":139.53636},{"name":"井の頭自然文化園（都立）","province":"東京都","city":"武蔵野市","address":"武蔵野市御殿山一丁目17番、三鷹市井の頭四丁目1番(管理所:武蔵野市御殿山一丁目17-6)","lat":35.70062013,"lon":139.5727332},{"name":"柳橋","province":"東京都","city":"武蔵野市","address":"東京都武蔵野市関前4丁目9-6","lat":35.71390857,"lon":139.54426177},{"name":"八幡宮前","province":"東京都","city":"武蔵野市","address":"東京都武蔵野市吉祥寺北町1丁目1-1","lat":35.70768778,"lon":139.57936447},{"name":"成蹊学園前","province":"東京都","city":"武蔵野市","address":"東京都武蔵野市吉祥寺北町3丁目4-4","lat":35.70982628,"lon":139.57273719},{"name":"吉祥寺駅南口","province":"東京都","city":"武蔵野市","address":"東京都武蔵野市吉祥寺南町1丁目2-7","lat":35.7021773,"lon":139.57981188},{"name":"昭和通り","province":"東京都","city":"武蔵野市","address":"東京都武蔵野市吉祥寺本町2丁目3-1","lat":35.70503805,"lon":139.57783694},{"name":"武蔵野中央","province":"東京都","city":"武蔵野市","address":"東京都武蔵野市吉祥寺北町4丁目13-5","lat":35.71290632,"lon":139.56433503},{"name":"境南町二丁目","province":"東京都","city":"武蔵野市","address":"東京都武蔵野市境南町2丁目27-1","lat":35.69778541,"lon":139.54415695},{"name":"八幡町四丁目","province":"東京都","city":"武蔵野市","address":"東京都武蔵野市八幡町4丁目1-6","lat":35.71834718,"lon":139.55548001},{"name":"西久保三丁目","province":"東京都","city":"武蔵野市","address":"東京都武蔵野市緑町1丁目4-19","lat":35.71427001,"lon":139.56194908},{"name":"武蔵野市営プール前","province":"東京都","city":"武蔵野市","address":"東京都武蔵野市吉祥寺北町5丁目11-30","lat":35.71970841,"lon":139.56803997},{"name":"武蔵野警察署前","province":"東京都","city":"武蔵野市","address":"東京都武蔵野市中町1丁目11-4","lat":35.70555431,"lon":139.5608801},{"name":"吉祥寺駅前","province":"東京都","city":"武蔵野市","address":"東京都武蔵野市吉祥寺南町1丁目1-10","lat":35.70291328,"lon":139.57760649},{"name":"関前橋","province":"東京都","city":"武蔵野市","address":"東京都武蔵野市八幡町2丁目3-10","lat":35.71979428,"lon":139.55733535},{"name":"武蔵野市立三中入口","province":"東京都","city":"武蔵野市","address":"東京都武蔵野市吉祥寺東町1丁目18-19","lat":35.70514929,"lon":139.58430582},{"name":"日本獣医大前","province":"東京都","city":"武蔵野市","address":"東京都武蔵野市境南町2丁目2-20","lat":35.70121006,"lon":139.54586777},{"name":"吉祥寺本町一丁目","province":"東京都","city":"武蔵野市","address":"東京都武蔵野市吉祥寺本町1丁目37-8","lat":35.70371339,"lon":139.58626961},{"name":"武蔵野五小入口","province":"東京都","city":"武蔵野市","address":"東京都武蔵野市関前3丁目3-14","lat":35.71374498,"lon":139.55747727},{"name":"武蔵野大学","province":"東京都","city":"武蔵野市","address":"東京都武蔵野市八幡町3丁目8-7","lat":35.71683614,"lon":139.55066661},{"name":"境二丁目第一","province":"東京都","city":"武蔵野市","address":"東京都武蔵野市境2丁目7-1","lat":35.70459295,"lon":139.54319563},{"name":"境二丁目第二","province":"東京都","city":"武蔵野市","address":"東京都武蔵野市境2丁目2-17","lat":35.70420134,"lon":139.54395948},{"name":"中央通り","province":"東京都","city":"武蔵野市","address":"東京都武蔵野市中町2丁目4-15","lat":35.70679308,"lon":139.56185774},{"name":"武蔵野赤十字前","province":"東京都","city":"武蔵野市","address":"東京都武蔵野市境南町1丁目26-1","lat":35.69687727,"lon":139.54853159},{"name":"千川小前","province":"東京都","city":"武蔵野市","address":"東京都武蔵野市八幡町3丁目5-25","lat":35.718561,"lon":139.55351074},{"name":"武蔵野緑町","province":"東京都","city":"武蔵野市","address":"東京都武蔵野市吉祥寺北町4丁目13-16","lat":35.71432283,"lon":139.56484604},{"name":"境一丁目","province":"東京都","city":"武蔵野市","address":"東京都武蔵野市境1丁目19-1","lat":35.70439582,"lon":139.54662868},{"name":"武蔵野市立高齢者総合センター前","province":"東京都","city":"武蔵野市","address":"東京都武蔵野市緑町1丁目3-17","lat":35.71495606,"lon":139.5627212},{"name":"吉祥寺南町第二","province":"東京都","city":"武蔵野市","address":"東京都武蔵野市吉祥寺本町2丁目2-17","lat":35.70368263,"lon":139.5772787},{"name":"武蔵野市民文化会館前","province":"東京都","city":"武蔵野市","address":"東京都武蔵野市中町3丁目9-11","lat":35.71150095,"lon":139.56584885},{"name":"武蔵野欅橋","province":"東京都","city":"武蔵野市","address":"東京都武蔵野市中町1丁目3-1","lat":35.70382947,"lon":139.55909423},{"name":"吉祥寺駅南口第二","province":"東京都","city":"武蔵野市","address":"東京都武蔵野市吉祥寺南町1丁目2-3","lat":35.70208566,"lon":139.58011741},{"name":"吉祥寺南町三丁目","province":"東京都","city":"武蔵野市","address":"東京都武蔵野市吉祥寺南町3丁目13-2","lat":35.69855843,"lon":139.58629759},{"name":"境南小学校裏","province":"東京都","city":"武蔵野市","address":"東京都武蔵野市境南町2丁目11","lat":35.69860479,"lon":139.54582344},{"name":"吉祥寺駅東口交番","province":"東京都","city":"武蔵野市","address":"東京都武蔵野市吉祥寺本町1丁目17-12","lat":35.7035244,"lon":139.58108394},{"name":"吉祥寺駅北","province":"東京都","city":"武蔵野市","address":"東京都武蔵野市吉祥寺東町1丁目7-1","lat":35.70641576,"lon":139.58168377},{"name":"武蔵野中町二丁目","province":"東京都","city":"武蔵野市","address":"東京都武蔵野市中町2丁目9-32","lat":35.70732086,"lon":139.56512686},{"name":"吉祥寺駅北第二","province":"東京都","city":"武蔵野市","address":"東京都武蔵野市吉祥寺東町1丁目6-27","lat":35.70642131,"lon":139.58140602},{"name":"自然文化園前","province":"東京都","city":"武蔵野市","address":"東京都武蔵野市御殿山1丁目17","lat":35.70006898,"lon":139.56964063},{"name":"商工会館前","province":"東京都","city":"武蔵野市","address":"東京都武蔵野市吉祥寺本町1丁目10-5","lat":35.70538247,"lon":139.57861741},{"name":"本町新道","province":"東京都","city":"武蔵野市","address":"東京都武蔵野市吉祥寺本町1丁目13-10","lat":35.70475482,"lon":139.58083669},{"name":"万助橋北","province":"東京都","city":"武蔵野市","address":"東京都武蔵野市御殿山1丁目17","lat":35.70006898,"lon":139.56964063},{"name":"中町新道","province":"東京都","city":"武蔵野市","address":"東京都武蔵野市中町1丁目21-8","lat":35.70339347,"lon":139.56217175},{"name":"境南町三丁目","province":"東京都","city":"武蔵野市","address":"東京都武蔵野市境南町3丁目23-15","lat":35.69792699,"lon":139.54134053},{"name":"三谷通り入口","province":"東京都","city":"武蔵野市","address":"東京都武蔵野市西久保1丁目6-14","lat":35.70742075,"lon":139.55973846},{"name":"大野田小学校裏","province":"東京都","city":"武蔵野市","address":"東京都武蔵野市緑町2丁目2-28","lat":35.71783358,"lon":139.56594579},{"name":"武蔵野緑町二丁目","province":"東京都","city":"武蔵野市","address":"東京都武蔵野市緑町2丁目4","lat":35.71587537,"lon":139.56161847},{"name":"武蔵野市役所前","province":"東京都","city":"武蔵野市","address":"東京都武蔵野市吉祥寺北町5丁目11-20","lat":35.71788638,"lon":139.56758731},{"name":"吉祥寺南町二丁目","province":"東京都","city":"武蔵野市","address":"東京都武蔵野市吉祥寺南町1丁目31-2","lat":35.70060256,"lon":139.58346718},{"name":"電通研裏","province":"東京都","city":"武蔵野市","address":"東京都武蔵野市緑町3丁目3-6","lat":35.72053605,"lon":139.5661151},{"name":"武蔵野簡易裁判所前","province":"東京都","city":"武蔵野市","address":"東京都武蔵野市中町2丁目9-32","lat":35.70732086,"lon":139.56512686},{"name":"武蔵境駅南口","province":"東京都","city":"武蔵野市","address":"東京都武蔵野市境南町2丁目3-6","lat":35.70110449,"lon":139.54472343},{"name":"中町一丁目","province":"東京都","city":"武蔵野市","address":"東京都武蔵野市中町1丁目11-1","lat":35.70510714,"lon":139.56065514},{"name":"本町新道第二","province":"東京都","city":"武蔵野市","address":"東京都武蔵野市吉祥寺本町1丁目13-1","lat":35.70486313,"lon":139.58050616},{"name":"西久保二丁目","province":"東京都","city":"武蔵野市","address":"東京都武蔵野市西久保1丁目39-5","lat":35.7081067,"lon":139.5560721},{"name":"御殿山一丁目","province":"東京都","city":"武蔵野市","address":"東京都武蔵野市御殿山1丁目3-7","lat":35.70179948,"lon":139.57612055},{"name":"井の頭公園入口","province":"東京都","city":"武蔵野市","address":"東京都武蔵野市御殿山1丁目7-12","lat":35.70127449,"lon":139.57424295},{"name":"武蔵野稲荷神社前","province":"東京都","city":"武蔵野市","address":"東京都武蔵野市緑町1丁目6-6","lat":35.71361448,"lon":139.55979652},{"name":"天文台踏切南","province":"東京都","city":"武蔵野市","address":"東京都武蔵野市境南町2丁目5-8","lat":35.70102944,"lon":139.54210699},{"name":"中町三丁目","province":"東京都","city":"武蔵野市","address":"東京都武蔵野市西久保3丁目1-1","lat":35.70959832,"lon":139.56213815},{"name":"市立南保育園前","province":"東京都","city":"武蔵野市","address":"東京都武蔵野市吉祥寺南町4丁目2-13","lat":35.6997694,"lon":139.58643086},{"name":"武蔵野警察署南","province":"東京都","city":"武蔵野市","address":"東京都武蔵野市西久保1丁目4-11","lat":35.70534875,"lon":139.55971911},{"name":"境南三丁目第二","province":"東京都","city":"武蔵野市","address":"東京都武蔵野市境南町3丁目22-9","lat":35.69823804,"lon":139.54014062},{"name":"吉祥寺南町三丁目第二","province":"東京都","city":"武蔵野市","address":"東京都武蔵野市吉祥寺南町4丁目10-12","lat":35.69922228,"lon":139.58797242},{"name":"吉祥寺南町東第二","province":"東京都","city":"武蔵野市","address":"東京都武蔵野市吉祥寺南町1丁目5-3","lat":35.70267722,"lon":139.57861752},{"name":"吉祥寺南町二丁目第二","province":"東京都","city":"武蔵野市","address":"東京都武蔵野市吉祥寺南町2丁目29-13","lat":35.70023321,"lon":139.58534204},{"name":"井の頭高架東第二","province":"東京都","city":"武蔵野市","address":"東京都武蔵野市吉祥寺南町2丁目13-18","lat":35.70124137,"lon":139.58272555},{"name":"聖徳学園前","province":"東京都","city":"武蔵野市","address":"東京都武蔵野市境南町2丁目9-13","lat":35.69956298,"lon":139.5440541},{"name":"武蔵野水道部前","province":"東京都","city":"武蔵野市","address":"東京都武蔵野市吉祥寺北町4丁目11-46","lat":35.71395903,"lon":139.56650423},{"name":"吉祥寺末広通り","province":"東京都","city":"武蔵野市","address":"東京都武蔵野市吉祥寺南町2丁目2-3","lat":35.7022051,"lon":139.58054237},{"name":"武蔵境駅南口第二","province":"東京都","city":"武蔵野市","address":"東京都武蔵野市境南町2丁目3-16","lat":35.70107392,"lon":139.54416792},{"name":"大正通り","province":"東京都","city":"武蔵野市","address":"東京都武蔵野市吉祥寺本町1丁目8-12","lat":35.7051575,"lon":139.57857575},{"name":"元町","province":"東京都","city":"武蔵野市","address":"東京都武蔵野市吉祥寺本町1丁目8-10","lat":35.70490196,"lon":139.57844522},{"name":"三谷通り入口東","province":"東京都","city":"武蔵野市","address":"東京都武蔵野市西久保1丁目6-17","lat":35.70732077,"lon":139.56035507},{"name":"中央通り北","province":"東京都","city":"武蔵野市","address":"東京都武蔵野市西久保2丁目2-12","lat":35.70850677,"lon":139.56152991},{"name":"武蔵野五小入口第二","province":"東京都","city":"武蔵野市","address":"東京都武蔵野市西久保3丁目26-5","lat":35.71375054,"lon":139.55787723},{"name":"大野田小前","province":"東京都","city":"武蔵野市","address":"東京都武蔵野市吉祥寺北町4丁目10-14","lat":35.71567552,"lon":139.56788182},{"name":"武蔵野市役所裏","province":"東京都","city":"武蔵野市","address":"東京都武蔵野市緑町3丁目1-5","lat":35.71865294,"lon":139.56653181},{"name":"吉祥寺東町一丁目","province":"東京都","city":"武蔵野市","address":"東京都武蔵野市吉祥寺東町1丁目10-18","lat":35.70593806,"lon":139.58270315},{"name":"関前五丁目","province":"東京都","city":"武蔵野市","address":"東京都武蔵野市関前5丁目11-11","lat":35.71271699,"lon":139.54152318},{"name":"武蔵野北高前","province":"東京都","city":"武蔵野市","address":"東京都武蔵野市八幡町2丁目3-10","lat":35.71979428,"lon":139.55733535},{"name":"境南町三丁目北","province":"東京都","city":"武蔵野市","address":"東京都武蔵野市境南町2丁目6","lat":35.70020175,"lon":139.54214313},{"name":"境一丁目第二","province":"東京都","city":"武蔵野市","address":"東京都武蔵野市境1丁目4-9","lat":35.70412082,"lon":139.54512327},{"name":"武蔵野赤十字病院前","province":"東京都","city":"武蔵野市","address":"東京都武蔵野市境南町1丁目26-1","lat":35.69687727,"lon":139.54853159},{"name":"市立境南第二保育園北","province":"東京都","city":"武蔵野市","address":"東京都武蔵野市境南町2丁目20-17","lat":35.69774092,"lon":139.54204047},{"name":"武蔵野障害者センター入口","province":"東京都","city":"武蔵野市","address":"東京都武蔵野市緑町2丁目1-36","lat":35.71581156,"lon":139.56506539},{"name":"日本獣医大東","province":"東京都","city":"武蔵野市","address":"東京都武蔵野市境南町1丁目6-8","lat":35.70103514,"lon":139.54890084},{"name":"吉祥寺大通り","province":"東京都","city":"武蔵野市","address":"東京都武蔵野市吉祥寺本町1丁目18-2","lat":35.70426321,"lon":139.58103392},{"name":"武蔵境駅東第一","province":"東京都","city":"武蔵野市","address":"東京都武蔵野市境1丁目1","lat":35.70237377,"lon":139.5444373},{"name":"成蹊学園前第二","province":"東京都","city":"武蔵野市","address":"東京都武蔵野市吉祥寺本町4丁目26-17","lat":35.70961241,"lon":139.57236778},{"name":"むらさき橋","province":"東京都","city":"武蔵野市","address":"東京都武蔵野市御殿山2丁目13","lat":35.70166875,"lon":139.56677417},{"name":"武蔵野赤十字病院","province":"東京都","city":"武蔵野市","address":"東京都武蔵野市境南町1丁目26-1","lat":35.69687727,"lon":139.54853159},{"name":"第一浄水場","province":"東京都","city":"武蔵野市","address":"東京都武蔵野市吉祥寺北町4丁目11-46","lat":35.71395903,"lon":139.56650423},{"name":"第二浄水場","province":"東京都","city":"武蔵野市","address":"東京都武蔵野市桜堤1丁目6-6","lat":35.70967278,"lon":139.53635988},{"name":"武蔵野市保健センター","province":"東京都","city":"武蔵野市","address":"東京都武蔵野市吉祥寺北町4丁目8-10","lat":35.71292303,"lon":139.56658205},{"name":"武蔵野市立武蔵野総合体育館","province":"東京都","city":"武蔵野市","address":"東京都武蔵野市吉祥寺北町5丁目11-20","lat":35.71788638,"lon":139.56758731},{"name":"武蔵野市本庁舎","province":"東京都","city":"武蔵野市","address":"武蔵野市緑町2-2-28","lat":35.717837,"lon":139.565938},{"name":"武蔵野警察署","province":"東京都","city":"武蔵野市","address":"武蔵野市中町2-1-2","lat":35.70601,"lon":139.5609},{"name":"武蔵野消防署","province":"東京都","city":"武蔵野市","address":"武蔵野市吉祥寺北町4-6-1","lat":35.71169,"lon":139.5675},{"name":"武蔵野地区","province":"東京都","city":"武蔵野市","address":"武蔵野市中町3-7-1","lat":35.70875,"lon":139.5643},{"name":"献血供給事業団本部","province":"東京都","city":"武蔵野市","address":"武蔵野市境南町1-26-1","lat":35.696886,"lon":139.548571},{"name":"都立武蔵野中央公園（原っぱ広場）","province":"東京都","city":"武蔵野市","address":"武蔵野市八幡町2丁目地内","lat":35.71818,"lon":139.5565},{"name":"武蔵野赤十字病院ヘリポート","province":"東京都","city":"武蔵野市","address":"武蔵野市境南町1-26-1","lat":35.696886,"lon":139.548571},{"name":"西部公園緑地事務所","province":"東京都","city":"武蔵野市","address":"武蔵野市御殿山1-17-59","lat":35.70114,"lon":139.573},{"name":"東京電力（株）武蔵野支社","province":"東京都","city":"武蔵野市","address":"武蔵野市西久保1-6-24","lat":35.70672,"lon":139.5603},{"name":"吉祥寺駅","province":"東京都","city":"武蔵野市","address":"東京都武蔵野市吉祥寺南町1丁目1-24","lat":35.70304942,"lon":139.57954798},{"name":"武蔵野市","province":"東京都","city":"武蔵野市","address":"武蔵野市緑町2-2-28","lat":35.7178369,"lon":139.5659378},{"name":"玉川上水緑道","province":"東京都","city":"武蔵野市","address":"東京都武蔵野市境3丁目6","lat":35.709387,"lon":139.543974},{"name":"井の頭恩賜公園","province":"東京都","city":"武蔵野市","address":"東京都武蔵野市御殿山1丁目19","lat":35.699434,"lon":139.571379},{"name":"井の頭恩賜公園","province":"東京都","city":"武蔵野市","address":"東京都武蔵野市御殿山1丁目19","lat":35.699433,"lon":139.571379},{"name":"井の頭恩賜公園","province":"東京都","city":"武蔵野市","address":"東京都武蔵野市御殿山1丁目18","lat":35.700648,"lon":139.573718},{"name":"井の頭恩賜公園","province":"東京都","city":"武蔵野市","address":"東京都武蔵野市御殿山1丁目18","lat":35.700846,"lon":139.574472},{"name":"井の頭恩賜公園","province":"東京都","city":"武蔵野市","address":"東京都武蔵野市御殿山1丁目19","lat":35.699428,"lon":139.571345},{"name":"小金井公園","province":"東京都","city":"武蔵野市","address":"東京都武蔵野市桜堤3丁目21-1","lat":35.71404,"lon":139.527767},{"name":"小金井公園","province":"東京都","city":"武蔵野市","address":"東京都武蔵野市桜堤3丁目8","lat":35.713908,"lon":139.526692},{"name":"武蔵野中央公園","province":"東京都","city":"武蔵野市","address":"東京都武蔵野市八幡町2丁目4","lat":35.718037,"lon":139.556673},{"name":"武蔵野中央公園","province":"東京都","city":"武蔵野市","address":"東京都武蔵野市八幡町2丁目4","lat":35.717275,"lon":139.558496},{"name":"武蔵野中央公園","province":"東京都","city":"武蔵野市","address":"東京都武蔵野市八幡町2丁目4","lat":35.719302,"lon":139.560332},{"name":"井の頭自然文化園","province":"東京都","city":"武蔵野市","address":"東京都武蔵野市御殿山1丁目17","lat":35.701015,"lon":139.572365},{"name":"井の頭自然文化園","province":"東京都","city":"武蔵野市","address":"東京都武蔵野市御殿山1丁目17","lat":35.700359,"lon":139.571377},{"name":"井の頭自然文化園","province":"東京都","city":"武蔵野市","address":"東京都武蔵野市御殿山1丁目17","lat":35.701206,"lon":139.56985},{"name":"井の頭自然文化園","province":"東京都","city":"武蔵野市","address":"東京都武蔵野市御殿山1丁目17","lat":35.702242,"lon":139.570267},{"name":"井の頭自然文化園","province":"東京都","city":"武蔵野市","address":"東京都武蔵野市御殿山1丁目17","lat":35.700425,"lon":139.569227},{"name":"武蔵野消防署","province":"東京都","city":"武蔵野市","address":"東京都武蔵野市吉祥寺北町4丁目6-1","lat":35.71165,"lon":139.567311},{"name":"武蔵野消防署武蔵境出張所","province":"東京都","city":"武蔵野市","address":"東京都武蔵野市境南町1丁目26-38","lat":35.695988,"lon":139.546944},{"name":"武蔵野消防署吉祥寺出張所","province":"東京都","city":"武蔵野市","address":"東京都武蔵野市吉祥寺東町1丁目1-21","lat":35.707205,"lon":139.58012},{"name":"西久保公園","province":"東京都","city":"武蔵野市","address":"東京都武蔵野市西久保1丁目43","lat":35.705974,"lon":139.553659},{"name":"武蔵野市役所本庁舎","province":"東京都","city":"武蔵野市","address":"東京都武蔵野市緑町2丁目2-28","lat":35.717857,"lon":139.566017},{"name":"武蔵野市役所本庁舎","province":"東京都","city":"武蔵野市","address":"東京都武蔵野市緑町2丁目2-28","lat":35.717629,"lon":139.565918},{"name":"中央市政センター","province":"東京都","city":"武蔵野市","address":"東京都武蔵野市中町1丁目2-8","lat":35.7037,"lon":139.559772},{"name":"吉祥寺市政センター","province":"東京都","city":"武蔵野市","address":"東京都武蔵野市吉祥寺本町1丁目10-7","lat":35.705776,"lon":139.578917},{"name":"武蔵野市立武蔵野商工会館","province":"東京都","city":"武蔵野市","address":"東京都武蔵野市吉祥寺本町1丁目10-7","lat":35.705759,"lon":139.578978},{"name":"武蔵野市立武蔵野商工会館","province":"東京都","city":"武蔵野市","address":"東京都武蔵野市吉祥寺本町1丁目10-7","lat":35.705778,"lon":139.578929},{"name":"吉祥寺東コミュニティセンター","province":"東京都","city":"武蔵野市","address":"東京都武蔵野市吉祥寺東町1丁目12","lat":35.707681,"lon":139.58403},{"name":"本宿コミュニティセンター","province":"東京都","city":"武蔵野市","address":"東京都武蔵野市吉祥寺東町3丁目25-2","lat":35.704047,"lon":139.590046},{"name":"吉祥寺南町コミュニティセンター","province":"東京都","city":"武蔵野市","address":"東京都武蔵野市吉祥寺南町3丁目13-1","lat":35.699206,"lon":139.586628},{"name":"御殿山コミュニティセンター","province":"東京都","city":"武蔵野市","address":"東京都武蔵野市御殿山1丁目5-11","lat":35.702284,"lon":139.57583},{"name":"本町コミュニティセンター","province":"東京都","city":"武蔵野市","address":"東京都武蔵野市吉祥寺本町1丁目22","lat":35.704455,"lon":139.581971},{"name":"吉祥寺西コミュニティセンター","province":"東京都","city":"武蔵野市","address":"東京都武蔵野市吉祥寺本町3丁目20-17","lat":35.705789,"lon":139.570014},{"name":"吉祥寺北コミュニティセンター","province":"東京都","city":"武蔵野市","address":"東京都武蔵野市吉祥寺北町1丁目22-10","lat":35.712271,"lon":139.578005},{"name":"けやきコミュニティセンター","province":"東京都","city":"武蔵野市","address":"東京都武蔵野市吉祥寺北町5丁目6-19","lat":35.717833,"lon":139.571726},{"name":"中央コミュニティセンター","province":"東京都","city":"武蔵野市","address":"東京都武蔵野市中町3丁目5-17","lat":35.711135,"lon":139.564999},{"name":"西久保コミュニティセンター","province":"東京都","city":"武蔵野市","address":"東京都武蔵野市西久保1丁目23-7","lat":35.705981,"lon":139.556916},{"name":"緑町コミュニティセンター","province":"東京都","city":"武蔵野市","address":"東京都武蔵野市緑町3丁目1-17","lat":35.720033,"lon":139.565766},{"name":"八幡町コミュニティセンター","province":"東京都","city":"武蔵野市","address":"東京都武蔵野市八幡町3丁目3-16","lat":35.71699,"lon":139.552463},{"name":"八幡町コミュニティセンター","province":"東京都","city":"武蔵野市","address":"東京都武蔵野市八幡町3丁目3-16","lat":35.716983,"lon":139.552392},{"name":"関前コミュニティセンター","province":"東京都","city":"武蔵野市","address":"東京都武蔵野市関前2丁目26-10","lat":35.712854,"lon":139.549135},{"name":"西部コミュニティセンター","province":"東京都","city":"武蔵野市","address":"東京都武蔵野市境5丁目6-20","lat":35.706446,"lon":139.535561},{"name":"西部コミュニティセンター","province":"東京都","city":"武蔵野市","address":"東京都武蔵野市境5丁目6-20","lat":35.706446,"lon":139.535581},{"name":"桜堤コミュニティセンター","province":"東京都","city":"武蔵野市","address":"東京都武蔵野市桜堤3丁目3-11","lat":35.714848,"lon":139.528861},{"name":"市民会館","province":"東京都","city":"武蔵野市","address":"東京都武蔵野市境2丁目3-7","lat":35.70527,"lon":139.543419},{"name":"市民会館","province":"東京都","city":"武蔵野市","address":"東京都武蔵野市境2丁目3-7","lat":35.705288,"lon":139.543419},{"name":"境南コミュニティセンター","province":"東京都","city":"武蔵野市","address":"東京都武蔵野市境南町3丁目22-9","lat":35.698249,"lon":139.540109},{"name":"武蔵野市立保健センター","province":"東京都","city":"武蔵野市","address":"東京都武蔵野市吉祥寺北町4丁目8-10","lat":35.712866,"lon":139.566532},{"name":"武蔵野市立中央図書館","province":"東京都","city":"武蔵野市","address":"東京都武蔵野市吉祥寺北町4丁目8-3","lat":35.712507,"lon":139.566331},{"name":"武蔵野市立中央図書館","province":"東京都","city":"武蔵野市","address":"東京都武蔵野市吉祥寺北町4丁目8-3","lat":35.712482,"lon":139.566319},{"name":"武蔵野市立吉祥寺図書館","province":"東京都","city":"武蔵野市","address":"東京都武蔵野市吉祥寺本町1丁目21-13","lat":35.70501,"lon":139.582381},{"name":"武蔵野プレイス（図書館、会議出、スタジオ等複合施設）","province":"東京都","city":"武蔵野市","address":"東京都武蔵野市境南町2丁目3-18","lat":35.701022,"lon":139.543796},{"name":"武蔵野プレイス（図書館、会議出、スタジオ等複合施設）","province":"東京都","city":"武蔵野市","address":"東京都武蔵野市境南町2丁目3-18","lat":35.701094,"lon":139.543762},{"name":"武蔵野三鷹地域センター","province":"東京都","city":"武蔵野市","address":"東京都武蔵野市西久保3丁目1-22","lat":35.710772,"lon":139.562684},{"name":"武蔵野ふるさと歴史館","province":"東京都","city":"武蔵野市","address":"東京都武蔵野市境5丁目15-5","lat":35.702255,"lon":139.53473},{"name":"武蔵野市民文化会館","province":"東京都","city":"武蔵野市","address":"東京都武蔵野市中町3丁目9-11","lat":35.711548,"lon":139.56572},{"name":"武蔵野市民文化会館","province":"東京都","city":"武蔵野市","address":"東京都武蔵野市中町3丁目9-11","lat":35.711465,"lon":139.565666},{"name":"武蔵野市民文化会館","province":"東京都","city":"武蔵野市","address":"東京都武蔵野市中町3丁目9-11","lat":35.71161,"lon":139.566195},{"name":"武蔵野スイングホール","province":"東京都","city":"武蔵野市","address":"東京都武蔵野市境2丁目14-1","lat":35.702512,"lon":139.542911},{"name":"武蔵野スイングホール","province":"東京都","city":"武蔵野市","address":"東京都武蔵野市境2丁目14-1","lat":35.702845,"lon":139.542946},{"name":"武蔵野芸能劇場","province":"東京都","city":"武蔵野市","address":"東京都武蔵野市中町1丁目15-10","lat":35.703173,"lon":139.561613},{"name":"武蔵野芸能劇場","province":"東京都","city":"武蔵野市","address":"東京都武蔵野市中町1丁目15-10","lat":35.703105,"lon":139.561405},{"name":"武蔵野公会堂","province":"東京都","city":"武蔵野市","address":"東京都武蔵野市吉祥寺南町1丁目6","lat":35.701542,"lon":139.579636},{"name":"吉祥寺シアター","province":"東京都","city":"武蔵野市","address":"東京都武蔵野市吉祥寺本町1丁目33-22","lat":35.703833,"lon":139.583314},{"name":"かたらいの道市民スペース","province":"東京都","city":"武蔵野市","address":"東京都武蔵野市中町1丁目11-16","lat":35.705025,"lon":139.561509},{"name":"武蔵野市立吉祥寺美術館","province":"東京都","city":"武蔵野市","address":"東京都武蔵野市吉祥寺本町1丁目11-5","lat":35.704803,"lon":139.579048},{"name":"農業ふれあい公園","province":"東京都","city":"武蔵野市","address":"東京都武蔵野市関前5丁目19","lat":35.711103,"lon":139.540131},{"name":"むさしの市民公園","province":"東京都","city":"武蔵野市","address":"東京都武蔵野市緑町2丁目2","lat":35.716678,"lon":139.565725},{"name":"関前公園","province":"東京都","city":"武蔵野市","address":"東京都武蔵野市関前3丁目14","lat":35.713294,"lon":139.554647},{"name":"市民の森公園","province":"東京都","city":"武蔵野市","address":"東京都武蔵野市関前3丁目32","lat":35.714122,"lon":139.550758},{"name":"本田東公園","province":"東京都","city":"武蔵野市","address":"東京都武蔵野市吉祥寺東町4丁目18","lat":35.703961,"lon":139.594095},{"name":"玉川上水緑道","province":"東京都","city":"武蔵野市","address":"東京都武蔵野市境3丁目6","lat":35.709382,"lon":139.543973},{"name":"大野田公園","province":"東京都","city":"武蔵野市","address":"東京都武蔵野市吉祥寺北町4丁目11","lat":35.714489,"lon":139.566932},{"name":"吉祥寺東町農業公園","province":"東京都","city":"武蔵野市","address":"東京都武蔵野市吉祥寺東町3丁目15","lat":35.704356,"lon":139.587998},{"name":"吉祥寺駅南口公衆トイレ","province":"東京都","city":"武蔵野市","address":"東京都武蔵野市吉祥寺南町2丁目2","lat":35.70238,"lon":139.58025},{"name":"武蔵境駅南口公衆トイレ","province":"東京都","city":"武蔵野市","address":"東京都武蔵野市境南町2丁目1-13","lat":35.701798,"lon":139.543605},{"name":"桜堤公衆トイレ","province":"東京都","city":"武蔵野市","address":"東京都武蔵野市桜堤2丁目1-18","lat":35.70927,"lon":139.533012},{"name":"武蔵野総合体育館","province":"東京都","city":"武蔵野市","address":"東京都武蔵野市吉祥寺北町5丁目11-20","lat":35.717939,"lon":139.567535},{"name":"武蔵野総合体育館","province":"東京都","city":"武蔵野市","address":"東京都武蔵野市吉祥寺北町5丁目11-20","lat":35.717303,"lon":139.567273},{"name":"武蔵野総合体育館","province":"東京都","city":"武蔵野市","address":"東京都武蔵野市吉祥寺北町5丁目11-20","lat":35.717662,"lon":139.567516},{"name":"武蔵野総合体育館","province":"東京都","city":"武蔵野市","address":"東京都武蔵野市吉祥寺北町5丁目11-20","lat":35.717577,"lon":139.567498},{"name":"武蔵野陸上競技場","province":"東京都","city":"武蔵野市","address":"東京都武蔵野市吉祥寺北町5丁目11","lat":35.717743,"lon":139.567755},{"name":"武蔵野クリーンセンター","province":"東京都","city":"武蔵野市","address":"東京都武蔵野市緑町3丁目1","lat":35.719095,"lon":139.566081},{"name":"武蔵野クリーンセンター","province":"東京都","city":"武蔵野市","address":"東京都武蔵野市緑町3丁目1-5","lat":35.718439,"lon":139.566568},{"name":"第一浄水場","province":"東京都","city":"武蔵野市","address":"東京都武蔵野市吉祥寺北町4-11-46","lat":35.7152429,"lon":139.566641},{"name":"第二浄水場","province":"東京都","city":"武蔵野市","address":"東京都武蔵野市桜堤1-6-6","lat":35.709673,"lon":139.53636},{"name":"井の頭自然文化園（都立）","province":"東京都","city":"武蔵野市","address":"武蔵野市御殿山一丁目17番、三鷹市井の頭四丁目1番(管理所:武蔵野市御殿山一丁目17-6)","lat":35.70062013,"lon":139.5727332},{"name":"柳橋","province":"東京都","city":"武蔵野市","address":"東京都武蔵野市関前4丁目9-6","lat":35.71390857,"lon":139.54426177},{"name":"八幡宮前","province":"東京都","city":"武蔵野市","address":"東京都武蔵野市吉祥寺北町1丁目1-1","lat":35.70768778,"lon":139.57936447},{"name":"成蹊学園前","province":"東京都","city":"武蔵野市","address":"東京都武蔵野市吉祥寺北町3丁目4-4","lat":35.70982628,"lon":139.57273719},{"name":"吉祥寺駅南口","province":"東京都","city":"武蔵野市","address":"東京都武蔵野市吉祥寺南町1丁目2-7","lat":35.7021773,"lon":139.57981188},{"name":"昭和通り","province":"東京都","city":"武蔵野市","address":"東京都武蔵野市吉祥寺本町2丁目3-1","lat":35.70503805,"lon":139.57783694},{"name":"武蔵野中央","province":"東京都","city":"武蔵野市","address":"東京都武蔵野市吉祥寺北町4丁目13-5","lat":35.71290632,"lon":139.56433503},{"name":"境南町二丁目","province":"東京都","city":"武蔵野市","address":"東京都武蔵野市境南町2丁目27-1","lat":35.69778541,"lon":139.54415695},{"name":"八幡町四丁目","province":"東京都","city":"武蔵野市","address":"東京都武蔵野市八幡町4丁目1-6","lat":35.71834718,"lon":139.55548001},{"name":"西久保三丁目","province":"東京都","city":"武蔵野市","address":"東京都武蔵野市緑町1丁目4-19","lat":35.71427001,"lon":139.56194908},{"name":"武蔵野市営プール前","province":"東京都","city":"武蔵野市","address":"東京都武蔵野市吉祥寺北町5丁目11-30","lat":35.71970841,"lon":139.56803997},{"name":"武蔵野警察署前","province":"東京都","city":"武蔵野市","address":"東京都武蔵野市中町1丁目11-4","lat":35.70555431,"lon":139.5608801},{"name":"吉祥寺駅前","province":"東京都","city":"武蔵野市","address":"東京都武蔵野市吉祥寺南町1丁目1-10","lat":35.70291328,"lon":139.57760649},{"name":"関前橋","province":"東京都","city":"武蔵野市","address":"東京都武蔵野市八幡町2丁目3-10","lat":35.71979428,"lon":139.55733535},{"name":"武蔵野市立三中入口","province":"東京都","city":"武蔵野市","address":"東京都武蔵野市吉祥寺東町1丁目18-19","lat":35.70514929,"lon":139.58430582},{"name":"日本獣医大前","province":"東京都","city":"武蔵野市","address":"東京都武蔵野市境南町2丁目2-20","lat":35.70121006,"lon":139.54586777},{"name":"吉祥寺本町一丁目","province":"東京都","city":"武蔵野市","address":"東京都武蔵野市吉祥寺本町1丁目37-8","lat":35.70371339,"lon":139.58626961},{"name":"武蔵野五小入口","province":"東京都","city":"武蔵野市","address":"東京都武蔵野市関前3丁目3-14","lat":35.71374498,"lon":139.55747727},{"name":"武蔵野大学","province":"東京都","city":"武蔵野市","address":"東京都武蔵野市八幡町3丁目8-7","lat":35.71683614,"lon":139.55066661},{"name":"境二丁目第一","province":"東京都","city":"武蔵野市","address":"東京都武蔵野市境2丁目7-1","lat":35.70459295,"lon":139.54319563},{"name":"境二丁目第二","province":"東京都","city":"武蔵野市","address":"東京都武蔵野市境2丁目2-17","lat":35.70420134,"lon":139.54395948},{"name":"中央通り","province":"東京都","city":"武蔵野市","address":"東京都武蔵野市中町2丁目4-15","lat":35.70679308,"lon":139.56185774},{"name":"武蔵野赤十字前","province":"東京都","city":"武蔵野市","address":"東京都武蔵野市境南町1丁目26-1","lat":35.69687727,"lon":139.54853159},{"name":"千川小前","province":"東京都","city":"武蔵野市","address":"東京都武蔵野市八幡町3丁目5-25","lat":35.718561,"lon":139.55351074},{"name":"武蔵野緑町","province":"東京都","city":"武蔵野市","address":"東京都武蔵野市吉祥寺北町4丁目13-16","lat":35.71432283,"lon":139.56484604},{"name":"境一丁目","province":"東京都","city":"武蔵野市","address":"東京都武蔵野市境1丁目19-1","lat":35.70439582,"lon":139.54662868},{"name":"武蔵野市立高齢者総合センター前","province":"東京都","city":"武蔵野市","address":"東京都武蔵野市緑町1丁目3-17","lat":35.71495606,"lon":139.5627212},{"name":"吉祥寺南町第二","province":"東京都","city":"武蔵野市","address":"東京都武蔵野市吉祥寺本町2丁目2-17","lat":35.70368263,"lon":139.5772787},{"name":"武蔵野市民文化会館前","province":"東京都","city":"武蔵野市","address":"東京都武蔵野市中町3丁目9-11","lat":35.71150095,"lon":139.56584885},{"name":"武蔵野欅橋","province":"東京都","city":"武蔵野市","address":"東京都武蔵野市中町1丁目3-1","lat":35.70382947,"lon":139.55909423},{"name":"吉祥寺駅南口第二","province":"東京都","city":"武蔵野市","address":"東京都武蔵野市吉祥寺南町1丁目2-3","lat":35.70208566,"lon":139.58011741},{"name":"吉祥寺南町三丁目","province":"東京都","city":"武蔵野市","address":"東京都武蔵野市吉祥寺南町3丁目13-2","lat":35.69855843,"lon":139.58629759},{"name":"境南小学校裏","province":"東京都","city":"武蔵野市","address":"東京都武蔵野市境南町2丁目11","lat":35.69860479,"lon":139.54582344},{"name":"吉祥寺駅東口交番","province":"東京都","city":"武蔵野市","address":"東京都武蔵野市吉祥寺本町1丁目17-12","lat":35.7035244,"lon":139.58108394},{"name":"吉祥寺駅北","province":"東京都","city":"武蔵野市","address":"東京都武蔵野市吉祥寺東町1丁目7-1","lat":35.70641576,"lon":139.58168377},{"name":"武蔵野中町二丁目","province":"東京都","city":"武蔵野市","address":"東京都武蔵野市中町2丁目9-32","lat":35.70732086,"lon":139.56512686},{"name":"吉祥寺駅北第二","province":"東京都","city":"武蔵野市","address":"東京都武蔵野市吉祥寺東町1丁目6-27","lat":35.70642131,"lon":139.58140602},{"name":"自然文化園前","province":"東京都","city":"武蔵野市","address":"東京都武蔵野市御殿山1丁目17","lat":35.70006898,"lon":139.56964063},{"name":"商工会館前","province":"東京都","city":"武蔵野市","address":"東京都武蔵野市吉祥寺本町1丁目10-5","lat":35.70538247,"lon":139.57861741},{"name":"本町新道","province":"東京都","city":"武蔵野市","address":"東京都武蔵野市吉祥寺本町1丁目13-10","lat":35.70475482,"lon":139.58083669},{"name":"万助橋北","province":"東京都","city":"武蔵野市","address":"東京都武蔵野市御殿山1丁目17","lat":35.70006898,"lon":139.56964063},{"name":"中町新道","province":"東京都","city":"武蔵野市","address":"東京都武蔵野市中町1丁目21-8","lat":35.70339347,"lon":139.56217175},{"name":"境南町三丁目","province":"東京都","city":"武蔵野市","address":"東京都武蔵野市境南町3丁目23-15","lat":35.69792699,"lon":139.54134053},{"name":"三谷通り入口","province":"東京都","city":"武蔵野市","address":"東京都武蔵野市西久保1丁目6-14","lat":35.70742075,"lon":139.55973846},{"name":"大野田小学校裏","province":"東京都","city":"武蔵野市","address":"東京都武蔵野市緑町2丁目2-28","lat":35.71783358,"lon":139.56594579},{"name":"武蔵野緑町二丁目","province":"東京都","city":"武蔵野市","address":"東京都武蔵野市緑町2丁目4","lat":35.71587537,"lon":139.56161847},{"name":"武蔵野市役所前","province":"東京都","city":"武蔵野市","address":"東京都武蔵野市吉祥寺北町5丁目11-20","lat":35.71788638,"lon":139.56758731},{"name":"吉祥寺南町二丁目","province":"東京都","city":"武蔵野市","address":"東京都武蔵野市吉祥寺南町1丁目31-2","lat":35.70060256,"lon":139.58346718},{"name":"電通研裏","province":"東京都","city":"武蔵野市","address":"東京都武蔵野市緑町3丁目3-6","lat":35.72053605,"lon":139.5661151},{"name":"武蔵野簡易裁判所前","province":"東京都","city":"武蔵野市","address":"東京都武蔵野市中町2丁目9-32","lat":35.70732086,"lon":139.56512686},{"name":"武蔵境駅南口","province":"東京都","city":"武蔵野市","address":"東京都武蔵野市境南町2丁目3-6","lat":35.70110449,"lon":139.54472343},{"name":"中町一丁目","province":"東京都","city":"武蔵野市","address":"東京都武蔵野市中町1丁目11-1","lat":35.70510714,"lon":139.56065514},{"name":"本町新道第二","province":"東京都","city":"武蔵野市","address":"東京都武蔵野市吉祥寺本町1丁目13-1","lat":35.70486313,"lon":139.58050616},{"name":"西久保二丁目","province":"東京都","city":"武蔵野市","address":"東京都武蔵野市西久保1丁目39-5","lat":35.7081067,"lon":139.5560721},{"name":"御殿山一丁目","province":"東京都","city":"武蔵野市","address":"東京都武蔵野市御殿山1丁目3-7","lat":35.70179948,"lon":139.57612055},{"name":"井の頭公園入口","province":"東京都","city":"武蔵野市","address":"東京都武蔵野市御殿山1丁目7-12","lat":35.70127449,"lon":139.57424295},{"name":"武蔵野稲荷神社前","province":"東京都","city":"武蔵野市","address":"東京都武蔵野市緑町1丁目6-6","lat":35.71361448,"lon":139.55979652},{"name":"天文台踏切南","province":"東京都","city":"武蔵野市","address":"東京都武蔵野市境南町2丁目5-8","lat":35.70102944,"lon":139.54210699},{"name":"中町三丁目","province":"東京都","city":"武蔵野市","address":"東京都武蔵野市西久保3丁目1-1","lat":35.70959832,"lon":139.56213815},{"name":"市立南保育園前","province":"東京都","city":"武蔵野市","address":"東京都武蔵野市吉祥寺南町4丁目2-13","lat":35.6997694,"lon":139.58643086},{"name":"武蔵野警察署南","province":"東京都","city":"武蔵野市","address":"東京都武蔵野市西久保1丁目4-11","lat":35.70534875,"lon":139.55971911},{"name":"境南三丁目第二","province":"東京都","city":"武蔵野市","address":"東京都武蔵野市境南町3丁目22-9","lat":35.69823804,"lon":139.54014062},{"name":"吉祥寺南町三丁目第二","province":"東京都","city":"武蔵野市","address":"東京都武蔵野市吉祥寺南町4丁目10-12","lat":35.69922228,"lon":139.58797242},{"name":"吉祥寺南町東第二","province":"東京都","city":"武蔵野市","address":"東京都武蔵野市吉祥寺南町1丁目5-3","lat":35.70267722,"lon":139.57861752},{"name":"吉祥寺南町二丁目第二","province":"東京都","city":"武蔵野市","address":"東京都武蔵野市吉祥寺南町2丁目29-13","lat":35.70023321,"lon":139.58534204},{"name":"井の頭高架東第二","province":"東京都","city":"武蔵野市","address":"東京都武蔵野市吉祥寺南町2丁目13-18","lat":35.70124137,"lon":139.58272555},{"name":"聖徳学園前","province":"東京都","city":"武蔵野市","address":"東京都武蔵野市境南町2丁目9-13","lat":35.69956298,"lon":139.5440541},{"name":"武蔵野水道部前","province":"東京都","city":"武蔵野市","address":"東京都武蔵野市吉祥寺北町4丁目11-46","lat":35.71395903,"lon":139.56650423},{"name":"吉祥寺末広通り","province":"東京都","city":"武蔵野市","address":"東京都武蔵野市吉祥寺南町2丁目2-3","lat":35.7022051,"lon":139.58054237},{"name":"武蔵境駅南口第二","province":"東京都","city":"武蔵野市","address":"東京都武蔵野市境南町2丁目3-16","lat":35.70107392,"lon":139.54416792},{"name":"大正通り","province":"東京都","city":"武蔵野市","address":"東京都武蔵野市吉祥寺本町1丁目8-12","lat":35.7051575,"lon":139.57857575},{"name":"元町","province":"東京都","city":"武蔵野市","address":"東京都武蔵野市吉祥寺本町1丁目8-10","lat":35.70490196,"lon":139.57844522},{"name":"三谷通り入口東","province":"東京都","city":"武蔵野市","address":"東京都武蔵野市西久保1丁目6-17","lat":35.70732077,"lon":139.56035507},{"name":"中央通り北","province":"東京都","city":"武蔵野市","address":"東京都武蔵野市西久保2丁目2-12","lat":35.70850677,"lon":139.56152991},{"name":"武蔵野五小入口第二","province":"東京都","city":"武蔵野市","address":"東京都武蔵野市西久保3丁目26-5","lat":35.71375054,"lon":139.55787723},{"name":"大野田小前","province":"東京都","city":"武蔵野市","address":"東京都武蔵野市吉祥寺北町4丁目10-14","lat":35.71567552,"lon":139.56788182},{"name":"武蔵野市役所裏","province":"東京都","city":"武蔵野市","address":"東京都武蔵野市緑町3丁目1-5","lat":35.71865294,"lon":139.56653181},{"name":"吉祥寺東町一丁目","province":"東京都","city":"武蔵野市","address":"東京都武蔵野市吉祥寺東町1丁目10-18","lat":35.70593806,"lon":139.58270315},{"name":"関前五丁目","province":"東京都","city":"武蔵野市","address":"東京都武蔵野市関前5丁目11-11","lat":35.71271699,"lon":139.54152318},{"name":"武蔵野北高前","province":"東京都","city":"武蔵野市","address":"東京都武蔵野市八幡町2丁目3-10","lat":35.71979428,"lon":139.55733535},{"name":"境南町三丁目北","province":"東京都","city":"武蔵野市","address":"東京都武蔵野市境南町2丁目6","lat":35.70020175,"lon":139.54214313},{"name":"境一丁目第二","province":"東京都","city":"武蔵野市","address":"東京都武蔵野市境1丁目4-9","lat":35.70412082,"lon":139.54512327},{"name":"武蔵野赤十字病院前","province":"東京都","city":"武蔵野市","address":"東京都武蔵野市境南町1丁目26-1","lat":35.69687727,"lon":139.54853159},{"name":"市立境南第二保育園北","province":"東京都","city":"武蔵野市","address":"東京都武蔵野市境南町2丁目20-17","lat":35.69774092,"lon":139.54204047},{"name":"武蔵野障害者センター入口","province":"東京都","city":"武蔵野市","address":"東京都武蔵野市緑町2丁目1-36","lat":35.71581156,"lon":139.56506539},{"name":"日本獣医大東","province":"東京都","city":"武蔵野市","address":"東京都武蔵野市境南町1丁目6-8","lat":35.70103514,"lon":139.54890084},{"name":"吉祥寺大通り","province":"東京都","city":"武蔵野市","address":"東京都武蔵野市吉祥寺本町1丁目18-2","lat":35.70426321,"lon":139.58103392},{"name":"武蔵境駅東第一","province":"東京都","city":"武蔵野市","address":"東京都武蔵野市境1丁目1","lat":35.70237377,"lon":139.5444373},{"name":"成蹊学園前第二","province":"東京都","city":"武蔵野市","address":"東京都武蔵野市吉祥寺本町4丁目26-17","lat":35.70961241,"lon":139.57236778},{"name":"むらさき橋","province":"東京都","city":"武蔵野市","address":"東京都武蔵野市御殿山2丁目13","lat":35.70166875,"lon":139.56677417},{"name":"武蔵野赤十字病院","province":"東京都","city":"武蔵野市","address":"東京都武蔵野市境南町1丁目26-1","lat":35.69687727,"lon":139.54853159},{"name":"武蔵野市保健センター","province":"東京都","city":"武蔵野市","address":"東京都武蔵野市吉祥寺北町4丁目8-10","lat":35.71292303,"lon":139.56658205},{"name":"武蔵野市立武蔵野総合体育館","province":"東京都","city":"武蔵野市","address":"東京都武蔵野市吉祥寺北町5丁目11-20","lat":35.71788638,"lon":139.56758731},{"name":"武蔵野市本庁舎","province":"東京都","city":"武蔵野市","address":"武蔵野市緑町2-2-28","lat":35.717837,"lon":139.565938},{"name":"武蔵野警察署","province":"東京都","city":"武蔵野市","address":"武蔵野市中町2-1-2","lat":35.70601,"lon":139.5609},{"name":"武蔵野消防署","province":"東京都","city":"武蔵野市","address":"武蔵野市吉祥寺北町4-6-1","lat":35.71169,"lon":139.5675},{"name":"武蔵野地区","province":"東京都","city":"武蔵野市","address":"武蔵野市中町3-7-1","lat":35.70875,"lon":139.5643},{"name":"献血供給事業団本部","province":"東京都","city":"武蔵野市","address":"武蔵野市境南町1-26-1","lat":35.696886,"lon":139.548571},{"name":"都立武蔵野中央公園（原っぱ広場）","province":"東京都","city":"武蔵野市","address":"武蔵野市八幡町2丁目地内","lat":35.71818,"lon":139.5565},{"name":"武蔵野赤十字病院ヘリポート","province":"東京都","city":"武蔵野市","address":"武蔵野市境南町1-26-1","lat":35.696886,"lon":139.548571},{"name":"西部公園緑地事務所","province":"東京都","city":"武蔵野市","address":"武蔵野市御殿山1-17-59","lat":35.70114,"lon":139.573},{"name":"東京電力（株）武蔵野支社","province":"東京都","city":"武蔵野市","address":"武蔵野市西久保1-6-24","lat":35.70672,"lon":139.5603},{"name":"吉祥寺駅","province":"東京都","city":"武蔵野市","address":"東京都武蔵野市吉祥寺南町1丁目1-24","lat":35.70304942,"lon":139.57954798},{"name":"武蔵野市","province":"東京都","city":"武蔵野市","address":"武蔵野市緑町2-2-28","lat":35.7178369,"lon":139.5659378},{"name":"玉川上水緑道","province":"東京都","city":"武蔵野市","address":"東京都武蔵野市境3丁目6","lat":35.709387,"lon":139.543974},{"name":"井の頭恩賜公園","province":"東京都","city":"武蔵野市","address":"東京都武蔵野市御殿山1丁目19","lat":35.699434,"lon":139.571379},{"name":"井の頭恩賜公園","province":"東京都","city":"武蔵野市","address":"東京都武蔵野市御殿山1丁目19","lat":35.699433,"lon":139.571379},{"name":"井の頭恩賜公園","province":"東京都","city":"武蔵野市","address":"東京都武蔵野市御殿山1丁目18","lat":35.700648,"lon":139.573718},{"name":"井の頭恩賜公園","province":"東京都","city":"武蔵野市","address":"東京都武蔵野市御殿山1丁目18","lat":35.700846,"lon":139.574472},{"name":"井の頭恩賜公園","province":"東京都","city":"武蔵野市","address":"東京都武蔵野市御殿山1丁目19","lat":35.699428,"lon":139.571345},{"name":"小金井公園","province":"東京都","city":"武蔵野市","address":"東京都武蔵野市桜堤3丁目21-1","lat":35.71404,"lon":139.527767},{"name":"小金井公園","province":"東京都","city":"武蔵野市","address":"東京都武蔵野市桜堤3丁目8","lat":35.713908,"lon":139.526692},{"name":"武蔵野中央公園","province":"東京都","city":"武蔵野市","address":"東京都武蔵野市八幡町2丁目4","lat":35.718037,"lon":139.556673},{"name":"武蔵野中央公園","province":"東京都","city":"武蔵野市","address":"東京都武蔵野市八幡町2丁目4","lat":35.717275,"lon":139.558496},{"name":"武蔵野中央公園","province":"東京都","city":"武蔵野市","address":"東京都武蔵野市八幡町2丁目4","lat":35.719302,"lon":139.560332},{"name":"井の頭自然文化園","province":"東京都","city":"武蔵野市","address":"東京都武蔵野市御殿山1丁目17","lat":35.701015,"lon":139.572365},{"name":"井の頭自然文化園","province":"東京都","city":"武蔵野市","address":"東京都武蔵野市御殿山1丁目17","lat":35.700359,"lon":139.571377},{"name":"井の頭自然文化園","province":"東京都","city":"武蔵野市","address":"東京都武蔵野市御殿山1丁目17","lat":35.701206,"lon":139.56985},{"name":"井の頭自然文化園","province":"東京都","city":"武蔵野市","address":"東京都武蔵野市御殿山1丁目17","lat":35.702242,"lon":139.570267},{"name":"井の頭自然文化園","province":"東京都","city":"武蔵野市","address":"東京都武蔵野市御殿山1丁目17","lat":35.700425,"lon":139.569227},{"name":"武蔵野消防署","province":"東京都","city":"武蔵野市","address":"東京都武蔵野市吉祥寺北町4丁目6-1","lat":35.71165,"lon":139.567311},{"name":"武蔵野消防署武蔵境出張所","province":"東京都","city":"武蔵野市","address":"東京都武蔵野市境南町1丁目26-38","lat":35.695988,"lon":139.546944},{"name":"武蔵野消防署吉祥寺出張所","province":"東京都","city":"武蔵野市","address":"東京都武蔵野市吉祥寺東町1丁目1-21","lat":35.707205,"lon":139.58012},{"name":"西久保公園","province":"東京都","city":"武蔵野市","address":"東京都武蔵野市西久保1丁目43","lat":35.705974,"lon":139.553659},{"name":"武蔵野市役所本庁舎","province":"東京都","city":"武蔵野市","address":"東京都武蔵野市緑町2丁目2-28","lat":35.717857,"lon":139.566017},{"name":"武蔵野市役所本庁舎","province":"東京都","city":"武蔵野市","address":"東京都武蔵野市緑町2丁目2-28","lat":35.717629,"lon":139.565918},{"name":"中央市政センター","province":"東京都","city":"武蔵野市","address":"東京都武蔵野市中町1丁目2-8","lat":35.7037,"lon":139.559772},{"name":"吉祥寺市政センター","province":"東京都","city":"武蔵野市","address":"東京都武蔵野市吉祥寺本町1丁目10-7","lat":35.705776,"lon":139.578917},{"name":"武蔵野市立武蔵野商工会館","province":"東京都","city":"武蔵野市","address":"東京都武蔵野市吉祥寺本町1丁目10-7","lat":35.705759,"lon":139.578978},{"name":"武蔵野市立武蔵野商工会館","province":"東京都","city":"武蔵野市","address":"東京都武蔵野市吉祥寺本町1丁目10-7","lat":35.705778,"lon":139.578929},{"name":"吉祥寺東コミュニティセンター","province":"東京都","city":"武蔵野市","address":"東京都武蔵野市吉祥寺東町1丁目12","lat":35.707681,"lon":139.58403},{"name":"本宿コミュニティセンター","province":"東京都","city":"武蔵野市","address":"東京都武蔵野市吉祥寺東町3丁目25-2","lat":35.704047,"lon":139.590046},{"name":"吉祥寺南町コミュニティセンター","province":"東京都","city":"武蔵野市","address":"東京都武蔵野市吉祥寺南町3丁目13-1","lat":35.699206,"lon":139.586628},{"name":"御殿山コミュニティセンター","province":"東京都","city":"武蔵野市","address":"東京都武蔵野市御殿山1丁目5-11","lat":35.702284,"lon":139.57583},{"name":"本町コミュニティセンター","province":"東京都","city":"武蔵野市","address":"東京都武蔵野市吉祥寺本町1丁目22","lat":35.704455,"lon":139.581971},{"name":"吉祥寺西コミュニティセンター","province":"東京都","city":"武蔵野市","address":"東京都武蔵野市吉祥寺本町3丁目20-17","lat":35.705789,"lon":139.570014},{"name":"吉祥寺北コミュニティセンター","province":"東京都","city":"武蔵野市","address":"東京都武蔵野市吉祥寺北町1丁目22-10","lat":35.712271,"lon":139.578005},{"name":"けやきコミュニティセンター","province":"東京都","city":"武蔵野市","address":"東京都武蔵野市吉祥寺北町5丁目6-19","lat":35.717833,"lon":139.571726},{"name":"中央コミュニティセンター","province":"東京都","city":"武蔵野市","address":"東京都武蔵野市中町3丁目5-17","lat":35.711135,"lon":139.564999},{"name":"西久保コミュニティセンター","province":"東京都","city":"武蔵野市","address":"東京都武蔵野市西久保1丁目23-7","lat":35.705981,"lon":139.556916},{"name":"緑町コミュニティセンター","province":"東京都","city":"武蔵野市","address":"東京都武蔵野市緑町3丁目1-17","lat":35.720033,"lon":139.565766},{"name":"八幡町コミュニティセンター","province":"東京都","city":"武蔵野市","address":"東京都武蔵野市八幡町3丁目3-16","lat":35.71699,"lon":139.552463},{"name":"八幡町コミュニティセンター","province":"東京都","city":"武蔵野市","address":"東京都武蔵野市八幡町3丁目3-16","lat":35.716983,"lon":139.552392},{"name":"関前コミュニティセンター","province":"東京都","city":"武蔵野市","address":"東京都武蔵野市関前2丁目26-10","lat":35.712854,"lon":139.549135},{"name":"西部コミュニティセンター","province":"東京都","city":"武蔵野市","address":"東京都武蔵野市境5丁目6-20","lat":35.706446,"lon":139.535561},{"name":"西部コミュニティセンター","province":"東京都","city":"武蔵野市","address":"東京都武蔵野市境5丁目6-20","lat":35.706446,"lon":139.535581},{"name":"桜堤コミュニティセンター","province":"東京都","city":"武蔵野市","address":"東京都武蔵野市桜堤3丁目3-11","lat":35.714848,"lon":139.528861},{"name":"市民会館","province":"東京都","city":"武蔵野市","address":"東京都武蔵野市境2丁目3-7","lat":35.70527,"lon":139.543419},{"name":"市民会館","province":"東京都","city":"武蔵野市","address":"東京都武蔵野市境2丁目3-7","lat":35.705288,"lon":139.543419},{"name":"境南コミュニティセンター","province":"東京都","city":"武蔵野市","address":"東京都武蔵野市境南町3丁目22-9","lat":35.698249,"lon":139.540109},{"name":"武蔵野市立保健センター","province":"東京都","city":"武蔵野市","address":"東京都武蔵野市吉祥寺北町4丁目8-10","lat":35.712866,"lon":139.566532},{"name":"武蔵野市立中央図書館","province":"東京都","city":"武蔵野市","address":"東京都武蔵野市吉祥寺北町4丁目8-3","lat":35.712507,"lon":139.566331},{"name":"武蔵野市立中央図書館","province":"東京都","city":"武蔵野市","address":"東京都武蔵野市吉祥寺北町4丁目8-3","lat":35.712482,"lon":139.566319},{"name":"武蔵野市立吉祥寺図書館","province":"東京都","city":"武蔵野市","address":"東京都武蔵野市吉祥寺本町1丁目21-13","lat":35.70501,"lon":139.582381},{"name":"武蔵野プレイス（図書館、会議出、スタジオ等複合施設）","province":"東京都","city":"武蔵野市","address":"東京都武蔵野市境南町2丁目3-18","lat":35.701022,"lon":139.543796},{"name":"武蔵野プレイス（図書館、会議出、スタジオ等複合施設）","province":"東京都","city":"武蔵野市","address":"東京都武蔵野市境南町2丁目3-18","lat":35.701094,"lon":139.543762},{"name":"武蔵野三鷹地域センター","province":"東京都","city":"武蔵野市","address":"東京都武蔵野市西久保3丁目1-22","lat":35.710772,"lon":139.562684},{"name":"武蔵野ふるさと歴史館","province":"東京都","city":"武蔵野市","address":"東京都武蔵野市境5丁目15-5","lat":35.702255,"lon":139.53473},{"name":"武蔵野市民文化会館","province":"東京都","city":"武蔵野市","address":"東京都武蔵野市中町3丁目9-11","lat":35.711548,"lon":139.56572},{"name":"武蔵野市民文化会館","province":"東京都","city":"武蔵野市","address":"東京都武蔵野市中町3丁目9-11","lat":35.711465,"lon":139.565666},{"name":"武蔵野市民文化会館","province":"東京都","city":"武蔵野市","address":"東京都武蔵野市中町3丁目9-11","lat":35.71161,"lon":139.566195},{"name":"武蔵野スイングホール","province":"東京都","city":"武蔵野市","address":"東京都武蔵野市境2丁目14-1","lat":35.702512,"lon":139.542911},{"name":"武蔵野スイングホール","province":"東京都","city":"武蔵野市","address":"東京都武蔵野市境2丁目14-1","lat":35.702845,"lon":139.542946},{"name":"武蔵野芸能劇場","province":"東京都","city":"武蔵野市","address":"東京都武蔵野市中町1丁目15-10","lat":35.703173,"lon":139.561613},{"name":"武蔵野芸能劇場","province":"東京都","city":"武蔵野市","address":"東京都武蔵野市中町1丁目15-10","lat":35.703105,"lon":139.561405},{"name":"武蔵野公会堂","province":"東京都","city":"武蔵野市","address":"東京都武蔵野市吉祥寺南町1丁目6","lat":35.701542,"lon":139.579636},{"name":"吉祥寺シアター","province":"東京都","city":"武蔵野市","address":"東京都武蔵野市吉祥寺本町1丁目33-22","lat":35.703833,"lon":139.583314},{"name":"かたらいの道市民スペース","province":"東京都","city":"武蔵野市","address":"東京都武蔵野市中町1丁目11-16","lat":35.705025,"lon":139.561509},{"name":"武蔵野市立吉祥寺美術館","province":"東京都","city":"武蔵野市","address":"東京都武蔵野市吉祥寺本町1丁目11-5","lat":35.704803,"lon":139.579048},{"name":"農業ふれあい公園","province":"東京都","city":"武蔵野市","address":"東京都武蔵野市関前5丁目19","lat":35.711103,"lon":139.540131},{"name":"むさしの市民公園","province":"東京都","city":"武蔵野市","address":"東京都武蔵野市緑町2丁目2","lat":35.716678,"lon":139.565725},{"name":"関前公園","province":"東京都","city":"武蔵野市","address":"東京都武蔵野市関前3丁目14","lat":35.713294,"lon":139.554647},{"name":"市民の森公園","province":"東京都","city":"武蔵野市","address":"東京都武蔵野市関前3丁目32","lat":35.714122,"lon":139.550758},{"name":"本田東公園","province":"東京都","city":"武蔵野市","address":"東京都武蔵野市吉祥寺東町4丁目18","lat":35.703961,"lon":139.594095},{"name":"玉川上水緑道","province":"東京都","city":"武蔵野市","address":"東京都武蔵野市境3丁目6","lat":35.709382,"lon":139.543973},{"name":"大野田公園","province":"東京都","city":"武蔵野市","address":"東京都武蔵野市吉祥寺北町4丁目11","lat":35.714489,"lon":139.566932},{"name":"吉祥寺東町農業公園","province":"東京都","city":"武蔵野市","address":"東京都武蔵野市吉祥寺東町3丁目15","lat":35.704356,"lon":139.587998},{"name":"吉祥寺駅南口公衆トイレ","province":"東京都","city":"武蔵野市","address":"東京都武蔵野市吉祥寺南町2丁目2","lat":35.70238,"lon":139.58025},{"name":"武蔵境駅南口公衆トイレ","province":"東京都","city":"武蔵野市","address":"東京都武蔵野市境南町2丁目1-13","lat":35.701798,"lon":139.543605},{"name":"桜堤公衆トイレ","province":"東京都","city":"武蔵野市","address":"東京都武蔵野市桜堤2丁目1-18","lat":35.70927,"lon":139.533012},{"name":"武蔵野総合体育館","province":"東京都","city":"武蔵野市","address":"東京都武蔵野市吉祥寺北町5丁目11-20","lat":35.717939,"lon":139.567535},{"name":"武蔵野総合体育館","province":"東京都","city":"武蔵野市","address":"東京都武蔵野市吉祥寺北町5丁目11-20","lat":35.717303,"lon":139.567273},{"name":"武蔵野総合体育館","province":"東京都","city":"武蔵野市","address":"東京都武蔵野市吉祥寺北町5丁目11-20","lat":35.717662,"lon":139.567516},{"name":"武蔵野総合体育館","province":"東京都","city":"武蔵野市","address":"東京都武蔵野市吉祥寺北町5丁目11-20","lat":35.717577,"lon":139.567498},{"name":"武蔵野陸上競技場","province":"東京都","city":"武蔵野市","address":"東京都武蔵野市吉祥寺北町5丁目11","lat":35.717743,"lon":139.567755},{"name":"武蔵野クリーンセンター","province":"東京都","city":"武蔵野市","address":"東京都武蔵野市緑町3丁目1","lat":35.719095,"lon":139.566081},{"name":"武蔵野クリーンセンター","province":"東京都","city":"武蔵野市","address":"東京都武蔵野市緑町3丁目1-5","lat":35.718439,"lon":139.566568},{"name":"井の頭自然文化園（都立）","province":"東京都","city":"武蔵野市","address":"武蔵野市御殿山一丁目17番、三鷹市井の頭四丁目1番(管理所:武蔵野市御殿山一丁目17-6)","lat":35.70062013,"lon":139.5727332},{"name":"柳橋","province":"東京都","city":"武蔵野市","address":"東京都武蔵野市関前4丁目9-6","lat":35.71390857,"lon":139.54426177},{"name":"八幡宮前","province":"東京都","city":"武蔵野市","address":"東京都武蔵野市吉祥寺北町1丁目1-1","lat":35.70768778,"lon":139.57936447},{"name":"成蹊学園前","province":"東京都","city":"武蔵野市","address":"東京都武蔵野市吉祥寺北町3丁目4-4","lat":35.70982628,"lon":139.57273719},{"name":"吉祥寺駅南口","province":"東京都","city":"武蔵野市","address":"東京都武蔵野市吉祥寺南町1丁目2-7","lat":35.7021773,"lon":139.57981188},{"name":"昭和通り","province":"東京都","city":"武蔵野市","address":"東京都武蔵野市吉祥寺本町2丁目3-1","lat":35.70503805,"lon":139.57783694},{"name":"武蔵野中央","province":"東京都","city":"武蔵野市","address":"東京都武蔵野市吉祥寺北町4丁目13-5","lat":35.71290632,"lon":139.56433503},{"name":"境南町二丁目","province":"東京都","city":"武蔵野市","address":"東京都武蔵野市境南町2丁目27-1","lat":35.69778541,"lon":139.54415695},{"name":"八幡町四丁目","province":"東京都","city":"武蔵野市","address":"東京都武蔵野市八幡町4丁目1-6","lat":35.71834718,"lon":139.55548001},{"name":"西久保三丁目","province":"東京都","city":"武蔵野市","address":"東京都武蔵野市緑町1丁目4-19","lat":35.71427001,"lon":139.56194908},{"name":"武蔵野市営プール前","province":"東京都","city":"武蔵野市","address":"東京都武蔵野市吉祥寺北町5丁目11-30","lat":35.71970841,"lon":139.56803997},{"name":"武蔵野警察署前","province":"東京都","city":"武蔵野市","address":"東京都武蔵野市中町1丁目11-4","lat":35.70555431,"lon":139.5608801},{"name":"吉祥寺駅前","province":"東京都","city":"武蔵野市","address":"東京都武蔵野市吉祥寺南町1丁目1-10","lat":35.70291328,"lon":139.57760649},{"name":"関前橋","province":"東京都","city":"武蔵野市","address":"東京都武蔵野市八幡町2丁目3-10","lat":35.71979428,"lon":139.55733535},{"name":"武蔵野市立三中入口","province":"東京都","city":"武蔵野市","address":"東京都武蔵野市吉祥寺東町1丁目18-19","lat":35.70514929,"lon":139.58430582},{"name":"日本獣医大前","province":"東京都","city":"武蔵野市","address":"東京都武蔵野市境南町2丁目2-20","lat":35.70121006,"lon":139.54586777},{"name":"吉祥寺本町一丁目","province":"東京都","city":"武蔵野市","address":"東京都武蔵野市吉祥寺本町1丁目37-8","lat":35.70371339,"lon":139.58626961},{"name":"武蔵野五小入口","province":"東京都","city":"武蔵野市","address":"東京都武蔵野市関前3丁目3-14","lat":35.71374498,"lon":139.55747727},{"name":"武蔵野大学","province":"東京都","city":"武蔵野市","address":"東京都武蔵野市八幡町3丁目8-7","lat":35.71683614,"lon":139.55066661},{"name":"境二丁目第一","province":"東京都","city":"武蔵野市","address":"東京都武蔵野市境2丁目7-1","lat":35.70459295,"lon":139.54319563},{"name":"境二丁目第二","province":"東京都","city":"武蔵野市","address":"東京都武蔵野市境2丁目2-17","lat":35.70420134,"lon":139.54395948},{"name":"中央通り","province":"東京都","city":"武蔵野市","address":"東京都武蔵野市中町2丁目4-15","lat":35.70679308,"lon":139.56185774},{"name":"武蔵野赤十字前","province":"東京都","city":"武蔵野市","address":"東京都武蔵野市境南町1丁目26-1","lat":35.69687727,"lon":139.54853159},{"name":"千川小前","province":"東京都","city":"武蔵野市","address":"東京都武蔵野市八幡町3丁目5-25","lat":35.718561,"lon":139.55351074},{"name":"武蔵野緑町","province":"東京都","city":"武蔵野市","address":"東京都武蔵野市吉祥寺北町4丁目13-16","lat":35.71432283,"lon":139.56484604},{"name":"境一丁目","province":"東京都","city":"武蔵野市","address":"東京都武蔵野市境1丁目19-1","lat":35.70439582,"lon":139.54662868},{"name":"武蔵野市立高齢者総合センター前","province":"東京都","city":"武蔵野市","address":"東京都武蔵野市緑町1丁目3-17","lat":35.71495606,"lon":139.5627212},{"name":"吉祥寺南町第二","province":"東京都","city":"武蔵野市","address":"東京都武蔵野市吉祥寺本町2丁目2-17","lat":35.70368263,"lon":139.5772787},{"name":"武蔵野市民文化会館前","province":"東京都","city":"武蔵野市","address":"東京都武蔵野市中町3丁目9-11","lat":35.71150095,"lon":139.56584885},{"name":"武蔵野欅橋","province":"東京都","city":"武蔵野市","address":"東京都武蔵野市中町1丁目3-1","lat":35.70382947,"lon":139.55909423},{"name":"吉祥寺駅南口第二","province":"東京都","city":"武蔵野市","address":"東京都武蔵野市吉祥寺南町1丁目2-3","lat":35.70208566,"lon":139.58011741},{"name":"吉祥寺南町三丁目","province":"東京都","city":"武蔵野市","address":"東京都武蔵野市吉祥寺南町3丁目13-2","lat":35.69855843,"lon":139.58629759},{"name":"境南小学校裏","province":"東京都","city":"武蔵野市","address":"東京都武蔵野市境南町2丁目11","lat":35.69860479,"lon":139.54582344},{"name":"吉祥寺駅東口交番","province":"東京都","city":"武蔵野市","address":"東京都武蔵野市吉祥寺本町1丁目17-12","lat":35.7035244,"lon":139.58108394},{"name":"吉祥寺駅北","province":"東京都","city":"武蔵野市","address":"東京都武蔵野市吉祥寺東町1丁目7-1","lat":35.70641576,"lon":139.58168377},{"name":"武蔵野中町二丁目","province":"東京都","city":"武蔵野市","address":"東京都武蔵野市中町2丁目9-32","lat":35.70732086,"lon":139.56512686},{"name":"吉祥寺駅北第二","province":"東京都","city":"武蔵野市","address":"東京都武蔵野市吉祥寺東町1丁目6-27","lat":35.70642131,"lon":139.58140602},{"name":"自然文化園前","province":"東京都","city":"武蔵野市","address":"東京都武蔵野市御殿山1丁目17","lat":35.70006898,"lon":139.56964063},{"name":"商工会館前","province":"東京都","city":"武蔵野市","address":"東京都武蔵野市吉祥寺本町1丁目10-5","lat":35.70538247,"lon":139.57861741},{"name":"本町新道","province":"東京都","city":"武蔵野市","address":"東京都武蔵野市吉祥寺本町1丁目13-10","lat":35.70475482,"lon":139.58083669},{"name":"万助橋北","province":"東京都","city":"武蔵野市","address":"東京都武蔵野市御殿山1丁目17","lat":35.70006898,"lon":139.56964063},{"name":"中町新道","province":"東京都","city":"武蔵野市","address":"東京都武蔵野市中町1丁目21-8","lat":35.70339347,"lon":139.56217175},{"name":"境南町三丁目","province":"東京都","city":"武蔵野市","address":"東京都武蔵野市境南町3丁目23-15","lat":35.69792699,"lon":139.54134053},{"name":"三谷通り入口","province":"東京都","city":"武蔵野市","address":"東京都武蔵野市西久保1丁目6-14","lat":35.70742075,"lon":139.55973846},{"name":"大野田小学校裏","province":"東京都","city":"武蔵野市","address":"東京都武蔵野市緑町2丁目2-28","lat":35.71783358,"lon":139.56594579},{"name":"武蔵野緑町二丁目","province":"東京都","city":"武蔵野市","address":"東京都武蔵野市緑町2丁目4","lat":35.71587537,"lon":139.56161847},{"name":"武蔵野市役所前","province":"東京都","city":"武蔵野市","address":"東京都武蔵野市吉祥寺北町5丁目11-20","lat":35.71788638,"lon":139.56758731},{"name":"吉祥寺南町二丁目","province":"東京都","city":"武蔵野市","address":"東京都武蔵野市吉祥寺南町1丁目31-2","lat":35.70060256,"lon":139.58346718},{"name":"電通研裏","province":"東京都","city":"武蔵野市","address":"東京都武蔵野市緑町3丁目3-6","lat":35.72053605,"lon":139.5661151},{"name":"武蔵野簡易裁判所前","province":"東京都","city":"武蔵野市","address":"東京都武蔵野市中町2丁目9-32","lat":35.70732086,"lon":139.56512686},{"name":"武蔵境駅南口","province":"東京都","city":"武蔵野市","address":"東京都武蔵野市境南町2丁目3-6","lat":35.70110449,"lon":139.54472343},{"name":"中町一丁目","province":"東京都","city":"武蔵野市","address":"東京都武蔵野市中町1丁目11-1","lat":35.70510714,"lon":139.56065514},{"name":"本町新道第二","province":"東京都","city":"武蔵野市","address":"東京都武蔵野市吉祥寺本町1丁目13-1","lat":35.70486313,"lon":139.58050616},{"name":"西久保二丁目","province":"東京都","city":"武蔵野市","address":"東京都武蔵野市西久保1丁目39-5","lat":35.7081067,"lon":139.5560721},{"name":"御殿山一丁目","province":"東京都","city":"武蔵野市","address":"東京都武蔵野市御殿山1丁目3-7","lat":35.70179948,"lon":139.57612055},{"name":"井の頭公園入口","province":"東京都","city":"武蔵野市","address":"東京都武蔵野市御殿山1丁目7-12","lat":35.70127449,"lon":139.57424295},{"name":"武蔵野稲荷神社前","province":"東京都","city":"武蔵野市","address":"東京都武蔵野市緑町1丁目6-6","lat":35.71361448,"lon":139.55979652},{"name":"天文台踏切南","province":"東京都","city":"武蔵野市","address":"東京都武蔵野市境南町2丁目5-8","lat":35.70102944,"lon":139.54210699},{"name":"中町三丁目","province":"東京都","city":"武蔵野市","address":"東京都武蔵野市西久保3丁目1-1","lat":35.70959832,"lon":139.56213815},{"name":"市立南保育園前","province":"東京都","city":"武蔵野市","address":"東京都武蔵野市吉祥寺南町4丁目2-13","lat":35.6997694,"lon":139.58643086},{"name":"武蔵野警察署南","province":"東京都","city":"武蔵野市","address":"東京都武蔵野市西久保1丁目4-11","lat":35.70534875,"lon":139.55971911},{"name":"境南三丁目第二","province":"東京都","city":"武蔵野市","address":"東京都武蔵野市境南町3丁目22-9","lat":35.69823804,"lon":139.54014062},{"name":"吉祥寺南町三丁目第二","province":"東京都","city":"武蔵野市","address":"東京都武蔵野市吉祥寺南町4丁目10-12","lat":35.69922228,"lon":139.58797242},{"name":"吉祥寺南町東第二","province":"東京都","city":"武蔵野市","address":"東京都武蔵野市吉祥寺南町1丁目5-3","lat":35.70267722,"lon":139.57861752},{"name":"吉祥寺南町二丁目第二","province":"東京都","city":"武蔵野市","address":"東京都武蔵野市吉祥寺南町2丁目29-13","lat":35.70023321,"lon":139.58534204},{"name":"井の頭高架東第二","province":"東京都","city":"武蔵野市","address":"東京都武蔵野市吉祥寺南町2丁目13-18","lat":35.70124137,"lon":139.58272555},{"name":"聖徳学園前","province":"東京都","city":"武蔵野市","address":"東京都武蔵野市境南町2丁目9-13","lat":35.69956298,"lon":139.5440541},{"name":"武蔵野水道部前","province":"東京都","city":"武蔵野市","address":"東京都武蔵野市吉祥寺北町4丁目11-46","lat":35.71395903,"lon":139.56650423},{"name":"吉祥寺末広通り","province":"東京都","city":"武蔵野市","address":"東京都武蔵野市吉祥寺南町2丁目2-3","lat":35.7022051,"lon":139.58054237},{"name":"武蔵境駅南口第二","province":"東京都","city":"武蔵野市","address":"東京都武蔵野市境南町2丁目3-16","lat":35.70107392,"lon":139.54416792},{"name":"大正通り","province":"東京都","city":"武蔵野市","address":"東京都武蔵野市吉祥寺本町1丁目8-12","lat":35.7051575,"lon":139.57857575},{"name":"元町","province":"東京都","city":"武蔵野市","address":"東京都武蔵野市吉祥寺本町1丁目8-10","lat":35.70490196,"lon":139.57844522},{"name":"三谷通り入口東","province":"東京都","city":"武蔵野市","address":"東京都武蔵野市西久保1丁目6-17","lat":35.70732077,"lon":139.56035507},{"name":"中央通り北","province":"東京都","city":"武蔵野市","address":"東京都武蔵野市西久保2丁目2-12","lat":35.70850677,"lon":139.56152991},{"name":"武蔵野五小入口第二","province":"東京都","city":"武蔵野市","address":"東京都武蔵野市西久保3丁目26-5","lat":35.71375054,"lon":139.55787723},{"name":"大野田小前","province":"東京都","city":"武蔵野市","address":"東京都武蔵野市吉祥寺北町4丁目10-14","lat":35.71567552,"lon":139.56788182},{"name":"武蔵野市役所裏","province":"東京都","city":"武蔵野市","address":"東京都武蔵野市緑町3丁目1-5","lat":35.71865294,"lon":139.56653181},{"name":"吉祥寺東町一丁目","province":"東京都","city":"武蔵野市","address":"東京都武蔵野市吉祥寺東町1丁目10-18","lat":35.70593806,"lon":139.58270315},{"name":"関前五丁目","province":"東京都","city":"武蔵野市","address":"東京都武蔵野市関前5丁目11-11","lat":35.71271699,"lon":139.54152318},{"name":"武蔵野北高前","province":"東京都","city":"武蔵野市","address":"東京都武蔵野市八幡町2丁目3-10","lat":35.71979428,"lon":139.55733535},{"name":"境南町三丁目北","province":"東京都","city":"武蔵野市","address":"東京都武蔵野市境南町2丁目6","lat":35.70020175,"lon":139.54214313},{"name":"境一丁目第二","province":"東京都","city":"武蔵野市","address":"東京都武蔵野市境1丁目4-9","lat":35.70412082,"lon":139.54512327},{"name":"武蔵野赤十字病院前","province":"東京都","city":"武蔵野市","address":"東京都武蔵野市境南町1丁目26-1","lat":35.69687727,"lon":139.54853159},{"name":"市立境南第二保育園北","province":"東京都","city":"武蔵野市","address":"東京都武蔵野市境南町2丁目20-17","lat":35.69774092,"lon":139.54204047},{"name":"武蔵野障害者センター入口","province":"東京都","city":"武蔵野市","address":"東京都武蔵野市緑町2丁目1-36","lat":35.71581156,"lon":139.56506539},{"name":"日本獣医大東","province":"東京都","city":"武蔵野市","address":"東京都武蔵野市境南町1丁目6-8","lat":35.70103514,"lon":139.54890084},{"name":"吉祥寺大通り","province":"東京都","city":"武蔵野市","address":"東京都武蔵野市吉祥寺本町1丁目18-2","lat":35.70426321,"lon":139.58103392},{"name":"武蔵境駅東第一","province":"東京都","city":"武蔵野市","address":"東京都武蔵野市境1丁目1","lat":35.70237377,"lon":139.5444373},{"name":"成蹊学園前第二","province":"東京都","city":"武蔵野市","address":"東京都武蔵野市吉祥寺本町4丁目26-17","lat":35.70961241,"lon":139.57236778},{"name":"むらさき橋","province":"東京都","city":"武蔵野市","address":"東京都武蔵野市御殿山2丁目13","lat":35.70166875,"lon":139.56677417},{"name":"武蔵野市保健センター","province":"東京都","city":"武蔵野市","address":"東京都武蔵野市吉祥寺北町4丁目8-10","lat":35.71292303,"lon":139.56658205},{"name":"武蔵野市立武蔵野総合体育館","province":"東京都","city":"武蔵野市","address":"東京都武蔵野市吉祥寺北町5丁目11-20","lat":35.71788638,"lon":139.56758731},{"name":"武蔵野市本庁舎","province":"東京都","city":"武蔵野市","address":"武蔵野市緑町2-2-28","lat":35.717837,"lon":139.565938},{"name":"武蔵野警察署","province":"東京都","city":"武蔵野市","address":"武蔵野市中町2-1-2","lat":35.70601,"lon":139.5609},{"name":"武蔵野消防署","province":"東京都","city":"武蔵野市","address":"武蔵野市吉祥寺北町4-6-1","lat":35.71169,"lon":139.5675},{"name":"献血供給事業団本部","province":"東京都","city":"武蔵野市","address":"武蔵野市境南町1-26-1","lat":35.696886,"lon":139.548571},{"name":"都立武蔵野中央公園（原っぱ広場）","province":"東京都","city":"武蔵野市","address":"武蔵野市八幡町2丁目地内","lat":35.71818,"lon":139.5565},{"name":"武蔵野赤十字病院ヘリポート","province":"東京都","city":"武蔵野市","address":"武蔵野市境南町1-26-1","lat":35.696886,"lon":139.548571},{"name":"西部公園緑地事務所","province":"東京都","city":"武蔵野市","address":"武蔵野市御殿山1-17-59","lat":35.70114,"lon":139.573},{"name":"東京電力（株）武蔵野支社","province":"東京都","city":"武蔵野市","address":"武蔵野市西久保1-6-24","lat":35.70672,"lon":139.5603},{"name":"吉祥寺駅","province":"東京都","city":"武蔵野市","address":"東京都武蔵野市吉祥寺南町1丁目1-24","lat":35.70304942,"lon":139.57954798},{"name":"武蔵野市","province":"東京都","city":"武蔵野市","address":"武蔵野市緑町2-2-28","lat":35.7178369,"lon":139.5659378},{"name":"玉川上水緑道","province":"東京都","city":"武蔵野市","address":"東京都武蔵野市境3丁目6","lat":35.709387,"lon":139.543974},{"name":"井の頭恩賜公園","province":"東京都","city":"武蔵野市","address":"東京都武蔵野市御殿山1丁目19","lat":35.699434,"lon":139.571379},{"name":"井の頭恩賜公園","province":"東京都","city":"武蔵野市","address":"東京都武蔵野市御殿山1丁目19","lat":35.699433,"lon":139.571379},{"name":"井の頭恩賜公園","province":"東京都","city":"武蔵野市","address":"東京都武蔵野市御殿山1丁目18","lat":35.700648,"lon":139.573718},{"name":"井の頭恩賜公園","province":"東京都","city":"武蔵野市","address":"東京都武蔵野市御殿山1丁目18","lat":35.700846,"lon":139.574472},{"name":"井の頭恩賜公園","province":"東京都","city":"武蔵野市","address":"東京都武蔵野市御殿山1丁目19","lat":35.699428,"lon":139.571345},{"name":"小金井公園","province":"東京都","city":"武蔵野市","address":"東京都武蔵野市桜堤3丁目21-1","lat":35.71404,"lon":139.527767},{"name":"小金井公園","province":"東京都","city":"武蔵野市","address":"東京都武蔵野市桜堤3丁目8","lat":35.713908,"lon":139.526692},{"name":"武蔵野中央公園","province":"東京都","city":"武蔵野市","address":"東京都武蔵野市八幡町2丁目4","lat":35.718037,"lon":139.556673},{"name":"武蔵野中央公園","province":"東京都","city":"武蔵野市","address":"東京都武蔵野市八幡町2丁目4","lat":35.717275,"lon":139.558496},{"name":"武蔵野中央公園","province":"東京都","city":"武蔵野市","address":"東京都武蔵野市八幡町2丁目4","lat":35.719302,"lon":139.560332},{"name":"井の頭自然文化園","province":"東京都","city":"武蔵野市","address":"東京都武蔵野市御殿山1丁目17","lat":35.701015,"lon":139.572365},{"name":"井の頭自然文化園","province":"東京都","city":"武蔵野市","address":"東京都武蔵野市御殿山1丁目17","lat":35.700359,"lon":139.571377},{"name":"井の頭自然文化園","province":"東京都","city":"武蔵野市","address":"東京都武蔵野市御殿山1丁目17","lat":35.701206,"lon":139.56985},{"name":"井の頭自然文化園","province":"東京都","city":"武蔵野市","address":"東京都武蔵野市御殿山1丁目17","lat":35.702242,"lon":139.570267},{"name":"井の頭自然文化園","province":"東京都","city":"武蔵野市","address":"東京都武蔵野市御殿山1丁目17","lat":35.700425,"lon":139.569227},{"name":"武蔵野消防署","province":"東京都","city":"武蔵野市","address":"東京都武蔵野市吉祥寺北町4丁目6-1","lat":35.71165,"lon":139.567311},{"name":"武蔵野消防署武蔵境出張所","province":"東京都","city":"武蔵野市","address":"東京都武蔵野市境南町1丁目26-38","lat":35.695988,"lon":139.546944},{"name":"武蔵野消防署吉祥寺出張所","province":"東京都","city":"武蔵野市","address":"東京都武蔵野市吉祥寺東町1丁目1-21","lat":35.707205,"lon":139.58012},{"name":"西久保公園","province":"東京都","city":"武蔵野市","address":"東京都武蔵野市西久保1丁目43","lat":35.705974,"lon":139.553659},{"name":"武蔵野市役所本庁舎","province":"東京都","city":"武蔵野市","address":"東京都武蔵野市緑町2丁目2-28","lat":35.717857,"lon":139.566017},{"name":"武蔵野市役所本庁舎","province":"東京都","city":"武蔵野市","address":"東京都武蔵野市緑町2丁目2-28","lat":35.717629,"lon":139.565918},{"name":"中央市政センター","province":"東京都","city":"武蔵野市","address":"東京都武蔵野市中町1丁目2-8","lat":35.7037,"lon":139.559772},{"name":"吉祥寺市政センター","province":"東京都","city":"武蔵野市","address":"東京都武蔵野市吉祥寺本町1丁目10-7","lat":35.705776,"lon":139.578917},{"name":"武蔵野市立武蔵野商工会館","province":"東京都","city":"武蔵野市","address":"東京都武蔵野市吉祥寺本町1丁目10-7","lat":35.705759,"lon":139.578978},{"name":"武蔵野市立武蔵野商工会館","province":"東京都","city":"武蔵野市","address":"東京都武蔵野市吉祥寺本町1丁目10-7","lat":35.705778,"lon":139.578929},{"name":"吉祥寺東コミュニティセンター","province":"東京都","city":"武蔵野市","address":"東京都武蔵野市吉祥寺東町1丁目12","lat":35.707681,"lon":139.58403},{"name":"本宿コミュニティセンター","province":"東京都","city":"武蔵野市","address":"東京都武蔵野市吉祥寺東町3丁目25-2","lat":35.704047,"lon":139.590046},{"name":"吉祥寺南町コミュニティセンター","province":"東京都","city":"武蔵野市","address":"東京都武蔵野市吉祥寺南町3丁目13-1","lat":35.699206,"lon":139.586628},{"name":"御殿山コミュニティセンター","province":"東京都","city":"武蔵野市","address":"東京都武蔵野市御殿山1丁目5-11","lat":35.702284,"lon":139.57583},{"name":"本町コミュニティセンター","province":"東京都","city":"武蔵野市","address":"東京都武蔵野市吉祥寺本町1丁目22","lat":35.704455,"lon":139.581971},{"name":"吉祥寺西コミュニティセンター","province":"東京都","city":"武蔵野市","address":"東京都武蔵野市吉祥寺本町3丁目20-17","lat":35.705789,"lon":139.570014},{"name":"吉祥寺北コミュニティセンター","province":"東京都","city":"武蔵野市","address":"東京都武蔵野市吉祥寺北町1丁目22-10","lat":35.712271,"lon":139.578005},{"name":"けやきコミュニティセンター","province":"東京都","city":"武蔵野市","address":"東京都武蔵野市吉祥寺北町5丁目6-19","lat":35.717833,"lon":139.571726},{"name":"中央コミュニティセンター","province":"東京都","city":"武蔵野市","address":"東京都武蔵野市中町3丁目5-17","lat":35.711135,"lon":139.564999},{"name":"西久保コミュニティセンター","province":"東京都","city":"武蔵野市","address":"東京都武蔵野市西久保1丁目23-7","lat":35.705981,"lon":139.556916},{"name":"緑町コミュニティセンター","province":"東京都","city":"武蔵野市","address":"東京都武蔵野市緑町3丁目1-17","lat":35.720033,"lon":139.565766},{"name":"八幡町コミュニティセンター","province":"東京都","city":"武蔵野市","address":"東京都武蔵野市八幡町3丁目3-16","lat":35.71699,"lon":139.552463},{"name":"八幡町コミュニティセンター","province":"東京都","city":"武蔵野市","address":"東京都武蔵野市八幡町3丁目3-16","lat":35.716983,"lon":139.552392},{"name":"関前コミュニティセンター","province":"東京都","city":"武蔵野市","address":"東京都武蔵野市関前2丁目26-10","lat":35.712854,"lon":139.549135},{"name":"西部コミュニティセンター","province":"東京都","city":"武蔵野市","address":"東京都武蔵野市境5丁目6-20","lat":35.706446,"lon":139.535561},{"name":"西部コミュニティセンター","province":"東京都","city":"武蔵野市","address":"東京都武蔵野市境5丁目6-20","lat":35.706446,"lon":139.535581},{"name":"桜堤コミュニティセンター","province":"東京都","city":"武蔵野市","address":"東京都武蔵野市桜堤3丁目3-11","lat":35.714848,"lon":139.528861},{"name":"市民会館","province":"東京都","city":"武蔵野市","address":"東京都武蔵野市境2丁目3-7","lat":35.70527,"lon":139.543419},{"name":"市民会館","province":"東京都","city":"武蔵野市","address":"東京都武蔵野市境2丁目3-7","lat":35.705288,"lon":139.543419},{"name":"境南コミュニティセンター","province":"東京都","city":"武蔵野市","address":"東京都武蔵野市境南町3丁目22-9","lat":35.698249,"lon":139.540109},{"name":"武蔵野市立保健センター","province":"東京都","city":"武蔵野市","address":"東京都武蔵野市吉祥寺北町4丁目8-10","lat":35.712866,"lon":139.566532},{"name":"武蔵野市立中央図書館","province":"東京都","city":"武蔵野市","address":"東京都武蔵野市吉祥寺北町4丁目8-3","lat":35.712507,"lon":139.566331},{"name":"武蔵野市立中央図書館","province":"東京都","city":"武蔵野市","address":"東京都武蔵野市吉祥寺北町4丁目8-3","lat":35.712482,"lon":139.566319},{"name":"武蔵野市立吉祥寺図書館","province":"東京都","city":"武蔵野市","address":"東京都武蔵野市吉祥寺本町1丁目21-13","lat":35.70501,"lon":139.582381},{"name":"武蔵野プレイス（図書館、会議出、スタジオ等複合施設）","province":"東京都","city":"武蔵野市","address":"東京都武蔵野市境南町2丁目3-18","lat":35.701022,"lon":139.543796},{"name":"武蔵野プレイス（図書館、会議出、スタジオ等複合施設）","province":"東京都","city":"武蔵野市","address":"東京都武蔵野市境南町2丁目3-18","lat":35.701094,"lon":139.543762},{"name":"武蔵野三鷹地域センター","province":"東京都","city":"武蔵野市","address":"東京都武蔵野市西久保3丁目1-22","lat":35.710772,"lon":139.562684},{"name":"武蔵野ふるさと歴史館","province":"東京都","city":"武蔵野市","address":"東京都武蔵野市境5丁目15-5","lat":35.702255,"lon":139.53473},{"name":"武蔵野市民文化会館","province":"東京都","city":"武蔵野市","address":"東京都武蔵野市中町3丁目9-11","lat":35.711548,"lon":139.56572},{"name":"武蔵野市民文化会館","province":"東京都","city":"武蔵野市","address":"東京都武蔵野市中町3丁目9-11","lat":35.711465,"lon":139.565666},{"name":"武蔵野市民文化会館","province":"東京都","city":"武蔵野市","address":"東京都武蔵野市中町3丁目9-11","lat":35.71161,"lon":139.566195},{"name":"武蔵野スイングホール","province":"東京都","city":"武蔵野市","address":"東京都武蔵野市境2丁目14-1","lat":35.702512,"lon":139.542911},{"name":"武蔵野スイングホール","province":"東京都","city":"武蔵野市","address":"東京都武蔵野市境2丁目14-1","lat":35.702845,"lon":139.542946},{"name":"武蔵野芸能劇場","province":"東京都","city":"武蔵野市","address":"東京都武蔵野市中町1丁目15-10","lat":35.703173,"lon":139.561613},{"name":"武蔵野芸能劇場","province":"東京都","city":"武蔵野市","address":"東京都武蔵野市中町1丁目15-10","lat":35.703105,"lon":139.561405},{"name":"武蔵野公会堂","province":"東京都","city":"武蔵野市","address":"東京都武蔵野市吉祥寺南町1丁目6","lat":35.701542,"lon":139.579636},{"name":"吉祥寺シアター","province":"東京都","city":"武蔵野市","address":"東京都武蔵野市吉祥寺本町1丁目33-22","lat":35.703833,"lon":139.583314},{"name":"かたらいの道市民スペース","province":"東京都","city":"武蔵野市","address":"東京都武蔵野市中町1丁目11-16","lat":35.705025,"lon":139.561509},{"name":"武蔵野市立吉祥寺美術館","province":"東京都","city":"武蔵野市","address":"東京都武蔵野市吉祥寺本町1丁目11-5","lat":35.704803,"lon":139.579048},{"name":"農業ふれあい公園","province":"東京都","city":"武蔵野市","address":"東京都武蔵野市関前5丁目19","lat":35.711103,"lon":139.540131},{"name":"むさしの市民公園","province":"東京都","city":"武蔵野市","address":"東京都武蔵野市緑町2丁目2","lat":35.716678,"lon":139.565725},{"name":"関前公園","province":"東京都","city":"武蔵野市","address":"東京都武蔵野市関前3丁目14","lat":35.713294,"lon":139.554647},{"name":"市民の森公園","province":"東京都","city":"武蔵野市","address":"東京都武蔵野市関前3丁目32","lat":35.714122,"lon":139.550758},{"name":"本田東公園","province":"東京都","city":"武蔵野市","address":"東京都武蔵野市吉祥寺東町4丁目18","lat":35.703961,"lon":139.594095},{"name":"玉川上水緑道","province":"東京都","city":"武蔵野市","address":"東京都武蔵野市境3丁目6","lat":35.709382,"lon":139.543973},{"name":"大野田公園","province":"東京都","city":"武蔵野市","address":"東京都武蔵野市吉祥寺北町4丁目11","lat":35.714489,"lon":139.566932},{"name":"吉祥寺東町農業公園","province":"東京都","city":"武蔵野市","address":"東京都武蔵野市吉祥寺東町3丁目15","lat":35.704356,"lon":139.587998},{"name":"吉祥寺駅南口公衆トイレ","province":"東京都","city":"武蔵野市","address":"東京都武蔵野市吉祥寺南町2丁目2","lat":35.70238,"lon":139.58025},{"name":"武蔵境駅南口公衆トイレ","province":"東京都","city":"武蔵野市","address":"東京都武蔵野市境南町2丁目1-13","lat":35.701798,"lon":139.543605},{"name":"桜堤公衆トイレ","province":"東京都","city":"武蔵野市","address":"東京都武蔵野市桜堤2丁目1-18","lat":35.70927,"lon":139.533012},{"name":"武蔵野総合体育館","province":"東京都","city":"武蔵野市","address":"東京都武蔵野市吉祥寺北町5丁目11-20","lat":35.717939,"lon":139.567535},{"name":"武蔵野総合体育館","province":"東京都","city":"武蔵野市","address":"東京都武蔵野市吉祥寺北町5丁目11-20","lat":35.717303,"lon":139.567273},{"name":"武蔵野総合体育館","province":"東京都","city":"武蔵野市","address":"東京都武蔵野市吉祥寺北町5丁目11-20","lat":35.717662,"lon":139.567516},{"name":"武蔵野総合体育館","province":"東京都","city":"武蔵野市","address":"東京都武蔵野市吉祥寺北町5丁目11-20","lat":35.717577,"lon":139.567498},{"name":"武蔵野陸上競技場","province":"東京都","city":"武蔵野市","address":"東京都武蔵野市吉祥寺北町5丁目11","lat":35.717743,"lon":139.567755},{"name":"武蔵野クリーンセンター","province":"東京都","city":"武蔵野市","address":"東京都武蔵野市緑町3丁目1","lat":35.719095,"lon":139.566081},{"name":"武蔵野クリーンセンター","province":"東京都","city":"武蔵野市","address":"東京都武蔵野市緑町3丁目1-5","lat":35.718439,"lon":139.566568},{"name":"井の頭自然文化園（都立）","province":"東京都","city":"武蔵野市","address":"武蔵野市御殿山一丁目17番、三鷹市井の頭四丁目1番(管理所:武蔵野市御殿山一丁目17-6)","lat":35.70062013,"lon":139.5727332},{"name":"柳橋","province":"東京都","city":"武蔵野市","address":"東京都武蔵野市関前4丁目9-6","lat":35.71390857,"lon":139.54426177},{"name":"八幡宮前","province":"東京都","city":"武蔵野市","address":"東京都武蔵野市吉祥寺北町1丁目1-1","lat":35.70768778,"lon":139.57936447},{"name":"成蹊学園前","province":"東京都","city":"武蔵野市","address":"東京都武蔵野市吉祥寺北町3丁目4-4","lat":35.70982628,"lon":139.57273719},{"name":"吉祥寺駅南口","province":"東京都","city":"武蔵野市","address":"東京都武蔵野市吉祥寺南町1丁目2-7","lat":35.7021773,"lon":139.57981188},{"name":"昭和通り","province":"東京都","city":"武蔵野市","address":"東京都武蔵野市吉祥寺本町2丁目3-1","lat":35.70503805,"lon":139.57783694},{"name":"武蔵野中央","province":"東京都","city":"武蔵野市","address":"東京都武蔵野市吉祥寺北町4丁目13-5","lat":35.71290632,"lon":139.56433503},{"name":"境南町二丁目","province":"東京都","city":"武蔵野市","address":"東京都武蔵野市境南町2丁目27-1","lat":35.69778541,"lon":139.54415695},{"name":"八幡町四丁目","province":"東京都","city":"武蔵野市","address":"東京都武蔵野市八幡町4丁目1-6","lat":35.71834718,"lon":139.55548001},{"name":"西久保三丁目","province":"東京都","city":"武蔵野市","address":"東京都武蔵野市緑町1丁目4-19","lat":35.71427001,"lon":139.56194908},{"name":"武蔵野市営プール前","province":"東京都","city":"武蔵野市","address":"東京都武蔵野市吉祥寺北町5丁目11-30","lat":35.71970841,"lon":139.56803997},{"name":"武蔵野警察署前","province":"東京都","city":"武蔵野市","address":"東京都武蔵野市中町1丁目11-4","lat":35.70555431,"lon":139.5608801},{"name":"吉祥寺駅前","province":"東京都","city":"武蔵野市","address":"東京都武蔵野市吉祥寺南町1丁目1-10","lat":35.70291328,"lon":139.57760649},{"name":"関前橋","province":"東京都","city":"武蔵野市","address":"東京都武蔵野市八幡町2丁目3-10","lat":35.71979428,"lon":139.55733535},{"name":"武蔵野市立三中入口","province":"東京都","city":"武蔵野市","address":"東京都武蔵野市吉祥寺東町1丁目18-19","lat":35.70514929,"lon":139.58430582},{"name":"日本獣医大前","province":"東京都","city":"武蔵野市","address":"東京都武蔵野市境南町2丁目2-20","lat":35.70121006,"lon":139.54586777},{"name":"吉祥寺本町一丁目","province":"東京都","city":"武蔵野市","address":"東京都武蔵野市吉祥寺本町1丁目37-8","lat":35.70371339,"lon":139.58626961},{"name":"武蔵野五小入口","province":"東京都","city":"武蔵野市","address":"東京都武蔵野市関前3丁目3-14","lat":35.71374498,"lon":139.55747727},{"name":"武蔵野大学","province":"東京都","city":"武蔵野市","address":"東京都武蔵野市八幡町3丁目8-7","lat":35.71683614,"lon":139.55066661},{"name":"境二丁目第一","province":"東京都","city":"武蔵野市","address":"東京都武蔵野市境2丁目7-1","lat":35.70459295,"lon":139.54319563},{"name":"境二丁目第二","province":"東京都","city":"武蔵野市","address":"東京都武蔵野市境2丁目2-17","lat":35.70420134,"lon":139.54395948},{"name":"中央通り","province":"東京都","city":"武蔵野市","address":"東京都武蔵野市中町2丁目4-15","lat":35.70679308,"lon":139.56185774},{"name":"武蔵野赤十字前","province":"東京都","city":"武蔵野市","address":"東京都武蔵野市境南町1丁目26-1","lat":35.69687727,"lon":139.54853159},{"name":"千川小前","province":"東京都","city":"武蔵野市","address":"東京都武蔵野市八幡町3丁目5-25","lat":35.718561,"lon":139.55351074},{"name":"武蔵野緑町","province":"東京都","city":"武蔵野市","address":"東京都武蔵野市吉祥寺北町4丁目13-16","lat":35.71432283,"lon":139.56484604},{"name":"境一丁目","province":"東京都","city":"武蔵野市","address":"東京都武蔵野市境1丁目19-1","lat":35.70439582,"lon":139.54662868},{"name":"武蔵野市立高齢者総合センター前","province":"東京都","city":"武蔵野市","address":"東京都武蔵野市緑町1丁目3-17","lat":35.71495606,"lon":139.5627212},{"name":"吉祥寺南町第二","province":"東京都","city":"武蔵野市","address":"東京都武蔵野市吉祥寺本町2丁目2-17","lat":35.70368263,"lon":139.5772787},{"name":"武蔵野市民文化会館前","province":"東京都","city":"武蔵野市","address":"東京都武蔵野市中町3丁目9-11","lat":35.71150095,"lon":139.56584885},{"name":"武蔵野欅橋","province":"東京都","city":"武蔵野市","address":"東京都武蔵野市中町1丁目3-1","lat":35.70382947,"lon":139.55909423},{"name":"吉祥寺駅南口第二","province":"東京都","city":"武蔵野市","address":"東京都武蔵野市吉祥寺南町1丁目2-3","lat":35.70208566,"lon":139.58011741},{"name":"吉祥寺南町三丁目","province":"東京都","city":"武蔵野市","address":"東京都武蔵野市吉祥寺南町3丁目13-2","lat":35.69855843,"lon":139.58629759},{"name":"境南小学校裏","province":"東京都","city":"武蔵野市","address":"東京都武蔵野市境南町2丁目11","lat":35.69860479,"lon":139.54582344},{"name":"吉祥寺駅東口交番","province":"東京都","city":"武蔵野市","address":"東京都武蔵野市吉祥寺本町1丁目17-12","lat":35.7035244,"lon":139.58108394},{"name":"吉祥寺駅北","province":"東京都","city":"武蔵野市","address":"東京都武蔵野市吉祥寺東町1丁目7-1","lat":35.70641576,"lon":139.58168377},{"name":"武蔵野中町二丁目","province":"東京都","city":"武蔵野市","address":"東京都武蔵野市中町2丁目9-32","lat":35.70732086,"lon":139.56512686},{"name":"吉祥寺駅北第二","province":"東京都","city":"武蔵野市","address":"東京都武蔵野市吉祥寺東町1丁目6-27","lat":35.70642131,"lon":139.58140602},{"name":"自然文化園前","province":"東京都","city":"武蔵野市","address":"東京都武蔵野市御殿山1丁目17","lat":35.70006898,"lon":139.56964063},{"name":"商工会館前","province":"東京都","city":"武蔵野市","address":"東京都武蔵野市吉祥寺本町1丁目10-5","lat":35.70538247,"lon":139.57861741},{"name":"本町新道","province":"東京都","city":"武蔵野市","address":"東京都武蔵野市吉祥寺本町1丁目13-10","lat":35.70475482,"lon":139.58083669},{"name":"万助橋北","province":"東京都","city":"武蔵野市","address":"東京都武蔵野市御殿山1丁目17","lat":35.70006898,"lon":139.56964063},{"name":"中町新道","province":"東京都","city":"武蔵野市","address":"東京都武蔵野市中町1丁目21-8","lat":35.70339347,"lon":139.56217175},{"name":"境南町三丁目","province":"東京都","city":"武蔵野市","address":"東京都武蔵野市境南町3丁目23-15","lat":35.69792699,"lon":139.54134053},{"name":"三谷通り入口","province":"東京都","city":"武蔵野市","address":"東京都武蔵野市西久保1丁目6-14","lat":35.70742075,"lon":139.55973846},{"name":"大野田小学校裏","province":"東京都","city":"武蔵野市","address":"東京都武蔵野市緑町2丁目2-28","lat":35.71783358,"lon":139.56594579},{"name":"武蔵野緑町二丁目","province":"東京都","city":"武蔵野市","address":"東京都武蔵野市緑町2丁目4","lat":35.71587537,"lon":139.56161847},{"name":"武蔵野市役所前","province":"東京都","city":"武蔵野市","address":"東京都武蔵野市吉祥寺北町5丁目11-20","lat":35.71788638,"lon":139.56758731},{"name":"吉祥寺南町二丁目","province":"東京都","city":"武蔵野市","address":"東京都武蔵野市吉祥寺南町1丁目31-2","lat":35.70060256,"lon":139.58346718},{"name":"電通研裏","province":"東京都","city":"武蔵野市","address":"東京都武蔵野市緑町3丁目3-6","lat":35.72053605,"lon":139.5661151},{"name":"武蔵野簡易裁判所前","province":"東京都","city":"武蔵野市","address":"東京都武蔵野市中町2丁目9-32","lat":35.70732086,"lon":139.56512686},{"name":"武蔵境駅南口","province":"東京都","city":"武蔵野市","address":"東京都武蔵野市境南町2丁目3-6","lat":35.70110449,"lon":139.54472343},{"name":"中町一丁目","province":"東京都","city":"武蔵野市","address":"東京都武蔵野市中町1丁目11-1","lat":35.70510714,"lon":139.56065514},{"name":"本町新道第二","province":"東京都","city":"武蔵野市","address":"東京都武蔵野市吉祥寺本町1丁目13-1","lat":35.70486313,"lon":139.58050616},{"name":"西久保二丁目","province":"東京都","city":"武蔵野市","address":"東京都武蔵野市西久保1丁目39-5","lat":35.7081067,"lon":139.5560721},{"name":"御殿山一丁目","province":"東京都","city":"武蔵野市","address":"東京都武蔵野市御殿山1丁目3-7","lat":35.70179948,"lon":139.57612055},{"name":"井の頭公園入口","province":"東京都","city":"武蔵野市","address":"東京都武蔵野市御殿山1丁目7-12","lat":35.70127449,"lon":139.57424295},{"name":"武蔵野稲荷神社前","province":"東京都","city":"武蔵野市","address":"東京都武蔵野市緑町1丁目6-6","lat":35.71361448,"lon":139.55979652},{"name":"天文台踏切南","province":"東京都","city":"武蔵野市","address":"東京都武蔵野市境南町2丁目5-8","lat":35.70102944,"lon":139.54210699},{"name":"中町三丁目","province":"東京都","city":"武蔵野市","address":"東京都武蔵野市西久保3丁目1-1","lat":35.70959832,"lon":139.56213815},{"name":"市立南保育園前","province":"東京都","city":"武蔵野市","address":"東京都武蔵野市吉祥寺南町4丁目2-13","lat":35.6997694,"lon":139.58643086},{"name":"武蔵野警察署南","province":"東京都","city":"武蔵野市","address":"東京都武蔵野市西久保1丁目4-11","lat":35.70534875,"lon":139.55971911},{"name":"境南三丁目第二","province":"東京都","city":"武蔵野市","address":"東京都武蔵野市境南町3丁目22-9","lat":35.69823804,"lon":139.54014062},{"name":"吉祥寺南町三丁目第二","province":"東京都","city":"武蔵野市","address":"東京都武蔵野市吉祥寺南町4丁目10-12","lat":35.69922228,"lon":139.58797242},{"name":"吉祥寺南町東第二","province":"東京都","city":"武蔵野市","address":"東京都武蔵野市吉祥寺南町1丁目5-3","lat":35.70267722,"lon":139.57861752},{"name":"吉祥寺南町二丁目第二","province":"東京都","city":"武蔵野市","address":"東京都武蔵野市吉祥寺南町2丁目29-13","lat":35.70023321,"lon":139.58534204},{"name":"井の頭高架東第二","province":"東京都","city":"武蔵野市","address":"東京都武蔵野市吉祥寺南町2丁目13-18","lat":35.70124137,"lon":139.58272555},{"name":"聖徳学園前","province":"東京都","city":"武蔵野市","address":"東京都武蔵野市境南町2丁目9-13","lat":35.69956298,"lon":139.5440541},{"name":"武蔵野水道部前","province":"東京都","city":"武蔵野市","address":"東京都武蔵野市吉祥寺北町4丁目11-46","lat":35.71395903,"lon":139.56650423},{"name":"吉祥寺末広通り","province":"東京都","city":"武蔵野市","address":"東京都武蔵野市吉祥寺南町2丁目2-3","lat":35.7022051,"lon":139.58054237},{"name":"武蔵境駅南口第二","province":"東京都","city":"武蔵野市","address":"東京都武蔵野市境南町2丁目3-16","lat":35.70107392,"lon":139.54416792},{"name":"大正通り","province":"東京都","city":"武蔵野市","address":"東京都武蔵野市吉祥寺本町1丁目8-12","lat":35.7051575,"lon":139.57857575},{"name":"元町","province":"東京都","city":"武蔵野市","address":"東京都武蔵野市吉祥寺本町1丁目8-10","lat":35.70490196,"lon":139.57844522},{"name":"三谷通り入口東","province":"東京都","city":"武蔵野市","address":"東京都武蔵野市西久保1丁目6-17","lat":35.70732077,"lon":139.56035507},{"name":"中央通り北","province":"東京都","city":"武蔵野市","address":"東京都武蔵野市西久保2丁目2-12","lat":35.70850677,"lon":139.56152991},{"name":"武蔵野五小入口第二","province":"東京都","city":"武蔵野市","address":"東京都武蔵野市西久保3丁目26-5","lat":35.71375054,"lon":139.55787723},{"name":"大野田小前","province":"東京都","city":"武蔵野市","address":"東京都武蔵野市吉祥寺北町4丁目10-14","lat":35.71567552,"lon":139.56788182},{"name":"武蔵野市役所裏","province":"東京都","city":"武蔵野市","address":"東京都武蔵野市緑町3丁目1-5","lat":35.71865294,"lon":139.56653181},{"name":"吉祥寺東町一丁目","province":"東京都","city":"武蔵野市","address":"東京都武蔵野市吉祥寺東町1丁目10-18","lat":35.70593806,"lon":139.58270315},{"name":"関前五丁目","province":"東京都","city":"武蔵野市","address":"東京都武蔵野市関前5丁目11-11","lat":35.71271699,"lon":139.54152318},{"name":"武蔵野北高前","province":"東京都","city":"武蔵野市","address":"東京都武蔵野市八幡町2丁目3-10","lat":35.71979428,"lon":139.55733535},{"name":"境南町三丁目北","province":"東京都","city":"武蔵野市","address":"東京都武蔵野市境南町2丁目6","lat":35.70020175,"lon":139.54214313},{"name":"境一丁目第二","province":"東京都","city":"武蔵野市","address":"東京都武蔵野市境1丁目4-9","lat":35.70412082,"lon":139.54512327},{"name":"武蔵野赤十字病院前","province":"東京都","city":"武蔵野市","address":"東京都武蔵野市境南町1丁目26-1","lat":35.69687727,"lon":139.54853159},{"name":"市立境南第二保育園北","province":"東京都","city":"武蔵野市","address":"東京都武蔵野市境南町2丁目20-17","lat":35.69774092,"lon":139.54204047},{"name":"武蔵野障害者センター入口","province":"東京都","city":"武蔵野市","address":"東京都武蔵野市緑町2丁目1-36","lat":35.71581156,"lon":139.56506539},{"name":"日本獣医大東","province":"東京都","city":"武蔵野市","address":"東京都武蔵野市境南町1丁目6-8","lat":35.70103514,"lon":139.54890084},{"name":"吉祥寺大通り","province":"東京都","city":"武蔵野市","address":"東京都武蔵野市吉祥寺本町1丁目18-2","lat":35.70426321,"lon":139.58103392},{"name":"武蔵境駅東第一","province":"東京都","city":"武蔵野市","address":"東京都武蔵野市境1丁目1","lat":35.70237377,"lon":139.5444373},{"name":"成蹊学園前第二","province":"東京都","city":"武蔵野市","address":"東京都武蔵野市吉祥寺本町4丁目26-17","lat":35.70961241,"lon":139.57236778},{"name":"むらさき橋","province":"東京都","city":"武蔵野市","address":"東京都武蔵野市御殿山2丁目13","lat":35.70166875,"lon":139.56677417},{"name":"武蔵野市保健センター","province":"東京都","city":"武蔵野市","address":"東京都武蔵野市吉祥寺北町4丁目8-10","lat":35.71292303,"lon":139.56658205},{"name":"武蔵野市立武蔵野総合体育館","province":"東京都","city":"武蔵野市","address":"東京都武蔵野市吉祥寺北町5丁目11-20","lat":35.71788638,"lon":139.56758731},{"name":"武蔵野警察署","province":"東京都","city":"武蔵野市","address":"武蔵野市中町2-1-2","lat":35.70601,"lon":139.5609},{"name":"武蔵野消防署","province":"東京都","city":"武蔵野市","address":"武蔵野市吉祥寺北町4-6-1","lat":35.71169,"lon":139.5675},{"name":"献血供給事業団本部","province":"東京都","city":"武蔵野市","address":"武蔵野市境南町1-26-1","lat":35.696886,"lon":139.548571},{"name":"都立武蔵野中央公園（原っぱ広場）","province":"東京都","city":"武蔵野市","address":"武蔵野市八幡町2丁目地内","lat":35.71818,"lon":139.5565},{"name":"武蔵野赤十字病院ヘリポート","province":"東京都","city":"武蔵野市","address":"武蔵野市境南町1-26-1","lat":35.696886,"lon":139.548571},{"name":"西部公園緑地事務所","province":"東京都","city":"武蔵野市","address":"武蔵野市御殿山1-17-59","lat":35.70114,"lon":139.573},{"name":"東京電力（株）武蔵野支社","province":"東京都","city":"武蔵野市","address":"武蔵野市西久保1-6-24","lat":35.70672,"lon":139.5603},{"name":"吉祥寺駅","province":"東京都","city":"武蔵野市","address":"東京都武蔵野市吉祥寺南町1丁目1-24","lat":35.70304942,"lon":139.57954798},{"name":"武蔵野市","province":"東京都","city":"武蔵野市","address":"武蔵野市緑町2-2-28","lat":35.7178369,"lon":139.5659378},{"name":"井の頭自然文化園（都立）","province":"東京都","city":"武蔵野市","address":"武蔵野市御殿山一丁目17番、三鷹市井の頭四丁目1番(管理所:武蔵野市御殿山一丁目17-6)","lat":35.70062013,"lon":139.5727332},{"name":"柳橋","province":"東京都","city":"武蔵野市","address":"東京都武蔵野市関前4丁目9-6","lat":35.71390857,"lon":139.54426177},{"name":"八幡宮前","province":"東京都","city":"武蔵野市","address":"東京都武蔵野市吉祥寺北町1丁目1-1","lat":35.70768778,"lon":139.57936447},{"name":"成蹊学園前","province":"東京都","city":"武蔵野市","address":"東京都武蔵野市吉祥寺北町3丁目4-4","lat":35.70982628,"lon":139.57273719},{"name":"吉祥寺駅南口","province":"東京都","city":"武蔵野市","address":"東京都武蔵野市吉祥寺南町1丁目2-7","lat":35.7021773,"lon":139.57981188},{"name":"昭和通り","province":"東京都","city":"武蔵野市","address":"東京都武蔵野市吉祥寺本町2丁目3-1","lat":35.70503805,"lon":139.57783694},{"name":"武蔵野中央","province":"東京都","city":"武蔵野市","address":"東京都武蔵野市吉祥寺北町4丁目13-5","lat":35.71290632,"lon":139.56433503},{"name":"境南町二丁目","province":"東京都","city":"武蔵野市","address":"東京都武蔵野市境南町2丁目27-1","lat":35.69778541,"lon":139.54415695},{"name":"八幡町四丁目","province":"東京都","city":"武蔵野市","address":"東京都武蔵野市八幡町4丁目1-6","lat":35.71834718,"lon":139.55548001},{"name":"西久保三丁目","province":"東京都","city":"武蔵野市","address":"東京都武蔵野市緑町1丁目4-19","lat":35.71427001,"lon":139.56194908},{"name":"武蔵野市営プール前","province":"東京都","city":"武蔵野市","address":"東京都武蔵野市吉祥寺北町5丁目11-30","lat":35.71970841,"lon":139.56803997},{"name":"武蔵野警察署前","province":"東京都","city":"武蔵野市","address":"東京都武蔵野市中町1丁目11-4","lat":35.70555431,"lon":139.5608801},{"name":"吉祥寺駅前","province":"東京都","city":"武蔵野市","address":"東京都武蔵野市吉祥寺南町1丁目1-10","lat":35.70291328,"lon":139.57760649},{"name":"関前橋","province":"東京都","city":"武蔵野市","address":"東京都武蔵野市八幡町2丁目3-10","lat":35.71979428,"lon":139.55733535},{"name":"武蔵野市立三中入口","province":"東京都","city":"武蔵野市","address":"東京都武蔵野市吉祥寺東町1丁目18-19","lat":35.70514929,"lon":139.58430582},{"name":"日本獣医大前","province":"東京都","city":"武蔵野市","address":"東京都武蔵野市境南町2丁目2-20","lat":35.70121006,"lon":139.54586777},{"name":"吉祥寺本町一丁目","province":"東京都","city":"武蔵野市","address":"東京都武蔵野市吉祥寺本町1丁目37-8","lat":35.70371339,"lon":139.58626961},{"name":"武蔵野五小入口","province":"東京都","city":"武蔵野市","address":"東京都武蔵野市関前3丁目3-14","lat":35.71374498,"lon":139.55747727},{"name":"武蔵野大学","province":"東京都","city":"武蔵野市","address":"東京都武蔵野市八幡町3丁目8-7","lat":35.71683614,"lon":139.55066661},{"name":"境二丁目第一","province":"東京都","city":"武蔵野市","address":"東京都武蔵野市境2丁目7-1","lat":35.70459295,"lon":139.54319563},{"name":"境二丁目第二","province":"東京都","city":"武蔵野市","address":"東京都武蔵野市境2丁目2-17","lat":35.70420134,"lon":139.54395948},{"name":"中央通り","province":"東京都","city":"武蔵野市","address":"東京都武蔵野市中町2丁目4-15","lat":35.70679308,"lon":139.56185774},{"name":"武蔵野赤十字前","province":"東京都","city":"武蔵野市","address":"東京都武蔵野市境南町1丁目26-1","lat":35.69687727,"lon":139.54853159},{"name":"千川小前","province":"東京都","city":"武蔵野市","address":"東京都武蔵野市八幡町3丁目5-25","lat":35.718561,"lon":139.55351074},{"name":"武蔵野緑町","province":"東京都","city":"武蔵野市","address":"東京都武蔵野市吉祥寺北町4丁目13-16","lat":35.71432283,"lon":139.56484604},{"name":"境一丁目","province":"東京都","city":"武蔵野市","address":"東京都武蔵野市境1丁目19-1","lat":35.70439582,"lon":139.54662868},{"name":"武蔵野市立高齢者総合センター前","province":"東京都","city":"武蔵野市","address":"東京都武蔵野市緑町1丁目3-17","lat":35.71495606,"lon":139.5627212},{"name":"吉祥寺南町第二","province":"東京都","city":"武蔵野市","address":"東京都武蔵野市吉祥寺本町2丁目2-17","lat":35.70368263,"lon":139.5772787},{"name":"武蔵野市民文化会館前","province":"東京都","city":"武蔵野市","address":"東京都武蔵野市中町3丁目9-11","lat":35.71150095,"lon":139.56584885},{"name":"武蔵野欅橋","province":"東京都","city":"武蔵野市","address":"東京都武蔵野市中町1丁目3-1","lat":35.70382947,"lon":139.55909423},{"name":"吉祥寺駅南口第二","province":"東京都","city":"武蔵野市","address":"東京都武蔵野市吉祥寺南町1丁目2-3","lat":35.70208566,"lon":139.58011741},{"name":"吉祥寺南町三丁目","province":"東京都","city":"武蔵野市","address":"東京都武蔵野市吉祥寺南町3丁目13-2","lat":35.69855843,"lon":139.58629759},{"name":"境南小学校裏","province":"東京都","city":"武蔵野市","address":"東京都武蔵野市境南町2丁目11","lat":35.69860479,"lon":139.54582344},{"name":"吉祥寺駅東口交番","province":"東京都","city":"武蔵野市","address":"東京都武蔵野市吉祥寺本町1丁目17-12","lat":35.7035244,"lon":139.58108394},{"name":"吉祥寺駅北","province":"東京都","city":"武蔵野市","address":"東京都武蔵野市吉祥寺東町1丁目7-1","lat":35.70641576,"lon":139.58168377},{"name":"武蔵野中町二丁目","province":"東京都","city":"武蔵野市","address":"東京都武蔵野市中町2丁目9-32","lat":35.70732086,"lon":139.56512686},{"name":"吉祥寺駅北第二","province":"東京都","city":"武蔵野市","address":"東京都武蔵野市吉祥寺東町1丁目6-27","lat":35.70642131,"lon":139.58140602},{"name":"自然文化園前","province":"東京都","city":"武蔵野市","address":"東京都武蔵野市御殿山1丁目17","lat":35.70006898,"lon":139.56964063},{"name":"商工会館前","province":"東京都","city":"武蔵野市","address":"東京都武蔵野市吉祥寺本町1丁目10-5","lat":35.70538247,"lon":139.57861741},{"name":"本町新道","province":"東京都","city":"武蔵野市","address":"東京都武蔵野市吉祥寺本町1丁目13-10","lat":35.70475482,"lon":139.58083669},{"name":"万助橋北","province":"東京都","city":"武蔵野市","address":"東京都武蔵野市御殿山1丁目17","lat":35.70006898,"lon":139.56964063},{"name":"中町新道","province":"東京都","city":"武蔵野市","address":"東京都武蔵野市中町1丁目21-8","lat":35.70339347,"lon":139.56217175},{"name":"境南町三丁目","province":"東京都","city":"武蔵野市","address":"東京都武蔵野市境南町3丁目23-15","lat":35.69792699,"lon":139.54134053},{"name":"三谷通り入口","province":"東京都","city":"武蔵野市","address":"東京都武蔵野市西久保1丁目6-14","lat":35.70742075,"lon":139.55973846},{"name":"大野田小学校裏","province":"東京都","city":"武蔵野市","address":"東京都武蔵野市緑町2丁目2-28","lat":35.71783358,"lon":139.56594579},{"name":"武蔵野緑町二丁目","province":"東京都","city":"武蔵野市","address":"東京都武蔵野市緑町2丁目4","lat":35.71587537,"lon":139.56161847},{"name":"武蔵野市役所前","province":"東京都","city":"武蔵野市","address":"東京都武蔵野市吉祥寺北町5丁目11-20","lat":35.71788638,"lon":139.56758731},{"name":"吉祥寺南町二丁目","province":"東京都","city":"武蔵野市","address":"東京都武蔵野市吉祥寺南町1丁目31-2","lat":35.70060256,"lon":139.58346718},{"name":"電通研裏","province":"東京都","city":"武蔵野市","address":"東京都武蔵野市緑町3丁目3-6","lat":35.72053605,"lon":139.5661151},{"name":"武蔵野簡易裁判所前","province":"東京都","city":"武蔵野市","address":"東京都武蔵野市中町2丁目9-32","lat":35.70732086,"lon":139.56512686},{"name":"武蔵境駅南口","province":"東京都","city":"武蔵野市","address":"東京都武蔵野市境南町2丁目3-6","lat":35.70110449,"lon":139.54472343},{"name":"中町一丁目","province":"東京都","city":"武蔵野市","address":"東京都武蔵野市中町1丁目11-1","lat":35.70510714,"lon":139.56065514},{"name":"本町新道第二","province":"東京都","city":"武蔵野市","address":"東京都武蔵野市吉祥寺本町1丁目13-1","lat":35.70486313,"lon":139.58050616},{"name":"西久保二丁目","province":"東京都","city":"武蔵野市","address":"東京都武蔵野市西久保1丁目39-5","lat":35.7081067,"lon":139.5560721},{"name":"御殿山一丁目","province":"東京都","city":"武蔵野市","address":"東京都武蔵野市御殿山1丁目3-7","lat":35.70179948,"lon":139.57612055},{"name":"井の頭公園入口","province":"東京都","city":"武蔵野市","address":"東京都武蔵野市御殿山1丁目7-12","lat":35.70127449,"lon":139.57424295},{"name":"武蔵野稲荷神社前","province":"東京都","city":"武蔵野市","address":"東京都武蔵野市緑町1丁目6-6","lat":35.71361448,"lon":139.55979652},{"name":"天文台踏切南","province":"東京都","city":"武蔵野市","address":"東京都武蔵野市境南町2丁目5-8","lat":35.70102944,"lon":139.54210699},{"name":"中町三丁目","province":"東京都","city":"武蔵野市","address":"東京都武蔵野市西久保3丁目1-1","lat":35.70959832,"lon":139.56213815},{"name":"市立南保育園前","province":"東京都","city":"武蔵野市","address":"東京都武蔵野市吉祥寺南町4丁目2-13","lat":35.6997694,"lon":139.58643086},{"name":"武蔵野警察署南","province":"東京都","city":"武蔵野市","address":"東京都武蔵野市西久保1丁目4-11","lat":35.70534875,"lon":139.55971911},{"name":"境南三丁目第二","province":"東京都","city":"武蔵野市","address":"東京都武蔵野市境南町3丁目22-9","lat":35.69823804,"lon":139.54014062},{"name":"吉祥寺南町三丁目第二","province":"東京都","city":"武蔵野市","address":"東京都武蔵野市吉祥寺南町4丁目10-12","lat":35.69922228,"lon":139.58797242},{"name":"吉祥寺南町東第二","province":"東京都","city":"武蔵野市","address":"東京都武蔵野市吉祥寺南町1丁目5-3","lat":35.70267722,"lon":139.57861752},{"name":"吉祥寺南町二丁目第二","province":"東京都","city":"武蔵野市","address":"東京都武蔵野市吉祥寺南町2丁目29-13","lat":35.70023321,"lon":139.58534204},{"name":"井の頭高架東第二","province":"東京都","city":"武蔵野市","address":"東京都武蔵野市吉祥寺南町2丁目13-18","lat":35.70124137,"lon":139.58272555},{"name":"聖徳学園前","province":"東京都","city":"武蔵野市","address":"東京都武蔵野市境南町2丁目9-13","lat":35.69956298,"lon":139.5440541},{"name":"武蔵野水道部前","province":"東京都","city":"武蔵野市","address":"東京都武蔵野市吉祥寺北町4丁目11-46","lat":35.71395903,"lon":139.56650423},{"name":"吉祥寺末広通り","province":"東京都","city":"武蔵野市","address":"東京都武蔵野市吉祥寺南町2丁目2-3","lat":35.7022051,"lon":139.58054237},{"name":"武蔵境駅南口第二","province":"東京都","city":"武蔵野市","address":"東京都武蔵野市境南町2丁目3-16","lat":35.70107392,"lon":139.54416792},{"name":"大正通り","province":"東京都","city":"武蔵野市","address":"東京都武蔵野市吉祥寺本町1丁目8-12","lat":35.7051575,"lon":139.57857575},{"name":"元町","province":"東京都","city":"武蔵野市","address":"東京都武蔵野市吉祥寺本町1丁目8-10","lat":35.70490196,"lon":139.57844522},{"name":"三谷通り入口東","province":"東京都","city":"武蔵野市","address":"東京都武蔵野市西久保1丁目6-17","lat":35.70732077,"lon":139.56035507},{"name":"中央通り北","province":"東京都","city":"武蔵野市","address":"東京都武蔵野市西久保2丁目2-12","lat":35.70850677,"lon":139.56152991},{"name":"武蔵野五小入口第二","province":"東京都","city":"武蔵野市","address":"東京都武蔵野市西久保3丁目26-5","lat":35.71375054,"lon":139.55787723},{"name":"大野田小前","province":"東京都","city":"武蔵野市","address":"東京都武蔵野市吉祥寺北町4丁目10-14","lat":35.71567552,"lon":139.56788182},{"name":"武蔵野市役所裏","province":"東京都","city":"武蔵野市","address":"東京都武蔵野市緑町3丁目1-5","lat":35.71865294,"lon":139.56653181},{"name":"吉祥寺東町一丁目","province":"東京都","city":"武蔵野市","address":"東京都武蔵野市吉祥寺東町1丁目10-18","lat":35.70593806,"lon":139.58270315},{"name":"関前五丁目","province":"東京都","city":"武蔵野市","address":"東京都武蔵野市関前5丁目11-11","lat":35.71271699,"lon":139.54152318},{"name":"武蔵野北高前","province":"東京都","city":"武蔵野市","address":"東京都武蔵野市八幡町2丁目3-10","lat":35.71979428,"lon":139.55733535},{"name":"境南町三丁目北","province":"東京都","city":"武蔵野市","address":"東京都武蔵野市境南町2丁目6","lat":35.70020175,"lon":139.54214313},{"name":"境一丁目第二","province":"東京都","city":"武蔵野市","address":"東京都武蔵野市境1丁目4-9","lat":35.70412082,"lon":139.54512327},{"name":"武蔵野赤十字病院前","province":"東京都","city":"武蔵野市","address":"東京都武蔵野市境南町1丁目26-1","lat":35.69687727,"lon":139.54853159},{"name":"市立境南第二保育園北","province":"東京都","city":"武蔵野市","address":"東京都武蔵野市境南町2丁目20-17","lat":35.69774092,"lon":139.54204047},{"name":"武蔵野障害者センター入口","province":"東京都","city":"武蔵野市","address":"東京都武蔵野市緑町2丁目1-36","lat":35.71581156,"lon":139.56506539},{"name":"日本獣医大東","province":"東京都","city":"武蔵野市","address":"東京都武蔵野市境南町1丁目6-8","lat":35.70103514,"lon":139.54890084},{"name":"吉祥寺大通り","province":"東京都","city":"武蔵野市","address":"東京都武蔵野市吉祥寺本町1丁目18-2","lat":35.70426321,"lon":139.58103392},{"name":"武蔵境駅東第一","province":"東京都","city":"武蔵野市","address":"東京都武蔵野市境1丁目1","lat":35.70237377,"lon":139.5444373},{"name":"成蹊学園前第二","province":"東京都","city":"武蔵野市","address":"東京都武蔵野市吉祥寺本町4丁目26-17","lat":35.70961241,"lon":139.57236778},{"name":"むらさき橋","province":"東京都","city":"武蔵野市","address":"東京都武蔵野市御殿山2丁目13","lat":35.70166875,"lon":139.56677417},{"name":"武蔵野市保健センター","province":"東京都","city":"武蔵野市","address":"東京都武蔵野市吉祥寺北町4丁目8-10","lat":35.71292303,"lon":139.56658205},{"name":"武蔵野市立武蔵野総合体育館","province":"東京都","city":"武蔵野市","address":"東京都武蔵野市吉祥寺北町5丁目11-20","lat":35.71788638,"lon":139.56758731},{"name":"武蔵野警察署","province":"東京都","city":"武蔵野市","address":"武蔵野市中町2-1-2","lat":35.70601,"lon":139.5609},{"name":"武蔵野消防署","province":"東京都","city":"武蔵野市","address":"武蔵野市吉祥寺北町4-6-1","lat":35.71169,"lon":139.5675},{"name":"献血供給事業団本部","province":"東京都","city":"武蔵野市","address":"武蔵野市境南町1-26-1","lat":35.696886,"lon":139.548571},{"name":"都立武蔵野中央公園（原っぱ広場）","province":"東京都","city":"武蔵野市","address":"武蔵野市八幡町2丁目地内","lat":35.71818,"lon":139.5565},{"name":"武蔵野赤十字病院ヘリポート","province":"東京都","city":"武蔵野市","address":"武蔵野市境南町1-26-1","lat":35.696886,"lon":139.548571},{"name":"西部公園緑地事務所","province":"東京都","city":"武蔵野市","address":"武蔵野市御殿山1-17-59","lat":35.70114,"lon":139.573},{"name":"吉祥寺駅","province":"東京都","city":"武蔵野市","address":"東京都武蔵野市吉祥寺南町1丁目1-24","lat":35.70304942,"lon":139.57954798},{"name":"武蔵野市","province":"東京都","city":"武蔵野市","address":"武蔵野市緑町2-2-28","lat":35.7178369,"lon":139.5659378},{"name":"井の頭自然文化園（都立）","province":"東京都","city":"武蔵野市","address":"武蔵野市御殿山一丁目17番、三鷹市井の頭四丁目1番(管理所:武蔵野市御殿山一丁目17-6)","lat":35.70062013,"lon":139.5727332},{"name":"武蔵野市保健センター","province":"東京都","city":"武蔵野市","address":"東京都武蔵野市吉祥寺北町4丁目8-10","lat":35.71292303,"lon":139.56658205},{"name":"武蔵野市立武蔵野総合体育館","province":"東京都","city":"武蔵野市","address":"東京都武蔵野市吉祥寺北町5丁目11-20","lat":35.71788638,"lon":139.56758731},{"name":"武蔵野警察署","province":"東京都","city":"武蔵野市","address":"武蔵野市中町2-1-2","lat":35.70601,"lon":139.5609},{"name":"武蔵野消防署","province":"東京都","city":"武蔵野市","address":"武蔵野市吉祥寺北町4-6-1","lat":35.71169,"lon":139.5675},{"name":"献血供給事業団本部","province":"東京都","city":"武蔵野市","address":"武蔵野市境南町1-26-1","lat":35.696886,"lon":139.548571},{"name":"都立武蔵野中央公園（原っぱ広場）","province":"東京都","city":"武蔵野市","address":"武蔵野市八幡町2丁目地内","lat":35.71818,"lon":139.5565},{"name":"武蔵野赤十字病院ヘリポート","province":"東京都","city":"武蔵野市","address":"武蔵野市境南町1-26-1","lat":35.696886,"lon":139.548571},{"name":"西部公園緑地事務所","province":"東京都","city":"武蔵野市","address":"武蔵野市御殿山1-17-59","lat":35.70114,"lon":139.573},{"name":"吉祥寺駅","province":"東京都","city":"武蔵野市","address":"東京都武蔵野市吉祥寺南町1丁目1-24","lat":35.70304942,"lon":139.57954798},{"name":"武蔵野市保健センター","province":"東京都","city":"武蔵野市","address":"東京都武蔵野市吉祥寺北町4丁目8-10","lat":35.71292303,"lon":139.56658205},{"name":"武蔵野市立武蔵野総合体育館","province":"東京都","city":"武蔵野市","address":"東京都武蔵野市吉祥寺北町5丁目11-20","lat":35.71788638,"lon":139.56758731},{"name":"武蔵野警察署","province":"東京都","city":"武蔵野市","address":"武蔵野市中町2-1-2","lat":35.70601,"lon":139.5609},{"name":"武蔵野消防署","province":"東京都","city":"武蔵野市","address":"武蔵野市吉祥寺北町4-6-1","lat":35.71169,"lon":139.5675},{"name":"献血供給事業団本部","province":"東京都","city":"武蔵野市","address":"武蔵野市境南町1-26-1","lat":35.696886,"lon":139.548571},{"name":"都立武蔵野中央公園（原っぱ広場）","province":"東京都","city":"武蔵野市","address":"武蔵野市八幡町2丁目地内","lat":35.71818,"lon":139.5565},{"name":"武蔵野赤十字病院ヘリポート","province":"東京都","city":"武蔵野市","address":"武蔵野市境南町1-26-1","lat":35.696886,"lon":139.548571},{"name":"西部公園緑地事務所","province":"東京都","city":"武蔵野市","address":"武蔵野市御殿山1-17-59","lat":35.70114,"lon":139.573},{"name":"吉祥寺駅","province":"東京都","city":"武蔵野市","address":"東京都武蔵野市吉祥寺南町1丁目1-24","lat":35.70304942,"lon":139.57954798},{"name":"武蔵野市保健センター","province":"東京都","city":"武蔵野市","address":"東京都武蔵野市吉祥寺北町4丁目8-10","lat":35.71292303,"lon":139.56658205},{"name":"武蔵野市立武蔵野総合体育館","province":"東京都","city":"武蔵野市","address":"東京都武蔵野市吉祥寺北町5丁目11-20","lat":35.71788638,"lon":139.56758731},{"name":"武蔵野警察署","province":"東京都","city":"武蔵野市","address":"武蔵野市中町2-1-2","lat":35.70601,"lon":139.5609},{"name":"武蔵野消防署","province":"東京都","city":"武蔵野市","address":"武蔵野市吉祥寺北町4-6-1","lat":35.71169,"lon":139.5675},{"name":"献血供給事業団本部","province":"東京都","city":"武蔵野市","address":"武蔵野市境南町1-26-1","lat":35.696886,"lon":139.548571},{"name":"都立武蔵野中央公園（原っぱ広場）","province":"東京都","city":"武蔵野市","address":"武蔵野市八幡町2丁目地内","lat":35.71818,"lon":139.5565},{"name":"武蔵野赤十字病院ヘリポート","province":"東京都","city":"武蔵野市","address":"武蔵野市境南町1-26-1","lat":35.696886,"lon":139.548571},{"name":"西部公園緑地事務所","province":"東京都","city":"武蔵野市","address":"武蔵野市御殿山1-17-59","lat":35.70114,"lon":139.573},{"name":"吉祥寺駅","province":"東京都","city":"武蔵野市","address":"東京都武蔵野市吉祥寺南町1丁目1-24","lat":35.70304942,"lon":139.57954798},{"name":"武蔵野市保健センター","province":"東京都","city":"武蔵野市","address":"東京都武蔵野市吉祥寺北町4丁目8-10","lat":35.71292303,"lon":139.56658205},{"name":"武蔵野市立武蔵野総合体育館","province":"東京都","city":"武蔵野市","address":"東京都武蔵野市吉祥寺北町5丁目11-20","lat":35.71788638,"lon":139.56758731},{"name":"武蔵野警察署","province":"東京都","city":"武蔵野市","address":"武蔵野市中町2-1-2","lat":35.70601,"lon":139.5609},{"name":"武蔵野消防署","province":"東京都","city":"武蔵野市","address":"武蔵野市吉祥寺北町4-6-1","lat":35.71169,"lon":139.5675},{"name":"献血供給事業団本部","province":"東京都","city":"武蔵野市","address":"武蔵野市境南町1-26-1","lat":35.696886,"lon":139.548571},{"name":"都立武蔵野中央公園（原っぱ広場）","province":"東京都","city":"武蔵野市","address":"武蔵野市八幡町2丁目地内","lat":35.71818,"lon":139.5565},{"name":"武蔵野赤十字病院ヘリポート","province":"東京都","city":"武蔵野市","address":"武蔵野市境南町1-26-1","lat":35.696886,"lon":139.548571},{"name":"西部公園緑地事務所","province":"東京都","city":"武蔵野市","address":"武蔵野市御殿山1-17-59","lat":35.70114,"lon":139.573},{"name":"吉祥寺駅","province":"東京都","city":"武蔵野市","address":"東京都武蔵野市吉祥寺南町1丁目1-24","lat":35.70304942,"lon":139.57954798},{"name":"武蔵野市保健センター","province":"東京都","city":"武蔵野市","address":"東京都武蔵野市吉祥寺北町4丁目8-10","lat":35.71292303,"lon":139.56658205},{"name":"武蔵野市立武蔵野総合体育館","province":"東京都","city":"武蔵野市","address":"東京都武蔵野市吉祥寺北町5丁目11-20","lat":35.71788638,"lon":139.56758731},{"name":"武蔵野警察署","province":"東京都","city":"武蔵野市","address":"武蔵野市中町2-1-2","lat":35.70601,"lon":139.5609},{"name":"武蔵野消防署","province":"東京都","city":"武蔵野市","address":"武蔵野市吉祥寺北町4-6-1","lat":35.71169,"lon":139.5675},{"name":"献血供給事業団本部","province":"東京都","city":"武蔵野市","address":"武蔵野市境南町1-26-1","lat":35.696886,"lon":139.548571},{"name":"都立武蔵野中央公園（原っぱ広場）","province":"東京都","city":"武蔵野市","address":"武蔵野市八幡町2丁目地内","lat":35.71818,"lon":139.5565},{"name":"武蔵野赤十字病院ヘリポート","province":"東京都","city":"武蔵野市","address":"武蔵野市境南町1-26-1","lat":35.696886,"lon":139.548571},{"name":"西部公園緑地事務所","province":"東京都","city":"武蔵野市","address":"武蔵野市御殿山1-17-59","lat":35.70114,"lon":139.573},{"name":"吉祥寺駅","province":"東京都","city":"武蔵野市","address":"東京都武蔵野市吉祥寺南町1丁目1-24","lat":35.70304942,"lon":139.57954798},{"name":"武蔵野市保健センター","province":"東京都","city":"武蔵野市","address":"東京都武蔵野市吉祥寺北町4丁目8-10","lat":35.71292303,"lon":139.56658205},{"name":"武蔵野市立武蔵野総合体育館","province":"東京都","city":"武蔵野市","address":"東京都武蔵野市吉祥寺北町5丁目11-20","lat":35.71788638,"lon":139.56758731},{"name":"武蔵野警察署","province":"東京都","city":"武蔵野市","address":"武蔵野市中町2-1-2","lat":35.70601,"lon":139.5609},{"name":"武蔵野消防署","province":"東京都","city":"武蔵野市","address":"武蔵野市吉祥寺北町4-6-1","lat":35.71169,"lon":139.5675},{"name":"献血供給事業団本部","province":"東京都","city":"武蔵野市","address":"武蔵野市境南町1-26-1","lat":35.696886,"lon":139.548571},{"name":"都立武蔵野中央公園（原っぱ広場）","province":"東京都","city":"武蔵野市","address":"武蔵野市八幡町2丁目地内","lat":35.71818,"lon":139.5565},{"name":"武蔵野赤十字病院ヘリポート","province":"東京都","city":"武蔵野市","address":"武蔵野市境南町1-26-1","lat":35.696886,"lon":139.548571},{"name":"西部公園緑地事務所","province":"東京都","city":"武蔵野市","address":"武蔵野市御殿山1-17-59","lat":35.70114,"lon":139.573},{"name":"吉祥寺駅","province":"東京都","city":"武蔵野市","address":"東京都武蔵野市吉祥寺南町1丁目1-24","lat":35.70304942,"lon":139.57954798},{"name":"武蔵野市保健センター","province":"東京都","city":"武蔵野市","address":"東京都武蔵野市吉祥寺北町4丁目8-10","lat":35.71292303,"lon":139.56658205},{"name":"武蔵野市立武蔵野総合体育館","province":"東京都","city":"武蔵野市","address":"東京都武蔵野市吉祥寺北町5丁目11-20","lat":35.71788638,"lon":139.56758731},{"name":"武蔵野警察署","province":"東京都","city":"武蔵野市","address":"武蔵野市中町2-1-2","lat":35.70601,"lon":139.5609},{"name":"武蔵野消防署","province":"東京都","city":"武蔵野市","address":"武蔵野市吉祥寺北町4-6-1","lat":35.71169,"lon":139.5675},{"name":"献血供給事業団本部","province":"東京都","city":"武蔵野市","address":"武蔵野市境南町1-26-1","lat":35.696886,"lon":139.548571},{"name":"都立武蔵野中央公園（原っぱ広場）","province":"東京都","city":"武蔵野市","address":"武蔵野市八幡町2丁目地内","lat":35.71818,"lon":139.5565},{"name":"武蔵野赤十字病院ヘリポート","province":"東京都","city":"武蔵野市","address":"武蔵野市境南町1-26-1","lat":35.696886,"lon":139.548571},{"name":"西部公園緑地事務所","province":"東京都","city":"武蔵野市","address":"武蔵野市御殿山1-17-59","lat":35.70114,"lon":139.573},{"name":"吉祥寺駅","province":"東京都","city":"武蔵野市","address":"東京都武蔵野市吉祥寺南町1丁目1-24","lat":35.70304942,"lon":139.57954798},{"name":"武蔵野市保健センター","province":"東京都","city":"武蔵野市","address":"東京都武蔵野市吉祥寺北町4丁目8-10","lat":35.71292303,"lon":139.56658205},{"name":"武蔵野市立武蔵野総合体育館","province":"東京都","city":"武蔵野市","address":"東京都武蔵野市吉祥寺北町5丁目11-20","lat":35.71788638,"lon":139.56758731},{"name":"武蔵野警察署","province":"東京都","city":"武蔵野市","address":"武蔵野市中町2-1-2","lat":35.70601,"lon":139.5609},{"name":"武蔵野消防署","province":"東京都","city":"武蔵野市","address":"武蔵野市吉祥寺北町4-6-1","lat":35.71169,"lon":139.5675},{"name":"献血供給事業団本部","province":"東京都","city":"武蔵野市","address":"武蔵野市境南町1-26-1","lat":35.696886,"lon":139.548571},{"name":"都立武蔵野中央公園（原っぱ広場）","province":"東京都","city":"武蔵野市","address":"武蔵野市八幡町2丁目地内","lat":35.71818,"lon":139.5565},{"name":"武蔵野赤十字病院ヘリポート","province":"東京都","city":"武蔵野市","address":"武蔵野市境南町1-26-1","lat":35.696886,"lon":139.548571},{"name":"西部公園緑地事務所","province":"東京都","city":"武蔵野市","address":"武蔵野市御殿山1-17-59","lat":35.70114,"lon":139.573},{"name":"吉祥寺駅","province":"東京都","city":"武蔵野市","address":"東京都武蔵野市吉祥寺南町1丁目1-24","lat":35.70304942,"lon":139.57954798},{"name":"武蔵野市保健センター","province":"東京都","city":"武蔵野市","address":"東京都武蔵野市吉祥寺北町4丁目8-10","lat":35.71292303,"lon":139.56658205},{"name":"武蔵野市立武蔵野総合体育館","province":"東京都","city":"武蔵野市","address":"東京都武蔵野市吉祥寺北町5丁目11-20","lat":35.71788638,"lon":139.56758731},{"name":"武蔵野警察署","province":"東京都","city":"武蔵野市","address":"武蔵野市中町2-1-2","lat":35.70601,"lon":139.5609},{"name":"武蔵野消防署","province":"東京都","city":"武蔵野市","address":"武蔵野市吉祥寺北町4-6-1","lat":35.71169,"lon":139.5675},{"name":"献血供給事業団本部","province":"東京都","city":"武蔵野市","address":"武蔵野市境南町1-26-1","lat":35.696886,"lon":139.548571},{"name":"都立武蔵野中央公園（原っぱ広場）","province":"東京都","city":"武蔵野市","address":"武蔵野市八幡町2丁目地内","lat":35.71818,"lon":139.5565},{"name":"武蔵野赤十字病院ヘリポート","province":"東京都","city":"武蔵野市","address":"武蔵野市境南町1-26-1","lat":35.696886,"lon":139.548571},{"name":"西部公園緑地事務所","province":"東京都","city":"武蔵野市","address":"武蔵野市御殿山1-17-59","lat":35.70114,"lon":139.573},{"name":"吉祥寺駅","province":"東京都","city":"武蔵野市","address":"東京都武蔵野市吉祥寺南町1丁目1-24","lat":35.70304942,"lon":139.57954798},{"name":"武蔵野市保健センター","province":"東京都","city":"武蔵野市","address":"東京都武蔵野市吉祥寺北町4丁目8-10","lat":35.71292303,"lon":139.56658205},{"name":"武蔵野市立武蔵野総合体育館","province":"東京都","city":"武蔵野市","address":"東京都武蔵野市吉祥寺北町5丁目11-20","lat":35.71788638,"lon":139.56758731},{"name":"武蔵野警察署","province":"東京都","city":"武蔵野市","address":"武蔵野市中町2-1-2","lat":35.70601,"lon":139.5609},{"name":"武蔵野消防署","province":"東京都","city":"武蔵野市","address":"武蔵野市吉祥寺北町4-6-1","lat":35.71169,"lon":139.5675},{"name":"献血供給事業団本部","province":"東京都","city":"武蔵野市","address":"武蔵野市境南町1-26-1","lat":35.696886,"lon":139.548571},{"name":"都立武蔵野中央公園（原っぱ広場）","province":"東京都","city":"武蔵野市","address":"武蔵野市八幡町2丁目地内","lat":35.71818,"lon":139.5565},{"name":"武蔵野赤十字病院ヘリポート","province":"東京都","city":"武蔵野市","address":"武蔵野市境南町1-26-1","lat":35.696886,"lon":139.548571},{"name":"西部公園緑地事務所","province":"東京都","city":"武蔵野市","address":"武蔵野市御殿山1-17-59","lat":35.70114,"lon":139.573},{"name":"吉祥寺駅","province":"東京都","city":"武蔵野市","address":"東京都武蔵野市吉祥寺南町1丁目1-24","lat":35.70304942,"lon":139.57954798},{"name":"武蔵野市保健センター","province":"東京都","city":"武蔵野市","address":"東京都武蔵野市吉祥寺北町4丁目8-10","lat":35.71292303,"lon":139.56658205},{"name":"武蔵野市立武蔵野総合体育館","province":"東京都","city":"武蔵野市","address":"東京都武蔵野市吉祥寺北町5丁目11-20","lat":35.71788638,"lon":139.56758731},{"name":"武蔵野警察署","province":"東京都","city":"武蔵野市","address":"武蔵野市中町2-1-2","lat":35.70601,"lon":139.5609},{"name":"武蔵野消防署","province":"東京都","city":"武蔵野市","address":"武蔵野市吉祥寺北町4-6-1","lat":35.71169,"lon":139.5675},{"name":"献血供給事業団本部","province":"東京都","city":"武蔵野市","address":"武蔵野市境南町1-26-1","lat":35.696886,"lon":139.548571},{"name":"都立武蔵野中央公園（原っぱ広場）","province":"東京都","city":"武蔵野市","address":"武蔵野市八幡町2丁目地内","lat":35.71818,"lon":139.5565},{"name":"武蔵野赤十字病院ヘリポート","province":"東京都","city":"武蔵野市","address":"武蔵野市境南町1-26-1","lat":35.696886,"lon":139.548571},{"name":"西部公園緑地事務所","province":"東京都","city":"武蔵野市","address":"武蔵野市御殿山1-17-59","lat":35.70114,"lon":139.573},{"name":"吉祥寺駅","province":"東京都","city":"武蔵野市","address":"東京都武蔵野市吉祥寺南町1丁目1-24","lat":35.70304942,"lon":139.57954798},{"name":"武蔵野市保健センター","province":"東京都","city":"武蔵野市","address":"東京都武蔵野市吉祥寺北町4丁目8-10","lat":35.71292303,"lon":139.56658205},{"name":"武蔵野市立武蔵野総合体育館","province":"東京都","city":"武蔵野市","address":"東京都武蔵野市吉祥寺北町5丁目11-20","lat":35.71788638,"lon":139.56758731},{"name":"武蔵野警察署","province":"東京都","city":"武蔵野市","address":"武蔵野市中町2-1-2","lat":35.70601,"lon":139.5609},{"name":"武蔵野消防署","province":"東京都","city":"武蔵野市","address":"武蔵野市吉祥寺北町4-6-1","lat":35.71169,"lon":139.5675},{"name":"献血供給事業団本部","province":"東京都","city":"武蔵野市","address":"武蔵野市境南町1-26-1","lat":35.696886,"lon":139.548571},{"name":"都立武蔵野中央公園（原っぱ広場）","province":"東京都","city":"武蔵野市","address":"武蔵野市八幡町2丁目地内","lat":35.71818,"lon":139.5565},{"name":"武蔵野赤十字病院ヘリポート","province":"東京都","city":"武蔵野市","address":"武蔵野市境南町1-26-1","lat":35.696886,"lon":139.548571},{"name":"西部公園緑地事務所","province":"東京都","city":"武蔵野市","address":"武蔵野市御殿山1-17-59","lat":35.70114,"lon":139.573},{"name":"吉祥寺駅","province":"東京都","city":"武蔵野市","address":"東京都武蔵野市吉祥寺南町1丁目1-24","lat":35.70304942,"lon":139.57954798},{"name":"武蔵野市保健センター","province":"東京都","city":"武蔵野市","address":"東京都武蔵野市吉祥寺北町4丁目8-10","lat":35.71292303,"lon":139.56658205},{"name":"武蔵野市立武蔵野総合体育館","province":"東京都","city":"武蔵野市","address":"東京都武蔵野市吉祥寺北町5丁目11-20","lat":35.71788638,"lon":139.56758731},{"name":"武蔵野警察署","province":"東京都","city":"武蔵野市","address":"武蔵野市中町2-1-2","lat":35.70601,"lon":139.5609},{"name":"武蔵野消防署","province":"東京都","city":"武蔵野市","address":"武蔵野市吉祥寺北町4-6-1","lat":35.71169,"lon":139.5675},{"name":"献血供給事業団本部","province":"東京都","city":"武蔵野市","address":"武蔵野市境南町1-26-1","lat":35.696886,"lon":139.548571},{"name":"都立武蔵野中央公園（原っぱ広場）","province":"東京都","city":"武蔵野市","address":"武蔵野市八幡町2丁目地内","lat":35.71818,"lon":139.5565},{"name":"武蔵野赤十字病院ヘリポート","province":"東京都","city":"武蔵野市","address":"武蔵野市境南町1-26-1","lat":35.696886,"lon":139.548571},{"name":"西部公園緑地事務所","province":"東京都","city":"武蔵野市","address":"武蔵野市御殿山1-17-59","lat":35.70114,"lon":139.573},{"name":"吉祥寺駅","province":"東京都","city":"武蔵野市","address":"東京都武蔵野市吉祥寺南町1丁目1-24","lat":35.70304942,"lon":139.57954798},{"name":"武蔵野市保健センター","province":"東京都","city":"武蔵野市","address":"東京都武蔵野市吉祥寺北町4丁目8-10","lat":35.71292303,"lon":139.56658205},{"name":"武蔵野市立武蔵野総合体育館","province":"東京都","city":"武蔵野市","address":"東京都武蔵野市吉祥寺北町5丁目11-20","lat":35.71788638,"lon":139.56758731},{"name":"武蔵野警察署","province":"東京都","city":"武蔵野市","address":"武蔵野市中町2-1-2","lat":35.70601,"lon":139.5609},{"name":"武蔵野消防署","province":"東京都","city":"武蔵野市","address":"武蔵野市吉祥寺北町4-6-1","lat":35.71169,"lon":139.5675},{"name":"献血供給事業団本部","province":"東京都","city":"武蔵野市","address":"武蔵野市境南町1-26-1","lat":35.696886,"lon":139.548571},{"name":"都立武蔵野中央公園（原っぱ広場）","province":"東京都","city":"武蔵野市","address":"武蔵野市八幡町2丁目地内","lat":35.71818,"lon":139.5565},{"name":"武蔵野赤十字病院ヘリポート","province":"東京都","city":"武蔵野市","address":"武蔵野市境南町1-26-1","lat":35.696886,"lon":139.548571},{"name":"西部公園緑地事務所","province":"東京都","city":"武蔵野市","address":"武蔵野市御殿山1-17-59","lat":35.70114,"lon":139.573},{"name":"吉祥寺駅","province":"東京都","city":"武蔵野市","address":"東京都武蔵野市吉祥寺南町1丁目1-24","lat":35.70304942,"lon":139.57954798},{"name":"武蔵野市保健センター","province":"東京都","city":"武蔵野市","address":"東京都武蔵野市吉祥寺北町4丁目8-10","lat":35.71292303,"lon":139.56658205},{"name":"武蔵野市立武蔵野総合体育館","province":"東京都","city":"武蔵野市","address":"東京都武蔵野市吉祥寺北町5丁目11-20","lat":35.71788638,"lon":139.56758731},{"name":"武蔵野警察署","province":"東京都","city":"武蔵野市","address":"武蔵野市中町2-1-2","lat":35.70601,"lon":139.5609},{"name":"武蔵野消防署","province":"東京都","city":"武蔵野市","address":"武蔵野市吉祥寺北町4-6-1","lat":35.71169,"lon":139.5675},{"name":"献血供給事業団本部","province":"東京都","city":"武蔵野市","address":"武蔵野市境南町1-26-1","lat":35.696886,"lon":139.548571},{"name":"都立武蔵野中央公園（原っぱ広場）","province":"東京都","city":"武蔵野市","address":"武蔵野市八幡町2丁目地内","lat":35.71818,"lon":139.5565},{"name":"武蔵野赤十字病院ヘリポート","province":"東京都","city":"武蔵野市","address":"武蔵野市境南町1-26-1","lat":35.696886,"lon":139.548571},{"name":"西部公園緑地事務所","province":"東京都","city":"武蔵野市","address":"武蔵野市御殿山1-17-59","lat":35.70114,"lon":139.573},{"name":"吉祥寺駅","province":"東京都","city":"武蔵野市","address":"東京都武蔵野市吉祥寺南町1丁目1-24","lat":35.70304942,"lon":139.57954798},{"name":"武蔵野市保健センター","province":"東京都","city":"武蔵野市","address":"東京都武蔵野市吉祥寺北町4丁目8-10","lat":35.71292303,"lon":139.56658205},{"name":"武蔵野市立武蔵野総合体育館","province":"東京都","city":"武蔵野市","address":"東京都武蔵野市吉祥寺北町5丁目11-20","lat":35.71788638,"lon":139.56758731},{"name":"武蔵野警察署","province":"東京都","city":"武蔵野市","address":"武蔵野市中町2-1-2","lat":35.70601,"lon":139.5609},{"name":"武蔵野消防署","province":"東京都","city":"武蔵野市","address":"武蔵野市吉祥寺北町4-6-1","lat":35.71169,"lon":139.5675},{"name":"献血供給事業団本部","province":"東京都","city":"武蔵野市","address":"武蔵野市境南町1-26-1","lat":35.696886,"lon":139.548571},{"name":"都立武蔵野中央公園（原っぱ広場）","province":"東京都","city":"武蔵野市","address":"武蔵野市八幡町2丁目地内","lat":35.71818,"lon":139.5565},{"name":"武蔵野赤十字病院ヘリポート","province":"東京都","city":"武蔵野市","address":"武蔵野市境南町1-26-1","lat":35.696886,"lon":139.548571},{"name":"西部公園緑地事務所","province":"東京都","city":"武蔵野市","address":"武蔵野市御殿山1-17-59","lat":35.70114,"lon":139.573},{"name":"吉祥寺駅","province":"東京都","city":"武蔵野市","address":"東京都武蔵野市吉祥寺南町1丁目1-24","lat":35.70304942,"lon":139.57954798},{"name":"武蔵野市保健センター","province":"東京都","city":"武蔵野市","address":"東京都武蔵野市吉祥寺北町4丁目8-10","lat":35.71292303,"lon":139.56658205},{"name":"武蔵野市立武蔵野総合体育館","province":"東京都","city":"武蔵野市","address":"東京都武蔵野市吉祥寺北町5丁目11-20","lat":35.71788638,"lon":139.56758731},{"name":"武蔵野警察署","province":"東京都","city":"武蔵野市","address":"武蔵野市中町2-1-2","lat":35.70601,"lon":139.5609},{"name":"武蔵野消防署","province":"東京都","city":"武蔵野市","address":"武蔵野市吉祥寺北町4-6-1","lat":35.71169,"lon":139.5675},{"name":"献血供給事業団本部","province":"東京都","city":"武蔵野市","address":"武蔵野市境南町1-26-1","lat":35.696886,"lon":139.548571},{"name":"都立武蔵野中央公園（原っぱ広場）","province":"東京都","city":"武蔵野市","address":"武蔵野市八幡町2丁目地内","lat":35.71818,"lon":139.5565},{"name":"武蔵野赤十字病院ヘリポート","province":"東京都","city":"武蔵野市","address":"武蔵野市境南町1-26-1","lat":35.696886,"lon":139.548571},{"name":"西部公園緑地事務所","province":"東京都","city":"武蔵野市","address":"武蔵野市御殿山1-17-59","lat":35.70114,"lon":139.573},{"name":"吉祥寺駅","province":"東京都","city":"武蔵野市","address":"東京都武蔵野市吉祥寺南町1丁目1-24","lat":35.70304942,"lon":139.57954798},{"name":"武蔵野市保健センター","province":"東京都","city":"武蔵野市","address":"東京都武蔵野市吉祥寺北町4丁目8-10","lat":35.71292303,"lon":139.56658205},{"name":"武蔵野市立武蔵野総合体育館","province":"東京都","city":"武蔵野市","address":"東京都武蔵野市吉祥寺北町5丁目11-20","lat":35.71788638,"lon":139.56758731},{"name":"武蔵野警察署","province":"東京都","city":"武蔵野市","address":"武蔵野市中町2-1-2","lat":35.70601,"lon":139.5609},{"name":"武蔵野消防署","province":"東京都","city":"武蔵野市","address":"武蔵野市吉祥寺北町4-6-1","lat":35.71169,"lon":139.5675},{"name":"献血供給事業団本部","province":"東京都","city":"武蔵野市","address":"武蔵野市境南町1-26-1","lat":35.696886,"lon":139.548571},{"name":"都立武蔵野中央公園（原っぱ広場）","province":"東京都","city":"武蔵野市","address":"武蔵野市八幡町2丁目地内","lat":35.71818,"lon":139.5565},{"name":"武蔵野赤十字病院ヘリポート","province":"東京都","city":"武蔵野市","address":"武蔵野市境南町1-26-1","lat":35.696886,"lon":139.548571},{"name":"西部公園緑地事務所","province":"東京都","city":"武蔵野市","address":"武蔵野市御殿山1-17-59","lat":35.70114,"lon":139.573},{"name":"吉祥寺駅","province":"東京都","city":"武蔵野市","address":"東京都武蔵野市吉祥寺南町1丁目1-24","lat":35.70304942,"lon":139.57954798},{"name":"武蔵野市保健センター","province":"東京都","city":"武蔵野市","address":"東京都武蔵野市吉祥寺北町4丁目8-10","lat":35.71292303,"lon":139.56658205},{"name":"武蔵野市立武蔵野総合体育館","province":"東京都","city":"武蔵野市","address":"東京都武蔵野市吉祥寺北町5丁目11-20","lat":35.71788638,"lon":139.56758731},{"name":"武蔵野警察署","province":"東京都","city":"武蔵野市","address":"武蔵野市中町2-1-2","lat":35.70601,"lon":139.5609},{"name":"武蔵野消防署","province":"東京都","city":"武蔵野市","address":"武蔵野市吉祥寺北町4-6-1","lat":35.71169,"lon":139.5675},{"name":"献血供給事業団本部","province":"東京都","city":"武蔵野市","address":"武蔵野市境南町1-26-1","lat":35.696886,"lon":139.548571},{"name":"都立武蔵野中央公園（原っぱ広場）","province":"東京都","city":"武蔵野市","address":"武蔵野市八幡町2丁目地内","lat":35.71818,"lon":139.5565},{"name":"武蔵野赤十字病院ヘリポート","province":"東京都","city":"武蔵野市","address":"武蔵野市境南町1-26-1","lat":35.696886,"lon":139.548571},{"name":"西部公園緑地事務所","province":"東京都","city":"武蔵野市","address":"武蔵野市御殿山1-17-59","lat":35.70114,"lon":139.573},{"name":"吉祥寺駅","province":"東京都","city":"武蔵野市","address":"東京都武蔵野市吉祥寺南町1丁目1-24","lat":35.70304942,"lon":139.57954798},{"name":"武蔵野市保健センター","province":"東京都","city":"武蔵野市","address":"東京都武蔵野市吉祥寺北町4丁目8-10","lat":35.71292303,"lon":139.56658205},{"name":"武蔵野市立武蔵野総合体育館","province":"東京都","city":"武蔵野市","address":"東京都武蔵野市吉祥寺北町5丁目11-20","lat":35.71788638,"lon":139.56758731},{"name":"武蔵野警察署","province":"東京都","city":"武蔵野市","address":"武蔵野市中町2-1-2","lat":35.70601,"lon":139.5609},{"name":"武蔵野消防署","province":"東京都","city":"武蔵野市","address":"武蔵野市吉祥寺北町4-6-1","lat":35.71169,"lon":139.5675},{"name":"献血供給事業団本部","province":"東京都","city":"武蔵野市","address":"武蔵野市境南町1-26-1","lat":35.696886,"lon":139.548571},{"name":"都立武蔵野中央公園（原っぱ広場）","province":"東京都","city":"武蔵野市","address":"武蔵野市八幡町2丁目地内","lat":35.71818,"lon":139.5565},{"name":"武蔵野赤十字病院ヘリポート","province":"東京都","city":"武蔵野市","address":"武蔵野市境南町1-26-1","lat":35.696886,"lon":139.548571},{"name":"西部公園緑地事務所","province":"東京都","city":"武蔵野市","address":"武蔵野市御殿山1-17-59","lat":35.70114,"lon":139.573},{"name":"吉祥寺駅","province":"東京都","city":"武蔵野市","address":"東京都武蔵野市吉祥寺南町1丁目1-24","lat":35.70304942,"lon":139.57954798},{"name":"武蔵野市保健センター","province":"東京都","city":"武蔵野市","address":"東京都武蔵野市吉祥寺北町4丁目8-10","lat":35.71292303,"lon":139.56658205},{"name":"武蔵野市立武蔵野総合体育館","province":"東京都","city":"武蔵野市","address":"東京都武蔵野市吉祥寺北町5丁目11-20","lat":35.71788638,"lon":139.56758731},{"name":"武蔵野警察署","province":"東京都","city":"武蔵野市","address":"武蔵野市中町2-1-2","lat":35.70601,"lon":139.5609},{"name":"武蔵野消防署","province":"東京都","city":"武蔵野市","address":"武蔵野市吉祥寺北町4-6-1","lat":35.71169,"lon":139.5675},{"name":"都立武蔵野中央公園（原っぱ広場）","province":"東京都","city":"武蔵野市","address":"武蔵野市八幡町2丁目地内","lat":35.71818,"lon":139.5565},{"name":"武蔵野赤十字病院ヘリポート","province":"東京都","city":"武蔵野市","address":"武蔵野市境南町1-26-1","lat":35.696886,"lon":139.548571},{"name":"西部公園緑地事務所","province":"東京都","city":"武蔵野市","address":"武蔵野市御殿山1-17-59","lat":35.70114,"lon":139.573},{"name":"吉祥寺駅","province":"東京都","city":"武蔵野市","address":"東京都武蔵野市吉祥寺南町1丁目1-24","lat":35.70304942,"lon":139.57954798},{"name":"武蔵野市保健センター","province":"東京都","city":"武蔵野市","address":"東京都武蔵野市吉祥寺北町4丁目8-10","lat":35.71292303,"lon":139.56658205},{"name":"武蔵野市立武蔵野総合体育館","province":"東京都","city":"武蔵野市","address":"東京都武蔵野市吉祥寺北町5丁目11-20","lat":35.71788638,"lon":139.56758731},{"name":"武蔵野警察署","province":"東京都","city":"武蔵野市","address":"武蔵野市中町2-1-2","lat":35.70601,"lon":139.5609},{"name":"武蔵野消防署","province":"東京都","city":"武蔵野市","address":"武蔵野市吉祥寺北町4-6-1","lat":35.71169,"lon":139.5675},{"name":"都立武蔵野中央公園（原っぱ広場）","province":"東京都","city":"武蔵野市","address":"武蔵野市八幡町2丁目地内","lat":35.71818,"lon":139.5565},{"name":"武蔵野赤十字病院ヘリポート","province":"東京都","city":"武蔵野市","address":"武蔵野市境南町1-26-1","lat":35.696886,"lon":139.548571},{"name":"西部公園緑地事務所","province":"東京都","city":"武蔵野市","address":"武蔵野市御殿山1-17-59","lat":35.70114,"lon":139.573},{"name":"吉祥寺駅","province":"東京都","city":"武蔵野市","address":"東京都武蔵野市吉祥寺南町1丁目1-24","lat":35.70304942,"lon":139.57954798},{"name":"武蔵野市保健センター","province":"東京都","city":"武蔵野市","address":"東京都武蔵野市吉祥寺北町4丁目8-10","lat":35.71292303,"lon":139.56658205},{"name":"武蔵野市立武蔵野総合体育館","province":"東京都","city":"武蔵野市","address":"東京都武蔵野市吉祥寺北町5丁目11-20","lat":35.71788638,"lon":139.56758731},{"name":"武蔵野警察署","province":"東京都","city":"武蔵野市","address":"武蔵野市中町2-1-2","lat":35.70601,"lon":139.5609},{"name":"武蔵野消防署","province":"東京都","city":"武蔵野市","address":"武蔵野市吉祥寺北町4-6-1","lat":35.71169,"lon":139.5675},{"name":"都立武蔵野中央公園（原っぱ広場）","province":"東京都","city":"武蔵野市","address":"武蔵野市八幡町2丁目地内","lat":35.71818,"lon":139.5565},{"name":"武蔵野赤十字病院ヘリポート","province":"東京都","city":"武蔵野市","address":"武蔵野市境南町1-26-1","lat":35.696886,"lon":139.548571},{"name":"西部公園緑地事務所","province":"東京都","city":"武蔵野市","address":"武蔵野市御殿山1-17-59","lat":35.70114,"lon":139.573},{"name":"吉祥寺駅","province":"東京都","city":"武蔵野市","address":"東京都武蔵野市吉祥寺南町1丁目1-24","lat":35.70304942,"lon":139.57954798},{"name":"武蔵野市保健センター","province":"東京都","city":"武蔵野市","address":"東京都武蔵野市吉祥寺北町4丁目8-10","lat":35.71292303,"lon":139.56658205},{"name":"武蔵野市立武蔵野総合体育館","province":"東京都","city":"武蔵野市","address":"東京都武蔵野市吉祥寺北町5丁目11-20","lat":35.71788638,"lon":139.56758731},{"name":"武蔵野警察署","province":"東京都","city":"武蔵野市","address":"武蔵野市中町2-1-2","lat":35.70601,"lon":139.5609},{"name":"武蔵野消防署","province":"東京都","city":"武蔵野市","address":"武蔵野市吉祥寺北町4-6-1","lat":35.71169,"lon":139.5675},{"name":"都立武蔵野中央公園（原っぱ広場）","province":"東京都","city":"武蔵野市","address":"武蔵野市八幡町2丁目地内","lat":35.71818,"lon":139.5565},{"name":"武蔵野赤十字病院ヘリポート","province":"東京都","city":"武蔵野市","address":"武蔵野市境南町1-26-1","lat":35.696886,"lon":139.548571},{"name":"西部公園緑地事務所","province":"東京都","city":"武蔵野市","address":"武蔵野市御殿山1-17-59","lat":35.70114,"lon":139.573},{"name":"吉祥寺駅","province":"東京都","city":"武蔵野市","address":"東京都武蔵野市吉祥寺南町1丁目1-24","lat":35.70304942,"lon":139.57954798},{"name":"武蔵野市保健センター","province":"東京都","city":"武蔵野市","address":"東京都武蔵野市吉祥寺北町4丁目8-10","lat":35.71292303,"lon":139.56658205},{"name":"武蔵野市立武蔵野総合体育館","province":"東京都","city":"武蔵野市","address":"東京都武蔵野市吉祥寺北町5丁目11-20","lat":35.71788638,"lon":139.56758731},{"name":"武蔵野警察署","province":"東京都","city":"武蔵野市","address":"武蔵野市中町2-1-2","lat":35.70601,"lon":139.5609},{"name":"武蔵野消防署","province":"東京都","city":"武蔵野市","address":"武蔵野市吉祥寺北町4-6-1","lat":35.71169,"lon":139.5675},{"name":"都立武蔵野中央公園（原っぱ広場）","province":"東京都","city":"武蔵野市","address":"武蔵野市八幡町2丁目地内","lat":35.71818,"lon":139.5565},{"name":"武蔵野赤十字病院ヘリポート","province":"東京都","city":"武蔵野市","address":"武蔵野市境南町1-26-1","lat":35.696886,"lon":139.548571},{"name":"西部公園緑地事務所","province":"東京都","city":"武蔵野市","address":"武蔵野市御殿山1-17-59","lat":35.70114,"lon":139.573},{"name":"吉祥寺駅","province":"東京都","city":"武蔵野市","address":"東京都武蔵野市吉祥寺南町1丁目1-24","lat":35.70304942,"lon":139.57954798},{"name":"武蔵野市保健センター","province":"東京都","city":"武蔵野市","address":"東京都武蔵野市吉祥寺北町4丁目8-10","lat":35.71292303,"lon":139.56658205},{"name":"武蔵野市立武蔵野総合体育館","province":"東京都","city":"武蔵野市","address":"東京都武蔵野市吉祥寺北町5丁目11-20","lat":35.71788638,"lon":139.56758731},{"name":"武蔵野警察署","province":"東京都","city":"武蔵野市","address":"武蔵野市中町2-1-2","lat":35.70601,"lon":139.5609},{"name":"武蔵野消防署","province":"東京都","city":"武蔵野市","address":"武蔵野市吉祥寺北町4-6-1","lat":35.71169,"lon":139.5675},{"name":"都立武蔵野中央公園（原っぱ広場）","province":"東京都","city":"武蔵野市","address":"武蔵野市八幡町2丁目地内","lat":35.71818,"lon":139.5565},{"name":"武蔵野赤十字病院ヘリポート","province":"東京都","city":"武蔵野市","address":"武蔵野市境南町1-26-1","lat":35.696886,"lon":139.548571},{"name":"西部公園緑地事務所","province":"東京都","city":"武蔵野市","address":"武蔵野市御殿山1-17-59","lat":35.70114,"lon":139.573},{"name":"吉祥寺駅","province":"東京都","city":"武蔵野市","address":"東京都武蔵野市吉祥寺南町1丁目1-24","lat":35.70304942,"lon":139.57954798},{"name":"武蔵野市保健センター","province":"東京都","city":"武蔵野市","address":"東京都武蔵野市吉祥寺北町4丁目8-10","lat":35.71292303,"lon":139.56658205},{"name":"武蔵野市立武蔵野総合体育館","province":"東京都","city":"武蔵野市","address":"東京都武蔵野市吉祥寺北町5丁目11-20","lat":35.71788638,"lon":139.56758731},{"name":"武蔵野警察署","province":"東京都","city":"武蔵野市","address":"武蔵野市中町2-1-2","lat":35.70601,"lon":139.5609},{"name":"武蔵野消防署","province":"東京都","city":"武蔵野市","address":"武蔵野市吉祥寺北町4-6-1","lat":35.71169,"lon":139.5675},{"name":"都立武蔵野中央公園（原っぱ広場）","province":"東京都","city":"武蔵野市","address":"武蔵野市八幡町2丁目地内","lat":35.71818,"lon":139.5565},{"name":"武蔵野赤十字病院ヘリポート","province":"東京都","city":"武蔵野市","address":"武蔵野市境南町1-26-1","lat":35.696886,"lon":139.548571},{"name":"西部公園緑地事務所","province":"東京都","city":"武蔵野市","address":"武蔵野市御殿山1-17-59","lat":35.70114,"lon":139.573},{"name":"吉祥寺駅","province":"東京都","city":"武蔵野市","address":"東京都武蔵野市吉祥寺南町1丁目1-24","lat":35.70304942,"lon":139.57954798},{"name":"武蔵野市保健センター","province":"東京都","city":"武蔵野市","address":"東京都武蔵野市吉祥寺北町4丁目8-10","lat":35.71292303,"lon":139.56658205},{"name":"武蔵野市立武蔵野総合体育館","province":"東京都","city":"武蔵野市","address":"東京都武蔵野市吉祥寺北町5丁目11-20","lat":35.71788638,"lon":139.56758731},{"name":"武蔵野警察署","province":"東京都","city":"武蔵野市","address":"武蔵野市中町2-1-2","lat":35.70601,"lon":139.5609},{"name":"武蔵野消防署","province":"東京都","city":"武蔵野市","address":"武蔵野市吉祥寺北町4-6-1","lat":35.71169,"lon":139.5675},{"name":"都立武蔵野中央公園（原っぱ広場）","province":"東京都","city":"武蔵野市","address":"武蔵野市八幡町2丁目地内","lat":35.71818,"lon":139.5565},{"name":"武蔵野赤十字病院ヘリポート","province":"東京都","city":"武蔵野市","address":"武蔵野市境南町1-26-1","lat":35.696886,"lon":139.548571},{"name":"西部公園緑地事務所","province":"東京都","city":"武蔵野市","address":"武蔵野市御殿山1-17-59","lat":35.70114,"lon":139.573},{"name":"吉祥寺駅","province":"東京都","city":"武蔵野市","address":"東京都武蔵野市吉祥寺南町1丁目1-24","lat":35.70304942,"lon":139.57954798},{"name":"武蔵野市保健センター","province":"東京都","city":"武蔵野市","address":"東京都武蔵野市吉祥寺北町4丁目8-10","lat":35.71292303,"lon":139.56658205},{"name":"武蔵野市立武蔵野総合体育館","province":"東京都","city":"武蔵野市","address":"東京都武蔵野市吉祥寺北町5丁目11-20","lat":35.71788638,"lon":139.56758731},{"name":"武蔵野警察署","province":"東京都","city":"武蔵野市","address":"武蔵野市中町2-1-2","lat":35.70601,"lon":139.5609},{"name":"武蔵野消防署","province":"東京都","city":"武蔵野市","address":"武蔵野市吉祥寺北町4-6-1","lat":35.71169,"lon":139.5675},{"name":"都立武蔵野中央公園（原っぱ広場）","province":"東京都","city":"武蔵野市","address":"武蔵野市八幡町2丁目地内","lat":35.71818,"lon":139.5565},{"name":"武蔵野赤十字病院ヘリポート","province":"東京都","city":"武蔵野市","address":"武蔵野市境南町1-26-1","lat":35.696886,"lon":139.548571},{"name":"西部公園緑地事務所","province":"東京都","city":"武蔵野市","address":"武蔵野市御殿山1-17-59","lat":35.70114,"lon":139.573},{"name":"吉祥寺駅","province":"東京都","city":"武蔵野市","address":"東京都武蔵野市吉祥寺南町1丁目1-24","lat":35.70304942,"lon":139.57954798},{"name":"武蔵野市立武蔵野総合体育館","province":"東京都","city":"武蔵野市","address":"東京都武蔵野市吉祥寺北町5丁目11-20","lat":35.71788638,"lon":139.56758731},{"name":"吉祥寺駅","province":"東京都","city":"武蔵野市","address":"東京都武蔵野市吉祥寺南町1丁目1-24","lat":35.70304942,"lon":139.57954798},{"name":"武蔵野市立武蔵野総合体育館","province":"東京都","city":"武蔵野市","address":"東京都武蔵野市吉祥寺北町5丁目11-20","lat":35.71788638,"lon":139.56758731},{"name":"吉祥寺駅","province":"東京都","city":"武蔵野市","address":"東京都武蔵野市吉祥寺南町1丁目1-24","lat":35.70304942,"lon":139.57954798},{"name":"武蔵野市立武蔵野総合体育館","province":"東京都","city":"武蔵野市","address":"東京都武蔵野市吉祥寺北町5丁目11-20","lat":35.71788638,"lon":139.56758731},{"name":"吉祥寺駅","province":"東京都","city":"武蔵野市","address":"東京都武蔵野市吉祥寺南町1丁目1-24","lat":35.70304942,"lon":139.57954798},{"name":"武蔵野市立武蔵野総合体育館","province":"東京都","city":"武蔵野市","address":"東京都武蔵野市吉祥寺北町5丁目11-20","lat":35.71788638,"lon":139.56758731},{"name":"吉祥寺駅","province":"東京都","city":"武蔵野市","address":"東京都武蔵野市吉祥寺南町1丁目1-24","lat":35.70304942,"lon":139.57954798},{"name":"武蔵野市立武蔵野総合体育館","province":"東京都","city":"武蔵野市","address":"東京都武蔵野市吉祥寺北町5丁目11-20","lat":35.71788638,"lon":139.56758731},{"name":"吉祥寺駅","province":"東京都","city":"武蔵野市","address":"東京都武蔵野市吉祥寺南町1丁目1-24","lat":35.70304942,"lon":139.57954798},{"name":"武蔵野市立武蔵野総合体育館","province":"東京都","city":"武蔵野市","address":"東京都武蔵野市吉祥寺北町5丁目11-20","lat":35.71788638,"lon":139.56758731},{"name":"吉祥寺駅","province":"東京都","city":"武蔵野市","address":"東京都武蔵野市吉祥寺南町1丁目1-24","lat":35.70304942,"lon":139.57954798},{"name":"武蔵野市立武蔵野総合体育館","province":"東京都","city":"武蔵野市","address":"東京都武蔵野市吉祥寺北町5丁目11-20","lat":35.71788638,"lon":139.56758731},{"name":"吉祥寺駅","province":"東京都","city":"武蔵野市","address":"東京都武蔵野市吉祥寺南町1丁目1-24","lat":35.70304942,"lon":139.57954798},{"name":"武蔵野市立武蔵野総合体育館","province":"東京都","city":"武蔵野市","address":"東京都武蔵野市吉祥寺北町5丁目11-20","lat":35.71788638,"lon":139.56758731},{"name":"吉祥寺駅","province":"東京都","city":"武蔵野市","address":"東京都武蔵野市吉祥寺南町1丁目1-24","lat":35.70304942,"lon":139.57954798},{"name":"武蔵野市立武蔵野総合体育館","province":"東京都","city":"武蔵野市","address":"東京都武蔵野市吉祥寺北町5丁目11-20","lat":35.71788638,"lon":139.56758731},{"name":"吉祥寺駅","province":"東京都","city":"武蔵野市","address":"東京都武蔵野市吉祥寺南町1丁目1-24","lat":35.70304942,"lon":139.57954798},{"name":"武蔵野市立武蔵野総合体育館","province":"東京都","city":"武蔵野市","address":"東京都武蔵野市吉祥寺北町5丁目11-20","lat":35.71788638,"lon":139.56758731},{"name":"吉祥寺駅","province":"東京都","city":"武蔵野市","address":"東京都武蔵野市吉祥寺南町1丁目1-24","lat":35.70304942,"lon":139.57954798},{"name":"武蔵野市立武蔵野総合体育館","province":"東京都","city":"武蔵野市","address":"東京都武蔵野市吉祥寺北町5丁目11-20","lat":35.71788638,"lon":139.56758731},{"name":"吉祥寺駅","province":"東京都","city":"武蔵野市","address":"東京都武蔵野市吉祥寺南町1丁目1-24","lat":35.70304942,"lon":139.57954798},{"name":"武蔵野市立武蔵野総合体育館","province":"東京都","city":"武蔵野市","address":"東京都武蔵野市吉祥寺北町5丁目11-20","lat":35.71788638,"lon":139.56758731},{"name":"吉祥寺駅","province":"東京都","city":"武蔵野市","address":"東京都武蔵野市吉祥寺南町1丁目1-24","lat":35.70304942,"lon":139.57954798},{"name":"武蔵野市立武蔵野総合体育館","province":"東京都","city":"武蔵野市","address":"東京都武蔵野市吉祥寺北町5丁目11-20","lat":35.71788638,"lon":139.56758731},{"name":"吉祥寺駅","province":"東京都","city":"武蔵野市","address":"東京都武蔵野市吉祥寺南町1丁目1-24","lat":35.70304942,"lon":139.57954798}]}