{"keyword":"戸数","data":[{"name":"武蔵野市民社会福祉協議会","province":"東京都","city":"武蔵野市","address":"武蔵野市吉祥寺北町1-9-1","lat":35.707904,"lon":139.578459},{"name":"武蔵野市","province":"東京都","city":"武蔵野市","address":"武蔵野市緑町2-2-28","lat":35.7178369,"lon":139.5659378},{"name":"株式会社　愛香","province":"東京都","city":"武蔵野市","address":"東京都武蔵野市西久保3丁目12-9","lat":35.71326453,"lon":139.56029093},{"name":"武蔵野市民社会福祉協議会","province":"東京都","city":"武蔵野市","address":"武蔵野市吉祥寺北町1-9-1","lat":35.70856,"lon":139.57874},{"name":"武蔵野市地域包括支援センター（基幹型）","province":"東京都","city":"武蔵野市","address":"武蔵野市緑町2-2-28/(武蔵野市役所内)","lat":35.717499,"lon":139.566452},{"name":"ゆとりえ在宅介護・地域包括支援センター","province":"東京都","city":"武蔵野市","address":"武蔵野市吉祥寺南町4-25-5","lat":35.69886,"lon":139.591843},{"name":"吉祥寺本町在宅介護・地域包括支援センター","province":"東京都","city":"武蔵野市","address":"武蔵野市吉祥寺本町4-20-13","lat":35.706207,"lon":139.571945},{"name":"高齢者総合センター在宅介護・地域包括支援センター","province":"東京都","city":"武蔵野市","address":"武蔵野市緑町2-4-1","lat":35.715225,"lon":139.562561},{"name":"吉祥寺ナーシング  ホーム在宅介護・地域包括支援センター","province":"東京都","city":"武蔵野市","address":"武蔵野市吉祥寺北町2-9-2","lat":35.712109,"lon":139.578995},{"name":"桜堤ケアハウス在宅介護・地域包括支援センター","province":"東京都","city":"武蔵野市","address":"武蔵野市桜堤1-9-9","lat":35.711014,"lon":139.533569},{"name":"武蔵野赤十字在宅介護・地域包括支援センター","province":"東京都","city":"武蔵野市","address":"武蔵野市境南町1-26-1武蔵野赤十字病院内","lat":35.697906,"lon":139.548782},{"name":"武蔵野市消費生活センター","province":"東京都","city":"武蔵野市","address":"武蔵野市吉祥寺本町1-10-7武蔵野商工会館3階","lat":35.7057,"lon":139.578735},{"name":"武蔵野市民社会福祉協議会","province":"東京都","city":"武蔵野市","address":"武蔵野市吉祥寺北町1-9-11階","lat":35.70857,"lon":139.57874},{"name":"武蔵野赤十字病院","province":"東京都","city":"武蔵野市","address":"東京都武蔵野市境南町1丁目26-1","lat":35.69687727,"lon":139.54853159},{"name":"第一浄水場","province":"東京都","city":"武蔵野市","address":"東京都武蔵野市吉祥寺北町4丁目11-46","lat":35.71395903,"lon":139.56650423},{"name":"第二浄水場","province":"東京都","city":"武蔵野市","address":"東京都武蔵野市桜堤1丁目6-6","lat":35.70967278,"lon":139.53635988},{"name":"武蔵野陸上競技場","province":"東京都","city":"武蔵野市","address":"東京都武蔵野市吉祥寺北町5丁目11-20","lat":35.71788638,"lon":139.56758731},{"name":"都立武蔵野中央公園","province":"東京都","city":"武蔵野市","address":"東京都武蔵野市八幡町2丁目4-22","lat":35.718175,"lon":139.55645772},{"name":"武蔵野赤十字病院ヘリポート","province":"東京都","city":"武蔵野市","address":"東京都武蔵野市境南町1丁目26-1","lat":35.69687727,"lon":139.54853159},{"name":"武蔵野市選挙管理委員会","province":"東京都","city":"武蔵野市","address":"武蔵野市緑町2-2-28","lat":35.717717,"lon":139.566045},{"name":"武蔵高等学校","province":"東京都","city":"武蔵野市","address":"東京都武蔵野市境4丁目13-28","lat":35.70770641,"lon":139.53965969},{"name":"武蔵野北高等学校","province":"東京都","city":"武蔵野市","address":"東京都武蔵野市八幡町2丁目3-10","lat":35.71979428,"lon":139.55733535},{"name":"武蔵野地区","province":"東京都","city":"武蔵野市","address":"武蔵野市中町3-7-1","lat":35.70875,"lon":139.5643},{"name":"武蔵野市クリーンセンター","province":"東京都","city":"武蔵野市","address":"武蔵野市緑町3-1-5","lat":35.719227,"lon":139.566376},{"name":"武蔵野市民社会福祉協議会","province":"東京都","city":"武蔵野市","address":"武蔵野市吉祥寺北町1-9-1","lat":35.707904,"lon":139.578459},{"name":"武蔵野市民社会福祉協議会","province":"東京都","city":"武蔵野市","address":"武蔵野市吉祥寺北町1-9-1","lat":35.70856,"lon":139.57874},{"name":"武蔵野市地域包括支援センター（基幹型）","province":"東京都","city":"武蔵野市","address":"武蔵野市緑町2-2-28/(武蔵野市役所内)","lat":35.717499,"lon":139.566452},{"name":"ゆとりえ在宅介護・地域包括支援センター","province":"東京都","city":"武蔵野市","address":"武蔵野市吉祥寺南町4-25-5","lat":35.69886,"lon":139.591843},{"name":"吉祥寺本町在宅介護・地域包括支援センター","province":"東京都","city":"武蔵野市","address":"武蔵野市吉祥寺本町4-20-13","lat":35.706207,"lon":139.571945},{"name":"高齢者総合センター在宅介護・地域包括支援センター","province":"東京都","city":"武蔵野市","address":"武蔵野市緑町2-4-1","lat":35.715225,"lon":139.562561},{"name":"吉祥寺ナーシング  ホーム在宅介護・地域包括支援センター","province":"東京都","city":"武蔵野市","address":"武蔵野市吉祥寺北町2-9-2","lat":35.712109,"lon":139.578995},{"name":"桜堤ケアハウス在宅介護・地域包括支援センター","province":"東京都","city":"武蔵野市","address":"武蔵野市桜堤1-9-9","lat":35.711014,"lon":139.533569},{"name":"武蔵野赤十字在宅介護・地域包括支援センター","province":"東京都","city":"武蔵野市","address":"武蔵野市境南町1-26-1武蔵野赤十字病院内","lat":35.697906,"lon":139.548782},{"name":"武蔵野市消費生活センター","province":"東京都","city":"武蔵野市","address":"武蔵野市吉祥寺本町1-10-7武蔵野商工会館3階","lat":35.7057,"lon":139.578735},{"name":"武蔵野市民社会福祉協議会","province":"東京都","city":"武蔵野市","address":"武蔵野市吉祥寺北町1-9-11階","lat":35.70857,"lon":139.57874},{"name":"武蔵野赤十字病院","province":"東京都","city":"武蔵野市","address":"東京都武蔵野市境南町1丁目26-1","lat":35.69687727,"lon":139.54853159},{"name":"第一浄水場","province":"東京都","city":"武蔵野市","address":"東京都武蔵野市吉祥寺北町4丁目11-46","lat":35.71395903,"lon":139.56650423},{"name":"第二浄水場","province":"東京都","city":"武蔵野市","address":"東京都武蔵野市桜堤1丁目6-6","lat":35.70967278,"lon":139.53635988},{"name":"武蔵野陸上競技場","province":"東京都","city":"武蔵野市","address":"東京都武蔵野市吉祥寺北町5丁目11-20","lat":35.71788638,"lon":139.56758731},{"name":"都立武蔵野中央公園","province":"東京都","city":"武蔵野市","address":"東京都武蔵野市八幡町2丁目4-22","lat":35.718175,"lon":139.55645772},{"name":"武蔵野赤十字病院ヘリポート","province":"東京都","city":"武蔵野市","address":"東京都武蔵野市境南町1丁目26-1","lat":35.69687727,"lon":139.54853159},{"name":"武蔵高等学校","province":"東京都","city":"武蔵野市","address":"東京都武蔵野市境4丁目13-28","lat":35.70770641,"lon":139.53965969},{"name":"武蔵野北高等学校","province":"東京都","city":"武蔵野市","address":"東京都武蔵野市八幡町2丁目3-10","lat":35.71979428,"lon":139.55733535},{"name":"武蔵野地区","province":"東京都","city":"武蔵野市","address":"武蔵野市中町3-7-1","lat":35.70875,"lon":139.5643},{"name":"武蔵野市クリーンセンター","province":"東京都","city":"武蔵野市","address":"武蔵野市緑町3-1-5","lat":35.719227,"lon":139.566376},{"name":"武蔵野市地域包括支援センター（基幹型）","province":"東京都","city":"武蔵野市","address":"武蔵野市緑町2-2-28/(武蔵野市役所内)","lat":35.717499,"lon":139.566452},{"name":"ゆとりえ在宅介護・地域包括支援センター","province":"東京都","city":"武蔵野市","address":"武蔵野市吉祥寺南町4-25-5","lat":35.69886,"lon":139.591843},{"name":"吉祥寺本町在宅介護・地域包括支援センター","province":"東京都","city":"武蔵野市","address":"武蔵野市吉祥寺本町4-20-13","lat":35.706207,"lon":139.571945},{"name":"高齢者総合センター在宅介護・地域包括支援センター","province":"東京都","city":"武蔵野市","address":"武蔵野市緑町2-4-1","lat":35.715225,"lon":139.562561},{"name":"吉祥寺ナーシング  ホーム在宅介護・地域包括支援センター","province":"東京都","city":"武蔵野市","address":"武蔵野市吉祥寺北町2-9-2","lat":35.712109,"lon":139.578995},{"name":"桜堤ケアハウス在宅介護・地域包括支援センター","province":"東京都","city":"武蔵野市","address":"武蔵野市桜堤1-9-9","lat":35.711014,"lon":139.533569},{"name":"武蔵野赤十字在宅介護・地域包括支援センター","province":"東京都","city":"武蔵野市","address":"武蔵野市境南町1-26-1武蔵野赤十字病院内","lat":35.697906,"lon":139.548782},{"name":"武蔵野市消費生活センター","province":"東京都","city":"武蔵野市","address":"武蔵野市吉祥寺本町1-10-7武蔵野商工会館3階","lat":35.7057,"lon":139.578735},{"name":"武蔵野赤十字病院","province":"東京都","city":"武蔵野市","address":"東京都武蔵野市境南町1丁目26-1","lat":35.69687727,"lon":139.54853159},{"name":"武蔵高等学校","province":"東京都","city":"武蔵野市","address":"東京都武蔵野市境4丁目13-28","lat":35.70770641,"lon":139.53965969},{"name":"武蔵野北高等学校","province":"東京都","city":"武蔵野市","address":"東京都武蔵野市八幡町2丁目3-10","lat":35.71979428,"lon":139.55733535},{"name":"武蔵野市地域包括支援センター（基幹型）","province":"東京都","city":"武蔵野市","address":"武蔵野市緑町2-2-28/(武蔵野市役所内)","lat":35.717499,"lon":139.566452},{"name":"ゆとりえ在宅介護・地域包括支援センター","province":"東京都","city":"武蔵野市","address":"武蔵野市吉祥寺南町4-25-5","lat":35.69886,"lon":139.591843},{"name":"吉祥寺本町在宅介護・地域包括支援センター","province":"東京都","city":"武蔵野市","address":"武蔵野市吉祥寺本町4-20-13","lat":35.706207,"lon":139.571945},{"name":"高齢者総合センター在宅介護・地域包括支援センター","province":"東京都","city":"武蔵野市","address":"武蔵野市緑町2-4-1","lat":35.715225,"lon":139.562561},{"name":"吉祥寺ナーシング  ホーム在宅介護・地域包括支援センター","province":"東京都","city":"武蔵野市","address":"武蔵野市吉祥寺北町2-9-2","lat":35.712109,"lon":139.578995},{"name":"桜堤ケアハウス在宅介護・地域包括支援センター","province":"東京都","city":"武蔵野市","address":"武蔵野市桜堤1-9-9","lat":35.711014,"lon":139.533569},{"name":"武蔵野赤十字在宅介護・地域包括支援センター","province":"東京都","city":"武蔵野市","address":"武蔵野市境南町1-26-1武蔵野赤十字病院内","lat":35.697906,"lon":139.548782},{"name":"武蔵野市消費生活センター","province":"東京都","city":"武蔵野市","address":"武蔵野市吉祥寺本町1-10-7武蔵野商工会館3階","lat":35.7057,"lon":139.578735},{"name":"武蔵野赤十字病院","province":"東京都","city":"武蔵野市","address":"東京都武蔵野市境南町1丁目26-1","lat":35.69687727,"lon":139.54853159},{"name":"武蔵高等学校","province":"東京都","city":"武蔵野市","address":"東京都武蔵野市境4丁目13-28","lat":35.70770641,"lon":139.53965969},{"name":"武蔵野北高等学校","province":"東京都","city":"武蔵野市","address":"東京都武蔵野市八幡町2丁目3-10","lat":35.71979428,"lon":139.55733535},{"name":"武蔵野市地域包括支援センター（基幹型）","province":"東京都","city":"武蔵野市","address":"武蔵野市緑町2-2-28/(武蔵野市役所内)","lat":35.717499,"lon":139.566452},{"name":"ゆとりえ在宅介護・地域包括支援センター","province":"東京都","city":"武蔵野市","address":"武蔵野市吉祥寺南町4-25-5","lat":35.69886,"lon":139.591843},{"name":"吉祥寺本町在宅介護・地域包括支援センター","province":"東京都","city":"武蔵野市","address":"武蔵野市吉祥寺本町4-20-13","lat":35.706207,"lon":139.571945},{"name":"高齢者総合センター在宅介護・地域包括支援センター","province":"東京都","city":"武蔵野市","address":"武蔵野市緑町2-4-1","lat":35.715225,"lon":139.562561},{"name":"吉祥寺ナーシング  ホーム在宅介護・地域包括支援センター","province":"東京都","city":"武蔵野市","address":"武蔵野市吉祥寺北町2-9-2","lat":35.712109,"lon":139.578995},{"name":"桜堤ケアハウス在宅介護・地域包括支援センター","province":"東京都","city":"武蔵野市","address":"武蔵野市桜堤1-9-9","lat":35.711014,"lon":139.533569},{"name":"武蔵野赤十字在宅介護・地域包括支援センター","province":"東京都","city":"武蔵野市","address":"武蔵野市境南町1-26-1武蔵野赤十字病院内","lat":35.697906,"lon":139.548782},{"name":"武蔵野市消費生活センター","province":"東京都","city":"武蔵野市","address":"武蔵野市吉祥寺本町1-10-7武蔵野商工会館3階","lat":35.7057,"lon":139.578735},{"name":"武蔵野市地域包括支援センター（基幹型）","province":"東京都","city":"武蔵野市","address":"武蔵野市緑町2-2-28/(武蔵野市役所内)","lat":35.717499,"lon":139.566452},{"name":"ゆとりえ在宅介護・地域包括支援センター","province":"東京都","city":"武蔵野市","address":"武蔵野市吉祥寺南町4-25-5","lat":35.69886,"lon":139.591843},{"name":"吉祥寺本町在宅介護・地域包括支援センター","province":"東京都","city":"武蔵野市","address":"武蔵野市吉祥寺本町4-20-13","lat":35.706207,"lon":139.571945},{"name":"高齢者総合センター在宅介護・地域包括支援センター","province":"東京都","city":"武蔵野市","address":"武蔵野市緑町2-4-1","lat":35.715225,"lon":139.562561},{"name":"吉祥寺ナーシング  ホーム在宅介護・地域包括支援センター","province":"東京都","city":"武蔵野市","address":"武蔵野市吉祥寺北町2-9-2","lat":35.712109,"lon":139.578995},{"name":"桜堤ケアハウス在宅介護・地域包括支援センター","province":"東京都","city":"武蔵野市","address":"武蔵野市桜堤1-9-9","lat":35.711014,"lon":139.533569},{"name":"武蔵野赤十字在宅介護・地域包括支援センター","province":"東京都","city":"武蔵野市","address":"武蔵野市境南町1-26-1武蔵野赤十字病院内","lat":35.697906,"lon":139.548782},{"name":"武蔵野市消費生活センター","province":"東京都","city":"武蔵野市","address":"武蔵野市吉祥寺本町1-10-7武蔵野商工会館3階","lat":35.7057,"lon":139.578735},{"name":"武蔵野市地域包括支援センター（基幹型）","province":"東京都","city":"武蔵野市","address":"武蔵野市緑町2-2-28/(武蔵野市役所内)","lat":35.717499,"lon":139.566452},{"name":"ゆとりえ在宅介護・地域包括支援センター","province":"東京都","city":"武蔵野市","address":"武蔵野市吉祥寺南町4-25-5","lat":35.69886,"lon":139.591843},{"name":"吉祥寺本町在宅介護・地域包括支援センター","province":"東京都","city":"武蔵野市","address":"武蔵野市吉祥寺本町4-20-13","lat":35.706207,"lon":139.571945},{"name":"高齢者総合センター在宅介護・地域包括支援センター","province":"東京都","city":"武蔵野市","address":"武蔵野市緑町2-4-1","lat":35.715225,"lon":139.562561},{"name":"吉祥寺ナーシング  ホーム在宅介護・地域包括支援センター","province":"東京都","city":"武蔵野市","address":"武蔵野市吉祥寺北町2-9-2","lat":35.712109,"lon":139.578995},{"name":"桜堤ケアハウス在宅介護・地域包括支援センター","province":"東京都","city":"武蔵野市","address":"武蔵野市桜堤1-9-9","lat":35.711014,"lon":139.533569},{"name":"武蔵野赤十字在宅介護・地域包括支援センター","province":"東京都","city":"武蔵野市","address":"武蔵野市境南町1-26-1武蔵野赤十字病院内","lat":35.697906,"lon":139.548782},{"name":"武蔵野市消費生活センター","province":"東京都","city":"武蔵野市","address":"武蔵野市吉祥寺本町1-10-7武蔵野商工会館3階","lat":35.7057,"lon":139.578735},{"name":"武蔵野市地域包括支援センター（基幹型）","province":"東京都","city":"武蔵野市","address":"武蔵野市緑町2-2-28/(武蔵野市役所内)","lat":35.717499,"lon":139.566452},{"name":"ゆとりえ在宅介護・地域包括支援センター","province":"東京都","city":"武蔵野市","address":"武蔵野市吉祥寺南町4-25-5","lat":35.69886,"lon":139.591843},{"name":"吉祥寺本町在宅介護・地域包括支援センター","province":"東京都","city":"武蔵野市","address":"武蔵野市吉祥寺本町4-20-13","lat":35.706207,"lon":139.571945},{"name":"高齢者総合センター在宅介護・地域包括支援センター","province":"東京都","city":"武蔵野市","address":"武蔵野市緑町2-4-1","lat":35.715225,"lon":139.562561},{"name":"吉祥寺ナーシング  ホーム在宅介護・地域包括支援センター","province":"東京都","city":"武蔵野市","address":"武蔵野市吉祥寺北町2-9-2","lat":35.712109,"lon":139.578995},{"name":"桜堤ケアハウス在宅介護・地域包括支援センター","province":"東京都","city":"武蔵野市","address":"武蔵野市桜堤1-9-9","lat":35.711014,"lon":139.533569},{"name":"武蔵野赤十字在宅介護・地域包括支援センター","province":"東京都","city":"武蔵野市","address":"武蔵野市境南町1-26-1武蔵野赤十字病院内","lat":35.697906,"lon":139.548782},{"name":"武蔵野市消費生活センター","province":"東京都","city":"武蔵野市","address":"武蔵野市吉祥寺本町1-10-7武蔵野商工会館3階","lat":35.7057,"lon":139.578735},{"name":"武蔵野市地域包括支援センター（基幹型）","province":"東京都","city":"武蔵野市","address":"武蔵野市緑町2-2-28/(武蔵野市役所内)","lat":35.717499,"lon":139.566452},{"name":"ゆとりえ在宅介護・地域包括支援センター","province":"東京都","city":"武蔵野市","address":"武蔵野市吉祥寺南町4-25-5","lat":35.69886,"lon":139.591843},{"name":"吉祥寺本町在宅介護・地域包括支援センター","province":"東京都","city":"武蔵野市","address":"武蔵野市吉祥寺本町4-20-13","lat":35.706207,"lon":139.571945},{"name":"高齢者総合センター在宅介護・地域包括支援センター","province":"東京都","city":"武蔵野市","address":"武蔵野市緑町2-4-1","lat":35.715225,"lon":139.562561},{"name":"吉祥寺ナーシング  ホーム在宅介護・地域包括支援センター","province":"東京都","city":"武蔵野市","address":"武蔵野市吉祥寺北町2-9-2","lat":35.712109,"lon":139.578995},{"name":"桜堤ケアハウス在宅介護・地域包括支援センター","province":"東京都","city":"武蔵野市","address":"武蔵野市桜堤1-9-9","lat":35.711014,"lon":139.533569},{"name":"武蔵野赤十字在宅介護・地域包括支援センター","province":"東京都","city":"武蔵野市","address":"武蔵野市境南町1-26-1武蔵野赤十字病院内","lat":35.697906,"lon":139.548782},{"name":"武蔵野市消費生活センター","province":"東京都","city":"武蔵野市","address":"武蔵野市吉祥寺本町1-10-7武蔵野商工会館3階","lat":35.7057,"lon":139.578735},{"name":"武蔵野市地域包括支援センター（基幹型）","province":"東京都","city":"武蔵野市","address":"武蔵野市緑町2-2-28/(武蔵野市役所内)","lat":35.717499,"lon":139.566452},{"name":"ゆとりえ在宅介護・地域包括支援センター","province":"東京都","city":"武蔵野市","address":"武蔵野市吉祥寺南町4-25-5","lat":35.69886,"lon":139.591843},{"name":"吉祥寺本町在宅介護・地域包括支援センター","province":"東京都","city":"武蔵野市","address":"武蔵野市吉祥寺本町4-20-13","lat":35.706207,"lon":139.571945},{"name":"高齢者総合センター在宅介護・地域包括支援センター","province":"東京都","city":"武蔵野市","address":"武蔵野市緑町2-4-1","lat":35.715225,"lon":139.562561},{"name":"吉祥寺ナーシング  ホーム在宅介護・地域包括支援センター","province":"東京都","city":"武蔵野市","address":"武蔵野市吉祥寺北町2-9-2","lat":35.712109,"lon":139.578995},{"name":"桜堤ケアハウス在宅介護・地域包括支援センター","province":"東京都","city":"武蔵野市","address":"武蔵野市桜堤1-9-9","lat":35.711014,"lon":139.533569},{"name":"武蔵野赤十字在宅介護・地域包括支援センター","province":"東京都","city":"武蔵野市","address":"武蔵野市境南町1-26-1武蔵野赤十字病院内","lat":35.697906,"lon":139.548782},{"name":"武蔵野市消費生活センター","province":"東京都","city":"武蔵野市","address":"武蔵野市吉祥寺本町1-10-7武蔵野商工会館3階","lat":35.7057,"lon":139.578735},{"name":"武蔵野市地域包括支援センター（基幹型）","province":"東京都","city":"武蔵野市","address":"武蔵野市緑町2-2-28/(武蔵野市役所内)","lat":35.717499,"lon":139.566452},{"name":"ゆとりえ在宅介護・地域包括支援センター","province":"東京都","city":"武蔵野市","address":"武蔵野市吉祥寺南町4-25-5","lat":35.69886,"lon":139.591843},{"name":"吉祥寺本町在宅介護・地域包括支援センター","province":"東京都","city":"武蔵野市","address":"武蔵野市吉祥寺本町4-20-13","lat":35.706207,"lon":139.571945},{"name":"高齢者総合センター在宅介護・地域包括支援センター","province":"東京都","city":"武蔵野市","address":"武蔵野市緑町2-4-1","lat":35.715225,"lon":139.562561},{"name":"吉祥寺ナーシング  ホーム在宅介護・地域包括支援センター","province":"東京都","city":"武蔵野市","address":"武蔵野市吉祥寺北町2-9-2","lat":35.712109,"lon":139.578995},{"name":"桜堤ケアハウス在宅介護・地域包括支援センター","province":"東京都","city":"武蔵野市","address":"武蔵野市桜堤1-9-9","lat":35.711014,"lon":139.533569},{"name":"武蔵野赤十字在宅介護・地域包括支援センター","province":"東京都","city":"武蔵野市","address":"武蔵野市境南町1-26-1武蔵野赤十字病院内","lat":35.697906,"lon":139.548782},{"name":"武蔵野市消費生活センター","province":"東京都","city":"武蔵野市","address":"武蔵野市吉祥寺本町1-10-7武蔵野商工会館3階","lat":35.7057,"lon":139.578735},{"name":"武蔵野市地域包括支援センター（基幹型）","province":"東京都","city":"武蔵野市","address":"武蔵野市緑町2-2-28/(武蔵野市役所内)","lat":35.717499,"lon":139.566452},{"name":"ゆとりえ在宅介護・地域包括支援センター","province":"東京都","city":"武蔵野市","address":"武蔵野市吉祥寺南町4-25-5","lat":35.69886,"lon":139.591843},{"name":"吉祥寺本町在宅介護・地域包括支援センター","province":"東京都","city":"武蔵野市","address":"武蔵野市吉祥寺本町4-20-13","lat":35.706207,"lon":139.571945},{"name":"高齢者総合センター在宅介護・地域包括支援センター","province":"東京都","city":"武蔵野市","address":"武蔵野市緑町2-4-1","lat":35.715225,"lon":139.562561},{"name":"吉祥寺ナーシング  ホーム在宅介護・地域包括支援センター","province":"東京都","city":"武蔵野市","address":"武蔵野市吉祥寺北町2-9-2","lat":35.712109,"lon":139.578995},{"name":"桜堤ケアハウス在宅介護・地域包括支援センター","province":"東京都","city":"武蔵野市","address":"武蔵野市桜堤1-9-9","lat":35.711014,"lon":139.533569},{"name":"武蔵野赤十字在宅介護・地域包括支援センター","province":"東京都","city":"武蔵野市","address":"武蔵野市境南町1-26-1武蔵野赤十字病院内","lat":35.697906,"lon":139.548782},{"name":"武蔵野市消費生活センター","province":"東京都","city":"武蔵野市","address":"武蔵野市吉祥寺本町1-10-7武蔵野商工会館3階","lat":35.7057,"lon":139.578735},{"name":"武蔵野市地域包括支援センター（基幹型）","province":"東京都","city":"武蔵野市","address":"武蔵野市緑町2-2-28/(武蔵野市役所内)","lat":35.717499,"lon":139.566452},{"name":"ゆとりえ在宅介護・地域包括支援センター","province":"東京都","city":"武蔵野市","address":"武蔵野市吉祥寺南町4-25-5","lat":35.69886,"lon":139.591843},{"name":"吉祥寺本町在宅介護・地域包括支援センター","province":"東京都","city":"武蔵野市","address":"武蔵野市吉祥寺本町4-20-13","lat":35.706207,"lon":139.571945},{"name":"高齢者総合センター在宅介護・地域包括支援センター","province":"東京都","city":"武蔵野市","address":"武蔵野市緑町2-4-1","lat":35.715225,"lon":139.562561},{"name":"吉祥寺ナーシング  ホーム在宅介護・地域包括支援センター","province":"東京都","city":"武蔵野市","address":"武蔵野市吉祥寺北町2-9-2","lat":35.712109,"lon":139.578995},{"name":"桜堤ケアハウス在宅介護・地域包括支援センター","province":"東京都","city":"武蔵野市","address":"武蔵野市桜堤1-9-9","lat":35.711014,"lon":139.533569},{"name":"武蔵野赤十字在宅介護・地域包括支援センター","province":"東京都","city":"武蔵野市","address":"武蔵野市境南町1-26-1武蔵野赤十字病院内","lat":35.697906,"lon":139.548782},{"name":"武蔵野市消費生活センター","province":"東京都","city":"武蔵野市","address":"武蔵野市吉祥寺本町1-10-7武蔵野商工会館3階","lat":35.7057,"lon":139.578735},{"name":"武蔵野市地域包括支援センター（基幹型）","province":"東京都","city":"武蔵野市","address":"武蔵野市緑町2-2-28/(武蔵野市役所内)","lat":35.717499,"lon":139.566452},{"name":"ゆとりえ在宅介護・地域包括支援センター","province":"東京都","city":"武蔵野市","address":"武蔵野市吉祥寺南町4-25-5","lat":35.69886,"lon":139.591843},{"name":"吉祥寺本町在宅介護・地域包括支援センター","province":"東京都","city":"武蔵野市","address":"武蔵野市吉祥寺本町4-20-13","lat":35.706207,"lon":139.571945},{"name":"高齢者総合センター在宅介護・地域包括支援センター","province":"東京都","city":"武蔵野市","address":"武蔵野市緑町2-4-1","lat":35.715225,"lon":139.562561},{"name":"吉祥寺ナーシング  ホーム在宅介護・地域包括支援センター","province":"東京都","city":"武蔵野市","address":"武蔵野市吉祥寺北町2-9-2","lat":35.712109,"lon":139.578995},{"name":"桜堤ケアハウス在宅介護・地域包括支援センター","province":"東京都","city":"武蔵野市","address":"武蔵野市桜堤1-9-9","lat":35.711014,"lon":139.533569},{"name":"武蔵野赤十字在宅介護・地域包括支援センター","province":"東京都","city":"武蔵野市","address":"武蔵野市境南町1-26-1武蔵野赤十字病院内","lat":35.697906,"lon":139.548782},{"name":"武蔵野市消費生活センター","province":"東京都","city":"武蔵野市","address":"武蔵野市吉祥寺本町1-10-7武蔵野商工会館3階","lat":35.7057,"lon":139.578735},{"name":"武蔵野市地域包括支援センター（基幹型）","province":"東京都","city":"武蔵野市","address":"武蔵野市緑町2-2-28/(武蔵野市役所内)","lat":35.717499,"lon":139.566452},{"name":"ゆとりえ在宅介護・地域包括支援センター","province":"東京都","city":"武蔵野市","address":"武蔵野市吉祥寺南町4-25-5","lat":35.69886,"lon":139.591843},{"name":"吉祥寺本町在宅介護・地域包括支援センター","province":"東京都","city":"武蔵野市","address":"武蔵野市吉祥寺本町4-20-13","lat":35.706207,"lon":139.571945},{"name":"高齢者総合センター在宅介護・地域包括支援センター","province":"東京都","city":"武蔵野市","address":"武蔵野市緑町2-4-1","lat":35.715225,"lon":139.562561},{"name":"吉祥寺ナーシング  ホーム在宅介護・地域包括支援センター","province":"東京都","city":"武蔵野市","address":"武蔵野市吉祥寺北町2-9-2","lat":35.712109,"lon":139.578995},{"name":"桜堤ケアハウス在宅介護・地域包括支援センター","province":"東京都","city":"武蔵野市","address":"武蔵野市桜堤1-9-9","lat":35.711014,"lon":139.533569},{"name":"武蔵野赤十字在宅介護・地域包括支援センター","province":"東京都","city":"武蔵野市","address":"武蔵野市境南町1-26-1武蔵野赤十字病院内","lat":35.697906,"lon":139.548782},{"name":"武蔵野市消費生活センター","province":"東京都","city":"武蔵野市","address":"武蔵野市吉祥寺本町1-10-7武蔵野商工会館3階","lat":35.7057,"lon":139.578735},{"name":"武蔵野市地域包括支援センター（基幹型）","province":"東京都","city":"武蔵野市","address":"武蔵野市緑町2-2-28/(武蔵野市役所内)","lat":35.717499,"lon":139.566452},{"name":"ゆとりえ在宅介護・地域包括支援センター","province":"東京都","city":"武蔵野市","address":"武蔵野市吉祥寺南町4-25-5","lat":35.69886,"lon":139.591843},{"name":"吉祥寺本町在宅介護・地域包括支援センター","province":"東京都","city":"武蔵野市","address":"武蔵野市吉祥寺本町4-20-13","lat":35.706207,"lon":139.571945},{"name":"高齢者総合センター在宅介護・地域包括支援センター","province":"東京都","city":"武蔵野市","address":"武蔵野市緑町2-4-1","lat":35.715225,"lon":139.562561},{"name":"吉祥寺ナーシング  ホーム在宅介護・地域包括支援センター","province":"東京都","city":"武蔵野市","address":"武蔵野市吉祥寺北町2-9-2","lat":35.712109,"lon":139.578995},{"name":"桜堤ケアハウス在宅介護・地域包括支援センター","province":"東京都","city":"武蔵野市","address":"武蔵野市桜堤1-9-9","lat":35.711014,"lon":139.533569},{"name":"武蔵野赤十字在宅介護・地域包括支援センター","province":"東京都","city":"武蔵野市","address":"武蔵野市境南町1-26-1武蔵野赤十字病院内","lat":35.697906,"lon":139.548782},{"name":"武蔵野市消費生活センター","province":"東京都","city":"武蔵野市","address":"武蔵野市吉祥寺本町1-10-7武蔵野商工会館3階","lat":35.7057,"lon":139.578735},{"name":"武蔵野市地域包括支援センター（基幹型）","province":"東京都","city":"武蔵野市","address":"武蔵野市緑町2-2-28/(武蔵野市役所内)","lat":35.717499,"lon":139.566452},{"name":"ゆとりえ在宅介護・地域包括支援センター","province":"東京都","city":"武蔵野市","address":"武蔵野市吉祥寺南町4-25-5","lat":35.69886,"lon":139.591843},{"name":"吉祥寺本町在宅介護・地域包括支援センター","province":"東京都","city":"武蔵野市","address":"武蔵野市吉祥寺本町4-20-13","lat":35.706207,"lon":139.571945},{"name":"高齢者総合センター在宅介護・地域包括支援センター","province":"東京都","city":"武蔵野市","address":"武蔵野市緑町2-4-1","lat":35.715225,"lon":139.562561},{"name":"吉祥寺ナーシング  ホーム在宅介護・地域包括支援センター","province":"東京都","city":"武蔵野市","address":"武蔵野市吉祥寺北町2-9-2","lat":35.712109,"lon":139.578995},{"name":"桜堤ケアハウス在宅介護・地域包括支援センター","province":"東京都","city":"武蔵野市","address":"武蔵野市桜堤1-9-9","lat":35.711014,"lon":139.533569},{"name":"武蔵野赤十字在宅介護・地域包括支援センター","province":"東京都","city":"武蔵野市","address":"武蔵野市境南町1-26-1武蔵野赤十字病院内","lat":35.697906,"lon":139.548782},{"name":"武蔵野市消費生活センター","province":"東京都","city":"武蔵野市","address":"武蔵野市吉祥寺本町1-10-7武蔵野商工会館3階","lat":35.7057,"lon":139.578735},{"name":"武蔵野市地域包括支援センター（基幹型）","province":"東京都","city":"武蔵野市","address":"武蔵野市緑町2-2-28/(武蔵野市役所内)","lat":35.717499,"lon":139.566452},{"name":"ゆとりえ在宅介護・地域包括支援センター","province":"東京都","city":"武蔵野市","address":"武蔵野市吉祥寺南町4-25-5","lat":35.69886,"lon":139.591843},{"name":"吉祥寺本町在宅介護・地域包括支援センター","province":"東京都","city":"武蔵野市","address":"武蔵野市吉祥寺本町4-20-13","lat":35.706207,"lon":139.571945},{"name":"高齢者総合センター在宅介護・地域包括支援センター","province":"東京都","city":"武蔵野市","address":"武蔵野市緑町2-4-1","lat":35.715225,"lon":139.562561},{"name":"吉祥寺ナーシング  ホーム在宅介護・地域包括支援センター","province":"東京都","city":"武蔵野市","address":"武蔵野市吉祥寺北町2-9-2","lat":35.712109,"lon":139.578995},{"name":"桜堤ケアハウス在宅介護・地域包括支援センター","province":"東京都","city":"武蔵野市","address":"武蔵野市桜堤1-9-9","lat":35.711014,"lon":139.533569},{"name":"武蔵野赤十字在宅介護・地域包括支援センター","province":"東京都","city":"武蔵野市","address":"武蔵野市境南町1-26-1武蔵野赤十字病院内","lat":35.697906,"lon":139.548782},{"name":"武蔵野市消費生活センター","province":"東京都","city":"武蔵野市","address":"武蔵野市吉祥寺本町1-10-7武蔵野商工会館3階","lat":35.7057,"lon":139.578735},{"name":"武蔵野市地域包括支援センター（基幹型）","province":"東京都","city":"武蔵野市","address":"武蔵野市緑町2-2-28/(武蔵野市役所内)","lat":35.717499,"lon":139.566452},{"name":"ゆとりえ在宅介護・地域包括支援センター","province":"東京都","city":"武蔵野市","address":"武蔵野市吉祥寺南町4-25-5","lat":35.69886,"lon":139.591843},{"name":"吉祥寺本町在宅介護・地域包括支援センター","province":"東京都","city":"武蔵野市","address":"武蔵野市吉祥寺本町4-20-13","lat":35.706207,"lon":139.571945},{"name":"高齢者総合センター在宅介護・地域包括支援センター","province":"東京都","city":"武蔵野市","address":"武蔵野市緑町2-4-1","lat":35.715225,"lon":139.562561},{"name":"吉祥寺ナーシング  ホーム在宅介護・地域包括支援センター","province":"東京都","city":"武蔵野市","address":"武蔵野市吉祥寺北町2-9-2","lat":35.712109,"lon":139.578995},{"name":"桜堤ケアハウス在宅介護・地域包括支援センター","province":"東京都","city":"武蔵野市","address":"武蔵野市桜堤1-9-9","lat":35.711014,"lon":139.533569},{"name":"武蔵野赤十字在宅介護・地域包括支援センター","province":"東京都","city":"武蔵野市","address":"武蔵野市境南町1-26-1武蔵野赤十字病院内","lat":35.697906,"lon":139.548782},{"name":"武蔵野市消費生活センター","province":"東京都","city":"武蔵野市","address":"武蔵野市吉祥寺本町1-10-7武蔵野商工会館3階","lat":35.7057,"lon":139.578735},{"name":"武蔵野市地域包括支援センター（基幹型）","province":"東京都","city":"武蔵野市","address":"武蔵野市緑町2-2-28/(武蔵野市役所内)","lat":35.717499,"lon":139.566452},{"name":"ゆとりえ在宅介護・地域包括支援センター","province":"東京都","city":"武蔵野市","address":"武蔵野市吉祥寺南町4-25-5","lat":35.69886,"lon":139.591843},{"name":"吉祥寺本町在宅介護・地域包括支援センター","province":"東京都","city":"武蔵野市","address":"武蔵野市吉祥寺本町4-20-13","lat":35.706207,"lon":139.571945},{"name":"高齢者総合センター在宅介護・地域包括支援センター","province":"東京都","city":"武蔵野市","address":"武蔵野市緑町2-4-1","lat":35.715225,"lon":139.562561},{"name":"吉祥寺ナーシング  ホーム在宅介護・地域包括支援センター","province":"東京都","city":"武蔵野市","address":"武蔵野市吉祥寺北町2-9-2","lat":35.712109,"lon":139.578995},{"name":"桜堤ケアハウス在宅介護・地域包括支援センター","province":"東京都","city":"武蔵野市","address":"武蔵野市桜堤1-9-9","lat":35.711014,"lon":139.533569},{"name":"武蔵野赤十字在宅介護・地域包括支援センター","province":"東京都","city":"武蔵野市","address":"武蔵野市境南町1-26-1武蔵野赤十字病院内","lat":35.697906,"lon":139.548782},{"name":"武蔵野市消費生活センター","province":"東京都","city":"武蔵野市","address":"武蔵野市吉祥寺本町1-10-7武蔵野商工会館3階","lat":35.7057,"lon":139.578735},{"name":"武蔵野市地域包括支援センター（基幹型）","province":"東京都","city":"武蔵野市","address":"武蔵野市緑町2-2-28/(武蔵野市役所内)","lat":35.717499,"lon":139.566452},{"name":"ゆとりえ在宅介護・地域包括支援センター","province":"東京都","city":"武蔵野市","address":"武蔵野市吉祥寺南町4-25-5","lat":35.69886,"lon":139.591843},{"name":"吉祥寺本町在宅介護・地域包括支援センター","province":"東京都","city":"武蔵野市","address":"武蔵野市吉祥寺本町4-20-13","lat":35.706207,"lon":139.571945},{"name":"高齢者総合センター在宅介護・地域包括支援センター","province":"東京都","city":"武蔵野市","address":"武蔵野市緑町2-4-1","lat":35.715225,"lon":139.562561},{"name":"吉祥寺ナーシング  ホーム在宅介護・地域包括支援センター","province":"東京都","city":"武蔵野市","address":"武蔵野市吉祥寺北町2-9-2","lat":35.712109,"lon":139.578995},{"name":"桜堤ケアハウス在宅介護・地域包括支援センター","province":"東京都","city":"武蔵野市","address":"武蔵野市桜堤1-9-9","lat":35.711014,"lon":139.533569},{"name":"武蔵野赤十字在宅介護・地域包括支援センター","province":"東京都","city":"武蔵野市","address":"武蔵野市境南町1-26-1武蔵野赤十字病院内","lat":35.697906,"lon":139.548782},{"name":"武蔵野市消費生活センター","province":"東京都","city":"武蔵野市","address":"武蔵野市吉祥寺本町1-10-7武蔵野商工会館3階","lat":35.7057,"lon":139.578735}]}