{"keyword":"放課後","data":[{"name":"子ども発達支援ルームおれんじ学園","province":"東京都","city":"武蔵野市","address":"武蔵野市吉祥寺北町3-5-8イトーピア吉祥寺1階-110","lat":35.710487,"lon":139.57104},{"name":"ビーキッズむさしの","province":"東京都","city":"武蔵野市","address":"武蔵野市吉祥寺南町3-7-1プランドールサンリョウ2階","lat":35.699553,"lon":139.58637},{"name":"児童発達支援・放課後等デイサービス　ささえ","province":"東京都","city":"武蔵野市","address":"武蔵野市吉祥寺本町一丁目35番14号","lat":35.703736,"lon":139.584806},{"name":"ＴＥＥＮＳ吉祥寺","province":"東京都","city":"武蔵野市","address":"武蔵野市吉祥寺本町2-25-12SantaFe1-C","lat":35.703874,"lon":139.574673},{"name":"スタジオそら武蔵野","province":"東京都","city":"武蔵野市","address":"武蔵野市中町1-23-12クレール武蔵野1階","lat":35.704513,"lon":139.563458},{"name":"子ども発達支援ルームおれんじ学園ｎｉｃｏ","province":"東京都","city":"武蔵野市","address":"武蔵野市中町1-19-8シティハイツ武蔵野1階","lat":35.704999,"lon":139.562672},{"name":"あすはＫｉｄｓ","province":"東京都","city":"武蔵野市","address":"武蔵野市八幡町1-6-1","lat":35.715089,"lon":139.55435},{"name":"千川さくらんぼクラブ","province":"東京都","city":"武蔵野市","address":"武蔵野市八幡町2-5-3武蔵野中央公園北ホール1階","lat":35.7214,"lon":139.559666},{"name":"ｗａｃｃａ","province":"東京都","city":"武蔵野市","address":"武蔵野市八幡町3-8-6ニューハイツ武蔵野1階","lat":35.716425,"lon":139.549872},{"name":"児童発達センター　ぽこあぽこ","province":"東京都","city":"武蔵野市","address":"武蔵野市境2-4-3スヤマ武蔵野1F","lat":35.706223,"lon":139.543173},{"name":"ロゼット","province":"東京都","city":"武蔵野市","address":"武蔵野市境1-4-5","lat":35.704085,"lon":139.544659},{"name":"手毬塾ウノ","province":"東京都","city":"武蔵野市","address":"武蔵野市境南町3-22-22","lat":35.698927,"lon":139.540029},{"name":"ウイングむさしの","province":"東京都","city":"武蔵野市","address":"武蔵野市境南町2-13-5グレーハイツ泉妻","lat":35.698619,"lon":139.543821}]}