{"keyword":"月間","data":[{"name":"子ども発達支援ルームおれんじ学園","province":"東京都","city":"武蔵野市","address":"武蔵野市吉祥寺北町3-5-8イトーピア吉祥寺1階-110","lat":35.710487,"lon":139.57104},{"name":"ビーキッズむさしの","province":"東京都","city":"武蔵野市","address":"武蔵野市吉祥寺南町3-7-1プランドールサンリョウ2階","lat":35.699553,"lon":139.58637},{"name":"児童発達支援・放課後等デイサービス　ささえ","province":"東京都","city":"武蔵野市","address":"武蔵野市吉祥寺本町一丁目35番14号","lat":35.703736,"lon":139.584806},{"name":"ＴＥＥＮＳ吉祥寺","province":"東京都","city":"武蔵野市","address":"武蔵野市吉祥寺本町2-25-12SantaFe1-C","lat":35.703874,"lon":139.574673},{"name":"スタジオそら武蔵野","province":"東京都","city":"武蔵野市","address":"武蔵野市中町1-23-12クレール武蔵野1階","lat":35.704513,"lon":139.563458},{"name":"子ども発達支援ルームおれんじ学園ｎｉｃｏ","province":"東京都","city":"武蔵野市","address":"武蔵野市中町1-19-8シティハイツ武蔵野1階","lat":35.704999,"lon":139.562672},{"name":"あすはＫｉｄｓ","province":"東京都","city":"武蔵野市","address":"武蔵野市八幡町1-6-1","lat":35.715089,"lon":139.55435},{"name":"千川さくらんぼクラブ","province":"東京都","city":"武蔵野市","address":"武蔵野市八幡町2-5-3武蔵野中央公園北ホール1階","lat":35.7214,"lon":139.559666},{"name":"ｗａｃｃａ","province":"東京都","city":"武蔵野市","address":"武蔵野市八幡町3-8-6ニューハイツ武蔵野1階","lat":35.716425,"lon":139.549872},{"name":"児童発達センター　ぽこあぽこ","province":"東京都","city":"武蔵野市","address":"武蔵野市境2-4-3スヤマ武蔵野1F","lat":35.706223,"lon":139.543173},{"name":"ロゼット","province":"東京都","city":"武蔵野市","address":"武蔵野市境1-4-5","lat":35.704085,"lon":139.544659},{"name":"手毬塾ウノ","province":"東京都","city":"武蔵野市","address":"武蔵野市境南町3-22-22","lat":35.698927,"lon":139.540029},{"name":"ウイングむさしの","province":"東京都","city":"武蔵野市","address":"武蔵野市境南町2-13-5グレーハイツ泉妻","lat":35.698619,"lon":139.543821},{"name":"武蔵野市子ども家庭支援センター","province":"東京都","city":"武蔵野市","address":"武蔵野市緑町2-2-28武蔵野市役所3階","lat":35.717836,"lon":139.565937},{"name":"武蔵野市子ども家庭支援センター","province":"東京都","city":"武蔵野市","address":"武蔵野市緑町2-2-28武蔵野市役所3階","lat":35.71776,"lon":139.56586},{"name":"グループホームＲＥＮＧＡ","province":"東京都","city":"武蔵野市","address":"武蔵野市八幡町3-3-26","lat":35.717033,"lon":139.552991},{"name":"武蔵野市子ども家庭支援センター","province":"東京都","city":"武蔵野市","address":"武蔵野市緑町2-2-28武蔵野市役所3階","lat":35.71735,"lon":139.56256},{"name":"柳橋","province":"東京都","city":"武蔵野市","address":"東京都武蔵野市関前4丁目9-6","lat":35.71390857,"lon":139.54426177},{"name":"八幡宮前","province":"東京都","city":"武蔵野市","address":"東京都武蔵野市吉祥寺北町1丁目1-1","lat":35.70768778,"lon":139.57936447},{"name":"成蹊学園前","province":"東京都","city":"武蔵野市","address":"東京都武蔵野市吉祥寺北町3丁目4-4","lat":35.70982628,"lon":139.57273719},{"name":"吉祥寺駅南口","province":"東京都","city":"武蔵野市","address":"東京都武蔵野市吉祥寺南町1丁目2-7","lat":35.7021773,"lon":139.57981188},{"name":"昭和通り","province":"東京都","city":"武蔵野市","address":"東京都武蔵野市吉祥寺本町2丁目3-1","lat":35.70503805,"lon":139.57783694},{"name":"武蔵野中央","province":"東京都","city":"武蔵野市","address":"東京都武蔵野市吉祥寺北町4丁目13-5","lat":35.71290632,"lon":139.56433503},{"name":"境南町二丁目","province":"東京都","city":"武蔵野市","address":"東京都武蔵野市境南町2丁目27-1","lat":35.69778541,"lon":139.54415695},{"name":"八幡町四丁目","province":"東京都","city":"武蔵野市","address":"東京都武蔵野市八幡町4丁目1-6","lat":35.71834718,"lon":139.55548001},{"name":"西久保三丁目","province":"東京都","city":"武蔵野市","address":"東京都武蔵野市緑町1丁目4-19","lat":35.71427001,"lon":139.56194908},{"name":"武蔵野市営プール前","province":"東京都","city":"武蔵野市","address":"東京都武蔵野市吉祥寺北町5丁目11-30","lat":35.71970841,"lon":139.56803997},{"name":"武蔵野警察署前","province":"東京都","city":"武蔵野市","address":"東京都武蔵野市中町1丁目11-4","lat":35.70555431,"lon":139.5608801},{"name":"吉祥寺駅前","province":"東京都","city":"武蔵野市","address":"東京都武蔵野市吉祥寺南町1丁目1-10","lat":35.70291328,"lon":139.57760649},{"name":"関前橋","province":"東京都","city":"武蔵野市","address":"東京都武蔵野市八幡町2丁目3-10","lat":35.71979428,"lon":139.55733535},{"name":"武蔵野市立三中入口","province":"東京都","city":"武蔵野市","address":"東京都武蔵野市吉祥寺東町1丁目18-19","lat":35.70514929,"lon":139.58430582},{"name":"日本獣医大前","province":"東京都","city":"武蔵野市","address":"東京都武蔵野市境南町2丁目2-20","lat":35.70121006,"lon":139.54586777},{"name":"吉祥寺本町一丁目","province":"東京都","city":"武蔵野市","address":"東京都武蔵野市吉祥寺本町1丁目37-8","lat":35.70371339,"lon":139.58626961},{"name":"武蔵野五小入口","province":"東京都","city":"武蔵野市","address":"東京都武蔵野市関前3丁目3-14","lat":35.71374498,"lon":139.55747727},{"name":"武蔵野大学","province":"東京都","city":"武蔵野市","address":"東京都武蔵野市八幡町3丁目8-7","lat":35.71683614,"lon":139.55066661},{"name":"境二丁目第一","province":"東京都","city":"武蔵野市","address":"東京都武蔵野市境2丁目7-1","lat":35.70459295,"lon":139.54319563},{"name":"境二丁目第二","province":"東京都","city":"武蔵野市","address":"東京都武蔵野市境2丁目2-17","lat":35.70420134,"lon":139.54395948},{"name":"中央通り","province":"東京都","city":"武蔵野市","address":"東京都武蔵野市中町2丁目4-15","lat":35.70679308,"lon":139.56185774},{"name":"武蔵野赤十字前","province":"東京都","city":"武蔵野市","address":"東京都武蔵野市境南町1丁目26-1","lat":35.69687727,"lon":139.54853159},{"name":"千川小前","province":"東京都","city":"武蔵野市","address":"東京都武蔵野市八幡町3丁目5-25","lat":35.718561,"lon":139.55351074},{"name":"武蔵野緑町","province":"東京都","city":"武蔵野市","address":"東京都武蔵野市吉祥寺北町4丁目13-16","lat":35.71432283,"lon":139.56484604},{"name":"境一丁目","province":"東京都","city":"武蔵野市","address":"東京都武蔵野市境1丁目19-1","lat":35.70439582,"lon":139.54662868},{"name":"武蔵野市立高齢者総合センター前","province":"東京都","city":"武蔵野市","address":"東京都武蔵野市緑町1丁目3-17","lat":35.71495606,"lon":139.5627212},{"name":"吉祥寺南町第二","province":"東京都","city":"武蔵野市","address":"東京都武蔵野市吉祥寺本町2丁目2-17","lat":35.70368263,"lon":139.5772787},{"name":"武蔵野市民文化会館前","province":"東京都","city":"武蔵野市","address":"東京都武蔵野市中町3丁目9-11","lat":35.71150095,"lon":139.56584885},{"name":"武蔵野欅橋","province":"東京都","city":"武蔵野市","address":"東京都武蔵野市中町1丁目3-1","lat":35.70382947,"lon":139.55909423},{"name":"吉祥寺駅南口第二","province":"東京都","city":"武蔵野市","address":"東京都武蔵野市吉祥寺南町1丁目2-3","lat":35.70208566,"lon":139.58011741},{"name":"吉祥寺南町三丁目","province":"東京都","city":"武蔵野市","address":"東京都武蔵野市吉祥寺南町3丁目13-2","lat":35.69855843,"lon":139.58629759},{"name":"境南小学校裏","province":"東京都","city":"武蔵野市","address":"東京都武蔵野市境南町2丁目11","lat":35.69860479,"lon":139.54582344},{"name":"吉祥寺駅東口交番","province":"東京都","city":"武蔵野市","address":"東京都武蔵野市吉祥寺本町1丁目17-12","lat":35.7035244,"lon":139.58108394},{"name":"吉祥寺駅北","province":"東京都","city":"武蔵野市","address":"東京都武蔵野市吉祥寺東町1丁目7-1","lat":35.70641576,"lon":139.58168377},{"name":"武蔵野中町二丁目","province":"東京都","city":"武蔵野市","address":"東京都武蔵野市中町2丁目9-32","lat":35.70732086,"lon":139.56512686},{"name":"吉祥寺駅北第二","province":"東京都","city":"武蔵野市","address":"東京都武蔵野市吉祥寺東町1丁目6-27","lat":35.70642131,"lon":139.58140602},{"name":"自然文化園前","province":"東京都","city":"武蔵野市","address":"東京都武蔵野市御殿山1丁目17","lat":35.70006898,"lon":139.56964063},{"name":"商工会館前","province":"東京都","city":"武蔵野市","address":"東京都武蔵野市吉祥寺本町1丁目10-5","lat":35.70538247,"lon":139.57861741},{"name":"本町新道","province":"東京都","city":"武蔵野市","address":"東京都武蔵野市吉祥寺本町1丁目13-10","lat":35.70475482,"lon":139.58083669},{"name":"万助橋北","province":"東京都","city":"武蔵野市","address":"東京都武蔵野市御殿山1丁目17","lat":35.70006898,"lon":139.56964063},{"name":"中町新道","province":"東京都","city":"武蔵野市","address":"東京都武蔵野市中町1丁目21-8","lat":35.70339347,"lon":139.56217175},{"name":"境南町三丁目","province":"東京都","city":"武蔵野市","address":"東京都武蔵野市境南町3丁目23-15","lat":35.69792699,"lon":139.54134053},{"name":"三谷通り入口","province":"東京都","city":"武蔵野市","address":"東京都武蔵野市西久保1丁目6-14","lat":35.70742075,"lon":139.55973846},{"name":"大野田小学校裏","province":"東京都","city":"武蔵野市","address":"東京都武蔵野市緑町2丁目2-28","lat":35.71783358,"lon":139.56594579},{"name":"武蔵野緑町二丁目","province":"東京都","city":"武蔵野市","address":"東京都武蔵野市緑町2丁目4","lat":35.71587537,"lon":139.56161847},{"name":"武蔵野市役所前","province":"東京都","city":"武蔵野市","address":"東京都武蔵野市吉祥寺北町5丁目11-20","lat":35.71788638,"lon":139.56758731},{"name":"吉祥寺南町二丁目","province":"東京都","city":"武蔵野市","address":"東京都武蔵野市吉祥寺南町1丁目31-2","lat":35.70060256,"lon":139.58346718},{"name":"電通研裏","province":"東京都","city":"武蔵野市","address":"東京都武蔵野市緑町3丁目3-6","lat":35.72053605,"lon":139.5661151},{"name":"武蔵野簡易裁判所前","province":"東京都","city":"武蔵野市","address":"東京都武蔵野市中町2丁目9-32","lat":35.70732086,"lon":139.56512686},{"name":"武蔵境駅南口","province":"東京都","city":"武蔵野市","address":"東京都武蔵野市境南町2丁目3-6","lat":35.70110449,"lon":139.54472343},{"name":"中町一丁目","province":"東京都","city":"武蔵野市","address":"東京都武蔵野市中町1丁目11-1","lat":35.70510714,"lon":139.56065514},{"name":"本町新道第二","province":"東京都","city":"武蔵野市","address":"東京都武蔵野市吉祥寺本町1丁目13-1","lat":35.70486313,"lon":139.58050616},{"name":"西久保二丁目","province":"東京都","city":"武蔵野市","address":"東京都武蔵野市西久保1丁目39-5","lat":35.7081067,"lon":139.5560721},{"name":"御殿山一丁目","province":"東京都","city":"武蔵野市","address":"東京都武蔵野市御殿山1丁目3-7","lat":35.70179948,"lon":139.57612055},{"name":"井の頭公園入口","province":"東京都","city":"武蔵野市","address":"東京都武蔵野市御殿山1丁目7-12","lat":35.70127449,"lon":139.57424295},{"name":"武蔵野稲荷神社前","province":"東京都","city":"武蔵野市","address":"東京都武蔵野市緑町1丁目6-6","lat":35.71361448,"lon":139.55979652},{"name":"天文台踏切南","province":"東京都","city":"武蔵野市","address":"東京都武蔵野市境南町2丁目5-8","lat":35.70102944,"lon":139.54210699},{"name":"中町三丁目","province":"東京都","city":"武蔵野市","address":"東京都武蔵野市西久保3丁目1-1","lat":35.70959832,"lon":139.56213815},{"name":"市立南保育園前","province":"東京都","city":"武蔵野市","address":"東京都武蔵野市吉祥寺南町4丁目2-13","lat":35.6997694,"lon":139.58643086},{"name":"武蔵野警察署南","province":"東京都","city":"武蔵野市","address":"東京都武蔵野市西久保1丁目4-11","lat":35.70534875,"lon":139.55971911},{"name":"境南三丁目第二","province":"東京都","city":"武蔵野市","address":"東京都武蔵野市境南町3丁目22-9","lat":35.69823804,"lon":139.54014062},{"name":"吉祥寺南町三丁目第二","province":"東京都","city":"武蔵野市","address":"東京都武蔵野市吉祥寺南町4丁目10-12","lat":35.69922228,"lon":139.58797242},{"name":"吉祥寺南町東第二","province":"東京都","city":"武蔵野市","address":"東京都武蔵野市吉祥寺南町1丁目5-3","lat":35.70267722,"lon":139.57861752},{"name":"吉祥寺南町二丁目第二","province":"東京都","city":"武蔵野市","address":"東京都武蔵野市吉祥寺南町2丁目29-13","lat":35.70023321,"lon":139.58534204},{"name":"井の頭高架東第二","province":"東京都","city":"武蔵野市","address":"東京都武蔵野市吉祥寺南町2丁目13-18","lat":35.70124137,"lon":139.58272555},{"name":"聖徳学園前","province":"東京都","city":"武蔵野市","address":"東京都武蔵野市境南町2丁目9-13","lat":35.69956298,"lon":139.5440541},{"name":"武蔵野水道部前","province":"東京都","city":"武蔵野市","address":"東京都武蔵野市吉祥寺北町4丁目11-46","lat":35.71395903,"lon":139.56650423},{"name":"吉祥寺末広通り","province":"東京都","city":"武蔵野市","address":"東京都武蔵野市吉祥寺南町2丁目2-3","lat":35.7022051,"lon":139.58054237},{"name":"武蔵境駅南口第二","province":"東京都","city":"武蔵野市","address":"東京都武蔵野市境南町2丁目3-16","lat":35.70107392,"lon":139.54416792},{"name":"大正通り","province":"東京都","city":"武蔵野市","address":"東京都武蔵野市吉祥寺本町1丁目8-12","lat":35.7051575,"lon":139.57857575},{"name":"元町","province":"東京都","city":"武蔵野市","address":"東京都武蔵野市吉祥寺本町1丁目8-10","lat":35.70490196,"lon":139.57844522},{"name":"三谷通り入口東","province":"東京都","city":"武蔵野市","address":"東京都武蔵野市西久保1丁目6-17","lat":35.70732077,"lon":139.56035507},{"name":"中央通り北","province":"東京都","city":"武蔵野市","address":"東京都武蔵野市西久保2丁目2-12","lat":35.70850677,"lon":139.56152991},{"name":"武蔵野五小入口第二","province":"東京都","city":"武蔵野市","address":"東京都武蔵野市西久保3丁目26-5","lat":35.71375054,"lon":139.55787723},{"name":"大野田小前","province":"東京都","city":"武蔵野市","address":"東京都武蔵野市吉祥寺北町4丁目10-14","lat":35.71567552,"lon":139.56788182},{"name":"武蔵野市役所裏","province":"東京都","city":"武蔵野市","address":"東京都武蔵野市緑町3丁目1-5","lat":35.71865294,"lon":139.56653181},{"name":"吉祥寺東町一丁目","province":"東京都","city":"武蔵野市","address":"東京都武蔵野市吉祥寺東町1丁目10-18","lat":35.70593806,"lon":139.58270315},{"name":"関前五丁目","province":"東京都","city":"武蔵野市","address":"東京都武蔵野市関前5丁目11-11","lat":35.71271699,"lon":139.54152318},{"name":"武蔵野北高前","province":"東京都","city":"武蔵野市","address":"東京都武蔵野市八幡町2丁目3-10","lat":35.71979428,"lon":139.55733535},{"name":"境南町三丁目北","province":"東京都","city":"武蔵野市","address":"東京都武蔵野市境南町2丁目6","lat":35.70020175,"lon":139.54214313},{"name":"境一丁目第二","province":"東京都","city":"武蔵野市","address":"東京都武蔵野市境1丁目4-9","lat":35.70412082,"lon":139.54512327},{"name":"武蔵野赤十字病院前","province":"東京都","city":"武蔵野市","address":"東京都武蔵野市境南町1丁目26-1","lat":35.69687727,"lon":139.54853159},{"name":"市立境南第二保育園北","province":"東京都","city":"武蔵野市","address":"東京都武蔵野市境南町2丁目20-17","lat":35.69774092,"lon":139.54204047},{"name":"武蔵野障害者センター入口","province":"東京都","city":"武蔵野市","address":"東京都武蔵野市緑町2丁目1-36","lat":35.71581156,"lon":139.56506539},{"name":"日本獣医大東","province":"東京都","city":"武蔵野市","address":"東京都武蔵野市境南町1丁目6-8","lat":35.70103514,"lon":139.54890084},{"name":"吉祥寺大通り","province":"東京都","city":"武蔵野市","address":"東京都武蔵野市吉祥寺本町1丁目18-2","lat":35.70426321,"lon":139.58103392},{"name":"武蔵境駅東第一","province":"東京都","city":"武蔵野市","address":"東京都武蔵野市境1丁目1","lat":35.70237377,"lon":139.5444373},{"name":"成蹊学園前第二","province":"東京都","city":"武蔵野市","address":"東京都武蔵野市吉祥寺本町4丁目26-17","lat":35.70961241,"lon":139.57236778},{"name":"むらさき橋","province":"東京都","city":"武蔵野市","address":"東京都武蔵野市御殿山2丁目13","lat":35.70166875,"lon":139.56677417},{"name":"武蔵野赤十字病院","province":"東京都","city":"武蔵野市","address":"東京都武蔵野市境南町1丁目26-1","lat":35.69687727,"lon":139.54853159},{"name":"第一浄水場","province":"東京都","city":"武蔵野市","address":"東京都武蔵野市吉祥寺北町4丁目11-46","lat":35.71395903,"lon":139.56650423},{"name":"第二浄水場","province":"東京都","city":"武蔵野市","address":"東京都武蔵野市桜堤1丁目6-6","lat":35.70967278,"lon":139.53635988},{"name":"武蔵野陸上競技場","province":"東京都","city":"武蔵野市","address":"東京都武蔵野市吉祥寺北町5丁目11-20","lat":35.71788638,"lon":139.56758731},{"name":"都立武蔵野中央公園","province":"東京都","city":"武蔵野市","address":"東京都武蔵野市八幡町2丁目4-22","lat":35.718175,"lon":139.55645772},{"name":"武蔵野赤十字病院ヘリポート","province":"東京都","city":"武蔵野市","address":"東京都武蔵野市境南町1丁目26-1","lat":35.69687727,"lon":139.54853159},{"name":"(特定非営利活動法人)全日本鼓笛バンド・フォームバトン連盟","province":"東京都","city":"武蔵野市","address":"東京都武蔵野市吉祥寺東町1丁目23-33","lat":35.7077796,"lon":139.58605557},{"name":"武蔵野市保健センター","province":"東京都","city":"武蔵野市","address":"東京都武蔵野市吉祥寺北町4丁目8-10","lat":35.71292303,"lon":139.56658205},{"name":"武蔵高等学校","province":"東京都","city":"武蔵野市","address":"東京都武蔵野市境4丁目13-28","lat":35.70770641,"lon":139.53965969},{"name":"武蔵野北高等学校","province":"東京都","city":"武蔵野市","address":"東京都武蔵野市八幡町2丁目3-10","lat":35.71979428,"lon":139.55733535},{"name":"武蔵野市立武蔵野総合体育館","province":"東京都","city":"武蔵野市","address":"東京都武蔵野市吉祥寺北町5丁目11-20","lat":35.71788638,"lon":139.56758731},{"name":"武蔵野市本庁舎","province":"東京都","city":"武蔵野市","address":"武蔵野市緑町2-2-28","lat":35.717837,"lon":139.565938},{"name":"武蔵野警察署","province":"東京都","city":"武蔵野市","address":"武蔵野市中町2-1-2","lat":35.70601,"lon":139.5609},{"name":"武蔵野消防署","province":"東京都","city":"武蔵野市","address":"武蔵野市吉祥寺北町4-6-1","lat":35.71169,"lon":139.5675},{"name":"武蔵野地区","province":"東京都","city":"武蔵野市","address":"武蔵野市中町3-7-1","lat":35.70875,"lon":139.5643},{"name":"献血供給事業団本部","province":"東京都","city":"武蔵野市","address":"武蔵野市境南町1-26-1","lat":35.696886,"lon":139.548571},{"name":"都立武蔵野中央公園（原っぱ広場）","province":"東京都","city":"武蔵野市","address":"武蔵野市八幡町2丁目地内","lat":35.71818,"lon":139.5565},{"name":"武蔵野赤十字病院ヘリポート","province":"東京都","city":"武蔵野市","address":"武蔵野市境南町1-26-1","lat":35.696886,"lon":139.548571},{"name":"西部公園緑地事務所","province":"東京都","city":"武蔵野市","address":"武蔵野市御殿山1-17-59","lat":35.70114,"lon":139.573},{"name":"東京電力（株）武蔵野支社","province":"東京都","city":"武蔵野市","address":"武蔵野市西久保1-6-24","lat":35.70672,"lon":139.5603},{"name":"吉祥寺駅","province":"東京都","city":"武蔵野市","address":"東京都武蔵野市吉祥寺南町1丁目1-24","lat":35.70304942,"lon":139.57954798},{"name":"子ども発達支援ルームおれんじ学園","province":"東京都","city":"武蔵野市","address":"武蔵野市吉祥寺北町3-5-8イトーピア吉祥寺1階-110","lat":35.710487,"lon":139.57104},{"name":"ビーキッズむさしの","province":"東京都","city":"武蔵野市","address":"武蔵野市吉祥寺南町3-7-1プランドールサンリョウ2階","lat":35.699553,"lon":139.58637},{"name":"児童発達支援・放課後等デイサービス　ささえ","province":"東京都","city":"武蔵野市","address":"武蔵野市吉祥寺本町一丁目35番14号","lat":35.703736,"lon":139.584806},{"name":"ＴＥＥＮＳ吉祥寺","province":"東京都","city":"武蔵野市","address":"武蔵野市吉祥寺本町2-25-12SantaFe1-C","lat":35.703874,"lon":139.574673},{"name":"スタジオそら武蔵野","province":"東京都","city":"武蔵野市","address":"武蔵野市中町1-23-12クレール武蔵野1階","lat":35.704513,"lon":139.563458},{"name":"子ども発達支援ルームおれんじ学園ｎｉｃｏ","province":"東京都","city":"武蔵野市","address":"武蔵野市中町1-19-8シティハイツ武蔵野1階","lat":35.704999,"lon":139.562672},{"name":"あすはＫｉｄｓ","province":"東京都","city":"武蔵野市","address":"武蔵野市八幡町1-6-1","lat":35.715089,"lon":139.55435},{"name":"千川さくらんぼクラブ","province":"東京都","city":"武蔵野市","address":"武蔵野市八幡町2-5-3武蔵野中央公園北ホール1階","lat":35.7214,"lon":139.559666},{"name":"ｗａｃｃａ","province":"東京都","city":"武蔵野市","address":"武蔵野市八幡町3-8-6ニューハイツ武蔵野1階","lat":35.716425,"lon":139.549872},{"name":"児童発達センター　ぽこあぽこ","province":"東京都","city":"武蔵野市","address":"武蔵野市境2-4-3スヤマ武蔵野1F","lat":35.706223,"lon":139.543173},{"name":"ロゼット","province":"東京都","city":"武蔵野市","address":"武蔵野市境1-4-5","lat":35.704085,"lon":139.544659},{"name":"手毬塾ウノ","province":"東京都","city":"武蔵野市","address":"武蔵野市境南町3-22-22","lat":35.698927,"lon":139.540029},{"name":"ウイングむさしの","province":"東京都","city":"武蔵野市","address":"武蔵野市境南町2-13-5グレーハイツ泉妻","lat":35.698619,"lon":139.543821},{"name":"武蔵野市子ども家庭支援センター","province":"東京都","city":"武蔵野市","address":"武蔵野市緑町2-2-28武蔵野市役所3階","lat":35.717836,"lon":139.565937},{"name":"武蔵野市子ども家庭支援センター","province":"東京都","city":"武蔵野市","address":"武蔵野市緑町2-2-28武蔵野市役所3階","lat":35.71776,"lon":139.56586},{"name":"グループホームＲＥＮＧＡ","province":"東京都","city":"武蔵野市","address":"武蔵野市八幡町3-3-26","lat":35.717033,"lon":139.552991},{"name":"武蔵野市子ども家庭支援センター","province":"東京都","city":"武蔵野市","address":"武蔵野市緑町2-2-28武蔵野市役所3階","lat":35.71735,"lon":139.56256},{"name":"柳橋","province":"東京都","city":"武蔵野市","address":"東京都武蔵野市関前4丁目9-6","lat":35.71390857,"lon":139.54426177},{"name":"八幡宮前","province":"東京都","city":"武蔵野市","address":"東京都武蔵野市吉祥寺北町1丁目1-1","lat":35.70768778,"lon":139.57936447},{"name":"成蹊学園前","province":"東京都","city":"武蔵野市","address":"東京都武蔵野市吉祥寺北町3丁目4-4","lat":35.70982628,"lon":139.57273719},{"name":"吉祥寺駅南口","province":"東京都","city":"武蔵野市","address":"東京都武蔵野市吉祥寺南町1丁目2-7","lat":35.7021773,"lon":139.57981188},{"name":"昭和通り","province":"東京都","city":"武蔵野市","address":"東京都武蔵野市吉祥寺本町2丁目3-1","lat":35.70503805,"lon":139.57783694},{"name":"武蔵野中央","province":"東京都","city":"武蔵野市","address":"東京都武蔵野市吉祥寺北町4丁目13-5","lat":35.71290632,"lon":139.56433503},{"name":"境南町二丁目","province":"東京都","city":"武蔵野市","address":"東京都武蔵野市境南町2丁目27-1","lat":35.69778541,"lon":139.54415695},{"name":"八幡町四丁目","province":"東京都","city":"武蔵野市","address":"東京都武蔵野市八幡町4丁目1-6","lat":35.71834718,"lon":139.55548001},{"name":"西久保三丁目","province":"東京都","city":"武蔵野市","address":"東京都武蔵野市緑町1丁目4-19","lat":35.71427001,"lon":139.56194908},{"name":"武蔵野市営プール前","province":"東京都","city":"武蔵野市","address":"東京都武蔵野市吉祥寺北町5丁目11-30","lat":35.71970841,"lon":139.56803997},{"name":"武蔵野警察署前","province":"東京都","city":"武蔵野市","address":"東京都武蔵野市中町1丁目11-4","lat":35.70555431,"lon":139.5608801},{"name":"吉祥寺駅前","province":"東京都","city":"武蔵野市","address":"東京都武蔵野市吉祥寺南町1丁目1-10","lat":35.70291328,"lon":139.57760649},{"name":"関前橋","province":"東京都","city":"武蔵野市","address":"東京都武蔵野市八幡町2丁目3-10","lat":35.71979428,"lon":139.55733535},{"name":"武蔵野市立三中入口","province":"東京都","city":"武蔵野市","address":"東京都武蔵野市吉祥寺東町1丁目18-19","lat":35.70514929,"lon":139.58430582},{"name":"日本獣医大前","province":"東京都","city":"武蔵野市","address":"東京都武蔵野市境南町2丁目2-20","lat":35.70121006,"lon":139.54586777},{"name":"吉祥寺本町一丁目","province":"東京都","city":"武蔵野市","address":"東京都武蔵野市吉祥寺本町1丁目37-8","lat":35.70371339,"lon":139.58626961},{"name":"武蔵野五小入口","province":"東京都","city":"武蔵野市","address":"東京都武蔵野市関前3丁目3-14","lat":35.71374498,"lon":139.55747727},{"name":"武蔵野大学","province":"東京都","city":"武蔵野市","address":"東京都武蔵野市八幡町3丁目8-7","lat":35.71683614,"lon":139.55066661},{"name":"境二丁目第一","province":"東京都","city":"武蔵野市","address":"東京都武蔵野市境2丁目7-1","lat":35.70459295,"lon":139.54319563},{"name":"境二丁目第二","province":"東京都","city":"武蔵野市","address":"東京都武蔵野市境2丁目2-17","lat":35.70420134,"lon":139.54395948},{"name":"中央通り","province":"東京都","city":"武蔵野市","address":"東京都武蔵野市中町2丁目4-15","lat":35.70679308,"lon":139.56185774},{"name":"武蔵野赤十字前","province":"東京都","city":"武蔵野市","address":"東京都武蔵野市境南町1丁目26-1","lat":35.69687727,"lon":139.54853159},{"name":"千川小前","province":"東京都","city":"武蔵野市","address":"東京都武蔵野市八幡町3丁目5-25","lat":35.718561,"lon":139.55351074},{"name":"武蔵野緑町","province":"東京都","city":"武蔵野市","address":"東京都武蔵野市吉祥寺北町4丁目13-16","lat":35.71432283,"lon":139.56484604},{"name":"境一丁目","province":"東京都","city":"武蔵野市","address":"東京都武蔵野市境1丁目19-1","lat":35.70439582,"lon":139.54662868},{"name":"武蔵野市立高齢者総合センター前","province":"東京都","city":"武蔵野市","address":"東京都武蔵野市緑町1丁目3-17","lat":35.71495606,"lon":139.5627212},{"name":"吉祥寺南町第二","province":"東京都","city":"武蔵野市","address":"東京都武蔵野市吉祥寺本町2丁目2-17","lat":35.70368263,"lon":139.5772787},{"name":"武蔵野市民文化会館前","province":"東京都","city":"武蔵野市","address":"東京都武蔵野市中町3丁目9-11","lat":35.71150095,"lon":139.56584885},{"name":"武蔵野欅橋","province":"東京都","city":"武蔵野市","address":"東京都武蔵野市中町1丁目3-1","lat":35.70382947,"lon":139.55909423},{"name":"吉祥寺駅南口第二","province":"東京都","city":"武蔵野市","address":"東京都武蔵野市吉祥寺南町1丁目2-3","lat":35.70208566,"lon":139.58011741},{"name":"吉祥寺南町三丁目","province":"東京都","city":"武蔵野市","address":"東京都武蔵野市吉祥寺南町3丁目13-2","lat":35.69855843,"lon":139.58629759},{"name":"境南小学校裏","province":"東京都","city":"武蔵野市","address":"東京都武蔵野市境南町2丁目11","lat":35.69860479,"lon":139.54582344},{"name":"吉祥寺駅東口交番","province":"東京都","city":"武蔵野市","address":"東京都武蔵野市吉祥寺本町1丁目17-12","lat":35.7035244,"lon":139.58108394},{"name":"吉祥寺駅北","province":"東京都","city":"武蔵野市","address":"東京都武蔵野市吉祥寺東町1丁目7-1","lat":35.70641576,"lon":139.58168377},{"name":"武蔵野中町二丁目","province":"東京都","city":"武蔵野市","address":"東京都武蔵野市中町2丁目9-32","lat":35.70732086,"lon":139.56512686},{"name":"吉祥寺駅北第二","province":"東京都","city":"武蔵野市","address":"東京都武蔵野市吉祥寺東町1丁目6-27","lat":35.70642131,"lon":139.58140602},{"name":"自然文化園前","province":"東京都","city":"武蔵野市","address":"東京都武蔵野市御殿山1丁目17","lat":35.70006898,"lon":139.56964063},{"name":"商工会館前","province":"東京都","city":"武蔵野市","address":"東京都武蔵野市吉祥寺本町1丁目10-5","lat":35.70538247,"lon":139.57861741},{"name":"本町新道","province":"東京都","city":"武蔵野市","address":"東京都武蔵野市吉祥寺本町1丁目13-10","lat":35.70475482,"lon":139.58083669},{"name":"万助橋北","province":"東京都","city":"武蔵野市","address":"東京都武蔵野市御殿山1丁目17","lat":35.70006898,"lon":139.56964063},{"name":"中町新道","province":"東京都","city":"武蔵野市","address":"東京都武蔵野市中町1丁目21-8","lat":35.70339347,"lon":139.56217175},{"name":"境南町三丁目","province":"東京都","city":"武蔵野市","address":"東京都武蔵野市境南町3丁目23-15","lat":35.69792699,"lon":139.54134053},{"name":"三谷通り入口","province":"東京都","city":"武蔵野市","address":"東京都武蔵野市西久保1丁目6-14","lat":35.70742075,"lon":139.55973846},{"name":"大野田小学校裏","province":"東京都","city":"武蔵野市","address":"東京都武蔵野市緑町2丁目2-28","lat":35.71783358,"lon":139.56594579},{"name":"武蔵野緑町二丁目","province":"東京都","city":"武蔵野市","address":"東京都武蔵野市緑町2丁目4","lat":35.71587537,"lon":139.56161847},{"name":"武蔵野市役所前","province":"東京都","city":"武蔵野市","address":"東京都武蔵野市吉祥寺北町5丁目11-20","lat":35.71788638,"lon":139.56758731},{"name":"吉祥寺南町二丁目","province":"東京都","city":"武蔵野市","address":"東京都武蔵野市吉祥寺南町1丁目31-2","lat":35.70060256,"lon":139.58346718},{"name":"電通研裏","province":"東京都","city":"武蔵野市","address":"東京都武蔵野市緑町3丁目3-6","lat":35.72053605,"lon":139.5661151},{"name":"武蔵野簡易裁判所前","province":"東京都","city":"武蔵野市","address":"東京都武蔵野市中町2丁目9-32","lat":35.70732086,"lon":139.56512686},{"name":"武蔵境駅南口","province":"東京都","city":"武蔵野市","address":"東京都武蔵野市境南町2丁目3-6","lat":35.70110449,"lon":139.54472343},{"name":"中町一丁目","province":"東京都","city":"武蔵野市","address":"東京都武蔵野市中町1丁目11-1","lat":35.70510714,"lon":139.56065514},{"name":"本町新道第二","province":"東京都","city":"武蔵野市","address":"東京都武蔵野市吉祥寺本町1丁目13-1","lat":35.70486313,"lon":139.58050616},{"name":"西久保二丁目","province":"東京都","city":"武蔵野市","address":"東京都武蔵野市西久保1丁目39-5","lat":35.7081067,"lon":139.5560721},{"name":"御殿山一丁目","province":"東京都","city":"武蔵野市","address":"東京都武蔵野市御殿山1丁目3-7","lat":35.70179948,"lon":139.57612055},{"name":"井の頭公園入口","province":"東京都","city":"武蔵野市","address":"東京都武蔵野市御殿山1丁目7-12","lat":35.70127449,"lon":139.57424295},{"name":"武蔵野稲荷神社前","province":"東京都","city":"武蔵野市","address":"東京都武蔵野市緑町1丁目6-6","lat":35.71361448,"lon":139.55979652},{"name":"天文台踏切南","province":"東京都","city":"武蔵野市","address":"東京都武蔵野市境南町2丁目5-8","lat":35.70102944,"lon":139.54210699},{"name":"中町三丁目","province":"東京都","city":"武蔵野市","address":"東京都武蔵野市西久保3丁目1-1","lat":35.70959832,"lon":139.56213815},{"name":"市立南保育園前","province":"東京都","city":"武蔵野市","address":"東京都武蔵野市吉祥寺南町4丁目2-13","lat":35.6997694,"lon":139.58643086},{"name":"武蔵野警察署南","province":"東京都","city":"武蔵野市","address":"東京都武蔵野市西久保1丁目4-11","lat":35.70534875,"lon":139.55971911},{"name":"境南三丁目第二","province":"東京都","city":"武蔵野市","address":"東京都武蔵野市境南町3丁目22-9","lat":35.69823804,"lon":139.54014062},{"name":"吉祥寺南町三丁目第二","province":"東京都","city":"武蔵野市","address":"東京都武蔵野市吉祥寺南町4丁目10-12","lat":35.69922228,"lon":139.58797242},{"name":"吉祥寺南町東第二","province":"東京都","city":"武蔵野市","address":"東京都武蔵野市吉祥寺南町1丁目5-3","lat":35.70267722,"lon":139.57861752},{"name":"吉祥寺南町二丁目第二","province":"東京都","city":"武蔵野市","address":"東京都武蔵野市吉祥寺南町2丁目29-13","lat":35.70023321,"lon":139.58534204},{"name":"井の頭高架東第二","province":"東京都","city":"武蔵野市","address":"東京都武蔵野市吉祥寺南町2丁目13-18","lat":35.70124137,"lon":139.58272555},{"name":"聖徳学園前","province":"東京都","city":"武蔵野市","address":"東京都武蔵野市境南町2丁目9-13","lat":35.69956298,"lon":139.5440541},{"name":"武蔵野水道部前","province":"東京都","city":"武蔵野市","address":"東京都武蔵野市吉祥寺北町4丁目11-46","lat":35.71395903,"lon":139.56650423},{"name":"吉祥寺末広通り","province":"東京都","city":"武蔵野市","address":"東京都武蔵野市吉祥寺南町2丁目2-3","lat":35.7022051,"lon":139.58054237},{"name":"武蔵境駅南口第二","province":"東京都","city":"武蔵野市","address":"東京都武蔵野市境南町2丁目3-16","lat":35.70107392,"lon":139.54416792},{"name":"大正通り","province":"東京都","city":"武蔵野市","address":"東京都武蔵野市吉祥寺本町1丁目8-12","lat":35.7051575,"lon":139.57857575},{"name":"元町","province":"東京都","city":"武蔵野市","address":"東京都武蔵野市吉祥寺本町1丁目8-10","lat":35.70490196,"lon":139.57844522},{"name":"三谷通り入口東","province":"東京都","city":"武蔵野市","address":"東京都武蔵野市西久保1丁目6-17","lat":35.70732077,"lon":139.56035507},{"name":"中央通り北","province":"東京都","city":"武蔵野市","address":"東京都武蔵野市西久保2丁目2-12","lat":35.70850677,"lon":139.56152991},{"name":"武蔵野五小入口第二","province":"東京都","city":"武蔵野市","address":"東京都武蔵野市西久保3丁目26-5","lat":35.71375054,"lon":139.55787723},{"name":"大野田小前","province":"東京都","city":"武蔵野市","address":"東京都武蔵野市吉祥寺北町4丁目10-14","lat":35.71567552,"lon":139.56788182},{"name":"武蔵野市役所裏","province":"東京都","city":"武蔵野市","address":"東京都武蔵野市緑町3丁目1-5","lat":35.71865294,"lon":139.56653181},{"name":"吉祥寺東町一丁目","province":"東京都","city":"武蔵野市","address":"東京都武蔵野市吉祥寺東町1丁目10-18","lat":35.70593806,"lon":139.58270315},{"name":"関前五丁目","province":"東京都","city":"武蔵野市","address":"東京都武蔵野市関前5丁目11-11","lat":35.71271699,"lon":139.54152318},{"name":"武蔵野北高前","province":"東京都","city":"武蔵野市","address":"東京都武蔵野市八幡町2丁目3-10","lat":35.71979428,"lon":139.55733535},{"name":"境南町三丁目北","province":"東京都","city":"武蔵野市","address":"東京都武蔵野市境南町2丁目6","lat":35.70020175,"lon":139.54214313},{"name":"境一丁目第二","province":"東京都","city":"武蔵野市","address":"東京都武蔵野市境1丁目4-9","lat":35.70412082,"lon":139.54512327},{"name":"武蔵野赤十字病院前","province":"東京都","city":"武蔵野市","address":"東京都武蔵野市境南町1丁目26-1","lat":35.69687727,"lon":139.54853159},{"name":"市立境南第二保育園北","province":"東京都","city":"武蔵野市","address":"東京都武蔵野市境南町2丁目20-17","lat":35.69774092,"lon":139.54204047},{"name":"武蔵野障害者センター入口","province":"東京都","city":"武蔵野市","address":"東京都武蔵野市緑町2丁目1-36","lat":35.71581156,"lon":139.56506539},{"name":"日本獣医大東","province":"東京都","city":"武蔵野市","address":"東京都武蔵野市境南町1丁目6-8","lat":35.70103514,"lon":139.54890084},{"name":"吉祥寺大通り","province":"東京都","city":"武蔵野市","address":"東京都武蔵野市吉祥寺本町1丁目18-2","lat":35.70426321,"lon":139.58103392},{"name":"武蔵境駅東第一","province":"東京都","city":"武蔵野市","address":"東京都武蔵野市境1丁目1","lat":35.70237377,"lon":139.5444373},{"name":"成蹊学園前第二","province":"東京都","city":"武蔵野市","address":"東京都武蔵野市吉祥寺本町4丁目26-17","lat":35.70961241,"lon":139.57236778},{"name":"むらさき橋","province":"東京都","city":"武蔵野市","address":"東京都武蔵野市御殿山2丁目13","lat":35.70166875,"lon":139.56677417},{"name":"武蔵野赤十字病院","province":"東京都","city":"武蔵野市","address":"東京都武蔵野市境南町1丁目26-1","lat":35.69687727,"lon":139.54853159},{"name":"第一浄水場","province":"東京都","city":"武蔵野市","address":"東京都武蔵野市吉祥寺北町4丁目11-46","lat":35.71395903,"lon":139.56650423},{"name":"第二浄水場","province":"東京都","city":"武蔵野市","address":"東京都武蔵野市桜堤1丁目6-6","lat":35.70967278,"lon":139.53635988},{"name":"武蔵野陸上競技場","province":"東京都","city":"武蔵野市","address":"東京都武蔵野市吉祥寺北町5丁目11-20","lat":35.71788638,"lon":139.56758731},{"name":"都立武蔵野中央公園","province":"東京都","city":"武蔵野市","address":"東京都武蔵野市八幡町2丁目4-22","lat":35.718175,"lon":139.55645772},{"name":"武蔵野赤十字病院ヘリポート","province":"東京都","city":"武蔵野市","address":"東京都武蔵野市境南町1丁目26-1","lat":35.69687727,"lon":139.54853159},{"name":"(特定非営利活動法人)全日本鼓笛バンド・フォームバトン連盟","province":"東京都","city":"武蔵野市","address":"東京都武蔵野市吉祥寺東町1丁目23-33","lat":35.7077796,"lon":139.58605557},{"name":"武蔵高等学校","province":"東京都","city":"武蔵野市","address":"東京都武蔵野市境4丁目13-28","lat":35.70770641,"lon":139.53965969},{"name":"武蔵野北高等学校","province":"東京都","city":"武蔵野市","address":"東京都武蔵野市八幡町2丁目3-10","lat":35.71979428,"lon":139.55733535},{"name":"子ども発達支援ルームおれんじ学園","province":"東京都","city":"武蔵野市","address":"武蔵野市吉祥寺北町3-5-8イトーピア吉祥寺1階-110","lat":35.710487,"lon":139.57104},{"name":"ビーキッズむさしの","province":"東京都","city":"武蔵野市","address":"武蔵野市吉祥寺南町3-7-1プランドールサンリョウ2階","lat":35.699553,"lon":139.58637},{"name":"児童発達支援・放課後等デイサービス　ささえ","province":"東京都","city":"武蔵野市","address":"武蔵野市吉祥寺本町一丁目35番14号","lat":35.703736,"lon":139.584806},{"name":"ＴＥＥＮＳ吉祥寺","province":"東京都","city":"武蔵野市","address":"武蔵野市吉祥寺本町2-25-12SantaFe1-C","lat":35.703874,"lon":139.574673},{"name":"スタジオそら武蔵野","province":"東京都","city":"武蔵野市","address":"武蔵野市中町1-23-12クレール武蔵野1階","lat":35.704513,"lon":139.563458},{"name":"子ども発達支援ルームおれんじ学園ｎｉｃｏ","province":"東京都","city":"武蔵野市","address":"武蔵野市中町1-19-8シティハイツ武蔵野1階","lat":35.704999,"lon":139.562672},{"name":"あすはＫｉｄｓ","province":"東京都","city":"武蔵野市","address":"武蔵野市八幡町1-6-1","lat":35.715089,"lon":139.55435},{"name":"千川さくらんぼクラブ","province":"東京都","city":"武蔵野市","address":"武蔵野市八幡町2-5-3武蔵野中央公園北ホール1階","lat":35.7214,"lon":139.559666},{"name":"ｗａｃｃａ","province":"東京都","city":"武蔵野市","address":"武蔵野市八幡町3-8-6ニューハイツ武蔵野1階","lat":35.716425,"lon":139.549872},{"name":"児童発達センター　ぽこあぽこ","province":"東京都","city":"武蔵野市","address":"武蔵野市境2-4-3スヤマ武蔵野1F","lat":35.706223,"lon":139.543173},{"name":"ロゼット","province":"東京都","city":"武蔵野市","address":"武蔵野市境1-4-5","lat":35.704085,"lon":139.544659},{"name":"手毬塾ウノ","province":"東京都","city":"武蔵野市","address":"武蔵野市境南町3-22-22","lat":35.698927,"lon":139.540029},{"name":"ウイングむさしの","province":"東京都","city":"武蔵野市","address":"武蔵野市境南町2-13-5グレーハイツ泉妻","lat":35.698619,"lon":139.543821},{"name":"武蔵野市子ども家庭支援センター","province":"東京都","city":"武蔵野市","address":"武蔵野市緑町2-2-28武蔵野市役所3階","lat":35.717836,"lon":139.565937},{"name":"武蔵野市子ども家庭支援センター","province":"東京都","city":"武蔵野市","address":"武蔵野市緑町2-2-28武蔵野市役所3階","lat":35.71776,"lon":139.56586},{"name":"グループホームＲＥＮＧＡ","province":"東京都","city":"武蔵野市","address":"武蔵野市八幡町3-3-26","lat":35.717033,"lon":139.552991},{"name":"武蔵野市子ども家庭支援センター","province":"東京都","city":"武蔵野市","address":"武蔵野市緑町2-2-28武蔵野市役所3階","lat":35.71735,"lon":139.56256},{"name":"柳橋","province":"東京都","city":"武蔵野市","address":"東京都武蔵野市関前4丁目9-6","lat":35.71390857,"lon":139.54426177},{"name":"八幡宮前","province":"東京都","city":"武蔵野市","address":"東京都武蔵野市吉祥寺北町1丁目1-1","lat":35.70768778,"lon":139.57936447},{"name":"成蹊学園前","province":"東京都","city":"武蔵野市","address":"東京都武蔵野市吉祥寺北町3丁目4-4","lat":35.70982628,"lon":139.57273719},{"name":"吉祥寺駅南口","province":"東京都","city":"武蔵野市","address":"東京都武蔵野市吉祥寺南町1丁目2-7","lat":35.7021773,"lon":139.57981188},{"name":"昭和通り","province":"東京都","city":"武蔵野市","address":"東京都武蔵野市吉祥寺本町2丁目3-1","lat":35.70503805,"lon":139.57783694},{"name":"武蔵野中央","province":"東京都","city":"武蔵野市","address":"東京都武蔵野市吉祥寺北町4丁目13-5","lat":35.71290632,"lon":139.56433503},{"name":"境南町二丁目","province":"東京都","city":"武蔵野市","address":"東京都武蔵野市境南町2丁目27-1","lat":35.69778541,"lon":139.54415695},{"name":"八幡町四丁目","province":"東京都","city":"武蔵野市","address":"東京都武蔵野市八幡町4丁目1-6","lat":35.71834718,"lon":139.55548001},{"name":"西久保三丁目","province":"東京都","city":"武蔵野市","address":"東京都武蔵野市緑町1丁目4-19","lat":35.71427001,"lon":139.56194908},{"name":"武蔵野市営プール前","province":"東京都","city":"武蔵野市","address":"東京都武蔵野市吉祥寺北町5丁目11-30","lat":35.71970841,"lon":139.56803997},{"name":"武蔵野警察署前","province":"東京都","city":"武蔵野市","address":"東京都武蔵野市中町1丁目11-4","lat":35.70555431,"lon":139.5608801},{"name":"吉祥寺駅前","province":"東京都","city":"武蔵野市","address":"東京都武蔵野市吉祥寺南町1丁目1-10","lat":35.70291328,"lon":139.57760649},{"name":"関前橋","province":"東京都","city":"武蔵野市","address":"東京都武蔵野市八幡町2丁目3-10","lat":35.71979428,"lon":139.55733535},{"name":"武蔵野市立三中入口","province":"東京都","city":"武蔵野市","address":"東京都武蔵野市吉祥寺東町1丁目18-19","lat":35.70514929,"lon":139.58430582},{"name":"日本獣医大前","province":"東京都","city":"武蔵野市","address":"東京都武蔵野市境南町2丁目2-20","lat":35.70121006,"lon":139.54586777},{"name":"吉祥寺本町一丁目","province":"東京都","city":"武蔵野市","address":"東京都武蔵野市吉祥寺本町1丁目37-8","lat":35.70371339,"lon":139.58626961},{"name":"武蔵野五小入口","province":"東京都","city":"武蔵野市","address":"東京都武蔵野市関前3丁目3-14","lat":35.71374498,"lon":139.55747727},{"name":"武蔵野大学","province":"東京都","city":"武蔵野市","address":"東京都武蔵野市八幡町3丁目8-7","lat":35.71683614,"lon":139.55066661},{"name":"境二丁目第一","province":"東京都","city":"武蔵野市","address":"東京都武蔵野市境2丁目7-1","lat":35.70459295,"lon":139.54319563},{"name":"境二丁目第二","province":"東京都","city":"武蔵野市","address":"東京都武蔵野市境2丁目2-17","lat":35.70420134,"lon":139.54395948},{"name":"中央通り","province":"東京都","city":"武蔵野市","address":"東京都武蔵野市中町2丁目4-15","lat":35.70679308,"lon":139.56185774},{"name":"武蔵野赤十字前","province":"東京都","city":"武蔵野市","address":"東京都武蔵野市境南町1丁目26-1","lat":35.69687727,"lon":139.54853159},{"name":"千川小前","province":"東京都","city":"武蔵野市","address":"東京都武蔵野市八幡町3丁目5-25","lat":35.718561,"lon":139.55351074},{"name":"武蔵野緑町","province":"東京都","city":"武蔵野市","address":"東京都武蔵野市吉祥寺北町4丁目13-16","lat":35.71432283,"lon":139.56484604},{"name":"境一丁目","province":"東京都","city":"武蔵野市","address":"東京都武蔵野市境1丁目19-1","lat":35.70439582,"lon":139.54662868},{"name":"武蔵野市立高齢者総合センター前","province":"東京都","city":"武蔵野市","address":"東京都武蔵野市緑町1丁目3-17","lat":35.71495606,"lon":139.5627212},{"name":"吉祥寺南町第二","province":"東京都","city":"武蔵野市","address":"東京都武蔵野市吉祥寺本町2丁目2-17","lat":35.70368263,"lon":139.5772787},{"name":"武蔵野市民文化会館前","province":"東京都","city":"武蔵野市","address":"東京都武蔵野市中町3丁目9-11","lat":35.71150095,"lon":139.56584885},{"name":"武蔵野欅橋","province":"東京都","city":"武蔵野市","address":"東京都武蔵野市中町1丁目3-1","lat":35.70382947,"lon":139.55909423},{"name":"吉祥寺駅南口第二","province":"東京都","city":"武蔵野市","address":"東京都武蔵野市吉祥寺南町1丁目2-3","lat":35.70208566,"lon":139.58011741},{"name":"吉祥寺南町三丁目","province":"東京都","city":"武蔵野市","address":"東京都武蔵野市吉祥寺南町3丁目13-2","lat":35.69855843,"lon":139.58629759},{"name":"境南小学校裏","province":"東京都","city":"武蔵野市","address":"東京都武蔵野市境南町2丁目11","lat":35.69860479,"lon":139.54582344},{"name":"吉祥寺駅東口交番","province":"東京都","city":"武蔵野市","address":"東京都武蔵野市吉祥寺本町1丁目17-12","lat":35.7035244,"lon":139.58108394},{"name":"吉祥寺駅北","province":"東京都","city":"武蔵野市","address":"東京都武蔵野市吉祥寺東町1丁目7-1","lat":35.70641576,"lon":139.58168377},{"name":"武蔵野中町二丁目","province":"東京都","city":"武蔵野市","address":"東京都武蔵野市中町2丁目9-32","lat":35.70732086,"lon":139.56512686},{"name":"吉祥寺駅北第二","province":"東京都","city":"武蔵野市","address":"東京都武蔵野市吉祥寺東町1丁目6-27","lat":35.70642131,"lon":139.58140602},{"name":"自然文化園前","province":"東京都","city":"武蔵野市","address":"東京都武蔵野市御殿山1丁目17","lat":35.70006898,"lon":139.56964063},{"name":"商工会館前","province":"東京都","city":"武蔵野市","address":"東京都武蔵野市吉祥寺本町1丁目10-5","lat":35.70538247,"lon":139.57861741},{"name":"本町新道","province":"東京都","city":"武蔵野市","address":"東京都武蔵野市吉祥寺本町1丁目13-10","lat":35.70475482,"lon":139.58083669},{"name":"万助橋北","province":"東京都","city":"武蔵野市","address":"東京都武蔵野市御殿山1丁目17","lat":35.70006898,"lon":139.56964063},{"name":"中町新道","province":"東京都","city":"武蔵野市","address":"東京都武蔵野市中町1丁目21-8","lat":35.70339347,"lon":139.56217175},{"name":"境南町三丁目","province":"東京都","city":"武蔵野市","address":"東京都武蔵野市境南町3丁目23-15","lat":35.69792699,"lon":139.54134053},{"name":"三谷通り入口","province":"東京都","city":"武蔵野市","address":"東京都武蔵野市西久保1丁目6-14","lat":35.70742075,"lon":139.55973846},{"name":"大野田小学校裏","province":"東京都","city":"武蔵野市","address":"東京都武蔵野市緑町2丁目2-28","lat":35.71783358,"lon":139.56594579},{"name":"武蔵野緑町二丁目","province":"東京都","city":"武蔵野市","address":"東京都武蔵野市緑町2丁目4","lat":35.71587537,"lon":139.56161847},{"name":"武蔵野市役所前","province":"東京都","city":"武蔵野市","address":"東京都武蔵野市吉祥寺北町5丁目11-20","lat":35.71788638,"lon":139.56758731},{"name":"吉祥寺南町二丁目","province":"東京都","city":"武蔵野市","address":"東京都武蔵野市吉祥寺南町1丁目31-2","lat":35.70060256,"lon":139.58346718},{"name":"電通研裏","province":"東京都","city":"武蔵野市","address":"東京都武蔵野市緑町3丁目3-6","lat":35.72053605,"lon":139.5661151},{"name":"武蔵野簡易裁判所前","province":"東京都","city":"武蔵野市","address":"東京都武蔵野市中町2丁目9-32","lat":35.70732086,"lon":139.56512686},{"name":"武蔵境駅南口","province":"東京都","city":"武蔵野市","address":"東京都武蔵野市境南町2丁目3-6","lat":35.70110449,"lon":139.54472343},{"name":"中町一丁目","province":"東京都","city":"武蔵野市","address":"東京都武蔵野市中町1丁目11-1","lat":35.70510714,"lon":139.56065514},{"name":"本町新道第二","province":"東京都","city":"武蔵野市","address":"東京都武蔵野市吉祥寺本町1丁目13-1","lat":35.70486313,"lon":139.58050616},{"name":"西久保二丁目","province":"東京都","city":"武蔵野市","address":"東京都武蔵野市西久保1丁目39-5","lat":35.7081067,"lon":139.5560721},{"name":"御殿山一丁目","province":"東京都","city":"武蔵野市","address":"東京都武蔵野市御殿山1丁目3-7","lat":35.70179948,"lon":139.57612055},{"name":"井の頭公園入口","province":"東京都","city":"武蔵野市","address":"東京都武蔵野市御殿山1丁目7-12","lat":35.70127449,"lon":139.57424295},{"name":"武蔵野稲荷神社前","province":"東京都","city":"武蔵野市","address":"東京都武蔵野市緑町1丁目6-6","lat":35.71361448,"lon":139.55979652},{"name":"天文台踏切南","province":"東京都","city":"武蔵野市","address":"東京都武蔵野市境南町2丁目5-8","lat":35.70102944,"lon":139.54210699},{"name":"中町三丁目","province":"東京都","city":"武蔵野市","address":"東京都武蔵野市西久保3丁目1-1","lat":35.70959832,"lon":139.56213815},{"name":"市立南保育園前","province":"東京都","city":"武蔵野市","address":"東京都武蔵野市吉祥寺南町4丁目2-13","lat":35.6997694,"lon":139.58643086},{"name":"武蔵野警察署南","province":"東京都","city":"武蔵野市","address":"東京都武蔵野市西久保1丁目4-11","lat":35.70534875,"lon":139.55971911},{"name":"境南三丁目第二","province":"東京都","city":"武蔵野市","address":"東京都武蔵野市境南町3丁目22-9","lat":35.69823804,"lon":139.54014062},{"name":"吉祥寺南町三丁目第二","province":"東京都","city":"武蔵野市","address":"東京都武蔵野市吉祥寺南町4丁目10-12","lat":35.69922228,"lon":139.58797242},{"name":"吉祥寺南町東第二","province":"東京都","city":"武蔵野市","address":"東京都武蔵野市吉祥寺南町1丁目5-3","lat":35.70267722,"lon":139.57861752},{"name":"吉祥寺南町二丁目第二","province":"東京都","city":"武蔵野市","address":"東京都武蔵野市吉祥寺南町2丁目29-13","lat":35.70023321,"lon":139.58534204},{"name":"井の頭高架東第二","province":"東京都","city":"武蔵野市","address":"東京都武蔵野市吉祥寺南町2丁目13-18","lat":35.70124137,"lon":139.58272555},{"name":"聖徳学園前","province":"東京都","city":"武蔵野市","address":"東京都武蔵野市境南町2丁目9-13","lat":35.69956298,"lon":139.5440541},{"name":"武蔵野水道部前","province":"東京都","city":"武蔵野市","address":"東京都武蔵野市吉祥寺北町4丁目11-46","lat":35.71395903,"lon":139.56650423},{"name":"吉祥寺末広通り","province":"東京都","city":"武蔵野市","address":"東京都武蔵野市吉祥寺南町2丁目2-3","lat":35.7022051,"lon":139.58054237},{"name":"武蔵境駅南口第二","province":"東京都","city":"武蔵野市","address":"東京都武蔵野市境南町2丁目3-16","lat":35.70107392,"lon":139.54416792},{"name":"大正通り","province":"東京都","city":"武蔵野市","address":"東京都武蔵野市吉祥寺本町1丁目8-12","lat":35.7051575,"lon":139.57857575},{"name":"元町","province":"東京都","city":"武蔵野市","address":"東京都武蔵野市吉祥寺本町1丁目8-10","lat":35.70490196,"lon":139.57844522},{"name":"三谷通り入口東","province":"東京都","city":"武蔵野市","address":"東京都武蔵野市西久保1丁目6-17","lat":35.70732077,"lon":139.56035507},{"name":"中央通り北","province":"東京都","city":"武蔵野市","address":"東京都武蔵野市西久保2丁目2-12","lat":35.70850677,"lon":139.56152991},{"name":"武蔵野五小入口第二","province":"東京都","city":"武蔵野市","address":"東京都武蔵野市西久保3丁目26-5","lat":35.71375054,"lon":139.55787723},{"name":"大野田小前","province":"東京都","city":"武蔵野市","address":"東京都武蔵野市吉祥寺北町4丁目10-14","lat":35.71567552,"lon":139.56788182},{"name":"武蔵野市役所裏","province":"東京都","city":"武蔵野市","address":"東京都武蔵野市緑町3丁目1-5","lat":35.71865294,"lon":139.56653181},{"name":"吉祥寺東町一丁目","province":"東京都","city":"武蔵野市","address":"東京都武蔵野市吉祥寺東町1丁目10-18","lat":35.70593806,"lon":139.58270315},{"name":"関前五丁目","province":"東京都","city":"武蔵野市","address":"東京都武蔵野市関前5丁目11-11","lat":35.71271699,"lon":139.54152318},{"name":"武蔵野北高前","province":"東京都","city":"武蔵野市","address":"東京都武蔵野市八幡町2丁目3-10","lat":35.71979428,"lon":139.55733535},{"name":"境南町三丁目北","province":"東京都","city":"武蔵野市","address":"東京都武蔵野市境南町2丁目6","lat":35.70020175,"lon":139.54214313},{"name":"境一丁目第二","province":"東京都","city":"武蔵野市","address":"東京都武蔵野市境1丁目4-9","lat":35.70412082,"lon":139.54512327},{"name":"武蔵野赤十字病院前","province":"東京都","city":"武蔵野市","address":"東京都武蔵野市境南町1丁目26-1","lat":35.69687727,"lon":139.54853159},{"name":"市立境南第二保育園北","province":"東京都","city":"武蔵野市","address":"東京都武蔵野市境南町2丁目20-17","lat":35.69774092,"lon":139.54204047},{"name":"武蔵野障害者センター入口","province":"東京都","city":"武蔵野市","address":"東京都武蔵野市緑町2丁目1-36","lat":35.71581156,"lon":139.56506539},{"name":"日本獣医大東","province":"東京都","city":"武蔵野市","address":"東京都武蔵野市境南町1丁目6-8","lat":35.70103514,"lon":139.54890084},{"name":"吉祥寺大通り","province":"東京都","city":"武蔵野市","address":"東京都武蔵野市吉祥寺本町1丁目18-2","lat":35.70426321,"lon":139.58103392},{"name":"武蔵境駅東第一","province":"東京都","city":"武蔵野市","address":"東京都武蔵野市境1丁目1","lat":35.70237377,"lon":139.5444373},{"name":"成蹊学園前第二","province":"東京都","city":"武蔵野市","address":"東京都武蔵野市吉祥寺本町4丁目26-17","lat":35.70961241,"lon":139.57236778},{"name":"むらさき橋","province":"東京都","city":"武蔵野市","address":"東京都武蔵野市御殿山2丁目13","lat":35.70166875,"lon":139.56677417},{"name":"武蔵野赤十字病院","province":"東京都","city":"武蔵野市","address":"東京都武蔵野市境南町1丁目26-1","lat":35.69687727,"lon":139.54853159},{"name":"第一浄水場","province":"東京都","city":"武蔵野市","address":"東京都武蔵野市吉祥寺北町4丁目11-46","lat":35.71395903,"lon":139.56650423},{"name":"第二浄水場","province":"東京都","city":"武蔵野市","address":"東京都武蔵野市桜堤1丁目6-6","lat":35.70967278,"lon":139.53635988},{"name":"武蔵野陸上競技場","province":"東京都","city":"武蔵野市","address":"東京都武蔵野市吉祥寺北町5丁目11-20","lat":35.71788638,"lon":139.56758731},{"name":"都立武蔵野中央公園","province":"東京都","city":"武蔵野市","address":"東京都武蔵野市八幡町2丁目4-22","lat":35.718175,"lon":139.55645772},{"name":"武蔵野赤十字病院ヘリポート","province":"東京都","city":"武蔵野市","address":"東京都武蔵野市境南町1丁目26-1","lat":35.69687727,"lon":139.54853159},{"name":"(特定非営利活動法人)全日本鼓笛バンド・フォームバトン連盟","province":"東京都","city":"武蔵野市","address":"東京都武蔵野市吉祥寺東町1丁目23-33","lat":35.7077796,"lon":139.58605557},{"name":"武蔵高等学校","province":"東京都","city":"武蔵野市","address":"東京都武蔵野市境4丁目13-28","lat":35.70770641,"lon":139.53965969},{"name":"武蔵野北高等学校","province":"東京都","city":"武蔵野市","address":"東京都武蔵野市八幡町2丁目3-10","lat":35.71979428,"lon":139.55733535},{"name":"子ども発達支援ルームおれんじ学園","province":"東京都","city":"武蔵野市","address":"武蔵野市吉祥寺北町3-5-8イトーピア吉祥寺1階-110","lat":35.710487,"lon":139.57104},{"name":"ビーキッズむさしの","province":"東京都","city":"武蔵野市","address":"武蔵野市吉祥寺南町3-7-1プランドールサンリョウ2階","lat":35.699553,"lon":139.58637},{"name":"児童発達支援・放課後等デイサービス　ささえ","province":"東京都","city":"武蔵野市","address":"武蔵野市吉祥寺本町一丁目35番14号","lat":35.703736,"lon":139.584806},{"name":"ＴＥＥＮＳ吉祥寺","province":"東京都","city":"武蔵野市","address":"武蔵野市吉祥寺本町2-25-12SantaFe1-C","lat":35.703874,"lon":139.574673},{"name":"スタジオそら武蔵野","province":"東京都","city":"武蔵野市","address":"武蔵野市中町1-23-12クレール武蔵野1階","lat":35.704513,"lon":139.563458},{"name":"子ども発達支援ルームおれんじ学園ｎｉｃｏ","province":"東京都","city":"武蔵野市","address":"武蔵野市中町1-19-8シティハイツ武蔵野1階","lat":35.704999,"lon":139.562672},{"name":"あすはＫｉｄｓ","province":"東京都","city":"武蔵野市","address":"武蔵野市八幡町1-6-1","lat":35.715089,"lon":139.55435},{"name":"千川さくらんぼクラブ","province":"東京都","city":"武蔵野市","address":"武蔵野市八幡町2-5-3武蔵野中央公園北ホール1階","lat":35.7214,"lon":139.559666},{"name":"ｗａｃｃａ","province":"東京都","city":"武蔵野市","address":"武蔵野市八幡町3-8-6ニューハイツ武蔵野1階","lat":35.716425,"lon":139.549872},{"name":"児童発達センター　ぽこあぽこ","province":"東京都","city":"武蔵野市","address":"武蔵野市境2-4-3スヤマ武蔵野1F","lat":35.706223,"lon":139.543173},{"name":"ロゼット","province":"東京都","city":"武蔵野市","address":"武蔵野市境1-4-5","lat":35.704085,"lon":139.544659},{"name":"手毬塾ウノ","province":"東京都","city":"武蔵野市","address":"武蔵野市境南町3-22-22","lat":35.698927,"lon":139.540029},{"name":"ウイングむさしの","province":"東京都","city":"武蔵野市","address":"武蔵野市境南町2-13-5グレーハイツ泉妻","lat":35.698619,"lon":139.543821},{"name":"武蔵野市子ども家庭支援センター","province":"東京都","city":"武蔵野市","address":"武蔵野市緑町2-2-28武蔵野市役所3階","lat":35.717836,"lon":139.565937},{"name":"武蔵野市子ども家庭支援センター","province":"東京都","city":"武蔵野市","address":"武蔵野市緑町2-2-28武蔵野市役所3階","lat":35.71776,"lon":139.56586},{"name":"グループホームＲＥＮＧＡ","province":"東京都","city":"武蔵野市","address":"武蔵野市八幡町3-3-26","lat":35.717033,"lon":139.552991},{"name":"武蔵野市子ども家庭支援センター","province":"東京都","city":"武蔵野市","address":"武蔵野市緑町2-2-28武蔵野市役所3階","lat":35.71735,"lon":139.56256},{"name":"武蔵野陸上競技場","province":"東京都","city":"武蔵野市","address":"東京都武蔵野市吉祥寺北町5丁目11-20","lat":35.71788638,"lon":139.56758731},{"name":"都立武蔵野中央公園","province":"東京都","city":"武蔵野市","address":"東京都武蔵野市八幡町2丁目4-22","lat":35.718175,"lon":139.55645772},{"name":"武蔵野赤十字病院ヘリポート","province":"東京都","city":"武蔵野市","address":"東京都武蔵野市境南町1丁目26-1","lat":35.69687727,"lon":139.54853159},{"name":"(特定非営利活動法人)全日本鼓笛バンド・フォームバトン連盟","province":"東京都","city":"武蔵野市","address":"東京都武蔵野市吉祥寺東町1丁目23-33","lat":35.7077796,"lon":139.58605557},{"name":"武蔵高等学校","province":"東京都","city":"武蔵野市","address":"東京都武蔵野市境4丁目13-28","lat":35.70770641,"lon":139.53965969},{"name":"武蔵野北高等学校","province":"東京都","city":"武蔵野市","address":"東京都武蔵野市八幡町2丁目3-10","lat":35.71979428,"lon":139.55733535},{"name":"子ども発達支援ルームおれんじ学園","province":"東京都","city":"武蔵野市","address":"武蔵野市吉祥寺北町3-5-8イトーピア吉祥寺1階-110","lat":35.710487,"lon":139.57104},{"name":"ビーキッズむさしの","province":"東京都","city":"武蔵野市","address":"武蔵野市吉祥寺南町3-7-1プランドールサンリョウ2階","lat":35.699553,"lon":139.58637},{"name":"児童発達支援・放課後等デイサービス　ささえ","province":"東京都","city":"武蔵野市","address":"武蔵野市吉祥寺本町一丁目35番14号","lat":35.703736,"lon":139.584806},{"name":"ＴＥＥＮＳ吉祥寺","province":"東京都","city":"武蔵野市","address":"武蔵野市吉祥寺本町2-25-12SantaFe1-C","lat":35.703874,"lon":139.574673},{"name":"スタジオそら武蔵野","province":"東京都","city":"武蔵野市","address":"武蔵野市中町1-23-12クレール武蔵野1階","lat":35.704513,"lon":139.563458},{"name":"子ども発達支援ルームおれんじ学園ｎｉｃｏ","province":"東京都","city":"武蔵野市","address":"武蔵野市中町1-19-8シティハイツ武蔵野1階","lat":35.704999,"lon":139.562672},{"name":"あすはＫｉｄｓ","province":"東京都","city":"武蔵野市","address":"武蔵野市八幡町1-6-1","lat":35.715089,"lon":139.55435},{"name":"千川さくらんぼクラブ","province":"東京都","city":"武蔵野市","address":"武蔵野市八幡町2-5-3武蔵野中央公園北ホール1階","lat":35.7214,"lon":139.559666},{"name":"ｗａｃｃａ","province":"東京都","city":"武蔵野市","address":"武蔵野市八幡町3-8-6ニューハイツ武蔵野1階","lat":35.716425,"lon":139.549872},{"name":"児童発達センター　ぽこあぽこ","province":"東京都","city":"武蔵野市","address":"武蔵野市境2-4-3スヤマ武蔵野1F","lat":35.706223,"lon":139.543173},{"name":"ロゼット","province":"東京都","city":"武蔵野市","address":"武蔵野市境1-4-5","lat":35.704085,"lon":139.544659},{"name":"手毬塾ウノ","province":"東京都","city":"武蔵野市","address":"武蔵野市境南町3-22-22","lat":35.698927,"lon":139.540029},{"name":"ウイングむさしの","province":"東京都","city":"武蔵野市","address":"武蔵野市境南町2-13-5グレーハイツ泉妻","lat":35.698619,"lon":139.543821},{"name":"武蔵野市子ども家庭支援センター","province":"東京都","city":"武蔵野市","address":"武蔵野市緑町2-2-28武蔵野市役所3階","lat":35.717836,"lon":139.565937},{"name":"武蔵野市子ども家庭支援センター","province":"東京都","city":"武蔵野市","address":"武蔵野市緑町2-2-28武蔵野市役所3階","lat":35.71776,"lon":139.56586},{"name":"グループホームＲＥＮＧＡ","province":"東京都","city":"武蔵野市","address":"武蔵野市八幡町3-3-26","lat":35.717033,"lon":139.552991},{"name":"武蔵野市子ども家庭支援センター","province":"東京都","city":"武蔵野市","address":"武蔵野市緑町2-2-28武蔵野市役所3階","lat":35.71735,"lon":139.56256},{"name":"(特定非営利活動法人)全日本鼓笛バンド・フォームバトン連盟","province":"東京都","city":"武蔵野市","address":"東京都武蔵野市吉祥寺東町1丁目23-33","lat":35.7077796,"lon":139.58605557},{"name":"武蔵高等学校","province":"東京都","city":"武蔵野市","address":"東京都武蔵野市境4丁目13-28","lat":35.70770641,"lon":139.53965969},{"name":"武蔵野北高等学校","province":"東京都","city":"武蔵野市","address":"東京都武蔵野市八幡町2丁目3-10","lat":35.71979428,"lon":139.55733535},{"name":"子ども発達支援ルームおれんじ学園","province":"東京都","city":"武蔵野市","address":"武蔵野市吉祥寺北町3-5-8イトーピア吉祥寺1階-110","lat":35.710487,"lon":139.57104},{"name":"ビーキッズむさしの","province":"東京都","city":"武蔵野市","address":"武蔵野市吉祥寺南町3-7-1プランドールサンリョウ2階","lat":35.699553,"lon":139.58637},{"name":"児童発達支援・放課後等デイサービス　ささえ","province":"東京都","city":"武蔵野市","address":"武蔵野市吉祥寺本町一丁目35番14号","lat":35.703736,"lon":139.584806},{"name":"ＴＥＥＮＳ吉祥寺","province":"東京都","city":"武蔵野市","address":"武蔵野市吉祥寺本町2-25-12SantaFe1-C","lat":35.703874,"lon":139.574673},{"name":"スタジオそら武蔵野","province":"東京都","city":"武蔵野市","address":"武蔵野市中町1-23-12クレール武蔵野1階","lat":35.704513,"lon":139.563458},{"name":"子ども発達支援ルームおれんじ学園ｎｉｃｏ","province":"東京都","city":"武蔵野市","address":"武蔵野市中町1-19-8シティハイツ武蔵野1階","lat":35.704999,"lon":139.562672},{"name":"あすはＫｉｄｓ","province":"東京都","city":"武蔵野市","address":"武蔵野市八幡町1-6-1","lat":35.715089,"lon":139.55435},{"name":"千川さくらんぼクラブ","province":"東京都","city":"武蔵野市","address":"武蔵野市八幡町2-5-3武蔵野中央公園北ホール1階","lat":35.7214,"lon":139.559666},{"name":"ｗａｃｃａ","province":"東京都","city":"武蔵野市","address":"武蔵野市八幡町3-8-6ニューハイツ武蔵野1階","lat":35.716425,"lon":139.549872},{"name":"児童発達センター　ぽこあぽこ","province":"東京都","city":"武蔵野市","address":"武蔵野市境2-4-3スヤマ武蔵野1F","lat":35.706223,"lon":139.543173},{"name":"ロゼット","province":"東京都","city":"武蔵野市","address":"武蔵野市境1-4-5","lat":35.704085,"lon":139.544659},{"name":"手毬塾ウノ","province":"東京都","city":"武蔵野市","address":"武蔵野市境南町3-22-22","lat":35.698927,"lon":139.540029},{"name":"ウイングむさしの","province":"東京都","city":"武蔵野市","address":"武蔵野市境南町2-13-5グレーハイツ泉妻","lat":35.698619,"lon":139.543821},{"name":"武蔵野市子ども家庭支援センター","province":"東京都","city":"武蔵野市","address":"武蔵野市緑町2-2-28武蔵野市役所3階","lat":35.717836,"lon":139.565937},{"name":"武蔵野市子ども家庭支援センター","province":"東京都","city":"武蔵野市","address":"武蔵野市緑町2-2-28武蔵野市役所3階","lat":35.71776,"lon":139.56586},{"name":"グループホームＲＥＮＧＡ","province":"東京都","city":"武蔵野市","address":"武蔵野市八幡町3-3-26","lat":35.717033,"lon":139.552991},{"name":"武蔵野市子ども家庭支援センター","province":"東京都","city":"武蔵野市","address":"武蔵野市緑町2-2-28武蔵野市役所3階","lat":35.71735,"lon":139.56256},{"name":"(特定非営利活動法人)全日本鼓笛バンド・フォームバトン連盟","province":"東京都","city":"武蔵野市","address":"東京都武蔵野市吉祥寺東町1丁目23-33","lat":35.7077796,"lon":139.58605557},{"name":"武蔵高等学校","province":"東京都","city":"武蔵野市","address":"東京都武蔵野市境4丁目13-28","lat":35.70770641,"lon":139.53965969},{"name":"武蔵野北高等学校","province":"東京都","city":"武蔵野市","address":"東京都武蔵野市八幡町2丁目3-10","lat":35.71979428,"lon":139.55733535},{"name":"子ども発達支援ルームおれんじ学園","province":"東京都","city":"武蔵野市","address":"武蔵野市吉祥寺北町3-5-8イトーピア吉祥寺1階-110","lat":35.710487,"lon":139.57104},{"name":"ビーキッズむさしの","province":"東京都","city":"武蔵野市","address":"武蔵野市吉祥寺南町3-7-1プランドールサンリョウ2階","lat":35.699553,"lon":139.58637},{"name":"児童発達支援・放課後等デイサービス　ささえ","province":"東京都","city":"武蔵野市","address":"武蔵野市吉祥寺本町一丁目35番14号","lat":35.703736,"lon":139.584806},{"name":"ＴＥＥＮＳ吉祥寺","province":"東京都","city":"武蔵野市","address":"武蔵野市吉祥寺本町2-25-12SantaFe1-C","lat":35.703874,"lon":139.574673},{"name":"スタジオそら武蔵野","province":"東京都","city":"武蔵野市","address":"武蔵野市中町1-23-12クレール武蔵野1階","lat":35.704513,"lon":139.563458},{"name":"子ども発達支援ルームおれんじ学園ｎｉｃｏ","province":"東京都","city":"武蔵野市","address":"武蔵野市中町1-19-8シティハイツ武蔵野1階","lat":35.704999,"lon":139.562672},{"name":"あすはＫｉｄｓ","province":"東京都","city":"武蔵野市","address":"武蔵野市八幡町1-6-1","lat":35.715089,"lon":139.55435},{"name":"千川さくらんぼクラブ","province":"東京都","city":"武蔵野市","address":"武蔵野市八幡町2-5-3武蔵野中央公園北ホール1階","lat":35.7214,"lon":139.559666},{"name":"ｗａｃｃａ","province":"東京都","city":"武蔵野市","address":"武蔵野市八幡町3-8-6ニューハイツ武蔵野1階","lat":35.716425,"lon":139.549872},{"name":"児童発達センター　ぽこあぽこ","province":"東京都","city":"武蔵野市","address":"武蔵野市境2-4-3スヤマ武蔵野1F","lat":35.706223,"lon":139.543173},{"name":"ロゼット","province":"東京都","city":"武蔵野市","address":"武蔵野市境1-4-5","lat":35.704085,"lon":139.544659},{"name":"手毬塾ウノ","province":"東京都","city":"武蔵野市","address":"武蔵野市境南町3-22-22","lat":35.698927,"lon":139.540029},{"name":"ウイングむさしの","province":"東京都","city":"武蔵野市","address":"武蔵野市境南町2-13-5グレーハイツ泉妻","lat":35.698619,"lon":139.543821},{"name":"武蔵野市子ども家庭支援センター","province":"東京都","city":"武蔵野市","address":"武蔵野市緑町2-2-28武蔵野市役所3階","lat":35.717836,"lon":139.565937},{"name":"武蔵野市子ども家庭支援センター","province":"東京都","city":"武蔵野市","address":"武蔵野市緑町2-2-28武蔵野市役所3階","lat":35.71776,"lon":139.56586},{"name":"グループホームＲＥＮＧＡ","province":"東京都","city":"武蔵野市","address":"武蔵野市八幡町3-3-26","lat":35.717033,"lon":139.552991},{"name":"武蔵野市子ども家庭支援センター","province":"東京都","city":"武蔵野市","address":"武蔵野市緑町2-2-28武蔵野市役所3階","lat":35.71735,"lon":139.56256},{"name":"武蔵高等学校","province":"東京都","city":"武蔵野市","address":"東京都武蔵野市境4丁目13-28","lat":35.70770641,"lon":139.53965969},{"name":"武蔵野北高等学校","province":"東京都","city":"武蔵野市","address":"東京都武蔵野市八幡町2丁目3-10","lat":35.71979428,"lon":139.55733535},{"name":"子ども発達支援ルームおれんじ学園","province":"東京都","city":"武蔵野市","address":"武蔵野市吉祥寺北町3-5-8イトーピア吉祥寺1階-110","lat":35.710487,"lon":139.57104},{"name":"ビーキッズむさしの","province":"東京都","city":"武蔵野市","address":"武蔵野市吉祥寺南町3-7-1プランドールサンリョウ2階","lat":35.699553,"lon":139.58637},{"name":"児童発達支援・放課後等デイサービス　ささえ","province":"東京都","city":"武蔵野市","address":"武蔵野市吉祥寺本町一丁目35番14号","lat":35.703736,"lon":139.584806},{"name":"ＴＥＥＮＳ吉祥寺","province":"東京都","city":"武蔵野市","address":"武蔵野市吉祥寺本町2-25-12SantaFe1-C","lat":35.703874,"lon":139.574673},{"name":"スタジオそら武蔵野","province":"東京都","city":"武蔵野市","address":"武蔵野市中町1-23-12クレール武蔵野1階","lat":35.704513,"lon":139.563458},{"name":"子ども発達支援ルームおれんじ学園ｎｉｃｏ","province":"東京都","city":"武蔵野市","address":"武蔵野市中町1-19-8シティハイツ武蔵野1階","lat":35.704999,"lon":139.562672},{"name":"あすはＫｉｄｓ","province":"東京都","city":"武蔵野市","address":"武蔵野市八幡町1-6-1","lat":35.715089,"lon":139.55435},{"name":"千川さくらんぼクラブ","province":"東京都","city":"武蔵野市","address":"武蔵野市八幡町2-5-3武蔵野中央公園北ホール1階","lat":35.7214,"lon":139.559666},{"name":"ｗａｃｃａ","province":"東京都","city":"武蔵野市","address":"武蔵野市八幡町3-8-6ニューハイツ武蔵野1階","lat":35.716425,"lon":139.549872},{"name":"児童発達センター　ぽこあぽこ","province":"東京都","city":"武蔵野市","address":"武蔵野市境2-4-3スヤマ武蔵野1F","lat":35.706223,"lon":139.543173},{"name":"ロゼット","province":"東京都","city":"武蔵野市","address":"武蔵野市境1-4-5","lat":35.704085,"lon":139.544659},{"name":"手毬塾ウノ","province":"東京都","city":"武蔵野市","address":"武蔵野市境南町3-22-22","lat":35.698927,"lon":139.540029},{"name":"ウイングむさしの","province":"東京都","city":"武蔵野市","address":"武蔵野市境南町2-13-5グレーハイツ泉妻","lat":35.698619,"lon":139.543821},{"name":"武蔵野市子ども家庭支援センター","province":"東京都","city":"武蔵野市","address":"武蔵野市緑町2-2-28武蔵野市役所3階","lat":35.717836,"lon":139.565937},{"name":"武蔵野市子ども家庭支援センター","province":"東京都","city":"武蔵野市","address":"武蔵野市緑町2-2-28武蔵野市役所3階","lat":35.71776,"lon":139.56586},{"name":"グループホームＲＥＮＧＡ","province":"東京都","city":"武蔵野市","address":"武蔵野市八幡町3-3-26","lat":35.717033,"lon":139.552991},{"name":"武蔵野市子ども家庭支援センター","province":"東京都","city":"武蔵野市","address":"武蔵野市緑町2-2-28武蔵野市役所3階","lat":35.71735,"lon":139.56256},{"name":"武蔵高等学校","province":"東京都","city":"武蔵野市","address":"東京都武蔵野市境4丁目13-28","lat":35.70770641,"lon":139.53965969},{"name":"武蔵野北高等学校","province":"東京都","city":"武蔵野市","address":"東京都武蔵野市八幡町2丁目3-10","lat":35.71979428,"lon":139.55733535},{"name":"子ども発達支援ルームおれんじ学園","province":"東京都","city":"武蔵野市","address":"武蔵野市吉祥寺北町3-5-8イトーピア吉祥寺1階-110","lat":35.710487,"lon":139.57104},{"name":"ビーキッズむさしの","province":"東京都","city":"武蔵野市","address":"武蔵野市吉祥寺南町3-7-1プランドールサンリョウ2階","lat":35.699553,"lon":139.58637},{"name":"児童発達支援・放課後等デイサービス　ささえ","province":"東京都","city":"武蔵野市","address":"武蔵野市吉祥寺本町一丁目35番14号","lat":35.703736,"lon":139.584806},{"name":"ＴＥＥＮＳ吉祥寺","province":"東京都","city":"武蔵野市","address":"武蔵野市吉祥寺本町2-25-12SantaFe1-C","lat":35.703874,"lon":139.574673},{"name":"スタジオそら武蔵野","province":"東京都","city":"武蔵野市","address":"武蔵野市中町1-23-12クレール武蔵野1階","lat":35.704513,"lon":139.563458},{"name":"子ども発達支援ルームおれんじ学園ｎｉｃｏ","province":"東京都","city":"武蔵野市","address":"武蔵野市中町1-19-8シティハイツ武蔵野1階","lat":35.704999,"lon":139.562672},{"name":"あすはＫｉｄｓ","province":"東京都","city":"武蔵野市","address":"武蔵野市八幡町1-6-1","lat":35.715089,"lon":139.55435},{"name":"千川さくらんぼクラブ","province":"東京都","city":"武蔵野市","address":"武蔵野市八幡町2-5-3武蔵野中央公園北ホール1階","lat":35.7214,"lon":139.559666},{"name":"ｗａｃｃａ","province":"東京都","city":"武蔵野市","address":"武蔵野市八幡町3-8-6ニューハイツ武蔵野1階","lat":35.716425,"lon":139.549872},{"name":"児童発達センター　ぽこあぽこ","province":"東京都","city":"武蔵野市","address":"武蔵野市境2-4-3スヤマ武蔵野1F","lat":35.706223,"lon":139.543173},{"name":"ロゼット","province":"東京都","city":"武蔵野市","address":"武蔵野市境1-4-5","lat":35.704085,"lon":139.544659},{"name":"手毬塾ウノ","province":"東京都","city":"武蔵野市","address":"武蔵野市境南町3-22-22","lat":35.698927,"lon":139.540029},{"name":"ウイングむさしの","province":"東京都","city":"武蔵野市","address":"武蔵野市境南町2-13-5グレーハイツ泉妻","lat":35.698619,"lon":139.543821},{"name":"武蔵野市子ども家庭支援センター","province":"東京都","city":"武蔵野市","address":"武蔵野市緑町2-2-28武蔵野市役所3階","lat":35.717836,"lon":139.565937},{"name":"武蔵野市子ども家庭支援センター","province":"東京都","city":"武蔵野市","address":"武蔵野市緑町2-2-28武蔵野市役所3階","lat":35.71776,"lon":139.56586},{"name":"グループホームＲＥＮＧＡ","province":"東京都","city":"武蔵野市","address":"武蔵野市八幡町3-3-26","lat":35.717033,"lon":139.552991},{"name":"武蔵野市子ども家庭支援センター","province":"東京都","city":"武蔵野市","address":"武蔵野市緑町2-2-28武蔵野市役所3階","lat":35.71735,"lon":139.56256},{"name":"武蔵高等学校","province":"東京都","city":"武蔵野市","address":"東京都武蔵野市境4丁目13-28","lat":35.70770641,"lon":139.53965969},{"name":"武蔵野北高等学校","province":"東京都","city":"武蔵野市","address":"東京都武蔵野市八幡町2丁目3-10","lat":35.71979428,"lon":139.55733535},{"name":"子ども発達支援ルームおれんじ学園","province":"東京都","city":"武蔵野市","address":"武蔵野市吉祥寺北町3-5-8イトーピア吉祥寺1階-110","lat":35.710487,"lon":139.57104},{"name":"ビーキッズむさしの","province":"東京都","city":"武蔵野市","address":"武蔵野市吉祥寺南町3-7-1プランドールサンリョウ2階","lat":35.699553,"lon":139.58637},{"name":"児童発達支援・放課後等デイサービス　ささえ","province":"東京都","city":"武蔵野市","address":"武蔵野市吉祥寺本町一丁目35番14号","lat":35.703736,"lon":139.584806},{"name":"ＴＥＥＮＳ吉祥寺","province":"東京都","city":"武蔵野市","address":"武蔵野市吉祥寺本町2-25-12SantaFe1-C","lat":35.703874,"lon":139.574673},{"name":"スタジオそら武蔵野","province":"東京都","city":"武蔵野市","address":"武蔵野市中町1-23-12クレール武蔵野1階","lat":35.704513,"lon":139.563458},{"name":"子ども発達支援ルームおれんじ学園ｎｉｃｏ","province":"東京都","city":"武蔵野市","address":"武蔵野市中町1-19-8シティハイツ武蔵野1階","lat":35.704999,"lon":139.562672},{"name":"あすはＫｉｄｓ","province":"東京都","city":"武蔵野市","address":"武蔵野市八幡町1-6-1","lat":35.715089,"lon":139.55435},{"name":"千川さくらんぼクラブ","province":"東京都","city":"武蔵野市","address":"武蔵野市八幡町2-5-3武蔵野中央公園北ホール1階","lat":35.7214,"lon":139.559666},{"name":"ｗａｃｃａ","province":"東京都","city":"武蔵野市","address":"武蔵野市八幡町3-8-6ニューハイツ武蔵野1階","lat":35.716425,"lon":139.549872},{"name":"児童発達センター　ぽこあぽこ","province":"東京都","city":"武蔵野市","address":"武蔵野市境2-4-3スヤマ武蔵野1F","lat":35.706223,"lon":139.543173},{"name":"ロゼット","province":"東京都","city":"武蔵野市","address":"武蔵野市境1-4-5","lat":35.704085,"lon":139.544659},{"name":"手毬塾ウノ","province":"東京都","city":"武蔵野市","address":"武蔵野市境南町3-22-22","lat":35.698927,"lon":139.540029},{"name":"ウイングむさしの","province":"東京都","city":"武蔵野市","address":"武蔵野市境南町2-13-5グレーハイツ泉妻","lat":35.698619,"lon":139.543821},{"name":"武蔵野市子ども家庭支援センター","province":"東京都","city":"武蔵野市","address":"武蔵野市緑町2-2-28武蔵野市役所3階","lat":35.717836,"lon":139.565937},{"name":"武蔵野市子ども家庭支援センター","province":"東京都","city":"武蔵野市","address":"武蔵野市緑町2-2-28武蔵野市役所3階","lat":35.71776,"lon":139.56586},{"name":"グループホームＲＥＮＧＡ","province":"東京都","city":"武蔵野市","address":"武蔵野市八幡町3-3-26","lat":35.717033,"lon":139.552991},{"name":"武蔵野市子ども家庭支援センター","province":"東京都","city":"武蔵野市","address":"武蔵野市緑町2-2-28武蔵野市役所3階","lat":35.71735,"lon":139.56256},{"name":"武蔵高等学校","province":"東京都","city":"武蔵野市","address":"東京都武蔵野市境4丁目13-28","lat":35.70770641,"lon":139.53965969},{"name":"武蔵野北高等学校","province":"東京都","city":"武蔵野市","address":"東京都武蔵野市八幡町2丁目3-10","lat":35.71979428,"lon":139.55733535},{"name":"子ども発達支援ルームおれんじ学園","province":"東京都","city":"武蔵野市","address":"武蔵野市吉祥寺北町3-5-8イトーピア吉祥寺1階-110","lat":35.710487,"lon":139.57104},{"name":"ビーキッズむさしの","province":"東京都","city":"武蔵野市","address":"武蔵野市吉祥寺南町3-7-1プランドールサンリョウ2階","lat":35.699553,"lon":139.58637},{"name":"児童発達支援・放課後等デイサービス　ささえ","province":"東京都","city":"武蔵野市","address":"武蔵野市吉祥寺本町一丁目35番14号","lat":35.703736,"lon":139.584806},{"name":"ＴＥＥＮＳ吉祥寺","province":"東京都","city":"武蔵野市","address":"武蔵野市吉祥寺本町2-25-12SantaFe1-C","lat":35.703874,"lon":139.574673},{"name":"スタジオそら武蔵野","province":"東京都","city":"武蔵野市","address":"武蔵野市中町1-23-12クレール武蔵野1階","lat":35.704513,"lon":139.563458},{"name":"子ども発達支援ルームおれんじ学園ｎｉｃｏ","province":"東京都","city":"武蔵野市","address":"武蔵野市中町1-19-8シティハイツ武蔵野1階","lat":35.704999,"lon":139.562672},{"name":"あすはＫｉｄｓ","province":"東京都","city":"武蔵野市","address":"武蔵野市八幡町1-6-1","lat":35.715089,"lon":139.55435},{"name":"千川さくらんぼクラブ","province":"東京都","city":"武蔵野市","address":"武蔵野市八幡町2-5-3武蔵野中央公園北ホール1階","lat":35.7214,"lon":139.559666},{"name":"ｗａｃｃａ","province":"東京都","city":"武蔵野市","address":"武蔵野市八幡町3-8-6ニューハイツ武蔵野1階","lat":35.716425,"lon":139.549872},{"name":"児童発達センター　ぽこあぽこ","province":"東京都","city":"武蔵野市","address":"武蔵野市境2-4-3スヤマ武蔵野1F","lat":35.706223,"lon":139.543173},{"name":"ロゼット","province":"東京都","city":"武蔵野市","address":"武蔵野市境1-4-5","lat":35.704085,"lon":139.544659},{"name":"手毬塾ウノ","province":"東京都","city":"武蔵野市","address":"武蔵野市境南町3-22-22","lat":35.698927,"lon":139.540029},{"name":"ウイングむさしの","province":"東京都","city":"武蔵野市","address":"武蔵野市境南町2-13-5グレーハイツ泉妻","lat":35.698619,"lon":139.543821},{"name":"武蔵野市子ども家庭支援センター","province":"東京都","city":"武蔵野市","address":"武蔵野市緑町2-2-28武蔵野市役所3階","lat":35.717836,"lon":139.565937},{"name":"武蔵野市子ども家庭支援センター","province":"東京都","city":"武蔵野市","address":"武蔵野市緑町2-2-28武蔵野市役所3階","lat":35.71776,"lon":139.56586},{"name":"グループホームＲＥＮＧＡ","province":"東京都","city":"武蔵野市","address":"武蔵野市八幡町3-3-26","lat":35.717033,"lon":139.552991},{"name":"武蔵野市子ども家庭支援センター","province":"東京都","city":"武蔵野市","address":"武蔵野市緑町2-2-28武蔵野市役所3階","lat":35.71735,"lon":139.56256},{"name":"武蔵高等学校","province":"東京都","city":"武蔵野市","address":"東京都武蔵野市境4丁目13-28","lat":35.70770641,"lon":139.53965969},{"name":"武蔵野北高等学校","province":"東京都","city":"武蔵野市","address":"東京都武蔵野市八幡町2丁目3-10","lat":35.71979428,"lon":139.55733535},{"name":"子ども発達支援ルームおれんじ学園","province":"東京都","city":"武蔵野市","address":"武蔵野市吉祥寺北町3-5-8イトーピア吉祥寺1階-110","lat":35.710487,"lon":139.57104},{"name":"ビーキッズむさしの","province":"東京都","city":"武蔵野市","address":"武蔵野市吉祥寺南町3-7-1プランドールサンリョウ2階","lat":35.699553,"lon":139.58637},{"name":"児童発達支援・放課後等デイサービス　ささえ","province":"東京都","city":"武蔵野市","address":"武蔵野市吉祥寺本町一丁目35番14号","lat":35.703736,"lon":139.584806},{"name":"ＴＥＥＮＳ吉祥寺","province":"東京都","city":"武蔵野市","address":"武蔵野市吉祥寺本町2-25-12SantaFe1-C","lat":35.703874,"lon":139.574673},{"name":"スタジオそら武蔵野","province":"東京都","city":"武蔵野市","address":"武蔵野市中町1-23-12クレール武蔵野1階","lat":35.704513,"lon":139.563458},{"name":"子ども発達支援ルームおれんじ学園ｎｉｃｏ","province":"東京都","city":"武蔵野市","address":"武蔵野市中町1-19-8シティハイツ武蔵野1階","lat":35.704999,"lon":139.562672},{"name":"あすはＫｉｄｓ","province":"東京都","city":"武蔵野市","address":"武蔵野市八幡町1-6-1","lat":35.715089,"lon":139.55435},{"name":"千川さくらんぼクラブ","province":"東京都","city":"武蔵野市","address":"武蔵野市八幡町2-5-3武蔵野中央公園北ホール1階","lat":35.7214,"lon":139.559666},{"name":"ｗａｃｃａ","province":"東京都","city":"武蔵野市","address":"武蔵野市八幡町3-8-6ニューハイツ武蔵野1階","lat":35.716425,"lon":139.549872},{"name":"児童発達センター　ぽこあぽこ","province":"東京都","city":"武蔵野市","address":"武蔵野市境2-4-3スヤマ武蔵野1F","lat":35.706223,"lon":139.543173},{"name":"ロゼット","province":"東京都","city":"武蔵野市","address":"武蔵野市境1-4-5","lat":35.704085,"lon":139.544659},{"name":"手毬塾ウノ","province":"東京都","city":"武蔵野市","address":"武蔵野市境南町3-22-22","lat":35.698927,"lon":139.540029},{"name":"ウイングむさしの","province":"東京都","city":"武蔵野市","address":"武蔵野市境南町2-13-5グレーハイツ泉妻","lat":35.698619,"lon":139.543821},{"name":"武蔵野市子ども家庭支援センター","province":"東京都","city":"武蔵野市","address":"武蔵野市緑町2-2-28武蔵野市役所3階","lat":35.717836,"lon":139.565937},{"name":"武蔵野市子ども家庭支援センター","province":"東京都","city":"武蔵野市","address":"武蔵野市緑町2-2-28武蔵野市役所3階","lat":35.71776,"lon":139.56586},{"name":"グループホームＲＥＮＧＡ","province":"東京都","city":"武蔵野市","address":"武蔵野市八幡町3-3-26","lat":35.717033,"lon":139.552991},{"name":"武蔵野市子ども家庭支援センター","province":"東京都","city":"武蔵野市","address":"武蔵野市緑町2-2-28武蔵野市役所3階","lat":35.71735,"lon":139.56256},{"name":"武蔵高等学校","province":"東京都","city":"武蔵野市","address":"東京都武蔵野市境4丁目13-28","lat":35.70770641,"lon":139.53965969},{"name":"武蔵野北高等学校","province":"東京都","city":"武蔵野市","address":"東京都武蔵野市八幡町2丁目3-10","lat":35.71979428,"lon":139.55733535},{"name":"子ども発達支援ルームおれんじ学園","province":"東京都","city":"武蔵野市","address":"武蔵野市吉祥寺北町3-5-8イトーピア吉祥寺1階-110","lat":35.710487,"lon":139.57104},{"name":"ビーキッズむさしの","province":"東京都","city":"武蔵野市","address":"武蔵野市吉祥寺南町3-7-1プランドールサンリョウ2階","lat":35.699553,"lon":139.58637},{"name":"児童発達支援・放課後等デイサービス　ささえ","province":"東京都","city":"武蔵野市","address":"武蔵野市吉祥寺本町一丁目35番14号","lat":35.703736,"lon":139.584806},{"name":"ＴＥＥＮＳ吉祥寺","province":"東京都","city":"武蔵野市","address":"武蔵野市吉祥寺本町2-25-12SantaFe1-C","lat":35.703874,"lon":139.574673},{"name":"スタジオそら武蔵野","province":"東京都","city":"武蔵野市","address":"武蔵野市中町1-23-12クレール武蔵野1階","lat":35.704513,"lon":139.563458},{"name":"子ども発達支援ルームおれんじ学園ｎｉｃｏ","province":"東京都","city":"武蔵野市","address":"武蔵野市中町1-19-8シティハイツ武蔵野1階","lat":35.704999,"lon":139.562672},{"name":"あすはＫｉｄｓ","province":"東京都","city":"武蔵野市","address":"武蔵野市八幡町1-6-1","lat":35.715089,"lon":139.55435},{"name":"千川さくらんぼクラブ","province":"東京都","city":"武蔵野市","address":"武蔵野市八幡町2-5-3武蔵野中央公園北ホール1階","lat":35.7214,"lon":139.559666},{"name":"ｗａｃｃａ","province":"東京都","city":"武蔵野市","address":"武蔵野市八幡町3-8-6ニューハイツ武蔵野1階","lat":35.716425,"lon":139.549872},{"name":"児童発達センター　ぽこあぽこ","province":"東京都","city":"武蔵野市","address":"武蔵野市境2-4-3スヤマ武蔵野1F","lat":35.706223,"lon":139.543173},{"name":"ロゼット","province":"東京都","city":"武蔵野市","address":"武蔵野市境1-4-5","lat":35.704085,"lon":139.544659},{"name":"手毬塾ウノ","province":"東京都","city":"武蔵野市","address":"武蔵野市境南町3-22-22","lat":35.698927,"lon":139.540029},{"name":"ウイングむさしの","province":"東京都","city":"武蔵野市","address":"武蔵野市境南町2-13-5グレーハイツ泉妻","lat":35.698619,"lon":139.543821},{"name":"武蔵野市子ども家庭支援センター","province":"東京都","city":"武蔵野市","address":"武蔵野市緑町2-2-28武蔵野市役所3階","lat":35.717836,"lon":139.565937},{"name":"武蔵野市子ども家庭支援センター","province":"東京都","city":"武蔵野市","address":"武蔵野市緑町2-2-28武蔵野市役所3階","lat":35.71776,"lon":139.56586},{"name":"グループホームＲＥＮＧＡ","province":"東京都","city":"武蔵野市","address":"武蔵野市八幡町3-3-26","lat":35.717033,"lon":139.552991},{"name":"武蔵野市子ども家庭支援センター","province":"東京都","city":"武蔵野市","address":"武蔵野市緑町2-2-28武蔵野市役所3階","lat":35.71735,"lon":139.56256},{"name":"武蔵高等学校","province":"東京都","city":"武蔵野市","address":"東京都武蔵野市境4丁目13-28","lat":35.70770641,"lon":139.53965969},{"name":"武蔵野北高等学校","province":"東京都","city":"武蔵野市","address":"東京都武蔵野市八幡町2丁目3-10","lat":35.71979428,"lon":139.55733535},{"name":"子ども発達支援ルームおれんじ学園","province":"東京都","city":"武蔵野市","address":"武蔵野市吉祥寺北町3-5-8イトーピア吉祥寺1階-110","lat":35.710487,"lon":139.57104},{"name":"ビーキッズむさしの","province":"東京都","city":"武蔵野市","address":"武蔵野市吉祥寺南町3-7-1プランドールサンリョウ2階","lat":35.699553,"lon":139.58637},{"name":"児童発達支援・放課後等デイサービス　ささえ","province":"東京都","city":"武蔵野市","address":"武蔵野市吉祥寺本町一丁目35番14号","lat":35.703736,"lon":139.584806},{"name":"ＴＥＥＮＳ吉祥寺","province":"東京都","city":"武蔵野市","address":"武蔵野市吉祥寺本町2-25-12SantaFe1-C","lat":35.703874,"lon":139.574673},{"name":"スタジオそら武蔵野","province":"東京都","city":"武蔵野市","address":"武蔵野市中町1-23-12クレール武蔵野1階","lat":35.704513,"lon":139.563458},{"name":"子ども発達支援ルームおれんじ学園ｎｉｃｏ","province":"東京都","city":"武蔵野市","address":"武蔵野市中町1-19-8シティハイツ武蔵野1階","lat":35.704999,"lon":139.562672},{"name":"あすはＫｉｄｓ","province":"東京都","city":"武蔵野市","address":"武蔵野市八幡町1-6-1","lat":35.715089,"lon":139.55435},{"name":"千川さくらんぼクラブ","province":"東京都","city":"武蔵野市","address":"武蔵野市八幡町2-5-3武蔵野中央公園北ホール1階","lat":35.7214,"lon":139.559666},{"name":"ｗａｃｃａ","province":"東京都","city":"武蔵野市","address":"武蔵野市八幡町3-8-6ニューハイツ武蔵野1階","lat":35.716425,"lon":139.549872},{"name":"児童発達センター　ぽこあぽこ","province":"東京都","city":"武蔵野市","address":"武蔵野市境2-4-3スヤマ武蔵野1F","lat":35.706223,"lon":139.543173},{"name":"ロゼット","province":"東京都","city":"武蔵野市","address":"武蔵野市境1-4-5","lat":35.704085,"lon":139.544659},{"name":"手毬塾ウノ","province":"東京都","city":"武蔵野市","address":"武蔵野市境南町3-22-22","lat":35.698927,"lon":139.540029},{"name":"ウイングむさしの","province":"東京都","city":"武蔵野市","address":"武蔵野市境南町2-13-5グレーハイツ泉妻","lat":35.698619,"lon":139.543821},{"name":"武蔵野市子ども家庭支援センター","province":"東京都","city":"武蔵野市","address":"武蔵野市緑町2-2-28武蔵野市役所3階","lat":35.717836,"lon":139.565937},{"name":"武蔵野市子ども家庭支援センター","province":"東京都","city":"武蔵野市","address":"武蔵野市緑町2-2-28武蔵野市役所3階","lat":35.71776,"lon":139.56586},{"name":"グループホームＲＥＮＧＡ","province":"東京都","city":"武蔵野市","address":"武蔵野市八幡町3-3-26","lat":35.717033,"lon":139.552991},{"name":"武蔵野市子ども家庭支援センター","province":"東京都","city":"武蔵野市","address":"武蔵野市緑町2-2-28武蔵野市役所3階","lat":35.71735,"lon":139.56256},{"name":"武蔵高等学校","province":"東京都","city":"武蔵野市","address":"東京都武蔵野市境4丁目13-28","lat":35.70770641,"lon":139.53965969},{"name":"武蔵野北高等学校","province":"東京都","city":"武蔵野市","address":"東京都武蔵野市八幡町2丁目3-10","lat":35.71979428,"lon":139.55733535},{"name":"子ども発達支援ルームおれんじ学園","province":"東京都","city":"武蔵野市","address":"武蔵野市吉祥寺北町3-5-8イトーピア吉祥寺1階-110","lat":35.710487,"lon":139.57104},{"name":"ビーキッズむさしの","province":"東京都","city":"武蔵野市","address":"武蔵野市吉祥寺南町3-7-1プランドールサンリョウ2階","lat":35.699553,"lon":139.58637},{"name":"児童発達支援・放課後等デイサービス　ささえ","province":"東京都","city":"武蔵野市","address":"武蔵野市吉祥寺本町一丁目35番14号","lat":35.703736,"lon":139.584806},{"name":"ＴＥＥＮＳ吉祥寺","province":"東京都","city":"武蔵野市","address":"武蔵野市吉祥寺本町2-25-12SantaFe1-C","lat":35.703874,"lon":139.574673},{"name":"スタジオそら武蔵野","province":"東京都","city":"武蔵野市","address":"武蔵野市中町1-23-12クレール武蔵野1階","lat":35.704513,"lon":139.563458},{"name":"子ども発達支援ルームおれんじ学園ｎｉｃｏ","province":"東京都","city":"武蔵野市","address":"武蔵野市中町1-19-8シティハイツ武蔵野1階","lat":35.704999,"lon":139.562672},{"name":"あすはＫｉｄｓ","province":"東京都","city":"武蔵野市","address":"武蔵野市八幡町1-6-1","lat":35.715089,"lon":139.55435},{"name":"千川さくらんぼクラブ","province":"東京都","city":"武蔵野市","address":"武蔵野市八幡町2-5-3武蔵野中央公園北ホール1階","lat":35.7214,"lon":139.559666},{"name":"ｗａｃｃａ","province":"東京都","city":"武蔵野市","address":"武蔵野市八幡町3-8-6ニューハイツ武蔵野1階","lat":35.716425,"lon":139.549872},{"name":"児童発達センター　ぽこあぽこ","province":"東京都","city":"武蔵野市","address":"武蔵野市境2-4-3スヤマ武蔵野1F","lat":35.706223,"lon":139.543173},{"name":"ロゼット","province":"東京都","city":"武蔵野市","address":"武蔵野市境1-4-5","lat":35.704085,"lon":139.544659},{"name":"手毬塾ウノ","province":"東京都","city":"武蔵野市","address":"武蔵野市境南町3-22-22","lat":35.698927,"lon":139.540029},{"name":"ウイングむさしの","province":"東京都","city":"武蔵野市","address":"武蔵野市境南町2-13-5グレーハイツ泉妻","lat":35.698619,"lon":139.543821},{"name":"武蔵野市子ども家庭支援センター","province":"東京都","city":"武蔵野市","address":"武蔵野市緑町2-2-28武蔵野市役所3階","lat":35.717836,"lon":139.565937},{"name":"武蔵野市子ども家庭支援センター","province":"東京都","city":"武蔵野市","address":"武蔵野市緑町2-2-28武蔵野市役所3階","lat":35.71776,"lon":139.56586},{"name":"グループホームＲＥＮＧＡ","province":"東京都","city":"武蔵野市","address":"武蔵野市八幡町3-3-26","lat":35.717033,"lon":139.552991},{"name":"武蔵野市子ども家庭支援センター","province":"東京都","city":"武蔵野市","address":"武蔵野市緑町2-2-28武蔵野市役所3階","lat":35.71735,"lon":139.56256},{"name":"武蔵高等学校","province":"東京都","city":"武蔵野市","address":"東京都武蔵野市境4丁目13-28","lat":35.70770641,"lon":139.53965969},{"name":"武蔵野北高等学校","province":"東京都","city":"武蔵野市","address":"東京都武蔵野市八幡町2丁目3-10","lat":35.71979428,"lon":139.55733535},{"name":"子ども発達支援ルームおれんじ学園","province":"東京都","city":"武蔵野市","address":"武蔵野市吉祥寺北町3-5-8イトーピア吉祥寺1階-110","lat":35.710487,"lon":139.57104},{"name":"ビーキッズむさしの","province":"東京都","city":"武蔵野市","address":"武蔵野市吉祥寺南町3-7-1プランドールサンリョウ2階","lat":35.699553,"lon":139.58637},{"name":"児童発達支援・放課後等デイサービス　ささえ","province":"東京都","city":"武蔵野市","address":"武蔵野市吉祥寺本町一丁目35番14号","lat":35.703736,"lon":139.584806},{"name":"ＴＥＥＮＳ吉祥寺","province":"東京都","city":"武蔵野市","address":"武蔵野市吉祥寺本町2-25-12SantaFe1-C","lat":35.703874,"lon":139.574673},{"name":"スタジオそら武蔵野","province":"東京都","city":"武蔵野市","address":"武蔵野市中町1-23-12クレール武蔵野1階","lat":35.704513,"lon":139.563458},{"name":"子ども発達支援ルームおれんじ学園ｎｉｃｏ","province":"東京都","city":"武蔵野市","address":"武蔵野市中町1-19-8シティハイツ武蔵野1階","lat":35.704999,"lon":139.562672},{"name":"あすはＫｉｄｓ","province":"東京都","city":"武蔵野市","address":"武蔵野市八幡町1-6-1","lat":35.715089,"lon":139.55435},{"name":"千川さくらんぼクラブ","province":"東京都","city":"武蔵野市","address":"武蔵野市八幡町2-5-3武蔵野中央公園北ホール1階","lat":35.7214,"lon":139.559666},{"name":"ｗａｃｃａ","province":"東京都","city":"武蔵野市","address":"武蔵野市八幡町3-8-6ニューハイツ武蔵野1階","lat":35.716425,"lon":139.549872},{"name":"児童発達センター　ぽこあぽこ","province":"東京都","city":"武蔵野市","address":"武蔵野市境2-4-3スヤマ武蔵野1F","lat":35.706223,"lon":139.543173},{"name":"ロゼット","province":"東京都","city":"武蔵野市","address":"武蔵野市境1-4-5","lat":35.704085,"lon":139.544659},{"name":"手毬塾ウノ","province":"東京都","city":"武蔵野市","address":"武蔵野市境南町3-22-22","lat":35.698927,"lon":139.540029},{"name":"ウイングむさしの","province":"東京都","city":"武蔵野市","address":"武蔵野市境南町2-13-5グレーハイツ泉妻","lat":35.698619,"lon":139.543821},{"name":"武蔵野市子ども家庭支援センター","province":"東京都","city":"武蔵野市","address":"武蔵野市緑町2-2-28武蔵野市役所3階","lat":35.717836,"lon":139.565937},{"name":"武蔵野市子ども家庭支援センター","province":"東京都","city":"武蔵野市","address":"武蔵野市緑町2-2-28武蔵野市役所3階","lat":35.71776,"lon":139.56586},{"name":"グループホームＲＥＮＧＡ","province":"東京都","city":"武蔵野市","address":"武蔵野市八幡町3-3-26","lat":35.717033,"lon":139.552991},{"name":"武蔵野市子ども家庭支援センター","province":"東京都","city":"武蔵野市","address":"武蔵野市緑町2-2-28武蔵野市役所3階","lat":35.71735,"lon":139.56256},{"name":"武蔵高等学校","province":"東京都","city":"武蔵野市","address":"東京都武蔵野市境4丁目13-28","lat":35.70770641,"lon":139.53965969},{"name":"武蔵野北高等学校","province":"東京都","city":"武蔵野市","address":"東京都武蔵野市八幡町2丁目3-10","lat":35.71979428,"lon":139.55733535},{"name":"子ども発達支援ルームおれんじ学園","province":"東京都","city":"武蔵野市","address":"武蔵野市吉祥寺北町3-5-8イトーピア吉祥寺1階-110","lat":35.710487,"lon":139.57104},{"name":"ビーキッズむさしの","province":"東京都","city":"武蔵野市","address":"武蔵野市吉祥寺南町3-7-1プランドールサンリョウ2階","lat":35.699553,"lon":139.58637},{"name":"児童発達支援・放課後等デイサービス　ささえ","province":"東京都","city":"武蔵野市","address":"武蔵野市吉祥寺本町一丁目35番14号","lat":35.703736,"lon":139.584806},{"name":"ＴＥＥＮＳ吉祥寺","province":"東京都","city":"武蔵野市","address":"武蔵野市吉祥寺本町2-25-12SantaFe1-C","lat":35.703874,"lon":139.574673},{"name":"スタジオそら武蔵野","province":"東京都","city":"武蔵野市","address":"武蔵野市中町1-23-12クレール武蔵野1階","lat":35.704513,"lon":139.563458},{"name":"子ども発達支援ルームおれんじ学園ｎｉｃｏ","province":"東京都","city":"武蔵野市","address":"武蔵野市中町1-19-8シティハイツ武蔵野1階","lat":35.704999,"lon":139.562672},{"name":"あすはＫｉｄｓ","province":"東京都","city":"武蔵野市","address":"武蔵野市八幡町1-6-1","lat":35.715089,"lon":139.55435},{"name":"千川さくらんぼクラブ","province":"東京都","city":"武蔵野市","address":"武蔵野市八幡町2-5-3武蔵野中央公園北ホール1階","lat":35.7214,"lon":139.559666},{"name":"ｗａｃｃａ","province":"東京都","city":"武蔵野市","address":"武蔵野市八幡町3-8-6ニューハイツ武蔵野1階","lat":35.716425,"lon":139.549872},{"name":"児童発達センター　ぽこあぽこ","province":"東京都","city":"武蔵野市","address":"武蔵野市境2-4-3スヤマ武蔵野1F","lat":35.706223,"lon":139.543173},{"name":"ロゼット","province":"東京都","city":"武蔵野市","address":"武蔵野市境1-4-5","lat":35.704085,"lon":139.544659},{"name":"手毬塾ウノ","province":"東京都","city":"武蔵野市","address":"武蔵野市境南町3-22-22","lat":35.698927,"lon":139.540029},{"name":"ウイングむさしの","province":"東京都","city":"武蔵野市","address":"武蔵野市境南町2-13-5グレーハイツ泉妻","lat":35.698619,"lon":139.543821},{"name":"武蔵野市子ども家庭支援センター","province":"東京都","city":"武蔵野市","address":"武蔵野市緑町2-2-28武蔵野市役所3階","lat":35.717836,"lon":139.565937},{"name":"武蔵野市子ども家庭支援センター","province":"東京都","city":"武蔵野市","address":"武蔵野市緑町2-2-28武蔵野市役所3階","lat":35.71776,"lon":139.56586},{"name":"グループホームＲＥＮＧＡ","province":"東京都","city":"武蔵野市","address":"武蔵野市八幡町3-3-26","lat":35.717033,"lon":139.552991},{"name":"武蔵野市子ども家庭支援センター","province":"東京都","city":"武蔵野市","address":"武蔵野市緑町2-2-28武蔵野市役所3階","lat":35.71735,"lon":139.56256},{"name":"武蔵高等学校","province":"東京都","city":"武蔵野市","address":"東京都武蔵野市境4丁目13-28","lat":35.70770641,"lon":139.53965969},{"name":"武蔵野北高等学校","province":"東京都","city":"武蔵野市","address":"東京都武蔵野市八幡町2丁目3-10","lat":35.71979428,"lon":139.55733535},{"name":"子ども発達支援ルームおれんじ学園","province":"東京都","city":"武蔵野市","address":"武蔵野市吉祥寺北町3-5-8イトーピア吉祥寺1階-110","lat":35.710487,"lon":139.57104},{"name":"ビーキッズむさしの","province":"東京都","city":"武蔵野市","address":"武蔵野市吉祥寺南町3-7-1プランドールサンリョウ2階","lat":35.699553,"lon":139.58637},{"name":"児童発達支援・放課後等デイサービス　ささえ","province":"東京都","city":"武蔵野市","address":"武蔵野市吉祥寺本町一丁目35番14号","lat":35.703736,"lon":139.584806},{"name":"ＴＥＥＮＳ吉祥寺","province":"東京都","city":"武蔵野市","address":"武蔵野市吉祥寺本町2-25-12SantaFe1-C","lat":35.703874,"lon":139.574673},{"name":"スタジオそら武蔵野","province":"東京都","city":"武蔵野市","address":"武蔵野市中町1-23-12クレール武蔵野1階","lat":35.704513,"lon":139.563458},{"name":"子ども発達支援ルームおれんじ学園ｎｉｃｏ","province":"東京都","city":"武蔵野市","address":"武蔵野市中町1-19-8シティハイツ武蔵野1階","lat":35.704999,"lon":139.562672},{"name":"あすはＫｉｄｓ","province":"東京都","city":"武蔵野市","address":"武蔵野市八幡町1-6-1","lat":35.715089,"lon":139.55435},{"name":"千川さくらんぼクラブ","province":"東京都","city":"武蔵野市","address":"武蔵野市八幡町2-5-3武蔵野中央公園北ホール1階","lat":35.7214,"lon":139.559666},{"name":"ｗａｃｃａ","province":"東京都","city":"武蔵野市","address":"武蔵野市八幡町3-8-6ニューハイツ武蔵野1階","lat":35.716425,"lon":139.549872},{"name":"児童発達センター　ぽこあぽこ","province":"東京都","city":"武蔵野市","address":"武蔵野市境2-4-3スヤマ武蔵野1F","lat":35.706223,"lon":139.543173},{"name":"ロゼット","province":"東京都","city":"武蔵野市","address":"武蔵野市境1-4-5","lat":35.704085,"lon":139.544659},{"name":"手毬塾ウノ","province":"東京都","city":"武蔵野市","address":"武蔵野市境南町3-22-22","lat":35.698927,"lon":139.540029},{"name":"ウイングむさしの","province":"東京都","city":"武蔵野市","address":"武蔵野市境南町2-13-5グレーハイツ泉妻","lat":35.698619,"lon":139.543821},{"name":"武蔵野市子ども家庭支援センター","province":"東京都","city":"武蔵野市","address":"武蔵野市緑町2-2-28武蔵野市役所3階","lat":35.717836,"lon":139.565937},{"name":"武蔵野市子ども家庭支援センター","province":"東京都","city":"武蔵野市","address":"武蔵野市緑町2-2-28武蔵野市役所3階","lat":35.71776,"lon":139.56586},{"name":"グループホームＲＥＮＧＡ","province":"東京都","city":"武蔵野市","address":"武蔵野市八幡町3-3-26","lat":35.717033,"lon":139.552991},{"name":"武蔵野市子ども家庭支援センター","province":"東京都","city":"武蔵野市","address":"武蔵野市緑町2-2-28武蔵野市役所3階","lat":35.71735,"lon":139.56256},{"name":"武蔵高等学校","province":"東京都","city":"武蔵野市","address":"東京都武蔵野市境4丁目13-28","lat":35.70770641,"lon":139.53965969},{"name":"武蔵野北高等学校","province":"東京都","city":"武蔵野市","address":"東京都武蔵野市八幡町2丁目3-10","lat":35.71979428,"lon":139.55733535},{"name":"子ども発達支援ルームおれんじ学園","province":"東京都","city":"武蔵野市","address":"武蔵野市吉祥寺北町3-5-8イトーピア吉祥寺1階-110","lat":35.710487,"lon":139.57104},{"name":"ビーキッズむさしの","province":"東京都","city":"武蔵野市","address":"武蔵野市吉祥寺南町3-7-1プランドールサンリョウ2階","lat":35.699553,"lon":139.58637},{"name":"児童発達支援・放課後等デイサービス　ささえ","province":"東京都","city":"武蔵野市","address":"武蔵野市吉祥寺本町一丁目35番14号","lat":35.703736,"lon":139.584806},{"name":"ＴＥＥＮＳ吉祥寺","province":"東京都","city":"武蔵野市","address":"武蔵野市吉祥寺本町2-25-12SantaFe1-C","lat":35.703874,"lon":139.574673},{"name":"スタジオそら武蔵野","province":"東京都","city":"武蔵野市","address":"武蔵野市中町1-23-12クレール武蔵野1階","lat":35.704513,"lon":139.563458},{"name":"子ども発達支援ルームおれんじ学園ｎｉｃｏ","province":"東京都","city":"武蔵野市","address":"武蔵野市中町1-19-8シティハイツ武蔵野1階","lat":35.704999,"lon":139.562672},{"name":"あすはＫｉｄｓ","province":"東京都","city":"武蔵野市","address":"武蔵野市八幡町1-6-1","lat":35.715089,"lon":139.55435},{"name":"千川さくらんぼクラブ","province":"東京都","city":"武蔵野市","address":"武蔵野市八幡町2-5-3武蔵野中央公園北ホール1階","lat":35.7214,"lon":139.559666},{"name":"ｗａｃｃａ","province":"東京都","city":"武蔵野市","address":"武蔵野市八幡町3-8-6ニューハイツ武蔵野1階","lat":35.716425,"lon":139.549872},{"name":"児童発達センター　ぽこあぽこ","province":"東京都","city":"武蔵野市","address":"武蔵野市境2-4-3スヤマ武蔵野1F","lat":35.706223,"lon":139.543173},{"name":"ロゼット","province":"東京都","city":"武蔵野市","address":"武蔵野市境1-4-5","lat":35.704085,"lon":139.544659},{"name":"手毬塾ウノ","province":"東京都","city":"武蔵野市","address":"武蔵野市境南町3-22-22","lat":35.698927,"lon":139.540029},{"name":"ウイングむさしの","province":"東京都","city":"武蔵野市","address":"武蔵野市境南町2-13-5グレーハイツ泉妻","lat":35.698619,"lon":139.543821},{"name":"武蔵野市子ども家庭支援センター","province":"東京都","city":"武蔵野市","address":"武蔵野市緑町2-2-28武蔵野市役所3階","lat":35.717836,"lon":139.565937},{"name":"武蔵野市子ども家庭支援センター","province":"東京都","city":"武蔵野市","address":"武蔵野市緑町2-2-28武蔵野市役所3階","lat":35.71776,"lon":139.56586},{"name":"グループホームＲＥＮＧＡ","province":"東京都","city":"武蔵野市","address":"武蔵野市八幡町3-3-26","lat":35.717033,"lon":139.552991},{"name":"武蔵野市子ども家庭支援センター","province":"東京都","city":"武蔵野市","address":"武蔵野市緑町2-2-28武蔵野市役所3階","lat":35.71735,"lon":139.56256},{"name":"子ども発達支援ルームおれんじ学園","province":"東京都","city":"武蔵野市","address":"武蔵野市吉祥寺北町3-5-8イトーピア吉祥寺1階-110","lat":35.710487,"lon":139.57104},{"name":"ビーキッズむさしの","province":"東京都","city":"武蔵野市","address":"武蔵野市吉祥寺南町3-7-1プランドールサンリョウ2階","lat":35.699553,"lon":139.58637},{"name":"児童発達支援・放課後等デイサービス　ささえ","province":"東京都","city":"武蔵野市","address":"武蔵野市吉祥寺本町一丁目35番14号","lat":35.703736,"lon":139.584806},{"name":"ＴＥＥＮＳ吉祥寺","province":"東京都","city":"武蔵野市","address":"武蔵野市吉祥寺本町2-25-12SantaFe1-C","lat":35.703874,"lon":139.574673},{"name":"スタジオそら武蔵野","province":"東京都","city":"武蔵野市","address":"武蔵野市中町1-23-12クレール武蔵野1階","lat":35.704513,"lon":139.563458},{"name":"子ども発達支援ルームおれんじ学園ｎｉｃｏ","province":"東京都","city":"武蔵野市","address":"武蔵野市中町1-19-8シティハイツ武蔵野1階","lat":35.704999,"lon":139.562672},{"name":"あすはＫｉｄｓ","province":"東京都","city":"武蔵野市","address":"武蔵野市八幡町1-6-1","lat":35.715089,"lon":139.55435},{"name":"千川さくらんぼクラブ","province":"東京都","city":"武蔵野市","address":"武蔵野市八幡町2-5-3武蔵野中央公園北ホール1階","lat":35.7214,"lon":139.559666},{"name":"ｗａｃｃａ","province":"東京都","city":"武蔵野市","address":"武蔵野市八幡町3-8-6ニューハイツ武蔵野1階","lat":35.716425,"lon":139.549872},{"name":"児童発達センター　ぽこあぽこ","province":"東京都","city":"武蔵野市","address":"武蔵野市境2-4-3スヤマ武蔵野1F","lat":35.706223,"lon":139.543173},{"name":"ロゼット","province":"東京都","city":"武蔵野市","address":"武蔵野市境1-4-5","lat":35.704085,"lon":139.544659},{"name":"手毬塾ウノ","province":"東京都","city":"武蔵野市","address":"武蔵野市境南町3-22-22","lat":35.698927,"lon":139.540029},{"name":"ウイングむさしの","province":"東京都","city":"武蔵野市","address":"武蔵野市境南町2-13-5グレーハイツ泉妻","lat":35.698619,"lon":139.543821},{"name":"武蔵野市子ども家庭支援センター","province":"東京都","city":"武蔵野市","address":"武蔵野市緑町2-2-28武蔵野市役所3階","lat":35.717836,"lon":139.565937},{"name":"武蔵野市子ども家庭支援センター","province":"東京都","city":"武蔵野市","address":"武蔵野市緑町2-2-28武蔵野市役所3階","lat":35.71776,"lon":139.56586},{"name":"グループホームＲＥＮＧＡ","province":"東京都","city":"武蔵野市","address":"武蔵野市八幡町3-3-26","lat":35.717033,"lon":139.552991},{"name":"武蔵野市子ども家庭支援センター","province":"東京都","city":"武蔵野市","address":"武蔵野市緑町2-2-28武蔵野市役所3階","lat":35.71735,"lon":139.56256},{"name":"子ども発達支援ルームおれんじ学園","province":"東京都","city":"武蔵野市","address":"武蔵野市吉祥寺北町3-5-8イトーピア吉祥寺1階-110","lat":35.710487,"lon":139.57104},{"name":"ビーキッズむさしの","province":"東京都","city":"武蔵野市","address":"武蔵野市吉祥寺南町3-7-1プランドールサンリョウ2階","lat":35.699553,"lon":139.58637},{"name":"児童発達支援・放課後等デイサービス　ささえ","province":"東京都","city":"武蔵野市","address":"武蔵野市吉祥寺本町一丁目35番14号","lat":35.703736,"lon":139.584806},{"name":"ＴＥＥＮＳ吉祥寺","province":"東京都","city":"武蔵野市","address":"武蔵野市吉祥寺本町2-25-12SantaFe1-C","lat":35.703874,"lon":139.574673},{"name":"スタジオそら武蔵野","province":"東京都","city":"武蔵野市","address":"武蔵野市中町1-23-12クレール武蔵野1階","lat":35.704513,"lon":139.563458},{"name":"子ども発達支援ルームおれんじ学園ｎｉｃｏ","province":"東京都","city":"武蔵野市","address":"武蔵野市中町1-19-8シティハイツ武蔵野1階","lat":35.704999,"lon":139.562672},{"name":"あすはＫｉｄｓ","province":"東京都","city":"武蔵野市","address":"武蔵野市八幡町1-6-1","lat":35.715089,"lon":139.55435},{"name":"千川さくらんぼクラブ","province":"東京都","city":"武蔵野市","address":"武蔵野市八幡町2-5-3武蔵野中央公園北ホール1階","lat":35.7214,"lon":139.559666},{"name":"ｗａｃｃａ","province":"東京都","city":"武蔵野市","address":"武蔵野市八幡町3-8-6ニューハイツ武蔵野1階","lat":35.716425,"lon":139.549872},{"name":"児童発達センター　ぽこあぽこ","province":"東京都","city":"武蔵野市","address":"武蔵野市境2-4-3スヤマ武蔵野1F","lat":35.706223,"lon":139.543173},{"name":"ロゼット","province":"東京都","city":"武蔵野市","address":"武蔵野市境1-4-5","lat":35.704085,"lon":139.544659},{"name":"手毬塾ウノ","province":"東京都","city":"武蔵野市","address":"武蔵野市境南町3-22-22","lat":35.698927,"lon":139.540029},{"name":"ウイングむさしの","province":"東京都","city":"武蔵野市","address":"武蔵野市境南町2-13-5グレーハイツ泉妻","lat":35.698619,"lon":139.543821},{"name":"武蔵野市子ども家庭支援センター","province":"東京都","city":"武蔵野市","address":"武蔵野市緑町2-2-28武蔵野市役所3階","lat":35.717836,"lon":139.565937},{"name":"武蔵野市子ども家庭支援センター","province":"東京都","city":"武蔵野市","address":"武蔵野市緑町2-2-28武蔵野市役所3階","lat":35.71776,"lon":139.56586},{"name":"グループホームＲＥＮＧＡ","province":"東京都","city":"武蔵野市","address":"武蔵野市八幡町3-3-26","lat":35.717033,"lon":139.552991},{"name":"武蔵野市子ども家庭支援センター","province":"東京都","city":"武蔵野市","address":"武蔵野市緑町2-2-28武蔵野市役所3階","lat":35.71735,"lon":139.56256},{"name":"子ども発達支援ルームおれんじ学園","province":"東京都","city":"武蔵野市","address":"武蔵野市吉祥寺北町3-5-8イトーピア吉祥寺1階-110","lat":35.710487,"lon":139.57104},{"name":"ビーキッズむさしの","province":"東京都","city":"武蔵野市","address":"武蔵野市吉祥寺南町3-7-1プランドールサンリョウ2階","lat":35.699553,"lon":139.58637},{"name":"児童発達支援・放課後等デイサービス　ささえ","province":"東京都","city":"武蔵野市","address":"武蔵野市吉祥寺本町一丁目35番14号","lat":35.703736,"lon":139.584806},{"name":"ＴＥＥＮＳ吉祥寺","province":"東京都","city":"武蔵野市","address":"武蔵野市吉祥寺本町2-25-12SantaFe1-C","lat":35.703874,"lon":139.574673},{"name":"スタジオそら武蔵野","province":"東京都","city":"武蔵野市","address":"武蔵野市中町1-23-12クレール武蔵野1階","lat":35.704513,"lon":139.563458},{"name":"子ども発達支援ルームおれんじ学園ｎｉｃｏ","province":"東京都","city":"武蔵野市","address":"武蔵野市中町1-19-8シティハイツ武蔵野1階","lat":35.704999,"lon":139.562672},{"name":"あすはＫｉｄｓ","province":"東京都","city":"武蔵野市","address":"武蔵野市八幡町1-6-1","lat":35.715089,"lon":139.55435},{"name":"千川さくらんぼクラブ","province":"東京都","city":"武蔵野市","address":"武蔵野市八幡町2-5-3武蔵野中央公園北ホール1階","lat":35.7214,"lon":139.559666},{"name":"ｗａｃｃａ","province":"東京都","city":"武蔵野市","address":"武蔵野市八幡町3-8-6ニューハイツ武蔵野1階","lat":35.716425,"lon":139.549872},{"name":"児童発達センター　ぽこあぽこ","province":"東京都","city":"武蔵野市","address":"武蔵野市境2-4-3スヤマ武蔵野1F","lat":35.706223,"lon":139.543173},{"name":"ロゼット","province":"東京都","city":"武蔵野市","address":"武蔵野市境1-4-5","lat":35.704085,"lon":139.544659},{"name":"手毬塾ウノ","province":"東京都","city":"武蔵野市","address":"武蔵野市境南町3-22-22","lat":35.698927,"lon":139.540029},{"name":"ウイングむさしの","province":"東京都","city":"武蔵野市","address":"武蔵野市境南町2-13-5グレーハイツ泉妻","lat":35.698619,"lon":139.543821},{"name":"武蔵野市子ども家庭支援センター","province":"東京都","city":"武蔵野市","address":"武蔵野市緑町2-2-28武蔵野市役所3階","lat":35.717836,"lon":139.565937},{"name":"武蔵野市子ども家庭支援センター","province":"東京都","city":"武蔵野市","address":"武蔵野市緑町2-2-28武蔵野市役所3階","lat":35.71776,"lon":139.56586},{"name":"グループホームＲＥＮＧＡ","province":"東京都","city":"武蔵野市","address":"武蔵野市八幡町3-3-26","lat":35.717033,"lon":139.552991},{"name":"武蔵野市子ども家庭支援センター","province":"東京都","city":"武蔵野市","address":"武蔵野市緑町2-2-28武蔵野市役所3階","lat":35.71735,"lon":139.56256},{"name":"子ども発達支援ルームおれんじ学園","province":"東京都","city":"武蔵野市","address":"武蔵野市吉祥寺北町3-5-8イトーピア吉祥寺1階-110","lat":35.710487,"lon":139.57104},{"name":"ビーキッズむさしの","province":"東京都","city":"武蔵野市","address":"武蔵野市吉祥寺南町3-7-1プランドールサンリョウ2階","lat":35.699553,"lon":139.58637},{"name":"児童発達支援・放課後等デイサービス　ささえ","province":"東京都","city":"武蔵野市","address":"武蔵野市吉祥寺本町一丁目35番14号","lat":35.703736,"lon":139.584806},{"name":"ＴＥＥＮＳ吉祥寺","province":"東京都","city":"武蔵野市","address":"武蔵野市吉祥寺本町2-25-12SantaFe1-C","lat":35.703874,"lon":139.574673},{"name":"スタジオそら武蔵野","province":"東京都","city":"武蔵野市","address":"武蔵野市中町1-23-12クレール武蔵野1階","lat":35.704513,"lon":139.563458},{"name":"子ども発達支援ルームおれんじ学園ｎｉｃｏ","province":"東京都","city":"武蔵野市","address":"武蔵野市中町1-19-8シティハイツ武蔵野1階","lat":35.704999,"lon":139.562672},{"name":"あすはＫｉｄｓ","province":"東京都","city":"武蔵野市","address":"武蔵野市八幡町1-6-1","lat":35.715089,"lon":139.55435},{"name":"千川さくらんぼクラブ","province":"東京都","city":"武蔵野市","address":"武蔵野市八幡町2-5-3武蔵野中央公園北ホール1階","lat":35.7214,"lon":139.559666},{"name":"ｗａｃｃａ","province":"東京都","city":"武蔵野市","address":"武蔵野市八幡町3-8-6ニューハイツ武蔵野1階","lat":35.716425,"lon":139.549872},{"name":"児童発達センター　ぽこあぽこ","province":"東京都","city":"武蔵野市","address":"武蔵野市境2-4-3スヤマ武蔵野1F","lat":35.706223,"lon":139.543173},{"name":"ロゼット","province":"東京都","city":"武蔵野市","address":"武蔵野市境1-4-5","lat":35.704085,"lon":139.544659},{"name":"手毬塾ウノ","province":"東京都","city":"武蔵野市","address":"武蔵野市境南町3-22-22","lat":35.698927,"lon":139.540029},{"name":"ウイングむさしの","province":"東京都","city":"武蔵野市","address":"武蔵野市境南町2-13-5グレーハイツ泉妻","lat":35.698619,"lon":139.543821},{"name":"武蔵野市子ども家庭支援センター","province":"東京都","city":"武蔵野市","address":"武蔵野市緑町2-2-28武蔵野市役所3階","lat":35.717836,"lon":139.565937},{"name":"武蔵野市子ども家庭支援センター","province":"東京都","city":"武蔵野市","address":"武蔵野市緑町2-2-28武蔵野市役所3階","lat":35.71776,"lon":139.56586},{"name":"グループホームＲＥＮＧＡ","province":"東京都","city":"武蔵野市","address":"武蔵野市八幡町3-3-26","lat":35.717033,"lon":139.552991},{"name":"武蔵野市子ども家庭支援センター","province":"東京都","city":"武蔵野市","address":"武蔵野市緑町2-2-28武蔵野市役所3階","lat":35.71735,"lon":139.56256},{"name":"子ども発達支援ルームおれんじ学園","province":"東京都","city":"武蔵野市","address":"武蔵野市吉祥寺北町3-5-8イトーピア吉祥寺1階-110","lat":35.710487,"lon":139.57104},{"name":"ビーキッズむさしの","province":"東京都","city":"武蔵野市","address":"武蔵野市吉祥寺南町3-7-1プランドールサンリョウ2階","lat":35.699553,"lon":139.58637},{"name":"児童発達支援・放課後等デイサービス　ささえ","province":"東京都","city":"武蔵野市","address":"武蔵野市吉祥寺本町一丁目35番14号","lat":35.703736,"lon":139.584806},{"name":"ＴＥＥＮＳ吉祥寺","province":"東京都","city":"武蔵野市","address":"武蔵野市吉祥寺本町2-25-12SantaFe1-C","lat":35.703874,"lon":139.574673},{"name":"スタジオそら武蔵野","province":"東京都","city":"武蔵野市","address":"武蔵野市中町1-23-12クレール武蔵野1階","lat":35.704513,"lon":139.563458},{"name":"子ども発達支援ルームおれんじ学園ｎｉｃｏ","province":"東京都","city":"武蔵野市","address":"武蔵野市中町1-19-8シティハイツ武蔵野1階","lat":35.704999,"lon":139.562672},{"name":"あすはＫｉｄｓ","province":"東京都","city":"武蔵野市","address":"武蔵野市八幡町1-6-1","lat":35.715089,"lon":139.55435},{"name":"千川さくらんぼクラブ","province":"東京都","city":"武蔵野市","address":"武蔵野市八幡町2-5-3武蔵野中央公園北ホール1階","lat":35.7214,"lon":139.559666},{"name":"ｗａｃｃａ","province":"東京都","city":"武蔵野市","address":"武蔵野市八幡町3-8-6ニューハイツ武蔵野1階","lat":35.716425,"lon":139.549872},{"name":"児童発達センター　ぽこあぽこ","province":"東京都","city":"武蔵野市","address":"武蔵野市境2-4-3スヤマ武蔵野1F","lat":35.706223,"lon":139.543173},{"name":"ロゼット","province":"東京都","city":"武蔵野市","address":"武蔵野市境1-4-5","lat":35.704085,"lon":139.544659},{"name":"手毬塾ウノ","province":"東京都","city":"武蔵野市","address":"武蔵野市境南町3-22-22","lat":35.698927,"lon":139.540029},{"name":"ウイングむさしの","province":"東京都","city":"武蔵野市","address":"武蔵野市境南町2-13-5グレーハイツ泉妻","lat":35.698619,"lon":139.543821},{"name":"武蔵野市子ども家庭支援センター","province":"東京都","city":"武蔵野市","address":"武蔵野市緑町2-2-28武蔵野市役所3階","lat":35.717836,"lon":139.565937},{"name":"武蔵野市子ども家庭支援センター","province":"東京都","city":"武蔵野市","address":"武蔵野市緑町2-2-28武蔵野市役所3階","lat":35.71776,"lon":139.56586},{"name":"グループホームＲＥＮＧＡ","province":"東京都","city":"武蔵野市","address":"武蔵野市八幡町3-3-26","lat":35.717033,"lon":139.552991},{"name":"武蔵野市子ども家庭支援センター","province":"東京都","city":"武蔵野市","address":"武蔵野市緑町2-2-28武蔵野市役所3階","lat":35.71735,"lon":139.56256},{"name":"子ども発達支援ルームおれんじ学園","province":"東京都","city":"武蔵野市","address":"武蔵野市吉祥寺北町3-5-8イトーピア吉祥寺1階-110","lat":35.710487,"lon":139.57104},{"name":"ビーキッズむさしの","province":"東京都","city":"武蔵野市","address":"武蔵野市吉祥寺南町3-7-1プランドールサンリョウ2階","lat":35.699553,"lon":139.58637},{"name":"児童発達支援・放課後等デイサービス　ささえ","province":"東京都","city":"武蔵野市","address":"武蔵野市吉祥寺本町一丁目35番14号","lat":35.703736,"lon":139.584806},{"name":"ＴＥＥＮＳ吉祥寺","province":"東京都","city":"武蔵野市","address":"武蔵野市吉祥寺本町2-25-12SantaFe1-C","lat":35.703874,"lon":139.574673},{"name":"スタジオそら武蔵野","province":"東京都","city":"武蔵野市","address":"武蔵野市中町1-23-12クレール武蔵野1階","lat":35.704513,"lon":139.563458},{"name":"子ども発達支援ルームおれんじ学園ｎｉｃｏ","province":"東京都","city":"武蔵野市","address":"武蔵野市中町1-19-8シティハイツ武蔵野1階","lat":35.704999,"lon":139.562672},{"name":"あすはＫｉｄｓ","province":"東京都","city":"武蔵野市","address":"武蔵野市八幡町1-6-1","lat":35.715089,"lon":139.55435},{"name":"千川さくらんぼクラブ","province":"東京都","city":"武蔵野市","address":"武蔵野市八幡町2-5-3武蔵野中央公園北ホール1階","lat":35.7214,"lon":139.559666},{"name":"ｗａｃｃａ","province":"東京都","city":"武蔵野市","address":"武蔵野市八幡町3-8-6ニューハイツ武蔵野1階","lat":35.716425,"lon":139.549872},{"name":"児童発達センター　ぽこあぽこ","province":"東京都","city":"武蔵野市","address":"武蔵野市境2-4-3スヤマ武蔵野1F","lat":35.706223,"lon":139.543173},{"name":"ロゼット","province":"東京都","city":"武蔵野市","address":"武蔵野市境1-4-5","lat":35.704085,"lon":139.544659},{"name":"手毬塾ウノ","province":"東京都","city":"武蔵野市","address":"武蔵野市境南町3-22-22","lat":35.698927,"lon":139.540029},{"name":"ウイングむさしの","province":"東京都","city":"武蔵野市","address":"武蔵野市境南町2-13-5グレーハイツ泉妻","lat":35.698619,"lon":139.543821},{"name":"武蔵野市子ども家庭支援センター","province":"東京都","city":"武蔵野市","address":"武蔵野市緑町2-2-28武蔵野市役所3階","lat":35.717836,"lon":139.565937},{"name":"武蔵野市子ども家庭支援センター","province":"東京都","city":"武蔵野市","address":"武蔵野市緑町2-2-28武蔵野市役所3階","lat":35.71776,"lon":139.56586},{"name":"グループホームＲＥＮＧＡ","province":"東京都","city":"武蔵野市","address":"武蔵野市八幡町3-3-26","lat":35.717033,"lon":139.552991},{"name":"武蔵野市子ども家庭支援センター","province":"東京都","city":"武蔵野市","address":"武蔵野市緑町2-2-28武蔵野市役所3階","lat":35.71735,"lon":139.56256},{"name":"子ども発達支援ルームおれんじ学園","province":"東京都","city":"武蔵野市","address":"武蔵野市吉祥寺北町3-5-8イトーピア吉祥寺1階-110","lat":35.710487,"lon":139.57104},{"name":"ビーキッズむさしの","province":"東京都","city":"武蔵野市","address":"武蔵野市吉祥寺南町3-7-1プランドールサンリョウ2階","lat":35.699553,"lon":139.58637},{"name":"児童発達支援・放課後等デイサービス　ささえ","province":"東京都","city":"武蔵野市","address":"武蔵野市吉祥寺本町一丁目35番14号","lat":35.703736,"lon":139.584806},{"name":"ＴＥＥＮＳ吉祥寺","province":"東京都","city":"武蔵野市","address":"武蔵野市吉祥寺本町2-25-12SantaFe1-C","lat":35.703874,"lon":139.574673},{"name":"スタジオそら武蔵野","province":"東京都","city":"武蔵野市","address":"武蔵野市中町1-23-12クレール武蔵野1階","lat":35.704513,"lon":139.563458},{"name":"子ども発達支援ルームおれんじ学園ｎｉｃｏ","province":"東京都","city":"武蔵野市","address":"武蔵野市中町1-19-8シティハイツ武蔵野1階","lat":35.704999,"lon":139.562672},{"name":"あすはＫｉｄｓ","province":"東京都","city":"武蔵野市","address":"武蔵野市八幡町1-6-1","lat":35.715089,"lon":139.55435},{"name":"千川さくらんぼクラブ","province":"東京都","city":"武蔵野市","address":"武蔵野市八幡町2-5-3武蔵野中央公園北ホール1階","lat":35.7214,"lon":139.559666},{"name":"ｗａｃｃａ","province":"東京都","city":"武蔵野市","address":"武蔵野市八幡町3-8-6ニューハイツ武蔵野1階","lat":35.716425,"lon":139.549872},{"name":"児童発達センター　ぽこあぽこ","province":"東京都","city":"武蔵野市","address":"武蔵野市境2-4-3スヤマ武蔵野1F","lat":35.706223,"lon":139.543173},{"name":"ロゼット","province":"東京都","city":"武蔵野市","address":"武蔵野市境1-4-5","lat":35.704085,"lon":139.544659},{"name":"手毬塾ウノ","province":"東京都","city":"武蔵野市","address":"武蔵野市境南町3-22-22","lat":35.698927,"lon":139.540029},{"name":"ウイングむさしの","province":"東京都","city":"武蔵野市","address":"武蔵野市境南町2-13-5グレーハイツ泉妻","lat":35.698619,"lon":139.543821},{"name":"武蔵野市子ども家庭支援センター","province":"東京都","city":"武蔵野市","address":"武蔵野市緑町2-2-28武蔵野市役所3階","lat":35.717836,"lon":139.565937},{"name":"武蔵野市子ども家庭支援センター","province":"東京都","city":"武蔵野市","address":"武蔵野市緑町2-2-28武蔵野市役所3階","lat":35.71776,"lon":139.56586},{"name":"グループホームＲＥＮＧＡ","province":"東京都","city":"武蔵野市","address":"武蔵野市八幡町3-3-26","lat":35.717033,"lon":139.552991},{"name":"武蔵野市子ども家庭支援センター","province":"東京都","city":"武蔵野市","address":"武蔵野市緑町2-2-28武蔵野市役所3階","lat":35.71735,"lon":139.56256},{"name":"子ども発達支援ルームおれんじ学園","province":"東京都","city":"武蔵野市","address":"武蔵野市吉祥寺北町3-5-8イトーピア吉祥寺1階-110","lat":35.710487,"lon":139.57104},{"name":"ビーキッズむさしの","province":"東京都","city":"武蔵野市","address":"武蔵野市吉祥寺南町3-7-1プランドールサンリョウ2階","lat":35.699553,"lon":139.58637},{"name":"児童発達支援・放課後等デイサービス　ささえ","province":"東京都","city":"武蔵野市","address":"武蔵野市吉祥寺本町一丁目35番14号","lat":35.703736,"lon":139.584806},{"name":"ＴＥＥＮＳ吉祥寺","province":"東京都","city":"武蔵野市","address":"武蔵野市吉祥寺本町2-25-12SantaFe1-C","lat":35.703874,"lon":139.574673},{"name":"スタジオそら武蔵野","province":"東京都","city":"武蔵野市","address":"武蔵野市中町1-23-12クレール武蔵野1階","lat":35.704513,"lon":139.563458},{"name":"子ども発達支援ルームおれんじ学園ｎｉｃｏ","province":"東京都","city":"武蔵野市","address":"武蔵野市中町1-19-8シティハイツ武蔵野1階","lat":35.704999,"lon":139.562672},{"name":"あすはＫｉｄｓ","province":"東京都","city":"武蔵野市","address":"武蔵野市八幡町1-6-1","lat":35.715089,"lon":139.55435},{"name":"千川さくらんぼクラブ","province":"東京都","city":"武蔵野市","address":"武蔵野市八幡町2-5-3武蔵野中央公園北ホール1階","lat":35.7214,"lon":139.559666},{"name":"ｗａｃｃａ","province":"東京都","city":"武蔵野市","address":"武蔵野市八幡町3-8-6ニューハイツ武蔵野1階","lat":35.716425,"lon":139.549872},{"name":"児童発達センター　ぽこあぽこ","province":"東京都","city":"武蔵野市","address":"武蔵野市境2-4-3スヤマ武蔵野1F","lat":35.706223,"lon":139.543173},{"name":"ロゼット","province":"東京都","city":"武蔵野市","address":"武蔵野市境1-4-5","lat":35.704085,"lon":139.544659},{"name":"手毬塾ウノ","province":"東京都","city":"武蔵野市","address":"武蔵野市境南町3-22-22","lat":35.698927,"lon":139.540029},{"name":"ウイングむさしの","province":"東京都","city":"武蔵野市","address":"武蔵野市境南町2-13-5グレーハイツ泉妻","lat":35.698619,"lon":139.543821},{"name":"武蔵野市子ども家庭支援センター","province":"東京都","city":"武蔵野市","address":"武蔵野市緑町2-2-28武蔵野市役所3階","lat":35.717836,"lon":139.565937},{"name":"武蔵野市子ども家庭支援センター","province":"東京都","city":"武蔵野市","address":"武蔵野市緑町2-2-28武蔵野市役所3階","lat":35.71776,"lon":139.56586},{"name":"グループホームＲＥＮＧＡ","province":"東京都","city":"武蔵野市","address":"武蔵野市八幡町3-3-26","lat":35.717033,"lon":139.552991},{"name":"武蔵野市子ども家庭支援センター","province":"東京都","city":"武蔵野市","address":"武蔵野市緑町2-2-28武蔵野市役所3階","lat":35.71735,"lon":139.56256},{"name":"子ども発達支援ルームおれんじ学園","province":"東京都","city":"武蔵野市","address":"武蔵野市吉祥寺北町3-5-8イトーピア吉祥寺1階-110","lat":35.710487,"lon":139.57104},{"name":"ビーキッズむさしの","province":"東京都","city":"武蔵野市","address":"武蔵野市吉祥寺南町3-7-1プランドールサンリョウ2階","lat":35.699553,"lon":139.58637},{"name":"児童発達支援・放課後等デイサービス　ささえ","province":"東京都","city":"武蔵野市","address":"武蔵野市吉祥寺本町一丁目35番14号","lat":35.703736,"lon":139.584806},{"name":"ＴＥＥＮＳ吉祥寺","province":"東京都","city":"武蔵野市","address":"武蔵野市吉祥寺本町2-25-12SantaFe1-C","lat":35.703874,"lon":139.574673},{"name":"スタジオそら武蔵野","province":"東京都","city":"武蔵野市","address":"武蔵野市中町1-23-12クレール武蔵野1階","lat":35.704513,"lon":139.563458},{"name":"子ども発達支援ルームおれんじ学園ｎｉｃｏ","province":"東京都","city":"武蔵野市","address":"武蔵野市中町1-19-8シティハイツ武蔵野1階","lat":35.704999,"lon":139.562672},{"name":"あすはＫｉｄｓ","province":"東京都","city":"武蔵野市","address":"武蔵野市八幡町1-6-1","lat":35.715089,"lon":139.55435},{"name":"千川さくらんぼクラブ","province":"東京都","city":"武蔵野市","address":"武蔵野市八幡町2-5-3武蔵野中央公園北ホール1階","lat":35.7214,"lon":139.559666},{"name":"ｗａｃｃａ","province":"東京都","city":"武蔵野市","address":"武蔵野市八幡町3-8-6ニューハイツ武蔵野1階","lat":35.716425,"lon":139.549872},{"name":"児童発達センター　ぽこあぽこ","province":"東京都","city":"武蔵野市","address":"武蔵野市境2-4-3スヤマ武蔵野1F","lat":35.706223,"lon":139.543173},{"name":"ロゼット","province":"東京都","city":"武蔵野市","address":"武蔵野市境1-4-5","lat":35.704085,"lon":139.544659},{"name":"手毬塾ウノ","province":"東京都","city":"武蔵野市","address":"武蔵野市境南町3-22-22","lat":35.698927,"lon":139.540029},{"name":"ウイングむさしの","province":"東京都","city":"武蔵野市","address":"武蔵野市境南町2-13-5グレーハイツ泉妻","lat":35.698619,"lon":139.543821},{"name":"武蔵野市子ども家庭支援センター","province":"東京都","city":"武蔵野市","address":"武蔵野市緑町2-2-28武蔵野市役所3階","lat":35.717836,"lon":139.565937},{"name":"武蔵野市子ども家庭支援センター","province":"東京都","city":"武蔵野市","address":"武蔵野市緑町2-2-28武蔵野市役所3階","lat":35.71776,"lon":139.56586},{"name":"グループホームＲＥＮＧＡ","province":"東京都","city":"武蔵野市","address":"武蔵野市八幡町3-3-26","lat":35.717033,"lon":139.552991},{"name":"武蔵野市子ども家庭支援センター","province":"東京都","city":"武蔵野市","address":"武蔵野市緑町2-2-28武蔵野市役所3階","lat":35.71735,"lon":139.56256},{"name":"子ども発達支援ルームおれんじ学園","province":"東京都","city":"武蔵野市","address":"武蔵野市吉祥寺北町3-5-8イトーピア吉祥寺1階-110","lat":35.710487,"lon":139.57104},{"name":"ビーキッズむさしの","province":"東京都","city":"武蔵野市","address":"武蔵野市吉祥寺南町3-7-1プランドールサンリョウ2階","lat":35.699553,"lon":139.58637},{"name":"児童発達支援・放課後等デイサービス　ささえ","province":"東京都","city":"武蔵野市","address":"武蔵野市吉祥寺本町一丁目35番14号","lat":35.703736,"lon":139.584806},{"name":"ＴＥＥＮＳ吉祥寺","province":"東京都","city":"武蔵野市","address":"武蔵野市吉祥寺本町2-25-12SantaFe1-C","lat":35.703874,"lon":139.574673},{"name":"スタジオそら武蔵野","province":"東京都","city":"武蔵野市","address":"武蔵野市中町1-23-12クレール武蔵野1階","lat":35.704513,"lon":139.563458},{"name":"子ども発達支援ルームおれんじ学園ｎｉｃｏ","province":"東京都","city":"武蔵野市","address":"武蔵野市中町1-19-8シティハイツ武蔵野1階","lat":35.704999,"lon":139.562672},{"name":"あすはＫｉｄｓ","province":"東京都","city":"武蔵野市","address":"武蔵野市八幡町1-6-1","lat":35.715089,"lon":139.55435},{"name":"千川さくらんぼクラブ","province":"東京都","city":"武蔵野市","address":"武蔵野市八幡町2-5-3武蔵野中央公園北ホール1階","lat":35.7214,"lon":139.559666},{"name":"ｗａｃｃａ","province":"東京都","city":"武蔵野市","address":"武蔵野市八幡町3-8-6ニューハイツ武蔵野1階","lat":35.716425,"lon":139.549872},{"name":"児童発達センター　ぽこあぽこ","province":"東京都","city":"武蔵野市","address":"武蔵野市境2-4-3スヤマ武蔵野1F","lat":35.706223,"lon":139.543173},{"name":"ロゼット","province":"東京都","city":"武蔵野市","address":"武蔵野市境1-4-5","lat":35.704085,"lon":139.544659},{"name":"手毬塾ウノ","province":"東京都","city":"武蔵野市","address":"武蔵野市境南町3-22-22","lat":35.698927,"lon":139.540029},{"name":"ウイングむさしの","province":"東京都","city":"武蔵野市","address":"武蔵野市境南町2-13-5グレーハイツ泉妻","lat":35.698619,"lon":139.543821},{"name":"武蔵野市子ども家庭支援センター","province":"東京都","city":"武蔵野市","address":"武蔵野市緑町2-2-28武蔵野市役所3階","lat":35.717836,"lon":139.565937},{"name":"武蔵野市子ども家庭支援センター","province":"東京都","city":"武蔵野市","address":"武蔵野市緑町2-2-28武蔵野市役所3階","lat":35.71776,"lon":139.56586},{"name":"グループホームＲＥＮＧＡ","province":"東京都","city":"武蔵野市","address":"武蔵野市八幡町3-3-26","lat":35.717033,"lon":139.552991},{"name":"武蔵野市子ども家庭支援センター","province":"東京都","city":"武蔵野市","address":"武蔵野市緑町2-2-28武蔵野市役所3階","lat":35.71735,"lon":139.56256},{"name":"子ども発達支援ルームおれんじ学園","province":"東京都","city":"武蔵野市","address":"武蔵野市吉祥寺北町3-5-8イトーピア吉祥寺1階-110","lat":35.710487,"lon":139.57104},{"name":"ビーキッズむさしの","province":"東京都","city":"武蔵野市","address":"武蔵野市吉祥寺南町3-7-1プランドールサンリョウ2階","lat":35.699553,"lon":139.58637},{"name":"児童発達支援・放課後等デイサービス　ささえ","province":"東京都","city":"武蔵野市","address":"武蔵野市吉祥寺本町一丁目35番14号","lat":35.703736,"lon":139.584806},{"name":"ＴＥＥＮＳ吉祥寺","province":"東京都","city":"武蔵野市","address":"武蔵野市吉祥寺本町2-25-12SantaFe1-C","lat":35.703874,"lon":139.574673},{"name":"スタジオそら武蔵野","province":"東京都","city":"武蔵野市","address":"武蔵野市中町1-23-12クレール武蔵野1階","lat":35.704513,"lon":139.563458},{"name":"子ども発達支援ルームおれんじ学園ｎｉｃｏ","province":"東京都","city":"武蔵野市","address":"武蔵野市中町1-19-8シティハイツ武蔵野1階","lat":35.704999,"lon":139.562672},{"name":"あすはＫｉｄｓ","province":"東京都","city":"武蔵野市","address":"武蔵野市八幡町1-6-1","lat":35.715089,"lon":139.55435},{"name":"千川さくらんぼクラブ","province":"東京都","city":"武蔵野市","address":"武蔵野市八幡町2-5-3武蔵野中央公園北ホール1階","lat":35.7214,"lon":139.559666},{"name":"ｗａｃｃａ","province":"東京都","city":"武蔵野市","address":"武蔵野市八幡町3-8-6ニューハイツ武蔵野1階","lat":35.716425,"lon":139.549872},{"name":"児童発達センター　ぽこあぽこ","province":"東京都","city":"武蔵野市","address":"武蔵野市境2-4-3スヤマ武蔵野1F","lat":35.706223,"lon":139.543173},{"name":"ロゼット","province":"東京都","city":"武蔵野市","address":"武蔵野市境1-4-5","lat":35.704085,"lon":139.544659},{"name":"手毬塾ウノ","province":"東京都","city":"武蔵野市","address":"武蔵野市境南町3-22-22","lat":35.698927,"lon":139.540029},{"name":"ウイングむさしの","province":"東京都","city":"武蔵野市","address":"武蔵野市境南町2-13-5グレーハイツ泉妻","lat":35.698619,"lon":139.543821},{"name":"武蔵野市子ども家庭支援センター","province":"東京都","city":"武蔵野市","address":"武蔵野市緑町2-2-28武蔵野市役所3階","lat":35.717836,"lon":139.565937},{"name":"武蔵野市子ども家庭支援センター","province":"東京都","city":"武蔵野市","address":"武蔵野市緑町2-2-28武蔵野市役所3階","lat":35.71776,"lon":139.56586},{"name":"グループホームＲＥＮＧＡ","province":"東京都","city":"武蔵野市","address":"武蔵野市八幡町3-3-26","lat":35.717033,"lon":139.552991},{"name":"武蔵野市子ども家庭支援センター","province":"東京都","city":"武蔵野市","address":"武蔵野市緑町2-2-28武蔵野市役所3階","lat":35.71735,"lon":139.56256},{"name":"子ども発達支援ルームおれんじ学園","province":"東京都","city":"武蔵野市","address":"武蔵野市吉祥寺北町3-5-8イトーピア吉祥寺1階-110","lat":35.710487,"lon":139.57104},{"name":"ビーキッズむさしの","province":"東京都","city":"武蔵野市","address":"武蔵野市吉祥寺南町3-7-1プランドールサンリョウ2階","lat":35.699553,"lon":139.58637},{"name":"児童発達支援・放課後等デイサービス　ささえ","province":"東京都","city":"武蔵野市","address":"武蔵野市吉祥寺本町一丁目35番14号","lat":35.703736,"lon":139.584806},{"name":"ＴＥＥＮＳ吉祥寺","province":"東京都","city":"武蔵野市","address":"武蔵野市吉祥寺本町2-25-12SantaFe1-C","lat":35.703874,"lon":139.574673},{"name":"スタジオそら武蔵野","province":"東京都","city":"武蔵野市","address":"武蔵野市中町1-23-12クレール武蔵野1階","lat":35.704513,"lon":139.563458},{"name":"子ども発達支援ルームおれんじ学園ｎｉｃｏ","province":"東京都","city":"武蔵野市","address":"武蔵野市中町1-19-8シティハイツ武蔵野1階","lat":35.704999,"lon":139.562672},{"name":"あすはＫｉｄｓ","province":"東京都","city":"武蔵野市","address":"武蔵野市八幡町1-6-1","lat":35.715089,"lon":139.55435},{"name":"千川さくらんぼクラブ","province":"東京都","city":"武蔵野市","address":"武蔵野市八幡町2-5-3武蔵野中央公園北ホール1階","lat":35.7214,"lon":139.559666},{"name":"ｗａｃｃａ","province":"東京都","city":"武蔵野市","address":"武蔵野市八幡町3-8-6ニューハイツ武蔵野1階","lat":35.716425,"lon":139.549872},{"name":"児童発達センター　ぽこあぽこ","province":"東京都","city":"武蔵野市","address":"武蔵野市境2-4-3スヤマ武蔵野1F","lat":35.706223,"lon":139.543173},{"name":"ロゼット","province":"東京都","city":"武蔵野市","address":"武蔵野市境1-4-5","lat":35.704085,"lon":139.544659},{"name":"手毬塾ウノ","province":"東京都","city":"武蔵野市","address":"武蔵野市境南町3-22-22","lat":35.698927,"lon":139.540029},{"name":"ウイングむさしの","province":"東京都","city":"武蔵野市","address":"武蔵野市境南町2-13-5グレーハイツ泉妻","lat":35.698619,"lon":139.543821},{"name":"武蔵野市子ども家庭支援センター","province":"東京都","city":"武蔵野市","address":"武蔵野市緑町2-2-28武蔵野市役所3階","lat":35.717836,"lon":139.565937},{"name":"武蔵野市子ども家庭支援センター","province":"東京都","city":"武蔵野市","address":"武蔵野市緑町2-2-28武蔵野市役所3階","lat":35.71776,"lon":139.56586},{"name":"グループホームＲＥＮＧＡ","province":"東京都","city":"武蔵野市","address":"武蔵野市八幡町3-3-26","lat":35.717033,"lon":139.552991},{"name":"武蔵野市子ども家庭支援センター","province":"東京都","city":"武蔵野市","address":"武蔵野市緑町2-2-28武蔵野市役所3階","lat":35.71735,"lon":139.56256},{"name":"子ども発達支援ルームおれんじ学園","province":"東京都","city":"武蔵野市","address":"武蔵野市吉祥寺北町3-5-8イトーピア吉祥寺1階-110","lat":35.710487,"lon":139.57104},{"name":"ビーキッズむさしの","province":"東京都","city":"武蔵野市","address":"武蔵野市吉祥寺南町3-7-1プランドールサンリョウ2階","lat":35.699553,"lon":139.58637},{"name":"児童発達支援・放課後等デイサービス　ささえ","province":"東京都","city":"武蔵野市","address":"武蔵野市吉祥寺本町一丁目35番14号","lat":35.703736,"lon":139.584806},{"name":"ＴＥＥＮＳ吉祥寺","province":"東京都","city":"武蔵野市","address":"武蔵野市吉祥寺本町2-25-12SantaFe1-C","lat":35.703874,"lon":139.574673},{"name":"スタジオそら武蔵野","province":"東京都","city":"武蔵野市","address":"武蔵野市中町1-23-12クレール武蔵野1階","lat":35.704513,"lon":139.563458},{"name":"子ども発達支援ルームおれんじ学園ｎｉｃｏ","province":"東京都","city":"武蔵野市","address":"武蔵野市中町1-19-8シティハイツ武蔵野1階","lat":35.704999,"lon":139.562672},{"name":"あすはＫｉｄｓ","province":"東京都","city":"武蔵野市","address":"武蔵野市八幡町1-6-1","lat":35.715089,"lon":139.55435},{"name":"千川さくらんぼクラブ","province":"東京都","city":"武蔵野市","address":"武蔵野市八幡町2-5-3武蔵野中央公園北ホール1階","lat":35.7214,"lon":139.559666},{"name":"ｗａｃｃａ","province":"東京都","city":"武蔵野市","address":"武蔵野市八幡町3-8-6ニューハイツ武蔵野1階","lat":35.716425,"lon":139.549872},{"name":"児童発達センター　ぽこあぽこ","province":"東京都","city":"武蔵野市","address":"武蔵野市境2-4-3スヤマ武蔵野1F","lat":35.706223,"lon":139.543173},{"name":"ロゼット","province":"東京都","city":"武蔵野市","address":"武蔵野市境1-4-5","lat":35.704085,"lon":139.544659},{"name":"手毬塾ウノ","province":"東京都","city":"武蔵野市","address":"武蔵野市境南町3-22-22","lat":35.698927,"lon":139.540029},{"name":"ウイングむさしの","province":"東京都","city":"武蔵野市","address":"武蔵野市境南町2-13-5グレーハイツ泉妻","lat":35.698619,"lon":139.543821},{"name":"武蔵野市子ども家庭支援センター","province":"東京都","city":"武蔵野市","address":"武蔵野市緑町2-2-28武蔵野市役所3階","lat":35.717836,"lon":139.565937},{"name":"武蔵野市子ども家庭支援センター","province":"東京都","city":"武蔵野市","address":"武蔵野市緑町2-2-28武蔵野市役所3階","lat":35.71776,"lon":139.56586},{"name":"グループホームＲＥＮＧＡ","province":"東京都","city":"武蔵野市","address":"武蔵野市八幡町3-3-26","lat":35.717033,"lon":139.552991},{"name":"武蔵野市子ども家庭支援センター","province":"東京都","city":"武蔵野市","address":"武蔵野市緑町2-2-28武蔵野市役所3階","lat":35.71735,"lon":139.56256},{"name":"子ども発達支援ルームおれんじ学園","province":"東京都","city":"武蔵野市","address":"武蔵野市吉祥寺北町3-5-8イトーピア吉祥寺1階-110","lat":35.710487,"lon":139.57104},{"name":"ビーキッズむさしの","province":"東京都","city":"武蔵野市","address":"武蔵野市吉祥寺南町3-7-1プランドールサンリョウ2階","lat":35.699553,"lon":139.58637},{"name":"児童発達支援・放課後等デイサービス　ささえ","province":"東京都","city":"武蔵野市","address":"武蔵野市吉祥寺本町一丁目35番14号","lat":35.703736,"lon":139.584806},{"name":"ＴＥＥＮＳ吉祥寺","province":"東京都","city":"武蔵野市","address":"武蔵野市吉祥寺本町2-25-12SantaFe1-C","lat":35.703874,"lon":139.574673},{"name":"スタジオそら武蔵野","province":"東京都","city":"武蔵野市","address":"武蔵野市中町1-23-12クレール武蔵野1階","lat":35.704513,"lon":139.563458},{"name":"子ども発達支援ルームおれんじ学園ｎｉｃｏ","province":"東京都","city":"武蔵野市","address":"武蔵野市中町1-19-8シティハイツ武蔵野1階","lat":35.704999,"lon":139.562672},{"name":"あすはＫｉｄｓ","province":"東京都","city":"武蔵野市","address":"武蔵野市八幡町1-6-1","lat":35.715089,"lon":139.55435},{"name":"千川さくらんぼクラブ","province":"東京都","city":"武蔵野市","address":"武蔵野市八幡町2-5-3武蔵野中央公園北ホール1階","lat":35.7214,"lon":139.559666},{"name":"ｗａｃｃａ","province":"東京都","city":"武蔵野市","address":"武蔵野市八幡町3-8-6ニューハイツ武蔵野1階","lat":35.716425,"lon":139.549872},{"name":"児童発達センター　ぽこあぽこ","province":"東京都","city":"武蔵野市","address":"武蔵野市境2-4-3スヤマ武蔵野1F","lat":35.706223,"lon":139.543173},{"name":"ロゼット","province":"東京都","city":"武蔵野市","address":"武蔵野市境1-4-5","lat":35.704085,"lon":139.544659},{"name":"手毬塾ウノ","province":"東京都","city":"武蔵野市","address":"武蔵野市境南町3-22-22","lat":35.698927,"lon":139.540029},{"name":"ウイングむさしの","province":"東京都","city":"武蔵野市","address":"武蔵野市境南町2-13-5グレーハイツ泉妻","lat":35.698619,"lon":139.543821},{"name":"武蔵野市子ども家庭支援センター","province":"東京都","city":"武蔵野市","address":"武蔵野市緑町2-2-28武蔵野市役所3階","lat":35.717836,"lon":139.565937},{"name":"武蔵野市子ども家庭支援センター","province":"東京都","city":"武蔵野市","address":"武蔵野市緑町2-2-28武蔵野市役所3階","lat":35.71776,"lon":139.56586},{"name":"グループホームＲＥＮＧＡ","province":"東京都","city":"武蔵野市","address":"武蔵野市八幡町3-3-26","lat":35.717033,"lon":139.552991},{"name":"武蔵野市子ども家庭支援センター","province":"東京都","city":"武蔵野市","address":"武蔵野市緑町2-2-28武蔵野市役所3階","lat":35.71735,"lon":139.56256},{"name":"子ども発達支援ルームおれんじ学園","province":"東京都","city":"武蔵野市","address":"武蔵野市吉祥寺北町3-5-8イトーピア吉祥寺1階-110","lat":35.710487,"lon":139.57104},{"name":"ビーキッズむさしの","province":"東京都","city":"武蔵野市","address":"武蔵野市吉祥寺南町3-7-1プランドールサンリョウ2階","lat":35.699553,"lon":139.58637},{"name":"児童発達支援・放課後等デイサービス　ささえ","province":"東京都","city":"武蔵野市","address":"武蔵野市吉祥寺本町一丁目35番14号","lat":35.703736,"lon":139.584806},{"name":"ＴＥＥＮＳ吉祥寺","province":"東京都","city":"武蔵野市","address":"武蔵野市吉祥寺本町2-25-12SantaFe1-C","lat":35.703874,"lon":139.574673},{"name":"スタジオそら武蔵野","province":"東京都","city":"武蔵野市","address":"武蔵野市中町1-23-12クレール武蔵野1階","lat":35.704513,"lon":139.563458},{"name":"子ども発達支援ルームおれんじ学園ｎｉｃｏ","province":"東京都","city":"武蔵野市","address":"武蔵野市中町1-19-8シティハイツ武蔵野1階","lat":35.704999,"lon":139.562672},{"name":"あすはＫｉｄｓ","province":"東京都","city":"武蔵野市","address":"武蔵野市八幡町1-6-1","lat":35.715089,"lon":139.55435},{"name":"千川さくらんぼクラブ","province":"東京都","city":"武蔵野市","address":"武蔵野市八幡町2-5-3武蔵野中央公園北ホール1階","lat":35.7214,"lon":139.559666},{"name":"ｗａｃｃａ","province":"東京都","city":"武蔵野市","address":"武蔵野市八幡町3-8-6ニューハイツ武蔵野1階","lat":35.716425,"lon":139.549872},{"name":"児童発達センター　ぽこあぽこ","province":"東京都","city":"武蔵野市","address":"武蔵野市境2-4-3スヤマ武蔵野1F","lat":35.706223,"lon":139.543173},{"name":"ロゼット","province":"東京都","city":"武蔵野市","address":"武蔵野市境1-4-5","lat":35.704085,"lon":139.544659},{"name":"手毬塾ウノ","province":"東京都","city":"武蔵野市","address":"武蔵野市境南町3-22-22","lat":35.698927,"lon":139.540029},{"name":"ウイングむさしの","province":"東京都","city":"武蔵野市","address":"武蔵野市境南町2-13-5グレーハイツ泉妻","lat":35.698619,"lon":139.543821},{"name":"武蔵野市子ども家庭支援センター","province":"東京都","city":"武蔵野市","address":"武蔵野市緑町2-2-28武蔵野市役所3階","lat":35.717836,"lon":139.565937},{"name":"武蔵野市子ども家庭支援センター","province":"東京都","city":"武蔵野市","address":"武蔵野市緑町2-2-28武蔵野市役所3階","lat":35.71776,"lon":139.56586},{"name":"グループホームＲＥＮＧＡ","province":"東京都","city":"武蔵野市","address":"武蔵野市八幡町3-3-26","lat":35.717033,"lon":139.552991},{"name":"武蔵野市子ども家庭支援センター","province":"東京都","city":"武蔵野市","address":"武蔵野市緑町2-2-28武蔵野市役所3階","lat":35.71735,"lon":139.56256},{"name":"子ども発達支援ルームおれんじ学園","province":"東京都","city":"武蔵野市","address":"武蔵野市吉祥寺北町3-5-8イトーピア吉祥寺1階-110","lat":35.710487,"lon":139.57104},{"name":"ビーキッズむさしの","province":"東京都","city":"武蔵野市","address":"武蔵野市吉祥寺南町3-7-1プランドールサンリョウ2階","lat":35.699553,"lon":139.58637},{"name":"児童発達支援・放課後等デイサービス　ささえ","province":"東京都","city":"武蔵野市","address":"武蔵野市吉祥寺本町一丁目35番14号","lat":35.703736,"lon":139.584806},{"name":"ＴＥＥＮＳ吉祥寺","province":"東京都","city":"武蔵野市","address":"武蔵野市吉祥寺本町2-25-12SantaFe1-C","lat":35.703874,"lon":139.574673},{"name":"スタジオそら武蔵野","province":"東京都","city":"武蔵野市","address":"武蔵野市中町1-23-12クレール武蔵野1階","lat":35.704513,"lon":139.563458},{"name":"子ども発達支援ルームおれんじ学園ｎｉｃｏ","province":"東京都","city":"武蔵野市","address":"武蔵野市中町1-19-8シティハイツ武蔵野1階","lat":35.704999,"lon":139.562672},{"name":"あすはＫｉｄｓ","province":"東京都","city":"武蔵野市","address":"武蔵野市八幡町1-6-1","lat":35.715089,"lon":139.55435},{"name":"千川さくらんぼクラブ","province":"東京都","city":"武蔵野市","address":"武蔵野市八幡町2-5-3武蔵野中央公園北ホール1階","lat":35.7214,"lon":139.559666},{"name":"ｗａｃｃａ","province":"東京都","city":"武蔵野市","address":"武蔵野市八幡町3-8-6ニューハイツ武蔵野1階","lat":35.716425,"lon":139.549872},{"name":"児童発達センター　ぽこあぽこ","province":"東京都","city":"武蔵野市","address":"武蔵野市境2-4-3スヤマ武蔵野1F","lat":35.706223,"lon":139.543173},{"name":"ロゼット","province":"東京都","city":"武蔵野市","address":"武蔵野市境1-4-5","lat":35.704085,"lon":139.544659},{"name":"手毬塾ウノ","province":"東京都","city":"武蔵野市","address":"武蔵野市境南町3-22-22","lat":35.698927,"lon":139.540029},{"name":"ウイングむさしの","province":"東京都","city":"武蔵野市","address":"武蔵野市境南町2-13-5グレーハイツ泉妻","lat":35.698619,"lon":139.543821},{"name":"武蔵野市子ども家庭支援センター","province":"東京都","city":"武蔵野市","address":"武蔵野市緑町2-2-28武蔵野市役所3階","lat":35.717836,"lon":139.565937},{"name":"武蔵野市子ども家庭支援センター","province":"東京都","city":"武蔵野市","address":"武蔵野市緑町2-2-28武蔵野市役所3階","lat":35.71776,"lon":139.56586},{"name":"グループホームＲＥＮＧＡ","province":"東京都","city":"武蔵野市","address":"武蔵野市八幡町3-3-26","lat":35.717033,"lon":139.552991},{"name":"武蔵野市子ども家庭支援センター","province":"東京都","city":"武蔵野市","address":"武蔵野市緑町2-2-28武蔵野市役所3階","lat":35.71735,"lon":139.56256},{"name":"子ども発達支援ルームおれんじ学園","province":"東京都","city":"武蔵野市","address":"武蔵野市吉祥寺北町3-5-8イトーピア吉祥寺1階-110","lat":35.710487,"lon":139.57104},{"name":"ビーキッズむさしの","province":"東京都","city":"武蔵野市","address":"武蔵野市吉祥寺南町3-7-1プランドールサンリョウ2階","lat":35.699553,"lon":139.58637},{"name":"児童発達支援・放課後等デイサービス　ささえ","province":"東京都","city":"武蔵野市","address":"武蔵野市吉祥寺本町一丁目35番14号","lat":35.703736,"lon":139.584806},{"name":"ＴＥＥＮＳ吉祥寺","province":"東京都","city":"武蔵野市","address":"武蔵野市吉祥寺本町2-25-12SantaFe1-C","lat":35.703874,"lon":139.574673},{"name":"スタジオそら武蔵野","province":"東京都","city":"武蔵野市","address":"武蔵野市中町1-23-12クレール武蔵野1階","lat":35.704513,"lon":139.563458},{"name":"子ども発達支援ルームおれんじ学園ｎｉｃｏ","province":"東京都","city":"武蔵野市","address":"武蔵野市中町1-19-8シティハイツ武蔵野1階","lat":35.704999,"lon":139.562672},{"name":"あすはＫｉｄｓ","province":"東京都","city":"武蔵野市","address":"武蔵野市八幡町1-6-1","lat":35.715089,"lon":139.55435},{"name":"千川さくらんぼクラブ","province":"東京都","city":"武蔵野市","address":"武蔵野市八幡町2-5-3武蔵野中央公園北ホール1階","lat":35.7214,"lon":139.559666},{"name":"ｗａｃｃａ","province":"東京都","city":"武蔵野市","address":"武蔵野市八幡町3-8-6ニューハイツ武蔵野1階","lat":35.716425,"lon":139.549872},{"name":"児童発達センター　ぽこあぽこ","province":"東京都","city":"武蔵野市","address":"武蔵野市境2-4-3スヤマ武蔵野1F","lat":35.706223,"lon":139.543173},{"name":"ロゼット","province":"東京都","city":"武蔵野市","address":"武蔵野市境1-4-5","lat":35.704085,"lon":139.544659},{"name":"手毬塾ウノ","province":"東京都","city":"武蔵野市","address":"武蔵野市境南町3-22-22","lat":35.698927,"lon":139.540029},{"name":"ウイングむさしの","province":"東京都","city":"武蔵野市","address":"武蔵野市境南町2-13-5グレーハイツ泉妻","lat":35.698619,"lon":139.543821},{"name":"武蔵野市子ども家庭支援センター","province":"東京都","city":"武蔵野市","address":"武蔵野市緑町2-2-28武蔵野市役所3階","lat":35.717836,"lon":139.565937},{"name":"武蔵野市子ども家庭支援センター","province":"東京都","city":"武蔵野市","address":"武蔵野市緑町2-2-28武蔵野市役所3階","lat":35.71776,"lon":139.56586},{"name":"グループホームＲＥＮＧＡ","province":"東京都","city":"武蔵野市","address":"武蔵野市八幡町3-3-26","lat":35.717033,"lon":139.552991},{"name":"武蔵野市子ども家庭支援センター","province":"東京都","city":"武蔵野市","address":"武蔵野市緑町2-2-28武蔵野市役所3階","lat":35.71735,"lon":139.56256},{"name":"子ども発達支援ルームおれんじ学園","province":"東京都","city":"武蔵野市","address":"武蔵野市吉祥寺北町3-5-8イトーピア吉祥寺1階-110","lat":35.710487,"lon":139.57104},{"name":"ビーキッズむさしの","province":"東京都","city":"武蔵野市","address":"武蔵野市吉祥寺南町3-7-1プランドールサンリョウ2階","lat":35.699553,"lon":139.58637},{"name":"児童発達支援・放課後等デイサービス　ささえ","province":"東京都","city":"武蔵野市","address":"武蔵野市吉祥寺本町一丁目35番14号","lat":35.703736,"lon":139.584806},{"name":"ＴＥＥＮＳ吉祥寺","province":"東京都","city":"武蔵野市","address":"武蔵野市吉祥寺本町2-25-12SantaFe1-C","lat":35.703874,"lon":139.574673},{"name":"スタジオそら武蔵野","province":"東京都","city":"武蔵野市","address":"武蔵野市中町1-23-12クレール武蔵野1階","lat":35.704513,"lon":139.563458},{"name":"子ども発達支援ルームおれんじ学園ｎｉｃｏ","province":"東京都","city":"武蔵野市","address":"武蔵野市中町1-19-8シティハイツ武蔵野1階","lat":35.704999,"lon":139.562672},{"name":"あすはＫｉｄｓ","province":"東京都","city":"武蔵野市","address":"武蔵野市八幡町1-6-1","lat":35.715089,"lon":139.55435},{"name":"千川さくらんぼクラブ","province":"東京都","city":"武蔵野市","address":"武蔵野市八幡町2-5-3武蔵野中央公園北ホール1階","lat":35.7214,"lon":139.559666},{"name":"ｗａｃｃａ","province":"東京都","city":"武蔵野市","address":"武蔵野市八幡町3-8-6ニューハイツ武蔵野1階","lat":35.716425,"lon":139.549872},{"name":"児童発達センター　ぽこあぽこ","province":"東京都","city":"武蔵野市","address":"武蔵野市境2-4-3スヤマ武蔵野1F","lat":35.706223,"lon":139.543173},{"name":"ロゼット","province":"東京都","city":"武蔵野市","address":"武蔵野市境1-4-5","lat":35.704085,"lon":139.544659},{"name":"手毬塾ウノ","province":"東京都","city":"武蔵野市","address":"武蔵野市境南町3-22-22","lat":35.698927,"lon":139.540029},{"name":"ウイングむさしの","province":"東京都","city":"武蔵野市","address":"武蔵野市境南町2-13-5グレーハイツ泉妻","lat":35.698619,"lon":139.543821},{"name":"武蔵野市子ども家庭支援センター","province":"東京都","city":"武蔵野市","address":"武蔵野市緑町2-2-28武蔵野市役所3階","lat":35.717836,"lon":139.565937},{"name":"武蔵野市子ども家庭支援センター","province":"東京都","city":"武蔵野市","address":"武蔵野市緑町2-2-28武蔵野市役所3階","lat":35.71776,"lon":139.56586},{"name":"グループホームＲＥＮＧＡ","province":"東京都","city":"武蔵野市","address":"武蔵野市八幡町3-3-26","lat":35.717033,"lon":139.552991},{"name":"武蔵野市子ども家庭支援センター","province":"東京都","city":"武蔵野市","address":"武蔵野市緑町2-2-28武蔵野市役所3階","lat":35.71735,"lon":139.56256},{"name":"子ども発達支援ルームおれんじ学園","province":"東京都","city":"武蔵野市","address":"武蔵野市吉祥寺北町3-5-8イトーピア吉祥寺1階-110","lat":35.710487,"lon":139.57104},{"name":"ビーキッズむさしの","province":"東京都","city":"武蔵野市","address":"武蔵野市吉祥寺南町3-7-1プランドールサンリョウ2階","lat":35.699553,"lon":139.58637},{"name":"児童発達支援・放課後等デイサービス　ささえ","province":"東京都","city":"武蔵野市","address":"武蔵野市吉祥寺本町一丁目35番14号","lat":35.703736,"lon":139.584806},{"name":"ＴＥＥＮＳ吉祥寺","province":"東京都","city":"武蔵野市","address":"武蔵野市吉祥寺本町2-25-12SantaFe1-C","lat":35.703874,"lon":139.574673},{"name":"スタジオそら武蔵野","province":"東京都","city":"武蔵野市","address":"武蔵野市中町1-23-12クレール武蔵野1階","lat":35.704513,"lon":139.563458},{"name":"子ども発達支援ルームおれんじ学園ｎｉｃｏ","province":"東京都","city":"武蔵野市","address":"武蔵野市中町1-19-8シティハイツ武蔵野1階","lat":35.704999,"lon":139.562672},{"name":"あすはＫｉｄｓ","province":"東京都","city":"武蔵野市","address":"武蔵野市八幡町1-6-1","lat":35.715089,"lon":139.55435},{"name":"千川さくらんぼクラブ","province":"東京都","city":"武蔵野市","address":"武蔵野市八幡町2-5-3武蔵野中央公園北ホール1階","lat":35.7214,"lon":139.559666},{"name":"ｗａｃｃａ","province":"東京都","city":"武蔵野市","address":"武蔵野市八幡町3-8-6ニューハイツ武蔵野1階","lat":35.716425,"lon":139.549872},{"name":"児童発達センター　ぽこあぽこ","province":"東京都","city":"武蔵野市","address":"武蔵野市境2-4-3スヤマ武蔵野1F","lat":35.706223,"lon":139.543173},{"name":"ロゼット","province":"東京都","city":"武蔵野市","address":"武蔵野市境1-4-5","lat":35.704085,"lon":139.544659},{"name":"手毬塾ウノ","province":"東京都","city":"武蔵野市","address":"武蔵野市境南町3-22-22","lat":35.698927,"lon":139.540029},{"name":"ウイングむさしの","province":"東京都","city":"武蔵野市","address":"武蔵野市境南町2-13-5グレーハイツ泉妻","lat":35.698619,"lon":139.543821},{"name":"武蔵野市子ども家庭支援センター","province":"東京都","city":"武蔵野市","address":"武蔵野市緑町2-2-28武蔵野市役所3階","lat":35.717836,"lon":139.565937},{"name":"武蔵野市子ども家庭支援センター","province":"東京都","city":"武蔵野市","address":"武蔵野市緑町2-2-28武蔵野市役所3階","lat":35.71776,"lon":139.56586},{"name":"グループホームＲＥＮＧＡ","province":"東京都","city":"武蔵野市","address":"武蔵野市八幡町3-3-26","lat":35.717033,"lon":139.552991},{"name":"武蔵野市子ども家庭支援センター","province":"東京都","city":"武蔵野市","address":"武蔵野市緑町2-2-28武蔵野市役所3階","lat":35.71735,"lon":139.56256},{"name":"子ども発達支援ルームおれんじ学園","province":"東京都","city":"武蔵野市","address":"武蔵野市吉祥寺北町3-5-8イトーピア吉祥寺1階-110","lat":35.710487,"lon":139.57104},{"name":"ビーキッズむさしの","province":"東京都","city":"武蔵野市","address":"武蔵野市吉祥寺南町3-7-1プランドールサンリョウ2階","lat":35.699553,"lon":139.58637},{"name":"児童発達支援・放課後等デイサービス　ささえ","province":"東京都","city":"武蔵野市","address":"武蔵野市吉祥寺本町一丁目35番14号","lat":35.703736,"lon":139.584806},{"name":"ＴＥＥＮＳ吉祥寺","province":"東京都","city":"武蔵野市","address":"武蔵野市吉祥寺本町2-25-12SantaFe1-C","lat":35.703874,"lon":139.574673},{"name":"スタジオそら武蔵野","province":"東京都","city":"武蔵野市","address":"武蔵野市中町1-23-12クレール武蔵野1階","lat":35.704513,"lon":139.563458},{"name":"子ども発達支援ルームおれんじ学園ｎｉｃｏ","province":"東京都","city":"武蔵野市","address":"武蔵野市中町1-19-8シティハイツ武蔵野1階","lat":35.704999,"lon":139.562672},{"name":"あすはＫｉｄｓ","province":"東京都","city":"武蔵野市","address":"武蔵野市八幡町1-6-1","lat":35.715089,"lon":139.55435},{"name":"千川さくらんぼクラブ","province":"東京都","city":"武蔵野市","address":"武蔵野市八幡町2-5-3武蔵野中央公園北ホール1階","lat":35.7214,"lon":139.559666},{"name":"ｗａｃｃａ","province":"東京都","city":"武蔵野市","address":"武蔵野市八幡町3-8-6ニューハイツ武蔵野1階","lat":35.716425,"lon":139.549872},{"name":"児童発達センター　ぽこあぽこ","province":"東京都","city":"武蔵野市","address":"武蔵野市境2-4-3スヤマ武蔵野1F","lat":35.706223,"lon":139.543173},{"name":"ロゼット","province":"東京都","city":"武蔵野市","address":"武蔵野市境1-4-5","lat":35.704085,"lon":139.544659},{"name":"手毬塾ウノ","province":"東京都","city":"武蔵野市","address":"武蔵野市境南町3-22-22","lat":35.698927,"lon":139.540029},{"name":"ウイングむさしの","province":"東京都","city":"武蔵野市","address":"武蔵野市境南町2-13-5グレーハイツ泉妻","lat":35.698619,"lon":139.543821},{"name":"武蔵野市子ども家庭支援センター","province":"東京都","city":"武蔵野市","address":"武蔵野市緑町2-2-28武蔵野市役所3階","lat":35.717836,"lon":139.565937},{"name":"武蔵野市子ども家庭支援センター","province":"東京都","city":"武蔵野市","address":"武蔵野市緑町2-2-28武蔵野市役所3階","lat":35.71776,"lon":139.56586},{"name":"グループホームＲＥＮＧＡ","province":"東京都","city":"武蔵野市","address":"武蔵野市八幡町3-3-26","lat":35.717033,"lon":139.552991},{"name":"武蔵野市子ども家庭支援センター","province":"東京都","city":"武蔵野市","address":"武蔵野市緑町2-2-28武蔵野市役所3階","lat":35.71735,"lon":139.56256},{"name":"子ども発達支援ルームおれんじ学園","province":"東京都","city":"武蔵野市","address":"武蔵野市吉祥寺北町3-5-8イトーピア吉祥寺1階-110","lat":35.710487,"lon":139.57104},{"name":"ビーキッズむさしの","province":"東京都","city":"武蔵野市","address":"武蔵野市吉祥寺南町3-7-1プランドールサンリョウ2階","lat":35.699553,"lon":139.58637},{"name":"児童発達支援・放課後等デイサービス　ささえ","province":"東京都","city":"武蔵野市","address":"武蔵野市吉祥寺本町一丁目35番14号","lat":35.703736,"lon":139.584806},{"name":"ＴＥＥＮＳ吉祥寺","province":"東京都","city":"武蔵野市","address":"武蔵野市吉祥寺本町2-25-12SantaFe1-C","lat":35.703874,"lon":139.574673},{"name":"スタジオそら武蔵野","province":"東京都","city":"武蔵野市","address":"武蔵野市中町1-23-12クレール武蔵野1階","lat":35.704513,"lon":139.563458},{"name":"子ども発達支援ルームおれんじ学園ｎｉｃｏ","province":"東京都","city":"武蔵野市","address":"武蔵野市中町1-19-8シティハイツ武蔵野1階","lat":35.704999,"lon":139.562672},{"name":"あすはＫｉｄｓ","province":"東京都","city":"武蔵野市","address":"武蔵野市八幡町1-6-1","lat":35.715089,"lon":139.55435},{"name":"千川さくらんぼクラブ","province":"東京都","city":"武蔵野市","address":"武蔵野市八幡町2-5-3武蔵野中央公園北ホール1階","lat":35.7214,"lon":139.559666},{"name":"ｗａｃｃａ","province":"東京都","city":"武蔵野市","address":"武蔵野市八幡町3-8-6ニューハイツ武蔵野1階","lat":35.716425,"lon":139.549872},{"name":"児童発達センター　ぽこあぽこ","province":"東京都","city":"武蔵野市","address":"武蔵野市境2-4-3スヤマ武蔵野1F","lat":35.706223,"lon":139.543173},{"name":"ロゼット","province":"東京都","city":"武蔵野市","address":"武蔵野市境1-4-5","lat":35.704085,"lon":139.544659},{"name":"手毬塾ウノ","province":"東京都","city":"武蔵野市","address":"武蔵野市境南町3-22-22","lat":35.698927,"lon":139.540029},{"name":"ウイングむさしの","province":"東京都","city":"武蔵野市","address":"武蔵野市境南町2-13-5グレーハイツ泉妻","lat":35.698619,"lon":139.543821},{"name":"武蔵野市子ども家庭支援センター","province":"東京都","city":"武蔵野市","address":"武蔵野市緑町2-2-28武蔵野市役所3階","lat":35.717836,"lon":139.565937},{"name":"武蔵野市子ども家庭支援センター","province":"東京都","city":"武蔵野市","address":"武蔵野市緑町2-2-28武蔵野市役所3階","lat":35.71776,"lon":139.56586},{"name":"グループホームＲＥＮＧＡ","province":"東京都","city":"武蔵野市","address":"武蔵野市八幡町3-3-26","lat":35.717033,"lon":139.552991},{"name":"武蔵野市子ども家庭支援センター","province":"東京都","city":"武蔵野市","address":"武蔵野市緑町2-2-28武蔵野市役所3階","lat":35.71735,"lon":139.56256},{"name":"子ども発達支援ルームおれんじ学園","province":"東京都","city":"武蔵野市","address":"武蔵野市吉祥寺北町3-5-8イトーピア吉祥寺1階-110","lat":35.710487,"lon":139.57104},{"name":"ビーキッズむさしの","province":"東京都","city":"武蔵野市","address":"武蔵野市吉祥寺南町3-7-1プランドールサンリョウ2階","lat":35.699553,"lon":139.58637},{"name":"児童発達支援・放課後等デイサービス　ささえ","province":"東京都","city":"武蔵野市","address":"武蔵野市吉祥寺本町一丁目35番14号","lat":35.703736,"lon":139.584806},{"name":"ＴＥＥＮＳ吉祥寺","province":"東京都","city":"武蔵野市","address":"武蔵野市吉祥寺本町2-25-12SantaFe1-C","lat":35.703874,"lon":139.574673},{"name":"スタジオそら武蔵野","province":"東京都","city":"武蔵野市","address":"武蔵野市中町1-23-12クレール武蔵野1階","lat":35.704513,"lon":139.563458},{"name":"子ども発達支援ルームおれんじ学園ｎｉｃｏ","province":"東京都","city":"武蔵野市","address":"武蔵野市中町1-19-8シティハイツ武蔵野1階","lat":35.704999,"lon":139.562672},{"name":"あすはＫｉｄｓ","province":"東京都","city":"武蔵野市","address":"武蔵野市八幡町1-6-1","lat":35.715089,"lon":139.55435},{"name":"千川さくらんぼクラブ","province":"東京都","city":"武蔵野市","address":"武蔵野市八幡町2-5-3武蔵野中央公園北ホール1階","lat":35.7214,"lon":139.559666},{"name":"ｗａｃｃａ","province":"東京都","city":"武蔵野市","address":"武蔵野市八幡町3-8-6ニューハイツ武蔵野1階","lat":35.716425,"lon":139.549872},{"name":"児童発達センター　ぽこあぽこ","province":"東京都","city":"武蔵野市","address":"武蔵野市境2-4-3スヤマ武蔵野1F","lat":35.706223,"lon":139.543173},{"name":"ロゼット","province":"東京都","city":"武蔵野市","address":"武蔵野市境1-4-5","lat":35.704085,"lon":139.544659},{"name":"手毬塾ウノ","province":"東京都","city":"武蔵野市","address":"武蔵野市境南町3-22-22","lat":35.698927,"lon":139.540029},{"name":"ウイングむさしの","province":"東京都","city":"武蔵野市","address":"武蔵野市境南町2-13-5グレーハイツ泉妻","lat":35.698619,"lon":139.543821},{"name":"武蔵野市子ども家庭支援センター","province":"東京都","city":"武蔵野市","address":"武蔵野市緑町2-2-28武蔵野市役所3階","lat":35.717836,"lon":139.565937},{"name":"武蔵野市子ども家庭支援センター","province":"東京都","city":"武蔵野市","address":"武蔵野市緑町2-2-28武蔵野市役所3階","lat":35.71776,"lon":139.56586},{"name":"グループホームＲＥＮＧＡ","province":"東京都","city":"武蔵野市","address":"武蔵野市八幡町3-3-26","lat":35.717033,"lon":139.552991},{"name":"武蔵野市子ども家庭支援センター","province":"東京都","city":"武蔵野市","address":"武蔵野市緑町2-2-28武蔵野市役所3階","lat":35.71735,"lon":139.56256},{"name":"子ども発達支援ルームおれんじ学園","province":"東京都","city":"武蔵野市","address":"武蔵野市吉祥寺北町3-5-8イトーピア吉祥寺1階-110","lat":35.710487,"lon":139.57104},{"name":"ビーキッズむさしの","province":"東京都","city":"武蔵野市","address":"武蔵野市吉祥寺南町3-7-1プランドールサンリョウ2階","lat":35.699553,"lon":139.58637},{"name":"児童発達支援・放課後等デイサービス　ささえ","province":"東京都","city":"武蔵野市","address":"武蔵野市吉祥寺本町一丁目35番14号","lat":35.703736,"lon":139.584806},{"name":"ＴＥＥＮＳ吉祥寺","province":"東京都","city":"武蔵野市","address":"武蔵野市吉祥寺本町2-25-12SantaFe1-C","lat":35.703874,"lon":139.574673},{"name":"スタジオそら武蔵野","province":"東京都","city":"武蔵野市","address":"武蔵野市中町1-23-12クレール武蔵野1階","lat":35.704513,"lon":139.563458},{"name":"子ども発達支援ルームおれんじ学園ｎｉｃｏ","province":"東京都","city":"武蔵野市","address":"武蔵野市中町1-19-8シティハイツ武蔵野1階","lat":35.704999,"lon":139.562672},{"name":"あすはＫｉｄｓ","province":"東京都","city":"武蔵野市","address":"武蔵野市八幡町1-6-1","lat":35.715089,"lon":139.55435},{"name":"千川さくらんぼクラブ","province":"東京都","city":"武蔵野市","address":"武蔵野市八幡町2-5-3武蔵野中央公園北ホール1階","lat":35.7214,"lon":139.559666},{"name":"ｗａｃｃａ","province":"東京都","city":"武蔵野市","address":"武蔵野市八幡町3-8-6ニューハイツ武蔵野1階","lat":35.716425,"lon":139.549872},{"name":"児童発達センター　ぽこあぽこ","province":"東京都","city":"武蔵野市","address":"武蔵野市境2-4-3スヤマ武蔵野1F","lat":35.706223,"lon":139.543173},{"name":"ロゼット","province":"東京都","city":"武蔵野市","address":"武蔵野市境1-4-5","lat":35.704085,"lon":139.544659},{"name":"手毬塾ウノ","province":"東京都","city":"武蔵野市","address":"武蔵野市境南町3-22-22","lat":35.698927,"lon":139.540029},{"name":"ウイングむさしの","province":"東京都","city":"武蔵野市","address":"武蔵野市境南町2-13-5グレーハイツ泉妻","lat":35.698619,"lon":139.543821},{"name":"武蔵野市子ども家庭支援センター","province":"東京都","city":"武蔵野市","address":"武蔵野市緑町2-2-28武蔵野市役所3階","lat":35.717836,"lon":139.565937},{"name":"武蔵野市子ども家庭支援センター","province":"東京都","city":"武蔵野市","address":"武蔵野市緑町2-2-28武蔵野市役所3階","lat":35.71776,"lon":139.56586},{"name":"グループホームＲＥＮＧＡ","province":"東京都","city":"武蔵野市","address":"武蔵野市八幡町3-3-26","lat":35.717033,"lon":139.552991},{"name":"武蔵野市子ども家庭支援センター","province":"東京都","city":"武蔵野市","address":"武蔵野市緑町2-2-28武蔵野市役所3階","lat":35.71735,"lon":139.56256},{"name":"子ども発達支援ルームおれんじ学園","province":"東京都","city":"武蔵野市","address":"武蔵野市吉祥寺北町3-5-8イトーピア吉祥寺1階-110","lat":35.710487,"lon":139.57104},{"name":"ビーキッズむさしの","province":"東京都","city":"武蔵野市","address":"武蔵野市吉祥寺南町3-7-1プランドールサンリョウ2階","lat":35.699553,"lon":139.58637},{"name":"児童発達支援・放課後等デイサービス　ささえ","province":"東京都","city":"武蔵野市","address":"武蔵野市吉祥寺本町一丁目35番14号","lat":35.703736,"lon":139.584806},{"name":"ＴＥＥＮＳ吉祥寺","province":"東京都","city":"武蔵野市","address":"武蔵野市吉祥寺本町2-25-12SantaFe1-C","lat":35.703874,"lon":139.574673},{"name":"スタジオそら武蔵野","province":"東京都","city":"武蔵野市","address":"武蔵野市中町1-23-12クレール武蔵野1階","lat":35.704513,"lon":139.563458},{"name":"子ども発達支援ルームおれんじ学園ｎｉｃｏ","province":"東京都","city":"武蔵野市","address":"武蔵野市中町1-19-8シティハイツ武蔵野1階","lat":35.704999,"lon":139.562672},{"name":"あすはＫｉｄｓ","province":"東京都","city":"武蔵野市","address":"武蔵野市八幡町1-6-1","lat":35.715089,"lon":139.55435},{"name":"千川さくらんぼクラブ","province":"東京都","city":"武蔵野市","address":"武蔵野市八幡町2-5-3武蔵野中央公園北ホール1階","lat":35.7214,"lon":139.559666},{"name":"ｗａｃｃａ","province":"東京都","city":"武蔵野市","address":"武蔵野市八幡町3-8-6ニューハイツ武蔵野1階","lat":35.716425,"lon":139.549872},{"name":"児童発達センター　ぽこあぽこ","province":"東京都","city":"武蔵野市","address":"武蔵野市境2-4-3スヤマ武蔵野1F","lat":35.706223,"lon":139.543173},{"name":"ロゼット","province":"東京都","city":"武蔵野市","address":"武蔵野市境1-4-5","lat":35.704085,"lon":139.544659},{"name":"手毬塾ウノ","province":"東京都","city":"武蔵野市","address":"武蔵野市境南町3-22-22","lat":35.698927,"lon":139.540029},{"name":"ウイングむさしの","province":"東京都","city":"武蔵野市","address":"武蔵野市境南町2-13-5グレーハイツ泉妻","lat":35.698619,"lon":139.543821},{"name":"武蔵野市子ども家庭支援センター","province":"東京都","city":"武蔵野市","address":"武蔵野市緑町2-2-28武蔵野市役所3階","lat":35.717836,"lon":139.565937},{"name":"武蔵野市子ども家庭支援センター","province":"東京都","city":"武蔵野市","address":"武蔵野市緑町2-2-28武蔵野市役所3階","lat":35.71776,"lon":139.56586},{"name":"グループホームＲＥＮＧＡ","province":"東京都","city":"武蔵野市","address":"武蔵野市八幡町3-3-26","lat":35.717033,"lon":139.552991},{"name":"武蔵野市子ども家庭支援センター","province":"東京都","city":"武蔵野市","address":"武蔵野市緑町2-2-28武蔵野市役所3階","lat":35.71735,"lon":139.56256},{"name":"子ども発達支援ルームおれんじ学園","province":"東京都","city":"武蔵野市","address":"武蔵野市吉祥寺北町3-5-8イトーピア吉祥寺1階-110","lat":35.710487,"lon":139.57104},{"name":"ビーキッズむさしの","province":"東京都","city":"武蔵野市","address":"武蔵野市吉祥寺南町3-7-1プランドールサンリョウ2階","lat":35.699553,"lon":139.58637},{"name":"児童発達支援・放課後等デイサービス　ささえ","province":"東京都","city":"武蔵野市","address":"武蔵野市吉祥寺本町一丁目35番14号","lat":35.703736,"lon":139.584806},{"name":"ＴＥＥＮＳ吉祥寺","province":"東京都","city":"武蔵野市","address":"武蔵野市吉祥寺本町2-25-12SantaFe1-C","lat":35.703874,"lon":139.574673},{"name":"スタジオそら武蔵野","province":"東京都","city":"武蔵野市","address":"武蔵野市中町1-23-12クレール武蔵野1階","lat":35.704513,"lon":139.563458},{"name":"子ども発達支援ルームおれんじ学園ｎｉｃｏ","province":"東京都","city":"武蔵野市","address":"武蔵野市中町1-19-8シティハイツ武蔵野1階","lat":35.704999,"lon":139.562672},{"name":"あすはＫｉｄｓ","province":"東京都","city":"武蔵野市","address":"武蔵野市八幡町1-6-1","lat":35.715089,"lon":139.55435},{"name":"千川さくらんぼクラブ","province":"東京都","city":"武蔵野市","address":"武蔵野市八幡町2-5-3武蔵野中央公園北ホール1階","lat":35.7214,"lon":139.559666},{"name":"ｗａｃｃａ","province":"東京都","city":"武蔵野市","address":"武蔵野市八幡町3-8-6ニューハイツ武蔵野1階","lat":35.716425,"lon":139.549872},{"name":"児童発達センター　ぽこあぽこ","province":"東京都","city":"武蔵野市","address":"武蔵野市境2-4-3スヤマ武蔵野1F","lat":35.706223,"lon":139.543173},{"name":"ロゼット","province":"東京都","city":"武蔵野市","address":"武蔵野市境1-4-5","lat":35.704085,"lon":139.544659},{"name":"手毬塾ウノ","province":"東京都","city":"武蔵野市","address":"武蔵野市境南町3-22-22","lat":35.698927,"lon":139.540029},{"name":"ウイングむさしの","province":"東京都","city":"武蔵野市","address":"武蔵野市境南町2-13-5グレーハイツ泉妻","lat":35.698619,"lon":139.543821},{"name":"武蔵野市子ども家庭支援センター","province":"東京都","city":"武蔵野市","address":"武蔵野市緑町2-2-28武蔵野市役所3階","lat":35.717836,"lon":139.565937},{"name":"武蔵野市子ども家庭支援センター","province":"東京都","city":"武蔵野市","address":"武蔵野市緑町2-2-28武蔵野市役所3階","lat":35.71776,"lon":139.56586},{"name":"グループホームＲＥＮＧＡ","province":"東京都","city":"武蔵野市","address":"武蔵野市八幡町3-3-26","lat":35.717033,"lon":139.552991},{"name":"武蔵野市子ども家庭支援センター","province":"東京都","city":"武蔵野市","address":"武蔵野市緑町2-2-28武蔵野市役所3階","lat":35.71735,"lon":139.56256},{"name":"子ども発達支援ルームおれんじ学園","province":"東京都","city":"武蔵野市","address":"武蔵野市吉祥寺北町3-5-8イトーピア吉祥寺1階-110","lat":35.710487,"lon":139.57104},{"name":"ビーキッズむさしの","province":"東京都","city":"武蔵野市","address":"武蔵野市吉祥寺南町3-7-1プランドールサンリョウ2階","lat":35.699553,"lon":139.58637},{"name":"児童発達支援・放課後等デイサービス　ささえ","province":"東京都","city":"武蔵野市","address":"武蔵野市吉祥寺本町一丁目35番14号","lat":35.703736,"lon":139.584806},{"name":"ＴＥＥＮＳ吉祥寺","province":"東京都","city":"武蔵野市","address":"武蔵野市吉祥寺本町2-25-12SantaFe1-C","lat":35.703874,"lon":139.574673},{"name":"スタジオそら武蔵野","province":"東京都","city":"武蔵野市","address":"武蔵野市中町1-23-12クレール武蔵野1階","lat":35.704513,"lon":139.563458},{"name":"子ども発達支援ルームおれんじ学園ｎｉｃｏ","province":"東京都","city":"武蔵野市","address":"武蔵野市中町1-19-8シティハイツ武蔵野1階","lat":35.704999,"lon":139.562672},{"name":"あすはＫｉｄｓ","province":"東京都","city":"武蔵野市","address":"武蔵野市八幡町1-6-1","lat":35.715089,"lon":139.55435},{"name":"千川さくらんぼクラブ","province":"東京都","city":"武蔵野市","address":"武蔵野市八幡町2-5-3武蔵野中央公園北ホール1階","lat":35.7214,"lon":139.559666},{"name":"ｗａｃｃａ","province":"東京都","city":"武蔵野市","address":"武蔵野市八幡町3-8-6ニューハイツ武蔵野1階","lat":35.716425,"lon":139.549872},{"name":"児童発達センター　ぽこあぽこ","province":"東京都","city":"武蔵野市","address":"武蔵野市境2-4-3スヤマ武蔵野1F","lat":35.706223,"lon":139.543173},{"name":"ロゼット","province":"東京都","city":"武蔵野市","address":"武蔵野市境1-4-5","lat":35.704085,"lon":139.544659},{"name":"手毬塾ウノ","province":"東京都","city":"武蔵野市","address":"武蔵野市境南町3-22-22","lat":35.698927,"lon":139.540029},{"name":"ウイングむさしの","province":"東京都","city":"武蔵野市","address":"武蔵野市境南町2-13-5グレーハイツ泉妻","lat":35.698619,"lon":139.543821},{"name":"武蔵野市子ども家庭支援センター","province":"東京都","city":"武蔵野市","address":"武蔵野市緑町2-2-28武蔵野市役所3階","lat":35.717836,"lon":139.565937},{"name":"武蔵野市子ども家庭支援センター","province":"東京都","city":"武蔵野市","address":"武蔵野市緑町2-2-28武蔵野市役所3階","lat":35.71776,"lon":139.56586},{"name":"グループホームＲＥＮＧＡ","province":"東京都","city":"武蔵野市","address":"武蔵野市八幡町3-3-26","lat":35.717033,"lon":139.552991},{"name":"武蔵野市子ども家庭支援センター","province":"東京都","city":"武蔵野市","address":"武蔵野市緑町2-2-28武蔵野市役所3階","lat":35.71735,"lon":139.56256},{"name":"子ども発達支援ルームおれんじ学園","province":"東京都","city":"武蔵野市","address":"武蔵野市吉祥寺北町3-5-8イトーピア吉祥寺1階-110","lat":35.710487,"lon":139.57104},{"name":"ビーキッズむさしの","province":"東京都","city":"武蔵野市","address":"武蔵野市吉祥寺南町3-7-1プランドールサンリョウ2階","lat":35.699553,"lon":139.58637},{"name":"児童発達支援・放課後等デイサービス　ささえ","province":"東京都","city":"武蔵野市","address":"武蔵野市吉祥寺本町一丁目35番14号","lat":35.703736,"lon":139.584806},{"name":"ＴＥＥＮＳ吉祥寺","province":"東京都","city":"武蔵野市","address":"武蔵野市吉祥寺本町2-25-12SantaFe1-C","lat":35.703874,"lon":139.574673},{"name":"スタジオそら武蔵野","province":"東京都","city":"武蔵野市","address":"武蔵野市中町1-23-12クレール武蔵野1階","lat":35.704513,"lon":139.563458},{"name":"子ども発達支援ルームおれんじ学園ｎｉｃｏ","province":"東京都","city":"武蔵野市","address":"武蔵野市中町1-19-8シティハイツ武蔵野1階","lat":35.704999,"lon":139.562672},{"name":"あすはＫｉｄｓ","province":"東京都","city":"武蔵野市","address":"武蔵野市八幡町1-6-1","lat":35.715089,"lon":139.55435},{"name":"千川さくらんぼクラブ","province":"東京都","city":"武蔵野市","address":"武蔵野市八幡町2-5-3武蔵野中央公園北ホール1階","lat":35.7214,"lon":139.559666},{"name":"ｗａｃｃａ","province":"東京都","city":"武蔵野市","address":"武蔵野市八幡町3-8-6ニューハイツ武蔵野1階","lat":35.716425,"lon":139.549872},{"name":"児童発達センター　ぽこあぽこ","province":"東京都","city":"武蔵野市","address":"武蔵野市境2-4-3スヤマ武蔵野1F","lat":35.706223,"lon":139.543173},{"name":"ロゼット","province":"東京都","city":"武蔵野市","address":"武蔵野市境1-4-5","lat":35.704085,"lon":139.544659},{"name":"手毬塾ウノ","province":"東京都","city":"武蔵野市","address":"武蔵野市境南町3-22-22","lat":35.698927,"lon":139.540029},{"name":"ウイングむさしの","province":"東京都","city":"武蔵野市","address":"武蔵野市境南町2-13-5グレーハイツ泉妻","lat":35.698619,"lon":139.543821},{"name":"武蔵野市子ども家庭支援センター","province":"東京都","city":"武蔵野市","address":"武蔵野市緑町2-2-28武蔵野市役所3階","lat":35.717836,"lon":139.565937},{"name":"武蔵野市子ども家庭支援センター","province":"東京都","city":"武蔵野市","address":"武蔵野市緑町2-2-28武蔵野市役所3階","lat":35.71776,"lon":139.56586},{"name":"グループホームＲＥＮＧＡ","province":"東京都","city":"武蔵野市","address":"武蔵野市八幡町3-3-26","lat":35.717033,"lon":139.552991},{"name":"武蔵野市子ども家庭支援センター","province":"東京都","city":"武蔵野市","address":"武蔵野市緑町2-2-28武蔵野市役所3階","lat":35.71735,"lon":139.56256},{"name":"子ども発達支援ルームおれんじ学園","province":"東京都","city":"武蔵野市","address":"武蔵野市吉祥寺北町3-5-8イトーピア吉祥寺1階-110","lat":35.710487,"lon":139.57104},{"name":"ビーキッズむさしの","province":"東京都","city":"武蔵野市","address":"武蔵野市吉祥寺南町3-7-1プランドールサンリョウ2階","lat":35.699553,"lon":139.58637},{"name":"児童発達支援・放課後等デイサービス　ささえ","province":"東京都","city":"武蔵野市","address":"武蔵野市吉祥寺本町一丁目35番14号","lat":35.703736,"lon":139.584806},{"name":"ＴＥＥＮＳ吉祥寺","province":"東京都","city":"武蔵野市","address":"武蔵野市吉祥寺本町2-25-12SantaFe1-C","lat":35.703874,"lon":139.574673},{"name":"スタジオそら武蔵野","province":"東京都","city":"武蔵野市","address":"武蔵野市中町1-23-12クレール武蔵野1階","lat":35.704513,"lon":139.563458},{"name":"子ども発達支援ルームおれんじ学園ｎｉｃｏ","province":"東京都","city":"武蔵野市","address":"武蔵野市中町1-19-8シティハイツ武蔵野1階","lat":35.704999,"lon":139.562672},{"name":"あすはＫｉｄｓ","province":"東京都","city":"武蔵野市","address":"武蔵野市八幡町1-6-1","lat":35.715089,"lon":139.55435},{"name":"千川さくらんぼクラブ","province":"東京都","city":"武蔵野市","address":"武蔵野市八幡町2-5-3武蔵野中央公園北ホール1階","lat":35.7214,"lon":139.559666},{"name":"ｗａｃｃａ","province":"東京都","city":"武蔵野市","address":"武蔵野市八幡町3-8-6ニューハイツ武蔵野1階","lat":35.716425,"lon":139.549872},{"name":"児童発達センター　ぽこあぽこ","province":"東京都","city":"武蔵野市","address":"武蔵野市境2-4-3スヤマ武蔵野1F","lat":35.706223,"lon":139.543173},{"name":"ロゼット","province":"東京都","city":"武蔵野市","address":"武蔵野市境1-4-5","lat":35.704085,"lon":139.544659},{"name":"手毬塾ウノ","province":"東京都","city":"武蔵野市","address":"武蔵野市境南町3-22-22","lat":35.698927,"lon":139.540029},{"name":"ウイングむさしの","province":"東京都","city":"武蔵野市","address":"武蔵野市境南町2-13-5グレーハイツ泉妻","lat":35.698619,"lon":139.543821},{"name":"武蔵野市子ども家庭支援センター","province":"東京都","city":"武蔵野市","address":"武蔵野市緑町2-2-28武蔵野市役所3階","lat":35.717836,"lon":139.565937},{"name":"武蔵野市子ども家庭支援センター","province":"東京都","city":"武蔵野市","address":"武蔵野市緑町2-2-28武蔵野市役所3階","lat":35.71776,"lon":139.56586},{"name":"グループホームＲＥＮＧＡ","province":"東京都","city":"武蔵野市","address":"武蔵野市八幡町3-3-26","lat":35.717033,"lon":139.552991},{"name":"武蔵野市子ども家庭支援センター","province":"東京都","city":"武蔵野市","address":"武蔵野市緑町2-2-28武蔵野市役所3階","lat":35.71735,"lon":139.56256},{"name":"子ども発達支援ルームおれんじ学園","province":"東京都","city":"武蔵野市","address":"武蔵野市吉祥寺北町3-5-8イトーピア吉祥寺1階-110","lat":35.710487,"lon":139.57104},{"name":"ビーキッズむさしの","province":"東京都","city":"武蔵野市","address":"武蔵野市吉祥寺南町3-7-1プランドールサンリョウ2階","lat":35.699553,"lon":139.58637},{"name":"児童発達支援・放課後等デイサービス　ささえ","province":"東京都","city":"武蔵野市","address":"武蔵野市吉祥寺本町一丁目35番14号","lat":35.703736,"lon":139.584806},{"name":"ＴＥＥＮＳ吉祥寺","province":"東京都","city":"武蔵野市","address":"武蔵野市吉祥寺本町2-25-12SantaFe1-C","lat":35.703874,"lon":139.574673},{"name":"スタジオそら武蔵野","province":"東京都","city":"武蔵野市","address":"武蔵野市中町1-23-12クレール武蔵野1階","lat":35.704513,"lon":139.563458},{"name":"子ども発達支援ルームおれんじ学園ｎｉｃｏ","province":"東京都","city":"武蔵野市","address":"武蔵野市中町1-19-8シティハイツ武蔵野1階","lat":35.704999,"lon":139.562672},{"name":"あすはＫｉｄｓ","province":"東京都","city":"武蔵野市","address":"武蔵野市八幡町1-6-1","lat":35.715089,"lon":139.55435},{"name":"千川さくらんぼクラブ","province":"東京都","city":"武蔵野市","address":"武蔵野市八幡町2-5-3武蔵野中央公園北ホール1階","lat":35.7214,"lon":139.559666},{"name":"ｗａｃｃａ","province":"東京都","city":"武蔵野市","address":"武蔵野市八幡町3-8-6ニューハイツ武蔵野1階","lat":35.716425,"lon":139.549872},{"name":"児童発達センター　ぽこあぽこ","province":"東京都","city":"武蔵野市","address":"武蔵野市境2-4-3スヤマ武蔵野1F","lat":35.706223,"lon":139.543173},{"name":"ロゼット","province":"東京都","city":"武蔵野市","address":"武蔵野市境1-4-5","lat":35.704085,"lon":139.544659},{"name":"手毬塾ウノ","province":"東京都","city":"武蔵野市","address":"武蔵野市境南町3-22-22","lat":35.698927,"lon":139.540029},{"name":"ウイングむさしの","province":"東京都","city":"武蔵野市","address":"武蔵野市境南町2-13-5グレーハイツ泉妻","lat":35.698619,"lon":139.543821},{"name":"武蔵野市子ども家庭支援センター","province":"東京都","city":"武蔵野市","address":"武蔵野市緑町2-2-28武蔵野市役所3階","lat":35.717836,"lon":139.565937},{"name":"武蔵野市子ども家庭支援センター","province":"東京都","city":"武蔵野市","address":"武蔵野市緑町2-2-28武蔵野市役所3階","lat":35.71776,"lon":139.56586},{"name":"グループホームＲＥＮＧＡ","province":"東京都","city":"武蔵野市","address":"武蔵野市八幡町3-3-26","lat":35.717033,"lon":139.552991},{"name":"武蔵野市子ども家庭支援センター","province":"東京都","city":"武蔵野市","address":"武蔵野市緑町2-2-28武蔵野市役所3階","lat":35.71735,"lon":139.56256},{"name":"子ども発達支援ルームおれんじ学園","province":"東京都","city":"武蔵野市","address":"武蔵野市吉祥寺北町3-5-8イトーピア吉祥寺1階-110","lat":35.710487,"lon":139.57104},{"name":"ビーキッズむさしの","province":"東京都","city":"武蔵野市","address":"武蔵野市吉祥寺南町3-7-1プランドールサンリョウ2階","lat":35.699553,"lon":139.58637},{"name":"児童発達支援・放課後等デイサービス　ささえ","province":"東京都","city":"武蔵野市","address":"武蔵野市吉祥寺本町一丁目35番14号","lat":35.703736,"lon":139.584806},{"name":"ＴＥＥＮＳ吉祥寺","province":"東京都","city":"武蔵野市","address":"武蔵野市吉祥寺本町2-25-12SantaFe1-C","lat":35.703874,"lon":139.574673},{"name":"スタジオそら武蔵野","province":"東京都","city":"武蔵野市","address":"武蔵野市中町1-23-12クレール武蔵野1階","lat":35.704513,"lon":139.563458},{"name":"子ども発達支援ルームおれんじ学園ｎｉｃｏ","province":"東京都","city":"武蔵野市","address":"武蔵野市中町1-19-8シティハイツ武蔵野1階","lat":35.704999,"lon":139.562672},{"name":"あすはＫｉｄｓ","province":"東京都","city":"武蔵野市","address":"武蔵野市八幡町1-6-1","lat":35.715089,"lon":139.55435},{"name":"千川さくらんぼクラブ","province":"東京都","city":"武蔵野市","address":"武蔵野市八幡町2-5-3武蔵野中央公園北ホール1階","lat":35.7214,"lon":139.559666},{"name":"ｗａｃｃａ","province":"東京都","city":"武蔵野市","address":"武蔵野市八幡町3-8-6ニューハイツ武蔵野1階","lat":35.716425,"lon":139.549872},{"name":"児童発達センター　ぽこあぽこ","province":"東京都","city":"武蔵野市","address":"武蔵野市境2-4-3スヤマ武蔵野1F","lat":35.706223,"lon":139.543173},{"name":"ロゼット","province":"東京都","city":"武蔵野市","address":"武蔵野市境1-4-5","lat":35.704085,"lon":139.544659},{"name":"手毬塾ウノ","province":"東京都","city":"武蔵野市","address":"武蔵野市境南町3-22-22","lat":35.698927,"lon":139.540029},{"name":"ウイングむさしの","province":"東京都","city":"武蔵野市","address":"武蔵野市境南町2-13-5グレーハイツ泉妻","lat":35.698619,"lon":139.543821},{"name":"武蔵野市子ども家庭支援センター","province":"東京都","city":"武蔵野市","address":"武蔵野市緑町2-2-28武蔵野市役所3階","lat":35.717836,"lon":139.565937},{"name":"武蔵野市子ども家庭支援センター","province":"東京都","city":"武蔵野市","address":"武蔵野市緑町2-2-28武蔵野市役所3階","lat":35.71776,"lon":139.56586},{"name":"グループホームＲＥＮＧＡ","province":"東京都","city":"武蔵野市","address":"武蔵野市八幡町3-3-26","lat":35.717033,"lon":139.552991},{"name":"武蔵野市子ども家庭支援センター","province":"東京都","city":"武蔵野市","address":"武蔵野市緑町2-2-28武蔵野市役所3階","lat":35.71735,"lon":139.56256},{"name":"子ども発達支援ルームおれんじ学園","province":"東京都","city":"武蔵野市","address":"武蔵野市吉祥寺北町3-5-8イトーピア吉祥寺1階-110","lat":35.710487,"lon":139.57104},{"name":"ビーキッズむさしの","province":"東京都","city":"武蔵野市","address":"武蔵野市吉祥寺南町3-7-1プランドールサンリョウ2階","lat":35.699553,"lon":139.58637},{"name":"児童発達支援・放課後等デイサービス　ささえ","province":"東京都","city":"武蔵野市","address":"武蔵野市吉祥寺本町一丁目35番14号","lat":35.703736,"lon":139.584806},{"name":"ＴＥＥＮＳ吉祥寺","province":"東京都","city":"武蔵野市","address":"武蔵野市吉祥寺本町2-25-12SantaFe1-C","lat":35.703874,"lon":139.574673},{"name":"スタジオそら武蔵野","province":"東京都","city":"武蔵野市","address":"武蔵野市中町1-23-12クレール武蔵野1階","lat":35.704513,"lon":139.563458},{"name":"子ども発達支援ルームおれんじ学園ｎｉｃｏ","province":"東京都","city":"武蔵野市","address":"武蔵野市中町1-19-8シティハイツ武蔵野1階","lat":35.704999,"lon":139.562672},{"name":"あすはＫｉｄｓ","province":"東京都","city":"武蔵野市","address":"武蔵野市八幡町1-6-1","lat":35.715089,"lon":139.55435},{"name":"千川さくらんぼクラブ","province":"東京都","city":"武蔵野市","address":"武蔵野市八幡町2-5-3武蔵野中央公園北ホール1階","lat":35.7214,"lon":139.559666},{"name":"ｗａｃｃａ","province":"東京都","city":"武蔵野市","address":"武蔵野市八幡町3-8-6ニューハイツ武蔵野1階","lat":35.716425,"lon":139.549872},{"name":"児童発達センター　ぽこあぽこ","province":"東京都","city":"武蔵野市","address":"武蔵野市境2-4-3スヤマ武蔵野1F","lat":35.706223,"lon":139.543173},{"name":"ロゼット","province":"東京都","city":"武蔵野市","address":"武蔵野市境1-4-5","lat":35.704085,"lon":139.544659},{"name":"手毬塾ウノ","province":"東京都","city":"武蔵野市","address":"武蔵野市境南町3-22-22","lat":35.698927,"lon":139.540029},{"name":"ウイングむさしの","province":"東京都","city":"武蔵野市","address":"武蔵野市境南町2-13-5グレーハイツ泉妻","lat":35.698619,"lon":139.543821},{"name":"武蔵野市子ども家庭支援センター","province":"東京都","city":"武蔵野市","address":"武蔵野市緑町2-2-28武蔵野市役所3階","lat":35.717836,"lon":139.565937},{"name":"武蔵野市子ども家庭支援センター","province":"東京都","city":"武蔵野市","address":"武蔵野市緑町2-2-28武蔵野市役所3階","lat":35.71776,"lon":139.56586},{"name":"グループホームＲＥＮＧＡ","province":"東京都","city":"武蔵野市","address":"武蔵野市八幡町3-3-26","lat":35.717033,"lon":139.552991},{"name":"武蔵野市子ども家庭支援センター","province":"東京都","city":"武蔵野市","address":"武蔵野市緑町2-2-28武蔵野市役所3階","lat":35.71735,"lon":139.56256}]}