{"keyword":"椅子","data":[{"name":"玉川上水緑道","province":"東京都","city":"武蔵野市","address":"東京都武蔵野市境3丁目6","lat":35.709387,"lon":139.543974},{"name":"井の頭恩賜公園","province":"東京都","city":"武蔵野市","address":"東京都武蔵野市御殿山1丁目19","lat":35.699434,"lon":139.571379},{"name":"井の頭恩賜公園","province":"東京都","city":"武蔵野市","address":"東京都武蔵野市御殿山1丁目19","lat":35.699433,"lon":139.571379},{"name":"井の頭恩賜公園","province":"東京都","city":"武蔵野市","address":"東京都武蔵野市御殿山1丁目18","lat":35.700648,"lon":139.573718},{"name":"井の頭恩賜公園","province":"東京都","city":"武蔵野市","address":"東京都武蔵野市御殿山1丁目18","lat":35.700846,"lon":139.574472},{"name":"井の頭恩賜公園","province":"東京都","city":"武蔵野市","address":"東京都武蔵野市御殿山1丁目19","lat":35.699428,"lon":139.571345},{"name":"小金井公園","province":"東京都","city":"武蔵野市","address":"東京都武蔵野市桜堤3丁目21-1","lat":35.71404,"lon":139.527767},{"name":"小金井公園","province":"東京都","city":"武蔵野市","address":"東京都武蔵野市桜堤3丁目8","lat":35.713908,"lon":139.526692},{"name":"武蔵野中央公園","province":"東京都","city":"武蔵野市","address":"東京都武蔵野市八幡町2丁目4","lat":35.718037,"lon":139.556673},{"name":"武蔵野中央公園","province":"東京都","city":"武蔵野市","address":"東京都武蔵野市八幡町2丁目4","lat":35.717275,"lon":139.558496},{"name":"武蔵野中央公園","province":"東京都","city":"武蔵野市","address":"東京都武蔵野市八幡町2丁目4","lat":35.719302,"lon":139.560332},{"name":"井の頭自然文化園","province":"東京都","city":"武蔵野市","address":"東京都武蔵野市御殿山1丁目17","lat":35.701015,"lon":139.572365},{"name":"井の頭自然文化園","province":"東京都","city":"武蔵野市","address":"東京都武蔵野市御殿山1丁目17","lat":35.700359,"lon":139.571377},{"name":"井の頭自然文化園","province":"東京都","city":"武蔵野市","address":"東京都武蔵野市御殿山1丁目17","lat":35.701206,"lon":139.56985},{"name":"井の頭自然文化園","province":"東京都","city":"武蔵野市","address":"東京都武蔵野市御殿山1丁目17","lat":35.702242,"lon":139.570267},{"name":"井の頭自然文化園","province":"東京都","city":"武蔵野市","address":"東京都武蔵野市御殿山1丁目17","lat":35.700425,"lon":139.569227},{"name":"武蔵野消防署","province":"東京都","city":"武蔵野市","address":"東京都武蔵野市吉祥寺北町4丁目6-1","lat":35.71165,"lon":139.567311},{"name":"武蔵野消防署武蔵境出張所","province":"東京都","city":"武蔵野市","address":"東京都武蔵野市境南町1丁目26-38","lat":35.695988,"lon":139.546944},{"name":"武蔵野消防署吉祥寺出張所","province":"東京都","city":"武蔵野市","address":"東京都武蔵野市吉祥寺東町1丁目1-21","lat":35.707205,"lon":139.58012},{"name":"西久保公園","province":"東京都","city":"武蔵野市","address":"東京都武蔵野市西久保1丁目43","lat":35.705974,"lon":139.553659},{"name":"武蔵野市役所本庁舎","province":"東京都","city":"武蔵野市","address":"東京都武蔵野市緑町2丁目2-28","lat":35.717857,"lon":139.566017},{"name":"武蔵野市役所本庁舎","province":"東京都","city":"武蔵野市","address":"東京都武蔵野市緑町2丁目2-28","lat":35.717629,"lon":139.565918},{"name":"中央市政センター","province":"東京都","city":"武蔵野市","address":"東京都武蔵野市中町1丁目2-8","lat":35.7037,"lon":139.559772},{"name":"吉祥寺市政センター","province":"東京都","city":"武蔵野市","address":"東京都武蔵野市吉祥寺本町1丁目10-7","lat":35.705776,"lon":139.578917},{"name":"武蔵野市立武蔵野商工会館","province":"東京都","city":"武蔵野市","address":"東京都武蔵野市吉祥寺本町1丁目10-7","lat":35.705759,"lon":139.578978},{"name":"武蔵野市立武蔵野商工会館","province":"東京都","city":"武蔵野市","address":"東京都武蔵野市吉祥寺本町1丁目10-7","lat":35.705778,"lon":139.578929},{"name":"吉祥寺東コミュニティセンター","province":"東京都","city":"武蔵野市","address":"東京都武蔵野市吉祥寺東町1丁目12","lat":35.707681,"lon":139.58403},{"name":"本宿コミュニティセンター","province":"東京都","city":"武蔵野市","address":"東京都武蔵野市吉祥寺東町3丁目25-2","lat":35.704047,"lon":139.590046},{"name":"吉祥寺南町コミュニティセンター","province":"東京都","city":"武蔵野市","address":"東京都武蔵野市吉祥寺南町3丁目13-1","lat":35.699206,"lon":139.586628},{"name":"御殿山コミュニティセンター","province":"東京都","city":"武蔵野市","address":"東京都武蔵野市御殿山1丁目5-11","lat":35.702284,"lon":139.57583},{"name":"本町コミュニティセンター","province":"東京都","city":"武蔵野市","address":"東京都武蔵野市吉祥寺本町1丁目22","lat":35.704455,"lon":139.581971},{"name":"吉祥寺西コミュニティセンター","province":"東京都","city":"武蔵野市","address":"東京都武蔵野市吉祥寺本町3丁目20-17","lat":35.705789,"lon":139.570014},{"name":"吉祥寺北コミュニティセンター","province":"東京都","city":"武蔵野市","address":"東京都武蔵野市吉祥寺北町1丁目22-10","lat":35.712271,"lon":139.578005},{"name":"けやきコミュニティセンター","province":"東京都","city":"武蔵野市","address":"東京都武蔵野市吉祥寺北町5丁目6-19","lat":35.717833,"lon":139.571726},{"name":"中央コミュニティセンター","province":"東京都","city":"武蔵野市","address":"東京都武蔵野市中町3丁目5-17","lat":35.711135,"lon":139.564999},{"name":"西久保コミュニティセンター","province":"東京都","city":"武蔵野市","address":"東京都武蔵野市西久保1丁目23-7","lat":35.705981,"lon":139.556916},{"name":"緑町コミュニティセンター","province":"東京都","city":"武蔵野市","address":"東京都武蔵野市緑町3丁目1-17","lat":35.720033,"lon":139.565766},{"name":"八幡町コミュニティセンター","province":"東京都","city":"武蔵野市","address":"東京都武蔵野市八幡町3丁目3-16","lat":35.71699,"lon":139.552463},{"name":"八幡町コミュニティセンター","province":"東京都","city":"武蔵野市","address":"東京都武蔵野市八幡町3丁目3-16","lat":35.716983,"lon":139.552392},{"name":"関前コミュニティセンター","province":"東京都","city":"武蔵野市","address":"東京都武蔵野市関前2丁目26-10","lat":35.712854,"lon":139.549135},{"name":"西部コミュニティセンター","province":"東京都","city":"武蔵野市","address":"東京都武蔵野市境5丁目6-20","lat":35.706446,"lon":139.535561},{"name":"西部コミュニティセンター","province":"東京都","city":"武蔵野市","address":"東京都武蔵野市境5丁目6-20","lat":35.706446,"lon":139.535581},{"name":"桜堤コミュニティセンター","province":"東京都","city":"武蔵野市","address":"東京都武蔵野市桜堤3丁目3-11","lat":35.714848,"lon":139.528861},{"name":"市民会館","province":"東京都","city":"武蔵野市","address":"東京都武蔵野市境2丁目3-7","lat":35.70527,"lon":139.543419},{"name":"市民会館","province":"東京都","city":"武蔵野市","address":"東京都武蔵野市境2丁目3-7","lat":35.705288,"lon":139.543419},{"name":"境南コミュニティセンター","province":"東京都","city":"武蔵野市","address":"東京都武蔵野市境南町3丁目22-9","lat":35.698249,"lon":139.540109},{"name":"武蔵野市立保健センター","province":"東京都","city":"武蔵野市","address":"東京都武蔵野市吉祥寺北町4丁目8-10","lat":35.712866,"lon":139.566532},{"name":"武蔵野市立中央図書館","province":"東京都","city":"武蔵野市","address":"東京都武蔵野市吉祥寺北町4丁目8-3","lat":35.712507,"lon":139.566331},{"name":"武蔵野市立中央図書館","province":"東京都","city":"武蔵野市","address":"東京都武蔵野市吉祥寺北町4丁目8-3","lat":35.712482,"lon":139.566319},{"name":"武蔵野市立吉祥寺図書館","province":"東京都","city":"武蔵野市","address":"東京都武蔵野市吉祥寺本町1丁目21-13","lat":35.70501,"lon":139.582381},{"name":"武蔵野プレイス（図書館、会議出、スタジオ等複合施設）","province":"東京都","city":"武蔵野市","address":"東京都武蔵野市境南町2丁目3-18","lat":35.701022,"lon":139.543796},{"name":"武蔵野プレイス（図書館、会議出、スタジオ等複合施設）","province":"東京都","city":"武蔵野市","address":"東京都武蔵野市境南町2丁目3-18","lat":35.701094,"lon":139.543762},{"name":"武蔵野三鷹地域センター","province":"東京都","city":"武蔵野市","address":"東京都武蔵野市西久保3丁目1-22","lat":35.710772,"lon":139.562684},{"name":"武蔵野ふるさと歴史館","province":"東京都","city":"武蔵野市","address":"東京都武蔵野市境5丁目15-5","lat":35.702255,"lon":139.53473},{"name":"武蔵野市民文化会館","province":"東京都","city":"武蔵野市","address":"東京都武蔵野市中町3丁目9-11","lat":35.711548,"lon":139.56572},{"name":"武蔵野市民文化会館","province":"東京都","city":"武蔵野市","address":"東京都武蔵野市中町3丁目9-11","lat":35.711465,"lon":139.565666},{"name":"武蔵野市民文化会館","province":"東京都","city":"武蔵野市","address":"東京都武蔵野市中町3丁目9-11","lat":35.71161,"lon":139.566195},{"name":"武蔵野スイングホール","province":"東京都","city":"武蔵野市","address":"東京都武蔵野市境2丁目14-1","lat":35.702512,"lon":139.542911},{"name":"武蔵野スイングホール","province":"東京都","city":"武蔵野市","address":"東京都武蔵野市境2丁目14-1","lat":35.702845,"lon":139.542946},{"name":"武蔵野芸能劇場","province":"東京都","city":"武蔵野市","address":"東京都武蔵野市中町1丁目15-10","lat":35.703173,"lon":139.561613},{"name":"武蔵野芸能劇場","province":"東京都","city":"武蔵野市","address":"東京都武蔵野市中町1丁目15-10","lat":35.703105,"lon":139.561405},{"name":"武蔵野公会堂","province":"東京都","city":"武蔵野市","address":"東京都武蔵野市吉祥寺南町1丁目6","lat":35.701542,"lon":139.579636},{"name":"吉祥寺シアター","province":"東京都","city":"武蔵野市","address":"東京都武蔵野市吉祥寺本町1丁目33-22","lat":35.703833,"lon":139.583314},{"name":"かたらいの道市民スペース","province":"東京都","city":"武蔵野市","address":"東京都武蔵野市中町1丁目11-16","lat":35.705025,"lon":139.561509},{"name":"武蔵野市立吉祥寺美術館","province":"東京都","city":"武蔵野市","address":"東京都武蔵野市吉祥寺本町1丁目11-5","lat":35.704803,"lon":139.579048},{"name":"農業ふれあい公園","province":"東京都","city":"武蔵野市","address":"東京都武蔵野市関前5丁目19","lat":35.711103,"lon":139.540131},{"name":"むさしの市民公園","province":"東京都","city":"武蔵野市","address":"東京都武蔵野市緑町2丁目2","lat":35.716678,"lon":139.565725},{"name":"関前公園","province":"東京都","city":"武蔵野市","address":"東京都武蔵野市関前3丁目14","lat":35.713294,"lon":139.554647},{"name":"市民の森公園","province":"東京都","city":"武蔵野市","address":"東京都武蔵野市関前3丁目32","lat":35.714122,"lon":139.550758},{"name":"本田東公園","province":"東京都","city":"武蔵野市","address":"東京都武蔵野市吉祥寺東町4丁目18","lat":35.703961,"lon":139.594095},{"name":"玉川上水緑道","province":"東京都","city":"武蔵野市","address":"東京都武蔵野市境3丁目6","lat":35.709382,"lon":139.543973},{"name":"大野田公園","province":"東京都","city":"武蔵野市","address":"東京都武蔵野市吉祥寺北町4丁目11","lat":35.714489,"lon":139.566932},{"name":"吉祥寺東町農業公園","province":"東京都","city":"武蔵野市","address":"東京都武蔵野市吉祥寺東町3丁目15","lat":35.704356,"lon":139.587998},{"name":"吉祥寺駅南口公衆トイレ","province":"東京都","city":"武蔵野市","address":"東京都武蔵野市吉祥寺南町2丁目2","lat":35.70238,"lon":139.58025},{"name":"武蔵境駅南口公衆トイレ","province":"東京都","city":"武蔵野市","address":"東京都武蔵野市境南町2丁目1-13","lat":35.701798,"lon":139.543605},{"name":"桜堤公衆トイレ","province":"東京都","city":"武蔵野市","address":"東京都武蔵野市桜堤2丁目1-18","lat":35.70927,"lon":139.533012},{"name":"武蔵野総合体育館","province":"東京都","city":"武蔵野市","address":"東京都武蔵野市吉祥寺北町5丁目11-20","lat":35.717939,"lon":139.567535},{"name":"武蔵野総合体育館","province":"東京都","city":"武蔵野市","address":"東京都武蔵野市吉祥寺北町5丁目11-20","lat":35.717303,"lon":139.567273},{"name":"武蔵野総合体育館","province":"東京都","city":"武蔵野市","address":"東京都武蔵野市吉祥寺北町5丁目11-20","lat":35.717662,"lon":139.567516},{"name":"武蔵野総合体育館","province":"東京都","city":"武蔵野市","address":"東京都武蔵野市吉祥寺北町5丁目11-20","lat":35.717577,"lon":139.567498},{"name":"武蔵野陸上競技場","province":"東京都","city":"武蔵野市","address":"東京都武蔵野市吉祥寺北町5丁目11","lat":35.717743,"lon":139.567755},{"name":"武蔵野クリーンセンター","province":"東京都","city":"武蔵野市","address":"東京都武蔵野市緑町3丁目1","lat":35.719095,"lon":139.566081},{"name":"武蔵野クリーンセンター","province":"東京都","city":"武蔵野市","address":"東京都武蔵野市緑町3丁目1-5","lat":35.718439,"lon":139.566568}]}