{"keyword":"男女","data":[{"name":"吉祥寺保育園","province":"東京都","city":"武蔵野市","address":"武蔵野市吉祥寺北町5-11-51","lat":35.71797,"lon":139.569654},{"name":"北町保育園","province":"東京都","city":"武蔵野市","address":"武蔵野市吉祥寺北町1-23-17","lat":35.712198,"lon":139.577448},{"name":"東保育園","province":"東京都","city":"武蔵野市","address":"武蔵野市吉祥寺東町3-28-3","lat":35.706572,"lon":139.590883},{"name":"マミー吉祥寺東保育園","province":"東京都","city":"武蔵野市","address":"武蔵野市吉祥寺東町3-1-2","lat":35.704322,"lon":139.58637},{"name":"南保育園","province":"東京都","city":"武蔵野市","address":"武蔵野市吉祥寺南町3-6-15","lat":35.699433,"lon":139.58592},{"name":"まちの保育園　吉祥寺","province":"東京都","city":"武蔵野市","address":"武蔵野市吉祥寺本町3-27-13","lat":35.704032,"lon":139.56758},{"name":"うぃず吉祥寺第一保育園","province":"東京都","city":"武蔵野市","address":"武蔵野市吉祥寺本町2-35-12","lat":35.703635,"lon":139.574246},{"name":"うぃず吉祥寺第二保育園","province":"東京都","city":"武蔵野市","address":"武蔵野市吉祥寺本町2-23-4","lat":35.703335,"lon":139.574598},{"name":"武蔵野赤十字保育園","province":"東京都","city":"武蔵野市","address":"武蔵野市中町3-25-7","lat":35.708199,"lon":139.568235},{"name":"精華第一保育園","province":"東京都","city":"武蔵野市","address":"武蔵野市中町2-31-8","lat":35.705291,"lon":139.56761},{"name":"千川保育園","province":"東京都","city":"武蔵野市","address":"武蔵野市八幡町1-4-13","lat":35.716125,"lon":139.556063},{"name":"ニチイキッズ武蔵野やはた保育園","province":"東京都","city":"武蔵野市","address":"武蔵野市八幡町1-2-25","lat":35.716609,"lon":139.558291},{"name":"ふじの実保育園","province":"東京都","city":"武蔵野市","address":"武蔵野市緑町3-4-3","lat":35.720886,"lon":139.565287},{"name":"西久保保育園","province":"東京都","city":"武蔵野市","address":"武蔵野市西久保2-18-6","lat":35.709154,"lon":139.557283},{"name":"ありんこ保育園","province":"東京都","city":"武蔵野市","address":"武蔵野市西久保1-11-10","lat":35.704404,"lon":139.558289},{"name":"精華第二保育園","province":"東京都","city":"武蔵野市","address":"武蔵野市西久保2-15-3","lat":35.708623,"lon":139.558661},{"name":"キッズガーデン武蔵野関前","province":"東京都","city":"武蔵野市","address":"武蔵野市関前3-4-11アビタシオン武蔵野1階","lat":35.71397,"lon":139.556608},{"name":"桜堤保育園","province":"東京都","city":"武蔵野市","address":"武蔵野市桜堤2-1-27","lat":35.70794,"lon":139.532444},{"name":"境こども園","province":"東京都","city":"武蔵野市","address":"武蔵野市境4-11-6","lat":35.709887,"lon":139.539037},{"name":"境保育園","province":"東京都","city":"武蔵野市","address":"武蔵野市境4-11-3","lat":35.709984,"lon":139.53926},{"name":"武蔵境コスモ保育園","province":"東京都","city":"武蔵野市","address":"武蔵野市境1-20-5","lat":35.705046,"lon":139.547706},{"name":"ひまわり保育園","province":"東京都","city":"武蔵野市","address":"武蔵野市境4-7-12","lat":35.706876,"lon":139.541276},{"name":"境南保育園","province":"東京都","city":"武蔵野市","address":"武蔵野市境南町5-1-1","lat":35.697047,"lon":139.540782},{"name":"境南第２保育園","province":"東京都","city":"武蔵野市","address":"武蔵野市境南町2-20-17","lat":35.697741,"lon":139.54204},{"name":"グローバルキッズ武蔵境園","province":"東京都","city":"武蔵野市","address":"武蔵野市境南町4-2-19","lat":35.701882,"lon":139.535474},{"name":"境南すみれ保育園","province":"東京都","city":"武蔵野市","address":"武蔵野市境南町1-21-6","lat":35.698949,"lon":139.550145},{"name":"武蔵野赤十字病院","province":"東京都","city":"武蔵野市","address":"武蔵野市境南町1-26-1","lat":35.696886,"lon":139.54857},{"name":"子ども発達支援ルームおれんじ学園","province":"東京都","city":"武蔵野市","address":"武蔵野市吉祥寺北町3-5-8イトーピア吉祥寺1階-110","lat":35.710487,"lon":139.57104},{"name":"ビーキッズむさしの","province":"東京都","city":"武蔵野市","address":"武蔵野市吉祥寺南町3-7-1プランドールサンリョウ2階","lat":35.699553,"lon":139.58637},{"name":"児童発達支援・放課後等デイサービス　ささえ","province":"東京都","city":"武蔵野市","address":"武蔵野市吉祥寺本町一丁目35番14号","lat":35.703736,"lon":139.584806},{"name":"ＴＥＥＮＳ吉祥寺","province":"東京都","city":"武蔵野市","address":"武蔵野市吉祥寺本町2-25-12SantaFe1-C","lat":35.703874,"lon":139.574673},{"name":"スタジオそら武蔵野","province":"東京都","city":"武蔵野市","address":"武蔵野市中町1-23-12クレール武蔵野1階","lat":35.704513,"lon":139.563458},{"name":"子ども発達支援ルームおれんじ学園ｎｉｃｏ","province":"東京都","city":"武蔵野市","address":"武蔵野市中町1-19-8シティハイツ武蔵野1階","lat":35.704999,"lon":139.562672},{"name":"あすはＫｉｄｓ","province":"東京都","city":"武蔵野市","address":"武蔵野市八幡町1-6-1","lat":35.715089,"lon":139.55435},{"name":"千川さくらんぼクラブ","province":"東京都","city":"武蔵野市","address":"武蔵野市八幡町2-5-3武蔵野中央公園北ホール1階","lat":35.7214,"lon":139.559666},{"name":"ｗａｃｃａ","province":"東京都","city":"武蔵野市","address":"武蔵野市八幡町3-8-6ニューハイツ武蔵野1階","lat":35.716425,"lon":139.549872},{"name":"児童発達センター　ぽこあぽこ","province":"東京都","city":"武蔵野市","address":"武蔵野市境2-4-3スヤマ武蔵野1F","lat":35.706223,"lon":139.543173},{"name":"ロゼット","province":"東京都","city":"武蔵野市","address":"武蔵野市境1-4-5","lat":35.704085,"lon":139.544659},{"name":"手毬塾ウノ","province":"東京都","city":"武蔵野市","address":"武蔵野市境南町3-22-22","lat":35.698927,"lon":139.540029},{"name":"ウイングむさしの","province":"東京都","city":"武蔵野市","address":"武蔵野市境南町2-13-5グレーハイツ泉妻","lat":35.698619,"lon":139.543821},{"name":"武蔵野市立保健センター","province":"東京都","city":"武蔵野市","address":"武蔵野市吉祥寺北町4-8-10","lat":35.712923,"lon":139.566582},{"name":"玉川上水緑道","province":"東京都","city":"武蔵野市","address":"東京都武蔵野市境3丁目6","lat":35.709387,"lon":139.543974},{"name":"井の頭恩賜公園","province":"東京都","city":"武蔵野市","address":"東京都武蔵野市御殿山1丁目19","lat":35.699434,"lon":139.571379},{"name":"井の頭恩賜公園","province":"東京都","city":"武蔵野市","address":"東京都武蔵野市御殿山1丁目19","lat":35.699433,"lon":139.571379},{"name":"井の頭恩賜公園","province":"東京都","city":"武蔵野市","address":"東京都武蔵野市御殿山1丁目18","lat":35.700648,"lon":139.573718},{"name":"井の頭恩賜公園","province":"東京都","city":"武蔵野市","address":"東京都武蔵野市御殿山1丁目18","lat":35.700846,"lon":139.574472},{"name":"井の頭恩賜公園","province":"東京都","city":"武蔵野市","address":"東京都武蔵野市御殿山1丁目19","lat":35.699428,"lon":139.571345},{"name":"小金井公園","province":"東京都","city":"武蔵野市","address":"東京都武蔵野市桜堤3丁目21-1","lat":35.71404,"lon":139.527767},{"name":"小金井公園","province":"東京都","city":"武蔵野市","address":"東京都武蔵野市桜堤3丁目8","lat":35.713908,"lon":139.526692},{"name":"武蔵野中央公園","province":"東京都","city":"武蔵野市","address":"東京都武蔵野市八幡町2丁目4","lat":35.718037,"lon":139.556673},{"name":"武蔵野中央公園","province":"東京都","city":"武蔵野市","address":"東京都武蔵野市八幡町2丁目4","lat":35.717275,"lon":139.558496},{"name":"武蔵野中央公園","province":"東京都","city":"武蔵野市","address":"東京都武蔵野市八幡町2丁目4","lat":35.719302,"lon":139.560332},{"name":"井の頭自然文化園","province":"東京都","city":"武蔵野市","address":"東京都武蔵野市御殿山1丁目17","lat":35.701015,"lon":139.572365},{"name":"井の頭自然文化園","province":"東京都","city":"武蔵野市","address":"東京都武蔵野市御殿山1丁目17","lat":35.700359,"lon":139.571377},{"name":"井の頭自然文化園","province":"東京都","city":"武蔵野市","address":"東京都武蔵野市御殿山1丁目17","lat":35.701206,"lon":139.56985},{"name":"井の頭自然文化園","province":"東京都","city":"武蔵野市","address":"東京都武蔵野市御殿山1丁目17","lat":35.702242,"lon":139.570267},{"name":"井の頭自然文化園","province":"東京都","city":"武蔵野市","address":"東京都武蔵野市御殿山1丁目17","lat":35.700425,"lon":139.569227},{"name":"武蔵野消防署","province":"東京都","city":"武蔵野市","address":"東京都武蔵野市吉祥寺北町4丁目6-1","lat":35.71165,"lon":139.567311},{"name":"武蔵野消防署武蔵境出張所","province":"東京都","city":"武蔵野市","address":"東京都武蔵野市境南町1丁目26-38","lat":35.695988,"lon":139.546944},{"name":"武蔵野消防署吉祥寺出張所","province":"東京都","city":"武蔵野市","address":"東京都武蔵野市吉祥寺東町1丁目1-21","lat":35.707205,"lon":139.58012},{"name":"西久保公園","province":"東京都","city":"武蔵野市","address":"東京都武蔵野市西久保1丁目43","lat":35.705974,"lon":139.553659},{"name":"武蔵野市役所本庁舎","province":"東京都","city":"武蔵野市","address":"東京都武蔵野市緑町2丁目2-28","lat":35.717857,"lon":139.566017},{"name":"武蔵野市役所本庁舎","province":"東京都","city":"武蔵野市","address":"東京都武蔵野市緑町2丁目2-28","lat":35.717629,"lon":139.565918},{"name":"中央市政センター","province":"東京都","city":"武蔵野市","address":"東京都武蔵野市中町1丁目2-8","lat":35.7037,"lon":139.559772},{"name":"吉祥寺市政センター","province":"東京都","city":"武蔵野市","address":"東京都武蔵野市吉祥寺本町1丁目10-7","lat":35.705776,"lon":139.578917},{"name":"武蔵野市立武蔵野商工会館","province":"東京都","city":"武蔵野市","address":"東京都武蔵野市吉祥寺本町1丁目10-7","lat":35.705759,"lon":139.578978},{"name":"武蔵野市立武蔵野商工会館","province":"東京都","city":"武蔵野市","address":"東京都武蔵野市吉祥寺本町1丁目10-7","lat":35.705778,"lon":139.578929},{"name":"吉祥寺東コミュニティセンター","province":"東京都","city":"武蔵野市","address":"東京都武蔵野市吉祥寺東町1丁目12","lat":35.707681,"lon":139.58403},{"name":"本宿コミュニティセンター","province":"東京都","city":"武蔵野市","address":"東京都武蔵野市吉祥寺東町3丁目25-2","lat":35.704047,"lon":139.590046},{"name":"吉祥寺南町コミュニティセンター","province":"東京都","city":"武蔵野市","address":"東京都武蔵野市吉祥寺南町3丁目13-1","lat":35.699206,"lon":139.586628},{"name":"御殿山コミュニティセンター","province":"東京都","city":"武蔵野市","address":"東京都武蔵野市御殿山1丁目5-11","lat":35.702284,"lon":139.57583},{"name":"本町コミュニティセンター","province":"東京都","city":"武蔵野市","address":"東京都武蔵野市吉祥寺本町1丁目22","lat":35.704455,"lon":139.581971},{"name":"吉祥寺西コミュニティセンター","province":"東京都","city":"武蔵野市","address":"東京都武蔵野市吉祥寺本町3丁目20-17","lat":35.705789,"lon":139.570014},{"name":"吉祥寺北コミュニティセンター","province":"東京都","city":"武蔵野市","address":"東京都武蔵野市吉祥寺北町1丁目22-10","lat":35.712271,"lon":139.578005},{"name":"けやきコミュニティセンター","province":"東京都","city":"武蔵野市","address":"東京都武蔵野市吉祥寺北町5丁目6-19","lat":35.717833,"lon":139.571726},{"name":"中央コミュニティセンター","province":"東京都","city":"武蔵野市","address":"東京都武蔵野市中町3丁目5-17","lat":35.711135,"lon":139.564999},{"name":"西久保コミュニティセンター","province":"東京都","city":"武蔵野市","address":"東京都武蔵野市西久保1丁目23-7","lat":35.705981,"lon":139.556916},{"name":"緑町コミュニティセンター","province":"東京都","city":"武蔵野市","address":"東京都武蔵野市緑町3丁目1-17","lat":35.720033,"lon":139.565766},{"name":"八幡町コミュニティセンター","province":"東京都","city":"武蔵野市","address":"東京都武蔵野市八幡町3丁目3-16","lat":35.71699,"lon":139.552463},{"name":"八幡町コミュニティセンター","province":"東京都","city":"武蔵野市","address":"東京都武蔵野市八幡町3丁目3-16","lat":35.716983,"lon":139.552392},{"name":"関前コミュニティセンター","province":"東京都","city":"武蔵野市","address":"東京都武蔵野市関前2丁目26-10","lat":35.712854,"lon":139.549135},{"name":"西部コミュニティセンター","province":"東京都","city":"武蔵野市","address":"東京都武蔵野市境5丁目6-20","lat":35.706446,"lon":139.535561},{"name":"西部コミュニティセンター","province":"東京都","city":"武蔵野市","address":"東京都武蔵野市境5丁目6-20","lat":35.706446,"lon":139.535581},{"name":"桜堤コミュニティセンター","province":"東京都","city":"武蔵野市","address":"東京都武蔵野市桜堤3丁目3-11","lat":35.714848,"lon":139.528861},{"name":"市民会館","province":"東京都","city":"武蔵野市","address":"東京都武蔵野市境2丁目3-7","lat":35.70527,"lon":139.543419},{"name":"市民会館","province":"東京都","city":"武蔵野市","address":"東京都武蔵野市境2丁目3-7","lat":35.705288,"lon":139.543419},{"name":"境南コミュニティセンター","province":"東京都","city":"武蔵野市","address":"東京都武蔵野市境南町3丁目22-9","lat":35.698249,"lon":139.540109},{"name":"武蔵野市立保健センター","province":"東京都","city":"武蔵野市","address":"東京都武蔵野市吉祥寺北町4丁目8-10","lat":35.712866,"lon":139.566532},{"name":"武蔵野市立中央図書館","province":"東京都","city":"武蔵野市","address":"東京都武蔵野市吉祥寺北町4丁目8-3","lat":35.712507,"lon":139.566331},{"name":"武蔵野市立中央図書館","province":"東京都","city":"武蔵野市","address":"東京都武蔵野市吉祥寺北町4丁目8-3","lat":35.712482,"lon":139.566319},{"name":"武蔵野市立吉祥寺図書館","province":"東京都","city":"武蔵野市","address":"東京都武蔵野市吉祥寺本町1丁目21-13","lat":35.70501,"lon":139.582381},{"name":"武蔵野プレイス（図書館、会議出、スタジオ等複合施設）","province":"東京都","city":"武蔵野市","address":"東京都武蔵野市境南町2丁目3-18","lat":35.701022,"lon":139.543796},{"name":"武蔵野プレイス（図書館、会議出、スタジオ等複合施設）","province":"東京都","city":"武蔵野市","address":"東京都武蔵野市境南町2丁目3-18","lat":35.701094,"lon":139.543762},{"name":"武蔵野三鷹地域センター","province":"東京都","city":"武蔵野市","address":"東京都武蔵野市西久保3丁目1-22","lat":35.710772,"lon":139.562684},{"name":"武蔵野ふるさと歴史館","province":"東京都","city":"武蔵野市","address":"東京都武蔵野市境5丁目15-5","lat":35.702255,"lon":139.53473},{"name":"武蔵野市民文化会館","province":"東京都","city":"武蔵野市","address":"東京都武蔵野市中町3丁目9-11","lat":35.711548,"lon":139.56572},{"name":"武蔵野市民文化会館","province":"東京都","city":"武蔵野市","address":"東京都武蔵野市中町3丁目9-11","lat":35.711465,"lon":139.565666},{"name":"武蔵野市民文化会館","province":"東京都","city":"武蔵野市","address":"東京都武蔵野市中町3丁目9-11","lat":35.71161,"lon":139.566195},{"name":"武蔵野スイングホール","province":"東京都","city":"武蔵野市","address":"東京都武蔵野市境2丁目14-1","lat":35.702512,"lon":139.542911},{"name":"武蔵野スイングホール","province":"東京都","city":"武蔵野市","address":"東京都武蔵野市境2丁目14-1","lat":35.702845,"lon":139.542946},{"name":"武蔵野芸能劇場","province":"東京都","city":"武蔵野市","address":"東京都武蔵野市中町1丁目15-10","lat":35.703173,"lon":139.561613},{"name":"武蔵野芸能劇場","province":"東京都","city":"武蔵野市","address":"東京都武蔵野市中町1丁目15-10","lat":35.703105,"lon":139.561405},{"name":"武蔵野公会堂","province":"東京都","city":"武蔵野市","address":"東京都武蔵野市吉祥寺南町1丁目6","lat":35.701542,"lon":139.579636},{"name":"吉祥寺シアター","province":"東京都","city":"武蔵野市","address":"東京都武蔵野市吉祥寺本町1丁目33-22","lat":35.703833,"lon":139.583314},{"name":"かたらいの道市民スペース","province":"東京都","city":"武蔵野市","address":"東京都武蔵野市中町1丁目11-16","lat":35.705025,"lon":139.561509},{"name":"武蔵野市立吉祥寺美術館","province":"東京都","city":"武蔵野市","address":"東京都武蔵野市吉祥寺本町1丁目11-5","lat":35.704803,"lon":139.579048},{"name":"農業ふれあい公園","province":"東京都","city":"武蔵野市","address":"東京都武蔵野市関前5丁目19","lat":35.711103,"lon":139.540131},{"name":"むさしの市民公園","province":"東京都","city":"武蔵野市","address":"東京都武蔵野市緑町2丁目2","lat":35.716678,"lon":139.565725},{"name":"関前公園","province":"東京都","city":"武蔵野市","address":"東京都武蔵野市関前3丁目14","lat":35.713294,"lon":139.554647},{"name":"市民の森公園","province":"東京都","city":"武蔵野市","address":"東京都武蔵野市関前3丁目32","lat":35.714122,"lon":139.550758},{"name":"本田東公園","province":"東京都","city":"武蔵野市","address":"東京都武蔵野市吉祥寺東町4丁目18","lat":35.703961,"lon":139.594095},{"name":"玉川上水緑道","province":"東京都","city":"武蔵野市","address":"東京都武蔵野市境3丁目6","lat":35.709382,"lon":139.543973},{"name":"大野田公園","province":"東京都","city":"武蔵野市","address":"東京都武蔵野市吉祥寺北町4丁目11","lat":35.714489,"lon":139.566932},{"name":"吉祥寺東町農業公園","province":"東京都","city":"武蔵野市","address":"東京都武蔵野市吉祥寺東町3丁目15","lat":35.704356,"lon":139.587998},{"name":"吉祥寺駅南口公衆トイレ","province":"東京都","city":"武蔵野市","address":"東京都武蔵野市吉祥寺南町2丁目2","lat":35.70238,"lon":139.58025},{"name":"武蔵境駅南口公衆トイレ","province":"東京都","city":"武蔵野市","address":"東京都武蔵野市境南町2丁目1-13","lat":35.701798,"lon":139.543605},{"name":"桜堤公衆トイレ","province":"東京都","city":"武蔵野市","address":"東京都武蔵野市桜堤2丁目1-18","lat":35.70927,"lon":139.533012},{"name":"武蔵野総合体育館","province":"東京都","city":"武蔵野市","address":"東京都武蔵野市吉祥寺北町5丁目11-20","lat":35.717939,"lon":139.567535},{"name":"武蔵野総合体育館","province":"東京都","city":"武蔵野市","address":"東京都武蔵野市吉祥寺北町5丁目11-20","lat":35.717303,"lon":139.567273},{"name":"武蔵野総合体育館","province":"東京都","city":"武蔵野市","address":"東京都武蔵野市吉祥寺北町5丁目11-20","lat":35.717662,"lon":139.567516},{"name":"武蔵野総合体育館","province":"東京都","city":"武蔵野市","address":"東京都武蔵野市吉祥寺北町5丁目11-20","lat":35.717577,"lon":139.567498},{"name":"武蔵野陸上競技場","province":"東京都","city":"武蔵野市","address":"東京都武蔵野市吉祥寺北町5丁目11","lat":35.717743,"lon":139.567755},{"name":"武蔵野クリーンセンター","province":"東京都","city":"武蔵野市","address":"東京都武蔵野市緑町3丁目1","lat":35.719095,"lon":139.566081},{"name":"武蔵野クリーンセンター","province":"東京都","city":"武蔵野市","address":"東京都武蔵野市緑町3丁目1-5","lat":35.718439,"lon":139.566568},{"name":"中央図書館","province":"東京都","city":"武蔵野市","address":"東京都武蔵野市吉祥寺北町4丁目8-3","lat":35.71250641,"lon":139.56619043},{"name":"吉祥寺図書館","province":"東京都","city":"武蔵野市","address":"東京都武蔵野市吉祥寺本町1丁目21-13","lat":35.70499371,"lon":139.58227267},{"name":"武蔵野プレイス","province":"東京都","city":"武蔵野市","address":"東京都武蔵野市境南町2丁目3-18","lat":35.70116002,"lon":139.54368185},{"name":"ゆとりえもったいない食堂","province":"東京都","city":"武蔵野市","address":"東京都武蔵野市吉祥寺南町4丁目25-5","lat":35.6987502,"lon":139.59153881},{"name":"わいわいライス","province":"東京都","city":"武蔵野市","address":"東京都武蔵野市緑町1丁目5-22","lat":35.71384782,"lon":139.56157413},{"name":"ミュー食堂","province":"東京都","city":"武蔵野市","address":"東京都武蔵野市中町3丁目4-9","lat":35.71224251,"lon":139.56427951},{"name":"ファイブグループこども食堂","province":"東京都","city":"武蔵野市","address":"東京都武蔵野市吉祥寺本町1丁目22-1","lat":35.70439655,"lon":139.58180885},{"name":"PERSONAL SUITE 吉祥寺","province":"東京都","city":"武蔵野市","address":"東京都武蔵野市吉祥寺南町1丁目6-3","lat":35.70178292,"lon":139.58025352},{"name":"NewWork三鷹","province":"東京都","city":"武蔵野市","address":"東京都武蔵野市中町1丁目9-5","lat":35.70520156,"lon":139.56028851},{"name":"NewWork東急百貨店吉祥寺店","province":"東京都","city":"武蔵野市","address":"東京都武蔵野市吉祥寺本町2丁目3-1","lat":35.70503805,"lon":139.57783694},{"name":"井の頭恩賜公園","province":"東京都","city":"武蔵野市","address":"東京都武蔵野市御殿山一丁目、吉祥寺南町一丁目、三鷹市井の頭三・四・五丁目、下連雀一丁目、牟礼四丁目","lat":35.7007,"lon":139.574491},{"name":"武蔵野中央公園","province":"東京都","city":"武蔵野市","address":"東京都武蔵野市八幡町二丁目","lat":35.718669,"lon":139.55854},{"name":"第一浄水場","province":"東京都","city":"武蔵野市","address":"東京都武蔵野市吉祥寺北町4-11-46","lat":35.7152429,"lon":139.566641},{"name":"第二浄水場","province":"東京都","city":"武蔵野市","address":"東京都武蔵野市桜堤1-6-6","lat":35.709673,"lon":139.53636},{"name":"北町保育園","province":"東京都","city":"武蔵野市","address":"武蔵野市吉祥寺北町1-23-17","lat":35.71138,"lon":139.57713},{"name":"吉祥寺保育園","province":"東京都","city":"武蔵野市","address":"武蔵野市吉祥寺北町5-11-51","lat":35.71741,"lon":139.56822},{"name":"吉祥寺東町すみれ保育園","province":"東京都","city":"武蔵野市","address":"武蔵野市吉祥寺東町2-6-2","lat":35.71033,"lon":139.58121},{"name":"マミー吉祥寺保育園","province":"東京都","city":"武蔵野市","address":"武蔵野市吉祥寺東町3-1-2","lat":35.70466,"lon":139.58682},{"name":"東保育園","province":"東京都","city":"武蔵野市","address":"武蔵野市吉祥寺東町3-28-3","lat":35.70659,"lon":139.59119},{"name":"南保育園","province":"東京都","city":"武蔵野市","address":"武蔵野市吉祥寺南町3-6-15","lat":35.69912,"lon":139.58578},{"name":"吉祥寺きらめき保育園","province":"東京都","city":"武蔵野市","address":"武蔵野市吉祥寺南町3-8-15","lat":35.69807,"lon":139.5856},{"name":"キッズいながき保育園吉祥寺","province":"東京都","city":"武蔵野市","address":"武蔵野市吉祥寺南町5丁目3番9号","lat":35.70345,"lon":139.59075},{"name":"うぃず吉祥寺第二保育園","province":"東京都","city":"武蔵野市","address":"武蔵野市吉祥寺本町2-23-4","lat":35.70338,"lon":139.57454},{"name":"うぃず吉祥寺第一保育園","province":"東京都","city":"武蔵野市","address":"武蔵野市吉祥寺本町2-35-12","lat":35.70346,"lon":139.57388},{"name":"まちの保育園　吉祥寺","province":"東京都","city":"武蔵野市","address":"武蔵野市吉祥寺本町3-27-13","lat":35.70387,"lon":139.56815},{"name":"ピノキオ幼児舎吉祥寺保育園","province":"東京都","city":"武蔵野市","address":"武蔵野市吉祥寺本町4-10-10","lat":35.7087,"lon":139.57426},{"name":"中町すみれ保育園","province":"東京都","city":"武蔵野市","address":"武蔵野市中町2-2-5クロフトコテージ1階","lat":35.70667,"lon":139.56111},{"name":"精華第一保育園","province":"東京都","city":"武蔵野市","address":"武蔵野市中町2-31-8","lat":35.70523,"lon":139.5676},{"name":"むくむくみらい保育園","province":"東京都","city":"武蔵野市","address":"武蔵野市中町2-5-9","lat":35.70833,"lon":139.56205},{"name":"武蔵野赤十字保育園","province":"東京都","city":"武蔵野市","address":"武蔵野市中町3-25-7","lat":35.70804,"lon":139.56815},{"name":"ニチイキッズ武蔵野やはた保育園","province":"東京都","city":"武蔵野市","address":"武蔵野市八幡町1-2-25","lat":35.71559,"lon":139.55724},{"name":"千川保育園","province":"東京都","city":"武蔵野市","address":"武蔵野市八幡町1-4-13","lat":35.71726,"lon":139.55684},{"name":"ふじの実保育園","province":"東京都","city":"武蔵野市","address":"武蔵野市緑町3-4-3","lat":35.72097,"lon":139.56549},{"name":"ありんこ保育園","province":"東京都","city":"武蔵野市","address":"武蔵野市西久保1-11-10","lat":35.70433,"lon":139.558},{"name":"精華第二保育園","province":"東京都","city":"武蔵野市","address":"武蔵野市西久保2-15-3","lat":35.70917,"lon":139.55879},{"name":"西久保保育園","province":"東京都","city":"武蔵野市","address":"武蔵野市西久保2-18-6","lat":35.70901,"lon":139.55742},{"name":"ミアヘルサ保育園ひびき武蔵野西久保","province":"東京都","city":"武蔵野市","address":"武蔵野市西久保2丁目27番15号","lat":35.70911,"lon":139.55533},{"name":"武蔵野もみじの森保育園","province":"東京都","city":"武蔵野市","address":"武蔵野市関前3-12-1","lat":35.71201,"lon":139.55421},{"name":"キッズガーデン武蔵野関前","province":"東京都","city":"武蔵野市","address":"武蔵野市関前3-4-11アビタシオン武蔵野1階","lat":35.71357,"lon":139.55621},{"name":"桜堤保育園","province":"東京都","city":"武蔵野市","address":"武蔵野市桜堤2-1-27","lat":35.70765,"lon":139.53267},{"name":"このえ武蔵境保育園","province":"東京都","city":"武蔵野市","address":"武蔵野市境1-16-26","lat":35.70338,"lon":139.54822},{"name":"武蔵境コスモ保育園","province":"東京都","city":"武蔵野市","address":"武蔵野市境1-20-5","lat":35.70529,"lon":139.54817},{"name":"武蔵境すみれ保育園","province":"東京都","city":"武蔵野市","address":"武蔵野市境1丁目17番26号グレースフラットサカイ","lat":35.70363,"lon":139.54669},{"name":"境保育園","province":"東京都","city":"武蔵野市","address":"武蔵野市境4-11-3","lat":35.71011,"lon":139.53857},{"name":"境こども園","province":"東京都","city":"武蔵野市","address":"武蔵野市境4-11-6","lat":35.7095759,"lon":139.539167},{"name":"ひまわり保育園","province":"東京都","city":"武蔵野市","address":"武蔵野市境4-7-12","lat":35.70688,"lon":139.54129},{"name":"まなびの森保育園武蔵境","province":"東京都","city":"武蔵野市","address":"武蔵野市境5-2-11","lat":35.70311,"lon":139.53775},{"name":"境南すみれ保育園","province":"東京都","city":"武蔵野市","address":"武蔵野市境南町1-21-6","lat":35.69888,"lon":139.54977},{"name":"境南第２保育園","province":"東京都","city":"武蔵野市","address":"武蔵野市境南町2-20-17","lat":35.69757,"lon":139.5416},{"name":"グローバルキッズ武蔵境園","province":"東京都","city":"武蔵野市","address":"武蔵野市境南町4-2-19","lat":35.70179,"lon":139.53606},{"name":"境南保育園","province":"東京都","city":"武蔵野市","address":"武蔵野市境南町5-1-1","lat":35.69632,"lon":139.54092},{"name":"武蔵野赤十字病院","province":"東京都","city":"武蔵野市","address":"武蔵野市境南町1-26-1","lat":35.69767,"lon":139.54785},{"name":"赤十字子供の家","province":"東京都","city":"武蔵野市","address":"武蔵野市境南町1-26-27","lat":35.69767,"lon":139.54785},{"name":"のぞみの家","province":"東京都","city":"武蔵野市","address":"武蔵野市境南町5-6-21","lat":35.69706,"lon":139.53819},{"name":"武蔵野市","province":"東京都","city":"武蔵野市","address":"武蔵野市緑町2-2-28","lat":35.71776,"lon":139.56586},{"name":"武蔵野市地域包括支援センター（基幹型）","province":"東京都","city":"武蔵野市","address":"武蔵野市緑町2-2-28/(武蔵野市役所内)","lat":35.717499,"lon":139.566452},{"name":"ゆとりえ在宅介護・地域包括支援センター","province":"東京都","city":"武蔵野市","address":"武蔵野市吉祥寺南町4-25-5","lat":35.69886,"lon":139.591843},{"name":"吉祥寺本町在宅介護・地域包括支援センター","province":"東京都","city":"武蔵野市","address":"武蔵野市吉祥寺本町4-20-13","lat":35.706207,"lon":139.571945},{"name":"高齢者総合センター在宅介護・地域包括支援センター","province":"東京都","city":"武蔵野市","address":"武蔵野市緑町2-4-1","lat":35.715225,"lon":139.562561},{"name":"吉祥寺ナーシング  ホーム在宅介護・地域包括支援センター","province":"東京都","city":"武蔵野市","address":"武蔵野市吉祥寺北町2-9-2","lat":35.712109,"lon":139.578995},{"name":"桜堤ケアハウス在宅介護・地域包括支援センター","province":"東京都","city":"武蔵野市","address":"武蔵野市桜堤1-9-9","lat":35.711014,"lon":139.533569},{"name":"武蔵野赤十字在宅介護・地域包括支援センター","province":"東京都","city":"武蔵野市","address":"武蔵野市境南町1-26-1武蔵野赤十字病院内","lat":35.697906,"lon":139.548782},{"name":"武蔵野市消費生活センター","province":"東京都","city":"武蔵野市","address":"武蔵野市吉祥寺本町1-10-7武蔵野商工会館3階","lat":35.7057,"lon":139.578735},{"name":"武蔵野市障害者福祉センター","province":"東京都","city":"武蔵野市","address":"東京都武蔵野市八幡町4丁目28-13","lat":35.7199942,"lon":139.5544467},{"name":"高次脳機能障害相談室ゆいっと","province":"東京都","city":"武蔵野市","address":"東京都武蔵野市八幡町4丁目28-13","lat":35.7199942,"lon":139.5544467},{"name":"生活リハビリサポートすばる","province":"東京都","city":"武蔵野市","address":"東京都武蔵野市八幡町4丁目28-13","lat":35.7199942,"lon":139.5544467},{"name":"社会福祉法人武蔵野デイセンターふれあい","province":"東京都","city":"武蔵野市","address":"東京都武蔵野市吉祥寺北町4丁目11-16","lat":35.71575047,"lon":139.56590143},{"name":"社会福祉法人武蔵野ワークセンターけやき","province":"東京都","city":"武蔵野市","address":"東京都武蔵野市吉祥寺北町4丁目11-16","lat":35.71575047,"lon":139.56590143},{"name":"社会福祉法人武蔵野ジョブアシストいんくる","province":"東京都","city":"武蔵野市","address":"東京都武蔵野市中町1丁目28-10","lat":35.70385735,"lon":139.56452984},{"name":"アビリティーズジャスコ武蔵境センター","province":"東京都","city":"武蔵野市","address":"東京都武蔵野市境南町2丁目3-16","lat":35.70107392,"lon":139.54416792},{"name":"Cocorport三鷹駅前Office","province":"東京都","city":"武蔵野市","address":"東京都武蔵野市中町1丁目13-3","lat":35.70390172,"lon":139.56073297},{"name":"一般社団法人ルンアルン","province":"東京都","city":"武蔵野市","address":"東京都武蔵野市中町1丁目34-5","lat":35.70337965,"lon":139.56566864},{"name":"株式会社ＣＲＳサービスディーキャリア武蔵境オフィス","province":"東京都","city":"武蔵野市","address":"東京都武蔵野市境2丁目2-19","lat":35.70393193,"lon":139.54394838},{"name":"特定非営利活動法人ミューワークショップMEW","province":"東京都","city":"武蔵野市","address":"東京都武蔵野市中町3丁目4-9","lat":35.71224251,"lon":139.56427951},{"name":"ニューロワークス吉祥寺センター","province":"東京都","city":"武蔵野市","address":"東京都武蔵野市御殿山1丁目6-11","lat":35.70297432,"lon":139.57495115},{"name":"就労移行支援事業所TODAY吉祥寺","province":"東京都","city":"武蔵野市","address":"東京都武蔵野市吉祥寺本町3丁目21-12","lat":35.70507953,"lon":139.56946822},{"name":"マミー吉祥寺東保育園","province":"東京都","city":"武蔵野市","address":"武蔵野市吉祥寺東町3-1-2","lat":35.70466,"lon":139.58682},{"name":"キッズいながき保育園吉祥寺","province":"東京都","city":"武蔵野市","address":"武蔵野市吉祥寺南町5-3-9","lat":35.70364693,"lon":139.5907649},{"name":"むくむくみらい保育園","province":"東京都","city":"武蔵野市","address":"武蔵野市中町2-5-9","lat":35.70853019,"lon":139.5620033},{"name":"キッズいながき保育園吉祥寺","province":"東京都","city":"武蔵野市","address":"武蔵野市吉祥寺南町5丁目3番9号","lat":35.70284,"lon":139.59019},{"name":"むくむくみらい保育園","province":"東京都","city":"武蔵野市","address":"武蔵野市中町2-5-9","lat":35.70788,"lon":139.56203},{"name":"赤十字子供の家","province":"東京都","city":"武蔵野市","address":"武蔵野市境南町1-26-27","lat":35.697783,"lon":139.54676},{"name":"のぞみの家","province":"東京都","city":"武蔵野市","address":"武蔵野市境南町5-6-21","lat":35.697344,"lon":139.538138},{"name":"中町すみれ保育園","province":"東京都","city":"武蔵野市","address":"武蔵野市中町2-5-5クロフトコテージ1階","lat":35.70788,"lon":139.56203},{"name":"吉祥寺保育園","province":"東京都","city":"武蔵野市","address":"武蔵野市吉祥寺北町5-11-51","lat":35.71742,"lon":139.56822},{"name":"南保育園","province":"東京都","city":"武蔵野市","address":"武蔵野市吉祥寺南町3-6-15","lat":35.69912,"lon":139.58579},{"name":"うぃず吉祥寺第一保育園","province":"東京都","city":"武蔵野市","address":"武蔵野市吉祥寺本町2-35-12","lat":35.70347,"lon":139.57388},{"name":"ピノキオ幼児舎吉祥寺保育園","province":"東京都","city":"武蔵野市","address":"武蔵野市吉祥寺本町4-10-10","lat":35.7087,"lon":139.57427},{"name":"境南第２保育園","province":"東京都","city":"武蔵野市","address":"武蔵野市境南町2-20-17","lat":35.69758,"lon":139.5416},{"name":"柳橋","province":"東京都","city":"武蔵野市","address":"東京都武蔵野市関前4丁目9-6","lat":35.71390857,"lon":139.54426177},{"name":"八幡宮前","province":"東京都","city":"武蔵野市","address":"東京都武蔵野市吉祥寺北町1丁目1-1","lat":35.70768778,"lon":139.57936447},{"name":"成蹊学園前","province":"東京都","city":"武蔵野市","address":"東京都武蔵野市吉祥寺北町3丁目4-4","lat":35.70982628,"lon":139.57273719},{"name":"吉祥寺駅南口","province":"東京都","city":"武蔵野市","address":"東京都武蔵野市吉祥寺南町1丁目2-7","lat":35.7021773,"lon":139.57981188},{"name":"昭和通り","province":"東京都","city":"武蔵野市","address":"東京都武蔵野市吉祥寺本町2丁目3-1","lat":35.70503805,"lon":139.57783694},{"name":"武蔵野中央","province":"東京都","city":"武蔵野市","address":"東京都武蔵野市吉祥寺北町4丁目13-5","lat":35.71290632,"lon":139.56433503},{"name":"境南町二丁目","province":"東京都","city":"武蔵野市","address":"東京都武蔵野市境南町2丁目27-1","lat":35.69778541,"lon":139.54415695},{"name":"八幡町四丁目","province":"東京都","city":"武蔵野市","address":"東京都武蔵野市八幡町4丁目1-6","lat":35.71834718,"lon":139.55548001},{"name":"西久保三丁目","province":"東京都","city":"武蔵野市","address":"東京都武蔵野市緑町1丁目4-19","lat":35.71427001,"lon":139.56194908},{"name":"武蔵野市営プール前","province":"東京都","city":"武蔵野市","address":"東京都武蔵野市吉祥寺北町5丁目11-30","lat":35.71970841,"lon":139.56803997},{"name":"武蔵野警察署前","province":"東京都","city":"武蔵野市","address":"東京都武蔵野市中町1丁目11-4","lat":35.70555431,"lon":139.5608801},{"name":"吉祥寺駅前","province":"東京都","city":"武蔵野市","address":"東京都武蔵野市吉祥寺南町1丁目1-10","lat":35.70291328,"lon":139.57760649},{"name":"関前橋","province":"東京都","city":"武蔵野市","address":"東京都武蔵野市八幡町2丁目3-10","lat":35.71979428,"lon":139.55733535},{"name":"武蔵野市立三中入口","province":"東京都","city":"武蔵野市","address":"東京都武蔵野市吉祥寺東町1丁目18-19","lat":35.70514929,"lon":139.58430582},{"name":"日本獣医大前","province":"東京都","city":"武蔵野市","address":"東京都武蔵野市境南町2丁目2-20","lat":35.70121006,"lon":139.54586777},{"name":"吉祥寺本町一丁目","province":"東京都","city":"武蔵野市","address":"東京都武蔵野市吉祥寺本町1丁目37-8","lat":35.70371339,"lon":139.58626961},{"name":"武蔵野五小入口","province":"東京都","city":"武蔵野市","address":"東京都武蔵野市関前3丁目3-14","lat":35.71374498,"lon":139.55747727},{"name":"武蔵野大学","province":"東京都","city":"武蔵野市","address":"東京都武蔵野市八幡町3丁目8-7","lat":35.71683614,"lon":139.55066661},{"name":"境二丁目第一","province":"東京都","city":"武蔵野市","address":"東京都武蔵野市境2丁目7-1","lat":35.70459295,"lon":139.54319563},{"name":"境二丁目第二","province":"東京都","city":"武蔵野市","address":"東京都武蔵野市境2丁目2-17","lat":35.70420134,"lon":139.54395948},{"name":"中央通り","province":"東京都","city":"武蔵野市","address":"東京都武蔵野市中町2丁目4-15","lat":35.70679308,"lon":139.56185774},{"name":"武蔵野赤十字前","province":"東京都","city":"武蔵野市","address":"東京都武蔵野市境南町1丁目26-1","lat":35.69687727,"lon":139.54853159},{"name":"千川小前","province":"東京都","city":"武蔵野市","address":"東京都武蔵野市八幡町3丁目5-25","lat":35.718561,"lon":139.55351074},{"name":"武蔵野緑町","province":"東京都","city":"武蔵野市","address":"東京都武蔵野市吉祥寺北町4丁目13-16","lat":35.71432283,"lon":139.56484604},{"name":"境一丁目","province":"東京都","city":"武蔵野市","address":"東京都武蔵野市境1丁目19-1","lat":35.70439582,"lon":139.54662868},{"name":"武蔵野市立高齢者総合センター前","province":"東京都","city":"武蔵野市","address":"東京都武蔵野市緑町1丁目3-17","lat":35.71495606,"lon":139.5627212},{"name":"吉祥寺南町第二","province":"東京都","city":"武蔵野市","address":"東京都武蔵野市吉祥寺本町2丁目2-17","lat":35.70368263,"lon":139.5772787},{"name":"武蔵野市民文化会館前","province":"東京都","city":"武蔵野市","address":"東京都武蔵野市中町3丁目9-11","lat":35.71150095,"lon":139.56584885},{"name":"武蔵野欅橋","province":"東京都","city":"武蔵野市","address":"東京都武蔵野市中町1丁目3-1","lat":35.70382947,"lon":139.55909423},{"name":"吉祥寺駅南口第二","province":"東京都","city":"武蔵野市","address":"東京都武蔵野市吉祥寺南町1丁目2-3","lat":35.70208566,"lon":139.58011741},{"name":"吉祥寺南町三丁目","province":"東京都","city":"武蔵野市","address":"東京都武蔵野市吉祥寺南町3丁目13-2","lat":35.69855843,"lon":139.58629759},{"name":"境南小学校裏","province":"東京都","city":"武蔵野市","address":"東京都武蔵野市境南町2丁目11","lat":35.69860479,"lon":139.54582344},{"name":"吉祥寺駅東口交番","province":"東京都","city":"武蔵野市","address":"東京都武蔵野市吉祥寺本町1丁目17-12","lat":35.7035244,"lon":139.58108394},{"name":"吉祥寺駅北","province":"東京都","city":"武蔵野市","address":"東京都武蔵野市吉祥寺東町1丁目7-1","lat":35.70641576,"lon":139.58168377},{"name":"武蔵野中町二丁目","province":"東京都","city":"武蔵野市","address":"東京都武蔵野市中町2丁目9-32","lat":35.70732086,"lon":139.56512686},{"name":"吉祥寺駅北第二","province":"東京都","city":"武蔵野市","address":"東京都武蔵野市吉祥寺東町1丁目6-27","lat":35.70642131,"lon":139.58140602},{"name":"自然文化園前","province":"東京都","city":"武蔵野市","address":"東京都武蔵野市御殿山1丁目17","lat":35.70006898,"lon":139.56964063},{"name":"商工会館前","province":"東京都","city":"武蔵野市","address":"東京都武蔵野市吉祥寺本町1丁目10-5","lat":35.70538247,"lon":139.57861741},{"name":"本町新道","province":"東京都","city":"武蔵野市","address":"東京都武蔵野市吉祥寺本町1丁目13-10","lat":35.70475482,"lon":139.58083669},{"name":"万助橋北","province":"東京都","city":"武蔵野市","address":"東京都武蔵野市御殿山1丁目17","lat":35.70006898,"lon":139.56964063},{"name":"中町新道","province":"東京都","city":"武蔵野市","address":"東京都武蔵野市中町1丁目21-8","lat":35.70339347,"lon":139.56217175},{"name":"境南町三丁目","province":"東京都","city":"武蔵野市","address":"東京都武蔵野市境南町3丁目23-15","lat":35.69792699,"lon":139.54134053},{"name":"三谷通り入口","province":"東京都","city":"武蔵野市","address":"東京都武蔵野市西久保1丁目6-14","lat":35.70742075,"lon":139.55973846},{"name":"大野田小学校裏","province":"東京都","city":"武蔵野市","address":"東京都武蔵野市緑町2丁目2-28","lat":35.71783358,"lon":139.56594579},{"name":"武蔵野緑町二丁目","province":"東京都","city":"武蔵野市","address":"東京都武蔵野市緑町2丁目4","lat":35.71587537,"lon":139.56161847},{"name":"武蔵野市役所前","province":"東京都","city":"武蔵野市","address":"東京都武蔵野市吉祥寺北町5丁目11-20","lat":35.71788638,"lon":139.56758731},{"name":"吉祥寺南町二丁目","province":"東京都","city":"武蔵野市","address":"東京都武蔵野市吉祥寺南町1丁目31-2","lat":35.70060256,"lon":139.58346718},{"name":"電通研裏","province":"東京都","city":"武蔵野市","address":"東京都武蔵野市緑町3丁目3-6","lat":35.72053605,"lon":139.5661151},{"name":"武蔵野簡易裁判所前","province":"東京都","city":"武蔵野市","address":"東京都武蔵野市中町2丁目9-32","lat":35.70732086,"lon":139.56512686},{"name":"武蔵境駅南口","province":"東京都","city":"武蔵野市","address":"東京都武蔵野市境南町2丁目3-6","lat":35.70110449,"lon":139.54472343},{"name":"中町一丁目","province":"東京都","city":"武蔵野市","address":"東京都武蔵野市中町1丁目11-1","lat":35.70510714,"lon":139.56065514},{"name":"本町新道第二","province":"東京都","city":"武蔵野市","address":"東京都武蔵野市吉祥寺本町1丁目13-1","lat":35.70486313,"lon":139.58050616},{"name":"西久保二丁目","province":"東京都","city":"武蔵野市","address":"東京都武蔵野市西久保1丁目39-5","lat":35.7081067,"lon":139.5560721},{"name":"御殿山一丁目","province":"東京都","city":"武蔵野市","address":"東京都武蔵野市御殿山1丁目3-7","lat":35.70179948,"lon":139.57612055},{"name":"井の頭公園入口","province":"東京都","city":"武蔵野市","address":"東京都武蔵野市御殿山1丁目7-12","lat":35.70127449,"lon":139.57424295},{"name":"武蔵野稲荷神社前","province":"東京都","city":"武蔵野市","address":"東京都武蔵野市緑町1丁目6-6","lat":35.71361448,"lon":139.55979652},{"name":"天文台踏切南","province":"東京都","city":"武蔵野市","address":"東京都武蔵野市境南町2丁目5-8","lat":35.70102944,"lon":139.54210699},{"name":"中町三丁目","province":"東京都","city":"武蔵野市","address":"東京都武蔵野市西久保3丁目1-1","lat":35.70959832,"lon":139.56213815},{"name":"市立南保育園前","province":"東京都","city":"武蔵野市","address":"東京都武蔵野市吉祥寺南町4丁目2-13","lat":35.6997694,"lon":139.58643086},{"name":"武蔵野警察署南","province":"東京都","city":"武蔵野市","address":"東京都武蔵野市西久保1丁目4-11","lat":35.70534875,"lon":139.55971911},{"name":"境南三丁目第二","province":"東京都","city":"武蔵野市","address":"東京都武蔵野市境南町3丁目22-9","lat":35.69823804,"lon":139.54014062},{"name":"吉祥寺南町三丁目第二","province":"東京都","city":"武蔵野市","address":"東京都武蔵野市吉祥寺南町4丁目10-12","lat":35.69922228,"lon":139.58797242},{"name":"吉祥寺南町東第二","province":"東京都","city":"武蔵野市","address":"東京都武蔵野市吉祥寺南町1丁目5-3","lat":35.70267722,"lon":139.57861752},{"name":"吉祥寺南町二丁目第二","province":"東京都","city":"武蔵野市","address":"東京都武蔵野市吉祥寺南町2丁目29-13","lat":35.70023321,"lon":139.58534204},{"name":"井の頭高架東第二","province":"東京都","city":"武蔵野市","address":"東京都武蔵野市吉祥寺南町2丁目13-18","lat":35.70124137,"lon":139.58272555},{"name":"聖徳学園前","province":"東京都","city":"武蔵野市","address":"東京都武蔵野市境南町2丁目9-13","lat":35.69956298,"lon":139.5440541},{"name":"武蔵野水道部前","province":"東京都","city":"武蔵野市","address":"東京都武蔵野市吉祥寺北町4丁目11-46","lat":35.71395903,"lon":139.56650423},{"name":"吉祥寺末広通り","province":"東京都","city":"武蔵野市","address":"東京都武蔵野市吉祥寺南町2丁目2-3","lat":35.7022051,"lon":139.58054237},{"name":"武蔵境駅南口第二","province":"東京都","city":"武蔵野市","address":"東京都武蔵野市境南町2丁目3-16","lat":35.70107392,"lon":139.54416792},{"name":"大正通り","province":"東京都","city":"武蔵野市","address":"東京都武蔵野市吉祥寺本町1丁目8-12","lat":35.7051575,"lon":139.57857575},{"name":"元町","province":"東京都","city":"武蔵野市","address":"東京都武蔵野市吉祥寺本町1丁目8-10","lat":35.70490196,"lon":139.57844522},{"name":"三谷通り入口東","province":"東京都","city":"武蔵野市","address":"東京都武蔵野市西久保1丁目6-17","lat":35.70732077,"lon":139.56035507},{"name":"中央通り北","province":"東京都","city":"武蔵野市","address":"東京都武蔵野市西久保2丁目2-12","lat":35.70850677,"lon":139.56152991},{"name":"武蔵野五小入口第二","province":"東京都","city":"武蔵野市","address":"東京都武蔵野市西久保3丁目26-5","lat":35.71375054,"lon":139.55787723},{"name":"大野田小前","province":"東京都","city":"武蔵野市","address":"東京都武蔵野市吉祥寺北町4丁目10-14","lat":35.71567552,"lon":139.56788182},{"name":"武蔵野市役所裏","province":"東京都","city":"武蔵野市","address":"東京都武蔵野市緑町3丁目1-5","lat":35.71865294,"lon":139.56653181},{"name":"吉祥寺東町一丁目","province":"東京都","city":"武蔵野市","address":"東京都武蔵野市吉祥寺東町1丁目10-18","lat":35.70593806,"lon":139.58270315},{"name":"関前五丁目","province":"東京都","city":"武蔵野市","address":"東京都武蔵野市関前5丁目11-11","lat":35.71271699,"lon":139.54152318},{"name":"武蔵野北高前","province":"東京都","city":"武蔵野市","address":"東京都武蔵野市八幡町2丁目3-10","lat":35.71979428,"lon":139.55733535},{"name":"境南町三丁目北","province":"東京都","city":"武蔵野市","address":"東京都武蔵野市境南町2丁目6","lat":35.70020175,"lon":139.54214313},{"name":"境一丁目第二","province":"東京都","city":"武蔵野市","address":"東京都武蔵野市境1丁目4-9","lat":35.70412082,"lon":139.54512327},{"name":"武蔵野赤十字病院前","province":"東京都","city":"武蔵野市","address":"東京都武蔵野市境南町1丁目26-1","lat":35.69687727,"lon":139.54853159},{"name":"市立境南第二保育園北","province":"東京都","city":"武蔵野市","address":"東京都武蔵野市境南町2丁目20-17","lat":35.69774092,"lon":139.54204047},{"name":"武蔵野障害者センター入口","province":"東京都","city":"武蔵野市","address":"東京都武蔵野市緑町2丁目1-36","lat":35.71581156,"lon":139.56506539},{"name":"日本獣医大東","province":"東京都","city":"武蔵野市","address":"東京都武蔵野市境南町1丁目6-8","lat":35.70103514,"lon":139.54890084},{"name":"吉祥寺大通り","province":"東京都","city":"武蔵野市","address":"東京都武蔵野市吉祥寺本町1丁目18-2","lat":35.70426321,"lon":139.58103392},{"name":"武蔵境駅東第一","province":"東京都","city":"武蔵野市","address":"東京都武蔵野市境1丁目1","lat":35.70237377,"lon":139.5444373},{"name":"成蹊学園前第二","province":"東京都","city":"武蔵野市","address":"東京都武蔵野市吉祥寺本町4丁目26-17","lat":35.70961241,"lon":139.57236778},{"name":"むらさき橋","province":"東京都","city":"武蔵野市","address":"東京都武蔵野市御殿山2丁目13","lat":35.70166875,"lon":139.56677417},{"name":"井の頭自然文化園","province":"東京都","city":"武蔵野市","address":"武蔵野市御殿山1-17-6","lat":35.7016361,"lon":139.5712436},{"name":"武蔵野赤十字病院","province":"東京都","city":"武蔵野市","address":"東京都武蔵野市境南町1丁目26-1","lat":35.69687727,"lon":139.54853159},{"name":"第一浄水場","province":"東京都","city":"武蔵野市","address":"東京都武蔵野市吉祥寺北町4丁目11-46","lat":35.71395903,"lon":139.56650423},{"name":"第二浄水場","province":"東京都","city":"武蔵野市","address":"東京都武蔵野市桜堤1丁目6-6","lat":35.70967278,"lon":139.53635988},{"name":"武蔵野陸上競技場","province":"東京都","city":"武蔵野市","address":"東京都武蔵野市吉祥寺北町5丁目11-20","lat":35.71788638,"lon":139.56758731},{"name":"都立武蔵野中央公園","province":"東京都","city":"武蔵野市","address":"東京都武蔵野市八幡町2丁目4-22","lat":35.718175,"lon":139.55645772},{"name":"武蔵野赤十字病院ヘリポート","province":"東京都","city":"武蔵野市","address":"東京都武蔵野市境南町1丁目26-1","lat":35.69687727,"lon":139.54853159},{"name":"(特定非営利活動法人)全日本鼓笛バンド・フォームバトン連盟","province":"東京都","city":"武蔵野市","address":"東京都武蔵野市吉祥寺東町1丁目23-33","lat":35.7077796,"lon":139.58605557},{"name":"＊?武蔵野市民会館","province":"東京都","city":"武蔵野市","address":"武蔵野市境2-3-7","lat":35.705321,"lon":139.543332},{"name":"＊?武蔵野ふるさと歴史館","province":"東京都","city":"武蔵野市","address":"武蔵野市境5-15-5","lat":35.702238,"lon":139.534605},{"name":"＊?武蔵野プレイス","province":"東京都","city":"武蔵野市","address":"武蔵野市境南2-3-18","lat":35.701098,"lon":139.543716},{"name":"武蔵野クリーンセンター","province":"東京都","city":"武蔵野市","address":"東京都武蔵野市緑町3丁目1","lat":35.719227,"lon":139.566376},{"name":"井の頭恩賜公園","province":"東京都","city":"武蔵野市","address":"東京都武蔵野市御殿山1丁目","lat":35.7024494,"lon":139.57595665},{"name":"武蔵野市","province":"東京都","city":"武蔵野市","address":"武蔵野市緑町2-2-28","lat":35.717836,"lon":139.565937},{"name":"武蔵野市保健センター","province":"東京都","city":"武蔵野市","address":"東京都武蔵野市吉祥寺北町4丁目8-10","lat":35.71292303,"lon":139.56658205},{"name":"武蔵高等学校","province":"東京都","city":"武蔵野市","address":"東京都武蔵野市境4丁目13-28","lat":35.70770641,"lon":139.53965969},{"name":"武蔵野北高等学校","province":"東京都","city":"武蔵野市","address":"東京都武蔵野市八幡町2丁目3-10","lat":35.71979428,"lon":139.55733535},{"name":"武蔵野市立武蔵野総合体育館","province":"東京都","city":"武蔵野市","address":"東京都武蔵野市吉祥寺北町5丁目11-20","lat":35.71788638,"lon":139.56758731},{"name":"武蔵野市本庁舎","province":"東京都","city":"武蔵野市","address":"武蔵野市緑町2-2-28","lat":35.717837,"lon":139.565938},{"name":"武蔵野警察署","province":"東京都","city":"武蔵野市","address":"武蔵野市中町2-1-2","lat":35.70601,"lon":139.5609},{"name":"武蔵野消防署","province":"東京都","city":"武蔵野市","address":"武蔵野市吉祥寺北町4-6-1","lat":35.71169,"lon":139.5675},{"name":"武蔵野地区","province":"東京都","city":"武蔵野市","address":"武蔵野市中町3-7-1","lat":35.70875,"lon":139.5643},{"name":"献血供給事業団本部","province":"東京都","city":"武蔵野市","address":"武蔵野市境南町1-26-1","lat":35.696886,"lon":139.548571},{"name":"都立武蔵野中央公園（原っぱ広場）","province":"東京都","city":"武蔵野市","address":"武蔵野市八幡町2丁目地内","lat":35.71818,"lon":139.5565},{"name":"武蔵野赤十字病院ヘリポート","province":"東京都","city":"武蔵野市","address":"武蔵野市境南町1-26-1","lat":35.696886,"lon":139.548571},{"name":"西部公園緑地事務所","province":"東京都","city":"武蔵野市","address":"武蔵野市御殿山1-17-59","lat":35.70114,"lon":139.573},{"name":"東京電力（株）武蔵野支社","province":"東京都","city":"武蔵野市","address":"武蔵野市西久保1-6-24","lat":35.70672,"lon":139.5603},{"name":"吉祥寺駅","province":"東京都","city":"武蔵野市","address":"東京都武蔵野市吉祥寺南町1丁目1-24","lat":35.70304942,"lon":139.57954798},{"name":"武蔵野市クリーンセンター","province":"東京都","city":"武蔵野市","address":"武蔵野市緑町3-1-5","lat":35.719227,"lon":139.566376},{"name":"武蔵野赤十字病院","province":"東京都","city":"武蔵野市","address":"武蔵野市境南町1-26-1","lat":35.696886,"lon":139.54857},{"name":"子ども発達支援ルームおれんじ学園","province":"東京都","city":"武蔵野市","address":"武蔵野市吉祥寺北町3-5-8イトーピア吉祥寺1階-110","lat":35.710487,"lon":139.57104},{"name":"ビーキッズむさしの","province":"東京都","city":"武蔵野市","address":"武蔵野市吉祥寺南町3-7-1プランドールサンリョウ2階","lat":35.699553,"lon":139.58637},{"name":"児童発達支援・放課後等デイサービス　ささえ","province":"東京都","city":"武蔵野市","address":"武蔵野市吉祥寺本町一丁目35番14号","lat":35.703736,"lon":139.584806},{"name":"ＴＥＥＮＳ吉祥寺","province":"東京都","city":"武蔵野市","address":"武蔵野市吉祥寺本町2-25-12SantaFe1-C","lat":35.703874,"lon":139.574673},{"name":"スタジオそら武蔵野","province":"東京都","city":"武蔵野市","address":"武蔵野市中町1-23-12クレール武蔵野1階","lat":35.704513,"lon":139.563458},{"name":"子ども発達支援ルームおれんじ学園ｎｉｃｏ","province":"東京都","city":"武蔵野市","address":"武蔵野市中町1-19-8シティハイツ武蔵野1階","lat":35.704999,"lon":139.562672},{"name":"あすはＫｉｄｓ","province":"東京都","city":"武蔵野市","address":"武蔵野市八幡町1-6-1","lat":35.715089,"lon":139.55435},{"name":"千川さくらんぼクラブ","province":"東京都","city":"武蔵野市","address":"武蔵野市八幡町2-5-3武蔵野中央公園北ホール1階","lat":35.7214,"lon":139.559666},{"name":"ｗａｃｃａ","province":"東京都","city":"武蔵野市","address":"武蔵野市八幡町3-8-6ニューハイツ武蔵野1階","lat":35.716425,"lon":139.549872},{"name":"児童発達センター　ぽこあぽこ","province":"東京都","city":"武蔵野市","address":"武蔵野市境2-4-3スヤマ武蔵野1F","lat":35.706223,"lon":139.543173},{"name":"ロゼット","province":"東京都","city":"武蔵野市","address":"武蔵野市境1-4-5","lat":35.704085,"lon":139.544659},{"name":"手毬塾ウノ","province":"東京都","city":"武蔵野市","address":"武蔵野市境南町3-22-22","lat":35.698927,"lon":139.540029},{"name":"ウイングむさしの","province":"東京都","city":"武蔵野市","address":"武蔵野市境南町2-13-5グレーハイツ泉妻","lat":35.698619,"lon":139.543821},{"name":"中央図書館","province":"東京都","city":"武蔵野市","address":"東京都武蔵野市吉祥寺北町4丁目8-3","lat":35.71250641,"lon":139.56619043},{"name":"吉祥寺図書館","province":"東京都","city":"武蔵野市","address":"東京都武蔵野市吉祥寺本町1丁目21-13","lat":35.70499371,"lon":139.58227267},{"name":"武蔵野プレイス","province":"東京都","city":"武蔵野市","address":"東京都武蔵野市境南町2丁目3-18","lat":35.70116002,"lon":139.54368185},{"name":"ゆとりえもったいない食堂","province":"東京都","city":"武蔵野市","address":"東京都武蔵野市吉祥寺南町4丁目25-5","lat":35.6987502,"lon":139.59153881},{"name":"わいわいライス","province":"東京都","city":"武蔵野市","address":"東京都武蔵野市緑町1丁目5-22","lat":35.71384782,"lon":139.56157413},{"name":"ミュー食堂","province":"東京都","city":"武蔵野市","address":"東京都武蔵野市中町3丁目4-9","lat":35.71224251,"lon":139.56427951},{"name":"ファイブグループこども食堂","province":"東京都","city":"武蔵野市","address":"東京都武蔵野市吉祥寺本町1丁目22-1","lat":35.70439655,"lon":139.58180885},{"name":"PERSONAL SUITE 吉祥寺","province":"東京都","city":"武蔵野市","address":"東京都武蔵野市吉祥寺南町1丁目6-3","lat":35.70178292,"lon":139.58025352},{"name":"NewWork三鷹","province":"東京都","city":"武蔵野市","address":"東京都武蔵野市中町1丁目9-5","lat":35.70520156,"lon":139.56028851},{"name":"NewWork東急百貨店吉祥寺店","province":"東京都","city":"武蔵野市","address":"東京都武蔵野市吉祥寺本町2丁目3-1","lat":35.70503805,"lon":139.57783694},{"name":"井の頭恩賜公園","province":"東京都","city":"武蔵野市","address":"東京都武蔵野市御殿山一丁目、吉祥寺南町一丁目、三鷹市井の頭三・四・五丁目、下連雀一丁目、牟礼四丁目","lat":35.7007,"lon":139.574491},{"name":"武蔵野中央公園","province":"東京都","city":"武蔵野市","address":"東京都武蔵野市八幡町二丁目","lat":35.718669,"lon":139.55854},{"name":"第一浄水場","province":"東京都","city":"武蔵野市","address":"東京都武蔵野市吉祥寺北町4-11-46","lat":35.7152429,"lon":139.566641},{"name":"第二浄水場","province":"東京都","city":"武蔵野市","address":"東京都武蔵野市桜堤1-6-6","lat":35.709673,"lon":139.53636},{"name":"武蔵野赤十字病院","province":"東京都","city":"武蔵野市","address":"武蔵野市境南町1-26-1","lat":35.69767,"lon":139.54785},{"name":"赤十字子供の家","province":"東京都","city":"武蔵野市","address":"武蔵野市境南町1-26-27","lat":35.69767,"lon":139.54785},{"name":"のぞみの家","province":"東京都","city":"武蔵野市","address":"武蔵野市境南町5-6-21","lat":35.69706,"lon":139.53819},{"name":"武蔵野市","province":"東京都","city":"武蔵野市","address":"武蔵野市緑町2-2-28","lat":35.71776,"lon":139.56586},{"name":"武蔵野市地域包括支援センター（基幹型）","province":"東京都","city":"武蔵野市","address":"武蔵野市緑町2-2-28/(武蔵野市役所内)","lat":35.717499,"lon":139.566452},{"name":"ゆとりえ在宅介護・地域包括支援センター","province":"東京都","city":"武蔵野市","address":"武蔵野市吉祥寺南町4-25-5","lat":35.69886,"lon":139.591843},{"name":"吉祥寺本町在宅介護・地域包括支援センター","province":"東京都","city":"武蔵野市","address":"武蔵野市吉祥寺本町4-20-13","lat":35.706207,"lon":139.571945},{"name":"高齢者総合センター在宅介護・地域包括支援センター","province":"東京都","city":"武蔵野市","address":"武蔵野市緑町2-4-1","lat":35.715225,"lon":139.562561},{"name":"吉祥寺ナーシング  ホーム在宅介護・地域包括支援センター","province":"東京都","city":"武蔵野市","address":"武蔵野市吉祥寺北町2-9-2","lat":35.712109,"lon":139.578995},{"name":"桜堤ケアハウス在宅介護・地域包括支援センター","province":"東京都","city":"武蔵野市","address":"武蔵野市桜堤1-9-9","lat":35.711014,"lon":139.533569},{"name":"武蔵野赤十字在宅介護・地域包括支援センター","province":"東京都","city":"武蔵野市","address":"武蔵野市境南町1-26-1武蔵野赤十字病院内","lat":35.697906,"lon":139.548782},{"name":"武蔵野市消費生活センター","province":"東京都","city":"武蔵野市","address":"武蔵野市吉祥寺本町1-10-7武蔵野商工会館3階","lat":35.7057,"lon":139.578735},{"name":"赤十字子供の家","province":"東京都","city":"武蔵野市","address":"武蔵野市境南町1-26-27","lat":35.697783,"lon":139.54676},{"name":"のぞみの家","province":"東京都","city":"武蔵野市","address":"武蔵野市境南町5-6-21","lat":35.697344,"lon":139.538138},{"name":"柳橋","province":"東京都","city":"武蔵野市","address":"東京都武蔵野市関前4丁目9-6","lat":35.71390857,"lon":139.54426177},{"name":"八幡宮前","province":"東京都","city":"武蔵野市","address":"東京都武蔵野市吉祥寺北町1丁目1-1","lat":35.70768778,"lon":139.57936447},{"name":"成蹊学園前","province":"東京都","city":"武蔵野市","address":"東京都武蔵野市吉祥寺北町3丁目4-4","lat":35.70982628,"lon":139.57273719},{"name":"吉祥寺駅南口","province":"東京都","city":"武蔵野市","address":"東京都武蔵野市吉祥寺南町1丁目2-7","lat":35.7021773,"lon":139.57981188},{"name":"昭和通り","province":"東京都","city":"武蔵野市","address":"東京都武蔵野市吉祥寺本町2丁目3-1","lat":35.70503805,"lon":139.57783694},{"name":"武蔵野中央","province":"東京都","city":"武蔵野市","address":"東京都武蔵野市吉祥寺北町4丁目13-5","lat":35.71290632,"lon":139.56433503},{"name":"境南町二丁目","province":"東京都","city":"武蔵野市","address":"東京都武蔵野市境南町2丁目27-1","lat":35.69778541,"lon":139.54415695},{"name":"八幡町四丁目","province":"東京都","city":"武蔵野市","address":"東京都武蔵野市八幡町4丁目1-6","lat":35.71834718,"lon":139.55548001},{"name":"西久保三丁目","province":"東京都","city":"武蔵野市","address":"東京都武蔵野市緑町1丁目4-19","lat":35.71427001,"lon":139.56194908},{"name":"武蔵野市営プール前","province":"東京都","city":"武蔵野市","address":"東京都武蔵野市吉祥寺北町5丁目11-30","lat":35.71970841,"lon":139.56803997},{"name":"武蔵野警察署前","province":"東京都","city":"武蔵野市","address":"東京都武蔵野市中町1丁目11-4","lat":35.70555431,"lon":139.5608801},{"name":"吉祥寺駅前","province":"東京都","city":"武蔵野市","address":"東京都武蔵野市吉祥寺南町1丁目1-10","lat":35.70291328,"lon":139.57760649},{"name":"関前橋","province":"東京都","city":"武蔵野市","address":"東京都武蔵野市八幡町2丁目3-10","lat":35.71979428,"lon":139.55733535},{"name":"武蔵野市立三中入口","province":"東京都","city":"武蔵野市","address":"東京都武蔵野市吉祥寺東町1丁目18-19","lat":35.70514929,"lon":139.58430582},{"name":"日本獣医大前","province":"東京都","city":"武蔵野市","address":"東京都武蔵野市境南町2丁目2-20","lat":35.70121006,"lon":139.54586777},{"name":"吉祥寺本町一丁目","province":"東京都","city":"武蔵野市","address":"東京都武蔵野市吉祥寺本町1丁目37-8","lat":35.70371339,"lon":139.58626961},{"name":"武蔵野五小入口","province":"東京都","city":"武蔵野市","address":"東京都武蔵野市関前3丁目3-14","lat":35.71374498,"lon":139.55747727},{"name":"武蔵野大学","province":"東京都","city":"武蔵野市","address":"東京都武蔵野市八幡町3丁目8-7","lat":35.71683614,"lon":139.55066661},{"name":"境二丁目第一","province":"東京都","city":"武蔵野市","address":"東京都武蔵野市境2丁目7-1","lat":35.70459295,"lon":139.54319563},{"name":"境二丁目第二","province":"東京都","city":"武蔵野市","address":"東京都武蔵野市境2丁目2-17","lat":35.70420134,"lon":139.54395948},{"name":"中央通り","province":"東京都","city":"武蔵野市","address":"東京都武蔵野市中町2丁目4-15","lat":35.70679308,"lon":139.56185774},{"name":"武蔵野赤十字前","province":"東京都","city":"武蔵野市","address":"東京都武蔵野市境南町1丁目26-1","lat":35.69687727,"lon":139.54853159},{"name":"千川小前","province":"東京都","city":"武蔵野市","address":"東京都武蔵野市八幡町3丁目5-25","lat":35.718561,"lon":139.55351074},{"name":"武蔵野緑町","province":"東京都","city":"武蔵野市","address":"東京都武蔵野市吉祥寺北町4丁目13-16","lat":35.71432283,"lon":139.56484604},{"name":"境一丁目","province":"東京都","city":"武蔵野市","address":"東京都武蔵野市境1丁目19-1","lat":35.70439582,"lon":139.54662868},{"name":"武蔵野市立高齢者総合センター前","province":"東京都","city":"武蔵野市","address":"東京都武蔵野市緑町1丁目3-17","lat":35.71495606,"lon":139.5627212},{"name":"吉祥寺南町第二","province":"東京都","city":"武蔵野市","address":"東京都武蔵野市吉祥寺本町2丁目2-17","lat":35.70368263,"lon":139.5772787},{"name":"武蔵野市民文化会館前","province":"東京都","city":"武蔵野市","address":"東京都武蔵野市中町3丁目9-11","lat":35.71150095,"lon":139.56584885},{"name":"武蔵野欅橋","province":"東京都","city":"武蔵野市","address":"東京都武蔵野市中町1丁目3-1","lat":35.70382947,"lon":139.55909423},{"name":"吉祥寺駅南口第二","province":"東京都","city":"武蔵野市","address":"東京都武蔵野市吉祥寺南町1丁目2-3","lat":35.70208566,"lon":139.58011741},{"name":"吉祥寺南町三丁目","province":"東京都","city":"武蔵野市","address":"東京都武蔵野市吉祥寺南町3丁目13-2","lat":35.69855843,"lon":139.58629759},{"name":"境南小学校裏","province":"東京都","city":"武蔵野市","address":"東京都武蔵野市境南町2丁目11","lat":35.69860479,"lon":139.54582344},{"name":"吉祥寺駅東口交番","province":"東京都","city":"武蔵野市","address":"東京都武蔵野市吉祥寺本町1丁目17-12","lat":35.7035244,"lon":139.58108394},{"name":"吉祥寺駅北","province":"東京都","city":"武蔵野市","address":"東京都武蔵野市吉祥寺東町1丁目7-1","lat":35.70641576,"lon":139.58168377},{"name":"武蔵野中町二丁目","province":"東京都","city":"武蔵野市","address":"東京都武蔵野市中町2丁目9-32","lat":35.70732086,"lon":139.56512686},{"name":"吉祥寺駅北第二","province":"東京都","city":"武蔵野市","address":"東京都武蔵野市吉祥寺東町1丁目6-27","lat":35.70642131,"lon":139.58140602},{"name":"自然文化園前","province":"東京都","city":"武蔵野市","address":"東京都武蔵野市御殿山1丁目17","lat":35.70006898,"lon":139.56964063},{"name":"商工会館前","province":"東京都","city":"武蔵野市","address":"東京都武蔵野市吉祥寺本町1丁目10-5","lat":35.70538247,"lon":139.57861741},{"name":"本町新道","province":"東京都","city":"武蔵野市","address":"東京都武蔵野市吉祥寺本町1丁目13-10","lat":35.70475482,"lon":139.58083669},{"name":"万助橋北","province":"東京都","city":"武蔵野市","address":"東京都武蔵野市御殿山1丁目17","lat":35.70006898,"lon":139.56964063},{"name":"中町新道","province":"東京都","city":"武蔵野市","address":"東京都武蔵野市中町1丁目21-8","lat":35.70339347,"lon":139.56217175},{"name":"境南町三丁目","province":"東京都","city":"武蔵野市","address":"東京都武蔵野市境南町3丁目23-15","lat":35.69792699,"lon":139.54134053},{"name":"三谷通り入口","province":"東京都","city":"武蔵野市","address":"東京都武蔵野市西久保1丁目6-14","lat":35.70742075,"lon":139.55973846},{"name":"大野田小学校裏","province":"東京都","city":"武蔵野市","address":"東京都武蔵野市緑町2丁目2-28","lat":35.71783358,"lon":139.56594579},{"name":"武蔵野緑町二丁目","province":"東京都","city":"武蔵野市","address":"東京都武蔵野市緑町2丁目4","lat":35.71587537,"lon":139.56161847},{"name":"武蔵野市役所前","province":"東京都","city":"武蔵野市","address":"東京都武蔵野市吉祥寺北町5丁目11-20","lat":35.71788638,"lon":139.56758731},{"name":"吉祥寺南町二丁目","province":"東京都","city":"武蔵野市","address":"東京都武蔵野市吉祥寺南町1丁目31-2","lat":35.70060256,"lon":139.58346718},{"name":"電通研裏","province":"東京都","city":"武蔵野市","address":"東京都武蔵野市緑町3丁目3-6","lat":35.72053605,"lon":139.5661151},{"name":"武蔵野簡易裁判所前","province":"東京都","city":"武蔵野市","address":"東京都武蔵野市中町2丁目9-32","lat":35.70732086,"lon":139.56512686},{"name":"武蔵境駅南口","province":"東京都","city":"武蔵野市","address":"東京都武蔵野市境南町2丁目3-6","lat":35.70110449,"lon":139.54472343},{"name":"中町一丁目","province":"東京都","city":"武蔵野市","address":"東京都武蔵野市中町1丁目11-1","lat":35.70510714,"lon":139.56065514},{"name":"本町新道第二","province":"東京都","city":"武蔵野市","address":"東京都武蔵野市吉祥寺本町1丁目13-1","lat":35.70486313,"lon":139.58050616},{"name":"西久保二丁目","province":"東京都","city":"武蔵野市","address":"東京都武蔵野市西久保1丁目39-5","lat":35.7081067,"lon":139.5560721},{"name":"御殿山一丁目","province":"東京都","city":"武蔵野市","address":"東京都武蔵野市御殿山1丁目3-7","lat":35.70179948,"lon":139.57612055},{"name":"井の頭公園入口","province":"東京都","city":"武蔵野市","address":"東京都武蔵野市御殿山1丁目7-12","lat":35.70127449,"lon":139.57424295},{"name":"武蔵野稲荷神社前","province":"東京都","city":"武蔵野市","address":"東京都武蔵野市緑町1丁目6-6","lat":35.71361448,"lon":139.55979652},{"name":"天文台踏切南","province":"東京都","city":"武蔵野市","address":"東京都武蔵野市境南町2丁目5-8","lat":35.70102944,"lon":139.54210699},{"name":"中町三丁目","province":"東京都","city":"武蔵野市","address":"東京都武蔵野市西久保3丁目1-1","lat":35.70959832,"lon":139.56213815},{"name":"市立南保育園前","province":"東京都","city":"武蔵野市","address":"東京都武蔵野市吉祥寺南町4丁目2-13","lat":35.6997694,"lon":139.58643086},{"name":"武蔵野警察署南","province":"東京都","city":"武蔵野市","address":"東京都武蔵野市西久保1丁目4-11","lat":35.70534875,"lon":139.55971911},{"name":"境南三丁目第二","province":"東京都","city":"武蔵野市","address":"東京都武蔵野市境南町3丁目22-9","lat":35.69823804,"lon":139.54014062},{"name":"吉祥寺南町三丁目第二","province":"東京都","city":"武蔵野市","address":"東京都武蔵野市吉祥寺南町4丁目10-12","lat":35.69922228,"lon":139.58797242},{"name":"吉祥寺南町東第二","province":"東京都","city":"武蔵野市","address":"東京都武蔵野市吉祥寺南町1丁目5-3","lat":35.70267722,"lon":139.57861752},{"name":"吉祥寺南町二丁目第二","province":"東京都","city":"武蔵野市","address":"東京都武蔵野市吉祥寺南町2丁目29-13","lat":35.70023321,"lon":139.58534204},{"name":"井の頭高架東第二","province":"東京都","city":"武蔵野市","address":"東京都武蔵野市吉祥寺南町2丁目13-18","lat":35.70124137,"lon":139.58272555},{"name":"聖徳学園前","province":"東京都","city":"武蔵野市","address":"東京都武蔵野市境南町2丁目9-13","lat":35.69956298,"lon":139.5440541},{"name":"武蔵野水道部前","province":"東京都","city":"武蔵野市","address":"東京都武蔵野市吉祥寺北町4丁目11-46","lat":35.71395903,"lon":139.56650423},{"name":"吉祥寺末広通り","province":"東京都","city":"武蔵野市","address":"東京都武蔵野市吉祥寺南町2丁目2-3","lat":35.7022051,"lon":139.58054237},{"name":"武蔵境駅南口第二","province":"東京都","city":"武蔵野市","address":"東京都武蔵野市境南町2丁目3-16","lat":35.70107392,"lon":139.54416792},{"name":"大正通り","province":"東京都","city":"武蔵野市","address":"東京都武蔵野市吉祥寺本町1丁目8-12","lat":35.7051575,"lon":139.57857575},{"name":"元町","province":"東京都","city":"武蔵野市","address":"東京都武蔵野市吉祥寺本町1丁目8-10","lat":35.70490196,"lon":139.57844522},{"name":"三谷通り入口東","province":"東京都","city":"武蔵野市","address":"東京都武蔵野市西久保1丁目6-17","lat":35.70732077,"lon":139.56035507},{"name":"中央通り北","province":"東京都","city":"武蔵野市","address":"東京都武蔵野市西久保2丁目2-12","lat":35.70850677,"lon":139.56152991},{"name":"武蔵野五小入口第二","province":"東京都","city":"武蔵野市","address":"東京都武蔵野市西久保3丁目26-5","lat":35.71375054,"lon":139.55787723},{"name":"大野田小前","province":"東京都","city":"武蔵野市","address":"東京都武蔵野市吉祥寺北町4丁目10-14","lat":35.71567552,"lon":139.56788182},{"name":"武蔵野市役所裏","province":"東京都","city":"武蔵野市","address":"東京都武蔵野市緑町3丁目1-5","lat":35.71865294,"lon":139.56653181},{"name":"吉祥寺東町一丁目","province":"東京都","city":"武蔵野市","address":"東京都武蔵野市吉祥寺東町1丁目10-18","lat":35.70593806,"lon":139.58270315},{"name":"関前五丁目","province":"東京都","city":"武蔵野市","address":"東京都武蔵野市関前5丁目11-11","lat":35.71271699,"lon":139.54152318},{"name":"武蔵野北高前","province":"東京都","city":"武蔵野市","address":"東京都武蔵野市八幡町2丁目3-10","lat":35.71979428,"lon":139.55733535},{"name":"境南町三丁目北","province":"東京都","city":"武蔵野市","address":"東京都武蔵野市境南町2丁目6","lat":35.70020175,"lon":139.54214313},{"name":"境一丁目第二","province":"東京都","city":"武蔵野市","address":"東京都武蔵野市境1丁目4-9","lat":35.70412082,"lon":139.54512327},{"name":"武蔵野赤十字病院前","province":"東京都","city":"武蔵野市","address":"東京都武蔵野市境南町1丁目26-1","lat":35.69687727,"lon":139.54853159},{"name":"市立境南第二保育園北","province":"東京都","city":"武蔵野市","address":"東京都武蔵野市境南町2丁目20-17","lat":35.69774092,"lon":139.54204047},{"name":"武蔵野障害者センター入口","province":"東京都","city":"武蔵野市","address":"東京都武蔵野市緑町2丁目1-36","lat":35.71581156,"lon":139.56506539},{"name":"日本獣医大東","province":"東京都","city":"武蔵野市","address":"東京都武蔵野市境南町1丁目6-8","lat":35.70103514,"lon":139.54890084},{"name":"吉祥寺大通り","province":"東京都","city":"武蔵野市","address":"東京都武蔵野市吉祥寺本町1丁目18-2","lat":35.70426321,"lon":139.58103392},{"name":"武蔵境駅東第一","province":"東京都","city":"武蔵野市","address":"東京都武蔵野市境1丁目1","lat":35.70237377,"lon":139.5444373},{"name":"成蹊学園前第二","province":"東京都","city":"武蔵野市","address":"東京都武蔵野市吉祥寺本町4丁目26-17","lat":35.70961241,"lon":139.57236778},{"name":"むらさき橋","province":"東京都","city":"武蔵野市","address":"東京都武蔵野市御殿山2丁目13","lat":35.70166875,"lon":139.56677417},{"name":"井の頭自然文化園","province":"東京都","city":"武蔵野市","address":"武蔵野市御殿山1-17-6","lat":35.7016361,"lon":139.5712436},{"name":"(特定非営利活動法人)全日本鼓笛バンド・フォームバトン連盟","province":"東京都","city":"武蔵野市","address":"東京都武蔵野市吉祥寺東町1丁目23-33","lat":35.7077796,"lon":139.58605557},{"name":"＊?武蔵野市民会館","province":"東京都","city":"武蔵野市","address":"武蔵野市境2-3-7","lat":35.705321,"lon":139.543332},{"name":"＊?武蔵野ふるさと歴史館","province":"東京都","city":"武蔵野市","address":"武蔵野市境5-15-5","lat":35.702238,"lon":139.534605},{"name":"＊?武蔵野プレイス","province":"東京都","city":"武蔵野市","address":"武蔵野市境南2-3-18","lat":35.701098,"lon":139.543716},{"name":"武蔵野クリーンセンター","province":"東京都","city":"武蔵野市","address":"東京都武蔵野市緑町3丁目1","lat":35.719227,"lon":139.566376},{"name":"井の頭恩賜公園","province":"東京都","city":"武蔵野市","address":"東京都武蔵野市御殿山1丁目","lat":35.7024494,"lon":139.57595665},{"name":"武蔵野市","province":"東京都","city":"武蔵野市","address":"武蔵野市緑町2-2-28","lat":35.717836,"lon":139.565937},{"name":"武蔵野警察署","province":"東京都","city":"武蔵野市","address":"武蔵野市中町2-1-2","lat":35.70601,"lon":139.5609},{"name":"武蔵野消防署","province":"東京都","city":"武蔵野市","address":"武蔵野市吉祥寺北町4-6-1","lat":35.71169,"lon":139.5675},{"name":"武蔵野地区","province":"東京都","city":"武蔵野市","address":"武蔵野市中町3-7-1","lat":35.70875,"lon":139.5643},{"name":"献血供給事業団本部","province":"東京都","city":"武蔵野市","address":"武蔵野市境南町1-26-1","lat":35.696886,"lon":139.548571},{"name":"都立武蔵野中央公園（原っぱ広場）","province":"東京都","city":"武蔵野市","address":"武蔵野市八幡町2丁目地内","lat":35.71818,"lon":139.5565},{"name":"武蔵野赤十字病院ヘリポート","province":"東京都","city":"武蔵野市","address":"武蔵野市境南町1-26-1","lat":35.696886,"lon":139.548571},{"name":"西部公園緑地事務所","province":"東京都","city":"武蔵野市","address":"武蔵野市御殿山1-17-59","lat":35.70114,"lon":139.573},{"name":"東京電力（株）武蔵野支社","province":"東京都","city":"武蔵野市","address":"武蔵野市西久保1-6-24","lat":35.70672,"lon":139.5603},{"name":"吉祥寺駅","province":"東京都","city":"武蔵野市","address":"東京都武蔵野市吉祥寺南町1丁目1-24","lat":35.70304942,"lon":139.57954798},{"name":"武蔵野赤十字病院","province":"東京都","city":"武蔵野市","address":"武蔵野市境南町1-26-1","lat":35.696886,"lon":139.54857},{"name":"子ども発達支援ルームおれんじ学園","province":"東京都","city":"武蔵野市","address":"武蔵野市吉祥寺北町3-5-8イトーピア吉祥寺1階-110","lat":35.710487,"lon":139.57104},{"name":"ビーキッズむさしの","province":"東京都","city":"武蔵野市","address":"武蔵野市吉祥寺南町3-7-1プランドールサンリョウ2階","lat":35.699553,"lon":139.58637},{"name":"児童発達支援・放課後等デイサービス　ささえ","province":"東京都","city":"武蔵野市","address":"武蔵野市吉祥寺本町一丁目35番14号","lat":35.703736,"lon":139.584806},{"name":"ＴＥＥＮＳ吉祥寺","province":"東京都","city":"武蔵野市","address":"武蔵野市吉祥寺本町2-25-12SantaFe1-C","lat":35.703874,"lon":139.574673},{"name":"スタジオそら武蔵野","province":"東京都","city":"武蔵野市","address":"武蔵野市中町1-23-12クレール武蔵野1階","lat":35.704513,"lon":139.563458},{"name":"子ども発達支援ルームおれんじ学園ｎｉｃｏ","province":"東京都","city":"武蔵野市","address":"武蔵野市中町1-19-8シティハイツ武蔵野1階","lat":35.704999,"lon":139.562672},{"name":"あすはＫｉｄｓ","province":"東京都","city":"武蔵野市","address":"武蔵野市八幡町1-6-1","lat":35.715089,"lon":139.55435},{"name":"千川さくらんぼクラブ","province":"東京都","city":"武蔵野市","address":"武蔵野市八幡町2-5-3武蔵野中央公園北ホール1階","lat":35.7214,"lon":139.559666},{"name":"ｗａｃｃａ","province":"東京都","city":"武蔵野市","address":"武蔵野市八幡町3-8-6ニューハイツ武蔵野1階","lat":35.716425,"lon":139.549872},{"name":"児童発達センター　ぽこあぽこ","province":"東京都","city":"武蔵野市","address":"武蔵野市境2-4-3スヤマ武蔵野1F","lat":35.706223,"lon":139.543173},{"name":"ロゼット","province":"東京都","city":"武蔵野市","address":"武蔵野市境1-4-5","lat":35.704085,"lon":139.544659},{"name":"手毬塾ウノ","province":"東京都","city":"武蔵野市","address":"武蔵野市境南町3-22-22","lat":35.698927,"lon":139.540029},{"name":"ウイングむさしの","province":"東京都","city":"武蔵野市","address":"武蔵野市境南町2-13-5グレーハイツ泉妻","lat":35.698619,"lon":139.543821},{"name":"中央図書館","province":"東京都","city":"武蔵野市","address":"東京都武蔵野市吉祥寺北町4丁目8-3","lat":35.71250641,"lon":139.56619043},{"name":"吉祥寺図書館","province":"東京都","city":"武蔵野市","address":"東京都武蔵野市吉祥寺本町1丁目21-13","lat":35.70499371,"lon":139.58227267},{"name":"武蔵野プレイス","province":"東京都","city":"武蔵野市","address":"東京都武蔵野市境南町2丁目3-18","lat":35.70116002,"lon":139.54368185},{"name":"ゆとりえもったいない食堂","province":"東京都","city":"武蔵野市","address":"東京都武蔵野市吉祥寺南町4丁目25-5","lat":35.6987502,"lon":139.59153881},{"name":"わいわいライス","province":"東京都","city":"武蔵野市","address":"東京都武蔵野市緑町1丁目5-22","lat":35.71384782,"lon":139.56157413},{"name":"ミュー食堂","province":"東京都","city":"武蔵野市","address":"東京都武蔵野市中町3丁目4-9","lat":35.71224251,"lon":139.56427951},{"name":"ファイブグループこども食堂","province":"東京都","city":"武蔵野市","address":"東京都武蔵野市吉祥寺本町1丁目22-1","lat":35.70439655,"lon":139.58180885},{"name":"PERSONAL SUITE 吉祥寺","province":"東京都","city":"武蔵野市","address":"東京都武蔵野市吉祥寺南町1丁目6-3","lat":35.70178292,"lon":139.58025352},{"name":"NewWork三鷹","province":"東京都","city":"武蔵野市","address":"東京都武蔵野市中町1丁目9-5","lat":35.70520156,"lon":139.56028851},{"name":"NewWork東急百貨店吉祥寺店","province":"東京都","city":"武蔵野市","address":"東京都武蔵野市吉祥寺本町2丁目3-1","lat":35.70503805,"lon":139.57783694},{"name":"井の頭恩賜公園","province":"東京都","city":"武蔵野市","address":"東京都武蔵野市御殿山一丁目、吉祥寺南町一丁目、三鷹市井の頭三・四・五丁目、下連雀一丁目、牟礼四丁目","lat":35.7007,"lon":139.574491},{"name":"武蔵野中央公園","province":"東京都","city":"武蔵野市","address":"東京都武蔵野市八幡町二丁目","lat":35.718669,"lon":139.55854},{"name":"第一浄水場","province":"東京都","city":"武蔵野市","address":"東京都武蔵野市吉祥寺北町4-11-46","lat":35.7152429,"lon":139.566641},{"name":"第二浄水場","province":"東京都","city":"武蔵野市","address":"東京都武蔵野市桜堤1-6-6","lat":35.709673,"lon":139.53636},{"name":"武蔵野赤十字病院","province":"東京都","city":"武蔵野市","address":"武蔵野市境南町1-26-1","lat":35.69767,"lon":139.54785},{"name":"武蔵野市地域包括支援センター（基幹型）","province":"東京都","city":"武蔵野市","address":"武蔵野市緑町2-2-28/(武蔵野市役所内)","lat":35.717499,"lon":139.566452},{"name":"ゆとりえ在宅介護・地域包括支援センター","province":"東京都","city":"武蔵野市","address":"武蔵野市吉祥寺南町4-25-5","lat":35.69886,"lon":139.591843},{"name":"吉祥寺本町在宅介護・地域包括支援センター","province":"東京都","city":"武蔵野市","address":"武蔵野市吉祥寺本町4-20-13","lat":35.706207,"lon":139.571945},{"name":"高齢者総合センター在宅介護・地域包括支援センター","province":"東京都","city":"武蔵野市","address":"武蔵野市緑町2-4-1","lat":35.715225,"lon":139.562561},{"name":"吉祥寺ナーシング  ホーム在宅介護・地域包括支援センター","province":"東京都","city":"武蔵野市","address":"武蔵野市吉祥寺北町2-9-2","lat":35.712109,"lon":139.578995},{"name":"桜堤ケアハウス在宅介護・地域包括支援センター","province":"東京都","city":"武蔵野市","address":"武蔵野市桜堤1-9-9","lat":35.711014,"lon":139.533569},{"name":"武蔵野赤十字在宅介護・地域包括支援センター","province":"東京都","city":"武蔵野市","address":"武蔵野市境南町1-26-1武蔵野赤十字病院内","lat":35.697906,"lon":139.548782},{"name":"武蔵野市消費生活センター","province":"東京都","city":"武蔵野市","address":"武蔵野市吉祥寺本町1-10-7武蔵野商工会館3階","lat":35.7057,"lon":139.578735},{"name":"柳橋","province":"東京都","city":"武蔵野市","address":"東京都武蔵野市関前4丁目9-6","lat":35.71390857,"lon":139.54426177},{"name":"八幡宮前","province":"東京都","city":"武蔵野市","address":"東京都武蔵野市吉祥寺北町1丁目1-1","lat":35.70768778,"lon":139.57936447},{"name":"成蹊学園前","province":"東京都","city":"武蔵野市","address":"東京都武蔵野市吉祥寺北町3丁目4-4","lat":35.70982628,"lon":139.57273719},{"name":"吉祥寺駅南口","province":"東京都","city":"武蔵野市","address":"東京都武蔵野市吉祥寺南町1丁目2-7","lat":35.7021773,"lon":139.57981188},{"name":"昭和通り","province":"東京都","city":"武蔵野市","address":"東京都武蔵野市吉祥寺本町2丁目3-1","lat":35.70503805,"lon":139.57783694},{"name":"武蔵野中央","province":"東京都","city":"武蔵野市","address":"東京都武蔵野市吉祥寺北町4丁目13-5","lat":35.71290632,"lon":139.56433503},{"name":"境南町二丁目","province":"東京都","city":"武蔵野市","address":"東京都武蔵野市境南町2丁目27-1","lat":35.69778541,"lon":139.54415695},{"name":"八幡町四丁目","province":"東京都","city":"武蔵野市","address":"東京都武蔵野市八幡町4丁目1-6","lat":35.71834718,"lon":139.55548001},{"name":"西久保三丁目","province":"東京都","city":"武蔵野市","address":"東京都武蔵野市緑町1丁目4-19","lat":35.71427001,"lon":139.56194908},{"name":"武蔵野市営プール前","province":"東京都","city":"武蔵野市","address":"東京都武蔵野市吉祥寺北町5丁目11-30","lat":35.71970841,"lon":139.56803997},{"name":"武蔵野警察署前","province":"東京都","city":"武蔵野市","address":"東京都武蔵野市中町1丁目11-4","lat":35.70555431,"lon":139.5608801},{"name":"吉祥寺駅前","province":"東京都","city":"武蔵野市","address":"東京都武蔵野市吉祥寺南町1丁目1-10","lat":35.70291328,"lon":139.57760649},{"name":"関前橋","province":"東京都","city":"武蔵野市","address":"東京都武蔵野市八幡町2丁目3-10","lat":35.71979428,"lon":139.55733535},{"name":"武蔵野市立三中入口","province":"東京都","city":"武蔵野市","address":"東京都武蔵野市吉祥寺東町1丁目18-19","lat":35.70514929,"lon":139.58430582},{"name":"日本獣医大前","province":"東京都","city":"武蔵野市","address":"東京都武蔵野市境南町2丁目2-20","lat":35.70121006,"lon":139.54586777},{"name":"吉祥寺本町一丁目","province":"東京都","city":"武蔵野市","address":"東京都武蔵野市吉祥寺本町1丁目37-8","lat":35.70371339,"lon":139.58626961},{"name":"武蔵野五小入口","province":"東京都","city":"武蔵野市","address":"東京都武蔵野市関前3丁目3-14","lat":35.71374498,"lon":139.55747727},{"name":"武蔵野大学","province":"東京都","city":"武蔵野市","address":"東京都武蔵野市八幡町3丁目8-7","lat":35.71683614,"lon":139.55066661},{"name":"境二丁目第一","province":"東京都","city":"武蔵野市","address":"東京都武蔵野市境2丁目7-1","lat":35.70459295,"lon":139.54319563},{"name":"境二丁目第二","province":"東京都","city":"武蔵野市","address":"東京都武蔵野市境2丁目2-17","lat":35.70420134,"lon":139.54395948},{"name":"中央通り","province":"東京都","city":"武蔵野市","address":"東京都武蔵野市中町2丁目4-15","lat":35.70679308,"lon":139.56185774},{"name":"武蔵野赤十字前","province":"東京都","city":"武蔵野市","address":"東京都武蔵野市境南町1丁目26-1","lat":35.69687727,"lon":139.54853159},{"name":"千川小前","province":"東京都","city":"武蔵野市","address":"東京都武蔵野市八幡町3丁目5-25","lat":35.718561,"lon":139.55351074},{"name":"武蔵野緑町","province":"東京都","city":"武蔵野市","address":"東京都武蔵野市吉祥寺北町4丁目13-16","lat":35.71432283,"lon":139.56484604},{"name":"境一丁目","province":"東京都","city":"武蔵野市","address":"東京都武蔵野市境1丁目19-1","lat":35.70439582,"lon":139.54662868},{"name":"武蔵野市立高齢者総合センター前","province":"東京都","city":"武蔵野市","address":"東京都武蔵野市緑町1丁目3-17","lat":35.71495606,"lon":139.5627212},{"name":"吉祥寺南町第二","province":"東京都","city":"武蔵野市","address":"東京都武蔵野市吉祥寺本町2丁目2-17","lat":35.70368263,"lon":139.5772787},{"name":"武蔵野市民文化会館前","province":"東京都","city":"武蔵野市","address":"東京都武蔵野市中町3丁目9-11","lat":35.71150095,"lon":139.56584885},{"name":"武蔵野欅橋","province":"東京都","city":"武蔵野市","address":"東京都武蔵野市中町1丁目3-1","lat":35.70382947,"lon":139.55909423},{"name":"吉祥寺駅南口第二","province":"東京都","city":"武蔵野市","address":"東京都武蔵野市吉祥寺南町1丁目2-3","lat":35.70208566,"lon":139.58011741},{"name":"吉祥寺南町三丁目","province":"東京都","city":"武蔵野市","address":"東京都武蔵野市吉祥寺南町3丁目13-2","lat":35.69855843,"lon":139.58629759},{"name":"境南小学校裏","province":"東京都","city":"武蔵野市","address":"東京都武蔵野市境南町2丁目11","lat":35.69860479,"lon":139.54582344},{"name":"吉祥寺駅東口交番","province":"東京都","city":"武蔵野市","address":"東京都武蔵野市吉祥寺本町1丁目17-12","lat":35.7035244,"lon":139.58108394},{"name":"吉祥寺駅北","province":"東京都","city":"武蔵野市","address":"東京都武蔵野市吉祥寺東町1丁目7-1","lat":35.70641576,"lon":139.58168377},{"name":"武蔵野中町二丁目","province":"東京都","city":"武蔵野市","address":"東京都武蔵野市中町2丁目9-32","lat":35.70732086,"lon":139.56512686},{"name":"吉祥寺駅北第二","province":"東京都","city":"武蔵野市","address":"東京都武蔵野市吉祥寺東町1丁目6-27","lat":35.70642131,"lon":139.58140602},{"name":"自然文化園前","province":"東京都","city":"武蔵野市","address":"東京都武蔵野市御殿山1丁目17","lat":35.70006898,"lon":139.56964063},{"name":"商工会館前","province":"東京都","city":"武蔵野市","address":"東京都武蔵野市吉祥寺本町1丁目10-5","lat":35.70538247,"lon":139.57861741},{"name":"本町新道","province":"東京都","city":"武蔵野市","address":"東京都武蔵野市吉祥寺本町1丁目13-10","lat":35.70475482,"lon":139.58083669},{"name":"万助橋北","province":"東京都","city":"武蔵野市","address":"東京都武蔵野市御殿山1丁目17","lat":35.70006898,"lon":139.56964063},{"name":"中町新道","province":"東京都","city":"武蔵野市","address":"東京都武蔵野市中町1丁目21-8","lat":35.70339347,"lon":139.56217175},{"name":"境南町三丁目","province":"東京都","city":"武蔵野市","address":"東京都武蔵野市境南町3丁目23-15","lat":35.69792699,"lon":139.54134053},{"name":"三谷通り入口","province":"東京都","city":"武蔵野市","address":"東京都武蔵野市西久保1丁目6-14","lat":35.70742075,"lon":139.55973846},{"name":"大野田小学校裏","province":"東京都","city":"武蔵野市","address":"東京都武蔵野市緑町2丁目2-28","lat":35.71783358,"lon":139.56594579},{"name":"武蔵野緑町二丁目","province":"東京都","city":"武蔵野市","address":"東京都武蔵野市緑町2丁目4","lat":35.71587537,"lon":139.56161847},{"name":"武蔵野市役所前","province":"東京都","city":"武蔵野市","address":"東京都武蔵野市吉祥寺北町5丁目11-20","lat":35.71788638,"lon":139.56758731},{"name":"吉祥寺南町二丁目","province":"東京都","city":"武蔵野市","address":"東京都武蔵野市吉祥寺南町1丁目31-2","lat":35.70060256,"lon":139.58346718},{"name":"電通研裏","province":"東京都","city":"武蔵野市","address":"東京都武蔵野市緑町3丁目3-6","lat":35.72053605,"lon":139.5661151},{"name":"武蔵野簡易裁判所前","province":"東京都","city":"武蔵野市","address":"東京都武蔵野市中町2丁目9-32","lat":35.70732086,"lon":139.56512686},{"name":"武蔵境駅南口","province":"東京都","city":"武蔵野市","address":"東京都武蔵野市境南町2丁目3-6","lat":35.70110449,"lon":139.54472343},{"name":"中町一丁目","province":"東京都","city":"武蔵野市","address":"東京都武蔵野市中町1丁目11-1","lat":35.70510714,"lon":139.56065514},{"name":"本町新道第二","province":"東京都","city":"武蔵野市","address":"東京都武蔵野市吉祥寺本町1丁目13-1","lat":35.70486313,"lon":139.58050616},{"name":"西久保二丁目","province":"東京都","city":"武蔵野市","address":"東京都武蔵野市西久保1丁目39-5","lat":35.7081067,"lon":139.5560721},{"name":"御殿山一丁目","province":"東京都","city":"武蔵野市","address":"東京都武蔵野市御殿山1丁目3-7","lat":35.70179948,"lon":139.57612055},{"name":"井の頭公園入口","province":"東京都","city":"武蔵野市","address":"東京都武蔵野市御殿山1丁目7-12","lat":35.70127449,"lon":139.57424295},{"name":"武蔵野稲荷神社前","province":"東京都","city":"武蔵野市","address":"東京都武蔵野市緑町1丁目6-6","lat":35.71361448,"lon":139.55979652},{"name":"天文台踏切南","province":"東京都","city":"武蔵野市","address":"東京都武蔵野市境南町2丁目5-8","lat":35.70102944,"lon":139.54210699},{"name":"中町三丁目","province":"東京都","city":"武蔵野市","address":"東京都武蔵野市西久保3丁目1-1","lat":35.70959832,"lon":139.56213815},{"name":"市立南保育園前","province":"東京都","city":"武蔵野市","address":"東京都武蔵野市吉祥寺南町4丁目2-13","lat":35.6997694,"lon":139.58643086},{"name":"武蔵野警察署南","province":"東京都","city":"武蔵野市","address":"東京都武蔵野市西久保1丁目4-11","lat":35.70534875,"lon":139.55971911},{"name":"境南三丁目第二","province":"東京都","city":"武蔵野市","address":"東京都武蔵野市境南町3丁目22-9","lat":35.69823804,"lon":139.54014062},{"name":"吉祥寺南町三丁目第二","province":"東京都","city":"武蔵野市","address":"東京都武蔵野市吉祥寺南町4丁目10-12","lat":35.69922228,"lon":139.58797242},{"name":"吉祥寺南町東第二","province":"東京都","city":"武蔵野市","address":"東京都武蔵野市吉祥寺南町1丁目5-3","lat":35.70267722,"lon":139.57861752},{"name":"吉祥寺南町二丁目第二","province":"東京都","city":"武蔵野市","address":"東京都武蔵野市吉祥寺南町2丁目29-13","lat":35.70023321,"lon":139.58534204},{"name":"井の頭高架東第二","province":"東京都","city":"武蔵野市","address":"東京都武蔵野市吉祥寺南町2丁目13-18","lat":35.70124137,"lon":139.58272555},{"name":"聖徳学園前","province":"東京都","city":"武蔵野市","address":"東京都武蔵野市境南町2丁目9-13","lat":35.69956298,"lon":139.5440541},{"name":"武蔵野水道部前","province":"東京都","city":"武蔵野市","address":"東京都武蔵野市吉祥寺北町4丁目11-46","lat":35.71395903,"lon":139.56650423},{"name":"吉祥寺末広通り","province":"東京都","city":"武蔵野市","address":"東京都武蔵野市吉祥寺南町2丁目2-3","lat":35.7022051,"lon":139.58054237},{"name":"武蔵境駅南口第二","province":"東京都","city":"武蔵野市","address":"東京都武蔵野市境南町2丁目3-16","lat":35.70107392,"lon":139.54416792},{"name":"大正通り","province":"東京都","city":"武蔵野市","address":"東京都武蔵野市吉祥寺本町1丁目8-12","lat":35.7051575,"lon":139.57857575},{"name":"元町","province":"東京都","city":"武蔵野市","address":"東京都武蔵野市吉祥寺本町1丁目8-10","lat":35.70490196,"lon":139.57844522},{"name":"三谷通り入口東","province":"東京都","city":"武蔵野市","address":"東京都武蔵野市西久保1丁目6-17","lat":35.70732077,"lon":139.56035507},{"name":"中央通り北","province":"東京都","city":"武蔵野市","address":"東京都武蔵野市西久保2丁目2-12","lat":35.70850677,"lon":139.56152991},{"name":"武蔵野五小入口第二","province":"東京都","city":"武蔵野市","address":"東京都武蔵野市西久保3丁目26-5","lat":35.71375054,"lon":139.55787723},{"name":"大野田小前","province":"東京都","city":"武蔵野市","address":"東京都武蔵野市吉祥寺北町4丁目10-14","lat":35.71567552,"lon":139.56788182},{"name":"武蔵野市役所裏","province":"東京都","city":"武蔵野市","address":"東京都武蔵野市緑町3丁目1-5","lat":35.71865294,"lon":139.56653181},{"name":"吉祥寺東町一丁目","province":"東京都","city":"武蔵野市","address":"東京都武蔵野市吉祥寺東町1丁目10-18","lat":35.70593806,"lon":139.58270315},{"name":"関前五丁目","province":"東京都","city":"武蔵野市","address":"東京都武蔵野市関前5丁目11-11","lat":35.71271699,"lon":139.54152318},{"name":"武蔵野北高前","province":"東京都","city":"武蔵野市","address":"東京都武蔵野市八幡町2丁目3-10","lat":35.71979428,"lon":139.55733535},{"name":"境南町三丁目北","province":"東京都","city":"武蔵野市","address":"東京都武蔵野市境南町2丁目6","lat":35.70020175,"lon":139.54214313},{"name":"境一丁目第二","province":"東京都","city":"武蔵野市","address":"東京都武蔵野市境1丁目4-9","lat":35.70412082,"lon":139.54512327},{"name":"武蔵野赤十字病院前","province":"東京都","city":"武蔵野市","address":"東京都武蔵野市境南町1丁目26-1","lat":35.69687727,"lon":139.54853159},{"name":"市立境南第二保育園北","province":"東京都","city":"武蔵野市","address":"東京都武蔵野市境南町2丁目20-17","lat":35.69774092,"lon":139.54204047},{"name":"武蔵野障害者センター入口","province":"東京都","city":"武蔵野市","address":"東京都武蔵野市緑町2丁目1-36","lat":35.71581156,"lon":139.56506539},{"name":"日本獣医大東","province":"東京都","city":"武蔵野市","address":"東京都武蔵野市境南町1丁目6-8","lat":35.70103514,"lon":139.54890084},{"name":"吉祥寺大通り","province":"東京都","city":"武蔵野市","address":"東京都武蔵野市吉祥寺本町1丁目18-2","lat":35.70426321,"lon":139.58103392},{"name":"武蔵境駅東第一","province":"東京都","city":"武蔵野市","address":"東京都武蔵野市境1丁目1","lat":35.70237377,"lon":139.5444373},{"name":"成蹊学園前第二","province":"東京都","city":"武蔵野市","address":"東京都武蔵野市吉祥寺本町4丁目26-17","lat":35.70961241,"lon":139.57236778},{"name":"むらさき橋","province":"東京都","city":"武蔵野市","address":"東京都武蔵野市御殿山2丁目13","lat":35.70166875,"lon":139.56677417},{"name":"井の頭自然文化園","province":"東京都","city":"武蔵野市","address":"武蔵野市御殿山1-17-6","lat":35.7016361,"lon":139.5712436},{"name":"(特定非営利活動法人)全日本鼓笛バンド・フォームバトン連盟","province":"東京都","city":"武蔵野市","address":"東京都武蔵野市吉祥寺東町1丁目23-33","lat":35.7077796,"lon":139.58605557},{"name":"＊?武蔵野市民会館","province":"東京都","city":"武蔵野市","address":"武蔵野市境2-3-7","lat":35.705321,"lon":139.543332},{"name":"＊?武蔵野ふるさと歴史館","province":"東京都","city":"武蔵野市","address":"武蔵野市境5-15-5","lat":35.702238,"lon":139.534605},{"name":"＊?武蔵野プレイス","province":"東京都","city":"武蔵野市","address":"武蔵野市境南2-3-18","lat":35.701098,"lon":139.543716},{"name":"武蔵野クリーンセンター","province":"東京都","city":"武蔵野市","address":"東京都武蔵野市緑町3丁目1","lat":35.719227,"lon":139.566376},{"name":"東京電力（株）武蔵野支社","province":"東京都","city":"武蔵野市","address":"武蔵野市西久保1-6-24","lat":35.70672,"lon":139.5603},{"name":"吉祥寺駅","province":"東京都","city":"武蔵野市","address":"東京都武蔵野市吉祥寺南町1丁目1-24","lat":35.70304942,"lon":139.57954798},{"name":"武蔵野赤十字病院","province":"東京都","city":"武蔵野市","address":"武蔵野市境南町1-26-1","lat":35.696886,"lon":139.54857},{"name":"子ども発達支援ルームおれんじ学園","province":"東京都","city":"武蔵野市","address":"武蔵野市吉祥寺北町3-5-8イトーピア吉祥寺1階-110","lat":35.710487,"lon":139.57104},{"name":"ビーキッズむさしの","province":"東京都","city":"武蔵野市","address":"武蔵野市吉祥寺南町3-7-1プランドールサンリョウ2階","lat":35.699553,"lon":139.58637},{"name":"児童発達支援・放課後等デイサービス　ささえ","province":"東京都","city":"武蔵野市","address":"武蔵野市吉祥寺本町一丁目35番14号","lat":35.703736,"lon":139.584806},{"name":"ＴＥＥＮＳ吉祥寺","province":"東京都","city":"武蔵野市","address":"武蔵野市吉祥寺本町2-25-12SantaFe1-C","lat":35.703874,"lon":139.574673},{"name":"スタジオそら武蔵野","province":"東京都","city":"武蔵野市","address":"武蔵野市中町1-23-12クレール武蔵野1階","lat":35.704513,"lon":139.563458},{"name":"子ども発達支援ルームおれんじ学園ｎｉｃｏ","province":"東京都","city":"武蔵野市","address":"武蔵野市中町1-19-8シティハイツ武蔵野1階","lat":35.704999,"lon":139.562672},{"name":"あすはＫｉｄｓ","province":"東京都","city":"武蔵野市","address":"武蔵野市八幡町1-6-1","lat":35.715089,"lon":139.55435},{"name":"千川さくらんぼクラブ","province":"東京都","city":"武蔵野市","address":"武蔵野市八幡町2-5-3武蔵野中央公園北ホール1階","lat":35.7214,"lon":139.559666},{"name":"ｗａｃｃａ","province":"東京都","city":"武蔵野市","address":"武蔵野市八幡町3-8-6ニューハイツ武蔵野1階","lat":35.716425,"lon":139.549872},{"name":"児童発達センター　ぽこあぽこ","province":"東京都","city":"武蔵野市","address":"武蔵野市境2-4-3スヤマ武蔵野1F","lat":35.706223,"lon":139.543173},{"name":"ロゼット","province":"東京都","city":"武蔵野市","address":"武蔵野市境1-4-5","lat":35.704085,"lon":139.544659},{"name":"手毬塾ウノ","province":"東京都","city":"武蔵野市","address":"武蔵野市境南町3-22-22","lat":35.698927,"lon":139.540029},{"name":"ウイングむさしの","province":"東京都","city":"武蔵野市","address":"武蔵野市境南町2-13-5グレーハイツ泉妻","lat":35.698619,"lon":139.543821},{"name":"中央図書館","province":"東京都","city":"武蔵野市","address":"東京都武蔵野市吉祥寺北町4丁目8-3","lat":35.71250641,"lon":139.56619043},{"name":"吉祥寺図書館","province":"東京都","city":"武蔵野市","address":"東京都武蔵野市吉祥寺本町1丁目21-13","lat":35.70499371,"lon":139.58227267},{"name":"武蔵野プレイス","province":"東京都","city":"武蔵野市","address":"東京都武蔵野市境南町2丁目3-18","lat":35.70116002,"lon":139.54368185},{"name":"ゆとりえもったいない食堂","province":"東京都","city":"武蔵野市","address":"東京都武蔵野市吉祥寺南町4丁目25-5","lat":35.6987502,"lon":139.59153881},{"name":"わいわいライス","province":"東京都","city":"武蔵野市","address":"東京都武蔵野市緑町1丁目5-22","lat":35.71384782,"lon":139.56157413},{"name":"ミュー食堂","province":"東京都","city":"武蔵野市","address":"東京都武蔵野市中町3丁目4-9","lat":35.71224251,"lon":139.56427951},{"name":"ファイブグループこども食堂","province":"東京都","city":"武蔵野市","address":"東京都武蔵野市吉祥寺本町1丁目22-1","lat":35.70439655,"lon":139.58180885},{"name":"PERSONAL SUITE 吉祥寺","province":"東京都","city":"武蔵野市","address":"東京都武蔵野市吉祥寺南町1丁目6-3","lat":35.70178292,"lon":139.58025352},{"name":"NewWork三鷹","province":"東京都","city":"武蔵野市","address":"東京都武蔵野市中町1丁目9-5","lat":35.70520156,"lon":139.56028851},{"name":"NewWork東急百貨店吉祥寺店","province":"東京都","city":"武蔵野市","address":"東京都武蔵野市吉祥寺本町2丁目3-1","lat":35.70503805,"lon":139.57783694},{"name":"井の頭恩賜公園","province":"東京都","city":"武蔵野市","address":"東京都武蔵野市御殿山一丁目、吉祥寺南町一丁目、三鷹市井の頭三・四・五丁目、下連雀一丁目、牟礼四丁目","lat":35.7007,"lon":139.574491},{"name":"武蔵野中央公園","province":"東京都","city":"武蔵野市","address":"東京都武蔵野市八幡町二丁目","lat":35.718669,"lon":139.55854},{"name":"第一浄水場","province":"東京都","city":"武蔵野市","address":"東京都武蔵野市吉祥寺北町4-11-46","lat":35.7152429,"lon":139.566641},{"name":"第二浄水場","province":"東京都","city":"武蔵野市","address":"東京都武蔵野市桜堤1-6-6","lat":35.709673,"lon":139.53636},{"name":"武蔵野赤十字病院","province":"東京都","city":"武蔵野市","address":"武蔵野市境南町1-26-1","lat":35.69767,"lon":139.54785},{"name":"柳橋","province":"東京都","city":"武蔵野市","address":"東京都武蔵野市関前4丁目9-6","lat":35.71390857,"lon":139.54426177},{"name":"八幡宮前","province":"東京都","city":"武蔵野市","address":"東京都武蔵野市吉祥寺北町1丁目1-1","lat":35.70768778,"lon":139.57936447},{"name":"成蹊学園前","province":"東京都","city":"武蔵野市","address":"東京都武蔵野市吉祥寺北町3丁目4-4","lat":35.70982628,"lon":139.57273719},{"name":"吉祥寺駅南口","province":"東京都","city":"武蔵野市","address":"東京都武蔵野市吉祥寺南町1丁目2-7","lat":35.7021773,"lon":139.57981188},{"name":"昭和通り","province":"東京都","city":"武蔵野市","address":"東京都武蔵野市吉祥寺本町2丁目3-1","lat":35.70503805,"lon":139.57783694},{"name":"武蔵野中央","province":"東京都","city":"武蔵野市","address":"東京都武蔵野市吉祥寺北町4丁目13-5","lat":35.71290632,"lon":139.56433503},{"name":"境南町二丁目","province":"東京都","city":"武蔵野市","address":"東京都武蔵野市境南町2丁目27-1","lat":35.69778541,"lon":139.54415695},{"name":"八幡町四丁目","province":"東京都","city":"武蔵野市","address":"東京都武蔵野市八幡町4丁目1-6","lat":35.71834718,"lon":139.55548001},{"name":"西久保三丁目","province":"東京都","city":"武蔵野市","address":"東京都武蔵野市緑町1丁目4-19","lat":35.71427001,"lon":139.56194908},{"name":"武蔵野市営プール前","province":"東京都","city":"武蔵野市","address":"東京都武蔵野市吉祥寺北町5丁目11-30","lat":35.71970841,"lon":139.56803997},{"name":"武蔵野警察署前","province":"東京都","city":"武蔵野市","address":"東京都武蔵野市中町1丁目11-4","lat":35.70555431,"lon":139.5608801},{"name":"吉祥寺駅前","province":"東京都","city":"武蔵野市","address":"東京都武蔵野市吉祥寺南町1丁目1-10","lat":35.70291328,"lon":139.57760649},{"name":"関前橋","province":"東京都","city":"武蔵野市","address":"東京都武蔵野市八幡町2丁目3-10","lat":35.71979428,"lon":139.55733535},{"name":"武蔵野市立三中入口","province":"東京都","city":"武蔵野市","address":"東京都武蔵野市吉祥寺東町1丁目18-19","lat":35.70514929,"lon":139.58430582},{"name":"日本獣医大前","province":"東京都","city":"武蔵野市","address":"東京都武蔵野市境南町2丁目2-20","lat":35.70121006,"lon":139.54586777},{"name":"吉祥寺本町一丁目","province":"東京都","city":"武蔵野市","address":"東京都武蔵野市吉祥寺本町1丁目37-8","lat":35.70371339,"lon":139.58626961},{"name":"武蔵野五小入口","province":"東京都","city":"武蔵野市","address":"東京都武蔵野市関前3丁目3-14","lat":35.71374498,"lon":139.55747727},{"name":"武蔵野大学","province":"東京都","city":"武蔵野市","address":"東京都武蔵野市八幡町3丁目8-7","lat":35.71683614,"lon":139.55066661},{"name":"境二丁目第一","province":"東京都","city":"武蔵野市","address":"東京都武蔵野市境2丁目7-1","lat":35.70459295,"lon":139.54319563},{"name":"境二丁目第二","province":"東京都","city":"武蔵野市","address":"東京都武蔵野市境2丁目2-17","lat":35.70420134,"lon":139.54395948},{"name":"中央通り","province":"東京都","city":"武蔵野市","address":"東京都武蔵野市中町2丁目4-15","lat":35.70679308,"lon":139.56185774},{"name":"武蔵野赤十字前","province":"東京都","city":"武蔵野市","address":"東京都武蔵野市境南町1丁目26-1","lat":35.69687727,"lon":139.54853159},{"name":"千川小前","province":"東京都","city":"武蔵野市","address":"東京都武蔵野市八幡町3丁目5-25","lat":35.718561,"lon":139.55351074},{"name":"武蔵野緑町","province":"東京都","city":"武蔵野市","address":"東京都武蔵野市吉祥寺北町4丁目13-16","lat":35.71432283,"lon":139.56484604},{"name":"境一丁目","province":"東京都","city":"武蔵野市","address":"東京都武蔵野市境1丁目19-1","lat":35.70439582,"lon":139.54662868},{"name":"武蔵野市立高齢者総合センター前","province":"東京都","city":"武蔵野市","address":"東京都武蔵野市緑町1丁目3-17","lat":35.71495606,"lon":139.5627212},{"name":"吉祥寺南町第二","province":"東京都","city":"武蔵野市","address":"東京都武蔵野市吉祥寺本町2丁目2-17","lat":35.70368263,"lon":139.5772787},{"name":"武蔵野市民文化会館前","province":"東京都","city":"武蔵野市","address":"東京都武蔵野市中町3丁目9-11","lat":35.71150095,"lon":139.56584885},{"name":"武蔵野欅橋","province":"東京都","city":"武蔵野市","address":"東京都武蔵野市中町1丁目3-1","lat":35.70382947,"lon":139.55909423},{"name":"吉祥寺駅南口第二","province":"東京都","city":"武蔵野市","address":"東京都武蔵野市吉祥寺南町1丁目2-3","lat":35.70208566,"lon":139.58011741},{"name":"吉祥寺南町三丁目","province":"東京都","city":"武蔵野市","address":"東京都武蔵野市吉祥寺南町3丁目13-2","lat":35.69855843,"lon":139.58629759},{"name":"境南小学校裏","province":"東京都","city":"武蔵野市","address":"東京都武蔵野市境南町2丁目11","lat":35.69860479,"lon":139.54582344},{"name":"吉祥寺駅東口交番","province":"東京都","city":"武蔵野市","address":"東京都武蔵野市吉祥寺本町1丁目17-12","lat":35.7035244,"lon":139.58108394},{"name":"吉祥寺駅北","province":"東京都","city":"武蔵野市","address":"東京都武蔵野市吉祥寺東町1丁目7-1","lat":35.70641576,"lon":139.58168377},{"name":"武蔵野中町二丁目","province":"東京都","city":"武蔵野市","address":"東京都武蔵野市中町2丁目9-32","lat":35.70732086,"lon":139.56512686},{"name":"吉祥寺駅北第二","province":"東京都","city":"武蔵野市","address":"東京都武蔵野市吉祥寺東町1丁目6-27","lat":35.70642131,"lon":139.58140602},{"name":"自然文化園前","province":"東京都","city":"武蔵野市","address":"東京都武蔵野市御殿山1丁目17","lat":35.70006898,"lon":139.56964063},{"name":"商工会館前","province":"東京都","city":"武蔵野市","address":"東京都武蔵野市吉祥寺本町1丁目10-5","lat":35.70538247,"lon":139.57861741},{"name":"本町新道","province":"東京都","city":"武蔵野市","address":"東京都武蔵野市吉祥寺本町1丁目13-10","lat":35.70475482,"lon":139.58083669},{"name":"万助橋北","province":"東京都","city":"武蔵野市","address":"東京都武蔵野市御殿山1丁目17","lat":35.70006898,"lon":139.56964063},{"name":"中町新道","province":"東京都","city":"武蔵野市","address":"東京都武蔵野市中町1丁目21-8","lat":35.70339347,"lon":139.56217175},{"name":"境南町三丁目","province":"東京都","city":"武蔵野市","address":"東京都武蔵野市境南町3丁目23-15","lat":35.69792699,"lon":139.54134053},{"name":"三谷通り入口","province":"東京都","city":"武蔵野市","address":"東京都武蔵野市西久保1丁目6-14","lat":35.70742075,"lon":139.55973846},{"name":"大野田小学校裏","province":"東京都","city":"武蔵野市","address":"東京都武蔵野市緑町2丁目2-28","lat":35.71783358,"lon":139.56594579},{"name":"武蔵野緑町二丁目","province":"東京都","city":"武蔵野市","address":"東京都武蔵野市緑町2丁目4","lat":35.71587537,"lon":139.56161847},{"name":"武蔵野市役所前","province":"東京都","city":"武蔵野市","address":"東京都武蔵野市吉祥寺北町5丁目11-20","lat":35.71788638,"lon":139.56758731},{"name":"吉祥寺南町二丁目","province":"東京都","city":"武蔵野市","address":"東京都武蔵野市吉祥寺南町1丁目31-2","lat":35.70060256,"lon":139.58346718},{"name":"電通研裏","province":"東京都","city":"武蔵野市","address":"東京都武蔵野市緑町3丁目3-6","lat":35.72053605,"lon":139.5661151},{"name":"武蔵野簡易裁判所前","province":"東京都","city":"武蔵野市","address":"東京都武蔵野市中町2丁目9-32","lat":35.70732086,"lon":139.56512686},{"name":"武蔵境駅南口","province":"東京都","city":"武蔵野市","address":"東京都武蔵野市境南町2丁目3-6","lat":35.70110449,"lon":139.54472343},{"name":"中町一丁目","province":"東京都","city":"武蔵野市","address":"東京都武蔵野市中町1丁目11-1","lat":35.70510714,"lon":139.56065514},{"name":"本町新道第二","province":"東京都","city":"武蔵野市","address":"東京都武蔵野市吉祥寺本町1丁目13-1","lat":35.70486313,"lon":139.58050616},{"name":"西久保二丁目","province":"東京都","city":"武蔵野市","address":"東京都武蔵野市西久保1丁目39-5","lat":35.7081067,"lon":139.5560721},{"name":"御殿山一丁目","province":"東京都","city":"武蔵野市","address":"東京都武蔵野市御殿山1丁目3-7","lat":35.70179948,"lon":139.57612055},{"name":"井の頭公園入口","province":"東京都","city":"武蔵野市","address":"東京都武蔵野市御殿山1丁目7-12","lat":35.70127449,"lon":139.57424295},{"name":"武蔵野稲荷神社前","province":"東京都","city":"武蔵野市","address":"東京都武蔵野市緑町1丁目6-6","lat":35.71361448,"lon":139.55979652},{"name":"天文台踏切南","province":"東京都","city":"武蔵野市","address":"東京都武蔵野市境南町2丁目5-8","lat":35.70102944,"lon":139.54210699},{"name":"中町三丁目","province":"東京都","city":"武蔵野市","address":"東京都武蔵野市西久保3丁目1-1","lat":35.70959832,"lon":139.56213815},{"name":"市立南保育園前","province":"東京都","city":"武蔵野市","address":"東京都武蔵野市吉祥寺南町4丁目2-13","lat":35.6997694,"lon":139.58643086},{"name":"武蔵野警察署南","province":"東京都","city":"武蔵野市","address":"東京都武蔵野市西久保1丁目4-11","lat":35.70534875,"lon":139.55971911},{"name":"境南三丁目第二","province":"東京都","city":"武蔵野市","address":"東京都武蔵野市境南町3丁目22-9","lat":35.69823804,"lon":139.54014062},{"name":"吉祥寺南町三丁目第二","province":"東京都","city":"武蔵野市","address":"東京都武蔵野市吉祥寺南町4丁目10-12","lat":35.69922228,"lon":139.58797242},{"name":"吉祥寺南町東第二","province":"東京都","city":"武蔵野市","address":"東京都武蔵野市吉祥寺南町1丁目5-3","lat":35.70267722,"lon":139.57861752},{"name":"吉祥寺南町二丁目第二","province":"東京都","city":"武蔵野市","address":"東京都武蔵野市吉祥寺南町2丁目29-13","lat":35.70023321,"lon":139.58534204},{"name":"井の頭高架東第二","province":"東京都","city":"武蔵野市","address":"東京都武蔵野市吉祥寺南町2丁目13-18","lat":35.70124137,"lon":139.58272555},{"name":"聖徳学園前","province":"東京都","city":"武蔵野市","address":"東京都武蔵野市境南町2丁目9-13","lat":35.69956298,"lon":139.5440541},{"name":"武蔵野水道部前","province":"東京都","city":"武蔵野市","address":"東京都武蔵野市吉祥寺北町4丁目11-46","lat":35.71395903,"lon":139.56650423},{"name":"吉祥寺末広通り","province":"東京都","city":"武蔵野市","address":"東京都武蔵野市吉祥寺南町2丁目2-3","lat":35.7022051,"lon":139.58054237},{"name":"武蔵境駅南口第二","province":"東京都","city":"武蔵野市","address":"東京都武蔵野市境南町2丁目3-16","lat":35.70107392,"lon":139.54416792},{"name":"大正通り","province":"東京都","city":"武蔵野市","address":"東京都武蔵野市吉祥寺本町1丁目8-12","lat":35.7051575,"lon":139.57857575},{"name":"元町","province":"東京都","city":"武蔵野市","address":"東京都武蔵野市吉祥寺本町1丁目8-10","lat":35.70490196,"lon":139.57844522},{"name":"三谷通り入口東","province":"東京都","city":"武蔵野市","address":"東京都武蔵野市西久保1丁目6-17","lat":35.70732077,"lon":139.56035507},{"name":"中央通り北","province":"東京都","city":"武蔵野市","address":"東京都武蔵野市西久保2丁目2-12","lat":35.70850677,"lon":139.56152991},{"name":"武蔵野五小入口第二","province":"東京都","city":"武蔵野市","address":"東京都武蔵野市西久保3丁目26-5","lat":35.71375054,"lon":139.55787723},{"name":"大野田小前","province":"東京都","city":"武蔵野市","address":"東京都武蔵野市吉祥寺北町4丁目10-14","lat":35.71567552,"lon":139.56788182},{"name":"武蔵野市役所裏","province":"東京都","city":"武蔵野市","address":"東京都武蔵野市緑町3丁目1-5","lat":35.71865294,"lon":139.56653181},{"name":"吉祥寺東町一丁目","province":"東京都","city":"武蔵野市","address":"東京都武蔵野市吉祥寺東町1丁目10-18","lat":35.70593806,"lon":139.58270315},{"name":"関前五丁目","province":"東京都","city":"武蔵野市","address":"東京都武蔵野市関前5丁目11-11","lat":35.71271699,"lon":139.54152318},{"name":"武蔵野北高前","province":"東京都","city":"武蔵野市","address":"東京都武蔵野市八幡町2丁目3-10","lat":35.71979428,"lon":139.55733535},{"name":"境南町三丁目北","province":"東京都","city":"武蔵野市","address":"東京都武蔵野市境南町2丁目6","lat":35.70020175,"lon":139.54214313},{"name":"境一丁目第二","province":"東京都","city":"武蔵野市","address":"東京都武蔵野市境1丁目4-9","lat":35.70412082,"lon":139.54512327},{"name":"武蔵野赤十字病院前","province":"東京都","city":"武蔵野市","address":"東京都武蔵野市境南町1丁目26-1","lat":35.69687727,"lon":139.54853159},{"name":"市立境南第二保育園北","province":"東京都","city":"武蔵野市","address":"東京都武蔵野市境南町2丁目20-17","lat":35.69774092,"lon":139.54204047},{"name":"武蔵野障害者センター入口","province":"東京都","city":"武蔵野市","address":"東京都武蔵野市緑町2丁目1-36","lat":35.71581156,"lon":139.56506539},{"name":"日本獣医大東","province":"東京都","city":"武蔵野市","address":"東京都武蔵野市境南町1丁目6-8","lat":35.70103514,"lon":139.54890084},{"name":"吉祥寺大通り","province":"東京都","city":"武蔵野市","address":"東京都武蔵野市吉祥寺本町1丁目18-2","lat":35.70426321,"lon":139.58103392},{"name":"武蔵境駅東第一","province":"東京都","city":"武蔵野市","address":"東京都武蔵野市境1丁目1","lat":35.70237377,"lon":139.5444373},{"name":"成蹊学園前第二","province":"東京都","city":"武蔵野市","address":"東京都武蔵野市吉祥寺本町4丁目26-17","lat":35.70961241,"lon":139.57236778},{"name":"むらさき橋","province":"東京都","city":"武蔵野市","address":"東京都武蔵野市御殿山2丁目13","lat":35.70166875,"lon":139.56677417},{"name":"井の頭自然文化園","province":"東京都","city":"武蔵野市","address":"武蔵野市御殿山1-17-6","lat":35.7016361,"lon":139.5712436},{"name":"(特定非営利活動法人)全日本鼓笛バンド・フォームバトン連盟","province":"東京都","city":"武蔵野市","address":"東京都武蔵野市吉祥寺東町1丁目23-33","lat":35.7077796,"lon":139.58605557},{"name":"＊?武蔵野市民会館","province":"東京都","city":"武蔵野市","address":"武蔵野市境2-3-7","lat":35.705321,"lon":139.543332},{"name":"＊?武蔵野ふるさと歴史館","province":"東京都","city":"武蔵野市","address":"武蔵野市境5-15-5","lat":35.702238,"lon":139.534605},{"name":"＊?武蔵野プレイス","province":"東京都","city":"武蔵野市","address":"武蔵野市境南2-3-18","lat":35.701098,"lon":139.543716},{"name":"武蔵野クリーンセンター","province":"東京都","city":"武蔵野市","address":"東京都武蔵野市緑町3丁目1","lat":35.719227,"lon":139.566376},{"name":"東京電力（株）武蔵野支社","province":"東京都","city":"武蔵野市","address":"武蔵野市西久保1-6-24","lat":35.70672,"lon":139.5603},{"name":"吉祥寺駅","province":"東京都","city":"武蔵野市","address":"東京都武蔵野市吉祥寺南町1丁目1-24","lat":35.70304942,"lon":139.57954798},{"name":"武蔵野赤十字病院","province":"東京都","city":"武蔵野市","address":"武蔵野市境南町1-26-1","lat":35.696886,"lon":139.54857},{"name":"子ども発達支援ルームおれんじ学園","province":"東京都","city":"武蔵野市","address":"武蔵野市吉祥寺北町3-5-8イトーピア吉祥寺1階-110","lat":35.710487,"lon":139.57104},{"name":"ビーキッズむさしの","province":"東京都","city":"武蔵野市","address":"武蔵野市吉祥寺南町3-7-1プランドールサンリョウ2階","lat":35.699553,"lon":139.58637},{"name":"児童発達支援・放課後等デイサービス　ささえ","province":"東京都","city":"武蔵野市","address":"武蔵野市吉祥寺本町一丁目35番14号","lat":35.703736,"lon":139.584806},{"name":"ＴＥＥＮＳ吉祥寺","province":"東京都","city":"武蔵野市","address":"武蔵野市吉祥寺本町2-25-12SantaFe1-C","lat":35.703874,"lon":139.574673},{"name":"スタジオそら武蔵野","province":"東京都","city":"武蔵野市","address":"武蔵野市中町1-23-12クレール武蔵野1階","lat":35.704513,"lon":139.563458},{"name":"子ども発達支援ルームおれんじ学園ｎｉｃｏ","province":"東京都","city":"武蔵野市","address":"武蔵野市中町1-19-8シティハイツ武蔵野1階","lat":35.704999,"lon":139.562672},{"name":"あすはＫｉｄｓ","province":"東京都","city":"武蔵野市","address":"武蔵野市八幡町1-6-1","lat":35.715089,"lon":139.55435},{"name":"千川さくらんぼクラブ","province":"東京都","city":"武蔵野市","address":"武蔵野市八幡町2-5-3武蔵野中央公園北ホール1階","lat":35.7214,"lon":139.559666},{"name":"ｗａｃｃａ","province":"東京都","city":"武蔵野市","address":"武蔵野市八幡町3-8-6ニューハイツ武蔵野1階","lat":35.716425,"lon":139.549872},{"name":"児童発達センター　ぽこあぽこ","province":"東京都","city":"武蔵野市","address":"武蔵野市境2-4-3スヤマ武蔵野1F","lat":35.706223,"lon":139.543173},{"name":"ロゼット","province":"東京都","city":"武蔵野市","address":"武蔵野市境1-4-5","lat":35.704085,"lon":139.544659},{"name":"手毬塾ウノ","province":"東京都","city":"武蔵野市","address":"武蔵野市境南町3-22-22","lat":35.698927,"lon":139.540029},{"name":"ウイングむさしの","province":"東京都","city":"武蔵野市","address":"武蔵野市境南町2-13-5グレーハイツ泉妻","lat":35.698619,"lon":139.543821},{"name":"中央図書館","province":"東京都","city":"武蔵野市","address":"東京都武蔵野市吉祥寺北町4丁目8-3","lat":35.71250641,"lon":139.56619043},{"name":"吉祥寺図書館","province":"東京都","city":"武蔵野市","address":"東京都武蔵野市吉祥寺本町1丁目21-13","lat":35.70499371,"lon":139.58227267},{"name":"武蔵野プレイス","province":"東京都","city":"武蔵野市","address":"東京都武蔵野市境南町2丁目3-18","lat":35.70116002,"lon":139.54368185},{"name":"ゆとりえもったいない食堂","province":"東京都","city":"武蔵野市","address":"東京都武蔵野市吉祥寺南町4丁目25-5","lat":35.6987502,"lon":139.59153881},{"name":"わいわいライス","province":"東京都","city":"武蔵野市","address":"東京都武蔵野市緑町1丁目5-22","lat":35.71384782,"lon":139.56157413},{"name":"ミュー食堂","province":"東京都","city":"武蔵野市","address":"東京都武蔵野市中町3丁目4-9","lat":35.71224251,"lon":139.56427951},{"name":"ファイブグループこども食堂","province":"東京都","city":"武蔵野市","address":"東京都武蔵野市吉祥寺本町1丁目22-1","lat":35.70439655,"lon":139.58180885},{"name":"PERSONAL SUITE 吉祥寺","province":"東京都","city":"武蔵野市","address":"東京都武蔵野市吉祥寺南町1丁目6-3","lat":35.70178292,"lon":139.58025352},{"name":"NewWork三鷹","province":"東京都","city":"武蔵野市","address":"東京都武蔵野市中町1丁目9-5","lat":35.70520156,"lon":139.56028851},{"name":"NewWork東急百貨店吉祥寺店","province":"東京都","city":"武蔵野市","address":"東京都武蔵野市吉祥寺本町2丁目3-1","lat":35.70503805,"lon":139.57783694},{"name":"井の頭恩賜公園","province":"東京都","city":"武蔵野市","address":"東京都武蔵野市御殿山一丁目、吉祥寺南町一丁目、三鷹市井の頭三・四・五丁目、下連雀一丁目、牟礼四丁目","lat":35.7007,"lon":139.574491},{"name":"武蔵野中央公園","province":"東京都","city":"武蔵野市","address":"東京都武蔵野市八幡町二丁目","lat":35.718669,"lon":139.55854},{"name":"第一浄水場","province":"東京都","city":"武蔵野市","address":"東京都武蔵野市吉祥寺北町4-11-46","lat":35.7152429,"lon":139.566641},{"name":"第二浄水場","province":"東京都","city":"武蔵野市","address":"東京都武蔵野市桜堤1-6-6","lat":35.709673,"lon":139.53636},{"name":"武蔵野赤十字病院","province":"東京都","city":"武蔵野市","address":"武蔵野市境南町1-26-1","lat":35.69767,"lon":139.54785},{"name":"柳橋","province":"東京都","city":"武蔵野市","address":"東京都武蔵野市関前4丁目9-6","lat":35.71390857,"lon":139.54426177},{"name":"八幡宮前","province":"東京都","city":"武蔵野市","address":"東京都武蔵野市吉祥寺北町1丁目1-1","lat":35.70768778,"lon":139.57936447},{"name":"成蹊学園前","province":"東京都","city":"武蔵野市","address":"東京都武蔵野市吉祥寺北町3丁目4-4","lat":35.70982628,"lon":139.57273719},{"name":"吉祥寺駅南口","province":"東京都","city":"武蔵野市","address":"東京都武蔵野市吉祥寺南町1丁目2-7","lat":35.7021773,"lon":139.57981188},{"name":"昭和通り","province":"東京都","city":"武蔵野市","address":"東京都武蔵野市吉祥寺本町2丁目3-1","lat":35.70503805,"lon":139.57783694},{"name":"武蔵野中央","province":"東京都","city":"武蔵野市","address":"東京都武蔵野市吉祥寺北町4丁目13-5","lat":35.71290632,"lon":139.56433503},{"name":"境南町二丁目","province":"東京都","city":"武蔵野市","address":"東京都武蔵野市境南町2丁目27-1","lat":35.69778541,"lon":139.54415695},{"name":"八幡町四丁目","province":"東京都","city":"武蔵野市","address":"東京都武蔵野市八幡町4丁目1-6","lat":35.71834718,"lon":139.55548001},{"name":"西久保三丁目","province":"東京都","city":"武蔵野市","address":"東京都武蔵野市緑町1丁目4-19","lat":35.71427001,"lon":139.56194908},{"name":"武蔵野市営プール前","province":"東京都","city":"武蔵野市","address":"東京都武蔵野市吉祥寺北町5丁目11-30","lat":35.71970841,"lon":139.56803997},{"name":"武蔵野警察署前","province":"東京都","city":"武蔵野市","address":"東京都武蔵野市中町1丁目11-4","lat":35.70555431,"lon":139.5608801},{"name":"吉祥寺駅前","province":"東京都","city":"武蔵野市","address":"東京都武蔵野市吉祥寺南町1丁目1-10","lat":35.70291328,"lon":139.57760649},{"name":"関前橋","province":"東京都","city":"武蔵野市","address":"東京都武蔵野市八幡町2丁目3-10","lat":35.71979428,"lon":139.55733535},{"name":"武蔵野市立三中入口","province":"東京都","city":"武蔵野市","address":"東京都武蔵野市吉祥寺東町1丁目18-19","lat":35.70514929,"lon":139.58430582},{"name":"日本獣医大前","province":"東京都","city":"武蔵野市","address":"東京都武蔵野市境南町2丁目2-20","lat":35.70121006,"lon":139.54586777},{"name":"吉祥寺本町一丁目","province":"東京都","city":"武蔵野市","address":"東京都武蔵野市吉祥寺本町1丁目37-8","lat":35.70371339,"lon":139.58626961},{"name":"武蔵野五小入口","province":"東京都","city":"武蔵野市","address":"東京都武蔵野市関前3丁目3-14","lat":35.71374498,"lon":139.55747727},{"name":"武蔵野大学","province":"東京都","city":"武蔵野市","address":"東京都武蔵野市八幡町3丁目8-7","lat":35.71683614,"lon":139.55066661},{"name":"境二丁目第一","province":"東京都","city":"武蔵野市","address":"東京都武蔵野市境2丁目7-1","lat":35.70459295,"lon":139.54319563},{"name":"境二丁目第二","province":"東京都","city":"武蔵野市","address":"東京都武蔵野市境2丁目2-17","lat":35.70420134,"lon":139.54395948},{"name":"中央通り","province":"東京都","city":"武蔵野市","address":"東京都武蔵野市中町2丁目4-15","lat":35.70679308,"lon":139.56185774},{"name":"武蔵野赤十字前","province":"東京都","city":"武蔵野市","address":"東京都武蔵野市境南町1丁目26-1","lat":35.69687727,"lon":139.54853159},{"name":"千川小前","province":"東京都","city":"武蔵野市","address":"東京都武蔵野市八幡町3丁目5-25","lat":35.718561,"lon":139.55351074},{"name":"武蔵野緑町","province":"東京都","city":"武蔵野市","address":"東京都武蔵野市吉祥寺北町4丁目13-16","lat":35.71432283,"lon":139.56484604},{"name":"境一丁目","province":"東京都","city":"武蔵野市","address":"東京都武蔵野市境1丁目19-1","lat":35.70439582,"lon":139.54662868},{"name":"武蔵野市立高齢者総合センター前","province":"東京都","city":"武蔵野市","address":"東京都武蔵野市緑町1丁目3-17","lat":35.71495606,"lon":139.5627212},{"name":"吉祥寺南町第二","province":"東京都","city":"武蔵野市","address":"東京都武蔵野市吉祥寺本町2丁目2-17","lat":35.70368263,"lon":139.5772787},{"name":"武蔵野市民文化会館前","province":"東京都","city":"武蔵野市","address":"東京都武蔵野市中町3丁目9-11","lat":35.71150095,"lon":139.56584885},{"name":"武蔵野欅橋","province":"東京都","city":"武蔵野市","address":"東京都武蔵野市中町1丁目3-1","lat":35.70382947,"lon":139.55909423},{"name":"吉祥寺駅南口第二","province":"東京都","city":"武蔵野市","address":"東京都武蔵野市吉祥寺南町1丁目2-3","lat":35.70208566,"lon":139.58011741},{"name":"吉祥寺南町三丁目","province":"東京都","city":"武蔵野市","address":"東京都武蔵野市吉祥寺南町3丁目13-2","lat":35.69855843,"lon":139.58629759},{"name":"境南小学校裏","province":"東京都","city":"武蔵野市","address":"東京都武蔵野市境南町2丁目11","lat":35.69860479,"lon":139.54582344},{"name":"吉祥寺駅東口交番","province":"東京都","city":"武蔵野市","address":"東京都武蔵野市吉祥寺本町1丁目17-12","lat":35.7035244,"lon":139.58108394},{"name":"吉祥寺駅北","province":"東京都","city":"武蔵野市","address":"東京都武蔵野市吉祥寺東町1丁目7-1","lat":35.70641576,"lon":139.58168377},{"name":"武蔵野中町二丁目","province":"東京都","city":"武蔵野市","address":"東京都武蔵野市中町2丁目9-32","lat":35.70732086,"lon":139.56512686},{"name":"吉祥寺駅北第二","province":"東京都","city":"武蔵野市","address":"東京都武蔵野市吉祥寺東町1丁目6-27","lat":35.70642131,"lon":139.58140602},{"name":"自然文化園前","province":"東京都","city":"武蔵野市","address":"東京都武蔵野市御殿山1丁目17","lat":35.70006898,"lon":139.56964063},{"name":"商工会館前","province":"東京都","city":"武蔵野市","address":"東京都武蔵野市吉祥寺本町1丁目10-5","lat":35.70538247,"lon":139.57861741},{"name":"本町新道","province":"東京都","city":"武蔵野市","address":"東京都武蔵野市吉祥寺本町1丁目13-10","lat":35.70475482,"lon":139.58083669},{"name":"万助橋北","province":"東京都","city":"武蔵野市","address":"東京都武蔵野市御殿山1丁目17","lat":35.70006898,"lon":139.56964063},{"name":"中町新道","province":"東京都","city":"武蔵野市","address":"東京都武蔵野市中町1丁目21-8","lat":35.70339347,"lon":139.56217175},{"name":"境南町三丁目","province":"東京都","city":"武蔵野市","address":"東京都武蔵野市境南町3丁目23-15","lat":35.69792699,"lon":139.54134053},{"name":"三谷通り入口","province":"東京都","city":"武蔵野市","address":"東京都武蔵野市西久保1丁目6-14","lat":35.70742075,"lon":139.55973846},{"name":"大野田小学校裏","province":"東京都","city":"武蔵野市","address":"東京都武蔵野市緑町2丁目2-28","lat":35.71783358,"lon":139.56594579},{"name":"武蔵野緑町二丁目","province":"東京都","city":"武蔵野市","address":"東京都武蔵野市緑町2丁目4","lat":35.71587537,"lon":139.56161847},{"name":"武蔵野市役所前","province":"東京都","city":"武蔵野市","address":"東京都武蔵野市吉祥寺北町5丁目11-20","lat":35.71788638,"lon":139.56758731},{"name":"吉祥寺南町二丁目","province":"東京都","city":"武蔵野市","address":"東京都武蔵野市吉祥寺南町1丁目31-2","lat":35.70060256,"lon":139.58346718},{"name":"電通研裏","province":"東京都","city":"武蔵野市","address":"東京都武蔵野市緑町3丁目3-6","lat":35.72053605,"lon":139.5661151},{"name":"武蔵野簡易裁判所前","province":"東京都","city":"武蔵野市","address":"東京都武蔵野市中町2丁目9-32","lat":35.70732086,"lon":139.56512686},{"name":"武蔵境駅南口","province":"東京都","city":"武蔵野市","address":"東京都武蔵野市境南町2丁目3-6","lat":35.70110449,"lon":139.54472343},{"name":"中町一丁目","province":"東京都","city":"武蔵野市","address":"東京都武蔵野市中町1丁目11-1","lat":35.70510714,"lon":139.56065514},{"name":"本町新道第二","province":"東京都","city":"武蔵野市","address":"東京都武蔵野市吉祥寺本町1丁目13-1","lat":35.70486313,"lon":139.58050616},{"name":"西久保二丁目","province":"東京都","city":"武蔵野市","address":"東京都武蔵野市西久保1丁目39-5","lat":35.7081067,"lon":139.5560721},{"name":"御殿山一丁目","province":"東京都","city":"武蔵野市","address":"東京都武蔵野市御殿山1丁目3-7","lat":35.70179948,"lon":139.57612055},{"name":"井の頭公園入口","province":"東京都","city":"武蔵野市","address":"東京都武蔵野市御殿山1丁目7-12","lat":35.70127449,"lon":139.57424295},{"name":"武蔵野稲荷神社前","province":"東京都","city":"武蔵野市","address":"東京都武蔵野市緑町1丁目6-6","lat":35.71361448,"lon":139.55979652},{"name":"天文台踏切南","province":"東京都","city":"武蔵野市","address":"東京都武蔵野市境南町2丁目5-8","lat":35.70102944,"lon":139.54210699},{"name":"中町三丁目","province":"東京都","city":"武蔵野市","address":"東京都武蔵野市西久保3丁目1-1","lat":35.70959832,"lon":139.56213815},{"name":"市立南保育園前","province":"東京都","city":"武蔵野市","address":"東京都武蔵野市吉祥寺南町4丁目2-13","lat":35.6997694,"lon":139.58643086},{"name":"武蔵野警察署南","province":"東京都","city":"武蔵野市","address":"東京都武蔵野市西久保1丁目4-11","lat":35.70534875,"lon":139.55971911},{"name":"境南三丁目第二","province":"東京都","city":"武蔵野市","address":"東京都武蔵野市境南町3丁目22-9","lat":35.69823804,"lon":139.54014062},{"name":"吉祥寺南町三丁目第二","province":"東京都","city":"武蔵野市","address":"東京都武蔵野市吉祥寺南町4丁目10-12","lat":35.69922228,"lon":139.58797242},{"name":"吉祥寺南町東第二","province":"東京都","city":"武蔵野市","address":"東京都武蔵野市吉祥寺南町1丁目5-3","lat":35.70267722,"lon":139.57861752},{"name":"吉祥寺南町二丁目第二","province":"東京都","city":"武蔵野市","address":"東京都武蔵野市吉祥寺南町2丁目29-13","lat":35.70023321,"lon":139.58534204},{"name":"井の頭高架東第二","province":"東京都","city":"武蔵野市","address":"東京都武蔵野市吉祥寺南町2丁目13-18","lat":35.70124137,"lon":139.58272555},{"name":"聖徳学園前","province":"東京都","city":"武蔵野市","address":"東京都武蔵野市境南町2丁目9-13","lat":35.69956298,"lon":139.5440541},{"name":"武蔵野水道部前","province":"東京都","city":"武蔵野市","address":"東京都武蔵野市吉祥寺北町4丁目11-46","lat":35.71395903,"lon":139.56650423},{"name":"吉祥寺末広通り","province":"東京都","city":"武蔵野市","address":"東京都武蔵野市吉祥寺南町2丁目2-3","lat":35.7022051,"lon":139.58054237},{"name":"武蔵境駅南口第二","province":"東京都","city":"武蔵野市","address":"東京都武蔵野市境南町2丁目3-16","lat":35.70107392,"lon":139.54416792},{"name":"大正通り","province":"東京都","city":"武蔵野市","address":"東京都武蔵野市吉祥寺本町1丁目8-12","lat":35.7051575,"lon":139.57857575},{"name":"元町","province":"東京都","city":"武蔵野市","address":"東京都武蔵野市吉祥寺本町1丁目8-10","lat":35.70490196,"lon":139.57844522},{"name":"三谷通り入口東","province":"東京都","city":"武蔵野市","address":"東京都武蔵野市西久保1丁目6-17","lat":35.70732077,"lon":139.56035507},{"name":"中央通り北","province":"東京都","city":"武蔵野市","address":"東京都武蔵野市西久保2丁目2-12","lat":35.70850677,"lon":139.56152991},{"name":"武蔵野五小入口第二","province":"東京都","city":"武蔵野市","address":"東京都武蔵野市西久保3丁目26-5","lat":35.71375054,"lon":139.55787723},{"name":"大野田小前","province":"東京都","city":"武蔵野市","address":"東京都武蔵野市吉祥寺北町4丁目10-14","lat":35.71567552,"lon":139.56788182},{"name":"武蔵野市役所裏","province":"東京都","city":"武蔵野市","address":"東京都武蔵野市緑町3丁目1-5","lat":35.71865294,"lon":139.56653181},{"name":"吉祥寺東町一丁目","province":"東京都","city":"武蔵野市","address":"東京都武蔵野市吉祥寺東町1丁目10-18","lat":35.70593806,"lon":139.58270315},{"name":"関前五丁目","province":"東京都","city":"武蔵野市","address":"東京都武蔵野市関前5丁目11-11","lat":35.71271699,"lon":139.54152318},{"name":"武蔵野北高前","province":"東京都","city":"武蔵野市","address":"東京都武蔵野市八幡町2丁目3-10","lat":35.71979428,"lon":139.55733535},{"name":"境南町三丁目北","province":"東京都","city":"武蔵野市","address":"東京都武蔵野市境南町2丁目6","lat":35.70020175,"lon":139.54214313},{"name":"境一丁目第二","province":"東京都","city":"武蔵野市","address":"東京都武蔵野市境1丁目4-9","lat":35.70412082,"lon":139.54512327},{"name":"武蔵野赤十字病院前","province":"東京都","city":"武蔵野市","address":"東京都武蔵野市境南町1丁目26-1","lat":35.69687727,"lon":139.54853159},{"name":"市立境南第二保育園北","province":"東京都","city":"武蔵野市","address":"東京都武蔵野市境南町2丁目20-17","lat":35.69774092,"lon":139.54204047},{"name":"武蔵野障害者センター入口","province":"東京都","city":"武蔵野市","address":"東京都武蔵野市緑町2丁目1-36","lat":35.71581156,"lon":139.56506539},{"name":"日本獣医大東","province":"東京都","city":"武蔵野市","address":"東京都武蔵野市境南町1丁目6-8","lat":35.70103514,"lon":139.54890084},{"name":"吉祥寺大通り","province":"東京都","city":"武蔵野市","address":"東京都武蔵野市吉祥寺本町1丁目18-2","lat":35.70426321,"lon":139.58103392},{"name":"武蔵境駅東第一","province":"東京都","city":"武蔵野市","address":"東京都武蔵野市境1丁目1","lat":35.70237377,"lon":139.5444373},{"name":"成蹊学園前第二","province":"東京都","city":"武蔵野市","address":"東京都武蔵野市吉祥寺本町4丁目26-17","lat":35.70961241,"lon":139.57236778},{"name":"むらさき橋","province":"東京都","city":"武蔵野市","address":"東京都武蔵野市御殿山2丁目13","lat":35.70166875,"lon":139.56677417},{"name":"井の頭自然文化園","province":"東京都","city":"武蔵野市","address":"武蔵野市御殿山1-17-6","lat":35.7016361,"lon":139.5712436},{"name":"(特定非営利活動法人)全日本鼓笛バンド・フォームバトン連盟","province":"東京都","city":"武蔵野市","address":"東京都武蔵野市吉祥寺東町1丁目23-33","lat":35.7077796,"lon":139.58605557},{"name":"＊?武蔵野市民会館","province":"東京都","city":"武蔵野市","address":"武蔵野市境2-3-7","lat":35.705321,"lon":139.543332},{"name":"＊?武蔵野ふるさと歴史館","province":"東京都","city":"武蔵野市","address":"武蔵野市境5-15-5","lat":35.702238,"lon":139.534605},{"name":"＊?武蔵野プレイス","province":"東京都","city":"武蔵野市","address":"武蔵野市境南2-3-18","lat":35.701098,"lon":139.543716},{"name":"武蔵野クリーンセンター","province":"東京都","city":"武蔵野市","address":"東京都武蔵野市緑町3丁目1","lat":35.719227,"lon":139.566376},{"name":"東京電力（株）武蔵野支社","province":"東京都","city":"武蔵野市","address":"武蔵野市西久保1-6-24","lat":35.70672,"lon":139.5603},{"name":"吉祥寺駅","province":"東京都","city":"武蔵野市","address":"東京都武蔵野市吉祥寺南町1丁目1-24","lat":35.70304942,"lon":139.57954798},{"name":"武蔵野赤十字病院","province":"東京都","city":"武蔵野市","address":"武蔵野市境南町1-26-1","lat":35.696886,"lon":139.54857},{"name":"子ども発達支援ルームおれんじ学園","province":"東京都","city":"武蔵野市","address":"武蔵野市吉祥寺北町3-5-8イトーピア吉祥寺1階-110","lat":35.710487,"lon":139.57104},{"name":"ビーキッズむさしの","province":"東京都","city":"武蔵野市","address":"武蔵野市吉祥寺南町3-7-1プランドールサンリョウ2階","lat":35.699553,"lon":139.58637},{"name":"児童発達支援・放課後等デイサービス　ささえ","province":"東京都","city":"武蔵野市","address":"武蔵野市吉祥寺本町一丁目35番14号","lat":35.703736,"lon":139.584806},{"name":"ＴＥＥＮＳ吉祥寺","province":"東京都","city":"武蔵野市","address":"武蔵野市吉祥寺本町2-25-12SantaFe1-C","lat":35.703874,"lon":139.574673},{"name":"スタジオそら武蔵野","province":"東京都","city":"武蔵野市","address":"武蔵野市中町1-23-12クレール武蔵野1階","lat":35.704513,"lon":139.563458},{"name":"子ども発達支援ルームおれんじ学園ｎｉｃｏ","province":"東京都","city":"武蔵野市","address":"武蔵野市中町1-19-8シティハイツ武蔵野1階","lat":35.704999,"lon":139.562672},{"name":"あすはＫｉｄｓ","province":"東京都","city":"武蔵野市","address":"武蔵野市八幡町1-6-1","lat":35.715089,"lon":139.55435},{"name":"千川さくらんぼクラブ","province":"東京都","city":"武蔵野市","address":"武蔵野市八幡町2-5-3武蔵野中央公園北ホール1階","lat":35.7214,"lon":139.559666},{"name":"ｗａｃｃａ","province":"東京都","city":"武蔵野市","address":"武蔵野市八幡町3-8-6ニューハイツ武蔵野1階","lat":35.716425,"lon":139.549872},{"name":"児童発達センター　ぽこあぽこ","province":"東京都","city":"武蔵野市","address":"武蔵野市境2-4-3スヤマ武蔵野1F","lat":35.706223,"lon":139.543173},{"name":"ロゼット","province":"東京都","city":"武蔵野市","address":"武蔵野市境1-4-5","lat":35.704085,"lon":139.544659},{"name":"手毬塾ウノ","province":"東京都","city":"武蔵野市","address":"武蔵野市境南町3-22-22","lat":35.698927,"lon":139.540029},{"name":"ウイングむさしの","province":"東京都","city":"武蔵野市","address":"武蔵野市境南町2-13-5グレーハイツ泉妻","lat":35.698619,"lon":139.543821},{"name":"ゆとりえもったいない食堂","province":"東京都","city":"武蔵野市","address":"東京都武蔵野市吉祥寺南町4丁目25-5","lat":35.6987502,"lon":139.59153881},{"name":"わいわいライス","province":"東京都","city":"武蔵野市","address":"東京都武蔵野市緑町1丁目5-22","lat":35.71384782,"lon":139.56157413},{"name":"ミュー食堂","province":"東京都","city":"武蔵野市","address":"東京都武蔵野市中町3丁目4-9","lat":35.71224251,"lon":139.56427951},{"name":"ファイブグループこども食堂","province":"東京都","city":"武蔵野市","address":"東京都武蔵野市吉祥寺本町1丁目22-1","lat":35.70439655,"lon":139.58180885},{"name":"PERSONAL SUITE 吉祥寺","province":"東京都","city":"武蔵野市","address":"東京都武蔵野市吉祥寺南町1丁目6-3","lat":35.70178292,"lon":139.58025352},{"name":"NewWork三鷹","province":"東京都","city":"武蔵野市","address":"東京都武蔵野市中町1丁目9-5","lat":35.70520156,"lon":139.56028851},{"name":"NewWork東急百貨店吉祥寺店","province":"東京都","city":"武蔵野市","address":"東京都武蔵野市吉祥寺本町2丁目3-1","lat":35.70503805,"lon":139.57783694},{"name":"井の頭恩賜公園","province":"東京都","city":"武蔵野市","address":"東京都武蔵野市御殿山一丁目、吉祥寺南町一丁目、三鷹市井の頭三・四・五丁目、下連雀一丁目、牟礼四丁目","lat":35.7007,"lon":139.574491},{"name":"武蔵野中央公園","province":"東京都","city":"武蔵野市","address":"東京都武蔵野市八幡町二丁目","lat":35.718669,"lon":139.55854},{"name":"第一浄水場","province":"東京都","city":"武蔵野市","address":"東京都武蔵野市吉祥寺北町4-11-46","lat":35.7152429,"lon":139.566641},{"name":"第二浄水場","province":"東京都","city":"武蔵野市","address":"東京都武蔵野市桜堤1-6-6","lat":35.709673,"lon":139.53636},{"name":"武蔵野赤十字病院","province":"東京都","city":"武蔵野市","address":"武蔵野市境南町1-26-1","lat":35.69767,"lon":139.54785},{"name":"柳橋","province":"東京都","city":"武蔵野市","address":"東京都武蔵野市関前4丁目9-6","lat":35.71390857,"lon":139.54426177},{"name":"八幡宮前","province":"東京都","city":"武蔵野市","address":"東京都武蔵野市吉祥寺北町1丁目1-1","lat":35.70768778,"lon":139.57936447},{"name":"成蹊学園前","province":"東京都","city":"武蔵野市","address":"東京都武蔵野市吉祥寺北町3丁目4-4","lat":35.70982628,"lon":139.57273719},{"name":"吉祥寺駅南口","province":"東京都","city":"武蔵野市","address":"東京都武蔵野市吉祥寺南町1丁目2-7","lat":35.7021773,"lon":139.57981188},{"name":"昭和通り","province":"東京都","city":"武蔵野市","address":"東京都武蔵野市吉祥寺本町2丁目3-1","lat":35.70503805,"lon":139.57783694},{"name":"武蔵野中央","province":"東京都","city":"武蔵野市","address":"東京都武蔵野市吉祥寺北町4丁目13-5","lat":35.71290632,"lon":139.56433503},{"name":"境南町二丁目","province":"東京都","city":"武蔵野市","address":"東京都武蔵野市境南町2丁目27-1","lat":35.69778541,"lon":139.54415695},{"name":"八幡町四丁目","province":"東京都","city":"武蔵野市","address":"東京都武蔵野市八幡町4丁目1-6","lat":35.71834718,"lon":139.55548001},{"name":"西久保三丁目","province":"東京都","city":"武蔵野市","address":"東京都武蔵野市緑町1丁目4-19","lat":35.71427001,"lon":139.56194908},{"name":"武蔵野市営プール前","province":"東京都","city":"武蔵野市","address":"東京都武蔵野市吉祥寺北町5丁目11-30","lat":35.71970841,"lon":139.56803997},{"name":"武蔵野警察署前","province":"東京都","city":"武蔵野市","address":"東京都武蔵野市中町1丁目11-4","lat":35.70555431,"lon":139.5608801},{"name":"吉祥寺駅前","province":"東京都","city":"武蔵野市","address":"東京都武蔵野市吉祥寺南町1丁目1-10","lat":35.70291328,"lon":139.57760649},{"name":"関前橋","province":"東京都","city":"武蔵野市","address":"東京都武蔵野市八幡町2丁目3-10","lat":35.71979428,"lon":139.55733535},{"name":"武蔵野市立三中入口","province":"東京都","city":"武蔵野市","address":"東京都武蔵野市吉祥寺東町1丁目18-19","lat":35.70514929,"lon":139.58430582},{"name":"日本獣医大前","province":"東京都","city":"武蔵野市","address":"東京都武蔵野市境南町2丁目2-20","lat":35.70121006,"lon":139.54586777},{"name":"吉祥寺本町一丁目","province":"東京都","city":"武蔵野市","address":"東京都武蔵野市吉祥寺本町1丁目37-8","lat":35.70371339,"lon":139.58626961},{"name":"武蔵野五小入口","province":"東京都","city":"武蔵野市","address":"東京都武蔵野市関前3丁目3-14","lat":35.71374498,"lon":139.55747727},{"name":"武蔵野大学","province":"東京都","city":"武蔵野市","address":"東京都武蔵野市八幡町3丁目8-7","lat":35.71683614,"lon":139.55066661},{"name":"境二丁目第一","province":"東京都","city":"武蔵野市","address":"東京都武蔵野市境2丁目7-1","lat":35.70459295,"lon":139.54319563},{"name":"境二丁目第二","province":"東京都","city":"武蔵野市","address":"東京都武蔵野市境2丁目2-17","lat":35.70420134,"lon":139.54395948},{"name":"中央通り","province":"東京都","city":"武蔵野市","address":"東京都武蔵野市中町2丁目4-15","lat":35.70679308,"lon":139.56185774},{"name":"武蔵野赤十字前","province":"東京都","city":"武蔵野市","address":"東京都武蔵野市境南町1丁目26-1","lat":35.69687727,"lon":139.54853159},{"name":"千川小前","province":"東京都","city":"武蔵野市","address":"東京都武蔵野市八幡町3丁目5-25","lat":35.718561,"lon":139.55351074},{"name":"武蔵野緑町","province":"東京都","city":"武蔵野市","address":"東京都武蔵野市吉祥寺北町4丁目13-16","lat":35.71432283,"lon":139.56484604},{"name":"境一丁目","province":"東京都","city":"武蔵野市","address":"東京都武蔵野市境1丁目19-1","lat":35.70439582,"lon":139.54662868},{"name":"武蔵野市立高齢者総合センター前","province":"東京都","city":"武蔵野市","address":"東京都武蔵野市緑町1丁目3-17","lat":35.71495606,"lon":139.5627212},{"name":"吉祥寺南町第二","province":"東京都","city":"武蔵野市","address":"東京都武蔵野市吉祥寺本町2丁目2-17","lat":35.70368263,"lon":139.5772787},{"name":"武蔵野市民文化会館前","province":"東京都","city":"武蔵野市","address":"東京都武蔵野市中町3丁目9-11","lat":35.71150095,"lon":139.56584885},{"name":"武蔵野欅橋","province":"東京都","city":"武蔵野市","address":"東京都武蔵野市中町1丁目3-1","lat":35.70382947,"lon":139.55909423},{"name":"吉祥寺駅南口第二","province":"東京都","city":"武蔵野市","address":"東京都武蔵野市吉祥寺南町1丁目2-3","lat":35.70208566,"lon":139.58011741},{"name":"吉祥寺南町三丁目","province":"東京都","city":"武蔵野市","address":"東京都武蔵野市吉祥寺南町3丁目13-2","lat":35.69855843,"lon":139.58629759},{"name":"境南小学校裏","province":"東京都","city":"武蔵野市","address":"東京都武蔵野市境南町2丁目11","lat":35.69860479,"lon":139.54582344},{"name":"吉祥寺駅東口交番","province":"東京都","city":"武蔵野市","address":"東京都武蔵野市吉祥寺本町1丁目17-12","lat":35.7035244,"lon":139.58108394},{"name":"吉祥寺駅北","province":"東京都","city":"武蔵野市","address":"東京都武蔵野市吉祥寺東町1丁目7-1","lat":35.70641576,"lon":139.58168377},{"name":"武蔵野中町二丁目","province":"東京都","city":"武蔵野市","address":"東京都武蔵野市中町2丁目9-32","lat":35.70732086,"lon":139.56512686},{"name":"吉祥寺駅北第二","province":"東京都","city":"武蔵野市","address":"東京都武蔵野市吉祥寺東町1丁目6-27","lat":35.70642131,"lon":139.58140602},{"name":"自然文化園前","province":"東京都","city":"武蔵野市","address":"東京都武蔵野市御殿山1丁目17","lat":35.70006898,"lon":139.56964063},{"name":"商工会館前","province":"東京都","city":"武蔵野市","address":"東京都武蔵野市吉祥寺本町1丁目10-5","lat":35.70538247,"lon":139.57861741},{"name":"本町新道","province":"東京都","city":"武蔵野市","address":"東京都武蔵野市吉祥寺本町1丁目13-10","lat":35.70475482,"lon":139.58083669},{"name":"万助橋北","province":"東京都","city":"武蔵野市","address":"東京都武蔵野市御殿山1丁目17","lat":35.70006898,"lon":139.56964063},{"name":"中町新道","province":"東京都","city":"武蔵野市","address":"東京都武蔵野市中町1丁目21-8","lat":35.70339347,"lon":139.56217175},{"name":"境南町三丁目","province":"東京都","city":"武蔵野市","address":"東京都武蔵野市境南町3丁目23-15","lat":35.69792699,"lon":139.54134053},{"name":"三谷通り入口","province":"東京都","city":"武蔵野市","address":"東京都武蔵野市西久保1丁目6-14","lat":35.70742075,"lon":139.55973846},{"name":"大野田小学校裏","province":"東京都","city":"武蔵野市","address":"東京都武蔵野市緑町2丁目2-28","lat":35.71783358,"lon":139.56594579},{"name":"武蔵野緑町二丁目","province":"東京都","city":"武蔵野市","address":"東京都武蔵野市緑町2丁目4","lat":35.71587537,"lon":139.56161847},{"name":"武蔵野市役所前","province":"東京都","city":"武蔵野市","address":"東京都武蔵野市吉祥寺北町5丁目11-20","lat":35.71788638,"lon":139.56758731},{"name":"吉祥寺南町二丁目","province":"東京都","city":"武蔵野市","address":"東京都武蔵野市吉祥寺南町1丁目31-2","lat":35.70060256,"lon":139.58346718},{"name":"電通研裏","province":"東京都","city":"武蔵野市","address":"東京都武蔵野市緑町3丁目3-6","lat":35.72053605,"lon":139.5661151},{"name":"武蔵野簡易裁判所前","province":"東京都","city":"武蔵野市","address":"東京都武蔵野市中町2丁目9-32","lat":35.70732086,"lon":139.56512686},{"name":"武蔵境駅南口","province":"東京都","city":"武蔵野市","address":"東京都武蔵野市境南町2丁目3-6","lat":35.70110449,"lon":139.54472343},{"name":"中町一丁目","province":"東京都","city":"武蔵野市","address":"東京都武蔵野市中町1丁目11-1","lat":35.70510714,"lon":139.56065514},{"name":"本町新道第二","province":"東京都","city":"武蔵野市","address":"東京都武蔵野市吉祥寺本町1丁目13-1","lat":35.70486313,"lon":139.58050616},{"name":"西久保二丁目","province":"東京都","city":"武蔵野市","address":"東京都武蔵野市西久保1丁目39-5","lat":35.7081067,"lon":139.5560721},{"name":"御殿山一丁目","province":"東京都","city":"武蔵野市","address":"東京都武蔵野市御殿山1丁目3-7","lat":35.70179948,"lon":139.57612055},{"name":"井の頭公園入口","province":"東京都","city":"武蔵野市","address":"東京都武蔵野市御殿山1丁目7-12","lat":35.70127449,"lon":139.57424295},{"name":"武蔵野稲荷神社前","province":"東京都","city":"武蔵野市","address":"東京都武蔵野市緑町1丁目6-6","lat":35.71361448,"lon":139.55979652},{"name":"天文台踏切南","province":"東京都","city":"武蔵野市","address":"東京都武蔵野市境南町2丁目5-8","lat":35.70102944,"lon":139.54210699},{"name":"中町三丁目","province":"東京都","city":"武蔵野市","address":"東京都武蔵野市西久保3丁目1-1","lat":35.70959832,"lon":139.56213815},{"name":"市立南保育園前","province":"東京都","city":"武蔵野市","address":"東京都武蔵野市吉祥寺南町4丁目2-13","lat":35.6997694,"lon":139.58643086},{"name":"武蔵野警察署南","province":"東京都","city":"武蔵野市","address":"東京都武蔵野市西久保1丁目4-11","lat":35.70534875,"lon":139.55971911},{"name":"境南三丁目第二","province":"東京都","city":"武蔵野市","address":"東京都武蔵野市境南町3丁目22-9","lat":35.69823804,"lon":139.54014062},{"name":"吉祥寺南町三丁目第二","province":"東京都","city":"武蔵野市","address":"東京都武蔵野市吉祥寺南町4丁目10-12","lat":35.69922228,"lon":139.58797242},{"name":"吉祥寺南町東第二","province":"東京都","city":"武蔵野市","address":"東京都武蔵野市吉祥寺南町1丁目5-3","lat":35.70267722,"lon":139.57861752},{"name":"吉祥寺南町二丁目第二","province":"東京都","city":"武蔵野市","address":"東京都武蔵野市吉祥寺南町2丁目29-13","lat":35.70023321,"lon":139.58534204},{"name":"井の頭高架東第二","province":"東京都","city":"武蔵野市","address":"東京都武蔵野市吉祥寺南町2丁目13-18","lat":35.70124137,"lon":139.58272555},{"name":"聖徳学園前","province":"東京都","city":"武蔵野市","address":"東京都武蔵野市境南町2丁目9-13","lat":35.69956298,"lon":139.5440541},{"name":"武蔵野水道部前","province":"東京都","city":"武蔵野市","address":"東京都武蔵野市吉祥寺北町4丁目11-46","lat":35.71395903,"lon":139.56650423},{"name":"吉祥寺末広通り","province":"東京都","city":"武蔵野市","address":"東京都武蔵野市吉祥寺南町2丁目2-3","lat":35.7022051,"lon":139.58054237},{"name":"武蔵境駅南口第二","province":"東京都","city":"武蔵野市","address":"東京都武蔵野市境南町2丁目3-16","lat":35.70107392,"lon":139.54416792},{"name":"大正通り","province":"東京都","city":"武蔵野市","address":"東京都武蔵野市吉祥寺本町1丁目8-12","lat":35.7051575,"lon":139.57857575},{"name":"元町","province":"東京都","city":"武蔵野市","address":"東京都武蔵野市吉祥寺本町1丁目8-10","lat":35.70490196,"lon":139.57844522},{"name":"三谷通り入口東","province":"東京都","city":"武蔵野市","address":"東京都武蔵野市西久保1丁目6-17","lat":35.70732077,"lon":139.56035507},{"name":"中央通り北","province":"東京都","city":"武蔵野市","address":"東京都武蔵野市西久保2丁目2-12","lat":35.70850677,"lon":139.56152991},{"name":"武蔵野五小入口第二","province":"東京都","city":"武蔵野市","address":"東京都武蔵野市西久保3丁目26-5","lat":35.71375054,"lon":139.55787723},{"name":"大野田小前","province":"東京都","city":"武蔵野市","address":"東京都武蔵野市吉祥寺北町4丁目10-14","lat":35.71567552,"lon":139.56788182},{"name":"武蔵野市役所裏","province":"東京都","city":"武蔵野市","address":"東京都武蔵野市緑町3丁目1-5","lat":35.71865294,"lon":139.56653181},{"name":"吉祥寺東町一丁目","province":"東京都","city":"武蔵野市","address":"東京都武蔵野市吉祥寺東町1丁目10-18","lat":35.70593806,"lon":139.58270315},{"name":"関前五丁目","province":"東京都","city":"武蔵野市","address":"東京都武蔵野市関前5丁目11-11","lat":35.71271699,"lon":139.54152318},{"name":"武蔵野北高前","province":"東京都","city":"武蔵野市","address":"東京都武蔵野市八幡町2丁目3-10","lat":35.71979428,"lon":139.55733535},{"name":"境南町三丁目北","province":"東京都","city":"武蔵野市","address":"東京都武蔵野市境南町2丁目6","lat":35.70020175,"lon":139.54214313},{"name":"境一丁目第二","province":"東京都","city":"武蔵野市","address":"東京都武蔵野市境1丁目4-9","lat":35.70412082,"lon":139.54512327},{"name":"武蔵野赤十字病院前","province":"東京都","city":"武蔵野市","address":"東京都武蔵野市境南町1丁目26-1","lat":35.69687727,"lon":139.54853159},{"name":"市立境南第二保育園北","province":"東京都","city":"武蔵野市","address":"東京都武蔵野市境南町2丁目20-17","lat":35.69774092,"lon":139.54204047},{"name":"武蔵野障害者センター入口","province":"東京都","city":"武蔵野市","address":"東京都武蔵野市緑町2丁目1-36","lat":35.71581156,"lon":139.56506539},{"name":"日本獣医大東","province":"東京都","city":"武蔵野市","address":"東京都武蔵野市境南町1丁目6-8","lat":35.70103514,"lon":139.54890084},{"name":"吉祥寺大通り","province":"東京都","city":"武蔵野市","address":"東京都武蔵野市吉祥寺本町1丁目18-2","lat":35.70426321,"lon":139.58103392},{"name":"武蔵境駅東第一","province":"東京都","city":"武蔵野市","address":"東京都武蔵野市境1丁目1","lat":35.70237377,"lon":139.5444373},{"name":"成蹊学園前第二","province":"東京都","city":"武蔵野市","address":"東京都武蔵野市吉祥寺本町4丁目26-17","lat":35.70961241,"lon":139.57236778},{"name":"むらさき橋","province":"東京都","city":"武蔵野市","address":"東京都武蔵野市御殿山2丁目13","lat":35.70166875,"lon":139.56677417},{"name":"(特定非営利活動法人)全日本鼓笛バンド・フォームバトン連盟","province":"東京都","city":"武蔵野市","address":"東京都武蔵野市吉祥寺東町1丁目23-33","lat":35.7077796,"lon":139.58605557},{"name":"＊?武蔵野プレイス","province":"東京都","city":"武蔵野市","address":"武蔵野市境南2-3-18","lat":35.701098,"lon":139.543716},{"name":"武蔵野クリーンセンター","province":"東京都","city":"武蔵野市","address":"東京都武蔵野市緑町3丁目1","lat":35.719227,"lon":139.566376},{"name":"武蔵野赤十字病院","province":"東京都","city":"武蔵野市","address":"武蔵野市境南町1-26-1","lat":35.696886,"lon":139.54857},{"name":"子ども発達支援ルームおれんじ学園","province":"東京都","city":"武蔵野市","address":"武蔵野市吉祥寺北町3-5-8イトーピア吉祥寺1階-110","lat":35.710487,"lon":139.57104},{"name":"ビーキッズむさしの","province":"東京都","city":"武蔵野市","address":"武蔵野市吉祥寺南町3-7-1プランドールサンリョウ2階","lat":35.699553,"lon":139.58637},{"name":"児童発達支援・放課後等デイサービス　ささえ","province":"東京都","city":"武蔵野市","address":"武蔵野市吉祥寺本町一丁目35番14号","lat":35.703736,"lon":139.584806},{"name":"ＴＥＥＮＳ吉祥寺","province":"東京都","city":"武蔵野市","address":"武蔵野市吉祥寺本町2-25-12SantaFe1-C","lat":35.703874,"lon":139.574673},{"name":"スタジオそら武蔵野","province":"東京都","city":"武蔵野市","address":"武蔵野市中町1-23-12クレール武蔵野1階","lat":35.704513,"lon":139.563458},{"name":"子ども発達支援ルームおれんじ学園ｎｉｃｏ","province":"東京都","city":"武蔵野市","address":"武蔵野市中町1-19-8シティハイツ武蔵野1階","lat":35.704999,"lon":139.562672},{"name":"あすはＫｉｄｓ","province":"東京都","city":"武蔵野市","address":"武蔵野市八幡町1-6-1","lat":35.715089,"lon":139.55435},{"name":"千川さくらんぼクラブ","province":"東京都","city":"武蔵野市","address":"武蔵野市八幡町2-5-3武蔵野中央公園北ホール1階","lat":35.7214,"lon":139.559666},{"name":"ｗａｃｃａ","province":"東京都","city":"武蔵野市","address":"武蔵野市八幡町3-8-6ニューハイツ武蔵野1階","lat":35.716425,"lon":139.549872},{"name":"児童発達センター　ぽこあぽこ","province":"東京都","city":"武蔵野市","address":"武蔵野市境2-4-3スヤマ武蔵野1F","lat":35.706223,"lon":139.543173},{"name":"ロゼット","province":"東京都","city":"武蔵野市","address":"武蔵野市境1-4-5","lat":35.704085,"lon":139.544659},{"name":"手毬塾ウノ","province":"東京都","city":"武蔵野市","address":"武蔵野市境南町3-22-22","lat":35.698927,"lon":139.540029},{"name":"ウイングむさしの","province":"東京都","city":"武蔵野市","address":"武蔵野市境南町2-13-5グレーハイツ泉妻","lat":35.698619,"lon":139.543821},{"name":"PERSONAL SUITE 吉祥寺","province":"東京都","city":"武蔵野市","address":"東京都武蔵野市吉祥寺南町1丁目6-3","lat":35.70178292,"lon":139.58025352},{"name":"NewWork三鷹","province":"東京都","city":"武蔵野市","address":"東京都武蔵野市中町1丁目9-5","lat":35.70520156,"lon":139.56028851},{"name":"NewWork東急百貨店吉祥寺店","province":"東京都","city":"武蔵野市","address":"東京都武蔵野市吉祥寺本町2丁目3-1","lat":35.70503805,"lon":139.57783694},{"name":"井の頭恩賜公園","province":"東京都","city":"武蔵野市","address":"東京都武蔵野市御殿山一丁目、吉祥寺南町一丁目、三鷹市井の頭三・四・五丁目、下連雀一丁目、牟礼四丁目","lat":35.7007,"lon":139.574491},{"name":"武蔵野中央公園","province":"東京都","city":"武蔵野市","address":"東京都武蔵野市八幡町二丁目","lat":35.718669,"lon":139.55854},{"name":"第一浄水場","province":"東京都","city":"武蔵野市","address":"東京都武蔵野市吉祥寺北町4-11-46","lat":35.7152429,"lon":139.566641},{"name":"第二浄水場","province":"東京都","city":"武蔵野市","address":"東京都武蔵野市桜堤1-6-6","lat":35.709673,"lon":139.53636},{"name":"武蔵野赤十字病院","province":"東京都","city":"武蔵野市","address":"武蔵野市境南町1-26-1","lat":35.69767,"lon":139.54785},{"name":"柳橋","province":"東京都","city":"武蔵野市","address":"東京都武蔵野市関前4丁目9-6","lat":35.71390857,"lon":139.54426177},{"name":"八幡宮前","province":"東京都","city":"武蔵野市","address":"東京都武蔵野市吉祥寺北町1丁目1-1","lat":35.70768778,"lon":139.57936447},{"name":"成蹊学園前","province":"東京都","city":"武蔵野市","address":"東京都武蔵野市吉祥寺北町3丁目4-4","lat":35.70982628,"lon":139.57273719},{"name":"吉祥寺駅南口","province":"東京都","city":"武蔵野市","address":"東京都武蔵野市吉祥寺南町1丁目2-7","lat":35.7021773,"lon":139.57981188},{"name":"昭和通り","province":"東京都","city":"武蔵野市","address":"東京都武蔵野市吉祥寺本町2丁目3-1","lat":35.70503805,"lon":139.57783694},{"name":"武蔵野中央","province":"東京都","city":"武蔵野市","address":"東京都武蔵野市吉祥寺北町4丁目13-5","lat":35.71290632,"lon":139.56433503},{"name":"境南町二丁目","province":"東京都","city":"武蔵野市","address":"東京都武蔵野市境南町2丁目27-1","lat":35.69778541,"lon":139.54415695},{"name":"八幡町四丁目","province":"東京都","city":"武蔵野市","address":"東京都武蔵野市八幡町4丁目1-6","lat":35.71834718,"lon":139.55548001},{"name":"西久保三丁目","province":"東京都","city":"武蔵野市","address":"東京都武蔵野市緑町1丁目4-19","lat":35.71427001,"lon":139.56194908},{"name":"武蔵野市営プール前","province":"東京都","city":"武蔵野市","address":"東京都武蔵野市吉祥寺北町5丁目11-30","lat":35.71970841,"lon":139.56803997},{"name":"武蔵野警察署前","province":"東京都","city":"武蔵野市","address":"東京都武蔵野市中町1丁目11-4","lat":35.70555431,"lon":139.5608801},{"name":"吉祥寺駅前","province":"東京都","city":"武蔵野市","address":"東京都武蔵野市吉祥寺南町1丁目1-10","lat":35.70291328,"lon":139.57760649},{"name":"関前橋","province":"東京都","city":"武蔵野市","address":"東京都武蔵野市八幡町2丁目3-10","lat":35.71979428,"lon":139.55733535},{"name":"武蔵野市立三中入口","province":"東京都","city":"武蔵野市","address":"東京都武蔵野市吉祥寺東町1丁目18-19","lat":35.70514929,"lon":139.58430582},{"name":"日本獣医大前","province":"東京都","city":"武蔵野市","address":"東京都武蔵野市境南町2丁目2-20","lat":35.70121006,"lon":139.54586777},{"name":"吉祥寺本町一丁目","province":"東京都","city":"武蔵野市","address":"東京都武蔵野市吉祥寺本町1丁目37-8","lat":35.70371339,"lon":139.58626961},{"name":"武蔵野五小入口","province":"東京都","city":"武蔵野市","address":"東京都武蔵野市関前3丁目3-14","lat":35.71374498,"lon":139.55747727},{"name":"武蔵野大学","province":"東京都","city":"武蔵野市","address":"東京都武蔵野市八幡町3丁目8-7","lat":35.71683614,"lon":139.55066661},{"name":"境二丁目第一","province":"東京都","city":"武蔵野市","address":"東京都武蔵野市境2丁目7-1","lat":35.70459295,"lon":139.54319563},{"name":"境二丁目第二","province":"東京都","city":"武蔵野市","address":"東京都武蔵野市境2丁目2-17","lat":35.70420134,"lon":139.54395948},{"name":"中央通り","province":"東京都","city":"武蔵野市","address":"東京都武蔵野市中町2丁目4-15","lat":35.70679308,"lon":139.56185774},{"name":"武蔵野赤十字前","province":"東京都","city":"武蔵野市","address":"東京都武蔵野市境南町1丁目26-1","lat":35.69687727,"lon":139.54853159},{"name":"千川小前","province":"東京都","city":"武蔵野市","address":"東京都武蔵野市八幡町3丁目5-25","lat":35.718561,"lon":139.55351074},{"name":"武蔵野緑町","province":"東京都","city":"武蔵野市","address":"東京都武蔵野市吉祥寺北町4丁目13-16","lat":35.71432283,"lon":139.56484604},{"name":"境一丁目","province":"東京都","city":"武蔵野市","address":"東京都武蔵野市境1丁目19-1","lat":35.70439582,"lon":139.54662868},{"name":"武蔵野市立高齢者総合センター前","province":"東京都","city":"武蔵野市","address":"東京都武蔵野市緑町1丁目3-17","lat":35.71495606,"lon":139.5627212},{"name":"吉祥寺南町第二","province":"東京都","city":"武蔵野市","address":"東京都武蔵野市吉祥寺本町2丁目2-17","lat":35.70368263,"lon":139.5772787},{"name":"武蔵野市民文化会館前","province":"東京都","city":"武蔵野市","address":"東京都武蔵野市中町3丁目9-11","lat":35.71150095,"lon":139.56584885},{"name":"武蔵野欅橋","province":"東京都","city":"武蔵野市","address":"東京都武蔵野市中町1丁目3-1","lat":35.70382947,"lon":139.55909423},{"name":"吉祥寺駅南口第二","province":"東京都","city":"武蔵野市","address":"東京都武蔵野市吉祥寺南町1丁目2-3","lat":35.70208566,"lon":139.58011741},{"name":"吉祥寺南町三丁目","province":"東京都","city":"武蔵野市","address":"東京都武蔵野市吉祥寺南町3丁目13-2","lat":35.69855843,"lon":139.58629759},{"name":"境南小学校裏","province":"東京都","city":"武蔵野市","address":"東京都武蔵野市境南町2丁目11","lat":35.69860479,"lon":139.54582344},{"name":"吉祥寺駅東口交番","province":"東京都","city":"武蔵野市","address":"東京都武蔵野市吉祥寺本町1丁目17-12","lat":35.7035244,"lon":139.58108394},{"name":"吉祥寺駅北","province":"東京都","city":"武蔵野市","address":"東京都武蔵野市吉祥寺東町1丁目7-1","lat":35.70641576,"lon":139.58168377},{"name":"武蔵野中町二丁目","province":"東京都","city":"武蔵野市","address":"東京都武蔵野市中町2丁目9-32","lat":35.70732086,"lon":139.56512686},{"name":"吉祥寺駅北第二","province":"東京都","city":"武蔵野市","address":"東京都武蔵野市吉祥寺東町1丁目6-27","lat":35.70642131,"lon":139.58140602},{"name":"自然文化園前","province":"東京都","city":"武蔵野市","address":"東京都武蔵野市御殿山1丁目17","lat":35.70006898,"lon":139.56964063},{"name":"商工会館前","province":"東京都","city":"武蔵野市","address":"東京都武蔵野市吉祥寺本町1丁目10-5","lat":35.70538247,"lon":139.57861741},{"name":"本町新道","province":"東京都","city":"武蔵野市","address":"東京都武蔵野市吉祥寺本町1丁目13-10","lat":35.70475482,"lon":139.58083669},{"name":"万助橋北","province":"東京都","city":"武蔵野市","address":"東京都武蔵野市御殿山1丁目17","lat":35.70006898,"lon":139.56964063},{"name":"中町新道","province":"東京都","city":"武蔵野市","address":"東京都武蔵野市中町1丁目21-8","lat":35.70339347,"lon":139.56217175},{"name":"境南町三丁目","province":"東京都","city":"武蔵野市","address":"東京都武蔵野市境南町3丁目23-15","lat":35.69792699,"lon":139.54134053},{"name":"三谷通り入口","province":"東京都","city":"武蔵野市","address":"東京都武蔵野市西久保1丁目6-14","lat":35.70742075,"lon":139.55973846},{"name":"大野田小学校裏","province":"東京都","city":"武蔵野市","address":"東京都武蔵野市緑町2丁目2-28","lat":35.71783358,"lon":139.56594579},{"name":"武蔵野緑町二丁目","province":"東京都","city":"武蔵野市","address":"東京都武蔵野市緑町2丁目4","lat":35.71587537,"lon":139.56161847},{"name":"武蔵野市役所前","province":"東京都","city":"武蔵野市","address":"東京都武蔵野市吉祥寺北町5丁目11-20","lat":35.71788638,"lon":139.56758731},{"name":"吉祥寺南町二丁目","province":"東京都","city":"武蔵野市","address":"東京都武蔵野市吉祥寺南町1丁目31-2","lat":35.70060256,"lon":139.58346718},{"name":"電通研裏","province":"東京都","city":"武蔵野市","address":"東京都武蔵野市緑町3丁目3-6","lat":35.72053605,"lon":139.5661151},{"name":"武蔵野簡易裁判所前","province":"東京都","city":"武蔵野市","address":"東京都武蔵野市中町2丁目9-32","lat":35.70732086,"lon":139.56512686},{"name":"武蔵境駅南口","province":"東京都","city":"武蔵野市","address":"東京都武蔵野市境南町2丁目3-6","lat":35.70110449,"lon":139.54472343},{"name":"中町一丁目","province":"東京都","city":"武蔵野市","address":"東京都武蔵野市中町1丁目11-1","lat":35.70510714,"lon":139.56065514},{"name":"本町新道第二","province":"東京都","city":"武蔵野市","address":"東京都武蔵野市吉祥寺本町1丁目13-1","lat":35.70486313,"lon":139.58050616},{"name":"西久保二丁目","province":"東京都","city":"武蔵野市","address":"東京都武蔵野市西久保1丁目39-5","lat":35.7081067,"lon":139.5560721},{"name":"御殿山一丁目","province":"東京都","city":"武蔵野市","address":"東京都武蔵野市御殿山1丁目3-7","lat":35.70179948,"lon":139.57612055},{"name":"井の頭公園入口","province":"東京都","city":"武蔵野市","address":"東京都武蔵野市御殿山1丁目7-12","lat":35.70127449,"lon":139.57424295},{"name":"武蔵野稲荷神社前","province":"東京都","city":"武蔵野市","address":"東京都武蔵野市緑町1丁目6-6","lat":35.71361448,"lon":139.55979652},{"name":"天文台踏切南","province":"東京都","city":"武蔵野市","address":"東京都武蔵野市境南町2丁目5-8","lat":35.70102944,"lon":139.54210699},{"name":"中町三丁目","province":"東京都","city":"武蔵野市","address":"東京都武蔵野市西久保3丁目1-1","lat":35.70959832,"lon":139.56213815},{"name":"市立南保育園前","province":"東京都","city":"武蔵野市","address":"東京都武蔵野市吉祥寺南町4丁目2-13","lat":35.6997694,"lon":139.58643086},{"name":"武蔵野警察署南","province":"東京都","city":"武蔵野市","address":"東京都武蔵野市西久保1丁目4-11","lat":35.70534875,"lon":139.55971911},{"name":"境南三丁目第二","province":"東京都","city":"武蔵野市","address":"東京都武蔵野市境南町3丁目22-9","lat":35.69823804,"lon":139.54014062},{"name":"吉祥寺南町三丁目第二","province":"東京都","city":"武蔵野市","address":"東京都武蔵野市吉祥寺南町4丁目10-12","lat":35.69922228,"lon":139.58797242},{"name":"吉祥寺南町東第二","province":"東京都","city":"武蔵野市","address":"東京都武蔵野市吉祥寺南町1丁目5-3","lat":35.70267722,"lon":139.57861752},{"name":"吉祥寺南町二丁目第二","province":"東京都","city":"武蔵野市","address":"東京都武蔵野市吉祥寺南町2丁目29-13","lat":35.70023321,"lon":139.58534204},{"name":"井の頭高架東第二","province":"東京都","city":"武蔵野市","address":"東京都武蔵野市吉祥寺南町2丁目13-18","lat":35.70124137,"lon":139.58272555},{"name":"聖徳学園前","province":"東京都","city":"武蔵野市","address":"東京都武蔵野市境南町2丁目9-13","lat":35.69956298,"lon":139.5440541},{"name":"武蔵野水道部前","province":"東京都","city":"武蔵野市","address":"東京都武蔵野市吉祥寺北町4丁目11-46","lat":35.71395903,"lon":139.56650423},{"name":"吉祥寺末広通り","province":"東京都","city":"武蔵野市","address":"東京都武蔵野市吉祥寺南町2丁目2-3","lat":35.7022051,"lon":139.58054237},{"name":"武蔵境駅南口第二","province":"東京都","city":"武蔵野市","address":"東京都武蔵野市境南町2丁目3-16","lat":35.70107392,"lon":139.54416792},{"name":"大正通り","province":"東京都","city":"武蔵野市","address":"東京都武蔵野市吉祥寺本町1丁目8-12","lat":35.7051575,"lon":139.57857575},{"name":"元町","province":"東京都","city":"武蔵野市","address":"東京都武蔵野市吉祥寺本町1丁目8-10","lat":35.70490196,"lon":139.57844522},{"name":"三谷通り入口東","province":"東京都","city":"武蔵野市","address":"東京都武蔵野市西久保1丁目6-17","lat":35.70732077,"lon":139.56035507},{"name":"中央通り北","province":"東京都","city":"武蔵野市","address":"東京都武蔵野市西久保2丁目2-12","lat":35.70850677,"lon":139.56152991},{"name":"武蔵野五小入口第二","province":"東京都","city":"武蔵野市","address":"東京都武蔵野市西久保3丁目26-5","lat":35.71375054,"lon":139.55787723},{"name":"大野田小前","province":"東京都","city":"武蔵野市","address":"東京都武蔵野市吉祥寺北町4丁目10-14","lat":35.71567552,"lon":139.56788182},{"name":"武蔵野市役所裏","province":"東京都","city":"武蔵野市","address":"東京都武蔵野市緑町3丁目1-5","lat":35.71865294,"lon":139.56653181},{"name":"吉祥寺東町一丁目","province":"東京都","city":"武蔵野市","address":"東京都武蔵野市吉祥寺東町1丁目10-18","lat":35.70593806,"lon":139.58270315},{"name":"関前五丁目","province":"東京都","city":"武蔵野市","address":"東京都武蔵野市関前5丁目11-11","lat":35.71271699,"lon":139.54152318},{"name":"武蔵野北高前","province":"東京都","city":"武蔵野市","address":"東京都武蔵野市八幡町2丁目3-10","lat":35.71979428,"lon":139.55733535},{"name":"境南町三丁目北","province":"東京都","city":"武蔵野市","address":"東京都武蔵野市境南町2丁目6","lat":35.70020175,"lon":139.54214313},{"name":"境一丁目第二","province":"東京都","city":"武蔵野市","address":"東京都武蔵野市境1丁目4-9","lat":35.70412082,"lon":139.54512327},{"name":"武蔵野赤十字病院前","province":"東京都","city":"武蔵野市","address":"東京都武蔵野市境南町1丁目26-1","lat":35.69687727,"lon":139.54853159},{"name":"市立境南第二保育園北","province":"東京都","city":"武蔵野市","address":"東京都武蔵野市境南町2丁目20-17","lat":35.69774092,"lon":139.54204047},{"name":"武蔵野障害者センター入口","province":"東京都","city":"武蔵野市","address":"東京都武蔵野市緑町2丁目1-36","lat":35.71581156,"lon":139.56506539},{"name":"日本獣医大東","province":"東京都","city":"武蔵野市","address":"東京都武蔵野市境南町1丁目6-8","lat":35.70103514,"lon":139.54890084},{"name":"吉祥寺大通り","province":"東京都","city":"武蔵野市","address":"東京都武蔵野市吉祥寺本町1丁目18-2","lat":35.70426321,"lon":139.58103392},{"name":"武蔵境駅東第一","province":"東京都","city":"武蔵野市","address":"東京都武蔵野市境1丁目1","lat":35.70237377,"lon":139.5444373},{"name":"成蹊学園前第二","province":"東京都","city":"武蔵野市","address":"東京都武蔵野市吉祥寺本町4丁目26-17","lat":35.70961241,"lon":139.57236778},{"name":"むらさき橋","province":"東京都","city":"武蔵野市","address":"東京都武蔵野市御殿山2丁目13","lat":35.70166875,"lon":139.56677417},{"name":"(特定非営利活動法人)全日本鼓笛バンド・フォームバトン連盟","province":"東京都","city":"武蔵野市","address":"東京都武蔵野市吉祥寺東町1丁目23-33","lat":35.7077796,"lon":139.58605557},{"name":"武蔵野クリーンセンター","province":"東京都","city":"武蔵野市","address":"東京都武蔵野市緑町3丁目1","lat":35.719227,"lon":139.566376},{"name":"武蔵野赤十字病院","province":"東京都","city":"武蔵野市","address":"武蔵野市境南町1-26-1","lat":35.696886,"lon":139.54857},{"name":"PERSONAL SUITE 吉祥寺","province":"東京都","city":"武蔵野市","address":"東京都武蔵野市吉祥寺南町1丁目6-3","lat":35.70178292,"lon":139.58025352},{"name":"NewWork三鷹","province":"東京都","city":"武蔵野市","address":"東京都武蔵野市中町1丁目9-5","lat":35.70520156,"lon":139.56028851},{"name":"NewWork東急百貨店吉祥寺店","province":"東京都","city":"武蔵野市","address":"東京都武蔵野市吉祥寺本町2丁目3-1","lat":35.70503805,"lon":139.57783694},{"name":"井の頭恩賜公園","province":"東京都","city":"武蔵野市","address":"東京都武蔵野市御殿山一丁目、吉祥寺南町一丁目、三鷹市井の頭三・四・五丁目、下連雀一丁目、牟礼四丁目","lat":35.7007,"lon":139.574491},{"name":"武蔵野中央公園","province":"東京都","city":"武蔵野市","address":"東京都武蔵野市八幡町二丁目","lat":35.718669,"lon":139.55854},{"name":"第一浄水場","province":"東京都","city":"武蔵野市","address":"東京都武蔵野市吉祥寺北町4-11-46","lat":35.7152429,"lon":139.566641},{"name":"第二浄水場","province":"東京都","city":"武蔵野市","address":"東京都武蔵野市桜堤1-6-6","lat":35.709673,"lon":139.53636},{"name":"武蔵野赤十字病院","province":"東京都","city":"武蔵野市","address":"武蔵野市境南町1-26-1","lat":35.69767,"lon":139.54785},{"name":"武蔵野クリーンセンター","province":"東京都","city":"武蔵野市","address":"東京都武蔵野市緑町3丁目1","lat":35.719227,"lon":139.566376},{"name":"武蔵野赤十字病院","province":"東京都","city":"武蔵野市","address":"武蔵野市境南町1-26-1","lat":35.696886,"lon":139.54857},{"name":"PERSONAL SUITE 吉祥寺","province":"東京都","city":"武蔵野市","address":"東京都武蔵野市吉祥寺南町1丁目6-3","lat":35.70178292,"lon":139.58025352},{"name":"NewWork三鷹","province":"東京都","city":"武蔵野市","address":"東京都武蔵野市中町1丁目9-5","lat":35.70520156,"lon":139.56028851},{"name":"NewWork東急百貨店吉祥寺店","province":"東京都","city":"武蔵野市","address":"東京都武蔵野市吉祥寺本町2丁目3-1","lat":35.70503805,"lon":139.57783694},{"name":"井の頭恩賜公園","province":"東京都","city":"武蔵野市","address":"東京都武蔵野市御殿山一丁目、吉祥寺南町一丁目、三鷹市井の頭三・四・五丁目、下連雀一丁目、牟礼四丁目","lat":35.7007,"lon":139.574491},{"name":"武蔵野中央公園","province":"東京都","city":"武蔵野市","address":"東京都武蔵野市八幡町二丁目","lat":35.718669,"lon":139.55854},{"name":"第一浄水場","province":"東京都","city":"武蔵野市","address":"東京都武蔵野市吉祥寺北町4-11-46","lat":35.7152429,"lon":139.566641},{"name":"第二浄水場","province":"東京都","city":"武蔵野市","address":"東京都武蔵野市桜堤1-6-6","lat":35.709673,"lon":139.53636},{"name":"武蔵野赤十字病院","province":"東京都","city":"武蔵野市","address":"武蔵野市境南町1-26-1","lat":35.69767,"lon":139.54785},{"name":"武蔵野クリーンセンター","province":"東京都","city":"武蔵野市","address":"東京都武蔵野市緑町3丁目1","lat":35.719227,"lon":139.566376},{"name":"PERSONAL SUITE 吉祥寺","province":"東京都","city":"武蔵野市","address":"東京都武蔵野市吉祥寺南町1丁目6-3","lat":35.70178292,"lon":139.58025352},{"name":"NewWork三鷹","province":"東京都","city":"武蔵野市","address":"東京都武蔵野市中町1丁目9-5","lat":35.70520156,"lon":139.56028851},{"name":"NewWork東急百貨店吉祥寺店","province":"東京都","city":"武蔵野市","address":"東京都武蔵野市吉祥寺本町2丁目3-1","lat":35.70503805,"lon":139.57783694},{"name":"井の頭恩賜公園","province":"東京都","city":"武蔵野市","address":"東京都武蔵野市御殿山一丁目、吉祥寺南町一丁目、三鷹市井の頭三・四・五丁目、下連雀一丁目、牟礼四丁目","lat":35.7007,"lon":139.574491},{"name":"武蔵野中央公園","province":"東京都","city":"武蔵野市","address":"東京都武蔵野市八幡町二丁目","lat":35.718669,"lon":139.55854},{"name":"第一浄水場","province":"東京都","city":"武蔵野市","address":"東京都武蔵野市吉祥寺北町4-11-46","lat":35.7152429,"lon":139.566641},{"name":"第二浄水場","province":"東京都","city":"武蔵野市","address":"東京都武蔵野市桜堤1-6-6","lat":35.709673,"lon":139.53636},{"name":"武蔵野クリーンセンター","province":"東京都","city":"武蔵野市","address":"東京都武蔵野市緑町3丁目1","lat":35.719227,"lon":139.566376},{"name":"PERSONAL SUITE 吉祥寺","province":"東京都","city":"武蔵野市","address":"東京都武蔵野市吉祥寺南町1丁目6-3","lat":35.70178292,"lon":139.58025352},{"name":"NewWork三鷹","province":"東京都","city":"武蔵野市","address":"東京都武蔵野市中町1丁目9-5","lat":35.70520156,"lon":139.56028851},{"name":"NewWork東急百貨店吉祥寺店","province":"東京都","city":"武蔵野市","address":"東京都武蔵野市吉祥寺本町2丁目3-1","lat":35.70503805,"lon":139.57783694},{"name":"井の頭恩賜公園","province":"東京都","city":"武蔵野市","address":"東京都武蔵野市御殿山一丁目、吉祥寺南町一丁目、三鷹市井の頭三・四・五丁目、下連雀一丁目、牟礼四丁目","lat":35.7007,"lon":139.574491},{"name":"武蔵野中央公園","province":"東京都","city":"武蔵野市","address":"東京都武蔵野市八幡町二丁目","lat":35.718669,"lon":139.55854},{"name":"武蔵野クリーンセンター","province":"東京都","city":"武蔵野市","address":"東京都武蔵野市緑町3丁目1","lat":35.719227,"lon":139.566376},{"name":"PERSONAL SUITE 吉祥寺","province":"東京都","city":"武蔵野市","address":"東京都武蔵野市吉祥寺南町1丁目6-3","lat":35.70178292,"lon":139.58025352},{"name":"NewWork三鷹","province":"東京都","city":"武蔵野市","address":"東京都武蔵野市中町1丁目9-5","lat":35.70520156,"lon":139.56028851},{"name":"NewWork東急百貨店吉祥寺店","province":"東京都","city":"武蔵野市","address":"東京都武蔵野市吉祥寺本町2丁目3-1","lat":35.70503805,"lon":139.57783694},{"name":"武蔵野クリーンセンター","province":"東京都","city":"武蔵野市","address":"東京都武蔵野市緑町3丁目1","lat":35.719227,"lon":139.566376},{"name":"PERSONAL SUITE 吉祥寺","province":"東京都","city":"武蔵野市","address":"東京都武蔵野市吉祥寺南町1丁目6-3","lat":35.70178292,"lon":139.58025352},{"name":"NewWork三鷹","province":"東京都","city":"武蔵野市","address":"東京都武蔵野市中町1丁目9-5","lat":35.70520156,"lon":139.56028851},{"name":"NewWork東急百貨店吉祥寺店","province":"東京都","city":"武蔵野市","address":"東京都武蔵野市吉祥寺本町2丁目3-1","lat":35.70503805,"lon":139.57783694},{"name":"武蔵野クリーンセンター","province":"東京都","city":"武蔵野市","address":"東京都武蔵野市緑町3丁目1","lat":35.719227,"lon":139.566376},{"name":"PERSONAL SUITE 吉祥寺","province":"東京都","city":"武蔵野市","address":"東京都武蔵野市吉祥寺南町1丁目6-3","lat":35.70178292,"lon":139.58025352},{"name":"NewWork三鷹","province":"東京都","city":"武蔵野市","address":"東京都武蔵野市中町1丁目9-5","lat":35.70520156,"lon":139.56028851},{"name":"NewWork東急百貨店吉祥寺店","province":"東京都","city":"武蔵野市","address":"東京都武蔵野市吉祥寺本町2丁目3-1","lat":35.70503805,"lon":139.57783694},{"name":"武蔵野クリーンセンター","province":"東京都","city":"武蔵野市","address":"東京都武蔵野市緑町3丁目1","lat":35.719227,"lon":139.566376},{"name":"PERSONAL SUITE 吉祥寺","province":"東京都","city":"武蔵野市","address":"東京都武蔵野市吉祥寺南町1丁目6-3","lat":35.70178292,"lon":139.58025352},{"name":"NewWork三鷹","province":"東京都","city":"武蔵野市","address":"東京都武蔵野市中町1丁目9-5","lat":35.70520156,"lon":139.56028851},{"name":"NewWork東急百貨店吉祥寺店","province":"東京都","city":"武蔵野市","address":"東京都武蔵野市吉祥寺本町2丁目3-1","lat":35.70503805,"lon":139.57783694},{"name":"武蔵野クリーンセンター","province":"東京都","city":"武蔵野市","address":"東京都武蔵野市緑町3丁目1","lat":35.719227,"lon":139.566376},{"name":"PERSONAL SUITE 吉祥寺","province":"東京都","city":"武蔵野市","address":"東京都武蔵野市吉祥寺南町1丁目6-3","lat":35.70178292,"lon":139.58025352},{"name":"NewWork三鷹","province":"東京都","city":"武蔵野市","address":"東京都武蔵野市中町1丁目9-5","lat":35.70520156,"lon":139.56028851},{"name":"NewWork東急百貨店吉祥寺店","province":"東京都","city":"武蔵野市","address":"東京都武蔵野市吉祥寺本町2丁目3-1","lat":35.70503805,"lon":139.57783694},{"name":"武蔵野クリーンセンター","province":"東京都","city":"武蔵野市","address":"東京都武蔵野市緑町3丁目1","lat":35.719227,"lon":139.566376},{"name":"PERSONAL SUITE 吉祥寺","province":"東京都","city":"武蔵野市","address":"東京都武蔵野市吉祥寺南町1丁目6-3","lat":35.70178292,"lon":139.58025352},{"name":"NewWork三鷹","province":"東京都","city":"武蔵野市","address":"東京都武蔵野市中町1丁目9-5","lat":35.70520156,"lon":139.56028851},{"name":"NewWork東急百貨店吉祥寺店","province":"東京都","city":"武蔵野市","address":"東京都武蔵野市吉祥寺本町2丁目3-1","lat":35.70503805,"lon":139.57783694},{"name":"武蔵野クリーンセンター","province":"東京都","city":"武蔵野市","address":"東京都武蔵野市緑町3丁目1","lat":35.719227,"lon":139.566376},{"name":"PERSONAL SUITE 吉祥寺","province":"東京都","city":"武蔵野市","address":"東京都武蔵野市吉祥寺南町1丁目6-3","lat":35.70178292,"lon":139.58025352},{"name":"NewWork三鷹","province":"東京都","city":"武蔵野市","address":"東京都武蔵野市中町1丁目9-5","lat":35.70520156,"lon":139.56028851},{"name":"NewWork東急百貨店吉祥寺店","province":"東京都","city":"武蔵野市","address":"東京都武蔵野市吉祥寺本町2丁目3-1","lat":35.70503805,"lon":139.57783694},{"name":"武蔵野クリーンセンター","province":"東京都","city":"武蔵野市","address":"東京都武蔵野市緑町3丁目1","lat":35.719227,"lon":139.566376},{"name":"PERSONAL SUITE 吉祥寺","province":"東京都","city":"武蔵野市","address":"東京都武蔵野市吉祥寺南町1丁目6-3","lat":35.70178292,"lon":139.58025352},{"name":"NewWork三鷹","province":"東京都","city":"武蔵野市","address":"東京都武蔵野市中町1丁目9-5","lat":35.70520156,"lon":139.56028851},{"name":"NewWork東急百貨店吉祥寺店","province":"東京都","city":"武蔵野市","address":"東京都武蔵野市吉祥寺本町2丁目3-1","lat":35.70503805,"lon":139.57783694},{"name":"武蔵野クリーンセンター","province":"東京都","city":"武蔵野市","address":"東京都武蔵野市緑町3丁目1","lat":35.719227,"lon":139.566376},{"name":"PERSONAL SUITE 吉祥寺","province":"東京都","city":"武蔵野市","address":"東京都武蔵野市吉祥寺南町1丁目6-3","lat":35.70178292,"lon":139.58025352},{"name":"NewWork三鷹","province":"東京都","city":"武蔵野市","address":"東京都武蔵野市中町1丁目9-5","lat":35.70520156,"lon":139.56028851},{"name":"NewWork東急百貨店吉祥寺店","province":"東京都","city":"武蔵野市","address":"東京都武蔵野市吉祥寺本町2丁目3-1","lat":35.70503805,"lon":139.57783694},{"name":"武蔵野クリーンセンター","province":"東京都","city":"武蔵野市","address":"東京都武蔵野市緑町3丁目1","lat":35.719227,"lon":139.566376},{"name":"PERSONAL SUITE 吉祥寺","province":"東京都","city":"武蔵野市","address":"東京都武蔵野市吉祥寺南町1丁目6-3","lat":35.70178292,"lon":139.58025352},{"name":"NewWork三鷹","province":"東京都","city":"武蔵野市","address":"東京都武蔵野市中町1丁目9-5","lat":35.70520156,"lon":139.56028851},{"name":"NewWork東急百貨店吉祥寺店","province":"東京都","city":"武蔵野市","address":"東京都武蔵野市吉祥寺本町2丁目3-1","lat":35.70503805,"lon":139.57783694},{"name":"武蔵野クリーンセンター","province":"東京都","city":"武蔵野市","address":"東京都武蔵野市緑町3丁目1","lat":35.719227,"lon":139.566376},{"name":"PERSONAL SUITE 吉祥寺","province":"東京都","city":"武蔵野市","address":"東京都武蔵野市吉祥寺南町1丁目6-3","lat":35.70178292,"lon":139.58025352},{"name":"NewWork三鷹","province":"東京都","city":"武蔵野市","address":"東京都武蔵野市中町1丁目9-5","lat":35.70520156,"lon":139.56028851},{"name":"NewWork東急百貨店吉祥寺店","province":"東京都","city":"武蔵野市","address":"東京都武蔵野市吉祥寺本町2丁目3-1","lat":35.70503805,"lon":139.57783694},{"name":"武蔵野クリーンセンター","province":"東京都","city":"武蔵野市","address":"東京都武蔵野市緑町3丁目1","lat":35.719227,"lon":139.566376},{"name":"PERSONAL SUITE 吉祥寺","province":"東京都","city":"武蔵野市","address":"東京都武蔵野市吉祥寺南町1丁目6-3","lat":35.70178292,"lon":139.58025352},{"name":"NewWork三鷹","province":"東京都","city":"武蔵野市","address":"東京都武蔵野市中町1丁目9-5","lat":35.70520156,"lon":139.56028851},{"name":"NewWork東急百貨店吉祥寺店","province":"東京都","city":"武蔵野市","address":"東京都武蔵野市吉祥寺本町2丁目3-1","lat":35.70503805,"lon":139.57783694},{"name":"武蔵野クリーンセンター","province":"東京都","city":"武蔵野市","address":"東京都武蔵野市緑町3丁目1","lat":35.719227,"lon":139.566376},{"name":"武蔵野クリーンセンター","province":"東京都","city":"武蔵野市","address":"東京都武蔵野市緑町3丁目1","lat":35.719227,"lon":139.566376},{"name":"武蔵野クリーンセンター","province":"東京都","city":"武蔵野市","address":"東京都武蔵野市緑町3丁目1","lat":35.719227,"lon":139.566376},{"name":"武蔵野クリーンセンター","province":"東京都","city":"武蔵野市","address":"東京都武蔵野市緑町3丁目1","lat":35.719227,"lon":139.566376},{"name":"武蔵野クリーンセンター","province":"東京都","city":"武蔵野市","address":"東京都武蔵野市緑町3丁目1","lat":35.719227,"lon":139.566376},{"name":"武蔵野クリーンセンター","province":"東京都","city":"武蔵野市","address":"東京都武蔵野市緑町3丁目1","lat":35.719227,"lon":139.566376},{"name":"武蔵野クリーンセンター","province":"東京都","city":"武蔵野市","address":"東京都武蔵野市緑町3丁目1","lat":35.719227,"lon":139.566376},{"name":"武蔵野クリーンセンター","province":"東京都","city":"武蔵野市","address":"東京都武蔵野市緑町3丁目1","lat":35.719227,"lon":139.566376},{"name":"武蔵野クリーンセンター","province":"東京都","city":"武蔵野市","address":"東京都武蔵野市緑町3丁目1","lat":35.719227,"lon":139.566376},{"name":"武蔵野クリーンセンター","province":"東京都","city":"武蔵野市","address":"東京都武蔵野市緑町3丁目1","lat":35.719227,"lon":139.566376},{"name":"武蔵野クリーンセンター","province":"東京都","city":"武蔵野市","address":"東京都武蔵野市緑町3丁目1","lat":35.719227,"lon":139.566376},{"name":"武蔵野クリーンセンター","province":"東京都","city":"武蔵野市","address":"東京都武蔵野市緑町3丁目1","lat":35.719227,"lon":139.566376},{"name":"武蔵野クリーンセンター","province":"東京都","city":"武蔵野市","address":"東京都武蔵野市緑町3丁目1","lat":35.719227,"lon":139.566376},{"name":"武蔵野クリーンセンター","province":"東京都","city":"武蔵野市","address":"東京都武蔵野市緑町3丁目1","lat":35.719227,"lon":139.566376}]}