{"keyword":"認可","data":[{"name":"マミー吉祥寺東保育園","province":"東京都","city":"武蔵野市","address":"武蔵野市吉祥寺東町3-1-2","lat":35.70466,"lon":139.58682},{"name":"キッズいながき保育園吉祥寺","province":"東京都","city":"武蔵野市","address":"武蔵野市吉祥寺南町5-3-9","lat":35.70364693,"lon":139.5907649},{"name":"むくむくみらい保育園","province":"東京都","city":"武蔵野市","address":"武蔵野市中町2-5-9","lat":35.70853019,"lon":139.5620033},{"name":"キッズいながき保育園吉祥寺","province":"東京都","city":"武蔵野市","address":"武蔵野市吉祥寺南町5丁目3番9号","lat":35.70284,"lon":139.59019},{"name":"むくむくみらい保育園","province":"東京都","city":"武蔵野市","address":"武蔵野市中町2-5-9","lat":35.70788,"lon":139.56203},{"name":"中町すみれ保育園","province":"東京都","city":"武蔵野市","address":"武蔵野市中町2-5-5クロフトコテージ1階","lat":35.70788,"lon":139.56203},{"name":"吉祥寺保育園","province":"東京都","city":"武蔵野市","address":"武蔵野市吉祥寺北町5-11-51","lat":35.71742,"lon":139.56822},{"name":"南保育園","province":"東京都","city":"武蔵野市","address":"武蔵野市吉祥寺南町3-6-15","lat":35.69912,"lon":139.58579},{"name":"うぃず吉祥寺第一保育園","province":"東京都","city":"武蔵野市","address":"武蔵野市吉祥寺本町2-35-12","lat":35.70347,"lon":139.57388},{"name":"ピノキオ幼児舎吉祥寺保育園","province":"東京都","city":"武蔵野市","address":"武蔵野市吉祥寺本町4-10-10","lat":35.7087,"lon":139.57427},{"name":"境南第２保育園","province":"東京都","city":"武蔵野市","address":"武蔵野市境南町2-20-17","lat":35.69758,"lon":139.5416}]}