{"keyword":"象","data":[{"name":"PERSONAL SUITE 吉祥寺","province":"東京都","city":"武蔵野市","address":"東京都武蔵野市吉祥寺南町1丁目6-3","lat":35.70178292,"lon":139.58025352},{"name":"NewWork三鷹","province":"東京都","city":"武蔵野市","address":"東京都武蔵野市中町1丁目9-5","lat":35.70520156,"lon":139.56028851},{"name":"NewWork東急百貨店吉祥寺店","province":"東京都","city":"武蔵野市","address":"東京都武蔵野市吉祥寺本町2丁目3-1","lat":35.70503805,"lon":139.57783694},{"name":"PERSONAL SUITE 吉祥寺","province":"東京都","city":"武蔵野市","address":"東京都武蔵野市吉祥寺南町1丁目6-3","lat":35.70178292,"lon":139.58025352},{"name":"NewWork三鷹","province":"東京都","city":"武蔵野市","address":"東京都武蔵野市中町1丁目9-5","lat":35.70520156,"lon":139.56028851},{"name":"NewWork東急百貨店吉祥寺店","province":"東京都","city":"武蔵野市","address":"東京都武蔵野市吉祥寺本町2丁目3-1","lat":35.70503805,"lon":139.57783694},{"name":"PERSONAL SUITE 吉祥寺","province":"東京都","city":"武蔵野市","address":"東京都武蔵野市吉祥寺南町1丁目6-3","lat":35.70178292,"lon":139.58025352},{"name":"NewWork三鷹","province":"東京都","city":"武蔵野市","address":"東京都武蔵野市中町1丁目9-5","lat":35.70520156,"lon":139.56028851},{"name":"NewWork東急百貨店吉祥寺店","province":"東京都","city":"武蔵野市","address":"東京都武蔵野市吉祥寺本町2丁目3-1","lat":35.70503805,"lon":139.57783694}]}