{"keyword":"連絡","data":[{"name":"武蔵野市地域包括支援センター（基幹型）","province":"東京都","city":"武蔵野市","address":"武蔵野市緑町2-2-28/(武蔵野市役所内)","lat":35.717499,"lon":139.566452},{"name":"ゆとりえ在宅介護・地域包括支援センター","province":"東京都","city":"武蔵野市","address":"武蔵野市吉祥寺南町4-25-5","lat":35.69886,"lon":139.591843},{"name":"吉祥寺本町在宅介護・地域包括支援センター","province":"東京都","city":"武蔵野市","address":"武蔵野市吉祥寺本町4-20-13","lat":35.706207,"lon":139.571945},{"name":"高齢者総合センター在宅介護・地域包括支援センター","province":"東京都","city":"武蔵野市","address":"武蔵野市緑町2-4-1","lat":35.715225,"lon":139.562561},{"name":"吉祥寺ナーシング  ホーム在宅介護・地域包括支援センター","province":"東京都","city":"武蔵野市","address":"武蔵野市吉祥寺北町2-9-2","lat":35.712109,"lon":139.578995},{"name":"桜堤ケアハウス在宅介護・地域包括支援センター","province":"東京都","city":"武蔵野市","address":"武蔵野市桜堤1-9-9","lat":35.711014,"lon":139.533569},{"name":"武蔵野赤十字在宅介護・地域包括支援センター","province":"東京都","city":"武蔵野市","address":"武蔵野市境南町1-26-1武蔵野赤十字病院内","lat":35.697906,"lon":139.548782},{"name":"武蔵野市消費生活センター","province":"東京都","city":"武蔵野市","address":"武蔵野市吉祥寺本町1-10-7武蔵野商工会館3階","lat":35.7057,"lon":139.578735}]}