{"keyword":"週","data":[{"name":"桜堤児童館","province":"東京都","city":"武蔵野市","address":"武蔵野市桜堤2-1-29","lat":35.707576,"lon":139.532377},{"name":"武蔵野市民社会福祉協議会","province":"東京都","city":"武蔵野市","address":"武蔵野市吉祥寺北町1-9-1","lat":35.707904,"lon":139.578459},{"name":"中央図書館","province":"東京都","city":"武蔵野市","address":"東京都武蔵野市吉祥寺北町4丁目8-3","lat":35.71250641,"lon":139.56619043},{"name":"吉祥寺図書館","province":"東京都","city":"武蔵野市","address":"東京都武蔵野市吉祥寺本町1丁目21-13","lat":35.70499371,"lon":139.58227267},{"name":"武蔵野プレイス","province":"東京都","city":"武蔵野市","address":"東京都武蔵野市境南町2丁目3-18","lat":35.70116002,"lon":139.54368185},{"name":"桜堤児童館","province":"東京都","city":"武蔵野市","address":"武蔵野市桜堤2-1-29","lat":35.70765,"lon":139.53267},{"name":"武蔵野市民社会福祉協議会","province":"東京都","city":"武蔵野市","address":"武蔵野市吉祥寺北町1-9-1","lat":35.70856,"lon":139.57874},{"name":"武蔵野市民社会福祉協議会","province":"東京都","city":"武蔵野市","address":"武蔵野市吉祥寺北町1-9-11階","lat":35.70857,"lon":139.57874},{"name":"井の頭自然文化園","province":"東京都","city":"武蔵野市","address":"武蔵野市御殿山1-17-6","lat":35.7016361,"lon":139.5712436},{"name":"第一浄水場","province":"東京都","city":"武蔵野市","address":"東京都武蔵野市吉祥寺北町4丁目11-46","lat":35.71395903,"lon":139.56650423},{"name":"第二浄水場","province":"東京都","city":"武蔵野市","address":"東京都武蔵野市桜堤1丁目6-6","lat":35.70967278,"lon":139.53635988},{"name":"武蔵野陸上競技場","province":"東京都","city":"武蔵野市","address":"東京都武蔵野市吉祥寺北町5丁目11-20","lat":35.71788638,"lon":139.56758731},{"name":"都立武蔵野中央公園","province":"東京都","city":"武蔵野市","address":"東京都武蔵野市八幡町2丁目4-22","lat":35.718175,"lon":139.55645772},{"name":"武蔵野赤十字病院ヘリポート","province":"東京都","city":"武蔵野市","address":"東京都武蔵野市境南町1丁目26-1","lat":35.69687727,"lon":139.54853159},{"name":"＊?武蔵野市民会館","province":"東京都","city":"武蔵野市","address":"武蔵野市境2-3-7","lat":35.705321,"lon":139.543332},{"name":"＊?武蔵野ふるさと歴史館","province":"東京都","city":"武蔵野市","address":"武蔵野市境5-15-5","lat":35.702238,"lon":139.534605},{"name":"＊?吉祥寺図書館","province":"東京都","city":"武蔵野市","address":"武蔵野市吉祥寺本町1-21-13","lat":35.705002,"lon":139.582266},{"name":"＊?中央図書館","province":"東京都","city":"武蔵野市","address":"武蔵野市吉祥寺北町4-8-3","lat":35.712514,"lon":139.566199},{"name":"武蔵野市民会館","province":"東京都","city":"武蔵野市","address":"武蔵野市境2-3-7","lat":35.705788,"lon":139.543747},{"name":"吉祥寺図書館","province":"東京都","city":"武蔵野市","address":"武蔵野市吉祥寺本町1-21-13","lat":35.705318,"lon":139.582413},{"name":"中央図書館","province":"東京都","city":"武蔵野市","address":"武蔵野市吉祥寺北町4-8-3","lat":35.712769,"lon":139.566513},{"name":"ひと・まち・情報創造館武蔵野プレイス","province":"東京都","city":"武蔵野市","address":"武蔵野市境南2-3-18","lat":35.705788,"lon":139.543747},{"name":"井の頭恩賜公園","province":"東京都","city":"武蔵野市","address":"東京都武蔵野市御殿山1丁目","lat":35.7024494,"lon":139.57595665},{"name":"武蔵野市保健センター","province":"東京都","city":"武蔵野市","address":"東京都武蔵野市吉祥寺北町4丁目8-10","lat":35.71292303,"lon":139.56658205},{"name":"武蔵野市本庁舎","province":"東京都","city":"武蔵野市","address":"武蔵野市緑町2-2-28","lat":35.717837,"lon":139.565938},{"name":"武蔵野警察署","province":"東京都","city":"武蔵野市","address":"武蔵野市中町2-1-2","lat":35.70601,"lon":139.5609},{"name":"武蔵野消防署","province":"東京都","city":"武蔵野市","address":"武蔵野市吉祥寺北町4-6-1","lat":35.71169,"lon":139.5675},{"name":"武蔵野地区","province":"東京都","city":"武蔵野市","address":"武蔵野市中町3-7-1","lat":35.70875,"lon":139.5643},{"name":"献血供給事業団本部","province":"東京都","city":"武蔵野市","address":"武蔵野市境南町1-26-1","lat":35.696886,"lon":139.548571},{"name":"都立武蔵野中央公園（原っぱ広場）","province":"東京都","city":"武蔵野市","address":"武蔵野市八幡町2丁目地内","lat":35.71818,"lon":139.5565},{"name":"武蔵野赤十字病院ヘリポート","province":"東京都","city":"武蔵野市","address":"武蔵野市境南町1-26-1","lat":35.696886,"lon":139.548571},{"name":"西部公園緑地事務所","province":"東京都","city":"武蔵野市","address":"武蔵野市御殿山1-17-59","lat":35.70114,"lon":139.573},{"name":"東京電力（株）武蔵野支社","province":"東京都","city":"武蔵野市","address":"武蔵野市西久保1-6-24","lat":35.70672,"lon":139.5603},{"name":"吉祥寺駅","province":"東京都","city":"武蔵野市","address":"東京都武蔵野市吉祥寺南町1丁目1-24","lat":35.70304942,"lon":139.57954798},{"name":"武蔵野市クリーンセンター","province":"東京都","city":"武蔵野市","address":"武蔵野市緑町3-1-5","lat":35.719227,"lon":139.566376},{"name":"桜堤児童館","province":"東京都","city":"武蔵野市","address":"武蔵野市桜堤2-1-29","lat":35.707576,"lon":139.532377},{"name":"武蔵野市民社会福祉協議会","province":"東京都","city":"武蔵野市","address":"武蔵野市吉祥寺北町1-9-1","lat":35.707904,"lon":139.578459},{"name":"中央図書館","province":"東京都","city":"武蔵野市","address":"東京都武蔵野市吉祥寺北町4丁目8-3","lat":35.71250641,"lon":139.56619043},{"name":"吉祥寺図書館","province":"東京都","city":"武蔵野市","address":"東京都武蔵野市吉祥寺本町1丁目21-13","lat":35.70499371,"lon":139.58227267},{"name":"武蔵野プレイス","province":"東京都","city":"武蔵野市","address":"東京都武蔵野市境南町2丁目3-18","lat":35.70116002,"lon":139.54368185},{"name":"桜堤児童館","province":"東京都","city":"武蔵野市","address":"武蔵野市桜堤2-1-29","lat":35.70765,"lon":139.53267},{"name":"武蔵野市民社会福祉協議会","province":"東京都","city":"武蔵野市","address":"武蔵野市吉祥寺北町1-9-1","lat":35.70856,"lon":139.57874},{"name":"武蔵野市民社会福祉協議会","province":"東京都","city":"武蔵野市","address":"武蔵野市吉祥寺北町1-9-11階","lat":35.70857,"lon":139.57874},{"name":"井の頭自然文化園","province":"東京都","city":"武蔵野市","address":"武蔵野市御殿山1-17-6","lat":35.7016361,"lon":139.5712436},{"name":"第一浄水場","province":"東京都","city":"武蔵野市","address":"東京都武蔵野市吉祥寺北町4丁目11-46","lat":35.71395903,"lon":139.56650423},{"name":"第二浄水場","province":"東京都","city":"武蔵野市","address":"東京都武蔵野市桜堤1丁目6-6","lat":35.70967278,"lon":139.53635988},{"name":"＊?武蔵野市民会館","province":"東京都","city":"武蔵野市","address":"武蔵野市境2-3-7","lat":35.705321,"lon":139.543332},{"name":"＊?武蔵野ふるさと歴史館","province":"東京都","city":"武蔵野市","address":"武蔵野市境5-15-5","lat":35.702238,"lon":139.534605},{"name":"＊?吉祥寺図書館","province":"東京都","city":"武蔵野市","address":"武蔵野市吉祥寺本町1-21-13","lat":35.705002,"lon":139.582266},{"name":"＊?中央図書館","province":"東京都","city":"武蔵野市","address":"武蔵野市吉祥寺北町4-8-3","lat":35.712514,"lon":139.566199},{"name":"武蔵野市民会館","province":"東京都","city":"武蔵野市","address":"武蔵野市境2-3-7","lat":35.705788,"lon":139.543747},{"name":"吉祥寺図書館","province":"東京都","city":"武蔵野市","address":"武蔵野市吉祥寺本町1-21-13","lat":35.705318,"lon":139.582413},{"name":"中央図書館","province":"東京都","city":"武蔵野市","address":"武蔵野市吉祥寺北町4-8-3","lat":35.712769,"lon":139.566513},{"name":"ひと・まち・情報創造館武蔵野プレイス","province":"東京都","city":"武蔵野市","address":"武蔵野市境南2-3-18","lat":35.705788,"lon":139.543747},{"name":"井の頭恩賜公園","province":"東京都","city":"武蔵野市","address":"東京都武蔵野市御殿山1丁目","lat":35.7024494,"lon":139.57595665},{"name":"武蔵野市保健センター","province":"東京都","city":"武蔵野市","address":"東京都武蔵野市吉祥寺北町4丁目8-10","lat":35.71292303,"lon":139.56658205},{"name":"武蔵野市本庁舎","province":"東京都","city":"武蔵野市","address":"武蔵野市緑町2-2-28","lat":35.717837,"lon":139.565938},{"name":"武蔵野警察署","province":"東京都","city":"武蔵野市","address":"武蔵野市中町2-1-2","lat":35.70601,"lon":139.5609},{"name":"武蔵野消防署","province":"東京都","city":"武蔵野市","address":"武蔵野市吉祥寺北町4-6-1","lat":35.71169,"lon":139.5675},{"name":"献血供給事業団本部","province":"東京都","city":"武蔵野市","address":"武蔵野市境南町1-26-1","lat":35.696886,"lon":139.548571},{"name":"都立武蔵野中央公園（原っぱ広場）","province":"東京都","city":"武蔵野市","address":"武蔵野市八幡町2丁目地内","lat":35.71818,"lon":139.5565},{"name":"武蔵野赤十字病院ヘリポート","province":"東京都","city":"武蔵野市","address":"武蔵野市境南町1-26-1","lat":35.696886,"lon":139.548571},{"name":"東京電力（株）武蔵野支社","province":"東京都","city":"武蔵野市","address":"武蔵野市西久保1-6-24","lat":35.70672,"lon":139.5603},{"name":"武蔵野市クリーンセンター","province":"東京都","city":"武蔵野市","address":"武蔵野市緑町3-1-5","lat":35.719227,"lon":139.566376},{"name":"桜堤児童館","province":"東京都","city":"武蔵野市","address":"武蔵野市桜堤2-1-29","lat":35.707576,"lon":139.532377},{"name":"武蔵野市民社会福祉協議会","province":"東京都","city":"武蔵野市","address":"武蔵野市吉祥寺北町1-9-1","lat":35.707904,"lon":139.578459},{"name":"中央図書館","province":"東京都","city":"武蔵野市","address":"東京都武蔵野市吉祥寺北町4丁目8-3","lat":35.71250641,"lon":139.56619043},{"name":"吉祥寺図書館","province":"東京都","city":"武蔵野市","address":"東京都武蔵野市吉祥寺本町1丁目21-13","lat":35.70499371,"lon":139.58227267},{"name":"武蔵野プレイス","province":"東京都","city":"武蔵野市","address":"東京都武蔵野市境南町2丁目3-18","lat":35.70116002,"lon":139.54368185},{"name":"桜堤児童館","province":"東京都","city":"武蔵野市","address":"武蔵野市桜堤2-1-29","lat":35.70765,"lon":139.53267},{"name":"武蔵野市民社会福祉協議会","province":"東京都","city":"武蔵野市","address":"武蔵野市吉祥寺北町1-9-1","lat":35.70856,"lon":139.57874},{"name":"武蔵野市民社会福祉協議会","province":"東京都","city":"武蔵野市","address":"武蔵野市吉祥寺北町1-9-11階","lat":35.70857,"lon":139.57874},{"name":"井の頭自然文化園","province":"東京都","city":"武蔵野市","address":"武蔵野市御殿山1-17-6","lat":35.7016361,"lon":139.5712436},{"name":"＊?武蔵野市民会館","province":"東京都","city":"武蔵野市","address":"武蔵野市境2-3-7","lat":35.705321,"lon":139.543332},{"name":"＊?武蔵野ふるさと歴史館","province":"東京都","city":"武蔵野市","address":"武蔵野市境5-15-5","lat":35.702238,"lon":139.534605},{"name":"＊?吉祥寺図書館","province":"東京都","city":"武蔵野市","address":"武蔵野市吉祥寺本町1-21-13","lat":35.705002,"lon":139.582266},{"name":"＊?中央図書館","province":"東京都","city":"武蔵野市","address":"武蔵野市吉祥寺北町4-8-3","lat":35.712514,"lon":139.566199},{"name":"武蔵野市民会館","province":"東京都","city":"武蔵野市","address":"武蔵野市境2-3-7","lat":35.705788,"lon":139.543747},{"name":"吉祥寺図書館","province":"東京都","city":"武蔵野市","address":"武蔵野市吉祥寺本町1-21-13","lat":35.705318,"lon":139.582413},{"name":"中央図書館","province":"東京都","city":"武蔵野市","address":"武蔵野市吉祥寺北町4-8-3","lat":35.712769,"lon":139.566513},{"name":"ひと・まち・情報創造館武蔵野プレイス","province":"東京都","city":"武蔵野市","address":"武蔵野市境南2-3-18","lat":35.705788,"lon":139.543747},{"name":"井の頭恩賜公園","province":"東京都","city":"武蔵野市","address":"東京都武蔵野市御殿山1丁目","lat":35.7024494,"lon":139.57595665},{"name":"武蔵野市クリーンセンター","province":"東京都","city":"武蔵野市","address":"武蔵野市緑町3-1-5","lat":35.719227,"lon":139.566376},{"name":"桜堤児童館","province":"東京都","city":"武蔵野市","address":"武蔵野市桜堤2-1-29","lat":35.707576,"lon":139.532377},{"name":"武蔵野市民社会福祉協議会","province":"東京都","city":"武蔵野市","address":"武蔵野市吉祥寺北町1-9-1","lat":35.707904,"lon":139.578459},{"name":"中央図書館","province":"東京都","city":"武蔵野市","address":"東京都武蔵野市吉祥寺北町4丁目8-3","lat":35.71250641,"lon":139.56619043},{"name":"吉祥寺図書館","province":"東京都","city":"武蔵野市","address":"東京都武蔵野市吉祥寺本町1丁目21-13","lat":35.70499371,"lon":139.58227267},{"name":"武蔵野プレイス","province":"東京都","city":"武蔵野市","address":"東京都武蔵野市境南町2丁目3-18","lat":35.70116002,"lon":139.54368185},{"name":"桜堤児童館","province":"東京都","city":"武蔵野市","address":"武蔵野市桜堤2-1-29","lat":35.70765,"lon":139.53267},{"name":"武蔵野市民社会福祉協議会","province":"東京都","city":"武蔵野市","address":"武蔵野市吉祥寺北町1-9-1","lat":35.70856,"lon":139.57874},{"name":"武蔵野市民社会福祉協議会","province":"東京都","city":"武蔵野市","address":"武蔵野市吉祥寺北町1-9-11階","lat":35.70857,"lon":139.57874},{"name":"井の頭自然文化園","province":"東京都","city":"武蔵野市","address":"武蔵野市御殿山1-17-6","lat":35.7016361,"lon":139.5712436},{"name":"＊?武蔵野市民会館","province":"東京都","city":"武蔵野市","address":"武蔵野市境2-3-7","lat":35.705321,"lon":139.543332},{"name":"＊?武蔵野ふるさと歴史館","province":"東京都","city":"武蔵野市","address":"武蔵野市境5-15-5","lat":35.702238,"lon":139.534605},{"name":"＊?吉祥寺図書館","province":"東京都","city":"武蔵野市","address":"武蔵野市吉祥寺本町1-21-13","lat":35.705002,"lon":139.582266},{"name":"＊?中央図書館","province":"東京都","city":"武蔵野市","address":"武蔵野市吉祥寺北町4-8-3","lat":35.712514,"lon":139.566199},{"name":"武蔵野市民会館","province":"東京都","city":"武蔵野市","address":"武蔵野市境2-3-7","lat":35.705788,"lon":139.543747},{"name":"吉祥寺図書館","province":"東京都","city":"武蔵野市","address":"武蔵野市吉祥寺本町1-21-13","lat":35.705318,"lon":139.582413},{"name":"中央図書館","province":"東京都","city":"武蔵野市","address":"武蔵野市吉祥寺北町4-8-3","lat":35.712769,"lon":139.566513},{"name":"ひと・まち・情報創造館武蔵野プレイス","province":"東京都","city":"武蔵野市","address":"武蔵野市境南2-3-18","lat":35.705788,"lon":139.543747},{"name":"井の頭恩賜公園","province":"東京都","city":"武蔵野市","address":"東京都武蔵野市御殿山1丁目","lat":35.7024494,"lon":139.57595665},{"name":"武蔵野市クリーンセンター","province":"東京都","city":"武蔵野市","address":"武蔵野市緑町3-1-5","lat":35.719227,"lon":139.566376},{"name":"桜堤児童館","province":"東京都","city":"武蔵野市","address":"武蔵野市桜堤2-1-29","lat":35.707576,"lon":139.532377},{"name":"中央図書館","province":"東京都","city":"武蔵野市","address":"東京都武蔵野市吉祥寺北町4丁目8-3","lat":35.71250641,"lon":139.56619043},{"name":"吉祥寺図書館","province":"東京都","city":"武蔵野市","address":"東京都武蔵野市吉祥寺本町1丁目21-13","lat":35.70499371,"lon":139.58227267},{"name":"武蔵野プレイス","province":"東京都","city":"武蔵野市","address":"東京都武蔵野市境南町2丁目3-18","lat":35.70116002,"lon":139.54368185},{"name":"桜堤児童館","province":"東京都","city":"武蔵野市","address":"武蔵野市桜堤2-1-29","lat":35.70765,"lon":139.53267},{"name":"井の頭自然文化園","province":"東京都","city":"武蔵野市","address":"武蔵野市御殿山1-17-6","lat":35.7016361,"lon":139.5712436},{"name":"＊?武蔵野ふるさと歴史館","province":"東京都","city":"武蔵野市","address":"武蔵野市境5-15-5","lat":35.702238,"lon":139.534605},{"name":"＊?吉祥寺図書館","province":"東京都","city":"武蔵野市","address":"武蔵野市吉祥寺本町1-21-13","lat":35.705002,"lon":139.582266},{"name":"＊?中央図書館","province":"東京都","city":"武蔵野市","address":"武蔵野市吉祥寺北町4-8-3","lat":35.712514,"lon":139.566199},{"name":"武蔵野市民会館","province":"東京都","city":"武蔵野市","address":"武蔵野市境2-3-7","lat":35.705788,"lon":139.543747},{"name":"吉祥寺図書館","province":"東京都","city":"武蔵野市","address":"武蔵野市吉祥寺本町1-21-13","lat":35.705318,"lon":139.582413},{"name":"中央図書館","province":"東京都","city":"武蔵野市","address":"武蔵野市吉祥寺北町4-8-3","lat":35.712769,"lon":139.566513},{"name":"ひと・まち・情報創造館武蔵野プレイス","province":"東京都","city":"武蔵野市","address":"武蔵野市境南2-3-18","lat":35.705788,"lon":139.543747},{"name":"井の頭恩賜公園","province":"東京都","city":"武蔵野市","address":"東京都武蔵野市御殿山1丁目","lat":35.7024494,"lon":139.57595665},{"name":"武蔵野市クリーンセンター","province":"東京都","city":"武蔵野市","address":"武蔵野市緑町3-1-5","lat":35.719227,"lon":139.566376},{"name":"桜堤児童館","province":"東京都","city":"武蔵野市","address":"武蔵野市桜堤2-1-29","lat":35.707576,"lon":139.532377},{"name":"中央図書館","province":"東京都","city":"武蔵野市","address":"東京都武蔵野市吉祥寺北町4丁目8-3","lat":35.71250641,"lon":139.56619043},{"name":"吉祥寺図書館","province":"東京都","city":"武蔵野市","address":"東京都武蔵野市吉祥寺本町1丁目21-13","lat":35.70499371,"lon":139.58227267},{"name":"武蔵野プレイス","province":"東京都","city":"武蔵野市","address":"東京都武蔵野市境南町2丁目3-18","lat":35.70116002,"lon":139.54368185},{"name":"桜堤児童館","province":"東京都","city":"武蔵野市","address":"武蔵野市桜堤2-1-29","lat":35.70765,"lon":139.53267},{"name":"井の頭自然文化園","province":"東京都","city":"武蔵野市","address":"武蔵野市御殿山1-17-6","lat":35.7016361,"lon":139.5712436},{"name":"＊?武蔵野ふるさと歴史館","province":"東京都","city":"武蔵野市","address":"武蔵野市境5-15-5","lat":35.702238,"lon":139.534605},{"name":"＊?吉祥寺図書館","province":"東京都","city":"武蔵野市","address":"武蔵野市吉祥寺本町1-21-13","lat":35.705002,"lon":139.582266},{"name":"＊?中央図書館","province":"東京都","city":"武蔵野市","address":"武蔵野市吉祥寺北町4-8-3","lat":35.712514,"lon":139.566199},{"name":"武蔵野市民会館","province":"東京都","city":"武蔵野市","address":"武蔵野市境2-3-7","lat":35.705788,"lon":139.543747},{"name":"吉祥寺図書館","province":"東京都","city":"武蔵野市","address":"武蔵野市吉祥寺本町1-21-13","lat":35.705318,"lon":139.582413},{"name":"中央図書館","province":"東京都","city":"武蔵野市","address":"武蔵野市吉祥寺北町4-8-3","lat":35.712769,"lon":139.566513},{"name":"ひと・まち・情報創造館武蔵野プレイス","province":"東京都","city":"武蔵野市","address":"武蔵野市境南2-3-18","lat":35.705788,"lon":139.543747},{"name":"井の頭恩賜公園","province":"東京都","city":"武蔵野市","address":"東京都武蔵野市御殿山1丁目","lat":35.7024494,"lon":139.57595665},{"name":"武蔵野市クリーンセンター","province":"東京都","city":"武蔵野市","address":"武蔵野市緑町3-1-5","lat":35.719227,"lon":139.566376},{"name":"桜堤児童館","province":"東京都","city":"武蔵野市","address":"武蔵野市桜堤2-1-29","lat":35.707576,"lon":139.532377},{"name":"中央図書館","province":"東京都","city":"武蔵野市","address":"東京都武蔵野市吉祥寺北町4丁目8-3","lat":35.71250641,"lon":139.56619043},{"name":"吉祥寺図書館","province":"東京都","city":"武蔵野市","address":"東京都武蔵野市吉祥寺本町1丁目21-13","lat":35.70499371,"lon":139.58227267},{"name":"武蔵野プレイス","province":"東京都","city":"武蔵野市","address":"東京都武蔵野市境南町2丁目3-18","lat":35.70116002,"lon":139.54368185},{"name":"桜堤児童館","province":"東京都","city":"武蔵野市","address":"武蔵野市桜堤2-1-29","lat":35.70765,"lon":139.53267},{"name":"井の頭自然文化園","province":"東京都","city":"武蔵野市","address":"武蔵野市御殿山1-17-6","lat":35.7016361,"lon":139.5712436},{"name":"＊?武蔵野ふるさと歴史館","province":"東京都","city":"武蔵野市","address":"武蔵野市境5-15-5","lat":35.702238,"lon":139.534605},{"name":"＊?吉祥寺図書館","province":"東京都","city":"武蔵野市","address":"武蔵野市吉祥寺本町1-21-13","lat":35.705002,"lon":139.582266},{"name":"＊?中央図書館","province":"東京都","city":"武蔵野市","address":"武蔵野市吉祥寺北町4-8-3","lat":35.712514,"lon":139.566199},{"name":"武蔵野市民会館","province":"東京都","city":"武蔵野市","address":"武蔵野市境2-3-7","lat":35.705788,"lon":139.543747},{"name":"吉祥寺図書館","province":"東京都","city":"武蔵野市","address":"武蔵野市吉祥寺本町1-21-13","lat":35.705318,"lon":139.582413},{"name":"中央図書館","province":"東京都","city":"武蔵野市","address":"武蔵野市吉祥寺北町4-8-3","lat":35.712769,"lon":139.566513},{"name":"ひと・まち・情報創造館武蔵野プレイス","province":"東京都","city":"武蔵野市","address":"武蔵野市境南2-3-18","lat":35.705788,"lon":139.543747},{"name":"井の頭恩賜公園","province":"東京都","city":"武蔵野市","address":"東京都武蔵野市御殿山1丁目","lat":35.7024494,"lon":139.57595665},{"name":"武蔵野市クリーンセンター","province":"東京都","city":"武蔵野市","address":"武蔵野市緑町3-1-5","lat":35.719227,"lon":139.566376},{"name":"桜堤児童館","province":"東京都","city":"武蔵野市","address":"武蔵野市桜堤2-1-29","lat":35.707576,"lon":139.532377},{"name":"中央図書館","province":"東京都","city":"武蔵野市","address":"東京都武蔵野市吉祥寺北町4丁目8-3","lat":35.71250641,"lon":139.56619043},{"name":"吉祥寺図書館","province":"東京都","city":"武蔵野市","address":"東京都武蔵野市吉祥寺本町1丁目21-13","lat":35.70499371,"lon":139.58227267},{"name":"武蔵野プレイス","province":"東京都","city":"武蔵野市","address":"東京都武蔵野市境南町2丁目3-18","lat":35.70116002,"lon":139.54368185},{"name":"桜堤児童館","province":"東京都","city":"武蔵野市","address":"武蔵野市桜堤2-1-29","lat":35.70765,"lon":139.53267},{"name":"井の頭自然文化園","province":"東京都","city":"武蔵野市","address":"武蔵野市御殿山1-17-6","lat":35.7016361,"lon":139.5712436},{"name":"＊?武蔵野ふるさと歴史館","province":"東京都","city":"武蔵野市","address":"武蔵野市境5-15-5","lat":35.702238,"lon":139.534605},{"name":"＊?吉祥寺図書館","province":"東京都","city":"武蔵野市","address":"武蔵野市吉祥寺本町1-21-13","lat":35.705002,"lon":139.582266},{"name":"＊?中央図書館","province":"東京都","city":"武蔵野市","address":"武蔵野市吉祥寺北町4-8-3","lat":35.712514,"lon":139.566199},{"name":"武蔵野市民会館","province":"東京都","city":"武蔵野市","address":"武蔵野市境2-3-7","lat":35.705788,"lon":139.543747},{"name":"吉祥寺図書館","province":"東京都","city":"武蔵野市","address":"武蔵野市吉祥寺本町1-21-13","lat":35.705318,"lon":139.582413},{"name":"中央図書館","province":"東京都","city":"武蔵野市","address":"武蔵野市吉祥寺北町4-8-3","lat":35.712769,"lon":139.566513},{"name":"ひと・まち・情報創造館武蔵野プレイス","province":"東京都","city":"武蔵野市","address":"武蔵野市境南2-3-18","lat":35.705788,"lon":139.543747},{"name":"井の頭恩賜公園","province":"東京都","city":"武蔵野市","address":"東京都武蔵野市御殿山1丁目","lat":35.7024494,"lon":139.57595665},{"name":"武蔵野市クリーンセンター","province":"東京都","city":"武蔵野市","address":"武蔵野市緑町3-1-5","lat":35.719227,"lon":139.566376},{"name":"桜堤児童館","province":"東京都","city":"武蔵野市","address":"武蔵野市桜堤2-1-29","lat":35.707576,"lon":139.532377},{"name":"中央図書館","province":"東京都","city":"武蔵野市","address":"東京都武蔵野市吉祥寺北町4丁目8-3","lat":35.71250641,"lon":139.56619043},{"name":"吉祥寺図書館","province":"東京都","city":"武蔵野市","address":"東京都武蔵野市吉祥寺本町1丁目21-13","lat":35.70499371,"lon":139.58227267},{"name":"武蔵野プレイス","province":"東京都","city":"武蔵野市","address":"東京都武蔵野市境南町2丁目3-18","lat":35.70116002,"lon":139.54368185},{"name":"桜堤児童館","province":"東京都","city":"武蔵野市","address":"武蔵野市桜堤2-1-29","lat":35.70765,"lon":139.53267},{"name":"井の頭自然文化園","province":"東京都","city":"武蔵野市","address":"武蔵野市御殿山1-17-6","lat":35.7016361,"lon":139.5712436},{"name":"＊?武蔵野ふるさと歴史館","province":"東京都","city":"武蔵野市","address":"武蔵野市境5-15-5","lat":35.702238,"lon":139.534605},{"name":"＊?吉祥寺図書館","province":"東京都","city":"武蔵野市","address":"武蔵野市吉祥寺本町1-21-13","lat":35.705002,"lon":139.582266},{"name":"＊?中央図書館","province":"東京都","city":"武蔵野市","address":"武蔵野市吉祥寺北町4-8-3","lat":35.712514,"lon":139.566199},{"name":"武蔵野市民会館","province":"東京都","city":"武蔵野市","address":"武蔵野市境2-3-7","lat":35.705788,"lon":139.543747},{"name":"吉祥寺図書館","province":"東京都","city":"武蔵野市","address":"武蔵野市吉祥寺本町1-21-13","lat":35.705318,"lon":139.582413},{"name":"中央図書館","province":"東京都","city":"武蔵野市","address":"武蔵野市吉祥寺北町4-8-3","lat":35.712769,"lon":139.566513},{"name":"ひと・まち・情報創造館武蔵野プレイス","province":"東京都","city":"武蔵野市","address":"武蔵野市境南2-3-18","lat":35.705788,"lon":139.543747},{"name":"井の頭恩賜公園","province":"東京都","city":"武蔵野市","address":"東京都武蔵野市御殿山1丁目","lat":35.7024494,"lon":139.57595665},{"name":"武蔵野市クリーンセンター","province":"東京都","city":"武蔵野市","address":"武蔵野市緑町3-1-5","lat":35.719227,"lon":139.566376},{"name":"桜堤児童館","province":"東京都","city":"武蔵野市","address":"武蔵野市桜堤2-1-29","lat":35.707576,"lon":139.532377},{"name":"中央図書館","province":"東京都","city":"武蔵野市","address":"東京都武蔵野市吉祥寺北町4丁目8-3","lat":35.71250641,"lon":139.56619043},{"name":"吉祥寺図書館","province":"東京都","city":"武蔵野市","address":"東京都武蔵野市吉祥寺本町1丁目21-13","lat":35.70499371,"lon":139.58227267},{"name":"武蔵野プレイス","province":"東京都","city":"武蔵野市","address":"東京都武蔵野市境南町2丁目3-18","lat":35.70116002,"lon":139.54368185},{"name":"桜堤児童館","province":"東京都","city":"武蔵野市","address":"武蔵野市桜堤2-1-29","lat":35.70765,"lon":139.53267},{"name":"井の頭自然文化園","province":"東京都","city":"武蔵野市","address":"武蔵野市御殿山1-17-6","lat":35.7016361,"lon":139.5712436},{"name":"＊?吉祥寺図書館","province":"東京都","city":"武蔵野市","address":"武蔵野市吉祥寺本町1-21-13","lat":35.705002,"lon":139.582266},{"name":"＊?中央図書館","province":"東京都","city":"武蔵野市","address":"武蔵野市吉祥寺北町4-8-3","lat":35.712514,"lon":139.566199},{"name":"武蔵野市民会館","province":"東京都","city":"武蔵野市","address":"武蔵野市境2-3-7","lat":35.705788,"lon":139.543747},{"name":"吉祥寺図書館","province":"東京都","city":"武蔵野市","address":"武蔵野市吉祥寺本町1-21-13","lat":35.705318,"lon":139.582413},{"name":"中央図書館","province":"東京都","city":"武蔵野市","address":"武蔵野市吉祥寺北町4-8-3","lat":35.712769,"lon":139.566513},{"name":"ひと・まち・情報創造館武蔵野プレイス","province":"東京都","city":"武蔵野市","address":"武蔵野市境南2-3-18","lat":35.705788,"lon":139.543747},{"name":"井の頭恩賜公園","province":"東京都","city":"武蔵野市","address":"東京都武蔵野市御殿山1丁目","lat":35.7024494,"lon":139.57595665},{"name":"武蔵野市クリーンセンター","province":"東京都","city":"武蔵野市","address":"武蔵野市緑町3-1-5","lat":35.719227,"lon":139.566376},{"name":"桜堤児童館","province":"東京都","city":"武蔵野市","address":"武蔵野市桜堤2-1-29","lat":35.707576,"lon":139.532377},{"name":"中央図書館","province":"東京都","city":"武蔵野市","address":"東京都武蔵野市吉祥寺北町4丁目8-3","lat":35.71250641,"lon":139.56619043},{"name":"吉祥寺図書館","province":"東京都","city":"武蔵野市","address":"東京都武蔵野市吉祥寺本町1丁目21-13","lat":35.70499371,"lon":139.58227267},{"name":"武蔵野プレイス","province":"東京都","city":"武蔵野市","address":"東京都武蔵野市境南町2丁目3-18","lat":35.70116002,"lon":139.54368185},{"name":"桜堤児童館","province":"東京都","city":"武蔵野市","address":"武蔵野市桜堤2-1-29","lat":35.70765,"lon":139.53267},{"name":"井の頭自然文化園","province":"東京都","city":"武蔵野市","address":"武蔵野市御殿山1-17-6","lat":35.7016361,"lon":139.5712436},{"name":"＊?吉祥寺図書館","province":"東京都","city":"武蔵野市","address":"武蔵野市吉祥寺本町1-21-13","lat":35.705002,"lon":139.582266},{"name":"＊?中央図書館","province":"東京都","city":"武蔵野市","address":"武蔵野市吉祥寺北町4-8-3","lat":35.712514,"lon":139.566199},{"name":"武蔵野市民会館","province":"東京都","city":"武蔵野市","address":"武蔵野市境2-3-7","lat":35.705788,"lon":139.543747},{"name":"吉祥寺図書館","province":"東京都","city":"武蔵野市","address":"武蔵野市吉祥寺本町1-21-13","lat":35.705318,"lon":139.582413},{"name":"中央図書館","province":"東京都","city":"武蔵野市","address":"武蔵野市吉祥寺北町4-8-3","lat":35.712769,"lon":139.566513},{"name":"ひと・まち・情報創造館武蔵野プレイス","province":"東京都","city":"武蔵野市","address":"武蔵野市境南2-3-18","lat":35.705788,"lon":139.543747},{"name":"井の頭恩賜公園","province":"東京都","city":"武蔵野市","address":"東京都武蔵野市御殿山1丁目","lat":35.7024494,"lon":139.57595665},{"name":"武蔵野市クリーンセンター","province":"東京都","city":"武蔵野市","address":"武蔵野市緑町3-1-5","lat":35.719227,"lon":139.566376},{"name":"桜堤児童館","province":"東京都","city":"武蔵野市","address":"武蔵野市桜堤2-1-29","lat":35.707576,"lon":139.532377},{"name":"中央図書館","province":"東京都","city":"武蔵野市","address":"東京都武蔵野市吉祥寺北町4丁目8-3","lat":35.71250641,"lon":139.56619043},{"name":"吉祥寺図書館","province":"東京都","city":"武蔵野市","address":"東京都武蔵野市吉祥寺本町1丁目21-13","lat":35.70499371,"lon":139.58227267},{"name":"武蔵野プレイス","province":"東京都","city":"武蔵野市","address":"東京都武蔵野市境南町2丁目3-18","lat":35.70116002,"lon":139.54368185},{"name":"桜堤児童館","province":"東京都","city":"武蔵野市","address":"武蔵野市桜堤2-1-29","lat":35.70765,"lon":139.53267},{"name":"井の頭自然文化園","province":"東京都","city":"武蔵野市","address":"武蔵野市御殿山1-17-6","lat":35.7016361,"lon":139.5712436},{"name":"＊?吉祥寺図書館","province":"東京都","city":"武蔵野市","address":"武蔵野市吉祥寺本町1-21-13","lat":35.705002,"lon":139.582266},{"name":"＊?中央図書館","province":"東京都","city":"武蔵野市","address":"武蔵野市吉祥寺北町4-8-3","lat":35.712514,"lon":139.566199},{"name":"武蔵野市民会館","province":"東京都","city":"武蔵野市","address":"武蔵野市境2-3-7","lat":35.705788,"lon":139.543747},{"name":"吉祥寺図書館","province":"東京都","city":"武蔵野市","address":"武蔵野市吉祥寺本町1-21-13","lat":35.705318,"lon":139.582413},{"name":"中央図書館","province":"東京都","city":"武蔵野市","address":"武蔵野市吉祥寺北町4-8-3","lat":35.712769,"lon":139.566513},{"name":"ひと・まち・情報創造館武蔵野プレイス","province":"東京都","city":"武蔵野市","address":"武蔵野市境南2-3-18","lat":35.705788,"lon":139.543747},{"name":"井の頭恩賜公園","province":"東京都","city":"武蔵野市","address":"東京都武蔵野市御殿山1丁目","lat":35.7024494,"lon":139.57595665},{"name":"武蔵野市クリーンセンター","province":"東京都","city":"武蔵野市","address":"武蔵野市緑町3-1-5","lat":35.719227,"lon":139.566376},{"name":"桜堤児童館","province":"東京都","city":"武蔵野市","address":"武蔵野市桜堤2-1-29","lat":35.707576,"lon":139.532377},{"name":"中央図書館","province":"東京都","city":"武蔵野市","address":"東京都武蔵野市吉祥寺北町4丁目8-3","lat":35.71250641,"lon":139.56619043},{"name":"吉祥寺図書館","province":"東京都","city":"武蔵野市","address":"東京都武蔵野市吉祥寺本町1丁目21-13","lat":35.70499371,"lon":139.58227267},{"name":"武蔵野プレイス","province":"東京都","city":"武蔵野市","address":"東京都武蔵野市境南町2丁目3-18","lat":35.70116002,"lon":139.54368185},{"name":"桜堤児童館","province":"東京都","city":"武蔵野市","address":"武蔵野市桜堤2-1-29","lat":35.70765,"lon":139.53267},{"name":"井の頭自然文化園","province":"東京都","city":"武蔵野市","address":"武蔵野市御殿山1-17-6","lat":35.7016361,"lon":139.5712436},{"name":"＊?吉祥寺図書館","province":"東京都","city":"武蔵野市","address":"武蔵野市吉祥寺本町1-21-13","lat":35.705002,"lon":139.582266},{"name":"＊?中央図書館","province":"東京都","city":"武蔵野市","address":"武蔵野市吉祥寺北町4-8-3","lat":35.712514,"lon":139.566199},{"name":"武蔵野市民会館","province":"東京都","city":"武蔵野市","address":"武蔵野市境2-3-7","lat":35.705788,"lon":139.543747},{"name":"吉祥寺図書館","province":"東京都","city":"武蔵野市","address":"武蔵野市吉祥寺本町1-21-13","lat":35.705318,"lon":139.582413},{"name":"中央図書館","province":"東京都","city":"武蔵野市","address":"武蔵野市吉祥寺北町4-8-3","lat":35.712769,"lon":139.566513},{"name":"ひと・まち・情報創造館武蔵野プレイス","province":"東京都","city":"武蔵野市","address":"武蔵野市境南2-3-18","lat":35.705788,"lon":139.543747},{"name":"井の頭恩賜公園","province":"東京都","city":"武蔵野市","address":"東京都武蔵野市御殿山1丁目","lat":35.7024494,"lon":139.57595665},{"name":"武蔵野市クリーンセンター","province":"東京都","city":"武蔵野市","address":"武蔵野市緑町3-1-5","lat":35.719227,"lon":139.566376},{"name":"桜堤児童館","province":"東京都","city":"武蔵野市","address":"武蔵野市桜堤2-1-29","lat":35.707576,"lon":139.532377},{"name":"中央図書館","province":"東京都","city":"武蔵野市","address":"東京都武蔵野市吉祥寺北町4丁目8-3","lat":35.71250641,"lon":139.56619043},{"name":"吉祥寺図書館","province":"東京都","city":"武蔵野市","address":"東京都武蔵野市吉祥寺本町1丁目21-13","lat":35.70499371,"lon":139.58227267},{"name":"武蔵野プレイス","province":"東京都","city":"武蔵野市","address":"東京都武蔵野市境南町2丁目3-18","lat":35.70116002,"lon":139.54368185},{"name":"桜堤児童館","province":"東京都","city":"武蔵野市","address":"武蔵野市桜堤2-1-29","lat":35.70765,"lon":139.53267},{"name":"井の頭自然文化園","province":"東京都","city":"武蔵野市","address":"武蔵野市御殿山1-17-6","lat":35.7016361,"lon":139.5712436},{"name":"＊?吉祥寺図書館","province":"東京都","city":"武蔵野市","address":"武蔵野市吉祥寺本町1-21-13","lat":35.705002,"lon":139.582266},{"name":"＊?中央図書館","province":"東京都","city":"武蔵野市","address":"武蔵野市吉祥寺北町4-8-3","lat":35.712514,"lon":139.566199},{"name":"武蔵野市民会館","province":"東京都","city":"武蔵野市","address":"武蔵野市境2-3-7","lat":35.705788,"lon":139.543747},{"name":"吉祥寺図書館","province":"東京都","city":"武蔵野市","address":"武蔵野市吉祥寺本町1-21-13","lat":35.705318,"lon":139.582413},{"name":"中央図書館","province":"東京都","city":"武蔵野市","address":"武蔵野市吉祥寺北町4-8-3","lat":35.712769,"lon":139.566513},{"name":"ひと・まち・情報創造館武蔵野プレイス","province":"東京都","city":"武蔵野市","address":"武蔵野市境南2-3-18","lat":35.705788,"lon":139.543747},{"name":"井の頭恩賜公園","province":"東京都","city":"武蔵野市","address":"東京都武蔵野市御殿山1丁目","lat":35.7024494,"lon":139.57595665},{"name":"武蔵野市クリーンセンター","province":"東京都","city":"武蔵野市","address":"武蔵野市緑町3-1-5","lat":35.719227,"lon":139.566376},{"name":"桜堤児童館","province":"東京都","city":"武蔵野市","address":"武蔵野市桜堤2-1-29","lat":35.707576,"lon":139.532377},{"name":"中央図書館","province":"東京都","city":"武蔵野市","address":"東京都武蔵野市吉祥寺北町4丁目8-3","lat":35.71250641,"lon":139.56619043},{"name":"吉祥寺図書館","province":"東京都","city":"武蔵野市","address":"東京都武蔵野市吉祥寺本町1丁目21-13","lat":35.70499371,"lon":139.58227267},{"name":"武蔵野プレイス","province":"東京都","city":"武蔵野市","address":"東京都武蔵野市境南町2丁目3-18","lat":35.70116002,"lon":139.54368185},{"name":"桜堤児童館","province":"東京都","city":"武蔵野市","address":"武蔵野市桜堤2-1-29","lat":35.70765,"lon":139.53267},{"name":"井の頭自然文化園","province":"東京都","city":"武蔵野市","address":"武蔵野市御殿山1-17-6","lat":35.7016361,"lon":139.5712436},{"name":"＊?吉祥寺図書館","province":"東京都","city":"武蔵野市","address":"武蔵野市吉祥寺本町1-21-13","lat":35.705002,"lon":139.582266},{"name":"＊?中央図書館","province":"東京都","city":"武蔵野市","address":"武蔵野市吉祥寺北町4-8-3","lat":35.712514,"lon":139.566199},{"name":"武蔵野市民会館","province":"東京都","city":"武蔵野市","address":"武蔵野市境2-3-7","lat":35.705788,"lon":139.543747},{"name":"吉祥寺図書館","province":"東京都","city":"武蔵野市","address":"武蔵野市吉祥寺本町1-21-13","lat":35.705318,"lon":139.582413},{"name":"中央図書館","province":"東京都","city":"武蔵野市","address":"武蔵野市吉祥寺北町4-8-3","lat":35.712769,"lon":139.566513},{"name":"ひと・まち・情報創造館武蔵野プレイス","province":"東京都","city":"武蔵野市","address":"武蔵野市境南2-3-18","lat":35.705788,"lon":139.543747},{"name":"井の頭恩賜公園","province":"東京都","city":"武蔵野市","address":"東京都武蔵野市御殿山1丁目","lat":35.7024494,"lon":139.57595665},{"name":"武蔵野市クリーンセンター","province":"東京都","city":"武蔵野市","address":"武蔵野市緑町3-1-5","lat":35.719227,"lon":139.566376},{"name":"桜堤児童館","province":"東京都","city":"武蔵野市","address":"武蔵野市桜堤2-1-29","lat":35.707576,"lon":139.532377},{"name":"中央図書館","province":"東京都","city":"武蔵野市","address":"東京都武蔵野市吉祥寺北町4丁目8-3","lat":35.71250641,"lon":139.56619043},{"name":"吉祥寺図書館","province":"東京都","city":"武蔵野市","address":"東京都武蔵野市吉祥寺本町1丁目21-13","lat":35.70499371,"lon":139.58227267},{"name":"武蔵野プレイス","province":"東京都","city":"武蔵野市","address":"東京都武蔵野市境南町2丁目3-18","lat":35.70116002,"lon":139.54368185},{"name":"桜堤児童館","province":"東京都","city":"武蔵野市","address":"武蔵野市桜堤2-1-29","lat":35.70765,"lon":139.53267},{"name":"井の頭自然文化園","province":"東京都","city":"武蔵野市","address":"武蔵野市御殿山1-17-6","lat":35.7016361,"lon":139.5712436},{"name":"＊?吉祥寺図書館","province":"東京都","city":"武蔵野市","address":"武蔵野市吉祥寺本町1-21-13","lat":35.705002,"lon":139.582266},{"name":"＊?中央図書館","province":"東京都","city":"武蔵野市","address":"武蔵野市吉祥寺北町4-8-3","lat":35.712514,"lon":139.566199},{"name":"武蔵野市民会館","province":"東京都","city":"武蔵野市","address":"武蔵野市境2-3-7","lat":35.705788,"lon":139.543747},{"name":"吉祥寺図書館","province":"東京都","city":"武蔵野市","address":"武蔵野市吉祥寺本町1-21-13","lat":35.705318,"lon":139.582413},{"name":"中央図書館","province":"東京都","city":"武蔵野市","address":"武蔵野市吉祥寺北町4-8-3","lat":35.712769,"lon":139.566513},{"name":"ひと・まち・情報創造館武蔵野プレイス","province":"東京都","city":"武蔵野市","address":"武蔵野市境南2-3-18","lat":35.705788,"lon":139.543747},{"name":"井の頭恩賜公園","province":"東京都","city":"武蔵野市","address":"東京都武蔵野市御殿山1丁目","lat":35.7024494,"lon":139.57595665},{"name":"武蔵野市クリーンセンター","province":"東京都","city":"武蔵野市","address":"武蔵野市緑町3-1-5","lat":35.719227,"lon":139.566376},{"name":"桜堤児童館","province":"東京都","city":"武蔵野市","address":"武蔵野市桜堤2-1-29","lat":35.707576,"lon":139.532377},{"name":"中央図書館","province":"東京都","city":"武蔵野市","address":"東京都武蔵野市吉祥寺北町4丁目8-3","lat":35.71250641,"lon":139.56619043},{"name":"吉祥寺図書館","province":"東京都","city":"武蔵野市","address":"東京都武蔵野市吉祥寺本町1丁目21-13","lat":35.70499371,"lon":139.58227267},{"name":"武蔵野プレイス","province":"東京都","city":"武蔵野市","address":"東京都武蔵野市境南町2丁目3-18","lat":35.70116002,"lon":139.54368185},{"name":"桜堤児童館","province":"東京都","city":"武蔵野市","address":"武蔵野市桜堤2-1-29","lat":35.70765,"lon":139.53267},{"name":"井の頭自然文化園","province":"東京都","city":"武蔵野市","address":"武蔵野市御殿山1-17-6","lat":35.7016361,"lon":139.5712436},{"name":"＊?吉祥寺図書館","province":"東京都","city":"武蔵野市","address":"武蔵野市吉祥寺本町1-21-13","lat":35.705002,"lon":139.582266},{"name":"＊?中央図書館","province":"東京都","city":"武蔵野市","address":"武蔵野市吉祥寺北町4-8-3","lat":35.712514,"lon":139.566199},{"name":"武蔵野市民会館","province":"東京都","city":"武蔵野市","address":"武蔵野市境2-3-7","lat":35.705788,"lon":139.543747},{"name":"吉祥寺図書館","province":"東京都","city":"武蔵野市","address":"武蔵野市吉祥寺本町1-21-13","lat":35.705318,"lon":139.582413},{"name":"中央図書館","province":"東京都","city":"武蔵野市","address":"武蔵野市吉祥寺北町4-8-3","lat":35.712769,"lon":139.566513},{"name":"ひと・まち・情報創造館武蔵野プレイス","province":"東京都","city":"武蔵野市","address":"武蔵野市境南2-3-18","lat":35.705788,"lon":139.543747},{"name":"井の頭恩賜公園","province":"東京都","city":"武蔵野市","address":"東京都武蔵野市御殿山1丁目","lat":35.7024494,"lon":139.57595665},{"name":"武蔵野市クリーンセンター","province":"東京都","city":"武蔵野市","address":"武蔵野市緑町3-1-5","lat":35.719227,"lon":139.566376},{"name":"桜堤児童館","province":"東京都","city":"武蔵野市","address":"武蔵野市桜堤2-1-29","lat":35.707576,"lon":139.532377},{"name":"中央図書館","province":"東京都","city":"武蔵野市","address":"東京都武蔵野市吉祥寺北町4丁目8-3","lat":35.71250641,"lon":139.56619043},{"name":"吉祥寺図書館","province":"東京都","city":"武蔵野市","address":"東京都武蔵野市吉祥寺本町1丁目21-13","lat":35.70499371,"lon":139.58227267},{"name":"武蔵野プレイス","province":"東京都","city":"武蔵野市","address":"東京都武蔵野市境南町2丁目3-18","lat":35.70116002,"lon":139.54368185},{"name":"桜堤児童館","province":"東京都","city":"武蔵野市","address":"武蔵野市桜堤2-1-29","lat":35.70765,"lon":139.53267},{"name":"井の頭自然文化園","province":"東京都","city":"武蔵野市","address":"武蔵野市御殿山1-17-6","lat":35.7016361,"lon":139.5712436},{"name":"＊?吉祥寺図書館","province":"東京都","city":"武蔵野市","address":"武蔵野市吉祥寺本町1-21-13","lat":35.705002,"lon":139.582266},{"name":"＊?中央図書館","province":"東京都","city":"武蔵野市","address":"武蔵野市吉祥寺北町4-8-3","lat":35.712514,"lon":139.566199},{"name":"武蔵野市民会館","province":"東京都","city":"武蔵野市","address":"武蔵野市境2-3-7","lat":35.705788,"lon":139.543747},{"name":"吉祥寺図書館","province":"東京都","city":"武蔵野市","address":"武蔵野市吉祥寺本町1-21-13","lat":35.705318,"lon":139.582413},{"name":"中央図書館","province":"東京都","city":"武蔵野市","address":"武蔵野市吉祥寺北町4-8-3","lat":35.712769,"lon":139.566513},{"name":"ひと・まち・情報創造館武蔵野プレイス","province":"東京都","city":"武蔵野市","address":"武蔵野市境南2-3-18","lat":35.705788,"lon":139.543747},{"name":"井の頭恩賜公園","province":"東京都","city":"武蔵野市","address":"東京都武蔵野市御殿山1丁目","lat":35.7024494,"lon":139.57595665},{"name":"武蔵野市クリーンセンター","province":"東京都","city":"武蔵野市","address":"武蔵野市緑町3-1-5","lat":35.719227,"lon":139.566376},{"name":"桜堤児童館","province":"東京都","city":"武蔵野市","address":"武蔵野市桜堤2-1-29","lat":35.707576,"lon":139.532377},{"name":"中央図書館","province":"東京都","city":"武蔵野市","address":"東京都武蔵野市吉祥寺北町4丁目8-3","lat":35.71250641,"lon":139.56619043},{"name":"吉祥寺図書館","province":"東京都","city":"武蔵野市","address":"東京都武蔵野市吉祥寺本町1丁目21-13","lat":35.70499371,"lon":139.58227267},{"name":"武蔵野プレイス","province":"東京都","city":"武蔵野市","address":"東京都武蔵野市境南町2丁目3-18","lat":35.70116002,"lon":139.54368185},{"name":"桜堤児童館","province":"東京都","city":"武蔵野市","address":"武蔵野市桜堤2-1-29","lat":35.70765,"lon":139.53267},{"name":"井の頭自然文化園","province":"東京都","city":"武蔵野市","address":"武蔵野市御殿山1-17-6","lat":35.7016361,"lon":139.5712436},{"name":"＊?吉祥寺図書館","province":"東京都","city":"武蔵野市","address":"武蔵野市吉祥寺本町1-21-13","lat":35.705002,"lon":139.582266},{"name":"＊?中央図書館","province":"東京都","city":"武蔵野市","address":"武蔵野市吉祥寺北町4-8-3","lat":35.712514,"lon":139.566199},{"name":"武蔵野市民会館","province":"東京都","city":"武蔵野市","address":"武蔵野市境2-3-7","lat":35.705788,"lon":139.543747},{"name":"吉祥寺図書館","province":"東京都","city":"武蔵野市","address":"武蔵野市吉祥寺本町1-21-13","lat":35.705318,"lon":139.582413},{"name":"中央図書館","province":"東京都","city":"武蔵野市","address":"武蔵野市吉祥寺北町4-8-3","lat":35.712769,"lon":139.566513},{"name":"ひと・まち・情報創造館武蔵野プレイス","province":"東京都","city":"武蔵野市","address":"武蔵野市境南2-3-18","lat":35.705788,"lon":139.543747},{"name":"井の頭恩賜公園","province":"東京都","city":"武蔵野市","address":"東京都武蔵野市御殿山1丁目","lat":35.7024494,"lon":139.57595665},{"name":"武蔵野市クリーンセンター","province":"東京都","city":"武蔵野市","address":"武蔵野市緑町3-1-5","lat":35.719227,"lon":139.566376},{"name":"桜堤児童館","province":"東京都","city":"武蔵野市","address":"武蔵野市桜堤2-1-29","lat":35.707576,"lon":139.532377},{"name":"中央図書館","province":"東京都","city":"武蔵野市","address":"東京都武蔵野市吉祥寺北町4丁目8-3","lat":35.71250641,"lon":139.56619043},{"name":"吉祥寺図書館","province":"東京都","city":"武蔵野市","address":"東京都武蔵野市吉祥寺本町1丁目21-13","lat":35.70499371,"lon":139.58227267},{"name":"武蔵野プレイス","province":"東京都","city":"武蔵野市","address":"東京都武蔵野市境南町2丁目3-18","lat":35.70116002,"lon":139.54368185},{"name":"桜堤児童館","province":"東京都","city":"武蔵野市","address":"武蔵野市桜堤2-1-29","lat":35.70765,"lon":139.53267},{"name":"井の頭自然文化園","province":"東京都","city":"武蔵野市","address":"武蔵野市御殿山1-17-6","lat":35.7016361,"lon":139.5712436},{"name":"＊?吉祥寺図書館","province":"東京都","city":"武蔵野市","address":"武蔵野市吉祥寺本町1-21-13","lat":35.705002,"lon":139.582266},{"name":"＊?中央図書館","province":"東京都","city":"武蔵野市","address":"武蔵野市吉祥寺北町4-8-3","lat":35.712514,"lon":139.566199},{"name":"武蔵野市民会館","province":"東京都","city":"武蔵野市","address":"武蔵野市境2-3-7","lat":35.705788,"lon":139.543747},{"name":"吉祥寺図書館","province":"東京都","city":"武蔵野市","address":"武蔵野市吉祥寺本町1-21-13","lat":35.705318,"lon":139.582413},{"name":"中央図書館","province":"東京都","city":"武蔵野市","address":"武蔵野市吉祥寺北町4-8-3","lat":35.712769,"lon":139.566513},{"name":"ひと・まち・情報創造館武蔵野プレイス","province":"東京都","city":"武蔵野市","address":"武蔵野市境南2-3-18","lat":35.705788,"lon":139.543747},{"name":"井の頭恩賜公園","province":"東京都","city":"武蔵野市","address":"東京都武蔵野市御殿山1丁目","lat":35.7024494,"lon":139.57595665},{"name":"武蔵野市クリーンセンター","province":"東京都","city":"武蔵野市","address":"武蔵野市緑町3-1-5","lat":35.719227,"lon":139.566376},{"name":"桜堤児童館","province":"東京都","city":"武蔵野市","address":"武蔵野市桜堤2-1-29","lat":35.707576,"lon":139.532377},{"name":"中央図書館","province":"東京都","city":"武蔵野市","address":"東京都武蔵野市吉祥寺北町4丁目8-3","lat":35.71250641,"lon":139.56619043},{"name":"吉祥寺図書館","province":"東京都","city":"武蔵野市","address":"東京都武蔵野市吉祥寺本町1丁目21-13","lat":35.70499371,"lon":139.58227267},{"name":"武蔵野プレイス","province":"東京都","city":"武蔵野市","address":"東京都武蔵野市境南町2丁目3-18","lat":35.70116002,"lon":139.54368185},{"name":"桜堤児童館","province":"東京都","city":"武蔵野市","address":"武蔵野市桜堤2-1-29","lat":35.70765,"lon":139.53267},{"name":"井の頭自然文化園","province":"東京都","city":"武蔵野市","address":"武蔵野市御殿山1-17-6","lat":35.7016361,"lon":139.5712436},{"name":"＊?吉祥寺図書館","province":"東京都","city":"武蔵野市","address":"武蔵野市吉祥寺本町1-21-13","lat":35.705002,"lon":139.582266},{"name":"＊?中央図書館","province":"東京都","city":"武蔵野市","address":"武蔵野市吉祥寺北町4-8-3","lat":35.712514,"lon":139.566199},{"name":"武蔵野市民会館","province":"東京都","city":"武蔵野市","address":"武蔵野市境2-3-7","lat":35.705788,"lon":139.543747},{"name":"吉祥寺図書館","province":"東京都","city":"武蔵野市","address":"武蔵野市吉祥寺本町1-21-13","lat":35.705318,"lon":139.582413},{"name":"中央図書館","province":"東京都","city":"武蔵野市","address":"武蔵野市吉祥寺北町4-8-3","lat":35.712769,"lon":139.566513},{"name":"ひと・まち・情報創造館武蔵野プレイス","province":"東京都","city":"武蔵野市","address":"武蔵野市境南2-3-18","lat":35.705788,"lon":139.543747},{"name":"井の頭恩賜公園","province":"東京都","city":"武蔵野市","address":"東京都武蔵野市御殿山1丁目","lat":35.7024494,"lon":139.57595665},{"name":"武蔵野市クリーンセンター","province":"東京都","city":"武蔵野市","address":"武蔵野市緑町3-1-5","lat":35.719227,"lon":139.566376},{"name":"桜堤児童館","province":"東京都","city":"武蔵野市","address":"武蔵野市桜堤2-1-29","lat":35.707576,"lon":139.532377},{"name":"中央図書館","province":"東京都","city":"武蔵野市","address":"東京都武蔵野市吉祥寺北町4丁目8-3","lat":35.71250641,"lon":139.56619043},{"name":"吉祥寺図書館","province":"東京都","city":"武蔵野市","address":"東京都武蔵野市吉祥寺本町1丁目21-13","lat":35.70499371,"lon":139.58227267},{"name":"武蔵野プレイス","province":"東京都","city":"武蔵野市","address":"東京都武蔵野市境南町2丁目3-18","lat":35.70116002,"lon":139.54368185},{"name":"桜堤児童館","province":"東京都","city":"武蔵野市","address":"武蔵野市桜堤2-1-29","lat":35.70765,"lon":139.53267},{"name":"井の頭自然文化園","province":"東京都","city":"武蔵野市","address":"武蔵野市御殿山1-17-6","lat":35.7016361,"lon":139.5712436},{"name":"＊?吉祥寺図書館","province":"東京都","city":"武蔵野市","address":"武蔵野市吉祥寺本町1-21-13","lat":35.705002,"lon":139.582266},{"name":"＊?中央図書館","province":"東京都","city":"武蔵野市","address":"武蔵野市吉祥寺北町4-8-3","lat":35.712514,"lon":139.566199},{"name":"武蔵野市民会館","province":"東京都","city":"武蔵野市","address":"武蔵野市境2-3-7","lat":35.705788,"lon":139.543747},{"name":"吉祥寺図書館","province":"東京都","city":"武蔵野市","address":"武蔵野市吉祥寺本町1-21-13","lat":35.705318,"lon":139.582413},{"name":"中央図書館","province":"東京都","city":"武蔵野市","address":"武蔵野市吉祥寺北町4-8-3","lat":35.712769,"lon":139.566513},{"name":"ひと・まち・情報創造館武蔵野プレイス","province":"東京都","city":"武蔵野市","address":"武蔵野市境南2-3-18","lat":35.705788,"lon":139.543747},{"name":"井の頭恩賜公園","province":"東京都","city":"武蔵野市","address":"東京都武蔵野市御殿山1丁目","lat":35.7024494,"lon":139.57595665},{"name":"武蔵野市クリーンセンター","province":"東京都","city":"武蔵野市","address":"武蔵野市緑町3-1-5","lat":35.719227,"lon":139.566376},{"name":"桜堤児童館","province":"東京都","city":"武蔵野市","address":"武蔵野市桜堤2-1-29","lat":35.707576,"lon":139.532377},{"name":"中央図書館","province":"東京都","city":"武蔵野市","address":"東京都武蔵野市吉祥寺北町4丁目8-3","lat":35.71250641,"lon":139.56619043},{"name":"吉祥寺図書館","province":"東京都","city":"武蔵野市","address":"東京都武蔵野市吉祥寺本町1丁目21-13","lat":35.70499371,"lon":139.58227267},{"name":"武蔵野プレイス","province":"東京都","city":"武蔵野市","address":"東京都武蔵野市境南町2丁目3-18","lat":35.70116002,"lon":139.54368185},{"name":"桜堤児童館","province":"東京都","city":"武蔵野市","address":"武蔵野市桜堤2-1-29","lat":35.70765,"lon":139.53267},{"name":"井の頭自然文化園","province":"東京都","city":"武蔵野市","address":"武蔵野市御殿山1-17-6","lat":35.7016361,"lon":139.5712436},{"name":"＊?吉祥寺図書館","province":"東京都","city":"武蔵野市","address":"武蔵野市吉祥寺本町1-21-13","lat":35.705002,"lon":139.582266},{"name":"＊?中央図書館","province":"東京都","city":"武蔵野市","address":"武蔵野市吉祥寺北町4-8-3","lat":35.712514,"lon":139.566199},{"name":"武蔵野市民会館","province":"東京都","city":"武蔵野市","address":"武蔵野市境2-3-7","lat":35.705788,"lon":139.543747},{"name":"吉祥寺図書館","province":"東京都","city":"武蔵野市","address":"武蔵野市吉祥寺本町1-21-13","lat":35.705318,"lon":139.582413},{"name":"中央図書館","province":"東京都","city":"武蔵野市","address":"武蔵野市吉祥寺北町4-8-3","lat":35.712769,"lon":139.566513},{"name":"ひと・まち・情報創造館武蔵野プレイス","province":"東京都","city":"武蔵野市","address":"武蔵野市境南2-3-18","lat":35.705788,"lon":139.543747},{"name":"井の頭恩賜公園","province":"東京都","city":"武蔵野市","address":"東京都武蔵野市御殿山1丁目","lat":35.7024494,"lon":139.57595665},{"name":"桜堤児童館","province":"東京都","city":"武蔵野市","address":"武蔵野市桜堤2-1-29","lat":35.707576,"lon":139.532377},{"name":"中央図書館","province":"東京都","city":"武蔵野市","address":"東京都武蔵野市吉祥寺北町4丁目8-3","lat":35.71250641,"lon":139.56619043},{"name":"吉祥寺図書館","province":"東京都","city":"武蔵野市","address":"東京都武蔵野市吉祥寺本町1丁目21-13","lat":35.70499371,"lon":139.58227267},{"name":"武蔵野プレイス","province":"東京都","city":"武蔵野市","address":"東京都武蔵野市境南町2丁目3-18","lat":35.70116002,"lon":139.54368185},{"name":"桜堤児童館","province":"東京都","city":"武蔵野市","address":"武蔵野市桜堤2-1-29","lat":35.70765,"lon":139.53267},{"name":"井の頭自然文化園","province":"東京都","city":"武蔵野市","address":"武蔵野市御殿山1-17-6","lat":35.7016361,"lon":139.5712436},{"name":"＊?吉祥寺図書館","province":"東京都","city":"武蔵野市","address":"武蔵野市吉祥寺本町1-21-13","lat":35.705002,"lon":139.582266},{"name":"＊?中央図書館","province":"東京都","city":"武蔵野市","address":"武蔵野市吉祥寺北町4-8-3","lat":35.712514,"lon":139.566199},{"name":"武蔵野市民会館","province":"東京都","city":"武蔵野市","address":"武蔵野市境2-3-7","lat":35.705788,"lon":139.543747},{"name":"吉祥寺図書館","province":"東京都","city":"武蔵野市","address":"武蔵野市吉祥寺本町1-21-13","lat":35.705318,"lon":139.582413},{"name":"中央図書館","province":"東京都","city":"武蔵野市","address":"武蔵野市吉祥寺北町4-8-3","lat":35.712769,"lon":139.566513},{"name":"ひと・まち・情報創造館武蔵野プレイス","province":"東京都","city":"武蔵野市","address":"武蔵野市境南2-3-18","lat":35.705788,"lon":139.543747},{"name":"桜堤児童館","province":"東京都","city":"武蔵野市","address":"武蔵野市桜堤2-1-29","lat":35.707576,"lon":139.532377},{"name":"中央図書館","province":"東京都","city":"武蔵野市","address":"東京都武蔵野市吉祥寺北町4丁目8-3","lat":35.71250641,"lon":139.56619043},{"name":"吉祥寺図書館","province":"東京都","city":"武蔵野市","address":"東京都武蔵野市吉祥寺本町1丁目21-13","lat":35.70499371,"lon":139.58227267},{"name":"武蔵野プレイス","province":"東京都","city":"武蔵野市","address":"東京都武蔵野市境南町2丁目3-18","lat":35.70116002,"lon":139.54368185},{"name":"桜堤児童館","province":"東京都","city":"武蔵野市","address":"武蔵野市桜堤2-1-29","lat":35.70765,"lon":139.53267},{"name":"井の頭自然文化園","province":"東京都","city":"武蔵野市","address":"武蔵野市御殿山1-17-6","lat":35.7016361,"lon":139.5712436},{"name":"＊?吉祥寺図書館","province":"東京都","city":"武蔵野市","address":"武蔵野市吉祥寺本町1-21-13","lat":35.705002,"lon":139.582266},{"name":"＊?中央図書館","province":"東京都","city":"武蔵野市","address":"武蔵野市吉祥寺北町4-8-3","lat":35.712514,"lon":139.566199},{"name":"武蔵野市民会館","province":"東京都","city":"武蔵野市","address":"武蔵野市境2-3-7","lat":35.705788,"lon":139.543747},{"name":"吉祥寺図書館","province":"東京都","city":"武蔵野市","address":"武蔵野市吉祥寺本町1-21-13","lat":35.705318,"lon":139.582413},{"name":"中央図書館","province":"東京都","city":"武蔵野市","address":"武蔵野市吉祥寺北町4-8-3","lat":35.712769,"lon":139.566513},{"name":"ひと・まち・情報創造館武蔵野プレイス","province":"東京都","city":"武蔵野市","address":"武蔵野市境南2-3-18","lat":35.705788,"lon":139.543747},{"name":"桜堤児童館","province":"東京都","city":"武蔵野市","address":"武蔵野市桜堤2-1-29","lat":35.707576,"lon":139.532377},{"name":"中央図書館","province":"東京都","city":"武蔵野市","address":"東京都武蔵野市吉祥寺北町4丁目8-3","lat":35.71250641,"lon":139.56619043},{"name":"吉祥寺図書館","province":"東京都","city":"武蔵野市","address":"東京都武蔵野市吉祥寺本町1丁目21-13","lat":35.70499371,"lon":139.58227267},{"name":"武蔵野プレイス","province":"東京都","city":"武蔵野市","address":"東京都武蔵野市境南町2丁目3-18","lat":35.70116002,"lon":139.54368185},{"name":"桜堤児童館","province":"東京都","city":"武蔵野市","address":"武蔵野市桜堤2-1-29","lat":35.70765,"lon":139.53267},{"name":"井の頭自然文化園","province":"東京都","city":"武蔵野市","address":"武蔵野市御殿山1-17-6","lat":35.7016361,"lon":139.5712436},{"name":"＊?吉祥寺図書館","province":"東京都","city":"武蔵野市","address":"武蔵野市吉祥寺本町1-21-13","lat":35.705002,"lon":139.582266},{"name":"＊?中央図書館","province":"東京都","city":"武蔵野市","address":"武蔵野市吉祥寺北町4-8-3","lat":35.712514,"lon":139.566199},{"name":"武蔵野市民会館","province":"東京都","city":"武蔵野市","address":"武蔵野市境2-3-7","lat":35.705788,"lon":139.543747},{"name":"吉祥寺図書館","province":"東京都","city":"武蔵野市","address":"武蔵野市吉祥寺本町1-21-13","lat":35.705318,"lon":139.582413},{"name":"中央図書館","province":"東京都","city":"武蔵野市","address":"武蔵野市吉祥寺北町4-8-3","lat":35.712769,"lon":139.566513},{"name":"ひと・まち・情報創造館武蔵野プレイス","province":"東京都","city":"武蔵野市","address":"武蔵野市境南2-3-18","lat":35.705788,"lon":139.543747},{"name":"桜堤児童館","province":"東京都","city":"武蔵野市","address":"武蔵野市桜堤2-1-29","lat":35.707576,"lon":139.532377},{"name":"中央図書館","province":"東京都","city":"武蔵野市","address":"東京都武蔵野市吉祥寺北町4丁目8-3","lat":35.71250641,"lon":139.56619043},{"name":"吉祥寺図書館","province":"東京都","city":"武蔵野市","address":"東京都武蔵野市吉祥寺本町1丁目21-13","lat":35.70499371,"lon":139.58227267},{"name":"武蔵野プレイス","province":"東京都","city":"武蔵野市","address":"東京都武蔵野市境南町2丁目3-18","lat":35.70116002,"lon":139.54368185},{"name":"桜堤児童館","province":"東京都","city":"武蔵野市","address":"武蔵野市桜堤2-1-29","lat":35.70765,"lon":139.53267},{"name":"井の頭自然文化園","province":"東京都","city":"武蔵野市","address":"武蔵野市御殿山1-17-6","lat":35.7016361,"lon":139.5712436},{"name":"＊?吉祥寺図書館","province":"東京都","city":"武蔵野市","address":"武蔵野市吉祥寺本町1-21-13","lat":35.705002,"lon":139.582266},{"name":"＊?中央図書館","province":"東京都","city":"武蔵野市","address":"武蔵野市吉祥寺北町4-8-3","lat":35.712514,"lon":139.566199},{"name":"武蔵野市民会館","province":"東京都","city":"武蔵野市","address":"武蔵野市境2-3-7","lat":35.705788,"lon":139.543747},{"name":"吉祥寺図書館","province":"東京都","city":"武蔵野市","address":"武蔵野市吉祥寺本町1-21-13","lat":35.705318,"lon":139.582413},{"name":"中央図書館","province":"東京都","city":"武蔵野市","address":"武蔵野市吉祥寺北町4-8-3","lat":35.712769,"lon":139.566513},{"name":"ひと・まち・情報創造館武蔵野プレイス","province":"東京都","city":"武蔵野市","address":"武蔵野市境南2-3-18","lat":35.705788,"lon":139.543747},{"name":"桜堤児童館","province":"東京都","city":"武蔵野市","address":"武蔵野市桜堤2-1-29","lat":35.707576,"lon":139.532377},{"name":"中央図書館","province":"東京都","city":"武蔵野市","address":"東京都武蔵野市吉祥寺北町4丁目8-3","lat":35.71250641,"lon":139.56619043},{"name":"吉祥寺図書館","province":"東京都","city":"武蔵野市","address":"東京都武蔵野市吉祥寺本町1丁目21-13","lat":35.70499371,"lon":139.58227267},{"name":"武蔵野プレイス","province":"東京都","city":"武蔵野市","address":"東京都武蔵野市境南町2丁目3-18","lat":35.70116002,"lon":139.54368185},{"name":"桜堤児童館","province":"東京都","city":"武蔵野市","address":"武蔵野市桜堤2-1-29","lat":35.70765,"lon":139.53267},{"name":"井の頭自然文化園","province":"東京都","city":"武蔵野市","address":"武蔵野市御殿山1-17-6","lat":35.7016361,"lon":139.5712436},{"name":"＊?吉祥寺図書館","province":"東京都","city":"武蔵野市","address":"武蔵野市吉祥寺本町1-21-13","lat":35.705002,"lon":139.582266},{"name":"＊?中央図書館","province":"東京都","city":"武蔵野市","address":"武蔵野市吉祥寺北町4-8-3","lat":35.712514,"lon":139.566199},{"name":"武蔵野市民会館","province":"東京都","city":"武蔵野市","address":"武蔵野市境2-3-7","lat":35.705788,"lon":139.543747},{"name":"吉祥寺図書館","province":"東京都","city":"武蔵野市","address":"武蔵野市吉祥寺本町1-21-13","lat":35.705318,"lon":139.582413},{"name":"中央図書館","province":"東京都","city":"武蔵野市","address":"武蔵野市吉祥寺北町4-8-3","lat":35.712769,"lon":139.566513},{"name":"ひと・まち・情報創造館武蔵野プレイス","province":"東京都","city":"武蔵野市","address":"武蔵野市境南2-3-18","lat":35.705788,"lon":139.543747},{"name":"桜堤児童館","province":"東京都","city":"武蔵野市","address":"武蔵野市桜堤2-1-29","lat":35.707576,"lon":139.532377},{"name":"中央図書館","province":"東京都","city":"武蔵野市","address":"東京都武蔵野市吉祥寺北町4丁目8-3","lat":35.71250641,"lon":139.56619043},{"name":"吉祥寺図書館","province":"東京都","city":"武蔵野市","address":"東京都武蔵野市吉祥寺本町1丁目21-13","lat":35.70499371,"lon":139.58227267},{"name":"武蔵野プレイス","province":"東京都","city":"武蔵野市","address":"東京都武蔵野市境南町2丁目3-18","lat":35.70116002,"lon":139.54368185},{"name":"桜堤児童館","province":"東京都","city":"武蔵野市","address":"武蔵野市桜堤2-1-29","lat":35.70765,"lon":139.53267},{"name":"井の頭自然文化園","province":"東京都","city":"武蔵野市","address":"武蔵野市御殿山1-17-6","lat":35.7016361,"lon":139.5712436},{"name":"＊?吉祥寺図書館","province":"東京都","city":"武蔵野市","address":"武蔵野市吉祥寺本町1-21-13","lat":35.705002,"lon":139.582266},{"name":"＊?中央図書館","province":"東京都","city":"武蔵野市","address":"武蔵野市吉祥寺北町4-8-3","lat":35.712514,"lon":139.566199},{"name":"武蔵野市民会館","province":"東京都","city":"武蔵野市","address":"武蔵野市境2-3-7","lat":35.705788,"lon":139.543747},{"name":"吉祥寺図書館","province":"東京都","city":"武蔵野市","address":"武蔵野市吉祥寺本町1-21-13","lat":35.705318,"lon":139.582413},{"name":"中央図書館","province":"東京都","city":"武蔵野市","address":"武蔵野市吉祥寺北町4-8-3","lat":35.712769,"lon":139.566513},{"name":"ひと・まち・情報創造館武蔵野プレイス","province":"東京都","city":"武蔵野市","address":"武蔵野市境南2-3-18","lat":35.705788,"lon":139.543747},{"name":"桜堤児童館","province":"東京都","city":"武蔵野市","address":"武蔵野市桜堤2-1-29","lat":35.707576,"lon":139.532377},{"name":"中央図書館","province":"東京都","city":"武蔵野市","address":"東京都武蔵野市吉祥寺北町4丁目8-3","lat":35.71250641,"lon":139.56619043},{"name":"吉祥寺図書館","province":"東京都","city":"武蔵野市","address":"東京都武蔵野市吉祥寺本町1丁目21-13","lat":35.70499371,"lon":139.58227267},{"name":"武蔵野プレイス","province":"東京都","city":"武蔵野市","address":"東京都武蔵野市境南町2丁目3-18","lat":35.70116002,"lon":139.54368185},{"name":"桜堤児童館","province":"東京都","city":"武蔵野市","address":"武蔵野市桜堤2-1-29","lat":35.70765,"lon":139.53267},{"name":"井の頭自然文化園","province":"東京都","city":"武蔵野市","address":"武蔵野市御殿山1-17-6","lat":35.7016361,"lon":139.5712436},{"name":"＊?吉祥寺図書館","province":"東京都","city":"武蔵野市","address":"武蔵野市吉祥寺本町1-21-13","lat":35.705002,"lon":139.582266},{"name":"＊?中央図書館","province":"東京都","city":"武蔵野市","address":"武蔵野市吉祥寺北町4-8-3","lat":35.712514,"lon":139.566199},{"name":"武蔵野市民会館","province":"東京都","city":"武蔵野市","address":"武蔵野市境2-3-7","lat":35.705788,"lon":139.543747},{"name":"吉祥寺図書館","province":"東京都","city":"武蔵野市","address":"武蔵野市吉祥寺本町1-21-13","lat":35.705318,"lon":139.582413},{"name":"中央図書館","province":"東京都","city":"武蔵野市","address":"武蔵野市吉祥寺北町4-8-3","lat":35.712769,"lon":139.566513},{"name":"ひと・まち・情報創造館武蔵野プレイス","province":"東京都","city":"武蔵野市","address":"武蔵野市境南2-3-18","lat":35.705788,"lon":139.543747},{"name":"桜堤児童館","province":"東京都","city":"武蔵野市","address":"武蔵野市桜堤2-1-29","lat":35.707576,"lon":139.532377},{"name":"中央図書館","province":"東京都","city":"武蔵野市","address":"東京都武蔵野市吉祥寺北町4丁目8-3","lat":35.71250641,"lon":139.56619043},{"name":"吉祥寺図書館","province":"東京都","city":"武蔵野市","address":"東京都武蔵野市吉祥寺本町1丁目21-13","lat":35.70499371,"lon":139.58227267},{"name":"武蔵野プレイス","province":"東京都","city":"武蔵野市","address":"東京都武蔵野市境南町2丁目3-18","lat":35.70116002,"lon":139.54368185},{"name":"桜堤児童館","province":"東京都","city":"武蔵野市","address":"武蔵野市桜堤2-1-29","lat":35.70765,"lon":139.53267},{"name":"井の頭自然文化園","province":"東京都","city":"武蔵野市","address":"武蔵野市御殿山1-17-6","lat":35.7016361,"lon":139.5712436},{"name":"＊?吉祥寺図書館","province":"東京都","city":"武蔵野市","address":"武蔵野市吉祥寺本町1-21-13","lat":35.705002,"lon":139.582266},{"name":"＊?中央図書館","province":"東京都","city":"武蔵野市","address":"武蔵野市吉祥寺北町4-8-3","lat":35.712514,"lon":139.566199},{"name":"武蔵野市民会館","province":"東京都","city":"武蔵野市","address":"武蔵野市境2-3-7","lat":35.705788,"lon":139.543747},{"name":"吉祥寺図書館","province":"東京都","city":"武蔵野市","address":"武蔵野市吉祥寺本町1-21-13","lat":35.705318,"lon":139.582413},{"name":"中央図書館","province":"東京都","city":"武蔵野市","address":"武蔵野市吉祥寺北町4-8-3","lat":35.712769,"lon":139.566513},{"name":"ひと・まち・情報創造館武蔵野プレイス","province":"東京都","city":"武蔵野市","address":"武蔵野市境南2-3-18","lat":35.705788,"lon":139.543747},{"name":"桜堤児童館","province":"東京都","city":"武蔵野市","address":"武蔵野市桜堤2-1-29","lat":35.707576,"lon":139.532377},{"name":"中央図書館","province":"東京都","city":"武蔵野市","address":"東京都武蔵野市吉祥寺北町4丁目8-3","lat":35.71250641,"lon":139.56619043},{"name":"吉祥寺図書館","province":"東京都","city":"武蔵野市","address":"東京都武蔵野市吉祥寺本町1丁目21-13","lat":35.70499371,"lon":139.58227267},{"name":"武蔵野プレイス","province":"東京都","city":"武蔵野市","address":"東京都武蔵野市境南町2丁目3-18","lat":35.70116002,"lon":139.54368185},{"name":"桜堤児童館","province":"東京都","city":"武蔵野市","address":"武蔵野市桜堤2-1-29","lat":35.70765,"lon":139.53267},{"name":"井の頭自然文化園","province":"東京都","city":"武蔵野市","address":"武蔵野市御殿山1-17-6","lat":35.7016361,"lon":139.5712436},{"name":"＊?吉祥寺図書館","province":"東京都","city":"武蔵野市","address":"武蔵野市吉祥寺本町1-21-13","lat":35.705002,"lon":139.582266},{"name":"＊?中央図書館","province":"東京都","city":"武蔵野市","address":"武蔵野市吉祥寺北町4-8-3","lat":35.712514,"lon":139.566199},{"name":"武蔵野市民会館","province":"東京都","city":"武蔵野市","address":"武蔵野市境2-3-7","lat":35.705788,"lon":139.543747},{"name":"吉祥寺図書館","province":"東京都","city":"武蔵野市","address":"武蔵野市吉祥寺本町1-21-13","lat":35.705318,"lon":139.582413},{"name":"中央図書館","province":"東京都","city":"武蔵野市","address":"武蔵野市吉祥寺北町4-8-3","lat":35.712769,"lon":139.566513},{"name":"ひと・まち・情報創造館武蔵野プレイス","province":"東京都","city":"武蔵野市","address":"武蔵野市境南2-3-18","lat":35.705788,"lon":139.543747},{"name":"桜堤児童館","province":"東京都","city":"武蔵野市","address":"武蔵野市桜堤2-1-29","lat":35.707576,"lon":139.532377},{"name":"中央図書館","province":"東京都","city":"武蔵野市","address":"東京都武蔵野市吉祥寺北町4丁目8-3","lat":35.71250641,"lon":139.56619043},{"name":"吉祥寺図書館","province":"東京都","city":"武蔵野市","address":"東京都武蔵野市吉祥寺本町1丁目21-13","lat":35.70499371,"lon":139.58227267},{"name":"武蔵野プレイス","province":"東京都","city":"武蔵野市","address":"東京都武蔵野市境南町2丁目3-18","lat":35.70116002,"lon":139.54368185},{"name":"桜堤児童館","province":"東京都","city":"武蔵野市","address":"武蔵野市桜堤2-1-29","lat":35.70765,"lon":139.53267},{"name":"井の頭自然文化園","province":"東京都","city":"武蔵野市","address":"武蔵野市御殿山1-17-6","lat":35.7016361,"lon":139.5712436},{"name":"＊?吉祥寺図書館","province":"東京都","city":"武蔵野市","address":"武蔵野市吉祥寺本町1-21-13","lat":35.705002,"lon":139.582266},{"name":"＊?中央図書館","province":"東京都","city":"武蔵野市","address":"武蔵野市吉祥寺北町4-8-3","lat":35.712514,"lon":139.566199},{"name":"武蔵野市民会館","province":"東京都","city":"武蔵野市","address":"武蔵野市境2-3-7","lat":35.705788,"lon":139.543747},{"name":"吉祥寺図書館","province":"東京都","city":"武蔵野市","address":"武蔵野市吉祥寺本町1-21-13","lat":35.705318,"lon":139.582413},{"name":"中央図書館","province":"東京都","city":"武蔵野市","address":"武蔵野市吉祥寺北町4-8-3","lat":35.712769,"lon":139.566513},{"name":"ひと・まち・情報創造館武蔵野プレイス","province":"東京都","city":"武蔵野市","address":"武蔵野市境南2-3-18","lat":35.705788,"lon":139.543747},{"name":"桜堤児童館","province":"東京都","city":"武蔵野市","address":"武蔵野市桜堤2-1-29","lat":35.707576,"lon":139.532377},{"name":"中央図書館","province":"東京都","city":"武蔵野市","address":"東京都武蔵野市吉祥寺北町4丁目8-3","lat":35.71250641,"lon":139.56619043},{"name":"吉祥寺図書館","province":"東京都","city":"武蔵野市","address":"東京都武蔵野市吉祥寺本町1丁目21-13","lat":35.70499371,"lon":139.58227267},{"name":"武蔵野プレイス","province":"東京都","city":"武蔵野市","address":"東京都武蔵野市境南町2丁目3-18","lat":35.70116002,"lon":139.54368185},{"name":"桜堤児童館","province":"東京都","city":"武蔵野市","address":"武蔵野市桜堤2-1-29","lat":35.70765,"lon":139.53267},{"name":"井の頭自然文化園","province":"東京都","city":"武蔵野市","address":"武蔵野市御殿山1-17-6","lat":35.7016361,"lon":139.5712436},{"name":"＊?吉祥寺図書館","province":"東京都","city":"武蔵野市","address":"武蔵野市吉祥寺本町1-21-13","lat":35.705002,"lon":139.582266},{"name":"＊?中央図書館","province":"東京都","city":"武蔵野市","address":"武蔵野市吉祥寺北町4-8-3","lat":35.712514,"lon":139.566199},{"name":"武蔵野市民会館","province":"東京都","city":"武蔵野市","address":"武蔵野市境2-3-7","lat":35.705788,"lon":139.543747},{"name":"吉祥寺図書館","province":"東京都","city":"武蔵野市","address":"武蔵野市吉祥寺本町1-21-13","lat":35.705318,"lon":139.582413},{"name":"中央図書館","province":"東京都","city":"武蔵野市","address":"武蔵野市吉祥寺北町4-8-3","lat":35.712769,"lon":139.566513},{"name":"ひと・まち・情報創造館武蔵野プレイス","province":"東京都","city":"武蔵野市","address":"武蔵野市境南2-3-18","lat":35.705788,"lon":139.543747},{"name":"桜堤児童館","province":"東京都","city":"武蔵野市","address":"武蔵野市桜堤2-1-29","lat":35.707576,"lon":139.532377},{"name":"中央図書館","province":"東京都","city":"武蔵野市","address":"東京都武蔵野市吉祥寺北町4丁目8-3","lat":35.71250641,"lon":139.56619043},{"name":"吉祥寺図書館","province":"東京都","city":"武蔵野市","address":"東京都武蔵野市吉祥寺本町1丁目21-13","lat":35.70499371,"lon":139.58227267},{"name":"武蔵野プレイス","province":"東京都","city":"武蔵野市","address":"東京都武蔵野市境南町2丁目3-18","lat":35.70116002,"lon":139.54368185},{"name":"桜堤児童館","province":"東京都","city":"武蔵野市","address":"武蔵野市桜堤2-1-29","lat":35.70765,"lon":139.53267},{"name":"井の頭自然文化園","province":"東京都","city":"武蔵野市","address":"武蔵野市御殿山1-17-6","lat":35.7016361,"lon":139.5712436},{"name":"＊?吉祥寺図書館","province":"東京都","city":"武蔵野市","address":"武蔵野市吉祥寺本町1-21-13","lat":35.705002,"lon":139.582266},{"name":"＊?中央図書館","province":"東京都","city":"武蔵野市","address":"武蔵野市吉祥寺北町4-8-3","lat":35.712514,"lon":139.566199},{"name":"武蔵野市民会館","province":"東京都","city":"武蔵野市","address":"武蔵野市境2-3-7","lat":35.705788,"lon":139.543747},{"name":"吉祥寺図書館","province":"東京都","city":"武蔵野市","address":"武蔵野市吉祥寺本町1-21-13","lat":35.705318,"lon":139.582413},{"name":"中央図書館","province":"東京都","city":"武蔵野市","address":"武蔵野市吉祥寺北町4-8-3","lat":35.712769,"lon":139.566513},{"name":"ひと・まち・情報創造館武蔵野プレイス","province":"東京都","city":"武蔵野市","address":"武蔵野市境南2-3-18","lat":35.705788,"lon":139.543747},{"name":"桜堤児童館","province":"東京都","city":"武蔵野市","address":"武蔵野市桜堤2-1-29","lat":35.707576,"lon":139.532377},{"name":"中央図書館","province":"東京都","city":"武蔵野市","address":"東京都武蔵野市吉祥寺北町4丁目8-3","lat":35.71250641,"lon":139.56619043},{"name":"吉祥寺図書館","province":"東京都","city":"武蔵野市","address":"東京都武蔵野市吉祥寺本町1丁目21-13","lat":35.70499371,"lon":139.58227267},{"name":"武蔵野プレイス","province":"東京都","city":"武蔵野市","address":"東京都武蔵野市境南町2丁目3-18","lat":35.70116002,"lon":139.54368185},{"name":"桜堤児童館","province":"東京都","city":"武蔵野市","address":"武蔵野市桜堤2-1-29","lat":35.70765,"lon":139.53267},{"name":"井の頭自然文化園","province":"東京都","city":"武蔵野市","address":"武蔵野市御殿山1-17-6","lat":35.7016361,"lon":139.5712436},{"name":"＊?吉祥寺図書館","province":"東京都","city":"武蔵野市","address":"武蔵野市吉祥寺本町1-21-13","lat":35.705002,"lon":139.582266},{"name":"＊?中央図書館","province":"東京都","city":"武蔵野市","address":"武蔵野市吉祥寺北町4-8-3","lat":35.712514,"lon":139.566199},{"name":"武蔵野市民会館","province":"東京都","city":"武蔵野市","address":"武蔵野市境2-3-7","lat":35.705788,"lon":139.543747},{"name":"吉祥寺図書館","province":"東京都","city":"武蔵野市","address":"武蔵野市吉祥寺本町1-21-13","lat":35.705318,"lon":139.582413},{"name":"中央図書館","province":"東京都","city":"武蔵野市","address":"武蔵野市吉祥寺北町4-8-3","lat":35.712769,"lon":139.566513},{"name":"ひと・まち・情報創造館武蔵野プレイス","province":"東京都","city":"武蔵野市","address":"武蔵野市境南2-3-18","lat":35.705788,"lon":139.543747},{"name":"桜堤児童館","province":"東京都","city":"武蔵野市","address":"武蔵野市桜堤2-1-29","lat":35.707576,"lon":139.532377},{"name":"中央図書館","province":"東京都","city":"武蔵野市","address":"東京都武蔵野市吉祥寺北町4丁目8-3","lat":35.71250641,"lon":139.56619043},{"name":"吉祥寺図書館","province":"東京都","city":"武蔵野市","address":"東京都武蔵野市吉祥寺本町1丁目21-13","lat":35.70499371,"lon":139.58227267},{"name":"武蔵野プレイス","province":"東京都","city":"武蔵野市","address":"東京都武蔵野市境南町2丁目3-18","lat":35.70116002,"lon":139.54368185},{"name":"桜堤児童館","province":"東京都","city":"武蔵野市","address":"武蔵野市桜堤2-1-29","lat":35.70765,"lon":139.53267},{"name":"井の頭自然文化園","province":"東京都","city":"武蔵野市","address":"武蔵野市御殿山1-17-6","lat":35.7016361,"lon":139.5712436},{"name":"＊?吉祥寺図書館","province":"東京都","city":"武蔵野市","address":"武蔵野市吉祥寺本町1-21-13","lat":35.705002,"lon":139.582266},{"name":"＊?中央図書館","province":"東京都","city":"武蔵野市","address":"武蔵野市吉祥寺北町4-8-3","lat":35.712514,"lon":139.566199},{"name":"武蔵野市民会館","province":"東京都","city":"武蔵野市","address":"武蔵野市境2-3-7","lat":35.705788,"lon":139.543747},{"name":"吉祥寺図書館","province":"東京都","city":"武蔵野市","address":"武蔵野市吉祥寺本町1-21-13","lat":35.705318,"lon":139.582413},{"name":"中央図書館","province":"東京都","city":"武蔵野市","address":"武蔵野市吉祥寺北町4-8-3","lat":35.712769,"lon":139.566513},{"name":"ひと・まち・情報創造館武蔵野プレイス","province":"東京都","city":"武蔵野市","address":"武蔵野市境南2-3-18","lat":35.705788,"lon":139.543747},{"name":"桜堤児童館","province":"東京都","city":"武蔵野市","address":"武蔵野市桜堤2-1-29","lat":35.707576,"lon":139.532377},{"name":"中央図書館","province":"東京都","city":"武蔵野市","address":"東京都武蔵野市吉祥寺北町4丁目8-3","lat":35.71250641,"lon":139.56619043},{"name":"吉祥寺図書館","province":"東京都","city":"武蔵野市","address":"東京都武蔵野市吉祥寺本町1丁目21-13","lat":35.70499371,"lon":139.58227267},{"name":"武蔵野プレイス","province":"東京都","city":"武蔵野市","address":"東京都武蔵野市境南町2丁目3-18","lat":35.70116002,"lon":139.54368185},{"name":"桜堤児童館","province":"東京都","city":"武蔵野市","address":"武蔵野市桜堤2-1-29","lat":35.70765,"lon":139.53267},{"name":"井の頭自然文化園","province":"東京都","city":"武蔵野市","address":"武蔵野市御殿山1-17-6","lat":35.7016361,"lon":139.5712436},{"name":"＊?吉祥寺図書館","province":"東京都","city":"武蔵野市","address":"武蔵野市吉祥寺本町1-21-13","lat":35.705002,"lon":139.582266},{"name":"＊?中央図書館","province":"東京都","city":"武蔵野市","address":"武蔵野市吉祥寺北町4-8-3","lat":35.712514,"lon":139.566199},{"name":"武蔵野市民会館","province":"東京都","city":"武蔵野市","address":"武蔵野市境2-3-7","lat":35.705788,"lon":139.543747},{"name":"吉祥寺図書館","province":"東京都","city":"武蔵野市","address":"武蔵野市吉祥寺本町1-21-13","lat":35.705318,"lon":139.582413},{"name":"中央図書館","province":"東京都","city":"武蔵野市","address":"武蔵野市吉祥寺北町4-8-3","lat":35.712769,"lon":139.566513},{"name":"ひと・まち・情報創造館武蔵野プレイス","province":"東京都","city":"武蔵野市","address":"武蔵野市境南2-3-18","lat":35.705788,"lon":139.543747},{"name":"桜堤児童館","province":"東京都","city":"武蔵野市","address":"武蔵野市桜堤2-1-29","lat":35.707576,"lon":139.532377},{"name":"中央図書館","province":"東京都","city":"武蔵野市","address":"東京都武蔵野市吉祥寺北町4丁目8-3","lat":35.71250641,"lon":139.56619043},{"name":"吉祥寺図書館","province":"東京都","city":"武蔵野市","address":"東京都武蔵野市吉祥寺本町1丁目21-13","lat":35.70499371,"lon":139.58227267},{"name":"武蔵野プレイス","province":"東京都","city":"武蔵野市","address":"東京都武蔵野市境南町2丁目3-18","lat":35.70116002,"lon":139.54368185},{"name":"桜堤児童館","province":"東京都","city":"武蔵野市","address":"武蔵野市桜堤2-1-29","lat":35.70765,"lon":139.53267},{"name":"井の頭自然文化園","province":"東京都","city":"武蔵野市","address":"武蔵野市御殿山1-17-6","lat":35.7016361,"lon":139.5712436},{"name":"＊?吉祥寺図書館","province":"東京都","city":"武蔵野市","address":"武蔵野市吉祥寺本町1-21-13","lat":35.705002,"lon":139.582266},{"name":"＊?中央図書館","province":"東京都","city":"武蔵野市","address":"武蔵野市吉祥寺北町4-8-3","lat":35.712514,"lon":139.566199},{"name":"武蔵野市民会館","province":"東京都","city":"武蔵野市","address":"武蔵野市境2-3-7","lat":35.705788,"lon":139.543747},{"name":"吉祥寺図書館","province":"東京都","city":"武蔵野市","address":"武蔵野市吉祥寺本町1-21-13","lat":35.705318,"lon":139.582413},{"name":"中央図書館","province":"東京都","city":"武蔵野市","address":"武蔵野市吉祥寺北町4-8-3","lat":35.712769,"lon":139.566513},{"name":"ひと・まち・情報創造館武蔵野プレイス","province":"東京都","city":"武蔵野市","address":"武蔵野市境南2-3-18","lat":35.705788,"lon":139.543747},{"name":"桜堤児童館","province":"東京都","city":"武蔵野市","address":"武蔵野市桜堤2-1-29","lat":35.707576,"lon":139.532377},{"name":"中央図書館","province":"東京都","city":"武蔵野市","address":"東京都武蔵野市吉祥寺北町4丁目8-3","lat":35.71250641,"lon":139.56619043},{"name":"吉祥寺図書館","province":"東京都","city":"武蔵野市","address":"東京都武蔵野市吉祥寺本町1丁目21-13","lat":35.70499371,"lon":139.58227267},{"name":"武蔵野プレイス","province":"東京都","city":"武蔵野市","address":"東京都武蔵野市境南町2丁目3-18","lat":35.70116002,"lon":139.54368185},{"name":"桜堤児童館","province":"東京都","city":"武蔵野市","address":"武蔵野市桜堤2-1-29","lat":35.70765,"lon":139.53267},{"name":"＊?吉祥寺図書館","province":"東京都","city":"武蔵野市","address":"武蔵野市吉祥寺本町1-21-13","lat":35.705002,"lon":139.582266},{"name":"＊?中央図書館","province":"東京都","city":"武蔵野市","address":"武蔵野市吉祥寺北町4-8-3","lat":35.712514,"lon":139.566199},{"name":"武蔵野市民会館","province":"東京都","city":"武蔵野市","address":"武蔵野市境2-3-7","lat":35.705788,"lon":139.543747},{"name":"吉祥寺図書館","province":"東京都","city":"武蔵野市","address":"武蔵野市吉祥寺本町1-21-13","lat":35.705318,"lon":139.582413},{"name":"中央図書館","province":"東京都","city":"武蔵野市","address":"武蔵野市吉祥寺北町4-8-3","lat":35.712769,"lon":139.566513},{"name":"ひと・まち・情報創造館武蔵野プレイス","province":"東京都","city":"武蔵野市","address":"武蔵野市境南2-3-18","lat":35.705788,"lon":139.543747},{"name":"桜堤児童館","province":"東京都","city":"武蔵野市","address":"武蔵野市桜堤2-1-29","lat":35.707576,"lon":139.532377},{"name":"中央図書館","province":"東京都","city":"武蔵野市","address":"東京都武蔵野市吉祥寺北町4丁目8-3","lat":35.71250641,"lon":139.56619043},{"name":"吉祥寺図書館","province":"東京都","city":"武蔵野市","address":"東京都武蔵野市吉祥寺本町1丁目21-13","lat":35.70499371,"lon":139.58227267},{"name":"武蔵野プレイス","province":"東京都","city":"武蔵野市","address":"東京都武蔵野市境南町2丁目3-18","lat":35.70116002,"lon":139.54368185},{"name":"桜堤児童館","province":"東京都","city":"武蔵野市","address":"武蔵野市桜堤2-1-29","lat":35.70765,"lon":139.53267},{"name":"＊?吉祥寺図書館","province":"東京都","city":"武蔵野市","address":"武蔵野市吉祥寺本町1-21-13","lat":35.705002,"lon":139.582266},{"name":"＊?中央図書館","province":"東京都","city":"武蔵野市","address":"武蔵野市吉祥寺北町4-8-3","lat":35.712514,"lon":139.566199},{"name":"武蔵野市民会館","province":"東京都","city":"武蔵野市","address":"武蔵野市境2-3-7","lat":35.705788,"lon":139.543747},{"name":"吉祥寺図書館","province":"東京都","city":"武蔵野市","address":"武蔵野市吉祥寺本町1-21-13","lat":35.705318,"lon":139.582413},{"name":"中央図書館","province":"東京都","city":"武蔵野市","address":"武蔵野市吉祥寺北町4-8-3","lat":35.712769,"lon":139.566513},{"name":"ひと・まち・情報創造館武蔵野プレイス","province":"東京都","city":"武蔵野市","address":"武蔵野市境南2-3-18","lat":35.705788,"lon":139.543747},{"name":"桜堤児童館","province":"東京都","city":"武蔵野市","address":"武蔵野市桜堤2-1-29","lat":35.707576,"lon":139.532377},{"name":"中央図書館","province":"東京都","city":"武蔵野市","address":"東京都武蔵野市吉祥寺北町4丁目8-3","lat":35.71250641,"lon":139.56619043},{"name":"吉祥寺図書館","province":"東京都","city":"武蔵野市","address":"東京都武蔵野市吉祥寺本町1丁目21-13","lat":35.70499371,"lon":139.58227267},{"name":"武蔵野プレイス","province":"東京都","city":"武蔵野市","address":"東京都武蔵野市境南町2丁目3-18","lat":35.70116002,"lon":139.54368185},{"name":"桜堤児童館","province":"東京都","city":"武蔵野市","address":"武蔵野市桜堤2-1-29","lat":35.70765,"lon":139.53267},{"name":"＊?吉祥寺図書館","province":"東京都","city":"武蔵野市","address":"武蔵野市吉祥寺本町1-21-13","lat":35.705002,"lon":139.582266},{"name":"＊?中央図書館","province":"東京都","city":"武蔵野市","address":"武蔵野市吉祥寺北町4-8-3","lat":35.712514,"lon":139.566199},{"name":"武蔵野市民会館","province":"東京都","city":"武蔵野市","address":"武蔵野市境2-3-7","lat":35.705788,"lon":139.543747},{"name":"吉祥寺図書館","province":"東京都","city":"武蔵野市","address":"武蔵野市吉祥寺本町1-21-13","lat":35.705318,"lon":139.582413},{"name":"中央図書館","province":"東京都","city":"武蔵野市","address":"武蔵野市吉祥寺北町4-8-3","lat":35.712769,"lon":139.566513},{"name":"ひと・まち・情報創造館武蔵野プレイス","province":"東京都","city":"武蔵野市","address":"武蔵野市境南2-3-18","lat":35.705788,"lon":139.543747},{"name":"桜堤児童館","province":"東京都","city":"武蔵野市","address":"武蔵野市桜堤2-1-29","lat":35.707576,"lon":139.532377},{"name":"中央図書館","province":"東京都","city":"武蔵野市","address":"東京都武蔵野市吉祥寺北町4丁目8-3","lat":35.71250641,"lon":139.56619043},{"name":"吉祥寺図書館","province":"東京都","city":"武蔵野市","address":"東京都武蔵野市吉祥寺本町1丁目21-13","lat":35.70499371,"lon":139.58227267},{"name":"武蔵野プレイス","province":"東京都","city":"武蔵野市","address":"東京都武蔵野市境南町2丁目3-18","lat":35.70116002,"lon":139.54368185},{"name":"桜堤児童館","province":"東京都","city":"武蔵野市","address":"武蔵野市桜堤2-1-29","lat":35.70765,"lon":139.53267},{"name":"＊?吉祥寺図書館","province":"東京都","city":"武蔵野市","address":"武蔵野市吉祥寺本町1-21-13","lat":35.705002,"lon":139.582266},{"name":"＊?中央図書館","province":"東京都","city":"武蔵野市","address":"武蔵野市吉祥寺北町4-8-3","lat":35.712514,"lon":139.566199},{"name":"武蔵野市民会館","province":"東京都","city":"武蔵野市","address":"武蔵野市境2-3-7","lat":35.705788,"lon":139.543747},{"name":"吉祥寺図書館","province":"東京都","city":"武蔵野市","address":"武蔵野市吉祥寺本町1-21-13","lat":35.705318,"lon":139.582413},{"name":"中央図書館","province":"東京都","city":"武蔵野市","address":"武蔵野市吉祥寺北町4-8-3","lat":35.712769,"lon":139.566513},{"name":"ひと・まち・情報創造館武蔵野プレイス","province":"東京都","city":"武蔵野市","address":"武蔵野市境南2-3-18","lat":35.705788,"lon":139.543747},{"name":"桜堤児童館","province":"東京都","city":"武蔵野市","address":"武蔵野市桜堤2-1-29","lat":35.707576,"lon":139.532377},{"name":"中央図書館","province":"東京都","city":"武蔵野市","address":"東京都武蔵野市吉祥寺北町4丁目8-3","lat":35.71250641,"lon":139.56619043},{"name":"吉祥寺図書館","province":"東京都","city":"武蔵野市","address":"東京都武蔵野市吉祥寺本町1丁目21-13","lat":35.70499371,"lon":139.58227267},{"name":"武蔵野プレイス","province":"東京都","city":"武蔵野市","address":"東京都武蔵野市境南町2丁目3-18","lat":35.70116002,"lon":139.54368185},{"name":"桜堤児童館","province":"東京都","city":"武蔵野市","address":"武蔵野市桜堤2-1-29","lat":35.70765,"lon":139.53267},{"name":"＊?吉祥寺図書館","province":"東京都","city":"武蔵野市","address":"武蔵野市吉祥寺本町1-21-13","lat":35.705002,"lon":139.582266},{"name":"＊?中央図書館","province":"東京都","city":"武蔵野市","address":"武蔵野市吉祥寺北町4-8-3","lat":35.712514,"lon":139.566199},{"name":"武蔵野市民会館","province":"東京都","city":"武蔵野市","address":"武蔵野市境2-3-7","lat":35.705788,"lon":139.543747},{"name":"吉祥寺図書館","province":"東京都","city":"武蔵野市","address":"武蔵野市吉祥寺本町1-21-13","lat":35.705318,"lon":139.582413},{"name":"中央図書館","province":"東京都","city":"武蔵野市","address":"武蔵野市吉祥寺北町4-8-3","lat":35.712769,"lon":139.566513},{"name":"ひと・まち・情報創造館武蔵野プレイス","province":"東京都","city":"武蔵野市","address":"武蔵野市境南2-3-18","lat":35.705788,"lon":139.543747},{"name":"桜堤児童館","province":"東京都","city":"武蔵野市","address":"武蔵野市桜堤2-1-29","lat":35.707576,"lon":139.532377},{"name":"中央図書館","province":"東京都","city":"武蔵野市","address":"東京都武蔵野市吉祥寺北町4丁目8-3","lat":35.71250641,"lon":139.56619043},{"name":"吉祥寺図書館","province":"東京都","city":"武蔵野市","address":"東京都武蔵野市吉祥寺本町1丁目21-13","lat":35.70499371,"lon":139.58227267},{"name":"武蔵野プレイス","province":"東京都","city":"武蔵野市","address":"東京都武蔵野市境南町2丁目3-18","lat":35.70116002,"lon":139.54368185},{"name":"桜堤児童館","province":"東京都","city":"武蔵野市","address":"武蔵野市桜堤2-1-29","lat":35.70765,"lon":139.53267},{"name":"＊?吉祥寺図書館","province":"東京都","city":"武蔵野市","address":"武蔵野市吉祥寺本町1-21-13","lat":35.705002,"lon":139.582266},{"name":"＊?中央図書館","province":"東京都","city":"武蔵野市","address":"武蔵野市吉祥寺北町4-8-3","lat":35.712514,"lon":139.566199},{"name":"武蔵野市民会館","province":"東京都","city":"武蔵野市","address":"武蔵野市境2-3-7","lat":35.705788,"lon":139.543747},{"name":"吉祥寺図書館","province":"東京都","city":"武蔵野市","address":"武蔵野市吉祥寺本町1-21-13","lat":35.705318,"lon":139.582413},{"name":"中央図書館","province":"東京都","city":"武蔵野市","address":"武蔵野市吉祥寺北町4-8-3","lat":35.712769,"lon":139.566513},{"name":"ひと・まち・情報創造館武蔵野プレイス","province":"東京都","city":"武蔵野市","address":"武蔵野市境南2-3-18","lat":35.705788,"lon":139.543747},{"name":"桜堤児童館","province":"東京都","city":"武蔵野市","address":"武蔵野市桜堤2-1-29","lat":35.707576,"lon":139.532377},{"name":"中央図書館","province":"東京都","city":"武蔵野市","address":"東京都武蔵野市吉祥寺北町4丁目8-3","lat":35.71250641,"lon":139.56619043},{"name":"吉祥寺図書館","province":"東京都","city":"武蔵野市","address":"東京都武蔵野市吉祥寺本町1丁目21-13","lat":35.70499371,"lon":139.58227267},{"name":"武蔵野プレイス","province":"東京都","city":"武蔵野市","address":"東京都武蔵野市境南町2丁目3-18","lat":35.70116002,"lon":139.54368185},{"name":"桜堤児童館","province":"東京都","city":"武蔵野市","address":"武蔵野市桜堤2-1-29","lat":35.70765,"lon":139.53267},{"name":"＊?吉祥寺図書館","province":"東京都","city":"武蔵野市","address":"武蔵野市吉祥寺本町1-21-13","lat":35.705002,"lon":139.582266},{"name":"＊?中央図書館","province":"東京都","city":"武蔵野市","address":"武蔵野市吉祥寺北町4-8-3","lat":35.712514,"lon":139.566199},{"name":"武蔵野市民会館","province":"東京都","city":"武蔵野市","address":"武蔵野市境2-3-7","lat":35.705788,"lon":139.543747},{"name":"吉祥寺図書館","province":"東京都","city":"武蔵野市","address":"武蔵野市吉祥寺本町1-21-13","lat":35.705318,"lon":139.582413},{"name":"中央図書館","province":"東京都","city":"武蔵野市","address":"武蔵野市吉祥寺北町4-8-3","lat":35.712769,"lon":139.566513},{"name":"ひと・まち・情報創造館武蔵野プレイス","province":"東京都","city":"武蔵野市","address":"武蔵野市境南2-3-18","lat":35.705788,"lon":139.543747},{"name":"桜堤児童館","province":"東京都","city":"武蔵野市","address":"武蔵野市桜堤2-1-29","lat":35.707576,"lon":139.532377},{"name":"中央図書館","province":"東京都","city":"武蔵野市","address":"東京都武蔵野市吉祥寺北町4丁目8-3","lat":35.71250641,"lon":139.56619043},{"name":"吉祥寺図書館","province":"東京都","city":"武蔵野市","address":"東京都武蔵野市吉祥寺本町1丁目21-13","lat":35.70499371,"lon":139.58227267},{"name":"武蔵野プレイス","province":"東京都","city":"武蔵野市","address":"東京都武蔵野市境南町2丁目3-18","lat":35.70116002,"lon":139.54368185},{"name":"桜堤児童館","province":"東京都","city":"武蔵野市","address":"武蔵野市桜堤2-1-29","lat":35.70765,"lon":139.53267},{"name":"＊?吉祥寺図書館","province":"東京都","city":"武蔵野市","address":"武蔵野市吉祥寺本町1-21-13","lat":35.705002,"lon":139.582266},{"name":"＊?中央図書館","province":"東京都","city":"武蔵野市","address":"武蔵野市吉祥寺北町4-8-3","lat":35.712514,"lon":139.566199},{"name":"武蔵野市民会館","province":"東京都","city":"武蔵野市","address":"武蔵野市境2-3-7","lat":35.705788,"lon":139.543747},{"name":"吉祥寺図書館","province":"東京都","city":"武蔵野市","address":"武蔵野市吉祥寺本町1-21-13","lat":35.705318,"lon":139.582413},{"name":"中央図書館","province":"東京都","city":"武蔵野市","address":"武蔵野市吉祥寺北町4-8-3","lat":35.712769,"lon":139.566513},{"name":"ひと・まち・情報創造館武蔵野プレイス","province":"東京都","city":"武蔵野市","address":"武蔵野市境南2-3-18","lat":35.705788,"lon":139.543747},{"name":"桜堤児童館","province":"東京都","city":"武蔵野市","address":"武蔵野市桜堤2-1-29","lat":35.707576,"lon":139.532377},{"name":"中央図書館","province":"東京都","city":"武蔵野市","address":"東京都武蔵野市吉祥寺北町4丁目8-3","lat":35.71250641,"lon":139.56619043},{"name":"吉祥寺図書館","province":"東京都","city":"武蔵野市","address":"東京都武蔵野市吉祥寺本町1丁目21-13","lat":35.70499371,"lon":139.58227267},{"name":"武蔵野プレイス","province":"東京都","city":"武蔵野市","address":"東京都武蔵野市境南町2丁目3-18","lat":35.70116002,"lon":139.54368185},{"name":"桜堤児童館","province":"東京都","city":"武蔵野市","address":"武蔵野市桜堤2-1-29","lat":35.70765,"lon":139.53267},{"name":"＊?吉祥寺図書館","province":"東京都","city":"武蔵野市","address":"武蔵野市吉祥寺本町1-21-13","lat":35.705002,"lon":139.582266},{"name":"＊?中央図書館","province":"東京都","city":"武蔵野市","address":"武蔵野市吉祥寺北町4-8-3","lat":35.712514,"lon":139.566199},{"name":"武蔵野市民会館","province":"東京都","city":"武蔵野市","address":"武蔵野市境2-3-7","lat":35.705788,"lon":139.543747},{"name":"吉祥寺図書館","province":"東京都","city":"武蔵野市","address":"武蔵野市吉祥寺本町1-21-13","lat":35.705318,"lon":139.582413},{"name":"中央図書館","province":"東京都","city":"武蔵野市","address":"武蔵野市吉祥寺北町4-8-3","lat":35.712769,"lon":139.566513},{"name":"ひと・まち・情報創造館武蔵野プレイス","province":"東京都","city":"武蔵野市","address":"武蔵野市境南2-3-18","lat":35.705788,"lon":139.543747},{"name":"桜堤児童館","province":"東京都","city":"武蔵野市","address":"武蔵野市桜堤2-1-29","lat":35.707576,"lon":139.532377},{"name":"中央図書館","province":"東京都","city":"武蔵野市","address":"東京都武蔵野市吉祥寺北町4丁目8-3","lat":35.71250641,"lon":139.56619043},{"name":"吉祥寺図書館","province":"東京都","city":"武蔵野市","address":"東京都武蔵野市吉祥寺本町1丁目21-13","lat":35.70499371,"lon":139.58227267},{"name":"武蔵野プレイス","province":"東京都","city":"武蔵野市","address":"東京都武蔵野市境南町2丁目3-18","lat":35.70116002,"lon":139.54368185},{"name":"桜堤児童館","province":"東京都","city":"武蔵野市","address":"武蔵野市桜堤2-1-29","lat":35.70765,"lon":139.53267},{"name":"＊?吉祥寺図書館","province":"東京都","city":"武蔵野市","address":"武蔵野市吉祥寺本町1-21-13","lat":35.705002,"lon":139.582266},{"name":"＊?中央図書館","province":"東京都","city":"武蔵野市","address":"武蔵野市吉祥寺北町4-8-3","lat":35.712514,"lon":139.566199},{"name":"武蔵野市民会館","province":"東京都","city":"武蔵野市","address":"武蔵野市境2-3-7","lat":35.705788,"lon":139.543747},{"name":"吉祥寺図書館","province":"東京都","city":"武蔵野市","address":"武蔵野市吉祥寺本町1-21-13","lat":35.705318,"lon":139.582413},{"name":"中央図書館","province":"東京都","city":"武蔵野市","address":"武蔵野市吉祥寺北町4-8-3","lat":35.712769,"lon":139.566513},{"name":"ひと・まち・情報創造館武蔵野プレイス","province":"東京都","city":"武蔵野市","address":"武蔵野市境南2-3-18","lat":35.705788,"lon":139.543747},{"name":"桜堤児童館","province":"東京都","city":"武蔵野市","address":"武蔵野市桜堤2-1-29","lat":35.707576,"lon":139.532377},{"name":"中央図書館","province":"東京都","city":"武蔵野市","address":"東京都武蔵野市吉祥寺北町4丁目8-3","lat":35.71250641,"lon":139.56619043},{"name":"吉祥寺図書館","province":"東京都","city":"武蔵野市","address":"東京都武蔵野市吉祥寺本町1丁目21-13","lat":35.70499371,"lon":139.58227267},{"name":"武蔵野プレイス","province":"東京都","city":"武蔵野市","address":"東京都武蔵野市境南町2丁目3-18","lat":35.70116002,"lon":139.54368185},{"name":"桜堤児童館","province":"東京都","city":"武蔵野市","address":"武蔵野市桜堤2-1-29","lat":35.70765,"lon":139.53267},{"name":"＊?吉祥寺図書館","province":"東京都","city":"武蔵野市","address":"武蔵野市吉祥寺本町1-21-13","lat":35.705002,"lon":139.582266},{"name":"＊?中央図書館","province":"東京都","city":"武蔵野市","address":"武蔵野市吉祥寺北町4-8-3","lat":35.712514,"lon":139.566199},{"name":"武蔵野市民会館","province":"東京都","city":"武蔵野市","address":"武蔵野市境2-3-7","lat":35.705788,"lon":139.543747},{"name":"吉祥寺図書館","province":"東京都","city":"武蔵野市","address":"武蔵野市吉祥寺本町1-21-13","lat":35.705318,"lon":139.582413},{"name":"中央図書館","province":"東京都","city":"武蔵野市","address":"武蔵野市吉祥寺北町4-8-3","lat":35.712769,"lon":139.566513},{"name":"ひと・まち・情報創造館武蔵野プレイス","province":"東京都","city":"武蔵野市","address":"武蔵野市境南2-3-18","lat":35.705788,"lon":139.543747},{"name":"桜堤児童館","province":"東京都","city":"武蔵野市","address":"武蔵野市桜堤2-1-29","lat":35.707576,"lon":139.532377},{"name":"中央図書館","province":"東京都","city":"武蔵野市","address":"東京都武蔵野市吉祥寺北町4丁目8-3","lat":35.71250641,"lon":139.56619043},{"name":"吉祥寺図書館","province":"東京都","city":"武蔵野市","address":"東京都武蔵野市吉祥寺本町1丁目21-13","lat":35.70499371,"lon":139.58227267},{"name":"武蔵野プレイス","province":"東京都","city":"武蔵野市","address":"東京都武蔵野市境南町2丁目3-18","lat":35.70116002,"lon":139.54368185},{"name":"桜堤児童館","province":"東京都","city":"武蔵野市","address":"武蔵野市桜堤2-1-29","lat":35.70765,"lon":139.53267},{"name":"＊?吉祥寺図書館","province":"東京都","city":"武蔵野市","address":"武蔵野市吉祥寺本町1-21-13","lat":35.705002,"lon":139.582266},{"name":"＊?中央図書館","province":"東京都","city":"武蔵野市","address":"武蔵野市吉祥寺北町4-8-3","lat":35.712514,"lon":139.566199},{"name":"武蔵野市民会館","province":"東京都","city":"武蔵野市","address":"武蔵野市境2-3-7","lat":35.705788,"lon":139.543747},{"name":"吉祥寺図書館","province":"東京都","city":"武蔵野市","address":"武蔵野市吉祥寺本町1-21-13","lat":35.705318,"lon":139.582413},{"name":"中央図書館","province":"東京都","city":"武蔵野市","address":"武蔵野市吉祥寺北町4-8-3","lat":35.712769,"lon":139.566513},{"name":"ひと・まち・情報創造館武蔵野プレイス","province":"東京都","city":"武蔵野市","address":"武蔵野市境南2-3-18","lat":35.705788,"lon":139.543747},{"name":"桜堤児童館","province":"東京都","city":"武蔵野市","address":"武蔵野市桜堤2-1-29","lat":35.707576,"lon":139.532377},{"name":"中央図書館","province":"東京都","city":"武蔵野市","address":"東京都武蔵野市吉祥寺北町4丁目8-3","lat":35.71250641,"lon":139.56619043},{"name":"吉祥寺図書館","province":"東京都","city":"武蔵野市","address":"東京都武蔵野市吉祥寺本町1丁目21-13","lat":35.70499371,"lon":139.58227267},{"name":"武蔵野プレイス","province":"東京都","city":"武蔵野市","address":"東京都武蔵野市境南町2丁目3-18","lat":35.70116002,"lon":139.54368185},{"name":"桜堤児童館","province":"東京都","city":"武蔵野市","address":"武蔵野市桜堤2-1-29","lat":35.70765,"lon":139.53267},{"name":"＊?吉祥寺図書館","province":"東京都","city":"武蔵野市","address":"武蔵野市吉祥寺本町1-21-13","lat":35.705002,"lon":139.582266},{"name":"＊?中央図書館","province":"東京都","city":"武蔵野市","address":"武蔵野市吉祥寺北町4-8-3","lat":35.712514,"lon":139.566199},{"name":"武蔵野市民会館","province":"東京都","city":"武蔵野市","address":"武蔵野市境2-3-7","lat":35.705788,"lon":139.543747},{"name":"吉祥寺図書館","province":"東京都","city":"武蔵野市","address":"武蔵野市吉祥寺本町1-21-13","lat":35.705318,"lon":139.582413},{"name":"中央図書館","province":"東京都","city":"武蔵野市","address":"武蔵野市吉祥寺北町4-8-3","lat":35.712769,"lon":139.566513},{"name":"ひと・まち・情報創造館武蔵野プレイス","province":"東京都","city":"武蔵野市","address":"武蔵野市境南2-3-18","lat":35.705788,"lon":139.543747}]}