{"category":"park","data":[{"name":"大島のサクラ株","province":"東京都","city":"大島町","address":"東京都大島町泉津","lat":34.78307496,"lon":139.41375561},{"name":"カモシカ","province":"東京都","city":"大島町","address":"東京都大島町泉津","lat":34.78307496,"lon":139.41375561},{"name":"シイノキ山のシイノキ群叢","province":"東京都","city":"大島町","address":"東京都大島町泉津","lat":34.78307496,"lon":139.41375561},{"name":"大島海浜植物群落","province":"東京都","city":"大島町","address":"東京都大島町泉津","lat":34.78307496,"lon":139.41375561},{"name":"オジロワシ","province":"東京都","city":"大島町","address":"東京都大島町泉津","lat":34.78307496,"lon":139.41375561},{"name":"コクガン","province":"東京都","city":"大島町","address":"東京都大島町泉津","lat":34.78307496,"lon":139.41375561},{"name":"マガン","province":"東京都","city":"大島町","address":"東京都大島町泉津","lat":34.78307496,"lon":139.41375561},{"name":"鉄砲場の岩陰遺跡","province":"東京都","city":"大島町","address":"東京都大島町泉津","lat":34.78307496,"lon":139.41375561},{"name":"大島下高洞遺跡","province":"東京都","city":"大島町","address":"東京都大島町元町","lat":34.75069975,"lon":139.35458395},{"name":"大島竜の口遺跡","province":"東京都","city":"大島町","address":"東京都大島町野増","lat":34.73029943,"lon":139.35466575},{"name":"役行者窟","province":"東京都","city":"大島町","address":"東京都大島町泉津","lat":34.78307496,"lon":139.41375561},{"name":"秋広平六墓","province":"東京都","city":"大島町","address":"東京都大島町波浮港","lat":34.68677239,"lon":139.44189881},{"name":"差木地の大クス","province":"東京都","city":"大島町","address":"東京都大島町差木地","lat":34.68312246,"lon":139.41394612},{"name":"潮吹の鼻","province":"東京都","city":"大島町","address":"東京都大島町泉津","lat":34.78307496,"lon":139.41375561},{"name":"おたいね浦の岩脈と筆島","province":"東京都","city":"大島町","address":"東京都大島町波浮港","lat":34.68677239,"lon":139.44189881},{"name":"野増大宮神社の十二座神楽","province":"東京都","city":"大島町","address":"東京都大島町野増大宮上手（字）","lat":34.73296069,"lon":139.37116714},{"name":"大島町役場","province":"東京都","city":"大島町","address":"大島町元町1-1-14","lat":34.750153,"lon":139.355511},{"name":"東京都大島支庁","province":"東京都","city":"大島町","address":"大島町元町字オンダシ222-1","lat":34.757486,"lon":139.357651},{"name":"東京都大島支庁総務課","province":"東京都","city":"大島町","address":"大島町元町字オンダシ222-1","lat":34.757486,"lon":139.357651},{"name":"東京都大島支庁総務課（福祉担当）","province":"東京都","city":"大島町","address":"大島町元町字オンダシ222-1","lat":34.757486,"lon":139.357651},{"name":"東京都大島支庁産業課","province":"東京都","city":"大島町","address":"大島町元町字オンダシ222-1","lat":34.757486,"lon":139.357651},{"name":"東京都大島支庁土木課","province":"東京都","city":"大島町","address":"大島町元町字オンダシ222-1","lat":34.757486,"lon":139.357651},{"name":"東京都大島支庁港湾課","province":"東京都","city":"大島町","address":"大島町元町字オンダシ222-1","lat":34.757486,"lon":139.357651},{"name":"東京都大島支庁大島港湾空港管理事務所","province":"東京都","city":"大島町","address":"大島町元町字北の山270","lat":34.782519,"lon":139.363327},{"name":"東京都大島支庁大島公園事務所","province":"東京都","city":"大島町","address":"大島町泉津字福重2","lat":34.761133,"lon":139.43446},{"name":"東京都教育庁大島出張所","province":"東京都","city":"大島町","address":"大島町元町字オンダシ222-1","lat":34.757485,"lon":139.35765},{"name":"東京都島しょ保健所大島出張所","province":"東京都","city":"大島町","address":"大島町元町字馬の背275-4","lat":34.756842,"lon":139.358126},{"name":"島しょ農林水産総合センター大島事業所（水産）","province":"東京都","city":"大島町","address":"大島町波浮港18","lat":34.684806,"lon":139.437424},{"name":"島しょ農林水産総合センター大島事業所（農業）","province":"東京都","city":"大島町","address":"大島町元町小清水273-1","lat":34.758549,"lon":139.361164},{"name":"東京都立大島高等学校","province":"東京都","city":"大島町","address":"大島町元町字八重の水127","lat":34.765449,"lon":139.359906},{"name":"東京都立大島海洋国際高等学校","province":"東京都","city":"大島町","address":"大島町差木地字下原996","lat":34.681949,"lon":139.432619},{"name":"東京都海区漁業調整委員会大島分室","province":"東京都","city":"大島町","address":"大島町元町字オンダシ222-1","lat":34.757485,"lon":139.35765},{"name":"警視庁大島警察署","province":"東京都","city":"大島町","address":"大島町元町1-15-6","lat":34.752784,"lon":139.354974},{"name":"東京都栽培漁業センター","province":"東京都","city":"大島町","address":"大島町元町字和泉99-5","lat":34.769048,"lon":139.352981},{"name":"伊豆大島簡易裁判所","province":"東京都","city":"大島町","address":"大島町元町字家の上445-10","lat":34.749828,"lon":139.363783},{"name":"伊豆大島区検察庁","province":"東京都","city":"大島町","address":"大島町元町字家の上445-9","lat":34.749811,"lon":139.363192},{"name":"東京大学地震研究所　伊豆大島火山観測所","province":"東京都","city":"大島町","address":"大島町元町字黒まま346","lat":34.75428,"lon":139.362597},{"name":"気象庁　伊豆大島火山防災連絡事務所","province":"東京都","city":"大島町","address":"大島町元町1-1-14(大島町役場内)","lat":34.750255,"lon":139.355384},{"name":"東京航空地方気象台　大島航空気象観測所","province":"東京都","city":"大島町","address":"大島町元町字北の山270-1(大島空港内)","lat":34.783191,"lon":139.363547},{"name":"東京航空局大島空港出張所","province":"東京都","city":"大島町","address":"大島町元町字北の山270-1","lat":34.783191,"lon":139.363547},{"name":"新島区検察庁","province":"東京都","city":"大島町","address":"大島町元町字家の上445-9","lat":34.749811,"lon":139.363192},{"name":"カラスバト","province":"東京都","city":"大島町","address":"東京都大島町泉津","lat":34.78307496,"lon":139.41375561},{"name":"元町のハマンカー（南井戸）","province":"東京都","city":"大島町","address":"東京都大島町元町","lat":34.75069975,"lon":139.35458395},{"name":"赤穂義士　間瀬定八の墓","province":"東京都","city":"大島町","address":"東京都大島町元町","lat":34.75069975,"lon":139.35458395},{"name":"力士　大島伝吉の碑（勇鑑石とも）","province":"東京都","city":"大島町","address":"東京都大島町岡田","lat":34.78878237,"lon":139.39285739},{"name":"粟本佐次朗記念碑（テリコの碑）","province":"東京都","city":"大島町","address":"東京都大島町岡田","lat":34.78878237,"lon":139.39285739},{"name":"波浮港開港碑","province":"東京都","city":"大島町","address":"東京都大島町波浮港","lat":34.68677239,"lon":139.44189881},{"name":"環境省伊豆諸島自然保護官事務所","province":"東京都","city":"大島町","address":"大島町元町字家の上445-9","lat":34.749811,"lon":139.363192}]}